timestamp,TimeUS,C1,C2,C3,C4,C5,C6,C7,C8,C9,C10,C11,C12,C13,C14
1706514938.00000000,60028479,1000,1000,1000,1000,0,0,0,0,0,0,0,0,0,0
1706514938.09995985,60128439,1000,1000,1000,1000,0,0,0,0,0,0,0,0,0,0
1706514938.19991994,60228399,1000,1000,1000,1000,0,0,0,0,0,0,0,0,0,0
1706514938.29987979,60328359,1000,1000,1000,1000,0,0,0,0,0,0,0,0,0,0
1706514938.39983988,60428319,1000,1000,1000,1000,0,0,0,0,0,0,0,0,0,0
1706514938.49979997,60528279,1000,1000,1000,1000,0,0,0,0,0,0,0,0,0,0
1706514938.59975982,60628239,1000,1000,1000,1000,0,0,0,0,0,0,0,0,0,0
1706514938.69971991,60728199,1000,1000,1000,1000,0,0,0,0,0,0,0,0,0,0
1706514938.79967999,60828159,1000,1000,1000,1000,0,0,0,0,0,0,0,0,0,0
1706514938.90047288,60928952,1000,1000,1000,1000,0,0,0,0,0,0,0,0,0,0
1706514939.00043297,61028912,1000,1000,1000,1000,0,0,0,0,0,0,0,0,0,0
1706514939.10039282,61128872,1000,1000,1000,1000,0,0,0,0,0,0,0,0,0,0
1706514939.20035291,61228832,1000,1000,1000,1000,0,0,0,0,0,0,0,0,0,0
1706514939.30031300,61328792,1000,1000,1000,1000,0,0,0,0,0,0,0,0,0,0
1706514939.40027285,61428752,1000,1000,1000,1000,0,0,0,0,0,0,0,0,0,0
1706514939.50023293,61528712,1000,1000,1000,1000,0,0,0,0,0,0,0,0,0,0
1706514939.60019279,61628672,1000,1000,1000,1000,0,0,0,0,0,0,0,0,0,0
1706514939.70015287,61728632,1000,1000,1000,1000,0,0,0,0,0,0,0,0,0,0
1706514939.80011296,61828592,1000,1000,1000,1000,0,0,0,0,0,0,0,0,0,0
1706514939.90007281,61928552,1000,1000,1000,1000,0,0,0,0,0,0,0,0,0,0
1706514940.00003290,62028512,1005,1005,1005,1005,0,0,0,0,0,0,0,0,0,0
1706514940.09999299,62128472,1035,1035,1035,1035,0,0,0,0,0,0,0,0,0,0
1706514940.19995284,62228432,1065,1065,1065,1065,0,0,0,0,0,0,0,0,0,0
1706514940.29991293,62328392,1095,1095,1095,1095,0,0,0,0,0,0,0,0,0,0
1706514940.39987302,62428352,1125,1125,1125,1125,0,0,0,0,0,0,0,0,0,0
1706514940.49983287,62528312,1201,1192,1192,1201,0,0,0,0,0,0,0,0,0,0
1706514940.59979296,62628272,1435,1428,1429,1435,0,0,0,0,0,0,0,0,0,0
1706514940.69975281,62728232,1607,1601,1602,1608,0,0,0,0,0,0,0,0,0,0
1706514940.79971290,62828192,1750,1745,1745,1751,0,0,0,0,0,0,0,0,0,0
1706514940.90050602,62928985,1875,1871,1870,1876,0,0,0,0,0,0,0,0,0,0
1706514941.00046587,63028945,1918,1914,1915,1918,0,0,0,0,0,0,0,0,0,0
1706514941.10042596,63128905,1806,1805,1805,1806,0,0,0,0,0,0,0,0,0,0
1706514941.20038581,63228865,1688,1689,1686,1691,0,0,0,0,0,0,0,0,0,0
1706514941.30034590,63328825,1637,1639,1634,1642,0,0,0,0,0,0,0,0,0,0
1706514941.40030599,63428785,1631,1633,1631,1634,0,0,0,0,0,0,0,0,0,0
1706514941.50026584,63528745,1637,1638,1638,1636,0,0,0,0,0,0,0,0,0,0
1706514941.60022593,63628705,1637,1638,1640,1635,0,0,0,0,0,0,0,0,0,0
1706514941.70018601,63728665,1633,1632,1635,1630,0,0,0,0,0,0,0,0,0,0
1706514941.80014586,63828625,1625,1625,1626,1623,0,0,0,0,0,0,0,0,0,0
1706514941.90010595,63928585,1619,1618,1619,1617,0,0,0,0,0,0,0,0,0,0
1706514942.00006580,64028545,1616,1616,1616,1615,0,0,0,0,0,0,0,0,0,0
1706514942.10002589,64128505,1612,1612,1612,1611,0,0,0,0,0,0,0,0,0,0
1706514942.19998598,64228465,1582,1583,1590,1575,0,0,0,0,0,0,0,0,0,0
1706514942.29994583,64328425,1570,1570,1575,1564,0,0,0,0,0,0,0,0,0,0
1706514942.39990592,64428385,1559,1559,1559,1558,0,0,0,0,0,0,0,0,0,0
1706514942.49986601,64528345,1551,1551,1547,1554,0,0,0,0,0,0,0,0,0,0
1706514942.59982586,64628305,1544,1543,1537,1550,0,0,0,0,0,0,0,0,0,0
1706514942.69978595,64728265,1538,1537,1529,1546,0,0,0,0,0,0,0,0,0,0
1706514942.79974580,64828225,1533,1532,1526,1538,0,0,0,0,0,0,0,0,0,0
1706514942.89970589,64928185,1528,1528,1525,1530,0,0,0,0,0,0,0,0,0,0
1706514943.00049901,65028978,1524,1524,1524,1523,0,0,0,0,0,0,0,0,0,0
1706514943.10045886,65128938,1525,1526,1527,1524,0,0,0,0,0,0,0,0,0,0
1706514943.20041895,65228898,1528,1528,1531,1526,0,0,0,0,0,0,0,0,0,0
1706514943.30037880,65328858,1531,1531,1534,1529,0,0,0,0,0,0,0,0,0,0
1706514943.40033889,65428818,1536,1536,1539,1534,0,0,0,0,0,0,0,0,0,0
1706514943.50029898,65528778,1539,1539,1541,1538,0,0,0,0,0,0,0,0,0,0
1706514943.60025883,65628738,1543,1543,1544,1542,0,0,0,0,0,0,0,0,0,0
1706514943.70021892,65728698,1547,1547,1547,1547,0,0,0,0,0,0,0,0,0,0
1706514943.80017900,65828658,1549,1549,1549,1549,0,0,0,0,0,0,0,0,0,0
1706514943.90013885,65928618,1552,1552,1551,1553,0,0,0,0,0,0,0,0,0,0
1706514944.00009894,66028578,1555,1555,1554,1556,0,0,0,0,0,0,0,0,0,0
1706514944.10005879,66128538,1555,1554,1558,1561,0,0,0,0,0,0,0,0,0,0
1706514944.20001888,66228498,1555,1556,1562,1563,0,0,0,0,0,0,0,0,0,0
1706514944.29997897,66328458,1557,1557,1563,1563,0,0,0,0,0,0,0,0,0,0
1706514944.39993882,66428418,1559,1560,1564,1564,0,0,0,0,0,0,0,0,0,0
1706514944.49989891,66528378,1563,1562,1565,1565,0,0,0,0,0,0,0,0,0,0
1706514944.59985900,66628338,1566,1566,1567,1566,0,0,0,0,0,0,0,0,0,0
1706514944.69981885,66728298,1567,1568,1566,1566,0,0,0,0,0,0,0,0,0,0
1706514944.79977894,66828258,1569,1570,1567,1567,0,0,0,0,0,0,0,0,0,0
1706514944.89973879,66928218,1571,1570,1567,1567,0,0,0,0,0,0,0,0,0,0
1706514944.99969888,67028178,1572,1571,1568,1568,0,0,0,0,0,0,0,0,0,0
1706514945.10049200,67128971,1572,1572,1569,1569,0,0,0,0,0,0,0,0,0,0
1706514945.20045185,67228931,1573,1574,1570,1570,0,0,0,0,0,0,0,0,0,0
1706514945.30041194,67328891,1574,1574,1571,1571,0,0,0,0,0,0,0,0,0,0
1706514945.40037179,67428851,1573,1573,1571,1571,0,0,0,0,0,0,0,0,0,0
1706514945.50033188,67528811,1574,1574,1573,1572,0,0,0,0,0,0,0,0,0,0
1706514945.60029197,67628771,1574,1574,1574,1573,0,0,0,0,0,0,0,0,0,0
1706514945.70025182,67728731,1575,1574,1576,1574,0,0,0,0,0,0,0,0,0,0
1706514945.80021191,67828691,1574,1574,1574,1574,0,0,0,0,0,0,0,0,0,0
1706514945.90017200,67928651,1575,1575,1576,1576,0,0,0,0,0,0,0,0,0,0
1706514946.00013185,68028611,1575,1575,1577,1576,0,0,0,0,0,0,0,0,0,0
1706514946.10009193,68128571,1575,1575,1576,1576,0,0,0,0,0,0,0,0,0,0
1706514946.20005178,68228531,1576,1576,1577,1577,0,0,0,0,0,0,0,0,0,0
1706514946.30001187,68328491,1575,1575,1576,1576,0,0,0,0,0,0,0,0,0,0
1706514946.39997196,68428451,1576,1576,1576,1576,0,0,0,0,0,0,0,0,0,0
1706514946.49993181,68528411,1576,1576,1576,1576,0,0,0,0,0,0,0,0,0,0
1706514946.59989190,68628371,1576,1576,1577,1576,0,0,0,0,0,0,0,0,0,0
1706514946.69985199,68728331,1576,1576,1575,1575,0,0,0,0,0,0,0,0,0,0
1706514946.79981184,68828291,1577,1577,1576,1576,0,0,0,0,0,0,0,0,0,0
1706514946.89977193,68928251,1579,1578,1578,1578,0,0,0,0,0,0,0,0,0,0
1706514946.99973202,69028211,1578,1578,1578,1577,0,0,0,0,0,0,0,0,0,0
1706514947.09969187,69128171,1579,1579,1579,1579,0,0,0,0,0,0,0,0,0,0
1706514947.20048499,69228964,1579,1580,1579,1579,0,0,0,0,0,0,0,0,0,0
1706514947.30044484,69328924,1579,1579,1579,1579,0,0,0,0,0,0,0,0,0,0
1706514947.40040493,69428884,1579,1579,1579,1579,0,0,0,0,0,0,0,0,0,0
1706514947.50036502,69528844,1578,1578,1578,1578,0,0,0,0,0,0,0,0,0,0
1706514947.60032487,69628804,1578,1578,1579,1579,0,0,0,0,0,0,0,0,0,0
1706514947.70028496,69728764,1578,1578,1579,1579,0,0,0,0,0,0,0,0,0,0
1706514947.80024481,69828724,1579,1580,1579,1580,0,0,0,0,0,0,0,0,0,0
1706514947.90020490,69928684,1578,1578,1578,1579,0,0,0,0,0,0,0,0,0,0
1706514948.00016499,70028644,1579,1579,1579,1579,0,0,0,0,0,0,0,0,0,0
1706514948.10012484,70128604,1580,1580,1580,1580,0,0,0,0,0,0,0,0,0,0
1706514948.20008492,70228564,1579,1579,1580,1579,0,0,0,0,0,0,0,0,0,0
1706514948.30004501,70328524,1580,1580,1580,1580,0,0,0,0,0,0,0,0,0,0
1706514948.40000486,70428484,1579,1579,1579,1579,0,0,0,0,0,0,0,0,0,0
1706514948.49996495,70528444,1579,1578,1579,1579,0,0,0,0,0,0,0,0,0,0
1706514948.59992480,70628404,1579,1579,1579,1579,0,0,0,0,0,0,0,0,0,0
1706514948.69988489,70728364,1579,1579,1579,1579,0,0,0,0,0,0,0,0,0,0
1706514948.79984498,70828324,1579,1579,1579,1579,0,0,0,0,0,0,0,0,0,0
1706514948.89980483,70928284,1579,1579,1579,1579,0,0,0,0,0,0,0,0,0,0
1706514948.99976492,71028244,1579,1579,1579,1579,0,0,0,0,0,0,0,0,0,0
1706514949.09972501,71128204,1580,1580,1580,1580,0,0,0,0,0,0,0,0,0,0
1706514949.19968486,71228164,1580,1579,1579,1580,0,0,0,0,0,0,0,0,0,0
1706514949.30047798,71328957,1581,1580,1580,1580,0,0,0,0,0,0,0,0,0,0
1706514949.40043783,71428917,1580,1580,1580,1580,0,0,0,0,0,0,0,0,0,0
1706514949.50039792,71528877,1581,1581,1581,1581,0,0,0,0,0,0,0,0,0,0
1706514949.60035801,71628837,1580,1581,1581,1580,0,0,0,0,0,0,0,0,0,0
1706514949.70031786,71728797,1580,1580,1580,1580,0,0,0,0,0,0,0,0,0,0
1706514949.80027795,71828757,1581,1581,1581,1581,0,0,0,0,0,0,0,0,0,0
1706514949.90023780,71928717,1580,1580,1580,1580,0,0,0,0,0,0,0,0,0,0
1706514950.00019789,72028677,1581,1581,1581,1581,0,0,0,0,0,0,0,0,0,0
1706514950.10015798,72128637,1580,1580,1580,1580,0,0,0,0,0,0,0,0,0,0
1706514950.20011783,72228597,1581,1581,1581,1581,0,0,0,0,0,0,0,0,0,0
1706514950.30007792,72328557,1580,1581,1587,1574,0,0,0,0,0,0,0,0,0,0
1706514950.40003800,72428517,1579,1582,1585,1572,0,0,0,0,0,0,0,0,0,0
1706514950.49999785,72528477,1579,1582,1578,1574,0,0,0,0,0,0,0,0,0,0
1706514950.59995794,72628437,1578,1580,1569,1573,0,0,0,0,0,0,0,0,0,0
1706514950.69991779,72728397,1577,1580,1562,1569,0,0,0,0,0,0,0,0,0,0
1706514950.79987788,72828357,1577,1578,1557,1564,0,0,0,0,0,0,0,0,0,0
1706514950.89983797,72928317,1578,1577,1555,1559,0,0,0,0,0,0,0,0,0,0
1706514950.99979782,73028277,1579,1577,1555,1555,0,0,0,0,0,0,0,0,0,0
1706514951.09975791,73128237,1579,1578,1556,1554,0,0,0,0,0,0,0,0,0,0
1706514951.19971800,73228197,1578,1577,1556,1553,0,0,0,0,0,0,0,0,0,0
1706514951.29967785,73328157,1577,1577,1555,1553,0,0,0,0,0,0,0,0,0,0
1706514951.40047097,73428950,1576,1577,1555,1554,0,0,0,0,0,0,0,0,0,0
1706514951.50043082,73528910,1575,1577,1555,1554,0,0,0,0,0,0,0,0,0,0
1706514951.60039091,73628870,1574,1576,1553,1553,0,0,0,0,0,0,0,0,0,0
1706514951.70035100,73728830,1575,1577,1552,1552,0,0,0,0,0,0,0,0,0,0
1706514951.80031085,73828790,1576,1578,1550,1551,0,0,0,0,0,0,0,0,0,0
1706514951.90027094,73928750,1578,1578,1547,1548,0,0,0,0,0,0,0,0,0,0
1706514952.00023079,74028710,1581,1582,1546,1546,0,0,0,0,0,0,0,0,0,0
1706514952.10019088,74128670,1583,1584,1543,1542,0,0,0,0,0,0,0,0,0,0
1706514952.20015097,74228630,1587,1588,1541,1540,0,0,0,0,0,0,0,0,0,0
1706514952.30011082,74328590,1591,1591,1539,1539,0,0,0,0,0,0,0,0,0,0
1706514952.40007091,74428550,1593,1594,1537,1537,0,0,0,0,0,0,0,0,0,0
1706514952.50003099,74528510,1595,1594,1535,1536,0,0,0,0,0,0,0,0,0,0
1706514952.59999084,74628470,1596,1596,1536,1537,0,0,0,0,0,0,0,0,0,0
1706514952.69995093,74728430,1595,1595,1537,1538,0,0,0,0,0,0,0,0,0,0
1706514952.79991078,74828390,1593,1593,1539,1542,0,0,0,0,0,0,0,0,0,0
1706514952.89987087,74928350,1590,1588,1545,1548,0,0,0,0,0,0,0,0,0,0
1706514952.99983096,75028310,1584,1582,1552,1555,0,0,0,0,0,0,0,0,0,0
1706514953.09979081,75128270,1576,1572,1562,1564,0,0,0,0,0,0,0,0,0,0
1706514953.19975090,75228230,1566,1562,1574,1575,0,0,0,0,0,0,0,0,0,0
1706514953.29971099,75328190,1554,1550,1586,1586,0,0,0,0,0,0,0,0,0,0
1706514953.40050387,75428983,1544,1542,1597,1598,0,0,0,0,0,0,0,0,0,0
1706514953.50046396,75528943,1535,1534,1606,1605,0,0,0,0,0,0,0,0,0,0
1706514953.60042381,75628903,1529,1530,1611,1611,0,0,0,0,0,0,0,0,0,0
1706514953.70038390,75728863,1528,1530,1614,1614,0,0,0,0,0,0,0,0,0,0
1706514953.80034399,75828823,1531,1533,1613,1613,0,0,0,0,0,0,0,0,0,0
1706514953.90030384,75928783,1536,1538,1609,1609,0,0,0,0,0,0,0,0,0,0
1706514954.00026393,76028743,1544,1547,1604,1604,0,0,0,0,0,0,0,0,0,0
1706514954.10022402,76128703,1553,1554,1597,1596,0,0,0,0,0,0,0,0,0,0
1706514954.20018387,76228663,1561,1562,1589,1588,0,0,0,0,0,0,0,0,0,0
1706514954.30014396,76328623,1571,1570,1582,1581,0,0,0,0,0,0,0,0,0,0
1706514954.40010381,76428583,1578,1577,1576,1575,0,0,0,0,0,0,0,0,0,0
1706514954.50006390,76528543,1582,1581,1571,1570,0,0,0,0,0,0,0,0,0,0
1706514954.60002398,76628503,1586,1585,1568,1567,0,0,0,0,0,0,0,0,0,0
1706514954.69998384,76728463,1588,1586,1566,1566,0,0,0,0,0,0,0,0,0,0
1706514954.79994392,76828423,1587,1586,1567,1567,0,0,0,0,0,0,0,0,0,0
1706514954.89990401,76928383,1332,1335,1636,1645,0,0,0,0,0,0,0,0,0,0
1706514954.99986386,77028343,1521,1529,1646,1649,0,0,0,0,0,0,0,0,0,0
1706514955.09982395,77128303,1553,1561,1613,1605,0,0,0,0,0,0,0,0,0,0
1706514955.19978380,77228263,1586,1589,1600,1590,0,0,0,0,0,0,0,0,0,0
1706514955.29974389,77328223,1609,1606,1591,1585,0,0,0,0,0,0,0,0,0,0
1706514955.39970398,77428183,1624,1616,1584,1583,0,0,0,0,0,0,0,0,0,0
1706514955.50049686,77528976,1641,1631,1567,1571,0,0,0,0,0,0,0,0,0,0
1706514955.60045695,77628936,1659,1652,1542,1549,0,0,0,0,0,0,0,0,0,0
1706514955.70041680,77728896,1666,1661,1529,1538,0,0,0,0,0,0,0,0,0,0
1706514955.80037689,77828856,1657,1657,1534,1541,0,0,0,0,0,0,0,0,0,0
1706514955.90033698,77928816,1644,1648,1543,1547,0,0,0,0,0,0,0,0,0,0
1706514956.00029683,78028776,1634,1640,1553,1553,0,0,0,0,0,0,0,0,0,0
1706514956.10025692,78128736,1626,1631,1560,1557,0,0,0,0,0,0,0,0,0,0
1706514956.20021701,78228696,1620,1621,1565,1560,0,0,0,0,0,0,0,0,0,0
1706514956.30017686,78328656,1611,1606,1575,1572,0,0,0,0,0,0,0,0,0,0
1706514956.40013695,78428616,1594,1586,1590,1589,0,0,0,0,0,0,0,0,0,0
1706514956.50009680,78528576,1575,1568,1604,1604,0,0,0,0,0,0,0,0,0,0
1706514956.60005689,78628536,1560,1557,1609,1611,0,0,0,0,0,0,0,0,0,0
1706514956.70001698,78728496,1551,1553,1608,1610,0,0,0,0,0,0,0,0,0,0
1706514956.79997683,78828456,1548,1553,1606,1607,0,0,0,0,0,0,0,0,0,0
1706514956.89993691,78928416,1549,1556,1602,1601,0,0,0,0,0,0,0,0,0,0
1706514956.99989700,79028376,1553,1559,1598,1595,0,0,0,0,0,0,0,0,0,0
1706514957.09985685,79128336,1560,1563,1595,1591,0,0,0,0,0,0,0,0,0,0
1706514957.19981694,79228296,1566,1567,1590,1586,0,0,0,0,0,0,0,0,0,0
1706514957.29977679,79328256,1571,1570,1585,1583,0,0,0,0,0,0,0,0,0,0
1706514957.39973688,79428216,1576,1574,1581,1581,0,0,0,0,0,0,0,0,0,0
1706514957.49969697,79528176,1579,1576,1576,1578,0,0,0,0,0,0,0,0,0,0
1706514957.60048985,79628969,1581,1580,1574,1576,0,0,0,0,0,0,0,0,0,0
1706514957.70044994,79728929,1583,1583,1572,1574,0,0,0,0,0,0,0,0,0,0
1706514957.80040979,79828889,1587,1587,1569,1570,0,0,0,0,0,0,0,0,0,0
1706514957.90036988,79928849,1592,1592,1566,1566,0,0,0,0,0,0,0,0,0,0
1706514958.00032997,80028809,1594,1594,1565,1565,0,0,0,0,0,0,0,0,0,0
1706514958.10028982,80128769,1594,1594,1565,1565,0,0,0,0,0,0,0,0,0,0
1706514958.20024991,80228729,1594,1593,1568,1568,0,0,0,0,0,0,0,0,0,0
1706514958.30021000,80328689,1592,1588,1577,1565,0,0,0,0,0,0,0,0,0,0
1706514958.40016985,80428649,1589,1583,1579,1570,0,0,0,0,0,0,0,0,0,0
1706514958.50012994,80528609,1584,1579,1576,1574,0,0,0,0,0,0,0,0,0,0
1706514958.60008979,80628569,1577,1576,1568,1573,0,0,0,0,0,0,0,0,0,0
1706514958.70004988,80728529,1573,1576,1565,1571,0,0,0,0,0,0,0,0,0,0
1706514958.80000997,80828489,1570,1576,1563,1566,0,0,0,0,0,0,0,0,0,0
1706514958.89996982,80928449,1570,1576,1562,1561,0,0,0,0,0,0,0,0,0,0
1706514958.99992990,81028409,1571,1575,1561,1559,0,0,0,0,0,0,0,0,0,0
1706514959.09988999,81128369,1572,1574,1560,1556,0,0,0,0,0,0,0,0,0,0
1706514959.19984984,81228329,1573,1573,1558,1555,0,0,0,0,0,0,0,0,0,0
1706514959.29980993,81328289,1575,1573,1557,1555,0,0,0,0,0,0,0,0,0,0
1706514959.39976978,81428249,1574,1573,1553,1553,0,0,0,0,0,0,0,0,0,0
1706514959.49972987,81528209,1574,1573,1551,1552,0,0,0,0,0,0,0,0,0,0
1706514959.59968996,81628169,1574,1574,1548,1550,0,0,0,0,0,0,0,0,0,0
1706514959.70048285,81728962,1574,1576,1547,1548,0,0,0,0,0,0,0,0,0,0
1706514959.80044293,81828922,1574,1576,1544,1544,0,0,0,0,0,0,0,0,0,0
1706514959.90040278,81928882,1575,1578,1543,1542,0,0,0,0,0,0,0,0,0,0
1706514960.00036287,82028842,1577,1579,1540,1539,0,0,0,0,0,0,0,0,0,0
1706514960.10032296,82128802,1580,1581,1538,1537,0,0,0,0,0,0,0,0,0,0
1706514960.20028281,82228762,1582,1583,1536,1536,0,0,0,0,0,0,0,0,0,0
1706514960.30024290,82328722,1586,1586,1536,1536,0,0,0,0,0,0,0,0,0,0
1706514960.40020299,82428682,1589,1589,1535,1535,0,0,0,0,0,0,0,0,0,0
1706514960.50016284,82528642,1592,1591,1533,1534,0,0,0,0,0,0,0,0,0,0
1706514960.60012293,82628602,1593,1592,1532,1534,0,0,0,0,0,0,0,0,0,0
1706514960.70008302,82728562,1592,1591,1534,1537,0,0,0,0,0,0,0,0,0,0
1706514960.80004287,82828522,1589,1589,1538,1542,0,0,0,0,0,0,0,0,0,0
1706514960.90000296,82928482,1585,1585,1544,1548,0,0,0,0,0,0,0,0,0,0
1706514960.99996281,83028442,1581,1580,1551,1555,0,0,0,0,0,0,0,0,0,0
1706514961.09992290,83128402,1575,1574,1558,1562,0,0,0,0,0,0,0,0,0,0
1706514961.19988298,83228362,1569,1568,1565,1568,0,0,0,0,0,0,0,0,0,0
1706514961.29984283,83328322,1563,1562,1572,1575,0,0,0,0,0,0,0,0,0,0
1706514961.39980292,83428282,1557,1556,1579,1580,0,0,0,0,0,0,0,0,0,0
1706514961.49976301,83528242,1552,1551,1586,1586,0,0,0,0,0,0,0,0,0,0
1706514961.59972286,83628202,1547,1546,1591,1591,0,0,0,0,0,0,0,0,0,0
1706514961.69968295,83728162,1543,1542,1596,1595,0,0,0,0,0,0,0,0,0,0
1706514961.80047584,83828955,1540,1539,1600,1598,0,0,0,0,0,0,0,0,0,0
1706514961.90043592,83928915,1538,1538,1602,1601,0,0,0,0,0,0,0,0,0,0
1706514962.00039601,84028875,1536,1538,1603,1603,0,0,0,0,0,0,0,0,0,0
1706514962.10035586,84128835,1536,1538,1602,1601,0,0,0,0,0,0,0,0,0,0
1706514962.20031595,84228795,1540,1542,1600,1600,0,0,0,0,0,0,0,0,0,0
1706514962.30027580,84328755,1545,1547,1596,1596,0,0,0,0,0,0,0,0,0,0
1706514962.40023589,84428715,1551,1553,1591,1591,0,0,0,0,0,0,0,0,0,0
1706514962.50019598,84528675,1559,1560,1586,1586,0,0,0,0,0,0,0,0,0,0
1706514962.60015583,84628635,1566,1566,1581,1581,0,0,0,0,0,0,0,0,0,0
1706514962.70011592,84728595,1572,1571,1577,1576,0,0,0,0,0,0,0,0,0,0
1706514962.80007601,84828555,1577,1576,1574,1574,0,0,0,0,0,0,0,0,0,0
1706514962.90003586,84928515,1580,1579,1572,1572,0,0,0,0,0,0,0,0,0,0
1706514962.99999595,85028475,1583,1582,1572,1571,0,0,0,0,0,0,0,0,0,0
1706514963.09995580,85128435,1584,1583,1571,1571,0,0,0,0,0,0,0,0,0,0
1706514963.19991589,85228395,1585,1584,1571,1570,0,0,0,0,0,0,0,0,0,0
1706514963.29987597,85328355,1585,1584,1571,1571,0,0,0,0,0,0,0,0,0,0
1706514963.39983582,85428315,1584,1584,1571,1572,0,0,0,0,0,0,0,0,0,0
1706514963.49979591,85528275,1583,1583,1572,1572,0,0,0,0,0,0,0,0,0,0
1706514963.59975600,85628235,1582,1582,1573,1573,0,0,0,0,0,0,0,0,0,0
1706514963.69971585,85728195,1582,1582,1575,1575,0,0,0,0,0,0,0,0,0,0
1706514963.79967594,85828155,1581,1581,1576,1576,0,0,0,0,0,0,0,0,0,0
1706514963.90046883,85928948,1581,1581,1577,1577,0,0,0,0,0,0,0,0,0,0
1706514964.00042892,86028908,1580,1580,1578,1578,0,0,0,0,0,0,0,0,0,0
1706514964.10038900,86128868,1579,1579,1579,1579,0,0,0,0,0,0,0,0,0,0
1706514964.20034885,86228828,1579,1579,1580,1580,0,0,0,0,0,0,0,0,0,0
1706514964.30030894,86328788,1579,1579,1580,1580,0,0,0,0,0,0,0,0,0,0
1706514964.40026879,86428748,1578,1579,1581,1581,0,0,0,0,0,0,0,0,0,0
1706514964.50022888,86528708,1578,1578,1582,1581,0,0,0,0,0,0,0,0,0,0
1706514964.60018897,86628668,1578,1578,1581,1581,0,0,0,0,0,0,0,0,0,0
1706514964.70014882,86728628,1578,1579,1582,1581,0,0,0,0,0,0,0,0,0,0
1706514964.80010891,86828588,1579,1579,1582,1581,0,0,0,0,0,0,0,0,0,0
1706514964.90006900,86928548,1579,1579,1581,1581,0,0,0,0,0,0,0,0,0,0
1706514965.00002885,87028508,1579,1579,1580,1580,0,0,0,0,0,0,0,0,0,0
1706514965.09998894,87128468,1579,1579,1580,1580,0,0,0,0,0,0,0,0,0,0
1706514965.19994879,87228428,1580,1580,1581,1580,0,0,0,0,0,0,0,0,0,0
1706514965.29990888,87328388,1580,1580,1580,1580,0,0,0,0,0,0,0,0,0,0
1706514965.39986897,87428348,1580,1580,1579,1579,0,0,0,0,0,0,0,0,0,0
1706514965.49982882,87528308,1580,1580,1579,1579,0,0,0,0,0,0,0,0,0,0
1706514965.59978890,87628268,1580,1580,1579,1579,0,0,0,0,0,0,0,0,0,0
1706514965.69974899,87728228,1581,1580,1579,1579,0,0,0,0,0,0,0,0,0,0
1706514965.79970884,87828188,1580,1580,1578,1579,0,0,0,0,0,0,0,0,0,0
1706514965.90050197,87928981,1580,1581,1579,1579,0,0,0,0,0,0,0,0,0,0
1706514966.00046182,88028941,1580,1581,1579,1579,0,0,0,0,0,0,0,0,0,0
1706514966.10042191,88128901,1581,1581,1580,1580,0,0,0,0,0,0,0,0,0,0
1706514966.20038199,88228861,1581,1581,1580,1579,0,0,0,0,0,0,0,0,0,0
1706514966.30034184,88328821,1581,1580,1579,1580,0,0,0,0,0,0,0,0,0,0
1706514966.40030193,88428781,1581,1581,1581,1580,0,0,0,0,0,0,0,0,0,0
1706514966.50026178,88528741,1580,1580,1579,1579,0,0,0,0,0,0,0,0,0,0
1706514966.60022187,88628701,1581,1581,1580,1581,0,0,0,0,0,0,0,0,0,0
1706514966.70018196,88728661,1580,1581,1580,1581,0,0,0,0,0,0,0,0,0,0
1706514966.80014181,88828621,1581,1581,1582,1581,0,0,0,0,0,0,0,0,0,0
1706514966.90010190,88928581,1582,1581,1582,1582,0,0,0,0,0,0,0,0,0,0
1706514967.00006199,89028541,1581,1581,1582,1582,0,0,0,0,0,0,0,0,0,0
1706514967.10002184,89128501,1581,1581,1585,1578,0,0,0,0,0,0,0,0,0,0
1706514967.19998193,89228461,1581,1582,1588,1574,0,0,0,0,0,0,0,0,0,0
1706514967.29994202,89328421,1581,1581,1582,1574,0,0,0,0,0,0,0,0,0,0
1706514967.39990187,89428381,1579,1580,1572,1573,0,0,0,0,0,0,0,0,0,0
1706514967.49986196,89528341,1577,1579,1564,1570,0,0,0,0,0,0,0,0,0,0
1706514967.59982181,89628301,1577,1579,1560,1566,0,0,0,0,0,0,0,0,0,0
1706514967.69978189,89728261,1577,1578,1557,1561,0,0,0,0,0,0,0,0,0,0
1706514967.79974198,89828221,1578,1578,1557,1558,0,0,0,0,0,0,0,0,0,0
1706514967.89970183,89928181,1579,1578,1557,1557,0,0,0,0,0,0,0,0,0,0
1706514968.00049496,90028974,1578,1578,1557,1555,0,0,0,0,0,0,0,0,0,0
1706514968.10045481,90128934,1578,1577,1556,1554,0,0,0,0,0,0,0,0,0,0
1706514968.20041490,90228894,1577,1577,1556,1555,0,0,0,0,0,0,0,0,0,0
1706514968.30037498,90328854,1576,1577,1555,1554,0,0,0,0,0,0,0,0,0,0
1706514968.40033484,90428814,1576,1577,1553,1554,0,0,0,0,0,0,0,0,0,0
1706514968.50029492,90528774,1576,1577,1552,1552,0,0,0,0,0,0,0,0,0,0
1706514968.60025501,90628734,1576,1578,1551,1551,0,0,0,0,0,0,0,0,0,0
1706514968.70021486,90728694,1577,1578,1550,1549,0,0,0,0,0,0,0,0,0,0
1706514968.80017495,90828654,1579,1580,1548,1548,0,0,0,0,0,0,0,0,0,0
1706514968.90013480,90928614,1580,1581,1546,1546,0,0,0,0,0,0,0,0,0,0
1706514969.00009489,91028574,1583,1584,1545,1544,0,0,0,0,0,0,0,0,0,0
1706514969.10005498,91128534,1584,1585,1542,1542,0,0,0,0,0,0,0,0,0,0
1706514969.20001483,91228494,1586,1587,1541,1540,0,0,0,0,0,0,0,0,0,0
1706514969.29997492,91328454,1588,1588,1539,1539,0,0,0,0,0,0,0,0,0,0
1706514969.39993501,91428414,1590,1590,1538,1539,0,0,0,0,0,0,0,0,0,0
1706514969.49989486,91528374,1591,1590,1539,1541,0,0,0,0,0,0,0,0,0,0
1706514969.59985495,91628334,1591,1591,1541,1544,0,0,0,0,0,0,0,0,0,0
1706514969.69981480,91728294,1589,1589,1543,1546,0,0,0,0,0,0,0,0,0,0
1706514969.79977489,91828254,1587,1587,1547,1550,0,0,0,0,0,0,0,0,0,0
1706514969.89973497,91928214,1583,1582,1552,1555,0,0,0,0,0,0,0,0,0,0
1706514969.99969482,92028174,1578,1576,1561,1563,0,0,0,0,0,0,0,0,0,0
1706514970.10048795,92128967,1571,1568,1570,1572,0,0,0,0,0,0,0,0,0,0
1706514970.20044780,92228927,1562,1559,1580,1582,0,0,0,0,0,0,0,0,0,0
1706514970.30040789,92328887,1552,1550,1591,1592,0,0,0,0,0,0,0,0,0,0
1706514970.40036798,92428847,1545,1543,1601,1602,0,0,0,0,0,0,0,0,0,0
1706514970.50032783,92528807,1537,1537,1607,1607,0,0,0,0,0,0,0,0,0,0
1706514970.60028791,92628767,1533,1534,1611,1610,0,0,0,0,0,0,0,0,0,0
1706514970.70024800,92728727,1532,1534,1612,1611,0,0,0,0,0,0,0,0,0,0
1706514970.80020785,92828687,1535,1537,1610,1609,0,0,0,0,0,0,0,0,0,0
1706514970.90016794,92928647,1540,1542,1607,1606,0,0,0,0,0,0,0,0,0,0
1706514971.00012779,93028607,1546,1548,1600,1600,0,0,0,0,0,0,0,0,0,0
1706514971.10008788,93128567,1554,1555,1593,1593,0,0,0,0,0,0,0,0,0,0
1706514971.20004797,93228527,1562,1563,1587,1586,0,0,0,0,0,0,0,0,0,0
1706514971.30000782,93328487,1570,1569,1579,1579,0,0,0,0,0,0,0,0,0,0
1706514971.39996791,93428447,1576,1575,1574,1573,0,0,0,0,0,0,0,0,0,0
1706514971.49992800,93528407,1582,1581,1570,1570,0,0,0,0,0,0,0,0,0,0
1706514971.59988785,93628367,1586,1584,1567,1567,0,0,0,0,0,0,0,0,0,0
1706514971.69984794,93728327,1588,1586,1565,1565,0,0,0,0,0,0,0,0,0,0
1706514971.79980779,93828287,1589,1588,1566,1566,0,0,0,0,0,0,0,0,0,0
1706514971.89976788,93928247,1589,1588,1568,1568,0,0,0,0,0,0,0,0,0,0
1706514971.99972796,94028207,1587,1587,1571,1570,0,0,0,0,0,0,0,0,0,0
1706514972.09968781,94128167,1585,1584,1573,1573,0,0,0,0,0,0,0,0,0,0
1706514972.20048094,94228960,1582,1582,1576,1575,0,0,0,0,0,0,0,0,0,0
1706514972.30044079,94328920,1580,1580,1579,1579,0,0,0,0,0,0,0,0,0,0
1706514972.40040088,94428880,1577,1577,1581,1581,0,0,0,0,0,0,0,0,0,0
1706514972.50036097,94528840,1575,1576,1583,1583,0,0,0,0,0,0,0,0,0,0
1706514972.60032082,94628800,1573,1574,1583,1583,0,0,0,0,0,0,0,0,0,0
1706514972.70028090,94728760,1573,1574,1585,1585,0,0,0,0,0,0,0,0,0,0
1706514972.80024099,94828720,1573,1575,1585,1585,0,0,0,0,0,0,0,0,0,0
1706514972.90020084,94928680,1574,1574,1584,1584,0,0,0,0,0,0,0,0,0,0
1706514973.00016093,95028640,1575,1576,1584,1583,0,0,0,0,0,0,0,0,0,0
1706514973.10012078,95128600,1576,1576,1582,1582,0,0,0,0,0,0,0,0,0,0
1706514973.20008087,95228560,1578,1577,1581,1581,0,0,0,0,0,0,0,0,0,0
1706514973.30004096,95328520,1578,1578,1579,1579,0,0,0,0,0,0,0,0,0,0
1706514973.40000081,95428480,1579,1579,1578,1578,0,0,0,0,0,0,0,0,0,0
1706514973.49996090,95528440,1580,1580,1577,1578,0,0,0,0,0,0,0,0,0,0
1706514973.59992099,95628400,1581,1581,1577,1577,0,0,0,0,0,0,0,0,0,0
1706514973.69988084,95728360,1582,1582,1577,1577,0,0,0,0,0,0,0,0,0,0
1706514973.79984093,95828320,1582,1583,1578,1578,0,0,0,0,0,0,0,0,0,0
1706514973.89980102,95928280,1583,1583,1579,1579,0,0,0,0,0,0,0,0,0,0
1706514973.99976087,96028240,1582,1582,1579,1578,0,0,0,0,0,0,0,0,0,0
1706514974.09972095,96128200,1582,1581,1579,1579,0,0,0,0,0,0,0,0,0,0
1706514974.19968081,96228160,1582,1581,1579,1579,0,0,0,0,0,0,0,0,0,0
1706514974.30047393,96328953,1581,1581,1580,1580,0,0,0,0,0,0,0,0,0,0
1706514974.40043402,96428913,1581,1580,1580,1580,0,0,0,0,0,0,0,0,0,0
1706514974.50039387,96528873,1579,1580,1580,1580,0,0,0,0,0,0,0,0,0,0
1706514974.60035396,96628833,1580,1580,1581,1581,0,0,0,0,0,0,0,0,0,0
1706514974.70031381,96728793,1580,1580,1581,1582,0,0,0,0,0,0,0,0,0,0
1706514974.80027390,96828753,1580,1580,1582,1581,0,0,0,0,0,0,0,0,0,0
1706514974.90023398,96928713,1580,1581,1582,1582,0,0,0,0,0,0,0,0,0,0
1706514975.00019383,97028673,1580,1580,1581,1581,0,0,0,0,0,0,0,0,0,0
1706514975.10015392,97128633,1580,1581,1582,1582,0,0,0,0,0,0,0,0,0,0
1706514975.20011401,97228593,1581,1581,1583,1580,0,0,0,0,0,0,0,0,0,0
1706514975.30007386,97328553,1582,1581,1589,1574,0,0,0,0,0,0,0,0,0,0
1706514975.40003395,97428513,1580,1580,1584,1573,0,0,0,0,0,0,0,0,0,0
1706514975.49999380,97528473,1578,1577,1576,1574,0,0,0,0,0,0,0,0,0,0
1706514975.59995389,97628433,1575,1574,1569,1574,0,0,0,0,0,0,0,0,0,0
1706514975.69991398,97728393,1571,1571,1564,1571,0,0,0,0,0,0,0,0,0,0
1706514975.79987383,97828353,1570,1570,1564,1570,0,0,0,0,0,0,0,0,0,0
1706514975.89983392,97928313,1568,1569,1565,1568,0,0,0,0,0,0,0,0,0,0
1706514975.99979401,98028273,1567,1568,1566,1566,0,0,0,0,0,0,0,0,0,0
1706514976.09975386,98128233,1566,1567,1567,1565,0,0,0,0,0,0,0,0,0,0
1706514976.19971395,98228193,1565,1566,1567,1564,0,0,0,0,0,0,0,0,0,0
1706514976.30050683,98328986,1565,1565,1568,1566,0,0,0,0,0,0,0,0,0,0
1706514976.40046692,98428946,1565,1564,1567,1566,0,0,0,0,0,0,0,0,0,0
1706514976.50042701,98528906,1564,1564,1566,1566,0,0,0,0,0,0,0,0,0,0
1706514976.60038686,98628866,1563,1563,1564,1564,0,0,0,0,0,0,0,0,0,0
1706514976.70034695,98728826,1562,1562,1564,1564,0,0,0,0,0,0,0,0,0,0
1706514976.80030680,98828786,1562,1562,1563,1563,0,0,0,0,0,0,0,0,0,0
1706514976.90026689,98928746,1561,1561,1561,1562,0,0,0,0,0,0,0,0,0,0
1706514977.00022697,99028706,1560,1561,1562,1561,0,0,0,0,0,0,0,0,0,0
1706514977.10018682,99128666,1561,1561,1561,1560,0,0,0,0,0,0,0,0,0,0
1706514977.20014691,99228626,1560,1560,1560,1559,0,0,0,0,0,0,0,0,0,0
1706514977.30010700,99328586,1559,1559,1558,1557,0,0,0,0,0,0,0,0,0,0
1706514977.40006685,99428546,1559,1558,1558,1558,0,0,0,0,0,0,0,0,0,0
1706514977.50002694,99528506,1559,1558,1558,1557,0,0,0,0,0,0,0,0,0,0
1706514977.59998679,99628466,1558,1558,1558,1556,0,0,0,0,0,0,0,0,0,0
1706514977.69994688,99728426,1558,1558,1558,1557,0,0,0,0,0,0,0,0,0,0
1706514977.79990697,99828386,1558,1558,1559,1557,0,0,0,0,0,0,0,0,0,0
1706514977.89986682,99928346,1558,1558,1559,1556,0,0,0,0,0,0,0,0,0,0
1706514977.99982691,100028306,1559,1559,1561,1557,0,0,0,0,0,0,0,0,0,0
1706514978.09978700,100128266,1559,1559,1559,1560,0,0,0,0,0,0,0,0,0,0
1706514978.19974685,100228226,1559,1559,1557,1562,0,0,0,0,0,0,0,0,0,0
1706514978.29970694,100328186,1560,1560,1557,1564,0,0,0,0,0,0,0,0,0,0
1706514978.40049982,100428979,1561,1561,1559,1565,0,0,0,0,0,0,0,0,0,0
1706514978.50045991,100528939,1561,1562,1560,1564,0,0,0,0,0,0,0,0,0,0
1706514978.60042000,100628899,1560,1561,1561,1560,0,0,0,0,0,0,0,0,0,0
1706514978.70037985,100728859,1559,1559,1560,1557,0,0,0,0,0,0,0,0,0,0
1706514978.80033994,100828819,1559,1559,1560,1556,0,0,0,0,0,0,0,0,0,0
1706514978.90029979,100928779,1560,1559,1557,1560,0,0,0,0,0,0,0,0,0,0
1706514979.00025988,101028739,1558,1557,1553,1558,0,0,0,0,0,0,0,0,0,0
1706514979.10021996,101128699,1554,1553,1549,1553,0,0,0,0,0,0,0,0,0,0
1706514979.20017982,101228659,1549,1549,1545,1547,0,0,0,0,0,0,0,0,0,0
1706514979.30013990,101328619,1543,1544,1540,1539,0,0,0,0,0,0,0,0,0,0
1706514979.40009999,101428579,1536,1537,1533,1531,0,0,0,0,0,0,0,0,0,0
1706514979.50005984,101528539,1529,1529,1525,1524,0,0,0,0,0,0,0,0,0,0
1706514979.60001993,101628499,1523,1523,1520,1519,0,0,0,0,0,0,0,0,0,0
1706514979.69997978,101728459,1521,1521,1519,1519,0,0,0,0,0,0,0,0,0,0
1706514979.79993987,101828419,1520,1520,1521,1521,0,0,0,0,0,0,0,0,0,0
1706514979.89989996,101928379,1520,1519,1522,1522,0,0,0,0,0,0,0,0,0,0
1706514979.99985981,102028339,1522,1522,1526,1527,0,0,0,0,0,0,0,0,0,0
1706514980.09981990,102128299,1525,1524,1531,1531,0,0,0,0,0,0,0,0,0,0
1706514980.19977999,102228259,1528,1528,1535,1536,0,0,0,0,0,0,0,0,0,0
1706514980.29973984,102328219,1533,1533,1541,1540,0,0,0,0,0,0,0,0,0,0
1706514980.39969993,102428179,1536,1537,1543,1543,0,0,0,0,0,0,0,0,0,0
1706514980.50049281,102528972,1539,1539,1544,1543,0,0,0,0,0,0,0,0,0,0
1706514980.60045290,102628932,1541,1542,1544,1544,0,0,0,0,0,0,0,0,0,0
1706514980.70041299,102728892,1544,1544,1545,1544,0,0,0,0,0,0,0,0,0,0
1706514980.80037284,102828852,1546,1546,1545,1545,0,0,0,0,0,0,0,0,0,0
1706514980.90033293,102928812,1547,1547,1544,1544,0,0,0,0,0,0,0,0,0,0
1706514981.00029302,103028772,1548,1548,1544,1544,0,0,0,0,0,0,0,0,0,0
1706514981.10025287,103128732,1548,1548,1544,1544,0,0,0,0,0,0,0,0,0,0
1706514981.20021296,103228692,1549,1549,1544,1544,0,0,0,0,0,0,0,0,0,0
1706514981.30017281,103328652,1549,1549,1545,1545,0,0,0,0,0,0,0,0,0,0
1706514981.40013289,103428612,1549,1549,1546,1545,0,0,0,0,0,0,0,0,0,0
1706514981.50009298,103528572,1548,1547,1545,1545,0,0,0,0,0,0,0,0,0,0
1706514981.60005283,103628532,1547,1547,1545,1545,0,0,0,0,0,0,0,0,0,0
1706514981.70001292,103728492,1546,1546,1545,1545,0,0,0,0,0,0,0,0,0,0
1706514981.79997301,103828452,1545,1545,1545,1545,0,0,0,0,0,0,0,0,0,0
1706514981.89993286,103928412,1544,1544,1545,1545,0,0,0,0,0,0,0,0,0,0
1706514981.99989295,104028372,1544,1544,1545,1545,0,0,0,0,0,0,0,0,0,0
1706514982.09985280,104128332,1544,1543,1545,1545,0,0,0,0,0,0,0,0,0,0
1706514982.19981289,104228292,1543,1543,1545,1544,0,0,0,0,0,0,0,0,0,0
1706514982.29977298,104328252,1542,1542,1544,1543,0,0,0,0,0,0,0,0,0,0
1706514982.39973283,104428212,1543,1543,1546,1545,0,0,0,0,0,0,0,0,0,0
1706514982.49969292,104528172,1544,1543,1545,1544,0,0,0,0,0,0,0,0,0,0
1706514982.60048580,104628965,1543,1543,1544,1544,0,0,0,0,0,0,0,0,0,0
1706514982.70044589,104728925,1543,1543,1543,1543,0,0,0,0,0,0,0,0,0,0
1706514982.80040598,104828885,1543,1543,1543,1543,0,0,0,0,0,0,0,0,0,0
1706514982.90036583,104928845,1544,1544,1543,1544,0,0,0,0,0,0,0,0,0,0
1706514983.00032592,105028805,1543,1544,1544,1543,0,0,0,0,0,0,0,0,0,0
1706514983.10028601,105128765,1544,1544,1544,1543,0,0,0,0,0,0,0,0,0,0
1706514983.20024586,105228725,1543,1544,1543,1543,0,0,0,0,0,0,0,0,0,0
1706514983.30020595,105328685,1544,1544,1543,1543,0,0,0,0,0,0,0,0,0,0
1706514983.40016580,105428645,1544,1544,1544,1544,0,0,0,0,0,0,0,0,0,0
1706514983.50012589,105528605,1545,1545,1545,1545,0,0,0,0,0,0,0,0,0,0
1706514983.60008597,105628565,1545,1545,1544,1545,0,0,0,0,0,0,0,0,0,0
1706514983.70004582,105728525,1545,1545,1544,1545,0,0,0,0,0,0,0,0,0,0
1706514983.80000591,105828485,1545,1545,1544,1545,0,0,0,0,0,0,0,0,0,0
1706514983.89996600,105928445,1545,1545,1545,1545,0,0,0,0,0,0,0,0,0,0
1706514983.99992585,106028405,1545,1545,1545,1545,0,0,0,0,0,0,0,0,0,0
1706514984.09988594,106128365,1544,1543,1544,1544,0,0,0,0,0,0,0,0,0,0
1706514984.19984579,106228325,1544,1545,1545,1545,0,0,0,0,0,0,0,0,0,0
1706514984.29980588,106328285,1544,1544,1544,1544,0,0,0,0,0,0,0,0,0,0
1706514984.39976597,106428245,1545,1544,1545,1545,0,0,0,0,0,0,0,0,0,0
1706514984.49972582,106528205,1544,1544,1544,1544,0,0,0,0,0,0,0,0,0,0
1706514984.59968591,106628165,1544,1545,1544,1545,0,0,0,0,0,0,0,0,0,0
1706514984.70047879,106728958,1545,1544,1544,1545,0,0,0,0,0,0,0,0,0,0
1706514984.80043888,106828918,1544,1545,1545,1545,0,0,0,0,0,0,0,0,0,0
1706514984.90039897,106928878,1545,1544,1544,1544,0,0,0,0,0,0,0,0,0,0
1706514985.00035882,107028838,1545,1545,1546,1544,0,0,0,0,0,0,0,0,0,0
1706514985.10031891,107128798,1545,1545,1545,1545,0,0,0,0,0,0,0,0,0,0
1706514985.20027900,107228758,1545,1545,1545,1545,0,0,0,0,0,0,0,0,0,0
1706514985.30023885,107328718,1544,1544,1544,1544,0,0,0,0,0,0,0,0,0,0
1706514985.40019894,107428678,1544,1545,1544,1544,0,0,0,0,0,0,0,0,0,0
1706514985.50015879,107528638,1545,1545,1544,1545,0,0,0,0,0,0,0,0,0,0
1706514985.60011888,107628598,1545,1544,1545,1544,0,0,0,0,0,0,0,0,0,0
1706514985.70007896,107728558,1544,1544,1544,1544,0,0,0,0,0,0,0,0,0,0
1706514985.80003881,107828518,1544,1544,1544,1544,0,0,0,0,0,0,0,0,0,0
1706514985.89999890,107928478,1544,1544,1544,1544,0,0,0,0,0,0,0,0,0,0
1706514985.99995899,108028438,1544,1544,1544,1544,0,0,0,0,0,0,0,0,0,0
1706514986.09991884,108128398,1543,1542,1543,1542,0,0,0,0,0,0,0,0,0,0
1706514986.19987893,108228358,1544,1544,1544,1544,0,0,0,0,0,0,0,0,0,0
1706514986.29983902,108328318,1544,1544,1544,1544,0,0,0,0,0,0,0,0,0,0
1706514986.39979887,108428278,1543,1543,1544,1544,0,0,0,0,0,0,0,0,0,0
1706514986.49975896,108528238,1544,1543,1544,1544,0,0,0,0,0,0,0,0,0,0
1706514986.59971881,108628198,1544,1544,1544,1544,0,0,0,0,0,0,0,0,0,0
1706514986.69967890,108728158,1544,1544,1544,1544,0,0,0,0,0,0,0,0,0,0
1706514986.80047178,108828951,1543,1544,1543,1543,0,0,0,0,0,0,0,0,0,0
1706514986.90043187,108928911,1544,1543,1543,1544,0,0,0,0,0,0,0,0,0,0
1706514987.00039196,109028871,1544,1544,1544,1544,0,0,0,0,0,0,0,0,0,0
1706514987.10035181,109128831,1544,1543,1543,1544,0,0,0,0,0,0,0,0,0,0
1706514987.20031190,109228791,1543,1543,1543,1543,0,0,0,0,0,0,0,0,0,0
1706514987.30027199,109328751,1544,1544,1544,1543,0,0,0,0,0,0,0,0,0,0
1706514987.40023184,109428711,1544,1544,1544,1544,0,0,0,0,0,0,0,0,0,0
1706514987.50019193,109528671,1544,1544,1544,1544,0,0,0,0,0,0,0,0,0,0
1706514987.60015202,109628631,1544,1544,1544,1545,0,0,0,0,0,0,0,0,0,0
1706514987.70011187,109728591,1544,1544,1544,1545,0,0,0,0,0,0,0,0,0,0
1706514987.80007195,109828551,1544,1544,1544,1544,0,0,0,0,0,0,0,0,0,0
1706514987.90003181,109928511,1545,1545,1545,1545,0,0,0,0,0,0,0,0,0,0
1706514987.99999189,110028471,1544,1544,1544,1544,0,0,0,0,0,0,0,0,0,0
1706514988.09995198,110128431,1545,1545,1545,1545,0,0,0,0,0,0,0,0,0,0
1706514988.19991183,110228391,1545,1545,1545,1545,0,0,0,0,0,0,0,0,0,0
1706514988.29987192,110328351,1545,1545,1545,1545,0,0,0,0,0,0,0,0,0,0
1706514988.39983201,110428311,1545,1545,1544,1544,0,0,0,0,0,0,0,0,0,0
1706514988.49979186,110528271,1545,1545,1544,1545,0,0,0,0,0,0,0,0,0,0
1706514988.59975195,110628231,1544,1544,1544,1544,0,0,0,0,0,0,0,0,0,0
1706514988.69971180,110728191,1545,1545,1545,1545,0,0,0,0,0,0,0,0,0,0
1706514988.80050492,110828984,1544,1544,1544,1544,0,0,0,0,0,0,0,0,0,0
1706514988.90046501,110928944,1544,1544,1545,1545,0,0,0,0,0,0,0,0,0,0
1706514989.00042486,111028904,1544,1545,1545,1545,0,0,0,0,0,0,0,0,0,0
1706514989.10038495,111128864,1544,1544,1544,1544,0,0,0,0,0,0,0,0,0,0
1706514989.20034480,111228824,1544,1544,1544,1544,0,0,0,0,0,0,0,0,0,0
1706514989.30030489,111328784,1493,1492,1476,1475,0,0,0,0,0,0,0,0,0,0
1706514989.40026498,111428744,1374,1374,1306,1304,0,0,0,0,0,0,0,0,0,0
1706514989.50022483,111528704,1327,1327,1231,1229,0,0,0,0,0,0,0,0,0,0
1706514989.60018492,111628664,1313,1313,1207,1204,0,0,0,0,0,0,0,0,0,0
1706514989.70014501,111728624,1296,1295,1177,1174,0,0,0,0,0,0,0,0,0,0
1706514989.80010486,111828584,1271,1271,1155,1150,0,0,0,0,0,0,0,0,0,0
1706514989.90006495,111928544,1165,1164,1154,1150,0,0,0,0,0,0,0,0,0,0
1706514990.00002480,112028504,1085,1085,1153,1150,0,0,0,0,0,0,0,0,0,0
1706514990.09998488,112128464,1086,1085,1153,1150,0,0,0,0,0,0,0,0,0,0
1706514990.19994497,112228424,1085,1085,1153,1150,0,0,0,0,0,0,0,0,0,0
1706514990.29990482,112328384,1087,1071,1150,1171,0,0,0,0,0,0,0,0,0,0
1706514990.39986491,112428344,1087,1075,1150,1165,0,0,0,0,0,0,0,0,0,0
1706514990.49982500,112528304,1087,1079,1150,1159,0,0,0,0,0,0,0,0,0,0
1706514990.59978485,112628264,1087,1080,1150,1158,0,0,0,0,0,0,0,0,0,0
1706514990.69974494,112728224,1087,1080,1150,1158,0,0,0,0,0,0,0,0,0,0
1706514990.79970479,112828184,1087,1079,1150,1158,0,0,0,0,0,0,0,0,0,0
1706514990.90049791,112928977,1087,1079,1150,1159,0,0,0,0,0,0,0,0,0,0
1706514991.00045800,113028937,1087,1079,1150,1159,0,0,0,0,0,0,0,0,0,0
1706514991.10041785,113128897,1086,1087,1150,1150,0,0,0,0,0,0,0,0,0,0
1706514991.20037794,113228857,1087,1085,1150,1151,0,0,0,0,0,0,0,0,0,0
1706514991.30033779,113328817,1087,1085,1150,1151,0,0,0,0,0,0,0,0,0,0
1706514991.40029788,113428777,1087,1085,1150,1152,0,0,0,0,0,0,0,0,0,0
1706514991.50025797,113528737,1087,1085,1150,1152,0,0,0,0,0,0,0,0,0,0
1706514991.60021782,113628697,1000,1000,1000,1000,0,0,0,0,0,0,0,0,0,0
1706514991.70017791,113728657,1000,1000,1000,1000,0,0,0,0,0,0,0,0,0,0
1706514991.80013800,113828617,1000,1000,1000,1000,0,0,0,0,0,0,0,0,0,0
1706514991.90009785,113928577,1000,1000,1000,1000,0,0,0,0,0,0,0,0,0,0
1706514992.00005794,114028537,1000,1000,1000,1000,0,0,0,0,0,0,0,0,0,0
1706514992.10001779,114128497,1000,1000,1000,1000,0,0,0,0,0,0,0,0,0,0
1706514992.19997787,114228457,1000,1000,1000,1000,0,0,0,0,0,0,0,0,0,0
1706514992.29993796,114328417,1000,1000,1000,1000,0,0,0,0,0,0,0,0,0,0
1706514992.39989781,114428377,1000,1000,1000,1000,0,0,0,0,0,0,0,0,0,0
1706514992.49985790,114528337,1000,1000,1000,1000,0,0,0,0,0,0,0,0,0,0
1706514992.59981799,114628297,1000,1000,1000,1000,0,0,0,0,0,0,0,0,0,0
1706514992.69977784,114728257,1000,1000,1000,1000,0,0,0,0,0,0,0,0,0,0
1706514992.79973793,114828217,1000,1000,1000,1000,0,0,0,0,0,0,0,0,0,0
1706514992.89969802,114928177,1000,1000,1000,1000,0,0,0,0,0,0,0,0,0,0
1706514993.00049090,115028970,1000,1000,1000,1000,0,0,0,0,0,0,0,0,0,0
1706514993.10045099,115128930,1000,1000,1000,1000,0,0,0,0,0,0,0,0,0,0
1706514993.20041084,115228890,1000,1000,1000,1000,0,0,0,0,0,0,0,0,0,0
1706514993.30037093,115328850,1000,1000,1000,1000,0,0,0,0,0,0,0,0,0,0
1706514993.40033078,115428810,1000,1000,1000,1000,0,0,0,0,0,0,0,0,0,0
1706514993.50029087,115528770,1000,1000,1000,1000,0,0,0,0,0,0,0,0,0,0
1706514993.60025096,115628730,1000,1000,1000,1000,0,0,0,0,0,0,0,0,0,0
1706514993.70021081,115728690,1000,1000,1000,1000,0,0,0,0,0,0,0,0,0,0
1706514993.80017090,115828650,1000,1000,1000,1000,0,0,0,0,0,0,0,0,0,0
1706514993.90013099,115928610,1000,1000,1000,1000,0,0,0,0,0,0,0,0,0,0
1706514994.00009084,116028570,1000,1000,1000,1000,0,0,0,0,0,0,0,0,0,0
1706514994.10005093,116128530,1000,1000,1000,1000,0,0,0,0,0,0,0,0,0,0
1706514994.20001101,116228490,1000,1000,1000,1000,0,0,0,0,0,0,0,0,0,0
1706514994.29997087,116328450,1000,1000,1000,1000,0,0,0,0,0,0,0,0,0,0
1706514994.39993095,116428410,1000,1000,1000,1000,0,0,0,0,0,0,0,0,0,0
1706514994.49989080,116528370,1000,1000,1000,1000,0,0,0,0,0,0,0,0,0,0
1706514994.59985089,116628330,1000,1000,1000,1000,0,0,0,0,0,0,0,0,0,0
1706514994.69981098,116728290,1000,1000,1000,1000,0,0,0,0,0,0,0,0,0,0
1706514994.79977083,116828250,1000,1000,1000,1000,0,0,0,0,0,0,0,0,0,0
1706514994.89973092,116928210,1000,1000,1000,1000,0,0,0,0,0,0,0,0,0,0
1706514994.99969101,117028170,1000,1000,1000,1000,0,0,0,0,0,0,0,0,0,0
1706514995.10048389,117128963,1000,1000,1000,1000,0,0,0,0,0,0,0,0,0,0
1706514995.20044398,117228923,1000,1000,1000,1000,0,0,0,0,0,0,0,0,0,0
1706514995.30040383,117328883,1000,1000,1000,1000,0,0,0,0,0,0,0,0,0,0
1706514995.40036392,117428843,1000,1000,1000,1000,0,0,0,0,0,0,0,0,0,0
1706514995.50032401,117528803,1000,1000,1000,1000,0,0,0,0,0,0,0,0,0,0
1706514995.60028386,117628763,1000,1000,1000,1000,0,0,0,0,0,0,0,0,0,0
1706514995.70024395,117728723,1000,1000,1000,1000,0,0,0,0,0,0,0,0,0,0
1706514995.80020380,117828683,1000,1000,1000,1000,0,0,0,0,0,0,0,0,0,0
1706514995.90016389,117928643,1000,1000,1000,1000,0,0,0,0,0,0,0,0,0,0
1706514996.00012398,118028603,1000,1000,1000,1000,0,0,0,0,0,0,0,0,0,0
1706514996.10008383,118128563,1000,1000,1000,1000,0,0,0,0,0,0,0,0,0,0
1706514996.20004392,118228523,1000,1000,1000,1000,0,0,0,0,0,0,0,0,0,0
1706514996.30000401,118328483,1000,1000,1000,1000,0,0,0,0,0,0,0,0,0,0
1706514996.39996386,118428443,1000,1000,1000,1000,0,0,0,0,0,0,0,0,0,0
1706514996.49992394,118528403,1000,1000,1000,1000,0,0,0,0,0,0,0,0,0,0
1706514996.59988379,118628363,1000,1000,1000,1000,0,0,0,0,0,0,0,0,0,0
1706514996.69984388,118728323,1000,1000,1000,1000,0,0,0,0,0,0,0,0,0,0
1706514996.79980397,118828283,1000,1000,1000,1000,0,0,0,0,0,0,0,0,0,0
1706514996.89976382,118928243,1000,1000,1000,1000,0,0,0,0,0,0,0,0,0,0
1706514996.99972391,119028203,1000,1000,1000,1000,0,0,0,0,0,0,0,0,0,0
1706514997.09968400,119128163,1000,1000,1000,1000,0,0,0,0,0,0,0,0,0,0
1706514997.20047688,119228956,1000,1000,1000,1000,0,0,0,0,0,0,0,0,0,0
1706514997.30043697,119328916,1000,1000,1000,1000,0,0,0,0,0,0,0,0,0,0
1706514997.40039682,119428876,1000,1000,1000,1000,0,0,0,0,0,0,0,0,0,0
1706514997.50035691,119528836,1000,1000,1000,1000,0,0,0,0,0,0,0,0,0,0
1706514997.60031700,119628796,1000,1000,1000,1000,0,0,0,0,0,0,0,0,0,0
1706514997.70027685,119728756,1000,1000,1000,1000,0,0,0,0,0,0,0,0,0,0
1706514997.80023694,119828716,1000,1000,1000,1000,0,0,0,0,0,0,0,0,0,0
1706514997.90019679,119928676,1000,1000,1000,1000,0,0,0,0,0,0,0,0,0,0
1706514998.00015688,120028636,1000,1000,1000,1000,0,0,0,0,0,0,0,0,0,0
1706514998.10011697,120128596,1000,1000,1000,1000,0,0,0,0,0,0,0,0,0,0
1706514998.20007682,120228556,1000,1000,1000,1000,0,0,0,0,0,0,0,0,0,0
1706514998.30003691,120328516,1000,1000,1000,1000,0,0,0,0,0,0,0,0,0,0
1706514998.39999700,120428476,1000,1000,1000,1000,0,0,0,0,0,0,0,0,0,0
1706514998.49995685,120528436,1000,1000,1000,1000,0,0,0,0,0,0,0,0,0,0
1706514998.59991693,120628396,1000,1000,1000,1000,0,0,0,0,0,0,0,0,0,0
1706514998.69987679,120728356,1000,1000,1000,1000,0,0,0,0,0,0,0,0,0,0
1706514998.79983687,120828316,1000,1000,1000,1000,0,0,0,0,0,0,0,0,0,0
1706514998.89979696,120928276,1000,1000,1000,1000,0,0,0,0,0,0,0,0,0,0
1706514998.99975681,121028236,1000,1000,1000,1000,0,0,0,0,0,0,0,0,0,0
1706514999.09971690,121128196,1000,1000,1000,1000,0,0,0,0,0,0,0,0,0,0
1706514999.19967699,121228156,1000,1000,1000,1000,0,0,0,0,0,0,0,0,0,0
