timestamp,TimeUS,C1,C2,C3,C4,C5,C6,C7,C8,C9,C10,C11,C12,C13,C14
1706513865.59999990,51428587,1000,1000,1000,1000,0,0,0,0,0,0,0,0,0,0
1706513865.69995999,51528547,1000,1000,1000,1000,0,0,0,0,0,0,0,0,0,0
1706513865.79991984,51628507,1000,1000,1000,1000,0,0,0,0,0,0,0,0,0,0
1706513865.89987993,51728467,1000,1000,1000,1000,0,0,0,0,0,0,0,0,0,0
1706513865.99984002,51828427,1000,1000,1000,1000,0,0,0,0,0,0,0,0,0,0
1706513866.09979987,51928387,1000,1000,1000,1000,0,0,0,0,0,0,0,0,0,0
1706513866.19975996,52028347,1000,1000,1000,1000,0,0,0,0,0,0,0,0,0,0
1706513866.29972005,52128307,1000,1000,1000,1000,0,0,0,0,0,0,0,0,0,0
1706513866.39967990,52228267,1000,1000,1000,1000,0,0,0,0,0,0,0,0,0,0
1706513866.49963999,52328227,1000,1000,1000,1000,0,0,0,0,0,0,0,0,0,0
1706513866.59959984,52428187,1000,1000,1000,1000,0,0,0,0,0,0,0,0,0,0
1706513866.70039296,52528980,1000,1000,1000,1000,0,0,0,0,0,0,0,0,0,0
1706513866.80035305,52628940,1000,1000,1000,1000,0,0,0,0,0,0,0,0,0,0
1706513866.90031290,52728900,1000,1000,1000,1000,0,0,0,0,0,0,0,0,0,0
1706513867.00027299,52828860,1000,1000,1000,1000,0,0,0,0,0,0,0,0,0,0
1706513867.10023284,52928820,1000,1000,1000,1000,0,0,0,0,0,0,0,0,0,0
1706513867.20019293,53028780,1000,1000,1000,1000,0,0,0,0,0,0,0,0,0,0
1706513867.30015302,53128740,1000,1000,1000,1000,0,0,0,0,0,0,0,0,0,0
1706513867.40011287,53228700,1000,1000,1000,1000,0,0,0,0,0,0,0,0,0,0
1706513867.50007296,53328660,1000,1000,1000,1000,0,0,0,0,0,0,0,0,0,0
1706513867.60003304,53428620,1024,1024,1024,1024,0,0,0,0,0,0,0,0,0,0
1706513867.69999290,53528580,1054,1054,1054,1054,0,0,0,0,0,0,0,0,0,0
1706513867.79995298,53628540,1084,1084,1084,1084,0,0,0,0,0,0,0,0,0,0
1706513867.89991283,53728500,1113,1113,1113,1113,0,0,0,0,0,0,0,0,0,0
1706513867.99987292,53828460,1143,1143,1143,1143,0,0,0,0,0,0,0,0,0,0
1706513868.09983301,53928420,1357,1351,1351,1357,0,0,0,0,0,0,0,0,0,0
1706513868.19979286,54028380,1546,1541,1542,1547,0,0,0,0,0,0,0,0,0,0
1706513868.29975295,54128340,1699,1694,1695,1699,0,0,0,0,0,0,0,0,0,0
1706513868.39971304,54228300,1830,1826,1826,1830,0,0,0,0,0,0,0,0,0,0
1706513868.49967289,54328260,1876,1872,1872,1877,0,0,0,0,0,0,0,0,0,0
1706513868.59963298,54428220,1834,1832,1832,1834,0,0,0,0,0,0,0,0,0,0
1706513868.69959283,54528180,1704,1704,1704,1704,0,0,0,0,0,0,0,0,0,0
1706513868.80038595,54628973,1629,1630,1630,1629,0,0,0,0,0,0,0,0,0,0
1706513868.90034604,54728933,1618,1620,1620,1618,0,0,0,0,0,0,0,0,0,0
1706513869.00030589,54828893,1629,1632,1631,1629,0,0,0,0,0,0,0,0,0,0
1706513869.10026598,54928853,1637,1637,1638,1636,0,0,0,0,0,0,0,0,0,0
1706513869.20022583,55028813,1628,1627,1625,1630,0,0,0,0,0,0,0,0,0,0
1706513869.30018592,55128773,1614,1614,1607,1622,0,0,0,0,0,0,0,0,0,0
1706513869.40014601,55228733,1607,1608,1602,1613,0,0,0,0,0,0,0,0,0,0
1706513869.50010586,55328693,1606,1606,1605,1607,0,0,0,0,0,0,0,0,0,0
1706513869.60006595,55428653,1610,1609,1612,1607,0,0,0,0,0,0,0,0,0,0
1706513869.70002604,55528613,1614,1613,1617,1610,0,0,0,0,0,0,0,0,0,0
1706513869.79998589,55628573,1618,1618,1622,1614,0,0,0,0,0,0,0,0,0,0
1706513869.89994597,55728533,1606,1606,1612,1600,0,0,0,0,0,0,0,0,0,0
1706513869.99990606,55828493,1582,1583,1595,1571,0,0,0,0,0,0,0,0,0,0
1706513870.09986591,55928453,1569,1570,1576,1563,0,0,0,0,0,0,0,0,0,0
1706513870.19982600,56028413,1558,1559,1557,1560,0,0,0,0,0,0,0,0,0,0
1706513870.29978585,56128373,1549,1549,1540,1559,0,0,0,0,0,0,0,0,0,0
1706513870.39974594,56228333,1542,1542,1531,1553,0,0,0,0,0,0,0,0,0,0
1706513870.49970603,56328293,1536,1535,1527,1544,0,0,0,0,0,0,0,0,0,0
1706513870.59966588,56428253,1530,1529,1525,1533,0,0,0,0,0,0,0,0,0,0
1706513870.69962597,56528213,1528,1527,1527,1528,0,0,0,0,0,0,0,0,0,0
1706513870.79958606,56628173,1528,1528,1530,1526,0,0,0,0,0,0,0,0,0,0
1706513870.90037894,56728966,1531,1531,1534,1528,0,0,0,0,0,0,0,0,0,0
1706513871.00033903,56828926,1534,1534,1538,1530,0,0,0,0,0,0,0,0,0,0
1706513871.10029888,56928886,1537,1537,1541,1534,0,0,0,0,0,0,0,0,0,0
1706513871.20025897,57028846,1540,1540,1542,1539,0,0,0,0,0,0,0,0,0,0
1706513871.30021906,57128806,1544,1544,1544,1544,0,0,0,0,0,0,0,0,0,0
1706513871.40017891,57228766,1547,1546,1546,1547,0,0,0,0,0,0,0,0,0,0
1706513871.50013900,57328726,1550,1550,1549,1551,0,0,0,0,0,0,0,0,0,0
1706513871.60009885,57428686,1551,1552,1550,1553,0,0,0,0,0,0,0,0,0,0
1706513871.70005894,57528646,1552,1552,1556,1558,0,0,0,0,0,0,0,0,0,0
1706513871.80001903,57628606,1554,1553,1559,1561,0,0,0,0,0,0,0,0,0,0
1706513871.89997888,57728566,1556,1556,1562,1563,0,0,0,0,0,0,0,0,0,0
1706513871.99993896,57828526,1558,1559,1563,1563,0,0,0,0,0,0,0,0,0,0
1706513872.09989905,57928486,1562,1562,1565,1565,0,0,0,0,0,0,0,0,0,0
1706513872.19985890,58028446,1564,1565,1565,1565,0,0,0,0,0,0,0,0,0,0
1706513872.29981899,58128406,1566,1566,1565,1565,0,0,0,0,0,0,0,0,0,0
1706513872.39977884,58228366,1569,1569,1567,1566,0,0,0,0,0,0,0,0,0,0
1706513872.49973893,58328326,1570,1569,1567,1566,0,0,0,0,0,0,0,0,0,0
1706513872.59969902,58428286,1570,1571,1567,1567,0,0,0,0,0,0,0,0,0,0
1706513872.69965887,58528246,1572,1572,1568,1569,0,0,0,0,0,0,0,0,0,0
1706513872.79961896,58628206,1572,1573,1569,1569,0,0,0,0,0,0,0,0,0,0
1706513872.89957905,58728166,1573,1573,1570,1570,0,0,0,0,0,0,0,0,0,0
1706513873.00037193,58828959,1573,1573,1571,1570,0,0,0,0,0,0,0,0,0,0
1706513873.10033202,58928919,1573,1573,1573,1571,0,0,0,0,0,0,0,0,0,0
1706513873.20029187,59028879,1574,1574,1575,1573,0,0,0,0,0,0,0,0,0,0
1706513873.30025196,59128839,1575,1574,1575,1574,0,0,0,0,0,0,0,0,0,0
1706513873.40021205,59228799,1575,1574,1575,1575,0,0,0,0,0,0,0,0,0,0
1706513873.50017190,59328759,1575,1574,1576,1575,0,0,0,0,0,0,0,0,0,0
1706513873.60013199,59428719,1576,1575,1577,1577,0,0,0,0,0,0,0,0,0,0
1706513873.70009184,59528679,1574,1575,1576,1576,0,0,0,0,0,0,0,0,0,0
1706513873.80005193,59628639,1574,1575,1575,1576,0,0,0,0,0,0,0,0,0,0
1706513873.90001202,59728599,1576,1576,1577,1577,0,0,0,0,0,0,0,0,0,0
1706513873.99997187,59828559,1576,1576,1576,1576,0,0,0,0,0,0,0,0,0,0
1706513874.09993196,59928519,1577,1576,1577,1577,0,0,0,0,0,0,0,0,0,0
1706513874.19989204,60028479,1577,1578,1578,1577,0,0,0,0,0,0,0,0,0,0
1706513874.29985189,60128439,1578,1578,1578,1578,0,0,0,0,0,0,0,0,0,0
1706513874.39981198,60228399,1579,1579,1578,1578,0,0,0,0,0,0,0,0,0,0
1706513874.49977183,60328359,1577,1578,1577,1577,0,0,0,0,0,0,0,0,0,0
1706513874.59973192,60428319,1579,1579,1579,1578,0,0,0,0,0,0,0,0,0,0
1706513874.69969201,60528279,1579,1579,1578,1578,0,0,0,0,0,0,0,0,0,0
1706513874.79965186,60628239,1579,1579,1579,1579,0,0,0,0,0,0,0,0,0,0
1706513874.89961195,60728199,1579,1579,1579,1579,0,0,0,0,0,0,0,0,0,0
1706513874.99957204,60828159,1579,1579,1579,1580,0,0,0,0,0,0,0,0,0,0
1706513875.10036492,60928952,1579,1579,1579,1579,0,0,0,0,0,0,0,0,0,0
1706513875.20032501,61028912,1579,1579,1579,1579,0,0,0,0,0,0,0,0,0,0
1706513875.30028486,61128872,1579,1579,1579,1579,0,0,0,0,0,0,0,0,0,0
1706513875.40024495,61228832,1579,1579,1579,1579,0,0,0,0,0,0,0,0,0,0
1706513875.50020504,61328792,1580,1579,1580,1579,0,0,0,0,0,0,0,0,0,0
1706513875.60016489,61428752,1579,1579,1579,1579,0,0,0,0,0,0,0,0,0,0
1706513875.70012498,61528712,1579,1579,1579,1579,0,0,0,0,0,0,0,0,0,0
1706513875.80008483,61628672,1579,1579,1580,1579,0,0,0,0,0,0,0,0,0,0
1706513875.90004492,61728632,1580,1580,1580,1580,0,0,0,0,0,0,0,0,0,0
1706513876.00000501,61828592,1580,1580,1580,1580,0,0,0,0,0,0,0,0,0,0
1706513876.09996486,61928552,1580,1580,1580,1580,0,0,0,0,0,0,0,0,0,0
1706513876.19992495,62028512,1579,1579,1579,1579,0,0,0,0,0,0,0,0,0,0
1706513876.29988503,62128472,1580,1580,1580,1580,0,0,0,0,0,0,0,0,0,0
1706513876.39984488,62228432,1580,1580,1580,1580,0,0,0,0,0,0,0,0,0,0
1706513876.49980497,62328392,1580,1580,1581,1580,0,0,0,0,0,0,0,0,0,0
1706513876.59976506,62428352,1581,1581,1581,1581,0,0,0,0,0,0,0,0,0,0
1706513876.69972491,62528312,1581,1581,1581,1581,0,0,0,0,0,0,0,0,0,0
1706513876.79968500,62628272,1581,1581,1581,1581,0,0,0,0,0,0,0,0,0,0
1706513876.89964485,62728232,1581,1580,1581,1581,0,0,0,0,0,0,0,0,0,0
1706513876.99960494,62828192,1580,1580,1580,1580,0,0,0,0,0,0,0,0,0,0
1706513877.10039806,62928985,1580,1579,1579,1580,0,0,0,0,0,0,0,0,0,0
1706513877.20035791,63028945,1579,1580,1579,1579,0,0,0,0,0,0,0,0,0,0
1706513877.30031800,63128905,1579,1580,1580,1580,0,0,0,0,0,0,0,0,0,0
1706513877.40027785,63228865,1581,1580,1581,1580,0,0,0,0,0,0,0,0,0,0
1706513877.50023794,63328825,1581,1580,1581,1581,0,0,0,0,0,0,0,0,0,0
1706513877.60019803,63428785,1581,1581,1581,1581,0,0,0,0,0,0,0,0,0,0
1706513877.70015788,63528745,1581,1581,1581,1581,0,0,0,0,0,0,0,0,0,0
1706513877.80011797,63628705,1582,1582,1582,1582,0,0,0,0,0,0,0,0,0,0
1706513877.90007806,63728665,1581,1582,1586,1576,0,0,0,0,0,0,0,0,0,0
1706513878.00003791,63828625,1580,1583,1587,1573,0,0,0,0,0,0,0,0,0,0
1706513878.09999800,63928585,1580,1582,1581,1574,0,0,0,0,0,0,0,0,0,0
1706513878.19995785,64028545,1579,1581,1572,1573,0,0,0,0,0,0,0,0,0,0
1706513878.29991794,64128505,1577,1579,1563,1569,0,0,0,0,0,0,0,0,0,0
1706513878.39987803,64228465,1577,1578,1558,1565,0,0,0,0,0,0,0,0,0,0
1706513878.49983788,64328425,1578,1578,1555,1560,0,0,0,0,0,0,0,0,0,0
1706513878.59979796,64428385,1579,1577,1555,1556,0,0,0,0,0,0,0,0,0,0
1706513878.69975805,64528345,1578,1576,1554,1554,0,0,0,0,0,0,0,0,0,0
1706513878.79971790,64628305,1578,1577,1555,1553,0,0,0,0,0,0,0,0,0,0
1706513878.89967799,64728265,1576,1577,1556,1553,0,0,0,0,0,0,0,0,0,0
1706513878.99963784,64828225,1576,1577,1556,1554,0,0,0,0,0,0,0,0,0,0
1706513879.09959793,64928185,1575,1576,1555,1554,0,0,0,0,0,0,0,0,0,0
1706513879.20039105,65028978,1574,1576,1554,1554,0,0,0,0,0,0,0,0,0,0
1706513879.30035090,65128938,1575,1576,1552,1552,0,0,0,0,0,0,0,0,0,0
1706513879.40031099,65228898,1576,1577,1550,1551,0,0,0,0,0,0,0,0,0,0
1706513879.50027084,65328858,1577,1579,1548,1549,0,0,0,0,0,0,0,0,0,0
1706513879.60023093,65428818,1580,1582,1547,1547,0,0,0,0,0,0,0,0,0,0
1706513879.70019102,65528778,1584,1584,1545,1545,0,0,0,0,0,0,0,0,0,0
1706513879.80015087,65628738,1586,1587,1542,1541,0,0,0,0,0,0,0,0,0,0
1706513879.90011096,65728698,1589,1590,1539,1538,0,0,0,0,0,0,0,0,0,0
1706513880.00007105,65828658,1591,1591,1535,1535,0,0,0,0,0,0,0,0,0,0
1706513880.10003090,65928618,1594,1594,1535,1535,0,0,0,0,0,0,0,0,0,0
1706513880.19999099,66028578,1596,1596,1535,1536,0,0,0,0,0,0,0,0,0,0
1706513880.29995084,66128538,1595,1595,1535,1538,0,0,0,0,0,0,0,0,0,0
1706513880.39991093,66228498,1594,1594,1537,1541,0,0,0,0,0,0,0,0,0,0
1706513880.49987102,66328458,1591,1590,1541,1545,0,0,0,0,0,0,0,0,0,0
1706513880.59983087,66428418,1586,1584,1548,1552,0,0,0,0,0,0,0,0,0,0
1706513880.69979095,66528378,1578,1575,1557,1560,0,0,0,0,0,0,0,0,0,0
1706513880.79975104,66628338,1569,1565,1569,1571,0,0,0,0,0,0,0,0,0,0
1706513880.89971089,66728298,1558,1554,1582,1583,0,0,0,0,0,0,0,0,0,0
1706513880.99967098,66828258,1547,1544,1594,1594,0,0,0,0,0,0,0,0,0,0
1706513881.09963083,66928218,1537,1535,1603,1603,0,0,0,0,0,0,0,0,0,0
1706513881.19959092,67028178,1531,1531,1612,1610,0,0,0,0,0,0,0,0,0,0
1706513881.30038404,67128971,1527,1528,1615,1613,0,0,0,0,0,0,0,0,0,0
1706513881.40034389,67228931,1529,1532,1615,1614,0,0,0,0,0,0,0,0,0,0
1706513881.50030398,67328891,1533,1536,1611,1611,0,0,0,0,0,0,0,0,0,0
1706513881.60026383,67428851,1540,1543,1605,1606,0,0,0,0,0,0,0,0,0,0
1706513881.70022392,67528811,1549,1550,1598,1599,0,0,0,0,0,0,0,0,0,0
1706513881.80018401,67628771,1559,1559,1591,1591,0,0,0,0,0,0,0,0,0,0
1706513881.90014386,67728731,1568,1567,1584,1584,0,0,0,0,0,0,0,0,0,0
1706513882.00010395,67828691,1575,1575,1577,1576,0,0,0,0,0,0,0,0,0,0
1706513882.10006404,67928651,1582,1580,1572,1572,0,0,0,0,0,0,0,0,0,0
1706513882.20002389,68028611,1585,1583,1568,1567,0,0,0,0,0,0,0,0,0,0
1706513882.29998398,68128571,1588,1586,1566,1566,0,0,0,0,0,0,0,0,0,0
1706513882.39994383,68228531,1588,1587,1567,1567,0,0,0,0,0,0,0,0,0,0
1706513882.49990392,68328491,1587,1586,1568,1568,0,0,0,0,0,0,0,0,0,0
1706513882.59986401,68428451,1584,1584,1569,1570,0,0,0,0,0,0,0,0,0,0
1706513882.69982386,68528411,1323,1327,1637,1645,0,0,0,0,0,0,0,0,0,0
1706513882.79978395,68628371,1398,1408,1651,1655,0,0,0,0,0,0,0,0,0,0
1706513882.89974403,68728331,1572,1581,1613,1605,0,0,0,0,0,0,0,0,0,0
1706513882.99970388,68828291,1601,1604,1597,1586,0,0,0,0,0,0,0,0,0,0
1706513883.09966397,68928251,1620,1617,1585,1580,0,0,0,0,0,0,0,0,0,0
1706513883.19962406,69028211,1632,1624,1579,1578,0,0,0,0,0,0,0,0,0,0
1706513883.29958391,69128171,1639,1629,1569,1574,0,0,0,0,0,0,0,0,0,0
1706513883.40037704,69228964,1651,1644,1551,1558,0,0,0,0,0,0,0,0,0,0
1706513883.50033689,69328924,1657,1654,1534,1542,0,0,0,0,0,0,0,0,0,0
1706513883.60029697,69428884,1656,1656,1530,1535,0,0,0,0,0,0,0,0,0,0
1706513883.70025706,69528844,1647,1650,1535,1537,0,0,0,0,0,0,0,0,0,0
1706513883.80021691,69628804,1635,1638,1546,1546,0,0,0,0,0,0,0,0,0,0
1706513883.90017700,69728764,1620,1620,1561,1560,0,0,0,0,0,0,0,0,0,0
1706513884.00013685,69828724,1601,1599,1579,1577,0,0,0,0,0,0,0,0,0,0
1706513884.10009694,69928684,1583,1580,1594,1593,0,0,0,0,0,0,0,0,0,0
1706513884.20005703,70028644,1570,1569,1603,1602,0,0,0,0,0,0,0,0,0,0
1706513884.30001688,70128604,1562,1562,1604,1605,0,0,0,0,0,0,0,0,0,0
1706513884.39997697,70228564,1558,1560,1603,1602,0,0,0,0,0,0,0,0,0,0
1706513884.49993706,70328524,1558,1561,1601,1600,0,0,0,0,0,0,0,0,0,0
1706513884.59989691,70428484,1559,1563,1597,1596,0,0,0,0,0,0,0,0,0,0
1706513884.69985700,70528444,1563,1566,1594,1592,0,0,0,0,0,0,0,0,0,0
1706513884.79981685,70628404,1566,1568,1589,1588,0,0,0,0,0,0,0,0,0,0
1706513884.89977694,70728364,1570,1570,1586,1585,0,0,0,0,0,0,0,0,0,0
1706513884.99973702,70828324,1573,1573,1583,1582,0,0,0,0,0,0,0,0,0,0
1706513885.09969687,70928284,1576,1576,1580,1580,0,0,0,0,0,0,0,0,0,0
1706513885.19965696,71028244,1579,1578,1578,1578,0,0,0,0,0,0,0,0,0,0
1706513885.29961705,71128204,1582,1580,1577,1577,0,0,0,0,0,0,0,0,0,0
1706513885.39957690,71228164,1583,1582,1575,1576,0,0,0,0,0,0,0,0,0,0
1706513885.50037003,71328957,1584,1583,1574,1575,0,0,0,0,0,0,0,0,0,0
1706513885.60032988,71428917,1584,1584,1573,1573,0,0,0,0,0,0,0,0,0,0
1706513885.70028996,71528877,1584,1585,1573,1573,0,0,0,0,0,0,0,0,0,0
1706513885.80025005,71628837,1585,1585,1574,1574,0,0,0,0,0,0,0,0,0,0
1706513885.90020990,71728797,1586,1585,1579,1571,0,0,0,0,0,0,0,0,0,0
1706513886.00016999,71828757,1587,1583,1581,1568,0,0,0,0,0,0,0,0,0,0
1706513886.10012984,71928717,1587,1582,1575,1569,0,0,0,0,0,0,0,0,0,0
1706513886.20008993,72028677,1583,1581,1566,1569,0,0,0,0,0,0,0,0,0,0
1706513886.30005002,72128637,1580,1580,1560,1566,0,0,0,0,0,0,0,0,0,0
1706513886.40000987,72228597,1577,1581,1558,1563,0,0,0,0,0,0,0,0,0,0
1706513886.49996996,72328557,1575,1580,1556,1559,0,0,0,0,0,0,0,0,0,0
1706513886.59993005,72428517,1575,1579,1557,1556,0,0,0,0,0,0,0,0,0,0
1706513886.69988990,72528477,1575,1578,1557,1555,0,0,0,0,0,0,0,0,0,0
1706513886.79984999,72628437,1575,1577,1557,1554,0,0,0,0,0,0,0,0,0,0
1706513886.89980984,72728397,1576,1575,1556,1553,0,0,0,0,0,0,0,0,0,0
1706513886.99976993,72828357,1576,1574,1554,1553,0,0,0,0,0,0,0,0,0,0
1706513887.09973001,72928317,1575,1574,1552,1552,0,0,0,0,0,0,0,0,0,0
1706513887.19968987,73028277,1574,1574,1550,1551,0,0,0,0,0,0,0,0,0,0
1706513887.29964995,73128237,1574,1575,1548,1550,0,0,0,0,0,0,0,0,0,0
1706513887.39961004,73228197,1574,1576,1547,1547,0,0,0,0,0,0,0,0,0,0
1706513887.49956989,73328157,1574,1576,1545,1544,0,0,0,0,0,0,0,0,0,0
1706513887.60036302,73428950,1576,1579,1544,1543,0,0,0,0,0,0,0,0,0,0
1706513887.70032287,73528910,1579,1580,1542,1541,0,0,0,0,0,0,0,0,0,0
1706513887.80028296,73628870,1581,1582,1540,1539,0,0,0,0,0,0,0,0,0,0
1706513887.90024304,73728830,1584,1584,1539,1539,0,0,0,0,0,0,0,0,0,0
1706513888.00020289,73828790,1587,1586,1537,1537,0,0,0,0,0,0,0,0,0,0
1706513888.10016298,73928750,1589,1589,1537,1538,0,0,0,0,0,0,0,0,0,0
1706513888.20012283,74028710,1590,1589,1536,1537,0,0,0,0,0,0,0,0,0,0
1706513888.30008292,74128670,1589,1589,1537,1539,0,0,0,0,0,0,0,0,0,0
1706513888.40004301,74228630,1589,1588,1539,1542,0,0,0,0,0,0,0,0,0,0
1706513888.50000286,74328590,1587,1586,1544,1546,0,0,0,0,0,0,0,0,0,0
1706513888.59996295,74428550,1583,1582,1548,1551,0,0,0,0,0,0,0,0,0,0
1706513888.69992304,74528510,1579,1577,1554,1558,0,0,0,0,0,0,0,0,0,0
1706513888.79988289,74628470,1573,1572,1560,1564,0,0,0,0,0,0,0,0,0,0
1706513888.89984298,74728430,1567,1566,1567,1571,0,0,0,0,0,0,0,0,0,0
1706513888.99980283,74828390,1561,1560,1575,1577,0,0,0,0,0,0,0,0,0,0
1706513889.09976292,74928350,1555,1554,1583,1584,0,0,0,0,0,0,0,0,0,0
1706513889.19972301,75028310,1549,1547,1590,1589,0,0,0,0,0,0,0,0,0,0
1706513889.29968286,75128270,1544,1543,1597,1596,0,0,0,0,0,0,0,0,0,0
1706513889.39964294,75228230,1539,1539,1602,1601,0,0,0,0,0,0,0,0,0,0
1706513889.49960303,75328190,1535,1536,1606,1605,0,0,0,0,0,0,0,0,0,0
1706513889.60039592,75428983,1533,1534,1608,1607,0,0,0,0,0,0,0,0,0,0
1706513889.70035601,75528943,1534,1536,1607,1607,0,0,0,0,0,0,0,0,0,0
1706513889.80031586,75628903,1538,1539,1603,1604,0,0,0,0,0,0,0,0,0,0
1706513889.90027595,75728863,1544,1545,1598,1598,0,0,0,0,0,0,0,0,0,0
1706513890.00023603,75828823,1551,1553,1592,1592,0,0,0,0,0,0,0,0,0,0
1706513890.10019588,75928783,1560,1560,1585,1586,0,0,0,0,0,0,0,0,0,0
1706513890.20015597,76028743,1568,1568,1580,1579,0,0,0,0,0,0,0,0,0,0
1706513890.30011606,76128703,1575,1574,1575,1574,0,0,0,0,0,0,0,0,0,0
1706513890.40007591,76228663,1581,1580,1573,1571,0,0,0,0,0,0,0,0,0,0
1706513890.50003600,76328623,1583,1582,1570,1569,0,0,0,0,0,0,0,0,0,0
1706513890.59999585,76428583,1586,1584,1569,1569,0,0,0,0,0,0,0,0,0,0
1706513890.69995594,76528543,1587,1585,1569,1569,0,0,0,0,0,0,0,0,0,0
1706513890.79991603,76628503,1586,1585,1569,1570,0,0,0,0,0,0,0,0,0,0
1706513890.89987588,76728463,1585,1585,1570,1570,0,0,0,0,0,0,0,0,0,0
1706513890.99983597,76828423,1584,1584,1571,1571,0,0,0,0,0,0,0,0,0,0
1706513891.09979606,76928383,1583,1583,1573,1573,0,0,0,0,0,0,0,0,0,0
1706513891.19975591,77028343,1582,1582,1575,1575,0,0,0,0,0,0,0,0,0,0
1706513891.29971600,77128303,1581,1581,1576,1575,0,0,0,0,0,0,0,0,0,0
1706513891.39967585,77228263,1579,1579,1576,1576,0,0,0,0,0,0,0,0,0,0
1706513891.49963593,77328223,1578,1578,1578,1578,0,0,0,0,0,0,0,0,0,0
1706513891.59959602,77428183,1578,1578,1580,1580,0,0,0,0,0,0,0,0,0,0
1706513891.70038891,77528976,1577,1578,1581,1581,0,0,0,0,0,0,0,0,0,0
1706513891.80034900,77628936,1577,1577,1581,1581,0,0,0,0,0,0,0,0,0,0
1706513891.90030885,77728896,1577,1577,1581,1581,0,0,0,0,0,0,0,0,0,0
1706513892.00026894,77828856,1576,1576,1581,1581,0,0,0,0,0,0,0,0,0,0
1706513892.10022902,77928816,1576,1577,1582,1581,0,0,0,0,0,0,0,0,0,0
1706513892.20018888,78028776,1577,1577,1581,1581,0,0,0,0,0,0,0,0,0,0
1706513892.30014896,78128736,1578,1577,1581,1581,0,0,0,0,0,0,0,0,0,0
1706513892.40010905,78228696,1578,1578,1580,1580,0,0,0,0,0,0,0,0,0,0
1706513892.50006890,78328656,1578,1578,1580,1580,0,0,0,0,0,0,0,0,0,0
1706513892.60002899,78428616,1578,1579,1579,1579,0,0,0,0,0,0,0,0,0,0
1706513892.69998884,78528576,1580,1580,1580,1579,0,0,0,0,0,0,0,0,0,0
1706513892.79994893,78628536,1580,1580,1579,1579,0,0,0,0,0,0,0,0,0,0
1706513892.89990902,78728496,1580,1580,1578,1579,0,0,0,0,0,0,0,0,0,0
1706513892.99986887,78828456,1581,1581,1579,1579,0,0,0,0,0,0,0,0,0,0
1706513893.09982896,78928416,1581,1581,1579,1579,0,0,0,0,0,0,0,0,0,0
1706513893.19978905,79028376,1581,1580,1578,1578,0,0,0,0,0,0,0,0,0,0
1706513893.29974890,79128336,1582,1581,1579,1579,0,0,0,0,0,0,0,0,0,0
1706513893.39970899,79228296,1583,1582,1581,1581,0,0,0,0,0,0,0,0,0,0
1706513893.49966884,79328256,1582,1582,1581,1581,0,0,0,0,0,0,0,0,0,0
1706513893.59962893,79428216,1582,1582,1581,1581,0,0,0,0,0,0,0,0,0,0
1706513893.69958901,79528176,1582,1582,1581,1581,0,0,0,0,0,0,0,0,0,0
1706513893.80038190,79628969,1581,1581,1580,1581,0,0,0,0,0,0,0,0,0,0
1706513893.90034199,79728929,1581,1581,1581,1581,0,0,0,0,0,0,0,0,0,0
1706513894.00030184,79828889,1581,1582,1581,1582,0,0,0,0,0,0,0,0,0,0
1706513894.10026193,79928849,1581,1581,1581,1581,0,0,0,0,0,0,0,0,0,0
1706513894.20022202,80028809,1581,1581,1581,1581,0,0,0,0,0,0,0,0,0,0
1706513894.30018187,80128769,1581,1581,1581,1581,0,0,0,0,0,0,0,0,0,0
1706513894.40014195,80228729,1581,1581,1582,1582,0,0,0,0,0,0,0,0,0,0
1706513894.50010204,80328689,1581,1581,1581,1581,0,0,0,0,0,0,0,0,0,0
1706513894.60006189,80428649,1581,1580,1581,1580,0,0,0,0,0,0,0,0,0,0
1706513894.70002198,80528609,1582,1582,1589,1575,0,0,0,0,0,0,0,0,0,0
1706513894.79998183,80628569,1580,1581,1584,1573,0,0,0,0,0,0,0,0,0,0
1706513894.89994192,80728529,1580,1581,1576,1574,0,0,0,0,0,0,0,0,0,0
1706513894.99990201,80828489,1577,1579,1567,1570,0,0,0,0,0,0,0,0,0,0
1706513895.09986186,80928449,1576,1579,1560,1567,0,0,0,0,0,0,0,0,0,0
1706513895.19982195,81028409,1577,1578,1556,1562,0,0,0,0,0,0,0,0,0,0
1706513895.29978204,81128369,1578,1579,1557,1560,0,0,0,0,0,0,0,0,0,0
1706513895.39974189,81228329,1578,1578,1557,1556,0,0,0,0,0,0,0,0,0,0
1706513895.49970198,81328289,1579,1578,1557,1555,0,0,0,0,0,0,0,0,0,0
1706513895.59966183,81428249,1578,1577,1556,1554,0,0,0,0,0,0,0,0,0,0
1706513895.69962192,81528209,1577,1576,1555,1554,0,0,0,0,0,0,0,0,0,0
1706513895.79958200,81628169,1576,1576,1555,1554,0,0,0,0,0,0,0,0,0,0
1706513895.90037489,81728962,1574,1575,1552,1553,0,0,0,0,0,0,0,0,0,0
1706513896.00033498,81828922,1574,1576,1552,1552,0,0,0,0,0,0,0,0,0,0
1706513896.10029483,81928882,1575,1577,1551,1552,0,0,0,0,0,0,0,0,0,0
1706513896.20025492,82028842,1576,1578,1550,1550,0,0,0,0,0,0,0,0,0,0
1706513896.30021501,82128802,1577,1579,1549,1548,0,0,0,0,0,0,0,0,0,0
1706513896.40017486,82228762,1578,1580,1546,1545,0,0,0,0,0,0,0,0,0,0
1706513896.50013494,82328722,1582,1582,1545,1544,0,0,0,0,0,0,0,0,0,0
1706513896.60009503,82428682,1585,1585,1544,1544,0,0,0,0,0,0,0,0,0,0
1706513896.70005488,82528642,1586,1586,1540,1540,0,0,0,0,0,0,0,0,0,0
1706513896.80001497,82628602,1589,1589,1539,1540,0,0,0,0,0,0,0,0,0,0
1706513896.89997506,82728562,1591,1591,1539,1539,0,0,0,0,0,0,0,0,0,0
1706513896.99993491,82828522,1591,1591,1538,1539,0,0,0,0,0,0,0,0,0,0
1706513897.09989500,82928482,1591,1591,1539,1541,0,0,0,0,0,0,0,0,0,0
1706513897.19985485,83028442,1591,1590,1541,1543,0,0,0,0,0,0,0,0,0,0
1706513897.29981494,83128402,1588,1588,1544,1547,0,0,0,0,0,0,0,0,0,0
1706513897.39977503,83228362,1585,1583,1549,1552,0,0,0,0,0,0,0,0,0,0
1706513897.49973488,83328322,1580,1577,1556,1559,0,0,0,0,0,0,0,0,0,0
1706513897.59969497,83428282,1573,1569,1566,1568,0,0,0,0,0,0,0,0,0,0
1706513897.69965506,83528242,1564,1560,1577,1579,0,0,0,0,0,0,0,0,0,0
1706513897.79961491,83628202,1554,1551,1589,1590,0,0,0,0,0,0,0,0,0,0
1706513897.89957500,83728162,1546,1543,1599,1600,0,0,0,0,0,0,0,0,0,0
1706513898.00036788,83828955,1537,1537,1606,1605,0,0,0,0,0,0,0,0,0,0
1706513898.10032797,83928915,1533,1534,1612,1611,0,0,0,0,0,0,0,0,0,0
1706513898.20028806,84028875,1531,1533,1613,1612,0,0,0,0,0,0,0,0,0,0
1706513898.30024791,84128835,1533,1535,1611,1610,0,0,0,0,0,0,0,0,0,0
1706513898.40020800,84228795,1537,1540,1606,1606,0,0,0,0,0,0,0,0,0,0
1706513898.50016785,84328755,1544,1545,1600,1600,0,0,0,0,0,0,0,0,0,0
1706513898.60012794,84428715,1552,1553,1594,1594,0,0,0,0,0,0,0,0,0,0
1706513898.70008802,84528675,1560,1560,1586,1586,0,0,0,0,0,0,0,0,0,0
1706513898.80004787,84628635,1568,1568,1580,1580,0,0,0,0,0,0,0,0,0,0
1706513898.90000796,84728595,1576,1575,1576,1575,0,0,0,0,0,0,0,0,0,0
1706513898.99996805,84828555,1582,1580,1572,1570,0,0,0,0,0,0,0,0,0,0
1706513899.09992790,84928515,1587,1584,1569,1568,0,0,0,0,0,0,0,0,0,0
1706513899.19988799,85028475,1589,1587,1567,1567,0,0,0,0,0,0,0,0,0,0
1706513899.29984784,85128435,1589,1588,1566,1567,0,0,0,0,0,0,0,0,0,0
1706513899.39980793,85228395,1588,1587,1567,1568,0,0,0,0,0,0,0,0,0,0
1706513899.49976802,85328355,1587,1587,1569,1570,0,0,0,0,0,0,0,0,0,0
1706513899.59972787,85428315,1584,1584,1572,1572,0,0,0,0,0,0,0,0,0,0
1706513899.69968796,85528275,1582,1582,1575,1575,0,0,0,0,0,0,0,0,0,0
1706513899.79964805,85628235,1579,1580,1578,1578,0,0,0,0,0,0,0,0,0,0
1706513899.89960790,85728195,1577,1578,1581,1581,0,0,0,0,0,0,0,0,0,0
1706513899.99956799,85828155,1575,1575,1582,1582,0,0,0,0,0,0,0,0,0,0
1706513900.10036087,85928948,1574,1574,1583,1583,0,0,0,0,0,0,0,0,0,0
1706513900.20032096,86028908,1573,1573,1584,1584,0,0,0,0,0,0,0,0,0,0
1706513900.30028105,86128868,1573,1573,1584,1585,0,0,0,0,0,0,0,0,0,0
1706513900.40024090,86228828,1574,1574,1584,1584,0,0,0,0,0,0,0,0,0,0
1706513900.50020099,86328788,1575,1575,1584,1584,0,0,0,0,0,0,0,0,0,0
1706513900.60016084,86428748,1576,1576,1583,1582,0,0,0,0,0,0,0,0,0,0
1706513900.70012093,86528708,1578,1578,1582,1582,0,0,0,0,0,0,0,0,0,0
1706513900.80008101,86628668,1578,1578,1580,1580,0,0,0,0,0,0,0,0,0,0
1706513900.90004086,86728628,1580,1580,1579,1579,0,0,0,0,0,0,0,0,0,0
1706513901.00000095,86828588,1580,1580,1577,1577,0,0,0,0,0,0,0,0,0,0
1706513901.09996104,86928548,1581,1580,1576,1577,0,0,0,0,0,0,0,0,0,0
1706513901.19992089,87028508,1582,1581,1576,1577,0,0,0,0,0,0,0,0,0,0
1706513901.29988098,87128468,1581,1581,1576,1576,0,0,0,0,0,0,0,0,0,0
1706513901.39984083,87228428,1582,1582,1577,1577,0,0,0,0,0,0,0,0,0,0
1706513901.49980092,87328388,1582,1583,1579,1579,0,0,0,0,0,0,0,0,0,0
1706513901.59976101,87428348,1581,1581,1579,1578,0,0,0,0,0,0,0,0,0,0
1706513901.69972086,87528308,1581,1580,1579,1579,0,0,0,0,0,0,0,0,0,0
1706513901.79968095,87628268,1581,1581,1580,1580,0,0,0,0,0,0,0,0,0,0
1706513901.89964104,87728228,1580,1580,1580,1580,0,0,0,0,0,0,0,0,0,0
1706513901.99960089,87828188,1581,1581,1582,1582,0,0,0,0,0,0,0,0,0,0
1706513902.10039401,87928981,1580,1581,1582,1582,0,0,0,0,0,0,0,0,0,0
1706513902.20035386,88028941,1580,1580,1582,1582,0,0,0,0,0,0,0,0,0,0
1706513902.30031395,88128901,1579,1580,1581,1581,0,0,0,0,0,0,0,0,0,0
1706513902.40027404,88228861,1580,1580,1582,1582,0,0,0,0,0,0,0,0,0,0
1706513902.50023389,88328821,1580,1580,1581,1581,0,0,0,0,0,0,0,0,0,0
1706513902.60019398,88428781,1581,1581,1582,1582,0,0,0,0,0,0,0,0,0,0
1706513902.70015383,88528741,1581,1581,1582,1581,0,0,0,0,0,0,0,0,0,0
1706513902.80011392,88628701,1582,1581,1588,1574,0,0,0,0,0,0,0,0,0,0
1706513902.90007401,88728661,1581,1581,1586,1574,0,0,0,0,0,0,0,0,0,0
1706513903.00003386,88828621,1579,1579,1578,1576,0,0,0,0,0,0,0,0,0,0
1706513903.09999394,88928581,1576,1575,1570,1575,0,0,0,0,0,0,0,0,0,0
1706513903.19995403,89028541,1573,1573,1566,1573,0,0,0,0,0,0,0,0,0,0
1706513903.29991388,89128501,1570,1570,1564,1570,0,0,0,0,0,0,0,0,0,0
1706513903.39987397,89228461,1569,1569,1565,1568,0,0,0,0,0,0,0,0,0,0
1706513903.49983406,89328421,1568,1568,1567,1567,0,0,0,0,0,0,0,0,0,0
1706513903.59979391,89428381,1567,1567,1568,1566,0,0,0,0,0,0,0,0,0,0
1706513903.69975400,89528341,1567,1567,1569,1567,0,0,0,0,0,0,0,0,0,0
1706513903.79971385,89628301,1565,1565,1567,1565,0,0,0,0,0,0,0,0,0,0
1706513903.89967394,89728261,1564,1564,1566,1565,0,0,0,0,0,0,0,0,0,0
1706513903.99963403,89828221,1564,1564,1566,1565,0,0,0,0,0,0,0,0,0,0
1706513904.09959388,89928181,1563,1562,1564,1564,0,0,0,0,0,0,0,0,0,0
1706513904.20038700,90028974,1562,1562,1563,1563,0,0,0,0,0,0,0,0,0,0
1706513904.30034685,90128934,1562,1562,1562,1563,0,0,0,0,0,0,0,0,0,0
1706513904.40030694,90228894,1561,1561,1562,1562,0,0,0,0,0,0,0,0,0,0
1706513904.50026703,90328854,1561,1561,1562,1561,0,0,0,0,0,0,0,0,0,0
1706513904.60022688,90428814,1560,1561,1561,1560,0,0,0,0,0,0,0,0,0,0
1706513904.70018697,90528774,1559,1560,1560,1559,0,0,0,0,0,0,0,0,0,0
1706513904.80014706,90628734,1559,1559,1559,1558,0,0,0,0,0,0,0,0,0,0
1706513904.90010691,90728694,1560,1559,1559,1559,0,0,0,0,0,0,0,0,0,0
1706513905.00006700,90828654,1559,1559,1559,1558,0,0,0,0,0,0,0,0,0,0
1706513905.10002685,90928614,1559,1558,1558,1558,0,0,0,0,0,0,0,0,0,0
1706513905.19998693,91028574,1558,1558,1558,1557,0,0,0,0,0,0,0,0,0,0
1706513905.29994702,91128534,1558,1558,1559,1557,0,0,0,0,0,0,0,0,0,0
1706513905.39990687,91228494,1558,1558,1559,1556,0,0,0,0,0,0,0,0,0,0
1706513905.49986696,91328454,1559,1558,1560,1557,0,0,0,0,0,0,0,0,0,0
1706513905.59982705,91428414,1559,1559,1560,1559,0,0,0,0,0,0,0,0,0,0
1706513905.69978690,91528374,1559,1559,1557,1562,0,0,0,0,0,0,0,0,0,0
1706513905.79974699,91628334,1560,1560,1557,1564,0,0,0,0,0,0,0,0,0,0
1706513905.89970684,91728294,1560,1561,1558,1564,0,0,0,0,0,0,0,0,0,0
1706513905.99966693,91828254,1561,1561,1559,1563,0,0,0,0,0,0,0,0,0,0
1706513906.09962702,91928214,1561,1561,1561,1562,0,0,0,0,0,0,0,0,0,0
1706513906.19958687,92028174,1559,1560,1560,1558,0,0,0,0,0,0,0,0,0,0
1706513906.30037999,92128967,1559,1559,1557,1558,0,0,0,0,0,0,0,0,0,0
1706513906.40033984,92228927,1557,1557,1555,1556,0,0,0,0,0,0,0,0,0,0
1706513906.50029993,92328887,1553,1552,1549,1551,0,0,0,0,0,0,0,0,0,0
1706513906.60026002,92428847,1547,1547,1544,1544,0,0,0,0,0,0,0,0,0,0
1706513906.70021987,92528807,1541,1541,1537,1537,0,0,0,0,0,0,0,0,0,0
1706513906.80017996,92628767,1534,1534,1530,1529,0,0,0,0,0,0,0,0,0,0
1706513906.90014005,92728727,1527,1527,1523,1523,0,0,0,0,0,0,0,0,0,0
1706513907.00009990,92828687,1521,1522,1519,1518,0,0,0,0,0,0,0,0,0,0
1706513907.10005999,92928647,1519,1519,1518,1518,0,0,0,0,0,0,0,0,0,0
1706513907.20001984,93028607,1519,1519,1520,1521,0,0,0,0,0,0,0,0,0,0
1706513907.29997993,93128567,1520,1519,1523,1523,0,0,0,0,0,0,0,0,0,0
1706513907.39994001,93228527,1523,1522,1527,1527,0,0,0,0,0,0,0,0,0,0
1706513907.49989986,93328487,1525,1525,1531,1532,0,0,0,0,0,0,0,0,0,0
1706513907.59985995,93428447,1530,1530,1536,1537,0,0,0,0,0,0,0,0,0,0
1706513907.69982004,93528407,1534,1534,1540,1540,0,0,0,0,0,0,0,0,0,0
1706513907.79977989,93628367,1537,1538,1543,1543,0,0,0,0,0,0,0,0,0,0
1706513907.89973998,93728327,1541,1541,1544,1544,0,0,0,0,0,0,0,0,0,0
1706513907.99969983,93828287,1543,1543,1545,1544,0,0,0,0,0,0,0,0,0,0
1706513908.09965992,93928247,1545,1545,1545,1545,0,0,0,0,0,0,0,0,0,0
1706513908.19962001,94028207,1546,1546,1544,1545,0,0,0,0,0,0,0,0,0,0
1706513908.29957986,94128167,1547,1547,1544,1545,0,0,0,0,0,0,0,0,0,0
1706513908.40037298,94228960,1548,1548,1544,1544,0,0,0,0,0,0,0,0,0,0
1706513908.50033283,94328920,1549,1548,1544,1544,0,0,0,0,0,0,0,0,0,0
1706513908.60029292,94428880,1549,1548,1545,1544,0,0,0,0,0,0,0,0,0,0
1706513908.70025301,94528840,1548,1548,1545,1544,0,0,0,0,0,0,0,0,0,0
1706513908.80021286,94628800,1547,1547,1544,1544,0,0,0,0,0,0,0,0,0,0
1706513908.90017295,94728760,1546,1546,1544,1544,0,0,0,0,0,0,0,0,0,0
1706513909.00013304,94828720,1545,1545,1543,1544,0,0,0,0,0,0,0,0,0,0
1706513909.10009289,94928680,1545,1545,1544,1544,0,0,0,0,0,0,0,0,0,0
1706513909.20005298,95028640,1544,1544,1545,1544,0,0,0,0,0,0,0,0,0,0
1706513909.30001283,95128600,1544,1543,1544,1545,0,0,0,0,0,0,0,0,0,0
1706513909.39997292,95228560,1543,1543,1545,1545,0,0,0,0,0,0,0,0,0,0
1706513909.49993300,95328520,1543,1543,1545,1545,0,0,0,0,0,0,0,0,0,0
1706513909.59989285,95428480,1543,1543,1545,1544,0,0,0,0,0,0,0,0,0,0
1706513909.69985294,95528440,1544,1544,1545,1545,0,0,0,0,0,0,0,0,0,0
1706513909.79981303,95628400,1543,1543,1544,1545,0,0,0,0,0,0,0,0,0,0
1706513909.89977288,95728360,1544,1543,1544,1545,0,0,0,0,0,0,0,0,0,0
1706513909.99973297,95828320,1544,1544,1544,1545,0,0,0,0,0,0,0,0,0,0
1706513910.09969306,95928280,1543,1543,1544,1543,0,0,0,0,0,0,0,0,0,0
1706513910.19965291,96028240,1544,1544,1544,1543,0,0,0,0,0,0,0,0,0,0
1706513910.29961300,96128200,1544,1544,1544,1544,0,0,0,0,0,0,0,0,0,0
1706513910.39957285,96228160,1545,1545,1545,1544,0,0,0,0,0,0,0,0,0,0
1706513910.50036597,96328953,1545,1544,1544,1544,0,0,0,0,0,0,0,0,0,0
1706513910.60032606,96428913,1545,1545,1543,1544,0,0,0,0,0,0,0,0,0,0
1706513910.70028591,96528873,1545,1544,1544,1544,0,0,0,0,0,0,0,0,0,0
1706513910.80024600,96628833,1544,1545,1544,1544,0,0,0,0,0,0,0,0,0,0
1706513910.90020585,96728793,1544,1544,1543,1544,0,0,0,0,0,0,0,0,0,0
1706513911.00016594,96828753,1544,1544,1544,1544,0,0,0,0,0,0,0,0,0,0
1706513911.10012603,96928713,1544,1544,1544,1544,0,0,0,0,0,0,0,0,0,0
1706513911.20008588,97028673,1544,1544,1545,1544,0,0,0,0,0,0,0,0,0,0
1706513911.30004597,97128633,1544,1544,1544,1544,0,0,0,0,0,0,0,0,0,0
1706513911.40000606,97228593,1544,1544,1544,1544,0,0,0,0,0,0,0,0,0,0
1706513911.49996591,97328553,1545,1544,1544,1544,0,0,0,0,0,0,0,0,0,0
1706513911.59992599,97428513,1544,1545,1544,1544,0,0,0,0,0,0,0,0,0,0
1706513911.69988585,97528473,1544,1544,1544,1544,0,0,0,0,0,0,0,0,0,0
1706513911.79984593,97628433,1544,1545,1545,1545,0,0,0,0,0,0,0,0,0,0
1706513911.89980602,97728393,1545,1544,1545,1545,0,0,0,0,0,0,0,0,0,0
1706513911.99976587,97828353,1545,1545,1545,1545,0,0,0,0,0,0,0,0,0,0
1706513912.09972596,97928313,1544,1545,1545,1545,0,0,0,0,0,0,0,0,0,0
1706513912.19968605,98028273,1544,1544,1544,1544,0,0,0,0,0,0,0,0,0,0
1706513912.29964590,98128233,1544,1544,1544,1544,0,0,0,0,0,0,0,0,0,0
1706513912.39960599,98228193,1545,1545,1545,1545,0,0,0,0,0,0,0,0,0,0
1706513912.50039887,98328986,1544,1545,1544,1545,0,0,0,0,0,0,0,0,0,0
1706513912.60035896,98428946,1545,1545,1545,1545,0,0,0,0,0,0,0,0,0,0
1706513912.70031905,98528906,1545,1544,1544,1544,0,0,0,0,0,0,0,0,0,0
1706513912.80027890,98628866,1544,1544,1544,1544,0,0,0,0,0,0,0,0,0,0
1706513912.90023899,98728826,1544,1544,1544,1544,0,0,0,0,0,0,0,0,0,0
1706513913.00019884,98828786,1544,1544,1544,1544,0,0,0,0,0,0,0,0,0,0
1706513913.10015893,98928746,1544,1544,1544,1544,0,0,0,0,0,0,0,0,0,0
1706513913.20011902,99028706,1545,1545,1545,1545,0,0,0,0,0,0,0,0,0,0
1706513913.30007887,99128666,1545,1544,1544,1545,0,0,0,0,0,0,0,0,0,0
1706513913.40003896,99228626,1544,1544,1544,1544,0,0,0,0,0,0,0,0,0,0
1706513913.49999905,99328586,1544,1544,1543,1544,0,0,0,0,0,0,0,0,0,0
1706513913.59995890,99428546,1544,1544,1544,1544,0,0,0,0,0,0,0,0,0,0
1706513913.69991899,99528506,1544,1544,1544,1544,0,0,0,0,0,0,0,0,0,0
1706513913.79987884,99628466,1544,1544,1545,1545,0,0,0,0,0,0,0,0,0,0
1706513913.89983892,99728426,1544,1544,1545,1545,0,0,0,0,0,0,0,0,0,0
1706513913.99979901,99828386,1544,1544,1544,1544,0,0,0,0,0,0,0,0,0,0
1706513914.09975886,99928346,1545,1545,1545,1545,0,0,0,0,0,0,0,0,0,0
1706513914.19971895,100028306,1544,1545,1545,1544,0,0,0,0,0,0,0,0,0,0
1706513914.29967904,100128266,1545,1545,1545,1545,0,0,0,0,0,0,0,0,0,0
1706513914.39963889,100228226,1545,1545,1545,1544,0,0,0,0,0,0,0,0,0,0
1706513914.49959898,100328186,1544,1545,1544,1545,0,0,0,0,0,0,0,0,0,0
1706513914.60039186,100428979,1544,1544,1544,1544,0,0,0,0,0,0,0,0,0,0
1706513914.70035195,100528939,1544,1544,1544,1544,0,0,0,0,0,0,0,0,0,0
1706513914.80031204,100628899,1544,1545,1544,1544,0,0,0,0,0,0,0,0,0,0
1706513914.90027189,100728859,1544,1544,1544,1544,0,0,0,0,0,0,0,0,0,0
1706513915.00023198,100828819,1544,1544,1544,1544,0,0,0,0,0,0,0,0,0,0
1706513915.10019183,100928779,1544,1543,1543,1543,0,0,0,0,0,0,0,0,0,0
1706513915.20015192,101028739,1544,1544,1544,1544,0,0,0,0,0,0,0,0,0,0
1706513915.30011201,101128699,1544,1544,1544,1544,0,0,0,0,0,0,0,0,0,0
1706513915.40007186,101228659,1544,1544,1544,1544,0,0,0,0,0,0,0,0,0,0
1706513915.50003195,101328619,1544,1544,1544,1545,0,0,0,0,0,0,0,0,0,0
1706513915.59999204,101428579,1544,1544,1544,1545,0,0,0,0,0,0,0,0,0,0
1706513915.69995189,101528539,1544,1544,1544,1545,0,0,0,0,0,0,0,0,0,0
1706513915.79991198,101628499,1543,1544,1544,1543,0,0,0,0,0,0,0,0,0,0
1706513915.89987183,101728459,1543,1543,1543,1544,0,0,0,0,0,0,0,0,0,0
1706513915.99983191,101828419,1544,1544,1545,1545,0,0,0,0,0,0,0,0,0,0
1706513916.09979200,101928379,1544,1544,1544,1544,0,0,0,0,0,0,0,0,0,0
1706513916.19975185,102028339,1544,1544,1544,1545,0,0,0,0,0,0,0,0,0,0
1706513916.29971194,102128299,1544,1544,1544,1544,0,0,0,0,0,0,0,0,0,0
1706513916.39967203,102228259,1545,1545,1544,1545,0,0,0,0,0,0,0,0,0,0
1706513916.49963188,102328219,1545,1545,1545,1545,0,0,0,0,0,0,0,0,0,0
1706513916.59959197,102428179,1545,1545,1545,1544,0,0,0,0,0,0,0,0,0,0
1706513916.70038486,102528972,1474,1473,1453,1453,0,0,0,0,0,0,0,0,0,0
1706513916.80034494,102628932,1362,1359,1296,1293,0,0,0,0,0,0,0,0,0,0
1706513916.90030503,102728892,1320,1316,1230,1227,0,0,0,0,0,0,0,0,0,0
1706513917.00026488,102828852,1306,1303,1208,1205,0,0,0,0,0,0,0,0,0,0
1706513917.10022497,102928812,1287,1283,1175,1173,0,0,0,0,0,0,0,0,0,0
1706513917.20018506,103028772,1255,1251,1153,1150,0,0,0,0,0,0,0,0,0,0
1706513917.30014491,103128732,1141,1136,1152,1150,0,0,0,0,0,0,0,0,0,0
1706513917.40010500,103228692,1111,1108,1152,1150,0,0,0,0,0,0,0,0,0,0
1706513917.50006485,103328652,1112,1108,1152,1150,0,0,0,0,0,0,0,0,0,0
1706513917.60002494,103428612,1111,1108,1152,1150,0,0,0,0,0,0,0,0,0,0
1706513917.69998503,103528572,1111,1096,1150,1169,0,0,0,0,0,0,0,0,0,0
1706513917.79994488,103628532,1112,1101,1150,1160,0,0,0,0,0,0,0,0,0,0
1706513917.89990497,103728492,1112,1103,1150,1158,0,0,0,0,0,0,0,0,0,0
1706513917.99986506,103828452,1112,1103,1150,1157,0,0,0,0,0,0,0,0,0,0
1706513918.09982491,103928412,1112,1103,1150,1157,0,0,0,0,0,0,0,0,0,0
1706513918.19978499,104028372,1112,1103,1150,1158,0,0,0,0,0,0,0,0,0,0
1706513918.29974484,104128332,1112,1103,1150,1158,0,0,0,0,0,0,0,0,0,0
1706513918.39970493,104228292,1112,1103,1150,1158,0,0,0,0,0,0,0,0,0,0
1706513918.49966502,104328252,1111,1109,1150,1150,0,0,0,0,0,0,0,0,0,0
1706513918.59962487,104428212,1111,1109,1150,1151,0,0,0,0,0,0,0,0,0,0
1706513918.69958496,104528172,1111,1109,1150,1151,0,0,0,0,0,0,0,0,0,0
1706513918.80037785,104628965,1111,1108,1150,1151,0,0,0,0,0,0,0,0,0,0
1706513918.90033793,104728925,991,990,1150,1150,0,0,0,0,0,0,0,0,0,0
1706513919.00029802,104828885,1000,1000,1000,1000,0,0,0,0,0,0,0,0,0,0
1706513919.10025787,104928845,1000,1000,1000,1000,0,0,0,0,0,0,0,0,0,0
1706513919.20021796,105028805,1000,1000,1000,1000,0,0,0,0,0,0,0,0,0,0
1706513919.30017805,105128765,1000,1000,1000,1000,0,0,0,0,0,0,0,0,0,0
1706513919.40013790,105228725,1000,1000,1000,1000,0,0,0,0,0,0,0,0,0,0
1706513919.50009799,105328685,1000,1000,1000,1000,0,0,0,0,0,0,0,0,0,0
1706513919.60005784,105428645,1000,1000,1000,1000,0,0,0,0,0,0,0,0,0,0
1706513919.70001793,105528605,1000,1000,1000,1000,0,0,0,0,0,0,0,0,0,0
1706513919.79997802,105628565,1000,1000,1000,1000,0,0,0,0,0,0,0,0,0,0
1706513919.89993787,105728525,1000,1000,1000,1000,0,0,0,0,0,0,0,0,0,0
1706513919.99989796,105828485,1000,1000,1000,1000,0,0,0,0,0,0,0,0,0,0
1706513920.09985805,105928445,1000,1000,1000,1000,0,0,0,0,0,0,0,0,0,0
1706513920.19981790,106028405,1000,1000,1000,1000,0,0,0,0,0,0,0,0,0,0
1706513920.29977798,106128365,1000,1000,1000,1000,0,0,0,0,0,0,0,0,0,0
1706513920.39973783,106228325,1000,1000,1000,1000,0,0,0,0,0,0,0,0,0,0
1706513920.49969792,106328285,1000,1000,1000,1000,0,0,0,0,0,0,0,0,0,0
1706513920.59965801,106428245,1000,1000,1000,1000,0,0,0,0,0,0,0,0,0,0
1706513920.69961786,106528205,1000,1000,1000,1000,0,0,0,0,0,0,0,0,0,0
1706513920.79957795,106628165,1000,1000,1000,1000,0,0,0,0,0,0,0,0,0,0
1706513920.90037084,106728958,1000,1000,1000,1000,0,0,0,0,0,0,0,0,0,0
1706513921.00033092,106828918,1000,1000,1000,1000,0,0,0,0,0,0,0,0,0,0
1706513921.10029101,106928878,1000,1000,1000,1000,0,0,0,0,0,0,0,0,0,0
1706513921.20025086,107028838,1000,1000,1000,1000,0,0,0,0,0,0,0,0,0,0
1706513921.30021095,107128798,1000,1000,1000,1000,0,0,0,0,0,0,0,0,0,0
1706513921.40017104,107228758,1000,1000,1000,1000,0,0,0,0,0,0,0,0,0,0
1706513921.50013089,107328718,1000,1000,1000,1000,0,0,0,0,0,0,0,0,0,0
1706513921.60009098,107428678,1000,1000,1000,1000,0,0,0,0,0,0,0,0,0,0
1706513921.70005083,107528638,1000,1000,1000,1000,0,0,0,0,0,0,0,0,0,0
1706513921.80001092,107628598,1000,1000,1000,1000,0,0,0,0,0,0,0,0,0,0
1706513921.89997101,107728558,1000,1000,1000,1000,0,0,0,0,0,0,0,0,0,0
1706513921.99993086,107828518,1000,1000,1000,1000,0,0,0,0,0,0,0,0,0,0
1706513922.09989095,107928478,1000,1000,1000,1000,0,0,0,0,0,0,0,0,0,0
1706513922.19985104,108028438,1000,1000,1000,1000,0,0,0,0,0,0,0,0,0,0
1706513922.29981089,108128398,1000,1000,1000,1000,0,0,0,0,0,0,0,0,0,0
1706513922.39977098,108228358,1000,1000,1000,1000,0,0,0,0,0,0,0,0,0,0
1706513922.49973106,108328318,1000,1000,1000,1000,0,0,0,0,0,0,0,0,0,0
1706513922.59969091,108428278,1000,1000,1000,1000,0,0,0,0,0,0,0,0,0,0
1706513922.69965100,108528238,1000,1000,1000,1000,0,0,0,0,0,0,0,0,0,0
1706513922.79961085,108628198,1000,1000,1000,1000,0,0,0,0,0,0,0,0,0,0
1706513922.89957094,108728158,1000,1000,1000,1000,0,0,0,0,0,0,0,0,0,0
1706513923.00036383,108828951,1000,1000,1000,1000,0,0,0,0,0,0,0,0,0,0
1706513923.10032392,108928911,1000,1000,1000,1000,0,0,0,0,0,0,0,0,0,0
1706513923.20028400,109028871,1000,1000,1000,1000,0,0,0,0,0,0,0,0,0,0
1706513923.30024385,109128831,1000,1000,1000,1000,0,0,0,0,0,0,0,0,0,0
1706513923.40020394,109228791,1000,1000,1000,1000,0,0,0,0,0,0,0,0,0,0
1706513923.50016403,109328751,1000,1000,1000,1000,0,0,0,0,0,0,0,0,0,0
1706513923.60012388,109428711,1000,1000,1000,1000,0,0,0,0,0,0,0,0,0,0
1706513923.70008397,109528671,1000,1000,1000,1000,0,0,0,0,0,0,0,0,0,0
1706513923.80004406,109628631,1000,1000,1000,1000,0,0,0,0,0,0,0,0,0,0
1706513923.90000391,109728591,1000,1000,1000,1000,0,0,0,0,0,0,0,0,0,0
1706513923.99996400,109828551,1000,1000,1000,1000,0,0,0,0,0,0,0,0,0,0
1706513924.09992385,109928511,1000,1000,1000,1000,0,0,0,0,0,0,0,0,0,0
1706513924.19988394,110028471,1000,1000,1000,1000,0,0,0,0,0,0,0,0,0,0
1706513924.29984403,110128431,1000,1000,1000,1000,0,0,0,0,0,0,0,0,0,0
1706513924.39980388,110228391,1000,1000,1000,1000,0,0,0,0,0,0,0,0,0,0
1706513924.49976397,110328351,1000,1000,1000,1000,0,0,0,0,0,0,0,0,0,0
1706513924.59972405,110428311,1000,1000,1000,1000,0,0,0,0,0,0,0,0,0,0
1706513924.69968390,110528271,1000,1000,1000,1000,0,0,0,0,0,0,0,0,0,0
1706513924.79964399,110628231,1000,1000,1000,1000,0,0,0,0,0,0,0,0,0,0
1706513924.89960384,110728191,1000,1000,1000,1000,0,0,0,0,0,0,0,0,0,0
1706513925.00039697,110828984,1000,1000,1000,1000,0,0,0,0,0,0,0,0,0,0
1706513925.10035706,110928944,1000,1000,1000,1000,0,0,0,0,0,0,0,0,0,0
1706513925.20031691,111028904,1000,1000,1000,1000,0,0,0,0,0,0,0,0,0,0
1706513925.30027699,111128864,1000,1000,1000,1000,0,0,0,0,0,0,0,0,0,0
1706513925.40023685,111228824,1000,1000,1000,1000,0,0,0,0,0,0,0,0,0,0
1706513925.50019693,111328784,1000,1000,1000,1000,0,0,0,0,0,0,0,0,0,0
1706513925.60015702,111428744,1000,1000,1000,1000,0,0,0,0,0,0,0,0,0,0
1706513925.70011687,111528704,1000,1000,1000,1000,0,0,0,0,0,0,0,0,0,0
1706513925.80007696,111628664,1000,1000,1000,1000,0,0,0,0,0,0,0,0,0,0
1706513925.90003705,111728624,1000,1000,1000,1000,0,0,0,0,0,0,0,0,0,0
1706513925.99999690,111828584,1000,1000,1000,1000,0,0,0,0,0,0,0,0,0,0
1706513926.09995699,111928544,1000,1000,1000,1000,0,0,0,0,0,0,0,0,0,0
1706513926.19991684,112028504,1000,1000,1000,1000,0,0,0,0,0,0,0,0,0,0
1706513926.29987693,112128464,1000,1000,1000,1000,0,0,0,0,0,0,0,0,0,0
1706513926.39983702,112228424,1000,1000,1000,1000,0,0,0,0,0,0,0,0,0,0
1706513926.49979687,112328384,1000,1000,1000,1000,0,0,0,0,0,0,0,0,0,0
1706513926.59975696,112428344,1000,1000,1000,1000,0,0,0,0,0,0,0,0,0,0
1706513926.69971704,112528304,1000,1000,1000,1000,0,0,0,0,0,0,0,0,0,0
1706513926.79967690,112628264,1000,1000,1000,1000,0,0,0,0,0,0,0,0,0,0
1706513926.89963698,112728224,1000,1000,1000,1000,0,0,0,0,0,0,0,0,0,0
1706513926.99959683,112828184,1000,1000,1000,1000,0,0,0,0,0,0,0,0,0,0
1706513927.10038996,112928977,1000,1000,1000,1000,0,0,0,0,0,0,0,0,0,0
1706513927.20035005,113028937,1000,1000,1000,1000,0,0,0,0,0,0,0,0,0,0
1706513927.30030990,113128897,1000,1000,1000,1000,0,0,0,0,0,0,0,0,0,0
1706513927.40026999,113228857,1000,1000,1000,1000,0,0,0,0,0,0,0,0,0,0
1706513927.50022984,113328817,1000,1000,1000,1000,0,0,0,0,0,0,0,0,0,0
1706513927.60018992,113428777,1000,1000,1000,1000,0,0,0,0,0,0,0,0,0,0
1706513927.70015001,113528737,1000,1000,1000,1000,0,0,0,0,0,0,0,0,0,0
1706513927.80010986,113628697,1000,1000,1000,1000,0,0,0,0,0,0,0,0,0,0
1706513927.90006995,113728657,1000,1000,1000,1000,0,0,0,0,0,0,0,0,0,0
1706513928.00003004,113828617,1000,1000,1000,1000,0,0,0,0,0,0,0,0,0,0
1706513928.09998989,113928577,1000,1000,1000,1000,0,0,0,0,0,0,0,0,0,0
1706513928.19994998,114028537,1000,1000,1000,1000,0,0,0,0,0,0,0,0,0,0
1706513928.29990983,114128497,1000,1000,1000,1000,0,0,0,0,0,0,0,0,0,0
1706513928.39986992,114228457,1000,1000,1000,1000,0,0,0,0,0,0,0,0,0,0
1706513928.49983001,114328417,1000,1000,1000,1000,0,0,0,0,0,0,0,0,0,0
1706513928.59978986,114428377,1000,1000,1000,1000,0,0,0,0,0,0,0,0,0,0
1706513928.69974995,114528337,1000,1000,1000,1000,0,0,0,0,0,0,0,0,0,0
1706513928.79971004,114628297,1000,1000,1000,1000,0,0,0,0,0,0,0,0,0,0
1706513928.89966989,114728257,1000,1000,1000,1000,0,0,0,0,0,0,0,0,0,0
1706513928.99962997,114828217,1000,1000,1000,1000,0,0,0,0,0,0,0,0,0,0
1706513929.09959006,114928177,1000,1000,1000,1000,0,0,0,0,0,0,0,0,0,0
1706513929.20038295,115028970,1000,1000,1000,1000,0,0,0,0,0,0,0,0,0,0
1706513929.30034304,115128930,1000,1000,1000,1000,0,0,0,0,0,0,0,0,0,0
1706513929.40030289,115228890,1000,1000,1000,1000,0,0,0,0,0,0,0,0,0,0
1706513929.50026298,115328850,1000,1000,1000,1000,0,0,0,0,0,0,0,0,0,0
1706513929.60022283,115428810,1000,1000,1000,1000,0,0,0,0,0,0,0,0,0,0
1706513929.70018291,115528770,1000,1000,1000,1000,0,0,0,0,0,0,0,0,0,0
1706513929.80014300,115628730,1000,1000,1000,1000,0,0,0,0,0,0,0,0,0,0
1706513929.90010285,115728690,1000,1000,1000,1000,0,0,0,0,0,0,0,0,0,0
1706513930.00006294,115828650,1000,1000,1000,1000,0,0,0,0,0,0,0,0,0,0
1706513930.10002303,115928610,1000,1000,1000,1000,0,0,0,0,0,0,0,0,0,0
1706513930.19998288,116028570,1000,1000,1000,1000,0,0,0,0,0,0,0,0,0,0
1706513930.29994297,116128530,1000,1000,1000,1000,0,0,0,0,0,0,0,0,0,0
1706513930.39990306,116228490,1000,1000,1000,1000,0,0,0,0,0,0,0,0,0,0
1706513930.49986291,116328450,1000,1000,1000,1000,0,0,0,0,0,0,0,0,0,0
1706513930.59982300,116428410,1000,1000,1000,1000,0,0,0,0,0,0,0,0,0,0
1706513930.69978285,116528370,1000,1000,1000,1000,0,0,0,0,0,0,0,0,0,0
1706513930.79974294,116628330,1000,1000,1000,1000,0,0,0,0,0,0,0,0,0,0
1706513930.89970303,116728290,1000,1000,1000,1000,0,0,0,0,0,0,0,0,0,0
1706513930.99966288,116828250,1000,1000,1000,1000,0,0,0,0,0,0,0,0,0,0
1706513931.09962296,116928210,1000,1000,1000,1000,0,0,0,0,0,0,0,0,0,0
1706513931.19958305,117028170,1000,1000,1000,1000,0,0,0,0,0,0,0,0,0,0
1706513931.30037594,117128963,1000,1000,1000,1000,0,0,0,0,0,0,0,0,0,0
1706513931.40033603,117228923,1000,1000,1000,1000,0,0,0,0,0,0,0,0,0,0
1706513931.50029588,117328883,1000,1000,1000,1000,0,0,0,0,0,0,0,0,0,0
1706513931.60025597,117428843,1000,1000,1000,1000,0,0,0,0,0,0,0,0,0,0
1706513931.70021605,117528803,1000,1000,1000,1000,0,0,0,0,0,0,0,0,0,0
1706513931.80017591,117628763,1000,1000,1000,1000,0,0,0,0,0,0,0,0,0,0
1706513931.90013599,117728723,1000,1000,1000,1000,0,0,0,0,0,0,0,0,0,0
1706513932.00009584,117828683,1000,1000,1000,1000,0,0,0,0,0,0,0,0,0,0
1706513932.10005593,117928643,1000,1000,1000,1000,0,0,0,0,0,0,0,0,0,0
1706513932.20001602,118028603,1000,1000,1000,1000,0,0,0,0,0,0,0,0,0,0
1706513932.29997587,118128563,1000,1000,1000,1000,0,0,0,0,0,0,0,0,0,0
1706513932.39993596,118228523,1000,1000,1000,1000,0,0,0,0,0,0,0,0,0,0
1706513932.49989605,118328483,1000,1000,1000,1000,0,0,0,0,0,0,0,0,0,0
1706513932.59985590,118428443,1000,1000,1000,1000,0,0,0,0,0,0,0,0,0,0
1706513932.69981599,118528403,1000,1000,1000,1000,0,0,0,0,0,0,0,0,0,0
1706513932.79977584,118628363,1000,1000,1000,1000,0,0,0,0,0,0,0,0,0,0
1706513932.89973593,118728323,1000,1000,1000,1000,0,0,0,0,0,0,0,0,0,0
1706513932.99969602,118828283,1000,1000,1000,1000,0,0,0,0,0,0,0,0,0,0
1706513933.09965587,118928243,1000,1000,1000,1000,0,0,0,0,0,0,0,0,0,0
1706513933.19961596,119028203,1000,1000,1000,1000,0,0,0,0,0,0,0,0,0,0
1706513933.29957604,119128163,1000,1000,1000,1000,0,0,0,0,0,0,0,0,0,0
1706513933.40036893,119228956,1000,1000,1000,1000,0,0,0,0,0,0,0,0,0,0
1706513933.50032902,119328916,1000,1000,1000,1000,0,0,0,0,0,0,0,0,0,0
1706513933.60028887,119428876,1000,1000,1000,1000,0,0,0,0,0,0,0,0,0,0
1706513933.70024896,119528836,1000,1000,1000,1000,0,0,0,0,0,0,0,0,0,0
1706513933.80020905,119628796,1000,1000,1000,1000,0,0,0,0,0,0,0,0,0,0
1706513933.90016890,119728756,1000,1000,1000,1000,0,0,0,0,0,0,0,0,0,0
