timestamp,TimeUS,C1,C2,C3,C4,C5,C6,C7,C8,C9,C10,C11,C12,C13,C14
1706512278.50003982,65728698,1000,1000,1000,1000,0,0,0,0,0,0,0,0,0,0
1706512278.59999990,65828658,1000,1000,1000,1000,0,0,0,0,0,0,0,0,0,0
1706512278.69995975,65928618,1000,1000,1000,1000,0,0,0,0,0,0,0,0,0,0
1706512278.79991984,66028578,1000,1000,1000,1000,0,0,0,0,0,0,0,0,0,0
1706512278.89987969,66128538,1000,1000,1000,1000,0,0,0,0,0,0,0,0,0,0
1706512278.99983978,66228498,1000,1000,1000,1000,0,0,0,0,0,0,0,0,0,0
1706512279.09979987,66328458,1000,1000,1000,1000,0,0,0,0,0,0,0,0,0,0
1706512279.19975972,66428418,1000,1000,1000,1000,0,0,0,0,0,0,0,0,0,0
1706512279.29971981,66528378,1000,1000,1000,1000,0,0,0,0,0,0,0,0,0,0
1706512279.39967990,66628338,1000,1000,1000,1000,0,0,0,0,0,0,0,0,0,0
1706512279.49963975,66728298,1000,1000,1000,1000,0,0,0,0,0,0,0,0,0,0
1706512279.59959984,66828258,1000,1000,1000,1000,0,0,0,0,0,0,0,0,0,0
1706512279.69955969,66928218,1000,1000,1000,1000,0,0,0,0,0,0,0,0,0,0
1706512279.79951978,67028178,1000,1000,1000,1000,0,0,0,0,0,0,0,0,0,0
1706512279.90031290,67128971,1000,1000,1000,1000,0,0,0,0,0,0,0,0,0,0
1706512280.00027275,67228931,1000,1000,1000,1000,0,0,0,0,0,0,0,0,0,0
1706512280.10023284,67328891,1000,1000,1000,1000,0,0,0,0,0,0,0,0,0,0
1706512280.20019269,67428851,1000,1000,1000,1000,0,0,0,0,0,0,0,0,0,0
1706512280.30015278,67528811,1000,1000,1000,1000,0,0,0,0,0,0,0,0,0,0
1706512280.40011287,67628771,1000,1000,1000,1000,0,0,0,0,0,0,0,0,0,0
1706512280.50007272,67728731,1005,1005,1005,1005,0,0,0,0,0,0,0,0,0,0
1706512280.60003281,67828691,1035,1035,1035,1035,0,0,0,0,0,0,0,0,0,0
1706512280.69999290,67928651,1065,1065,1065,1065,0,0,0,0,0,0,0,0,0,0
1706512280.79995275,68028611,1095,1095,1095,1095,0,0,0,0,0,0,0,0,0,0
1706512280.89991283,68128571,1125,1125,1125,1125,0,0,0,0,0,0,0,0,0,0
1706512280.99987268,68228531,1201,1191,1192,1202,0,0,0,0,0,0,0,0,0,0
1706512281.09983277,68328491,1435,1428,1428,1436,0,0,0,0,0,0,0,0,0,0
1706512281.19979286,68428451,1607,1601,1602,1608,0,0,0,0,0,0,0,0,0,0
1706512281.29975271,68528411,1751,1744,1745,1751,0,0,0,0,0,0,0,0,0,0
1706512281.39971280,68628371,1876,1870,1870,1876,0,0,0,0,0,0,0,0,0,0
1706512281.49967289,68728331,1906,1901,1902,1906,0,0,0,0,0,0,0,0,0,0
1706512281.59963274,68828291,1797,1795,1795,1797,0,0,0,0,0,0,0,0,0,0
1706512281.69959283,68928251,1682,1683,1684,1683,0,0,0,0,0,0,0,0,0,0
1706512281.79955292,69028211,1634,1638,1637,1635,0,0,0,0,0,0,0,0,0,0
1706512281.89951277,69128171,1632,1635,1635,1632,0,0,0,0,0,0,0,0,0,0
1706512282.00030589,69228964,1640,1642,1642,1640,0,0,0,0,0,0,0,0,0,0
1706512282.10026574,69328924,1639,1640,1640,1639,0,0,0,0,0,0,0,0,0,0
1706512282.20022583,69428884,1634,1632,1633,1633,0,0,0,0,0,0,0,0,0,0
1706512282.30018592,69528844,1613,1612,1608,1616,0,0,0,0,0,0,0,0,0,0
1706512282.40014577,69628804,1599,1598,1588,1608,0,0,0,0,0,0,0,0,0,0
1706512282.50010586,69728764,1593,1592,1585,1600,0,0,0,0,0,0,0,0,0,0
1706512282.60006571,69828724,1593,1593,1591,1595,0,0,0,0,0,0,0,0,0,0
1706512282.70002580,69928684,1596,1596,1598,1594,0,0,0,0,0,0,0,0,0,0
1706512282.79998589,70028644,1602,1602,1606,1598,0,0,0,0,0,0,0,0,0,0
1706512282.89994574,70128604,1577,1578,1596,1559,0,0,0,0,0,0,0,0,0,0
1706512282.99990582,70228564,1566,1567,1584,1550,0,0,0,0,0,0,0,0,0,0
1706512283.09986591,70328524,1557,1557,1563,1552,0,0,0,0,0,0,0,0,0,0
1706512283.19982576,70428484,1547,1547,1541,1555,0,0,0,0,0,0,0,0,0,0
1706512283.29978585,70528444,1539,1538,1526,1552,0,0,0,0,0,0,0,0,0,0
1706512283.39974570,70628404,1533,1532,1521,1545,0,0,0,0,0,0,0,0,0,0
1706512283.49970579,70728364,1528,1527,1520,1534,0,0,0,0,0,0,0,0,0,0
1706512283.59966588,70828324,1526,1526,1523,1528,0,0,0,0,0,0,0,0,0,0
1706512283.69962573,70928284,1528,1527,1528,1526,0,0,0,0,0,0,0,0,0,0
1706512283.79958582,71028244,1531,1531,1533,1528,0,0,0,0,0,0,0,0,0,0
1706512283.89954591,71128204,1535,1535,1539,1531,0,0,0,0,0,0,0,0,0,0
1706512283.99950576,71228164,1539,1539,1543,1535,0,0,0,0,0,0,0,0,0,0
1706512284.10029888,71328957,1543,1543,1546,1540,0,0,0,0,0,0,0,0,0,0
1706512284.20025873,71428917,1545,1545,1546,1544,0,0,0,0,0,0,0,0,0,0
1706512284.30021882,71528877,1548,1548,1548,1549,0,0,0,0,0,0,0,0,0,0
1706512284.40017891,71628837,1550,1550,1549,1552,0,0,0,0,0,0,0,0,0,0
1706512284.50013876,71728797,1553,1553,1551,1555,0,0,0,0,0,0,0,0,0,0
1706512284.60009885,71828757,1552,1552,1556,1560,0,0,0,0,0,0,0,0,0,0
1706512284.70005870,71928717,1554,1554,1560,1562,0,0,0,0,0,0,0,0,0,0
1706512284.80001879,72028677,1556,1557,1563,1563,0,0,0,0,0,0,0,0,0,0
1706512284.89997888,72128637,1559,1559,1564,1564,0,0,0,0,0,0,0,0,0,0
1706512284.99993873,72228597,1563,1563,1566,1565,0,0,0,0,0,0,0,0,0,0
1706512285.09989882,72328557,1566,1566,1567,1565,0,0,0,0,0,0,0,0,0,0
1706512285.19985890,72428517,1568,1568,1566,1565,0,0,0,0,0,0,0,0,0,0
1706512285.29981875,72528477,1569,1569,1566,1566,0,0,0,0,0,0,0,0,0,0
1706512285.39977884,72628437,1570,1570,1566,1566,0,0,0,0,0,0,0,0,0,0
1706512285.49973869,72728397,1572,1571,1567,1568,0,0,0,0,0,0,0,0,0,0
1706512285.59969878,72828357,1573,1574,1569,1570,0,0,0,0,0,0,0,0,0,0
1706512285.69965887,72928317,1572,1573,1569,1569,0,0,0,0,0,0,0,0,0,0
1706512285.79961872,73028277,1574,1574,1571,1571,0,0,0,0,0,0,0,0,0,0
1706512285.89957881,73128237,1574,1574,1572,1572,0,0,0,0,0,0,0,0,0,0
1706512285.99953890,73228197,1573,1574,1573,1572,0,0,0,0,0,0,0,0,0,0
1706512286.09949875,73328157,1573,1573,1573,1572,0,0,0,0,0,0,0,0,0,0
1706512286.20029187,73428950,1574,1574,1575,1574,0,0,0,0,0,0,0,0,0,0
1706512286.30025172,73528910,1574,1574,1576,1575,0,0,0,0,0,0,0,0,0,0
1706512286.40021181,73628870,1574,1575,1576,1575,0,0,0,0,0,0,0,0,0,0
1706512286.50017190,73728830,1576,1576,1577,1577,0,0,0,0,0,0,0,0,0,0
1706512286.60013175,73828790,1576,1576,1577,1577,0,0,0,0,0,0,0,0,0,0
1706512286.70009184,73928750,1576,1576,1577,1577,0,0,0,0,0,0,0,0,0,0
1706512286.80005169,74028710,1576,1576,1577,1577,0,0,0,0,0,0,0,0,0,0
1706512286.90001178,74128670,1577,1576,1577,1577,0,0,0,0,0,0,0,0,0,0
1706512286.99997187,74228630,1577,1577,1577,1577,0,0,0,0,0,0,0,0,0,0
1706512287.09993172,74328590,1578,1577,1578,1578,0,0,0,0,0,0,0,0,0,0
1706512287.19989181,74428550,1577,1577,1577,1577,0,0,0,0,0,0,0,0,0,0
1706512287.29985189,74528510,1578,1578,1578,1578,0,0,0,0,0,0,0,0,0,0
1706512287.39981174,74628470,1578,1578,1578,1578,0,0,0,0,0,0,0,0,0,0
1706512287.49977183,74728430,1578,1578,1578,1578,0,0,0,0,0,0,0,0,0,0
1706512287.59973168,74828390,1577,1578,1577,1577,0,0,0,0,0,0,0,0,0,0
1706512287.69969177,74928350,1579,1578,1578,1578,0,0,0,0,0,0,0,0,0,0
1706512287.79965186,75028310,1579,1579,1579,1579,0,0,0,0,0,0,0,0,0,0
1706512287.89961171,75128270,1578,1578,1578,1579,0,0,0,0,0,0,0,0,0,0
1706512287.99957180,75228230,1578,1579,1579,1579,0,0,0,0,0,0,0,0,0,0
1706512288.09953189,75328190,1579,1578,1579,1579,0,0,0,0,0,0,0,0,0,0
1706512288.20032477,75428983,1580,1579,1580,1580,0,0,0,0,0,0,0,0,0,0
1706512288.30028486,75528943,1579,1579,1579,1579,0,0,0,0,0,0,0,0,0,0
1706512288.40024471,75628903,1578,1578,1578,1579,0,0,0,0,0,0,0,0,0,0
1706512288.50020480,75728863,1579,1579,1579,1579,0,0,0,0,0,0,0,0,0,0
1706512288.60016489,75828823,1579,1579,1579,1579,0,0,0,0,0,0,0,0,0,0
1706512288.70012474,75928783,1579,1579,1579,1579,0,0,0,0,0,0,0,0,0,0
1706512288.80008483,76028743,1580,1580,1580,1580,0,0,0,0,0,0,0,0,0,0
1706512288.90004492,76128703,1579,1579,1580,1579,0,0,0,0,0,0,0,0,0,0
1706512289.00000477,76228663,1579,1579,1579,1579,0,0,0,0,0,0,0,0,0,0
1706512289.09996486,76328623,1580,1580,1580,1580,0,0,0,0,0,0,0,0,0,0
1706512289.19992471,76428583,1580,1580,1580,1580,0,0,0,0,0,0,0,0,0,0
1706512289.29988480,76528543,1580,1579,1580,1580,0,0,0,0,0,0,0,0,0,0
1706512289.39984488,76628503,1580,1580,1580,1580,0,0,0,0,0,0,0,0,0,0
1706512289.49980474,76728463,1580,1580,1580,1580,0,0,0,0,0,0,0,0,0,0
1706512289.59976482,76828423,1580,1580,1580,1580,0,0,0,0,0,0,0,0,0,0
1706512289.69972491,76928383,1581,1581,1581,1581,0,0,0,0,0,0,0,0,0,0
1706512289.79968476,77028343,1580,1580,1581,1580,0,0,0,0,0,0,0,0,0,0
1706512289.89964485,77128303,1581,1581,1581,1581,0,0,0,0,0,0,0,0,0,0
1706512289.99960470,77228263,1580,1580,1580,1580,0,0,0,0,0,0,0,0,0,0
1706512290.09956479,77328223,1580,1580,1579,1580,0,0,0,0,0,0,0,0,0,0
1706512290.19952488,77428183,1580,1580,1580,1581,0,0,0,0,0,0,0,0,0,0
1706512290.30031776,77528976,1580,1580,1580,1580,0,0,0,0,0,0,0,0,0,0
1706512290.40027785,77628936,1580,1580,1580,1580,0,0,0,0,0,0,0,0,0,0
1706512290.50023770,77728896,1581,1581,1581,1581,0,0,0,0,0,0,0,0,0,0
1706512290.60019779,77828856,1582,1581,1582,1581,0,0,0,0,0,0,0,0,0,0
1706512290.70015788,77928816,1582,1582,1582,1582,0,0,0,0,0,0,0,0,0,0
1706512290.80011773,78028776,1582,1582,1587,1576,0,0,0,0,0,0,0,0,0,0
1706512290.90007782,78128736,1580,1582,1587,1573,0,0,0,0,0,0,0,0,0,0
1706512291.00003791,78228696,1579,1581,1579,1573,0,0,0,0,0,0,0,0,0,0
1706512291.09999776,78328656,1577,1580,1570,1572,0,0,0,0,0,0,0,0,0,0
1706512291.19995785,78428616,1576,1579,1562,1569,0,0,0,0,0,0,0,0,0,0
1706512291.29991770,78528576,1577,1578,1558,1565,0,0,0,0,0,0,0,0,0,0
1706512291.39987779,78628536,1578,1578,1555,1560,0,0,0,0,0,0,0,0,0,0
1706512291.49983788,78728496,1579,1577,1555,1556,0,0,0,0,0,0,0,0,0,0
1706512291.59979773,78828456,1579,1578,1556,1554,0,0,0,0,0,0,0,0,0,0
1706512291.69975781,78928416,1579,1579,1557,1554,0,0,0,0,0,0,0,0,0,0
1706512291.79971790,79028376,1578,1578,1557,1554,0,0,0,0,0,0,0,0,0,0
1706512291.89967775,79128336,1578,1578,1557,1555,0,0,0,0,0,0,0,0,0,0
1706512291.99963784,79228296,1576,1578,1555,1554,0,0,0,0,0,0,0,0,0,0
1706512292.09959769,79328256,1576,1577,1554,1554,0,0,0,0,0,0,0,0,0,0
1706512292.19955778,79428216,1576,1577,1553,1553,0,0,0,0,0,0,0,0,0,0
1706512292.29951787,79528176,1577,1578,1552,1552,0,0,0,0,0,0,0,0,0,0
1706512292.40031075,79628969,1579,1580,1549,1550,0,0,0,0,0,0,0,0,0,0
1706512292.50027084,79728929,1580,1581,1546,1546,0,0,0,0,0,0,0,0,0,0
1706512292.60023069,79828889,1583,1584,1544,1543,0,0,0,0,0,0,0,0,0,0
1706512292.70019078,79928849,1585,1586,1540,1540,0,0,0,0,0,0,0,0,0,0
1706512292.80015087,80028809,1588,1589,1538,1537,0,0,0,0,0,0,0,0,0,0
1706512292.90011072,80128769,1592,1592,1536,1535,0,0,0,0,0,0,0,0,0,0
1706512293.00007081,80228729,1594,1594,1534,1535,0,0,0,0,0,0,0,0,0,0
1706512293.10003090,80328689,1595,1594,1534,1535,0,0,0,0,0,0,0,0,0,0
1706512293.19999075,80428649,1594,1594,1535,1537,0,0,0,0,0,0,0,0,0,0
1706512293.29995084,80528609,1592,1592,1537,1540,0,0,0,0,0,0,0,0,0,0
1706512293.39991069,80628569,1590,1589,1543,1546,0,0,0,0,0,0,0,0,0,0
1706512293.49987078,80728529,1585,1583,1550,1553,0,0,0,0,0,0,0,0,0,0
1706512293.59983087,80828489,1577,1574,1560,1562,0,0,0,0,0,0,0,0,0,0
1706512293.69979072,80928449,1569,1565,1572,1574,0,0,0,0,0,0,0,0,0,0
1706512293.79975080,81028409,1557,1554,1584,1586,0,0,0,0,0,0,0,0,0,0
1706512293.89971089,81128369,1546,1543,1596,1596,0,0,0,0,0,0,0,0,0,0
1706512293.99967074,81228329,1536,1535,1605,1605,0,0,0,0,0,0,0,0,0,0
1706512294.09963083,81328289,1531,1531,1612,1611,0,0,0,0,0,0,0,0,0,0
1706512294.19959068,81428249,1529,1531,1616,1615,0,0,0,0,0,0,0,0,0,0
1706512294.29955077,81528209,1530,1532,1615,1613,0,0,0,0,0,0,0,0,0,0
1706512294.39951086,81628169,1535,1538,1611,1610,0,0,0,0,0,0,0,0,0,0
1706512294.50030375,81728962,1543,1545,1606,1606,0,0,0,0,0,0,0,0,0,0
1706512294.60026383,81828922,1552,1553,1598,1599,0,0,0,0,0,0,0,0,0,0
1706512294.70022368,81928882,1561,1561,1591,1591,0,0,0,0,0,0,0,0,0,0
1706512294.80018377,82028842,1569,1568,1584,1583,0,0,0,0,0,0,0,0,0,0
1706512294.90014386,82128802,1575,1575,1576,1575,0,0,0,0,0,0,0,0,0,0
1706512295.00010371,82228762,1581,1581,1572,1571,0,0,0,0,0,0,0,0,0,0
1706512295.10006380,82328722,1585,1584,1568,1568,0,0,0,0,0,0,0,0,0,0
1706512295.20002389,82428682,1588,1587,1567,1567,0,0,0,0,0,0,0,0,0,0
1706512295.29998374,82528642,1588,1587,1566,1567,0,0,0,0,0,0,0,0,0,0
1706512295.39994383,82628602,1586,1586,1568,1568,0,0,0,0,0,0,0,0,0,0
1706512295.49990392,82728562,1584,1583,1570,1569,0,0,0,0,0,0,0,0,0,0
1706512295.59986377,82828522,1581,1580,1572,1572,0,0,0,0,0,0,0,0,0,0
1706512295.69982386,82928482,1578,1578,1575,1575,0,0,0,0,0,0,0,0,0,0
1706512295.79978371,83028442,1575,1576,1578,1578,0,0,0,0,0,0,0,0,0,0
1706512295.89974380,83128402,1573,1574,1580,1580,0,0,0,0,0,0,0,0,0,0
1706512295.99970388,83228362,1326,1328,1623,1628,0,0,0,0,0,0,0,0,0,0
1706512296.09966373,83328322,1404,1410,1649,1655,0,0,0,0,0,0,0,0,0,0
1706512296.19962382,83428282,1610,1619,1633,1630,0,0,0,0,0,0,0,0,0,0
1706512296.29958391,83528242,1623,1628,1591,1580,0,0,0,0,0,0,0,0,0,0
1706512296.39954376,83628202,1638,1636,1575,1567,0,0,0,0,0,0,0,0,0,0
1706512296.49950385,83728162,1645,1637,1566,1564,0,0,0,0,0,0,0,0,0,0
1706512296.60029674,83828955,1645,1635,1562,1565,0,0,0,0,0,0,0,0,0,0
1706512296.70025682,83928915,1639,1630,1558,1565,0,0,0,0,0,0,0,0,0,0
1706512296.80021691,84028875,1630,1625,1557,1564,0,0,0,0,0,0,0,0,0,0
1706512296.90017676,84128835,1621,1620,1559,1564,0,0,0,0,0,0,0,0,0,0
1706512297.00013685,84228795,1612,1615,1562,1564,0,0,0,0,0,0,0,0,0,0
1706512297.10009670,84328755,1605,1608,1565,1566,0,0,0,0,0,0,0,0,0,0
1706512297.20005679,84428715,1598,1601,1568,1567,0,0,0,0,0,0,0,0,0,0
1706512297.30001688,84528675,1594,1595,1572,1569,0,0,0,0,0,0,0,0,0,0
1706512297.39997673,84628635,1591,1590,1575,1573,0,0,0,0,0,0,0,0,0,0
1706512297.49993682,84728595,1588,1586,1577,1576,0,0,0,0,0,0,0,0,0,0
1706512297.59989691,84828555,1585,1582,1579,1578,0,0,0,0,0,0,0,0,0,0
1706512297.69985676,84928515,1580,1579,1579,1580,0,0,0,0,0,0,0,0,0,0
1706512297.79981685,85028475,1577,1577,1581,1581,0,0,0,0,0,0,0,0,0,0
1706512297.89977670,85128435,1575,1576,1583,1582,0,0,0,0,0,0,0,0,0,0
1706512297.99973679,85228395,1572,1574,1583,1582,0,0,0,0,0,0,0,0,0,0
1706512298.09969687,85328355,1571,1573,1583,1582,0,0,0,0,0,0,0,0,0,0
1706512298.19965672,85428315,1571,1573,1584,1583,0,0,0,0,0,0,0,0,0,0
1706512298.29961681,85528275,1572,1574,1585,1585,0,0,0,0,0,0,0,0,0,0
1706512298.39957690,85628235,1573,1574,1585,1584,0,0,0,0,0,0,0,0,0,0
1706512298.49953675,85728195,1574,1575,1585,1584,0,0,0,0,0,0,0,0,0,0
1706512298.59949684,85828155,1575,1575,1584,1584,0,0,0,0,0,0,0,0,0,0
1706512298.70028973,85928948,1576,1576,1583,1583,0,0,0,0,0,0,0,0,0,0
1706512298.80024981,86028908,1577,1576,1586,1579,0,0,0,0,0,0,0,0,0,0
1706512298.90020990,86128868,1579,1578,1588,1574,0,0,0,0,0,0,0,0,0,0
1706512299.00016975,86228828,1579,1579,1581,1574,0,0,0,0,0,0,0,0,0,0
1706512299.10012984,86328788,1578,1578,1571,1572,0,0,0,0,0,0,0,0,0,0
1706512299.20008969,86428748,1576,1577,1562,1568,0,0,0,0,0,0,0,0,0,0
1706512299.30004978,86528708,1575,1578,1557,1564,0,0,0,0,0,0,0,0,0,0
1706512299.40000987,86628668,1576,1578,1555,1559,0,0,0,0,0,0,0,0,0,0
1706512299.49996972,86728628,1576,1577,1555,1556,0,0,0,0,0,0,0,0,0,0
1706512299.59992981,86828588,1577,1578,1555,1554,0,0,0,0,0,0,0,0,0,0
1706512299.69988990,86928548,1578,1577,1555,1553,0,0,0,0,0,0,0,0,0,0
1706512299.79984975,87028508,1577,1577,1554,1552,0,0,0,0,0,0,0,0,0,0
1706512299.89980984,87128468,1577,1577,1553,1552,0,0,0,0,0,0,0,0,0,0
1706512299.99976969,87228428,1577,1577,1552,1551,0,0,0,0,0,0,0,0,0,0
1706512300.09972978,87328388,1577,1578,1551,1551,0,0,0,0,0,0,0,0,0,0
1706512300.19968987,87428348,1575,1576,1548,1548,0,0,0,0,0,0,0,0,0,0
1706512300.29964972,87528308,1577,1578,1548,1549,0,0,0,0,0,0,0,0,0,0
1706512300.39960980,87628268,1577,1579,1546,1546,0,0,0,0,0,0,0,0,0,0
1706512300.49956989,87728228,1579,1580,1545,1545,0,0,0,0,0,0,0,0,0,0
1706512300.59952974,87828188,1581,1582,1543,1543,0,0,0,0,0,0,0,0,0,0
1706512300.70032287,87928981,1583,1584,1541,1541,0,0,0,0,0,0,0,0,0,0
1706512300.80028272,88028941,1585,1586,1540,1539,0,0,0,0,0,0,0,0,0,0
1706512300.90024281,88128901,1587,1588,1538,1538,0,0,0,0,0,0,0,0,0,0
1706512301.00020289,88228861,1589,1588,1537,1537,0,0,0,0,0,0,0,0,0,0
1706512301.10016274,88328821,1590,1589,1538,1538,0,0,0,0,0,0,0,0,0,0
1706512301.20012283,88428781,1590,1588,1539,1540,0,0,0,0,0,0,0,0,0,0
1706512301.30008268,88528741,1588,1587,1540,1543,0,0,0,0,0,0,0,0,0,0
1706512301.40004277,88628701,1586,1586,1545,1548,0,0,0,0,0,0,0,0,0,0
1706512301.50000286,88728661,1583,1582,1548,1552,0,0,0,0,0,0,0,0,0,0
1706512301.59996271,88828621,1578,1578,1555,1558,0,0,0,0,0,0,0,0,0,0
1706512301.69992280,88928581,1573,1571,1563,1565,0,0,0,0,0,0,0,0,0,0
1706512301.79988289,89028541,1565,1563,1570,1573,0,0,0,0,0,0,0,0,0,0
1706512301.89984274,89128501,1558,1555,1579,1581,0,0,0,0,0,0,0,0,0,0
1706512301.99980283,89228461,1551,1548,1590,1591,0,0,0,0,0,0,0,0,0,0
1706512302.09976292,89328421,1542,1540,1600,1599,0,0,0,0,0,0,0,0,0,0
1706512302.19972277,89428381,1535,1534,1607,1606,0,0,0,0,0,0,0,0,0,0
1706512302.29968286,89528341,1530,1531,1611,1609,0,0,0,0,0,0,0,0,0,0
1706512302.39964271,89628301,1530,1532,1612,1611,0,0,0,0,0,0,0,0,0,0
1706512302.49960279,89728261,1533,1535,1610,1610,0,0,0,0,0,0,0,0,0,0
1706512302.59956288,89828221,1538,1540,1604,1604,0,0,0,0,0,0,0,0,0,0
1706512302.69952273,89928181,1545,1547,1597,1598,0,0,0,0,0,0,0,0,0,0
1706512302.80031586,90028974,1554,1555,1590,1590,0,0,0,0,0,0,0,0,0,0
1706512302.90027571,90128934,1563,1563,1583,1582,0,0,0,0,0,0,0,0,0,0
1706512303.00023580,90228894,1572,1571,1578,1577,0,0,0,0,0,0,0,0,0,0
1706512303.10019588,90328854,1579,1578,1572,1571,0,0,0,0,0,0,0,0,0,0
1706512303.20015574,90428814,1584,1583,1569,1568,0,0,0,0,0,0,0,0,0,0
1706512303.30011582,90528774,1588,1586,1567,1566,0,0,0,0,0,0,0,0,0,0
1706512303.40007591,90628734,1589,1587,1566,1566,0,0,0,0,0,0,0,0,0,0
1706512303.50003576,90728694,1589,1587,1567,1567,0,0,0,0,0,0,0,0,0,0
1706512303.59999585,90828654,1587,1586,1569,1569,0,0,0,0,0,0,0,0,0,0
1706512303.69995570,90928614,1585,1586,1571,1572,0,0,0,0,0,0,0,0,0,0
1706512303.79991579,91028574,1583,1583,1573,1573,0,0,0,0,0,0,0,0,0,0
1706512303.89987588,91128534,1581,1581,1576,1576,0,0,0,0,0,0,0,0,0,0
1706512303.99983573,91228494,1579,1579,1578,1578,0,0,0,0,0,0,0,0,0,0
1706512304.09979582,91328454,1577,1577,1580,1579,0,0,0,0,0,0,0,0,0,0
1706512304.19975591,91428414,1575,1576,1582,1582,0,0,0,0,0,0,0,0,0,0
1706512304.29971576,91528374,1575,1574,1583,1583,0,0,0,0,0,0,0,0,0,0
1706512304.39967585,91628334,1573,1574,1584,1583,0,0,0,0,0,0,0,0,0,0
1706512304.49963570,91728294,1573,1574,1584,1584,0,0,0,0,0,0,0,0,0,0
1706512304.59959579,91828254,1573,1573,1582,1582,0,0,0,0,0,0,0,0,0,0
1706512304.69955587,91928214,1574,1574,1582,1582,0,0,0,0,0,0,0,0,0,0
1706512304.79951572,92028174,1577,1577,1582,1582,0,0,0,0,0,0,0,0,0,0
1706512304.90030885,92128967,1577,1577,1581,1580,0,0,0,0,0,0,0,0,0,0
1706512305.00026870,92228927,1579,1579,1580,1580,0,0,0,0,0,0,0,0,0,0
1706512305.10022879,92328887,1580,1580,1579,1578,0,0,0,0,0,0,0,0,0,0
1706512305.20018888,92428847,1581,1582,1579,1579,0,0,0,0,0,0,0,0,0,0
1706512305.30014873,92528807,1582,1582,1578,1578,0,0,0,0,0,0,0,0,0,0
1706512305.40010881,92628767,1583,1583,1579,1579,0,0,0,0,0,0,0,0,0,0
1706512305.50006890,92728727,1584,1583,1579,1579,0,0,0,0,0,0,0,0,0,0
1706512305.60002875,92828687,1583,1582,1578,1578,0,0,0,0,0,0,0,0,0,0
1706512305.69998884,92928647,1582,1582,1579,1579,0,0,0,0,0,0,0,0,0,0
1706512305.79994869,93028607,1583,1583,1580,1580,0,0,0,0,0,0,0,0,0,0
1706512305.89990878,93128567,1582,1582,1580,1580,0,0,0,0,0,0,0,0,0,0
1706512305.99986887,93228527,1582,1582,1581,1581,0,0,0,0,0,0,0,0,0,0
1706512306.09982872,93328487,1581,1581,1581,1581,0,0,0,0,0,0,0,0,0,0
1706512306.19978881,93428447,1580,1581,1581,1581,0,0,0,0,0,0,0,0,0,0
1706512306.29974890,93528407,1580,1580,1581,1581,0,0,0,0,0,0,0,0,0,0
1706512306.39970875,93628367,1580,1580,1581,1581,0,0,0,0,0,0,0,0,0,0
1706512306.49966884,93728327,1579,1579,1581,1581,0,0,0,0,0,0,0,0,0,0
1706512306.59962869,93828287,1579,1579,1580,1580,0,0,0,0,0,0,0,0,0,0
1706512306.69958878,93928247,1578,1579,1580,1580,0,0,0,0,0,0,0,0,0,0
1706512306.79954886,94028207,1579,1579,1579,1580,0,0,0,0,0,0,0,0,0,0
1706512306.89950871,94128167,1580,1580,1581,1581,0,0,0,0,0,0,0,0,0,0
1706512307.00030184,94228960,1580,1580,1581,1580,0,0,0,0,0,0,0,0,0,0
1706512307.10026169,94328920,1580,1580,1580,1580,0,0,0,0,0,0,0,0,0,0
1706512307.20022178,94428880,1580,1580,1580,1580,0,0,0,0,0,0,0,0,0,0
1706512307.30018187,94528840,1581,1581,1580,1580,0,0,0,0,0,0,0,0,0,0
1706512307.40014172,94628800,1581,1582,1587,1573,0,0,0,0,0,0,0,0,0,0
1706512307.50010180,94728760,1581,1583,1584,1573,0,0,0,0,0,0,0,0,0,0
1706512307.60006189,94828720,1580,1582,1576,1573,0,0,0,0,0,0,0,0,0,0
1706512307.70002174,94928680,1578,1580,1566,1570,0,0,0,0,0,0,0,0,0,0
1706512307.79998183,95028640,1577,1580,1561,1567,0,0,0,0,0,0,0,0,0,0
1706512307.89994168,95128600,1577,1580,1556,1562,0,0,0,0,0,0,0,0,0,0
1706512307.99990177,95228560,1579,1579,1555,1558,0,0,0,0,0,0,0,0,0,0
1706512308.09986186,95328520,1580,1579,1555,1556,0,0,0,0,0,0,0,0,0,0
1706512308.19982171,95428480,1578,1578,1555,1553,0,0,0,0,0,0,0,0,0,0
1706512308.29978180,95528440,1578,1578,1556,1553,0,0,0,0,0,0,0,0,0,0
1706512308.39974189,95628400,1577,1577,1555,1553,0,0,0,0,0,0,0,0,0,0
1706512308.49970174,95728360,1577,1577,1555,1555,0,0,0,0,0,0,0,0,0,0
1706512308.59966183,95828320,1575,1576,1554,1554,0,0,0,0,0,0,0,0,0,0
1706512308.69962192,95928280,1575,1576,1553,1553,0,0,0,0,0,0,0,0,0,0
1706512308.79958177,96028240,1574,1576,1552,1552,0,0,0,0,0,0,0,0,0,0
1706512308.89954185,96128200,1576,1577,1551,1550,0,0,0,0,0,0,0,0,0,0
1706512308.99950171,96228160,1577,1578,1548,1548,0,0,0,0,0,0,0,0,0,0
1706512309.10029483,96328953,1579,1580,1546,1546,0,0,0,0,0,0,0,0,0,0
1706512309.20025492,96428913,1582,1583,1545,1544,0,0,0,0,0,0,0,0,0,0
1706512309.30021477,96528873,1585,1585,1543,1543,0,0,0,0,0,0,0,0,0,0
1706512309.40017486,96628833,1587,1588,1541,1540,0,0,0,0,0,0,0,0,0,0
1706512309.50013471,96728793,1589,1589,1539,1539,0,0,0,0,0,0,0,0,0,0
1706512309.60009480,96828753,1590,1590,1538,1538,0,0,0,0,0,0,0,0,0,0
1706512309.70005488,96928713,1591,1591,1538,1539,0,0,0,0,0,0,0,0,0,0
1706512309.80001473,97028673,1591,1592,1540,1542,0,0,0,0,0,0,0,0,0,0
1706512309.89997482,97128633,1590,1590,1542,1545,0,0,0,0,0,0,0,0,0,0
1706512309.99993491,97228593,1588,1587,1546,1549,0,0,0,0,0,0,0,0,0,0
1706512310.09989476,97328553,1584,1582,1553,1556,0,0,0,0,0,0,0,0,0,0
1706512310.19985485,97428513,1579,1576,1563,1566,0,0,0,0,0,0,0,0,0,0
1706512310.29981470,97528473,1570,1566,1573,1575,0,0,0,0,0,0,0,0,0,0
1706512310.39977479,97628433,1560,1556,1583,1584,0,0,0,0,0,0,0,0,0,0
1706512310.49973488,97728393,1551,1548,1594,1595,0,0,0,0,0,0,0,0,0,0
1706512310.59969473,97828353,1542,1541,1603,1603,0,0,0,0,0,0,0,0,0,0
1706512310.69965482,97928313,1536,1537,1609,1608,0,0,0,0,0,0,0,0,0,0
1706512310.79961491,98028273,1533,1535,1611,1610,0,0,0,0,0,0,0,0,0,0
1706512310.89957476,98128233,1533,1536,1611,1610,0,0,0,0,0,0,0,0,0,0
1706512310.99953485,98228193,1536,1539,1608,1607,0,0,0,0,0,0,0,0,0,0
1706512311.10032773,98328986,1542,1544,1603,1603,0,0,0,0,0,0,0,0,0,0
1706512311.20028782,98428946,1550,1552,1598,1597,0,0,0,0,0,0,0,0,0,0
1706512311.30024791,98528906,1558,1559,1591,1591,0,0,0,0,0,0,0,0,0,0
1706512311.40020776,98628866,1566,1566,1584,1583,0,0,0,0,0,0,0,0,0,0
1706512311.50016785,98728826,1573,1572,1578,1577,0,0,0,0,0,0,0,0,0,0
1706512311.60012770,98828786,1580,1578,1573,1573,0,0,0,0,0,0,0,0,0,0
1706512311.70008779,98928746,1584,1582,1570,1569,0,0,0,0,0,0,0,0,0,0
1706512311.80004787,99028706,1586,1586,1567,1568,0,0,0,0,0,0,0,0,0,0
1706512311.90000772,99128666,1588,1586,1567,1567,0,0,0,0,0,0,0,0,0,0
1706512311.99996781,99228626,1588,1586,1567,1568,0,0,0,0,0,0,0,0,0,0
1706512312.09992790,99328586,1586,1585,1569,1569,0,0,0,0,0,0,0,0,0,0
1706512312.19988775,99428546,1585,1584,1573,1572,0,0,0,0,0,0,0,0,0,0
1706512312.29984784,99528506,1582,1582,1575,1575,0,0,0,0,0,0,0,0,0,0
1706512312.39980769,99628466,1579,1580,1577,1577,0,0,0,0,0,0,0,0,0,0
1706512312.49976778,99728426,1577,1577,1580,1580,0,0,0,0,0,0,0,0,0,0
1706512312.59972787,99828386,1575,1575,1581,1581,0,0,0,0,0,0,0,0,0,0
1706512312.69968772,99928346,1574,1575,1583,1584,0,0,0,0,0,0,0,0,0,0
1706512312.79964781,100028306,1573,1574,1584,1583,0,0,0,0,0,0,0,0,0,0
1706512312.89960790,100128266,1573,1574,1585,1584,0,0,0,0,0,0,0,0,0,0
1706512312.99956775,100228226,1574,1575,1584,1584,0,0,0,0,0,0,0,0,0,0
1706512313.09952784,100328186,1575,1575,1583,1583,0,0,0,0,0,0,0,0,0,0
1706512313.20032072,100428979,1576,1576,1582,1582,0,0,0,0,0,0,0,0,0,0
1706512313.30028081,100528939,1577,1577,1580,1580,0,0,0,0,0,0,0,0,0,0
1706512313.40024090,100628899,1578,1578,1579,1579,0,0,0,0,0,0,0,0,0,0
1706512313.50020075,100728859,1579,1579,1579,1579,0,0,0,0,0,0,0,0,0,0
1706512313.60016084,100828819,1581,1581,1578,1579,0,0,0,0,0,0,0,0,0,0
1706512313.70012069,100928779,1581,1581,1577,1577,0,0,0,0,0,0,0,0,0,0
1706512313.80008078,101028739,1582,1581,1578,1577,0,0,0,0,0,0,0,0,0,0
1706512313.90004086,101128699,1583,1582,1578,1578,0,0,0,0,0,0,0,0,0,0
1706512314.00000072,101228659,1583,1582,1579,1578,0,0,0,0,0,0,0,0,0,0
1706512314.09996080,101328619,1582,1582,1579,1579,0,0,0,0,0,0,0,0,0,0
1706512314.19992089,101428579,1581,1582,1579,1579,0,0,0,0,0,0,0,0,0,0
1706512314.29988074,101528539,1581,1581,1580,1580,0,0,0,0,0,0,0,0,0,0
1706512314.39984083,101628499,1581,1581,1581,1580,0,0,0,0,0,0,0,0,0,0
1706512314.49980068,101728459,1581,1581,1582,1582,0,0,0,0,0,0,0,0,0,0
1706512314.59976077,101828419,1580,1580,1581,1581,0,0,0,0,0,0,0,0,0,0
1706512314.69972086,101928379,1579,1580,1581,1581,0,0,0,0,0,0,0,0,0,0
1706512314.79968071,102028339,1580,1581,1582,1582,0,0,0,0,0,0,0,0,0,0
1706512314.89964080,102128299,1580,1580,1582,1582,0,0,0,0,0,0,0,0,0,0
1706512314.99960089,102228259,1582,1581,1583,1583,0,0,0,0,0,0,0,0,0,0
1706512315.09956074,102328219,1581,1581,1583,1582,0,0,0,0,0,0,0,0,0,0
1706512315.19952083,102428179,1581,1581,1582,1582,0,0,0,0,0,0,0,0,0,0
1706512315.30031371,102528972,1581,1582,1582,1582,0,0,0,0,0,0,0,0,0,0
1706512315.40027380,102628932,1582,1583,1588,1575,0,0,0,0,0,0,0,0,0,0
1706512315.50023389,102728892,1581,1581,1586,1574,0,0,0,0,0,0,0,0,0,0
1706512315.60019374,102828852,1579,1579,1579,1575,0,0,0,0,0,0,0,0,0,0
1706512315.70015383,102928812,1576,1575,1571,1574,0,0,0,0,0,0,0,0,0,0
1706512315.80011392,103028772,1573,1573,1566,1574,0,0,0,0,0,0,0,0,0,0
1706512315.90007377,103128732,1570,1570,1564,1571,0,0,0,0,0,0,0,0,0,0
1706512316.00003386,103228692,1568,1569,1565,1568,0,0,0,0,0,0,0,0,0,0
1706512316.09999371,103328652,1567,1568,1566,1566,0,0,0,0,0,0,0,0,0,0
1706512316.19995379,103428612,1566,1567,1567,1565,0,0,0,0,0,0,0,0,0,0
1706512316.29991388,103528572,1565,1566,1567,1565,0,0,0,0,0,0,0,0,0,0
1706512316.39987373,103628532,1564,1565,1567,1564,0,0,0,0,0,0,0,0,0,0
1706512316.49983382,103728492,1564,1564,1566,1565,0,0,0,0,0,0,0,0,0,0
1706512316.59979391,103828452,1563,1563,1564,1564,0,0,0,0,0,0,0,0,0,0
1706512316.69975376,103928412,1562,1562,1563,1563,0,0,0,0,0,0,0,0,0,0
1706512316.79971385,104028372,1562,1562,1563,1563,0,0,0,0,0,0,0,0,0,0
1706512316.89967370,104128332,1562,1562,1563,1563,0,0,0,0,0,0,0,0,0,0
1706512316.99963379,104228292,1562,1562,1563,1563,0,0,0,0,0,0,0,0,0,0
1706512317.09959388,104328252,1561,1562,1563,1562,0,0,0,0,0,0,0,0,0,0
1706512317.19955373,104428212,1561,1561,1562,1561,0,0,0,0,0,0,0,0,0,0
1706512317.29951382,104528172,1560,1560,1560,1560,0,0,0,0,0,0,0,0,0,0
1706512317.40030670,104628965,1559,1559,1559,1558,0,0,0,0,0,0,0,0,0,0
1706512317.50026679,104728925,1559,1559,1559,1558,0,0,0,0,0,0,0,0,0,0
1706512317.60022688,104828885,1559,1559,1558,1557,0,0,0,0,0,0,0,0,0,0
1706512317.70018673,104928845,1558,1558,1558,1557,0,0,0,0,0,0,0,0,0,0
1706512317.80014682,105028805,1558,1558,1558,1557,0,0,0,0,0,0,0,0,0,0
1706512317.90010691,105128765,1558,1558,1559,1557,0,0,0,0,0,0,0,0,0,0
1706512318.00006676,105228725,1558,1558,1560,1557,0,0,0,0,0,0,0,0,0,0
1706512318.10002685,105328685,1559,1559,1560,1558,0,0,0,0,0,0,0,0,0,0
1706512318.19998670,105428645,1559,1558,1559,1559,0,0,0,0,0,0,0,0,0,0
1706512318.29994678,105528605,1560,1559,1558,1563,0,0,0,0,0,0,0,0,0,0
1706512318.39990687,105628565,1560,1560,1557,1564,0,0,0,0,0,0,0,0,0,0
1706512318.49986672,105728525,1561,1562,1558,1565,0,0,0,0,0,0,0,0,0,0
1706512318.59982681,105828485,1561,1562,1560,1564,0,0,0,0,0,0,0,0,0,0
1706512318.69978690,105928445,1561,1561,1561,1561,0,0,0,0,0,0,0,0,0,0
1706512318.79974675,106028405,1559,1560,1561,1557,0,0,0,0,0,0,0,0,0,0
1706512318.89970684,106128365,1561,1561,1559,1561,0,0,0,0,0,0,0,0,0,0
1706512318.99966669,106228325,1558,1557,1555,1558,0,0,0,0,0,0,0,0,0,0
1706512319.09962678,106328285,1556,1555,1553,1554,0,0,0,0,0,0,0,0,0,0
1706512319.19958687,106428245,1550,1550,1548,1548,0,0,0,0,0,0,0,0,0,0
1706512319.29954672,106528205,1544,1544,1542,1542,0,0,0,0,0,0,0,0,0,0
1706512319.39950681,106628165,1537,1537,1534,1534,0,0,0,0,0,0,0,0,0,0
1706512319.50029969,106728958,1529,1530,1527,1527,0,0,0,0,0,0,0,0,0,0
1706512319.60025978,106828918,1523,1524,1521,1521,0,0,0,0,0,0,0,0,0,0
1706512319.70021987,106928878,1521,1521,1520,1520,0,0,0,0,0,0,0,0,0,0
1706512319.80017972,107028838,1520,1519,1519,1520,0,0,0,0,0,0,0,0,0,0
1706512319.90013981,107128798,1521,1520,1522,1522,0,0,0,0,0,0,0,0,0,0
1706512320.00009990,107228758,1522,1522,1525,1525,0,0,0,0,0,0,0,0,0,0
1706512320.10005975,107328718,1526,1525,1530,1530,0,0,0,0,0,0,0,0,0,0
1706512320.20001984,107428678,1529,1529,1534,1534,0,0,0,0,0,0,0,0,0,0
1706512320.29997969,107528638,1534,1534,1538,1539,0,0,0,0,0,0,0,0,0,0
1706512320.39993978,107628598,1537,1538,1542,1542,0,0,0,0,0,0,0,0,0,0
1706512320.49989986,107728558,1540,1540,1543,1543,0,0,0,0,0,0,0,0,0,0
1706512320.59985971,107828518,1543,1544,1545,1545,0,0,0,0,0,0,0,0,0,0
1706512320.69981980,107928478,1545,1545,1545,1545,0,0,0,0,0,0,0,0,0,0
1706512320.79977989,108028438,1546,1546,1545,1545,0,0,0,0,0,0,0,0,0,0
1706512320.89973974,108128398,1547,1547,1545,1545,0,0,0,0,0,0,0,0,0,0
1706512320.99969983,108228358,1548,1548,1545,1545,0,0,0,0,0,0,0,0,0,0
1706512321.09965992,108328318,1549,1548,1546,1545,0,0,0,0,0,0,0,0,0,0
1706512321.19961977,108428278,1548,1548,1545,1545,0,0,0,0,0,0,0,0,0,0
1706512321.29957986,108528238,1548,1547,1545,1545,0,0,0,0,0,0,0,0,0,0
1706512321.39953971,108628198,1547,1547,1544,1544,0,0,0,0,0,0,0,0,0,0
1706512321.49949980,108728158,1546,1546,1544,1544,0,0,0,0,0,0,0,0,0,0
1706512321.60029268,108828951,1546,1546,1545,1544,0,0,0,0,0,0,0,0,0,0
1706512321.70025277,108928911,1545,1545,1545,1545,0,0,0,0,0,0,0,0,0,0
1706512321.80021286,109028871,1544,1545,1545,1545,0,0,0,0,0,0,0,0,0,0
1706512321.90017271,109128831,1544,1544,1545,1544,0,0,0,0,0,0,0,0,0,0
1706512322.00013280,109228791,1543,1543,1545,1544,0,0,0,0,0,0,0,0,0,0
1706512322.10009289,109328751,1544,1543,1544,1544,0,0,0,0,0,0,0,0,0,0
1706512322.20005274,109428711,1543,1543,1545,1545,0,0,0,0,0,0,0,0,0,0
1706512322.30001283,109528671,1543,1543,1544,1544,0,0,0,0,0,0,0,0,0,0
1706512322.39997292,109628631,1543,1543,1545,1544,0,0,0,0,0,0,0,0,0,0
1706512322.49993277,109728591,1544,1543,1544,1544,0,0,0,0,0,0,0,0,0,0
1706512322.59989285,109828551,1543,1544,1544,1544,0,0,0,0,0,0,0,0,0,0
1706512322.69985271,109928511,1544,1544,1544,1544,0,0,0,0,0,0,0,0,0,0
1706512322.79981279,110028471,1543,1543,1543,1543,0,0,0,0,0,0,0,0,0,0
1706512322.89977288,110128431,1544,1544,1543,1544,0,0,0,0,0,0,0,0,0,0
1706512322.99973273,110228391,1544,1545,1544,1544,0,0,0,0,0,0,0,0,0,0
1706512323.09969282,110328351,1545,1544,1544,1544,0,0,0,0,0,0,0,0,0,0
1706512323.19965291,110428311,1544,1544,1543,1543,0,0,0,0,0,0,0,0,0,0
1706512323.29961276,110528271,1544,1543,1543,1543,0,0,0,0,0,0,0,0,0,0
1706512323.39957285,110628231,1544,1545,1544,1543,0,0,0,0,0,0,0,0,0,0
1706512323.49953270,110728191,1544,1544,1543,1543,0,0,0,0,0,0,0,0,0,0
1706512323.60032582,110828984,1544,1544,1544,1544,0,0,0,0,0,0,0,0,0,0
1706512323.70028591,110928944,1544,1543,1544,1544,0,0,0,0,0,0,0,0,0,0
1706512323.80024576,111028904,1543,1543,1543,1543,0,0,0,0,0,0,0,0,0,0
1706512323.90020585,111128864,1544,1544,1544,1544,0,0,0,0,0,0,0,0,0,0
1706512324.00016570,111228824,1544,1544,1545,1544,0,0,0,0,0,0,0,0,0,0
1706512324.10012579,111328784,1544,1543,1544,1544,0,0,0,0,0,0,0,0,0,0
1706512324.20008588,111428744,1544,1544,1544,1544,0,0,0,0,0,0,0,0,0,0
1706512324.30004573,111528704,1545,1544,1545,1545,0,0,0,0,0,0,0,0,0,0
1706512324.40000582,111628664,1544,1545,1544,1544,0,0,0,0,0,0,0,0,0,0
1706512324.49996591,111728624,1544,1544,1544,1544,0,0,0,0,0,0,0,0,0,0
1706512324.59992576,111828584,1544,1544,1544,1544,0,0,0,0,0,0,0,0,0,0
1706512324.69988585,111928544,1544,1544,1543,1544,0,0,0,0,0,0,0,0,0,0
1706512324.79984570,112028504,1544,1544,1543,1544,0,0,0,0,0,0,0,0,0,0
1706512324.89980578,112128464,1544,1544,1543,1544,0,0,0,0,0,0,0,0,0,0
1706512324.99976587,112228424,1544,1544,1544,1544,0,0,0,0,0,0,0,0,0,0
1706512325.09972572,112328384,1544,1544,1544,1544,0,0,0,0,0,0,0,0,0,0
1706512325.19968581,112428344,1544,1544,1544,1544,0,0,0,0,0,0,0,0,0,0
1706512325.29964590,112528304,1544,1544,1544,1544,0,0,0,0,0,0,0,0,0,0
1706512325.39960575,112628264,1544,1544,1544,1544,0,0,0,0,0,0,0,0,0,0
1706512325.49956584,112728224,1544,1544,1544,1544,0,0,0,0,0,0,0,0,0,0
1706512325.59952569,112828184,1544,1544,1544,1544,0,0,0,0,0,0,0,0,0,0
1706512325.70031881,112928977,1543,1543,1543,1544,0,0,0,0,0,0,0,0,0,0
1706512325.80027890,113028937,1544,1544,1544,1544,0,0,0,0,0,0,0,0,0,0
1706512325.90023875,113128897,1545,1545,1545,1545,0,0,0,0,0,0,0,0,0,0
1706512326.00019884,113228857,1545,1545,1545,1545,0,0,0,0,0,0,0,0,0,0
1706512326.10015869,113328817,1544,1544,1544,1545,0,0,0,0,0,0,0,0,0,0
1706512326.20011878,113428777,1544,1544,1545,1544,0,0,0,0,0,0,0,0,0,0
1706512326.30007887,113528737,1544,1544,1544,1544,0,0,0,0,0,0,0,0,0,0
1706512326.40003872,113628697,1545,1545,1545,1545,0,0,0,0,0,0,0,0,0,0
1706512326.49999881,113728657,1545,1544,1544,1545,0,0,0,0,0,0,0,0,0,0
1706512326.59995890,113828617,1545,1544,1544,1544,0,0,0,0,0,0,0,0,0,0
1706512326.69991875,113928577,1545,1544,1544,1545,0,0,0,0,0,0,0,0,0,0
1706512326.79987884,114028537,1544,1545,1545,1544,0,0,0,0,0,0,0,0,0,0
1706512326.89983869,114128497,1544,1544,1544,1544,0,0,0,0,0,0,0,0,0,0
1706512326.99979877,114228457,1544,1544,1543,1543,0,0,0,0,0,0,0,0,0,0
1706512327.09975886,114328417,1544,1543,1543,1543,0,0,0,0,0,0,0,0,0,0
1706512327.19971871,114428377,1544,1544,1544,1544,0,0,0,0,0,0,0,0,0,0
1706512327.29967880,114528337,1545,1545,1545,1545,0,0,0,0,0,0,0,0,0,0
1706512327.39963889,114628297,1545,1544,1545,1545,0,0,0,0,0,0,0,0,0,0
1706512327.49959874,114728257,1545,1545,1544,1545,0,0,0,0,0,0,0,0,0,0
1706512327.59955883,114828217,1545,1545,1545,1545,0,0,0,0,0,0,0,0,0,0
1706512327.69951892,114928177,1545,1545,1545,1545,0,0,0,0,0,0,0,0,0,0
1706512327.80031180,115028970,1544,1545,1544,1544,0,0,0,0,0,0,0,0,0,0
1706512327.90027189,115128930,1545,1545,1545,1545,0,0,0,0,0,0,0,0,0,0
1706512328.00023174,115228890,1545,1545,1545,1545,0,0,0,0,0,0,0,0,0,0
1706512328.10019183,115328850,1544,1544,1544,1544,0,0,0,0,0,0,0,0,0,0
1706512328.20015168,115428810,1544,1545,1545,1544,0,0,0,0,0,0,0,0,0,0
1706512328.30011177,115528770,1545,1545,1545,1544,0,0,0,0,0,0,0,0,0,0
1706512328.40007186,115628730,1543,1543,1543,1543,0,0,0,0,0,0,0,0,0,0
1706512328.50003171,115728690,1545,1544,1544,1545,0,0,0,0,0,0,0,0,0,0
1706512328.59999180,115828650,1544,1544,1543,1544,0,0,0,0,0,0,0,0,0,0
1706512328.69995189,115928610,1544,1544,1543,1544,0,0,0,0,0,0,0,0,0,0
1706512328.79991174,116028570,1543,1543,1543,1543,0,0,0,0,0,0,0,0,0,0
1706512328.89987183,116128530,1543,1543,1543,1543,0,0,0,0,0,0,0,0,0,0
1706512328.99983191,116228490,1544,1544,1544,1544,0,0,0,0,0,0,0,0,0,0
1706512329.09979177,116328450,1544,1544,1544,1544,0,0,0,0,0,0,0,0,0,0
1706512329.19975185,116428410,1544,1544,1544,1544,0,0,0,0,0,0,0,0,0,0
1706512329.29971170,116528370,1532,1532,1528,1531,0,0,0,0,0,0,0,0,0,0
1706512329.39967179,116628330,1377,1380,1339,1339,0,0,0,0,0,0,0,0,0,0
1706512329.49963188,116728290,1305,1308,1241,1240,0,0,0,0,0,0,0,0,0,0
1706512329.59959173,116828250,1284,1287,1211,1209,0,0,0,0,0,0,0,0,0,0
1706512329.69955182,116928210,1268,1270,1186,1185,0,0,0,0,0,0,0,0,0,0
1706512329.79951191,117028170,1245,1248,1151,1150,0,0,0,0,0,0,0,0,0,0
1706512329.90030479,117128963,1174,1176,1150,1150,0,0,0,0,0,0,0,0,0,0
1706512330.00026488,117228923,1174,1176,1151,1150,0,0,0,0,0,0,0,0,0,0
1706512330.10022473,117328883,1174,1176,1150,1150,0,0,0,0,0,0,0,0,0,0
1706512330.20018482,117428843,1175,1163,1150,1167,0,0,0,0,0,0,0,0,0,0
1706512330.30014491,117528803,1175,1162,1150,1168,0,0,0,0,0,0,0,0,0,0
1706512330.40010476,117628763,1175,1168,1150,1161,0,0,0,0,0,0,0,0,0,0
1706512330.50006485,117728723,1175,1169,1150,1159,0,0,0,0,0,0,0,0,0,0
1706512330.60002470,117828683,1175,1169,1150,1159,0,0,0,0,0,0,0,0,0,0
1706512330.69998479,117928643,1175,1168,1150,1160,0,0,0,0,0,0,0,0,0,0
1706512330.79994488,118028603,1175,1168,1150,1160,0,0,0,0,0,0,0,0,0,0
1706512330.89990473,118128563,1175,1168,1150,1161,0,0,0,0,0,0,0,0,0,0
1706512330.99986482,118228523,1173,1175,1153,1150,0,0,0,0,0,0,0,0,0,0
1706512331.09982491,118328483,1175,1174,1150,1151,0,0,0,0,0,0,0,0,0,0
1706512331.19978476,118428443,1175,1174,1150,1151,0,0,0,0,0,0,0,0,0,0
1706512331.29974484,118528403,1175,1174,1150,1152,0,0,0,0,0,0,0,0,0,0
1706512331.39970469,118628363,1175,1174,1150,1152,0,0,0,0,0,0,0,0,0,0
1706512331.49966478,118728323,1000,1000,1000,1000,0,0,0,0,0,0,0,0,0,0
1706512331.59962487,118828283,1000,1000,1000,1000,0,0,0,0,0,0,0,0,0,0
1706512331.69958472,118928243,1000,1000,1000,1000,0,0,0,0,0,0,0,0,0,0
1706512331.79954481,119028203,1000,1000,1000,1000,0,0,0,0,0,0,0,0,0,0
1706512331.89950490,119128163,1000,1000,1000,1000,0,0,0,0,0,0,0,0,0,0
1706512332.00029778,119228956,1000,1000,1000,1000,0,0,0,0,0,0,0,0,0,0
1706512332.10025787,119328916,1000,1000,1000,1000,0,0,0,0,0,0,0,0,0,0
1706512332.20021772,119428876,1000,1000,1000,1000,0,0,0,0,0,0,0,0,0,0
1706512332.30017781,119528836,1000,1000,1000,1000,0,0,0,0,0,0,0,0,0,0
1706512332.40013790,119628796,1000,1000,1000,1000,0,0,0,0,0,0,0,0,0,0
1706512332.50009775,119728756,1000,1000,1000,1000,0,0,0,0,0,0,0,0,0,0
1706512332.60005784,119828716,1000,1000,1000,1000,0,0,0,0,0,0,0,0,0,0
1706512332.70001769,119928676,1000,1000,1000,1000,0,0,0,0,0,0,0,0,0,0
1706512332.79997778,120028636,1000,1000,1000,1000,0,0,0,0,0,0,0,0,0,0
1706512332.89993787,120128596,1000,1000,1000,1000,0,0,0,0,0,0,0,0,0,0
1706512332.99989772,120228556,1000,1000,1000,1000,0,0,0,0,0,0,0,0,0,0
1706512333.09985781,120328516,1000,1000,1000,1000,0,0,0,0,0,0,0,0,0,0
1706512333.19981790,120428476,1000,1000,1000,1000,0,0,0,0,0,0,0,0,0,0
1706512333.29977775,120528436,1000,1000,1000,1000,0,0,0,0,0,0,0,0,0,0
1706512333.39973783,120628396,1000,1000,1000,1000,0,0,0,0,0,0,0,0,0,0
1706512333.49969769,120728356,1000,1000,1000,1000,0,0,0,0,0,0,0,0,0,0
1706512333.59965777,120828316,1000,1000,1000,1000,0,0,0,0,0,0,0,0,0,0
1706512333.69961786,120928276,1000,1000,1000,1000,0,0,0,0,0,0,0,0,0,0
1706512333.79957771,121028236,1000,1000,1000,1000,0,0,0,0,0,0,0,0,0,0
1706512333.89953780,121128196,1000,1000,1000,1000,0,0,0,0,0,0,0,0,0,0
1706512333.99949789,121228156,1000,1000,1000,1000,0,0,0,0,0,0,0,0,0,0
1706512334.10029078,121328949,1000,1000,1000,1000,0,0,0,0,0,0,0,0,0,0
1706512334.20025086,121428909,1000,1000,1000,1000,0,0,0,0,0,0,0,0,0,0
1706512334.30021071,121528869,1000,1000,1000,1000,0,0,0,0,0,0,0,0,0,0
1706512334.40017080,121628829,1000,1000,1000,1000,0,0,0,0,0,0,0,0,0,0
1706512334.50013089,121728789,1000,1000,1000,1000,0,0,0,0,0,0,0,0,0,0
1706512334.60009074,121828749,1000,1000,1000,1000,0,0,0,0,0,0,0,0,0,0
1706512334.70005083,121928709,1000,1000,1000,1000,0,0,0,0,0,0,0,0,0,0
1706512334.80001092,122028669,1000,1000,1000,1000,0,0,0,0,0,0,0,0,0,0
1706512334.89997077,122128629,1000,1000,1000,1000,0,0,0,0,0,0,0,0,0,0
1706512334.99993086,122228589,1000,1000,1000,1000,0,0,0,0,0,0,0,0,0,0
1706512335.09989071,122328549,1000,1000,1000,1000,0,0,0,0,0,0,0,0,0,0
1706512335.19985080,122428509,1000,1000,1000,1000,0,0,0,0,0,0,0,0,0,0
1706512335.29981089,122528469,1000,1000,1000,1000,0,0,0,0,0,0,0,0,0,0
1706512335.39977074,122628429,1000,1000,1000,1000,0,0,0,0,0,0,0,0,0,0
1706512335.49973083,122728389,1000,1000,1000,1000,0,0,0,0,0,0,0,0,0,0
1706512335.59969091,122828349,1000,1000,1000,1000,0,0,0,0,0,0,0,0,0,0
1706512335.69965076,122928309,1000,1000,1000,1000,0,0,0,0,0,0,0,0,0,0
1706512335.79961085,123028269,1000,1000,1000,1000,0,0,0,0,0,0,0,0,0,0
1706512335.89957070,123128229,1000,1000,1000,1000,0,0,0,0,0,0,0,0,0,0
1706512335.99953079,123228189,1000,1000,1000,1000,0,0,0,0,0,0,0,0,0,0
1706512336.10032392,123328982,1000,1000,1000,1000,0,0,0,0,0,0,0,0,0,0
1706512336.20028377,123428942,1000,1000,1000,1000,0,0,0,0,0,0,0,0,0,0
1706512336.30024385,123528902,1000,1000,1000,1000,0,0,0,0,0,0,0,0,0,0
1706512336.40020370,123628862,1000,1000,1000,1000,0,0,0,0,0,0,0,0,0,0
1706512336.50016379,123728822,1000,1000,1000,1000,0,0,0,0,0,0,0,0,0,0
1706512336.60012388,123828782,1000,1000,1000,1000,0,0,0,0,0,0,0,0,0,0
1706512336.70008373,123928742,1000,1000,1000,1000,0,0,0,0,0,0,0,0,0,0
1706512336.80004382,124028702,1000,1000,1000,1000,0,0,0,0,0,0,0,0,0,0
1706512336.90000391,124128662,1000,1000,1000,1000,0,0,0,0,0,0,0,0,0,0
1706512336.99996376,124228622,1000,1000,1000,1000,0,0,0,0,0,0,0,0,0,0
1706512337.09992385,124328582,1000,1000,1000,1000,0,0,0,0,0,0,0,0,0,0
1706512337.19988370,124428542,1000,1000,1000,1000,0,0,0,0,0,0,0,0,0,0
1706512337.29984379,124528502,1000,1000,1000,1000,0,0,0,0,0,0,0,0,0,0
1706512337.39980388,124628462,1000,1000,1000,1000,0,0,0,0,0,0,0,0,0,0
1706512337.49976373,124728422,1000,1000,1000,1000,0,0,0,0,0,0,0,0,0,0
1706512337.59972382,124828382,1000,1000,1000,1000,0,0,0,0,0,0,0,0,0,0
1706512337.69968390,124928342,1000,1000,1000,1000,0,0,0,0,0,0,0,0,0,0
1706512337.79964375,125028302,1000,1000,1000,1000,0,0,0,0,0,0,0,0,0,0
1706512337.89960384,125128262,1000,1000,1000,1000,0,0,0,0,0,0,0,0,0,0
1706512337.99956369,125228222,1000,1000,1000,1000,0,0,0,0,0,0,0,0,0,0
1706512338.09952378,125328182,1000,1000,1000,1000,0,0,0,0,0,0,0,0,0,0
1706512338.20031691,125428975,1000,1000,1000,1000,0,0,0,0,0,0,0,0,0,0
1706512338.30027676,125528935,1000,1000,1000,1000,0,0,0,0,0,0,0,0,0,0
1706512338.40023685,125628895,1000,1000,1000,1000,0,0,0,0,0,0,0,0,0,0
1706512338.50019670,125728855,1000,1000,1000,1000,0,0,0,0,0,0,0,0,0,0
1706512338.60015678,125828815,1000,1000,1000,1000,0,0,0,0,0,0,0,0,0,0
1706512338.70011687,125928775,1000,1000,1000,1000,0,0,0,0,0,0,0,0,0,0
1706512338.80007672,126028735,1000,1000,1000,1000,0,0,0,0,0,0,0,0,0,0
1706512338.90003681,126128695,1000,1000,1000,1000,0,0,0,0,0,0,0,0,0,0
1706512338.99999690,126228655,1000,1000,1000,1000,0,0,0,0,0,0,0,0,0,0
1706512339.09995675,126328615,1000,1000,1000,1000,0,0,0,0,0,0,0,0,0,0
1706512339.19991684,126428575,1000,1000,1000,1000,0,0,0,0,0,0,0,0,0,0
1706512339.29987669,126528535,1000,1000,1000,1000,0,0,0,0,0,0,0,0,0,0
1706512339.39983678,126628495,1000,1000,1000,1000,0,0,0,0,0,0,0,0,0,0
1706512339.49979687,126728455,1000,1000,1000,1000,0,0,0,0,0,0,0,0,0,0
1706512339.59975672,126828415,1000,1000,1000,1000,0,0,0,0,0,0,0,0,0,0
1706512339.69971681,126928375,1000,1000,1000,1000,0,0,0,0,0,0,0,0,0,0
1706512339.79967690,127028335,1000,1000,1000,1000,0,0,0,0,0,0,0,0,0,0
1706512339.89963675,127128295,1000,1000,1000,1000,0,0,0,0,0,0,0,0,0,0
1706512339.99959683,127228255,1000,1000,1000,1000,0,0,0,0,0,0,0,0,0,0
1706512340.09955668,127328215,1000,1000,1000,1000,0,0,0,0,0,0,0,0,0,0
1706512340.19951677,127428175,1000,1000,1000,1000,0,0,0,0,0,0,0,0,0,0
1706512340.30030990,127528968,1000,1000,1000,1000,0,0,0,0,0,0,0,0,0,0
1706512340.40026975,127628928,1000,1000,1000,1000,0,0,0,0,0,0,0,0,0,0
1706512340.50022984,127728888,1000,1000,1000,1000,0,0,0,0,0,0,0,0,0,0
