TimeUS,M1,M2,M3,M4,TimeUS,C1,C2,C3,C4
60013485,1000,1000,1000,1000,60028479,1000,1000,1000,1000
60015984,1000,1000,1000,1000,60128439,1000,1000,1000,1000
60018483,1000,1000,1000,1000,60228399,1000,1000,1000,1000
60020982,1000,1000,1000,1000,60328359,1000,1000,1000,1000
60023481,1000,1000,1000,1000,60428319,1000,1000,1000,1000
60025980,1000,1000,1000,1000,60528279,1000,1000,1000,1000
60028479,1000,1000,1000,1000,60628239,1000,1000,1000,1000
60030978,1000,1000,1000,1000,60728199,1000,1000,1000,1000
60033477,1000,1000,1000,1000,60828159,1000,1000,1000,1000
60035976,1000,1000,1000,1000,60928952,1000,1000,1000,1000
60038475,1000,1000,1000,1000,61028912,1000,1000,1000,1000
60040974,1000,1000,1000,1000,61128872,1000,1000,1000,1000
60043473,1000,1000,1000,1000,61228832,1000,1000,1000,1000
60045972,1000,1000,1000,1000,61328792,1000,1000,1000,1000
60048471,1000,1000,1000,1000,61428752,1000,1000,1000,1000
60050970,1000,1000,1000,1000,61528712,1000,1000,1000,1000
60053469,1000,1000,1000,1000,61628672,1000,1000,1000,1000
60055968,1000,1000,1000,1000,61728632,1000,1000,1000,1000
60058467,1000,1000,1000,1000,61828592,1000,1000,1000,1000
60060966,1000,1000,1000,1000,61928552,1000,1000,1000,1000
60063465,1000,1000,1000,1000,62028512,1005,1005,1005,1005
60065964,1000,1000,1000,1000,62128472,1035,1035,1035,1035
60068463,1000,1000,1000,1000,62228432,1065,1065,1065,1065
60070962,1000,1000,1000,1000,62328392,1095,1095,1095,1095
60073461,1000,1000,1000,1000,62428352,1125,1125,1125,1125
60075960,1000,1000,1000,1000,62528312,1201,1192,1192,1201
60078459,1000,1000,1000,1000,62628272,1435,1428,1429,1435
60080958,1000,1000,1000,1000,62728232,1607,1601,1602,1608
60083457,1000,1000,1000,1000,62828192,1750,1745,1745,1751
60085956,1000,1000,1000,1000,62928985,1875,1871,1870,1876
60088455,1000,1000,1000,1000,63028945,1918,1914,1915,1918
60090954,1000,1000,1000,1000,63128905,1806,1805,1805,1806
60093453,1000,1000,1000,1000,63228865,1688,1689,1686,1691
60095952,1000,1000,1000,1000,63328825,1637,1639,1634,1642
60098451,1000,1000,1000,1000,63428785,1631,1633,1631,1634
60100950,1000,1000,1000,1000,63528745,1637,1638,1638,1636
60103449,1000,1000,1000,1000,63628705,1637,1638,1640,1635
60105948,1000,1000,1000,1000,63728665,1633,1632,1635,1630
60108447,1000,1000,1000,1000,63828625,1625,1625,1626,1623
60110946,1000,1000,1000,1000,63928585,1619,1618,1619,1617
60113445,1000,1000,1000,1000,64028545,1616,1616,1616,1615
60115944,1000,1000,1000,1000,64128505,1612,1612,1612,1611
60118443,1000,1000,1000,1000,64228465,1582,1583,1590,1575
60120942,1000,1000,1000,1000,64328425,1570,1570,1575,1564
60123441,1000,1000,1000,1000,64428385,1559,1559,1559,1558
60125940,1000,1000,1000,1000,64528345,1551,1551,1547,1554
60128439,1000,1000,1000,1000,64628305,1544,1543,1537,1550
60130938,1000,1000,1000,1000,64728265,1538,1537,1529,1546
60133437,1000,1000,1000,1000,64828225,1533,1532,1526,1538
60135936,1000,1000,1000,1000,64928185,1528,1528,1525,1530
60138435,1000,1000,1000,1000,65028978,1524,1524,1524,1523
60140934,1000,1000,1000,1000,65128938,1525,1526,1527,1524
60143433,1000,1000,1000,1000,65228898,1528,1528,1531,1526
60145932,1000,1000,1000,1000,65328858,1531,1531,1534,1529
60148431,1000,1000,1000,1000,65428818,1536,1536,1539,1534
60150930,1000,1000,1000,1000,65528778,1539,1539,1541,1538
60153429,1000,1000,1000,1000,65628738,1543,1543,1544,1542
60155928,1000,1000,1000,1000,65728698,1547,1547,1547,1547
60158427,1000,1000,1000,1000,65828658,1549,1549,1549,1549
60160926,1000,1000,1000,1000,65928618,1552,1552,1551,1553
60163425,1000,1000,1000,1000,66028578,1555,1555,1554,1556
60165924,1000,1000,1000,1000,66128538,1555,1554,1558,1561
60168423,1000,1000,1000,1000,66228498,1555,1556,1562,1563
60170922,1000,1000,1000,1000,66328458,1557,1557,1563,1563
60173421,1000,1000,1000,1000,66428418,1559,1560,1564,1564
60175920,1000,1000,1000,1000,66528378,1563,1562,1565,1565
60178419,1000,1000,1000,1000,66628338,1566,1566,1567,1566
60180918,1000,1000,1000,1000,66728298,1567,1568,1566,1566
60183417,1000,1000,1000,1000,66828258,1569,1570,1567,1567
60185916,1000,1000,1000,1000,66928218,1571,1570,1567,1567
60188415,1000,1000,1000,1000,67028178,1572,1571,1568,1568
60190914,1000,1000,1000,1000,67128971,1572,1572,1569,1569
60193413,1000,1000,1000,1000,67228931,1573,1574,1570,1570
60195912,1000,1000,1000,1000,67328891,1574,1574,1571,1571
60198411,1000,1000,1000,1000,67428851,1573,1573,1571,1571
60200910,1000,1000,1000,1000,67528811,1574,1574,1573,1572
60203409,1000,1000,1000,1000,67628771,1574,1574,1574,1573
60205908,1000,1000,1000,1000,67728731,1575,1574,1576,1574
60208407,1000,1000,1000,1000,67828691,1574,1574,1574,1574
60210906,1000,1000,1000,1000,67928651,1575,1575,1576,1576
60213405,1000,1000,1000,1000,68028611,1575,1575,1577,1576
60215904,1000,1000,1000,1000,68128571,1575,1575,1576,1576
60218403,1000,1000,1000,1000,68228531,1576,1576,1577,1577
60220902,1000,1000,1000,1000,68328491,1575,1575,1576,1576
60223401,1000,1000,1000,1000,68428451,1576,1576,1576,1576
60225900,1000,1000,1000,1000,68528411,1576,1576,1576,1576
60228399,1000,1000,1000,1000,68628371,1576,1576,1577,1576
60230898,1000,1000,1000,1000,68728331,1576,1576,1575,1575
60233397,1000,1000,1000,1000,68828291,1577,1577,1576,1576
60235896,1000,1000,1000,1000,68928251,1579,1578,1578,1578
60238395,1000,1000,1000,1000,69028211,1578,1578,1578,1577
60240894,1000,1000,1000,1000,69128171,1579,1579,1579,1579
60243393,1000,1000,1000,1000,69228964,1579,1580,1579,1579
60245892,1000,1000,1000,1000,69328924,1579,1579,1579,1579
60248391,1000,1000,1000,1000,69428884,1579,1579,1579,1579
60250890,1000,1000,1000,1000,69528844,1578,1578,1578,1578
60253389,1000,1000,1000,1000,69628804,1578,1578,1579,1579
60255888,1000,1000,1000,1000,69728764,1578,1578,1579,1579
60258387,1000,1000,1000,1000,69828724,1579,1580,1579,1580
60260886,1000,1000,1000,1000,69928684,1578,1578,1578,1579
60263385,1000,1000,1000,1000,70028644,1579,1579,1579,1579
60265884,1000,1000,1000,1000,70128604,1580,1580,1580,1580
60268383,1000,1000,1000,1000,70228564,1579,1579,1580,1579
60270882,1000,1000,1000,1000,70328524,1580,1580,1580,1580
60273381,1000,1000,1000,1000,70428484,1579,1579,1579,1579
60275880,1000,1000,1000,1000,70528444,1579,1578,1579,1579
60278379,1000,1000,1000,1000,70628404,1579,1579,1579,1579
60280878,1000,1000,1000,1000,70728364,1579,1579,1579,1579
60283377,1000,1000,1000,1000,70828324,1579,1579,1579,1579
60285876,1000,1000,1000,1000,70928284,1579,1579,1579,1579
60288375,1000,1000,1000,1000,71028244,1579,1579,1579,1579
60290874,1000,1000,1000,1000,71128204,1580,1580,1580,1580
60293373,1000,1000,1000,1000,71228164,1580,1579,1579,1580
60295872,1000,1000,1000,1000,71328957,1581,1580,1580,1580
60298371,1000,1000,1000,1000,71428917,1580,1580,1580,1580
60300870,1000,1000,1000,1000,71528877,1581,1581,1581,1581
60303369,1000,1000,1000,1000,71628837,1580,1581,1581,1580
60305868,1000,1000,1000,1000,71728797,1580,1580,1580,1580
60308367,1000,1000,1000,1000,71828757,1581,1581,1581,1581
60310866,1000,1000,1000,1000,71928717,1580,1580,1580,1580
60313365,1000,1000,1000,1000,72028677,1581,1581,1581,1581
60315864,1000,1000,1000,1000,72128637,1580,1580,1580,1580
60318363,1000,1000,1000,1000,72228597,1581,1581,1581,1581
60320862,1000,1000,1000,1000,72328557,1580,1581,1587,1574
60323361,1000,1000,1000,1000,72428517,1579,1582,1585,1572
60325860,1000,1000,1000,1000,72528477,1579,1582,1578,1574
60328359,1000,1000,1000,1000,72628437,1578,1580,1569,1573
60330858,1000,1000,1000,1000,72728397,1577,1580,1562,1569
60333357,1000,1000,1000,1000,72828357,1577,1578,1557,1564
60335856,1000,1000,1000,1000,72928317,1578,1577,1555,1559
60338355,1000,1000,1000,1000,73028277,1579,1577,1555,1555
60340854,1000,1000,1000,1000,73128237,1579,1578,1556,1554
60343353,1000,1000,1000,1000,73228197,1578,1577,1556,1553
60345852,1000,1000,1000,1000,73328157,1577,1577,1555,1553
60348351,1000,1000,1000,1000,73428950,1576,1577,1555,1554
60350850,1000,1000,1000,1000,73528910,1575,1577,1555,1554
60353349,1000,1000,1000,1000,73628870,1574,1576,1553,1553
60355848,1000,1000,1000,1000,73728830,1575,1577,1552,1552
60358347,1000,1000,1000,1000,73828790,1576,1578,1550,1551
60360846,1000,1000,1000,1000,73928750,1578,1578,1547,1548
60363345,1000,1000,1000,1000,74028710,1581,1582,1546,1546
60365844,1000,1000,1000,1000,74128670,1583,1584,1543,1542
60368343,1000,1000,1000,1000,74228630,1587,1588,1541,1540
60370842,1000,1000,1000,1000,74328590,1591,1591,1539,1539
60373341,1000,1000,1000,1000,74428550,1593,1594,1537,1537
60375840,1000,1000,1000,1000,74528510,1595,1594,1535,1536
60378339,1000,1000,1000,1000,74628470,1596,1596,1536,1537
60380838,1000,1000,1000,1000,74728430,1595,1595,1537,1538
60383337,1000,1000,1000,1000,74828390,1593,1593,1539,1542
60385836,1000,1000,1000,1000,74928350,1590,1588,1545,1548
60388335,1000,1000,1000,1000,75028310,1584,1582,1552,1555
60390834,1000,1000,1000,1000,75128270,1576,1572,1562,1564
60393333,1000,1000,1000,1000,75228230,1566,1562,1574,1575
60395832,1000,1000,1000,1000,75328190,1554,1550,1586,1586
60398331,1000,1000,1000,1000,75428983,1544,1542,1597,1598
60400830,1000,1000,1000,1000,75528943,1535,1534,1606,1605
60403329,1000,1000,1000,1000,75628903,1529,1530,1611,1611
60405828,1000,1000,1000,1000,75728863,1528,1530,1614,1614
60408327,1000,1000,1000,1000,75828823,1531,1533,1613,1613
60410826,1000,1000,1000,1000,75928783,1536,1538,1609,1609
60413325,1000,1000,1000,1000,76028743,1544,1547,1604,1604
60415824,1000,1000,1000,1000,76128703,1553,1554,1597,1596
60418323,1000,1000,1000,1000,76228663,1561,1562,1589,1588
60420822,1000,1000,1000,1000,76328623,1571,1570,1582,1581
60423321,1000,1000,1000,1000,76428583,1578,1577,1576,1575
60425820,1000,1000,1000,1000,76528543,1582,1581,1571,1570
60428319,1000,1000,1000,1000,76628503,1586,1585,1568,1567
60430818,1000,1000,1000,1000,76728463,1588,1586,1566,1566
60433317,1000,1000,1000,1000,76828423,1587,1586,1567,1567
60435816,1000,1000,1000,1000,76928383,1332,1335,1636,1645
60438315,1000,1000,1000,1000,77028343,1521,1529,1646,1649
60440814,1000,1000,1000,1000,77128303,1553,1561,1613,1605
60443313,1000,1000,1000,1000,77228263,1586,1589,1600,1590
60445812,1000,1000,1000,1000,77328223,1609,1606,1591,1585
60448311,1000,1000,1000,1000,77428183,1624,1616,1584,1583
60450810,1000,1000,1000,1000,77528976,1641,1631,1567,1571
60453309,1000,1000,1000,1000,77628936,1659,1652,1542,1549
60455808,1000,1000,1000,1000,77728896,1666,1661,1529,1538
60458307,1000,1000,1000,1000,77828856,1657,1657,1534,1541
60460806,1000,1000,1000,1000,77928816,1644,1648,1543,1547
60463305,1000,1000,1000,1000,78028776,1634,1640,1553,1553
60465804,1000,1000,1000,1000,78128736,1626,1631,1560,1557
60468303,1000,1000,1000,1000,78228696,1620,1621,1565,1560
60470802,1000,1000,1000,1000,78328656,1611,1606,1575,1572
60473301,1000,1000,1000,1000,78428616,1594,1586,1590,1589
60475800,1000,1000,1000,1000,78528576,1575,1568,1604,1604
60478299,1000,1000,1000,1000,78628536,1560,1557,1609,1611
60480798,1000,1000,1000,1000,78728496,1551,1553,1608,1610
60483297,1000,1000,1000,1000,78828456,1548,1553,1606,1607
60485796,1000,1000,1000,1000,78928416,1549,1556,1602,1601
60488295,1000,1000,1000,1000,79028376,1553,1559,1598,1595
60490794,1000,1000,1000,1000,79128336,1560,1563,1595,1591
60493293,1000,1000,1000,1000,79228296,1566,1567,1590,1586
60495792,1000,1000,1000,1000,79328256,1571,1570,1585,1583
60498291,1000,1000,1000,1000,79428216,1576,1574,1581,1581
60500790,1000,1000,1000,1000,79528176,1579,1576,1576,1578
60503289,1000,1000,1000,1000,79628969,1581,1580,1574,1576
60505788,1000,1000,1000,1000,79728929,1583,1583,1572,1574
60508287,1000,1000,1000,1000,79828889,1587,1587,1569,1570
60510786,1000,1000,1000,1000,79928849,1592,1592,1566,1566
60513285,1000,1000,1000,1000,80028809,1594,1594,1565,1565
60515784,1000,1000,1000,1000,80128769,1594,1594,1565,1565
60518283,1000,1000,1000,1000,80228729,1594,1593,1568,1568
60520782,1000,1000,1000,1000,80328689,1592,1588,1577,1565
60523281,1000,1000,1000,1000,80428649,1589,1583,1579,1570
60525780,1000,1000,1000,1000,80528609,1584,1579,1576,1574
60528279,1000,1000,1000,1000,80628569,1577,1576,1568,1573
60530778,1000,1000,1000,1000,80728529,1573,1576,1565,1571
60533277,1000,1000,1000,1000,80828489,1570,1576,1563,1566
60535776,1000,1000,1000,1000,80928449,1570,1576,1562,1561
60538275,1000,1000,1000,1000,81028409,1571,1575,1561,1559
60540774,1000,1000,1000,1000,81128369,1572,1574,1560,1556
60543273,1000,1000,1000,1000,81228329,1573,1573,1558,1555
60545772,1000,1000,1000,1000,81328289,1575,1573,1557,1555
60548271,1000,1000,1000,1000,81428249,1574,1573,1553,1553
60550770,1000,1000,1000,1000,81528209,1574,1573,1551,1552
60553269,1000,1000,1000,1000,81628169,1574,1574,1548,1550
60555768,1000,1000,1000,1000,81728962,1574,1576,1547,1548
60558267,1000,1000,1000,1000,81828922,1574,1576,1544,1544
60560766,1000,1000,1000,1000,81928882,1575,1578,1543,1542
60563265,1000,1000,1000,1000,82028842,1577,1579,1540,1539
60565764,1000,1000,1000,1000,82128802,1580,1581,1538,1537
60568263,1000,1000,1000,1000,82228762,1582,1583,1536,1536
60570762,1000,1000,1000,1000,82328722,1586,1586,1536,1536
60573261,1000,1000,1000,1000,82428682,1589,1589,1535,1535
60575760,1000,1000,1000,1000,82528642,1592,1591,1533,1534
60578259,1000,1000,1000,1000,82628602,1593,1592,1532,1534
60580758,1000,1000,1000,1000,82728562,1592,1591,1534,1537
60583257,1000,1000,1000,1000,82828522,1589,1589,1538,1542
60585756,1000,1000,1000,1000,82928482,1585,1585,1544,1548
60588255,1000,1000,1000,1000,83028442,1581,1580,1551,1555
60590754,1000,1000,1000,1000,83128402,1575,1574,1558,1562
60593253,1000,1000,1000,1000,83228362,1569,1568,1565,1568
60595752,1000,1000,1000,1000,83328322,1563,1562,1572,1575
60598251,1000,1000,1000,1000,83428282,1557,1556,1579,1580
60600750,1000,1000,1000,1000,83528242,1552,1551,1586,1586
60603249,1000,1000,1000,1000,83628202,1547,1546,1591,1591
60605748,1000,1000,1000,1000,83728162,1543,1542,1596,1595
60608247,1000,1000,1000,1000,83828955,1540,1539,1600,1598
60610746,1000,1000,1000,1000,83928915,1538,1538,1602,1601
60613245,1000,1000,1000,1000,84028875,1536,1538,1603,1603
60615744,1000,1000,1000,1000,84128835,1536,1538,1602,1601
60618243,1000,1000,1000,1000,84228795,1540,1542,1600,1600
60620742,1000,1000,1000,1000,84328755,1545,1547,1596,1596
60623241,1000,1000,1000,1000,84428715,1551,1553,1591,1591
60625740,1000,1000,1000,1000,84528675,1559,1560,1586,1586
60628239,1000,1000,1000,1000,84628635,1566,1566,1581,1581
60630738,1000,1000,1000,1000,84728595,1572,1571,1577,1576
60633237,1000,1000,1000,1000,84828555,1577,1576,1574,1574
60635736,1000,1000,1000,1000,84928515,1580,1579,1572,1572
60638235,1000,1000,1000,1000,85028475,1583,1582,1572,1571
60640734,1000,1000,1000,1000,85128435,1584,1583,1571,1571
60643233,1000,1000,1000,1000,85228395,1585,1584,1571,1570
60645732,1000,1000,1000,1000,85328355,1585,1584,1571,1571
60648231,1000,1000,1000,1000,85428315,1584,1584,1571,1572
60650730,1000,1000,1000,1000,85528275,1583,1583,1572,1572
60653229,1000,1000,1000,1000,85628235,1582,1582,1573,1573
60655728,1000,1000,1000,1000,85728195,1582,1582,1575,1575
60658227,1000,1000,1000,1000,85828155,1581,1581,1576,1576
60660726,1000,1000,1000,1000,85928948,1581,1581,1577,1577
60663225,1000,1000,1000,1000,86028908,1580,1580,1578,1578
60665724,1000,1000,1000,1000,86128868,1579,1579,1579,1579
60668223,1000,1000,1000,1000,86228828,1579,1579,1580,1580
60670722,1000,1000,1000,1000,86328788,1579,1579,1580,1580
60673221,1000,1000,1000,1000,86428748,1578,1579,1581,1581
60675720,1000,1000,1000,1000,86528708,1578,1578,1582,1581
60678219,1000,1000,1000,1000,86628668,1578,1578,1581,1581
60680718,1000,1000,1000,1000,86728628,1578,1579,1582,1581
60683217,1000,1000,1000,1000,86828588,1579,1579,1582,1581
60685716,1000,1000,1000,1000,86928548,1579,1579,1581,1581
60688215,1000,1000,1000,1000,87028508,1579,1579,1580,1580
60690714,1000,1000,1000,1000,87128468,1579,1579,1580,1580
60693213,1000,1000,1000,1000,87228428,1580,1580,1581,1580
60695712,1000,1000,1000,1000,87328388,1580,1580,1580,1580
60698211,1000,1000,1000,1000,87428348,1580,1580,1579,1579
60700710,1000,1000,1000,1000,87528308,1580,1580,1579,1579
60703209,1000,1000,1000,1000,87628268,1580,1580,1579,1579
60705708,1000,1000,1000,1000,87728228,1581,1580,1579,1579
60708207,1000,1000,1000,1000,87828188,1580,1580,1578,1579
60710706,1000,1000,1000,1000,87928981,1580,1581,1579,1579
60713205,1000,1000,1000,1000,88028941,1580,1581,1579,1579
60715704,1000,1000,1000,1000,88128901,1581,1581,1580,1580
60718203,1000,1000,1000,1000,88228861,1581,1581,1580,1579
60720702,1000,1000,1000,1000,88328821,1581,1580,1579,1580
60723201,1000,1000,1000,1000,88428781,1581,1581,1581,1580
60725700,1000,1000,1000,1000,88528741,1580,1580,1579,1579
60728199,1000,1000,1000,1000,88628701,1581,1581,1580,1581
60730698,1000,1000,1000,1000,88728661,1580,1581,1580,1581
60733197,1000,1000,1000,1000,88828621,1581,1581,1582,1581
60735696,1000,1000,1000,1000,88928581,1582,1581,1582,1582
60738195,1000,1000,1000,1000,89028541,1581,1581,1582,1582
60740694,1000,1000,1000,1000,89128501,1581,1581,1585,1578
60743193,1000,1000,1000,1000,89228461,1581,1582,1588,1574
60745692,1000,1000,1000,1000,89328421,1581,1581,1582,1574
60748191,1000,1000,1000,1000,89428381,1579,1580,1572,1573
60750690,1000,1000,1000,1000,89528341,1577,1579,1564,1570
60753189,1000,1000,1000,1000,89628301,1577,1579,1560,1566
60755688,1000,1000,1000,1000,89728261,1577,1578,1557,1561
60758187,1000,1000,1000,1000,89828221,1578,1578,1557,1558
60760686,1000,1000,1000,1000,89928181,1579,1578,1557,1557
60763185,1000,1000,1000,1000,90028974,1578,1578,1557,1555
60765684,1000,1000,1000,1000,90128934,1578,1577,1556,1554
60768183,1000,1000,1000,1000,90228894,1577,1577,1556,1555
60770682,1000,1000,1000,1000,90328854,1576,1577,1555,1554
60773181,1000,1000,1000,1000,90428814,1576,1577,1553,1554
60775680,1000,1000,1000,1000,90528774,1576,1577,1552,1552
60778179,1000,1000,1000,1000,90628734,1576,1578,1551,1551
60780678,1000,1000,1000,1000,90728694,1577,1578,1550,1549
60783177,1000,1000,1000,1000,90828654,1579,1580,1548,1548
60785676,1000,1000,1000,1000,90928614,1580,1581,1546,1546
60788175,1000,1000,1000,1000,91028574,1583,1584,1545,1544
60790674,1000,1000,1000,1000,91128534,1584,1585,1542,1542
60793173,1000,1000,1000,1000,91228494,1586,1587,1541,1540
60795672,1000,1000,1000,1000,91328454,1588,1588,1539,1539
60798171,1000,1000,1000,1000,91428414,1590,1590,1538,1539
60800670,1000,1000,1000,1000,91528374,1591,1590,1539,1541
60803169,1000,1000,1000,1000,91628334,1591,1591,1541,1544
60805668,1000,1000,1000,1000,91728294,1589,1589,1543,1546
60808167,1000,1000,1000,1000,91828254,1587,1587,1547,1550
60810666,1000,1000,1000,1000,91928214,1583,1582,1552,1555
60813165,1000,1000,1000,1000,92028174,1578,1576,1561,1563
60815664,1000,1000,1000,1000,92128967,1571,1568,1570,1572
60818163,1000,1000,1000,1000,92228927,1562,1559,1580,1582
60820662,1000,1000,1000,1000,92328887,1552,1550,1591,1592
60823161,1000,1000,1000,1000,92428847,1545,1543,1601,1602
60825660,1000,1000,1000,1000,92528807,1537,1537,1607,1607
60828159,1000,1000,1000,1000,92628767,1533,1534,1611,1610
60830658,1000,1000,1000,1000,92728727,1532,1534,1612,1611
60833157,1000,1000,1000,1000,92828687,1535,1537,1610,1609
60835656,1000,1000,1000,1000,92928647,1540,1542,1607,1606
60838155,1000,1000,1000,1000,93028607,1546,1548,1600,1600
60840654,1000,1000,1000,1000,93128567,1554,1555,1593,1593
60843986,1000,1000,1000,1000,93228527,1562,1563,1587,1586
60846485,1000,1000,1000,1000,93328487,1570,1569,1579,1579
60848984,1000,1000,1000,1000,93428447,1576,1575,1574,1573
60851483,1000,1000,1000,1000,93528407,1582,1581,1570,1570
60853982,1000,1000,1000,1000,93628367,1586,1584,1567,1567
60856481,1000,1000,1000,1000,93728327,1588,1586,1565,1565
60858980,1000,1000,1000,1000,93828287,1589,1588,1566,1566
60861479,1000,1000,1000,1000,93928247,1589,1588,1568,1568
60863978,1000,1000,1000,1000,94028207,1587,1587,1571,1570
60866477,1000,1000,1000,1000,94128167,1585,1584,1573,1573
60868976,1000,1000,1000,1000,94228960,1582,1582,1576,1575
60871475,1000,1000,1000,1000,94328920,1580,1580,1579,1579
60873974,1000,1000,1000,1000,94428880,1577,1577,1581,1581
60876473,1000,1000,1000,1000,94528840,1575,1576,1583,1583
60878972,1000,1000,1000,1000,94628800,1573,1574,1583,1583
60881471,1000,1000,1000,1000,94728760,1573,1574,1585,1585
60883970,1000,1000,1000,1000,94828720,1573,1575,1585,1585
60886469,1000,1000,1000,1000,94928680,1574,1574,1584,1584
60888968,1000,1000,1000,1000,95028640,1575,1576,1584,1583
60891467,1000,1000,1000,1000,95128600,1576,1576,1582,1582
60893966,1000,1000,1000,1000,95228560,1578,1577,1581,1581
60896465,1000,1000,1000,1000,95328520,1578,1578,1579,1579
60898964,1000,1000,1000,1000,95428480,1579,1579,1578,1578
60901463,1000,1000,1000,1000,95528440,1580,1580,1577,1578
60903962,1000,1000,1000,1000,95628400,1581,1581,1577,1577
60906461,1000,1000,1000,1000,95728360,1582,1582,1577,1577
60908960,1000,1000,1000,1000,95828320,1582,1583,1578,1578
60911459,1000,1000,1000,1000,95928280,1583,1583,1579,1579
60913958,1000,1000,1000,1000,96028240,1582,1582,1579,1578
60916457,1000,1000,1000,1000,96128200,1582,1581,1579,1579
60918956,1000,1000,1000,1000,96228160,1582,1581,1579,1579
60921455,1000,1000,1000,1000,96328953,1581,1581,1580,1580
60923954,1000,1000,1000,1000,96428913,1581,1580,1580,1580
60926453,1000,1000,1000,1000,96528873,1579,1580,1580,1580
60928952,1000,1000,1000,1000,96628833,1580,1580,1581,1581
60931451,1000,1000,1000,1000,96728793,1580,1580,1581,1582
60933950,1000,1000,1000,1000,96828753,1580,1580,1582,1581
60936449,1000,1000,1000,1000,96928713,1580,1581,1582,1582
60938948,1000,1000,1000,1000,97028673,1580,1580,1581,1581
60941447,1000,1000,1000,1000,97128633,1580,1581,1582,1582
60943946,1000,1000,1000,1000,97228593,1581,1581,1583,1580
60946445,1000,1000,1000,1000,97328553,1582,1581,1589,1574
60948944,1000,1000,1000,1000,97428513,1580,1580,1584,1573
60951443,1000,1000,1000,1000,97528473,1578,1577,1576,1574
60953942,1000,1000,1000,1000,97628433,1575,1574,1569,1574
60956441,1000,1000,1000,1000,97728393,1571,1571,1564,1571
60958940,1000,1000,1000,1000,97828353,1570,1570,1564,1570
60961439,1000,1000,1000,1000,97928313,1568,1569,1565,1568
60963938,1000,1000,1000,1000,98028273,1567,1568,1566,1566
60966437,1000,1000,1000,1000,98128233,1566,1567,1567,1565
60968936,1000,1000,1000,1000,98228193,1565,1566,1567,1564
60971435,1000,1000,1000,1000,98328986,1565,1565,1568,1566
60973934,1000,1000,1000,1000,98428946,1565,1564,1567,1566
60976433,1000,1000,1000,1000,98528906,1564,1564,1566,1566
60978932,1000,1000,1000,1000,98628866,1563,1563,1564,1564
60981431,1000,1000,1000,1000,98728826,1562,1562,1564,1564
60983930,1000,1000,1000,1000,98828786,1562,1562,1563,1563
60986429,1000,1000,1000,1000,98928746,1561,1561,1561,1562
60988928,1000,1000,1000,1000,99028706,1560,1561,1562,1561
60991427,1000,1000,1000,1000,99128666,1561,1561,1561,1560
60993926,1000,1000,1000,1000,99228626,1560,1560,1560,1559
60996425,1000,1000,1000,1000,99328586,1559,1559,1558,1557
60998924,1000,1000,1000,1000,99428546,1559,1558,1558,1558
61001423,1000,1000,1000,1000,99528506,1559,1558,1558,1557
61003922,1000,1000,1000,1000,99628466,1558,1558,1558,1556
61006421,1000,1000,1000,1000,99728426,1558,1558,1558,1557
61008920,1000,1000,1000,1000,99828386,1558,1558,1559,1557
61011419,1000,1000,1000,1000,99928346,1558,1558,1559,1556
61013918,1000,1000,1000,1000,100028306,1559,1559,1561,1557
61016417,1000,1000,1000,1000,100128266,1559,1559,1559,1560
61018916,1000,1000,1000,1000,100228226,1559,1559,1557,1562
61021415,1000,1000,1000,1000,100328186,1560,1560,1557,1564
61023914,1000,1000,1000,1000,100428979,1561,1561,1559,1565
61026413,1000,1000,1000,1000,100528939,1561,1562,1560,1564
61028912,1000,1000,1000,1000,100628899,1560,1561,1561,1560
61031411,1000,1000,1000,1000,100728859,1559,1559,1560,1557
61033910,1000,1000,1000,1000,100828819,1559,1559,1560,1556
61036409,1000,1000,1000,1000,100928779,1560,1559,1557,1560
61038908,1000,1000,1000,1000,101028739,1558,1557,1553,1558
61041407,1000,1000,1000,1000,101128699,1554,1553,1549,1553
61043906,1000,1000,1000,1000,101228659,1549,1549,1545,1547
61046405,1000,1000,1000,1000,101328619,1543,1544,1540,1539
61048904,1000,1000,1000,1000,101428579,1536,1537,1533,1531
61051403,1000,1000,1000,1000,101528539,1529,1529,1525,1524
61053902,1000,1000,1000,1000,101628499,1523,1523,1520,1519
61056401,1000,1000,1000,1000,101728459,1521,1521,1519,1519
61058900,1000,1000,1000,1000,101828419,1520,1520,1521,1521
61061399,1000,1000,1000,1000,101928379,1520,1519,1522,1522
61063898,1000,1000,1000,1000,102028339,1522,1522,1526,1527
61066397,1000,1000,1000,1000,102128299,1525,1524,1531,1531
61068896,1000,1000,1000,1000,102228259,1528,1528,1535,1536
61071395,1000,1000,1000,1000,102328219,1533,1533,1541,1540
61073894,1000,1000,1000,1000,102428179,1536,1537,1543,1543
61076393,1000,1000,1000,1000,102528972,1539,1539,1544,1543
61078892,1000,1000,1000,1000,102628932,1541,1542,1544,1544
61081391,1000,1000,1000,1000,102728892,1544,1544,1545,1544
61083890,1000,1000,1000,1000,102828852,1546,1546,1545,1545
61086389,1000,1000,1000,1000,102928812,1547,1547,1544,1544
61088888,1000,1000,1000,1000,103028772,1548,1548,1544,1544
61091387,1000,1000,1000,1000,103128732,1548,1548,1544,1544
61093886,1000,1000,1000,1000,103228692,1549,1549,1544,1544
61096385,1000,1000,1000,1000,103328652,1549,1549,1545,1545
61098884,1000,1000,1000,1000,103428612,1549,1549,1546,1545
61101383,1000,1000,1000,1000,103528572,1548,1547,1545,1545
61103882,1000,1000,1000,1000,103628532,1547,1547,1545,1545
61106381,1000,1000,1000,1000,103728492,1546,1546,1545,1545
61108880,1000,1000,1000,1000,103828452,1545,1545,1545,1545
61111379,1000,1000,1000,1000,103928412,1544,1544,1545,1545
61113878,1000,1000,1000,1000,104028372,1544,1544,1545,1545
61116377,1000,1000,1000,1000,104128332,1544,1543,1545,1545
61118876,1000,1000,1000,1000,104228292,1543,1543,1545,1544
61121375,1000,1000,1000,1000,104328252,1542,1542,1544,1543
61123874,1000,1000,1000,1000,104428212,1543,1543,1546,1545
61126373,1000,1000,1000,1000,104528172,1544,1543,1545,1544
61128872,1000,1000,1000,1000,104628965,1543,1543,1544,1544
61131371,1000,1000,1000,1000,104728925,1543,1543,1543,1543
61133870,1000,1000,1000,1000,104828885,1543,1543,1543,1543
61136369,1000,1000,1000,1000,104928845,1544,1544,1543,1544
61138868,1000,1000,1000,1000,105028805,1543,1544,1544,1543
61141367,1000,1000,1000,1000,105128765,1544,1544,1544,1543
61143866,1000,1000,1000,1000,105228725,1543,1544,1543,1543
61146365,1000,1000,1000,1000,105328685,1544,1544,1543,1543
61148864,1000,1000,1000,1000,105428645,1544,1544,1544,1544
61151363,1000,1000,1000,1000,105528605,1545,1545,1545,1545
61153862,1000,1000,1000,1000,105628565,1545,1545,1544,1545
61156361,1000,1000,1000,1000,105728525,1545,1545,1544,1545
61158860,1000,1000,1000,1000,105828485,1545,1545,1544,1545
61161359,1000,1000,1000,1000,105928445,1545,1545,1545,1545
61163858,1000,1000,1000,1000,106028405,1545,1545,1545,1545
61166357,1000,1000,1000,1000,106128365,1544,1543,1544,1544
61168856,1000,1000,1000,1000,106228325,1544,1545,1545,1545
61171355,1000,1000,1000,1000,106328285,1544,1544,1544,1544
61173854,1000,1000,1000,1000,106428245,1545,1544,1545,1545
61176353,1000,1000,1000,1000,106528205,1544,1544,1544,1544
61178852,1000,1000,1000,1000,106628165,1544,1545,1544,1545
61181351,1000,1000,1000,1000,106728958,1545,1544,1544,1545
61183850,1000,1000,1000,1000,106828918,1544,1545,1545,1545
61186349,1000,1000,1000,1000,106928878,1545,1544,1544,1544
61188848,1000,1000,1000,1000,107028838,1545,1545,1546,1544
61191347,1000,1000,1000,1000,107128798,1545,1545,1545,1545
61193846,1000,1000,1000,1000,107228758,1545,1545,1545,1545
61196345,1000,1000,1000,1000,107328718,1544,1544,1544,1544
61198844,1000,1000,1000,1000,107428678,1544,1545,1544,1544
61201343,1000,1000,1000,1000,107528638,1545,1545,1544,1545
61203842,1000,1000,1000,1000,107628598,1545,1544,1545,1544
61206341,1000,1000,1000,1000,107728558,1544,1544,1544,1544
61208840,1000,1000,1000,1000,107828518,1544,1544,1544,1544
61211339,1000,1000,1000,1000,107928478,1544,1544,1544,1544
61213838,1000,1000,1000,1000,108028438,1544,1544,1544,1544
61216337,1000,1000,1000,1000,108128398,1543,1542,1543,1542
61218836,1000,1000,1000,1000,108228358,1544,1544,1544,1544
61221335,1000,1000,1000,1000,108328318,1544,1544,1544,1544
61223834,1000,1000,1000,1000,108428278,1543,1543,1544,1544
61226333,1000,1000,1000,1000,108528238,1544,1543,1544,1544
61228832,1000,1000,1000,1000,108628198,1544,1544,1544,1544
61231331,1000,1000,1000,1000,108728158,1544,1544,1544,1544
61233830,1000,1000,1000,1000,108828951,1543,1544,1543,1543
61236329,1000,1000,1000,1000,108928911,1544,1543,1543,1544
61238828,1000,1000,1000,1000,109028871,1544,1544,1544,1544
61241327,1000,1000,1000,1000,109128831,1544,1543,1543,1544
61243826,1000,1000,1000,1000,109228791,1543,1543,1543,1543
61246325,1000,1000,1000,1000,109328751,1544,1544,1544,1543
61248824,1000,1000,1000,1000,109428711,1544,1544,1544,1544
61251323,1000,1000,1000,1000,109528671,1544,1544,1544,1544
61253822,1000,1000,1000,1000,109628631,1544,1544,1544,1545
61256321,1000,1000,1000,1000,109728591,1544,1544,1544,1545
61258820,1000,1000,1000,1000,109828551,1544,1544,1544,1544
61261319,1000,1000,1000,1000,109928511,1545,1545,1545,1545
61263818,1000,1000,1000,1000,110028471,1544,1544,1544,1544
61266317,1000,1000,1000,1000,110128431,1545,1545,1545,1545
61268816,1000,1000,1000,1000,110228391,1545,1545,1545,1545
61271315,1000,1000,1000,1000,110328351,1545,1545,1545,1545
61273814,1000,1000,1000,1000,110428311,1545,1545,1544,1544
61276313,1000,1000,1000,1000,110528271,1545,1545,1544,1545
61278812,1000,1000,1000,1000,110628231,1544,1544,1544,1544
61281311,1000,1000,1000,1000,110728191,1545,1545,1545,1545
61283810,1000,1000,1000,1000,110828984,1544,1544,1544,1544
61286309,1000,1000,1000,1000,110928944,1544,1544,1545,1545
61288808,1000,1000,1000,1000,111028904,1544,1545,1545,1545
61291307,1000,1000,1000,1000,111128864,1544,1544,1544,1544
61293806,1000,1000,1000,1000,111228824,1544,1544,1544,1544
61296305,1000,1000,1000,1000,111328784,1493,1492,1476,1475
61298804,1000,1000,1000,1000,111428744,1374,1374,1306,1304
61301303,1000,1000,1000,1000,111528704,1327,1327,1231,1229
61303802,1000,1000,1000,1000,111628664,1313,1313,1207,1204
61306301,1000,1000,1000,1000,111728624,1296,1295,1177,1174
61308800,1000,1000,1000,1000,111828584,1271,1271,1155,1150
61311299,1000,1000,1000,1000,111928544,1165,1164,1154,1150
61313798,1000,1000,1000,1000,112028504,1085,1085,1153,1150
61316297,1000,1000,1000,1000,112128464,1086,1085,1153,1150
61318796,1000,1000,1000,1000,112228424,1085,1085,1153,1150
61321295,1000,1000,1000,1000,112328384,1087,1071,1150,1171
61323794,1000,1000,1000,1000,112428344,1087,1075,1150,1165
61326293,1000,1000,1000,1000,112528304,1087,1079,1150,1159
61328792,1000,1000,1000,1000,112628264,1087,1080,1150,1158
61331291,1000,1000,1000,1000,112728224,1087,1080,1150,1158
61333790,1000,1000,1000,1000,112828184,1087,1079,1150,1158
61336289,1000,1000,1000,1000,112928977,1087,1079,1150,1159
61338788,1000,1000,1000,1000,113028937,1087,1079,1150,1159
61341287,1000,1000,1000,1000,113128897,1086,1087,1150,1150
61343786,1000,1000,1000,1000,113228857,1087,1085,1150,1151
61346285,1000,1000,1000,1000,113328817,1087,1085,1150,1151
61348784,1000,1000,1000,1000,113428777,1087,1085,1150,1152
61351283,1000,1000,1000,1000,113528737,1087,1085,1150,1152
61353782,1000,1000,1000,1000,113628697,1000,1000,1000,1000
61356281,1000,1000,1000,1000,113728657,1000,1000,1000,1000
61358780,1000,1000,1000,1000,113828617,1000,1000,1000,1000
61361279,1000,1000,1000,1000,113928577,1000,1000,1000,1000
61363778,1000,1000,1000,1000,114028537,1000,1000,1000,1000
61366277,1000,1000,1000,1000,114128497,1000,1000,1000,1000
61368776,1000,1000,1000,1000,114228457,1000,1000,1000,1000
61371275,1000,1000,1000,1000,114328417,1000,1000,1000,1000
61373774,1000,1000,1000,1000,114428377,1000,1000,1000,1000
61376273,1000,1000,1000,1000,114528337,1000,1000,1000,1000
61378772,1000,1000,1000,1000,114628297,1000,1000,1000,1000
61381271,1000,1000,1000,1000,114728257,1000,1000,1000,1000
61383770,1000,1000,1000,1000,114828217,1000,1000,1000,1000
61386269,1000,1000,1000,1000,114928177,1000,1000,1000,1000
61388768,1000,1000,1000,1000,115028970,1000,1000,1000,1000
61391267,1000,1000,1000,1000,115128930,1000,1000,1000,1000
61393766,1000,1000,1000,1000,115228890,1000,1000,1000,1000
61396265,1000,1000,1000,1000,115328850,1000,1000,1000,1000
61398764,1000,1000,1000,1000,115428810,1000,1000,1000,1000
61401263,1000,1000,1000,1000,115528770,1000,1000,1000,1000
61403762,1000,1000,1000,1000,115628730,1000,1000,1000,1000
61406261,1000,1000,1000,1000,115728690,1000,1000,1000,1000
61408760,1000,1000,1000,1000,115828650,1000,1000,1000,1000
61411259,1000,1000,1000,1000,115928610,1000,1000,1000,1000
61413758,1000,1000,1000,1000,116028570,1000,1000,1000,1000
61416257,1000,1000,1000,1000,116128530,1000,1000,1000,1000
61418756,1000,1000,1000,1000,116228490,1000,1000,1000,1000
61421255,1000,1000,1000,1000,116328450,1000,1000,1000,1000
61423754,1000,1000,1000,1000,116428410,1000,1000,1000,1000
61426253,1000,1000,1000,1000,116528370,1000,1000,1000,1000
61428752,1000,1000,1000,1000,116628330,1000,1000,1000,1000
61431251,1000,1000,1000,1000,116728290,1000,1000,1000,1000
61433750,1000,1000,1000,1000,116828250,1000,1000,1000,1000
61436249,1000,1000,1000,1000,116928210,1000,1000,1000,1000
61438748,1000,1000,1000,1000,117028170,1000,1000,1000,1000
61441247,1000,1000,1000,1000,117128963,1000,1000,1000,1000
61443746,1000,1000,1000,1000,117228923,1000,1000,1000,1000
61446245,1000,1000,1000,1000,117328883,1000,1000,1000,1000
61448744,1000,1000,1000,1000,117428843,1000,1000,1000,1000
61451243,1000,1000,1000,1000,117528803,1000,1000,1000,1000
61453742,1000,1000,1000,1000,117628763,1000,1000,1000,1000
61456241,1000,1000,1000,1000,117728723,1000,1000,1000,1000
61458740,1000,1000,1000,1000,117828683,1000,1000,1000,1000
61461239,1000,1000,1000,1000,117928643,1000,1000,1000,1000
61463738,1000,1000,1000,1000,118028603,1000,1000,1000,1000
61466237,1000,1000,1000,1000,118128563,1000,1000,1000,1000
61468736,1000,1000,1000,1000,118228523,1000,1000,1000,1000
61471235,1000,1000,1000,1000,118328483,1000,1000,1000,1000
61473734,1000,1000,1000,1000,118428443,1000,1000,1000,1000
61476233,1000,1000,1000,1000,118528403,1000,1000,1000,1000
61478732,1000,1000,1000,1000,118628363,1000,1000,1000,1000
61481231,1000,1000,1000,1000,118728323,1000,1000,1000,1000
61483730,1000,1000,1000,1000,118828283,1000,1000,1000,1000
61486229,1000,1000,1000,1000,118928243,1000,1000,1000,1000
61488728,1000,1000,1000,1000,119028203,1000,1000,1000,1000
61491227,1000,1000,1000,1000,119128163,1000,1000,1000,1000
61493726,1000,1000,1000,1000,119228956,1000,1000,1000,1000
61496225,1000,1000,1000,1000,119328916,1000,1000,1000,1000
61498724,1000,1000,1000,1000,119428876,1000,1000,1000,1000
61501223,1000,1000,1000,1000,119528836,1000,1000,1000,1000
61503722,1000,1000,1000,1000,119628796,1000,1000,1000,1000
61506221,1000,1000,1000,1000,119728756,1000,1000,1000,1000
61508720,1000,1000,1000,1000,119828716,1000,1000,1000,1000
61511219,1000,1000,1000,1000,119928676,1000,1000,1000,1000
61513718,1000,1000,1000,1000,120028636,1000,1000,1000,1000
61516217,1000,1000,1000,1000,120128596,1000,1000,1000,1000
61518716,1000,1000,1000,1000,120228556,1000,1000,1000,1000
61521215,1000,1000,1000,1000,120328516,1000,1000,1000,1000
61523714,1000,1000,1000,1000,120428476,1000,1000,1000,1000
61526213,1000,1000,1000,1000,120528436,1000,1000,1000,1000
61528712,1000,1000,1000,1000,120628396,1000,1000,1000,1000
61531211,1000,1000,1000,1000,120728356,1000,1000,1000,1000
61533710,1000,1000,1000,1000,120828316,1000,1000,1000,1000
61536209,1000,1000,1000,1000,120928276,1000,1000,1000,1000
61538708,1000,1000,1000,1000,121028236,1000,1000,1000,1000
61541207,1000,1000,1000,1000,121128196,1000,1000,1000,1000
61543706,1000,1000,1000,1000,121228156,1000,1000,1000,1000
61546205,1000,1000,1000,1000,,,,,
61548704,1000,1000,1000,1000,,,,,
61551203,1000,1000,1000,1000,,,,,
61553702,1000,1000,1000,1000,,,,,
61556201,1000,1000,1000,1000,,,,,
61558700,1000,1000,1000,1000,,,,,
61561199,1000,1000,1000,1000,,,,,
61563698,1000,1000,1000,1000,,,,,
61566197,1000,1000,1000,1000,,,,,
61568696,1000,1000,1000,1000,,,,,
61571195,1000,1000,1000,1000,,,,,
61573694,1000,1000,1000,1000,,,,,
61576193,1000,1000,1000,1000,,,,,
61578692,1000,1000,1000,1000,,,,,
61581191,1000,1000,1000,1000,,,,,
61583690,1000,1000,1000,1000,,,,,
61586189,1000,1000,1000,1000,,,,,
61588688,1000,1000,1000,1000,,,,,
61591187,1000,1000,1000,1000,,,,,
61593686,1000,1000,1000,1000,,,,,
61596185,1000,1000,1000,1000,,,,,
61598684,1000,1000,1000,1000,,,,,
61601183,1000,1000,1000,1000,,,,,
61603682,1000,1000,1000,1000,,,,,
61606181,1000,1000,1000,1000,,,,,
61608680,1000,1000,1000,1000,,,,,
61611179,1000,1000,1000,1000,,,,,
61613678,1000,1000,1000,1000,,,,,
61616177,1000,1000,1000,1000,,,,,
61618676,1000,1000,1000,1000,,,,,
61621175,1000,1000,1000,1000,,,,,
61623674,1000,1000,1000,1000,,,,,
61626173,1000,1000,1000,1000,,,,,
61628672,1000,1000,1000,1000,,,,,
61631171,1000,1000,1000,1000,,,,,
61633670,1000,1000,1000,1000,,,,,
61636169,1000,1000,1000,1000,,,,,
61638668,1000,1000,1000,1000,,,,,
61641167,1000,1000,1000,1000,,,,,
61643666,1000,1000,1000,1000,,,,,
61646165,1000,1000,1000,1000,,,,,
61648664,1000,1000,1000,1000,,,,,
61651163,1000,1000,1000,1000,,,,,
61653662,1000,1000,1000,1000,,,,,
61656161,1000,1000,1000,1000,,,,,
61658660,1000,1000,1000,1000,,,,,
61661159,1000,1000,1000,1000,,,,,
61663658,1000,1000,1000,1000,,,,,
61666157,1000,1000,1000,1000,,,,,
61668656,1000,1000,1000,1000,,,,,
61671155,1000,1000,1000,1000,,,,,
61673654,1000,1000,1000,1000,,,,,
61676153,1000,1000,1000,1000,,,,,
61678652,1000,1000,1000,1000,,,,,
61681151,1000,1000,1000,1000,,,,,
61683650,1000,1000,1000,1000,,,,,
61686149,1000,1000,1000,1000,,,,,
61688648,1000,1000,1000,1000,,,,,
61691147,1000,1000,1000,1000,,,,,
61693646,1000,1000,1000,1000,,,,,
61696145,1000,1000,1000,1000,,,,,
61698644,1000,1000,1000,1000,,,,,
61701143,1000,1000,1000,1000,,,,,
61703642,1000,1000,1000,1000,,,,,
61706141,1000,1000,1000,1000,,,,,
61708640,1000,1000,1000,1000,,,,,
61711139,1000,1000,1000,1000,,,,,
61713638,1000,1000,1000,1000,,,,,
61716137,1000,1000,1000,1000,,,,,
61718636,1000,1000,1000,1000,,,,,
61721135,1000,1000,1000,1000,,,,,
61723634,1000,1000,1000,1000,,,,,
61726133,1000,1000,1000,1000,,,,,
61728632,1000,1000,1000,1000,,,,,
61731131,1000,1000,1000,1000,,,,,
61733630,1000,1000,1000,1000,,,,,
61736129,1000,1000,1000,1000,,,,,
61738628,1000,1000,1000,1000,,,,,
61741127,1000,1000,1000,1000,,,,,
61743626,1000,1000,1000,1000,,,,,
61746125,1000,1000,1000,1000,,,,,
61748624,1000,1000,1000,1000,,,,,
61751123,1000,1000,1000,1000,,,,,
61753622,1000,1000,1000,1000,,,,,
61756121,1000,1000,1000,1000,,,,,
61758620,1000,1000,1000,1000,,,,,
61761119,1000,1000,1000,1000,,,,,
61763618,1000,1000,1000,1000,,,,,
61766117,1000,1000,1000,1000,,,,,
61768616,1000,1000,1000,1000,,,,,
61771115,1000,1000,1000,1000,,,,,
61773614,1000,1000,1000,1000,,,,,
61776113,1000,1000,1000,1000,,,,,
61778612,1000,1000,1000,1000,,,,,
61781111,1000,1000,1000,1000,,,,,
61783610,1000,1000,1000,1000,,,,,
61786109,1000,1000,1000,1000,,,,,
61788608,1000,1000,1000,1000,,,,,
61791107,1000,1000,1000,1000,,,,,
61793606,1000,1000,1000,1000,,,,,
61796105,1000,1000,1000,1000,,,,,
61798604,1000,1000,1000,1000,,,,,
61801103,1000,1000,1000,1000,,,,,
61803602,1000,1000,1000,1000,,,,,
61806101,1000,1000,1000,1000,,,,,
61808600,1000,1000,1000,1000,,,,,
61811099,1000,1000,1000,1000,,,,,
61813598,1000,1000,1000,1000,,,,,
61816097,1000,1000,1000,1000,,,,,
61818596,1000,1000,1000,1000,,,,,
61821095,1000,1000,1000,1000,,,,,
61823594,1000,1000,1000,1000,,,,,
61826093,1000,1000,1000,1000,,,,,
61828592,1000,1000,1000,1000,,,,,
61831091,1000,1000,1000,1000,,,,,
61833590,1000,1000,1000,1000,,,,,
61836089,1000,1000,1000,1000,,,,,
61838588,1000,1000,1000,1000,,,,,
61841087,1000,1000,1000,1000,,,,,
61843586,1000,1000,1000,1000,,,,,
61846085,1000,1000,1000,1000,,,,,
61848584,1000,1000,1000,1000,,,,,
61851083,1000,1000,1000,1000,,,,,
61853582,1000,1000,1000,1000,,,,,
61856081,1000,1000,1000,1000,,,,,
61858580,1000,1000,1000,1000,,,,,
61861079,1000,1000,1000,1000,,,,,
61863578,1000,1000,1000,1000,,,,,
61866077,1000,1000,1000,1000,,,,,
61868576,1000,1000,1000,1000,,,,,
61871075,1000,1000,1000,1000,,,,,
61873574,1000,1000,1000,1000,,,,,
61876073,1000,1000,1000,1000,,,,,
61878572,1000,1000,1000,1000,,,,,
61881071,1000,1000,1000,1000,,,,,
61883570,1000,1000,1000,1000,,,,,
61886069,1000,1000,1000,1000,,,,,
61888568,1000,1000,1000,1000,,,,,
61891067,1000,1000,1000,1000,,,,,
61893566,1000,1000,1000,1000,,,,,
61896065,1000,1000,1000,1000,,,,,
61898564,1000,1000,1000,1000,,,,,
61901063,1000,1000,1000,1000,,,,,
61903562,1000,1000,1000,1000,,,,,
61906061,1000,1000,1000,1000,,,,,
61908560,1000,1000,1000,1000,,,,,
61911059,1000,1000,1000,1000,,,,,
61913558,1000,1000,1000,1000,,,,,
61916057,1000,1000,1000,1000,,,,,
61918556,1000,1000,1000,1000,,,,,
61921055,1000,1000,1000,1000,,,,,
61923554,1000,1000,1000,1000,,,,,
61926053,1000,1000,1000,1000,,,,,
61928552,1000,1000,1000,1000,,,,,
61931051,1000,1000,1000,1000,,,,,
61933550,1000,1000,1000,1000,,,,,
61936049,1000,1000,1000,1000,,,,,
61938548,1000,1000,1000,1000,,,,,
61941047,1000,1000,1000,1000,,,,,
61943546,1000,1000,1000,1000,,,,,
61946045,1000,1000,1000,1000,,,,,
61948544,1000,1000,1000,1000,,,,,
61951043,1000,1000,1000,1000,,,,,
61953542,1000,1000,1000,1000,,,,,
61956041,1000,1000,1000,1000,,,,,
61958540,1000,1000,1000,1000,,,,,
61961039,1000,1000,1000,1000,,,,,
61963538,1000,1000,1000,1000,,,,,
61966037,1000,1000,1000,1000,,,,,
61968536,1000,1000,1000,1000,,,,,
61971035,1000,1000,1000,1000,,,,,
61973534,1000,1000,1000,1000,,,,,
61976033,1000,1000,1000,1000,,,,,
61978532,1000,1000,1000,1000,,,,,
61981031,1000,1000,1000,1000,,,,,
61983530,1000,1000,1000,1000,,,,,
61986029,1000,1000,1000,1000,,,,,
61988528,1000,1000,1000,1000,,,,,
61991027,1000,1000,1000,1000,,,,,
61993526,1000,1000,1000,1000,,,,,
61996025,1000,1000,1000,1000,,,,,
61998524,1000,1000,1000,1000,,,,,
62001023,1000,1000,1000,1000,,,,,
62003522,1000,1000,1000,1000,,,,,
62006021,1000,1000,1000,1000,,,,,
62008520,1000,1000,1000,1000,,,,,
62011019,1000,1000,1000,1000,,,,,
62013518,1000,1000,1000,1000,,,,,
62016017,1000,1000,1000,1000,,,,,
62018516,1001,1001,1001,1001,,,,,
62021015,1002,1002,1002,1002,,,,,
62023514,1003,1003,1003,1003,,,,,
62026013,1003,1003,1003,1003,,,,,
62028512,1004,1004,1004,1004,,,,,
62031011,1005,1005,1005,1005,,,,,
62033510,1006,1006,1006,1006,,,,,
62036009,1006,1006,1006,1006,,,,,
62038508,1007,1007,1007,1007,,,,,
62041007,1008,1008,1008,1008,,,,,
62043506,1009,1009,1009,1009,,,,,
62046005,1009,1009,1009,1009,,,,,
62048504,1010,1010,1010,1010,,,,,
62051003,1011,1011,1011,1011,,,,,
62053502,1012,1012,1012,1012,,,,,
62056001,1012,1012,1012,1012,,,,,
62058500,1013,1013,1013,1013,,,,,
62060999,1014,1014,1014,1014,,,,,
62063498,1015,1015,1015,1015,,,,,
62065997,1015,1015,1015,1015,,,,,
62068496,1016,1016,1016,1016,,,,,
62070995,1017,1017,1017,1017,,,,,
62073494,1018,1018,1018,1018,,,,,
62075993,1018,1018,1018,1018,,,,,
62078492,1019,1019,1019,1019,,,,,
62080991,1020,1020,1020,1020,,,,,
62083490,1021,1021,1021,1021,,,,,
62085989,1021,1021,1021,1021,,,,,
62088488,1022,1022,1022,1022,,,,,
62090987,1023,1023,1023,1023,,,,,
62093486,1024,1024,1024,1024,,,,,
62095985,1024,1024,1024,1024,,,,,
62098484,1025,1025,1025,1025,,,,,
62100983,1026,1026,1026,1026,,,,,
62103482,1027,1027,1027,1027,,,,,
62105981,1027,1027,1027,1027,,,,,
62108480,1028,1028,1028,1028,,,,,
62110979,1029,1029,1029,1029,,,,,
62113478,1030,1030,1030,1030,,,,,
62115977,1030,1030,1030,1030,,,,,
62118476,1031,1031,1031,1031,,,,,
62120975,1032,1032,1032,1032,,,,,
62123474,1033,1033,1033,1033,,,,,
62125973,1033,1033,1033,1033,,,,,
62128472,1034,1034,1034,1034,,,,,
62130971,1035,1035,1035,1035,,,,,
62133470,1036,1036,1036,1036,,,,,
62135969,1036,1036,1036,1036,,,,,
62138468,1037,1037,1037,1037,,,,,
62140967,1038,1038,1038,1038,,,,,
62143466,1039,1039,1039,1039,,,,,
62145965,1039,1039,1039,1039,,,,,
62148464,1040,1040,1040,1040,,,,,
62150963,1041,1041,1041,1041,,,,,
62153462,1042,1042,1042,1042,,,,,
62155961,1042,1042,1042,1042,,,,,
62158460,1043,1043,1043,1043,,,,,
62160959,1044,1044,1044,1044,,,,,
62163458,1045,1045,1045,1045,,,,,
62165957,1045,1045,1045,1045,,,,,
62168456,1046,1046,1046,1046,,,,,
62170955,1047,1047,1047,1047,,,,,
62173454,1048,1048,1048,1048,,,,,
62175953,1048,1048,1048,1048,,,,,
62178452,1049,1049,1049,1049,,,,,
62180951,1050,1050,1050,1050,,,,,
62183450,1051,1051,1051,1051,,,,,
62185949,1051,1051,1051,1051,,,,,
62188448,1052,1052,1052,1052,,,,,
62190947,1053,1053,1053,1053,,,,,
62193446,1054,1054,1054,1054,,,,,
62195945,1054,1054,1054,1054,,,,,
62198444,1055,1055,1055,1055,,,,,
62200943,1056,1056,1056,1056,,,,,
62203442,1057,1057,1057,1057,,,,,
62205941,1057,1057,1057,1057,,,,,
62208440,1058,1058,1058,1058,,,,,
62210939,1059,1059,1059,1059,,,,,
62213438,1060,1060,1060,1060,,,,,
62215937,1060,1060,1060,1060,,,,,
62218436,1061,1061,1061,1061,,,,,
62220935,1062,1062,1062,1062,,,,,
62223434,1063,1063,1063,1063,,,,,
62225933,1063,1063,1063,1063,,,,,
62228432,1064,1064,1064,1064,,,,,
62230931,1065,1065,1065,1065,,,,,
62233430,1066,1066,1066,1066,,,,,
62235929,1066,1066,1066,1066,,,,,
62238428,1067,1067,1067,1067,,,,,
62240927,1068,1068,1068,1068,,,,,
62243426,1069,1069,1069,1069,,,,,
62245925,1069,1069,1069,1069,,,,,
62248424,1070,1070,1070,1070,,,,,
62250923,1071,1071,1071,1071,,,,,
62253422,1072,1072,1072,1072,,,,,
62255921,1072,1072,1072,1072,,,,,
62258420,1073,1073,1073,1073,,,,,
62260919,1074,1074,1074,1074,,,,,
62263418,1075,1075,1075,1075,,,,,
62265917,1075,1075,1075,1075,,,,,
62268416,1076,1076,1076,1076,,,,,
62270915,1077,1077,1077,1077,,,,,
62273414,1078,1078,1078,1078,,,,,
62275913,1078,1078,1078,1078,,,,,
62278412,1079,1079,1079,1079,,,,,
62280911,1080,1080,1080,1080,,,,,
62283410,1081,1081,1081,1081,,,,,
62285909,1081,1081,1081,1081,,,,,
62288408,1082,1082,1082,1082,,,,,
62290907,1083,1083,1083,1083,,,,,
62293406,1084,1084,1084,1084,,,,,
62295905,1084,1084,1084,1084,,,,,
62298404,1085,1085,1085,1085,,,,,
62300903,1086,1086,1086,1086,,,,,
62303402,1087,1087,1087,1087,,,,,
62305901,1087,1087,1087,1087,,,,,
62308400,1088,1088,1088,1088,,,,,
62310899,1089,1089,1089,1089,,,,,
62313398,1090,1090,1090,1090,,,,,
62315897,1090,1090,1090,1090,,,,,
62318396,1091,1091,1091,1091,,,,,
62320895,1092,1092,1092,1092,,,,,
62323394,1093,1093,1093,1093,,,,,
62325893,1093,1093,1093,1093,,,,,
62328392,1094,1094,1094,1094,,,,,
62330891,1095,1095,1095,1095,,,,,
62333390,1096,1096,1096,1096,,,,,
62335889,1096,1096,1096,1096,,,,,
62338388,1097,1097,1097,1097,,,,,
62340887,1098,1098,1098,1098,,,,,
62343386,1099,1099,1099,1099,,,,,
62345885,1099,1099,1099,1099,,,,,
62348384,1100,1100,1100,1100,,,,,
62350883,1101,1101,1101,1101,,,,,
62353382,1101,1101,1101,1101,,,,,
62355881,1102,1102,1102,1102,,,,,
62358380,1103,1103,1103,1103,,,,,
62360879,1104,1104,1104,1104,,,,,
62363378,1104,1104,1104,1104,,,,,
62365877,1105,1105,1105,1105,,,,,
62368376,1106,1106,1106,1106,,,,,
62370875,1107,1107,1107,1107,,,,,
62373374,1107,1107,1107,1107,,,,,
62375873,1108,1108,1108,1108,,,,,
62378372,1109,1109,1109,1109,,,,,
62380871,1110,1110,1110,1110,,,,,
62383370,1110,1110,1110,1110,,,,,
62385869,1111,1111,1111,1111,,,,,
62388368,1112,1112,1112,1112,,,,,
62390867,1113,1113,1113,1113,,,,,
62393366,1113,1113,1113,1113,,,,,
62395865,1114,1114,1114,1114,,,,,
62398364,1115,1115,1115,1115,,,,,
62400863,1116,1116,1116,1116,,,,,
62403362,1116,1116,1116,1116,,,,,
62405861,1117,1117,1117,1117,,,,,
62408360,1118,1118,1118,1118,,,,,
62410859,1119,1119,1119,1119,,,,,
62413358,1119,1119,1119,1119,,,,,
62415857,1120,1120,1120,1120,,,,,
62418356,1121,1121,1121,1121,,,,,
62420855,1122,1122,1122,1122,,,,,
62423354,1122,1122,1122,1122,,,,,
62425853,1123,1123,1123,1123,,,,,
62428352,1124,1124,1124,1124,,,,,
62430851,1125,1125,1125,1125,,,,,
62433350,1125,1125,1125,1125,,,,,
62435849,1126,1126,1126,1126,,,,,
62438348,1127,1127,1127,1127,,,,,
62440847,1128,1128,1128,1128,,,,,
62443346,1128,1128,1128,1128,,,,,
62445845,1129,1129,1129,1129,,,,,
62448344,1130,1130,1130,1130,,,,,
62450843,1131,1131,1131,1131,,,,,
62453342,1131,1131,1131,1131,,,,,
62455841,1132,1132,1132,1132,,,,,
62458340,1133,1133,1133,1133,,,,,
62460839,1134,1134,1134,1134,,,,,
62463338,1134,1134,1134,1134,,,,,
62465837,1135,1135,1135,1135,,,,,
62468336,1136,1136,1136,1136,,,,,
62470835,1137,1137,1137,1137,,,,,
62473334,1137,1137,1137,1137,,,,,
62475833,1138,1138,1138,1138,,,,,
62478332,1139,1139,1139,1139,,,,,
62480831,1140,1140,1140,1140,,,,,
62483330,1140,1140,1140,1140,,,,,
62485829,1141,1141,1141,1141,,,,,
62488328,1142,1142,1142,1142,,,,,
62490827,1143,1143,1143,1143,,,,,
62493326,1143,1143,1143,1143,,,,,
62495825,1144,1144,1144,1144,,,,,
62498324,1145,1145,1145,1145,,,,,
62500823,1146,1146,1146,1146,,,,,
62503322,1146,1146,1146,1146,,,,,
62505821,1147,1147,1147,1147,,,,,
62508320,1148,1148,1148,1148,,,,,
62510819,1149,1149,1149,1149,,,,,
62513318,1149,1149,1149,1149,,,,,
62515817,1150,1150,1150,1150,,,,,
62518316,1162,1152,1153,1163,,,,,
62520815,1170,1160,1161,1171,,,,,
62523314,1178,1168,1169,1179,,,,,
62525813,1186,1176,1177,1186,,,,,
62528312,1193,1184,1185,1194,,,,,
62530811,1201,1192,1192,1201,,,,,
62533310,1208,1199,1200,1209,,,,,
62535809,1215,1206,1207,1216,,,,,
62538308,1222,1214,1214,1223,,,,,
62540807,1229,1221,1221,1230,,,,,
62543306,1236,1228,1228,1237,,,,,
62545805,1243,1234,1235,1244,,,,,
62548304,1250,1241,1242,1250,,,,,
62550803,1256,1248,1249,1257,,,,,
62553302,1263,1255,1255,1263,,,,,
62555801,1269,1261,1262,1270,,,,,
62558300,1276,1267,1268,1276,,,,,
62560799,1282,1274,1275,1282,,,,,
62563298,1288,1280,1281,1289,,,,,
62565797,1294,1286,1287,1295,,,,,
62568296,1300,1293,1293,1301,,,,,
62570795,1306,1299,1299,1307,,,,,
62573294,1312,1305,1305,1313,,,,,
62575793,1318,1311,1311,1319,,,,,
62578292,1324,1316,1317,1324,,,,,
62580791,1330,1322,1323,1330,,,,,
62583290,1335,1328,1329,1336,,,,,
62585789,1341,1334,1334,1341,,,,,
62588288,1347,1339,1340,1347,,,,,
62590787,1352,1345,1346,1352,,,,,
62593286,1358,1351,1351,1358,,,,,
62595785,1363,1356,1357,1363,,,,,
62598284,1368,1361,1362,1369,,,,,
62600783,1374,1367,1367,1374,,,,,
62603282,1379,1372,1373,1379,,,,,
62605781,1384,1378,1378,1385,,,,,
62608280,1390,1383,1383,1390,,,,,
62610779,1395,1388,1389,1395,,,,,
62613278,1400,1393,1394,1400,,,,,
62615777,1405,1398,1399,1405,,,,,
62618276,1410,1403,1404,1410,,,,,
62620775,1415,1408,1409,1415,,,,,
62623274,1420,1413,1414,1420,,,,,
62625773,1425,1418,1419,1425,,,,,
62628272,1430,1423,1424,1430,,,,,
62630771,1435,1428,1429,1435,,,,,
62633270,1439,1433,1434,1440,,,,,
62635769,1444,1438,1438,1445,,,,,
62638268,1449,1443,1443,1449,,,,,
62640767,1454,1448,1448,1454,,,,,
62643266,1458,1452,1453,1459,,,,,
62645765,1463,1457,1457,1464,,,,,
62648264,1468,1462,1462,1468,,,,,
62650763,1472,1466,1467,1473,,,,,
62653262,1477,1471,1471,1477,,,,,
62655761,1482,1475,1476,1482,,,,,
62658260,1486,1480,1480,1487,,,,,
62660759,1491,1485,1485,1491,,,,,
62663258,1495,1489,1489,1495,,,,,
62665757,1499,1494,1494,1500,,,,,
62668256,1504,1498,1498,1504,,,,,
62670755,1508,1502,1503,1509,,,,,
62673254,1513,1507,1507,1513,,,,,
62675753,1517,1511,1512,1517,,,,,
62678252,1521,1515,1516,1522,,,,,
62680751,1526,1520,1520,1526,,,,,
62683250,1530,1524,1524,1530,,,,,
62685749,1534,1528,1529,1535,,,,,
62688248,1538,1533,1533,1539,,,,,
62690747,1543,1537,1537,1543,,,,,
62693246,1547,1541,1541,1547,,,,,
62695745,1551,1545,1545,1551,,,,,
62698244,1555,1549,1550,1556,,,,,
62700743,1559,1553,1554,1560,,,,,
62703242,1563,1558,1558,1564,,,,,
62705741,1567,1562,1562,1568,,,,,
62708240,1571,1566,1566,1572,,,,,
62710739,1575,1570,1570,1576,,,,,
62713238,1579,1574,1574,1580,,,,,
62715737,1583,1578,1578,1584,,,,,
62718236,1587,1582,1582,1588,,,,,
62720735,1591,1586,1586,1592,,,,,
62723234,1595,1590,1590,1596,,,,,
62725733,1599,1594,1594,1600,,,,,
62728232,1603,1598,1598,1604,,,,,
62730731,1607,1601,1602,1608,,,,,
62733230,1611,1605,1606,1611,,,,,
62735729,1615,1609,1609,1615,,,,,
62738228,1619,1613,1613,1619,,,,,
62740727,1622,1617,1617,1623,,,,,
62743226,1626,1621,1621,1627,,,,,
62745725,1630,1624,1625,1631,,,,,
62748224,1634,1628,1628,1634,,,,,
62750723,1638,1632,1632,1638,,,,,
62753222,1641,1636,1636,1642,,,,,
62755721,1645,1640,1640,1645,,,,,
62758220,1649,1643,1643,1649,,,,,
62760719,1652,1647,1647,1653,,,,,
62763218,1656,1651,1651,1657,,,,,
62765717,1660,1654,1654,1660,,,,,
62768216,1663,1658,1658,1664,,,,,
62770715,1667,1662,1662,1668,,,,,
62773214,1671,1665,1665,1671,,,,,
62775713,1674,1669,1669,1675,,,,,
62778212,1678,1672,1672,1678,,,,,
62780711,1681,1676,1676,1682,,,,,
62783210,1685,1680,1680,1686,,,,,
62785709,1688,1683,1683,1689,,,,,
62788208,1692,1687,1687,1693,,,,,
62790707,1695,1690,1690,1696,,,,,
62793206,1699,1694,1694,1700,,,,,
62795705,1702,1697,1697,1703,,,,,
62798204,1706,1701,1701,1707,,,,,
62800703,1709,1704,1704,1710,,,,,
62803202,1713,1708,1707,1714,,,,,
62805701,1716,1711,1711,1717,,,,,
62808200,1720,1715,1714,1721,,,,,
62810699,1723,1718,1718,1724,,,,,
62813198,1726,1722,1721,1728,,,,,
62815697,1730,1725,1725,1731,,,,,
62818196,1733,1728,1728,1734,,,,,
62820695,1737,1732,1731,1738,,,,,
62823194,1740,1735,1735,1741,,,,,
62825693,1743,1739,1738,1744,,,,,
62828192,1747,1742,1741,1748,,,,,
62830691,1750,1745,1745,1751,,,,,
62833190,1753,1749,1748,1754,,,,,
62835689,1757,1752,1751,1758,,,,,
62838188,1760,1755,1755,1761,,,,,
62840687,1763,1758,1758,1764,,,,,
62843186,1766,1762,1761,1768,,,,,
62845685,1770,1765,1765,1771,,,,,
62848184,1773,1768,1768,1774,,,,,
62850683,1776,1772,1771,1777,,,,,
62853182,1779,1775,1774,1781,,,,,
62855681,1783,1778,1778,1784,,,,,
62858180,1786,1781,1781,1787,,,,,
62860679,1789,1784,1784,1790,,,,,
62863178,1792,1788,1787,1793,,,,,
62865677,1795,1791,1790,1796,,,,,
62868176,1799,1794,1794,1800,,,,,
62870675,1802,1797,1797,1803,,,,,
62873174,1805,1800,1800,1806,,,,,
62875673,1808,1803,1803,1809,,,,,
62878172,1811,1806,1806,1812,,,,,
62880671,1814,1810,1809,1815,,,,,
62883170,1818,1813,1813,1818,,,,,
62885669,1821,1816,1816,1821,,,,,
62888168,1824,1819,1819,1825,,,,,
62890667,1827,1822,1822,1828,,,,,
62893166,1830,1825,1825,1831,,,,,
62895665,1833,1828,1828,1834,,,,,
62898164,1836,1831,1831,1837,,,,,
62900663,1839,1834,1834,1840,,,,,
62903162,1842,1837,1837,1843,,,,,
62905661,1845,1840,1840,1846,,,,,
62908160,1848,1843,1843,1849,,,,,
62910659,1851,1846,1846,1852,,,,,
62913158,1854,1850,1849,1855,,,,,
62915657,1857,1853,1852,1858,,,,,
62918156,1860,1856,1855,1861,,,,,
62920655,1863,1859,1858,1864,,,,,
62923154,1866,1862,1861,1867,,,,,
62926486,1869,1865,1864,1870,,,,,
62928985,1872,1868,1867,1873,,,,,
62931484,1875,1871,1870,1876,,,,,
62933983,1878,1873,1873,1879,,,,,
62936482,1881,1876,1876,1882,,,,,
62938981,1884,1879,1879,1885,,,,,
62941480,1887,1882,1882,1888,,,,,
62943979,1890,1885,1885,1891,,,,,
62946478,1893,1888,1888,1894,,,,,
62948977,1895,1891,1891,1896,,,,,
62951476,1898,1894,1894,1899,,,,,
62953975,1901,1897,1896,1902,,,,,
62956474,1904,1900,1899,1905,,,,,
62958973,1907,1903,1902,1908,,,,,
62961472,1910,1905,1905,1911,,,,,
62963971,1913,1908,1908,1914,,,,,
62966470,1916,1911,1911,1917,,,,,
62968969,1918,1914,1914,1919,,,,,
62971468,1921,1917,1916,1922,,,,,
62973967,1924,1920,1919,1925,,,,,
62976466,1927,1922,1922,1928,,,,,
62978965,1930,1925,1925,1931,,,,,
62981464,1929,1925,1925,1930,,,,,
62983963,1929,1924,1924,1930,,,,,
62986462,1928,1924,1923,1929,,,,,
62988961,1928,1923,1923,1928,,,,,
62991460,1927,1922,1922,1928,,,,,
62993959,1927,1922,1922,1927,,,,,
62996458,1926,1921,1921,1927,,,,,
62998957,1926,1921,1921,1926,,,,,
63001456,1926,1920,1921,1926,,,,,
63003955,1925,1920,1920,1926,,,,,
63006454,1925,1920,1920,1925,,,,,
63008953,1924,1920,1920,1925,,,,,
63011452,1924,1919,1920,1924,,,,,
63013951,1924,1919,1919,1924,,,,,
63016450,1923,1919,1919,1923,,,,,
63018949,1922,1918,1919,1923,,,,,
63021448,1922,1918,1918,1922,,,,,
63023947,1921,1917,1917,1921,,,,,
63026446,1920,1916,1917,1920,,,,,
63028945,1919,1915,1916,1919,,,,,
63031444,1918,1914,1915,1918,,,,,
63033943,1917,1913,1914,1917,,,,,
63036442,1915,1912,1912,1915,,,,,
63038941,1914,1910,1911,1914,,,,,
63041440,1912,1909,1909,1912,,,,,
63043939,1910,1907,1908,1910,,,,,
63046438,1909,1905,1906,1909,,,,,
63048937,1907,1903,1904,1907,,,,,
63051436,1904,1901,1902,1904,,,,,
63053935,1902,1899,1899,1902,,,,,
63056434,1900,1897,1897,1900,,,,,
63058933,1897,1894,1895,1897,,,,,
63061432,1895,1892,1892,1895,,,,,
63063931,1892,1889,1890,1892,,,,,
63066430,1890,1886,1887,1890,,,,,
63068929,1887,1884,1884,1887,,,,,
63071428,1884,1881,1882,1884,,,,,
63073927,1881,1878,1879,1881,,,,,
63076426,1878,1875,1876,1878,,,,,
63078925,1875,1872,1873,1875,,,,,
63081424,1872,1869,1870,1872,,,,,
63083923,1869,1866,1867,1869,,,,,
63086422,1866,1863,1864,1866,,,,,
63088921,1863,1860,1861,1863,,,,,
63091420,1859,1857,1857,1860,,,,,
63093919,1856,1854,1854,1856,,,,,
63096418,1853,1851,1851,1853,,,,,
63098917,1849,1847,1848,1850,,,,,
63101416,1846,1844,1844,1846,,,,,
63103915,1843,1841,1841,1843,,,,,
63106414,1839,1838,1838,1840,,,,,
63108913,1836,1834,1835,1836,,,,,
63111412,1833,1831,1831,1833,,,,,
63113911,1829,1828,1828,1830,,,,,
63116410,1826,1824,1825,1826,,,,,
63118909,1823,1821,1822,1823,,,,,
63121408,1819,1818,1818,1820,,,,,
63123907,1816,1815,1815,1816,,,,,
63126406,1813,1811,1812,1813,,,,,
63128905,1809,1808,1809,1810,,,,,
63131404,1806,1805,1805,1806,,,,,
63133903,1803,1802,1802,1803,,,,,
63136402,1799,1798,1799,1800,,,,,
63138901,1796,1795,1795,1796,,,,,
63141400,1793,1792,1792,1793,,,,,
63143899,1790,1789,1789,1790,,,,,
63146398,1786,1785,1786,1786,,,,,
63148897,1783,1782,1782,1783,,,,,
63151396,1780,1778,1778,1780,,,,,
63153895,1776,1775,1775,1777,,,,,
63156394,1773,1772,1771,1774,,,,,
63158893,1769,1768,1768,1770,,,,,
63161392,1766,1765,1765,1767,,,,,
63163891,1763,1762,1761,1764,,,,,
63166390,1759,1758,1758,1760,,,,,
63168889,1756,1755,1755,1757,,,,,
63171388,1753,1752,1752,1754,,,,,
63173887,1749,1749,1749,1750,,,,,
63176386,1746,1746,1745,1747,,,,,
63178885,1743,1743,1742,1744,,,,,
63181384,1740,1740,1739,1741,,,,,
63183883,1737,1737,1736,1738,,,,,
63186382,1734,1734,1733,1735,,,,,
63188881,1731,1731,1730,1732,,,,,
63191380,1728,1728,1727,1729,,,,,
63193879,1725,1725,1724,1726,,,,,
63196378,1722,1722,1721,1724,,,,,
63198877,1719,1719,1718,1721,,,,,
63201376,1716,1717,1715,1718,,,,,
63203875,1714,1714,1713,1716,,,,,
63206374,1711,1711,1710,1713,,,,,
63208873,1709,1709,1707,1711,,,,,
63211372,1706,1706,1705,1708,,,,,
63213871,1704,1704,1702,1706,,,,,
63216370,1701,1702,1700,1704,,,,,
63218869,1699,1699,1697,1702,,,,,
63221368,1696,1697,1695,1699,,,,,
63223867,1694,1695,1692,1697,,,,,
63226366,1692,1693,1690,1695,,,,,
63228865,1690,1691,1688,1693,,,,,
63231364,1688,1689,1686,1691,,,,,
63233863,1685,1687,1683,1689,,,,,
63236362,1683,1684,1681,1687,,,,,
63238861,1681,1683,1679,1685,,,,,
63241360,1679,1681,1677,1683,,,,,
63243859,1677,1679,1675,1682,,,,,
63246358,1675,1677,1673,1680,,,,,
63248857,1674,1675,1671,1678,,,,,
63251356,1672,1673,1669,1676,,,,,
63253855,1670,1672,1668,1675,,,,,
63256354,1668,1670,1666,1673,,,,,
63258853,1667,1668,1664,1672,,,,,
63261352,1665,1667,1662,1670,,,,,
63263851,1664,1665,1661,1669,,,,,
63266350,1662,1664,1659,1667,,,,,
63268849,1661,1662,1658,1666,,,,,
63271348,1659,1661,1656,1664,,,,,
63273847,1658,1660,1655,1663,,,,,
63276346,1656,1658,1654,1662,,,,,
63278845,1655,1657,1652,1661,,,,,
63281344,1654,1656,1651,1660,,,,,
63283843,1653,1655,1650,1658,,,,,
63286342,1652,1654,1649,1657,,,,,
63288841,1651,1653,1648,1656,,,,,
63291340,1650,1652,1647,1655,,,,,
63293839,1649,1651,1646,1654,,,,,
63296338,1648,1650,1645,1653,,,,,
63298837,1647,1649,1644,1652,,,,,
63301336,1646,1648,1643,1651,,,,,
63303835,1645,1647,1642,1651,,,,,
63306334,1644,1646,1641,1650,,,,,
63308833,1643,1646,1640,1649,,,,,
63311332,1642,1645,1640,1648,,,,,
63313831,1641,1644,1639,1647,,,,,
63316330,1641,1643,1638,1647,,,,,
63318829,1640,1643,1638,1646,,,,,
63321328,1639,1642,1637,1645,,,,,
