TimeUS,M1,M2,M3,M4,TimeUS,C1,C2,C3,C4
90286371,1000,1000,1000,1000,90328854,1000,1000,1000,1000
90288870,1000,1000,1000,1000,90428814,1000,1000,1000,1000
90291369,1000,1000,1000,1000,90528774,1000,1000,1000,1000
90293868,1000,1000,1000,1000,90628734,1000,1000,1000,1000
90296367,1000,1000,1000,1000,90728694,1000,1000,1000,1000
90298866,1000,1000,1000,1000,90828654,1000,1000,1000,1000
90301365,1000,1000,1000,1000,90928614,1000,1000,1000,1000
90303864,1000,1000,1000,1000,91028574,1000,1000,1000,1000
90306363,1000,1000,1000,1000,91128534,1000,1000,1000,1000
90308862,1000,1000,1000,1000,91228494,1000,1000,1000,1000
90311361,1000,1000,1000,1000,91328454,1000,1000,1000,1000
90313860,1000,1000,1000,1000,91428414,1000,1000,1000,1000
90316359,1000,1000,1000,1000,91528374,1000,1000,1000,1000
90318858,1000,1000,1000,1000,91628334,1000,1000,1000,1000
90321357,1000,1000,1000,1000,91728294,1000,1000,1000,1000
90323856,1000,1000,1000,1000,91828254,1000,1000,1000,1000
90326355,1000,1000,1000,1000,91928214,1000,1000,1000,1000
90328854,1000,1000,1000,1000,92028174,1000,1000,1000,1000
90331353,1000,1000,1000,1000,92128967,1000,1000,1000,1000
90333852,1000,1000,1000,1000,92228927,1000,1000,1000,1000
90336351,1000,1000,1000,1000,92328887,1012,1012,1012,1012
90338850,1000,1000,1000,1000,92428847,1042,1042,1042,1042
90341349,1000,1000,1000,1000,92528807,1072,1072,1072,1072
90343848,1000,1000,1000,1000,92628767,1102,1102,1102,1102
90346347,1000,1000,1000,1000,92728727,1132,1132,1132,1132
90348846,1000,1000,1000,1000,92828687,1271,1259,1260,1272
90351345,1000,1000,1000,1000,92928647,1484,1473,1474,1484
90353844,1000,1000,1000,1000,93028607,1646,1638,1638,1647
90356343,1000,1000,1000,1000,93128567,1784,1776,1776,1785
90358842,1000,1000,1000,1000,93228527,1886,1878,1879,1886
90361341,1000,1000,1000,1000,93328487,1873,1868,1868,1873
90363840,1000,1000,1000,1000,93428447,1749,1748,1749,1749
90366339,1000,1000,1000,1000,93528407,1646,1648,1648,1646
90368838,1000,1000,1000,1000,93628367,1614,1617,1618,1614
90371337,1000,1000,1000,1000,93728327,1620,1623,1623,1620
90373836,1000,1000,1000,1000,93828287,1632,1634,1634,1632
90376335,1000,1000,1000,1000,93928247,1632,1633,1633,1632
90378834,1000,1000,1000,1000,94028207,1627,1626,1626,1627
90381333,1000,1000,1000,1000,94128167,1620,1618,1618,1620
90383832,1000,1000,1000,1000,94228960,1616,1614,1614,1615
90386331,1000,1000,1000,1000,94328920,1614,1613,1613,1614
90388830,1000,1000,1000,1000,94428880,1614,1614,1614,1614
90391329,1000,1000,1000,1000,94528840,1616,1615,1615,1616
90393828,1000,1000,1000,1000,94628800,1617,1617,1617,1617
90396327,1000,1000,1000,1000,94728760,1618,1619,1618,1619
90398826,1000,1000,1000,1000,94828720,1614,1618,1618,1614
90401325,1000,1000,1000,1000,94928680,1584,1585,1585,1585
90403824,1000,1000,1000,1000,95028640,1572,1572,1571,1573
90406323,1000,1000,1000,1000,95128600,1562,1561,1561,1563
90408822,1000,1000,1000,1000,95228560,1552,1551,1551,1553
90411321,1000,1000,1000,1000,95328520,1544,1543,1543,1544
90413820,1000,1000,1000,1000,95428480,1535,1535,1535,1535
90416319,1000,1000,1000,1000,95528440,1525,1525,1525,1525
90418818,1000,1000,1000,1000,95628400,1516,1517,1516,1517
90421317,1000,1000,1000,1000,95728360,1513,1513,1512,1513
90423816,1000,1000,1000,1000,95828320,1511,1511,1511,1511
90426315,1000,1000,1000,1000,95928280,1510,1510,1510,1511
90428814,1000,1000,1000,1000,96028240,1510,1510,1510,1510
90431313,1000,1000,1000,1000,96128200,1509,1509,1509,1509
90433812,1000,1000,1000,1000,96228160,1510,1510,1510,1511
90436311,1000,1000,1000,1000,96328953,1511,1510,1510,1511
90438810,1000,1000,1000,1000,96428913,1511,1511,1511,1511
90441309,1000,1000,1000,1000,96528873,1529,1529,1532,1526
90443808,1000,1000,1000,1000,96628833,1543,1543,1549,1537
90446307,1000,1000,1000,1000,96728793,1552,1552,1554,1550
90448806,1000,1000,1000,1000,96828753,1557,1557,1555,1559
90451305,1000,1000,1000,1000,96928713,1559,1559,1554,1564
90453804,1000,1000,1000,1000,97028673,1562,1562,1557,1567
90456303,1000,1000,1000,1000,97128633,1563,1563,1559,1567
90458802,1000,1000,1000,1000,97228593,1567,1567,1566,1568
90461301,1000,1000,1000,1000,97328553,1569,1569,1571,1566
90463800,1000,1000,1000,1000,97428513,1570,1570,1573,1566
90466299,1000,1000,1000,1000,97528473,1570,1570,1572,1567
90468798,1000,1000,1000,1000,97628433,1571,1571,1572,1569
90471297,1000,1000,1000,1000,97728393,1571,1571,1571,1571
90473796,1000,1000,1000,1000,97828353,1569,1569,1568,1571
90476295,1000,1000,1000,1000,97928313,1566,1565,1568,1572
90478794,1000,1000,1000,1000,98028273,1565,1564,1569,1572
90481293,1000,1000,1000,1000,98128233,1564,1564,1569,1571
90483792,1000,1000,1000,1000,98228193,1565,1566,1569,1570
90486291,1000,1000,1000,1000,98328986,1566,1567,1569,1568
90488790,1000,1000,1000,1000,98428946,1567,1569,1569,1567
90491289,1000,1000,1000,1000,98528906,1569,1568,1568,1567
90493788,1000,1000,1000,1000,98628866,1570,1570,1568,1567
90496287,1000,1000,1000,1000,98728826,1571,1570,1567,1567
90498786,1000,1000,1000,1000,98828786,1573,1572,1568,1568
90501285,1000,1000,1000,1000,98928746,1573,1572,1569,1569
90503784,1000,1000,1000,1000,99028706,1573,1573,1569,1570
90506283,1000,1000,1000,1000,99128666,1573,1572,1570,1571
90508782,1000,1000,1000,1000,99228626,1573,1574,1572,1572
90511281,1000,1000,1000,1000,99328586,1574,1574,1574,1573
90513780,1000,1000,1000,1000,99428546,1574,1575,1576,1574
90516279,1000,1000,1000,1000,99528506,1575,1575,1577,1575
90518778,1000,1000,1000,1000,99628466,1575,1575,1576,1576
90521277,1000,1000,1000,1000,99728426,1575,1575,1576,1576
90523776,1000,1000,1000,1000,99828386,1575,1576,1576,1577
90526275,1000,1000,1000,1000,99928346,1576,1576,1577,1577
90528774,1000,1000,1000,1000,100028306,1576,1576,1577,1576
90531273,1000,1000,1000,1000,100128266,1576,1576,1576,1577
90533772,1000,1000,1000,1000,100228226,1576,1577,1576,1577
90536271,1000,1000,1000,1000,100328186,1577,1577,1577,1577
90538770,1000,1000,1000,1000,100428979,1577,1578,1578,1577
90541269,1000,1000,1000,1000,100528939,1579,1579,1579,1578
90543768,1000,1000,1000,1000,100628899,1578,1578,1578,1577
90546267,1000,1000,1000,1000,100728859,1579,1578,1578,1578
90548766,1000,1000,1000,1000,100828819,1579,1579,1578,1578
90551265,1000,1000,1000,1000,100928779,1578,1579,1578,1579
90553764,1000,1000,1000,1000,101028739,1578,1578,1578,1578
90556263,1000,1000,1000,1000,101128699,1579,1578,1579,1579
90558762,1000,1000,1000,1000,101228659,1580,1579,1580,1579
90561261,1000,1000,1000,1000,101328619,1579,1579,1579,1579
90563760,1000,1000,1000,1000,101428579,1580,1579,1580,1580
90566259,1000,1000,1000,1000,101528539,1580,1579,1580,1580
90568758,1000,1000,1000,1000,101628499,1580,1580,1580,1580
90571257,1000,1000,1000,1000,101728459,1579,1579,1580,1580
90573756,1000,1000,1000,1000,101828419,1580,1580,1580,1580
90576255,1000,1000,1000,1000,101928379,1579,1579,1579,1579
90578754,1000,1000,1000,1000,102028339,1579,1579,1579,1579
90581253,1000,1000,1000,1000,102128299,1580,1579,1579,1580
90583752,1000,1000,1000,1000,102228259,1580,1580,1580,1580
90586251,1000,1000,1000,1000,102328219,1580,1580,1580,1580
90588750,1000,1000,1000,1000,102428179,1580,1581,1581,1580
90591249,1000,1000,1000,1000,102528972,1581,1581,1581,1581
90593748,1000,1000,1000,1000,102628932,1580,1580,1580,1580
90596247,1000,1000,1000,1000,102728892,1580,1580,1580,1580
90598746,1000,1000,1000,1000,102828852,1579,1579,1580,1580
90601245,1000,1000,1000,1000,102928812,1580,1579,1579,1580
90603744,1000,1000,1000,1000,103028772,1579,1580,1580,1580
90606243,1000,1000,1000,1000,103128732,1579,1579,1580,1580
90608742,1000,1000,1000,1000,103228692,1581,1580,1580,1581
90611241,1000,1000,1000,1000,103328652,1581,1581,1581,1581
90613740,1000,1000,1000,1000,103428612,1581,1581,1582,1581
90616239,1000,1000,1000,1000,103528572,1581,1580,1581,1581
90618738,1000,1000,1000,1000,103628532,1581,1580,1581,1581
90621237,1000,1000,1000,1000,103728492,1581,1581,1581,1581
90623736,1000,1000,1000,1000,103828452,1580,1581,1581,1580
90626235,1000,1000,1000,1000,103928412,1582,1581,1582,1582
90628734,1000,1000,1000,1000,104028372,1581,1582,1582,1582
90631233,1000,1000,1000,1000,104128332,1581,1581,1585,1578
90633732,1000,1000,1000,1000,104228292,1580,1581,1587,1572
90636231,1000,1000,1000,1000,104328252,1579,1582,1580,1573
90638730,1000,1000,1000,1000,104428212,1578,1581,1572,1573
90641229,1000,1000,1000,1000,104528172,1577,1579,1564,1570
90643728,1000,1000,1000,1000,104628965,1577,1579,1558,1565
90646227,1000,1000,1000,1000,104728925,1579,1578,1556,1561
90648726,1000,1000,1000,1000,104828885,1580,1579,1555,1557
90651225,1000,1000,1000,1000,104928845,1580,1579,1556,1555
90653724,1000,1000,1000,1000,105028805,1579,1578,1555,1553
90656223,1000,1000,1000,1000,105128765,1578,1579,1556,1554
90658722,1000,1000,1000,1000,105228725,1577,1578,1555,1554
90661221,1000,1000,1000,1000,105328685,1576,1577,1555,1554
90663720,1000,1000,1000,1000,105428645,1575,1577,1553,1553
90666219,1000,1000,1000,1000,105528605,1575,1576,1551,1552
90668718,1000,1000,1000,1000,105628565,1576,1578,1550,1550
90671217,1000,1000,1000,1000,105728525,1578,1580,1549,1549
90673716,1000,1000,1000,1000,105828485,1580,1581,1546,1545
90676215,1000,1000,1000,1000,105928445,1583,1583,1543,1543
90678714,1000,1000,1000,1000,106028405,1586,1587,1542,1541
90681213,1000,1000,1000,1000,106128365,1589,1590,1539,1538
90683712,1000,1000,1000,1000,106228325,1592,1593,1537,1537
90686211,1000,1000,1000,1000,106328285,1595,1595,1536,1537
90688710,1000,1000,1000,1000,106428245,1596,1595,1536,1537
90691209,1000,1000,1000,1000,106528205,1594,1594,1536,1538
90693708,1000,1000,1000,1000,106628165,1593,1593,1539,1542
90696207,1000,1000,1000,1000,106728958,1590,1589,1543,1547
90698706,1000,1000,1000,1000,106828918,1585,1583,1551,1554
90701205,1000,1000,1000,1000,106928878,1577,1573,1560,1563
90703704,1000,1000,1000,1000,107028838,1566,1562,1571,1573
90706203,1000,1000,1000,1000,107128798,1555,1551,1584,1585
90708702,1000,1000,1000,1000,107228758,1544,1542,1596,1596
90711201,1000,1000,1000,1000,107328718,1536,1536,1606,1605
90713700,1000,1000,1000,1000,107428678,1531,1532,1612,1612
90716199,1000,1000,1000,1000,107528638,1529,1530,1615,1614
90718698,1000,1000,1000,1000,107628598,1531,1533,1614,1613
90721197,1000,1000,1000,1000,107728558,1537,1539,1611,1610
90723696,1000,1000,1000,1000,107828518,1543,1545,1604,1605
90726195,1000,1000,1000,1000,107928478,1552,1553,1597,1598
90728694,1000,1000,1000,1000,108028438,1561,1562,1591,1590
90731193,1000,1000,1000,1000,108128398,1570,1570,1584,1582
90733692,1000,1000,1000,1000,108228358,1576,1575,1576,1575
90736191,1000,1000,1000,1000,108328318,1583,1582,1572,1572
90738690,1000,1000,1000,1000,108428278,1586,1585,1568,1569
90741189,1000,1000,1000,1000,108528238,1587,1586,1566,1566
90743688,1000,1000,1000,1000,108628198,1588,1586,1566,1567
90746187,1000,1000,1000,1000,108728158,1586,1584,1567,1567
90748686,1000,1000,1000,1000,108828951,1584,1583,1570,1570
90751185,1000,1000,1000,1000,108928911,1581,1580,1573,1572
90753684,1000,1000,1000,1000,109028871,1577,1577,1575,1574
90756183,1000,1000,1000,1000,109128831,1225,1226,1578,1578
90758682,1000,1000,1000,1000,109228791,1331,1337,1651,1660
90761181,1000,1000,1000,1000,109328751,1516,1526,1657,1659
90763680,1000,1000,1000,1000,109428711,1553,1563,1622,1612
90766179,1000,1000,1000,1000,109528671,1588,1592,1604,1594
90768678,1000,1000,1000,1000,109628631,1614,1610,1594,1587
90771177,1000,1000,1000,1000,109728591,1630,1619,1585,1584
90773676,1000,1000,1000,1000,109828551,1648,1635,1565,1570
90776175,1000,1000,1000,1000,109928511,1664,1656,1538,1547
90778674,1000,1000,1000,1000,110028471,1669,1663,1529,1538
90781173,1000,1000,1000,1000,110128431,1658,1659,1535,1542
90783672,1000,1000,1000,1000,110228391,1645,1650,1545,1547
90786171,1000,1000,1000,1000,110328351,1633,1640,1553,1552
90788670,1000,1000,1000,1000,110428311,1625,1630,1559,1556
90791169,1000,1000,1000,1000,110528271,1620,1622,1564,1561
90793668,1000,1000,1000,1000,110628231,1615,1614,1567,1563
90796167,1000,1000,1000,1000,110728191,1608,1601,1574,1572
90798666,1000,1000,1000,1000,110828984,1592,1583,1589,1590
90801165,1000,1000,1000,1000,110928944,1572,1565,1603,1604
90803664,1000,1000,1000,1000,111028904,1556,1555,1609,1611
90806163,1000,1000,1000,1000,111128864,1549,1552,1610,1612
90808662,1000,1000,1000,1000,111228824,1545,1552,1607,1607
90811161,1000,1000,1000,1000,111328784,1547,1556,1604,1602
90813660,1000,1000,1000,1000,111428744,1553,1560,1601,1597
90816159,1000,1000,1000,1000,111528704,1560,1564,1597,1593
90818658,1000,1000,1000,1000,111628664,1567,1568,1592,1589
90821157,1000,1000,1000,1000,111728624,1572,1570,1586,1584
90823656,1000,1000,1000,1000,111828584,1577,1575,1582,1582
90826155,1000,1000,1000,1000,111928544,1580,1577,1577,1578
90828654,1000,1000,1000,1000,112028504,1581,1579,1574,1575
90831153,1000,1000,1000,1000,112128464,1585,1583,1576,1568
90833652,1000,1000,1000,1000,112228424,1591,1586,1571,1561
90836151,1000,1000,1000,1000,112328384,1595,1590,1561,1558
90838650,1000,1000,1000,1000,112428344,1594,1591,1551,1554
90841149,1000,1000,1000,1000,112528304,1592,1593,1546,1551
90843648,1000,1000,1000,1000,112628264,1590,1593,1547,1549
90846147,1000,1000,1000,1000,112728224,1586,1590,1549,1549
90848646,1000,1000,1000,1000,112828184,1582,1586,1552,1550
90851145,1000,1000,1000,1000,112928977,1578,1580,1556,1553
90853644,1000,1000,1000,1000,113028937,1574,1576,1560,1558
90856143,1000,1000,1000,1000,113128897,1571,1571,1561,1560
90858642,1000,1000,1000,1000,113228857,1569,1569,1561,1560
90861141,1000,1000,1000,1000,113328817,1567,1568,1559,1559
90863640,1000,1000,1000,1000,113428777,1568,1568,1556,1556
90866139,1000,1000,1000,1000,113528737,1568,1569,1553,1553
90868638,1000,1000,1000,1000,113628697,1570,1571,1550,1550
90871137,1000,1000,1000,1000,113728657,1572,1573,1547,1546
90873636,1000,1000,1000,1000,113828617,1575,1576,1544,1543
90876135,1000,1000,1000,1000,113928577,1578,1578,1541,1540
90878634,1000,1000,1000,1000,114028537,1583,1583,1538,1537
90881133,1000,1000,1000,1000,114128497,1588,1588,1533,1532
90883632,1000,1000,1000,1000,114228457,1593,1593,1529,1529
90886131,1000,1000,1000,1000,114328417,1596,1596,1528,1529
90888630,1000,1000,1000,1000,114428377,1597,1597,1528,1530
90891129,1000,1000,1000,1000,114528337,1596,1595,1531,1534
90893628,1000,1000,1000,1000,114628297,1593,1592,1535,1539
90896127,1000,1000,1000,1000,114728257,1587,1586,1542,1546
90898626,1000,1000,1000,1000,114828217,1581,1580,1550,1554
90901125,1000,1000,1000,1000,114928177,1575,1573,1559,1563
90903624,1000,1000,1000,1000,115028970,1568,1566,1566,1570
90906123,1000,1000,1000,1000,115128930,1561,1559,1573,1576
90908622,1000,1000,1000,1000,115228890,1555,1554,1580,1582
90911121,1000,1000,1000,1000,115328850,1550,1549,1585,1586
90913620,1000,1000,1000,1000,115428810,1545,1544,1591,1590
90916119,1000,1000,1000,1000,115528770,1542,1541,1596,1594
90918618,1000,1000,1000,1000,115628730,1539,1539,1599,1597
90921117,1000,1000,1000,1000,115728690,1538,1539,1601,1600
90923616,1000,1000,1000,1000,115828650,1538,1539,1602,1601
90926115,1000,1000,1000,1000,115928610,1538,1540,1600,1600
90928614,1000,1000,1000,1000,116028570,1540,1542,1597,1597
90931113,1000,1000,1000,1000,116128530,1545,1547,1594,1594
90933612,1000,1000,1000,1000,116228490,1550,1552,1590,1590
90936111,1000,1000,1000,1000,116328450,1557,1558,1586,1586
90938610,1000,1000,1000,1000,116428410,1563,1563,1581,1581
90941109,1000,1000,1000,1000,116528370,1569,1569,1578,1577
90943608,1000,1000,1000,1000,116628330,1575,1574,1576,1576
90946107,1000,1000,1000,1000,116728290,1578,1577,1575,1573
90948606,1000,1000,1000,1000,116828250,1581,1580,1573,1572
90951105,1000,1000,1000,1000,116928210,1584,1582,1573,1573
90953604,1000,1000,1000,1000,117028170,1583,1583,1571,1571
90956103,1000,1000,1000,1000,117128963,1584,1583,1571,1572
90958602,1000,1000,1000,1000,117228923,1584,1584,1572,1573
90961101,1000,1000,1000,1000,117328883,1584,1584,1573,1574
90963600,1000,1000,1000,1000,117428843,1583,1584,1574,1574
90966099,1000,1000,1000,1000,117528803,1583,1583,1575,1575
90968598,1000,1000,1000,1000,117628763,1582,1582,1576,1575
90971097,1000,1000,1000,1000,117728723,1581,1581,1576,1576
90973596,1000,1000,1000,1000,117828683,1581,1580,1576,1577
90976095,1000,1000,1000,1000,117928643,1581,1580,1578,1578
90978594,1000,1000,1000,1000,118028603,1579,1579,1578,1578
90981093,1000,1000,1000,1000,118128563,1579,1580,1579,1579
90983592,1000,1000,1000,1000,118228523,1578,1579,1579,1579
90986091,1000,1000,1000,1000,118328483,1578,1578,1579,1579
90988590,1000,1000,1000,1000,118428443,1577,1578,1580,1579
90991089,1000,1000,1000,1000,118528403,1578,1578,1580,1580
90993588,1000,1000,1000,1000,118628363,1578,1578,1580,1580
90996087,1000,1000,1000,1000,118728323,1578,1578,1580,1580
90998586,1000,1000,1000,1000,118828283,1578,1578,1580,1579
91001085,1000,1000,1000,1000,118928243,1578,1579,1580,1580
91003584,1000,1000,1000,1000,119028203,1579,1579,1581,1581
91006083,1000,1000,1000,1000,119128163,1578,1579,1579,1579
91008582,1000,1000,1000,1000,119228956,1579,1579,1579,1580
91011081,1000,1000,1000,1000,119328916,1580,1580,1580,1580
91013580,1000,1000,1000,1000,119428876,1580,1580,1580,1580
91016079,1000,1000,1000,1000,119528836,1580,1580,1580,1579
91018578,1000,1000,1000,1000,119628796,1580,1581,1580,1580
91021077,1000,1000,1000,1000,119728756,1582,1582,1581,1581
91023576,1000,1000,1000,1000,119828716,1582,1582,1581,1581
91026075,1000,1000,1000,1000,119928676,1581,1581,1580,1580
91028574,1000,1000,1000,1000,120028636,1581,1581,1579,1580
91031073,1000,1000,1000,1000,120128596,1580,1580,1579,1579
91033572,1000,1000,1000,1000,120228556,1581,1581,1580,1580
91036071,1000,1000,1000,1000,120328516,1581,1580,1579,1580
91038570,1000,1000,1000,1000,120428476,1581,1581,1580,1580
91041069,1000,1000,1000,1000,120528436,1582,1581,1581,1581
91043568,1000,1000,1000,1000,120628396,1581,1582,1581,1581
91046067,1000,1000,1000,1000,120728356,1582,1582,1582,1582
91048566,1000,1000,1000,1000,120828316,1582,1582,1582,1582
91051065,1000,1000,1000,1000,120928276,1581,1581,1583,1580
91053564,1000,1000,1000,1000,121028236,1581,1582,1588,1573
91056063,1000,1000,1000,1000,121128196,1581,1581,1584,1574
91058562,1000,1000,1000,1000,121228156,1579,1580,1574,1573
91061061,1000,1000,1000,1000,121328949,1577,1578,1565,1570
91063560,1000,1000,1000,1000,121428909,1576,1578,1559,1566
91066059,1000,1000,1000,1000,121528869,1576,1578,1556,1561
91068558,1000,1000,1000,1000,121628829,1576,1578,1555,1558
91071057,1000,1000,1000,1000,121728789,1577,1577,1556,1555
91073556,1000,1000,1000,1000,121828749,1577,1577,1556,1554
91076055,1000,1000,1000,1000,121928709,1578,1577,1556,1554
91078554,1000,1000,1000,1000,122028669,1577,1577,1556,1554
91081053,1000,1000,1000,1000,122128629,1576,1576,1554,1554
91083552,1000,1000,1000,1000,122228589,1576,1577,1554,1553
91086051,1000,1000,1000,1000,122328549,1576,1577,1552,1552
91088550,1000,1000,1000,1000,122428509,1576,1578,1551,1551
91091049,1000,1000,1000,1000,122528469,1577,1579,1550,1550
91093548,1000,1000,1000,1000,122628429,1578,1580,1548,1548
91096047,1000,1000,1000,1000,122728389,1580,1581,1546,1546
91098546,1000,1000,1000,1000,122828349,1583,1584,1545,1545
91101045,1000,1000,1000,1000,122928309,1584,1585,1542,1542
91103544,1000,1000,1000,1000,123028269,1587,1587,1541,1541
91106043,1000,1000,1000,1000,123128229,1589,1589,1541,1541
91108542,1000,1000,1000,1000,123228189,1590,1590,1540,1541
91111041,1000,1000,1000,1000,123328982,1591,1591,1541,1542
91113540,1000,1000,1000,1000,123428942,1591,1591,1541,1544
91116039,1000,1000,1000,1000,123528902,1590,1589,1544,1546
91118538,1000,1000,1000,1000,123628862,1587,1587,1547,1550
91121037,1000,1000,1000,1000,123728822,1584,1582,1552,1555
91123536,1000,1000,1000,1000,123828782,1579,1576,1560,1562
91126035,1000,1000,1000,1000,123928742,1572,1569,1570,1572
91128534,1000,1000,1000,1000,124028702,1563,1560,1579,1581
91131033,1000,1000,1000,1000,124128662,1554,1551,1590,1591
91133532,1000,1000,1000,1000,124228622,1544,1543,1599,1599
91136031,1000,1000,1000,1000,124328582,1538,1537,1606,1606
91138530,1000,1000,1000,1000,124428542,1533,1534,1610,1609
91141029,1000,1000,1000,1000,124528502,1532,1534,1611,1611
91143528,1000,1000,1000,1000,124628462,1534,1536,1610,1609
91146027,1000,1000,1000,1000,124728422,1539,1542,1606,1606
91148526,1000,1000,1000,1000,124828382,1545,1547,1600,1599
91151025,1000,1000,1000,1000,124928342,1553,1554,1594,1593
91153524,1000,1000,1000,1000,125028302,1562,1562,1587,1586
91156023,1000,1000,1000,1000,125128262,1568,1568,1579,1578
91158522,1000,1000,1000,1000,125228222,1576,1574,1574,1573
91161021,1000,1000,1000,1000,125328182,1581,1580,1569,1569
91163520,1000,1000,1000,1000,125428975,1585,1584,1567,1567
91166019,1000,1000,1000,1000,125528935,1587,1586,1564,1565
91168518,1000,1000,1000,1000,125628895,1589,1587,1566,1566
91171017,1000,1000,1000,1000,125728855,1588,1588,1568,1568
91173516,1000,1000,1000,1000,125828815,1587,1586,1569,1570
91176015,1000,1000,1000,1000,125928775,1583,1583,1571,1571
91178514,1000,1000,1000,1000,126028735,1582,1582,1576,1575
91181013,1000,1000,1000,1000,126128695,1580,1580,1578,1578
91183512,1000,1000,1000,1000,126228655,1577,1577,1581,1580
91186011,1000,1000,1000,1000,126328615,1575,1576,1582,1583
91188510,1000,1000,1000,1000,126428575,1574,1574,1584,1584
91191009,1000,1000,1000,1000,126528535,1573,1574,1585,1585
91193508,1000,1000,1000,1000,126628495,1574,1574,1585,1585
91196007,1000,1000,1000,1000,126728455,1573,1574,1583,1584
91198506,1000,1000,1000,1000,126828415,1575,1575,1583,1583
91201005,1000,1000,1000,1000,126928375,1576,1576,1582,1582
91203504,1000,1000,1000,1000,127028335,1577,1577,1581,1580
91206003,1000,1000,1000,1000,127128295,1579,1579,1580,1580
91208502,1000,1000,1000,1000,127228255,1580,1580,1579,1579
91211001,1000,1000,1000,1000,127328215,1582,1581,1579,1579
91213500,1000,1000,1000,1000,127428175,1582,1582,1578,1578
91215999,1000,1000,1000,1000,127528968,1583,1582,1578,1577
91218498,1000,1000,1000,1000,127628928,1582,1582,1577,1577
91220997,1000,1000,1000,1000,127728888,1582,1582,1578,1578
91223496,1000,1000,1000,1000,127828848,1582,1582,1578,1578
91225995,1000,1000,1000,1000,127928808,1581,1581,1578,1578
91228494,1000,1000,1000,1000,128028768,1581,1581,1579,1579
91230993,1000,1000,1000,1000,128128728,1581,1581,1581,1581
91233492,1000,1000,1000,1000,128228688,1581,1581,1582,1582
91235991,1000,1000,1000,1000,128328648,1580,1580,1581,1581
91238490,1000,1000,1000,1000,128428608,1579,1580,1581,1581
91240989,1000,1000,1000,1000,128528568,1579,1580,1581,1581
91243488,1000,1000,1000,1000,128628528,1579,1580,1581,1581
91245987,1000,1000,1000,1000,128728488,1580,1580,1581,1581
91248486,1000,1000,1000,1000,128828448,1580,1580,1581,1582
91250985,1000,1000,1000,1000,128928408,1581,1581,1582,1582
91253484,1000,1000,1000,1000,129028368,1581,1581,1585,1578
91255983,1000,1000,1000,1000,129128328,1581,1581,1588,1573
91258482,1000,1000,1000,1000,129228288,1580,1580,1583,1575
91260981,1000,1000,1000,1000,129328248,1577,1577,1574,1575
91263480,1000,1000,1000,1000,129428208,1574,1573,1567,1573
91265979,1000,1000,1000,1000,129528168,1571,1571,1564,1571
91268478,1000,1000,1000,1000,129628961,1569,1570,1564,1569
91270977,1000,1000,1000,1000,129728921,1567,1568,1564,1567
91273476,1000,1000,1000,1000,129828881,1567,1568,1567,1566
91275975,1000,1000,1000,1000,129928841,1566,1567,1568,1566
91278474,1000,1000,1000,1000,130028801,1565,1565,1567,1565
91280973,1000,1000,1000,1000,130128761,1566,1565,1568,1566
91283472,1000,1000,1000,1000,130228721,1564,1564,1566,1564
91285971,1000,1000,1000,1000,130328681,1564,1564,1566,1565
91288470,1000,1000,1000,1000,130428641,1562,1563,1564,1564
91290969,1000,1000,1000,1000,130528601,1562,1562,1563,1564
91293468,1000,1000,1000,1000,130628561,1562,1562,1563,1563
91295967,1000,1000,1000,1000,130728521,1561,1561,1562,1562
91298466,1000,1000,1000,1000,130828481,1561,1561,1562,1561
91300965,1000,1000,1000,1000,130928441,1560,1560,1560,1560
91303464,1000,1000,1000,1000,131028401,1560,1560,1560,1559
91305963,1000,1000,1000,1000,131128361,1559,1559,1559,1558
91308462,1000,1000,1000,1000,131228321,1559,1559,1559,1558
91310961,1000,1000,1000,1000,131328281,1559,1558,1559,1558
91313460,1000,1000,1000,1000,131428241,1558,1558,1558,1557
91315959,1000,1000,1000,1000,131528201,1556,1555,1555,1554
91318458,1000,1000,1000,1000,131628161,1556,1556,1554,1556
91320957,1000,1000,1000,1000,131728954,1555,1554,1556,1551
91323456,1000,1000,1000,1000,131828914,1553,1552,1553,1550
91325955,1000,1000,1000,1000,131928874,1549,1549,1546,1549
91328454,1000,1000,1000,1000,132028834,1545,1546,1541,1547
91330953,1000,1000,1000,1000,132128794,1540,1540,1534,1541
91333452,1000,1000,1000,1000,132228754,1533,1534,1528,1533
91335951,1000,1000,1000,1000,132328714,1527,1527,1522,1525
91338450,1000,1000,1000,1000,132428674,1523,1523,1520,1521
91340949,1000,1000,1000,1000,132528634,1521,1521,1520,1520
91343448,1000,1000,1000,1000,132628594,1521,1521,1522,1521
91345947,1000,1000,1000,1000,132728554,1522,1522,1524,1524
91348446,1000,1000,1000,1000,132828514,1524,1523,1528,1528
91350945,1000,1000,1000,1000,132928474,1527,1527,1532,1534
91353444,1000,1000,1000,1000,133028434,1532,1532,1539,1539
91355943,1000,1000,1000,1000,133128394,1535,1535,1540,1541
91358442,1000,1000,1000,1000,133228354,1538,1538,1543,1544
91360941,1000,1000,1000,1000,133328314,1541,1541,1545,1546
91363440,1000,1000,1000,1000,133428274,1543,1543,1545,1545
91365939,1000,1000,1000,1000,133528234,1545,1545,1545,1545
91368438,1000,1000,1000,1000,133628194,1547,1547,1545,1545
91370937,1000,1000,1000,1000,133728154,1548,1547,1545,1545
91373436,1000,1000,1000,1000,133828947,1549,1549,1546,1545
91375935,1000,1000,1000,1000,133928907,1549,1550,1546,1545
91378434,1000,1000,1000,1000,134028867,1548,1549,1544,1544
91380933,1000,1000,1000,1000,134128827,1548,1548,1544,1544
91383432,1000,1000,1000,1000,134228787,1548,1548,1545,1545
91385931,1000,1000,1000,1000,134328747,1547,1547,1545,1545
91388430,1000,1000,1000,1000,134428707,1547,1547,1546,1546
91390929,1000,1000,1000,1000,134528667,1546,1546,1546,1545
91393428,1000,1000,1000,1000,134628627,1545,1546,1546,1545
91395927,1000,1000,1000,1000,134728587,1545,1545,1546,1546
91398426,1000,1000,1000,1000,134828547,1545,1545,1547,1546
91400925,1000,1000,1000,1000,134928507,1545,1544,1546,1546
91403424,1000,1000,1000,1000,135028467,1543,1544,1545,1545
91405923,1000,1000,1000,1000,135128427,1543,1543,1545,1545
91408422,1000,1000,1000,1000,135228387,1543,1543,1545,1544
91410921,1000,1000,1000,1000,135328347,1543,1543,1544,1544
91413420,1000,1000,1000,1000,135428307,1544,1545,1545,1545
91415919,1000,1000,1000,1000,135528267,1544,1544,1544,1544
91418418,1000,1000,1000,1000,135628227,1544,1544,1543,1544
91420917,1000,1000,1000,1000,135728187,1544,1544,1544,1544
91423416,1000,1000,1000,1000,135828980,1543,1544,1543,1543
91425915,1000,1000,1000,1000,135928940,1544,1544,1543,1543
91428414,1000,1000,1000,1000,136028900,1544,1544,1544,1544
91430913,1000,1000,1000,1000,136128860,1543,1543,1543,1543
91433412,1000,1000,1000,1000,136228820,1544,1544,1543,1543
91435911,1000,1000,1000,1000,136328780,1544,1544,1543,1544
91438410,1000,1000,1000,1000,136428740,1544,1544,1544,1543
91440909,1000,1000,1000,1000,136528700,1544,1544,1544,1544
91443408,1000,1000,1000,1000,136628660,1543,1543,1543,1543
91445907,1000,1000,1000,1000,136728620,1544,1543,1544,1544
91448406,1000,1000,1000,1000,136828580,1543,1543,1543,1543
91450905,1000,1000,1000,1000,136928540,1543,1543,1543,1543
91453404,1000,1000,1000,1000,137028500,1543,1543,1543,1543
91455903,1000,1000,1000,1000,137128460,1544,1544,1544,1545
91458402,1000,1000,1000,1000,137228420,1543,1543,1543,1544
91460901,1000,1000,1000,1000,137328380,1544,1543,1543,1544
91463400,1000,1000,1000,1000,137428340,1544,1544,1544,1544
91465899,1000,1000,1000,1000,137528300,1544,1544,1544,1544
91468398,1000,1000,1000,1000,137628260,1543,1543,1543,1543
91470897,1000,1000,1000,1000,137728220,1543,1543,1543,1543
91473396,1000,1000,1000,1000,137828180,1544,1544,1544,1544
91475895,1000,1000,1000,1000,137928973,1545,1544,1544,1545
91478394,1000,1000,1000,1000,138028933,1544,1545,1545,1545
91480893,1000,1000,1000,1000,138128893,1545,1544,1544,1545
91483392,1000,1000,1000,1000,138228853,1544,1544,1544,1544
91485891,1000,1000,1000,1000,138328813,1545,1545,1544,1544
91488390,1000,1000,1000,1000,138428773,1544,1544,1544,1544
91490889,1000,1000,1000,1000,138528733,1545,1544,1544,1545
91493388,1000,1000,1000,1000,138628693,1544,1544,1544,1544
91495887,1000,1000,1000,1000,138728653,1545,1545,1545,1545
91498386,1000,1000,1000,1000,138828613,1545,1545,1545,1545
91500885,1000,1000,1000,1000,138928573,1545,1544,1544,1545
91503384,1000,1000,1000,1000,139028533,1544,1545,1545,1545
91505883,1000,1000,1000,1000,139128493,1544,1544,1544,1544
91508382,1000,1000,1000,1000,139228453,1544,1545,1545,1545
91510881,1000,1000,1000,1000,139328413,1545,1545,1545,1545
91513380,1000,1000,1000,1000,139428373,1544,1545,1545,1544
91515879,1000,1000,1000,1000,139528333,1545,1544,1544,1545
91518378,1000,1000,1000,1000,139628293,1544,1544,1544,1544
91520877,1000,1000,1000,1000,139728253,1545,1545,1545,1545
91523376,1000,1000,1000,1000,139828213,1545,1545,1546,1546
91525875,1000,1000,1000,1000,139928173,1545,1545,1545,1545
91528374,1000,1000,1000,1000,140028966,1544,1545,1545,1545
91530873,1000,1000,1000,1000,140128926,1545,1545,1544,1545
91533372,1000,1000,1000,1000,140228886,1544,1544,1544,1543
91535871,1000,1000,1000,1000,140328846,1543,1544,1543,1543
91538370,1000,1000,1000,1000,140428806,1544,1544,1544,1543
91540869,1000,1000,1000,1000,140528766,1544,1544,1544,1544
91543368,1000,1000,1000,1000,140628726,1544,1544,1544,1544
91545867,1000,1000,1000,1000,140728686,1543,1543,1543,1544
91548366,1000,1000,1000,1000,140828646,1544,1544,1544,1544
91550865,1000,1000,1000,1000,140928606,1544,1544,1544,1544
91553364,1000,1000,1000,1000,141028566,1544,1543,1544,1544
91555863,1000,1000,1000,1000,141128526,1544,1544,1543,1544
91558362,1000,1000,1000,1000,141228486,1544,1543,1544,1543
91560861,1000,1000,1000,1000,141328446,1544,1544,1544,1544
91563360,1000,1000,1000,1000,141428406,1543,1544,1544,1544
91565859,1000,1000,1000,1000,141528366,1543,1544,1544,1544
91568358,1000,1000,1000,1000,141628326,1544,1544,1544,1544
91570857,1000,1000,1000,1000,141728286,1545,1544,1544,1544
91573356,1000,1000,1000,1000,141828246,1545,1544,1545,1544
91575855,1000,1000,1000,1000,141928206,1544,1544,1544,1544
91578354,1000,1000,1000,1000,142028166,1544,1545,1544,1544
91580853,1000,1000,1000,1000,142128959,1447,1447,1413,1412
91583352,1000,1000,1000,1000,142228919,1355,1355,1275,1273
91585851,1000,1000,1000,1000,142328879,1324,1324,1224,1222
91588350,1000,1000,1000,1000,142428839,1312,1313,1204,1202
91590849,1000,1000,1000,1000,142528799,1292,1292,1166,1164
91593348,1000,1000,1000,1000,142628759,1243,1244,1154,1150
91595847,1000,1000,1000,1000,142728719,1133,1133,1153,1150
91598346,1000,1000,1000,1000,142828679,1075,1075,1153,1150
91600845,1000,1000,1000,1000,142928639,1075,1075,1152,1150
91603344,1000,1000,1000,1000,143028599,1075,1075,1153,1150
91605843,1000,1000,1000,1000,143128559,1076,1056,1150,1178
91608342,1000,1000,1000,1000,143228519,1076,1064,1150,1167
91610841,1000,1000,1000,1000,143328479,1076,1067,1150,1162
91613340,1000,1000,1000,1000,143428439,1076,1068,1150,1161
91615839,1000,1000,1000,1000,143528399,1076,1068,1150,1161
91618338,1000,1000,1000,1000,143628359,1076,1068,1150,1161
91620837,1000,1000,1000,1000,143728319,1076,1067,1150,1162
91623336,1000,1000,1000,1000,143828279,1076,1067,1150,1163
91625835,1000,1000,1000,1000,143928239,1076,1076,1150,1150
91628334,1000,1000,1000,1000,144028199,1076,1075,1150,1151
91630833,1000,1000,1000,1000,144128159,1076,1075,1150,1152
91633332,1000,1000,1000,1000,144228952,1076,1074,1150,1152
91635831,1000,1000,1000,1000,144328912,1077,1074,1150,1152
91638330,1000,1000,1000,1000,144428872,1000,1000,1000,1000
91640829,1000,1000,1000,1000,144528832,1000,1000,1000,1000
91643328,1000,1000,1000,1000,144628792,1000,1000,1000,1000
91645827,1000,1000,1000,1000,144728752,1000,1000,1000,1000
91648326,1000,1000,1000,1000,144828712,1000,1000,1000,1000
91650825,1000,1000,1000,1000,144928672,1000,1000,1000,1000
91653324,1000,1000,1000,1000,145028632,1000,1000,1000,1000
91655823,1000,1000,1000,1000,145128592,1000,1000,1000,1000
91658322,1000,1000,1000,1000,145228552,1000,1000,1000,1000
91660821,1000,1000,1000,1000,145328512,1000,1000,1000,1000
91663320,1000,1000,1000,1000,145428472,1000,1000,1000,1000
91665819,1000,1000,1000,1000,145528432,1000,1000,1000,1000
91668318,1000,1000,1000,1000,145628392,1000,1000,1000,1000
91670817,1000,1000,1000,1000,145728352,1000,1000,1000,1000
91673316,1000,1000,1000,1000,145828312,1000,1000,1000,1000
91675815,1000,1000,1000,1000,145928272,1000,1000,1000,1000
91678314,1000,1000,1000,1000,146028232,1000,1000,1000,1000
91680813,1000,1000,1000,1000,146128192,1000,1000,1000,1000
91683312,1000,1000,1000,1000,146228985,1000,1000,1000,1000
91685811,1000,1000,1000,1000,146328945,1000,1000,1000,1000
91688310,1000,1000,1000,1000,146428905,1000,1000,1000,1000
91690809,1000,1000,1000,1000,146528865,1000,1000,1000,1000
91693308,1000,1000,1000,1000,146628825,1000,1000,1000,1000
91695807,1000,1000,1000,1000,146728785,1000,1000,1000,1000
91698306,1000,1000,1000,1000,146828745,1000,1000,1000,1000
91700805,1000,1000,1000,1000,146928705,1000,1000,1000,1000
91703304,1000,1000,1000,1000,147028665,1000,1000,1000,1000
91705803,1000,1000,1000,1000,147128625,1000,1000,1000,1000
91708302,1000,1000,1000,1000,147228585,1000,1000,1000,1000
91710801,1000,1000,1000,1000,147328545,1000,1000,1000,1000
91713300,1000,1000,1000,1000,147428505,1000,1000,1000,1000
91715799,1000,1000,1000,1000,147528465,1000,1000,1000,1000
91718298,1000,1000,1000,1000,147628425,1000,1000,1000,1000
91720797,1000,1000,1000,1000,147728385,1000,1000,1000,1000
91723296,1000,1000,1000,1000,147828345,1000,1000,1000,1000
91725795,1000,1000,1000,1000,147928305,1000,1000,1000,1000
91728294,1000,1000,1000,1000,148028265,1000,1000,1000,1000
91730793,1000,1000,1000,1000,148128225,1000,1000,1000,1000
91733292,1000,1000,1000,1000,148228185,1000,1000,1000,1000
91735791,1000,1000,1000,1000,148328978,1000,1000,1000,1000
91738290,1000,1000,1000,1000,148428938,1000,1000,1000,1000
91740789,1000,1000,1000,1000,148528898,1000,1000,1000,1000
91743288,1000,1000,1000,1000,148628858,1000,1000,1000,1000
91745787,1000,1000,1000,1000,148728818,1000,1000,1000,1000
91748286,1000,1000,1000,1000,148828778,1000,1000,1000,1000
91750785,1000,1000,1000,1000,148928738,1000,1000,1000,1000
91753284,1000,1000,1000,1000,149028698,1000,1000,1000,1000
91755783,1000,1000,1000,1000,149128658,1000,1000,1000,1000
91758282,1000,1000,1000,1000,149228618,1000,1000,1000,1000
91760781,1000,1000,1000,1000,149328578,1000,1000,1000,1000
91763280,1000,1000,1000,1000,149428538,1000,1000,1000,1000
91765779,1000,1000,1000,1000,149528498,1000,1000,1000,1000
91768278,1000,1000,1000,1000,149628458,1000,1000,1000,1000
91770777,1000,1000,1000,1000,149728418,1000,1000,1000,1000
91773276,1000,1000,1000,1000,149828378,1000,1000,1000,1000
91775775,1000,1000,1000,1000,149928338,1000,1000,1000,1000
91778274,1000,1000,1000,1000,150028298,1000,1000,1000,1000
91780773,1000,1000,1000,1000,150128258,1000,1000,1000,1000
91783272,1000,1000,1000,1000,150228218,1000,1000,1000,1000
91785771,1000,1000,1000,1000,150328178,1000,1000,1000,1000
91788270,1000,1000,1000,1000,150428971,1000,1000,1000,1000
91790769,1000,1000,1000,1000,150528931,1000,1000,1000,1000
91793268,1000,1000,1000,1000,150628891,1000,1000,1000,1000
91795767,1000,1000,1000,1000,150728851,1000,1000,1000,1000
91798266,1000,1000,1000,1000,150828811,1000,1000,1000,1000
91800765,1000,1000,1000,1000,150928771,1000,1000,1000,1000
91803264,1000,1000,1000,1000,151028731,1000,1000,1000,1000
91805763,1000,1000,1000,1000,151128691,1000,1000,1000,1000
91808262,1000,1000,1000,1000,151228651,1000,1000,1000,1000
91810761,1000,1000,1000,1000,151328611,1000,1000,1000,1000
91813260,1000,1000,1000,1000,151428571,1000,1000,1000,1000
91815759,1000,1000,1000,1000,151528531,1000,1000,1000,1000
91818258,1000,1000,1000,1000,151628491,1000,1000,1000,1000
91820757,1000,1000,1000,1000,151728451,1000,1000,1000,1000
91823256,1000,1000,1000,1000,151828411,1000,1000,1000,1000
91825755,1000,1000,1000,1000,151928371,1000,1000,1000,1000
91828254,1000,1000,1000,1000,152028331,1000,1000,1000,1000
91830753,1000,1000,1000,1000,152128291,1000,1000,1000,1000
91833252,1000,1000,1000,1000,152228251,1000,1000,1000,1000
91835751,1000,1000,1000,1000,152328211,1000,1000,1000,1000
91838250,1000,1000,1000,1000,152428171,1000,1000,1000,1000
91840749,1000,1000,1000,1000,152528964,1000,1000,1000,1000
91843248,1000,1000,1000,1000,152628924,1000,1000,1000,1000
91845747,1000,1000,1000,1000,152728884,1000,1000,1000,1000
91848246,1000,1000,1000,1000,152828844,1000,1000,1000,1000
91850745,1000,1000,1000,1000,152928804,1000,1000,1000,1000
91853244,1000,1000,1000,1000,153028764,1000,1000,1000,1000
91855743,1000,1000,1000,1000,153128724,1000,1000,1000,1000
91858242,1000,1000,1000,1000,153228684,1000,1000,1000,1000
91860741,1000,1000,1000,1000,153328644,1000,1000,1000,1000
91863240,1000,1000,1000,1000,153428604,1000,1000,1000,1000
91865739,1000,1000,1000,1000,153528564,1000,1000,1000,1000
91868238,1000,1000,1000,1000,153628524,1000,1000,1000,1000
91870737,1000,1000,1000,1000,153728484,1000,1000,1000,1000
91873236,1000,1000,1000,1000,153828444,1000,1000,1000,1000
91875735,1000,1000,1000,1000,153928404,1000,1000,1000,1000
91878234,1000,1000,1000,1000,154028364,1000,1000,1000,1000
91880733,1000,1000,1000,1000,154128324,1000,1000,1000,1000
91883232,1000,1000,1000,1000,154228284,1000,1000,1000,1000
91885731,1000,1000,1000,1000,154328244,1000,1000,1000,1000
91888230,1000,1000,1000,1000,154428204,1000,1000,1000,1000
91890729,1000,1000,1000,1000,154528164,1000,1000,1000,1000
91893228,1000,1000,1000,1000,154628957,1000,1000,1000,1000
91895727,1000,1000,1000,1000,154728917,1000,1000,1000,1000
91898226,1000,1000,1000,1000,154828877,1000,1000,1000,1000
91900725,1000,1000,1000,1000,154928837,1000,1000,1000,1000
91903224,1000,1000,1000,1000,155028797,1000,1000,1000,1000
91905723,1000,1000,1000,1000,155128757,1000,1000,1000,1000
91908222,1000,1000,1000,1000,155228717,1000,1000,1000,1000
91910721,1000,1000,1000,1000,155328677,1000,1000,1000,1000
91913220,1000,1000,1000,1000,155428637,1000,1000,1000,1000
91915719,1000,1000,1000,1000,155528597,1000,1000,1000,1000
91918218,1000,1000,1000,1000,155628557,1000,1000,1000,1000
91920717,1000,1000,1000,1000,155728517,1000,1000,1000,1000
91923216,1000,1000,1000,1000,155828477,1000,1000,1000,1000
91925715,1000,1000,1000,1000,155928437,1000,1000,1000,1000
91928214,1000,1000,1000,1000,156028397,1000,1000,1000,1000
91930713,1000,1000,1000,1000,156128357,1000,1000,1000,1000
91933212,1000,1000,1000,1000,156228317,1000,1000,1000,1000
91935711,1000,1000,1000,1000,156328277,1000,1000,1000,1000
91938210,1000,1000,1000,1000,156428237,1000,1000,1000,1000
91940709,1000,1000,1000,1000,156528197,1000,1000,1000,1000
91943208,1000,1000,1000,1000,156628157,1000,1000,1000,1000
91945707,1000,1000,1000,1000,156728950,1000,1000,1000,1000
91948206,1000,1000,1000,1000,156828910,1000,1000,1000,1000
91950705,1000,1000,1000,1000,156928870,1000,1000,1000,1000
91953204,1000,1000,1000,1000,157028830,1000,1000,1000,1000
91955703,1000,1000,1000,1000,157128790,1000,1000,1000,1000
91958202,1000,1000,1000,1000,157228750,1000,1000,1000,1000
91960701,1000,1000,1000,1000,157328710,1000,1000,1000,1000
91963200,1000,1000,1000,1000,157428670,1000,1000,1000,1000
91965699,1000,1000,1000,1000,157528630,1000,1000,1000,1000
91968198,1000,1000,1000,1000,157628590,1000,1000,1000,1000
91970697,1000,1000,1000,1000,157728550,1000,1000,1000,1000
91973196,1000,1000,1000,1000,157828510,1000,1000,1000,1000
91975695,1000,1000,1000,1000,157928470,1000,1000,1000,1000
91978194,1000,1000,1000,1000,158028430,1000,1000,1000,1000
91980693,1000,1000,1000,1000,158128390,1000,1000,1000,1000
91983192,1000,1000,1000,1000,158228350,1000,1000,1000,1000
91985691,1000,1000,1000,1000,158328310,1000,1000,1000,1000
91988190,1000,1000,1000,1000,158428270,1000,1000,1000,1000
91990689,1000,1000,1000,1000,158528230,1000,1000,1000,1000
91993188,1000,1000,1000,1000,158628190,1000,1000,1000,1000
91995687,1000,1000,1000,1000,158728983,1000,1000,1000,1000
91998186,1000,1000,1000,1000,158828943,1000,1000,1000,1000
92000685,1000,1000,1000,1000,158928903,1000,1000,1000,1000
92003184,1000,1000,1000,1000,159028863,1000,1000,1000,1000
92005683,1000,1000,1000,1000,159128823,1000,1000,1000,1000
92008182,1000,1000,1000,1000,159228783,1000,1000,1000,1000
92010681,1000,1000,1000,1000,159328743,1000,1000,1000,1000
92013180,1000,1000,1000,1000,,,,,
92015679,1000,1000,1000,1000,,,,,
92018178,1000,1000,1000,1000,,,,,
92020677,1000,1000,1000,1000,,,,,
92023176,1000,1000,1000,1000,,,,,
92025675,1000,1000,1000,1000,,,,,
92028174,1000,1000,1000,1000,,,,,
92030673,1000,1000,1000,1000,,,,,
92033172,1000,1000,1000,1000,,,,,
92035671,1000,1000,1000,1000,,,,,
92038170,1000,1000,1000,1000,,,,,
92040669,1000,1000,1000,1000,,,,,
92043168,1000,1000,1000,1000,,,,,
92045667,1000,1000,1000,1000,,,,,
92048166,1000,1000,1000,1000,,,,,
92050665,1000,1000,1000,1000,,,,,
92053164,1000,1000,1000,1000,,,,,
92055663,1000,1000,1000,1000,,,,,
92058162,1000,1000,1000,1000,,,,,
92060661,1000,1000,1000,1000,,,,,
92063160,1000,1000,1000,1000,,,,,
92065659,1000,1000,1000,1000,,,,,
92068158,1000,1000,1000,1000,,,,,
92070657,1000,1000,1000,1000,,,,,
92073156,1000,1000,1000,1000,,,,,
92075655,1000,1000,1000,1000,,,,,
92078154,1000,1000,1000,1000,,,,,
92081486,1000,1000,1000,1000,,,,,
92083985,1000,1000,1000,1000,,,,,
92086484,1000,1000,1000,1000,,,,,
92088983,1000,1000,1000,1000,,,,,
92091482,1000,1000,1000,1000,,,,,
92093981,1000,1000,1000,1000,,,,,
92096480,1000,1000,1000,1000,,,,,
92098979,1000,1000,1000,1000,,,,,
92101478,1000,1000,1000,1000,,,,,
92103977,1000,1000,1000,1000,,,,,
92106476,1000,1000,1000,1000,,,,,
92108975,1000,1000,1000,1000,,,,,
92111474,1000,1000,1000,1000,,,,,
92113973,1000,1000,1000,1000,,,,,
92116472,1000,1000,1000,1000,,,,,
92118971,1000,1000,1000,1000,,,,,
92121470,1000,1000,1000,1000,,,,,
92123969,1000,1000,1000,1000,,,,,
92126468,1000,1000,1000,1000,,,,,
92128967,1000,1000,1000,1000,,,,,
92131466,1000,1000,1000,1000,,,,,
92133965,1000,1000,1000,1000,,,,,
92136464,1000,1000,1000,1000,,,,,
92138963,1000,1000,1000,1000,,,,,
92141462,1000,1000,1000,1000,,,,,
92143961,1000,1000,1000,1000,,,,,
92146460,1000,1000,1000,1000,,,,,
92148959,1000,1000,1000,1000,,,,,
92151458,1000,1000,1000,1000,,,,,
92153957,1000,1000,1000,1000,,,,,
92156456,1000,1000,1000,1000,,,,,
92158955,1000,1000,1000,1000,,,,,
92161454,1000,1000,1000,1000,,,,,
92163953,1000,1000,1000,1000,,,,,
92166452,1000,1000,1000,1000,,,,,
92168951,1000,1000,1000,1000,,,,,
92171450,1000,1000,1000,1000,,,,,
92173949,1000,1000,1000,1000,,,,,
92176448,1000,1000,1000,1000,,,,,
92178947,1000,1000,1000,1000,,,,,
92181446,1000,1000,1000,1000,,,,,
92183945,1000,1000,1000,1000,,,,,
92186444,1000,1000,1000,1000,,,,,
92188943,1000,1000,1000,1000,,,,,
92191442,1000,1000,1000,1000,,,,,
92193941,1000,1000,1000,1000,,,,,
92196440,1000,1000,1000,1000,,,,,
92198939,1000,1000,1000,1000,,,,,
92201438,1000,1000,1000,1000,,,,,
92203937,1000,1000,1000,1000,,,,,
92206436,1000,1000,1000,1000,,,,,
92208935,1000,1000,1000,1000,,,,,
92211434,1000,1000,1000,1000,,,,,
92213933,1000,1000,1000,1000,,,,,
92216432,1000,1000,1000,1000,,,,,
92218931,1000,1000,1000,1000,,,,,
92221430,1000,1000,1000,1000,,,,,
92223929,1000,1000,1000,1000,,,,,
92226428,1000,1000,1000,1000,,,,,
92228927,1000,1000,1000,1000,,,,,
92231426,1000,1000,1000,1000,,,,,
92233925,1000,1000,1000,1000,,,,,
92236424,1000,1000,1000,1000,,,,,
92238923,1000,1000,1000,1000,,,,,
92241422,1000,1000,1000,1000,,,,,
92243921,1000,1000,1000,1000,,,,,
92246420,1000,1000,1000,1000,,,,,
92248919,1000,1000,1000,1000,,,,,
92251418,1000,1000,1000,1000,,,,,
92253917,1000,1000,1000,1000,,,,,
92256416,1000,1000,1000,1000,,,,,
92258915,1000,1000,1000,1000,,,,,
92261414,1000,1000,1000,1000,,,,,
92263913,1000,1000,1000,1000,,,,,
92266412,1000,1000,1000,1000,,,,,
92268911,1000,1000,1000,1000,,,,,
92271410,1000,1000,1000,1000,,,,,
92273909,1000,1000,1000,1000,,,,,
92276408,1000,1000,1000,1000,,,,,
92278907,1000,1000,1000,1000,,,,,
92281406,1000,1000,1000,1000,,,,,
92283905,1000,1000,1000,1000,,,,,
92286404,1000,1000,1000,1000,,,,,
92288903,1000,1000,1000,1000,,,,,
92291402,1000,1000,1000,1000,,,,,
92293901,1001,1001,1001,1001,,,,,
92296400,1002,1002,1002,1002,,,,,
92298899,1003,1003,1003,1003,,,,,
92301398,1003,1003,1003,1003,,,,,
92303897,1004,1004,1004,1004,,,,,
92306396,1005,1005,1005,1005,,,,,
92308895,1006,1006,1006,1006,,,,,
92311394,1006,1006,1006,1006,,,,,
92313893,1007,1007,1007,1007,,,,,
92316392,1008,1008,1008,1008,,,,,
92318891,1009,1009,1009,1009,,,,,
92321390,1009,1009,1009,1009,,,,,
92323889,1010,1010,1010,1010,,,,,
92326388,1011,1011,1011,1011,,,,,
92328887,1012,1012,1012,1012,,,,,
92331386,1012,1012,1012,1012,,,,,
92333885,1013,1013,1013,1013,,,,,
92336384,1014,1014,1014,1014,,,,,
92338883,1015,1015,1015,1015,,,,,
92341382,1015,1015,1015,1015,,,,,
92343881,1016,1016,1016,1016,,,,,
92346380,1017,1017,1017,1017,,,,,
92348879,1018,1018,1018,1018,,,,,
92351378,1018,1018,1018,1018,,,,,
92353877,1019,1019,1019,1019,,,,,
92356376,1020,1020,1020,1020,,,,,
92358875,1021,1021,1021,1021,,,,,
92361374,1021,1021,1021,1021,,,,,
92363873,1022,1022,1022,1022,,,,,
92366372,1023,1023,1023,1023,,,,,
92368871,1024,1024,1024,1024,,,,,
92371370,1024,1024,1024,1024,,,,,
92373869,1025,1025,1025,1025,,,,,
92376368,1026,1026,1026,1026,,,,,
92378867,1027,1027,1027,1027,,,,,
92381366,1027,1027,1027,1027,,,,,
92383865,1028,1028,1028,1028,,,,,
92386364,1029,1029,1029,1029,,,,,
92388863,1030,1030,1030,1030,,,,,
92391362,1030,1030,1030,1030,,,,,
92393861,1031,1031,1031,1031,,,,,
92396360,1032,1032,1032,1032,,,,,
92398859,1033,1033,1033,1033,,,,,
92401358,1033,1033,1033,1033,,,,,
92403857,1034,1034,1034,1034,,,,,
92406356,1035,1035,1035,1035,,,,,
92408855,1036,1036,1036,1036,,,,,
92411354,1036,1036,1036,1036,,,,,
92413853,1037,1037,1037,1037,,,,,
92416352,1038,1038,1038,1038,,,,,
92418851,1039,1039,1039,1039,,,,,
92421350,1039,1039,1039,1039,,,,,
92423849,1040,1040,1040,1040,,,,,
92426348,1041,1041,1041,1041,,,,,
92428847,1042,1042,1042,1042,,,,,
92431346,1042,1042,1042,1042,,,,,
92433845,1043,1043,1043,1043,,,,,
92436344,1044,1044,1044,1044,,,,,
92438843,1045,1045,1045,1045,,,,,
92441342,1045,1045,1045,1045,,,,,
92443841,1046,1046,1046,1046,,,,,
92446340,1047,1047,1047,1047,,,,,
92448839,1048,1048,1048,1048,,,,,
92451338,1048,1048,1048,1048,,,,,
92453837,1049,1049,1049,1049,,,,,
92456336,1050,1050,1050,1050,,,,,
92458835,1051,1051,1051,1051,,,,,
92461334,1051,1051,1051,1051,,,,,
92463833,1052,1052,1052,1052,,,,,
92466332,1053,1053,1053,1053,,,,,
92468831,1054,1054,1054,1054,,,,,
92471330,1054,1054,1054,1054,,,,,
92473829,1055,1055,1055,1055,,,,,
92476328,1056,1056,1056,1056,,,,,
92478827,1057,1057,1057,1057,,,,,
92481326,1057,1057,1057,1057,,,,,
92483825,1058,1058,1058,1058,,,,,
92486324,1059,1059,1059,1059,,,,,
92488823,1060,1060,1060,1060,,,,,
92491322,1060,1060,1060,1060,,,,,
92493821,1061,1061,1061,1061,,,,,
92496320,1062,1062,1062,1062,,,,,
92498819,1063,1063,1063,1063,,,,,
92501318,1063,1063,1063,1063,,,,,
92503817,1064,1064,1064,1064,,,,,
92506316,1065,1065,1065,1065,,,,,
92508815,1066,1066,1066,1066,,,,,
92511314,1066,1066,1066,1066,,,,,
92513813,1067,1067,1067,1067,,,,,
92516312,1068,1068,1068,1068,,,,,
92518811,1069,1069,1069,1069,,,,,
92521310,1069,1069,1069,1069,,,,,
92523809,1070,1070,1070,1070,,,,,
92526308,1071,1071,1071,1071,,,,,
92528807,1072,1072,1072,1072,,,,,
92531306,1072,1072,1072,1072,,,,,
92533805,1073,1073,1073,1073,,,,,
92536304,1074,1074,1074,1074,,,,,
92538803,1075,1075,1075,1075,,,,,
92541302,1075,1075,1075,1075,,,,,
92543801,1076,1076,1076,1076,,,,,
92546300,1077,1077,1077,1077,,,,,
92548799,1078,1078,1078,1078,,,,,
92551298,1078,1078,1078,1078,,,,,
92553797,1079,1079,1079,1079,,,,,
92556296,1080,1080,1080,1080,,,,,
92558795,1081,1081,1081,1081,,,,,
92561294,1081,1081,1081,1081,,,,,
92563793,1082,1082,1082,1082,,,,,
92566292,1083,1083,1083,1083,,,,,
92568791,1084,1084,1084,1084,,,,,
92571290,1084,1084,1084,1084,,,,,
92573789,1085,1085,1085,1085,,,,,
92576288,1086,1086,1086,1086,,,,,
92578787,1087,1087,1087,1087,,,,,
92581286,1087,1087,1087,1087,,,,,
92583785,1088,1088,1088,1088,,,,,
92586284,1089,1089,1089,1089,,,,,
92588783,1090,1090,1090,1090,,,,,
92591282,1090,1090,1090,1090,,,,,
92593781,1091,1091,1091,1091,,,,,
92596280,1092,1092,1092,1092,,,,,
92598779,1093,1093,1093,1093,,,,,
92601278,1093,1093,1093,1093,,,,,
92603777,1094,1094,1094,1094,,,,,
92606276,1095,1095,1095,1095,,,,,
92608775,1096,1096,1096,1096,,,,,
92611274,1096,1096,1096,1096,,,,,
92613773,1097,1097,1097,1097,,,,,
92616272,1098,1098,1098,1098,,,,,
92618771,1099,1099,1099,1099,,,,,
92621270,1099,1099,1099,1099,,,,,
92623769,1100,1100,1100,1100,,,,,
92626268,1101,1101,1101,1101,,,,,
92628767,1101,1101,1101,1101,,,,,
92631266,1102,1102,1102,1102,,,,,
92633765,1103,1103,1103,1103,,,,,
92636264,1104,1104,1104,1104,,,,,
92638763,1104,1104,1104,1104,,,,,
92641262,1105,1105,1105,1105,,,,,
92643761,1106,1106,1106,1106,,,,,
92646260,1107,1107,1107,1107,,,,,
92648759,1107,1107,1107,1107,,,,,
92651258,1108,1108,1108,1108,,,,,
92653757,1109,1109,1109,1109,,,,,
92656256,1110,1110,1110,1110,,,,,
92658755,1110,1110,1110,1110,,,,,
92661254,1111,1111,1111,1111,,,,,
92663753,1112,1112,1112,1112,,,,,
92666252,1113,1113,1113,1113,,,,,
92668751,1113,1113,1113,1113,,,,,
92671250,1114,1114,1114,1114,,,,,
92673749,1115,1115,1115,1115,,,,,
92676248,1116,1116,1116,1116,,,,,
92678747,1116,1116,1116,1116,,,,,
92681246,1117,1117,1117,1117,,,,,
92683745,1118,1118,1118,1118,,,,,
92686244,1119,1119,1119,1119,,,,,
92688743,1119,1119,1119,1119,,,,,
92691242,1120,1120,1120,1120,,,,,
92693741,1121,1121,1121,1121,,,,,
92696240,1122,1122,1122,1122,,,,,
92698739,1122,1122,1122,1122,,,,,
92701238,1123,1123,1123,1123,,,,,
92703737,1124,1124,1124,1124,,,,,
92706236,1125,1125,1125,1125,,,,,
92708735,1125,1125,1125,1125,,,,,
92711234,1126,1126,1126,1126,,,,,
92713733,1127,1127,1127,1127,,,,,
92716232,1128,1128,1128,1128,,,,,
92718731,1128,1128,1128,1128,,,,,
92721230,1129,1129,1129,1129,,,,,
92723729,1130,1130,1130,1130,,,,,
92726228,1131,1131,1131,1131,,,,,
92728727,1131,1131,1131,1131,,,,,
92731226,1132,1132,1132,1132,,,,,
92733725,1133,1133,1133,1133,,,,,
92736224,1134,1134,1134,1134,,,,,
92738723,1134,1134,1134,1134,,,,,
92741222,1135,1135,1135,1135,,,,,
92743721,1136,1136,1136,1136,,,,,
92746220,1137,1137,1137,1137,,,,,
92748719,1137,1137,1137,1137,,,,,
92751218,1138,1138,1138,1138,,,,,
92753717,1139,1139,1139,1139,,,,,
92756216,1140,1140,1140,1140,,,,,
92758715,1140,1140,1140,1140,,,,,
92761214,1141,1141,1141,1141,,,,,
92763713,1142,1142,1142,1142,,,,,
92766212,1143,1143,1143,1143,,,,,
92768711,1143,1143,1143,1143,,,,,
92771210,1144,1144,1144,1144,,,,,
92773709,1145,1145,1145,1145,,,,,
92776208,1146,1146,1146,1146,,,,,
92778707,1146,1146,1146,1146,,,,,
92781206,1147,1147,1147,1147,,,,,
92783705,1148,1148,1148,1148,,,,,
92786204,1149,1149,1149,1149,,,,,
92788703,1149,1149,1149,1149,,,,,
92791202,1150,1150,1150,1150,,,,,
92793701,1165,1150,1151,1165,,,,,
92796200,1173,1158,1159,1173,,,,,
92798699,1180,1166,1167,1181,,,,,
92801198,1188,1174,1175,1188,,,,,
92803697,1195,1182,1183,1196,,,,,
92806196,1203,1189,1190,1203,,,,,
92808695,1210,1197,1198,1211,,,,,
92811194,1217,1204,1205,1218,,,,,
92813693,1224,1211,1212,1225,,,,,
92816192,1231,1219,1219,1232,,,,,
92818691,1238,1226,1226,1239,,,,,
92821190,1245,1232,1233,1245,,,,,
92823689,1252,1239,1240,1252,,,,,
92826188,1258,1246,1247,1259,,,,,
92828687,1265,1253,1253,1265,,,,,
92831186,1271,1259,1260,1272,,,,,
92833685,1277,1266,1266,1278,,,,,
92836184,1284,1272,1273,1284,,,,,
92838683,1290,1278,1279,1290,,,,,
92841182,1296,1284,1285,1296,,,,,
92843681,1302,1291,1291,1303,,,,,
92846180,1308,1297,1298,1309,,,,,
92848679,1314,1303,1304,1314,,,,,
92851178,1320,1309,1309,1320,,,,,
92853677,1326,1315,1315,1326,,,,,
92856176,1331,1320,1321,1332,,,,,
92858675,1337,1326,1327,1338,,,,,
92861174,1343,1332,1333,1343,,,,,
92863673,1348,1337,1338,1349,,,,,
92866172,1354,1343,1344,1354,,,,,
92868671,1359,1349,1349,1360,,,,,
92871170,1365,1354,1355,1365,,,,,
92873669,1370,1359,1360,1371,,,,,
92876168,1376,1365,1366,1376,,,,,
92878667,1381,1370,1371,1381,,,,,
92881166,1386,1376,1376,1387,,,,,
92883665,1391,1381,1382,1392,,,,,
92886164,1397,1386,1387,1397,,,,,
92888663,1402,1391,1392,1402,,,,,
92891162,1407,1396,1397,1407,,,,,
92893661,1412,1401,1402,1412,,,,,
92896160,1417,1406,1407,1417,,,,,
92898659,1422,1411,1412,1422,,,,,
92901158,1427,1416,1417,1427,,,,,
92903657,1432,1421,1422,1432,,,,,
92906156,1437,1426,1427,1437,,,,,
92908655,1441,1431,1432,1442,,,,,
92911154,1446,1436,1437,1446,,,,,
92913653,1451,1441,1441,1451,,,,,
92916152,1456,1446,1446,1456,,,,,
92918651,1460,1450,1451,1461,,,,,
92921150,1465,1455,1456,1465,,,,,
92923649,1470,1460,1460,1470,,,,,
92926148,1474,1464,1465,1475,,,,,
92928647,1479,1469,1470,1479,,,,,
92931146,1484,1473,1474,1484,,,,,
92933645,1488,1478,1479,1488,,,,,
92936144,1493,1483,1483,1493,,,,,
92938643,1497,1487,1488,1497,,,,,
92941142,1501,1491,1492,1502,,,,,
92943641,1506,1496,1497,1506,,,,,
92946140,1510,1500,1501,1510,,,,,
92948639,1515,1505,1505,1515,,,,,
92951138,1519,1509,1510,1519,,,,,
92953637,1523,1514,1514,1523,,,,,
92956136,1527,1518,1519,1528,,,,,
92958635,1532,1522,1523,1532,,,,,
92961134,1536,1526,1527,1536,,,,,
92963633,1540,1531,1531,1540,,,,,
92966132,1544,1535,1536,1545,,,,,
92968631,1548,1539,1540,1549,,,,,
92971130,1553,1543,1544,1553,,,,,
92973629,1557,1548,1548,1557,,,,,
92976128,1561,1552,1552,1561,,,,,
92978627,1565,1556,1556,1565,,,,,
92981126,1569,1560,1560,1569,,,,,
92983625,1573,1564,1565,1573,,,,,
92986124,1577,1568,1569,1577,,,,,
92988623,1581,1572,1573,1581,,,,,
92991122,1585,1576,1577,1585,,,,,
92993621,1589,1580,1581,1589,,,,,
92996120,1593,1584,1585,1593,,,,,
92998619,1597,1588,1589,1597,,,,,
93001118,1601,1592,1592,1601,,,,,
93003617,1605,1596,1596,1605,,,,,
93006116,1609,1600,1600,1609,,,,,
93008615,1612,1604,1604,1613,,,,,
93011114,1616,1608,1608,1617,,,,,
93013613,1620,1611,1612,1621,,,,,
93016112,1624,1615,1616,1624,,,,,
93018611,1628,1619,1620,1628,,,,,
93021110,1632,1623,1623,1632,,,,,
93023609,1635,1627,1627,1636,,,,,
93026108,1639,1630,1631,1639,,,,,
93028607,1643,1634,1635,1643,,,,,
93031106,1646,1638,1638,1647,,,,,
93033605,1650,1642,1642,1651,,,,,
93036104,1654,1645,1646,1654,,,,,
93038603,1658,1649,1649,1658,,,,,
93041102,1661,1653,1653,1662,,,,,
93043601,1665,1656,1657,1665,,,,,
93046100,1668,1660,1660,1669,,,,,
93048599,1672,1664,1664,1673,,,,,
93051098,1676,1667,1668,1676,,,,,
93053597,1679,1671,1671,1680,,,,,
93056096,1683,1674,1675,1683,,,,,
93058595,1686,1678,1678,1687,,,,,
93061094,1690,1682,1682,1690,,,,,
93063593,1693,1685,1685,1694,,,,,
93066092,1697,1689,1689,1697,,,,,
93068591,1700,1692,1693,1701,,,,,
93071090,1704,1696,1696,1704,,,,,
93073589,1707,1699,1700,1708,,,,,
93076088,1711,1703,1703,1711,,,,,
93078587,1714,1706,1706,1715,,,,,
93081086,1718,1710,1710,1718,,,,,
93083585,1721,1713,1713,1722,,,,,
93086084,1725,1716,1717,1725,,,,,
93088583,1728,1720,1720,1729,,,,,
93091082,1731,1723,1724,1732,,,,,
93093581,1735,1727,1727,1735,,,,,
93096080,1738,1730,1730,1739,,,,,
93098579,1742,1733,1734,1742,,,,,
93101078,1745,1737,1737,1746,,,,,
93103577,1748,1740,1740,1749,,,,,
93106076,1752,1743,1744,1752,,,,,
93108575,1755,1747,1747,1756,,,,,
93111074,1758,1750,1750,1759,,,,,
93113573,1762,1753,1754,1762,,,,,
93116072,1765,1757,1757,1765,,,,,
93118571,1768,1760,1760,1769,,,,,
93121070,1771,1763,1763,1772,,,,,
93123569,1775,1766,1767,1775,,,,,
93126068,1778,1770,1770,1778,,,,,
93128567,1781,1773,1773,1782,,,,,
93131066,1784,1776,1776,1785,,,,,
93133565,1788,1779,1780,1788,,,,,
93136064,1791,1783,1783,1791,,,,,
93138563,1794,1786,1786,1794,,,,,
93141062,1797,1789,1789,1798,,,,,
93143561,1800,1792,1792,1801,,,,,
93146060,1804,1795,1796,1804,,,,,
93148559,1807,1798,1799,1807,,,,,
93151058,1810,1802,1802,1810,,,,,
93153557,1813,1805,1805,1813,,,,,
93156056,1816,1808,1808,1816,,,,,
93158555,1819,1811,1811,1819,,,,,
93161054,1822,1814,1815,1823,,,,,
93163553,1825,1817,1818,1826,,,,,
93166052,1828,1820,1821,1829,,,,,
93168551,1832,1823,1824,1832,,,,,
93171050,1835,1827,1827,1835,,,,,
93173549,1838,1830,1830,1838,,,,,
93176048,1841,1833,1833,1841,,,,,
93178547,1844,1836,1836,1844,,,,,
93181046,1847,1839,1839,1847,,,,,
93183545,1850,1842,1842,1850,,,,,
93186044,1853,1845,1845,1853,,,,,
93188543,1856,1848,1848,1856,,,,,
93191042,1859,1851,1851,1859,,,,,
93193541,1862,1854,1854,1862,,,,,
93196040,1865,1857,1857,1865,,,,,
93198539,1868,1860,1860,1868,,,,,
93201038,1871,1863,1863,1871,,,,,
93203537,1874,1866,1866,1874,,,,,
93206036,1877,1869,1869,1877,,,,,
93208535,1880,1872,1872,1880,,,,,
93211034,1882,1875,1875,1883,,,,,
93213533,1885,1878,1878,1886,,,,,
93216032,1888,1881,1881,1889,,,,,
93218531,1891,1883,1884,1891,,,,,
93221030,1890,1882,1883,1890,,,,,
93223529,1889,1881,1882,1889,,,,,
93226028,1888,1880,1881,1888,,,,,
93228527,1887,1879,1880,1887,,,,,
93231026,1886,1878,1879,1886,,,,,
93233525,1885,1877,1878,1885,,,,,
93236024,1884,1876,1877,1884,,,,,
93238523,1883,1875,1876,1884,,,,,
93241022,1883,1874,1875,1883,,,,,
93243521,1882,1874,1874,1882,,,,,
93246020,1881,1873,1874,1882,,,,,
93248519,1881,1872,1873,1881,,,,,
93251018,1880,1872,1872,1880,,,,,
93253517,1880,1871,1872,1880,,,,,
93256016,1880,1871,1871,1880,,,,,
93258515,1879,1871,1871,1879,,,,,
93261014,1879,1870,1871,1879,,,,,
93263513,1879,1870,1871,1879,,,,,
93266012,1879,1870,1871,1879,,,,,
93268511,1879,1870,1871,1879,,,,,
93271010,1879,1870,1871,1879,,,,,
93273509,1879,1870,1871,1879,,,,,
93276008,1879,1870,1871,1879,,,,,
93278507,1880,1871,1871,1880,,,,,
93281006,1880,1871,1871,1880,,,,,
93283505,1880,1871,1872,1881,,,,,
93286004,1881,1872,1872,1881,,,,,
93288503,1881,1873,1873,1881,,,,,
93291002,1882,1873,1874,1882,,,,,
93293501,1882,1874,1874,1882,,,,,
93296000,1882,1874,1875,1883,,,,,
93298499,1882,1875,1875,1883,,,,,
93300998,1883,1875,1876,1883,,,,,
93303497,1883,1875,1876,1883,,,,,
93305996,1882,1876,1876,1883,,,,,
93308495,1882,1876,1876,1883,,,,,
93310994,1882,1876,1876,1882,,,,,
93313493,1881,1875,1876,1882,,,,,
93315992,1881,1875,1875,1881,,,,,
93318491,1880,1874,1874,1880,,,,,
93320990,1879,1873,1873,1879,,,,,
93323489,1877,1872,1872,1878,,,,,
93325988,1876,1871,1871,1876,,,,,
93328487,1874,1869,1869,1875,,,,,
93330986,1873,1868,1868,1873,,,,,
93333485,1871,1866,1866,1872,,,,,
93335984,1869,1864,1864,1870,,,,,
93338483,1867,1862,1862,1868,,,,,
93340982,1865,1860,1860,1865,,,,,
93343481,1863,1858,1858,1863,,,,,
93345980,1860,1856,1856,1861,,,,,
93348479,1858,1853,1853,1858,,,,,
93350978,1855,1851,1851,1856,,,,,
93353477,1852,1848,1848,1853,,,,,
93355976,1850,1846,1846,1850,,,,,
93358475,1847,1843,1843,1847,,,,,
93360974,1844,1840,1840,1845,,,,,
93363473,1841,1837,1837,1842,,,,,
93365972,1838,1834,1834,1839,,,,,
93368471,1835,1831,1831,1835,,,,,
93370970,1832,1828,1828,1832,,,,,
93373469,1828,1825,1825,1829,,,,,
93375968,1825,1822,1822,1826,,,,,
93378467,1822,1819,1819,1822,,,,,
93380966,1818,1816,1816,1819,,,,,
93383465,1815,1812,1813,1816,,,,,
93385964,1812,1809,1809,1812,,,,,
93388463,1808,1806,1806,1809,,,,,
93390962,1805,1803,1803,1805,,,,,
93393461,1801,1799,1799,1802,,,,,
93395960,1798,1796,1796,1798,,,,,
93398459,1794,1792,1792,1795,,,,,
93400958,1791,1789,1789,1791,,,,,
93403457,1787,1785,1786,1788,,,,,
93405956,1783,1782,1782,1784,,,,,
93408455,1780,1779,1779,1781,,,,,
93410954,1776,1775,1775,1777,,,,,
93413453,1773,1772,1772,1774,,,,,
93415952,1769,1768,1769,1770,,,,,
93418451,1766,1765,1765,1766,,,,,
93420950,1762,1762,1762,1763,,,,,
93423449,1759,1758,1758,1760,,,,,
93425948,1756,1755,1755,1756,,,,,
93428447,1752,1752,1752,1753,,,,,
