TimeUS,M1,M2,M3,M4,TimeUS,C1,C2,C3,C4
65711205,1000,1000,1000,1000,65728698,1000,1000,1000,1000
65713704,1000,1000,1000,1000,65828658,1000,1000,1000,1000
65716203,1000,1000,1000,1000,65928618,1000,1000,1000,1000
65718702,1000,1000,1000,1000,66028578,1000,1000,1000,1000
65721201,1000,1000,1000,1000,66128538,1000,1000,1000,1000
65723700,1000,1000,1000,1000,66228498,1000,1000,1000,1000
65726199,1000,1000,1000,1000,66328458,1000,1000,1000,1000
65728698,1000,1000,1000,1000,66428418,1000,1000,1000,1000
65731197,1000,1000,1000,1000,66528378,1000,1000,1000,1000
65733696,1000,1000,1000,1000,66628338,1000,1000,1000,1000
65736195,1000,1000,1000,1000,66728298,1000,1000,1000,1000
65738694,1000,1000,1000,1000,66828258,1000,1000,1000,1000
65741193,1000,1000,1000,1000,66928218,1000,1000,1000,1000
65743692,1000,1000,1000,1000,67028178,1000,1000,1000,1000
65746191,1000,1000,1000,1000,67128971,1000,1000,1000,1000
65748690,1000,1000,1000,1000,67228931,1000,1000,1000,1000
65751189,1000,1000,1000,1000,67328891,1000,1000,1000,1000
65753688,1000,1000,1000,1000,67428851,1000,1000,1000,1000
65756187,1000,1000,1000,1000,67528811,1000,1000,1000,1000
65758686,1000,1000,1000,1000,67628771,1000,1000,1000,1000
65761185,1000,1000,1000,1000,67728731,1005,1005,1005,1005
65763684,1000,1000,1000,1000,67828691,1035,1035,1035,1035
65766183,1000,1000,1000,1000,67928651,1065,1065,1065,1065
65768682,1000,1000,1000,1000,68028611,1095,1095,1095,1095
65771181,1000,1000,1000,1000,68128571,1125,1125,1125,1125
65773680,1000,1000,1000,1000,68228531,1201,1191,1192,1202
65776179,1000,1000,1000,1000,68328491,1435,1428,1428,1436
65778678,1000,1000,1000,1000,68428451,1607,1601,1602,1608
65781177,1000,1000,1000,1000,68528411,1751,1744,1745,1751
65783676,1000,1000,1000,1000,68628371,1876,1870,1870,1876
65786175,1000,1000,1000,1000,68728331,1906,1901,1902,1906
65788674,1000,1000,1000,1000,68828291,1797,1795,1795,1797
65791173,1000,1000,1000,1000,68928251,1682,1683,1684,1683
65793672,1000,1000,1000,1000,69028211,1634,1638,1637,1635
65796171,1000,1000,1000,1000,69128171,1632,1635,1635,1632
65798670,1000,1000,1000,1000,69228964,1640,1642,1642,1640
65801169,1000,1000,1000,1000,69328924,1639,1640,1640,1639
65803668,1000,1000,1000,1000,69428884,1634,1632,1633,1633
65806167,1000,1000,1000,1000,69528844,1613,1612,1608,1616
65808666,1000,1000,1000,1000,69628804,1599,1598,1588,1608
65811165,1000,1000,1000,1000,69728764,1593,1592,1585,1600
65813664,1000,1000,1000,1000,69828724,1593,1593,1591,1595
65816163,1000,1000,1000,1000,69928684,1596,1596,1598,1594
65818662,1000,1000,1000,1000,70028644,1602,1602,1606,1598
65821161,1000,1000,1000,1000,70128604,1577,1578,1596,1559
65823660,1000,1000,1000,1000,70228564,1566,1567,1584,1550
65826159,1000,1000,1000,1000,70328524,1557,1557,1563,1552
65828658,1000,1000,1000,1000,70428484,1547,1547,1541,1555
65831157,1000,1000,1000,1000,70528444,1539,1538,1526,1552
65833656,1000,1000,1000,1000,70628404,1533,1532,1521,1545
65836155,1000,1000,1000,1000,70728364,1528,1527,1520,1534
65838654,1000,1000,1000,1000,70828324,1526,1526,1523,1528
65841153,1000,1000,1000,1000,70928284,1528,1527,1528,1526
65843652,1000,1000,1000,1000,71028244,1531,1531,1533,1528
65846151,1000,1000,1000,1000,71128204,1535,1535,1539,1531
65848650,1000,1000,1000,1000,71228164,1539,1539,1543,1535
65851149,1000,1000,1000,1000,71328957,1543,1543,1546,1540
65853648,1000,1000,1000,1000,71428917,1545,1545,1546,1544
65856147,1000,1000,1000,1000,71528877,1548,1548,1548,1549
65858646,1000,1000,1000,1000,71628837,1550,1550,1549,1552
65861145,1000,1000,1000,1000,71728797,1553,1553,1551,1555
65863644,1000,1000,1000,1000,71828757,1552,1552,1556,1560
65866143,1000,1000,1000,1000,71928717,1554,1554,1560,1562
65868642,1000,1000,1000,1000,72028677,1556,1557,1563,1563
65871141,1000,1000,1000,1000,72128637,1559,1559,1564,1564
65873640,1000,1000,1000,1000,72228597,1563,1563,1566,1565
65876139,1000,1000,1000,1000,72328557,1566,1566,1567,1565
65878638,1000,1000,1000,1000,72428517,1568,1568,1566,1565
65881137,1000,1000,1000,1000,72528477,1569,1569,1566,1566
65883636,1000,1000,1000,1000,72628437,1570,1570,1566,1566
65886135,1000,1000,1000,1000,72728397,1572,1571,1567,1568
65888634,1000,1000,1000,1000,72828357,1573,1574,1569,1570
65891133,1000,1000,1000,1000,72928317,1572,1573,1569,1569
65893632,1000,1000,1000,1000,73028277,1574,1574,1571,1571
65896131,1000,1000,1000,1000,73128237,1574,1574,1572,1572
65898630,1000,1000,1000,1000,73228197,1573,1574,1573,1572
65901129,1000,1000,1000,1000,73328157,1573,1573,1573,1572
65903628,1000,1000,1000,1000,73428950,1574,1574,1575,1574
65906127,1000,1000,1000,1000,73528910,1574,1574,1576,1575
65908626,1000,1000,1000,1000,73628870,1574,1575,1576,1575
65911125,1000,1000,1000,1000,73728830,1576,1576,1577,1577
65913624,1000,1000,1000,1000,73828790,1576,1576,1577,1577
65916123,1000,1000,1000,1000,73928750,1576,1576,1577,1577
65918622,1000,1000,1000,1000,74028710,1576,1576,1577,1577
65921121,1000,1000,1000,1000,74128670,1577,1576,1577,1577
65923620,1000,1000,1000,1000,74228630,1577,1577,1577,1577
65926119,1000,1000,1000,1000,74328590,1578,1577,1578,1578
65928618,1000,1000,1000,1000,74428550,1577,1577,1577,1577
65931117,1000,1000,1000,1000,74528510,1578,1578,1578,1578
65933616,1000,1000,1000,1000,74628470,1578,1578,1578,1578
65936115,1000,1000,1000,1000,74728430,1578,1578,1578,1578
65938614,1000,1000,1000,1000,74828390,1577,1578,1577,1577
65941113,1000,1000,1000,1000,74928350,1579,1578,1578,1578
65943612,1000,1000,1000,1000,75028310,1579,1579,1579,1579
65946111,1000,1000,1000,1000,75128270,1578,1578,1578,1579
65948610,1000,1000,1000,1000,75228230,1578,1579,1579,1579
65951109,1000,1000,1000,1000,75328190,1579,1578,1579,1579
65953608,1000,1000,1000,1000,75428983,1580,1579,1580,1580
65956107,1000,1000,1000,1000,75528943,1579,1579,1579,1579
65958606,1000,1000,1000,1000,75628903,1578,1578,1578,1579
65961105,1000,1000,1000,1000,75728863,1579,1579,1579,1579
65963604,1000,1000,1000,1000,75828823,1579,1579,1579,1579
65966103,1000,1000,1000,1000,75928783,1579,1579,1579,1579
65968602,1000,1000,1000,1000,76028743,1580,1580,1580,1580
65971101,1000,1000,1000,1000,76128703,1579,1579,1580,1579
65973600,1000,1000,1000,1000,76228663,1579,1579,1579,1579
65976099,1000,1000,1000,1000,76328623,1580,1580,1580,1580
65978598,1000,1000,1000,1000,76428583,1580,1580,1580,1580
65981097,1000,1000,1000,1000,76528543,1580,1579,1580,1580
65983596,1000,1000,1000,1000,76628503,1580,1580,1580,1580
65986095,1000,1000,1000,1000,76728463,1580,1580,1580,1580
65988594,1000,1000,1000,1000,76828423,1580,1580,1580,1580
65991093,1000,1000,1000,1000,76928383,1581,1581,1581,1581
65993592,1000,1000,1000,1000,77028343,1580,1580,1581,1580
65996091,1000,1000,1000,1000,77128303,1581,1581,1581,1581
65998590,1000,1000,1000,1000,77228263,1580,1580,1580,1580
66001089,1000,1000,1000,1000,77328223,1580,1580,1579,1580
66003588,1000,1000,1000,1000,77428183,1580,1580,1580,1581
66006087,1000,1000,1000,1000,77528976,1580,1580,1580,1580
66008586,1000,1000,1000,1000,77628936,1580,1580,1580,1580
66011085,1000,1000,1000,1000,77728896,1581,1581,1581,1581
66013584,1000,1000,1000,1000,77828856,1582,1581,1582,1581
66016083,1000,1000,1000,1000,77928816,1582,1582,1582,1582
66018582,1000,1000,1000,1000,78028776,1582,1582,1587,1576
66021081,1000,1000,1000,1000,78128736,1580,1582,1587,1573
66023580,1000,1000,1000,1000,78228696,1579,1581,1579,1573
66026079,1000,1000,1000,1000,78328656,1577,1580,1570,1572
66028578,1000,1000,1000,1000,78428616,1576,1579,1562,1569
66031077,1000,1000,1000,1000,78528576,1577,1578,1558,1565
66033576,1000,1000,1000,1000,78628536,1578,1578,1555,1560
66036075,1000,1000,1000,1000,78728496,1579,1577,1555,1556
66038574,1000,1000,1000,1000,78828456,1579,1578,1556,1554
66041073,1000,1000,1000,1000,78928416,1579,1579,1557,1554
66043572,1000,1000,1000,1000,79028376,1578,1578,1557,1554
66046071,1000,1000,1000,1000,79128336,1578,1578,1557,1555
66048570,1000,1000,1000,1000,79228296,1576,1578,1555,1554
66051069,1000,1000,1000,1000,79328256,1576,1577,1554,1554
66053568,1000,1000,1000,1000,79428216,1576,1577,1553,1553
66056067,1000,1000,1000,1000,79528176,1577,1578,1552,1552
66058566,1000,1000,1000,1000,79628969,1579,1580,1549,1550
66061065,1000,1000,1000,1000,79728929,1580,1581,1546,1546
66063564,1000,1000,1000,1000,79828889,1583,1584,1544,1543
66066063,1000,1000,1000,1000,79928849,1585,1586,1540,1540
66068562,1000,1000,1000,1000,80028809,1588,1589,1538,1537
66071061,1000,1000,1000,1000,80128769,1592,1592,1536,1535
66073560,1000,1000,1000,1000,80228729,1594,1594,1534,1535
66076059,1000,1000,1000,1000,80328689,1595,1594,1534,1535
66078558,1000,1000,1000,1000,80428649,1594,1594,1535,1537
66081057,1000,1000,1000,1000,80528609,1592,1592,1537,1540
66083556,1000,1000,1000,1000,80628569,1590,1589,1543,1546
66086055,1000,1000,1000,1000,80728529,1585,1583,1550,1553
66088554,1000,1000,1000,1000,80828489,1577,1574,1560,1562
66091053,1000,1000,1000,1000,80928449,1569,1565,1572,1574
66093552,1000,1000,1000,1000,81028409,1557,1554,1584,1586
66096051,1000,1000,1000,1000,81128369,1546,1543,1596,1596
66098550,1000,1000,1000,1000,81228329,1536,1535,1605,1605
66101049,1000,1000,1000,1000,81328289,1531,1531,1612,1611
66103548,1000,1000,1000,1000,81428249,1529,1531,1616,1615
66106047,1000,1000,1000,1000,81528209,1530,1532,1615,1613
66108546,1000,1000,1000,1000,81628169,1535,1538,1611,1610
66111045,1000,1000,1000,1000,81728962,1543,1545,1606,1606
66113544,1000,1000,1000,1000,81828922,1552,1553,1598,1599
66116043,1000,1000,1000,1000,81928882,1561,1561,1591,1591
66118542,1000,1000,1000,1000,82028842,1569,1568,1584,1583
66121041,1000,1000,1000,1000,82128802,1575,1575,1576,1575
66123540,1000,1000,1000,1000,82228762,1581,1581,1572,1571
66126039,1000,1000,1000,1000,82328722,1585,1584,1568,1568
66128538,1000,1000,1000,1000,82428682,1588,1587,1567,1567
66131037,1000,1000,1000,1000,82528642,1588,1587,1566,1567
66133536,1000,1000,1000,1000,82628602,1586,1586,1568,1568
66136035,1000,1000,1000,1000,82728562,1584,1583,1570,1569
66138534,1000,1000,1000,1000,82828522,1581,1580,1572,1572
66141033,1000,1000,1000,1000,82928482,1578,1578,1575,1575
66143532,1000,1000,1000,1000,83028442,1575,1576,1578,1578
66146031,1000,1000,1000,1000,83128402,1573,1574,1580,1580
66148530,1000,1000,1000,1000,83228362,1326,1328,1623,1628
66151029,1000,1000,1000,1000,83328322,1404,1410,1649,1655
66153528,1000,1000,1000,1000,83428282,1610,1619,1633,1630
66156027,1000,1000,1000,1000,83528242,1623,1628,1591,1580
66158526,1000,1000,1000,1000,83628202,1638,1636,1575,1567
66161025,1000,1000,1000,1000,83728162,1645,1637,1566,1564
66163524,1000,1000,1000,1000,83828955,1645,1635,1562,1565
66166023,1000,1000,1000,1000,83928915,1639,1630,1558,1565
66168522,1000,1000,1000,1000,84028875,1630,1625,1557,1564
66171021,1000,1000,1000,1000,84128835,1621,1620,1559,1564
66173520,1000,1000,1000,1000,84228795,1612,1615,1562,1564
66176019,1000,1000,1000,1000,84328755,1605,1608,1565,1566
66178518,1000,1000,1000,1000,84428715,1598,1601,1568,1567
66181017,1000,1000,1000,1000,84528675,1594,1595,1572,1569
66183516,1000,1000,1000,1000,84628635,1591,1590,1575,1573
66186015,1000,1000,1000,1000,84728595,1588,1586,1577,1576
66188514,1000,1000,1000,1000,84828555,1585,1582,1579,1578
66191013,1000,1000,1000,1000,84928515,1580,1579,1579,1580
66193512,1000,1000,1000,1000,85028475,1577,1577,1581,1581
66196011,1000,1000,1000,1000,85128435,1575,1576,1583,1582
66198510,1000,1000,1000,1000,85228395,1572,1574,1583,1582
66201009,1000,1000,1000,1000,85328355,1571,1573,1583,1582
66203508,1000,1000,1000,1000,85428315,1571,1573,1584,1583
66206007,1000,1000,1000,1000,85528275,1572,1574,1585,1585
66208506,1000,1000,1000,1000,85628235,1573,1574,1585,1584
66211005,1000,1000,1000,1000,85728195,1574,1575,1585,1584
66213504,1000,1000,1000,1000,85828155,1575,1575,1584,1584
66216003,1000,1000,1000,1000,85928948,1576,1576,1583,1583
66218502,1000,1000,1000,1000,86028908,1577,1576,1586,1579
66221001,1000,1000,1000,1000,86128868,1579,1578,1588,1574
66223500,1000,1000,1000,1000,86228828,1579,1579,1581,1574
66225999,1000,1000,1000,1000,86328788,1578,1578,1571,1572
66228498,1000,1000,1000,1000,86428748,1576,1577,1562,1568
66230997,1000,1000,1000,1000,86528708,1575,1578,1557,1564
66233496,1000,1000,1000,1000,86628668,1576,1578,1555,1559
66235995,1000,1000,1000,1000,86728628,1576,1577,1555,1556
66238494,1000,1000,1000,1000,86828588,1577,1578,1555,1554
66240993,1000,1000,1000,1000,86928548,1578,1577,1555,1553
66243492,1000,1000,1000,1000,87028508,1577,1577,1554,1552
66245991,1000,1000,1000,1000,87128468,1577,1577,1553,1552
66248490,1000,1000,1000,1000,87228428,1577,1577,1552,1551
66250989,1000,1000,1000,1000,87328388,1577,1578,1551,1551
66253488,1000,1000,1000,1000,87428348,1575,1576,1548,1548
66255987,1000,1000,1000,1000,87528308,1577,1578,1548,1549
66258486,1000,1000,1000,1000,87628268,1577,1579,1546,1546
66260985,1000,1000,1000,1000,87728228,1579,1580,1545,1545
66263484,1000,1000,1000,1000,87828188,1581,1582,1543,1543
66265983,1000,1000,1000,1000,87928981,1583,1584,1541,1541
66268482,1000,1000,1000,1000,88028941,1585,1586,1540,1539
66270981,1000,1000,1000,1000,88128901,1587,1588,1538,1538
66273480,1000,1000,1000,1000,88228861,1589,1588,1537,1537
66275979,1000,1000,1000,1000,88328821,1590,1589,1538,1538
66278478,1000,1000,1000,1000,88428781,1590,1588,1539,1540
66280977,1000,1000,1000,1000,88528741,1588,1587,1540,1543
66283476,1000,1000,1000,1000,88628701,1586,1586,1545,1548
66285975,1000,1000,1000,1000,88728661,1583,1582,1548,1552
66288474,1000,1000,1000,1000,88828621,1578,1578,1555,1558
66290973,1000,1000,1000,1000,88928581,1573,1571,1563,1565
66293472,1000,1000,1000,1000,89028541,1565,1563,1570,1573
66295971,1000,1000,1000,1000,89128501,1558,1555,1579,1581
66298470,1000,1000,1000,1000,89228461,1551,1548,1590,1591
66300969,1000,1000,1000,1000,89328421,1542,1540,1600,1599
66303468,1000,1000,1000,1000,89428381,1535,1534,1607,1606
66305967,1000,1000,1000,1000,89528341,1530,1531,1611,1609
66308466,1000,1000,1000,1000,89628301,1530,1532,1612,1611
66310965,1000,1000,1000,1000,89728261,1533,1535,1610,1610
66313464,1000,1000,1000,1000,89828221,1538,1540,1604,1604
66315963,1000,1000,1000,1000,89928181,1545,1547,1597,1598
66318462,1000,1000,1000,1000,90028974,1554,1555,1590,1590
66320961,1000,1000,1000,1000,90128934,1563,1563,1583,1582
66323460,1000,1000,1000,1000,90228894,1572,1571,1578,1577
66325959,1000,1000,1000,1000,90328854,1579,1578,1572,1571
66328458,1000,1000,1000,1000,90428814,1584,1583,1569,1568
66330957,1000,1000,1000,1000,90528774,1588,1586,1567,1566
66333456,1000,1000,1000,1000,90628734,1589,1587,1566,1566
66335955,1000,1000,1000,1000,90728694,1589,1587,1567,1567
66338454,1000,1000,1000,1000,90828654,1587,1586,1569,1569
66340953,1000,1000,1000,1000,90928614,1585,1586,1571,1572
66343452,1000,1000,1000,1000,91028574,1583,1583,1573,1573
66345951,1000,1000,1000,1000,91128534,1581,1581,1576,1576
66348450,1000,1000,1000,1000,91228494,1579,1579,1578,1578
66350949,1000,1000,1000,1000,91328454,1577,1577,1580,1579
66353448,1000,1000,1000,1000,91428414,1575,1576,1582,1582
66355947,1000,1000,1000,1000,91528374,1575,1574,1583,1583
66358446,1000,1000,1000,1000,91628334,1573,1574,1584,1583
66360945,1000,1000,1000,1000,91728294,1573,1574,1584,1584
66363444,1000,1000,1000,1000,91828254,1573,1573,1582,1582
66365943,1000,1000,1000,1000,91928214,1574,1574,1582,1582
66368442,1000,1000,1000,1000,92028174,1577,1577,1582,1582
66370941,1000,1000,1000,1000,92128967,1577,1577,1581,1580
66373440,1000,1000,1000,1000,92228927,1579,1579,1580,1580
66375939,1000,1000,1000,1000,92328887,1580,1580,1579,1578
66378438,1000,1000,1000,1000,92428847,1581,1582,1579,1579
66380937,1000,1000,1000,1000,92528807,1582,1582,1578,1578
66383436,1000,1000,1000,1000,92628767,1583,1583,1579,1579
66385935,1000,1000,1000,1000,92728727,1584,1583,1579,1579
66388434,1000,1000,1000,1000,92828687,1583,1582,1578,1578
66390933,1000,1000,1000,1000,92928647,1582,1582,1579,1579
66393432,1000,1000,1000,1000,93028607,1583,1583,1580,1580
66395931,1000,1000,1000,1000,93128567,1582,1582,1580,1580
66398430,1000,1000,1000,1000,93228527,1582,1582,1581,1581
66400929,1000,1000,1000,1000,93328487,1581,1581,1581,1581
66403428,1000,1000,1000,1000,93428447,1580,1581,1581,1581
66405927,1000,1000,1000,1000,93528407,1580,1580,1581,1581
66408426,1000,1000,1000,1000,93628367,1580,1580,1581,1581
66410925,1000,1000,1000,1000,93728327,1579,1579,1581,1581
66413424,1000,1000,1000,1000,93828287,1579,1579,1580,1580
66415923,1000,1000,1000,1000,93928247,1578,1579,1580,1580
66418422,1000,1000,1000,1000,94028207,1579,1579,1579,1580
66420921,1000,1000,1000,1000,94128167,1580,1580,1581,1581
66423420,1000,1000,1000,1000,94228960,1580,1580,1581,1580
66425919,1000,1000,1000,1000,94328920,1580,1580,1580,1580
66428418,1000,1000,1000,1000,94428880,1580,1580,1580,1580
66430917,1000,1000,1000,1000,94528840,1581,1581,1580,1580
66433416,1000,1000,1000,1000,94628800,1581,1582,1587,1573
66435915,1000,1000,1000,1000,94728760,1581,1583,1584,1573
66438414,1000,1000,1000,1000,94828720,1580,1582,1576,1573
66440913,1000,1000,1000,1000,94928680,1578,1580,1566,1570
66443412,1000,1000,1000,1000,95028640,1577,1580,1561,1567
66445911,1000,1000,1000,1000,95128600,1577,1580,1556,1562
66448410,1000,1000,1000,1000,95228560,1579,1579,1555,1558
66450909,1000,1000,1000,1000,95328520,1580,1579,1555,1556
66453408,1000,1000,1000,1000,95428480,1578,1578,1555,1553
66455907,1000,1000,1000,1000,95528440,1578,1578,1556,1553
66458406,1000,1000,1000,1000,95628400,1577,1577,1555,1553
66460905,1000,1000,1000,1000,95728360,1577,1577,1555,1555
66463404,1000,1000,1000,1000,95828320,1575,1576,1554,1554
66465903,1000,1000,1000,1000,95928280,1575,1576,1553,1553
66468402,1000,1000,1000,1000,96028240,1574,1576,1552,1552
66470901,1000,1000,1000,1000,96128200,1576,1577,1551,1550
66473400,1000,1000,1000,1000,96228160,1577,1578,1548,1548
66475899,1000,1000,1000,1000,96328953,1579,1580,1546,1546
66478398,1000,1000,1000,1000,96428913,1582,1583,1545,1544
66480897,1000,1000,1000,1000,96528873,1585,1585,1543,1543
66483396,1000,1000,1000,1000,96628833,1587,1588,1541,1540
66485895,1000,1000,1000,1000,96728793,1589,1589,1539,1539
66488394,1000,1000,1000,1000,96828753,1590,1590,1538,1538
66490893,1000,1000,1000,1000,96928713,1591,1591,1538,1539
66493392,1000,1000,1000,1000,97028673,1591,1592,1540,1542
66495891,1000,1000,1000,1000,97128633,1590,1590,1542,1545
66498390,1000,1000,1000,1000,97228593,1588,1587,1546,1549
66500889,1000,1000,1000,1000,97328553,1584,1582,1553,1556
66503388,1000,1000,1000,1000,97428513,1579,1576,1563,1566
66505887,1000,1000,1000,1000,97528473,1570,1566,1573,1575
66508386,1000,1000,1000,1000,97628433,1560,1556,1583,1584
66510885,1000,1000,1000,1000,97728393,1551,1548,1594,1595
66513384,1000,1000,1000,1000,97828353,1542,1541,1603,1603
66515883,1000,1000,1000,1000,97928313,1536,1537,1609,1608
66518382,1000,1000,1000,1000,98028273,1533,1535,1611,1610
66520881,1000,1000,1000,1000,98128233,1533,1536,1611,1610
66523380,1000,1000,1000,1000,98228193,1536,1539,1608,1607
66525879,1000,1000,1000,1000,98328986,1542,1544,1603,1603
66528378,1000,1000,1000,1000,98428946,1550,1552,1598,1597
66530877,1000,1000,1000,1000,98528906,1558,1559,1591,1591
66533376,1000,1000,1000,1000,98628866,1566,1566,1584,1583
66535875,1000,1000,1000,1000,98728826,1573,1572,1578,1577
66538374,1000,1000,1000,1000,98828786,1580,1578,1573,1573
66540873,1000,1000,1000,1000,98928746,1584,1582,1570,1569
66543372,1000,1000,1000,1000,99028706,1586,1586,1567,1568
66545871,1000,1000,1000,1000,99128666,1588,1586,1567,1567
66548370,1000,1000,1000,1000,99228626,1588,1586,1567,1568
66550869,1000,1000,1000,1000,99328586,1586,1585,1569,1569
66553368,1000,1000,1000,1000,99428546,1585,1584,1573,1572
66555867,1000,1000,1000,1000,99528506,1582,1582,1575,1575
66558366,1000,1000,1000,1000,99628466,1579,1580,1577,1577
66560865,1000,1000,1000,1000,99728426,1577,1577,1580,1580
66563364,1000,1000,1000,1000,99828386,1575,1575,1581,1581
66565863,1000,1000,1000,1000,99928346,1574,1575,1583,1584
66568362,1000,1000,1000,1000,100028306,1573,1574,1584,1583
66570861,1000,1000,1000,1000,100128266,1573,1574,1585,1584
66573360,1000,1000,1000,1000,100228226,1574,1575,1584,1584
66575859,1000,1000,1000,1000,100328186,1575,1575,1583,1583
66578358,1000,1000,1000,1000,100428979,1576,1576,1582,1582
66580857,1000,1000,1000,1000,100528939,1577,1577,1580,1580
66583356,1000,1000,1000,1000,100628899,1578,1578,1579,1579
66585855,1000,1000,1000,1000,100728859,1579,1579,1579,1579
66588354,1000,1000,1000,1000,100828819,1581,1581,1578,1579
66590853,1000,1000,1000,1000,100928779,1581,1581,1577,1577
66593352,1000,1000,1000,1000,101028739,1582,1581,1578,1577
66595851,1000,1000,1000,1000,101128699,1583,1582,1578,1578
66598350,1000,1000,1000,1000,101228659,1583,1582,1579,1578
66600849,1000,1000,1000,1000,101328619,1582,1582,1579,1579
66603348,1000,1000,1000,1000,101428579,1581,1582,1579,1579
66605847,1000,1000,1000,1000,101528539,1581,1581,1580,1580
66608346,1000,1000,1000,1000,101628499,1581,1581,1581,1580
66610845,1000,1000,1000,1000,101728459,1581,1581,1582,1582
66613344,1000,1000,1000,1000,101828419,1580,1580,1581,1581
66615843,1000,1000,1000,1000,101928379,1579,1580,1581,1581
66618342,1000,1000,1000,1000,102028339,1580,1581,1582,1582
66620841,1000,1000,1000,1000,102128299,1580,1580,1582,1582
66623340,1000,1000,1000,1000,102228259,1582,1581,1583,1583
66625839,1000,1000,1000,1000,102328219,1581,1581,1583,1582
66628338,1000,1000,1000,1000,102428179,1581,1581,1582,1582
66630837,1000,1000,1000,1000,102528972,1581,1582,1582,1582
66633336,1000,1000,1000,1000,102628932,1582,1583,1588,1575
66635835,1000,1000,1000,1000,102728892,1581,1581,1586,1574
66638334,1000,1000,1000,1000,102828852,1579,1579,1579,1575
66640833,1000,1000,1000,1000,102928812,1576,1575,1571,1574
66643332,1000,1000,1000,1000,103028772,1573,1573,1566,1574
66645831,1000,1000,1000,1000,103128732,1570,1570,1564,1571
66648330,1000,1000,1000,1000,103228692,1568,1569,1565,1568
66650829,1000,1000,1000,1000,103328652,1567,1568,1566,1566
66653328,1000,1000,1000,1000,103428612,1566,1567,1567,1565
66655827,1000,1000,1000,1000,103528572,1565,1566,1567,1565
66658326,1000,1000,1000,1000,103628532,1564,1565,1567,1564
66660825,1000,1000,1000,1000,103728492,1564,1564,1566,1565
66663324,1000,1000,1000,1000,103828452,1563,1563,1564,1564
66665823,1000,1000,1000,1000,103928412,1562,1562,1563,1563
66668322,1000,1000,1000,1000,104028372,1562,1562,1563,1563
66670821,1000,1000,1000,1000,104128332,1562,1562,1563,1563
66673320,1000,1000,1000,1000,104228292,1562,1562,1563,1563
66675819,1000,1000,1000,1000,104328252,1561,1562,1563,1562
66678318,1000,1000,1000,1000,104428212,1561,1561,1562,1561
66680817,1000,1000,1000,1000,104528172,1560,1560,1560,1560
66683316,1000,1000,1000,1000,104628965,1559,1559,1559,1558
66685815,1000,1000,1000,1000,104728925,1559,1559,1559,1558
66688314,1000,1000,1000,1000,104828885,1559,1559,1558,1557
66690813,1000,1000,1000,1000,104928845,1558,1558,1558,1557
66693312,1000,1000,1000,1000,105028805,1558,1558,1558,1557
66695811,1000,1000,1000,1000,105128765,1558,1558,1559,1557
66698310,1000,1000,1000,1000,105228725,1558,1558,1560,1557
66700809,1000,1000,1000,1000,105328685,1559,1559,1560,1558
66703308,1000,1000,1000,1000,105428645,1559,1558,1559,1559
66705807,1000,1000,1000,1000,105528605,1560,1559,1558,1563
66708306,1000,1000,1000,1000,105628565,1560,1560,1557,1564
66710805,1000,1000,1000,1000,105728525,1561,1562,1558,1565
66713304,1000,1000,1000,1000,105828485,1561,1562,1560,1564
66715803,1000,1000,1000,1000,105928445,1561,1561,1561,1561
66718302,1000,1000,1000,1000,106028405,1559,1560,1561,1557
66720801,1000,1000,1000,1000,106128365,1561,1561,1559,1561
66723300,1000,1000,1000,1000,106228325,1558,1557,1555,1558
66725799,1000,1000,1000,1000,106328285,1556,1555,1553,1554
66728298,1000,1000,1000,1000,106428245,1550,1550,1548,1548
66730797,1000,1000,1000,1000,106528205,1544,1544,1542,1542
66733296,1000,1000,1000,1000,106628165,1537,1537,1534,1534
66735795,1000,1000,1000,1000,106728958,1529,1530,1527,1527
66738294,1000,1000,1000,1000,106828918,1523,1524,1521,1521
66740793,1000,1000,1000,1000,106928878,1521,1521,1520,1520
66743292,1000,1000,1000,1000,107028838,1520,1519,1519,1520
66745791,1000,1000,1000,1000,107128798,1521,1520,1522,1522
66748290,1000,1000,1000,1000,107228758,1522,1522,1525,1525
66750789,1000,1000,1000,1000,107328718,1526,1525,1530,1530
66753288,1000,1000,1000,1000,107428678,1529,1529,1534,1534
66755787,1000,1000,1000,1000,107528638,1534,1534,1538,1539
66758286,1000,1000,1000,1000,107628598,1537,1538,1542,1542
66760785,1000,1000,1000,1000,107728558,1540,1540,1543,1543
66763284,1000,1000,1000,1000,107828518,1543,1544,1545,1545
66765783,1000,1000,1000,1000,107928478,1545,1545,1545,1545
66768282,1000,1000,1000,1000,108028438,1546,1546,1545,1545
66770781,1000,1000,1000,1000,108128398,1547,1547,1545,1545
66773280,1000,1000,1000,1000,108228358,1548,1548,1545,1545
66775779,1000,1000,1000,1000,108328318,1549,1548,1546,1545
66778278,1000,1000,1000,1000,108428278,1548,1548,1545,1545
66780777,1000,1000,1000,1000,108528238,1548,1547,1545,1545
66783276,1000,1000,1000,1000,108628198,1547,1547,1544,1544
66785775,1000,1000,1000,1000,108728158,1546,1546,1544,1544
66788274,1000,1000,1000,1000,108828951,1546,1546,1545,1544
66790773,1000,1000,1000,1000,108928911,1545,1545,1545,1545
66793272,1000,1000,1000,1000,109028871,1544,1545,1545,1545
66795771,1000,1000,1000,1000,109128831,1544,1544,1545,1544
66798270,1000,1000,1000,1000,109228791,1543,1543,1545,1544
66800769,1000,1000,1000,1000,109328751,1544,1543,1544,1544
66803268,1000,1000,1000,1000,109428711,1543,1543,1545,1545
66805767,1000,1000,1000,1000,109528671,1543,1543,1544,1544
66808266,1000,1000,1000,1000,109628631,1543,1543,1545,1544
66810765,1000,1000,1000,1000,109728591,1544,1543,1544,1544
66813264,1000,1000,1000,1000,109828551,1543,1544,1544,1544
66815763,1000,1000,1000,1000,109928511,1544,1544,1544,1544
66818262,1000,1000,1000,1000,110028471,1543,1543,1543,1543
66820761,1000,1000,1000,1000,110128431,1544,1544,1543,1544
66823260,1000,1000,1000,1000,110228391,1544,1545,1544,1544
66825759,1000,1000,1000,1000,110328351,1545,1544,1544,1544
66828258,1000,1000,1000,1000,110428311,1544,1544,1543,1543
66830757,1000,1000,1000,1000,110528271,1544,1543,1543,1543
66833256,1000,1000,1000,1000,110628231,1544,1545,1544,1543
66835755,1000,1000,1000,1000,110728191,1544,1544,1543,1543
66838254,1000,1000,1000,1000,110828984,1544,1544,1544,1544
66840753,1000,1000,1000,1000,110928944,1544,1543,1544,1544
66843252,1000,1000,1000,1000,111028904,1543,1543,1543,1543
66845751,1000,1000,1000,1000,111128864,1544,1544,1544,1544
66848250,1000,1000,1000,1000,111228824,1544,1544,1545,1544
66850749,1000,1000,1000,1000,111328784,1544,1543,1544,1544
66853248,1000,1000,1000,1000,111428744,1544,1544,1544,1544
66855747,1000,1000,1000,1000,111528704,1545,1544,1545,1545
66858246,1000,1000,1000,1000,111628664,1544,1545,1544,1544
66860745,1000,1000,1000,1000,111728624,1544,1544,1544,1544
66863244,1000,1000,1000,1000,111828584,1544,1544,1544,1544
66865743,1000,1000,1000,1000,111928544,1544,1544,1543,1544
66868242,1000,1000,1000,1000,112028504,1544,1544,1543,1544
66870741,1000,1000,1000,1000,112128464,1544,1544,1543,1544
66873240,1000,1000,1000,1000,112228424,1544,1544,1544,1544
66875739,1000,1000,1000,1000,112328384,1544,1544,1544,1544
66878238,1000,1000,1000,1000,112428344,1544,1544,1544,1544
66880737,1000,1000,1000,1000,112528304,1544,1544,1544,1544
66883236,1000,1000,1000,1000,112628264,1544,1544,1544,1544
66885735,1000,1000,1000,1000,112728224,1544,1544,1544,1544
66888234,1000,1000,1000,1000,112828184,1544,1544,1544,1544
66890733,1000,1000,1000,1000,112928977,1543,1543,1543,1544
66893232,1000,1000,1000,1000,113028937,1544,1544,1544,1544
66895731,1000,1000,1000,1000,113128897,1545,1545,1545,1545
66898230,1000,1000,1000,1000,113228857,1545,1545,1545,1545
66900729,1000,1000,1000,1000,113328817,1544,1544,1544,1545
66903228,1000,1000,1000,1000,113428777,1544,1544,1545,1544
66905727,1000,1000,1000,1000,113528737,1544,1544,1544,1544
66908226,1000,1000,1000,1000,113628697,1545,1545,1545,1545
66910725,1000,1000,1000,1000,113728657,1545,1544,1544,1545
66913224,1000,1000,1000,1000,113828617,1545,1544,1544,1544
66915723,1000,1000,1000,1000,113928577,1545,1544,1544,1545
66918222,1000,1000,1000,1000,114028537,1544,1545,1545,1544
66920721,1000,1000,1000,1000,114128497,1544,1544,1544,1544
66923220,1000,1000,1000,1000,114228457,1544,1544,1543,1543
66925719,1000,1000,1000,1000,114328417,1544,1543,1543,1543
66928218,1000,1000,1000,1000,114428377,1544,1544,1544,1544
66930717,1000,1000,1000,1000,114528337,1545,1545,1545,1545
66933216,1000,1000,1000,1000,114628297,1545,1544,1545,1545
66935715,1000,1000,1000,1000,114728257,1545,1545,1544,1545
66938214,1000,1000,1000,1000,114828217,1545,1545,1545,1545
66940713,1000,1000,1000,1000,114928177,1545,1545,1545,1545
66943212,1000,1000,1000,1000,115028970,1544,1545,1544,1544
66945711,1000,1000,1000,1000,115128930,1545,1545,1545,1545
66948210,1000,1000,1000,1000,115228890,1545,1545,1545,1545
66950709,1000,1000,1000,1000,115328850,1544,1544,1544,1544
66953208,1000,1000,1000,1000,115428810,1544,1545,1545,1544
66955707,1000,1000,1000,1000,115528770,1545,1545,1545,1544
66958206,1000,1000,1000,1000,115628730,1543,1543,1543,1543
66960705,1000,1000,1000,1000,115728690,1545,1544,1544,1545
66963204,1000,1000,1000,1000,115828650,1544,1544,1543,1544
66965703,1000,1000,1000,1000,115928610,1544,1544,1543,1544
66968202,1000,1000,1000,1000,116028570,1543,1543,1543,1543
66970701,1000,1000,1000,1000,116128530,1543,1543,1543,1543
66973200,1000,1000,1000,1000,116228490,1544,1544,1544,1544
66975699,1000,1000,1000,1000,116328450,1544,1544,1544,1544
66978198,1000,1000,1000,1000,116428410,1544,1544,1544,1544
66980697,1000,1000,1000,1000,116528370,1532,1532,1528,1531
66983196,1000,1000,1000,1000,116628330,1377,1380,1339,1339
66985695,1000,1000,1000,1000,116728290,1305,1308,1241,1240
66988194,1000,1000,1000,1000,116828250,1284,1287,1211,1209
66990693,1000,1000,1000,1000,116928210,1268,1270,1186,1185
66993192,1000,1000,1000,1000,117028170,1245,1248,1151,1150
66995691,1000,1000,1000,1000,117128963,1174,1176,1150,1150
66998190,1000,1000,1000,1000,117228923,1174,1176,1151,1150
67000689,1000,1000,1000,1000,117328883,1174,1176,1150,1150
67003188,1000,1000,1000,1000,117428843,1175,1163,1150,1167
67005687,1000,1000,1000,1000,117528803,1175,1162,1150,1168
67008186,1000,1000,1000,1000,117628763,1175,1168,1150,1161
67010685,1000,1000,1000,1000,117728723,1175,1169,1150,1159
67013184,1000,1000,1000,1000,117828683,1175,1169,1150,1159
67015683,1000,1000,1000,1000,117928643,1175,1168,1150,1160
67018182,1000,1000,1000,1000,118028603,1175,1168,1150,1160
67020681,1000,1000,1000,1000,118128563,1175,1168,1150,1161
67023180,1000,1000,1000,1000,118228523,1173,1175,1153,1150
67025679,1000,1000,1000,1000,118328483,1175,1174,1150,1151
67028178,1000,1000,1000,1000,118428443,1175,1174,1150,1151
67030677,1000,1000,1000,1000,118528403,1175,1174,1150,1152
67033176,1000,1000,1000,1000,118628363,1175,1174,1150,1152
67035675,1000,1000,1000,1000,118728323,1000,1000,1000,1000
67038174,1000,1000,1000,1000,118828283,1000,1000,1000,1000
67040673,1000,1000,1000,1000,118928243,1000,1000,1000,1000
67043172,1000,1000,1000,1000,119028203,1000,1000,1000,1000
67045671,1000,1000,1000,1000,119128163,1000,1000,1000,1000
67048170,1000,1000,1000,1000,119228956,1000,1000,1000,1000
67050669,1000,1000,1000,1000,119328916,1000,1000,1000,1000
67053168,1000,1000,1000,1000,119428876,1000,1000,1000,1000
67055667,1000,1000,1000,1000,119528836,1000,1000,1000,1000
67058166,1000,1000,1000,1000,119628796,1000,1000,1000,1000
67060665,1000,1000,1000,1000,119728756,1000,1000,1000,1000
67063164,1000,1000,1000,1000,119828716,1000,1000,1000,1000
67065663,1000,1000,1000,1000,119928676,1000,1000,1000,1000
67068162,1000,1000,1000,1000,120028636,1000,1000,1000,1000
67070661,1000,1000,1000,1000,120128596,1000,1000,1000,1000
67073160,1000,1000,1000,1000,120228556,1000,1000,1000,1000
67075659,1000,1000,1000,1000,120328516,1000,1000,1000,1000
67078158,1000,1000,1000,1000,120428476,1000,1000,1000,1000
67080657,1000,1000,1000,1000,120528436,1000,1000,1000,1000
67083156,1000,1000,1000,1000,120628396,1000,1000,1000,1000
67085655,1000,1000,1000,1000,120728356,1000,1000,1000,1000
67088154,1000,1000,1000,1000,120828316,1000,1000,1000,1000
67091486,1000,1000,1000,1000,120928276,1000,1000,1000,1000
67093985,1000,1000,1000,1000,121028236,1000,1000,1000,1000
67096484,1000,1000,1000,1000,121128196,1000,1000,1000,1000
67098983,1000,1000,1000,1000,121228156,1000,1000,1000,1000
67101482,1000,1000,1000,1000,121328949,1000,1000,1000,1000
67103981,1000,1000,1000,1000,121428909,1000,1000,1000,1000
67106480,1000,1000,1000,1000,121528869,1000,1000,1000,1000
67108979,1000,1000,1000,1000,121628829,1000,1000,1000,1000
67111478,1000,1000,1000,1000,121728789,1000,1000,1000,1000
67113977,1000,1000,1000,1000,121828749,1000,1000,1000,1000
67116476,1000,1000,1000,1000,121928709,1000,1000,1000,1000
67118975,1000,1000,1000,1000,122028669,1000,1000,1000,1000
67121474,1000,1000,1000,1000,122128629,1000,1000,1000,1000
67123973,1000,1000,1000,1000,122228589,1000,1000,1000,1000
67126472,1000,1000,1000,1000,122328549,1000,1000,1000,1000
67128971,1000,1000,1000,1000,122428509,1000,1000,1000,1000
67131470,1000,1000,1000,1000,122528469,1000,1000,1000,1000
67133969,1000,1000,1000,1000,122628429,1000,1000,1000,1000
67136468,1000,1000,1000,1000,122728389,1000,1000,1000,1000
67138967,1000,1000,1000,1000,122828349,1000,1000,1000,1000
67141466,1000,1000,1000,1000,122928309,1000,1000,1000,1000
67143965,1000,1000,1000,1000,123028269,1000,1000,1000,1000
67146464,1000,1000,1000,1000,123128229,1000,1000,1000,1000
67148963,1000,1000,1000,1000,123228189,1000,1000,1000,1000
67151462,1000,1000,1000,1000,123328982,1000,1000,1000,1000
67153961,1000,1000,1000,1000,123428942,1000,1000,1000,1000
67156460,1000,1000,1000,1000,123528902,1000,1000,1000,1000
67158959,1000,1000,1000,1000,123628862,1000,1000,1000,1000
67161458,1000,1000,1000,1000,123728822,1000,1000,1000,1000
67163957,1000,1000,1000,1000,123828782,1000,1000,1000,1000
67166456,1000,1000,1000,1000,123928742,1000,1000,1000,1000
67168955,1000,1000,1000,1000,124028702,1000,1000,1000,1000
67171454,1000,1000,1000,1000,124128662,1000,1000,1000,1000
67173953,1000,1000,1000,1000,124228622,1000,1000,1000,1000
67176452,1000,1000,1000,1000,124328582,1000,1000,1000,1000
67178951,1000,1000,1000,1000,124428542,1000,1000,1000,1000
67181450,1000,1000,1000,1000,124528502,1000,1000,1000,1000
67183949,1000,1000,1000,1000,124628462,1000,1000,1000,1000
67186448,1000,1000,1000,1000,124728422,1000,1000,1000,1000
67188947,1000,1000,1000,1000,124828382,1000,1000,1000,1000
67191446,1000,1000,1000,1000,124928342,1000,1000,1000,1000
67193945,1000,1000,1000,1000,125028302,1000,1000,1000,1000
67196444,1000,1000,1000,1000,125128262,1000,1000,1000,1000
67198943,1000,1000,1000,1000,125228222,1000,1000,1000,1000
67201442,1000,1000,1000,1000,125328182,1000,1000,1000,1000
67203941,1000,1000,1000,1000,125428975,1000,1000,1000,1000
67206440,1000,1000,1000,1000,125528935,1000,1000,1000,1000
67208939,1000,1000,1000,1000,125628895,1000,1000,1000,1000
67211438,1000,1000,1000,1000,125728855,1000,1000,1000,1000
67213937,1000,1000,1000,1000,125828815,1000,1000,1000,1000
67216436,1000,1000,1000,1000,125928775,1000,1000,1000,1000
67218935,1000,1000,1000,1000,126028735,1000,1000,1000,1000
67221434,1000,1000,1000,1000,126128695,1000,1000,1000,1000
67223933,1000,1000,1000,1000,126228655,1000,1000,1000,1000
67226432,1000,1000,1000,1000,126328615,1000,1000,1000,1000
67228931,1000,1000,1000,1000,126428575,1000,1000,1000,1000
67231430,1000,1000,1000,1000,126528535,1000,1000,1000,1000
67233929,1000,1000,1000,1000,126628495,1000,1000,1000,1000
67236428,1000,1000,1000,1000,126728455,1000,1000,1000,1000
67238927,1000,1000,1000,1000,126828415,1000,1000,1000,1000
67241426,1000,1000,1000,1000,126928375,1000,1000,1000,1000
67243925,1000,1000,1000,1000,127028335,1000,1000,1000,1000
67246424,1000,1000,1000,1000,127128295,1000,1000,1000,1000
67248923,1000,1000,1000,1000,127228255,1000,1000,1000,1000
67251422,1000,1000,1000,1000,127328215,1000,1000,1000,1000
67253921,1000,1000,1000,1000,127428175,1000,1000,1000,1000
67256420,1000,1000,1000,1000,127528968,1000,1000,1000,1000
67258919,1000,1000,1000,1000,127628928,1000,1000,1000,1000
67261418,1000,1000,1000,1000,127728888,1000,1000,1000,1000
67263917,1000,1000,1000,1000,,,,,
67266416,1000,1000,1000,1000,,,,,
67268915,1000,1000,1000,1000,,,,,
67271414,1000,1000,1000,1000,,,,,
67273913,1000,1000,1000,1000,,,,,
67276412,1000,1000,1000,1000,,,,,
67278911,1000,1000,1000,1000,,,,,
67281410,1000,1000,1000,1000,,,,,
67283909,1000,1000,1000,1000,,,,,
67286408,1000,1000,1000,1000,,,,,
67288907,1000,1000,1000,1000,,,,,
67291406,1000,1000,1000,1000,,,,,
67293905,1000,1000,1000,1000,,,,,
67296404,1000,1000,1000,1000,,,,,
67298903,1000,1000,1000,1000,,,,,
67301402,1000,1000,1000,1000,,,,,
67303901,1000,1000,1000,1000,,,,,
67306400,1000,1000,1000,1000,,,,,
67308899,1000,1000,1000,1000,,,,,
67311398,1000,1000,1000,1000,,,,,
67313897,1000,1000,1000,1000,,,,,
67316396,1000,1000,1000,1000,,,,,
67318895,1000,1000,1000,1000,,,,,
67321394,1000,1000,1000,1000,,,,,
67323893,1000,1000,1000,1000,,,,,
67326392,1000,1000,1000,1000,,,,,
67328891,1000,1000,1000,1000,,,,,
67331390,1000,1000,1000,1000,,,,,
67333889,1000,1000,1000,1000,,,,,
67336388,1000,1000,1000,1000,,,,,
67338887,1000,1000,1000,1000,,,,,
67341386,1000,1000,1000,1000,,,,,
67343885,1000,1000,1000,1000,,,,,
67346384,1000,1000,1000,1000,,,,,
67348883,1000,1000,1000,1000,,,,,
67351382,1000,1000,1000,1000,,,,,
67353881,1000,1000,1000,1000,,,,,
67356380,1000,1000,1000,1000,,,,,
67358879,1000,1000,1000,1000,,,,,
67361378,1000,1000,1000,1000,,,,,
67363877,1000,1000,1000,1000,,,,,
67366376,1000,1000,1000,1000,,,,,
67368875,1000,1000,1000,1000,,,,,
67371374,1000,1000,1000,1000,,,,,
67373873,1000,1000,1000,1000,,,,,
67376372,1000,1000,1000,1000,,,,,
67378871,1000,1000,1000,1000,,,,,
67381370,1000,1000,1000,1000,,,,,
67383869,1000,1000,1000,1000,,,,,
67386368,1000,1000,1000,1000,,,,,
67388867,1000,1000,1000,1000,,,,,
67391366,1000,1000,1000,1000,,,,,
67393865,1000,1000,1000,1000,,,,,
67396364,1000,1000,1000,1000,,,,,
67398863,1000,1000,1000,1000,,,,,
67401362,1000,1000,1000,1000,,,,,
67403861,1000,1000,1000,1000,,,,,
67406360,1000,1000,1000,1000,,,,,
67408859,1000,1000,1000,1000,,,,,
67411358,1000,1000,1000,1000,,,,,
67413857,1000,1000,1000,1000,,,,,
67416356,1000,1000,1000,1000,,,,,
67418855,1000,1000,1000,1000,,,,,
67421354,1000,1000,1000,1000,,,,,
67423853,1000,1000,1000,1000,,,,,
67426352,1000,1000,1000,1000,,,,,
67428851,1000,1000,1000,1000,,,,,
67431350,1000,1000,1000,1000,,,,,
67433849,1000,1000,1000,1000,,,,,
67436348,1000,1000,1000,1000,,,,,
67438847,1000,1000,1000,1000,,,,,
67441346,1000,1000,1000,1000,,,,,
67443845,1000,1000,1000,1000,,,,,
67446344,1000,1000,1000,1000,,,,,
67448843,1000,1000,1000,1000,,,,,
67451342,1000,1000,1000,1000,,,,,
67453841,1000,1000,1000,1000,,,,,
67456340,1000,1000,1000,1000,,,,,
67458839,1000,1000,1000,1000,,,,,
67461338,1000,1000,1000,1000,,,,,
67463837,1000,1000,1000,1000,,,,,
67466336,1000,1000,1000,1000,,,,,
67468835,1000,1000,1000,1000,,,,,
67471334,1000,1000,1000,1000,,,,,
67473833,1000,1000,1000,1000,,,,,
67476332,1000,1000,1000,1000,,,,,
67478831,1000,1000,1000,1000,,,,,
67481330,1000,1000,1000,1000,,,,,
67483829,1000,1000,1000,1000,,,,,
67486328,1000,1000,1000,1000,,,,,
67488827,1000,1000,1000,1000,,,,,
67491326,1000,1000,1000,1000,,,,,
67493825,1000,1000,1000,1000,,,,,
67496324,1000,1000,1000,1000,,,,,
67498823,1000,1000,1000,1000,,,,,
67501322,1000,1000,1000,1000,,,,,
67503821,1000,1000,1000,1000,,,,,
67506320,1000,1000,1000,1000,,,,,
67508819,1000,1000,1000,1000,,,,,
67511318,1000,1000,1000,1000,,,,,
67513817,1000,1000,1000,1000,,,,,
67516316,1000,1000,1000,1000,,,,,
67518815,1000,1000,1000,1000,,,,,
67521314,1000,1000,1000,1000,,,,,
67523813,1000,1000,1000,1000,,,,,
67526312,1000,1000,1000,1000,,,,,
67528811,1000,1000,1000,1000,,,,,
67531310,1000,1000,1000,1000,,,,,
67533809,1000,1000,1000,1000,,,,,
67536308,1000,1000,1000,1000,,,,,
67538807,1000,1000,1000,1000,,,,,
67541306,1000,1000,1000,1000,,,,,
67543805,1000,1000,1000,1000,,,,,
67546304,1000,1000,1000,1000,,,,,
67548803,1000,1000,1000,1000,,,,,
67551302,1000,1000,1000,1000,,,,,
67553801,1000,1000,1000,1000,,,,,
67556300,1000,1000,1000,1000,,,,,
67558799,1000,1000,1000,1000,,,,,
67561298,1000,1000,1000,1000,,,,,
67563797,1000,1000,1000,1000,,,,,
67566296,1000,1000,1000,1000,,,,,
67568795,1000,1000,1000,1000,,,,,
67571294,1000,1000,1000,1000,,,,,
67573793,1000,1000,1000,1000,,,,,
67576292,1000,1000,1000,1000,,,,,
67578791,1000,1000,1000,1000,,,,,
67581290,1000,1000,1000,1000,,,,,
67583789,1000,1000,1000,1000,,,,,
67586288,1000,1000,1000,1000,,,,,
67588787,1000,1000,1000,1000,,,,,
67591286,1000,1000,1000,1000,,,,,
67593785,1000,1000,1000,1000,,,,,
67596284,1000,1000,1000,1000,,,,,
67598783,1000,1000,1000,1000,,,,,
67601282,1000,1000,1000,1000,,,,,
67603781,1000,1000,1000,1000,,,,,
67606280,1000,1000,1000,1000,,,,,
67608779,1000,1000,1000,1000,,,,,
67611278,1000,1000,1000,1000,,,,,
67613777,1000,1000,1000,1000,,,,,
67616276,1000,1000,1000,1000,,,,,
67618775,1000,1000,1000,1000,,,,,
67621274,1000,1000,1000,1000,,,,,
67623773,1000,1000,1000,1000,,,,,
67626272,1000,1000,1000,1000,,,,,
67628771,1000,1000,1000,1000,,,,,
67631270,1000,1000,1000,1000,,,,,
67633769,1000,1000,1000,1000,,,,,
67636268,1000,1000,1000,1000,,,,,
67638767,1000,1000,1000,1000,,,,,
67641266,1000,1000,1000,1000,,,,,
67643765,1000,1000,1000,1000,,,,,
67646264,1000,1000,1000,1000,,,,,
67648763,1000,1000,1000,1000,,,,,
67651262,1000,1000,1000,1000,,,,,
67653761,1000,1000,1000,1000,,,,,
67656260,1000,1000,1000,1000,,,,,
67658759,1000,1000,1000,1000,,,,,
67661258,1000,1000,1000,1000,,,,,
67663757,1000,1000,1000,1000,,,,,
67666256,1000,1000,1000,1000,,,,,
67668755,1000,1000,1000,1000,,,,,
67671254,1000,1000,1000,1000,,,,,
67673753,1000,1000,1000,1000,,,,,
67676252,1000,1000,1000,1000,,,,,
67678751,1000,1000,1000,1000,,,,,
67681250,1000,1000,1000,1000,,,,,
67683749,1000,1000,1000,1000,,,,,
67686248,1000,1000,1000,1000,,,,,
67688747,1000,1000,1000,1000,,,,,
67691246,1000,1000,1000,1000,,,,,
67693745,1000,1000,1000,1000,,,,,
67696244,1000,1000,1000,1000,,,,,
67698743,1000,1000,1000,1000,,,,,
67701242,1000,1000,1000,1000,,,,,
67703741,1000,1000,1000,1000,,,,,
67706240,1000,1000,1000,1000,,,,,
67708739,1000,1000,1000,1000,,,,,
67711238,1000,1000,1000,1000,,,,,
67713737,1000,1000,1000,1000,,,,,
67716236,1000,1000,1000,1000,,,,,
67718735,1001,1001,1001,1001,,,,,
67721234,1002,1002,1002,1002,,,,,
67723733,1003,1003,1003,1003,,,,,
67726232,1003,1003,1003,1003,,,,,
67728731,1004,1004,1004,1004,,,,,
67731230,1005,1005,1005,1005,,,,,
67733729,1006,1006,1006,1006,,,,,
67736228,1006,1006,1006,1006,,,,,
67738727,1007,1007,1007,1007,,,,,
67741226,1008,1008,1008,1008,,,,,
67743725,1009,1009,1009,1009,,,,,
67746224,1009,1009,1009,1009,,,,,
67748723,1010,1010,1010,1010,,,,,
67751222,1011,1011,1011,1011,,,,,
67753721,1012,1012,1012,1012,,,,,
67756220,1012,1012,1012,1012,,,,,
67758719,1013,1013,1013,1013,,,,,
67761218,1014,1014,1014,1014,,,,,
67763717,1015,1015,1015,1015,,,,,
67766216,1015,1015,1015,1015,,,,,
67768715,1016,1016,1016,1016,,,,,
67771214,1017,1017,1017,1017,,,,,
67773713,1018,1018,1018,1018,,,,,
67776212,1018,1018,1018,1018,,,,,
67778711,1019,1019,1019,1019,,,,,
67781210,1020,1020,1020,1020,,,,,
67783709,1021,1021,1021,1021,,,,,
67786208,1021,1021,1021,1021,,,,,
67788707,1022,1022,1022,1022,,,,,
67791206,1023,1023,1023,1023,,,,,
67793705,1024,1024,1024,1024,,,,,
67796204,1024,1024,1024,1024,,,,,
67798703,1025,1025,1025,1025,,,,,
67801202,1026,1026,1026,1026,,,,,
67803701,1027,1027,1027,1027,,,,,
67806200,1027,1027,1027,1027,,,,,
67808699,1028,1028,1028,1028,,,,,
67811198,1029,1029,1029,1029,,,,,
67813697,1030,1030,1030,1030,,,,,
67816196,1030,1030,1030,1030,,,,,
67818695,1031,1031,1031,1031,,,,,
67821194,1032,1032,1032,1032,,,,,
67823693,1033,1033,1033,1033,,,,,
67826192,1033,1033,1033,1033,,,,,
67828691,1034,1034,1034,1034,,,,,
67831190,1035,1035,1035,1035,,,,,
67833689,1036,1036,1036,1036,,,,,
67836188,1036,1036,1036,1036,,,,,
67838687,1037,1037,1037,1037,,,,,
67841186,1038,1038,1038,1038,,,,,
67843685,1039,1039,1039,1039,,,,,
67846184,1039,1039,1039,1039,,,,,
67848683,1040,1040,1040,1040,,,,,
67851182,1041,1041,1041,1041,,,,,
67853681,1042,1042,1042,1042,,,,,
67856180,1042,1042,1042,1042,,,,,
67858679,1043,1043,1043,1043,,,,,
67861178,1044,1044,1044,1044,,,,,
67863677,1045,1045,1045,1045,,,,,
67866176,1045,1045,1045,1045,,,,,
67868675,1046,1046,1046,1046,,,,,
67871174,1047,1047,1047,1047,,,,,
67873673,1048,1048,1048,1048,,,,,
67876172,1048,1048,1048,1048,,,,,
67878671,1049,1049,1049,1049,,,,,
67881170,1050,1050,1050,1050,,,,,
67883669,1051,1051,1051,1051,,,,,
67886168,1051,1051,1051,1051,,,,,
67888667,1052,1052,1052,1052,,,,,
67891166,1053,1053,1053,1053,,,,,
67893665,1054,1054,1054,1054,,,,,
67896164,1054,1054,1054,1054,,,,,
67898663,1055,1055,1055,1055,,,,,
67901162,1056,1056,1056,1056,,,,,
67903661,1057,1057,1057,1057,,,,,
67906160,1057,1057,1057,1057,,,,,
67908659,1058,1058,1058,1058,,,,,
67911158,1059,1059,1059,1059,,,,,
67913657,1060,1060,1060,1060,,,,,
67916156,1060,1060,1060,1060,,,,,
67918655,1061,1061,1061,1061,,,,,
67921154,1062,1062,1062,1062,,,,,
67923653,1063,1063,1063,1063,,,,,
67926152,1063,1063,1063,1063,,,,,
67928651,1064,1064,1064,1064,,,,,
67931150,1065,1065,1065,1065,,,,,
67933649,1066,1066,1066,1066,,,,,
67936148,1066,1066,1066,1066,,,,,
67938647,1067,1067,1067,1067,,,,,
67941146,1068,1068,1068,1068,,,,,
67943645,1069,1069,1069,1069,,,,,
67946144,1069,1069,1069,1069,,,,,
67948643,1070,1070,1070,1070,,,,,
67951142,1071,1071,1071,1071,,,,,
67953641,1072,1072,1072,1072,,,,,
67956140,1072,1072,1072,1072,,,,,
67958639,1073,1073,1073,1073,,,,,
67961138,1074,1074,1074,1074,,,,,
67963637,1075,1075,1075,1075,,,,,
67966136,1075,1075,1075,1075,,,,,
67968635,1076,1076,1076,1076,,,,,
67971134,1077,1077,1077,1077,,,,,
67973633,1078,1078,1078,1078,,,,,
67976132,1078,1078,1078,1078,,,,,
67978631,1079,1079,1079,1079,,,,,
67981130,1080,1080,1080,1080,,,,,
67983629,1081,1081,1081,1081,,,,,
67986128,1081,1081,1081,1081,,,,,
67988627,1082,1082,1082,1082,,,,,
67991126,1083,1083,1083,1083,,,,,
67993625,1084,1084,1084,1084,,,,,
67996124,1084,1084,1084,1084,,,,,
67998623,1085,1085,1085,1085,,,,,
68001122,1086,1086,1086,1086,,,,,
68003621,1087,1087,1087,1087,,,,,
68006120,1087,1087,1087,1087,,,,,
68008619,1088,1088,1088,1088,,,,,
68011118,1089,1089,1089,1089,,,,,
68013617,1090,1090,1090,1090,,,,,
68016116,1090,1090,1090,1090,,,,,
68018615,1091,1091,1091,1091,,,,,
68021114,1092,1092,1092,1092,,,,,
68023613,1093,1093,1093,1093,,,,,
68026112,1093,1093,1093,1093,,,,,
68028611,1094,1094,1094,1094,,,,,
68031110,1095,1095,1095,1095,,,,,
68033609,1096,1096,1096,1096,,,,,
68036108,1096,1096,1096,1096,,,,,
68038607,1097,1097,1097,1097,,,,,
68041106,1098,1098,1098,1098,,,,,
68043605,1099,1099,1099,1099,,,,,
68046104,1099,1099,1099,1099,,,,,
68048603,1100,1100,1100,1100,,,,,
68051102,1101,1101,1101,1101,,,,,
68053601,1101,1101,1101,1101,,,,,
68056100,1102,1102,1102,1102,,,,,
68058599,1103,1103,1103,1103,,,,,
68061098,1104,1104,1104,1104,,,,,
68063597,1104,1104,1104,1104,,,,,
68066096,1105,1105,1105,1105,,,,,
68068595,1106,1106,1106,1106,,,,,
68071094,1107,1107,1107,1107,,,,,
68073593,1107,1107,1107,1107,,,,,
68076092,1108,1108,1108,1108,,,,,
68078591,1109,1109,1109,1109,,,,,
68081090,1110,1110,1110,1110,,,,,
68083589,1110,1110,1110,1110,,,,,
68086088,1111,1111,1111,1111,,,,,
68088587,1112,1112,1112,1112,,,,,
68091086,1113,1113,1113,1113,,,,,
68093585,1113,1113,1113,1113,,,,,
68096084,1114,1114,1114,1114,,,,,
68098583,1115,1115,1115,1115,,,,,
68101082,1116,1116,1116,1116,,,,,
68103581,1116,1116,1116,1116,,,,,
68106080,1117,1117,1117,1117,,,,,
68108579,1118,1118,1118,1118,,,,,
68111078,1119,1119,1119,1119,,,,,
68113577,1119,1119,1119,1119,,,,,
68116076,1120,1120,1120,1120,,,,,
68118575,1121,1121,1121,1121,,,,,
68121074,1122,1122,1122,1122,,,,,
68123573,1122,1122,1122,1122,,,,,
68126072,1123,1123,1123,1123,,,,,
68128571,1124,1124,1124,1124,,,,,
68131070,1125,1125,1125,1125,,,,,
68133569,1125,1125,1125,1125,,,,,
68136068,1126,1126,1126,1126,,,,,
68138567,1127,1127,1127,1127,,,,,
68141066,1128,1128,1128,1128,,,,,
68143565,1128,1128,1128,1128,,,,,
68146064,1129,1129,1129,1129,,,,,
68148563,1130,1130,1130,1130,,,,,
68151062,1131,1131,1131,1131,,,,,
68153561,1131,1131,1131,1131,,,,,
68156060,1132,1132,1132,1132,,,,,
68158559,1133,1133,1133,1133,,,,,
68161058,1134,1134,1134,1134,,,,,
68163557,1134,1134,1134,1134,,,,,
68166056,1135,1135,1135,1135,,,,,
68168555,1136,1136,1136,1136,,,,,
68171054,1137,1137,1137,1137,,,,,
68173553,1137,1137,1137,1137,,,,,
68176052,1138,1138,1138,1138,,,,,
68178551,1139,1139,1139,1139,,,,,
68181050,1140,1140,1140,1140,,,,,
68183549,1140,1140,1140,1140,,,,,
68186048,1141,1141,1141,1141,,,,,
68188547,1142,1142,1142,1142,,,,,
68191046,1143,1143,1143,1143,,,,,
68193545,1143,1143,1143,1143,,,,,
68196044,1144,1144,1144,1144,,,,,
68198543,1145,1145,1145,1145,,,,,
68201042,1146,1146,1146,1146,,,,,
68203541,1146,1146,1146,1146,,,,,
68206040,1147,1147,1147,1147,,,,,
68208539,1148,1148,1148,1148,,,,,
68211038,1149,1149,1149,1149,,,,,
68213537,1149,1149,1149,1149,,,,,
68216036,1150,1150,1150,1150,,,,,
68218535,1162,1152,1153,1163,,,,,
68221034,1170,1160,1161,1171,,,,,
68223533,1178,1168,1169,1179,,,,,
68226032,1186,1176,1177,1187,,,,,
68228531,1193,1184,1185,1194,,,,,
68231030,1201,1191,1192,1202,,,,,
68233529,1208,1199,1200,1209,,,,,
68236028,1215,1206,1207,1216,,,,,
68238527,1222,1213,1214,1223,,,,,
68241026,1229,1220,1221,1230,,,,,
68243525,1236,1227,1228,1237,,,,,
68246024,1243,1234,1235,1244,,,,,
68248523,1250,1241,1242,1250,,,,,
68251022,1256,1248,1248,1257,,,,,
68253521,1263,1254,1255,1264,,,,,
68256020,1269,1261,1261,1270,,,,,
68258519,1276,1267,1268,1276,,,,,
68261018,1282,1274,1274,1283,,,,,
68263517,1288,1280,1281,1289,,,,,
68266016,1294,1286,1287,1295,,,,,
68268515,1300,1292,1293,1301,,,,,
68271014,1306,1298,1299,1307,,,,,
68273513,1312,1304,1305,1313,,,,,
68276012,1318,1310,1311,1319,,,,,
68278511,1324,1316,1317,1325,,,,,
68281010,1330,1322,1323,1330,,,,,
68283509,1336,1328,1328,1336,,,,,
68286008,1341,1333,1334,1342,,,,,
68288507,1347,1339,1340,1347,,,,,
68291006,1352,1345,1345,1353,,,,,
68293505,1358,1350,1351,1358,,,,,
68296004,1363,1356,1356,1364,,,,,
68298503,1369,1361,1362,1369,,,,,
68301002,1374,1367,1367,1375,,,,,
68303501,1379,1372,1372,1380,,,,,
68306000,1385,1377,1378,1385,,,,,
68308499,1390,1382,1383,1390,,,,,
68310998,1395,1388,1388,1396,,,,,
68313497,1400,1393,1393,1401,,,,,
68315996,1405,1398,1398,1406,,,,,
68318495,1410,1403,1403,1411,,,,,
68320994,1415,1408,1408,1416,,,,,
68323493,1420,1413,1413,1421,,,,,
68325992,1425,1418,1418,1426,,,,,
68328491,1430,1423,1423,1431,,,,,
68330990,1435,1428,1428,1436,,,,,
68333489,1440,1433,1433,1440,,,,,
68335988,1445,1438,1438,1445,,,,,
68338487,1449,1442,1443,1450,,,,,
68340986,1454,1447,1447,1455,,,,,
68343485,1459,1452,1452,1459,,,,,
68345984,1463,1457,1457,1464,,,,,
68348483,1468,1461,1462,1469,,,,,
68350982,1473,1466,1466,1473,,,,,
68353481,1477,1471,1471,1478,,,,,
68355980,1482,1475,1475,1482,,,,,
68358479,1486,1480,1480,1487,,,,,
68360978,1491,1484,1484,1491,,,,,
68363477,1495,1489,1489,1496,,,,,
68365976,1500,1493,1493,1500,,,,,
68368475,1504,1498,1498,1505,,,,,
68370974,1509,1502,1502,1509,,,,,
68373473,1513,1506,1507,1513,,,,,
68375972,1517,1511,1511,1518,,,,,
68378471,1522,1515,1515,1522,,,,,
68380970,1526,1519,1520,1526,,,,,
68383469,1530,1524,1524,1531,,,,,
68385968,1534,1528,1528,1535,,,,,
68388467,1539,1532,1533,1539,,,,,
68390966,1543,1536,1537,1543,,,,,
68393465,1547,1541,1541,1548,,,,,
68395964,1551,1545,1545,1552,,,,,
68398463,1555,1549,1549,1556,,,,,
68400962,1560,1553,1553,1560,,,,,
68403461,1564,1557,1558,1564,,,,,
68405960,1568,1561,1562,1568,,,,,
68408459,1572,1565,1566,1572,,,,,
68410958,1576,1569,1570,1576,,,,,
68413457,1580,1573,1574,1580,,,,,
68415956,1584,1577,1578,1584,,,,,
68418455,1588,1581,1582,1588,,,,,
68420954,1592,1585,1586,1592,,,,,
68423453,1596,1589,1590,1596,,,,,
68425952,1600,1593,1594,1600,,,,,
68428451,1604,1597,1598,1604,,,,,
68430950,1607,1601,1602,1608,,,,,
68433449,1611,1605,1605,1612,,,,,
68435948,1615,1609,1609,1615,,,,,
68438447,1619,1613,1613,1619,,,,,
68440946,1623,1616,1617,1623,,,,,
68443445,1627,1620,1621,1627,,,,,
68445944,1630,1624,1625,1631,,,,,
68448443,1634,1628,1628,1634,,,,,
68450942,1638,1632,1632,1638,,,,,
68453441,1642,1635,1636,1642,,,,,
68455940,1645,1639,1640,1646,,,,,
68458439,1649,1643,1643,1649,,,,,
68460938,1653,1646,1647,1653,,,,,
68463437,1657,1650,1651,1657,,,,,
68465936,1660,1654,1654,1660,,,,,
68468435,1664,1657,1658,1664,,,,,
68470934,1668,1661,1662,1668,,,,,
68473433,1671,1665,1665,1671,,,,,
68475932,1675,1668,1669,1675,,,,,
68478431,1678,1672,1672,1679,,,,,
68480930,1682,1675,1676,1682,,,,,
68483429,1686,1679,1679,1686,,,,,
68485928,1689,1682,1683,1689,,,,,
68488427,1693,1686,1686,1693,,,,,
68490926,1696,1690,1690,1696,,,,,
68493425,1700,1693,1693,1700,,,,,
68495924,1703,1697,1697,1703,,,,,
68498423,1707,1700,1700,1707,,,,,
68500922,1710,1703,1704,1710,,,,,
68503421,1714,1707,1707,1714,,,,,
68505920,1717,1710,1711,1717,,,,,
68508419,1721,1714,1714,1721,,,,,
68510918,1724,1717,1718,1724,,,,,
68513417,1727,1721,1721,1728,,,,,
68515916,1731,1724,1724,1731,,,,,
68518415,1734,1727,1728,1734,,,,,
68520914,1738,1731,1731,1738,,,,,
68523413,1741,1734,1735,1741,,,,,
68525912,1744,1738,1738,1745,,,,,
68528411,1748,1741,1741,1748,,,,,
68530910,1751,1744,1745,1751,,,,,
68533409,1754,1748,1748,1754,,,,,
68535908,1757,1751,1751,1758,,,,,
68538407,1761,1754,1755,1761,,,,,
68540906,1764,1758,1758,1764,,,,,
68543405,1767,1761,1761,1768,,,,,
68545904,1770,1764,1765,1771,,,,,
68548403,1774,1767,1768,1774,,,,,
68550902,1777,1771,1771,1777,,,,,
68553401,1780,1774,1774,1781,,,,,
68555900,1783,1777,1778,1784,,,,,
68558399,1787,1780,1781,1787,,,,,
68560898,1790,1784,1784,1790,,,,,
68563397,1793,1787,1787,1793,,,,,
68565896,1796,1790,1790,1796,,,,,
68568395,1799,1793,1794,1800,,,,,
68570894,1803,1796,1797,1803,,,,,
68573393,1806,1799,1800,1806,,,,,
68575892,1809,1803,1803,1809,,,,,
68578391,1812,1806,1806,1812,,,,,
68580890,1815,1809,1809,1815,,,,,
68583389,1818,1812,1813,1818,,,,,
68585888,1821,1815,1816,1821,,,,,
68588387,1825,1818,1819,1824,,,,,
68590886,1828,1821,1822,1828,,,,,
68593385,1831,1824,1825,1831,,,,,
68595884,1834,1827,1828,1834,,,,,
68598383,1837,1830,1831,1837,,,,,
68600882,1840,1834,1834,1840,,,,,
68603381,1843,1837,1837,1843,,,,,
68605880,1846,1840,1840,1846,,,,,
68608379,1849,1843,1843,1849,,,,,
68610878,1852,1846,1847,1852,,,,,
68613377,1855,1849,1850,1855,,,,,
68615876,1858,1852,1853,1858,,,,,
68618375,1861,1855,1856,1861,,,,,
68620874,1864,1858,1859,1864,,,,,
68623373,1867,1861,1861,1867,,,,,
68625872,1870,1864,1864,1870,,,,,
68628371,1873,1867,1867,1873,,,,,
68630870,1876,1870,1870,1876,,,,,
68633369,1879,1873,1873,1879,,,,,
68635868,1882,1876,1876,1882,,,,,
68638367,1884,1879,1879,1885,,,,,
68640866,1887,1882,1882,1888,,,,,
68643365,1890,1885,1885,1890,,,,,
68645864,1893,1888,1888,1893,,,,,
68648363,1896,1890,1891,1896,,,,,
68650862,1899,1893,1894,1899,,,,,
68653361,1902,1896,1897,1902,,,,,
68655860,1905,1899,1899,1905,,,,,
68658359,1908,1902,1902,1908,,,,,
68660858,1910,1905,1905,1911,,,,,
68663357,1913,1908,1908,1914,,,,,
68665856,1916,1911,1911,1916,,,,,
68668355,1917,1912,1912,1918,,,,,
68670854,1916,1911,1911,1917,,,,,
68673353,1916,1910,1910,1916,,,,,
68675852,1915,1909,1910,1915,,,,,
68678351,1914,1909,1909,1914,,,,,
68680850,1913,1908,1908,1914,,,,,
68683349,1913,1907,1907,1913,,,,,
68685848,1912,1906,1907,1912,,,,,
68688347,1912,1906,1906,1912,,,,,
68690846,1911,1905,1906,1911,,,,,
68693345,1911,1905,1905,1911,,,,,
68695844,1910,1904,1905,1910,,,,,
68698343,1910,1904,1904,1910,,,,,
68700842,1910,1904,1904,1910,,,,,
68703341,1910,1904,1904,1910,,,,,
68705840,1909,1904,1904,1910,,,,,
68708339,1909,1903,1904,1909,,,,,
68710838,1909,1903,1904,1909,,,,,
68713337,1909,1903,1904,1909,,,,,
68715836,1909,1903,1904,1909,,,,,
68718335,1909,1903,1904,1908,,,,,
68720834,1908,1903,1904,1908,,,,,
68723333,1908,1903,1903,1908,,,,,
68725832,1907,1902,1903,1907,,,,,
68728331,1906,1902,1902,1906,,,,,
68730830,1906,1901,1902,1906,,,,,
68733329,1905,1900,1901,1905,,,,,
68735828,1904,1899,1900,1904,,,,,
68738327,1902,1898,1899,1902,,,,,
68740826,1901,1897,1897,1901,,,,,
68743325,1899,1895,1896,1899,,,,,
68745824,1898,1894,1894,1898,,,,,
68748323,1896,1892,1893,1896,,,,,
68750822,1894,1890,1891,1894,,,,,
68753321,1892,1888,1889,1892,,,,,
68755820,1890,1886,1887,1890,,,,,
68758319,1888,1884,1885,1888,,,,,
68760818,1885,1882,1883,1885,,,,,
68763317,1883,1879,1880,1883,,,,,
68765816,1881,1877,1878,1881,,,,,
68768315,1878,1875,1875,1878,,,,,
68770814,1875,1872,1873,1875,,,,,
68773313,1872,1869,1870,1872,,,,,
68775812,1870,1866,1867,1870,,,,,
68778311,1867,1863,1864,1867,,,,,
68780810,1864,1861,1861,1864,,,,,
68783309,1860,1858,1858,1861,,,,,
68785808,1857,1854,1855,1857,,,,,
68788307,1854,1851,1852,1854,,,,,
68790806,1851,1848,1849,1851,,,,,
68793305,1848,1845,1845,1848,,,,,
68795804,1844,1842,1842,1844,,,,,
68798303,1841,1838,1839,1841,,,,,
68800802,1838,1835,1836,1838,,,,,
68803301,1834,1832,1832,1834,,,,,
68805800,1831,1828,1829,1831,,,,,
68808299,1827,1825,1825,1827,,,,,
68810798,1824,1822,1822,1824,,,,,
68813297,1820,1818,1819,1820,,,,,
68815796,1817,1815,1815,1817,,,,,
68818295,1814,1811,1812,1814,,,,,
68820794,1810,1808,1809,1810,,,,,
68823293,1807,1805,1805,1807,,,,,
68825792,1803,1801,1802,1803,,,,,
68828291,1800,1798,1799,1800,,,,,
68830790,1797,1795,1795,1797,,,,,
68833289,1793,1792,1792,1793,,,,,
68835788,1790,1788,1789,1790,,,,,
68838287,1786,1785,1785,1786,,,,,
68840786,1783,1782,1782,1783,,,,,
68843285,1780,1778,1779,1780,,,,,
68845784,1776,1775,1776,1776,,,,,
68848283,1773,1772,1772,1773,,,,,
68850782,1770,1769,1769,1770,,,,,
68853281,1767,1765,1766,1767,,,,,
68855780,1763,1762,1763,1763,,,,,
68858279,1760,1759,1760,1760,,,,,
68860778,1757,1756,1757,1757,,,,,
68863277,1754,1753,1753,1754,,,,,
68865776,1751,1750,1750,1751,,,,,
68868275,1747,1747,1747,1748,,,,,
68870774,1744,1744,1744,1745,,,,,
68873273,1741,1741,1741,1742,,,,,
68875772,1738,1738,1738,1739,,,,,
68878271,1735,1735,1736,1736,,,,,
68880770,1733,1732,1733,1733,,,,,
68883269,1730,1729,1730,1730,,,,,
68885768,1727,1727,1727,1727,,,,,
68888267,1724,1724,1724,1724,,,,,
68890766,1721,1721,1722,1721,,,,,
68893265,1718,1719,1719,1719,,,,,
68895764,1716,1716,1716,1716,,,,,
68898263,1713,1713,1714,1713,,,,,
68900762,1710,1711,1711,1711,,,,,
68903261,1708,1708,1709,1708,,,,,
68905760,1705,1706,1706,1705,,,,,
68908259,1703,1703,1704,1703,,,,,
68910758,1700,1701,1701,1701,,,,,
68913257,1698,1698,1699,1698,,,,,
68915756,1696,1696,1697,1696,,,,,
68918255,1693,1694,1694,1693,,,,,
68920754,1691,1692,1692,1691,,,,,
68923253,1689,1690,1690,1689,,,,,
68925752,1686,1687,1688,1687,,,,,
68928251,1684,1685,1686,1685,,,,,
68930750,1682,1683,1684,1683,,,,,
68933249,1680,1681,1682,1681,,,,,
68935748,1678,1680,1680,1679,,,,,
68938247,1676,1678,1678,1677,,,,,
68940746,1674,1676,1676,1675,,,,,
68943245,1673,1674,1674,1673,,,,,
68945744,1671,1672,1672,1671,,,,,
68948243,1669,1671,1671,1670,,,,,
68950742,1667,1669,1669,1668,,,,,
68953241,1666,1668,1668,1666,,,,,
68955740,1664,1666,1666,1665,,,,,
68958239,1663,1664,1664,1663,,,,,
68960738,1661,1663,1663,1662,,,,,
68963237,1660,1662,1662,1660,,,,,
68965736,1658,1660,1660,1659,,,,,
68968235,1657,1659,1659,1657,,,,,
68970734,1655,1658,1658,1656,,,,,
68973233,1654,1656,1656,1655,,,,,
68975732,1653,1655,1655,1653,,,,,
68978231,1651,1654,1654,1652,,,,,
68980730,1650,1653,1653,1651,,,,,
68983229,1649,1652,1652,1650,,,,,
68985728,1648,1651,1651,1649,,,,,
68988227,1647,1650,1650,1648,,,,,
68990726,1646,1649,1649,1647,,,,,
68993225,1645,1648,1648,1646,,,,,
68995724,1644,1647,1647,1645,,,,,
68998223,1643,1646,1646,1644,,,,,
69000722,1642,1645,1645,1643,,,,,
