timestamp,TimeUS,C1,C2,C3,C4,C5,C6,C7,C8,C9,C10,C11,C12,C13,C14
1706512730.90004015,90328854,1000,1000,1000,1000,0,0,0,0,0,0,0,0,0,0
1706512731.00000000,90428814,1000,1000,1000,1000,0,0,0,0,0,0,0,0,0,0
1706512731.09996009,90528774,1000,1000,1000,1000,0,0,0,0,0,0,0,0,0,0
1706512731.19992018,90628734,1000,1000,1000,1000,0,0,0,0,0,0,0,0,0,0
1706512731.29988003,90728694,1000,1000,1000,1000,0,0,0,0,0,0,0,0,0,0
1706512731.39984012,90828654,1000,1000,1000,1000,0,0,0,0,0,0,0,0,0,0
1706512731.49979997,90928614,1000,1000,1000,1000,0,0,0,0,0,0,0,0,0,0
1706512731.59976006,91028574,1000,1000,1000,1000,0,0,0,0,0,0,0,0,0,0
1706512731.69972014,91128534,1000,1000,1000,1000,0,0,0,0,0,0,0,0,0,0
1706512731.79967999,91228494,1000,1000,1000,1000,0,0,0,0,0,0,0,0,0,0
1706512731.89964008,91328454,1000,1000,1000,1000,0,0,0,0,0,0,0,0,0,0
1706512731.99960017,91428414,1000,1000,1000,1000,0,0,0,0,0,0,0,0,0,0
1706512732.09956002,91528374,1000,1000,1000,1000,0,0,0,0,0,0,0,0,0,0
1706512732.19952011,91628334,1000,1000,1000,1000,0,0,0,0,0,0,0,0,0,0
1706512732.29947996,91728294,1000,1000,1000,1000,0,0,0,0,0,0,0,0,0,0
1706512732.39944005,91828254,1000,1000,1000,1000,0,0,0,0,0,0,0,0,0,0
1706512732.49940014,91928214,1000,1000,1000,1000,0,0,0,0,0,0,0,0,0,0
1706512732.59935999,92028174,1000,1000,1000,1000,0,0,0,0,0,0,0,0,0,0
1706512732.70015311,92128967,1000,1000,1000,1000,0,0,0,0,0,0,0,0,0,0
1706512732.80011296,92228927,1000,1000,1000,1000,0,0,0,0,0,0,0,0,0,0
1706512732.90007305,92328887,1012,1012,1012,1012,0,0,0,0,0,0,0,0,0,0
1706512733.00003314,92428847,1042,1042,1042,1042,0,0,0,0,0,0,0,0,0,0
1706512733.09999299,92528807,1072,1072,1072,1072,0,0,0,0,0,0,0,0,0,0
1706512733.19995308,92628767,1102,1102,1102,1102,0,0,0,0,0,0,0,0,0,0
1706512733.29991317,92728727,1132,1132,1132,1132,0,0,0,0,0,0,0,0,0,0
1706512733.39987302,92828687,1271,1259,1260,1272,0,0,0,0,0,0,0,0,0,0
1706512733.49983311,92928647,1484,1473,1474,1484,0,0,0,0,0,0,0,0,0,0
1706512733.59979296,93028607,1646,1638,1638,1647,0,0,0,0,0,0,0,0,0,0
1706512733.69975305,93128567,1784,1776,1776,1785,0,0,0,0,0,0,0,0,0,0
1706512733.79971313,93228527,1886,1878,1879,1886,0,0,0,0,0,0,0,0,0,0
1706512733.89967299,93328487,1873,1868,1868,1873,0,0,0,0,0,0,0,0,0,0
1706512733.99963307,93428447,1749,1748,1749,1749,0,0,0,0,0,0,0,0,0,0
1706512734.09959316,93528407,1646,1648,1648,1646,0,0,0,0,0,0,0,0,0,0
1706512734.19955301,93628367,1614,1617,1618,1614,0,0,0,0,0,0,0,0,0,0
1706512734.29951310,93728327,1620,1623,1623,1620,0,0,0,0,0,0,0,0,0,0
1706512734.39947295,93828287,1632,1634,1634,1632,0,0,0,0,0,0,0,0,0,0
1706512734.49943304,93928247,1632,1633,1633,1632,0,0,0,0,0,0,0,0,0,0
1706512734.59939313,94028207,1627,1626,1626,1627,0,0,0,0,0,0,0,0,0,0
1706512734.69935298,94128167,1620,1618,1618,1620,0,0,0,0,0,0,0,0,0,0
1706512734.80014610,94228960,1616,1614,1614,1615,0,0,0,0,0,0,0,0,0,0
1706512734.90010595,94328920,1614,1613,1613,1614,0,0,0,0,0,0,0,0,0,0
1706512735.00006604,94428880,1614,1614,1614,1614,0,0,0,0,0,0,0,0,0,0
1706512735.10002613,94528840,1616,1615,1615,1616,0,0,0,0,0,0,0,0,0,0
1706512735.19998598,94628800,1617,1617,1617,1617,0,0,0,0,0,0,0,0,0,0
1706512735.29994607,94728760,1618,1619,1618,1619,0,0,0,0,0,0,0,0,0,0
1706512735.39990616,94828720,1614,1618,1618,1614,0,0,0,0,0,0,0,0,0,0
1706512735.49986601,94928680,1584,1585,1585,1585,0,0,0,0,0,0,0,0,0,0
1706512735.59982610,95028640,1572,1572,1571,1573,0,0,0,0,0,0,0,0,0,0
1706512735.69978595,95128600,1562,1561,1561,1563,0,0,0,0,0,0,0,0,0,0
1706512735.79974604,95228560,1552,1551,1551,1553,0,0,0,0,0,0,0,0,0,0
1706512735.89970613,95328520,1544,1543,1543,1544,0,0,0,0,0,0,0,0,0,0
1706512735.99966598,95428480,1535,1535,1535,1535,0,0,0,0,0,0,0,0,0,0
1706512736.09962606,95528440,1525,1525,1525,1525,0,0,0,0,0,0,0,0,0,0
1706512736.19958615,95628400,1516,1517,1516,1517,0,0,0,0,0,0,0,0,0,0
1706512736.29954600,95728360,1513,1513,1512,1513,0,0,0,0,0,0,0,0,0,0
1706512736.39950609,95828320,1511,1511,1511,1511,0,0,0,0,0,0,0,0,0,0
1706512736.49946618,95928280,1510,1510,1510,1511,0,0,0,0,0,0,0,0,0,0
1706512736.59942603,96028240,1510,1510,1510,1510,0,0,0,0,0,0,0,0,0,0
1706512736.69938612,96128200,1509,1509,1509,1509,0,0,0,0,0,0,0,0,0,0
1706512736.79934597,96228160,1510,1510,1510,1511,0,0,0,0,0,0,0,0,0,0
1706512736.90013909,96328953,1511,1510,1510,1511,0,0,0,0,0,0,0,0,0,0
1706512737.00009918,96428913,1511,1511,1511,1511,0,0,0,0,0,0,0,0,0,0
1706512737.10005903,96528873,1529,1529,1532,1526,0,0,0,0,0,0,0,0,0,0
1706512737.20001912,96628833,1543,1543,1549,1537,0,0,0,0,0,0,0,0,0,0
1706512737.29997897,96728793,1552,1552,1554,1550,0,0,0,0,0,0,0,0,0,0
1706512737.39993906,96828753,1557,1557,1555,1559,0,0,0,0,0,0,0,0,0,0
1706512737.49989915,96928713,1559,1559,1554,1564,0,0,0,0,0,0,0,0,0,0
1706512737.59985900,97028673,1562,1562,1557,1567,0,0,0,0,0,0,0,0,0,0
1706512737.69981909,97128633,1563,1563,1559,1567,0,0,0,0,0,0,0,0,0,0
1706512737.79977918,97228593,1567,1567,1566,1568,0,0,0,0,0,0,0,0,0,0
1706512737.89973903,97328553,1569,1569,1571,1566,0,0,0,0,0,0,0,0,0,0
1706512737.99969912,97428513,1570,1570,1573,1566,0,0,0,0,0,0,0,0,0,0
1706512738.09965897,97528473,1570,1570,1572,1567,0,0,0,0,0,0,0,0,0,0
1706512738.19961905,97628433,1571,1571,1572,1569,0,0,0,0,0,0,0,0,0,0
1706512738.29957914,97728393,1571,1571,1571,1571,0,0,0,0,0,0,0,0,0,0
1706512738.39953899,97828353,1569,1569,1568,1571,0,0,0,0,0,0,0,0,0,0
1706512738.49949908,97928313,1566,1565,1568,1572,0,0,0,0,0,0,0,0,0,0
1706512738.59945917,98028273,1565,1564,1569,1572,0,0,0,0,0,0,0,0,0,0
1706512738.69941902,98128233,1564,1564,1569,1571,0,0,0,0,0,0,0,0,0,0
1706512738.79937911,98228193,1565,1566,1569,1570,0,0,0,0,0,0,0,0,0,0
1706512738.90017200,98328986,1566,1567,1569,1568,0,0,0,0,0,0,0,0,0,0
1706512739.00013208,98428946,1567,1569,1569,1567,0,0,0,0,0,0,0,0,0,0
1706512739.10009217,98528906,1569,1568,1568,1567,0,0,0,0,0,0,0,0,0,0
1706512739.20005202,98628866,1570,1570,1568,1567,0,0,0,0,0,0,0,0,0,0
1706512739.30001211,98728826,1571,1570,1567,1567,0,0,0,0,0,0,0,0,0,0
1706512739.39997196,98828786,1573,1572,1568,1568,0,0,0,0,0,0,0,0,0,0
1706512739.49993205,98928746,1573,1572,1569,1569,0,0,0,0,0,0,0,0,0,0
1706512739.59989214,99028706,1573,1573,1569,1570,0,0,0,0,0,0,0,0,0,0
1706512739.69985199,99128666,1573,1572,1570,1571,0,0,0,0,0,0,0,0,0,0
1706512739.79981208,99228626,1573,1574,1572,1572,0,0,0,0,0,0,0,0,0,0
1706512739.89977217,99328586,1574,1574,1574,1573,0,0,0,0,0,0,0,0,0,0
1706512739.99973202,99428546,1574,1575,1576,1574,0,0,0,0,0,0,0,0,0,0
1706512740.09969211,99528506,1575,1575,1577,1575,0,0,0,0,0,0,0,0,0,0
1706512740.19965196,99628466,1575,1575,1576,1576,0,0,0,0,0,0,0,0,0,0
1706512740.29961205,99728426,1575,1575,1576,1576,0,0,0,0,0,0,0,0,0,0
1706512740.39957213,99828386,1575,1576,1576,1577,0,0,0,0,0,0,0,0,0,0
1706512740.49953198,99928346,1576,1576,1577,1577,0,0,0,0,0,0,0,0,0,0
1706512740.59949207,100028306,1576,1576,1577,1576,0,0,0,0,0,0,0,0,0,0
1706512740.69945216,100128266,1576,1576,1576,1577,0,0,0,0,0,0,0,0,0,0
1706512740.79941201,100228226,1576,1577,1576,1577,0,0,0,0,0,0,0,0,0,0
1706512740.89937210,100328186,1577,1577,1577,1577,0,0,0,0,0,0,0,0,0,0
1706512741.00016499,100428979,1577,1578,1578,1577,0,0,0,0,0,0,0,0,0,0
1706512741.10012507,100528939,1579,1579,1579,1578,0,0,0,0,0,0,0,0,0,0
1706512741.20008516,100628899,1578,1578,1578,1577,0,0,0,0,0,0,0,0,0,0
1706512741.30004501,100728859,1579,1578,1578,1578,0,0,0,0,0,0,0,0,0,0
1706512741.40000510,100828819,1579,1579,1578,1578,0,0,0,0,0,0,0,0,0,0
1706512741.49996495,100928779,1578,1579,1578,1579,0,0,0,0,0,0,0,0,0,0
1706512741.59992504,101028739,1578,1578,1578,1578,0,0,0,0,0,0,0,0,0,0
1706512741.69988513,101128699,1579,1578,1579,1579,0,0,0,0,0,0,0,0,0,0
1706512741.79984498,101228659,1580,1579,1580,1579,0,0,0,0,0,0,0,0,0,0
1706512741.89980507,101328619,1579,1579,1579,1579,0,0,0,0,0,0,0,0,0,0
1706512741.99976516,101428579,1580,1579,1580,1580,0,0,0,0,0,0,0,0,0,0
1706512742.09972501,101528539,1580,1579,1580,1580,0,0,0,0,0,0,0,0,0,0
1706512742.19968510,101628499,1580,1580,1580,1580,0,0,0,0,0,0,0,0,0,0
1706512742.29964495,101728459,1579,1579,1580,1580,0,0,0,0,0,0,0,0,0,0
1706512742.39960504,101828419,1580,1580,1580,1580,0,0,0,0,0,0,0,0,0,0
1706512742.49956512,101928379,1579,1579,1579,1579,0,0,0,0,0,0,0,0,0,0
1706512742.59952497,102028339,1579,1579,1579,1579,0,0,0,0,0,0,0,0,0,0
1706512742.69948506,102128299,1580,1579,1579,1580,0,0,0,0,0,0,0,0,0,0
1706512742.79944515,102228259,1580,1580,1580,1580,0,0,0,0,0,0,0,0,0,0
1706512742.89940500,102328219,1580,1580,1580,1580,0,0,0,0,0,0,0,0,0,0
1706512742.99936509,102428179,1580,1581,1581,1580,0,0,0,0,0,0,0,0,0,0
1706512743.10015798,102528972,1581,1581,1581,1581,0,0,0,0,0,0,0,0,0,0
1706512743.20011806,102628932,1580,1580,1580,1580,0,0,0,0,0,0,0,0,0,0
1706512743.30007815,102728892,1580,1580,1580,1580,0,0,0,0,0,0,0,0,0,0
1706512743.40003800,102828852,1579,1579,1580,1580,0,0,0,0,0,0,0,0,0,0
1706512743.49999809,102928812,1580,1579,1579,1580,0,0,0,0,0,0,0,0,0,0
1706512743.59995818,103028772,1579,1580,1580,1580,0,0,0,0,0,0,0,0,0,0
1706512743.69991803,103128732,1579,1579,1580,1580,0,0,0,0,0,0,0,0,0,0
1706512743.79987812,103228692,1581,1580,1580,1581,0,0,0,0,0,0,0,0,0,0
1706512743.89983797,103328652,1581,1581,1581,1581,0,0,0,0,0,0,0,0,0,0
1706512743.99979806,103428612,1581,1581,1582,1581,0,0,0,0,0,0,0,0,0,0
1706512744.09975815,103528572,1581,1580,1581,1581,0,0,0,0,0,0,0,0,0,0
1706512744.19971800,103628532,1581,1580,1581,1581,0,0,0,0,0,0,0,0,0,0
1706512744.29967809,103728492,1581,1581,1581,1581,0,0,0,0,0,0,0,0,0,0
1706512744.39963818,103828452,1580,1581,1581,1580,0,0,0,0,0,0,0,0,0,0
1706512744.49959803,103928412,1582,1581,1582,1582,0,0,0,0,0,0,0,0,0,0
1706512744.59955812,104028372,1581,1582,1582,1582,0,0,0,0,0,0,0,0,0,0
1706512744.69951797,104128332,1581,1581,1585,1578,0,0,0,0,0,0,0,0,0,0
1706512744.79947805,104228292,1580,1581,1587,1572,0,0,0,0,0,0,0,0,0,0
1706512744.89943814,104328252,1579,1582,1580,1573,0,0,0,0,0,0,0,0,0,0
1706512744.99939799,104428212,1578,1581,1572,1573,0,0,0,0,0,0,0,0,0,0
1706512745.09935808,104528172,1577,1579,1564,1570,0,0,0,0,0,0,0,0,0,0
1706512745.20015097,104628965,1577,1579,1558,1565,0,0,0,0,0,0,0,0,0,0
1706512745.30011106,104728925,1579,1578,1556,1561,0,0,0,0,0,0,0,0,0,0
1706512745.40007114,104828885,1580,1579,1555,1557,0,0,0,0,0,0,0,0,0,0
1706512745.50003099,104928845,1580,1579,1556,1555,0,0,0,0,0,0,0,0,0,0
1706512745.59999108,105028805,1579,1578,1555,1553,0,0,0,0,0,0,0,0,0,0
1706512745.69995117,105128765,1578,1579,1556,1554,0,0,0,0,0,0,0,0,0,0
1706512745.79991102,105228725,1577,1578,1555,1554,0,0,0,0,0,0,0,0,0,0
1706512745.89987111,105328685,1576,1577,1555,1554,0,0,0,0,0,0,0,0,0,0
1706512745.99983096,105428645,1575,1577,1553,1553,0,0,0,0,0,0,0,0,0,0
1706512746.09979105,105528605,1575,1576,1551,1552,0,0,0,0,0,0,0,0,0,0
1706512746.19975114,105628565,1576,1578,1550,1550,0,0,0,0,0,0,0,0,0,0
1706512746.29971099,105728525,1578,1580,1549,1549,0,0,0,0,0,0,0,0,0,0
1706512746.39967108,105828485,1580,1581,1546,1545,0,0,0,0,0,0,0,0,0,0
1706512746.49963117,105928445,1583,1583,1543,1543,0,0,0,0,0,0,0,0,0,0
1706512746.59959102,106028405,1586,1587,1542,1541,0,0,0,0,0,0,0,0,0,0
1706512746.69955111,106128365,1589,1590,1539,1538,0,0,0,0,0,0,0,0,0,0
1706512746.79951096,106228325,1592,1593,1537,1537,0,0,0,0,0,0,0,0,0,0
1706512746.89947104,106328285,1595,1595,1536,1537,0,0,0,0,0,0,0,0,0,0
1706512746.99943113,106428245,1596,1595,1536,1537,0,0,0,0,0,0,0,0,0,0
1706512747.09939098,106528205,1594,1594,1536,1538,0,0,0,0,0,0,0,0,0,0
1706512747.19935107,106628165,1593,1593,1539,1542,0,0,0,0,0,0,0,0,0,0
1706512747.30014396,106728958,1590,1589,1543,1547,0,0,0,0,0,0,0,0,0,0
1706512747.40010405,106828918,1585,1583,1551,1554,0,0,0,0,0,0,0,0,0,0
1706512747.50006413,106928878,1577,1573,1560,1563,0,0,0,0,0,0,0,0,0,0
1706512747.60002398,107028838,1566,1562,1571,1573,0,0,0,0,0,0,0,0,0,0
1706512747.69998407,107128798,1555,1551,1584,1585,0,0,0,0,0,0,0,0,0,0
1706512747.79994416,107228758,1544,1542,1596,1596,0,0,0,0,0,0,0,0,0,0
1706512747.89990401,107328718,1536,1536,1606,1605,0,0,0,0,0,0,0,0,0,0
1706512747.99986410,107428678,1531,1532,1612,1612,0,0,0,0,0,0,0,0,0,0
1706512748.09982395,107528638,1529,1530,1615,1614,0,0,0,0,0,0,0,0,0,0
1706512748.19978404,107628598,1531,1533,1614,1613,0,0,0,0,0,0,0,0,0,0
1706512748.29974413,107728558,1537,1539,1611,1610,0,0,0,0,0,0,0,0,0,0
1706512748.39970398,107828518,1543,1545,1604,1605,0,0,0,0,0,0,0,0,0,0
1706512748.49966407,107928478,1552,1553,1597,1598,0,0,0,0,0,0,0,0,0,0
1706512748.59962416,108028438,1561,1562,1591,1590,0,0,0,0,0,0,0,0,0,0
1706512748.69958401,108128398,1570,1570,1584,1582,0,0,0,0,0,0,0,0,0,0
1706512748.79954410,108228358,1576,1575,1576,1575,0,0,0,0,0,0,0,0,0,0
1706512748.89950418,108328318,1583,1582,1572,1572,0,0,0,0,0,0,0,0,0,0
1706512748.99946404,108428278,1586,1585,1568,1569,0,0,0,0,0,0,0,0,0,0
1706512749.09942412,108528238,1587,1586,1566,1566,0,0,0,0,0,0,0,0,0,0
1706512749.19938397,108628198,1588,1586,1566,1567,0,0,0,0,0,0,0,0,0,0
1706512749.29934406,108728158,1586,1584,1567,1567,0,0,0,0,0,0,0,0,0,0
1706512749.40013695,108828951,1584,1583,1570,1570,0,0,0,0,0,0,0,0,0,0
1706512749.50009704,108928911,1581,1580,1573,1572,0,0,0,0,0,0,0,0,0,0
1706512749.60005713,109028871,1577,1577,1575,1574,0,0,0,0,0,0,0,0,0,0
1706512749.70001698,109128831,1225,1226,1578,1578,0,0,0,0,0,0,0,0,0,0
1706512749.79997706,109228791,1331,1337,1651,1660,0,0,0,0,0,0,0,0,0,0
1706512749.89993715,109328751,1516,1526,1657,1659,0,0,0,0,0,0,0,0,0,0
1706512749.99989700,109428711,1553,1563,1622,1612,0,0,0,0,0,0,0,0,0,0
1706512750.09985709,109528671,1588,1592,1604,1594,0,0,0,0,0,0,0,0,0,0
1706512750.19981718,109628631,1614,1610,1594,1587,0,0,0,0,0,0,0,0,0,0
1706512750.29977703,109728591,1630,1619,1585,1584,0,0,0,0,0,0,0,0,0,0
1706512750.39973712,109828551,1648,1635,1565,1570,0,0,0,0,0,0,0,0,0,0
1706512750.49969697,109928511,1664,1656,1538,1547,0,0,0,0,0,0,0,0,0,0
1706512750.59965706,110028471,1669,1663,1529,1538,0,0,0,0,0,0,0,0,0,0
1706512750.69961715,110128431,1658,1659,1535,1542,0,0,0,0,0,0,0,0,0,0
1706512750.79957700,110228391,1645,1650,1545,1547,0,0,0,0,0,0,0,0,0,0
1706512750.89953709,110328351,1633,1640,1553,1552,0,0,0,0,0,0,0,0,0,0
1706512750.99949718,110428311,1625,1630,1559,1556,0,0,0,0,0,0,0,0,0,0
1706512751.09945703,110528271,1620,1622,1564,1561,0,0,0,0,0,0,0,0,0,0
1706512751.19941711,110628231,1615,1614,1567,1563,0,0,0,0,0,0,0,0,0,0
1706512751.29937696,110728191,1608,1601,1574,1572,0,0,0,0,0,0,0,0,0,0
1706512751.40017009,110828984,1592,1583,1589,1590,0,0,0,0,0,0,0,0,0,0
1706512751.50013018,110928944,1572,1565,1603,1604,0,0,0,0,0,0,0,0,0,0
1706512751.60009003,111028904,1556,1555,1609,1611,0,0,0,0,0,0,0,0,0,0
1706512751.70005012,111128864,1549,1552,1610,1612,0,0,0,0,0,0,0,0,0,0
1706512751.80000997,111228824,1545,1552,1607,1607,0,0,0,0,0,0,0,0,0,0
1706512751.89997005,111328784,1547,1556,1604,1602,0,0,0,0,0,0,0,0,0,0
1706512751.99993014,111428744,1553,1560,1601,1597,0,0,0,0,0,0,0,0,0,0
1706512752.09988999,111528704,1560,1564,1597,1593,0,0,0,0,0,0,0,0,0,0
1706512752.19985008,111628664,1567,1568,1592,1589,0,0,0,0,0,0,0,0,0,0
1706512752.29981017,111728624,1572,1570,1586,1584,0,0,0,0,0,0,0,0,0,0
1706512752.39977002,111828584,1577,1575,1582,1582,0,0,0,0,0,0,0,0,0,0
1706512752.49973011,111928544,1580,1577,1577,1578,0,0,0,0,0,0,0,0,0,0
1706512752.59968996,112028504,1581,1579,1574,1575,0,0,0,0,0,0,0,0,0,0
1706512752.69965005,112128464,1585,1583,1576,1568,0,0,0,0,0,0,0,0,0,0
1706512752.79961014,112228424,1591,1586,1571,1561,0,0,0,0,0,0,0,0,0,0
1706512752.89956999,112328384,1595,1590,1561,1558,0,0,0,0,0,0,0,0,0,0
1706512752.99953008,112428344,1594,1591,1551,1554,0,0,0,0,0,0,0,0,0,0
1706512753.09949017,112528304,1592,1593,1546,1551,0,0,0,0,0,0,0,0,0,0
1706512753.19945002,112628264,1590,1593,1547,1549,0,0,0,0,0,0,0,0,0,0
1706512753.29941010,112728224,1586,1590,1549,1549,0,0,0,0,0,0,0,0,0,0
1706512753.39936996,112828184,1582,1586,1552,1550,0,0,0,0,0,0,0,0,0,0
1706512753.50016308,112928977,1578,1580,1556,1553,0,0,0,0,0,0,0,0,0,0
1706512753.60012317,113028937,1574,1576,1560,1558,0,0,0,0,0,0,0,0,0,0
1706512753.70008302,113128897,1571,1571,1561,1560,0,0,0,0,0,0,0,0,0,0
1706512753.80004311,113228857,1569,1569,1561,1560,0,0,0,0,0,0,0,0,0,0
1706512753.90000296,113328817,1567,1568,1559,1559,0,0,0,0,0,0,0,0,0,0
1706512753.99996305,113428777,1568,1568,1556,1556,0,0,0,0,0,0,0,0,0,0
1706512754.09992313,113528737,1568,1569,1553,1553,0,0,0,0,0,0,0,0,0,0
1706512754.19988298,113628697,1570,1571,1550,1550,0,0,0,0,0,0,0,0,0,0
1706512754.29984307,113728657,1572,1573,1547,1546,0,0,0,0,0,0,0,0,0,0
1706512754.39980316,113828617,1575,1576,1544,1543,0,0,0,0,0,0,0,0,0,0
1706512754.49976301,113928577,1578,1578,1541,1540,0,0,0,0,0,0,0,0,0,0
1706512754.59972310,114028537,1583,1583,1538,1537,0,0,0,0,0,0,0,0,0,0
1706512754.69968295,114128497,1588,1588,1533,1532,0,0,0,0,0,0,0,0,0,0
1706512754.79964304,114228457,1593,1593,1529,1529,0,0,0,0,0,0,0,0,0,0
1706512754.89960313,114328417,1596,1596,1528,1529,0,0,0,0,0,0,0,0,0,0
1706512754.99956298,114428377,1597,1597,1528,1530,0,0,0,0,0,0,0,0,0,0
1706512755.09952307,114528337,1596,1595,1531,1534,0,0,0,0,0,0,0,0,0,0
1706512755.19948316,114628297,1593,1592,1535,1539,0,0,0,0,0,0,0,0,0,0
1706512755.29944301,114728257,1587,1586,1542,1546,0,0,0,0,0,0,0,0,0,0
1706512755.39940310,114828217,1581,1580,1550,1554,0,0,0,0,0,0,0,0,0,0
1706512755.49936318,114928177,1575,1573,1559,1563,0,0,0,0,0,0,0,0,0,0
1706512755.60015607,115028970,1568,1566,1566,1570,0,0,0,0,0,0,0,0,0,0
1706512755.70011616,115128930,1561,1559,1573,1576,0,0,0,0,0,0,0,0,0,0
1706512755.80007601,115228890,1555,1554,1580,1582,0,0,0,0,0,0,0,0,0,0
1706512755.90003610,115328850,1550,1549,1585,1586,0,0,0,0,0,0,0,0,0,0
1706512755.99999595,115428810,1545,1544,1591,1590,0,0,0,0,0,0,0,0,0,0
1706512756.09995604,115528770,1542,1541,1596,1594,0,0,0,0,0,0,0,0,0,0
1706512756.19991612,115628730,1539,1539,1599,1597,0,0,0,0,0,0,0,0,0,0
1706512756.29987597,115728690,1538,1539,1601,1600,0,0,0,0,0,0,0,0,0,0
1706512756.39983606,115828650,1538,1539,1602,1601,0,0,0,0,0,0,0,0,0,0
1706512756.49979615,115928610,1538,1540,1600,1600,0,0,0,0,0,0,0,0,0,0
1706512756.59975600,116028570,1540,1542,1597,1597,0,0,0,0,0,0,0,0,0,0
1706512756.69971609,116128530,1545,1547,1594,1594,0,0,0,0,0,0,0,0,0,0
1706512756.79967618,116228490,1550,1552,1590,1590,0,0,0,0,0,0,0,0,0,0
1706512756.89963603,116328450,1557,1558,1586,1586,0,0,0,0,0,0,0,0,0,0
1706512756.99959612,116428410,1563,1563,1581,1581,0,0,0,0,0,0,0,0,0,0
1706512757.09955597,116528370,1569,1569,1578,1577,0,0,0,0,0,0,0,0,0,0
1706512757.19951606,116628330,1575,1574,1576,1576,0,0,0,0,0,0,0,0,0,0
1706512757.29947615,116728290,1578,1577,1575,1573,0,0,0,0,0,0,0,0,0,0
1706512757.39943600,116828250,1581,1580,1573,1572,0,0,0,0,0,0,0,0,0,0
1706512757.49939609,116928210,1584,1582,1573,1573,0,0,0,0,0,0,0,0,0,0
1706512757.59935617,117028170,1583,1583,1571,1571,0,0,0,0,0,0,0,0,0,0
1706512757.70014906,117128963,1584,1583,1571,1572,0,0,0,0,0,0,0,0,0,0
1706512757.80010915,117228923,1584,1584,1572,1573,0,0,0,0,0,0,0,0,0,0
1706512757.90006900,117328883,1584,1584,1573,1574,0,0,0,0,0,0,0,0,0,0
1706512758.00002909,117428843,1583,1584,1574,1574,0,0,0,0,0,0,0,0,0,0
1706512758.09998918,117528803,1583,1583,1575,1575,0,0,0,0,0,0,0,0,0,0
1706512758.19994903,117628763,1582,1582,1576,1575,0,0,0,0,0,0,0,0,0,0
1706512758.29990911,117728723,1581,1581,1576,1576,0,0,0,0,0,0,0,0,0,0
1706512758.39986897,117828683,1581,1580,1576,1577,0,0,0,0,0,0,0,0,0,0
1706512758.49982905,117928643,1581,1580,1578,1578,0,0,0,0,0,0,0,0,0,0
1706512758.59978914,118028603,1579,1579,1578,1578,0,0,0,0,0,0,0,0,0,0
1706512758.69974899,118128563,1579,1580,1579,1579,0,0,0,0,0,0,0,0,0,0
1706512758.79970908,118228523,1578,1579,1579,1579,0,0,0,0,0,0,0,0,0,0
1706512758.89966917,118328483,1578,1578,1579,1579,0,0,0,0,0,0,0,0,0,0
1706512758.99962902,118428443,1577,1578,1580,1579,0,0,0,0,0,0,0,0,0,0
1706512759.09958911,118528403,1578,1578,1580,1580,0,0,0,0,0,0,0,0,0,0
1706512759.19954896,118628363,1578,1578,1580,1580,0,0,0,0,0,0,0,0,0,0
1706512759.29950905,118728323,1578,1578,1580,1580,0,0,0,0,0,0,0,0,0,0
1706512759.39946914,118828283,1578,1578,1580,1579,0,0,0,0,0,0,0,0,0,0
1706512759.49942899,118928243,1578,1579,1580,1580,0,0,0,0,0,0,0,0,0,0
1706512759.59938908,119028203,1579,1579,1581,1581,0,0,0,0,0,0,0,0,0,0
1706512759.69934916,119128163,1578,1579,1579,1579,0,0,0,0,0,0,0,0,0,0
1706512759.80014205,119228956,1579,1579,1579,1580,0,0,0,0,0,0,0,0,0,0
1706512759.90010214,119328916,1580,1580,1580,1580,0,0,0,0,0,0,0,0,0,0
1706512760.00006199,119428876,1580,1580,1580,1580,0,0,0,0,0,0,0,0,0,0
1706512760.10002208,119528836,1580,1580,1580,1579,0,0,0,0,0,0,0,0,0,0
1706512760.19998217,119628796,1580,1581,1580,1580,0,0,0,0,0,0,0,0,0,0
1706512760.29994202,119728756,1582,1582,1581,1581,0,0,0,0,0,0,0,0,0,0
1706512760.39990211,119828716,1582,1582,1581,1581,0,0,0,0,0,0,0,0,0,0
1706512760.49986196,119928676,1581,1581,1580,1580,0,0,0,0,0,0,0,0,0,0
1706512760.59982204,120028636,1581,1581,1579,1580,0,0,0,0,0,0,0,0,0,0
1706512760.69978213,120128596,1580,1580,1579,1579,0,0,0,0,0,0,0,0,0,0
1706512760.79974198,120228556,1581,1581,1580,1580,0,0,0,0,0,0,0,0,0,0
1706512760.89970207,120328516,1581,1580,1579,1580,0,0,0,0,0,0,0,0,0,0
1706512760.99966216,120428476,1581,1581,1580,1580,0,0,0,0,0,0,0,0,0,0
1706512761.09962201,120528436,1582,1581,1581,1581,0,0,0,0,0,0,0,0,0,0
1706512761.19958210,120628396,1581,1582,1581,1581,0,0,0,0,0,0,0,0,0,0
1706512761.29954195,120728356,1582,1582,1582,1582,0,0,0,0,0,0,0,0,0,0
1706512761.39950204,120828316,1582,1582,1582,1582,0,0,0,0,0,0,0,0,0,0
1706512761.49946213,120928276,1581,1581,1583,1580,0,0,0,0,0,0,0,0,0,0
1706512761.59942198,121028236,1581,1582,1588,1573,0,0,0,0,0,0,0,0,0,0
1706512761.69938207,121128196,1581,1581,1584,1574,0,0,0,0,0,0,0,0,0,0
1706512761.79934216,121228156,1579,1580,1574,1573,0,0,0,0,0,0,0,0,0,0
1706512761.90013504,121328949,1577,1578,1565,1570,0,0,0,0,0,0,0,0,0,0
1706512762.00009513,121428909,1576,1578,1559,1566,0,0,0,0,0,0,0,0,0,0
1706512762.10005498,121528869,1576,1578,1556,1561,0,0,0,0,0,0,0,0,0,0
1706512762.20001507,121628829,1576,1578,1555,1558,0,0,0,0,0,0,0,0,0,0
1706512762.29997516,121728789,1577,1577,1556,1555,0,0,0,0,0,0,0,0,0,0
1706512762.39993501,121828749,1577,1577,1556,1554,0,0,0,0,0,0,0,0,0,0
1706512762.49989510,121928709,1578,1577,1556,1554,0,0,0,0,0,0,0,0,0,0
1706512762.59985518,122028669,1577,1577,1556,1554,0,0,0,0,0,0,0,0,0,0
1706512762.69981503,122128629,1576,1576,1554,1554,0,0,0,0,0,0,0,0,0,0
1706512762.79977512,122228589,1576,1577,1554,1553,0,0,0,0,0,0,0,0,0,0
1706512762.89973497,122328549,1576,1577,1552,1552,0,0,0,0,0,0,0,0,0,0
1706512762.99969506,122428509,1576,1578,1551,1551,0,0,0,0,0,0,0,0,0,0
1706512763.09965515,122528469,1577,1579,1550,1550,0,0,0,0,0,0,0,0,0,0
1706512763.19961500,122628429,1578,1580,1548,1548,0,0,0,0,0,0,0,0,0,0
1706512763.29957509,122728389,1580,1581,1546,1546,0,0,0,0,0,0,0,0,0,0
1706512763.39953518,122828349,1583,1584,1545,1545,0,0,0,0,0,0,0,0,0,0
1706512763.49949503,122928309,1584,1585,1542,1542,0,0,0,0,0,0,0,0,0,0
1706512763.59945512,123028269,1587,1587,1541,1541,0,0,0,0,0,0,0,0,0,0
1706512763.69941497,123128229,1589,1589,1541,1541,0,0,0,0,0,0,0,0,0,0
1706512763.79937506,123228189,1590,1590,1540,1541,0,0,0,0,0,0,0,0,0,0
1706512763.90016818,123328982,1591,1591,1541,1542,0,0,0,0,0,0,0,0,0,0
1706512764.00012803,123428942,1591,1591,1541,1544,0,0,0,0,0,0,0,0,0,0
1706512764.10008812,123528902,1590,1589,1544,1546,0,0,0,0,0,0,0,0,0,0
1706512764.20004797,123628862,1587,1587,1547,1550,0,0,0,0,0,0,0,0,0,0
1706512764.30000806,123728822,1584,1582,1552,1555,0,0,0,0,0,0,0,0,0,0
1706512764.39996815,123828782,1579,1576,1560,1562,0,0,0,0,0,0,0,0,0,0
1706512764.49992800,123928742,1572,1569,1570,1572,0,0,0,0,0,0,0,0,0,0
1706512764.59988809,124028702,1563,1560,1579,1581,0,0,0,0,0,0,0,0,0,0
1706512764.69984818,124128662,1554,1551,1590,1591,0,0,0,0,0,0,0,0,0,0
1706512764.79980803,124228622,1544,1543,1599,1599,0,0,0,0,0,0,0,0,0,0
1706512764.89976811,124328582,1538,1537,1606,1606,0,0,0,0,0,0,0,0,0,0
1706512764.99972796,124428542,1533,1534,1610,1609,0,0,0,0,0,0,0,0,0,0
1706512765.09968805,124528502,1532,1534,1611,1611,0,0,0,0,0,0,0,0,0,0
1706512765.19964814,124628462,1534,1536,1610,1609,0,0,0,0,0,0,0,0,0,0
1706512765.29960799,124728422,1539,1542,1606,1606,0,0,0,0,0,0,0,0,0,0
1706512765.39956808,124828382,1545,1547,1600,1599,0,0,0,0,0,0,0,0,0,0
1706512765.49952817,124928342,1553,1554,1594,1593,0,0,0,0,0,0,0,0,0,0
1706512765.59948802,125028302,1562,1562,1587,1586,0,0,0,0,0,0,0,0,0,0
1706512765.69944811,125128262,1568,1568,1579,1578,0,0,0,0,0,0,0,0,0,0
1706512765.79940796,125228222,1576,1574,1574,1573,0,0,0,0,0,0,0,0,0,0
1706512765.89936805,125328182,1581,1580,1569,1569,0,0,0,0,0,0,0,0,0,0
1706512766.00016117,125428975,1585,1584,1567,1567,0,0,0,0,0,0,0,0,0,0
1706512766.10012102,125528935,1587,1586,1564,1565,0,0,0,0,0,0,0,0,0,0
1706512766.20008111,125628895,1589,1587,1566,1566,0,0,0,0,0,0,0,0,0,0
1706512766.30004096,125728855,1588,1588,1568,1568,0,0,0,0,0,0,0,0,0,0
1706512766.40000105,125828815,1587,1586,1569,1570,0,0,0,0,0,0,0,0,0,0
1706512766.49996114,125928775,1583,1583,1571,1571,0,0,0,0,0,0,0,0,0,0
1706512766.59992099,126028735,1582,1582,1576,1575,0,0,0,0,0,0,0,0,0,0
1706512766.69988108,126128695,1580,1580,1578,1578,0,0,0,0,0,0,0,0,0,0
1706512766.79984117,126228655,1577,1577,1581,1580,0,0,0,0,0,0,0,0,0,0
1706512766.89980102,126328615,1575,1576,1582,1583,0,0,0,0,0,0,0,0,0,0
1706512766.99976110,126428575,1574,1574,1584,1584,0,0,0,0,0,0,0,0,0,0
1706512767.09972095,126528535,1573,1574,1585,1585,0,0,0,0,0,0,0,0,0,0
1706512767.19968104,126628495,1574,1574,1585,1585,0,0,0,0,0,0,0,0,0,0
1706512767.29964113,126728455,1573,1574,1583,1584,0,0,0,0,0,0,0,0,0,0
1706512767.39960098,126828415,1575,1575,1583,1583,0,0,0,0,0,0,0,0,0,0
1706512767.49956107,126928375,1576,1576,1582,1582,0,0,0,0,0,0,0,0,0,0
1706512767.59952116,127028335,1577,1577,1581,1580,0,0,0,0,0,0,0,0,0,0
1706512767.69948101,127128295,1579,1579,1580,1580,0,0,0,0,0,0,0,0,0,0
1706512767.79944110,127228255,1580,1580,1579,1579,0,0,0,0,0,0,0,0,0,0
1706512767.89940095,127328215,1582,1581,1579,1579,0,0,0,0,0,0,0,0,0,0
1706512767.99936104,127428175,1582,1582,1578,1578,0,0,0,0,0,0,0,0,0,0
1706512768.10015416,127528968,1583,1582,1578,1577,0,0,0,0,0,0,0,0,0,0
1706512768.20011401,127628928,1582,1582,1577,1577,0,0,0,0,0,0,0,0,0,0
1706512768.30007410,127728888,1582,1582,1578,1578,0,0,0,0,0,0,0,0,0,0
1706512768.40003395,127828848,1582,1582,1578,1578,0,0,0,0,0,0,0,0,0,0
1706512768.49999404,127928808,1581,1581,1578,1578,0,0,0,0,0,0,0,0,0,0
1706512768.59995413,128028768,1581,1581,1579,1579,0,0,0,0,0,0,0,0,0,0
1706512768.69991398,128128728,1581,1581,1581,1581,0,0,0,0,0,0,0,0,0,0
1706512768.79987407,128228688,1581,1581,1582,1582,0,0,0,0,0,0,0,0,0,0
1706512768.89983416,128328648,1580,1580,1581,1581,0,0,0,0,0,0,0,0,0,0
1706512768.99979401,128428608,1579,1580,1581,1581,0,0,0,0,0,0,0,0,0,0
1706512769.09975410,128528568,1579,1580,1581,1581,0,0,0,0,0,0,0,0,0,0
1706512769.19971418,128628528,1579,1580,1581,1581,0,0,0,0,0,0,0,0,0,0
1706512769.29967403,128728488,1580,1580,1581,1581,0,0,0,0,0,0,0,0,0,0
1706512769.39963412,128828448,1580,1580,1581,1582,0,0,0,0,0,0,0,0,0,0
1706512769.49959397,128928408,1581,1581,1582,1582,0,0,0,0,0,0,0,0,0,0
1706512769.59955406,129028368,1581,1581,1585,1578,0,0,0,0,0,0,0,0,0,0
1706512769.69951415,129128328,1581,1581,1588,1573,0,0,0,0,0,0,0,0,0,0
1706512769.79947400,129228288,1580,1580,1583,1575,0,0,0,0,0,0,0,0,0,0
1706512769.89943409,129328248,1577,1577,1574,1575,0,0,0,0,0,0,0,0,0,0
1706512769.99939418,129428208,1574,1573,1567,1573,0,0,0,0,0,0,0,0,0,0
1706512770.09935403,129528168,1571,1571,1564,1571,0,0,0,0,0,0,0,0,0,0
1706512770.20014715,129628961,1569,1570,1564,1569,0,0,0,0,0,0,0,0,0,0
1706512770.30010700,129728921,1567,1568,1564,1567,0,0,0,0,0,0,0,0,0,0
1706512770.40006709,129828881,1567,1568,1567,1566,0,0,0,0,0,0,0,0,0,0
1706512770.50002718,129928841,1566,1567,1568,1566,0,0,0,0,0,0,0,0,0,0
1706512770.59998703,130028801,1565,1565,1567,1565,0,0,0,0,0,0,0,0,0,0
1706512770.69994712,130128761,1566,1565,1568,1566,0,0,0,0,0,0,0,0,0,0
1706512770.79990697,130228721,1564,1564,1566,1564,0,0,0,0,0,0,0,0,0,0
1706512770.89986706,130328681,1564,1564,1566,1565,0,0,0,0,0,0,0,0,0,0
1706512770.99982715,130428641,1562,1563,1564,1564,0,0,0,0,0,0,0,0,0,0
1706512771.09978700,130528601,1562,1562,1563,1564,0,0,0,0,0,0,0,0,0,0
1706512771.19974709,130628561,1562,1562,1563,1563,0,0,0,0,0,0,0,0,0,0
1706512771.29970717,130728521,1561,1561,1562,1562,0,0,0,0,0,0,0,0,0,0
1706512771.39966702,130828481,1561,1561,1562,1561,0,0,0,0,0,0,0,0,0,0
1706512771.49962711,130928441,1560,1560,1560,1560,0,0,0,0,0,0,0,0,0,0
1706512771.59958696,131028401,1560,1560,1560,1559,0,0,0,0,0,0,0,0,0,0
1706512771.69954705,131128361,1559,1559,1559,1558,0,0,0,0,0,0,0,0,0,0
1706512771.79950714,131228321,1559,1559,1559,1558,0,0,0,0,0,0,0,0,0,0
1706512771.89946699,131328281,1559,1558,1559,1558,0,0,0,0,0,0,0,0,0,0
1706512771.99942708,131428241,1558,1558,1558,1557,0,0,0,0,0,0,0,0,0,0
1706512772.09938717,131528201,1556,1555,1555,1554,0,0,0,0,0,0,0,0,0,0
1706512772.19934702,131628161,1556,1556,1554,1556,0,0,0,0,0,0,0,0,0,0
1706512772.30014014,131728954,1555,1554,1556,1551,0,0,0,0,0,0,0,0,0,0
1706512772.40009999,131828914,1553,1552,1553,1550,0,0,0,0,0,0,0,0,0,0
1706512772.50006008,131928874,1549,1549,1546,1549,0,0,0,0,0,0,0,0,0,0
1706512772.60002017,132028834,1545,1546,1541,1547,0,0,0,0,0,0,0,0,0,0
1706512772.69998002,132128794,1540,1540,1534,1541,0,0,0,0,0,0,0,0,0,0
1706512772.79994011,132228754,1533,1534,1528,1533,0,0,0,0,0,0,0,0,0,0
1706512772.89989996,132328714,1527,1527,1522,1525,0,0,0,0,0,0,0,0,0,0
1706512772.99986005,132428674,1523,1523,1520,1521,0,0,0,0,0,0,0,0,0,0
1706512773.09982014,132528634,1521,1521,1520,1520,0,0,0,0,0,0,0,0,0,0
1706512773.19977999,132628594,1521,1521,1522,1521,0,0,0,0,0,0,0,0,0,0
1706512773.29974008,132728554,1522,1522,1524,1524,0,0,0,0,0,0,0,0,0,0
1706512773.39970016,132828514,1524,1523,1528,1528,0,0,0,0,0,0,0,0,0,0
1706512773.49966002,132928474,1527,1527,1532,1534,0,0,0,0,0,0,0,0,0,0
1706512773.59962010,133028434,1532,1532,1539,1539,0,0,0,0,0,0,0,0,0,0
1706512773.69957995,133128394,1535,1535,1540,1541,0,0,0,0,0,0,0,0,0,0
1706512773.79954004,133228354,1538,1538,1543,1544,0,0,0,0,0,0,0,0,0,0
1706512773.89950013,133328314,1541,1541,1545,1546,0,0,0,0,0,0,0,0,0,0
1706512773.99945998,133428274,1543,1543,1545,1545,0,0,0,0,0,0,0,0,0,0
1706512774.09942007,133528234,1545,1545,1545,1545,0,0,0,0,0,0,0,0,0,0
1706512774.19938016,133628194,1547,1547,1545,1545,0,0,0,0,0,0,0,0,0,0
1706512774.29934001,133728154,1548,1547,1545,1545,0,0,0,0,0,0,0,0,0,0
1706512774.40013313,133828947,1549,1549,1546,1545,0,0,0,0,0,0,0,0,0,0
1706512774.50009298,133928907,1549,1550,1546,1545,0,0,0,0,0,0,0,0,0,0
1706512774.60005307,134028867,1548,1549,1544,1544,0,0,0,0,0,0,0,0,0,0
1706512774.70001316,134128827,1548,1548,1544,1544,0,0,0,0,0,0,0,0,0,0
1706512774.79997301,134228787,1548,1548,1545,1545,0,0,0,0,0,0,0,0,0,0
1706512774.89993310,134328747,1547,1547,1545,1545,0,0,0,0,0,0,0,0,0,0
1706512774.99989295,134428707,1547,1547,1546,1546,0,0,0,0,0,0,0,0,0,0
1706512775.09985304,134528667,1546,1546,1546,1545,0,0,0,0,0,0,0,0,0,0
1706512775.19981313,134628627,1545,1546,1546,1545,0,0,0,0,0,0,0,0,0,0
1706512775.29977298,134728587,1545,1545,1546,1546,0,0,0,0,0,0,0,0,0,0
1706512775.39973307,134828547,1545,1545,1547,1546,0,0,0,0,0,0,0,0,0,0
1706512775.49969316,134928507,1545,1544,1546,1546,0,0,0,0,0,0,0,0,0,0
1706512775.59965301,135028467,1543,1544,1545,1545,0,0,0,0,0,0,0,0,0,0
1706512775.69961309,135128427,1543,1543,1545,1545,0,0,0,0,0,0,0,0,0,0
1706512775.79957318,135228387,1543,1543,1545,1544,0,0,0,0,0,0,0,0,0,0
1706512775.89953303,135328347,1543,1543,1544,1544,0,0,0,0,0,0,0,0,0,0
1706512775.99949312,135428307,1544,1545,1545,1545,0,0,0,0,0,0,0,0,0,0
1706512776.09945297,135528267,1544,1544,1544,1544,0,0,0,0,0,0,0,0,0,0
1706512776.19941306,135628227,1544,1544,1543,1544,0,0,0,0,0,0,0,0,0,0
1706512776.29937315,135728187,1544,1544,1544,1544,0,0,0,0,0,0,0,0,0,0
1706512776.40016603,135828980,1543,1544,1543,1543,0,0,0,0,0,0,0,0,0,0
1706512776.50012612,135928940,1544,1544,1543,1543,0,0,0,0,0,0,0,0,0,0
1706512776.60008597,136028900,1544,1544,1544,1544,0,0,0,0,0,0,0,0,0,0
1706512776.70004606,136128860,1543,1543,1543,1543,0,0,0,0,0,0,0,0,0,0
1706512776.80000615,136228820,1544,1544,1543,1543,0,0,0,0,0,0,0,0,0,0
1706512776.89996600,136328780,1544,1544,1543,1544,0,0,0,0,0,0,0,0,0,0
1706512776.99992609,136428740,1544,1544,1544,1543,0,0,0,0,0,0,0,0,0,0
1706512777.09988618,136528700,1544,1544,1544,1544,0,0,0,0,0,0,0,0,0,0
1706512777.19984603,136628660,1543,1543,1543,1543,0,0,0,0,0,0,0,0,0,0
1706512777.29980612,136728620,1544,1543,1544,1544,0,0,0,0,0,0,0,0,0,0
1706512777.39976597,136828580,1543,1543,1543,1543,0,0,0,0,0,0,0,0,0,0
1706512777.49972606,136928540,1543,1543,1543,1543,0,0,0,0,0,0,0,0,0,0
1706512777.59968615,137028500,1543,1543,1543,1543,0,0,0,0,0,0,0,0,0,0
1706512777.69964600,137128460,1544,1544,1544,1545,0,0,0,0,0,0,0,0,0,0
1706512777.79960608,137228420,1543,1543,1543,1544,0,0,0,0,0,0,0,0,0,0
1706512777.89956617,137328380,1544,1543,1543,1544,0,0,0,0,0,0,0,0,0,0
1706512777.99952602,137428340,1544,1544,1544,1544,0,0,0,0,0,0,0,0,0,0
1706512778.09948611,137528300,1544,1544,1544,1544,0,0,0,0,0,0,0,0,0,0
1706512778.19944596,137628260,1543,1543,1543,1543,0,0,0,0,0,0,0,0,0,0
1706512778.29940605,137728220,1543,1543,1543,1543,0,0,0,0,0,0,0,0,0,0
1706512778.39936614,137828180,1544,1544,1544,1544,0,0,0,0,0,0,0,0,0,0
1706512778.50015903,137928973,1545,1544,1544,1545,0,0,0,0,0,0,0,0,0,0
1706512778.60011911,138028933,1544,1545,1545,1545,0,0,0,0,0,0,0,0,0,0
1706512778.70007896,138128893,1545,1544,1544,1545,0,0,0,0,0,0,0,0,0,0
1706512778.80003905,138228853,1544,1544,1544,1544,0,0,0,0,0,0,0,0,0,0
1706512778.89999914,138328813,1545,1545,1544,1544,0,0,0,0,0,0,0,0,0,0
1706512778.99995899,138428773,1544,1544,1544,1544,0,0,0,0,0,0,0,0,0,0
1706512779.09991908,138528733,1545,1544,1544,1545,0,0,0,0,0,0,0,0,0,0
1706512779.19987917,138628693,1544,1544,1544,1544,0,0,0,0,0,0,0,0,0,0
1706512779.29983902,138728653,1545,1545,1545,1545,0,0,0,0,0,0,0,0,0,0
1706512779.39979911,138828613,1545,1545,1545,1545,0,0,0,0,0,0,0,0,0,0
1706512779.49975896,138928573,1545,1544,1544,1545,0,0,0,0,0,0,0,0,0,0
1706512779.59971905,139028533,1544,1545,1545,1545,0,0,0,0,0,0,0,0,0,0
1706512779.69967914,139128493,1544,1544,1544,1544,0,0,0,0,0,0,0,0,0,0
1706512779.79963899,139228453,1544,1545,1545,1545,0,0,0,0,0,0,0,0,0,0
1706512779.89959908,139328413,1545,1545,1545,1545,0,0,0,0,0,0,0,0,0,0
1706512779.99955916,139428373,1544,1545,1545,1544,0,0,0,0,0,0,0,0,0,0
1706512780.09951901,139528333,1545,1544,1544,1545,0,0,0,0,0,0,0,0,0,0
1706512780.19947910,139628293,1544,1544,1544,1544,0,0,0,0,0,0,0,0,0,0
1706512780.29943895,139728253,1545,1545,1545,1545,0,0,0,0,0,0,0,0,0,0
1706512780.39939904,139828213,1545,1545,1546,1546,0,0,0,0,0,0,0,0,0,0
1706512780.49935913,139928173,1545,1545,1545,1545,0,0,0,0,0,0,0,0,0,0
1706512780.60015202,140028966,1544,1545,1545,1545,0,0,0,0,0,0,0,0,0,0
1706512780.70011210,140128926,1545,1545,1544,1545,0,0,0,0,0,0,0,0,0,0
1706512780.80007195,140228886,1544,1544,1544,1543,0,0,0,0,0,0,0,0,0,0
1706512780.90003204,140328846,1543,1544,1543,1543,0,0,0,0,0,0,0,0,0,0
1706512780.99999213,140428806,1544,1544,1544,1543,0,0,0,0,0,0,0,0,0,0
1706512781.09995198,140528766,1544,1544,1544,1544,0,0,0,0,0,0,0,0,0,0
1706512781.19991207,140628726,1544,1544,1544,1544,0,0,0,0,0,0,0,0,0,0
1706512781.29987216,140728686,1543,1543,1543,1544,0,0,0,0,0,0,0,0,0,0
1706512781.39983201,140828646,1544,1544,1544,1544,0,0,0,0,0,0,0,0,0,0
1706512781.49979210,140928606,1544,1544,1544,1544,0,0,0,0,0,0,0,0,0,0
1706512781.59975195,141028566,1544,1543,1544,1544,0,0,0,0,0,0,0,0,0,0
1706512781.69971204,141128526,1544,1544,1543,1544,0,0,0,0,0,0,0,0,0,0
1706512781.79967213,141228486,1544,1543,1544,1543,0,0,0,0,0,0,0,0,0,0
1706512781.89963198,141328446,1544,1544,1544,1544,0,0,0,0,0,0,0,0,0,0
1706512781.99959207,141428406,1543,1544,1544,1544,0,0,0,0,0,0,0,0,0,0
1706512782.09955215,141528366,1543,1544,1544,1544,0,0,0,0,0,0,0,0,0,0
1706512782.19951200,141628326,1544,1544,1544,1544,0,0,0,0,0,0,0,0,0,0
1706512782.29947209,141728286,1545,1544,1544,1544,0,0,0,0,0,0,0,0,0,0
1706512782.39943218,141828246,1545,1544,1545,1544,0,0,0,0,0,0,0,0,0,0
1706512782.49939203,141928206,1544,1544,1544,1544,0,0,0,0,0,0,0,0,0,0
1706512782.59935212,142028166,1544,1545,1544,1544,0,0,0,0,0,0,0,0,0,0
1706512782.70014501,142128959,1447,1447,1413,1412,0,0,0,0,0,0,0,0,0,0
1706512782.80010509,142228919,1355,1355,1275,1273,0,0,0,0,0,0,0,0,0,0
1706512782.90006518,142328879,1324,1324,1224,1222,0,0,0,0,0,0,0,0,0,0
1706512783.00002503,142428839,1312,1313,1204,1202,0,0,0,0,0,0,0,0,0,0
1706512783.09998512,142528799,1292,1292,1166,1164,0,0,0,0,0,0,0,0,0,0
1706512783.19994497,142628759,1243,1244,1154,1150,0,0,0,0,0,0,0,0,0,0
1706512783.29990506,142728719,1133,1133,1153,1150,0,0,0,0,0,0,0,0,0,0
1706512783.39986515,142828679,1075,1075,1153,1150,0,0,0,0,0,0,0,0,0,0
1706512783.49982500,142928639,1075,1075,1152,1150,0,0,0,0,0,0,0,0,0,0
1706512783.59978509,143028599,1075,1075,1153,1150,0,0,0,0,0,0,0,0,0,0
1706512783.69974518,143128559,1076,1056,1150,1178,0,0,0,0,0,0,0,0,0,0
1706512783.79970503,143228519,1076,1064,1150,1167,0,0,0,0,0,0,0,0,0,0
1706512783.89966512,143328479,1076,1067,1150,1162,0,0,0,0,0,0,0,0,0,0
1706512783.99962497,143428439,1076,1068,1150,1161,0,0,0,0,0,0,0,0,0,0
1706512784.09958506,143528399,1076,1068,1150,1161,0,0,0,0,0,0,0,0,0,0
1706512784.19954515,143628359,1076,1068,1150,1161,0,0,0,0,0,0,0,0,0,0
1706512784.29950500,143728319,1076,1067,1150,1162,0,0,0,0,0,0,0,0,0,0
1706512784.39946508,143828279,1076,1067,1150,1163,0,0,0,0,0,0,0,0,0,0
1706512784.49942517,143928239,1076,1076,1150,1150,0,0,0,0,0,0,0,0,0,0
1706512784.59938502,144028199,1076,1075,1150,1151,0,0,0,0,0,0,0,0,0,0
1706512784.69934511,144128159,1076,1075,1150,1152,0,0,0,0,0,0,0,0,0,0
1706512784.80013800,144228952,1076,1074,1150,1152,0,0,0,0,0,0,0,0,0,0
1706512784.90009809,144328912,1077,1074,1150,1152,0,0,0,0,0,0,0,0,0,0
1706512785.00005817,144428872,1000,1000,1000,1000,0,0,0,0,0,0,0,0,0,0
1706512785.10001802,144528832,1000,1000,1000,1000,0,0,0,0,0,0,0,0,0,0
1706512785.19997811,144628792,1000,1000,1000,1000,0,0,0,0,0,0,0,0,0,0
1706512785.29993796,144728752,1000,1000,1000,1000,0,0,0,0,0,0,0,0,0,0
1706512785.39989805,144828712,1000,1000,1000,1000,0,0,0,0,0,0,0,0,0,0
1706512785.49985814,144928672,1000,1000,1000,1000,0,0,0,0,0,0,0,0,0,0
1706512785.59981799,145028632,1000,1000,1000,1000,0,0,0,0,0,0,0,0,0,0
1706512785.69977808,145128592,1000,1000,1000,1000,0,0,0,0,0,0,0,0,0,0
1706512785.79973817,145228552,1000,1000,1000,1000,0,0,0,0,0,0,0,0,0,0
1706512785.89969802,145328512,1000,1000,1000,1000,0,0,0,0,0,0,0,0,0,0
1706512785.99965811,145428472,1000,1000,1000,1000,0,0,0,0,0,0,0,0,0,0
1706512786.09961796,145528432,1000,1000,1000,1000,0,0,0,0,0,0,0,0,0,0
1706512786.19957805,145628392,1000,1000,1000,1000,0,0,0,0,0,0,0,0,0,0
1706512786.29953814,145728352,1000,1000,1000,1000,0,0,0,0,0,0,0,0,0,0
1706512786.39949799,145828312,1000,1000,1000,1000,0,0,0,0,0,0,0,0,0,0
1706512786.49945807,145928272,1000,1000,1000,1000,0,0,0,0,0,0,0,0,0,0
1706512786.59941816,146028232,1000,1000,1000,1000,0,0,0,0,0,0,0,0,0,0
1706512786.69937801,146128192,1000,1000,1000,1000,0,0,0,0,0,0,0,0,0,0
1706512786.80017114,146228985,1000,1000,1000,1000,0,0,0,0,0,0,0,0,0,0
1706512786.90013099,146328945,1000,1000,1000,1000,0,0,0,0,0,0,0,0,0,0
1706512787.00009108,146428905,1000,1000,1000,1000,0,0,0,0,0,0,0,0,0,0
1706512787.10005116,146528865,1000,1000,1000,1000,0,0,0,0,0,0,0,0,0,0
1706512787.20001101,146628825,1000,1000,1000,1000,0,0,0,0,0,0,0,0,0,0
1706512787.29997110,146728785,1000,1000,1000,1000,0,0,0,0,0,0,0,0,0,0
1706512787.39993095,146828745,1000,1000,1000,1000,0,0,0,0,0,0,0,0,0,0
1706512787.49989104,146928705,1000,1000,1000,1000,0,0,0,0,0,0,0,0,0,0
1706512787.59985113,147028665,1000,1000,1000,1000,0,0,0,0,0,0,0,0,0,0
1706512787.69981098,147128625,1000,1000,1000,1000,0,0,0,0,0,0,0,0,0,0
1706512787.79977107,147228585,1000,1000,1000,1000,0,0,0,0,0,0,0,0,0,0
1706512787.89973116,147328545,1000,1000,1000,1000,0,0,0,0,0,0,0,0,0,0
1706512787.99969101,147428505,1000,1000,1000,1000,0,0,0,0,0,0,0,0,0,0
1706512788.09965110,147528465,1000,1000,1000,1000,0,0,0,0,0,0,0,0,0,0
1706512788.19961095,147628425,1000,1000,1000,1000,0,0,0,0,0,0,0,0,0,0
1706512788.29957104,147728385,1000,1000,1000,1000,0,0,0,0,0,0,0,0,0,0
1706512788.39953113,147828345,1000,1000,1000,1000,0,0,0,0,0,0,0,0,0,0
1706512788.49949098,147928305,1000,1000,1000,1000,0,0,0,0,0,0,0,0,0,0
1706512788.59945107,148028265,1000,1000,1000,1000,0,0,0,0,0,0,0,0,0,0
1706512788.69941115,148128225,1000,1000,1000,1000,0,0,0,0,0,0,0,0,0,0
1706512788.79937100,148228185,1000,1000,1000,1000,0,0,0,0,0,0,0,0,0,0
1706512788.90016413,148328978,1000,1000,1000,1000,0,0,0,0,0,0,0,0,0,0
1706512789.00012398,148428938,1000,1000,1000,1000,0,0,0,0,0,0,0,0,0,0
1706512789.10008407,148528898,1000,1000,1000,1000,0,0,0,0,0,0,0,0,0,0
1706512789.20004416,148628858,1000,1000,1000,1000,0,0,0,0,0,0,0,0,0,0
1706512789.30000401,148728818,1000,1000,1000,1000,0,0,0,0,0,0,0,0,0,0
1706512789.39996409,148828778,1000,1000,1000,1000,0,0,0,0,0,0,0,0,0,0
1706512789.49992418,148928738,1000,1000,1000,1000,0,0,0,0,0,0,0,0,0,0
1706512789.59988403,149028698,1000,1000,1000,1000,0,0,0,0,0,0,0,0,0,0
1706512789.69984412,149128658,1000,1000,1000,1000,0,0,0,0,0,0,0,0,0,0
1706512789.79980397,149228618,1000,1000,1000,1000,0,0,0,0,0,0,0,0,0,0
1706512789.89976406,149328578,1000,1000,1000,1000,0,0,0,0,0,0,0,0,0,0
1706512789.99972415,149428538,1000,1000,1000,1000,0,0,0,0,0,0,0,0,0,0
1706512790.09968400,149528498,1000,1000,1000,1000,0,0,0,0,0,0,0,0,0,0
1706512790.19964409,149628458,1000,1000,1000,1000,0,0,0,0,0,0,0,0,0,0
1706512790.29960418,149728418,1000,1000,1000,1000,0,0,0,0,0,0,0,0,0,0
1706512790.39956403,149828378,1000,1000,1000,1000,0,0,0,0,0,0,0,0,0,0
1706512790.49952412,149928338,1000,1000,1000,1000,0,0,0,0,0,0,0,0,0,0
1706512790.59948397,150028298,1000,1000,1000,1000,0,0,0,0,0,0,0,0,0,0
1706512790.69944406,150128258,1000,1000,1000,1000,0,0,0,0,0,0,0,0,0,0
1706512790.79940414,150228218,1000,1000,1000,1000,0,0,0,0,0,0,0,0,0,0
1706512790.89936399,150328178,1000,1000,1000,1000,0,0,0,0,0,0,0,0,0,0
1706512791.00015712,150428971,1000,1000,1000,1000,0,0,0,0,0,0,0,0,0,0
1706512791.10011697,150528931,1000,1000,1000,1000,0,0,0,0,0,0,0,0,0,0
1706512791.20007706,150628891,1000,1000,1000,1000,0,0,0,0,0,0,0,0,0,0
1706512791.30003715,150728851,1000,1000,1000,1000,0,0,0,0,0,0,0,0,0,0
1706512791.39999700,150828811,1000,1000,1000,1000,0,0,0,0,0,0,0,0,0,0
1706512791.49995708,150928771,1000,1000,1000,1000,0,0,0,0,0,0,0,0,0,0
1706512791.59991717,151028731,1000,1000,1000,1000,0,0,0,0,0,0,0,0,0,0
1706512791.69987702,151128691,1000,1000,1000,1000,0,0,0,0,0,0,0,0,0,0
1706512791.79983711,151228651,1000,1000,1000,1000,0,0,0,0,0,0,0,0,0,0
1706512791.89979696,151328611,1000,1000,1000,1000,0,0,0,0,0,0,0,0,0,0
1706512791.99975705,151428571,1000,1000,1000,1000,0,0,0,0,0,0,0,0,0,0
1706512792.09971714,151528531,1000,1000,1000,1000,0,0,0,0,0,0,0,0,0,0
1706512792.19967699,151628491,1000,1000,1000,1000,0,0,0,0,0,0,0,0,0,0
1706512792.29963708,151728451,1000,1000,1000,1000,0,0,0,0,0,0,0,0,0,0
1706512792.39959717,151828411,1000,1000,1000,1000,0,0,0,0,0,0,0,0,0,0
1706512792.49955702,151928371,1000,1000,1000,1000,0,0,0,0,0,0,0,0,0,0
1706512792.59951711,152028331,1000,1000,1000,1000,0,0,0,0,0,0,0,0,0,0
1706512792.69947696,152128291,1000,1000,1000,1000,0,0,0,0,0,0,0,0,0,0
1706512792.79943705,152228251,1000,1000,1000,1000,0,0,0,0,0,0,0,0,0,0
1706512792.89939713,152328211,1000,1000,1000,1000,0,0,0,0,0,0,0,0,0,0
1706512792.99935699,152428171,1000,1000,1000,1000,0,0,0,0,0,0,0,0,0,0
1706512793.10015011,152528964,1000,1000,1000,1000,0,0,0,0,0,0,0,0,0,0
1706512793.20010996,152628924,1000,1000,1000,1000,0,0,0,0,0,0,0,0,0,0
1706512793.30007005,152728884,1000,1000,1000,1000,0,0,0,0,0,0,0,0,0,0
1706512793.40003014,152828844,1000,1000,1000,1000,0,0,0,0,0,0,0,0,0,0
1706512793.49998999,152928804,1000,1000,1000,1000,0,0,0,0,0,0,0,0,0,0
1706512793.59995008,153028764,1000,1000,1000,1000,0,0,0,0,0,0,0,0,0,0
1706512793.69991016,153128724,1000,1000,1000,1000,0,0,0,0,0,0,0,0,0,0
1706512793.79987001,153228684,1000,1000,1000,1000,0,0,0,0,0,0,0,0,0,0
1706512793.89983010,153328644,1000,1000,1000,1000,0,0,0,0,0,0,0,0,0,0
1706512793.99978995,153428604,1000,1000,1000,1000,0,0,0,0,0,0,0,0,0,0
1706512794.09975004,153528564,1000,1000,1000,1000,0,0,0,0,0,0,0,0,0,0
1706512794.19971013,153628524,1000,1000,1000,1000,0,0,0,0,0,0,0,0,0,0
1706512794.29966998,153728484,1000,1000,1000,1000,0,0,0,0,0,0,0,0,0,0
1706512794.39963007,153828444,1000,1000,1000,1000,0,0,0,0,0,0,0,0,0,0
1706512794.49959016,153928404,1000,1000,1000,1000,0,0,0,0,0,0,0,0,0,0
1706512794.59955001,154028364,1000,1000,1000,1000,0,0,0,0,0,0,0,0,0,0
1706512794.69951010,154128324,1000,1000,1000,1000,0,0,0,0,0,0,0,0,0,0
1706512794.79946995,154228284,1000,1000,1000,1000,0,0,0,0,0,0,0,0,0,0
1706512794.89943004,154328244,1000,1000,1000,1000,0,0,0,0,0,0,0,0,0,0
1706512794.99939013,154428204,1000,1000,1000,1000,0,0,0,0,0,0,0,0,0,0
1706512795.09934998,154528164,1000,1000,1000,1000,0,0,0,0,0,0,0,0,0,0
1706512795.20014310,154628957,1000,1000,1000,1000,0,0,0,0,0,0,0,0,0,0
1706512795.30010295,154728917,1000,1000,1000,1000,0,0,0,0,0,0,0,0,0,0
1706512795.40006304,154828877,1000,1000,1000,1000,0,0,0,0,0,0,0,0,0,0
1706512795.50002313,154928837,1000,1000,1000,1000,0,0,0,0,0,0,0,0,0,0
1706512795.59998298,155028797,1000,1000,1000,1000,0,0,0,0,0,0,0,0,0,0
1706512795.69994307,155128757,1000,1000,1000,1000,0,0,0,0,0,0,0,0,0,0
1706512795.79990315,155228717,1000,1000,1000,1000,0,0,0,0,0,0,0,0,0,0
1706512795.89986300,155328677,1000,1000,1000,1000,0,0,0,0,0,0,0,0,0,0
1706512795.99982309,155428637,1000,1000,1000,1000,0,0,0,0,0,0,0,0,0,0
1706512796.09978318,155528597,1000,1000,1000,1000,0,0,0,0,0,0,0,0,0,0
1706512796.19974303,155628557,1000,1000,1000,1000,0,0,0,0,0,0,0,0,0,0
1706512796.29970312,155728517,1000,1000,1000,1000,0,0,0,0,0,0,0,0,0,0
1706512796.39966297,155828477,1000,1000,1000,1000,0,0,0,0,0,0,0,0,0,0
1706512796.49962306,155928437,1000,1000,1000,1000,0,0,0,0,0,0,0,0,0,0
1706512796.59958315,156028397,1000,1000,1000,1000,0,0,0,0,0,0,0,0,0,0
1706512796.69954300,156128357,1000,1000,1000,1000,0,0,0,0,0,0,0,0,0,0
1706512796.79950309,156228317,1000,1000,1000,1000,0,0,0,0,0,0,0,0,0,0
1706512796.89946318,156328277,1000,1000,1000,1000,0,0,0,0,0,0,0,0,0,0
1706512796.99942303,156428237,1000,1000,1000,1000,0,0,0,0,0,0,0,0,0,0
1706512797.09938312,156528197,1000,1000,1000,1000,0,0,0,0,0,0,0,0,0,0
1706512797.19934297,156628157,1000,1000,1000,1000,0,0,0,0,0,0,0,0,0,0
1706512797.30013609,156728950,1000,1000,1000,1000,0,0,0,0,0,0,0,0,0,0
1706512797.40009618,156828910,1000,1000,1000,1000,0,0,0,0,0,0,0,0,0,0
1706512797.50005603,156928870,1000,1000,1000,1000,0,0,0,0,0,0,0,0,0,0
1706512797.60001612,157028830,1000,1000,1000,1000,0,0,0,0,0,0,0,0,0,0
1706512797.69997597,157128790,1000,1000,1000,1000,0,0,0,0,0,0,0,0,0,0
1706512797.79993606,157228750,1000,1000,1000,1000,0,0,0,0,0,0,0,0,0,0
1706512797.89989614,157328710,1000,1000,1000,1000,0,0,0,0,0,0,0,0,0,0
1706512797.99985600,157428670,1000,1000,1000,1000,0,0,0,0,0,0,0,0,0,0
1706512798.09981608,157528630,1000,1000,1000,1000,0,0,0,0,0,0,0,0,0,0
1706512798.19977617,157628590,1000,1000,1000,1000,0,0,0,0,0,0,0,0,0,0
1706512798.29973602,157728550,1000,1000,1000,1000,0,0,0,0,0,0,0,0,0,0
1706512798.39969611,157828510,1000,1000,1000,1000,0,0,0,0,0,0,0,0,0,0
1706512798.49965596,157928470,1000,1000,1000,1000,0,0,0,0,0,0,0,0,0,0
1706512798.59961605,158028430,1000,1000,1000,1000,0,0,0,0,0,0,0,0,0,0
1706512798.69957614,158128390,1000,1000,1000,1000,0,0,0,0,0,0,0,0,0,0
1706512798.79953599,158228350,1000,1000,1000,1000,0,0,0,0,0,0,0,0,0,0
1706512798.89949608,158328310,1000,1000,1000,1000,0,0,0,0,0,0,0,0,0,0
1706512798.99945617,158428270,1000,1000,1000,1000,0,0,0,0,0,0,0,0,0,0
1706512799.09941602,158528230,1000,1000,1000,1000,0,0,0,0,0,0,0,0,0,0
1706512799.19937611,158628190,1000,1000,1000,1000,0,0,0,0,0,0,0,0,0,0
1706512799.30016899,158728983,1000,1000,1000,1000,0,0,0,0,0,0,0,0,0,0
1706512799.40012908,158828943,1000,1000,1000,1000,0,0,0,0,0,0,0,0,0,0
1706512799.50008917,158928903,1000,1000,1000,1000,0,0,0,0,0,0,0,0,0,0
1706512799.60004902,159028863,1000,1000,1000,1000,0,0,0,0,0,0,0,0,0,0
1706512799.70000911,159128823,1000,1000,1000,1000,0,0,0,0,0,0,0,0,0,0
1706512799.79996896,159228783,1000,1000,1000,1000,0,0,0,0,0,0,0,0,0,0
1706512799.89992905,159328743,1000,1000,1000,1000,0,0,0,0,0,0,0,0,0,0
