timestamp,TimeUS,C1,C2,C3,C4,C5,C6,C7,C8,C9,C10,C11,C12,C13,C14
1706516242.10003996,134528667,1000,1000,1000,1000,0,0,0,0,0,0,0,0,0,0
1706516242.20000005,134628627,1000,1000,1000,1000,0,0,0,0,0,0,0,0,0,0
1706516242.29995990,134728587,1000,1000,1000,1000,0,0,0,0,0,0,0,0,0,0
1706516242.39991999,134828547,1000,1000,1000,1000,0,0,0,0,0,0,0,0,0,0
1706516242.49988008,134928507,1000,1000,1000,1000,0,0,0,0,0,0,0,0,0,0
1706516242.59983993,135028467,1000,1000,1000,1000,0,0,0,0,0,0,0,0,0,0
1706516242.69980001,135128427,1000,1000,1000,1000,0,0,0,0,0,0,0,0,0,0
1706516242.79976010,135228387,1000,1000,1000,1000,0,0,0,0,0,0,0,0,0,0
1706516242.89971995,135328347,1000,1000,1000,1000,0,0,0,0,0,0,0,0,0,0
1706516242.99968004,135428307,1000,1000,1000,1000,0,0,0,0,0,0,0,0,0,0
1706516243.09963989,135528267,1000,1000,1000,1000,0,0,0,0,0,0,0,0,0,0
1706516243.19959998,135628227,1000,1000,1000,1000,0,0,0,0,0,0,0,0,0,0
1706516243.29956007,135728187,1000,1000,1000,1000,0,0,0,0,0,0,0,0,0,0
1706516243.40035295,135828980,1000,1000,1000,1000,0,0,0,0,0,0,0,0,0,0
1706516243.50031304,135928940,1000,1000,1000,1000,0,0,0,0,0,0,0,0,0,0
1706516243.60027289,136028900,1000,1000,1000,1000,0,0,0,0,0,0,0,0,0,0
1706516243.70023298,136128860,1000,1000,1000,1000,0,0,0,0,0,0,0,0,0,0
1706516243.80019307,136228820,1000,1000,1000,1000,0,0,0,0,0,0,0,0,0,0
1706516243.90015292,136328780,1000,1000,1000,1000,0,0,0,0,0,0,0,0,0,0
1706516244.00011301,136428740,1000,1000,1000,1000,0,0,0,0,0,0,0,0,0,0
1706516244.10007310,136528700,1003,1003,1003,1003,0,0,0,0,0,0,0,0,0,0
1706516244.20003295,136628660,1033,1033,1033,1033,0,0,0,0,0,0,0,0,0,0
1706516244.29999304,136728620,1063,1063,1063,1063,0,0,0,0,0,0,0,0,0,0
1706516244.39995289,136828580,1093,1093,1093,1093,0,0,0,0,0,0,0,0,0,0
1706516244.49991298,136928540,1123,1123,1123,1123,0,0,0,0,0,0,0,0,0,0
1706516244.59987307,137028500,1191,1170,1172,1192,0,0,0,0,0,0,0,0,0,0
1706516244.69983292,137128460,1429,1414,1415,1430,0,0,0,0,0,0,0,0,0,0
1706516244.79979300,137228420,1603,1590,1590,1603,0,0,0,0,0,0,0,0,0,0
1706516244.89975309,137328380,1747,1734,1735,1748,0,0,0,0,0,0,0,0,0,0
1706516244.99971294,137428340,1873,1861,1861,1874,0,0,0,0,0,0,0,0,0,0
1706516245.09967303,137528300,1894,1884,1885,1895,0,0,0,0,0,0,0,0,0,0
1706516245.19963288,137628260,1796,1792,1792,1797,0,0,0,0,0,0,0,0,0,0
1706516245.29959297,137728220,1676,1679,1679,1677,0,0,0,0,0,0,0,0,0,0
1706516245.39955306,137828180,1626,1632,1632,1626,0,0,0,0,0,0,0,0,0,0
1706516245.50034595,137928973,1625,1630,1631,1624,0,0,0,0,0,0,0,0,0,0
1706516245.60030603,138028933,1636,1640,1640,1636,0,0,0,0,0,0,0,0,0,0
1706516245.70026588,138128893,1639,1639,1640,1638,0,0,0,0,0,0,0,0,0,0
1706516245.80022597,138228853,1637,1625,1623,1638,0,0,0,0,0,0,0,0,0,0
1706516245.90018606,138328813,1612,1610,1602,1619,0,0,0,0,0,0,0,0,0,0
1706516246.00014591,138428773,1604,1603,1595,1610,0,0,0,0,0,0,0,0,0,0
1706516246.10010600,138528733,1601,1601,1597,1604,0,0,0,0,0,0,0,0,0,0
1706516246.20006609,138628693,1603,1603,1604,1602,0,0,0,0,0,0,0,0,0,0
1706516246.30002594,138728653,1608,1608,1611,1604,0,0,0,0,0,0,0,0,0,0
1706516246.39998603,138828613,1615,1615,1619,1611,0,0,0,0,0,0,0,0,0,0
1706516246.49994588,138928573,1584,1586,1602,1569,0,0,0,0,0,0,0,0,0,0
1706516246.59990597,139028533,1570,1573,1587,1558,0,0,0,0,0,0,0,0,0,0
1706516246.69986606,139128493,1561,1561,1566,1558,0,0,0,0,0,0,0,0,0,0
1706516246.79982591,139228453,1551,1551,1545,1559,0,0,0,0,0,0,0,0,0,0
1706516246.89978600,139328413,1545,1543,1532,1557,0,0,0,0,0,0,0,0,0,0
1706516246.99974608,139428373,1538,1537,1526,1549,0,0,0,0,0,0,0,0,0,0
1706516247.09970593,139528333,1532,1531,1524,1538,0,0,0,0,0,0,0,0,0,0
1706516247.19966602,139628293,1528,1527,1524,1529,0,0,0,0,0,0,0,0,0,0
1706516247.29962587,139728253,1527,1527,1527,1526,0,0,0,0,0,0,0,0,0,0
1706516247.39958596,139828213,1529,1529,1531,1526,0,0,0,0,0,0,0,0,0,0
1706516247.49954605,139928173,1533,1533,1536,1530,0,0,0,0,0,0,0,0,0,0
1706516247.60033894,140028966,1536,1536,1540,1533,0,0,0,0,0,0,0,0,0,0
1706516247.70029902,140128926,1540,1540,1542,1537,0,0,0,0,0,0,0,0,0,0
1706516247.80025887,140228886,1542,1542,1544,1541,0,0,0,0,0,0,0,0,0,0
1706516247.90021896,140328846,1546,1545,1546,1546,0,0,0,0,0,0,0,0,0,0
1706516248.00017905,140428806,1548,1548,1548,1549,0,0,0,0,0,0,0,0,0,0
1706516248.10013890,140528766,1551,1551,1551,1553,0,0,0,0,0,0,0,0,0,0
1706516248.20009899,140628726,1554,1554,1553,1556,0,0,0,0,0,0,0,0,0,0
1706516248.30005908,140728686,1559,1560,1550,1554,0,0,0,0,0,0,0,0,0,0
1706516248.40001893,140828646,1565,1564,1553,1555,0,0,0,0,0,0,0,0,0,0
1706516248.49997902,140928606,1563,1562,1558,1559,0,0,0,0,0,0,0,0,0,0
1706516248.59993887,141028566,1560,1561,1563,1562,0,0,0,0,0,0,0,0,0,0
1706516248.69989896,141128526,1560,1559,1568,1567,0,0,0,0,0,0,0,0,0,0
1706516248.79985905,141228486,1561,1561,1572,1570,0,0,0,0,0,0,0,0,0,0
1706516248.89981890,141328446,1562,1562,1573,1572,0,0,0,0,0,0,0,0,0,0
1706516248.99977899,141428406,1563,1564,1573,1573,0,0,0,0,0,0,0,0,0,0
1706516249.09973907,141528366,1564,1565,1572,1572,0,0,0,0,0,0,0,0,0,0
1706516249.19969893,141628326,1567,1567,1572,1572,0,0,0,0,0,0,0,0,0,0
1706516249.29965901,141728286,1570,1570,1572,1573,0,0,0,0,0,0,0,0,0,0
1706516249.39961910,141828246,1572,1572,1571,1572,0,0,0,0,0,0,0,0,0,0
1706516249.49957895,141928206,1574,1573,1571,1571,0,0,0,0,0,0,0,0,0,0
1706516249.59953904,142028166,1576,1576,1572,1571,0,0,0,0,0,0,0,0,0,0
1706516249.70033193,142128959,1577,1576,1571,1570,0,0,0,0,0,0,0,0,0,0
1706516249.80029202,142228919,1577,1577,1572,1571,0,0,0,0,0,0,0,0,0,0
1706516249.90025210,142328879,1578,1578,1573,1572,0,0,0,0,0,0,0,0,0,0
1706516250.00021195,142428839,1578,1578,1573,1572,0,0,0,0,0,0,0,0,0,0
1706516250.10017204,142528799,1578,1577,1573,1574,0,0,0,0,0,0,0,0,0,0
1706516250.20013189,142628759,1577,1578,1575,1575,0,0,0,0,0,0,0,0,0,0
1706516250.30009198,142728719,1577,1577,1576,1576,0,0,0,0,0,0,0,0,0,0
1706516250.40005207,142828679,1576,1576,1576,1576,0,0,0,0,0,0,0,0,0,0
1706516250.50001192,142928639,1577,1577,1578,1578,0,0,0,0,0,0,0,0,0,0
1706516250.59997201,143028599,1575,1576,1577,1577,0,0,0,0,0,0,0,0,0,0
1706516250.69993210,143128559,1577,1577,1579,1579,0,0,0,0,0,0,0,0,0,0
1706516250.79989195,143228519,1577,1577,1579,1579,0,0,0,0,0,0,0,0,0,0
1706516250.89985204,143328479,1576,1576,1578,1578,0,0,0,0,0,0,0,0,0,0
1706516250.99981189,143428439,1577,1577,1578,1578,0,0,0,0,0,0,0,0,0,0
1706516251.09977198,143528399,1578,1577,1578,1578,0,0,0,0,0,0,0,0,0,0
1706516251.19973207,143628359,1578,1578,1578,1578,0,0,0,0,0,0,0,0,0,0
1706516251.29969192,143728319,1578,1578,1578,1578,0,0,0,0,0,0,0,0,0,0
1706516251.39965200,143828279,1578,1578,1578,1578,0,0,0,0,0,0,0,0,0,0
1706516251.49961209,143928239,1579,1579,1579,1579,0,0,0,0,0,0,0,0,0,0
1706516251.59957194,144028199,1581,1580,1580,1580,0,0,0,0,0,0,0,0,0,0
1706516251.69953203,144128159,1580,1580,1579,1579,0,0,0,0,0,0,0,0,0,0
1706516251.80032492,144228952,1579,1579,1578,1578,0,0,0,0,0,0,0,0,0,0
1706516251.90028501,144328912,1580,1579,1579,1579,0,0,0,0,0,0,0,0,0,0
1706516252.00024509,144428872,1579,1579,1578,1579,0,0,0,0,0,0,0,0,0,0
1706516252.10020494,144528832,1579,1579,1579,1579,0,0,0,0,0,0,0,0,0,0
1706516252.20016503,144628792,1578,1578,1578,1579,0,0,0,0,0,0,0,0,0,0
1706516252.30012488,144728752,1579,1579,1579,1580,0,0,0,0,0,0,0,0,0,0
1706516252.40008497,144828712,1579,1580,1580,1580,0,0,0,0,0,0,0,0,0,0
1706516252.50004506,144928672,1579,1579,1580,1580,0,0,0,0,0,0,0,0,0,0
1706516252.60000491,145028632,1580,1579,1580,1580,0,0,0,0,0,0,0,0,0,0
1706516252.69996500,145128592,1580,1579,1580,1580,0,0,0,0,0,0,0,0,0,0
1706516252.79992509,145228552,1580,1580,1580,1580,0,0,0,0,0,0,0,0,0,0
1706516252.89988494,145328512,1580,1579,1579,1579,0,0,0,0,0,0,0,0,0,0
1706516252.99984503,145428472,1580,1580,1580,1580,0,0,0,0,0,0,0,0,0,0
1706516253.09980488,145528432,1579,1579,1579,1580,0,0,0,0,0,0,0,0,0,0
1706516253.19976497,145628392,1579,1579,1579,1579,0,0,0,0,0,0,0,0,0,0
1706516253.29972506,145728352,1579,1579,1579,1579,0,0,0,0,0,0,0,0,0,0
1706516253.39968491,145828312,1580,1580,1580,1580,0,0,0,0,0,0,0,0,0,0
1706516253.49964499,145928272,1580,1580,1580,1580,0,0,0,0,0,0,0,0,0,0
1706516253.59960508,146028232,1580,1580,1580,1580,0,0,0,0,0,0,0,0,0,0
1706516253.69956493,146128192,1580,1580,1580,1580,0,0,0,0,0,0,0,0,0,0
1706516253.80035806,146228985,1580,1581,1581,1581,0,0,0,0,0,0,0,0,0,0
1706516253.90031791,146328945,1580,1580,1580,1580,0,0,0,0,0,0,0,0,0,0
1706516254.00027800,146428905,1581,1580,1581,1580,0,0,0,0,0,0,0,0,0,0
1706516254.10023808,146528865,1581,1581,1581,1581,0,0,0,0,0,0,0,0,0,0
1706516254.20019794,146628825,1581,1581,1581,1581,0,0,0,0,0,0,0,0,0,0
1706516254.30015802,146728785,1580,1580,1580,1580,0,0,0,0,0,0,0,0,0,0
1706516254.40011787,146828745,1579,1580,1580,1580,0,0,0,0,0,0,0,0,0,0
1706516254.50007796,146928705,1580,1582,1587,1574,0,0,0,0,0,0,0,0,0,0
1706516254.60003805,147028665,1579,1582,1586,1572,0,0,0,0,0,0,0,0,0,0
1706516254.69999790,147128625,1579,1582,1578,1573,0,0,0,0,0,0,0,0,0,0
1706516254.79995799,147228585,1577,1580,1568,1571,0,0,0,0,0,0,0,0,0,0
1706516254.89991808,147328545,1577,1579,1561,1568,0,0,0,0,0,0,0,0,0,0
1706516254.99987793,147428505,1578,1579,1557,1564,0,0,0,0,0,0,0,0,0,0
1706516255.09983802,147528465,1580,1579,1554,1559,0,0,0,0,0,0,0,0,0,0
1706516255.19979787,147628425,1580,1578,1554,1555,0,0,0,0,0,0,0,0,0,0
1706516255.29975796,147728385,1581,1579,1555,1553,0,0,0,0,0,0,0,0,0,0
1706516255.39971805,147828345,1580,1580,1556,1553,0,0,0,0,0,0,0,0,0,0
1706516255.49967790,147928305,1578,1579,1555,1553,0,0,0,0,0,0,0,0,0,0
1706516255.59963799,148028265,1577,1579,1555,1554,0,0,0,0,0,0,0,0,0,0
1706516255.69959807,148128225,1577,1578,1554,1553,0,0,0,0,0,0,0,0,0,0
1706516255.79955792,148228185,1575,1577,1552,1552,0,0,0,0,0,0,0,0,0,0
1706516255.90035105,148328978,1576,1578,1551,1551,0,0,0,0,0,0,0,0,0,0
1706516256.00031090,148428938,1578,1580,1550,1550,0,0,0,0,0,0,0,0,0,0
1706516256.10027099,148528898,1581,1582,1548,1549,0,0,0,0,0,0,0,0,0,0
1706516256.20023108,148628858,1583,1583,1545,1545,0,0,0,0,0,0,0,0,0,0
1706516256.30019093,148728818,1586,1586,1543,1542,0,0,0,0,0,0,0,0,0,0
1706516256.40015101,148828778,1589,1589,1540,1539,0,0,0,0,0,0,0,0,0,0
1706516256.50011110,148928738,1591,1591,1537,1537,0,0,0,0,0,0,0,0,0,0
1706516256.60007095,149028698,1594,1594,1535,1535,0,0,0,0,0,0,0,0,0,0
1706516256.70003104,149128658,1595,1595,1534,1536,0,0,0,0,0,0,0,0,0,0
1706516256.79999089,149228618,1595,1595,1535,1536,0,0,0,0,0,0,0,0,0,0
1706516256.89995098,149328578,1595,1594,1537,1540,0,0,0,0,0,0,0,0,0,0
1706516256.99991107,149428538,1592,1591,1541,1544,0,0,0,0,0,0,0,0,0,0
1706516257.09987092,149528498,1588,1586,1548,1552,0,0,0,0,0,0,0,0,0,0
1706516257.19983101,149628458,1581,1577,1557,1559,0,0,0,0,0,0,0,0,0,0
1706516257.29979110,149728418,1572,1566,1568,1570,0,0,0,0,0,0,0,0,0,0
1706516257.39975095,149828378,1560,1556,1582,1583,0,0,0,0,0,0,0,0,0,0
1706516257.49971104,149928338,1549,1546,1594,1595,0,0,0,0,0,0,0,0,0,0
1706516257.59967089,150028298,1539,1537,1605,1605,0,0,0,0,0,0,0,0,0,0
1706516257.69963098,150128258,1530,1531,1612,1611,0,0,0,0,0,0,0,0,0,0
1706516257.79959106,150228218,1527,1529,1616,1614,0,0,0,0,0,0,0,0,0,0
1706516257.89955091,150328178,1528,1530,1616,1614,0,0,0,0,0,0,0,0,0,0
1706516258.00034404,150428971,1532,1535,1612,1612,0,0,0,0,0,0,0,0,0,0
1706516258.10030389,150528931,1539,1542,1607,1606,0,0,0,0,0,0,0,0,0,0
1706516258.20026398,150628891,1548,1550,1599,1600,0,0,0,0,0,0,0,0,0,0
1706516258.30022407,150728851,1558,1558,1592,1592,0,0,0,0,0,0,0,0,0,0
1706516258.40018392,150828811,1566,1566,1584,1583,0,0,0,0,0,0,0,0,0,0
1706516258.50014400,150928771,1575,1574,1578,1577,0,0,0,0,0,0,0,0,0,0
1706516258.60010409,151028731,1582,1581,1573,1572,0,0,0,0,0,0,0,0,0,0
1706516258.70006394,151128691,1585,1583,1567,1567,0,0,0,0,0,0,0,0,0,0
1706516258.80002403,151228651,1587,1586,1565,1566,0,0,0,0,0,0,0,0,0,0
1706516258.89998388,151328611,1588,1587,1565,1566,0,0,0,0,0,0,0,0,0,0
1706516258.99994397,151428571,1587,1585,1566,1566,0,0,0,0,0,0,0,0,0,0
1706516259.09990406,151528531,1585,1584,1569,1569,0,0,0,0,0,0,0,0,0,0
1706516259.19986391,151628491,1583,1582,1573,1573,0,0,0,0,0,0,0,0,0,0
1706516259.29982400,151728451,1579,1579,1575,1575,0,0,0,0,0,0,0,0,0,0
1706516259.39978409,151828411,1577,1577,1578,1579,0,0,0,0,0,0,0,0,0,0
1706516259.49974394,151928371,1573,1574,1580,1580,0,0,0,0,0,0,0,0,0,0
1706516259.59970403,152028331,1573,1573,1583,1583,0,0,0,0,0,0,0,0,0,0
1706516259.69966388,152128291,1572,1572,1584,1583,0,0,0,0,0,0,0,0,0,0
1706516259.79962397,152228251,1314,1318,1649,1657,0,0,0,0,0,0,0,0,0,0
1706516259.89958405,152328211,1393,1402,1658,1662,0,0,0,0,0,0,0,0,0,0
1706516259.99954391,152428171,1574,1583,1620,1612,0,0,0,0,0,0,0,0,0,0
1706516260.10033703,152528964,1605,1609,1597,1585,0,0,0,0,0,0,0,0,0,0
1706516260.20029688,152628924,1626,1623,1584,1577,0,0,0,0,0,0,0,0,0,0
1706516260.30025697,152728884,1639,1629,1576,1575,0,0,0,0,0,0,0,0,0,0
1706516260.40021706,152828844,1649,1636,1564,1568,0,0,0,0,0,0,0,0,0,0
1706516260.50017691,152928804,1662,1653,1540,1549,0,0,0,0,0,0,0,0,0,0
1706516260.60013700,153028764,1667,1663,1525,1534,0,0,0,0,0,0,0,0,0,0
1706516260.70009708,153128724,1664,1664,1525,1530,0,0,0,0,0,0,0,0,0,0
1706516260.80005693,153228684,1652,1656,1532,1536,0,0,0,0,0,0,0,0,0,0
1706516260.90001702,153328644,1639,1643,1545,1545,0,0,0,0,0,0,0,0,0,0
1706516260.99997687,153428604,1623,1625,1561,1559,0,0,0,0,0,0,0,0,0,0
1706516261.09993696,153528564,1604,1602,1579,1577,0,0,0,0,0,0,0,0,0,0
1706516261.19989705,153628524,1584,1580,1597,1595,0,0,0,0,0,0,0,0,0,0
1706516261.29985690,153728484,1569,1567,1606,1605,0,0,0,0,0,0,0,0,0,0
1706516261.39981699,153828444,1561,1560,1608,1608,0,0,0,0,0,0,0,0,0,0
1706516261.49977708,153928404,1556,1557,1607,1606,0,0,0,0,0,0,0,0,0,0
1706516261.59973693,154028364,1554,1558,1603,1603,0,0,0,0,0,0,0,0,0,0
1706516261.69969702,154128324,1556,1560,1599,1598,0,0,0,0,0,0,0,0,0,0
1706516261.79965687,154228284,1559,1563,1596,1594,0,0,0,0,0,0,0,0,0,0
1706516261.89961696,154328244,1564,1567,1593,1590,0,0,0,0,0,0,0,0,0,0
1706516261.99957705,154428204,1568,1570,1589,1586,0,0,0,0,0,0,0,0,0,0
1706516262.09953690,154528164,1572,1572,1584,1583,0,0,0,0,0,0,0,0,0,0
1706516262.20033002,154628957,1576,1574,1580,1580,0,0,0,0,0,0,0,0,0,0
1706516262.30028987,154728917,1579,1577,1578,1578,0,0,0,0,0,0,0,0,0,0
1706516262.40024996,154828877,1582,1580,1580,1574,0,0,0,0,0,0,0,0,0,0
1706516262.50021005,154928837,1584,1581,1581,1568,0,0,0,0,0,0,0,0,0,0
1706516262.60016990,155028797,1586,1582,1574,1568,0,0,0,0,0,0,0,0,0,0
1706516262.70012999,155128757,1585,1582,1564,1566,0,0,0,0,0,0,0,0,0,0
1706516262.80009007,155228717,1582,1583,1557,1563,0,0,0,0,0,0,0,0,0,0
1706516262.90004992,155328677,1580,1583,1553,1559,0,0,0,0,0,0,0,0,0,0
1706516263.00001001,155428637,1580,1583,1552,1555,0,0,0,0,0,0,0,0,0,0
1706516263.09997010,155528597,1579,1582,1552,1552,0,0,0,0,0,0,0,0,0,0
1706516263.19992995,155628557,1580,1582,1554,1551,0,0,0,0,0,0,0,0,0,0
1706516263.29989004,155728517,1580,1580,1553,1550,0,0,0,0,0,0,0,0,0,0
1706516263.39984989,155828477,1580,1579,1553,1551,0,0,0,0,0,0,0,0,0,0
1706516263.49980998,155928437,1579,1578,1551,1551,0,0,0,0,0,0,0,0,0,0
1706516263.59977007,156028397,1578,1578,1549,1550,0,0,0,0,0,0,0,0,0,0
1706516263.69972992,156128357,1578,1578,1549,1550,0,0,0,0,0,0,0,0,0,0
1706516263.79969001,156228317,1577,1578,1548,1548,0,0,0,0,0,0,0,0,0,0
1706516263.89965010,156328277,1577,1579,1547,1547,0,0,0,0,0,0,0,0,0,0
1706516263.99960995,156428237,1577,1580,1545,1544,0,0,0,0,0,0,0,0,0,0
1706516264.09957004,156528197,1579,1581,1544,1543,0,0,0,0,0,0,0,0,0,0
1706516264.19952989,156628157,1581,1583,1543,1542,0,0,0,0,0,0,0,0,0,0
1706516264.30032301,156728950,1582,1582,1540,1539,0,0,0,0,0,0,0,0,0,0
1706516264.40028310,156828910,1584,1585,1539,1539,0,0,0,0,0,0,0,0,0,0
1706516264.50024295,156928870,1587,1587,1538,1539,0,0,0,0,0,0,0,0,0,0
1706516264.60020304,157028830,1588,1587,1537,1538,0,0,0,0,0,0,0,0,0,0
1706516264.70016289,157128790,1589,1588,1538,1540,0,0,0,0,0,0,0,0,0,0
1706516264.80012298,157228750,1588,1588,1539,1542,0,0,0,0,0,0,0,0,0,0
1706516264.90008307,157328710,1588,1586,1542,1545,0,0,0,0,0,0,0,0,0,0
1706516265.00004292,157428670,1585,1584,1546,1550,0,0,0,0,0,0,0,0,0,0
1706516265.10000300,157528630,1581,1581,1550,1554,0,0,0,0,0,0,0,0,0,0
1706516265.19996309,157628590,1576,1576,1555,1559,0,0,0,0,0,0,0,0,0,0
1706516265.29992294,157728550,1572,1571,1562,1565,0,0,0,0,0,0,0,0,0,0
1706516265.39988303,157828510,1566,1565,1568,1570,0,0,0,0,0,0,0,0,0,0
1706516265.49984288,157928470,1561,1559,1576,1577,0,0,0,0,0,0,0,0,0,0
1706516265.59980297,158028430,1555,1553,1583,1584,0,0,0,0,0,0,0,0,0,0
1706516265.69976306,158128390,1550,1548,1590,1589,0,0,0,0,0,0,0,0,0,0
1706516265.79972291,158228350,1546,1544,1596,1595,0,0,0,0,0,0,0,0,0,0
1706516265.89968300,158328310,1542,1542,1601,1600,0,0,0,0,0,0,0,0,0,0
1706516265.99964309,158428270,1539,1540,1605,1603,0,0,0,0,0,0,0,0,0,0
1706516266.09960294,158528230,1537,1538,1605,1605,0,0,0,0,0,0,0,0,0,0
1706516266.19956303,158628190,1538,1540,1606,1606,0,0,0,0,0,0,0,0,0,0
1706516266.30035591,158728983,1540,1542,1603,1603,0,0,0,0,0,0,0,0,0,0
1706516266.40031600,158828943,1546,1548,1599,1599,0,0,0,0,0,0,0,0,0,0
1706516266.50027609,158928903,1552,1554,1593,1593,0,0,0,0,0,0,0,0,0,0
1706516266.60023594,159028863,1560,1561,1588,1587,0,0,0,0,0,0,0,0,0,0
1706516266.70019603,159128823,1568,1568,1583,1581,0,0,0,0,0,0,0,0,0,0
1706516266.80015588,159228783,1575,1574,1579,1577,0,0,0,0,0,0,0,0,0,0
1706516266.90011597,159328743,1580,1578,1575,1574,0,0,0,0,0,0,0,0,0,0
1706516267.00007606,159428703,1582,1580,1571,1571,0,0,0,0,0,0,0,0,0,0
1706516267.10003591,159528663,1586,1584,1571,1572,0,0,0,0,0,0,0,0,0,0
1706516267.19999599,159628623,1586,1584,1570,1571,0,0,0,0,0,0,0,0,0,0
1706516267.29995608,159728583,1585,1585,1569,1570,0,0,0,0,0,0,0,0,0,0
1706516267.39991593,159828543,1585,1585,1571,1572,0,0,0,0,0,0,0,0,0,0
1706516267.49987602,159928503,1585,1585,1572,1573,0,0,0,0,0,0,0,0,0,0
1706516267.59983587,160028463,1584,1584,1574,1574,0,0,0,0,0,0,0,0,0,0
1706516267.69979596,160128423,1583,1582,1575,1574,0,0,0,0,0,0,0,0,0,0
1706516267.79975605,160228383,1582,1581,1576,1575,0,0,0,0,0,0,0,0,0,0
1706516267.89971590,160328343,1582,1581,1577,1577,0,0,0,0,0,0,0,0,0,0
1706516267.99967599,160428303,1580,1580,1578,1578,0,0,0,0,0,0,0,0,0,0
1706516268.09963608,160528263,1579,1579,1578,1579,0,0,0,0,0,0,0,0,0,0
1706516268.19959593,160628223,1578,1579,1580,1580,0,0,0,0,0,0,0,0,0,0
1706516268.29955602,160728183,1577,1578,1580,1579,0,0,0,0,0,0,0,0,0,0
1706516268.40034890,160828976,1577,1578,1581,1581,0,0,0,0,0,0,0,0,0,0
1706516268.50030899,160928936,1576,1577,1581,1580,0,0,0,0,0,0,0,0,0,0
1706516268.60026908,161028896,1577,1578,1581,1581,0,0,0,0,0,0,0,0,0,0
1706516268.70022893,161128856,1577,1577,1582,1581,0,0,0,0,0,0,0,0,0,0
1706516268.80018902,161228816,1578,1578,1581,1582,0,0,0,0,0,0,0,0,0,0
1706516268.90014887,161328776,1578,1578,1580,1581,0,0,0,0,0,0,0,0,0,0
1706516269.00010896,161428736,1578,1578,1580,1580,0,0,0,0,0,0,0,0,0,0
1706516269.10006905,161528696,1579,1579,1581,1581,0,0,0,0,0,0,0,0,0,0
1706516269.20002890,161628656,1579,1580,1581,1580,0,0,0,0,0,0,0,0,0,0
1706516269.29998899,161728616,1580,1580,1580,1580,0,0,0,0,0,0,0,0,0,0
1706516269.39994907,161828576,1581,1581,1580,1580,0,0,0,0,0,0,0,0,0,0
1706516269.49990892,161928536,1580,1580,1579,1579,0,0,0,0,0,0,0,0,0,0
1706516269.59986901,162028496,1581,1581,1579,1580,0,0,0,0,0,0,0,0,0,0
1706516269.69982910,162128456,1581,1580,1578,1579,0,0,0,0,0,0,0,0,0,0
1706516269.79978895,162228416,1581,1582,1580,1580,0,0,0,0,0,0,0,0,0,0
1706516269.89974904,162328376,1581,1581,1580,1579,0,0,0,0,0,0,0,0,0,0
1706516269.99970889,162428336,1581,1581,1580,1580,0,0,0,0,0,0,0,0,0,0
1706516270.09966898,162528296,1580,1581,1579,1579,0,0,0,0,0,0,0,0,0,0
1706516270.19962907,162628256,1581,1581,1580,1580,0,0,0,0,0,0,0,0,0,0
1706516270.29958892,162728216,1581,1581,1581,1581,0,0,0,0,0,0,0,0,0,0
1706516270.39954901,162828176,1581,1581,1581,1581,0,0,0,0,0,0,0,0,0,0
1706516270.50034189,162928969,1581,1581,1580,1580,0,0,0,0,0,0,0,0,0,0
1706516270.60030198,163028929,1582,1581,1581,1581,0,0,0,0,0,0,0,0,0,0
1706516270.70026207,163128889,1581,1580,1581,1580,0,0,0,0,0,0,0,0,0,0
1706516270.80022192,163228849,1581,1580,1581,1581,0,0,0,0,0,0,0,0,0,0
1706516270.90018201,163328809,1580,1581,1581,1581,0,0,0,0,0,0,0,0,0,0
1706516271.00014210,163428769,1580,1581,1584,1577,0,0,0,0,0,0,0,0,0,0
1706516271.10010195,163528729,1581,1582,1588,1573,0,0,0,0,0,0,0,0,0,0
1706516271.20006204,163628689,1580,1581,1581,1573,0,0,0,0,0,0,0,0,0,0
1706516271.30002189,163728649,1578,1579,1571,1572,0,0,0,0,0,0,0,0,0,0
1706516271.39998198,163828609,1577,1578,1563,1569,0,0,0,0,0,0,0,0,0,0
1706516271.49994206,163928569,1576,1578,1558,1565,0,0,0,0,0,0,0,0,0,0
1706516271.59990191,164028529,1578,1579,1556,1561,0,0,0,0,0,0,0,0,0,0
1706516271.69986200,164128489,1578,1578,1555,1557,0,0,0,0,0,0,0,0,0,0
1706516271.79982209,164228449,1578,1578,1555,1554,0,0,0,0,0,0,0,0,0,0
1706516271.89978194,164328409,1579,1578,1556,1554,0,0,0,0,0,0,0,0,0,0
1706516271.99974203,164428369,1578,1577,1556,1553,0,0,0,0,0,0,0,0,0,0
1706516272.09970188,164528329,1578,1577,1556,1554,0,0,0,0,0,0,0,0,0,0
1706516272.19966197,164628289,1577,1578,1554,1554,0,0,0,0,0,0,0,0,0,0
1706516272.29962206,164728249,1577,1578,1553,1554,0,0,0,0,0,0,0,0,0,0
1706516272.39958191,164828209,1576,1578,1552,1553,0,0,0,0,0,0,0,0,0,0
1706516272.49954200,164928169,1577,1579,1551,1552,0,0,0,0,0,0,0,0,0,0
1706516272.60033488,165028962,1577,1579,1549,1549,0,0,0,0,0,0,0,0,0,0
1706516272.70029497,165128922,1579,1581,1549,1548,0,0,0,0,0,0,0,0,0,0
1706516272.80025506,165228882,1581,1582,1547,1546,0,0,0,0,0,0,0,0,0,0
1706516272.90021491,165328842,1583,1583,1545,1544,0,0,0,0,0,0,0,0,0,0
1706516273.00017500,165428802,1585,1586,1543,1543,0,0,0,0,0,0,0,0,0,0
1706516273.10013509,165528762,1587,1587,1541,1542,0,0,0,0,0,0,0,0,0,0
1706516273.20009494,165628722,1588,1589,1540,1541,0,0,0,0,0,0,0,0,0,0
1706516273.30005503,165728682,1589,1589,1540,1541,0,0,0,0,0,0,0,0,0,0
1706516273.40001488,165828642,1590,1590,1541,1542,0,0,0,0,0,0,0,0,0,0
1706516273.49997497,165928602,1590,1589,1541,1543,0,0,0,0,0,0,0,0,0,0
1706516273.59993505,166028562,1589,1589,1545,1547,0,0,0,0,0,0,0,0,0,0
1706516273.69989491,166128522,1587,1585,1549,1552,0,0,0,0,0,0,0,0,0,0
1706516273.79985499,166228482,1583,1580,1556,1559,0,0,0,0,0,0,0,0,0,0
1706516273.89981508,166328442,1578,1574,1564,1567,0,0,0,0,0,0,0,0,0,0
1706516273.93979907,166368426,1575,1571,1568,1571,0,0,0,0,0,0,0,0,0,0
1706516274.03975892,166468386,1566,1563,1579,1581,0,0,0,0,0,0,0,0,0,0
1706516274.13971901,166568346,1556,1553,1590,1591,0,0,0,0,0,0,0,0,0,0
1706516274.23967910,166668306,1547,1546,1599,1599,0,0,0,0,0,0,0,0,0,0
1706516274.33963895,166768266,1539,1539,1606,1605,0,0,0,0,0,0,0,0,0,0
1706516274.43959904,166868226,1535,1536,1610,1610,0,0,0,0,0,0,0,0,0,0
1706516274.53955889,166968186,1533,1536,1611,1611,0,0,0,0,0,0,0,0,0,0
1706516274.64035201,167068979,1535,1537,1609,1608,0,0,0,0,0,0,0,0,0,0
1706516274.74031210,167168939,1540,1542,1606,1605,0,0,0,0,0,0,0,0,0,0
1706516274.84027195,167268899,1547,1548,1601,1600,0,0,0,0,0,0,0,0,0,0
1706516274.94023204,167368859,1554,1554,1594,1593,0,0,0,0,0,0,0,0,0,0
1706516275.04019189,167468819,1561,1561,1587,1586,0,0,0,0,0,0,0,0,0,0
1706516275.14015198,167568779,1569,1569,1581,1580,0,0,0,0,0,0,0,0,0,0
1706516275.24011207,167668739,1575,1574,1574,1575,0,0,0,0,0,0,0,0,0,0
1706516275.34007192,167768699,1581,1579,1570,1570,0,0,0,0,0,0,0,0,0,0
1706516275.44003201,167868659,1584,1583,1567,1567,0,0,0,0,0,0,0,0,0,0
1706516275.53999209,167968619,1588,1586,1567,1567,0,0,0,0,0,0,0,0,0,0
1706516275.63995194,168068579,1588,1587,1567,1567,0,0,0,0,0,0,0,0,0,0
1706516275.73991203,168168539,1589,1587,1569,1569,0,0,0,0,0,0,0,0,0,0
1706516275.83987188,168268499,1586,1585,1570,1570,0,0,0,0,0,0,0,0,0,0
1706516275.93983197,168368459,1584,1584,1572,1572,0,0,0,0,0,0,0,0,0,0
1706516276.03979206,168468419,1581,1581,1575,1575,0,0,0,0,0,0,0,0,0,0
1706516276.13975191,168568379,1579,1579,1578,1578,0,0,0,0,0,0,0,0,0,0
1706516276.23971200,168668339,1577,1577,1580,1580,0,0,0,0,0,0,0,0,0,0
1706516276.33967209,168768299,1575,1576,1583,1583,0,0,0,0,0,0,0,0,0,0
1706516276.43963194,168868259,1574,1575,1584,1584,0,0,0,0,0,0,0,0,0,0
1706516276.53959203,168968219,1573,1574,1584,1584,0,0,0,0,0,0,0,0,0,0
1706516276.63955188,169068179,1573,1574,1584,1584,0,0,0,0,0,0,0,0,0,0
1706516276.74034500,169168972,1574,1574,1584,1584,0,0,0,0,0,0,0,0,0,0
1706516276.84030509,169268932,1575,1575,1583,1583,0,0,0,0,0,0,0,0,0,0
1706516276.94026494,169368892,1576,1576,1582,1582,0,0,0,0,0,0,0,0,0,0
1706516277.04022503,169468852,1578,1578,1581,1581,0,0,0,0,0,0,0,0,0,0
1706516277.14018488,169568812,1578,1578,1579,1579,0,0,0,0,0,0,0,0,0,0
1706516277.24014497,169668772,1579,1579,1577,1578,0,0,0,0,0,0,0,0,0,0
1706516277.34010506,169768732,1580,1580,1578,1578,0,0,0,0,0,0,0,0,0,0
1706516277.44006491,169868692,1580,1580,1576,1576,0,0,0,0,0,0,0,0,0,0
1706516277.54002500,169968652,1581,1581,1576,1576,0,0,0,0,0,0,0,0,0,0
1706516277.63998508,170068612,1582,1582,1578,1577,0,0,0,0,0,0,0,0,0,0
1706516277.73994493,170168572,1582,1582,1578,1578,0,0,0,0,0,0,0,0,0,0
1706516277.83990502,170268532,1581,1581,1578,1578,0,0,0,0,0,0,0,0,0,0
1706516277.93986487,170368492,1582,1581,1579,1579,0,0,0,0,0,0,0,0,0,0
1706516278.03982496,170468452,1581,1581,1579,1580,0,0,0,0,0,0,0,0,0,0
1706516278.13978505,170568412,1581,1581,1581,1581,0,0,0,0,0,0,0,0,0,0
1706516278.23974490,170668372,1582,1582,1583,1582,0,0,0,0,0,0,0,0,0,0
1706516278.33970499,170768332,1581,1581,1583,1582,0,0,0,0,0,0,0,0,0,0
1706516278.43966508,170868292,1581,1581,1583,1583,0,0,0,0,0,0,0,0,0,0
1706516278.53962493,170968252,1580,1581,1582,1582,0,0,0,0,0,0,0,0,0,0
1706516278.63958502,171068212,1580,1580,1582,1582,0,0,0,0,0,0,0,0,0,0
1706516278.73954487,171168172,1581,1581,1582,1582,0,0,0,0,0,0,0,0,0,0
1706516278.84033799,171268965,1581,1581,1582,1582,0,0,0,0,0,0,0,0,0,0
1706516278.94029808,171368925,1581,1581,1582,1582,0,0,0,0,0,0,0,0,0,0
1706516279.04025793,171468885,1581,1582,1587,1576,0,0,0,0,0,0,0,0,0,0
1706516279.14021802,171568845,1581,1581,1588,1574,0,0,0,0,0,0,0,0,0,0
1706516279.24017787,171668805,1580,1579,1582,1575,0,0,0,0,0,0,0,0,0,0
1706516279.34013796,171768765,1577,1576,1573,1575,0,0,0,0,0,0,0,0,0,0
1706516279.44009805,171868725,1574,1574,1568,1575,0,0,0,0,0,0,0,0,0,0
1706516279.54005790,171968685,1570,1570,1564,1570,0,0,0,0,0,0,0,0,0,0
1706516279.64001799,172068645,1568,1568,1563,1568,0,0,0,0,0,0,0,0,0,0
1706516279.73997808,172168605,1567,1568,1565,1567,0,0,0,0,0,0,0,0,0,0
1706516279.83993793,172268565,1567,1567,1567,1566,0,0,0,0,0,0,0,0,0,0
1706516279.93989801,172368525,1566,1566,1567,1565,0,0,0,0,0,0,0,0,0,0
1706516280.03985810,172468485,1566,1566,1568,1565,0,0,0,0,0,0,0,0,0,0
1706516280.13981795,172568445,1565,1565,1567,1565,0,0,0,0,0,0,0,0,0,0
1706516280.23977804,172668405,1564,1564,1566,1565,0,0,0,0,0,0,0,0,0,0
1706516280.33973789,172768365,1563,1563,1565,1564,0,0,0,0,0,0,0,0,0,0
1706516280.43969798,172868325,1562,1561,1563,1563,0,0,0,0,0,0,0,0,0,0
1706516280.53965807,172968285,1561,1562,1562,1563,0,0,0,0,0,0,0,0,0,0
1706516280.63961792,173068245,1561,1561,1562,1562,0,0,0,0,0,0,0,0,0,0
1706516280.73957801,173168205,1560,1560,1561,1561,0,0,0,0,0,0,0,0,0,0
1706516280.83953810,173268165,1561,1561,1562,1561,0,0,0,0,0,0,0,0,0,0
1706516280.94033098,173368958,1561,1560,1561,1560,0,0,0,0,0,0,0,0,0,0
1706516281.04029107,173468918,1560,1560,1560,1559,0,0,0,0,0,0,0,0,0,0
1706516281.14025092,173568878,1559,1559,1559,1558,0,0,0,0,0,0,0,0,0,0
1706516281.24021101,173668838,1558,1559,1558,1557,0,0,0,0,0,0,0,0,0,0
1706516281.34017110,173768798,1559,1559,1559,1558,0,0,0,0,0,0,0,0,0,0
1706516281.44013095,173868758,1559,1558,1559,1558,0,0,0,0,0,0,0,0,0,0
1706516281.54009104,173968718,1559,1559,1560,1558,0,0,0,0,0,0,0,0,0,0
1706516281.64005089,174068678,1560,1559,1560,1558,0,0,0,0,0,0,0,0,0,0
1706516281.74001098,174168638,1559,1558,1561,1557,0,0,0,0,0,0,0,0,0,0
1706516281.83997107,174268598,1560,1559,1560,1559,0,0,0,0,0,0,0,0,0,0
1706516281.93993092,174368558,1561,1560,1559,1562,0,0,0,0,0,0,0,0,0,0
1706516282.03989100,174468518,1561,1561,1558,1565,0,0,0,0,0,0,0,0,0,0
1706516282.13985109,174568478,1562,1562,1559,1566,0,0,0,0,0,0,0,0,0,0
1706516282.23981094,174668438,1562,1563,1560,1565,0,0,0,0,0,0,0,0,0,0
1706516282.33977103,174768398,1562,1563,1561,1563,0,0,0,0,0,0,0,0,0,0
1706516282.43973088,174868358,1562,1562,1562,1560,0,0,0,0,0,0,0,0,0,0
1706516282.53969097,174968318,1560,1560,1562,1557,0,0,0,0,0,0,0,0,0,0
1706516282.63965106,175068278,1561,1560,1560,1560,0,0,0,0,0,0,0,0,0,0
1706516282.73961091,175168238,1559,1559,1555,1560,0,0,0,0,0,0,0,0,0,0
1706516282.83957100,175268198,1555,1554,1551,1554,0,0,0,0,0,0,0,0,0,0
1706516282.93953109,175368158,1550,1550,1546,1548,0,0,0,0,0,0,0,0,0,0
1706516283.04032397,175468951,1543,1544,1540,1540,0,0,0,0,0,0,0,0,0,0
1706516283.14028406,175568911,1536,1537,1533,1532,0,0,0,0,0,0,0,0,0,0
1706516283.24024391,175668871,1529,1529,1526,1525,0,0,0,0,0,0,0,0,0,0
1706516283.34020400,175768831,1523,1523,1520,1519,0,0,0,0,0,0,0,0,0,0
1706516283.44016409,175868791,1520,1519,1518,1518,0,0,0,0,0,0,0,0,0,0
1706516283.54012394,175968751,1518,1517,1518,1518,0,0,0,0,0,0,0,0,0,0
1706516283.64008403,176068711,1518,1518,1520,1521,0,0,0,0,0,0,0,0,0,0
1706516283.74004388,176168671,1519,1520,1524,1524,0,0,0,0,0,0,0,0,0,0
1706516283.84000397,176268631,1523,1523,1529,1529,0,0,0,0,0,0,0,0,0,0
1706516283.93996406,176368591,1527,1527,1534,1534,0,0,0,0,0,0,0,0,0,0
1706516284.03992391,176468551,1532,1532,1539,1538,0,0,0,0,0,0,0,0,0,0
1706516284.13988400,176568511,1535,1535,1541,1541,0,0,0,0,0,0,0,0,0,0
1706516284.23984408,176668471,1538,1538,1542,1542,0,0,0,0,0,0,0,0,0,0
1706516284.33980393,176768431,1541,1541,1544,1544,0,0,0,0,0,0,0,0,0,0
1706516284.43976402,176868391,1543,1543,1544,1543,0,0,0,0,0,0,0,0,0,0
1706516284.53972387,176968351,1545,1545,1544,1544,0,0,0,0,0,0,0,0,0,0
1706516284.63968396,177068311,1546,1546,1543,1543,0,0,0,0,0,0,0,0,0,0
1706516284.73964405,177168271,1547,1547,1543,1543,0,0,0,0,0,0,0,0,0,0
1706516284.83960390,177268231,1548,1548,1544,1544,0,0,0,0,0,0,0,0,0,0
1706516284.93956399,177368191,1548,1548,1544,1544,0,0,0,0,0,0,0,0,0,0
1706516285.04035687,177468984,1548,1548,1544,1544,0,0,0,0,0,0,0,0,0,0
1706516285.14031696,177568944,1547,1547,1544,1544,0,0,0,0,0,0,0,0,0,0
1706516285.24027705,177668904,1548,1548,1545,1545,0,0,0,0,0,0,0,0,0,0
1706516285.34023690,177768864,1547,1547,1545,1545,0,0,0,0,0,0,0,0,0,0
1706516285.44019699,177868824,1546,1546,1545,1545,0,0,0,0,0,0,0,0,0,0
1706516285.54015708,177968784,1546,1546,1546,1546,0,0,0,0,0,0,0,0,0,0
1706516285.64011693,178068744,1545,1545,1546,1545,0,0,0,0,0,0,0,0,0,0
1706516285.74007702,178168704,1544,1545,1546,1546,0,0,0,0,0,0,0,0,0,0
1706516285.84003687,178268664,1544,1544,1545,1545,0,0,0,0,0,0,0,0,0,0
1706516285.93999696,178368624,1544,1544,1546,1546,0,0,0,0,0,0,0,0,0,0
1706516286.03995705,178468584,1544,1544,1545,1545,0,0,0,0,0,0,0,0,0,0
1706516286.13991690,178568544,1544,1544,1545,1545,0,0,0,0,0,0,0,0,0,0
1706516286.23987699,178668504,1544,1544,1545,1545,0,0,0,0,0,0,0,0,0,0
1706516286.33983707,178768464,1543,1544,1544,1544,0,0,0,0,0,0,0,0,0,0
1706516286.43979692,178868424,1544,1544,1545,1544,0,0,0,0,0,0,0,0,0,0
1706516286.53975701,178968384,1544,1544,1544,1543,0,0,0,0,0,0,0,0,0,0
1706516286.63971710,179068344,1544,1544,1544,1544,0,0,0,0,0,0,0,0,0,0
1706516286.73967695,179168304,1544,1544,1544,1544,0,0,0,0,0,0,0,0,0,0
1706516286.83963704,179268264,1544,1544,1543,1543,0,0,0,0,0,0,0,0,0,0
1706516286.93959689,179368224,1544,1544,1543,1543,0,0,0,0,0,0,0,0,0,0
1706516287.03955698,179468184,1544,1543,1543,1543,0,0,0,0,0,0,0,0,0,0
1706516287.14035010,179568977,1543,1543,1543,1542,0,0,0,0,0,0,0,0,0,0
1706516287.24030995,179668937,1544,1544,1543,1543,0,0,0,0,0,0,0,0,0,0
1706516287.34027004,179768897,1544,1545,1545,1545,0,0,0,0,0,0,0,0,0,0
1706516287.44022989,179868857,1544,1544,1544,1544,0,0,0,0,0,0,0,0,0,0
1706516287.54018998,179968817,1544,1544,1544,1545,0,0,0,0,0,0,0,0,0,0
1706516287.64015007,180068777,1544,1545,1545,1545,0,0,0,0,0,0,0,0,0,0
1706516287.74010992,180168737,1543,1544,1544,1543,0,0,0,0,0,0,0,0,0,0
1706516287.84007001,180268697,1543,1544,1544,1543,0,0,0,0,0,0,0,0,0,0
1706516287.94003010,180368657,1543,1543,1543,1543,0,0,0,0,0,0,0,0,0,0
1706516288.03998995,180468617,1544,1544,1544,1544,0,0,0,0,0,0,0,0,0,0
1706516288.13995004,180568577,1544,1545,1544,1545,0,0,0,0,0,0,0,0,0,0
1706516288.23990989,180668537,1544,1544,1544,1545,0,0,0,0,0,0,0,0,0,0
1706516288.33986998,180768497,1544,1544,1544,1544,0,0,0,0,0,0,0,0,0,0
1706516288.43983006,180868457,1544,1544,1544,1544,0,0,0,0,0,0,0,0,0,0
1706516288.53978992,180968417,1543,1543,1544,1543,0,0,0,0,0,0,0,0,0,0
1706516288.63975000,181068377,1544,1543,1544,1543,0,0,0,0,0,0,0,0,0,0
1706516288.73971009,181168337,1544,1544,1544,1544,0,0,0,0,0,0,0,0,0,0
1706516288.83966994,181268297,1544,1544,1544,1544,0,0,0,0,0,0,0,0,0,0
1706516288.93963003,181368257,1544,1544,1544,1543,0,0,0,0,0,0,0,0,0,0
1706516289.03958988,181468217,1544,1544,1544,1544,0,0,0,0,0,0,0,0,0,0
1706516289.13954997,181568177,1544,1544,1544,1544,0,0,0,0,0,0,0,0,0,0
1706516289.24034309,181668970,1544,1544,1544,1545,0,0,0,0,0,0,0,0,0,0
1706516289.34030294,181768930,1545,1545,1545,1545,0,0,0,0,0,0,0,0,0,0
1706516289.44026303,181868890,1545,1545,1545,1545,0,0,0,0,0,0,0,0,0,0
1706516289.54022288,181968850,1544,1544,1544,1544,0,0,0,0,0,0,0,0,0,0
1706516289.64018297,182068810,1544,1544,1545,1544,0,0,0,0,0,0,0,0,0,0
1706516289.74014306,182168770,1544,1545,1545,1544,0,0,0,0,0,0,0,0,0,0
1706516289.84010291,182268730,1544,1545,1545,1545,0,0,0,0,0,0,0,0,0,0
1706516289.94006300,182368690,1545,1545,1546,1545,0,0,0,0,0,0,0,0,0,0
1706516290.04002309,182468650,1545,1545,1545,1545,0,0,0,0,0,0,0,0,0,0
1706516290.13998294,182568610,1545,1545,1545,1545,0,0,0,0,0,0,0,0,0,0
1706516290.23994303,182668570,1544,1544,1543,1544,0,0,0,0,0,0,0,0,0,0
1706516290.33990288,182768530,1545,1545,1545,1545,0,0,0,0,0,0,0,0,0,0
1706516290.43986297,182868490,1545,1544,1544,1544,0,0,0,0,0,0,0,0,0,0
1706516290.53982306,182968450,1544,1545,1545,1545,0,0,0,0,0,0,0,0,0,0
1706516290.63978291,183068410,1544,1544,1544,1544,0,0,0,0,0,0,0,0,0,0
1706516290.73974299,183168370,1544,1544,1543,1544,0,0,0,0,0,0,0,0,0,0
1706516290.83970308,183268330,1544,1544,1544,1544,0,0,0,0,0,0,0,0,0,0
1706516290.93966293,183368290,1543,1544,1543,1543,0,0,0,0,0,0,0,0,0,0
1706516291.03962302,183468250,1544,1544,1544,1544,0,0,0,0,0,0,0,0,0,0
1706516291.13958287,183568210,1544,1544,1544,1544,0,0,0,0,0,0,0,0,0,0
1706516291.23954296,183668170,1544,1544,1544,1544,0,0,0,0,0,0,0,0,0,0
1706516291.34033608,183768963,1543,1544,1544,1544,0,0,0,0,0,0,0,0,0,0
1706516291.44029593,183868923,1544,1544,1544,1544,0,0,0,0,0,0,0,0,0,0
1706516291.54025602,183968883,1544,1544,1545,1545,0,0,0,0,0,0,0,0,0,0
1706516291.64021587,184068843,1544,1544,1545,1544,0,0,0,0,0,0,0,0,0,0
1706516291.74017596,184168803,1544,1544,1544,1544,0,0,0,0,0,0,0,0,0,0
1706516291.84013605,184268763,1544,1544,1544,1544,0,0,0,0,0,0,0,0,0,0
1706516291.94009590,184368723,1544,1544,1544,1544,0,0,0,0,0,0,0,0,0,0
1706516292.04005599,184468683,1544,1544,1544,1544,0,0,0,0,0,0,0,0,0,0
1706516292.14001608,184568643,1544,1544,1544,1544,0,0,0,0,0,0,0,0,0,0
1706516292.23997593,184668603,1545,1544,1544,1544,0,0,0,0,0,0,0,0,0,0
1706516292.33993602,184768563,1544,1544,1544,1544,0,0,0,0,0,0,0,0,0,0
1706516292.43989587,184868523,1544,1544,1544,1543,0,0,0,0,0,0,0,0,0,0
1706516292.53985596,184968483,1545,1545,1545,1544,0,0,0,0,0,0,0,0,0,0
1706516292.63981605,185068443,1544,1544,1543,1543,0,0,0,0,0,0,0,0,0,0
1706516292.73977590,185168403,1544,1544,1544,1544,0,0,0,0,0,0,0,0,0,0
1706516292.83973598,185268363,1544,1544,1544,1544,0,0,0,0,0,0,0,0,0,0
1706516292.93969607,185368323,1544,1543,1543,1543,0,0,0,0,0,0,0,0,0,0
1706516293.03965592,185468283,1543,1544,1543,1544,0,0,0,0,0,0,0,0,0,0
1706516293.13961601,185568243,1446,1446,1417,1416,0,0,0,0,0,0,0,0,0,0
1706516293.23957610,185668203,1346,1346,1273,1271,0,0,0,0,0,0,0,0,0,0
1706516293.33953595,185768163,1311,1311,1217,1216,0,0,0,0,0,0,0,0,0,0
1706516293.44032907,185868956,1297,1298,1196,1194,0,0,0,0,0,0,0,0,0,0
1706516293.54028893,185968916,1276,1276,1157,1156,0,0,0,0,0,0,0,0,0,0
1706516293.64024901,186068876,1249,1250,1152,1150,0,0,0,0,0,0,0,0,0,0
1706516293.74020910,186168836,1110,1110,1151,1150,0,0,0,0,0,0,0,0,0,0
1706516293.84016895,186268796,1109,1110,1151,1150,0,0,0,0,0,0,0,0,0,0
1706516293.94012904,186368756,1109,1110,1151,1150,0,0,0,0,0,0,0,0,0,0
1706516294.04008889,186468716,1110,1098,1150,1166,0,0,0,0,0,0,0,0,0,0
1706516294.14004898,186568676,1110,1089,1150,1178,0,0,0,0,0,0,0,0,0,0
1706516294.24000907,186668636,1110,1097,1150,1168,0,0,0,0,0,0,0,0,0,0
1706516294.33996892,186768596,1110,1099,1150,1165,0,0,0,0,0,0,0,0,0,0
1706516294.43992901,186868556,1110,1099,1150,1164,0,0,0,0,0,0,0,0,0,0
1706516294.53988910,186968516,1110,1099,1150,1165,0,0,0,0,0,0,0,0,0,0
1706516294.63984895,187068476,1110,1098,1150,1166,0,0,0,0,0,0,0,0,0,0
1706516294.73980904,187168436,1110,1098,1150,1166,0,0,0,0,0,0,0,0,0,0
1706516294.83976889,187268396,1101,1110,1162,1150,0,0,0,0,0,0,0,0,0,0
1706516294.93972898,187368356,1110,1109,1150,1151,0,0,0,0,0,0,0,0,0,0
1706516295.03968906,187468316,1110,1108,1150,1152,0,0,0,0,0,0,0,0,0,0
1706516295.13964891,187568276,1110,1108,1150,1153,0,0,0,0,0,0,0,0,0,0
1706516295.23960900,187668236,1110,1107,1150,1153,0,0,0,0,0,0,0,0,0,0
1706516295.33956909,187768196,936,936,1144,1144,0,0,0,0,0,0,0,0,0,0
1706516295.43952894,187868156,1000,1000,1000,1000,0,0,0,0,0,0,0,0,0,0
1706516295.54032207,187968949,1000,1000,1000,1000,0,0,0,0,0,0,0,0,0,0
1706516295.64028192,188068909,1000,1000,1000,1000,0,0,0,0,0,0,0,0,0,0
1706516295.74024200,188168869,1000,1000,1000,1000,0,0,0,0,0,0,0,0,0,0
1706516295.84020209,188268829,1000,1000,1000,1000,0,0,0,0,0,0,0,0,0,0
1706516295.94016194,188368789,1000,1000,1000,1000,0,0,0,0,0,0,0,0,0,0
1706516296.04012203,188468749,1000,1000,1000,1000,0,0,0,0,0,0,0,0,0,0
1706516296.14008188,188568709,1000,1000,1000,1000,0,0,0,0,0,0,0,0,0,0
1706516296.24004197,188668669,1000,1000,1000,1000,0,0,0,0,0,0,0,0,0,0
1706516296.34000206,188768629,1000,1000,1000,1000,0,0,0,0,0,0,0,0,0,0
1706516296.43996191,188868589,1000,1000,1000,1000,0,0,0,0,0,0,0,0,0,0
1706516296.53992200,188968549,1000,1000,1000,1000,0,0,0,0,0,0,0,0,0,0
1706516296.63988209,189068509,1000,1000,1000,1000,0,0,0,0,0,0,0,0,0,0
1706516296.73984194,189168469,1000,1000,1000,1000,0,0,0,0,0,0,0,0,0,0
1706516296.83980203,189268429,1000,1000,1000,1000,0,0,0,0,0,0,0,0,0,0
1706516296.93976188,189368389,1000,1000,1000,1000,0,0,0,0,0,0,0,0,0,0
1706516297.03972197,189468349,1000,1000,1000,1000,0,0,0,0,0,0,0,0,0,0
1706516297.13968205,189568309,1000,1000,1000,1000,0,0,0,0,0,0,0,0,0,0
1706516297.23964190,189668269,1000,1000,1000,1000,0,0,0,0,0,0,0,0,0,0
1706516297.33960199,189768229,1000,1000,1000,1000,0,0,0,0,0,0,0,0,0,0
1706516297.43956208,189868189,1000,1000,1000,1000,0,0,0,0,0,0,0,0,0,0
1706516297.54035497,189968982,1000,1000,1000,1000,0,0,0,0,0,0,0,0,0,0
1706516297.64031506,190068942,1000,1000,1000,1000,0,0,0,0,0,0,0,0,0,0
1706516297.74027491,190168902,1000,1000,1000,1000,0,0,0,0,0,0,0,0,0,0
1706516297.84023499,190268862,1000,1000,1000,1000,0,0,0,0,0,0,0,0,0,0
1706516297.94019508,190368822,1000,1000,1000,1000,0,0,0,0,0,0,0,0,0,0
1706516298.04015493,190468782,1000,1000,1000,1000,0,0,0,0,0,0,0,0,0,0
1706516298.14011502,190568742,1000,1000,1000,1000,0,0,0,0,0,0,0,0,0,0
1706516298.24007487,190668702,1000,1000,1000,1000,0,0,0,0,0,0,0,0,0,0
1706516298.34003496,190768662,1000,1000,1000,1000,0,0,0,0,0,0,0,0,0,0
1706516298.43999505,190868622,1000,1000,1000,1000,0,0,0,0,0,0,0,0,0,0
1706516298.53995490,190968582,1000,1000,1000,1000,0,0,0,0,0,0,0,0,0,0
1706516298.63991499,191068542,1000,1000,1000,1000,0,0,0,0,0,0,0,0,0,0
1706516298.73987508,191168502,1000,1000,1000,1000,0,0,0,0,0,0,0,0,0,0
1706516298.83983493,191268462,1000,1000,1000,1000,0,0,0,0,0,0,0,0,0,0
1706516298.93979502,191368422,1000,1000,1000,1000,0,0,0,0,0,0,0,0,0,0
1706516299.03975487,191468382,1000,1000,1000,1000,0,0,0,0,0,0,0,0,0,0
1706516299.13971496,191568342,1000,1000,1000,1000,0,0,0,0,0,0,0,0,0,0
1706516299.23967505,191668302,1000,1000,1000,1000,0,0,0,0,0,0,0,0,0,0
1706516299.33963490,191768262,1000,1000,1000,1000,0,0,0,0,0,0,0,0,0,0
1706516299.43959498,191868222,1000,1000,1000,1000,0,0,0,0,0,0,0,0,0,0
1706516299.53955507,191968182,1000,1000,1000,1000,0,0,0,0,0,0,0,0,0,0
1706516299.64034796,192068975,1000,1000,1000,1000,0,0,0,0,0,0,0,0,0,0
1706516299.74030805,192168935,1000,1000,1000,1000,0,0,0,0,0,0,0,0,0,0
1706516299.84026790,192268895,1000,1000,1000,1000,0,0,0,0,0,0,0,0,0,0
1706516299.94022799,192368855,1000,1000,1000,1000,0,0,0,0,0,0,0,0,0,0
1706516300.04018807,192468815,1000,1000,1000,1000,0,0,0,0,0,0,0,0,0,0
1706516300.14014792,192568775,1000,1000,1000,1000,0,0,0,0,0,0,0,0,0,0
1706516300.24010801,192668735,1000,1000,1000,1000,0,0,0,0,0,0,0,0,0,0
1706516300.34006810,192768695,1000,1000,1000,1000,0,0,0,0,0,0,0,0,0,0
1706516300.44002795,192868655,1000,1000,1000,1000,0,0,0,0,0,0,0,0,0,0
1706516300.53998804,192968615,1000,1000,1000,1000,0,0,0,0,0,0,0,0,0,0
1706516300.63994789,193068575,1000,1000,1000,1000,0,0,0,0,0,0,0,0,0,0
1706516300.73990798,193168535,1000,1000,1000,1000,0,0,0,0,0,0,0,0,0,0
1706516300.83986807,193268495,1000,1000,1000,1000,0,0,0,0,0,0,0,0,0,0
1706516300.93982792,193368455,1000,1000,1000,1000,0,0,0,0,0,0,0,0,0,0
1706516301.03978801,193468415,1000,1000,1000,1000,0,0,0,0,0,0,0,0,0,0
1706516301.13974810,193568375,1000,1000,1000,1000,0,0,0,0,0,0,0,0,0,0
1706516301.23970795,193668335,1000,1000,1000,1000,0,0,0,0,0,0,0,0,0,0
1706516301.33966804,193768295,1000,1000,1000,1000,0,0,0,0,0,0,0,0,0,0
1706516301.43962789,193868255,1000,1000,1000,1000,0,0,0,0,0,0,0,0,0,0
1706516301.53958797,193968215,1000,1000,1000,1000,0,0,0,0,0,0,0,0,0,0
1706516301.63954806,194068175,1000,1000,1000,1000,0,0,0,0,0,0,0,0,0,0
1706516301.74034095,194168968,1000,1000,1000,1000,0,0,0,0,0,0,0,0,0,0
1706516301.84030104,194268928,1000,1000,1000,1000,0,0,0,0,0,0,0,0,0,0
1706516301.94026089,194368888,1000,1000,1000,1000,0,0,0,0,0,0,0,0,0,0
1706516302.04022098,194468848,1000,1000,1000,1000,0,0,0,0,0,0,0,0,0,0
1706516302.14018106,194568808,1000,1000,1000,1000,0,0,0,0,0,0,0,0,0,0
1706516302.24014091,194668768,1000,1000,1000,1000,0,0,0,0,0,0,0,0,0,0
1706516302.34010100,194768728,1000,1000,1000,1000,0,0,0,0,0,0,0,0,0,0
