TimeUS,M1,M2,M3,M4,TimeUS,C1,C2,C3,C4
134516172,1000,1000,1000,1000,134528667,1000,1000,1000,1000
134518671,1000,1000,1000,1000,134628627,1000,1000,1000,1000
134521170,1000,1000,1000,1000,134728587,1000,1000,1000,1000
134523669,1000,1000,1000,1000,134828547,1000,1000,1000,1000
134526168,1000,1000,1000,1000,134928507,1000,1000,1000,1000
134528667,1000,1000,1000,1000,135028467,1000,1000,1000,1000
134531166,1000,1000,1000,1000,135128427,1000,1000,1000,1000
134533665,1000,1000,1000,1000,135228387,1000,1000,1000,1000
134536164,1000,1000,1000,1000,135328347,1000,1000,1000,1000
134538663,1000,1000,1000,1000,135428307,1000,1000,1000,1000
134541162,1000,1000,1000,1000,135528267,1000,1000,1000,1000
134543661,1000,1000,1000,1000,135628227,1000,1000,1000,1000
134546160,1000,1000,1000,1000,135728187,1000,1000,1000,1000
134548659,1000,1000,1000,1000,135828980,1000,1000,1000,1000
134551158,1000,1000,1000,1000,135928940,1000,1000,1000,1000
134553657,1000,1000,1000,1000,136028900,1000,1000,1000,1000
134556156,1000,1000,1000,1000,136128860,1000,1000,1000,1000
134558655,1000,1000,1000,1000,136228820,1000,1000,1000,1000
134561154,1000,1000,1000,1000,136328780,1000,1000,1000,1000
134563653,1000,1000,1000,1000,136428740,1000,1000,1000,1000
134566152,1000,1000,1000,1000,136528700,1003,1003,1003,1003
134568651,1000,1000,1000,1000,136628660,1033,1033,1033,1033
134571150,1000,1000,1000,1000,136728620,1063,1063,1063,1063
134573649,1000,1000,1000,1000,136828580,1093,1093,1093,1093
134576148,1000,1000,1000,1000,136928540,1123,1123,1123,1123
134578647,1000,1000,1000,1000,137028500,1191,1170,1172,1192
134581146,1000,1000,1000,1000,137128460,1429,1414,1415,1430
134583645,1000,1000,1000,1000,137228420,1603,1590,1590,1603
134586144,1000,1000,1000,1000,137328380,1747,1734,1735,1748
134588643,1000,1000,1000,1000,137428340,1873,1861,1861,1874
134591142,1000,1000,1000,1000,137528300,1894,1884,1885,1895
134593641,1000,1000,1000,1000,137628260,1796,1792,1792,1797
134596140,1000,1000,1000,1000,137728220,1676,1679,1679,1677
134598639,1000,1000,1000,1000,137828180,1626,1632,1632,1626
134601138,1000,1000,1000,1000,137928973,1625,1630,1631,1624
134603637,1000,1000,1000,1000,138028933,1636,1640,1640,1636
134606136,1000,1000,1000,1000,138128893,1639,1639,1640,1638
134608635,1000,1000,1000,1000,138228853,1637,1625,1623,1638
134611134,1000,1000,1000,1000,138328813,1612,1610,1602,1619
134613633,1000,1000,1000,1000,138428773,1604,1603,1595,1610
134616132,1000,1000,1000,1000,138528733,1601,1601,1597,1604
134618631,1000,1000,1000,1000,138628693,1603,1603,1604,1602
134621130,1000,1000,1000,1000,138728653,1608,1608,1611,1604
134623629,1000,1000,1000,1000,138828613,1615,1615,1619,1611
134626128,1000,1000,1000,1000,138928573,1584,1586,1602,1569
134628627,1000,1000,1000,1000,139028533,1570,1573,1587,1558
134631126,1000,1000,1000,1000,139128493,1561,1561,1566,1558
134633625,1000,1000,1000,1000,139228453,1551,1551,1545,1559
134636124,1000,1000,1000,1000,139328413,1545,1543,1532,1557
134638623,1000,1000,1000,1000,139428373,1538,1537,1526,1549
134641122,1000,1000,1000,1000,139528333,1532,1531,1524,1538
134643621,1000,1000,1000,1000,139628293,1528,1527,1524,1529
134646120,1000,1000,1000,1000,139728253,1527,1527,1527,1526
134648619,1000,1000,1000,1000,139828213,1529,1529,1531,1526
134651118,1000,1000,1000,1000,139928173,1533,1533,1536,1530
134653617,1000,1000,1000,1000,140028966,1536,1536,1540,1533
134656116,1000,1000,1000,1000,140128926,1540,1540,1542,1537
134658615,1000,1000,1000,1000,140228886,1542,1542,1544,1541
134661114,1000,1000,1000,1000,140328846,1546,1545,1546,1546
134663613,1000,1000,1000,1000,140428806,1548,1548,1548,1549
134666112,1000,1000,1000,1000,140528766,1551,1551,1551,1553
134668611,1000,1000,1000,1000,140628726,1554,1554,1553,1556
134671110,1000,1000,1000,1000,140728686,1559,1560,1550,1554
134673609,1000,1000,1000,1000,140828646,1565,1564,1553,1555
134676108,1000,1000,1000,1000,140928606,1563,1562,1558,1559
134678607,1000,1000,1000,1000,141028566,1560,1561,1563,1562
134681106,1000,1000,1000,1000,141128526,1560,1559,1568,1567
134683605,1000,1000,1000,1000,141228486,1561,1561,1572,1570
134686104,1000,1000,1000,1000,141328446,1562,1562,1573,1572
134688603,1000,1000,1000,1000,141428406,1563,1564,1573,1573
134691102,1000,1000,1000,1000,141528366,1564,1565,1572,1572
134693601,1000,1000,1000,1000,141628326,1567,1567,1572,1572
134696100,1000,1000,1000,1000,141728286,1570,1570,1572,1573
134698599,1000,1000,1000,1000,141828246,1572,1572,1571,1572
134701098,1000,1000,1000,1000,141928206,1574,1573,1571,1571
134703597,1000,1000,1000,1000,142028166,1576,1576,1572,1571
134706096,1000,1000,1000,1000,142128959,1577,1576,1571,1570
134708595,1000,1000,1000,1000,142228919,1577,1577,1572,1571
134711094,1000,1000,1000,1000,142328879,1578,1578,1573,1572
134713593,1000,1000,1000,1000,142428839,1578,1578,1573,1572
134716092,1000,1000,1000,1000,142528799,1578,1577,1573,1574
134718591,1000,1000,1000,1000,142628759,1577,1578,1575,1575
134721090,1000,1000,1000,1000,142728719,1577,1577,1576,1576
134723589,1000,1000,1000,1000,142828679,1576,1576,1576,1576
134726088,1000,1000,1000,1000,142928639,1577,1577,1578,1578
134728587,1000,1000,1000,1000,143028599,1575,1576,1577,1577
134731086,1000,1000,1000,1000,143128559,1577,1577,1579,1579
134733585,1000,1000,1000,1000,143228519,1577,1577,1579,1579
134736084,1000,1000,1000,1000,143328479,1576,1576,1578,1578
134738583,1000,1000,1000,1000,143428439,1577,1577,1578,1578
134741082,1000,1000,1000,1000,143528399,1578,1577,1578,1578
134743581,1000,1000,1000,1000,143628359,1578,1578,1578,1578
134746080,1000,1000,1000,1000,143728319,1578,1578,1578,1578
134748579,1000,1000,1000,1000,143828279,1578,1578,1578,1578
134751078,1000,1000,1000,1000,143928239,1579,1579,1579,1579
134753577,1000,1000,1000,1000,144028199,1581,1580,1580,1580
134756076,1000,1000,1000,1000,144128159,1580,1580,1579,1579
134758575,1000,1000,1000,1000,144228952,1579,1579,1578,1578
134761074,1000,1000,1000,1000,144328912,1580,1579,1579,1579
134763573,1000,1000,1000,1000,144428872,1579,1579,1578,1579
134766072,1000,1000,1000,1000,144528832,1579,1579,1579,1579
134768571,1000,1000,1000,1000,144628792,1578,1578,1578,1579
134771070,1000,1000,1000,1000,144728752,1579,1579,1579,1580
134773569,1000,1000,1000,1000,144828712,1579,1580,1580,1580
134776068,1000,1000,1000,1000,144928672,1579,1579,1580,1580
134778567,1000,1000,1000,1000,145028632,1580,1579,1580,1580
134781066,1000,1000,1000,1000,145128592,1580,1579,1580,1580
134783565,1000,1000,1000,1000,145228552,1580,1580,1580,1580
134786064,1000,1000,1000,1000,145328512,1580,1579,1579,1579
134788563,1000,1000,1000,1000,145428472,1580,1580,1580,1580
134791062,1000,1000,1000,1000,145528432,1579,1579,1579,1580
134793561,1000,1000,1000,1000,145628392,1579,1579,1579,1579
134796060,1000,1000,1000,1000,145728352,1579,1579,1579,1579
134798559,1000,1000,1000,1000,145828312,1580,1580,1580,1580
134801058,1000,1000,1000,1000,145928272,1580,1580,1580,1580
134803557,1000,1000,1000,1000,146028232,1580,1580,1580,1580
134806056,1000,1000,1000,1000,146128192,1580,1580,1580,1580
134808555,1000,1000,1000,1000,146228985,1580,1581,1581,1581
134811054,1000,1000,1000,1000,146328945,1580,1580,1580,1580
134813553,1000,1000,1000,1000,146428905,1581,1580,1581,1580
134816052,1000,1000,1000,1000,146528865,1581,1581,1581,1581
134818551,1000,1000,1000,1000,146628825,1581,1581,1581,1581
134821050,1000,1000,1000,1000,146728785,1580,1580,1580,1580
134823549,1000,1000,1000,1000,146828745,1579,1580,1580,1580
134826048,1000,1000,1000,1000,146928705,1580,1582,1587,1574
134828547,1000,1000,1000,1000,147028665,1579,1582,1586,1572
134831046,1000,1000,1000,1000,147128625,1579,1582,1578,1573
134833545,1000,1000,1000,1000,147228585,1577,1580,1568,1571
134836044,1000,1000,1000,1000,147328545,1577,1579,1561,1568
134838543,1000,1000,1000,1000,147428505,1578,1579,1557,1564
134841042,1000,1000,1000,1000,147528465,1580,1579,1554,1559
134843541,1000,1000,1000,1000,147628425,1580,1578,1554,1555
134846040,1000,1000,1000,1000,147728385,1581,1579,1555,1553
134848539,1000,1000,1000,1000,147828345,1580,1580,1556,1553
134851038,1000,1000,1000,1000,147928305,1578,1579,1555,1553
134853537,1000,1000,1000,1000,148028265,1577,1579,1555,1554
134856036,1000,1000,1000,1000,148128225,1577,1578,1554,1553
134858535,1000,1000,1000,1000,148228185,1575,1577,1552,1552
134861034,1000,1000,1000,1000,148328978,1576,1578,1551,1551
134863533,1000,1000,1000,1000,148428938,1578,1580,1550,1550
134866032,1000,1000,1000,1000,148528898,1581,1582,1548,1549
134868531,1000,1000,1000,1000,148628858,1583,1583,1545,1545
134871030,1000,1000,1000,1000,148728818,1586,1586,1543,1542
134873529,1000,1000,1000,1000,148828778,1589,1589,1540,1539
134876028,1000,1000,1000,1000,148928738,1591,1591,1537,1537
134878527,1000,1000,1000,1000,149028698,1594,1594,1535,1535
134881026,1000,1000,1000,1000,149128658,1595,1595,1534,1536
134883525,1000,1000,1000,1000,149228618,1595,1595,1535,1536
134886024,1000,1000,1000,1000,149328578,1595,1594,1537,1540
134888523,1000,1000,1000,1000,149428538,1592,1591,1541,1544
134891022,1000,1000,1000,1000,149528498,1588,1586,1548,1552
134893521,1000,1000,1000,1000,149628458,1581,1577,1557,1559
134896020,1000,1000,1000,1000,149728418,1572,1566,1568,1570
134898519,1000,1000,1000,1000,149828378,1560,1556,1582,1583
134901018,1000,1000,1000,1000,149928338,1549,1546,1594,1595
134903517,1000,1000,1000,1000,150028298,1539,1537,1605,1605
134906016,1000,1000,1000,1000,150128258,1530,1531,1612,1611
134908515,1000,1000,1000,1000,150228218,1527,1529,1616,1614
134911014,1000,1000,1000,1000,150328178,1528,1530,1616,1614
134913513,1000,1000,1000,1000,150428971,1532,1535,1612,1612
134916012,1000,1000,1000,1000,150528931,1539,1542,1607,1606
134918511,1000,1000,1000,1000,150628891,1548,1550,1599,1600
134921010,1000,1000,1000,1000,150728851,1558,1558,1592,1592
134923509,1000,1000,1000,1000,150828811,1566,1566,1584,1583
134926008,1000,1000,1000,1000,150928771,1575,1574,1578,1577
134928507,1000,1000,1000,1000,151028731,1582,1581,1573,1572
134931006,1000,1000,1000,1000,151128691,1585,1583,1567,1567
134933505,1000,1000,1000,1000,151228651,1587,1586,1565,1566
134936004,1000,1000,1000,1000,151328611,1588,1587,1565,1566
134938503,1000,1000,1000,1000,151428571,1587,1585,1566,1566
134941002,1000,1000,1000,1000,151528531,1585,1584,1569,1569
134943501,1000,1000,1000,1000,151628491,1583,1582,1573,1573
134946000,1000,1000,1000,1000,151728451,1579,1579,1575,1575
134948499,1000,1000,1000,1000,151828411,1577,1577,1578,1579
134950998,1000,1000,1000,1000,151928371,1573,1574,1580,1580
134953497,1000,1000,1000,1000,152028331,1573,1573,1583,1583
134955996,1000,1000,1000,1000,152128291,1572,1572,1584,1583
134958495,1000,1000,1000,1000,152228251,1314,1318,1649,1657
134960994,1000,1000,1000,1000,152328211,1393,1402,1658,1662
134963493,1000,1000,1000,1000,152428171,1574,1583,1620,1612
134965992,1000,1000,1000,1000,152528964,1605,1609,1597,1585
134968491,1000,1000,1000,1000,152628924,1626,1623,1584,1577
134970990,1000,1000,1000,1000,152728884,1639,1629,1576,1575
134973489,1000,1000,1000,1000,152828844,1649,1636,1564,1568
134975988,1000,1000,1000,1000,152928804,1662,1653,1540,1549
134978487,1000,1000,1000,1000,153028764,1667,1663,1525,1534
134980986,1000,1000,1000,1000,153128724,1664,1664,1525,1530
134983485,1000,1000,1000,1000,153228684,1652,1656,1532,1536
134985984,1000,1000,1000,1000,153328644,1639,1643,1545,1545
134988483,1000,1000,1000,1000,153428604,1623,1625,1561,1559
134990982,1000,1000,1000,1000,153528564,1604,1602,1579,1577
134993481,1000,1000,1000,1000,153628524,1584,1580,1597,1595
134995980,1000,1000,1000,1000,153728484,1569,1567,1606,1605
134998479,1000,1000,1000,1000,153828444,1561,1560,1608,1608
135000978,1000,1000,1000,1000,153928404,1556,1557,1607,1606
135003477,1000,1000,1000,1000,154028364,1554,1558,1603,1603
135005976,1000,1000,1000,1000,154128324,1556,1560,1599,1598
135008475,1000,1000,1000,1000,154228284,1559,1563,1596,1594
135010974,1000,1000,1000,1000,154328244,1564,1567,1593,1590
135013473,1000,1000,1000,1000,154428204,1568,1570,1589,1586
135015972,1000,1000,1000,1000,154528164,1572,1572,1584,1583
135018471,1000,1000,1000,1000,154628957,1576,1574,1580,1580
135020970,1000,1000,1000,1000,154728917,1579,1577,1578,1578
135023469,1000,1000,1000,1000,154828877,1582,1580,1580,1574
135025968,1000,1000,1000,1000,154928837,1584,1581,1581,1568
135028467,1000,1000,1000,1000,155028797,1586,1582,1574,1568
135030966,1000,1000,1000,1000,155128757,1585,1582,1564,1566
135033465,1000,1000,1000,1000,155228717,1582,1583,1557,1563
135035964,1000,1000,1000,1000,155328677,1580,1583,1553,1559
135038463,1000,1000,1000,1000,155428637,1580,1583,1552,1555
135040962,1000,1000,1000,1000,155528597,1579,1582,1552,1552
135043461,1000,1000,1000,1000,155628557,1580,1582,1554,1551
135045960,1000,1000,1000,1000,155728517,1580,1580,1553,1550
135048459,1000,1000,1000,1000,155828477,1580,1579,1553,1551
135050958,1000,1000,1000,1000,155928437,1579,1578,1551,1551
135053457,1000,1000,1000,1000,156028397,1578,1578,1549,1550
135055956,1000,1000,1000,1000,156128357,1578,1578,1549,1550
135058455,1000,1000,1000,1000,156228317,1577,1578,1548,1548
135060954,1000,1000,1000,1000,156328277,1577,1579,1547,1547
135063453,1000,1000,1000,1000,156428237,1577,1580,1545,1544
135065952,1000,1000,1000,1000,156528197,1579,1581,1544,1543
135068451,1000,1000,1000,1000,156628157,1581,1583,1543,1542
135070950,1000,1000,1000,1000,156728950,1582,1582,1540,1539
135073449,1000,1000,1000,1000,156828910,1584,1585,1539,1539
135075948,1000,1000,1000,1000,156928870,1587,1587,1538,1539
135078447,1000,1000,1000,1000,157028830,1588,1587,1537,1538
135080946,1000,1000,1000,1000,157128790,1589,1588,1538,1540
135083445,1000,1000,1000,1000,157228750,1588,1588,1539,1542
135085944,1000,1000,1000,1000,157328710,1588,1586,1542,1545
135088443,1000,1000,1000,1000,157428670,1585,1584,1546,1550
135090942,1000,1000,1000,1000,157528630,1581,1581,1550,1554
135093441,1000,1000,1000,1000,157628590,1576,1576,1555,1559
135095940,1000,1000,1000,1000,157728550,1572,1571,1562,1565
135098439,1000,1000,1000,1000,157828510,1566,1565,1568,1570
135100938,1000,1000,1000,1000,157928470,1561,1559,1576,1577
135103437,1000,1000,1000,1000,158028430,1555,1553,1583,1584
135105936,1000,1000,1000,1000,158128390,1550,1548,1590,1589
135108435,1000,1000,1000,1000,158228350,1546,1544,1596,1595
135110934,1000,1000,1000,1000,158328310,1542,1542,1601,1600
135113433,1000,1000,1000,1000,158428270,1539,1540,1605,1603
135115932,1000,1000,1000,1000,158528230,1537,1538,1605,1605
135118431,1000,1000,1000,1000,158628190,1538,1540,1606,1606
135120930,1000,1000,1000,1000,158728983,1540,1542,1603,1603
135123429,1000,1000,1000,1000,158828943,1546,1548,1599,1599
135125928,1000,1000,1000,1000,158928903,1552,1554,1593,1593
135128427,1000,1000,1000,1000,159028863,1560,1561,1588,1587
135130926,1000,1000,1000,1000,159128823,1568,1568,1583,1581
135133425,1000,1000,1000,1000,159228783,1575,1574,1579,1577
135135924,1000,1000,1000,1000,159328743,1580,1578,1575,1574
135138423,1000,1000,1000,1000,159428703,1582,1580,1571,1571
135140922,1000,1000,1000,1000,159528663,1586,1584,1571,1572
135143421,1000,1000,1000,1000,159628623,1586,1584,1570,1571
135145920,1000,1000,1000,1000,159728583,1585,1585,1569,1570
135148419,1000,1000,1000,1000,159828543,1585,1585,1571,1572
135150918,1000,1000,1000,1000,159928503,1585,1585,1572,1573
135153417,1000,1000,1000,1000,160028463,1584,1584,1574,1574
135155916,1000,1000,1000,1000,160128423,1583,1582,1575,1574
135158415,1000,1000,1000,1000,160228383,1582,1581,1576,1575
135160914,1000,1000,1000,1000,160328343,1582,1581,1577,1577
135163413,1000,1000,1000,1000,160428303,1580,1580,1578,1578
135165912,1000,1000,1000,1000,160528263,1579,1579,1578,1579
135168411,1000,1000,1000,1000,160628223,1578,1579,1580,1580
135170910,1000,1000,1000,1000,160728183,1577,1578,1580,1579
135173409,1000,1000,1000,1000,160828976,1577,1578,1581,1581
135175908,1000,1000,1000,1000,160928936,1576,1577,1581,1580
135178407,1000,1000,1000,1000,161028896,1577,1578,1581,1581
135180906,1000,1000,1000,1000,161128856,1577,1577,1582,1581
135183405,1000,1000,1000,1000,161228816,1578,1578,1581,1582
135185904,1000,1000,1000,1000,161328776,1578,1578,1580,1581
135188403,1000,1000,1000,1000,161428736,1578,1578,1580,1580
135190902,1000,1000,1000,1000,161528696,1579,1579,1581,1581
135193401,1000,1000,1000,1000,161628656,1579,1580,1581,1580
135195900,1000,1000,1000,1000,161728616,1580,1580,1580,1580
135198399,1000,1000,1000,1000,161828576,1581,1581,1580,1580
135200898,1000,1000,1000,1000,161928536,1580,1580,1579,1579
135203397,1000,1000,1000,1000,162028496,1581,1581,1579,1580
135205896,1000,1000,1000,1000,162128456,1581,1580,1578,1579
135208395,1000,1000,1000,1000,162228416,1581,1582,1580,1580
135210894,1000,1000,1000,1000,162328376,1581,1581,1580,1579
135213393,1000,1000,1000,1000,162428336,1581,1581,1580,1580
135215892,1000,1000,1000,1000,162528296,1580,1581,1579,1579
135218391,1000,1000,1000,1000,162628256,1581,1581,1580,1580
135220890,1000,1000,1000,1000,162728216,1581,1581,1581,1581
135223389,1000,1000,1000,1000,162828176,1581,1581,1581,1581
135225888,1000,1000,1000,1000,162928969,1581,1581,1580,1580
135228387,1000,1000,1000,1000,163028929,1582,1581,1581,1581
135230886,1000,1000,1000,1000,163128889,1581,1580,1581,1580
135233385,1000,1000,1000,1000,163228849,1581,1580,1581,1581
135235884,1000,1000,1000,1000,163328809,1580,1581,1581,1581
135238383,1000,1000,1000,1000,163428769,1580,1581,1584,1577
135240882,1000,1000,1000,1000,163528729,1581,1582,1588,1573
135243381,1000,1000,1000,1000,163628689,1580,1581,1581,1573
135245880,1000,1000,1000,1000,163728649,1578,1579,1571,1572
135248379,1000,1000,1000,1000,163828609,1577,1578,1563,1569
135250878,1000,1000,1000,1000,163928569,1576,1578,1558,1565
135253377,1000,1000,1000,1000,164028529,1578,1579,1556,1561
135255876,1000,1000,1000,1000,164128489,1578,1578,1555,1557
135258375,1000,1000,1000,1000,164228449,1578,1578,1555,1554
135260874,1000,1000,1000,1000,164328409,1579,1578,1556,1554
135263373,1000,1000,1000,1000,164428369,1578,1577,1556,1553
135265872,1000,1000,1000,1000,164528329,1578,1577,1556,1554
135268371,1000,1000,1000,1000,164628289,1577,1578,1554,1554
135270870,1000,1000,1000,1000,164728249,1577,1578,1553,1554
135273369,1000,1000,1000,1000,164828209,1576,1578,1552,1553
135275868,1000,1000,1000,1000,164928169,1577,1579,1551,1552
135278367,1000,1000,1000,1000,165028962,1577,1579,1549,1549
135280866,1000,1000,1000,1000,165128922,1579,1581,1549,1548
135283365,1000,1000,1000,1000,165228882,1581,1582,1547,1546
135285864,1000,1000,1000,1000,165328842,1583,1583,1545,1544
135288363,1000,1000,1000,1000,165428802,1585,1586,1543,1543
135290862,1000,1000,1000,1000,165528762,1587,1587,1541,1542
135293361,1000,1000,1000,1000,165628722,1588,1589,1540,1541
135295860,1000,1000,1000,1000,165728682,1589,1589,1540,1541
135298359,1000,1000,1000,1000,165828642,1590,1590,1541,1542
135300858,1000,1000,1000,1000,165928602,1590,1589,1541,1543
135303357,1000,1000,1000,1000,166028562,1589,1589,1545,1547
135305856,1000,1000,1000,1000,166128522,1587,1585,1549,1552
135308355,1000,1000,1000,1000,166228482,1583,1580,1556,1559
135310854,1000,1000,1000,1000,166328442,1578,1574,1564,1567
135313353,1000,1000,1000,1000,166368426,1575,1571,1568,1571
135315852,1000,1000,1000,1000,166468386,1566,1563,1579,1581
135318351,1000,1000,1000,1000,166568346,1556,1553,1590,1591
135320850,1000,1000,1000,1000,166668306,1547,1546,1599,1599
135323349,1000,1000,1000,1000,166768266,1539,1539,1606,1605
135325848,1000,1000,1000,1000,166868226,1535,1536,1610,1610
135328347,1000,1000,1000,1000,166968186,1533,1536,1611,1611
135330846,1000,1000,1000,1000,167068979,1535,1537,1609,1608
135333345,1000,1000,1000,1000,167168939,1540,1542,1606,1605
135335844,1000,1000,1000,1000,167268899,1547,1548,1601,1600
135338343,1000,1000,1000,1000,167368859,1554,1554,1594,1593
135340842,1000,1000,1000,1000,167468819,1561,1561,1587,1586
135343341,1000,1000,1000,1000,167568779,1569,1569,1581,1580
135345840,1000,1000,1000,1000,167668739,1575,1574,1574,1575
135348339,1000,1000,1000,1000,167768699,1581,1579,1570,1570
135350838,1000,1000,1000,1000,167868659,1584,1583,1567,1567
135353337,1000,1000,1000,1000,167968619,1588,1586,1567,1567
135355836,1000,1000,1000,1000,168068579,1588,1587,1567,1567
135358335,1000,1000,1000,1000,168168539,1589,1587,1569,1569
135360834,1000,1000,1000,1000,168268499,1586,1585,1570,1570
135363333,1000,1000,1000,1000,168368459,1584,1584,1572,1572
135365832,1000,1000,1000,1000,168468419,1581,1581,1575,1575
135368331,1000,1000,1000,1000,168568379,1579,1579,1578,1578
135370830,1000,1000,1000,1000,168668339,1577,1577,1580,1580
135373329,1000,1000,1000,1000,168768299,1575,1576,1583,1583
135375828,1000,1000,1000,1000,168868259,1574,1575,1584,1584
135378327,1000,1000,1000,1000,168968219,1573,1574,1584,1584
135380826,1000,1000,1000,1000,169068179,1573,1574,1584,1584
135383325,1000,1000,1000,1000,169168972,1574,1574,1584,1584
135385824,1000,1000,1000,1000,169268932,1575,1575,1583,1583
135388323,1000,1000,1000,1000,169368892,1576,1576,1582,1582
135390822,1000,1000,1000,1000,169468852,1578,1578,1581,1581
135393321,1000,1000,1000,1000,169568812,1578,1578,1579,1579
135395820,1000,1000,1000,1000,169668772,1579,1579,1577,1578
135398319,1000,1000,1000,1000,169768732,1580,1580,1578,1578
135400818,1000,1000,1000,1000,169868692,1580,1580,1576,1576
135403317,1000,1000,1000,1000,169968652,1581,1581,1576,1576
135405816,1000,1000,1000,1000,170068612,1582,1582,1578,1577
135408315,1000,1000,1000,1000,170168572,1582,1582,1578,1578
135410814,1000,1000,1000,1000,170268532,1581,1581,1578,1578
135413313,1000,1000,1000,1000,170368492,1582,1581,1579,1579
135415812,1000,1000,1000,1000,170468452,1581,1581,1579,1580
135418311,1000,1000,1000,1000,170568412,1581,1581,1581,1581
135420810,1000,1000,1000,1000,170668372,1582,1582,1583,1582
135423309,1000,1000,1000,1000,170768332,1581,1581,1583,1582
135425808,1000,1000,1000,1000,170868292,1581,1581,1583,1583
135428307,1000,1000,1000,1000,170968252,1580,1581,1582,1582
135430806,1000,1000,1000,1000,171068212,1580,1580,1582,1582
135433305,1000,1000,1000,1000,171168172,1581,1581,1582,1582
135435804,1000,1000,1000,1000,171268965,1581,1581,1582,1582
135438303,1000,1000,1000,1000,171368925,1581,1581,1582,1582
135440802,1000,1000,1000,1000,171468885,1581,1582,1587,1576
135443301,1000,1000,1000,1000,171568845,1581,1581,1588,1574
135445800,1000,1000,1000,1000,171668805,1580,1579,1582,1575
135448299,1000,1000,1000,1000,171768765,1577,1576,1573,1575
135450798,1000,1000,1000,1000,171868725,1574,1574,1568,1575
135453297,1000,1000,1000,1000,171968685,1570,1570,1564,1570
135455796,1000,1000,1000,1000,172068645,1568,1568,1563,1568
135458295,1000,1000,1000,1000,172168605,1567,1568,1565,1567
135460794,1000,1000,1000,1000,172268565,1567,1567,1567,1566
135463293,1000,1000,1000,1000,172368525,1566,1566,1567,1565
135465792,1000,1000,1000,1000,172468485,1566,1566,1568,1565
135468291,1000,1000,1000,1000,172568445,1565,1565,1567,1565
135470790,1000,1000,1000,1000,172668405,1564,1564,1566,1565
135473289,1000,1000,1000,1000,172768365,1563,1563,1565,1564
135475788,1000,1000,1000,1000,172868325,1562,1561,1563,1563
135478287,1000,1000,1000,1000,172968285,1561,1562,1562,1563
135480786,1000,1000,1000,1000,173068245,1561,1561,1562,1562
135483285,1000,1000,1000,1000,173168205,1560,1560,1561,1561
135485784,1000,1000,1000,1000,173268165,1561,1561,1562,1561
135488283,1000,1000,1000,1000,173368958,1561,1560,1561,1560
135490782,1000,1000,1000,1000,173468918,1560,1560,1560,1559
135493281,1000,1000,1000,1000,173568878,1559,1559,1559,1558
135495780,1000,1000,1000,1000,173668838,1558,1559,1558,1557
135498279,1000,1000,1000,1000,173768798,1559,1559,1559,1558
135500778,1000,1000,1000,1000,173868758,1559,1558,1559,1558
135503277,1000,1000,1000,1000,173968718,1559,1559,1560,1558
135505776,1000,1000,1000,1000,174068678,1560,1559,1560,1558
135508275,1000,1000,1000,1000,174168638,1559,1558,1561,1557
135510774,1000,1000,1000,1000,174268598,1560,1559,1560,1559
135513273,1000,1000,1000,1000,174368558,1561,1560,1559,1562
135515772,1000,1000,1000,1000,174468518,1561,1561,1558,1565
135518271,1000,1000,1000,1000,174568478,1562,1562,1559,1566
135520770,1000,1000,1000,1000,174668438,1562,1563,1560,1565
135523269,1000,1000,1000,1000,174768398,1562,1563,1561,1563
135525768,1000,1000,1000,1000,174868358,1562,1562,1562,1560
135528267,1000,1000,1000,1000,174968318,1560,1560,1562,1557
135530766,1000,1000,1000,1000,175068278,1561,1560,1560,1560
135533265,1000,1000,1000,1000,175168238,1559,1559,1555,1560
135535764,1000,1000,1000,1000,175268198,1555,1554,1551,1554
135538263,1000,1000,1000,1000,175368158,1550,1550,1546,1548
135540762,1000,1000,1000,1000,175468951,1543,1544,1540,1540
135543261,1000,1000,1000,1000,175568911,1536,1537,1533,1532
135545760,1000,1000,1000,1000,175668871,1529,1529,1526,1525
135548259,1000,1000,1000,1000,175768831,1523,1523,1520,1519
135550758,1000,1000,1000,1000,175868791,1520,1519,1518,1518
135553257,1000,1000,1000,1000,175968751,1518,1517,1518,1518
135555756,1000,1000,1000,1000,176068711,1518,1518,1520,1521
135558255,1000,1000,1000,1000,176168671,1519,1520,1524,1524
135560754,1000,1000,1000,1000,176268631,1523,1523,1529,1529
135563253,1000,1000,1000,1000,176368591,1527,1527,1534,1534
135565752,1000,1000,1000,1000,176468551,1532,1532,1539,1538
135568251,1000,1000,1000,1000,176568511,1535,1535,1541,1541
135570750,1000,1000,1000,1000,176668471,1538,1538,1542,1542
135573249,1000,1000,1000,1000,176768431,1541,1541,1544,1544
135575748,1000,1000,1000,1000,176868391,1543,1543,1544,1543
135578247,1000,1000,1000,1000,176968351,1545,1545,1544,1544
135580746,1000,1000,1000,1000,177068311,1546,1546,1543,1543
135583245,1000,1000,1000,1000,177168271,1547,1547,1543,1543
135585744,1000,1000,1000,1000,177268231,1548,1548,1544,1544
135588243,1000,1000,1000,1000,177368191,1548,1548,1544,1544
135590742,1000,1000,1000,1000,177468984,1548,1548,1544,1544
135593241,1000,1000,1000,1000,177568944,1547,1547,1544,1544
135595740,1000,1000,1000,1000,177668904,1548,1548,1545,1545
135598239,1000,1000,1000,1000,177768864,1547,1547,1545,1545
135600738,1000,1000,1000,1000,177868824,1546,1546,1545,1545
135603237,1000,1000,1000,1000,177968784,1546,1546,1546,1546
135605736,1000,1000,1000,1000,178068744,1545,1545,1546,1545
135608235,1000,1000,1000,1000,178168704,1544,1545,1546,1546
135610734,1000,1000,1000,1000,178268664,1544,1544,1545,1545
135613233,1000,1000,1000,1000,178368624,1544,1544,1546,1546
135615732,1000,1000,1000,1000,178468584,1544,1544,1545,1545
135618231,1000,1000,1000,1000,178568544,1544,1544,1545,1545
135620730,1000,1000,1000,1000,178668504,1544,1544,1545,1545
135623229,1000,1000,1000,1000,178768464,1543,1544,1544,1544
135625728,1000,1000,1000,1000,178868424,1544,1544,1545,1544
135628227,1000,1000,1000,1000,178968384,1544,1544,1544,1543
135630726,1000,1000,1000,1000,179068344,1544,1544,1544,1544
135633225,1000,1000,1000,1000,179168304,1544,1544,1544,1544
135635724,1000,1000,1000,1000,179268264,1544,1544,1543,1543
135638223,1000,1000,1000,1000,179368224,1544,1544,1543,1543
135640722,1000,1000,1000,1000,179468184,1544,1543,1543,1543
135643221,1000,1000,1000,1000,179568977,1543,1543,1543,1542
135645720,1000,1000,1000,1000,179668937,1544,1544,1543,1543
135648219,1000,1000,1000,1000,179768897,1544,1545,1545,1545
135650718,1000,1000,1000,1000,179868857,1544,1544,1544,1544
135653217,1000,1000,1000,1000,179968817,1544,1544,1544,1545
135655716,1000,1000,1000,1000,180068777,1544,1545,1545,1545
135658215,1000,1000,1000,1000,180168737,1543,1544,1544,1543
135660714,1000,1000,1000,1000,180268697,1543,1544,1544,1543
135663213,1000,1000,1000,1000,180368657,1543,1543,1543,1543
135665712,1000,1000,1000,1000,180468617,1544,1544,1544,1544
135668211,1000,1000,1000,1000,180568577,1544,1545,1544,1545
135670710,1000,1000,1000,1000,180668537,1544,1544,1544,1545
135673209,1000,1000,1000,1000,180768497,1544,1544,1544,1544
135675708,1000,1000,1000,1000,180868457,1544,1544,1544,1544
135678207,1000,1000,1000,1000,180968417,1543,1543,1544,1543
135680706,1000,1000,1000,1000,181068377,1544,1543,1544,1543
135683205,1000,1000,1000,1000,181168337,1544,1544,1544,1544
135685704,1000,1000,1000,1000,181268297,1544,1544,1544,1544
135688203,1000,1000,1000,1000,181368257,1544,1544,1544,1543
135690702,1000,1000,1000,1000,181468217,1544,1544,1544,1544
135693201,1000,1000,1000,1000,181568177,1544,1544,1544,1544
135695700,1000,1000,1000,1000,181668970,1544,1544,1544,1545
135698199,1000,1000,1000,1000,181768930,1545,1545,1545,1545
135700698,1000,1000,1000,1000,181868890,1545,1545,1545,1545
135703197,1000,1000,1000,1000,181968850,1544,1544,1544,1544
135705696,1000,1000,1000,1000,182068810,1544,1544,1545,1544
135708195,1000,1000,1000,1000,182168770,1544,1545,1545,1544
135710694,1000,1000,1000,1000,182268730,1544,1545,1545,1545
135713193,1000,1000,1000,1000,182368690,1545,1545,1546,1545
135715692,1000,1000,1000,1000,182468650,1545,1545,1545,1545
135718191,1000,1000,1000,1000,182568610,1545,1545,1545,1545
135720690,1000,1000,1000,1000,182668570,1544,1544,1543,1544
135723189,1000,1000,1000,1000,182768530,1545,1545,1545,1545
135725688,1000,1000,1000,1000,182868490,1545,1544,1544,1544
135728187,1000,1000,1000,1000,182968450,1544,1545,1545,1545
135730686,1000,1000,1000,1000,183068410,1544,1544,1544,1544
135733185,1000,1000,1000,1000,183168370,1544,1544,1543,1544
135735684,1000,1000,1000,1000,183268330,1544,1544,1544,1544
135738183,1000,1000,1000,1000,183368290,1543,1544,1543,1543
135740682,1000,1000,1000,1000,183468250,1544,1544,1544,1544
135743181,1000,1000,1000,1000,183568210,1544,1544,1544,1544
135745680,1000,1000,1000,1000,183668170,1544,1544,1544,1544
135748179,1000,1000,1000,1000,183768963,1543,1544,1544,1544
135750678,1000,1000,1000,1000,183868923,1544,1544,1544,1544
135753177,1000,1000,1000,1000,183968883,1544,1544,1545,1545
135755676,1000,1000,1000,1000,184068843,1544,1544,1545,1544
135758175,1000,1000,1000,1000,184168803,1544,1544,1544,1544
135760674,1000,1000,1000,1000,184268763,1544,1544,1544,1544
135763173,1000,1000,1000,1000,184368723,1544,1544,1544,1544
135765672,1000,1000,1000,1000,184468683,1544,1544,1544,1544
135768171,1000,1000,1000,1000,184568643,1544,1544,1544,1544
135770670,1000,1000,1000,1000,184668603,1545,1544,1544,1544
135773169,1000,1000,1000,1000,184768563,1544,1544,1544,1544
135775668,1000,1000,1000,1000,184868523,1544,1544,1544,1543
135778167,1000,1000,1000,1000,184968483,1545,1545,1545,1544
135780666,1000,1000,1000,1000,185068443,1544,1544,1543,1543
135783165,1000,1000,1000,1000,185168403,1544,1544,1544,1544
135785664,1000,1000,1000,1000,185268363,1544,1544,1544,1544
135788163,1000,1000,1000,1000,185368323,1544,1543,1543,1543
135790662,1000,1000,1000,1000,185468283,1543,1544,1543,1544
135793161,1000,1000,1000,1000,185568243,1446,1446,1417,1416
135795660,1000,1000,1000,1000,185668203,1346,1346,1273,1271
135798159,1000,1000,1000,1000,185768163,1311,1311,1217,1216
135800658,1000,1000,1000,1000,185868956,1297,1298,1196,1194
135803157,1000,1000,1000,1000,185968916,1276,1276,1157,1156
135805656,1000,1000,1000,1000,186068876,1249,1250,1152,1150
135808155,1000,1000,1000,1000,186168836,1110,1110,1151,1150
135810654,1000,1000,1000,1000,186268796,1109,1110,1151,1150
135813986,1000,1000,1000,1000,186368756,1109,1110,1151,1150
135816485,1000,1000,1000,1000,186468716,1110,1098,1150,1166
135818984,1000,1000,1000,1000,186568676,1110,1089,1150,1178
135821483,1000,1000,1000,1000,186668636,1110,1097,1150,1168
135823982,1000,1000,1000,1000,186768596,1110,1099,1150,1165
135826481,1000,1000,1000,1000,186868556,1110,1099,1150,1164
135828980,1000,1000,1000,1000,186968516,1110,1099,1150,1165
135831479,1000,1000,1000,1000,187068476,1110,1098,1150,1166
135833978,1000,1000,1000,1000,187168436,1110,1098,1150,1166
135836477,1000,1000,1000,1000,187268396,1101,1110,1162,1150
135838976,1000,1000,1000,1000,187368356,1110,1109,1150,1151
135841475,1000,1000,1000,1000,187468316,1110,1108,1150,1152
135843974,1000,1000,1000,1000,187568276,1110,1108,1150,1153
135846473,1000,1000,1000,1000,187668236,1110,1107,1150,1153
135848972,1000,1000,1000,1000,187768196,936,936,1144,1144
135851471,1000,1000,1000,1000,187868156,1000,1000,1000,1000
135853970,1000,1000,1000,1000,187968949,1000,1000,1000,1000
135856469,1000,1000,1000,1000,188068909,1000,1000,1000,1000
135858968,1000,1000,1000,1000,188168869,1000,1000,1000,1000
135861467,1000,1000,1000,1000,188268829,1000,1000,1000,1000
135863966,1000,1000,1000,1000,188368789,1000,1000,1000,1000
135866465,1000,1000,1000,1000,188468749,1000,1000,1000,1000
135868964,1000,1000,1000,1000,188568709,1000,1000,1000,1000
135871463,1000,1000,1000,1000,188668669,1000,1000,1000,1000
135873962,1000,1000,1000,1000,188768629,1000,1000,1000,1000
135876461,1000,1000,1000,1000,188868589,1000,1000,1000,1000
135878960,1000,1000,1000,1000,188968549,1000,1000,1000,1000
135881459,1000,1000,1000,1000,189068509,1000,1000,1000,1000
135883958,1000,1000,1000,1000,189168469,1000,1000,1000,1000
135886457,1000,1000,1000,1000,189268429,1000,1000,1000,1000
135888956,1000,1000,1000,1000,189368389,1000,1000,1000,1000
135891455,1000,1000,1000,1000,189468349,1000,1000,1000,1000
135893954,1000,1000,1000,1000,189568309,1000,1000,1000,1000
135896453,1000,1000,1000,1000,189668269,1000,1000,1000,1000
135898952,1000,1000,1000,1000,189768229,1000,1000,1000,1000
135901451,1000,1000,1000,1000,189868189,1000,1000,1000,1000
135903950,1000,1000,1000,1000,189968982,1000,1000,1000,1000
135906449,1000,1000,1000,1000,190068942,1000,1000,1000,1000
135908948,1000,1000,1000,1000,190168902,1000,1000,1000,1000
135911447,1000,1000,1000,1000,190268862,1000,1000,1000,1000
135913946,1000,1000,1000,1000,190368822,1000,1000,1000,1000
135916445,1000,1000,1000,1000,190468782,1000,1000,1000,1000
135918944,1000,1000,1000,1000,190568742,1000,1000,1000,1000
135921443,1000,1000,1000,1000,190668702,1000,1000,1000,1000
135923942,1000,1000,1000,1000,190768662,1000,1000,1000,1000
135926441,1000,1000,1000,1000,190868622,1000,1000,1000,1000
135928940,1000,1000,1000,1000,190968582,1000,1000,1000,1000
135931439,1000,1000,1000,1000,191068542,1000,1000,1000,1000
135933938,1000,1000,1000,1000,191168502,1000,1000,1000,1000
135936437,1000,1000,1000,1000,191268462,1000,1000,1000,1000
135938936,1000,1000,1000,1000,191368422,1000,1000,1000,1000
135941435,1000,1000,1000,1000,191468382,1000,1000,1000,1000
135943934,1000,1000,1000,1000,191568342,1000,1000,1000,1000
135946433,1000,1000,1000,1000,191668302,1000,1000,1000,1000
135948932,1000,1000,1000,1000,191768262,1000,1000,1000,1000
135951431,1000,1000,1000,1000,191868222,1000,1000,1000,1000
135953930,1000,1000,1000,1000,191968182,1000,1000,1000,1000
135956429,1000,1000,1000,1000,192068975,1000,1000,1000,1000
135958928,1000,1000,1000,1000,192168935,1000,1000,1000,1000
135961427,1000,1000,1000,1000,192268895,1000,1000,1000,1000
135963926,1000,1000,1000,1000,192368855,1000,1000,1000,1000
135966425,1000,1000,1000,1000,192468815,1000,1000,1000,1000
135968924,1000,1000,1000,1000,192568775,1000,1000,1000,1000
135971423,1000,1000,1000,1000,192668735,1000,1000,1000,1000
135973922,1000,1000,1000,1000,192768695,1000,1000,1000,1000
135976421,1000,1000,1000,1000,192868655,1000,1000,1000,1000
135978920,1000,1000,1000,1000,192968615,1000,1000,1000,1000
135981419,1000,1000,1000,1000,193068575,1000,1000,1000,1000
135983918,1000,1000,1000,1000,193168535,1000,1000,1000,1000
135986417,1000,1000,1000,1000,193268495,1000,1000,1000,1000
135988916,1000,1000,1000,1000,193368455,1000,1000,1000,1000
135991415,1000,1000,1000,1000,193468415,1000,1000,1000,1000
135993914,1000,1000,1000,1000,193568375,1000,1000,1000,1000
135996413,1000,1000,1000,1000,193668335,1000,1000,1000,1000
135998912,1000,1000,1000,1000,193768295,1000,1000,1000,1000
136001411,1000,1000,1000,1000,193868255,1000,1000,1000,1000
136003910,1000,1000,1000,1000,193968215,1000,1000,1000,1000
136006409,1000,1000,1000,1000,194068175,1000,1000,1000,1000
136008908,1000,1000,1000,1000,194168968,1000,1000,1000,1000
136011407,1000,1000,1000,1000,194268928,1000,1000,1000,1000
136013906,1000,1000,1000,1000,194368888,1000,1000,1000,1000
136016405,1000,1000,1000,1000,194468848,1000,1000,1000,1000
136018904,1000,1000,1000,1000,194568808,1000,1000,1000,1000
136021403,1000,1000,1000,1000,194668768,1000,1000,1000,1000
136023902,1000,1000,1000,1000,194768728,1000,1000,1000,1000
136026401,1000,1000,1000,1000,,,,,
136028900,1000,1000,1000,1000,,,,,
136031399,1000,1000,1000,1000,,,,,
136033898,1000,1000,1000,1000,,,,,
136036397,1000,1000,1000,1000,,,,,
136038896,1000,1000,1000,1000,,,,,
136041395,1000,1000,1000,1000,,,,,
136043894,1000,1000,1000,1000,,,,,
136046393,1000,1000,1000,1000,,,,,
136048892,1000,1000,1000,1000,,,,,
136051391,1000,1000,1000,1000,,,,,
136053890,1000,1000,1000,1000,,,,,
136056389,1000,1000,1000,1000,,,,,
136058888,1000,1000,1000,1000,,,,,
136061387,1000,1000,1000,1000,,,,,
136063886,1000,1000,1000,1000,,,,,
136066385,1000,1000,1000,1000,,,,,
136068884,1000,1000,1000,1000,,,,,
136071383,1000,1000,1000,1000,,,,,
136073882,1000,1000,1000,1000,,,,,
136076381,1000,1000,1000,1000,,,,,
136078880,1000,1000,1000,1000,,,,,
136081379,1000,1000,1000,1000,,,,,
136083878,1000,1000,1000,1000,,,,,
136086377,1000,1000,1000,1000,,,,,
136088876,1000,1000,1000,1000,,,,,
136091375,1000,1000,1000,1000,,,,,
136093874,1000,1000,1000,1000,,,,,
136096373,1000,1000,1000,1000,,,,,
136098872,1000,1000,1000,1000,,,,,
136101371,1000,1000,1000,1000,,,,,
136103870,1000,1000,1000,1000,,,,,
136106369,1000,1000,1000,1000,,,,,
136108868,1000,1000,1000,1000,,,,,
136111367,1000,1000,1000,1000,,,,,
136113866,1000,1000,1000,1000,,,,,
136116365,1000,1000,1000,1000,,,,,
136118864,1000,1000,1000,1000,,,,,
136121363,1000,1000,1000,1000,,,,,
136123862,1000,1000,1000,1000,,,,,
136126361,1000,1000,1000,1000,,,,,
136128860,1000,1000,1000,1000,,,,,
136131359,1000,1000,1000,1000,,,,,
136133858,1000,1000,1000,1000,,,,,
136136357,1000,1000,1000,1000,,,,,
136138856,1000,1000,1000,1000,,,,,
136141355,1000,1000,1000,1000,,,,,
136143854,1000,1000,1000,1000,,,,,
136146353,1000,1000,1000,1000,,,,,
136148852,1000,1000,1000,1000,,,,,
136151351,1000,1000,1000,1000,,,,,
136153850,1000,1000,1000,1000,,,,,
136156349,1000,1000,1000,1000,,,,,
136158848,1000,1000,1000,1000,,,,,
136161347,1000,1000,1000,1000,,,,,
136163846,1000,1000,1000,1000,,,,,
136166345,1000,1000,1000,1000,,,,,
136168844,1000,1000,1000,1000,,,,,
136171343,1000,1000,1000,1000,,,,,
136173842,1000,1000,1000,1000,,,,,
136176341,1000,1000,1000,1000,,,,,
136178840,1000,1000,1000,1000,,,,,
136181339,1000,1000,1000,1000,,,,,
136183838,1000,1000,1000,1000,,,,,
136186337,1000,1000,1000,1000,,,,,
136188836,1000,1000,1000,1000,,,,,
136191335,1000,1000,1000,1000,,,,,
136193834,1000,1000,1000,1000,,,,,
136196333,1000,1000,1000,1000,,,,,
136198832,1000,1000,1000,1000,,,,,
136201331,1000,1000,1000,1000,,,,,
136203830,1000,1000,1000,1000,,,,,
136206329,1000,1000,1000,1000,,,,,
136208828,1000,1000,1000,1000,,,,,
136211327,1000,1000,1000,1000,,,,,
136213826,1000,1000,1000,1000,,,,,
136216325,1000,1000,1000,1000,,,,,
136218824,1000,1000,1000,1000,,,,,
136221323,1000,1000,1000,1000,,,,,
136223822,1000,1000,1000,1000,,,,,
136226321,1000,1000,1000,1000,,,,,
136228820,1000,1000,1000,1000,,,,,
136231319,1000,1000,1000,1000,,,,,
136233818,1000,1000,1000,1000,,,,,
136236317,1000,1000,1000,1000,,,,,
136238816,1000,1000,1000,1000,,,,,
136241315,1000,1000,1000,1000,,,,,
136243814,1000,1000,1000,1000,,,,,
136246313,1000,1000,1000,1000,,,,,
136248812,1000,1000,1000,1000,,,,,
136251311,1000,1000,1000,1000,,,,,
136253810,1000,1000,1000,1000,,,,,
136256309,1000,1000,1000,1000,,,,,
136258808,1000,1000,1000,1000,,,,,
136261307,1000,1000,1000,1000,,,,,
136263806,1000,1000,1000,1000,,,,,
136266305,1000,1000,1000,1000,,,,,
136268804,1000,1000,1000,1000,,,,,
136271303,1000,1000,1000,1000,,,,,
136273802,1000,1000,1000,1000,,,,,
136276301,1000,1000,1000,1000,,,,,
136278800,1000,1000,1000,1000,,,,,
136281299,1000,1000,1000,1000,,,,,
136283798,1000,1000,1000,1000,,,,,
136286297,1000,1000,1000,1000,,,,,
136288796,1000,1000,1000,1000,,,,,
136291295,1000,1000,1000,1000,,,,,
136293794,1000,1000,1000,1000,,,,,
136296293,1000,1000,1000,1000,,,,,
136298792,1000,1000,1000,1000,,,,,
136301291,1000,1000,1000,1000,,,,,
136303790,1000,1000,1000,1000,,,,,
136306289,1000,1000,1000,1000,,,,,
136308788,1000,1000,1000,1000,,,,,
136311287,1000,1000,1000,1000,,,,,
136313786,1000,1000,1000,1000,,,,,
136316285,1000,1000,1000,1000,,,,,
136318784,1000,1000,1000,1000,,,,,
136321283,1000,1000,1000,1000,,,,,
136323782,1000,1000,1000,1000,,,,,
136326281,1000,1000,1000,1000,,,,,
136328780,1000,1000,1000,1000,,,,,
136331279,1000,1000,1000,1000,,,,,
136333778,1000,1000,1000,1000,,,,,
136336277,1000,1000,1000,1000,,,,,
136338776,1000,1000,1000,1000,,,,,
136341275,1000,1000,1000,1000,,,,,
136343774,1000,1000,1000,1000,,,,,
136346273,1000,1000,1000,1000,,,,,
136348772,1000,1000,1000,1000,,,,,
136351271,1000,1000,1000,1000,,,,,
136353770,1000,1000,1000,1000,,,,,
136356269,1000,1000,1000,1000,,,,,
136358768,1000,1000,1000,1000,,,,,
136361267,1000,1000,1000,1000,,,,,
136363766,1000,1000,1000,1000,,,,,
136366265,1000,1000,1000,1000,,,,,
136368764,1000,1000,1000,1000,,,,,
136371263,1000,1000,1000,1000,,,,,
136373762,1000,1000,1000,1000,,,,,
136376261,1000,1000,1000,1000,,,,,
136378760,1000,1000,1000,1000,,,,,
136381259,1000,1000,1000,1000,,,,,
136383758,1000,1000,1000,1000,,,,,
136386257,1000,1000,1000,1000,,,,,
136388756,1000,1000,1000,1000,,,,,
136391255,1000,1000,1000,1000,,,,,
136393754,1000,1000,1000,1000,,,,,
136396253,1000,1000,1000,1000,,,,,
136398752,1000,1000,1000,1000,,,,,
136401251,1000,1000,1000,1000,,,,,
136403750,1000,1000,1000,1000,,,,,
136406249,1000,1000,1000,1000,,,,,
136408748,1000,1000,1000,1000,,,,,
136411247,1000,1000,1000,1000,,,,,
136413746,1000,1000,1000,1000,,,,,
136416245,1000,1000,1000,1000,,,,,
136418744,1000,1000,1000,1000,,,,,
136421243,1000,1000,1000,1000,,,,,
136423742,1000,1000,1000,1000,,,,,
136426241,1000,1000,1000,1000,,,,,
136428740,1000,1000,1000,1000,,,,,
136431239,1000,1000,1000,1000,,,,,
136433738,1000,1000,1000,1000,,,,,
136436237,1000,1000,1000,1000,,,,,
136438736,1000,1000,1000,1000,,,,,
136441235,1000,1000,1000,1000,,,,,
136443734,1000,1000,1000,1000,,,,,
136446233,1000,1000,1000,1000,,,,,
136448732,1000,1000,1000,1000,,,,,
136451231,1000,1000,1000,1000,,,,,
136453730,1000,1000,1000,1000,,,,,
136456229,1000,1000,1000,1000,,,,,
136458728,1000,1000,1000,1000,,,,,
136461227,1000,1000,1000,1000,,,,,
136463726,1000,1000,1000,1000,,,,,
136466225,1000,1000,1000,1000,,,,,
136468724,1000,1000,1000,1000,,,,,
136471223,1000,1000,1000,1000,,,,,
136473722,1000,1000,1000,1000,,,,,
136476221,1000,1000,1000,1000,,,,,
136478720,1000,1000,1000,1000,,,,,
136481219,1000,1000,1000,1000,,,,,
136483718,1000,1000,1000,1000,,,,,
136486217,1000,1000,1000,1000,,,,,
136488716,1000,1000,1000,1000,,,,,
136491215,1000,1000,1000,1000,,,,,
136493714,1000,1000,1000,1000,,,,,
136496213,1000,1000,1000,1000,,,,,
136498712,1000,1000,1000,1000,,,,,
136501211,1000,1000,1000,1000,,,,,
136503710,1000,1000,1000,1000,,,,,
136506209,1000,1000,1000,1000,,,,,
136508708,1000,1000,1000,1000,,,,,
136511207,1000,1000,1000,1000,,,,,
136513706,1000,1000,1000,1000,,,,,
136516205,1000,1000,1000,1000,,,,,
136518704,1000,1000,1000,1000,,,,,
136521203,1000,1000,1000,1000,,,,,
136523702,1001,1001,1001,1001,,,,,
136526201,1002,1002,1002,1002,,,,,
136528700,1003,1003,1003,1003,,,,,
136531199,1003,1003,1003,1003,,,,,
136533698,1004,1004,1004,1004,,,,,
136536197,1005,1005,1005,1005,,,,,
136538696,1006,1006,1006,1006,,,,,
136541195,1006,1006,1006,1006,,,,,
136543694,1007,1007,1007,1007,,,,,
136546193,1008,1008,1008,1008,,,,,
136548692,1009,1009,1009,1009,,,,,
136551191,1009,1009,1009,1009,,,,,
136553690,1010,1010,1010,1010,,,,,
136556189,1011,1011,1011,1011,,,,,
136558688,1012,1012,1012,1012,,,,,
136561187,1012,1012,1012,1012,,,,,
136563686,1013,1013,1013,1013,,,,,
136566185,1014,1014,1014,1014,,,,,
136568684,1015,1015,1015,1015,,,,,
136571183,1015,1015,1015,1015,,,,,
136573682,1016,1016,1016,1016,,,,,
136576181,1017,1017,1017,1017,,,,,
136578680,1018,1018,1018,1018,,,,,
136581179,1018,1018,1018,1018,,,,,
136583678,1019,1019,1019,1019,,,,,
136586177,1020,1020,1020,1020,,,,,
136588676,1021,1021,1021,1021,,,,,
136591175,1021,1021,1021,1021,,,,,
136593674,1022,1022,1022,1022,,,,,
136596173,1023,1023,1023,1023,,,,,
136598672,1024,1024,1024,1024,,,,,
136601171,1024,1024,1024,1024,,,,,
136603670,1025,1025,1025,1025,,,,,
136606169,1026,1026,1026,1026,,,,,
136608668,1027,1027,1027,1027,,,,,
136611167,1027,1027,1027,1027,,,,,
136613666,1028,1028,1028,1028,,,,,
136616165,1029,1029,1029,1029,,,,,
136618664,1030,1030,1030,1030,,,,,
136621163,1030,1030,1030,1030,,,,,
136623662,1031,1031,1031,1031,,,,,
136626161,1032,1032,1032,1032,,,,,
136628660,1033,1033,1033,1033,,,,,
136631159,1033,1033,1033,1033,,,,,
136633658,1034,1034,1034,1034,,,,,
136636157,1035,1035,1035,1035,,,,,
136638656,1036,1036,1036,1036,,,,,
136641155,1036,1036,1036,1036,,,,,
136643654,1037,1037,1037,1037,,,,,
136646153,1038,1038,1038,1038,,,,,
136648652,1039,1039,1039,1039,,,,,
136651151,1039,1039,1039,1039,,,,,
136653650,1040,1040,1040,1040,,,,,
136656149,1041,1041,1041,1041,,,,,
136658648,1042,1042,1042,1042,,,,,
136661147,1042,1042,1042,1042,,,,,
136663646,1043,1043,1043,1043,,,,,
136666145,1044,1044,1044,1044,,,,,
136668644,1045,1045,1045,1045,,,,,
136671143,1045,1045,1045,1045,,,,,
136673642,1046,1046,1046,1046,,,,,
136676141,1047,1047,1047,1047,,,,,
136678640,1048,1048,1048,1048,,,,,
136681139,1048,1048,1048,1048,,,,,
136683638,1049,1049,1049,1049,,,,,
136686137,1050,1050,1050,1050,,,,,
136688636,1051,1051,1051,1051,,,,,
136691135,1051,1051,1051,1051,,,,,
136693634,1052,1052,1052,1052,,,,,
136696133,1053,1053,1053,1053,,,,,
136698632,1054,1054,1054,1054,,,,,
136701131,1054,1054,1054,1054,,,,,
136703630,1055,1055,1055,1055,,,,,
136706129,1056,1056,1056,1056,,,,,
136708628,1057,1057,1057,1057,,,,,
136711127,1057,1057,1057,1057,,,,,
136713626,1058,1058,1058,1058,,,,,
136716125,1059,1059,1059,1059,,,,,
136718624,1060,1060,1060,1060,,,,,
136721123,1060,1060,1060,1060,,,,,
136723622,1061,1061,1061,1061,,,,,
136726121,1062,1062,1062,1062,,,,,
136728620,1063,1063,1063,1063,,,,,
136731119,1063,1063,1063,1063,,,,,
136733618,1064,1064,1064,1064,,,,,
136736117,1065,1065,1065,1065,,,,,
136738616,1066,1066,1066,1066,,,,,
136741115,1066,1066,1066,1066,,,,,
136743614,1067,1067,1067,1067,,,,,
136746113,1068,1068,1068,1068,,,,,
136748612,1069,1069,1069,1069,,,,,
136751111,1069,1069,1069,1069,,,,,
136753610,1070,1070,1070,1070,,,,,
136756109,1071,1071,1071,1071,,,,,
136758608,1072,1072,1072,1072,,,,,
136761107,1072,1072,1072,1072,,,,,
136763606,1073,1073,1073,1073,,,,,
136766105,1074,1074,1074,1074,,,,,
136768604,1075,1075,1075,1075,,,,,
136771103,1075,1075,1075,1075,,,,,
136773602,1076,1076,1076,1076,,,,,
136776101,1077,1077,1077,1077,,,,,
136778600,1078,1078,1078,1078,,,,,
136781099,1078,1078,1078,1078,,,,,
136783598,1079,1079,1079,1079,,,,,
136786097,1080,1080,1080,1080,,,,,
136788596,1081,1081,1081,1081,,,,,
136791095,1081,1081,1081,1081,,,,,
136793594,1082,1082,1082,1082,,,,,
136796093,1083,1083,1083,1083,,,,,
136798592,1084,1084,1084,1084,,,,,
136801091,1084,1084,1084,1084,,,,,
136803590,1085,1085,1085,1085,,,,,
136806089,1086,1086,1086,1086,,,,,
136808588,1087,1087,1087,1087,,,,,
136811087,1087,1087,1087,1087,,,,,
136813586,1088,1088,1088,1088,,,,,
136816085,1089,1089,1089,1089,,,,,
136818584,1090,1090,1090,1090,,,,,
136821083,1090,1090,1090,1090,,,,,
136823582,1091,1091,1091,1091,,,,,
136826081,1092,1092,1092,1092,,,,,
136828580,1093,1093,1093,1093,,,,,
136831079,1093,1093,1093,1093,,,,,
136833578,1094,1094,1094,1094,,,,,
136836077,1095,1095,1095,1095,,,,,
136838576,1096,1096,1096,1096,,,,,
136841075,1096,1096,1096,1096,,,,,
136843574,1097,1097,1097,1097,,,,,
136846073,1098,1098,1098,1098,,,,,
136848572,1099,1099,1099,1099,,,,,
136851071,1099,1099,1099,1099,,,,,
136853570,1100,1100,1100,1100,,,,,
136856069,1101,1101,1101,1101,,,,,
136858568,1101,1101,1101,1101,,,,,
136861067,1102,1102,1102,1102,,,,,
136863566,1103,1103,1103,1103,,,,,
136866065,1104,1104,1104,1104,,,,,
136868564,1104,1104,1104,1104,,,,,
136871063,1105,1105,1105,1105,,,,,
136873562,1106,1106,1106,1106,,,,,
136876061,1107,1107,1107,1107,,,,,
136878560,1107,1107,1107,1107,,,,,
136881059,1108,1108,1108,1108,,,,,
136883558,1109,1109,1109,1109,,,,,
136886057,1110,1110,1110,1110,,,,,
136888556,1110,1110,1110,1110,,,,,
136891055,1111,1111,1111,1111,,,,,
136893554,1112,1112,1112,1112,,,,,
136896053,1113,1113,1113,1113,,,,,
136898552,1113,1113,1113,1113,,,,,
136901051,1114,1114,1114,1114,,,,,
136903550,1115,1115,1115,1115,,,,,
136906049,1116,1116,1116,1116,,,,,
136908548,1116,1116,1116,1116,,,,,
136911047,1117,1117,1117,1117,,,,,
136913546,1118,1118,1118,1118,,,,,
136916045,1119,1119,1119,1119,,,,,
136918544,1119,1119,1119,1119,,,,,
136921043,1120,1120,1120,1120,,,,,
136923542,1121,1121,1121,1121,,,,,
136926041,1122,1122,1122,1122,,,,,
136928540,1122,1122,1122,1122,,,,,
136931039,1123,1123,1123,1123,,,,,
136933538,1124,1124,1124,1124,,,,,
136936037,1125,1125,1125,1125,,,,,
136938536,1125,1125,1125,1125,,,,,
136941035,1126,1126,1126,1126,,,,,
136943534,1127,1127,1127,1127,,,,,
136946033,1128,1128,1128,1128,,,,,
136948532,1128,1128,1128,1128,,,,,
136951031,1129,1129,1129,1129,,,,,
136953530,1130,1130,1130,1130,,,,,
136956029,1131,1131,1131,1131,,,,,
136958528,1131,1131,1131,1131,,,,,
136961027,1132,1132,1132,1132,,,,,
136963526,1133,1133,1133,1133,,,,,
136966025,1134,1134,1134,1134,,,,,
136968524,1134,1134,1134,1134,,,,,
136971023,1135,1135,1135,1135,,,,,
136973522,1136,1136,1136,1136,,,,,
136976021,1137,1137,1137,1137,,,,,
136978520,1137,1137,1137,1137,,,,,
136981019,1138,1138,1138,1138,,,,,
136983518,1139,1139,1139,1139,,,,,
136986017,1140,1140,1140,1140,,,,,
136988516,1140,1140,1140,1140,,,,,
136991015,1141,1141,1141,1141,,,,,
136993514,1142,1142,1142,1142,,,,,
136996013,1143,1143,1143,1143,,,,,
136998512,1143,1143,1143,1143,,,,,
137001011,1144,1144,1144,1144,,,,,
137003510,1145,1145,1145,1145,,,,,
137006009,1146,1146,1146,1146,,,,,
137008508,1146,1146,1146,1146,,,,,
137011007,1147,1147,1147,1147,,,,,
137013506,1148,1148,1148,1148,,,,,
137016005,1149,1149,1149,1149,,,,,
137018504,1149,1149,1149,1149,,,,,
137021003,1150,1150,1150,1150,,,,,
137023502,1165,1150,1150,1166,,,,,
137026001,1176,1154,1156,1177,,,,,
137028500,1183,1162,1164,1185,,,,,
137030999,1191,1170,1172,1192,,,,,
137033498,1199,1178,1179,1200,,,,,
137035997,1206,1186,1187,1207,,,,,
137038496,1213,1193,1195,1214,,,,,
137040995,1220,1201,1202,1221,,,,,
137043494,1227,1208,1209,1228,,,,,
137045993,1234,1215,1216,1235,,,,,
137048492,1241,1222,1223,1242,,,,,
137050991,1248,1229,1230,1249,,,,,
137053490,1254,1236,1237,1255,,,,,
137055989,1261,1243,1244,1262,,,,,
137058488,1267,1249,1250,1268,,,,,
137060987,1274,1256,1257,1275,,,,,
137063486,1280,1262,1264,1281,,,,,
137065985,1286,1269,1270,1287,,,,,
137068484,1293,1275,1276,1294,,,,,
137070983,1299,1281,1282,1300,,,,,
137073482,1305,1288,1289,1306,,,,,
137075981,1311,1294,1295,1312,,,,,
137078480,1317,1300,1301,1318,,,,,
137080979,1322,1306,1307,1323,,,,,
137083478,1328,1311,1313,1329,,,,,
137085977,1334,1317,1318,1335,,,,,
137088476,1340,1323,1324,1341,,,,,
137090975,1345,1329,1330,1346,,,,,
137093474,1351,1334,1336,1352,,,,,
137095973,1356,1340,1341,1357,,,,,
137098472,1362,1346,1347,1363,,,,,
137100971,1367,1351,1352,1368,,,,,
137103470,1373,1357,1358,1374,,,,,
137105969,1378,1362,1363,1379,,,,,
137108468,1383,1367,1368,1384,,,,,
137110967,1389,1373,1374,1389,,,,,
137113466,1394,1378,1379,1395,,,,,
137115965,1399,1383,1384,1400,,,,,
137118464,1404,1388,1389,1405,,,,,
137120963,1409,1393,1395,1410,,,,,
137123462,1414,1399,1400,1415,,,,,
137125961,1419,1404,1405,1420,,,,,
137128460,1424,1409,1410,1425,,,,,
137130959,1429,1414,1415,1430,,,,,
137133458,1434,1419,1420,1435,,,,,
137135957,1439,1424,1425,1440,,,,,
137138456,1444,1428,1429,1444,,,,,
137140955,1448,1433,1434,1449,,,,,
137143454,1453,1438,1439,1454,,,,,
137145953,1458,1443,1444,1459,,,,,
137148452,1463,1448,1449,1463,,,,,
137150951,1467,1452,1453,1468,,,,,
137153450,1472,1457,1458,1472,,,,,
137155949,1476,1462,1463,1477,,,,,
137158448,1481,1466,1467,1482,,,,,
137160947,1486,1471,1472,1486,,,,,
137163446,1490,1476,1477,1491,,,,,
137165945,1494,1480,1481,1495,,,,,
137168444,1499,1485,1486,1500,,,,,
137170943,1503,1489,1490,1504,,,,,
137173442,1508,1494,1495,1508,,,,,
137175941,1512,1498,1499,1513,,,,,
137178440,1516,1503,1504,1517,,,,,
137180939,1521,1507,1508,1521,,,,,
137183438,1525,1511,1512,1526,,,,,
137185937,1529,1516,1517,1530,,,,,
137188436,1534,1520,1521,1534,,,,,
137190935,1538,1524,1525,1538,,,,,
137193434,1542,1529,1529,1543,,,,,
137195933,1546,1533,1534,1547,,,,,
137198432,1550,1537,1538,1551,,,,,
137200931,1554,1541,1542,1555,,,,,
137203430,1559,1545,1546,1559,,,,,
137205929,1563,1550,1550,1563,,,,,
137208428,1567,1554,1554,1567,,,,,
137210927,1571,1558,1559,1572,,,,,
137213426,1575,1562,1563,1576,,,,,
137215925,1579,1566,1567,1580,,,,,
137218424,1583,1570,1571,1584,,,,,
137220923,1587,1574,1575,1588,,,,,
137223422,1591,1578,1579,1592,,,,,
137225921,1595,1582,1583,1596,,,,,
137228420,1599,1586,1587,1600,,,,,
137230919,1603,1590,1590,1603,,,,,
137233418,1607,1594,1594,1607,,,,,
137235917,1610,1598,1598,1611,,,,,
137238416,1614,1602,1602,1615,,,,,
137240915,1618,1606,1606,1619,,,,,
137243414,1622,1609,1610,1623,,,,,
137245913,1626,1613,1614,1627,,,,,
137248412,1629,1617,1617,1630,,,,,
137250911,1633,1621,1621,1634,,,,,
137253410,1637,1625,1625,1638,,,,,
137255909,1641,1628,1629,1642,,,,,
137258408,1645,1632,1632,1646,,,,,
137260907,1648,1636,1636,1649,,,,,
137263406,1652,1640,1640,1653,,,,,
137265905,1656,1643,1644,1657,,,,,
137268404,1659,1647,1647,1660,,,,,
137270903,1663,1651,1651,1664,,,,,
137273402,1667,1654,1655,1668,,,,,
137275901,1670,1658,1658,1671,,,,,
137278400,1674,1662,1662,1675,,,,,
137280899,1677,1665,1665,1679,,,,,
137283398,1681,1669,1669,1682,,,,,
137285897,1685,1672,1673,1686,,,,,
137288396,1688,1676,1676,1689,,,,,
137290895,1692,1679,1680,1693,,,,,
137293394,1695,1683,1683,1696,,,,,
137295893,1699,1687,1687,1700,,,,,
137298392,1702,1690,1690,1703,,,,,
137300891,1706,1694,1694,1707,,,,,
137303390,1709,1697,1697,1710,,,,,
137305889,1713,1700,1701,1714,,,,,
137308388,1716,1704,1704,1717,,,,,
137310887,1720,1707,1708,1721,,,,,
137313386,1723,1711,1711,1724,,,,,
137315885,1727,1714,1715,1728,,,,,
137318384,1730,1718,1718,1731,,,,,
137320883,1734,1721,1721,1734,,,,,
137323382,1737,1724,1725,1738,,,,,
137325881,1740,1728,1728,1741,,,,,
137328380,1744,1731,1732,1744,,,,,
137330879,1747,1734,1735,1748,,,,,
137333378,1750,1738,1738,1751,,,,,
137335877,1754,1741,1742,1754,,,,,
137338376,1757,1744,1745,1758,,,,,
137340875,1760,1748,1748,1761,,,,,
137343374,1764,1751,1752,1764,,,,,
137345873,1767,1754,1755,1768,,,,,
137348372,1770,1758,1758,1771,,,,,
137350871,1773,1761,1761,1774,,,,,
137353370,1777,1764,1765,1777,,,,,
137355869,1780,1767,1768,1781,,,,,
137358368,1783,1771,1771,1784,,,,,
137360867,1786,1774,1774,1787,,,,,
137363366,1790,1777,1778,1790,,,,,
137365865,1793,1780,1781,1793,,,,,
137368364,1796,1784,1784,1797,,,,,
137370863,1799,1787,1787,1800,,,,,
137373362,1802,1790,1790,1803,,,,,
137375861,1805,1793,1794,1806,,,,,
137378360,1809,1796,1797,1809,,,,,
137380859,1812,1800,1800,1812,,,,,
137383358,1815,1803,1803,1816,,,,,
137385857,1818,1806,1806,1819,,,,,
137388356,1821,1809,1809,1822,,,,,
137390855,1824,1812,1812,1825,,,,,
137393354,1827,1815,1816,1828,,,,,
137395853,1830,1818,1819,1831,,,,,
137398352,1833,1821,1822,1834,,,,,
137400851,1836,1824,1825,1837,,,,,
137403350,1840,1827,1828,1840,,,,,
137405849,1843,1831,1831,1843,,,,,
137408348,1846,1834,1834,1847,,,,,
137410847,1849,1837,1837,1850,,,,,
137413346,1852,1840,1840,1853,,,,,
137415845,1855,1843,1843,1856,,,,,
137418344,1858,1846,1846,1859,,,,,
137420843,1861,1849,1849,1862,,,,,
137423342,1864,1852,1852,1865,,,,,
137425841,1867,1855,1855,1868,,,,,
137428340,1870,1858,1858,1871,,,,,
137430839,1873,1861,1861,1874,,,,,
137433338,1876,1864,1864,1877,,,,,
137435837,1879,1867,1867,1879,,,,,
137438336,1882,1869,1870,1882,,,,,
137440835,1885,1872,1873,1885,,,,,
137443334,1888,1875,1876,1888,,,,,
137445833,1890,1878,1879,1891,,,,,
137448332,1893,1881,1882,1894,,,,,
137450831,1896,1884,1884,1897,,,,,
137453330,1899,1887,1887,1900,,,,,
137455829,1902,1890,1890,1903,,,,,
137458328,1904,1892,1892,1905,,,,,
137460827,1903,1891,1891,1904,,,,,
137463326,1902,1890,1890,1903,,,,,
137465825,1901,1889,1889,1902,,,,,
137468324,1900,1888,1888,1901,,,,,
137470823,1900,1887,1888,1900,,,,,
137473322,1899,1886,1887,1900,,,,,
137475821,1898,1886,1886,1899,,,,,
137478320,1898,1885,1885,1898,,,,,
137480819,1897,1884,1885,1898,,,,,
137483318,1896,1884,1884,1897,,,,,
137485817,1896,1883,1883,1897,,,,,
137488316,1896,1882,1883,1896,,,,,
137490815,1895,1882,1883,1896,,,,,
137493314,1895,1882,1882,1896,,,,,
137495813,1895,1881,1882,1895,,,,,
137498312,1895,1881,1882,1895,,,,,
137500811,1895,1881,1882,1895,,,,,
137503310,1895,1881,1882,1895,,,,,
137505809,1895,1881,1882,1895,,,,,
137508308,1895,1881,1882,1895,,,,,
137510807,1895,1882,1882,1895,,,,,
137513306,1895,1882,1882,1896,,,,,
137515805,1895,1882,1883,1896,,,,,
137518304,1895,1883,1883,1896,,,,,
137520803,1895,1883,1884,1896,,,,,
137523302,1895,1884,1884,1896,,,,,
137525801,1895,1884,1885,1896,,,,,
137528300,1895,1884,1885,1895,,,,,
137530799,1894,1884,1885,1895,,,,,
137533298,1894,1884,1885,1895,,,,,
137535797,1894,1884,1885,1894,,,,,
137538296,1893,1883,1884,1893,,,,,
137540795,1892,1883,1884,1893,,,,,
137543294,1891,1882,1883,1892,,,,,
137545793,1890,1881,1882,1890,,,,,
137548292,1889,1880,1881,1889,,,,,
137550791,1887,1879,1880,1888,,,,,
137553290,1886,1877,1878,1886,,,,,
137555789,1884,1876,1877,1884,,,,,
137558288,1882,1874,1875,1883,,,,,
137560787,1880,1872,1873,1881,,,,,
137563286,1878,1870,1871,1879,,,,,
137565785,1876,1868,1869,1876,,,,,
137568284,1873,1866,1866,1874,,,,,
137570783,1871,1864,1864,1871,,,,,
137573282,1868,1861,1862,1869,,,,,
137575781,1866,1859,1859,1866,,,,,
137578280,1863,1856,1857,1863,,,,,
137580779,1860,1853,1854,1861,,,,,
137583278,1857,1851,1851,1858,,,,,
137585777,1854,1848,1848,1855,,,,,
137588276,1851,1845,1846,1852,,,,,
137590775,1848,1842,1843,1849,,,,,
137593274,1845,1839,1840,1846,,,,,
137595773,1842,1836,1837,1843,,,,,
137598272,1839,1833,1834,1840,,,,,
137600771,1836,1830,1831,1837,,,,,
137603270,1833,1827,1828,1833,,,,,
137605769,1829,1824,1825,1830,,,,,
137608268,1826,1821,1821,1827,,,,,
137610767,1823,1818,1818,1824,,,,,
137613266,1819,1815,1815,1820,,,,,
137615765,1816,1812,1812,1817,,,,,
137618264,1813,1808,1809,1814,,,,,
137620763,1809,1805,1805,1810,,,,,
137623262,1806,1802,1802,1807,,,,,
137625761,1802,1799,1799,1803,,,,,
137628260,1799,1795,1796,1800,,,,,
137630759,1796,1792,1792,1797,,,,,
137633258,1792,1789,1789,1793,,,,,
137635757,1789,1786,1786,1790,,,,,
137638256,1785,1782,1783,1786,,,,,
137640755,1782,1779,1779,1783,,,,,
137643254,1778,1776,1776,1780,,,,,
137645753,1775,1773,1773,1776,,,,,
137648252,1771,1769,1769,1773,,,,,
137650751,1768,1766,1766,1769,,,,,
137653250,1765,1763,1763,1766,,,,,
137655749,1761,1760,1760,1762,,,,,
137658248,1758,1756,1756,1759,,,,,
137660747,1754,1753,1753,1756,,,,,
137663246,1751,1750,1750,1752,,,,,
137665745,1748,1747,1747,1749,,,,,
137668244,1745,1744,1744,1746,,,,,
137670743,1741,1741,1741,1743,,,,,
137673242,1738,1738,1738,1739,,,,,
137675741,1735,1735,1735,1736,,,,,
137678240,1732,1732,1732,1733,,,,,
137680739,1729,1729,1729,1730,,,,,
137683238,1726,1726,1726,1727,,,,,
137685737,1723,1723,1723,1724,,,,,
137688236,1720,1720,1720,1721,,,,,
137690735,1717,1717,1717,1718,,,,,
137693234,1714,1715,1715,1715,,,,,
137695733,1711,1712,1712,1713,,,,,
137698232,1709,1709,1709,1710,,,,,
137700731,1706,1707,1707,1707,,,,,
137703230,1703,1704,1704,1704,,,,,
137705729,1700,1702,1702,1702,,,,,
137708228,1698,1699,1699,1699,,,,,
137710727,1695,1697,1697,1696,,,,,
137713226,1693,1694,1695,1694,,,,,
137715725,1690,1692,1692,1691,,,,,
