TimeUS,M1,M2,M3,M4,TimeUS,C1,C2,C3,C4
62845685,1000,1000,1000,1000,62928985,1000,1000,1000,1000
62848184,1000,1000,1000,1000,63028945,1000,1000,1000,1000
62850683,1000,1000,1000,1000,63128905,1000,1000,1000,1000
62853182,1000,1000,1000,1000,63228865,1000,1000,1000,1000
62855681,1000,1000,1000,1000,63328825,1000,1000,1000,1000
62858180,1000,1000,1000,1000,63428785,1000,1000,1000,1000
62860679,1000,1000,1000,1000,63528745,1000,1000,1000,1000
62863178,1000,1000,1000,1000,63628705,1000,1000,1000,1000
62865677,1000,1000,1000,1000,63728665,1000,1000,1000,1000
62868176,1000,1000,1000,1000,63828625,1000,1000,1000,1000
62870675,1000,1000,1000,1000,63928585,1000,1000,1000,1000
62873174,1000,1000,1000,1000,64028545,1000,1000,1000,1000
62875673,1000,1000,1000,1000,64128505,1000,1000,1000,1000
62878172,1000,1000,1000,1000,64228465,1000,1000,1000,1000
62880671,1000,1000,1000,1000,64328425,1000,1000,1000,1000
62883170,1000,1000,1000,1000,64428385,1000,1000,1000,1000
62885669,1000,1000,1000,1000,64528345,1000,1000,1000,1000
62888168,1000,1000,1000,1000,64628305,1000,1000,1000,1000
62890667,1000,1000,1000,1000,64728265,1000,1000,1000,1000
62893166,1000,1000,1000,1000,64828225,1000,1000,1000,1000
62895665,1000,1000,1000,1000,64928185,1024,1024,1024,1024
62898164,1000,1000,1000,1000,65028978,1054,1054,1054,1054
62900663,1000,1000,1000,1000,65128938,1084,1084,1084,1084
62903162,1000,1000,1000,1000,65228898,1114,1114,1114,1114
62905661,1000,1000,1000,1000,65328858,1144,1144,1144,1144
62908160,1000,1000,1000,1000,65428818,1363,1356,1356,1364
62910659,1000,1000,1000,1000,65528778,1551,1545,1545,1552
62913158,1000,1000,1000,1000,65628738,1703,1697,1697,1703
62915657,1000,1000,1000,1000,65728698,1833,1828,1828,1834
62918156,1000,1000,1000,1000,65828658,1884,1880,1879,1885
62920655,1000,1000,1000,1000,65928618,1827,1824,1823,1829
62923154,1000,1000,1000,1000,66028578,1696,1696,1695,1698
62926486,1000,1000,1000,1000,66128538,1623,1625,1624,1624
62928985,1000,1000,1000,1000,66228498,1609,1611,1611,1609
62931484,1000,1000,1000,1000,66328458,1618,1619,1620,1617
62933983,1000,1000,1000,1000,66428418,1625,1625,1626,1624
62936482,1000,1000,1000,1000,66528378,1623,1623,1623,1622
62938981,1000,1000,1000,1000,66628338,1616,1616,1616,1616
62941480,1000,1000,1000,1000,66728298,1615,1613,1613,1615
62943979,1000,1000,1000,1000,66828258,1615,1614,1613,1615
62946478,1000,1000,1000,1000,66928218,1617,1616,1616,1616
62948977,1000,1000,1000,1000,67028178,1618,1619,1619,1618
62951476,1000,1000,1000,1000,67128971,1621,1621,1622,1620
62953975,1000,1000,1000,1000,67228931,1599,1600,1604,1595
62956474,1000,1000,1000,1000,67328891,1581,1582,1589,1574
62958973,1000,1000,1000,1000,67428851,1569,1569,1572,1566
62961472,1000,1000,1000,1000,67528811,1559,1559,1558,1560
62963971,1000,1000,1000,1000,67628771,1550,1550,1544,1557
62966470,1000,1000,1000,1000,67728731,1544,1543,1535,1553
62968969,1000,1000,1000,1000,67828691,1537,1536,1530,1543
62971468,1000,1000,1000,1000,67928651,1531,1531,1528,1534
62973967,1000,1000,1000,1000,68028611,1529,1528,1528,1529
62976466,1000,1000,1000,1000,68128571,1528,1528,1530,1526
62978965,1000,1000,1000,1000,68228531,1530,1530,1533,1527
62981464,1000,1000,1000,1000,68328491,1533,1533,1536,1530
62983963,1000,1000,1000,1000,68428451,1535,1536,1538,1533
62986462,1000,1000,1000,1000,68528411,1540,1540,1542,1538
62988961,1000,1000,1000,1000,68628371,1543,1544,1544,1543
62991460,1000,1000,1000,1000,68728331,1547,1547,1547,1547
62993959,1000,1000,1000,1000,68828291,1550,1550,1549,1550
62996458,1000,1000,1000,1000,68928251,1552,1552,1552,1553
62998957,1000,1000,1000,1000,69028211,1555,1554,1554,1556
63001456,1000,1000,1000,1000,69128171,1553,1553,1558,1560
63003955,1000,1000,1000,1000,69228964,1554,1554,1562,1563
63006454,1000,1000,1000,1000,69328924,1557,1556,1563,1564
63008953,1000,1000,1000,1000,69428884,1559,1560,1564,1565
63011452,1000,1000,1000,1000,69528844,1563,1563,1565,1565
63013951,1000,1000,1000,1000,69628804,1565,1565,1565,1565
63016450,1000,1000,1000,1000,69728764,1567,1567,1565,1565
63018949,1000,1000,1000,1000,69828724,1569,1569,1566,1565
63021448,1000,1000,1000,1000,69928684,1570,1570,1566,1566
63023947,1000,1000,1000,1000,70028644,1572,1572,1567,1567
63026446,1000,1000,1000,1000,70128604,1573,1572,1568,1569
63028945,1000,1000,1000,1000,70228564,1573,1574,1570,1570
63031444,1000,1000,1000,1000,70328524,1574,1573,1571,1571
63033943,1000,1000,1000,1000,70428484,1574,1574,1572,1572
63036442,1000,1000,1000,1000,70528444,1574,1575,1574,1573
63038941,1000,1000,1000,1000,70628404,1574,1575,1575,1574
63041440,1000,1000,1000,1000,70728364,1574,1574,1576,1574
63043939,1000,1000,1000,1000,70828324,1575,1575,1576,1575
63046438,1000,1000,1000,1000,70928284,1575,1574,1576,1576
63048937,1000,1000,1000,1000,71028244,1575,1575,1577,1577
63051436,1000,1000,1000,1000,71128204,1576,1575,1577,1577
63053935,1000,1000,1000,1000,71228164,1575,1575,1576,1576
63056434,1000,1000,1000,1000,71328957,1575,1576,1577,1576
63058933,1000,1000,1000,1000,71428917,1575,1577,1576,1577
63061432,1000,1000,1000,1000,71528877,1577,1577,1577,1577
63063931,1000,1000,1000,1000,71628837,1577,1577,1577,1577
63066430,1000,1000,1000,1000,71728797,1577,1577,1576,1576
63068929,1000,1000,1000,1000,71828757,1578,1578,1577,1577
63071428,1000,1000,1000,1000,71928717,1578,1578,1577,1577
63073927,1000,1000,1000,1000,72028677,1578,1578,1578,1577
63076426,1000,1000,1000,1000,72128637,1578,1578,1578,1578
63078925,1000,1000,1000,1000,72228597,1579,1579,1578,1578
63081424,1000,1000,1000,1000,72328557,1579,1578,1578,1579
63083923,1000,1000,1000,1000,72428517,1578,1578,1578,1578
63086422,1000,1000,1000,1000,72528477,1578,1578,1579,1579
63088921,1000,1000,1000,1000,72628437,1578,1579,1579,1579
63091420,1000,1000,1000,1000,72728397,1578,1579,1579,1579
63093919,1000,1000,1000,1000,72828357,1578,1579,1580,1579
63096418,1000,1000,1000,1000,72928317,1579,1579,1580,1580
63098917,1000,1000,1000,1000,73028277,1578,1578,1578,1579
63101416,1000,1000,1000,1000,73128237,1578,1578,1578,1579
63103915,1000,1000,1000,1000,73228197,1579,1579,1579,1579
63106414,1000,1000,1000,1000,73328157,1579,1579,1579,1579
63108913,1000,1000,1000,1000,73428950,1580,1580,1579,1579
63111412,1000,1000,1000,1000,73528910,1580,1580,1580,1579
63113911,1000,1000,1000,1000,73628870,1580,1580,1580,1580
63116410,1000,1000,1000,1000,73728830,1580,1581,1581,1580
63118909,1000,1000,1000,1000,73828790,1580,1580,1580,1580
63121408,1000,1000,1000,1000,73928750,1579,1579,1579,1580
63123907,1000,1000,1000,1000,74028710,1580,1580,1580,1580
63126406,1000,1000,1000,1000,74128670,1580,1580,1580,1580
63128905,1000,1000,1000,1000,74228630,1581,1580,1581,1580
63131404,1000,1000,1000,1000,74328590,1581,1580,1580,1580
63133903,1000,1000,1000,1000,74428550,1580,1580,1581,1580
63136402,1000,1000,1000,1000,74528510,1580,1580,1580,1580
63138901,1000,1000,1000,1000,74628470,1580,1580,1579,1580
63141400,1000,1000,1000,1000,74728430,1580,1580,1580,1580
63143899,1000,1000,1000,1000,74828390,1581,1581,1581,1581
63146398,1000,1000,1000,1000,74928350,1581,1580,1581,1581
63148897,1000,1000,1000,1000,75028310,1581,1581,1582,1581
63151396,1000,1000,1000,1000,75128270,1581,1581,1581,1581
63153895,1000,1000,1000,1000,75228230,1582,1582,1582,1582
63156394,1000,1000,1000,1000,75328190,1581,1582,1587,1576
63158893,1000,1000,1000,1000,75428983,1581,1583,1588,1574
63161392,1000,1000,1000,1000,75528943,1579,1582,1580,1574
63163891,1000,1000,1000,1000,75628903,1578,1581,1571,1573
63166390,1000,1000,1000,1000,75728863,1577,1579,1563,1570
63168889,1000,1000,1000,1000,75828823,1577,1578,1557,1564
63171388,1000,1000,1000,1000,75928783,1578,1577,1555,1560
63173887,1000,1000,1000,1000,76028743,1579,1577,1554,1556
63176386,1000,1000,1000,1000,76128703,1580,1578,1556,1555
63178885,1000,1000,1000,1000,76228663,1579,1577,1556,1553
63181384,1000,1000,1000,1000,76328623,1578,1578,1556,1554
63183883,1000,1000,1000,1000,76428583,1575,1576,1555,1553
63186382,1000,1000,1000,1000,76528543,1573,1575,1553,1553
63188881,1000,1000,1000,1000,76628503,1574,1576,1553,1553
63191380,1000,1000,1000,1000,76728463,1575,1577,1552,1552
63193879,1000,1000,1000,1000,76828423,1576,1578,1551,1551
63196378,1000,1000,1000,1000,76928383,1578,1579,1549,1549
63198877,1000,1000,1000,1000,77028343,1580,1580,1546,1546
63201376,1000,1000,1000,1000,77128303,1583,1584,1544,1544
63203875,1000,1000,1000,1000,77228263,1586,1587,1541,1540
63206374,1000,1000,1000,1000,77328223,1589,1590,1539,1538
63208873,1000,1000,1000,1000,77428183,1592,1593,1536,1536
63211372,1000,1000,1000,1000,77528976,1594,1594,1534,1535
63213871,1000,1000,1000,1000,77628936,1595,1595,1534,1535
63216370,1000,1000,1000,1000,77728896,1594,1594,1535,1537
63218869,1000,1000,1000,1000,77828856,1593,1593,1538,1540
63221368,1000,1000,1000,1000,77928816,1589,1589,1542,1545
63223867,1000,1000,1000,1000,78028776,1585,1583,1550,1553
63226366,1000,1000,1000,1000,78128736,1579,1575,1560,1563
63228865,1000,1000,1000,1000,78228696,1569,1565,1571,1574
63231364,1000,1000,1000,1000,78328656,1558,1554,1584,1585
63233863,1000,1000,1000,1000,78428616,1548,1545,1596,1596
63236362,1000,1000,1000,1000,78528576,1538,1536,1605,1605
63238861,1000,1000,1000,1000,78628536,1531,1532,1612,1611
63241360,1000,1000,1000,1000,78728496,1528,1530,1615,1614
63243859,1000,1000,1000,1000,78828456,1530,1533,1615,1614
63246358,1000,1000,1000,1000,78928416,1535,1537,1611,1611
63248857,1000,1000,1000,1000,79028376,1542,1544,1605,1605
63251356,1000,1000,1000,1000,79128336,1550,1552,1599,1599
63253855,1000,1000,1000,1000,79228296,1559,1559,1591,1590
63256354,1000,1000,1000,1000,79328256,1569,1568,1584,1583
63258853,1000,1000,1000,1000,79428216,1576,1575,1577,1577
63261352,1000,1000,1000,1000,79528176,1582,1581,1573,1572
63263851,1000,1000,1000,1000,79628969,1586,1584,1569,1568
63266350,1000,1000,1000,1000,79728929,1588,1587,1567,1567
63268849,1000,1000,1000,1000,79828889,1588,1587,1567,1567
63271348,1000,1000,1000,1000,79928849,1588,1586,1569,1569
63273847,1000,1000,1000,1000,80028809,1585,1584,1570,1570
63276346,1000,1000,1000,1000,80128769,1582,1581,1572,1573
63278845,1000,1000,1000,1000,80228729,1579,1580,1576,1576
63281344,1000,1000,1000,1000,80328689,1439,1440,1601,1604
63283843,1000,1000,1000,1000,80428649,1482,1486,1618,1620
63286342,1000,1000,1000,1000,80528609,1517,1522,1614,1612
63288841,1000,1000,1000,1000,80628569,1549,1554,1603,1599
63291340,1000,1000,1000,1000,80728529,1577,1579,1592,1588
63293839,1000,1000,1000,1000,80828489,1596,1595,1582,1580
63296338,1000,1000,1000,1000,80928449,1609,1605,1577,1577
63298837,1000,1000,1000,1000,81028409,1615,1610,1572,1574
63301336,1000,1000,1000,1000,81128369,1619,1614,1571,1574
63303835,1000,1000,1000,1000,81228329,1617,1614,1570,1572
63306334,1000,1000,1000,1000,81328289,1614,1613,1569,1572
63308833,1000,1000,1000,1000,81428249,1611,1611,1570,1572
63311332,1000,1000,1000,1000,81528209,1607,1608,1571,1571
63313831,1000,1000,1000,1000,81628169,1603,1605,1571,1570
63316330,1000,1000,1000,1000,81728962,1600,1601,1572,1571
63318829,1000,1000,1000,1000,81828922,1596,1596,1573,1572
63321328,1000,1000,1000,1000,81928882,1593,1592,1574,1574
63323827,1000,1000,1000,1000,82028842,1589,1588,1575,1574
63326326,1000,1000,1000,1000,82128802,1587,1585,1576,1576
63328825,1000,1000,1000,1000,82228762,1583,1583,1577,1577
63331324,1000,1000,1000,1000,82328722,1581,1581,1577,1578
63333823,1000,1000,1000,1000,82428682,1579,1579,1578,1577
63336322,1000,1000,1000,1000,82528642,1578,1578,1579,1579
63338821,1000,1000,1000,1000,82628602,1577,1578,1580,1579
63341320,1000,1000,1000,1000,82728562,1577,1578,1581,1580
63343819,1000,1000,1000,1000,82828522,1577,1578,1582,1581
63346318,1000,1000,1000,1000,82928482,1577,1577,1582,1581
63348817,1000,1000,1000,1000,83028442,1577,1578,1582,1581
63351316,1000,1000,1000,1000,83128402,1578,1578,1582,1582
63353815,1000,1000,1000,1000,83228362,1577,1577,1581,1581
63356314,1000,1000,1000,1000,83328322,1578,1578,1585,1578
63358813,1000,1000,1000,1000,83428282,1580,1578,1588,1573
63361312,1000,1000,1000,1000,83528242,1580,1578,1581,1574
63363811,1000,1000,1000,1000,83628202,1578,1577,1571,1572
63366310,1000,1000,1000,1000,83728162,1575,1577,1563,1569
63368809,1000,1000,1000,1000,83828955,1573,1576,1558,1564
63371308,1000,1000,1000,1000,83928915,1573,1576,1557,1561
63373807,1000,1000,1000,1000,84028875,1574,1576,1556,1558
63376306,1000,1000,1000,1000,84128835,1574,1575,1556,1555
63378805,1000,1000,1000,1000,84228795,1575,1576,1556,1555
63381304,1000,1000,1000,1000,84328755,1575,1576,1556,1553
63383803,1000,1000,1000,1000,84428715,1576,1575,1554,1553
63386302,1000,1000,1000,1000,84528675,1575,1575,1552,1551
63388801,1000,1000,1000,1000,84628635,1575,1576,1550,1551
63391300,1000,1000,1000,1000,84728595,1575,1576,1549,1549
63393799,1000,1000,1000,1000,84828555,1575,1576,1546,1546
63396298,1000,1000,1000,1000,84928515,1576,1578,1544,1544
63398797,1000,1000,1000,1000,85028475,1579,1580,1544,1543
63401296,1000,1000,1000,1000,85128435,1581,1582,1542,1541
63403795,1000,1000,1000,1000,85228395,1583,1584,1541,1540
63406294,1000,1000,1000,1000,85328355,1585,1586,1538,1538
63408793,1000,1000,1000,1000,85428315,1587,1587,1536,1536
63411292,1000,1000,1000,1000,85528275,1589,1588,1536,1536
63413791,1000,1000,1000,1000,85628235,1591,1590,1537,1538
63416290,1000,1000,1000,1000,85728195,1590,1589,1538,1540
63418789,1000,1000,1000,1000,85828155,1589,1588,1540,1542
63421288,1000,1000,1000,1000,85928948,1586,1585,1544,1546
63423787,1000,1000,1000,1000,86028908,1583,1582,1548,1552
63426286,1000,1000,1000,1000,86128868,1579,1577,1555,1558
63428785,1000,1000,1000,1000,86228828,1573,1572,1561,1565
63431284,1000,1000,1000,1000,86328788,1567,1565,1569,1572
63433783,1000,1000,1000,1000,86428748,1559,1557,1577,1579
63436282,1000,1000,1000,1000,86528708,1553,1550,1586,1587
63438781,1000,1000,1000,1000,86628668,1546,1544,1595,1595
63441280,1000,1000,1000,1000,86728628,1538,1537,1603,1602
63443779,1000,1000,1000,1000,86828588,1533,1533,1609,1608
63446278,1000,1000,1000,1000,86928548,1530,1532,1611,1610
63448777,1000,1000,1000,1000,87028508,1531,1533,1610,1609
63451276,1000,1000,1000,1000,87128468,1535,1537,1607,1606
63453775,1000,1000,1000,1000,87228428,1541,1544,1601,1601
63456274,1000,1000,1000,1000,87328388,1550,1551,1594,1594
63458773,1000,1000,1000,1000,87428348,1558,1559,1586,1587
63461272,1000,1000,1000,1000,87528308,1567,1567,1580,1579
63463771,1000,1000,1000,1000,87628268,1576,1575,1575,1574
63466270,1000,1000,1000,1000,87728228,1582,1580,1570,1569
63468769,1000,1000,1000,1000,87828188,1586,1584,1568,1568
63471268,1000,1000,1000,1000,87928981,1588,1586,1567,1566
63473767,1000,1000,1000,1000,88028941,1588,1587,1567,1567
63476266,1000,1000,1000,1000,88128901,1587,1586,1568,1568
63478765,1000,1000,1000,1000,88228861,1586,1586,1570,1571
63481264,1000,1000,1000,1000,88328821,1585,1585,1572,1572
63483763,1000,1000,1000,1000,88428781,1583,1583,1574,1574
63486262,1000,1000,1000,1000,88528741,1581,1581,1576,1576
63488761,1000,1000,1000,1000,88628701,1579,1580,1578,1578
63491260,1000,1000,1000,1000,88728661,1578,1579,1580,1580
63493759,1000,1000,1000,1000,88828621,1577,1577,1582,1581
63496258,1000,1000,1000,1000,88928581,1576,1576,1582,1582
63498757,1000,1000,1000,1000,89028541,1575,1575,1583,1582
63501256,1000,1000,1000,1000,89128501,1575,1575,1583,1583
63503755,1000,1000,1000,1000,89228461,1575,1575,1582,1582
63506254,1000,1000,1000,1000,89328421,1575,1576,1583,1583
63508753,1000,1000,1000,1000,89428381,1575,1576,1581,1581
63511252,1000,1000,1000,1000,89528341,1577,1577,1581,1581
63513751,1000,1000,1000,1000,89628301,1578,1578,1580,1580
63516250,1000,1000,1000,1000,89728261,1578,1579,1579,1579
63518749,1000,1000,1000,1000,89828221,1581,1580,1579,1579
63521248,1000,1000,1000,1000,89928181,1581,1581,1579,1578
63523747,1000,1000,1000,1000,90028974,1581,1582,1579,1578
63526246,1000,1000,1000,1000,90128934,1582,1582,1579,1579
63528745,1000,1000,1000,1000,90228894,1582,1582,1578,1578
63531244,1000,1000,1000,1000,90328854,1583,1582,1579,1579
63533743,1000,1000,1000,1000,90428814,1582,1582,1579,1579
63536242,1000,1000,1000,1000,90528774,1582,1582,1580,1580
63538741,1000,1000,1000,1000,90628734,1582,1582,1580,1580
63541240,1000,1000,1000,1000,90728694,1580,1581,1580,1580
63543739,1000,1000,1000,1000,90828654,1581,1581,1581,1580
63546238,1000,1000,1000,1000,90928614,1580,1580,1581,1581
63548737,1000,1000,1000,1000,91028574,1580,1580,1580,1581
63551236,1000,1000,1000,1000,91128534,1580,1580,1581,1581
63553735,1000,1000,1000,1000,91228494,1580,1580,1582,1582
63556234,1000,1000,1000,1000,91328454,1580,1580,1581,1581
63558733,1000,1000,1000,1000,91428414,1579,1579,1580,1580
63561232,1000,1000,1000,1000,91528374,1581,1581,1582,1581
63563731,1000,1000,1000,1000,91628334,1581,1581,1582,1582
63566230,1000,1000,1000,1000,91728294,1581,1581,1581,1581
63568729,1000,1000,1000,1000,91828254,1582,1582,1582,1582
63571228,1000,1000,1000,1000,91928214,1582,1582,1584,1580
63573727,1000,1000,1000,1000,92028174,1582,1582,1588,1573
63576226,1000,1000,1000,1000,92128967,1581,1582,1583,1573
63578725,1000,1000,1000,1000,92228927,1580,1581,1574,1573
63581224,1000,1000,1000,1000,92328887,1579,1581,1566,1571
63583723,1000,1000,1000,1000,92428847,1578,1580,1560,1566
63586222,1000,1000,1000,1000,92528807,1578,1579,1556,1561
63588721,1000,1000,1000,1000,92628767,1578,1578,1555,1557
63591220,1000,1000,1000,1000,92728727,1579,1579,1555,1556
63593719,1000,1000,1000,1000,92828687,1579,1578,1556,1554
63596218,1000,1000,1000,1000,92928647,1579,1578,1556,1554
63598717,1000,1000,1000,1000,93028607,1578,1578,1556,1555
63601216,1000,1000,1000,1000,93128567,1576,1578,1556,1555
63603715,1000,1000,1000,1000,93228527,1575,1576,1554,1554
63606214,1000,1000,1000,1000,93328487,1574,1576,1552,1553
63608713,1000,1000,1000,1000,93428447,1574,1576,1551,1551
63611212,1000,1000,1000,1000,93528407,1575,1576,1549,1549
63613711,1000,1000,1000,1000,93628367,1577,1578,1548,1548
63616210,1000,1000,1000,1000,93728327,1579,1580,1546,1545
63618709,1000,1000,1000,1000,93828287,1581,1582,1544,1543
63621208,1000,1000,1000,1000,93928247,1584,1584,1541,1541
63623707,1000,1000,1000,1000,94028207,1586,1587,1539,1539
63626206,1000,1000,1000,1000,94128167,1589,1589,1538,1539
63628705,1000,1000,1000,1000,94228960,1591,1591,1539,1540
63631204,1000,1000,1000,1000,94328920,1592,1592,1539,1541
63633703,1000,1000,1000,1000,94428880,1591,1592,1540,1542
63636202,1000,1000,1000,1000,94528840,1591,1590,1542,1545
63638701,1000,1000,1000,1000,94628800,1588,1587,1546,1550
63641200,1000,1000,1000,1000,94728760,1585,1583,1553,1556
63643699,1000,1000,1000,1000,94828720,1579,1576,1562,1565
63646198,1000,1000,1000,1000,94928680,1570,1567,1572,1574
63648697,1000,1000,1000,1000,95028640,1560,1556,1582,1583
63651196,1000,1000,1000,1000,95128600,1550,1547,1593,1593
63653695,1000,1000,1000,1000,95228560,1542,1541,1602,1602
63656194,1000,1000,1000,1000,95328520,1536,1536,1609,1607
63658693,1000,1000,1000,1000,95428480,1533,1534,1612,1611
63661192,1000,1000,1000,1000,95528440,1533,1535,1612,1611
63663691,1000,1000,1000,1000,95628400,1536,1538,1609,1609
63666190,1000,1000,1000,1000,95728360,1541,1543,1604,1604
63668689,1000,1000,1000,1000,95828320,1549,1550,1598,1598
63671188,1000,1000,1000,1000,95928280,1556,1557,1591,1591
63673687,1000,1000,1000,1000,96028240,1565,1565,1585,1584
63676186,1000,1000,1000,1000,96128200,1572,1572,1579,1578
63678685,1000,1000,1000,1000,96228160,1579,1578,1574,1574
63681184,1000,1000,1000,1000,96328953,1585,1583,1571,1571
63683683,1000,1000,1000,1000,96428913,1587,1585,1567,1568
63686182,1000,1000,1000,1000,96528873,1589,1587,1567,1567
63688681,1000,1000,1000,1000,96628833,1589,1588,1567,1568
63691180,1000,1000,1000,1000,96728793,1587,1587,1569,1569
63693679,1000,1000,1000,1000,96828753,1586,1585,1572,1572
63696178,1000,1000,1000,1000,96928713,1583,1583,1574,1574
63698677,1000,1000,1000,1000,97028673,1581,1581,1577,1578
63701176,1000,1000,1000,1000,97128633,1578,1578,1579,1579
63703675,1000,1000,1000,1000,97228593,1575,1576,1581,1581
63706174,1000,1000,1000,1000,97328553,1573,1574,1583,1582
63708673,1000,1000,1000,1000,97428513,1573,1573,1583,1583
63711172,1000,1000,1000,1000,97528473,1572,1573,1584,1584
63713671,1000,1000,1000,1000,97628433,1572,1573,1583,1583
63716170,1000,1000,1000,1000,97728393,1574,1574,1583,1583
63718669,1000,1000,1000,1000,97828353,1575,1575,1582,1582
63721168,1000,1000,1000,1000,97928313,1576,1576,1580,1580
63723667,1000,1000,1000,1000,98028273,1578,1578,1579,1580
63726166,1000,1000,1000,1000,98128233,1579,1579,1579,1579
63728665,1000,1000,1000,1000,98228193,1580,1580,1579,1578
63731164,1000,1000,1000,1000,98328986,1581,1581,1577,1578
63733663,1000,1000,1000,1000,98428946,1582,1582,1578,1578
63736162,1000,1000,1000,1000,98528906,1582,1582,1577,1578
63738661,1000,1000,1000,1000,98628866,1582,1582,1577,1578
63741160,1000,1000,1000,1000,98728826,1582,1581,1577,1578
63743659,1000,1000,1000,1000,98828786,1581,1581,1578,1578
63746158,1000,1000,1000,1000,98928746,1581,1581,1579,1579
63748657,1000,1000,1000,1000,99028706,1580,1581,1580,1579
63751156,1000,1000,1000,1000,99128666,1580,1580,1579,1580
63753655,1000,1000,1000,1000,99228626,1580,1579,1580,1580
63756154,1000,1000,1000,1000,99328586,1580,1580,1581,1581
63758653,1000,1000,1000,1000,99428546,1579,1580,1581,1581
63761152,1000,1000,1000,1000,99528506,1579,1579,1581,1581
63763651,1000,1000,1000,1000,99628466,1580,1580,1582,1582
63766150,1000,1000,1000,1000,99728426,1580,1580,1581,1581
63768649,1000,1000,1000,1000,99828386,1580,1580,1581,1581
63771148,1000,1000,1000,1000,99928346,1580,1580,1581,1581
63773647,1000,1000,1000,1000,100028306,1580,1580,1585,1575
63776146,1000,1000,1000,1000,100128266,1581,1580,1587,1572
63778645,1000,1000,1000,1000,100228226,1579,1578,1580,1574
63781144,1000,1000,1000,1000,100328186,1577,1576,1573,1575
63783643,1000,1000,1000,1000,100428979,1573,1572,1567,1573
63786142,1000,1000,1000,1000,100528939,1571,1570,1564,1572
63788641,1000,1000,1000,1000,100628899,1568,1569,1564,1569
63791140,1000,1000,1000,1000,100728859,1567,1568,1565,1567
63793639,1000,1000,1000,1000,100828819,1566,1567,1566,1565
63796138,1000,1000,1000,1000,100928779,1566,1566,1568,1565
63798637,1000,1000,1000,1000,101028739,1566,1565,1568,1565
63801136,1000,1000,1000,1000,101128699,1565,1565,1567,1565
63803635,1000,1000,1000,1000,101228659,1563,1563,1565,1564
63806134,1000,1000,1000,1000,101328619,1563,1563,1565,1565
63808633,1000,1000,1000,1000,101428579,1562,1562,1563,1564
63811132,1000,1000,1000,1000,101528539,1562,1562,1563,1564
63813631,1000,1000,1000,1000,101628499,1561,1561,1562,1562
63816130,1000,1000,1000,1000,101728459,1562,1561,1562,1562
63818629,1000,1000,1000,1000,101828419,1561,1561,1562,1561
63821128,1000,1000,1000,1000,101928379,1561,1561,1562,1561
63823627,1000,1000,1000,1000,102028339,1560,1560,1559,1559
63826126,1000,1000,1000,1000,102128299,1560,1560,1559,1559
63828625,1000,1000,1000,1000,102228259,1559,1559,1558,1558
63831124,1000,1000,1000,1000,102328219,1559,1559,1559,1558
63833623,1000,1000,1000,1000,102428179,1559,1559,1560,1558
63836122,1000,1000,1000,1000,102528972,1559,1558,1559,1558
63838621,1000,1000,1000,1000,102628932,1559,1559,1560,1558
63841120,1000,1000,1000,1000,102728892,1559,1559,1561,1558
63843619,1000,1000,1000,1000,102828852,1559,1558,1560,1558
63846118,1000,1000,1000,1000,102928812,1559,1559,1558,1561
63848617,1000,1000,1000,1000,103028772,1560,1560,1557,1563
63851116,1000,1000,1000,1000,103128732,1560,1560,1557,1564
63853615,1000,1000,1000,1000,103228692,1559,1560,1558,1561
63856114,1000,1000,1000,1000,103328652,1558,1558,1557,1557
63858613,1000,1000,1000,1000,103428612,1559,1559,1558,1559
63861112,1000,1000,1000,1000,103528572,1556,1557,1554,1557
63863611,1000,1000,1000,1000,103628532,1552,1552,1550,1551
63866110,1000,1000,1000,1000,103728492,1547,1547,1545,1546
63868609,1000,1000,1000,1000,103828452,1541,1542,1539,1538
63871108,1000,1000,1000,1000,103928412,1535,1535,1533,1532
63873607,1000,1000,1000,1000,104028372,1529,1528,1526,1525
63876106,1000,1000,1000,1000,104128332,1523,1523,1520,1520
63878605,1000,1000,1000,1000,104228292,1520,1521,1519,1519
63881104,1000,1000,1000,1000,104328252,1519,1519,1520,1520
63883603,1000,1000,1000,1000,104428212,1521,1520,1522,1523
63886102,1000,1000,1000,1000,104528172,1522,1523,1526,1526
63888601,1000,1000,1000,1000,104628965,1526,1526,1530,1531
63891100,1000,1000,1000,1000,104728925,1531,1531,1536,1536
63893599,1000,1000,1000,1000,104828885,1534,1534,1540,1539
63896098,1000,1000,1000,1000,104928845,1538,1538,1542,1542
63898597,1000,1000,1000,1000,105028805,1541,1540,1543,1544
63901096,1000,1000,1000,1000,105128765,1543,1543,1545,1545
63903595,1000,1000,1000,1000,105228725,1544,1545,1545,1545
63906094,1000,1000,1000,1000,105328685,1545,1545,1544,1543
63908593,1000,1000,1000,1000,105428645,1547,1548,1545,1545
63911092,1000,1000,1000,1000,105528605,1549,1549,1546,1546
63913591,1000,1000,1000,1000,105628565,1549,1549,1546,1546
63916090,1000,1000,1000,1000,105728525,1548,1548,1545,1545
63918589,1000,1000,1000,1000,105828485,1547,1548,1545,1544
63921088,1000,1000,1000,1000,105928445,1547,1547,1545,1545
63923587,1000,1000,1000,1000,106028405,1548,1548,1546,1545
63926086,1000,1000,1000,1000,106128365,1547,1546,1546,1545
63928585,1000,1000,1000,1000,106228325,1545,1545,1545,1544
63931084,1000,1000,1000,1000,106328285,1545,1545,1545,1545
63933583,1000,1000,1000,1000,106428245,1544,1544,1544,1545
63936082,1000,1000,1000,1000,106528205,1544,1544,1545,1545
63938581,1000,1000,1000,1000,106628165,1543,1544,1545,1545
63941080,1000,1000,1000,1000,106728958,1544,1544,1545,1545
63943579,1000,1000,1000,1000,106828918,1543,1543,1545,1544
63946078,1000,1000,1000,1000,106928878,1543,1543,1544,1544
63948577,1000,1000,1000,1000,107028838,1543,1543,1544,1543
63951076,1000,1000,1000,1000,107128798,1544,1543,1544,1544
63953575,1000,1000,1000,1000,107228758,1544,1544,1544,1545
63956074,1000,1000,1000,1000,107328718,1544,1544,1544,1544
63958573,1000,1000,1000,1000,107428678,1544,1545,1544,1544
63961072,1000,1000,1000,1000,107528638,1545,1545,1545,1545
63963571,1000,1000,1000,1000,107628598,1544,1545,1544,1544
63966070,1000,1000,1000,1000,107728558,1545,1544,1544,1544
63968569,1000,1000,1000,1000,107828518,1544,1544,1544,1544
63971068,1000,1000,1000,1000,107928478,1545,1544,1544,1544
63973567,1000,1000,1000,1000,108028438,1545,1544,1544,1544
63976066,1000,1000,1000,1000,108128398,1544,1544,1544,1544
63978565,1000,1000,1000,1000,108228358,1544,1544,1544,1544
63981064,1000,1000,1000,1000,108328318,1543,1544,1543,1544
63983563,1000,1000,1000,1000,108428278,1545,1545,1545,1545
63986062,1000,1000,1000,1000,108528238,1544,1544,1544,1544
63988561,1000,1000,1000,1000,108628198,1544,1544,1545,1544
63991060,1000,1000,1000,1000,108728158,1544,1544,1544,1544
63993559,1000,1000,1000,1000,108828951,1544,1544,1544,1544
63996058,1000,1000,1000,1000,108928911,1544,1544,1544,1545
63998557,1000,1000,1000,1000,109028871,1544,1544,1545,1544
64001056,1000,1000,1000,1000,109128831,1544,1544,1544,1544
64003555,1000,1000,1000,1000,109228791,1544,1544,1544,1544
64006054,1000,1000,1000,1000,109328751,1544,1544,1544,1544
64008553,1000,1000,1000,1000,109428711,1544,1544,1544,1544
64011052,1000,1000,1000,1000,109528671,1544,1544,1544,1544
64013551,1000,1000,1000,1000,109628631,1544,1544,1544,1544
64016050,1000,1000,1000,1000,109728591,1544,1544,1544,1544
64018549,1000,1000,1000,1000,109828551,1544,1544,1545,1544
64021048,1000,1000,1000,1000,109928511,1544,1544,1544,1544
64023547,1000,1000,1000,1000,110028471,1544,1544,1543,1543
64026046,1000,1000,1000,1000,110128431,1545,1545,1544,1545
64028545,1000,1000,1000,1000,110228391,1544,1545,1544,1544
64031044,1000,1000,1000,1000,110328351,1545,1545,1545,1545
64033543,1000,1000,1000,1000,110428311,1544,1545,1545,1544
64036042,1000,1000,1000,1000,110528271,1545,1544,1544,1545
64038541,1000,1000,1000,1000,110628231,1545,1545,1545,1545
64041040,1000,1000,1000,1000,110728191,1545,1544,1545,1544
64043539,1000,1000,1000,1000,110828984,1545,1544,1545,1545
64046038,1000,1000,1000,1000,110928944,1544,1544,1544,1544
64048537,1000,1000,1000,1000,111028904,1544,1545,1545,1544
64051036,1000,1000,1000,1000,111128864,1544,1544,1544,1544
64053535,1000,1000,1000,1000,111228824,1544,1544,1544,1543
64056034,1000,1000,1000,1000,111328784,1544,1544,1543,1544
64058533,1000,1000,1000,1000,111428744,1544,1544,1544,1544
64061032,1000,1000,1000,1000,111528704,1545,1544,1544,1545
64063531,1000,1000,1000,1000,111628664,1545,1545,1545,1545
64066030,1000,1000,1000,1000,111728624,1545,1544,1544,1545
64068529,1000,1000,1000,1000,111828584,1545,1545,1545,1545
64071028,1000,1000,1000,1000,111928544,1544,1544,1543,1544
64073527,1000,1000,1000,1000,112028504,1544,1544,1544,1544
64076026,1000,1000,1000,1000,112128464,1544,1544,1544,1544
64078525,1000,1000,1000,1000,112228424,1544,1544,1544,1544
64081024,1000,1000,1000,1000,112328384,1543,1543,1543,1543
64083523,1000,1000,1000,1000,112428344,1543,1544,1544,1544
64086022,1000,1000,1000,1000,112528304,1544,1544,1544,1544
64088521,1000,1000,1000,1000,112628264,1543,1544,1543,1543
64091020,1000,1000,1000,1000,112728224,1543,1543,1543,1543
64093519,1000,1000,1000,1000,112828184,1543,1544,1544,1544
64096018,1000,1000,1000,1000,112928977,1545,1545,1545,1545
64098517,1000,1000,1000,1000,113028937,1544,1544,1544,1544
64101016,1000,1000,1000,1000,113128897,1545,1545,1545,1545
64103515,1000,1000,1000,1000,113228857,1544,1545,1545,1545
64106014,1000,1000,1000,1000,113328817,1545,1544,1545,1545
64108513,1000,1000,1000,1000,113428777,1544,1544,1544,1544
64111012,1000,1000,1000,1000,113528737,1544,1544,1544,1544
64113511,1000,1000,1000,1000,113628697,1544,1544,1544,1544
64116010,1000,1000,1000,1000,113728657,1544,1544,1544,1545
64118509,1000,1000,1000,1000,113828617,1512,1512,1505,1504
64121008,1000,1000,1000,1000,113928577,1372,1373,1325,1323
64123507,1000,1000,1000,1000,114028537,1312,1314,1241,1237
64126006,1000,1000,1000,1000,114128497,1296,1297,1215,1213
64128505,1000,1000,1000,1000,114228457,1281,1282,1193,1190
64131004,1000,1000,1000,1000,114328417,1256,1257,1152,1150
64133503,1000,1000,1000,1000,114428377,1161,1161,1152,1150
64136002,1000,1000,1000,1000,114528337,1140,1140,1151,1150
64138501,1000,1000,1000,1000,114628297,1139,1140,1152,1150
64141000,1000,1000,1000,1000,114728257,1140,1140,1151,1150
64143499,1000,1000,1000,1000,114828217,1140,1127,1150,1168
64145998,1000,1000,1000,1000,114928177,1141,1132,1150,1160
64148497,1000,1000,1000,1000,115028970,1141,1134,1150,1158
64150996,1000,1000,1000,1000,115128930,1141,1134,1150,1158
64153495,1000,1000,1000,1000,115228890,1141,1134,1150,1158
64155994,1000,1000,1000,1000,115328850,1141,1134,1150,1158
64158493,1000,1000,1000,1000,115428810,1141,1134,1150,1159
64160992,1000,1000,1000,1000,115528770,1141,1137,1150,1154
64163491,1000,1000,1000,1000,115628730,1141,1140,1150,1150
64165990,1000,1000,1000,1000,115728690,1141,1139,1150,1151
64168489,1000,1000,1000,1000,115828650,1141,1139,1150,1151
64170988,1000,1000,1000,1000,115928610,1141,1139,1150,1151
64173487,1000,1000,1000,1000,116028570,983,983,1150,1150
64175986,1000,1000,1000,1000,116128530,1000,1000,1000,1000
64178485,1000,1000,1000,1000,116228490,1000,1000,1000,1000
64180984,1000,1000,1000,1000,116328450,1000,1000,1000,1000
64183483,1000,1000,1000,1000,116428410,1000,1000,1000,1000
64185982,1000,1000,1000,1000,116528370,1000,1000,1000,1000
64188481,1000,1000,1000,1000,116628330,1000,1000,1000,1000
64190980,1000,1000,1000,1000,116728290,1000,1000,1000,1000
64193479,1000,1000,1000,1000,116828250,1000,1000,1000,1000
64195978,1000,1000,1000,1000,116928210,1000,1000,1000,1000
64198477,1000,1000,1000,1000,117028170,1000,1000,1000,1000
64200976,1000,1000,1000,1000,117128963,1000,1000,1000,1000
64203475,1000,1000,1000,1000,117228923,1000,1000,1000,1000
64205974,1000,1000,1000,1000,117328883,1000,1000,1000,1000
64208473,1000,1000,1000,1000,117428843,1000,1000,1000,1000
64210972,1000,1000,1000,1000,117528803,1000,1000,1000,1000
64213471,1000,1000,1000,1000,117628763,1000,1000,1000,1000
64215970,1000,1000,1000,1000,117728723,1000,1000,1000,1000
64218469,1000,1000,1000,1000,117828683,1000,1000,1000,1000
64220968,1000,1000,1000,1000,117928643,1000,1000,1000,1000
64223467,1000,1000,1000,1000,118028603,1000,1000,1000,1000
64225966,1000,1000,1000,1000,118128563,1000,1000,1000,1000
64228465,1000,1000,1000,1000,118228523,1000,1000,1000,1000
64230964,1000,1000,1000,1000,118328483,1000,1000,1000,1000
64233463,1000,1000,1000,1000,118428443,1000,1000,1000,1000
64235962,1000,1000,1000,1000,118528403,1000,1000,1000,1000
64238461,1000,1000,1000,1000,118628363,1000,1000,1000,1000
64240960,1000,1000,1000,1000,118728323,1000,1000,1000,1000
64243459,1000,1000,1000,1000,118828283,1000,1000,1000,1000
64245958,1000,1000,1000,1000,118928243,1000,1000,1000,1000
64248457,1000,1000,1000,1000,119028203,1000,1000,1000,1000
64250956,1000,1000,1000,1000,119128163,1000,1000,1000,1000
64253455,1000,1000,1000,1000,119228956,1000,1000,1000,1000
64255954,1000,1000,1000,1000,119328916,1000,1000,1000,1000
64258453,1000,1000,1000,1000,119428876,1000,1000,1000,1000
64260952,1000,1000,1000,1000,119528836,1000,1000,1000,1000
64263451,1000,1000,1000,1000,119628796,1000,1000,1000,1000
64265950,1000,1000,1000,1000,119728756,1000,1000,1000,1000
64268449,1000,1000,1000,1000,119828716,1000,1000,1000,1000
64270948,1000,1000,1000,1000,119928676,1000,1000,1000,1000
64273447,1000,1000,1000,1000,120028636,1000,1000,1000,1000
64275946,1000,1000,1000,1000,120128596,1000,1000,1000,1000
64278445,1000,1000,1000,1000,120228556,1000,1000,1000,1000
64280944,1000,1000,1000,1000,120328516,1000,1000,1000,1000
64283443,1000,1000,1000,1000,120428476,1000,1000,1000,1000
64285942,1000,1000,1000,1000,120528436,1000,1000,1000,1000
64288441,1000,1000,1000,1000,120628396,1000,1000,1000,1000
64290940,1000,1000,1000,1000,120728356,1000,1000,1000,1000
64293439,1000,1000,1000,1000,120828316,1000,1000,1000,1000
64295938,1000,1000,1000,1000,120928276,1000,1000,1000,1000
64298437,1000,1000,1000,1000,121028236,1000,1000,1000,1000
64300936,1000,1000,1000,1000,121128196,1000,1000,1000,1000
64303435,1000,1000,1000,1000,121228156,1000,1000,1000,1000
64305934,1000,1000,1000,1000,121328949,1000,1000,1000,1000
64308433,1000,1000,1000,1000,121428909,1000,1000,1000,1000
64310932,1000,1000,1000,1000,121528869,1000,1000,1000,1000
64313431,1000,1000,1000,1000,121628829,1000,1000,1000,1000
64315930,1000,1000,1000,1000,121728789,1000,1000,1000,1000
64318429,1000,1000,1000,1000,121828749,1000,1000,1000,1000
64320928,1000,1000,1000,1000,121928709,1000,1000,1000,1000
64323427,1000,1000,1000,1000,122028669,1000,1000,1000,1000
64325926,1000,1000,1000,1000,122128629,1000,1000,1000,1000
64328425,1000,1000,1000,1000,122228589,1000,1000,1000,1000
64330924,1000,1000,1000,1000,122328549,1000,1000,1000,1000
64333423,1000,1000,1000,1000,122428509,1000,1000,1000,1000
64335922,1000,1000,1000,1000,122528469,1000,1000,1000,1000
64338421,1000,1000,1000,1000,122628429,1000,1000,1000,1000
64340920,1000,1000,1000,1000,122728389,1000,1000,1000,1000
64343419,1000,1000,1000,1000,122828349,1000,1000,1000,1000
64345918,1000,1000,1000,1000,122928309,1000,1000,1000,1000
64348417,1000,1000,1000,1000,123028269,1000,1000,1000,1000
64350916,1000,1000,1000,1000,123128229,1000,1000,1000,1000
64353415,1000,1000,1000,1000,123228189,1000,1000,1000,1000
64355914,1000,1000,1000,1000,123328982,1000,1000,1000,1000
64358413,1000,1000,1000,1000,123428942,1000,1000,1000,1000
64360912,1000,1000,1000,1000,123528902,1000,1000,1000,1000
64363411,1000,1000,1000,1000,123628862,1000,1000,1000,1000
64365910,1000,1000,1000,1000,123728822,1000,1000,1000,1000
64368409,1000,1000,1000,1000,123828782,1000,1000,1000,1000
64370908,1000,1000,1000,1000,123928742,1000,1000,1000,1000
64373407,1000,1000,1000,1000,124028702,1000,1000,1000,1000
64375906,1000,1000,1000,1000,124128662,1000,1000,1000,1000
64378405,1000,1000,1000,1000,124228622,1000,1000,1000,1000
64380904,1000,1000,1000,1000,124328582,1000,1000,1000,1000
64383403,1000,1000,1000,1000,124428542,1000,1000,1000,1000
64385902,1000,1000,1000,1000,,,,,
64388401,1000,1000,1000,1000,,,,,
64390900,1000,1000,1000,1000,,,,,
64393399,1000,1000,1000,1000,,,,,
64395898,1000,1000,1000,1000,,,,,
64398397,1000,1000,1000,1000,,,,,
64400896,1000,1000,1000,1000,,,,,
64403395,1000,1000,1000,1000,,,,,
64405894,1000,1000,1000,1000,,,,,
64408393,1000,1000,1000,1000,,,,,
64410892,1000,1000,1000,1000,,,,,
64413391,1000,1000,1000,1000,,,,,
64415890,1000,1000,1000,1000,,,,,
64418389,1000,1000,1000,1000,,,,,
64420888,1000,1000,1000,1000,,,,,
64423387,1000,1000,1000,1000,,,,,
64425886,1000,1000,1000,1000,,,,,
64428385,1000,1000,1000,1000,,,,,
64430884,1000,1000,1000,1000,,,,,
64433383,1000,1000,1000,1000,,,,,
64435882,1000,1000,1000,1000,,,,,
64438381,1000,1000,1000,1000,,,,,
64440880,1000,1000,1000,1000,,,,,
64443379,1000,1000,1000,1000,,,,,
64445878,1000,1000,1000,1000,,,,,
64448377,1000,1000,1000,1000,,,,,
64450876,1000,1000,1000,1000,,,,,
64453375,1000,1000,1000,1000,,,,,
64455874,1000,1000,1000,1000,,,,,
64458373,1000,1000,1000,1000,,,,,
64460872,1000,1000,1000,1000,,,,,
64463371,1000,1000,1000,1000,,,,,
64465870,1000,1000,1000,1000,,,,,
64468369,1000,1000,1000,1000,,,,,
64470868,1000,1000,1000,1000,,,,,
64473367,1000,1000,1000,1000,,,,,
64475866,1000,1000,1000,1000,,,,,
64478365,1000,1000,1000,1000,,,,,
64480864,1000,1000,1000,1000,,,,,
64483363,1000,1000,1000,1000,,,,,
64485862,1000,1000,1000,1000,,,,,
64488361,1000,1000,1000,1000,,,,,
64490860,1000,1000,1000,1000,,,,,
64493359,1000,1000,1000,1000,,,,,
64495858,1000,1000,1000,1000,,,,,
64498357,1000,1000,1000,1000,,,,,
64500856,1000,1000,1000,1000,,,,,
64503355,1000,1000,1000,1000,,,,,
64505854,1000,1000,1000,1000,,,,,
64508353,1000,1000,1000,1000,,,,,
64510852,1000,1000,1000,1000,,,,,
64513351,1000,1000,1000,1000,,,,,
64515850,1000,1000,1000,1000,,,,,
64518349,1000,1000,1000,1000,,,,,
64520848,1000,1000,1000,1000,,,,,
64523347,1000,1000,1000,1000,,,,,
64525846,1000,1000,1000,1000,,,,,
64528345,1000,1000,1000,1000,,,,,
64530844,1000,1000,1000,1000,,,,,
64533343,1000,1000,1000,1000,,,,,
64535842,1000,1000,1000,1000,,,,,
64538341,1000,1000,1000,1000,,,,,
64540840,1000,1000,1000,1000,,,,,
64543339,1000,1000,1000,1000,,,,,
64545838,1000,1000,1000,1000,,,,,
64548337,1000,1000,1000,1000,,,,,
64550836,1000,1000,1000,1000,,,,,
64553335,1000,1000,1000,1000,,,,,
64555834,1000,1000,1000,1000,,,,,
64558333,1000,1000,1000,1000,,,,,
64560832,1000,1000,1000,1000,,,,,
64563331,1000,1000,1000,1000,,,,,
64565830,1000,1000,1000,1000,,,,,
64568329,1000,1000,1000,1000,,,,,
64570828,1000,1000,1000,1000,,,,,
64573327,1000,1000,1000,1000,,,,,
64575826,1000,1000,1000,1000,,,,,
64578325,1000,1000,1000,1000,,,,,
64580824,1000,1000,1000,1000,,,,,
64583323,1000,1000,1000,1000,,,,,
64585822,1000,1000,1000,1000,,,,,
64588321,1000,1000,1000,1000,,,,,
64590820,1000,1000,1000,1000,,,,,
64593319,1000,1000,1000,1000,,,,,
64595818,1000,1000,1000,1000,,,,,
64598317,1000,1000,1000,1000,,,,,
64600816,1000,1000,1000,1000,,,,,
64603315,1000,1000,1000,1000,,,,,
64605814,1000,1000,1000,1000,,,,,
64608313,1000,1000,1000,1000,,,,,
64610812,1000,1000,1000,1000,,,,,
64613311,1000,1000,1000,1000,,,,,
64615810,1000,1000,1000,1000,,,,,
64618309,1000,1000,1000,1000,,,,,
64620808,1000,1000,1000,1000,,,,,
64623307,1000,1000,1000,1000,,,,,
64625806,1000,1000,1000,1000,,,,,
64628305,1000,1000,1000,1000,,,,,
64630804,1000,1000,1000,1000,,,,,
64633303,1000,1000,1000,1000,,,,,
64635802,1000,1000,1000,1000,,,,,
64638301,1000,1000,1000,1000,,,,,
64640800,1000,1000,1000,1000,,,,,
64643299,1000,1000,1000,1000,,,,,
64645798,1000,1000,1000,1000,,,,,
64648297,1000,1000,1000,1000,,,,,
64650796,1000,1000,1000,1000,,,,,
64653295,1000,1000,1000,1000,,,,,
64655794,1000,1000,1000,1000,,,,,
64658293,1000,1000,1000,1000,,,,,
64660792,1000,1000,1000,1000,,,,,
64663291,1000,1000,1000,1000,,,,,
64665790,1000,1000,1000,1000,,,,,
64668289,1000,1000,1000,1000,,,,,
64670788,1000,1000,1000,1000,,,,,
64673287,1000,1000,1000,1000,,,,,
64675786,1000,1000,1000,1000,,,,,
64678285,1000,1000,1000,1000,,,,,
64680784,1000,1000,1000,1000,,,,,
64683283,1000,1000,1000,1000,,,,,
64685782,1000,1000,1000,1000,,,,,
64688281,1000,1000,1000,1000,,,,,
64690780,1000,1000,1000,1000,,,,,
64693279,1000,1000,1000,1000,,,,,
64695778,1000,1000,1000,1000,,,,,
64698277,1000,1000,1000,1000,,,,,
64700776,1000,1000,1000,1000,,,,,
64703275,1000,1000,1000,1000,,,,,
64705774,1000,1000,1000,1000,,,,,
64708273,1000,1000,1000,1000,,,,,
64710772,1000,1000,1000,1000,,,,,
64713271,1000,1000,1000,1000,,,,,
64715770,1000,1000,1000,1000,,,,,
64718269,1000,1000,1000,1000,,,,,
64720768,1000,1000,1000,1000,,,,,
64723267,1000,1000,1000,1000,,,,,
64725766,1000,1000,1000,1000,,,,,
64728265,1000,1000,1000,1000,,,,,
64730764,1000,1000,1000,1000,,,,,
64733263,1000,1000,1000,1000,,,,,
64735762,1000,1000,1000,1000,,,,,
64738261,1000,1000,1000,1000,,,,,
64740760,1000,1000,1000,1000,,,,,
64743259,1000,1000,1000,1000,,,,,
64745758,1000,1000,1000,1000,,,,,
64748257,1000,1000,1000,1000,,,,,
64750756,1000,1000,1000,1000,,,,,
64753255,1000,1000,1000,1000,,,,,
64755754,1000,1000,1000,1000,,,,,
64758253,1000,1000,1000,1000,,,,,
64760752,1000,1000,1000,1000,,,,,
64763251,1000,1000,1000,1000,,,,,
64765750,1000,1000,1000,1000,,,,,
64768249,1000,1000,1000,1000,,,,,
64770748,1000,1000,1000,1000,,,,,
64773247,1000,1000,1000,1000,,,,,
64775746,1000,1000,1000,1000,,,,,
64778245,1000,1000,1000,1000,,,,,
64780744,1000,1000,1000,1000,,,,,
64783243,1000,1000,1000,1000,,,,,
64785742,1000,1000,1000,1000,,,,,
64788241,1000,1000,1000,1000,,,,,
64790740,1000,1000,1000,1000,,,,,
64793239,1000,1000,1000,1000,,,,,
64795738,1000,1000,1000,1000,,,,,
64798237,1000,1000,1000,1000,,,,,
64800736,1000,1000,1000,1000,,,,,
64803235,1000,1000,1000,1000,,,,,
64805734,1000,1000,1000,1000,,,,,
64808233,1000,1000,1000,1000,,,,,
64810732,1000,1000,1000,1000,,,,,
64813231,1000,1000,1000,1000,,,,,
64815730,1000,1000,1000,1000,,,,,
64818229,1000,1000,1000,1000,,,,,
64820728,1000,1000,1000,1000,,,,,
64823227,1000,1000,1000,1000,,,,,
64825726,1000,1000,1000,1000,,,,,
64828225,1000,1000,1000,1000,,,,,
64830724,1000,1000,1000,1000,,,,,
64833223,1000,1000,1000,1000,,,,,
64835722,1000,1000,1000,1000,,,,,
64838221,1000,1000,1000,1000,,,,,
64840720,1000,1000,1000,1000,,,,,
64843219,1000,1000,1000,1000,,,,,
64845718,1000,1000,1000,1000,,,,,
64848217,1000,1000,1000,1000,,,,,
64850716,1000,1000,1000,1000,,,,,
64853215,1001,1001,1001,1001,,,,,
64855714,1002,1002,1002,1002,,,,,
64858213,1003,1003,1003,1003,,,,,
64860712,1003,1003,1003,1003,,,,,
64863211,1004,1004,1004,1004,,,,,
64865710,1005,1005,1005,1005,,,,,
64868209,1006,1006,1006,1006,,,,,
64870708,1006,1006,1006,1006,,,,,
64873207,1007,1007,1007,1007,,,,,
64875706,1008,1008,1008,1008,,,,,
64878205,1009,1009,1009,1009,,,,,
64880704,1009,1009,1009,1009,,,,,
64883203,1010,1010,1010,1010,,,,,
64885702,1011,1011,1011,1011,,,,,
64888201,1012,1012,1012,1012,,,,,
64890700,1012,1012,1012,1012,,,,,
64893199,1013,1013,1013,1013,,,,,
64895698,1014,1014,1014,1014,,,,,
64898197,1015,1015,1015,1015,,,,,
64900696,1015,1015,1015,1015,,,,,
64903195,1016,1016,1016,1016,,,,,
64905694,1017,1017,1017,1017,,,,,
64908193,1018,1018,1018,1018,,,,,
64910692,1018,1018,1018,1018,,,,,
64913191,1019,1019,1019,1019,,,,,
64915690,1020,1020,1020,1020,,,,,
64918189,1021,1021,1021,1021,,,,,
64920688,1021,1021,1021,1021,,,,,
64923187,1022,1022,1022,1022,,,,,
64925686,1023,1023,1023,1023,,,,,
64928185,1024,1024,1024,1024,,,,,
64930684,1024,1024,1024,1024,,,,,
64933183,1025,1025,1025,1025,,,,,
64935682,1026,1026,1026,1026,,,,,
64938181,1027,1027,1027,1027,,,,,
64940680,1027,1027,1027,1027,,,,,
64943179,1028,1028,1028,1028,,,,,
64945678,1029,1029,1029,1029,,,,,
64948177,1030,1030,1030,1030,,,,,
64950676,1030,1030,1030,1030,,,,,
64953175,1031,1031,1031,1031,,,,,
64955674,1032,1032,1032,1032,,,,,
64958173,1033,1033,1033,1033,,,,,
64960672,1033,1033,1033,1033,,,,,
64963171,1034,1034,1034,1034,,,,,
64965670,1035,1035,1035,1035,,,,,
64968169,1036,1036,1036,1036,,,,,
64970668,1036,1036,1036,1036,,,,,
64973167,1037,1037,1037,1037,,,,,
64975666,1038,1038,1038,1038,,,,,
64978165,1039,1039,1039,1039,,,,,
64980664,1039,1039,1039,1039,,,,,
64983163,1040,1040,1040,1040,,,,,
64985662,1041,1041,1041,1041,,,,,
64988161,1042,1042,1042,1042,,,,,
64990660,1042,1042,1042,1042,,,,,
64993159,1043,1043,1043,1043,,,,,
64995658,1044,1044,1044,1044,,,,,
64998157,1045,1045,1045,1045,,,,,
65000656,1045,1045,1045,1045,,,,,
65003155,1046,1046,1046,1046,,,,,
65005654,1047,1047,1047,1047,,,,,
65008986,1048,1048,1048,1048,,,,,
65011485,1048,1048,1048,1048,,,,,
65013984,1049,1049,1049,1049,,,,,
65016483,1050,1050,1050,1050,,,,,
65018982,1051,1051,1051,1051,,,,,
65021481,1051,1051,1051,1051,,,,,
65023980,1052,1052,1052,1052,,,,,
65026479,1053,1053,1053,1053,,,,,
65028978,1054,1054,1054,1054,,,,,
65031477,1054,1054,1054,1054,,,,,
65033976,1055,1055,1055,1055,,,,,
65036475,1056,1056,1056,1056,,,,,
65038974,1057,1057,1057,1057,,,,,
65041473,1057,1057,1057,1057,,,,,
65043972,1058,1058,1058,1058,,,,,
65046471,1059,1059,1059,1059,,,,,
65048970,1060,1060,1060,1060,,,,,
65051469,1060,1060,1060,1060,,,,,
65053968,1061,1061,1061,1061,,,,,
65056467,1062,1062,1062,1062,,,,,
65058966,1063,1063,1063,1063,,,,,
65061465,1063,1063,1063,1063,,,,,
65063964,1064,1064,1064,1064,,,,,
65066463,1065,1065,1065,1065,,,,,
65068962,1066,1066,1066,1066,,,,,
65071461,1066,1066,1066,1066,,,,,
65073960,1067,1067,1067,1067,,,,,
65076459,1068,1068,1068,1068,,,,,
65078958,1069,1069,1069,1069,,,,,
65081457,1069,1069,1069,1069,,,,,
65083956,1070,1070,1070,1070,,,,,
65086455,1071,1071,1071,1071,,,,,
65088954,1072,1072,1072,1072,,,,,
65091453,1072,1072,1072,1072,,,,,
65093952,1073,1073,1073,1073,,,,,
65096451,1074,1074,1074,1074,,,,,
65098950,1075,1075,1075,1075,,,,,
65101449,1075,1075,1075,1075,,,,,
65103948,1076,1076,1076,1076,,,,,
65106447,1077,1077,1077,1077,,,,,
65108946,1078,1078,1078,1078,,,,,
65111445,1078,1078,1078,1078,,,,,
65113944,1079,1079,1079,1079,,,,,
65116443,1080,1080,1080,1080,,,,,
65118942,1081,1081,1081,1081,,,,,
65121441,1081,1081,1081,1081,,,,,
65123940,1082,1082,1082,1082,,,,,
65126439,1083,1083,1083,1083,,,,,
65128938,1084,1084,1084,1084,,,,,
65131437,1084,1084,1084,1084,,,,,
65133936,1085,1085,1085,1085,,,,,
65136435,1086,1086,1086,1086,,,,,
65138934,1087,1087,1087,1087,,,,,
65141433,1087,1087,1087,1087,,,,,
65143932,1088,1088,1088,1088,,,,,
65146431,1089,1089,1089,1089,,,,,
65148930,1090,1090,1090,1090,,,,,
65151429,1090,1090,1090,1090,,,,,
65153928,1091,1091,1091,1091,,,,,
65156427,1092,1092,1092,1092,,,,,
65158926,1093,1093,1093,1093,,,,,
65161425,1093,1093,1093,1093,,,,,
65163924,1094,1094,1094,1094,,,,,
65166423,1095,1095,1095,1095,,,,,
65168922,1096,1096,1096,1096,,,,,
65171421,1096,1096,1096,1096,,,,,
65173920,1097,1097,1097,1097,,,,,
65176419,1098,1098,1098,1098,,,,,
65178918,1099,1099,1099,1099,,,,,
65181417,1099,1099,1099,1099,,,,,
65183916,1100,1100,1100,1100,,,,,
65186415,1101,1101,1101,1101,,,,,
65188914,1101,1101,1101,1101,,,,,
65191413,1102,1102,1102,1102,,,,,
65193912,1103,1103,1103,1103,,,,,
65196411,1104,1104,1104,1104,,,,,
65198910,1104,1104,1104,1104,,,,,
65201409,1105,1105,1105,1105,,,,,
65203908,1106,1106,1106,1106,,,,,
65206407,1107,1107,1107,1107,,,,,
65208906,1107,1107,1107,1107,,,,,
65211405,1108,1108,1108,1108,,,,,
65213904,1109,1109,1109,1109,,,,,
65216403,1110,1110,1110,1110,,,,,
65218902,1110,1110,1110,1110,,,,,
65221401,1111,1111,1111,1111,,,,,
65223900,1112,1112,1112,1112,,,,,
65226399,1113,1113,1113,1113,,,,,
65228898,1113,1113,1113,1113,,,,,
65231397,1114,1114,1114,1114,,,,,
65233896,1115,1115,1115,1115,,,,,
65236395,1116,1116,1116,1116,,,,,
65238894,1116,1116,1116,1116,,,,,
65241393,1117,1117,1117,1117,,,,,
65243892,1118,1118,1118,1118,,,,,
65246391,1119,1119,1119,1119,,,,,
65248890,1119,1119,1119,1119,,,,,
65251389,1120,1120,1120,1120,,,,,
65253888,1121,1121,1121,1121,,,,,
65256387,1122,1122,1122,1122,,,,,
65258886,1122,1122,1122,1122,,,,,
65261385,1123,1123,1123,1123,,,,,
65263884,1124,1124,1124,1124,,,,,
65266383,1125,1125,1125,1125,,,,,
65268882,1125,1125,1125,1125,,,,,
65271381,1126,1126,1126,1126,,,,,
65273880,1127,1127,1127,1127,,,,,
65276379,1128,1128,1128,1128,,,,,
65278878,1128,1128,1128,1128,,,,,
65281377,1129,1129,1129,1129,,,,,
65283876,1130,1130,1130,1130,,,,,
65286375,1131,1131,1131,1131,,,,,
65288874,1131,1131,1131,1131,,,,,
65291373,1132,1132,1132,1132,,,,,
65293872,1133,1133,1133,1133,,,,,
65296371,1134,1134,1134,1134,,,,,
65298870,1134,1134,1134,1134,,,,,
65301369,1135,1135,1135,1135,,,,,
65303868,1136,1136,1136,1136,,,,,
65306367,1137,1137,1137,1137,,,,,
65308866,1137,1137,1137,1137,,,,,
65311365,1138,1138,1138,1138,,,,,
65313864,1139,1139,1139,1139,,,,,
65316363,1140,1140,1140,1140,,,,,
65318862,1140,1140,1140,1140,,,,,
65321361,1141,1141,1141,1141,,,,,
65323860,1142,1142,1142,1142,,,,,
65326359,1143,1143,1143,1143,,,,,
65328858,1143,1143,1143,1143,,,,,
65331357,1144,1144,1144,1144,,,,,
65333856,1145,1145,1145,1145,,,,,
65336355,1146,1146,1146,1146,,,,,
65338854,1146,1146,1146,1146,,,,,
65341353,1147,1147,1147,1147,,,,,
65343852,1148,1148,1148,1148,,,,,
65346351,1149,1149,1149,1149,,,,,
65348850,1149,1149,1149,1149,,,,,
65351349,1150,1150,1150,1150,,,,,
65353848,1162,1152,1153,1163,,,,,
65356347,1170,1160,1161,1171,,,,,
65358846,1178,1168,1169,1179,,,,,
65361345,1186,1176,1177,1187,,,,,
65363844,1194,1184,1184,1194,,,,,
65366343,1201,1191,1192,1202,,,,,
65368842,1208,1199,1199,1209,,,,,
65371341,1215,1206,1207,1216,,,,,
65373840,1222,1213,1214,1223,,,,,
65376339,1229,1220,1221,1230,,,,,
65378838,1236,1227,1228,1237,,,,,
65381337,1243,1234,1235,1244,,,,,
65383836,1250,1241,1242,1250,,,,,
65386335,1256,1248,1248,1257,,,,,
65388834,1263,1254,1255,1264,,,,,
65391333,1269,1261,1261,1270,,,,,
65393832,1276,1267,1268,1276,,,,,
65396331,1282,1274,1274,1283,,,,,
65398830,1288,1280,1281,1289,,,,,
65401329,1294,1286,1287,1295,,,,,
65403828,1300,1292,1293,1301,,,,,
65406327,1306,1299,1299,1307,,,,,
65408826,1312,1305,1305,1313,,,,,
65411325,1318,1311,1311,1319,,,,,
65413824,1324,1316,1317,1325,,,,,
65416323,1330,1322,1323,1330,,,,,
65418822,1335,1328,1328,1336,,,,,
65421321,1341,1334,1334,1342,,,,,
65423820,1347,1339,1340,1347,,,,,
65426319,1352,1345,1345,1353,,,,,
65428818,1358,1350,1351,1358,,,,,
65431317,1363,1356,1356,1364,,,,,
65433816,1368,1361,1362,1369,,,,,
65436315,1374,1367,1367,1375,,,,,
65438814,1379,1372,1372,1380,,,,,
65441313,1384,1377,1378,1385,,,,,
65443812,1390,1383,1383,1390,,,,,
65446311,1395,1388,1388,1395,,,,,
65448810,1400,1393,1393,1401,,,,,
65451309,1405,1398,1399,1406,,,,,
65453808,1410,1403,1404,1411,,,,,
65456307,1415,1408,1409,1416,,,,,
65458806,1420,1413,1414,1421,,,,,
65461305,1425,1418,1419,1426,,,,,
65463804,1430,1423,1424,1431,,,,,
65466303,1435,1428,1428,1435,,,,,
65468802,1440,1433,1433,1440,,,,,
65471301,1444,1438,1438,1445,,,,,
65473800,1449,1443,1443,1450,,,,,
65476299,1454,1447,1448,1455,,,,,
65478798,1459,1452,1452,1459,,,,,
65481297,1463,1457,1457,1464,,,,,
65483796,1468,1462,1462,1469,,,,,
65486295,1473,1466,1466,1473,,,,,
65488794,1477,1471,1471,1478,,,,,
65491293,1482,1475,1476,1482,,,,,
65493792,1486,1480,1480,1487,,,,,
65496291,1491,1484,1485,1491,,,,,
65498790,1495,1489,1489,1496,,,,,
65501289,1500,1493,1494,1500,,,,,
65503788,1504,1498,1498,1505,,,,,
65506287,1508,1502,1502,1509,,,,,
65508786,1513,1507,1507,1513,,,,,
65511285,1517,1511,1511,1518,,,,,
65513784,1522,1515,1516,1522,,,,,
65516283,1526,1519,1520,1526,,,,,
65518782,1530,1524,1524,1531,,,,,
65521281,1534,1528,1528,1535,,,,,
65523780,1539,1532,1533,1539,,,,,
65526279,1543,1536,1537,1543,,,,,
65528778,1547,1541,1541,1547,,,,,
65531277,1551,1545,1545,1552,,,,,
65533776,1555,1549,1549,1556,,,,,
65536275,1560,1553,1554,1560,,,,,
65538774,1564,1557,1558,1564,,,,,
65541273,1568,1561,1562,1568,,,,,
65543772,1572,1565,1566,1572,,,,,
65546271,1576,1569,1570,1576,,,,,
65548770,1580,1573,1574,1580,,,,,
65551269,1584,1577,1578,1584,,,,,
65553768,1588,1581,1582,1588,,,,,
65556267,1592,1585,1586,1592,,,,,
65558766,1596,1589,1590,1596,,,,,
65561265,1600,1593,1594,1600,,,,,
65563764,1604,1597,1598,1604,,,,,
65566263,1607,1601,1602,1608,,,,,
65568762,1611,1605,1606,1611,,,,,
65571261,1615,1609,1609,1615,,,,,
65573760,1619,1613,1613,1619,,,,,
65576259,1623,1617,1617,1623,,,,,
65578758,1627,1620,1621,1627,,,,,
65581257,1630,1624,1625,1631,,,,,
65583756,1634,1628,1628,1634,,,,,
65586255,1638,1632,1632,1638,,,,,
65588754,1642,1635,1636,1642,,,,,
65591253,1645,1639,1640,1646,,,,,
65593752,1649,1643,1643,1649,,,,,
65596251,1653,1647,1647,1653,,,,,
65598750,1656,1650,1651,1657,,,,,
65601249,1660,1654,1654,1660,,,,,
65603748,1664,1658,1658,1664,,,,,
65606247,1667,1661,1662,1668,,,,,
65608746,1671,1665,1665,1671,,,,,
65611245,1675,1668,1669,1675,,,,,
65613744,1678,1672,1673,1678,,,,,
65616243,1682,1676,1676,1682,,,,,
65618742,1685,1679,1680,1686,,,,,
65621241,1689,1683,1683,1689,,,,,
65623740,1692,1686,1687,1693,,,,,
65626239,1696,1690,1690,1696,,,,,
65628738,1700,1693,1694,1700,,,,,
65631237,1703,1697,1697,1703,,,,,
65633736,1706,1700,1701,1707,,,,,
65636235,1710,1704,1704,1710,,,,,
65638734,1713,1707,1708,1714,,,,,
65641233,1717,1711,1711,1717,,,,,
65643732,1720,1714,1715,1720,,,,,
65646231,1724,1718,1718,1724,,,,,
65648730,1727,1721,1722,1727,,,,,
65651229,1730,1724,1725,1731,,,,,
65653728,1734,1728,1728,1734,,,,,
65656227,1737,1731,1732,1737,,,,,
65658726,1741,1735,1735,1741,,,,,
65661225,1744,1738,1738,1744,,,,,
65663724,1747,1741,1742,1747,,,,,
65666223,1751,1745,1745,1751,,,,,
65668722,1754,1748,1748,1754,,,,,
65671221,1757,1751,1752,1757,,,,,
65673720,1760,1755,1755,1761,,,,,
65676219,1764,1758,1758,1764,,,,,
65678718,1767,1761,1762,1767,,,,,
65681217,1770,1764,1765,1770,,,,,
65683716,1773,1768,1768,1774,,,,,
65686215,1777,1771,1771,1777,,,,,
65688714,1780,1774,1775,1780,,,,,
65691213,1783,1777,1778,1783,,,,,
65693712,1786,1781,1781,1787,,,,,
65696211,1790,1784,1784,1790,,,,,
65698710,1793,1787,1788,1793,,,,,
65701209,1796,1790,1791,1796,,,,,
65703708,1799,1793,1794,1799,,,,,
65706207,1802,1797,1797,1802,,,,,
65708706,1805,1800,1800,1806,,,,,
65711205,1808,1803,1803,1809,,,,,
65713704,1812,1806,1807,1812,,,,,
65716203,1815,1809,1810,1815,,,,,
65718702,1818,1812,1813,1818,,,,,
65721201,1821,1816,1816,1821,,,,,
65723700,1824,1819,1819,1824,,,,,
65726199,1827,1822,1822,1827,,,,,
65728698,1830,1825,1825,1830,,,,,
65731197,1833,1828,1828,1834,,,,,
65733696,1836,1831,1831,1837,,,,,
65736195,1839,1834,1834,1840,,,,,
65738694,1842,1837,1837,1843,,,,,
65741193,1845,1840,1840,1846,,,,,
65743692,1848,1843,1843,1849,,,,,
65746191,1851,1846,1847,1852,,,,,
65748690,1854,1849,1850,1855,,,,,
65751189,1857,1852,1853,1858,,,,,
65753688,1860,1855,1856,1861,,,,,
65756187,1863,1858,1858,1864,,,,,
65758686,1866,1861,1861,1867,,,,,
65761185,1869,1864,1864,1870,,,,,
65763684,1872,1867,1867,1873,,,,,
65766183,1875,1870,1870,1876,,,,,
65768682,1878,1873,1873,1879,,,,,
65771181,1881,1876,1876,1882,,,,,
65773680,1884,1879,1879,1885,,,,,
65776179,1887,1882,1882,1888,,,,,
65778678,1890,1885,1885,1891,,,,,
65781177,1892,1888,1888,1893,,,,,
65783676,1895,1891,1891,1896,,,,,
65786175,1898,1894,1894,1899,,,,,
65788674,1899,1896,1895,1900,,,,,
65791173,1898,1894,1894,1898,,,,,
65793672,1896,1893,1893,1897,,,,,
65796171,1895,1892,1892,1896,,,,,
65798670,1894,1891,1891,1895,,,,,
65801169,1893,1889,1889,1894,,,,,
65803668,1892,1888,1888,1893,,,,,
65806167,1891,1887,1887,1892,,,,,
65808666,1890,1886,1886,1891,,,,,
65811165,1889,1885,1885,1890,,,,,
65813664,1888,1884,1884,1889,,,,,
65816163,1887,1883,1883,1888,,,,,
65818662,1887,1882,1882,1887,,,,,
65821161,1886,1882,1881,1887,,,,,
65823660,1885,1881,1881,1886,,,,,
65826159,1885,1880,1880,1886,,,,,
65828658,1885,1880,1880,1886,,,,,
65831157,1884,1880,1879,1885,,,,,
65833656,1884,1879,1879,1885,,,,,
65836155,1884,1879,1879,1885,,,,,
65838654,1884,1879,1879,1885,,,,,
65841153,1884,1879,1879,1885,,,,,
65843652,1884,1879,1879,1885,,,,,
65846151,1884,1879,1879,1885,,,,,
65848650,1884,1880,1879,1886,,,,,
65851149,1884,1880,1879,1886,,,,,
65853648,1884,1880,1879,1886,,,,,
65856147,1884,1880,1879,1886,,,,,
65858646,1884,1880,1879,1886,,,,,
65861145,1884,1880,1879,1885,,,,,
65863644,1883,1880,1879,1885,,,,,
65866143,1883,1879,1878,1885,,,,,
65868642,1882,1879,1878,1884,,,,,
65871141,1882,1878,1877,1883,,,,,
65873640,1881,1878,1877,1883,,,,,
65876139,1880,1877,1875,1882,,,,,
65878638,1879,1875,1874,1880,,,,,
65881137,1877,1874,1873,1879,,,,,
65883636,1876,1873,1871,1878,,,,,
65886135,1874,1871,1870,1876,,,,,
65888634,1872,1869,1868,1874,,,,,
65891133,1870,1867,1866,1872,,,,,
65893632,1868,1865,1864,1870,,,,,
65896131,1866,1863,1862,1868,,,,,
65898630,1864,1861,1860,1866,,,,,
65901129,1861,1858,1857,1864,,,,,
65903628,1859,1856,1855,1861,,,,,
65906127,1856,1853,1852,1859,,,,,
65908626,1854,1851,1849,1856,,,,,
65911125,1851,1848,1847,1853,,,,,
65913624,1848,1845,1844,1850,,,,,
65916123,1845,1842,1841,1848,,,,,
65918622,1842,1840,1838,1845,,,,,
65921121,1839,1837,1835,1842,,,,,
65923620,1836,1834,1832,1839,,,,,
65926119,1833,1830,1829,1835,,,,,
65928618,1830,1827,1826,1832,,,,,
65931117,1827,1824,1823,1829,,,,,
65933616,1824,1821,1820,1826,,,,,
65936115,1820,1818,1816,1823,,,,,
65938614,1817,1815,1813,1819,,,,,
65941113,1814,1811,1810,1816,,,,,
65943612,1810,1808,1807,1813,,,,,
65946111,1807,1805,1803,1809,,,,,
65948610,1804,1801,1800,1806,,,,,
65951109,1800,1798,1797,1803,,,,,
65953608,1797,1795,1793,1799,,,,,
65956107,1793,1791,1790,1796,,,,,
65958606,1790,1788,1787,1792,,,,,
65961105,1787,1785,1783,1789,,,,,
65963604,1783,1781,1780,1785,,,,,
65966103,1780,1778,1776,1782,,,,,
65968602,1776,1775,1773,1779,,,,,
65971101,1773,1771,1770,1775,,,,,
65973600,1769,1768,1766,1772,,,,,
65976099,1766,1764,1763,1768,,,,,
65978598,1763,1761,1760,1765,,,,,
65981097,1759,1758,1756,1761,,,,,
65983596,1756,1754,1753,1758,,,,,
65986095,1752,1751,1750,1755,,,,,
65988594,1749,1748,1746,1751,,,,,
65991093,1746,1744,1743,1748,,,,,
65993592,1742,1741,1740,1745,,,,,
65996091,1739,1738,1736,1741,,,,,
65998590,1736,1735,1733,1738,,,,,
66001089,1732,1731,1730,1735,,,,,
66003588,1729,1728,1727,1731,,,,,
66006087,1726,1725,1724,1728,,,,,
66008586,1723,1722,1721,1725,,,,,
66011085,1720,1719,1718,1722,,,,,
66013584,1717,1716,1715,1719,,,,,
66016083,1714,1713,1712,1716,,,,,
66018582,1711,1710,1709,1713,,,,,
66021081,1708,1707,1706,1710,,,,,
66023580,1705,1704,1703,1707,,,,,
66026079,1702,1702,1700,1704,,,,,
66028578,1699,1699,1697,1701,,,,,
66031077,1696,1696,1695,1698,,,,,
66033576,1693,1694,1692,1696,,,,,
66036075,1691,1691,1689,1693,,,,,
66038574,1688,1688,1687,1690,,,,,
66041073,1685,1686,1684,1688,,,,,
66043572,1683,1683,1682,1685,,,,,
66046071,1680,1681,1679,1682,,,,,
66048570,1678,1678,1677,1680,,,,,
66051069,1675,1676,1675,1677,,,,,
66053568,1673,1674,1672,1675,,,,,
66056067,1671,1671,1670,1673,,,,,
66058566,1668,1669,1668,1670,,,,,
66061065,1666,1667,1666,1668,,,,,
66063564,1664,1665,1663,1666,,,,,
66066063,1662,1662,1661,1664,,,,,
66068562,1660,1660,1659,1661,,,,,
66071061,1657,1658,1657,1659,,,,,
66073560,1655,1656,1655,1657,,,,,
66076059,1653,1654,1653,1655,,,,,
66078558,1651,1652,1651,1653,,,,,
66081057,1649,1651,1650,1651,,,,,
66083556,1648,1649,1648,1649,,,,,
66086055,1646,1647,1646,1647,,,,,
66088554,1644,1645,1644,1646,,,,,
66091053,1642,1644,1643,1644,,,,,
66093552,1641,1642,1641,1642,,,,,
66096051,1639,1641,1640,1641,,,,,
66098550,1638,1639,1638,1639,,,,,
66101049,1636,1638,1637,1638,,,,,
66103548,1635,1637,1636,1637,,,,,
66106047,1633,1635,1634,1635,,,,,
66108546,1632,1634,1633,1634,,,,,
66111045,1631,1633,1632,1633,,,,,
66113544,1630,1632,1631,1631,,,,,
66116043,1629,1631,1630,1630,,,,,
66118542,1628,1630,1629,1629,,,,,
66121041,1627,1629,1628,1628,,,,,
66123540,1626,1628,1627,1627,,,,,
66126039,1625,1627,1626,1626,,,,,
66128538,1624,1626,1625,1625,,,,,
66131037,1623,1625,1624,1624,,,,,
66133536,1622,1624,1623,1623,,,,,
66136035,1621,1623,1623,1622,,,,,
66138534,1620,1622,1622,1621,,,,,
66141033,1619,1621,1621,1620,,,,,
66143532,1619,1621,1620,1620,,,,,
66146031,1618,1620,1619,1619,,,,,
