TimeUS,M1,M2,M3,M4,TimeUS,C1,C2,C3,C4
63978565,1000,1000,1000,1000,64028545,1000,1000,1000,1000
63981064,1000,1000,1000,1000,64128505,1000,1000,1000,1000
63983563,1000,1000,1000,1000,64228465,1000,1000,1000,1000
63986062,1000,1000,1000,1000,64328425,1000,1000,1000,1000
63988561,1000,1000,1000,1000,64428385,1000,1000,1000,1000
63991060,1000,1000,1000,1000,64528345,1000,1000,1000,1000
63993559,1000,1000,1000,1000,64628305,1000,1000,1000,1000
63996058,1000,1000,1000,1000,64728265,1000,1000,1000,1000
63998557,1000,1000,1000,1000,64828225,1000,1000,1000,1000
64001056,1000,1000,1000,1000,64928185,1000,1000,1000,1000
64003555,1000,1000,1000,1000,65028978,1000,1000,1000,1000
64006054,1000,1000,1000,1000,65128938,1000,1000,1000,1000
64008553,1000,1000,1000,1000,65228898,1000,1000,1000,1000
64011052,1000,1000,1000,1000,65328858,1000,1000,1000,1000
64013551,1000,1000,1000,1000,65428818,1000,1000,1000,1000
64016050,1000,1000,1000,1000,65528778,1000,1000,1000,1000
64018549,1000,1000,1000,1000,65628738,1000,1000,1000,1000
64021048,1000,1000,1000,1000,65728698,1000,1000,1000,1000
64023547,1000,1000,1000,1000,65828658,1000,1000,1000,1000
64026046,1000,1000,1000,1000,65928618,1000,1000,1000,1000
64028545,1000,1000,1000,1000,66028578,1015,1015,1015,1015
64031044,1000,1000,1000,1000,66128538,1045,1045,1045,1045
64033543,1000,1000,1000,1000,66228498,1075,1075,1075,1075
64036042,1000,1000,1000,1000,66328458,1104,1104,1104,1104
64038541,1000,1000,1000,1000,66428418,1134,1134,1134,1134
64041040,1000,1000,1000,1000,66528378,1289,1280,1280,1289
64043539,1000,1000,1000,1000,66628338,1495,1489,1489,1496
64046038,1000,1000,1000,1000,66728298,1656,1650,1651,1657
64048537,1000,1000,1000,1000,66828258,1793,1787,1787,1793
64051036,1000,1000,1000,1000,66928218,1913,1908,1908,1914
64053535,1000,1000,1000,1000,67028178,1895,1892,1892,1895
64056034,1000,1000,1000,1000,67128971,1764,1764,1764,1765
64058533,1000,1000,1000,1000,67228931,1670,1672,1672,1671
64061032,1000,1000,1000,1000,67328891,1642,1644,1644,1642
64063531,1000,1000,1000,1000,67428851,1644,1646,1646,1644
64066030,1000,1000,1000,1000,67528811,1648,1649,1649,1648
64068529,1000,1000,1000,1000,67628771,1643,1643,1643,1643
64071028,1000,1000,1000,1000,67728731,1620,1619,1612,1626
64073527,1000,1000,1000,1000,67828691,1604,1603,1594,1613
64076026,1000,1000,1000,1000,67928651,1596,1596,1590,1601
64078525,1000,1000,1000,1000,68028611,1595,1595,1594,1595
64081024,1000,1000,1000,1000,68128571,1598,1597,1600,1594
64083523,1000,1000,1000,1000,68228531,1590,1591,1598,1582
64086022,1000,1000,1000,1000,68328491,1572,1572,1592,1551
64088521,1000,1000,1000,1000,68428451,1560,1561,1574,1548
64091020,1000,1000,1000,1000,68528411,1551,1551,1553,1550
64093519,1000,1000,1000,1000,68628371,1542,1541,1533,1552
64096018,1000,1000,1000,1000,68728331,1536,1536,1523,1549
64098517,1000,1000,1000,1000,68828291,1530,1530,1519,1541
64101016,1000,1000,1000,1000,68928251,1526,1525,1519,1532
64103515,1000,1000,1000,1000,69028211,1525,1524,1523,1525
64106014,1000,1000,1000,1000,69128171,1526,1526,1527,1524
64108513,1000,1000,1000,1000,69228964,1529,1529,1531,1526
64111012,1000,1000,1000,1000,69328924,1533,1533,1536,1529
64113511,1000,1000,1000,1000,69428884,1538,1538,1541,1534
64116010,1000,1000,1000,1000,69528844,1542,1542,1545,1540
64118509,1000,1000,1000,1000,69628804,1546,1546,1547,1545
64121008,1000,1000,1000,1000,69728764,1548,1548,1548,1549
64123507,1000,1000,1000,1000,69828724,1551,1551,1550,1552
64126006,1000,1000,1000,1000,69928684,1553,1553,1552,1555
64128505,1000,1000,1000,1000,70028644,1555,1554,1556,1560
64131004,1000,1000,1000,1000,70128604,1555,1555,1560,1562
64133503,1000,1000,1000,1000,70228564,1557,1557,1563,1563
64136002,1000,1000,1000,1000,70328524,1558,1559,1564,1563
64138501,1000,1000,1000,1000,70428484,1561,1562,1565,1565
64141000,1000,1000,1000,1000,70528444,1564,1564,1566,1565
64143499,1000,1000,1000,1000,70628404,1567,1567,1567,1566
64145998,1000,1000,1000,1000,70728364,1568,1567,1566,1566
64148497,1000,1000,1000,1000,70828324,1569,1570,1567,1567
64150996,1000,1000,1000,1000,70928284,1571,1572,1568,1568
64153495,1000,1000,1000,1000,71028244,1572,1573,1568,1568
64155994,1000,1000,1000,1000,71128204,1573,1573,1569,1569
64158493,1000,1000,1000,1000,71228164,1574,1574,1570,1571
64160992,1000,1000,1000,1000,71328957,1575,1574,1571,1572
64163491,1000,1000,1000,1000,71428917,1576,1575,1574,1572
64165990,1000,1000,1000,1000,71528877,1576,1575,1575,1573
64168489,1000,1000,1000,1000,71628837,1576,1576,1577,1575
64170988,1000,1000,1000,1000,71728797,1576,1576,1577,1576
64173487,1000,1000,1000,1000,71828757,1575,1575,1576,1575
64175986,1000,1000,1000,1000,71928717,1575,1575,1576,1577
64178485,1000,1000,1000,1000,72028677,1575,1576,1577,1577
64180984,1000,1000,1000,1000,72128637,1575,1575,1576,1577
64183483,1000,1000,1000,1000,72228597,1576,1576,1577,1577
64185982,1000,1000,1000,1000,72328557,1575,1575,1576,1576
64188481,1000,1000,1000,1000,72428517,1577,1577,1578,1577
64190980,1000,1000,1000,1000,72528477,1577,1577,1578,1577
64193479,1000,1000,1000,1000,72628437,1578,1578,1578,1577
64195978,1000,1000,1000,1000,72728397,1578,1577,1577,1577
64198477,1000,1000,1000,1000,72828357,1578,1577,1577,1577
64200976,1000,1000,1000,1000,72928317,1578,1578,1577,1578
64203475,1000,1000,1000,1000,73028277,1578,1578,1577,1577
64205974,1000,1000,1000,1000,73128237,1577,1578,1577,1577
64208473,1000,1000,1000,1000,73228197,1577,1577,1577,1577
64210972,1000,1000,1000,1000,73328157,1577,1577,1577,1577
64213471,1000,1000,1000,1000,73428950,1579,1579,1579,1579
64215970,1000,1000,1000,1000,73528910,1579,1579,1579,1579
64218469,1000,1000,1000,1000,73628870,1578,1578,1578,1578
64220968,1000,1000,1000,1000,73728830,1579,1579,1579,1579
64223467,1000,1000,1000,1000,73828790,1578,1579,1579,1579
64225966,1000,1000,1000,1000,73928750,1579,1579,1579,1580
64228465,1000,1000,1000,1000,74028710,1579,1579,1579,1579
64230964,1000,1000,1000,1000,74128670,1579,1579,1579,1579
64233463,1000,1000,1000,1000,74228630,1580,1580,1580,1580
64235962,1000,1000,1000,1000,74328590,1579,1579,1579,1579
64238461,1000,1000,1000,1000,74428550,1579,1579,1579,1579
64240960,1000,1000,1000,1000,74528510,1580,1580,1580,1580
64243459,1000,1000,1000,1000,74628470,1579,1579,1579,1579
64245958,1000,1000,1000,1000,74728430,1579,1579,1579,1579
64248457,1000,1000,1000,1000,74828390,1580,1580,1580,1580
64250956,1000,1000,1000,1000,74928350,1580,1580,1581,1580
64253455,1000,1000,1000,1000,75028310,1580,1580,1580,1580
64255954,1000,1000,1000,1000,75128270,1581,1581,1581,1581
64258453,1000,1000,1000,1000,75228230,1580,1580,1580,1580
64260952,1000,1000,1000,1000,75328190,1581,1581,1581,1581
64263451,1000,1000,1000,1000,75428983,1581,1581,1581,1581
64265950,1000,1000,1000,1000,75528943,1581,1580,1581,1581
64268449,1000,1000,1000,1000,75628903,1580,1580,1580,1580
64270948,1000,1000,1000,1000,75728863,1580,1580,1580,1581
64273447,1000,1000,1000,1000,75828823,1580,1581,1580,1581
64275946,1000,1000,1000,1000,75928783,1581,1581,1581,1581
64278445,1000,1000,1000,1000,76028743,1581,1581,1581,1580
64280944,1000,1000,1000,1000,76128703,1580,1580,1581,1580
64283443,1000,1000,1000,1000,76228663,1581,1581,1585,1577
64285942,1000,1000,1000,1000,76328623,1581,1582,1588,1573
64288441,1000,1000,1000,1000,76428583,1579,1582,1581,1573
64290940,1000,1000,1000,1000,76528543,1578,1580,1572,1573
64293439,1000,1000,1000,1000,76628503,1577,1579,1564,1570
64295938,1000,1000,1000,1000,76728463,1577,1579,1559,1566
64298437,1000,1000,1000,1000,76828423,1578,1578,1556,1561
64300936,1000,1000,1000,1000,76928383,1579,1578,1555,1557
64303435,1000,1000,1000,1000,77028343,1579,1577,1555,1554
64305934,1000,1000,1000,1000,77128303,1579,1577,1556,1554
64308433,1000,1000,1000,1000,77228263,1577,1577,1556,1554
64310932,1000,1000,1000,1000,77328223,1576,1577,1555,1553
64313431,1000,1000,1000,1000,77428183,1575,1577,1555,1554
64315930,1000,1000,1000,1000,77528976,1575,1577,1554,1554
64318429,1000,1000,1000,1000,77628936,1575,1576,1552,1553
64320928,1000,1000,1000,1000,77728896,1576,1578,1551,1552
64323427,1000,1000,1000,1000,77828856,1578,1579,1549,1550
64325926,1000,1000,1000,1000,77928816,1579,1580,1546,1546
64328425,1000,1000,1000,1000,78028776,1582,1583,1544,1544
64330924,1000,1000,1000,1000,78128736,1585,1586,1541,1541
64333423,1000,1000,1000,1000,78228696,1588,1589,1539,1538
64335922,1000,1000,1000,1000,78328656,1592,1592,1536,1537
64338421,1000,1000,1000,1000,78428616,1594,1594,1534,1534
64340920,1000,1000,1000,1000,78528576,1596,1595,1533,1535
64343419,1000,1000,1000,1000,78628536,1595,1595,1534,1536
64345918,1000,1000,1000,1000,78728496,1594,1594,1536,1539
64348417,1000,1000,1000,1000,78828456,1591,1590,1540,1543
64350916,1000,1000,1000,1000,78928416,1586,1584,1546,1549
64353415,1000,1000,1000,1000,79028376,1579,1576,1556,1558
64355914,1000,1000,1000,1000,79128336,1570,1566,1567,1570
64358413,1000,1000,1000,1000,79228296,1559,1555,1580,1582
64360912,1000,1000,1000,1000,79328256,1548,1545,1592,1593
64363411,1000,1000,1000,1000,79428216,1538,1536,1603,1603
64365910,1000,1000,1000,1000,79528176,1191,1191,1620,1619
64368409,1000,1000,1000,1000,79628969,1307,1315,1687,1692
64370908,1000,1000,1000,1000,79728929,1383,1393,1685,1683
64373407,1000,1000,1000,1000,79828889,1453,1464,1665,1657
64375906,1000,1000,1000,1000,79928849,1515,1520,1640,1631
64378405,1000,1000,1000,1000,80028809,1559,1559,1622,1615
64380904,1000,1000,1000,1000,80128769,1595,1582,1610,1605
64383403,1000,1000,1000,1000,80228729,1600,1584,1546,1551
64385902,1000,1000,1000,1000,80328689,1600,1588,1490,1503
64388401,1000,1000,1000,1000,80428649,1600,1598,1496,1508
64390900,1000,1000,1000,1000,80528609,1594,1600,1511,1516
64393399,1000,1000,1000,1000,80628569,1591,1600,1530,1528
64395898,1000,1000,1000,1000,80728529,1593,1600,1547,1542
64398397,1000,1000,1000,1000,80828489,1597,1600,1561,1557
64400896,1000,1000,1000,1000,80928449,1600,1598,1569,1567
64403395,1000,1000,1000,1000,81028409,1600,1596,1572,1572
64405894,1000,1000,1000,1000,81128369,1600,1596,1574,1577
64408393,1000,1000,1000,1000,81228329,1600,1597,1577,1580
64410892,1000,1000,1000,1000,81328289,1600,1599,1581,1583
64413391,1000,1000,1000,1000,81428249,1600,1597,1587,1580
64415890,1000,1000,1000,1000,81528209,1600,1596,1588,1583
64418389,1000,1000,1000,1000,81628169,1600,1596,1588,1586
64420888,1000,1000,1000,1000,81728962,1600,1597,1588,1588
64423387,1000,1000,1000,1000,81828922,1600,1599,1587,1591
64425886,1000,1000,1000,1000,81928882,1596,1600,1582,1588
64428385,1000,1000,1000,1000,82028842,1593,1600,1581,1584
64430884,1000,1000,1000,1000,82128802,1592,1600,1581,1582
64433383,1000,1000,1000,1000,82228762,1593,1600,1582,1580
64435882,1000,1000,1000,1000,82328722,1594,1600,1582,1580
64438381,1000,1000,1000,1000,82428682,1595,1600,1583,1580
64440880,1000,1000,1000,1000,82528642,1597,1600,1583,1581
64443379,1000,1000,1000,1000,82628602,1599,1600,1582,1582
64445878,1000,1000,1000,1000,82728562,1600,1599,1581,1581
64448377,1000,1000,1000,1000,82828522,1600,1597,1581,1576
64450876,1000,1000,1000,1000,82928482,1600,1593,1581,1575
64453375,1000,1000,1000,1000,83028442,1600,1592,1580,1579
64455874,1000,1000,1000,1000,83128402,1600,1592,1579,1583
64458373,1000,1000,1000,1000,83228362,1600,1596,1581,1586
64460872,1000,1000,1000,1000,83328322,1599,1600,1583,1587
64463371,1000,1000,1000,1000,83428282,1594,1598,1579,1582
64465870,1000,1000,1000,1000,83528242,1589,1594,1574,1575
64468369,1000,1000,1000,1000,83628202,1586,1591,1571,1569
64470868,1000,1000,1000,1000,83728162,1585,1588,1570,1566
64473367,1000,1000,1000,1000,83828955,1585,1586,1569,1565
64475866,1000,1000,1000,1000,83928915,1586,1585,1568,1566
64478365,1000,1000,1000,1000,84028875,1587,1584,1567,1567
64480864,1000,1000,1000,1000,84128835,1587,1584,1567,1568
64483363,1000,1000,1000,1000,84228795,1587,1584,1568,1567
64485862,1000,1000,1000,1000,84328755,1589,1581,1571,1564
64488361,1000,1000,1000,1000,84428715,1588,1580,1568,1566
64490860,1000,1000,1000,1000,84528675,1584,1580,1562,1565
64493359,1000,1000,1000,1000,84628635,1580,1581,1559,1562
64495858,1000,1000,1000,1000,84728595,1577,1582,1558,1559
64498357,1000,1000,1000,1000,84828555,1575,1581,1557,1556
64500856,1000,1000,1000,1000,84928515,1576,1580,1558,1554
64503355,1000,1000,1000,1000,85028475,1577,1579,1559,1554
64505854,1000,1000,1000,1000,85128435,1571,1570,1566,1563
64508353,1000,1000,1000,1000,85228395,1560,1558,1578,1577
64510852,1000,1000,1000,1000,85328355,1549,1547,1585,1586
64513351,1000,1000,1000,1000,85428315,1542,1542,1587,1589
64515850,1000,1000,1000,1000,85528275,1541,1543,1585,1587
64518349,1000,1000,1000,1000,85628235,1541,1545,1580,1581
64520848,1000,1000,1000,1000,85728195,1545,1549,1574,1574
64523347,1000,1000,1000,1000,85828155,1551,1554,1570,1567
64525846,1000,1000,1000,1000,85928948,1555,1557,1563,1560
64528345,1000,1000,1000,1000,86028908,1562,1563,1556,1553
64530844,1000,1000,1000,1000,86128868,1573,1571,1545,1543
64533343,1000,1000,1000,1000,86228828,1583,1581,1534,1534
64535842,1000,1000,1000,1000,86328788,1591,1589,1527,1526
64538341,1000,1000,1000,1000,86428748,1595,1595,1523,1524
64540840,1000,1000,1000,1000,86528708,1595,1595,1526,1527
64543339,1000,1000,1000,1000,86628668,1591,1593,1531,1533
64545838,1000,1000,1000,1000,86728628,1589,1591,1537,1538
64548337,1000,1000,1000,1000,86828588,1587,1589,1541,1541
64550836,1000,1000,1000,1000,86928548,1585,1586,1544,1544
64553335,1000,1000,1000,1000,87028508,1585,1584,1546,1547
64555834,1000,1000,1000,1000,87128468,1584,1583,1548,1549
64558333,1000,1000,1000,1000,87228428,1584,1583,1550,1551
64560832,1000,1000,1000,1000,87328388,1583,1582,1549,1552
64563331,1000,1000,1000,1000,87428348,1583,1582,1551,1553
64565830,1000,1000,1000,1000,87528308,1580,1578,1556,1560
64568329,1000,1000,1000,1000,87628268,1570,1568,1565,1570
64570828,1000,1000,1000,1000,87728228,1560,1560,1575,1578
64573327,1000,1000,1000,1000,87828188,1553,1553,1582,1584
64575826,1000,1000,1000,1000,87928981,1548,1549,1587,1587
64578325,1000,1000,1000,1000,88028941,1546,1546,1590,1590
64580824,1000,1000,1000,1000,88128901,1544,1544,1592,1590
64583323,1000,1000,1000,1000,88228861,1545,1544,1594,1592
64585822,1000,1000,1000,1000,88328821,1545,1545,1594,1592
64588321,1000,1000,1000,1000,88428781,1546,1546,1593,1592
64590820,1000,1000,1000,1000,88528741,1549,1549,1592,1592
64593319,1000,1000,1000,1000,88628701,1550,1551,1589,1589
64595818,1000,1000,1000,1000,88728661,1554,1555,1588,1588
64598317,1000,1000,1000,1000,88828621,1557,1558,1585,1586
64600816,1000,1000,1000,1000,88928581,1562,1562,1584,1584
64603315,1000,1000,1000,1000,89028541,1566,1566,1583,1582
64605814,1000,1000,1000,1000,89128501,1569,1569,1581,1580
64608313,1000,1000,1000,1000,89228461,1573,1572,1580,1579
64610812,1000,1000,1000,1000,89328421,1575,1574,1578,1578
64613311,1000,1000,1000,1000,89428381,1578,1577,1577,1577
64615810,1000,1000,1000,1000,89528341,1580,1579,1577,1577
64618309,1000,1000,1000,1000,89628301,1581,1580,1576,1576
64620808,1000,1000,1000,1000,89728261,1581,1581,1574,1574
64623307,1000,1000,1000,1000,89828221,1582,1582,1574,1575
64625806,1000,1000,1000,1000,89928181,1582,1583,1575,1575
64628305,1000,1000,1000,1000,90028974,1582,1583,1575,1575
64630804,1000,1000,1000,1000,90128934,1583,1583,1576,1575
64633303,1000,1000,1000,1000,90228894,1583,1583,1575,1575
64635802,1000,1000,1000,1000,90328854,1583,1583,1576,1576
64638301,1000,1000,1000,1000,90428814,1582,1582,1577,1576
64640800,1000,1000,1000,1000,90528774,1582,1581,1576,1576
64643299,1000,1000,1000,1000,90628734,1582,1582,1578,1578
64645798,1000,1000,1000,1000,90728694,1581,1581,1578,1578
64648297,1000,1000,1000,1000,90828654,1581,1581,1578,1578
64650796,1000,1000,1000,1000,90928614,1580,1581,1578,1578
64653295,1000,1000,1000,1000,91028574,1580,1580,1578,1578
64655794,1000,1000,1000,1000,91128534,1580,1580,1579,1579
64658293,1000,1000,1000,1000,91228494,1580,1581,1580,1579
64660792,1000,1000,1000,1000,91328454,1581,1581,1581,1581
64663291,1000,1000,1000,1000,91428414,1580,1581,1581,1580
64665790,1000,1000,1000,1000,91528374,1580,1580,1580,1580
64668289,1000,1000,1000,1000,91628334,1580,1580,1580,1580
64670788,1000,1000,1000,1000,91728294,1580,1579,1580,1580
64673287,1000,1000,1000,1000,91828254,1580,1580,1580,1581
64675786,1000,1000,1000,1000,91928214,1580,1580,1580,1580
64678285,1000,1000,1000,1000,92028174,1579,1580,1579,1580
64680784,1000,1000,1000,1000,92128967,1579,1580,1580,1579
64683283,1000,1000,1000,1000,92228927,1580,1580,1580,1579
64685782,1000,1000,1000,1000,92328887,1580,1581,1581,1581
64688281,1000,1000,1000,1000,92428847,1581,1581,1581,1580
64690780,1000,1000,1000,1000,92528807,1581,1580,1581,1581
64693279,1000,1000,1000,1000,92628767,1581,1580,1581,1581
64695778,1000,1000,1000,1000,92728727,1580,1580,1579,1580
64698277,1000,1000,1000,1000,92828687,1581,1581,1581,1581
64700776,1000,1000,1000,1000,92928647,1581,1581,1581,1581
64703275,1000,1000,1000,1000,93028607,1581,1582,1581,1581
64705774,1000,1000,1000,1000,93128567,1582,1582,1582,1582
64708273,1000,1000,1000,1000,93228527,1582,1582,1582,1581
64710772,1000,1000,1000,1000,93328487,1582,1582,1582,1582
64713271,1000,1000,1000,1000,93428447,1582,1582,1588,1575
64715770,1000,1000,1000,1000,93528407,1582,1581,1586,1574
64718269,1000,1000,1000,1000,93628367,1582,1580,1578,1574
64720768,1000,1000,1000,1000,93728327,1579,1579,1569,1572
64723267,1000,1000,1000,1000,93828287,1577,1579,1563,1569
64725766,1000,1000,1000,1000,93928247,1576,1578,1558,1564
64728265,1000,1000,1000,1000,94028207,1576,1578,1558,1560
64730764,1000,1000,1000,1000,94128167,1576,1577,1558,1558
64733263,1000,1000,1000,1000,94228960,1576,1577,1558,1556
64735762,1000,1000,1000,1000,94328920,1576,1576,1557,1555
64738261,1000,1000,1000,1000,94428880,1575,1574,1555,1554
64740760,1000,1000,1000,1000,94528840,1576,1575,1555,1554
64743259,1000,1000,1000,1000,94628800,1575,1575,1554,1553
64745758,1000,1000,1000,1000,94728760,1575,1576,1553,1553
64748257,1000,1000,1000,1000,94828720,1575,1576,1551,1551
64750756,1000,1000,1000,1000,94928680,1576,1578,1551,1551
64753255,1000,1000,1000,1000,95028640,1577,1579,1549,1549
64755754,1000,1000,1000,1000,95128600,1578,1580,1547,1546
64758253,1000,1000,1000,1000,95228560,1581,1582,1545,1545
64760752,1000,1000,1000,1000,95328520,1582,1583,1542,1542
64763251,1000,1000,1000,1000,95428480,1585,1586,1542,1541
64765750,1000,1000,1000,1000,95528440,1587,1588,1541,1541
64768249,1000,1000,1000,1000,95628400,1589,1589,1540,1539
64770748,1000,1000,1000,1000,95728360,1591,1590,1540,1540
64773247,1000,1000,1000,1000,95828320,1592,1590,1541,1542
64775746,1000,1000,1000,1000,95928280,1591,1590,1542,1545
64778245,1000,1000,1000,1000,96028240,1589,1588,1545,1547
64780744,1000,1000,1000,1000,96128200,1586,1586,1548,1552
64783243,1000,1000,1000,1000,96228160,1582,1582,1553,1556
64785742,1000,1000,1000,1000,96328953,1578,1576,1560,1562
64788241,1000,1000,1000,1000,96428913,1571,1569,1568,1570
64790740,1000,1000,1000,1000,96528873,1565,1562,1578,1579
64793239,1000,1000,1000,1000,96628833,1556,1554,1588,1589
64795738,1000,1000,1000,1000,96728793,1547,1544,1596,1596
64798237,1000,1000,1000,1000,96828753,1539,1538,1604,1603
64800736,1000,1000,1000,1000,96928713,1534,1534,1609,1608
64803235,1000,1000,1000,1000,97028673,1531,1532,1611,1610
64805734,1000,1000,1000,1000,97128633,1531,1533,1610,1608
64808233,1000,1000,1000,1000,97228593,1534,1537,1606,1605
64810732,1000,1000,1000,1000,97328553,1541,1543,1601,1602
64813231,1000,1000,1000,1000,97428513,1548,1549,1594,1595
64815730,1000,1000,1000,1000,97528473,1555,1556,1587,1587
64818229,1000,1000,1000,1000,97628433,1564,1564,1582,1581
64820728,1000,1000,1000,1000,97728393,1572,1571,1577,1575
64823227,1000,1000,1000,1000,97828353,1578,1577,1571,1570
64825726,1000,1000,1000,1000,97928313,1584,1582,1568,1567
64828225,1000,1000,1000,1000,98028273,1588,1586,1566,1566
64830724,1000,1000,1000,1000,98128233,1590,1588,1566,1566
64833223,1000,1000,1000,1000,98228193,1589,1588,1566,1567
64835722,1000,1000,1000,1000,98328986,1588,1588,1568,1569
64838221,1000,1000,1000,1000,98428946,1587,1587,1571,1571
64840720,1000,1000,1000,1000,98528906,1585,1585,1573,1573
64843219,1000,1000,1000,1000,98628866,1583,1583,1576,1576
64845718,1000,1000,1000,1000,98728826,1581,1581,1579,1578
64848217,1000,1000,1000,1000,98828786,1579,1580,1581,1581
64850716,1000,1000,1000,1000,98928746,1577,1578,1582,1582
64853215,1000,1000,1000,1000,99028706,1575,1576,1584,1583
64855714,1000,1000,1000,1000,99128666,1574,1575,1584,1584
64858213,1000,1000,1000,1000,99228626,1574,1574,1584,1584
64860712,1000,1000,1000,1000,99328586,1574,1574,1584,1584
64863211,1000,1000,1000,1000,99428546,1574,1574,1583,1583
64865710,1000,1000,1000,1000,99528506,1575,1575,1582,1582
64868209,1000,1000,1000,1000,99628466,1576,1576,1581,1581
64870708,1000,1000,1000,1000,99728426,1577,1577,1580,1580
64873207,1000,1000,1000,1000,99828386,1579,1579,1580,1580
64875706,1000,1000,1000,1000,99928346,1580,1580,1580,1579
64878205,1000,1000,1000,1000,100028306,1581,1581,1578,1578
64880704,1000,1000,1000,1000,100128266,1581,1581,1577,1577
64883203,1000,1000,1000,1000,100228226,1582,1582,1578,1578
64885702,1000,1000,1000,1000,100328186,1582,1582,1577,1578
64888201,1000,1000,1000,1000,100428979,1582,1582,1578,1578
64890700,1000,1000,1000,1000,100528939,1583,1583,1579,1579
64893199,1000,1000,1000,1000,100628899,1583,1583,1580,1580
64895698,1000,1000,1000,1000,100728859,1582,1582,1580,1580
64898197,1000,1000,1000,1000,100828819,1582,1582,1581,1581
64900696,1000,1000,1000,1000,100928779,1582,1582,1582,1582
64903195,1000,1000,1000,1000,101028739,1581,1581,1581,1581
64905694,1000,1000,1000,1000,101128699,1581,1581,1581,1582
64908193,1000,1000,1000,1000,101228659,1580,1581,1582,1582
64910692,1000,1000,1000,1000,101328619,1580,1580,1582,1582
64913191,1000,1000,1000,1000,101428579,1580,1580,1581,1581
64915690,1000,1000,1000,1000,101528539,1581,1581,1582,1582
64918189,1000,1000,1000,1000,101628499,1581,1581,1587,1576
64920688,1000,1000,1000,1000,101728459,1580,1580,1587,1573
64923187,1000,1000,1000,1000,101828419,1579,1578,1581,1574
64925686,1000,1000,1000,1000,101928379,1576,1575,1572,1574
64928185,1000,1000,1000,1000,102028339,1573,1572,1566,1572
64930684,1000,1000,1000,1000,102128299,1570,1571,1564,1570
64933183,1000,1000,1000,1000,102228259,1568,1568,1562,1567
64935682,1000,1000,1000,1000,102328219,1566,1567,1563,1565
64938181,1000,1000,1000,1000,102428179,1566,1567,1566,1565
64940680,1000,1000,1000,1000,102528972,1565,1566,1567,1565
64943179,1000,1000,1000,1000,102628932,1564,1565,1567,1565
64945678,1000,1000,1000,1000,102728892,1564,1564,1567,1565
64948177,1000,1000,1000,1000,102828852,1563,1563,1567,1565
64950676,1000,1000,1000,1000,102928812,1563,1562,1565,1565
64953175,1000,1000,1000,1000,103028772,1562,1561,1563,1564
64955674,1000,1000,1000,1000,103128732,1561,1562,1563,1563
64958173,1000,1000,1000,1000,103228692,1561,1561,1563,1563
64960672,1000,1000,1000,1000,103328652,1561,1561,1562,1562
64963171,1000,1000,1000,1000,103428612,1561,1561,1562,1561
64965670,1000,1000,1000,1000,103528572,1561,1561,1561,1560
64968169,1000,1000,1000,1000,103628532,1560,1560,1560,1560
64970668,1000,1000,1000,1000,103728492,1560,1560,1560,1559
64973167,1000,1000,1000,1000,103828452,1560,1560,1560,1559
64975666,1000,1000,1000,1000,103928412,1559,1559,1559,1558
64978165,1000,1000,1000,1000,104028372,1560,1560,1560,1559
64980664,1000,1000,1000,1000,104128332,1561,1560,1560,1559
64983163,1000,1000,1000,1000,104228292,1560,1560,1560,1559
64985662,1000,1000,1000,1000,104328252,1560,1559,1560,1557
64988161,1000,1000,1000,1000,104428212,1560,1559,1561,1559
64990660,1000,1000,1000,1000,104528172,1561,1560,1560,1562
64993159,1000,1000,1000,1000,104628965,1560,1560,1558,1563
64995658,1000,1000,1000,1000,104728925,1560,1560,1557,1564
64998157,1000,1000,1000,1000,104828885,1561,1562,1559,1565
65000656,1000,1000,1000,1000,104928845,1561,1562,1560,1564
65003155,1000,1000,1000,1000,105028805,1560,1561,1562,1560
65005654,1000,1000,1000,1000,105128765,1560,1560,1561,1558
65008986,1000,1000,1000,1000,105228725,1559,1559,1560,1555
65011485,1000,1000,1000,1000,105328685,1559,1559,1556,1560
65013984,1000,1000,1000,1000,105428645,1558,1557,1553,1559
65016483,1000,1000,1000,1000,105528605,1554,1554,1549,1553
65018982,1000,1000,1000,1000,105628565,1549,1549,1544,1546
65021481,1000,1000,1000,1000,105728525,1544,1544,1540,1539
65023980,1000,1000,1000,1000,105828485,1537,1538,1532,1531
65026479,1000,1000,1000,1000,105928445,1530,1531,1525,1523
65028978,1000,1000,1000,1000,106028405,1524,1525,1520,1519
65031477,1000,1000,1000,1000,106128365,1522,1522,1519,1519
65033976,1000,1000,1000,1000,106228325,1520,1520,1520,1520
65036475,1000,1000,1000,1000,106328285,1519,1519,1522,1523
65038974,1000,1000,1000,1000,106428245,1520,1520,1525,1526
65041473,1000,1000,1000,1000,106528205,1524,1523,1532,1532
65043972,1000,1000,1000,1000,106628165,1527,1526,1536,1537
65046471,1000,1000,1000,1000,106728958,1531,1530,1541,1541
65048970,1000,1000,1000,1000,106828918,1534,1534,1543,1543
65051469,1000,1000,1000,1000,106928878,1537,1537,1545,1544
65053968,1000,1000,1000,1000,107028838,1541,1541,1546,1546
65056467,1000,1000,1000,1000,107128798,1543,1543,1546,1546
65058966,1000,1000,1000,1000,107228758,1545,1546,1545,1545
65061465,1000,1000,1000,1000,107328718,1547,1548,1545,1544
65063964,1000,1000,1000,1000,107428678,1549,1549,1544,1544
65066463,1000,1000,1000,1000,107528638,1549,1549,1543,1543
65068962,1000,1000,1000,1000,107628598,1550,1550,1544,1544
65071461,1000,1000,1000,1000,107728558,1550,1549,1543,1543
65073960,1000,1000,1000,1000,107828518,1550,1550,1544,1544
65076459,1000,1000,1000,1000,107928478,1549,1549,1544,1544
65078958,1000,1000,1000,1000,108028438,1548,1548,1544,1544
65081457,1000,1000,1000,1000,108128398,1547,1547,1545,1544
65083956,1000,1000,1000,1000,108228358,1546,1546,1545,1545
65086455,1000,1000,1000,1000,108328318,1545,1545,1545,1545
65088954,1000,1000,1000,1000,108428278,1543,1544,1545,1545
65091453,1000,1000,1000,1000,108528238,1543,1544,1546,1546
65093952,1000,1000,1000,1000,108628198,1543,1543,1545,1545
65096451,1000,1000,1000,1000,108728158,1543,1542,1545,1545
65098950,1000,1000,1000,1000,108828951,1543,1542,1545,1545
65101449,1000,1000,1000,1000,108928911,1543,1542,1545,1545
65103948,1000,1000,1000,1000,109028871,1543,1543,1545,1545
65106447,1000,1000,1000,1000,109128831,1544,1543,1545,1545
65108946,1000,1000,1000,1000,109228791,1543,1543,1544,1544
65111445,1000,1000,1000,1000,109328751,1543,1543,1543,1543
65113944,1000,1000,1000,1000,109428711,1543,1544,1542,1543
65116443,1000,1000,1000,1000,109528671,1544,1544,1544,1544
65118942,1000,1000,1000,1000,109628631,1544,1544,1543,1543
65121441,1000,1000,1000,1000,109728591,1544,1544,1543,1543
65123940,1000,1000,1000,1000,109828551,1544,1544,1543,1542
65126439,1000,1000,1000,1000,109928511,1545,1545,1544,1544
65128938,1000,1000,1000,1000,110028471,1544,1544,1543,1543
65131437,1000,1000,1000,1000,110128431,1545,1545,1544,1544
65133936,1000,1000,1000,1000,110228391,1545,1545,1545,1545
65136435,1000,1000,1000,1000,110328351,1545,1544,1545,1545
65138934,1000,1000,1000,1000,110428311,1545,1545,1545,1545
65141433,1000,1000,1000,1000,110528271,1545,1545,1545,1546
65143932,1000,1000,1000,1000,110628231,1545,1545,1545,1545
65146431,1000,1000,1000,1000,110728191,1546,1545,1546,1546
65148930,1000,1000,1000,1000,110828984,1545,1545,1546,1545
65151429,1000,1000,1000,1000,110928944,1545,1544,1545,1544
65153928,1000,1000,1000,1000,111028904,1544,1545,1544,1544
65156427,1000,1000,1000,1000,111128864,1544,1544,1544,1544
65158926,1000,1000,1000,1000,111228824,1544,1544,1544,1544
65161425,1000,1000,1000,1000,111328784,1545,1544,1544,1545
65163924,1000,1000,1000,1000,111428744,1544,1544,1543,1543
65166423,1000,1000,1000,1000,111528704,1544,1544,1543,1544
65168922,1000,1000,1000,1000,111628664,1543,1544,1544,1544
65171421,1000,1000,1000,1000,111728624,1544,1544,1544,1543
65173920,1000,1000,1000,1000,111828584,1544,1544,1544,1544
65176419,1000,1000,1000,1000,111928544,1544,1544,1544,1544
65178918,1000,1000,1000,1000,112028504,1544,1544,1545,1545
65181417,1000,1000,1000,1000,112128464,1543,1543,1543,1543
65183916,1000,1000,1000,1000,112228424,1543,1544,1544,1544
65186415,1000,1000,1000,1000,112328384,1543,1543,1543,1543
65188914,1000,1000,1000,1000,112428344,1544,1544,1544,1544
65191413,1000,1000,1000,1000,112528304,1544,1544,1545,1545
65193912,1000,1000,1000,1000,112628264,1544,1544,1544,1544
65196411,1000,1000,1000,1000,112728224,1544,1543,1543,1544
65198910,1000,1000,1000,1000,112828184,1544,1544,1544,1544
65201409,1000,1000,1000,1000,112928977,1544,1544,1544,1544
65203908,1000,1000,1000,1000,113028937,1544,1545,1545,1545
65206407,1000,1000,1000,1000,113128897,1544,1544,1544,1544
65208906,1000,1000,1000,1000,113228857,1544,1544,1544,1544
65211405,1000,1000,1000,1000,113328817,1544,1543,1543,1543
65213904,1000,1000,1000,1000,113428777,1544,1544,1545,1544
65216403,1000,1000,1000,1000,113528737,1544,1544,1544,1545
65218902,1000,1000,1000,1000,113628697,1544,1545,1545,1545
65221401,1000,1000,1000,1000,113728657,1544,1544,1544,1544
65223900,1000,1000,1000,1000,113828617,1544,1544,1544,1544
65226399,1000,1000,1000,1000,113928577,1544,1545,1544,1544
65228898,1000,1000,1000,1000,114028537,1545,1545,1545,1545
65231397,1000,1000,1000,1000,114128497,1545,1544,1545,1545
65233896,1000,1000,1000,1000,114228457,1545,1545,1545,1545
65236395,1000,1000,1000,1000,114328417,1545,1545,1545,1546
65238894,1000,1000,1000,1000,114428377,1544,1544,1544,1544
65241393,1000,1000,1000,1000,114528337,1544,1544,1544,1544
65243892,1000,1000,1000,1000,114628297,1544,1544,1544,1543
65246391,1000,1000,1000,1000,114728257,1544,1545,1544,1545
65248890,1000,1000,1000,1000,114828217,1545,1544,1544,1545
65251389,1000,1000,1000,1000,114928177,1545,1544,1544,1545
65253888,1000,1000,1000,1000,115028970,1544,1544,1544,1544
65256387,1000,1000,1000,1000,115128930,1545,1544,1544,1544
65258886,1000,1000,1000,1000,115228890,1544,1544,1544,1544
65261385,1000,1000,1000,1000,115328850,1544,1544,1544,1544
65263884,1000,1000,1000,1000,115428810,1544,1544,1544,1544
65266383,1000,1000,1000,1000,115528770,1544,1544,1543,1543
65268882,1000,1000,1000,1000,115628730,1543,1543,1543,1542
65271381,1000,1000,1000,1000,115728690,1541,1539,1539,1538
65273880,1000,1000,1000,1000,115828650,1418,1419,1349,1349
65276379,1000,1000,1000,1000,115928610,1360,1361,1244,1245
65278878,1000,1000,1000,1000,116028570,1343,1344,1211,1210
65281377,1000,1000,1000,1000,116128530,1332,1332,1187,1187
65283876,1000,1000,1000,1000,116228490,1315,1315,1150,1150
65286375,1000,1000,1000,1000,116328450,1239,1240,1150,1150
65288874,1000,1000,1000,1000,116428410,1144,1145,1151,1150
65291373,1000,1000,1000,1000,116528370,1039,1040,1150,1150
65293872,1000,1000,1000,1000,116628330,975,977,1151,1150
65296371,1000,1000,1000,1000,116728290,976,977,1150,1150
65298870,1000,1000,1000,1000,116828250,975,977,1151,1150
65301369,1000,1000,1000,1000,116928210,977,959,1150,1174
65303868,1000,1000,1000,1000,117028170,977,965,1150,1166
65306367,1000,1000,1000,1000,117128963,976,969,1150,1161
65308866,1000,1000,1000,1000,117228923,976,970,1150,1160
65311365,1000,1000,1000,1000,117328883,976,969,1150,1160
65313864,1000,1000,1000,1000,117428843,976,969,1150,1160
65316363,1000,1000,1000,1000,117528803,976,968,1150,1161
65318862,1000,1000,1000,1000,117628763,976,968,1150,1161
65321361,1000,1000,1000,1000,117728723,977,977,1150,1150
65323860,1000,1000,1000,1000,117828683,977,975,1150,1151
65326359,1000,1000,1000,1000,117928643,977,975,1150,1152
65328858,1000,1000,1000,1000,118028603,977,975,1150,1152
65331357,1000,1000,1000,1000,118128563,977,975,1150,1152
65333856,1000,1000,1000,1000,118228523,1000,1000,1000,1000
65336355,1000,1000,1000,1000,118328483,1000,1000,1000,1000
65338854,1000,1000,1000,1000,118428443,1000,1000,1000,1000
65341353,1000,1000,1000,1000,118528403,1000,1000,1000,1000
65343852,1000,1000,1000,1000,118628363,1000,1000,1000,1000
65346351,1000,1000,1000,1000,118728323,1000,1000,1000,1000
65348850,1000,1000,1000,1000,118828283,1000,1000,1000,1000
65351349,1000,1000,1000,1000,118928243,1000,1000,1000,1000
65353848,1000,1000,1000,1000,119028203,1000,1000,1000,1000
65356347,1000,1000,1000,1000,119128163,1000,1000,1000,1000
65358846,1000,1000,1000,1000,119228956,1000,1000,1000,1000
65361345,1000,1000,1000,1000,119328916,1000,1000,1000,1000
65363844,1000,1000,1000,1000,119428876,1000,1000,1000,1000
65366343,1000,1000,1000,1000,119528836,1000,1000,1000,1000
65368842,1000,1000,1000,1000,119628796,1000,1000,1000,1000
65371341,1000,1000,1000,1000,119728756,1000,1000,1000,1000
65373840,1000,1000,1000,1000,119828716,1000,1000,1000,1000
65376339,1000,1000,1000,1000,119928676,1000,1000,1000,1000
65378838,1000,1000,1000,1000,120028636,1000,1000,1000,1000
65381337,1000,1000,1000,1000,120128596,1000,1000,1000,1000
65383836,1000,1000,1000,1000,120228556,1000,1000,1000,1000
65386335,1000,1000,1000,1000,120328516,1000,1000,1000,1000
65388834,1000,1000,1000,1000,120428476,1000,1000,1000,1000
65391333,1000,1000,1000,1000,120528436,1000,1000,1000,1000
65393832,1000,1000,1000,1000,120628396,1000,1000,1000,1000
65396331,1000,1000,1000,1000,120728356,1000,1000,1000,1000
65398830,1000,1000,1000,1000,120828316,1000,1000,1000,1000
65401329,1000,1000,1000,1000,120928276,1000,1000,1000,1000
65403828,1000,1000,1000,1000,121028236,1000,1000,1000,1000
65406327,1000,1000,1000,1000,121128196,1000,1000,1000,1000
65408826,1000,1000,1000,1000,121228156,1000,1000,1000,1000
65411325,1000,1000,1000,1000,121328949,1000,1000,1000,1000
65413824,1000,1000,1000,1000,121428909,1000,1000,1000,1000
65416323,1000,1000,1000,1000,121528869,1000,1000,1000,1000
65418822,1000,1000,1000,1000,121628829,1000,1000,1000,1000
65421321,1000,1000,1000,1000,121728789,1000,1000,1000,1000
65423820,1000,1000,1000,1000,121828749,1000,1000,1000,1000
65426319,1000,1000,1000,1000,121928709,1000,1000,1000,1000
65428818,1000,1000,1000,1000,122028669,1000,1000,1000,1000
65431317,1000,1000,1000,1000,122128629,1000,1000,1000,1000
65433816,1000,1000,1000,1000,122228589,1000,1000,1000,1000
65436315,1000,1000,1000,1000,122328549,1000,1000,1000,1000
65438814,1000,1000,1000,1000,122428509,1000,1000,1000,1000
65441313,1000,1000,1000,1000,122528469,1000,1000,1000,1000
65443812,1000,1000,1000,1000,122628429,1000,1000,1000,1000
65446311,1000,1000,1000,1000,122728389,1000,1000,1000,1000
65448810,1000,1000,1000,1000,122828349,1000,1000,1000,1000
65451309,1000,1000,1000,1000,122928309,1000,1000,1000,1000
65453808,1000,1000,1000,1000,123028269,1000,1000,1000,1000
65456307,1000,1000,1000,1000,123128229,1000,1000,1000,1000
65458806,1000,1000,1000,1000,123228189,1000,1000,1000,1000
65461305,1000,1000,1000,1000,123328982,1000,1000,1000,1000
65463804,1000,1000,1000,1000,123428942,1000,1000,1000,1000
65466303,1000,1000,1000,1000,123528902,1000,1000,1000,1000
65468802,1000,1000,1000,1000,123628862,1000,1000,1000,1000
65471301,1000,1000,1000,1000,123728822,1000,1000,1000,1000
65473800,1000,1000,1000,1000,123828782,1000,1000,1000,1000
65476299,1000,1000,1000,1000,123928742,1000,1000,1000,1000
65478798,1000,1000,1000,1000,124028702,1000,1000,1000,1000
65481297,1000,1000,1000,1000,124128662,1000,1000,1000,1000
65483796,1000,1000,1000,1000,124228622,1000,1000,1000,1000
65486295,1000,1000,1000,1000,124328582,1000,1000,1000,1000
65488794,1000,1000,1000,1000,124428542,1000,1000,1000,1000
65491293,1000,1000,1000,1000,124528502,1000,1000,1000,1000
65493792,1000,1000,1000,1000,124628462,1000,1000,1000,1000
65496291,1000,1000,1000,1000,124728422,1000,1000,1000,1000
65498790,1000,1000,1000,1000,124828382,1000,1000,1000,1000
65501289,1000,1000,1000,1000,124928342,1000,1000,1000,1000
65503788,1000,1000,1000,1000,125028302,1000,1000,1000,1000
65506287,1000,1000,1000,1000,125128262,1000,1000,1000,1000
65508786,1000,1000,1000,1000,125228222,1000,1000,1000,1000
65511285,1000,1000,1000,1000,125328182,1000,1000,1000,1000
65513784,1000,1000,1000,1000,125428975,1000,1000,1000,1000
65516283,1000,1000,1000,1000,125528935,1000,1000,1000,1000
65518782,1000,1000,1000,1000,125628895,1000,1000,1000,1000
65521281,1000,1000,1000,1000,125728855,1000,1000,1000,1000
65523780,1000,1000,1000,1000,125828815,1000,1000,1000,1000
65526279,1000,1000,1000,1000,125928775,1000,1000,1000,1000
65528778,1000,1000,1000,1000,126028735,1000,1000,1000,1000
65531277,1000,1000,1000,1000,126128695,1000,1000,1000,1000
65533776,1000,1000,1000,1000,126228655,1000,1000,1000,1000
65536275,1000,1000,1000,1000,126328615,1000,1000,1000,1000
65538774,1000,1000,1000,1000,126428575,1000,1000,1000,1000
65541273,1000,1000,1000,1000,126528535,1000,1000,1000,1000
65543772,1000,1000,1000,1000,126628495,1000,1000,1000,1000
65546271,1000,1000,1000,1000,126728455,1000,1000,1000,1000
65548770,1000,1000,1000,1000,126828415,1000,1000,1000,1000
65551269,1000,1000,1000,1000,126928375,1000,1000,1000,1000
65553768,1000,1000,1000,1000,127028335,1000,1000,1000,1000
65556267,1000,1000,1000,1000,127128295,1000,1000,1000,1000
65558766,1000,1000,1000,1000,127228255,1000,1000,1000,1000
65561265,1000,1000,1000,1000,127328215,1000,1000,1000,1000
65563764,1000,1000,1000,1000,127428175,1000,1000,1000,1000
65566263,1000,1000,1000,1000,127528968,1000,1000,1000,1000
65568762,1000,1000,1000,1000,127628928,1000,1000,1000,1000
65571261,1000,1000,1000,1000,127728888,1000,1000,1000,1000
65573760,1000,1000,1000,1000,127828848,1000,1000,1000,1000
65576259,1000,1000,1000,1000,127928808,1000,1000,1000,1000
65578758,1000,1000,1000,1000,128028768,1000,1000,1000,1000
65581257,1000,1000,1000,1000,128128728,1000,1000,1000,1000
65583756,1000,1000,1000,1000,128228688,1000,1000,1000,1000
65586255,1000,1000,1000,1000,128328648,1000,1000,1000,1000
65588754,1000,1000,1000,1000,128428608,1000,1000,1000,1000
65591253,1000,1000,1000,1000,128528568,1000,1000,1000,1000
65593752,1000,1000,1000,1000,128628528,1000,1000,1000,1000
65596251,1000,1000,1000,1000,128728488,1000,1000,1000,1000
65598750,1000,1000,1000,1000,128828448,1000,1000,1000,1000
65601249,1000,1000,1000,1000,128928408,1000,1000,1000,1000
65603748,1000,1000,1000,1000,129028368,1000,1000,1000,1000
65606247,1000,1000,1000,1000,129128328,1000,1000,1000,1000
65608746,1000,1000,1000,1000,129228288,1000,1000,1000,1000
65611245,1000,1000,1000,1000,129328248,1000,1000,1000,1000
65613744,1000,1000,1000,1000,129428208,1000,1000,1000,1000
65616243,1000,1000,1000,1000,129528168,1000,1000,1000,1000
65618742,1000,1000,1000,1000,129628961,1000,1000,1000,1000
65621241,1000,1000,1000,1000,129728921,1000,1000,1000,1000
65623740,1000,1000,1000,1000,129828881,1000,1000,1000,1000
65626239,1000,1000,1000,1000,129928841,1000,1000,1000,1000
65628738,1000,1000,1000,1000,130028801,1000,1000,1000,1000
65631237,1000,1000,1000,1000,130128761,1000,1000,1000,1000
65633736,1000,1000,1000,1000,130228721,1000,1000,1000,1000
65636235,1000,1000,1000,1000,130328681,1000,1000,1000,1000
65638734,1000,1000,1000,1000,130428641,1000,1000,1000,1000
65641233,1000,1000,1000,1000,130528601,1000,1000,1000,1000
65643732,1000,1000,1000,1000,130628561,1000,1000,1000,1000
65646231,1000,1000,1000,1000,130728521,1000,1000,1000,1000
65648730,1000,1000,1000,1000,130828481,1000,1000,1000,1000
65651229,1000,1000,1000,1000,130928441,1000,1000,1000,1000
65653728,1000,1000,1000,1000,131028401,1000,1000,1000,1000
65656227,1000,1000,1000,1000,131128361,1000,1000,1000,1000
65658726,1000,1000,1000,1000,131228321,1000,1000,1000,1000
65661225,1000,1000,1000,1000,131328281,1000,1000,1000,1000
65663724,1000,1000,1000,1000,131428241,1000,1000,1000,1000
65666223,1000,1000,1000,1000,131528201,1000,1000,1000,1000
65668722,1000,1000,1000,1000,131628161,1000,1000,1000,1000
65671221,1000,1000,1000,1000,131728954,1000,1000,1000,1000
65673720,1000,1000,1000,1000,131828914,1000,1000,1000,1000
65676219,1000,1000,1000,1000,131928874,1000,1000,1000,1000
65678718,1000,1000,1000,1000,132028834,1000,1000,1000,1000
65681217,1000,1000,1000,1000,132128794,1000,1000,1000,1000
65683716,1000,1000,1000,1000,132228754,1000,1000,1000,1000
65686215,1000,1000,1000,1000,132328714,1000,1000,1000,1000
65688714,1000,1000,1000,1000,132428674,1000,1000,1000,1000
65691213,1000,1000,1000,1000,132528634,1000,1000,1000,1000
65693712,1000,1000,1000,1000,132628594,1000,1000,1000,1000
65696211,1000,1000,1000,1000,132728554,1000,1000,1000,1000
65698710,1000,1000,1000,1000,132828514,1000,1000,1000,1000
65701209,1000,1000,1000,1000,132928474,1000,1000,1000,1000
65703708,1000,1000,1000,1000,133028434,1000,1000,1000,1000
65706207,1000,1000,1000,1000,133128394,1000,1000,1000,1000
65708706,1000,1000,1000,1000,,,,,
65711205,1000,1000,1000,1000,,,,,
65713704,1000,1000,1000,1000,,,,,
65716203,1000,1000,1000,1000,,,,,
65718702,1000,1000,1000,1000,,,,,
65721201,1000,1000,1000,1000,,,,,
65723700,1000,1000,1000,1000,,,,,
65726199,1000,1000,1000,1000,,,,,
65728698,1000,1000,1000,1000,,,,,
65731197,1000,1000,1000,1000,,,,,
65733696,1000,1000,1000,1000,,,,,
65736195,1000,1000,1000,1000,,,,,
65738694,1000,1000,1000,1000,,,,,
65741193,1000,1000,1000,1000,,,,,
65743692,1000,1000,1000,1000,,,,,
65746191,1000,1000,1000,1000,,,,,
65748690,1000,1000,1000,1000,,,,,
65751189,1000,1000,1000,1000,,,,,
65753688,1000,1000,1000,1000,,,,,
65756187,1000,1000,1000,1000,,,,,
65758686,1000,1000,1000,1000,,,,,
65761185,1000,1000,1000,1000,,,,,
65763684,1000,1000,1000,1000,,,,,
65766183,1000,1000,1000,1000,,,,,
65768682,1000,1000,1000,1000,,,,,
65771181,1000,1000,1000,1000,,,,,
65773680,1000,1000,1000,1000,,,,,
65776179,1000,1000,1000,1000,,,,,
65778678,1000,1000,1000,1000,,,,,
65781177,1000,1000,1000,1000,,,,,
65783676,1000,1000,1000,1000,,,,,
65786175,1000,1000,1000,1000,,,,,
65788674,1000,1000,1000,1000,,,,,
65791173,1000,1000,1000,1000,,,,,
65793672,1000,1000,1000,1000,,,,,
65796171,1000,1000,1000,1000,,,,,
65798670,1000,1000,1000,1000,,,,,
65801169,1000,1000,1000,1000,,,,,
65803668,1000,1000,1000,1000,,,,,
65806167,1000,1000,1000,1000,,,,,
65808666,1000,1000,1000,1000,,,,,
65811165,1000,1000,1000,1000,,,,,
65813664,1000,1000,1000,1000,,,,,
65816163,1000,1000,1000,1000,,,,,
65818662,1000,1000,1000,1000,,,,,
65821161,1000,1000,1000,1000,,,,,
65823660,1000,1000,1000,1000,,,,,
65826159,1000,1000,1000,1000,,,,,
65828658,1000,1000,1000,1000,,,,,
65831157,1000,1000,1000,1000,,,,,
65833656,1000,1000,1000,1000,,,,,
65836155,1000,1000,1000,1000,,,,,
65838654,1000,1000,1000,1000,,,,,
65841153,1000,1000,1000,1000,,,,,
65843652,1000,1000,1000,1000,,,,,
65846151,1000,1000,1000,1000,,,,,
65848650,1000,1000,1000,1000,,,,,
65851149,1000,1000,1000,1000,,,,,
65853648,1000,1000,1000,1000,,,,,
65856147,1000,1000,1000,1000,,,,,
65858646,1000,1000,1000,1000,,,,,
65861145,1000,1000,1000,1000,,,,,
65863644,1000,1000,1000,1000,,,,,
65866143,1000,1000,1000,1000,,,,,
65868642,1000,1000,1000,1000,,,,,
65871141,1000,1000,1000,1000,,,,,
65873640,1000,1000,1000,1000,,,,,
65876139,1000,1000,1000,1000,,,,,
65878638,1000,1000,1000,1000,,,,,
65881137,1000,1000,1000,1000,,,,,
65883636,1000,1000,1000,1000,,,,,
65886135,1000,1000,1000,1000,,,,,
65888634,1000,1000,1000,1000,,,,,
65891133,1000,1000,1000,1000,,,,,
65893632,1000,1000,1000,1000,,,,,
65896131,1000,1000,1000,1000,,,,,
65898630,1000,1000,1000,1000,,,,,
65901129,1000,1000,1000,1000,,,,,
65903628,1000,1000,1000,1000,,,,,
65906127,1000,1000,1000,1000,,,,,
65908626,1000,1000,1000,1000,,,,,
65911125,1000,1000,1000,1000,,,,,
65913624,1000,1000,1000,1000,,,,,
65916123,1000,1000,1000,1000,,,,,
65918622,1000,1000,1000,1000,,,,,
65921121,1000,1000,1000,1000,,,,,
65923620,1000,1000,1000,1000,,,,,
65926119,1000,1000,1000,1000,,,,,
65928618,1000,1000,1000,1000,,,,,
65931117,1000,1000,1000,1000,,,,,
65933616,1000,1000,1000,1000,,,,,
65936115,1000,1000,1000,1000,,,,,
65938614,1000,1000,1000,1000,,,,,
65941113,1000,1000,1000,1000,,,,,
65943612,1000,1000,1000,1000,,,,,
65946111,1000,1000,1000,1000,,,,,
65948610,1000,1000,1000,1000,,,,,
65951109,1000,1000,1000,1000,,,,,
65953608,1000,1000,1000,1000,,,,,
65956107,1000,1000,1000,1000,,,,,
65958606,1000,1000,1000,1000,,,,,
65961105,1000,1000,1000,1000,,,,,
65963604,1000,1000,1000,1000,,,,,
65966103,1000,1000,1000,1000,,,,,
65968602,1000,1000,1000,1000,,,,,
65971101,1000,1000,1000,1000,,,,,
65973600,1000,1000,1000,1000,,,,,
65976099,1000,1000,1000,1000,,,,,
65978598,1000,1000,1000,1000,,,,,
65981097,1000,1000,1000,1000,,,,,
65983596,1000,1000,1000,1000,,,,,
65986095,1001,1001,1001,1001,,,,,
65988594,1002,1002,1002,1002,,,,,
65991093,1003,1003,1003,1003,,,,,
65993592,1003,1003,1003,1003,,,,,
65996091,1004,1004,1004,1004,,,,,
65998590,1005,1005,1005,1005,,,,,
66001089,1006,1006,1006,1006,,,,,
66003588,1006,1006,1006,1006,,,,,
66006087,1007,1007,1007,1007,,,,,
66008586,1008,1008,1008,1008,,,,,
66011085,1009,1009,1009,1009,,,,,
66013584,1009,1009,1009,1009,,,,,
66016083,1010,1010,1010,1010,,,,,
66018582,1011,1011,1011,1011,,,,,
66021081,1012,1012,1012,1012,,,,,
66023580,1012,1012,1012,1012,,,,,
66026079,1013,1013,1013,1013,,,,,
66028578,1014,1014,1014,1014,,,,,
66031077,1015,1015,1015,1015,,,,,
66033576,1015,1015,1015,1015,,,,,
66036075,1016,1016,1016,1016,,,,,
66038574,1017,1017,1017,1017,,,,,
66041073,1018,1018,1018,1018,,,,,
66043572,1018,1018,1018,1018,,,,,
66046071,1019,1019,1019,1019,,,,,
66048570,1020,1020,1020,1020,,,,,
66051069,1021,1021,1021,1021,,,,,
66053568,1021,1021,1021,1021,,,,,
66056067,1022,1022,1022,1022,,,,,
66058566,1023,1023,1023,1023,,,,,
66061065,1024,1024,1024,1024,,,,,
66063564,1024,1024,1024,1024,,,,,
66066063,1025,1025,1025,1025,,,,,
66068562,1026,1026,1026,1026,,,,,
66071061,1027,1027,1027,1027,,,,,
66073560,1027,1027,1027,1027,,,,,
66076059,1028,1028,1028,1028,,,,,
66078558,1029,1029,1029,1029,,,,,
66081057,1030,1030,1030,1030,,,,,
66083556,1030,1030,1030,1030,,,,,
66086055,1031,1031,1031,1031,,,,,
66088554,1032,1032,1032,1032,,,,,
66091053,1033,1033,1033,1033,,,,,
66093552,1033,1033,1033,1033,,,,,
66096051,1034,1034,1034,1034,,,,,
66098550,1035,1035,1035,1035,,,,,
66101049,1036,1036,1036,1036,,,,,
66103548,1036,1036,1036,1036,,,,,
66106047,1037,1037,1037,1037,,,,,
66108546,1038,1038,1038,1038,,,,,
66111045,1039,1039,1039,1039,,,,,
66113544,1039,1039,1039,1039,,,,,
66116043,1040,1040,1040,1040,,,,,
66118542,1041,1041,1041,1041,,,,,
66121041,1042,1042,1042,1042,,,,,
66123540,1042,1042,1042,1042,,,,,
66126039,1043,1043,1043,1043,,,,,
66128538,1044,1044,1044,1044,,,,,
66131037,1045,1045,1045,1045,,,,,
66133536,1045,1045,1045,1045,,,,,
66136035,1046,1046,1046,1046,,,,,
66138534,1047,1047,1047,1047,,,,,
66141033,1048,1048,1048,1048,,,,,
66143532,1048,1048,1048,1048,,,,,
66146031,1049,1049,1049,1049,,,,,
66148530,1050,1050,1050,1050,,,,,
66151029,1051,1051,1051,1051,,,,,
66153528,1051,1051,1051,1051,,,,,
66156027,1052,1052,1052,1052,,,,,
66158526,1053,1053,1053,1053,,,,,
66161025,1054,1054,1054,1054,,,,,
66163524,1054,1054,1054,1054,,,,,
66166023,1055,1055,1055,1055,,,,,
66168522,1056,1056,1056,1056,,,,,
66171021,1057,1057,1057,1057,,,,,
66173520,1057,1057,1057,1057,,,,,
66176019,1058,1058,1058,1058,,,,,
66178518,1059,1059,1059,1059,,,,,
66181017,1060,1060,1060,1060,,,,,
66183516,1060,1060,1060,1060,,,,,
66186015,1061,1061,1061,1061,,,,,
66188514,1062,1062,1062,1062,,,,,
66191013,1063,1063,1063,1063,,,,,
66193512,1063,1063,1063,1063,,,,,
66196011,1064,1064,1064,1064,,,,,
66198510,1065,1065,1065,1065,,,,,
66201009,1066,1066,1066,1066,,,,,
66203508,1066,1066,1066,1066,,,,,
66206007,1067,1067,1067,1067,,,,,
66208506,1068,1068,1068,1068,,,,,
66211005,1069,1069,1069,1069,,,,,
66213504,1069,1069,1069,1069,,,,,
66216003,1070,1070,1070,1070,,,,,
66218502,1071,1071,1071,1071,,,,,
66221001,1072,1072,1072,1072,,,,,
66223500,1072,1072,1072,1072,,,,,
66225999,1073,1073,1073,1073,,,,,
66228498,1074,1074,1074,1074,,,,,
66230997,1075,1075,1075,1075,,,,,
66233496,1075,1075,1075,1075,,,,,
66235995,1076,1076,1076,1076,,,,,
66238494,1077,1077,1077,1077,,,,,
66240993,1078,1078,1078,1078,,,,,
66243492,1078,1078,1078,1078,,,,,
66245991,1079,1079,1079,1079,,,,,
66248490,1080,1080,1080,1080,,,,,
66250989,1081,1081,1081,1081,,,,,
66253488,1081,1081,1081,1081,,,,,
66255987,1082,1082,1082,1082,,,,,
66258486,1083,1083,1083,1083,,,,,
66260985,1084,1084,1084,1084,,,,,
66263484,1084,1084,1084,1084,,,,,
66265983,1085,1085,1085,1085,,,,,
66268482,1086,1086,1086,1086,,,,,
66270981,1087,1087,1087,1087,,,,,
66273480,1087,1087,1087,1087,,,,,
66275979,1088,1088,1088,1088,,,,,
66278478,1089,1089,1089,1089,,,,,
66280977,1090,1090,1090,1090,,,,,
66283476,1090,1090,1090,1090,,,,,
66285975,1091,1091,1091,1091,,,,,
66288474,1092,1092,1092,1092,,,,,
66290973,1093,1093,1093,1093,,,,,
66293472,1093,1093,1093,1093,,,,,
66295971,1094,1094,1094,1094,,,,,
66298470,1095,1095,1095,1095,,,,,
66300969,1096,1096,1096,1096,,,,,
66303468,1096,1096,1096,1096,,,,,
66305967,1097,1097,1097,1097,,,,,
66308466,1098,1098,1098,1098,,,,,
66310965,1099,1099,1099,1099,,,,,
66313464,1099,1099,1099,1099,,,,,
66315963,1100,1100,1100,1100,,,,,
66318462,1101,1101,1101,1101,,,,,
66320961,1101,1101,1101,1101,,,,,
66323460,1102,1102,1102,1102,,,,,
66325959,1103,1103,1103,1103,,,,,
66328458,1104,1104,1104,1104,,,,,
66330957,1104,1104,1104,1104,,,,,
66333456,1105,1105,1105,1105,,,,,
66335955,1106,1106,1106,1106,,,,,
66338454,1107,1107,1107,1107,,,,,
66340953,1107,1107,1107,1107,,,,,
66343452,1108,1108,1108,1108,,,,,
66345951,1109,1109,1109,1109,,,,,
66348450,1110,1110,1110,1110,,,,,
66350949,1110,1110,1110,1110,,,,,
66353448,1111,1111,1111,1111,,,,,
66355947,1112,1112,1112,1112,,,,,
66358446,1113,1113,1113,1113,,,,,
66360945,1113,1113,1113,1113,,,,,
66363444,1114,1114,1114,1114,,,,,
66365943,1115,1115,1115,1115,,,,,
66368442,1116,1116,1116,1116,,,,,
66370941,1116,1116,1116,1116,,,,,
66373440,1117,1117,1117,1117,,,,,
66375939,1118,1118,1118,1118,,,,,
66378438,1119,1119,1119,1119,,,,,
66380937,1119,1119,1119,1119,,,,,
66383436,1120,1120,1120,1120,,,,,
66385935,1121,1121,1121,1121,,,,,
66388434,1122,1122,1122,1122,,,,,
66390933,1122,1122,1122,1122,,,,,
66393432,1123,1123,1123,1123,,,,,
66395931,1124,1124,1124,1124,,,,,
66398430,1125,1125,1125,1125,,,,,
66400929,1125,1125,1125,1125,,,,,
66403428,1126,1126,1126,1126,,,,,
66405927,1127,1127,1127,1127,,,,,
66408426,1128,1128,1128,1128,,,,,
66410925,1128,1128,1128,1128,,,,,
66413424,1129,1129,1129,1129,,,,,
66415923,1130,1130,1130,1130,,,,,
66418422,1131,1131,1131,1131,,,,,
66420921,1131,1131,1131,1131,,,,,
66423420,1132,1132,1132,1132,,,,,
66425919,1133,1133,1133,1133,,,,,
66428418,1134,1134,1134,1134,,,,,
66430917,1134,1134,1134,1134,,,,,
66433416,1135,1135,1135,1135,,,,,
66435915,1136,1136,1136,1136,,,,,
66438414,1137,1137,1137,1137,,,,,
66440913,1137,1137,1137,1137,,,,,
66443412,1138,1138,1138,1138,,,,,
66445911,1139,1139,1139,1139,,,,,
66448410,1140,1140,1140,1140,,,,,
66450909,1140,1140,1140,1140,,,,,
66453408,1141,1141,1141,1141,,,,,
66455907,1142,1142,1142,1142,,,,,
66458406,1143,1143,1143,1143,,,,,
66460905,1143,1143,1143,1143,,,,,
66463404,1144,1144,1144,1144,,,,,
66465903,1145,1145,1145,1145,,,,,
66468402,1146,1146,1146,1146,,,,,
66470901,1146,1146,1146,1146,,,,,
66473400,1147,1147,1147,1147,,,,,
66475899,1148,1148,1148,1148,,,,,
66478398,1149,1149,1149,1149,,,,,
66480897,1149,1149,1149,1149,,,,,
66483396,1150,1150,1150,1150,,,,,
66485895,1163,1152,1153,1163,,,,,
66488394,1171,1160,1161,1171,,,,,
66490893,1179,1168,1169,1179,,,,,
66493392,1186,1176,1177,1187,,,,,
66495891,1194,1183,1184,1194,,,,,
66498390,1201,1191,1192,1202,,,,,
66500889,1209,1198,1199,1209,,,,,
66503388,1216,1206,1207,1216,,,,,
66505887,1223,1213,1214,1223,,,,,
66508386,1230,1220,1221,1230,,,,,
66510885,1237,1227,1228,1237,,,,,
66513384,1243,1234,1235,1244,,,,,
66515883,1250,1241,1242,1251,,,,,
66518382,1257,1247,1248,1257,,,,,
66520881,1263,1254,1255,1264,,,,,
66523380,1270,1261,1261,1270,,,,,
66525879,1276,1267,1268,1277,,,,,
66528378,1282,1273,1274,1283,,,,,
66530877,1289,1280,1280,1289,,,,,
66533376,1295,1286,1287,1295,,,,,
66535875,1301,1292,1293,1301,,,,,
66538374,1307,1298,1299,1307,,,,,
66540873,1313,1304,1305,1313,,,,,
66543372,1319,1310,1311,1319,,,,,
66545871,1324,1316,1317,1325,,,,,
66548370,1330,1322,1322,1331,,,,,
66550869,1336,1327,1328,1336,,,,,
66553368,1341,1333,1334,1342,,,,,
66555867,1347,1339,1340,1347,,,,,
66558366,1353,1344,1345,1353,,,,,
66560865,1358,1350,1351,1358,,,,,
66563364,1363,1355,1356,1364,,,,,
66565863,1369,1361,1362,1369,,,,,
66568362,1374,1366,1367,1375,,,,,
66570861,1380,1372,1372,1380,,,,,
66573360,1385,1377,1378,1385,,,,,
66575859,1390,1382,1383,1390,,,,,
66578358,1395,1387,1388,1395,,,,,
66580857,1400,1393,1393,1401,,,,,
66583356,1405,1398,1399,1406,,,,,
66585855,1410,1403,1404,1411,,,,,
66588354,1415,1408,1409,1416,,,,,
66590853,1420,1413,1414,1421,,,,,
66593352,1425,1418,1419,1426,,,,,
66595851,1430,1423,1424,1431,,,,,
66598350,1435,1428,1428,1435,,,,,
66600849,1440,1433,1433,1440,,,,,
66603348,1445,1437,1438,1445,,,,,
66605847,1449,1442,1443,1450,,,,,
66608346,1454,1447,1448,1455,,,,,
66610845,1459,1452,1452,1459,,,,,
66613344,1464,1456,1457,1464,,,,,
66615843,1468,1461,1462,1469,,,,,
66618342,1473,1466,1466,1473,,,,,
66620841,1477,1470,1471,1478,,,,,
66623340,1482,1475,1475,1482,,,,,
66625839,1487,1480,1480,1487,,,,,
66628338,1491,1484,1485,1491,,,,,
66630837,1495,1489,1489,1496,,,,,
66633336,1500,1493,1494,1500,,,,,
66635835,1504,1497,1498,1505,,,,,
66638334,1509,1502,1502,1509,,,,,
66640833,1513,1506,1507,1514,,,,,
66643332,1517,1511,1511,1518,,,,,
66645831,1522,1515,1515,1522,,,,,
66648330,1526,1519,1520,1526,,,,,
66650829,1530,1524,1524,1531,,,,,
66653328,1535,1528,1528,1535,,,,,
66655827,1539,1532,1533,1539,,,,,
66658326,1543,1536,1537,1543,,,,,
66660825,1547,1541,1541,1548,,,,,
66663324,1551,1545,1545,1552,,,,,
66665823,1555,1549,1549,1556,,,,,
66668322,1560,1553,1553,1560,,,,,
66670821,1564,1557,1558,1564,,,,,
66673320,1568,1561,1562,1568,,,,,
66675819,1572,1565,1566,1572,,,,,
66678318,1576,1569,1570,1576,,,,,
66680817,1580,1573,1574,1580,,,,,
66683316,1584,1577,1578,1584,,,,,
66685815,1588,1581,1582,1588,,,,,
66688314,1592,1585,1586,1592,,,,,
66690813,1596,1589,1590,1596,,,,,
66693312,1600,1593,1594,1600,,,,,
66695811,1604,1597,1598,1604,,,,,
66698310,1608,1601,1601,1608,,,,,
66700809,1611,1605,1605,1612,,,,,
66703308,1615,1609,1609,1616,,,,,
66705807,1619,1613,1613,1619,,,,,
66708306,1623,1616,1617,1623,,,,,
66710805,1627,1620,1621,1627,,,,,
66713304,1630,1624,1624,1631,,,,,
66715803,1634,1628,1628,1635,,,,,
66718302,1638,1632,1632,1638,,,,,
66720801,1642,1635,1636,1642,,,,,
66723300,1645,1639,1639,1646,,,,,
66725799,1649,1643,1643,1650,,,,,
66728298,1653,1646,1647,1653,,,,,
66730797,1656,1650,1651,1657,,,,,
66733296,1660,1654,1654,1661,,,,,
66735795,1664,1657,1658,1664,,,,,
66738294,1667,1661,1662,1668,,,,,
66740793,1671,1665,1665,1671,,,,,
66743292,1675,1668,1669,1675,,,,,
66745791,1678,1672,1672,1679,,,,,
66748290,1682,1676,1676,1682,,,,,
66750789,1685,1679,1679,1686,,,,,
66753288,1689,1683,1683,1689,,,,,
66755787,1692,1686,1687,1693,,,,,
66758286,1696,1690,1690,1696,,,,,
66760785,1699,1693,1694,1700,,,,,
66763284,1703,1697,1697,1703,,,,,
66765783,1706,1700,1701,1707,,,,,
66768282,1710,1704,1704,1710,,,,,
66770781,1713,1707,1708,1714,,,,,
66773280,1717,1711,1711,1717,,,,,
66775779,1720,1714,1714,1721,,,,,
66778278,1724,1718,1718,1724,,,,,
66780777,1727,1721,1721,1728,,,,,
66783276,1730,1724,1725,1731,,,,,
66785775,1734,1728,1728,1734,,,,,
66788274,1737,1731,1731,1738,,,,,
66790773,1741,1735,1735,1741,,,,,
66793272,1744,1738,1738,1744,,,,,
66795771,1747,1741,1742,1748,,,,,
66798270,1751,1745,1745,1751,,,,,
66800769,1754,1748,1748,1754,,,,,
66803268,1757,1751,1752,1758,,,,,
66805767,1760,1755,1755,1761,,,,,
66808266,1764,1758,1758,1764,,,,,
66810765,1767,1761,1761,1767,,,,,
66813264,1770,1764,1765,1771,,,,,
66815763,1773,1768,1768,1774,,,,,
66818262,1777,1771,1771,1777,,,,,
66820761,1780,1774,1774,1780,,,,,
66823260,1783,1777,1778,1784,,,,,
66825759,1786,1781,1781,1787,,,,,
66828258,1790,1784,1784,1790,,,,,
66830757,1793,1787,1787,1793,,,,,
66833256,1796,1790,1791,1796,,,,,
66835755,1799,1793,1794,1800,,,,,
66838254,1802,1797,1797,1803,,,,,
66840753,1805,1800,1800,1806,,,,,
66843252,1809,1803,1803,1809,,,,,
66845751,1812,1806,1806,1812,,,,,
66848250,1815,1809,1809,1815,,,,,
66850749,1818,1812,1813,1818,,,,,
66853248,1821,1815,1816,1821,,,,,
66855747,1824,1818,1819,1825,,,,,
66858246,1827,1822,1822,1828,,,,,
66860745,1830,1825,1825,1831,,,,,
66863244,1833,1828,1828,1834,,,,,
66865743,1837,1831,1831,1837,,,,,
66868242,1840,1834,1834,1840,,,,,
66870741,1843,1837,1837,1843,,,,,
66873240,1846,1840,1840,1846,,,,,
66875739,1849,1843,1843,1849,,,,,
66878238,1852,1846,1846,1852,,,,,
66880737,1855,1849,1849,1855,,,,,
66883236,1858,1852,1852,1858,,,,,
66885735,1861,1855,1855,1861,,,,,
66888234,1864,1858,1858,1864,,,,,
66890733,1867,1861,1861,1867,,,,,
66893232,1870,1864,1864,1870,,,,,
66895731,1873,1867,1867,1873,,,,,
66898230,1876,1870,1870,1876,,,,,
66900729,1879,1873,1873,1879,,,,,
66903228,1882,1876,1876,1882,,,,,
66905727,1885,1879,1879,1885,,,,,
66908226,1887,1881,1882,1888,,,,,
66910725,1890,1884,1885,1891,,,,,
66913224,1893,1887,1888,1893,,,,,
66915723,1896,1890,1891,1896,,,,,
66918222,1899,1893,1894,1899,,,,,
66920721,1902,1896,1897,1902,,,,,
66923220,1905,1899,1899,1905,,,,,
66925719,1908,1902,1902,1908,,,,,
66928218,1911,1905,1905,1911,,,,,
66930717,1913,1908,1908,1914,,,,,
66933216,1916,1910,1911,1917,,,,,
66935715,1919,1913,1914,1919,,,,,
66938214,1922,1916,1917,1922,,,,,
66940713,1925,1919,1919,1925,,,,,
66943212,1928,1922,1922,1928,,,,,
66945711,1930,1925,1925,1931,,,,,
66948210,1933,1927,1927,1933,,,,,
66950709,1932,1926,1927,1932,,,,,
66953208,1931,1926,1926,1932,,,,,
66955707,1931,1925,1925,1931,,,,,
66958206,1930,1924,1925,1931,,,,,
66960705,1930,1924,1924,1930,,,,,
66963204,1929,1924,1924,1930,,,,,
66965703,1929,1923,1923,1929,,,,,
66968202,1928,1923,1923,1929,,,,,
66970701,1928,1923,1923,1928,,,,,
66973200,1927,1922,1922,1928,,,,,
66975699,1927,1922,1922,1928,,,,,
66978198,1927,1922,1922,1927,,,,,
66980697,1926,1922,1922,1927,,,,,
66983196,1926,1921,1921,1926,,,,,
66985695,1925,1921,1921,1925,,,,,
66988194,1924,1920,1921,1925,,,,,
66990693,1924,1920,1920,1924,,,,,
66993192,1923,1919,1919,1923,,,,,
66995691,1922,1918,1918,1922,,,,,
66998190,1921,1917,1917,1921,,,,,
67000689,1919,1916,1916,1920,,,,,
67003188,1918,1915,1915,1918,,,,,
67005687,1916,1913,1913,1917,,,,,
67008186,1915,1912,1912,1915,,,,,
67010685,1913,1910,1910,1913,,,,,
67013184,1911,1908,1908,1912,,,,,
67015683,1909,1906,1906,1910,,,,,
67018182,1907,1904,1904,1907,,,,,
67020681,1905,1902,1902,1905,,,,,
67023180,1902,1900,1900,1903,,,,,
67025679,1900,1897,1898,1900,,,,,
67028178,1897,1895,1895,1898,,,,,
67030677,1895,1892,1892,1895,,,,,
67033176,1892,1889,1890,1892,,,,,
67035675,1889,1887,1887,1890,,,,,
67038174,1886,1884,1884,1887,,,,,
67040673,1883,1881,1881,1884,,,,,
67043172,1880,1878,1878,1881,,,,,
67045671,1877,1875,1875,1878,,,,,
67048170,1874,1872,1872,1874,,,,,
67050669,1871,1869,1869,1871,,,,,
67053168,1868,1865,1866,1868,,,,,
67055667,1865,1862,1863,1865,,,,,
67058166,1861,1859,1859,1862,,,,,
67060665,1858,1856,1856,1858,,,,,
67063164,1855,1852,1853,1855,,,,,
67065663,1851,1849,1850,1852,,,,,
67068162,1848,1846,1846,1848,,,,,
67070661,1845,1842,1843,1845,,,,,
67073160,1841,1839,1840,1841,,,,,
67075659,1838,1836,1836,1838,,,,,
67078158,1835,1832,1833,1835,,,,,
67080657,1831,1829,1830,1831,,,,,
67083156,1828,1826,1826,1828,,,,,
67085655,1824,1822,1823,1824,,,,,
67088154,1821,1819,1820,1821,,,,,
67091486,1817,1816,1816,1818,,,,,
67093985,1814,1812,1813,1814,,,,,
67096484,1811,1809,1810,1811,,,,,
67098983,1807,1806,1806,1807,,,,,
67101482,1804,1802,1803,1804,,,,,
67103981,1801,1799,1800,1801,,,,,
67106480,1797,1796,1796,1797,,,,,
67108979,1794,1793,1793,1794,,,,,
67111478,1791,1789,1790,1791,,,,,
67113977,1787,1786,1787,1788,,,,,
67116476,1784,1783,1783,1784,,,,,
67118975,1781,1780,1780,1781,,,,,
67121474,1777,1776,1777,1778,,,,,
67123973,1774,1773,1774,1774,,,,,
67126472,1771,1770,1771,1771,,,,,
67128971,1768,1767,1767,1768,,,,,
67131470,1764,1764,1764,1765,,,,,
67133969,1761,1761,1761,1762,,,,,
67136468,1758,1758,1758,1758,,,,,
67138967,1755,1755,1755,1755,,,,,
67141466,1752,1751,1752,1752,,,,,
