TimeUS,M1,M2,M3,M4,TimeUS,C1,C2,C3,C4
43053605,1000,1000,1000,1000,43128575,1000,1000,1000,1000
43056104,1000,1000,1000,1000,43228535,1000,1000,1000,1000
43058603,1000,1000,1000,1000,43328495,1000,1000,1000,1000
43061102,1000,1000,1000,1000,43428455,1000,1000,1000,1000
43063601,1000,1000,1000,1000,43528415,1000,1000,1000,1000
43066100,1000,1000,1000,1000,43628375,1000,1000,1000,1000
43068599,1000,1000,1000,1000,43728335,1000,1000,1000,1000
43071098,1000,1000,1000,1000,43828295,1000,1000,1000,1000
43073597,1000,1000,1000,1000,43928255,1000,1000,1000,1000
43076096,1000,1000,1000,1000,44028215,1000,1000,1000,1000
43078595,1000,1000,1000,1000,44128175,1000,1000,1000,1000
43081094,1000,1000,1000,1000,44228968,1000,1000,1000,1000
43083593,1000,1000,1000,1000,44328928,1000,1000,1000,1000
43086092,1000,1000,1000,1000,44428888,1000,1000,1000,1000
43088591,1000,1000,1000,1000,44528848,1000,1000,1000,1000
43091090,1000,1000,1000,1000,44628808,1000,1000,1000,1000
43093589,1000,1000,1000,1000,44728768,1000,1000,1000,1000
43096088,1000,1000,1000,1000,44828728,1000,1000,1000,1000
43098587,1000,1000,1000,1000,44928688,1000,1000,1000,1000
43101086,1000,1000,1000,1000,45028648,1000,1000,1000,1000
43103585,1000,1000,1000,1000,45128608,1022,1022,1022,1022
43106084,1000,1000,1000,1000,45228568,1052,1052,1052,1052
43108583,1000,1000,1000,1000,45328528,1082,1082,1082,1082
43111082,1000,1000,1000,1000,45428488,1100,1100,1100,1100
43113581,1000,1000,1000,1000,45528448,1100,1100,1100,1100
43116080,1000,1000,1000,1000,45628408,1100,1100,1100,1100
43118579,1000,1000,1000,1000,45728368,1100,1100,1100,1100
43121078,1000,1000,1000,1000,45828328,1100,1100,1100,1100
43123577,1000,1000,1000,1000,45928288,1100,1100,1100,1100
43126076,1000,1000,1000,1000,46028248,1100,1100,1100,1100
43128575,1000,1000,1000,1000,46128208,1100,1100,1100,1100
43131074,1000,1000,1000,1000,46228168,1100,1100,1100,1100
43133573,1000,1000,1000,1000,46328961,1100,1100,1100,1100
43136072,1000,1000,1000,1000,46428921,1100,1100,1100,1100
43138571,1000,1000,1000,1000,46528881,1100,1100,1100,1100
43141070,1000,1000,1000,1000,46628841,1100,1100,1100,1100
43143569,1000,1000,1000,1000,46728801,1100,1100,1100,1100
43146068,1000,1000,1000,1000,46828761,1100,1100,1100,1100
43148567,1000,1000,1000,1000,46928721,1100,1100,1100,1100
43151066,1000,1000,1000,1000,47028681,1100,1100,1100,1100
43153565,1000,1000,1000,1000,47128641,1100,1100,1100,1100
43156064,1000,1000,1000,1000,47228601,1100,1100,1100,1100
43158563,1000,1000,1000,1000,47328561,1100,1100,1100,1100
43161062,1000,1000,1000,1000,47428521,1100,1100,1100,1100
43163561,1000,1000,1000,1000,47528481,1100,1100,1100,1100
43166060,1000,1000,1000,1000,47628441,1100,1100,1100,1100
43168559,1000,1000,1000,1000,47728401,1100,1100,1100,1100
43171058,1000,1000,1000,1000,47828361,1100,1100,1100,1100
43173557,1000,1000,1000,1000,47928321,1100,1100,1100,1100
43176056,1000,1000,1000,1000,48028281,1100,1100,1100,1100
43178555,1000,1000,1000,1000,48128241,1100,1100,1100,1100
43181054,1000,1000,1000,1000,48228201,1103,1103,1103,1103
43183553,1000,1000,1000,1000,48328161,1133,1133,1133,1133
43186052,1000,1000,1000,1000,48428954,1181,1176,1177,1181
43188551,1000,1000,1000,1000,48528914,1208,1203,1203,1208
43191050,1000,1000,1000,1000,48628874,1244,1239,1239,1244
43193549,1000,1000,1000,1000,48728834,1290,1284,1284,1290
43196048,1000,1000,1000,1000,48828794,1338,1333,1333,1338
43198547,1000,1000,1000,1000,48928754,1388,1382,1382,1388
43201046,1000,1000,1000,1000,49028714,1438,1433,1433,1439
43203545,1000,1000,1000,1000,49128674,1491,1485,1485,1491
43206044,1000,1000,1000,1000,49228634,1544,1538,1538,1544
43208543,1000,1000,1000,1000,49328594,1593,1586,1587,1593
43211042,1000,1000,1000,1000,49428554,1625,1619,1619,1625
43213541,1000,1000,1000,1000,49528514,1658,1652,1651,1659
43216040,1000,1000,1000,1000,49628474,1692,1686,1686,1693
43218539,1000,1000,1000,1000,49728434,1729,1721,1722,1729
43221038,1000,1000,1000,1000,49828394,1766,1758,1759,1765
43223537,1000,1000,1000,1000,49928354,1748,1745,1745,1748
43226036,1000,1000,1000,1000,50028314,1613,1613,1613,1613
43228535,1000,1000,1000,1000,50128274,1554,1556,1556,1554
43231034,1000,1000,1000,1000,50228234,1574,1577,1577,1574
43233533,1000,1000,1000,1000,50328194,1613,1616,1616,1613
43236032,1000,1000,1000,1000,50428154,1639,1641,1640,1639
43238531,1000,1000,1000,1000,50528947,1646,1646,1646,1646
43241030,1000,1000,1000,1000,50628907,1643,1642,1641,1643
43243529,1000,1000,1000,1000,50728867,1639,1637,1637,1639
43246028,1000,1000,1000,1000,50828827,1636,1634,1634,1635
43248527,1000,1000,1000,1000,50928787,1635,1634,1634,1634
43251026,1000,1000,1000,1000,51028747,1635,1635,1635,1634
43253525,1000,1000,1000,1000,51128707,1622,1623,1621,1624
43256024,1000,1000,1000,1000,51228667,1608,1608,1600,1615
43258523,1000,1000,1000,1000,51328627,1603,1602,1596,1608
43261022,1000,1000,1000,1000,51428587,1599,1600,1597,1602
43263521,1000,1000,1000,1000,51528547,1600,1599,1600,1599
43266020,1000,1000,1000,1000,51628507,1602,1602,1605,1599
43268519,1000,1000,1000,1000,51728467,1592,1592,1599,1586
43271018,1000,1000,1000,1000,51828427,1575,1575,1592,1558
43273517,1000,1000,1000,1000,51928387,1565,1565,1575,1556
43276016,1000,1000,1000,1000,52028347,1554,1554,1553,1557
43278515,1000,1000,1000,1000,52128307,1545,1544,1535,1555
43281014,1000,1000,1000,1000,52228267,1537,1537,1527,1548
43283513,1000,1000,1000,1000,52328227,1532,1532,1524,1540
43286012,1000,1000,1000,1000,52428187,1530,1530,1526,1533
43288511,1000,1000,1000,1000,52528980,1531,1530,1530,1531
43291010,1000,1000,1000,1000,52628940,1533,1533,1536,1530
43293509,1000,1000,1000,1000,52728900,1537,1537,1542,1532
43296008,1000,1000,1000,1000,52828860,1541,1541,1545,1536
43298507,1000,1000,1000,1000,52928820,1544,1544,1547,1541
43301006,1000,1000,1000,1000,53028780,1548,1548,1548,1547
43303505,1000,1000,1000,1000,53128740,1549,1549,1548,1550
43306004,1000,1000,1000,1000,53228700,1552,1552,1550,1554
43308503,1000,1000,1000,1000,53328660,1549,1549,1558,1562
43311002,1000,1000,1000,1000,53428620,1550,1551,1561,1564
43313501,1000,1000,1000,1000,53528580,1554,1555,1562,1563
43316000,1000,1000,1000,1000,53628540,1559,1560,1564,1563
43318499,1000,1000,1000,1000,53728500,1563,1563,1564,1562
43320998,1000,1000,1000,1000,53828460,1566,1566,1564,1562
43323497,1000,1000,1000,1000,53928420,1569,1569,1564,1563
43325996,1000,1000,1000,1000,54028380,1572,1572,1565,1565
43328495,1000,1000,1000,1000,54128340,1574,1573,1565,1566
43330994,1000,1000,1000,1000,54228300,1574,1573,1566,1566
43333493,1000,1000,1000,1000,54328260,1574,1573,1567,1568
43335992,1000,1000,1000,1000,54428220,1574,1574,1570,1570
43338491,1000,1000,1000,1000,54528180,1574,1574,1571,1571
43340990,1000,1000,1000,1000,54628973,1574,1574,1573,1573
43343489,1000,1000,1000,1000,54728933,1573,1574,1575,1574
43345988,1000,1000,1000,1000,54828893,1573,1573,1576,1574
43348487,1000,1000,1000,1000,54928853,1574,1574,1578,1576
43350986,1000,1000,1000,1000,55028813,1575,1575,1578,1577
43353485,1000,1000,1000,1000,55128773,1575,1575,1578,1578
43355984,1000,1000,1000,1000,55228733,1574,1574,1576,1577
43358483,1000,1000,1000,1000,55328693,1574,1574,1576,1576
43360982,1000,1000,1000,1000,55428653,1575,1575,1575,1577
43363481,1000,1000,1000,1000,55528613,1575,1575,1575,1576
43365980,1000,1000,1000,1000,55628573,1576,1576,1576,1576
43368479,1000,1000,1000,1000,55728533,1576,1576,1576,1575
43370978,1000,1000,1000,1000,55828493,1578,1578,1577,1577
43373477,1000,1000,1000,1000,55928453,1578,1578,1577,1576
43375976,1000,1000,1000,1000,56028413,1578,1579,1577,1577
43378475,1000,1000,1000,1000,56128373,1578,1579,1577,1577
43380974,1000,1000,1000,1000,56228333,1579,1578,1578,1577
43383473,1000,1000,1000,1000,56328293,1579,1579,1579,1579
43385972,1000,1000,1000,1000,56428253,1579,1579,1578,1578
43388471,1000,1000,1000,1000,56528213,1578,1577,1578,1578
43390970,1000,1000,1000,1000,56628173,1578,1577,1578,1578
43393469,1000,1000,1000,1000,56728966,1578,1578,1578,1578
43395968,1000,1000,1000,1000,56828926,1577,1577,1578,1578
43398467,1000,1000,1000,1000,56928886,1578,1577,1578,1578
43400966,1000,1000,1000,1000,57028846,1578,1578,1579,1579
43403465,1000,1000,1000,1000,57128806,1578,1579,1579,1579
43405964,1000,1000,1000,1000,57228766,1578,1579,1579,1579
43408463,1000,1000,1000,1000,57328726,1580,1579,1580,1580
43410962,1000,1000,1000,1000,57428686,1580,1580,1580,1580
43413461,1000,1000,1000,1000,57528646,1580,1580,1580,1580
43415960,1000,1000,1000,1000,57628606,1580,1580,1580,1580
43418459,1000,1000,1000,1000,57728566,1580,1580,1580,1580
43420958,1000,1000,1000,1000,57828526,1580,1580,1580,1580
43423457,1000,1000,1000,1000,57928486,1580,1581,1580,1580
43425956,1000,1000,1000,1000,58028446,1580,1580,1580,1580
43428455,1000,1000,1000,1000,58128406,1580,1581,1580,1580
43430954,1000,1000,1000,1000,58228366,1580,1580,1580,1580
43433453,1000,1000,1000,1000,58328326,1581,1580,1581,1580
43435952,1000,1000,1000,1000,58428286,1580,1580,1580,1580
43438451,1000,1000,1000,1000,58528246,1580,1580,1580,1580
43440950,1000,1000,1000,1000,58628206,1579,1580,1580,1580
43443449,1000,1000,1000,1000,58728166,1580,1581,1581,1581
43445948,1000,1000,1000,1000,58828959,1580,1580,1580,1580
43448447,1000,1000,1000,1000,58928919,1581,1580,1581,1581
43450946,1000,1000,1000,1000,59028879,1581,1580,1581,1581
43453445,1000,1000,1000,1000,59128839,1581,1581,1581,1581
43455944,1000,1000,1000,1000,59228799,1581,1581,1581,1581
43458443,1000,1000,1000,1000,59328759,1581,1582,1582,1581
43460942,1000,1000,1000,1000,59428719,1582,1581,1582,1582
43463441,1000,1000,1000,1000,59528679,1582,1582,1586,1579
43465940,1000,1000,1000,1000,59628639,1580,1582,1587,1573
43468439,1000,1000,1000,1000,59728599,1580,1582,1582,1574
43470938,1000,1000,1000,1000,59828559,1578,1581,1573,1573
43473437,1000,1000,1000,1000,59928519,1576,1579,1564,1570
43475936,1000,1000,1000,1000,60028479,1577,1579,1559,1566
43478435,1000,1000,1000,1000,60128439,1578,1578,1556,1562
43480934,1000,1000,1000,1000,60228399,1580,1578,1556,1558
43483433,1000,1000,1000,1000,60328359,1579,1577,1555,1554
43485932,1000,1000,1000,1000,60428319,1579,1578,1557,1555
43488431,1000,1000,1000,1000,60528279,1578,1577,1557,1554
43490930,1000,1000,1000,1000,60628239,1576,1577,1556,1554
43493429,1000,1000,1000,1000,60728199,1575,1576,1555,1555
43495928,1000,1000,1000,1000,60828159,1575,1576,1555,1554
43498427,1000,1000,1000,1000,60928952,1575,1576,1553,1553
43500926,1000,1000,1000,1000,61028912,1576,1577,1552,1552
43503425,1000,1000,1000,1000,61128872,1577,1578,1549,1549
43505924,1000,1000,1000,1000,61228832,1579,1580,1547,1547
43508423,1000,1000,1000,1000,61328792,1581,1583,1544,1544
43510922,1000,1000,1000,1000,61428752,1585,1586,1542,1542
43513421,1000,1000,1000,1000,61528712,1588,1588,1539,1539
43515920,1000,1000,1000,1000,61628672,1591,1592,1537,1536
43518419,1000,1000,1000,1000,61728632,1594,1593,1535,1535
43520918,1000,1000,1000,1000,61828592,1596,1595,1535,1536
43523417,1000,1000,1000,1000,61928552,1595,1594,1534,1536
43525916,1000,1000,1000,1000,62028512,1594,1594,1537,1540
43528415,1000,1000,1000,1000,62128472,1591,1590,1540,1543
43530914,1000,1000,1000,1000,62228432,1586,1585,1546,1549
43533413,1000,1000,1000,1000,62328392,1581,1578,1556,1559
43535912,1000,1000,1000,1000,62428352,1572,1569,1567,1569
43538411,1000,1000,1000,1000,62528312,1561,1558,1579,1581
43540910,1000,1000,1000,1000,62628272,1550,1546,1590,1591
43543409,1000,1000,1000,1000,62728232,1540,1538,1602,1602
43545908,1000,1000,1000,1000,62828192,1533,1533,1610,1609
43548407,1000,1000,1000,1000,62928985,1530,1531,1615,1614
43550906,1000,1000,1000,1000,63028945,1529,1531,1615,1614
43553405,1000,1000,1000,1000,63128905,1534,1536,1613,1613
43555904,1000,1000,1000,1000,63228865,1539,1542,1608,1608
43558403,1000,1000,1000,1000,63328825,1547,1548,1600,1601
43560902,1000,1000,1000,1000,63428785,1557,1557,1593,1594
43563401,1000,1000,1000,1000,63528745,1566,1566,1586,1586
43565900,1000,1000,1000,1000,63628705,1573,1573,1579,1578
43568399,1000,1000,1000,1000,63728665,1580,1579,1574,1573
43570898,1000,1000,1000,1000,63828625,1585,1584,1570,1569
43573397,1000,1000,1000,1000,63928585,1587,1585,1567,1566
43575896,1000,1000,1000,1000,64028545,1588,1587,1566,1566
43578395,1000,1000,1000,1000,64128505,1588,1586,1567,1567
43580894,1000,1000,1000,1000,64228465,1585,1584,1568,1569
43583393,1000,1000,1000,1000,64328425,1434,1436,1610,1615
43585892,1000,1000,1000,1000,64428385,1479,1483,1618,1620
43588391,1000,1000,1000,1000,64528345,1519,1525,1613,1610
43590890,1000,1000,1000,1000,64628305,1553,1558,1602,1597
43593389,1000,1000,1000,1000,64728265,1581,1582,1593,1589
43595888,1000,1000,1000,1000,64828225,1599,1597,1586,1584
43598387,1000,1000,1000,1000,64928185,1612,1607,1582,1581
43600886,1000,1000,1000,1000,65028978,1619,1613,1578,1580
43603385,1000,1000,1000,1000,65128938,1622,1618,1572,1576
43605884,1000,1000,1000,1000,65228898,1631,1628,1558,1563
43608383,1000,1000,1000,1000,65328858,1637,1637,1547,1551
43610882,1000,1000,1000,1000,65428818,1638,1639,1543,1545
43613381,1000,1000,1000,1000,65528778,1633,1634,1546,1546
43615880,1000,1000,1000,1000,65628738,1624,1624,1556,1555
43618379,1000,1000,1000,1000,65728698,1612,1610,1568,1567
43620878,1000,1000,1000,1000,65828658,1596,1594,1580,1580
43623377,1000,1000,1000,1000,65928618,1582,1580,1591,1592
43625876,1000,1000,1000,1000,66028578,1573,1573,1597,1597
43628375,1000,1000,1000,1000,66128538,1567,1569,1598,1598
43630874,1000,1000,1000,1000,66228498,1565,1567,1597,1596
43633373,1000,1000,1000,1000,66328458,1566,1568,1596,1594
43635872,1000,1000,1000,1000,66428418,1567,1569,1593,1591
43638371,1000,1000,1000,1000,66528378,1568,1570,1589,1588
43640870,1000,1000,1000,1000,66628338,1571,1572,1586,1586
43643369,1000,1000,1000,1000,66728298,1574,1574,1584,1584
43645868,1000,1000,1000,1000,66828258,1577,1577,1583,1582
43648367,1000,1000,1000,1000,66928218,1579,1578,1580,1580
43650866,1000,1000,1000,1000,67028178,1580,1579,1578,1578
43653365,1000,1000,1000,1000,67128971,1581,1581,1577,1577
43655864,1000,1000,1000,1000,67228931,1582,1582,1576,1577
43658363,1000,1000,1000,1000,67328891,1583,1583,1576,1576
43660862,1000,1000,1000,1000,67428851,1584,1584,1577,1576
43663361,1000,1000,1000,1000,67528811,1585,1584,1576,1575
43665860,1000,1000,1000,1000,67628771,1586,1583,1583,1568
43668359,1000,1000,1000,1000,67728731,1585,1581,1578,1568
43670858,1000,1000,1000,1000,67828691,1584,1581,1570,1569
43673357,1000,1000,1000,1000,67928651,1581,1580,1563,1568
43675856,1000,1000,1000,1000,68028611,1578,1579,1558,1564
43678355,1000,1000,1000,1000,68128571,1576,1579,1556,1560
43680854,1000,1000,1000,1000,68228531,1575,1579,1557,1557
43683353,1000,1000,1000,1000,68328491,1575,1579,1557,1556
43685852,1000,1000,1000,1000,68428451,1575,1577,1557,1554
43688351,1000,1000,1000,1000,68528411,1575,1575,1556,1553
43690850,1000,1000,1000,1000,68628371,1575,1575,1555,1553
43693349,1000,1000,1000,1000,68728331,1575,1574,1553,1553
43695848,1000,1000,1000,1000,68828291,1575,1574,1551,1552
43698347,1000,1000,1000,1000,68928251,1575,1575,1550,1551
43700846,1000,1000,1000,1000,69028211,1575,1576,1549,1549
43703345,1000,1000,1000,1000,69128171,1575,1576,1546,1546
43705844,1000,1000,1000,1000,69228964,1576,1579,1545,1545
43708343,1000,1000,1000,1000,69328924,1578,1580,1543,1542
43710842,1000,1000,1000,1000,69428884,1580,1581,1541,1539
43713341,1000,1000,1000,1000,69528844,1583,1583,1538,1538
43715840,1000,1000,1000,1000,69628804,1586,1586,1537,1536
43718339,1000,1000,1000,1000,69728764,1589,1588,1536,1536
43720838,1000,1000,1000,1000,69828724,1590,1590,1535,1536
43723337,1000,1000,1000,1000,69928684,1591,1591,1536,1537
43725836,1000,1000,1000,1000,70028644,1591,1590,1537,1540
43728335,1000,1000,1000,1000,70128604,1589,1587,1540,1543
43730834,1000,1000,1000,1000,70228564,1585,1584,1544,1547
43733333,1000,1000,1000,1000,70328524,1581,1580,1551,1554
43735832,1000,1000,1000,1000,70428484,1575,1574,1556,1560
43738331,1000,1000,1000,1000,70528444,1569,1568,1563,1566
43740830,1000,1000,1000,1000,70628404,1563,1561,1571,1573
43743329,1000,1000,1000,1000,70728364,1557,1555,1579,1580
43745828,1000,1000,1000,1000,70828324,1550,1548,1586,1586
43748327,1000,1000,1000,1000,70928284,1545,1544,1594,1594
43750826,1000,1000,1000,1000,71028244,1539,1539,1600,1599
43753325,1000,1000,1000,1000,71128204,1535,1535,1605,1604
43755824,1000,1000,1000,1000,71228164,1532,1533,1609,1608
43758323,1000,1000,1000,1000,71328957,1532,1534,1610,1609
43760822,1000,1000,1000,1000,71428917,1534,1537,1606,1605
43763321,1000,1000,1000,1000,71528877,1539,1542,1600,1600
43765820,1000,1000,1000,1000,71628837,1547,1549,1594,1595
43768319,1000,1000,1000,1000,71728797,1556,1557,1588,1588
43770818,1000,1000,1000,1000,71828757,1564,1565,1581,1581
43773317,1000,1000,1000,1000,71928717,1573,1572,1576,1575
43775816,1000,1000,1000,1000,72028677,1580,1578,1573,1572
43778315,1000,1000,1000,1000,72128637,1583,1581,1570,1569
43780814,1000,1000,1000,1000,72228597,1585,1584,1569,1568
43783313,1000,1000,1000,1000,72328557,1586,1585,1568,1568
43785812,1000,1000,1000,1000,72428517,1587,1586,1569,1569
43788311,1000,1000,1000,1000,72528477,1585,1584,1568,1569
43790810,1000,1000,1000,1000,72628437,1585,1585,1571,1571
43793309,1000,1000,1000,1000,72728397,1584,1584,1572,1572
43795808,1000,1000,1000,1000,72828357,1582,1582,1574,1574
43798307,1000,1000,1000,1000,72928317,1581,1581,1575,1575
43800806,1000,1000,1000,1000,73028277,1580,1580,1577,1577
43803305,1000,1000,1000,1000,73128237,1578,1578,1578,1578
43805804,1000,1000,1000,1000,73228197,1577,1577,1578,1578
43808303,1000,1000,1000,1000,73328157,1577,1577,1580,1580
43810802,1000,1000,1000,1000,73428950,1576,1577,1581,1580
43813301,1000,1000,1000,1000,73528910,1576,1576,1581,1581
43815800,1000,1000,1000,1000,73628870,1576,1576,1581,1581
43818299,1000,1000,1000,1000,73728830,1577,1576,1582,1582
43820798,1000,1000,1000,1000,73828790,1577,1577,1582,1582
43823297,1000,1000,1000,1000,73928750,1576,1577,1580,1581
43825796,1000,1000,1000,1000,74028710,1577,1578,1580,1580
43828295,1000,1000,1000,1000,74128670,1579,1580,1581,1581
43830794,1000,1000,1000,1000,74228630,1580,1580,1581,1581
43833293,1000,1000,1000,1000,74328590,1580,1580,1580,1580
43835792,1000,1000,1000,1000,74428550,1581,1580,1579,1580
43838291,1000,1000,1000,1000,74528510,1581,1580,1578,1578
43840790,1000,1000,1000,1000,74628470,1581,1581,1579,1579
43843289,1000,1000,1000,1000,74728430,1581,1581,1578,1578
43845788,1000,1000,1000,1000,74828390,1582,1581,1579,1579
43848287,1000,1000,1000,1000,74928350,1581,1581,1578,1578
43850786,1000,1000,1000,1000,75028310,1581,1581,1579,1579
43853285,1000,1000,1000,1000,75128270,1581,1581,1579,1579
43855784,1000,1000,1000,1000,75228230,1580,1580,1579,1579
43858283,1000,1000,1000,1000,75328190,1581,1581,1580,1580
43860782,1000,1000,1000,1000,75428983,1581,1581,1580,1580
43863281,1000,1000,1000,1000,75528943,1581,1581,1581,1581
43865780,1000,1000,1000,1000,75628903,1580,1580,1581,1581
43868279,1000,1000,1000,1000,75728863,1579,1580,1580,1581
43870778,1000,1000,1000,1000,75828823,1580,1580,1580,1581
43873277,1000,1000,1000,1000,75928783,1580,1580,1581,1581
43875776,1000,1000,1000,1000,76028743,1581,1581,1582,1582
43878275,1000,1000,1000,1000,76128703,1581,1581,1582,1582
43880774,1000,1000,1000,1000,76228663,1580,1581,1581,1581
43883273,1000,1000,1000,1000,76328623,1582,1582,1586,1578
43885772,1000,1000,1000,1000,76428583,1581,1582,1588,1573
43888271,1000,1000,1000,1000,76528543,1581,1582,1582,1574
43890770,1000,1000,1000,1000,76628503,1578,1580,1572,1572
43893269,1000,1000,1000,1000,76728463,1578,1579,1564,1569
43895768,1000,1000,1000,1000,76828423,1577,1579,1558,1565
43898267,1000,1000,1000,1000,76928383,1577,1579,1556,1561
43900766,1000,1000,1000,1000,77028343,1578,1579,1555,1558
43903265,1000,1000,1000,1000,77128303,1580,1579,1557,1556
43905764,1000,1000,1000,1000,77228263,1579,1579,1557,1555
43908263,1000,1000,1000,1000,77328223,1578,1578,1557,1554
43910762,1000,1000,1000,1000,77428183,1577,1577,1556,1554
43913261,1000,1000,1000,1000,77528976,1576,1577,1555,1554
43915760,1000,1000,1000,1000,77628936,1576,1577,1554,1554
43918259,1000,1000,1000,1000,77728896,1576,1577,1553,1553
43920758,1000,1000,1000,1000,77828856,1576,1577,1551,1552
43923257,1000,1000,1000,1000,77928816,1577,1579,1550,1550
43925756,1000,1000,1000,1000,78028776,1578,1580,1548,1548
43928255,1000,1000,1000,1000,78128736,1580,1581,1545,1545
43930754,1000,1000,1000,1000,78228696,1582,1583,1544,1543
43933253,1000,1000,1000,1000,78328656,1585,1585,1541,1542
43935752,1000,1000,1000,1000,78428616,1587,1587,1540,1540
43938251,1000,1000,1000,1000,78528576,1589,1589,1539,1539
43940750,1000,1000,1000,1000,78628536,1590,1590,1539,1539
43943249,1000,1000,1000,1000,78728496,1591,1590,1539,1540
43945748,1000,1000,1000,1000,78828456,1590,1591,1540,1542
43948247,1000,1000,1000,1000,78928416,1589,1589,1542,1545
43950746,1000,1000,1000,1000,79028376,1587,1586,1546,1549
43953245,1000,1000,1000,1000,79128336,1583,1580,1553,1555
43955744,1000,1000,1000,1000,79228296,1775,1772,1556,1558
43958243,1000,1000,1000,1000,79328256,1707,1698,1524,1524
43960742,1000,1000,1000,1000,79428216,1647,1640,1538,1541
43963241,1000,1000,1000,1000,79528176,1589,1583,1565,1569
43965740,1000,1000,1000,1000,79628969,1539,1537,1592,1593
43968239,1000,1000,1000,1000,79728929,1509,1510,1607,1606
43970738,1000,1000,1000,1000,79828889,1496,1499,1615,1612
43973237,1000,1000,1000,1000,79928849,1493,1497,1617,1613
43975736,1000,1000,1000,1000,80028809,1485,1488,1626,1622
43978235,1000,1000,1000,1000,80128769,1479,1482,1635,1635
43980734,1000,1000,1000,1000,80228729,1482,1485,1635,1637
43983233,1000,1000,1000,1000,80328689,1495,1499,1626,1629
43985732,1000,1000,1000,1000,80428649,1517,1520,1610,1613
43988231,1000,1000,1000,1000,80528609,1543,1547,1591,1594
43990730,1000,1000,1000,1000,80628569,1564,1566,1573,1575
43993229,1000,1000,1000,1000,80728529,1578,1578,1564,1564
43995728,1000,1000,1000,1000,80828489,1587,1586,1561,1560
43998227,1000,1000,1000,1000,80928449,1592,1590,1561,1559
44000726,1000,1000,1000,1000,81028409,1594,1591,1563,1560
44003225,1000,1000,1000,1000,81128369,1594,1592,1565,1563
44005724,1000,1000,1000,1000,81228329,1593,1591,1568,1566
44008223,1000,1000,1000,1000,81328289,1592,1591,1572,1571
44010722,1000,1000,1000,1000,81428249,1589,1589,1573,1573
44013221,1000,1000,1000,1000,81528209,1587,1586,1575,1575
44015720,1000,1000,1000,1000,81628169,1584,1584,1577,1577
44018219,1000,1000,1000,1000,81728962,1582,1582,1579,1579
44020718,1000,1000,1000,1000,81828922,1580,1580,1581,1581
44023217,1000,1000,1000,1000,81928882,1578,1578,1582,1582
44025716,1000,1000,1000,1000,82028842,1578,1578,1583,1584
44028215,1000,1000,1000,1000,82128802,1576,1577,1584,1584
44030714,1000,1000,1000,1000,82228762,1576,1576,1584,1584
44033213,1000,1000,1000,1000,82328722,1576,1577,1585,1585
44035712,1000,1000,1000,1000,82428682,1576,1576,1584,1583
44038211,1000,1000,1000,1000,82528642,1577,1577,1584,1584
44040710,1000,1000,1000,1000,82628602,1576,1576,1583,1583
44043209,1000,1000,1000,1000,82728562,1576,1577,1582,1582
44045708,1000,1000,1000,1000,82828522,1577,1577,1582,1582
44048207,1000,1000,1000,1000,82928482,1577,1577,1580,1581
44050706,1000,1000,1000,1000,83028442,1578,1578,1581,1581
44053205,1000,1000,1000,1000,83128402,1578,1578,1580,1580
44055704,1000,1000,1000,1000,83228362,1580,1579,1581,1581
44058203,1000,1000,1000,1000,83328322,1580,1580,1580,1581
44060702,1000,1000,1000,1000,83428282,1579,1579,1579,1579
44063201,1000,1000,1000,1000,83528242,1580,1580,1579,1579
44065700,1000,1000,1000,1000,83628202,1581,1580,1580,1580
44068199,1000,1000,1000,1000,83728162,1581,1582,1581,1580
44070698,1000,1000,1000,1000,83828955,1581,1581,1580,1580
44073197,1000,1000,1000,1000,83928915,1581,1581,1580,1580
44075696,1000,1000,1000,1000,84028875,1581,1582,1580,1581
44078195,1000,1000,1000,1000,84128835,1582,1582,1581,1581
44080694,1000,1000,1000,1000,84228795,1583,1582,1582,1581
44083193,1000,1000,1000,1000,84328755,1582,1582,1581,1581
44085692,1000,1000,1000,1000,84428715,1582,1584,1586,1575
44088191,1000,1000,1000,1000,84528675,1581,1585,1586,1573
44090690,1000,1000,1000,1000,84628635,1578,1581,1580,1574
44093189,1000,1000,1000,1000,84728595,1575,1577,1572,1575
44095688,1000,1000,1000,1000,84828555,1572,1571,1567,1574
44098187,1000,1000,1000,1000,84928515,1570,1568,1564,1571
44100686,1000,1000,1000,1000,85028475,1569,1566,1564,1568
44103185,1000,1000,1000,1000,85128435,1568,1566,1565,1566
44105684,1000,1000,1000,1000,85228395,1567,1566,1567,1565
44108183,1000,1000,1000,1000,85328355,1566,1566,1568,1565
44110682,1000,1000,1000,1000,85428315,1564,1565,1566,1564
44113181,1000,1000,1000,1000,85528275,1564,1564,1566,1565
44115680,1000,1000,1000,1000,85628235,1563,1564,1565,1564
44118179,1000,1000,1000,1000,85728195,1562,1563,1564,1564
44120678,1000,1000,1000,1000,85828155,1562,1562,1563,1563
44123177,1000,1000,1000,1000,85928948,1562,1561,1562,1563
44125676,1000,1000,1000,1000,86028908,1562,1561,1563,1563
44128175,1000,1000,1000,1000,86128868,1562,1562,1562,1562
44130674,1000,1000,1000,1000,86228828,1562,1561,1562,1561
44133173,1000,1000,1000,1000,86328788,1561,1561,1562,1561
44135672,1000,1000,1000,1000,86428748,1559,1559,1560,1559
44138171,1000,1000,1000,1000,86528708,1558,1559,1558,1558
44140670,1000,1000,1000,1000,86628668,1559,1559,1559,1558
44143169,1000,1000,1000,1000,86728628,1558,1558,1558,1557
44145668,1000,1000,1000,1000,86828588,1558,1558,1558,1557
44148167,1000,1000,1000,1000,86928548,1558,1558,1558,1557
44150666,1000,1000,1000,1000,87028508,1558,1558,1559,1557
44153165,1000,1000,1000,1000,87128468,1557,1559,1559,1557
44155664,1000,1000,1000,1000,87228428,1558,1559,1559,1558
44158163,1000,1000,1000,1000,87328388,1559,1560,1558,1561
44160662,1000,1000,1000,1000,87428348,1561,1560,1557,1563
44163161,1000,1000,1000,1000,87528308,1561,1560,1557,1564
44165660,1000,1000,1000,1000,87628268,1562,1561,1559,1563
44168159,1000,1000,1000,1000,87728228,1561,1560,1560,1561
44170658,1000,1000,1000,1000,87828188,1560,1559,1560,1558
44173157,1000,1000,1000,1000,87928981,1559,1558,1558,1560
44175656,1000,1000,1000,1000,88028941,1556,1556,1555,1558
44178155,1000,1000,1000,1000,88128901,1551,1551,1551,1552
44180654,1000,1000,1000,1000,88228861,1546,1546,1546,1546
44183986,1000,1000,1000,1000,88328821,1539,1539,1540,1540
44186485,1000,1000,1000,1000,88428781,1532,1532,1532,1532
44188984,1000,1000,1000,1000,88528741,1524,1525,1525,1525
44191483,1000,1000,1000,1000,88628701,1520,1520,1520,1520
44193982,1000,1000,1000,1000,88728661,1520,1519,1520,1520
44196481,1000,1000,1000,1000,88828621,1520,1521,1521,1521
44198980,1000,1000,1000,1000,88928581,1522,1523,1522,1523
44201479,1000,1000,1000,1000,89028541,1526,1526,1526,1526
44203978,1000,1000,1000,1000,89128501,1529,1529,1529,1529
44206477,1000,1000,1000,1000,89228461,1535,1534,1535,1534
44208976,1000,1000,1000,1000,89328421,1538,1538,1538,1538
44211475,1000,1000,1000,1000,89428381,1541,1542,1541,1542
44213974,1000,1000,1000,1000,89528341,1542,1543,1543,1542
44216473,1000,1000,1000,1000,89628301,1545,1545,1545,1545
44218972,1000,1000,1000,1000,89728261,1544,1545,1545,1545
44221471,1000,1000,1000,1000,89828221,1546,1546,1546,1546
44223970,1000,1000,1000,1000,89928181,1546,1545,1546,1545
44226469,1000,1000,1000,1000,90028974,1546,1546,1546,1546
44228968,1000,1000,1000,1000,90128934,1546,1546,1547,1546
44231467,1000,1000,1000,1000,90228894,1545,1546,1546,1546
44233966,1000,1000,1000,1000,90328854,1546,1546,1546,1546
44236465,1000,1000,1000,1000,90428814,1546,1546,1546,1546
44238964,1000,1000,1000,1000,90528774,1546,1545,1545,1546
44241463,1000,1000,1000,1000,90628734,1545,1545,1545,1545
44243962,1000,1000,1000,1000,90728694,1545,1544,1545,1544
44246461,1000,1000,1000,1000,90828654,1543,1543,1544,1543
44248960,1000,1000,1000,1000,90928614,1544,1543,1544,1544
44251459,1000,1000,1000,1000,91028574,1544,1544,1545,1544
44253958,1000,1000,1000,1000,91128534,1544,1544,1544,1544
44256457,1000,1000,1000,1000,91228494,1543,1544,1544,1543
44258956,1000,1000,1000,1000,91328454,1545,1544,1544,1544
44261455,1000,1000,1000,1000,91428414,1545,1544,1545,1544
44263954,1000,1000,1000,1000,91528374,1544,1544,1544,1545
44266453,1000,1000,1000,1000,91628334,1544,1544,1544,1545
44268952,1000,1000,1000,1000,91728294,1544,1544,1544,1544
44271451,1000,1000,1000,1000,91828254,1544,1544,1544,1544
44273950,1000,1000,1000,1000,91928214,1544,1544,1545,1544
44276449,1000,1000,1000,1000,92028174,1545,1545,1545,1545
44278948,1000,1000,1000,1000,92128967,1544,1544,1544,1545
44281447,1000,1000,1000,1000,92228927,1545,1544,1545,1545
44283946,1000,1000,1000,1000,92328887,1544,1544,1544,1544
44286445,1000,1000,1000,1000,92428847,1543,1544,1544,1544
44288944,1000,1000,1000,1000,92528807,1544,1544,1544,1544
44291443,1000,1000,1000,1000,92628767,1544,1544,1544,1544
44293942,1000,1000,1000,1000,92728727,1544,1544,1544,1544
44296441,1000,1000,1000,1000,92828687,1545,1544,1544,1544
44298940,1000,1000,1000,1000,92928647,1544,1544,1545,1544
44301439,1000,1000,1000,1000,93028607,1543,1543,1544,1543
44303938,1000,1000,1000,1000,93128567,1544,1543,1544,1543
44306437,1000,1000,1000,1000,93228527,1544,1544,1544,1545
44308936,1000,1000,1000,1000,93328487,1544,1544,1544,1545
44311435,1000,1000,1000,1000,93428447,1544,1545,1544,1544
44313934,1000,1000,1000,1000,93528407,1544,1544,1544,1545
44316433,1000,1000,1000,1000,93628367,1544,1544,1545,1544
44318932,1000,1000,1000,1000,93728327,1544,1544,1544,1544
44321431,1000,1000,1000,1000,93828287,1545,1544,1545,1545
44323930,1000,1000,1000,1000,93928247,1544,1544,1544,1544
44326429,1000,1000,1000,1000,94028207,1545,1544,1545,1544
44328928,1000,1000,1000,1000,94128167,1544,1544,1544,1544
44331427,1000,1000,1000,1000,94228960,1544,1545,1545,1544
44333926,1000,1000,1000,1000,94328920,1544,1544,1544,1544
44336425,1000,1000,1000,1000,94428880,1545,1544,1544,1545
44338924,1000,1000,1000,1000,94528840,1544,1544,1544,1545
44341423,1000,1000,1000,1000,94628800,1544,1544,1544,1544
44343922,1000,1000,1000,1000,94728760,1543,1543,1543,1543
44346421,1000,1000,1000,1000,94828720,1544,1544,1544,1544
44348920,1000,1000,1000,1000,94928680,1544,1544,1544,1544
44351419,1000,1000,1000,1000,95028640,1543,1544,1544,1544
44353918,1000,1000,1000,1000,95128600,1544,1544,1545,1544
44356417,1000,1000,1000,1000,95228560,1545,1545,1545,1545
44358916,1000,1000,1000,1000,95328520,1545,1544,1545,1545
44361415,1000,1000,1000,1000,95428480,1544,1545,1545,1544
44363914,1000,1000,1000,1000,95528440,1544,1544,1543,1544
44366413,1000,1000,1000,1000,95628400,1544,1544,1544,1544
44368912,1000,1000,1000,1000,95728360,1544,1544,1544,1544
44371411,1000,1000,1000,1000,95828320,1543,1543,1544,1543
44373910,1000,1000,1000,1000,95928280,1545,1545,1545,1545
44376409,1000,1000,1000,1000,96028240,1544,1544,1544,1544
44378908,1000,1000,1000,1000,96128200,1544,1544,1544,1544
44381407,1000,1000,1000,1000,96228160,1544,1544,1545,1544
44383906,1000,1000,1000,1000,96328953,1543,1543,1543,1543
44386405,1000,1000,1000,1000,96428913,1544,1544,1544,1544
44388904,1000,1000,1000,1000,96528873,1545,1545,1545,1545
44391403,1000,1000,1000,1000,96628833,1545,1545,1545,1545
44393902,1000,1000,1000,1000,96728793,1545,1545,1544,1545
44396401,1000,1000,1000,1000,96828753,1544,1544,1544,1544
44398900,1000,1000,1000,1000,96928713,1544,1544,1544,1544
44401399,1000,1000,1000,1000,97028673,1545,1544,1545,1544
44403898,1000,1000,1000,1000,97128633,1545,1544,1545,1545
44406397,1000,1000,1000,1000,97228593,1544,1545,1545,1545
44408896,1000,1000,1000,1000,97328553,1544,1544,1544,1544
44411395,1000,1000,1000,1000,97428513,1544,1544,1544,1544
44413894,1000,1000,1000,1000,97528473,1544,1544,1544,1544
44416393,1000,1000,1000,1000,97628433,1544,1544,1544,1544
44418892,1000,1000,1000,1000,97728393,1544,1543,1544,1544
44421391,1000,1000,1000,1000,97828353,1544,1544,1544,1544
44423890,1000,1000,1000,1000,97928313,1545,1544,1544,1544
44426389,1000,1000,1000,1000,98028273,1544,1545,1545,1544
44428888,1000,1000,1000,1000,98128233,1544,1544,1544,1544
44431387,1000,1000,1000,1000,98228193,1544,1544,1544,1544
44433886,1000,1000,1000,1000,98328986,1509,1507,1508,1509
44436385,1000,1000,1000,1000,98428946,1326,1324,1327,1325
44438884,1000,1000,1000,1000,98528906,1240,1237,1241,1239
44441383,1000,1000,1000,1000,98628866,1212,1210,1215,1212
44443882,1000,1000,1000,1000,98728826,1185,1182,1188,1186
44446381,1000,1000,1000,1000,98828786,1152,1150,1157,1153
44448880,1000,1000,1000,1000,98928746,1153,1150,1158,1154
44451379,1000,1000,1000,1000,99028706,1153,1150,1159,1154
44453878,1000,1000,1000,1000,99128666,1183,1150,1155,1189
44456377,1000,1000,1000,1000,99228626,1176,1150,1158,1180
44458876,1000,1000,1000,1000,99328586,1173,1150,1160,1176
44461375,1000,1000,1000,1000,99428546,1173,1150,1161,1176
44463874,1000,1000,1000,1000,99528506,1175,1150,1161,1179
44466373,1000,1000,1000,1000,99628466,1177,1150,1162,1181
44468872,1000,1000,1000,1000,99728426,1179,1150,1163,1184
44471371,1000,1000,1000,1000,99828386,1181,1150,1163,1186
44473870,1000,1000,1000,1000,99928346,1166,1150,1163,1172
44476369,1000,1000,1000,1000,100028306,1168,1150,1163,1175
44478868,1000,1000,1000,1000,100128266,1168,1150,1164,1176
44481367,1000,1000,1000,1000,100228226,1169,1150,1164,1177
44483866,1000,1000,1000,1000,100328186,1170,1150,1165,1178
44486365,1000,1000,1000,1000,100428979,1000,1000,1000,1000
44488864,1000,1000,1000,1000,100528939,1000,1000,1000,1000
44491363,1000,1000,1000,1000,100628899,1000,1000,1000,1000
44493862,1000,1000,1000,1000,100728859,1000,1000,1000,1000
44496361,1000,1000,1000,1000,100828819,1000,1000,1000,1000
44498860,1000,1000,1000,1000,100928779,1000,1000,1000,1000
44501359,1000,1000,1000,1000,101028739,1000,1000,1000,1000
44503858,1000,1000,1000,1000,101128699,1000,1000,1000,1000
44506357,1000,1000,1000,1000,101228659,1000,1000,1000,1000
44508856,1000,1000,1000,1000,101328619,1000,1000,1000,1000
44511355,1000,1000,1000,1000,101428579,1000,1000,1000,1000
44513854,1000,1000,1000,1000,101528539,1000,1000,1000,1000
44516353,1000,1000,1000,1000,101628499,1000,1000,1000,1000
44518852,1000,1000,1000,1000,101728459,1000,1000,1000,1000
44521351,1000,1000,1000,1000,101828419,1000,1000,1000,1000
44523850,1000,1000,1000,1000,101928379,1000,1000,1000,1000
44526349,1000,1000,1000,1000,102028339,1000,1000,1000,1000
44528848,1000,1000,1000,1000,102128299,1000,1000,1000,1000
44531347,1000,1000,1000,1000,102228259,1000,1000,1000,1000
44533846,1000,1000,1000,1000,102328219,1000,1000,1000,1000
44536345,1000,1000,1000,1000,102428179,1000,1000,1000,1000
44538844,1000,1000,1000,1000,102528972,1000,1000,1000,1000
44541343,1000,1000,1000,1000,102628932,1000,1000,1000,1000
44543842,1000,1000,1000,1000,102728892,1000,1000,1000,1000
44546341,1000,1000,1000,1000,102828852,1000,1000,1000,1000
44548840,1000,1000,1000,1000,102928812,1000,1000,1000,1000
44551339,1000,1000,1000,1000,103028772,1000,1000,1000,1000
44553838,1000,1000,1000,1000,103128732,1000,1000,1000,1000
44556337,1000,1000,1000,1000,103228692,1000,1000,1000,1000
44558836,1000,1000,1000,1000,103328652,1000,1000,1000,1000
44561335,1000,1000,1000,1000,103428612,1000,1000,1000,1000
44563834,1000,1000,1000,1000,103528572,1000,1000,1000,1000
44566333,1000,1000,1000,1000,103628532,1000,1000,1000,1000
44568832,1000,1000,1000,1000,103728492,1000,1000,1000,1000
44571331,1000,1000,1000,1000,103828452,1000,1000,1000,1000
44573830,1000,1000,1000,1000,103928412,1000,1000,1000,1000
44576329,1000,1000,1000,1000,104028372,1000,1000,1000,1000
44578828,1000,1000,1000,1000,104128332,1000,1000,1000,1000
44581327,1000,1000,1000,1000,104228292,1000,1000,1000,1000
44583826,1000,1000,1000,1000,104328252,1000,1000,1000,1000
44586325,1000,1000,1000,1000,104428212,1000,1000,1000,1000
44588824,1000,1000,1000,1000,104528172,1000,1000,1000,1000
44591323,1000,1000,1000,1000,104628965,1000,1000,1000,1000
44593822,1000,1000,1000,1000,104728925,1000,1000,1000,1000
44596321,1000,1000,1000,1000,104828885,1000,1000,1000,1000
44598820,1000,1000,1000,1000,104928845,1000,1000,1000,1000
44601319,1000,1000,1000,1000,105028805,1000,1000,1000,1000
44603818,1000,1000,1000,1000,105128765,1000,1000,1000,1000
44606317,1000,1000,1000,1000,105228725,1000,1000,1000,1000
44608816,1000,1000,1000,1000,105328685,1000,1000,1000,1000
44611315,1000,1000,1000,1000,105428645,1000,1000,1000,1000
44613814,1000,1000,1000,1000,105528605,1000,1000,1000,1000
44616313,1000,1000,1000,1000,105628565,1000,1000,1000,1000
44618812,1000,1000,1000,1000,105728525,1000,1000,1000,1000
44621311,1000,1000,1000,1000,105828485,1000,1000,1000,1000
44623810,1000,1000,1000,1000,105928445,1000,1000,1000,1000
44626309,1000,1000,1000,1000,106028405,1000,1000,1000,1000
44628808,1000,1000,1000,1000,106128365,1000,1000,1000,1000
44631307,1000,1000,1000,1000,106228325,1000,1000,1000,1000
44633806,1000,1000,1000,1000,106328285,1000,1000,1000,1000
44636305,1000,1000,1000,1000,106428245,1000,1000,1000,1000
44638804,1000,1000,1000,1000,106528205,1000,1000,1000,1000
44641303,1000,1000,1000,1000,106628165,1000,1000,1000,1000
44643802,1000,1000,1000,1000,106728958,1000,1000,1000,1000
44646301,1000,1000,1000,1000,106828918,1000,1000,1000,1000
44648800,1000,1000,1000,1000,106928878,1000,1000,1000,1000
44651299,1000,1000,1000,1000,107028838,1000,1000,1000,1000
44653798,1000,1000,1000,1000,107128798,1000,1000,1000,1000
44656297,1000,1000,1000,1000,107228758,1000,1000,1000,1000
44658796,1000,1000,1000,1000,107328718,1000,1000,1000,1000
44661295,1000,1000,1000,1000,107428678,1000,1000,1000,1000
44663794,1000,1000,1000,1000,107528638,1000,1000,1000,1000
44666293,1000,1000,1000,1000,107628598,1000,1000,1000,1000
44668792,1000,1000,1000,1000,107728558,1000,1000,1000,1000
44671291,1000,1000,1000,1000,107828518,1000,1000,1000,1000
44673790,1000,1000,1000,1000,107928478,1000,1000,1000,1000
44676289,1000,1000,1000,1000,108028438,1000,1000,1000,1000
44678788,1000,1000,1000,1000,108128398,1000,1000,1000,1000
44681287,1000,1000,1000,1000,108228358,1000,1000,1000,1000
44683786,1000,1000,1000,1000,108328318,1000,1000,1000,1000
44686285,1000,1000,1000,1000,108428278,1000,1000,1000,1000
44688784,1000,1000,1000,1000,108528238,1000,1000,1000,1000
44691283,1000,1000,1000,1000,108628198,1000,1000,1000,1000
44693782,1000,1000,1000,1000,108728158,1000,1000,1000,1000
44696281,1000,1000,1000,1000,108828951,1000,1000,1000,1000
44698780,1000,1000,1000,1000,108928911,1000,1000,1000,1000
44701279,1000,1000,1000,1000,109028871,1000,1000,1000,1000
44703778,1000,1000,1000,1000,109128831,1000,1000,1000,1000
44706277,1000,1000,1000,1000,109228791,1000,1000,1000,1000
44708776,1000,1000,1000,1000,109328751,1000,1000,1000,1000
44711275,1000,1000,1000,1000,109428711,1000,1000,1000,1000
44713774,1000,1000,1000,1000,109528671,1000,1000,1000,1000
44716273,1000,1000,1000,1000,109628631,1000,1000,1000,1000
44718772,1000,1000,1000,1000,109728591,1000,1000,1000,1000
44721271,1000,1000,1000,1000,109828551,1000,1000,1000,1000
44723770,1000,1000,1000,1000,109928511,1000,1000,1000,1000
44726269,1000,1000,1000,1000,110028471,1000,1000,1000,1000
44728768,1000,1000,1000,1000,110128431,1000,1000,1000,1000
44731267,1000,1000,1000,1000,110228391,1000,1000,1000,1000
44733766,1000,1000,1000,1000,110328351,1000,1000,1000,1000
44736265,1000,1000,1000,1000,110428311,1000,1000,1000,1000
44738764,1000,1000,1000,1000,110528271,1000,1000,1000,1000
44741263,1000,1000,1000,1000,110628231,1000,1000,1000,1000
44743762,1000,1000,1000,1000,110728191,1000,1000,1000,1000
44746261,1000,1000,1000,1000,110828984,1000,1000,1000,1000
44748760,1000,1000,1000,1000,110928944,1000,1000,1000,1000
44751259,1000,1000,1000,1000,111028904,1000,1000,1000,1000
44753758,1000,1000,1000,1000,111128864,1000,1000,1000,1000
44756257,1000,1000,1000,1000,111228824,1000,1000,1000,1000
44758756,1000,1000,1000,1000,111328784,1000,1000,1000,1000
44761255,1000,1000,1000,1000,111428744,1000,1000,1000,1000
44763754,1000,1000,1000,1000,111528704,1000,1000,1000,1000
44766253,1000,1000,1000,1000,111628664,1000,1000,1000,1000
44768752,1000,1000,1000,1000,111728624,1000,1000,1000,1000
44771251,1000,1000,1000,1000,111828584,1000,1000,1000,1000
44773750,1000,1000,1000,1000,111928544,1000,1000,1000,1000
44776249,1000,1000,1000,1000,112028504,1000,1000,1000,1000
44778748,1000,1000,1000,1000,112128464,1000,1000,1000,1000
44781247,1000,1000,1000,1000,112228424,1000,1000,1000,1000
44783746,1000,1000,1000,1000,112328384,1000,1000,1000,1000
44786245,1000,1000,1000,1000,112428344,1000,1000,1000,1000
44788744,1000,1000,1000,1000,112528304,1000,1000,1000,1000
44791243,1000,1000,1000,1000,112628264,1000,1000,1000,1000
44793742,1000,1000,1000,1000,112728224,1000,1000,1000,1000
44796241,1000,1000,1000,1000,112828184,1000,1000,1000,1000
44798740,1000,1000,1000,1000,112928977,1000,1000,1000,1000
44801239,1000,1000,1000,1000,113028937,1000,1000,1000,1000
44803738,1000,1000,1000,1000,113128897,1000,1000,1000,1000
44806237,1000,1000,1000,1000,113228857,1000,1000,1000,1000
44808736,1000,1000,1000,1000,113328817,1000,1000,1000,1000
44811235,1000,1000,1000,1000,113428777,1000,1000,1000,1000
44813734,1000,1000,1000,1000,113528737,1000,1000,1000,1000
44816233,1000,1000,1000,1000,113628697,1000,1000,1000,1000
44818732,1000,1000,1000,1000,113728657,1000,1000,1000,1000
44821231,1000,1000,1000,1000,,,,,
44823730,1000,1000,1000,1000,,,,,
44826229,1000,1000,1000,1000,,,,,
44828728,1000,1000,1000,1000,,,,,
44831227,1000,1000,1000,1000,,,,,
44833726,1000,1000,1000,1000,,,,,
44836225,1000,1000,1000,1000,,,,,
44838724,1000,1000,1000,1000,,,,,
44841223,1000,1000,1000,1000,,,,,
44843722,1000,1000,1000,1000,,,,,
44846221,1000,1000,1000,1000,,,,,
44848720,1000,1000,1000,1000,,,,,
44851219,1000,1000,1000,1000,,,,,
44853718,1000,1000,1000,1000,,,,,
44856217,1000,1000,1000,1000,,,,,
44858716,1000,1000,1000,1000,,,,,
44861215,1000,1000,1000,1000,,,,,
44863714,1000,1000,1000,1000,,,,,
44866213,1000,1000,1000,1000,,,,,
44868712,1000,1000,1000,1000,,,,,
44871211,1000,1000,1000,1000,,,,,
44873710,1000,1000,1000,1000,,,,,
44876209,1000,1000,1000,1000,,,,,
44878708,1000,1000,1000,1000,,,,,
44881207,1000,1000,1000,1000,,,,,
44883706,1000,1000,1000,1000,,,,,
44886205,1000,1000,1000,1000,,,,,
44888704,1000,1000,1000,1000,,,,,
44891203,1000,1000,1000,1000,,,,,
44893702,1000,1000,1000,1000,,,,,
44896201,1000,1000,1000,1000,,,,,
44898700,1000,1000,1000,1000,,,,,
44901199,1000,1000,1000,1000,,,,,
44903698,1000,1000,1000,1000,,,,,
44906197,1000,1000,1000,1000,,,,,
44908696,1000,1000,1000,1000,,,,,
44911195,1000,1000,1000,1000,,,,,
44913694,1000,1000,1000,1000,,,,,
44916193,1000,1000,1000,1000,,,,,
44918692,1000,1000,1000,1000,,,,,
44921191,1000,1000,1000,1000,,,,,
44923690,1000,1000,1000,1000,,,,,
44926189,1000,1000,1000,1000,,,,,
44928688,1000,1000,1000,1000,,,,,
44931187,1000,1000,1000,1000,,,,,
44933686,1000,1000,1000,1000,,,,,
44936185,1000,1000,1000,1000,,,,,
44938684,1000,1000,1000,1000,,,,,
44941183,1000,1000,1000,1000,,,,,
44943682,1000,1000,1000,1000,,,,,
44946181,1000,1000,1000,1000,,,,,
44948680,1000,1000,1000,1000,,,,,
44951179,1000,1000,1000,1000,,,,,
44953678,1000,1000,1000,1000,,,,,
44956177,1000,1000,1000,1000,,,,,
44958676,1000,1000,1000,1000,,,,,
44961175,1000,1000,1000,1000,,,,,
44963674,1000,1000,1000,1000,,,,,
44966173,1000,1000,1000,1000,,,,,
44968672,1000,1000,1000,1000,,,,,
44971171,1000,1000,1000,1000,,,,,
44973670,1000,1000,1000,1000,,,,,
44976169,1000,1000,1000,1000,,,,,
44978668,1000,1000,1000,1000,,,,,
44981167,1000,1000,1000,1000,,,,,
44983666,1000,1000,1000,1000,,,,,
44986165,1000,1000,1000,1000,,,,,
44988664,1000,1000,1000,1000,,,,,
44991163,1000,1000,1000,1000,,,,,
44993662,1000,1000,1000,1000,,,,,
44996161,1000,1000,1000,1000,,,,,
44998660,1000,1000,1000,1000,,,,,
45001159,1000,1000,1000,1000,,,,,
45003658,1000,1000,1000,1000,,,,,
45006157,1000,1000,1000,1000,,,,,
45008656,1000,1000,1000,1000,,,,,
45011155,1000,1000,1000,1000,,,,,
45013654,1000,1000,1000,1000,,,,,
45016153,1000,1000,1000,1000,,,,,
45018652,1000,1000,1000,1000,,,,,
45021151,1000,1000,1000,1000,,,,,
45023650,1000,1000,1000,1000,,,,,
45026149,1000,1000,1000,1000,,,,,
45028648,1000,1000,1000,1000,,,,,
45031147,1000,1000,1000,1000,,,,,
45033646,1000,1000,1000,1000,,,,,
45036145,1000,1000,1000,1000,,,,,
45038644,1000,1000,1000,1000,,,,,
45041143,1000,1000,1000,1000,,,,,
45043642,1000,1000,1000,1000,,,,,
45046141,1000,1000,1000,1000,,,,,
45048640,1000,1000,1000,1000,,,,,
45051139,1000,1000,1000,1000,,,,,
45053638,1000,1000,1000,1000,,,,,
45056137,1000,1000,1000,1000,,,,,
45058636,1000,1000,1000,1000,,,,,
45061135,1001,1001,1001,1001,,,,,
45063634,1002,1002,1002,1002,,,,,
45066133,1003,1003,1003,1003,,,,,
45068632,1003,1003,1003,1003,,,,,
45071131,1004,1004,1004,1004,,,,,
45073630,1005,1005,1005,1005,,,,,
45076129,1006,1006,1006,1006,,,,,
45078628,1006,1006,1006,1006,,,,,
45081127,1007,1007,1007,1007,,,,,
45083626,1008,1008,1008,1008,,,,,
45086125,1009,1009,1009,1009,,,,,
45088624,1009,1009,1009,1009,,,,,
45091123,1010,1010,1010,1010,,,,,
45093622,1011,1011,1011,1011,,,,,
45096121,1012,1012,1012,1012,,,,,
45098620,1012,1012,1012,1012,,,,,
45101119,1013,1013,1013,1013,,,,,
45103618,1014,1014,1014,1014,,,,,
45106117,1015,1015,1015,1015,,,,,
45108616,1015,1015,1015,1015,,,,,
45111115,1016,1016,1016,1016,,,,,
45113614,1017,1017,1017,1017,,,,,
45116113,1018,1018,1018,1018,,,,,
45118612,1018,1018,1018,1018,,,,,
45121111,1019,1019,1019,1019,,,,,
45123610,1020,1020,1020,1020,,,,,
45126109,1021,1021,1021,1021,,,,,
45128608,1021,1021,1021,1021,,,,,
45131107,1022,1022,1022,1022,,,,,
45133606,1023,1023,1023,1023,,,,,
45136105,1024,1024,1024,1024,,,,,
45138604,1024,1024,1024,1024,,,,,
45141103,1025,1025,1025,1025,,,,,
45143602,1026,1026,1026,1026,,,,,
45146101,1027,1027,1027,1027,,,,,
45148600,1027,1027,1027,1027,,,,,
45151099,1028,1028,1028,1028,,,,,
45153598,1029,1029,1029,1029,,,,,
45156097,1030,1030,1030,1030,,,,,
45158596,1030,1030,1030,1030,,,,,
45161095,1031,1031,1031,1031,,,,,
45163594,1032,1032,1032,1032,,,,,
45166093,1033,1033,1033,1033,,,,,
45168592,1033,1033,1033,1033,,,,,
45171091,1034,1034,1034,1034,,,,,
45173590,1035,1035,1035,1035,,,,,
45176089,1036,1036,1036,1036,,,,,
45178588,1036,1036,1036,1036,,,,,
45181087,1037,1037,1037,1037,,,,,
45183586,1038,1038,1038,1038,,,,,
45186085,1039,1039,1039,1039,,,,,
45188584,1039,1039,1039,1039,,,,,
45191083,1040,1040,1040,1040,,,,,
45193582,1041,1041,1041,1041,,,,,
45196081,1042,1042,1042,1042,,,,,
45198580,1042,1042,1042,1042,,,,,
45201079,1043,1043,1043,1043,,,,,
45203578,1044,1044,1044,1044,,,,,
45206077,1045,1045,1045,1045,,,,,
45208576,1045,1045,1045,1045,,,,,
45211075,1046,1046,1046,1046,,,,,
45213574,1047,1047,1047,1047,,,,,
45216073,1048,1048,1048,1048,,,,,
45218572,1048,1048,1048,1048,,,,,
45221071,1049,1049,1049,1049,,,,,
45223570,1050,1050,1050,1050,,,,,
45226069,1051,1051,1051,1051,,,,,
45228568,1051,1051,1051,1051,,,,,
45231067,1052,1052,1052,1052,,,,,
45233566,1053,1053,1053,1053,,,,,
45236065,1054,1054,1054,1054,,,,,
45238564,1054,1054,1054,1054,,,,,
45241063,1055,1055,1055,1055,,,,,
45243562,1056,1056,1056,1056,,,,,
45246061,1057,1057,1057,1057,,,,,
45248560,1057,1057,1057,1057,,,,,
45251059,1058,1058,1058,1058,,,,,
45253558,1059,1059,1059,1059,,,,,
45256057,1060,1060,1060,1060,,,,,
45258556,1060,1060,1060,1060,,,,,
45261055,1061,1061,1061,1061,,,,,
45263554,1062,1062,1062,1062,,,,,
45266053,1063,1063,1063,1063,,,,,
45268552,1063,1063,1063,1063,,,,,
45271051,1064,1064,1064,1064,,,,,
45273550,1065,1065,1065,1065,,,,,
45276049,1066,1066,1066,1066,,,,,
45278548,1066,1066,1066,1066,,,,,
45281047,1067,1067,1067,1067,,,,,
45283546,1068,1068,1068,1068,,,,,
45286045,1069,1069,1069,1069,,,,,
45288544,1069,1069,1069,1069,,,,,
45291043,1070,1070,1070,1070,,,,,
45293542,1071,1071,1071,1071,,,,,
45296041,1072,1072,1072,1072,,,,,
45298540,1072,1072,1072,1072,,,,,
45301039,1073,1073,1073,1073,,,,,
45303538,1074,1074,1074,1074,,,,,
45306037,1075,1075,1075,1075,,,,,
45308536,1075,1075,1075,1075,,,,,
45311035,1076,1076,1076,1076,,,,,
45313534,1077,1077,1077,1077,,,,,
45316033,1078,1078,1078,1078,,,,,
45318532,1078,1078,1078,1078,,,,,
45321031,1079,1079,1079,1079,,,,,
45323530,1080,1080,1080,1080,,,,,
45326029,1081,1081,1081,1081,,,,,
45328528,1081,1081,1081,1081,,,,,
45331027,1082,1082,1082,1082,,,,,
45333526,1083,1083,1083,1083,,,,,
45336025,1084,1084,1084,1084,,,,,
45338524,1084,1084,1084,1084,,,,,
45341023,1085,1085,1085,1085,,,,,
45343522,1086,1086,1086,1086,,,,,
45346021,1087,1087,1087,1087,,,,,
45348520,1087,1087,1087,1087,,,,,
45351019,1088,1088,1088,1088,,,,,
45353518,1089,1089,1089,1089,,,,,
45356017,1090,1090,1090,1090,,,,,
45358516,1090,1090,1090,1090,,,,,
45361015,1091,1091,1091,1091,,,,,
45363514,1092,1092,1092,1092,,,,,
45366013,1093,1093,1093,1093,,,,,
45368512,1093,1093,1093,1093,,,,,
45371011,1094,1094,1094,1094,,,,,
45373510,1095,1095,1095,1095,,,,,
45376009,1096,1096,1096,1096,,,,,
45378508,1096,1096,1096,1096,,,,,
45381007,1097,1097,1097,1097,,,,,
45383506,1098,1098,1098,1098,,,,,
45386005,1099,1099,1099,1099,,,,,
45388504,1099,1099,1099,1099,,,,,
45391003,1100,1100,1100,1100,,,,,
45393502,1100,1100,1100,1100,,,,,
45396001,1100,1100,1100,1100,,,,,
45398500,1100,1100,1100,1100,,,,,
45400999,1100,1100,1100,1100,,,,,
45403498,1100,1100,1100,1100,,,,,
45405997,1100,1100,1100,1100,,,,,
45408496,1100,1100,1100,1100,,,,,
45410995,1100,1100,1100,1100,,,,,
45413494,1100,1100,1100,1100,,,,,
45415993,1100,1100,1100,1100,,,,,
45418492,1100,1100,1100,1100,,,,,
45420991,1100,1100,1100,1100,,,,,
45423490,1100,1100,1100,1100,,,,,
45425989,1100,1100,1100,1100,,,,,
45428488,1100,1100,1100,1100,,,,,
45430987,1100,1100,1100,1100,,,,,
45433486,1100,1100,1100,1100,,,,,
45435985,1100,1100,1100,1100,,,,,
45438484,1100,1100,1100,1100,,,,,
45440983,1100,1100,1100,1100,,,,,
45443482,1100,1100,1100,1100,,,,,
45445981,1100,1100,1100,1100,,,,,
45448480,1100,1100,1100,1100,,,,,
45450979,1100,1100,1100,1100,,,,,
45453478,1100,1100,1100,1100,,,,,
45455977,1100,1100,1100,1100,,,,,
45458476,1100,1100,1100,1100,,,,,
45460975,1100,1100,1100,1100,,,,,
45463474,1100,1100,1100,1100,,,,,
45465973,1100,1100,1100,1100,,,,,
45468472,1100,1100,1100,1100,,,,,
45470971,1100,1100,1100,1100,,,,,
45473470,1100,1100,1100,1100,,,,,
45475969,1100,1100,1100,1100,,,,,
45478468,1100,1100,1100,1100,,,,,
45480967,1100,1100,1100,1100,,,,,
45483466,1100,1100,1100,1100,,,,,
45485965,1100,1100,1100,1100,,,,,
45488464,1100,1100,1100,1100,,,,,
45490963,1100,1100,1100,1100,,,,,
45493462,1100,1100,1100,1100,,,,,
45495961,1100,1100,1100,1100,,,,,
45498460,1100,1100,1100,1100,,,,,
45500959,1100,1100,1100,1100,,,,,
45503458,1100,1100,1100,1100,,,,,
45505957,1100,1100,1100,1100,,,,,
45508456,1100,1100,1100,1100,,,,,
45510955,1100,1100,1100,1100,,,,,
45513454,1100,1100,1100,1100,,,,,
45515953,1100,1100,1100,1100,,,,,
45518452,1100,1100,1100,1100,,,,,
45520951,1100,1100,1100,1100,,,,,
45523450,1100,1100,1100,1100,,,,,
45525949,1100,1100,1100,1100,,,,,
45528448,1100,1100,1100,1100,,,,,
45530947,1100,1100,1100,1100,,,,,
45533446,1100,1100,1100,1100,,,,,
45535945,1100,1100,1100,1100,,,,,
45538444,1100,1100,1100,1100,,,,,
45540943,1100,1100,1100,1100,,,,,
45543442,1100,1100,1100,1100,,,,,
45545941,1100,1100,1100,1100,,,,,
45548440,1100,1100,1100,1100,,,,,
45550939,1100,1100,1100,1100,,,,,
45553438,1100,1100,1100,1100,,,,,
45555937,1100,1100,1100,1100,,,,,
45558436,1100,1100,1100,1100,,,,,
45560935,1100,1100,1100,1100,,,,,
45563434,1100,1100,1100,1100,,,,,
45565933,1100,1100,1100,1100,,,,,
45568432,1100,1100,1100,1100,,,,,
45570931,1100,1100,1100,1100,,,,,
45573430,1100,1100,1100,1100,,,,,
45575929,1100,1100,1100,1100,,,,,
45578428,1100,1100,1100,1100,,,,,
45580927,1100,1100,1100,1100,,,,,
45583426,1100,1100,1100,1100,,,,,
45585925,1100,1100,1100,1100,,,,,
45588424,1100,1100,1100,1100,,,,,
45590923,1100,1100,1100,1100,,,,,
45593422,1100,1100,1100,1100,,,,,
45595921,1100,1100,1100,1100,,,,,
45598420,1100,1100,1100,1100,,,,,
45600919,1100,1100,1100,1100,,,,,
45603418,1100,1100,1100,1100,,,,,
45605917,1100,1100,1100,1100,,,,,
45608416,1100,1100,1100,1100,,,,,
45610915,1100,1100,1100,1100,,,,,
45613414,1100,1100,1100,1100,,,,,
45615913,1100,1100,1100,1100,,,,,
45618412,1100,1100,1100,1100,,,,,
45620911,1100,1100,1100,1100,,,,,
45623410,1100,1100,1100,1100,,,,,
45625909,1100,1100,1100,1100,,,,,
45628408,1100,1100,1100,1100,,,,,
45630907,1100,1100,1100,1100,,,,,
45633406,1100,1100,1100,1100,,,,,
45635905,1100,1100,1100,1100,,,,,
45638404,1100,1100,1100,1100,,,,,
45640903,1100,1100,1100,1100,,,,,
45643402,1100,1100,1100,1100,,,,,
45645901,1100,1100,1100,1100,,,,,
45648400,1100,1100,1100,1100,,,,,
45650899,1100,1100,1100,1100,,,,,
45653398,1100,1100,1100,1100,,,,,
45655897,1100,1100,1100,1100,,,,,
45658396,1100,1100,1100,1100,,,,,
45660895,1100,1100,1100,1100,,,,,
45663394,1100,1100,1100,1100,,,,,
45665893,1100,1100,1100,1100,,,,,
45668392,1100,1100,1100,1100,,,,,
45670891,1100,1100,1100,1100,,,,,
45673390,1100,1100,1100,1100,,,,,
45675889,1100,1100,1100,1100,,,,,
45678388,1100,1100,1100,1100,,,,,
45680887,1100,1100,1100,1100,,,,,
45683386,1100,1100,1100,1100,,,,,
45685885,1100,1100,1100,1100,,,,,
45688384,1100,1100,1100,1100,,,,,
45690883,1100,1100,1100,1100,,,,,
45693382,1100,1100,1100,1100,,,,,
45695881,1100,1100,1100,1100,,,,,
45698380,1100,1100,1100,1100,,,,,
45700879,1100,1100,1100,1100,,,,,
45703378,1100,1100,1100,1100,,,,,
45705877,1100,1100,1100,1100,,,,,
45708376,1100,1100,1100,1100,,,,,
45710875,1100,1100,1100,1100,,,,,
45713374,1100,1100,1100,1100,,,,,
45715873,1100,1100,1100,1100,,,,,
45718372,1100,1100,1100,1100,,,,,
45720871,1100,1100,1100,1100,,,,,
45723370,1100,1100,1100,1100,,,,,
45725869,1100,1100,1100,1100,,,,,
45728368,1100,1100,1100,1100,,,,,
45730867,1100,1100,1100,1100,,,,,
45733366,1100,1100,1100,1100,,,,,
45735865,1100,1100,1100,1100,,,,,
45738364,1100,1100,1100,1100,,,,,
45740863,1100,1100,1100,1100,,,,,
45743362,1100,1100,1100,1100,,,,,
45745861,1100,1100,1100,1100,,,,,
45748360,1100,1100,1100,1100,,,,,
45750859,1100,1100,1100,1100,,,,,
45753358,1100,1100,1100,1100,,,,,
45755857,1100,1100,1100,1100,,,,,
45758356,1100,1100,1100,1100,,,,,
45760855,1100,1100,1100,1100,,,,,
45763354,1100,1100,1100,1100,,,,,
45765853,1100,1100,1100,1100,,,,,
45768352,1100,1100,1100,1100,,,,,
45770851,1100,1100,1100,1100,,,,,
45773350,1100,1100,1100,1100,,,,,
45775849,1100,1100,1100,1100,,,,,
45778348,1100,1100,1100,1100,,,,,
45780847,1100,1100,1100,1100,,,,,
45783346,1100,1100,1100,1100,,,,,
45785845,1100,1100,1100,1100,,,,,
45788344,1100,1100,1100,1100,,,,,
45790843,1100,1100,1100,1100,,,,,
45793342,1100,1100,1100,1100,,,,,
45795841,1100,1100,1100,1100,,,,,
45798340,1100,1100,1100,1100,,,,,
45800839,1100,1100,1100,1100,,,,,
45803338,1100,1100,1100,1100,,,,,
45805837,1100,1100,1100,1100,,,,,
45808336,1100,1100,1100,1100,,,,,
45810835,1100,1100,1100,1100,,,,,
45813334,1100,1100,1100,1100,,,,,
45815833,1100,1100,1100,1100,,,,,
45818332,1100,1100,1100,1100,,,,,
45820831,1100,1100,1100,1100,,,,,
45823330,1100,1100,1100,1100,,,,,
45825829,1100,1100,1100,1100,,,,,
45828328,1100,1100,1100,1100,,,,,
45830827,1100,1100,1100,1100,,,,,
45833326,1100,1100,1100,1100,,,,,
45835825,1100,1100,1100,1100,,,,,
45838324,1100,1100,1100,1100,,,,,
45840823,1100,1100,1100,1100,,,,,
45843322,1100,1100,1100,1100,,,,,
45845821,1100,1100,1100,1100,,,,,
45848320,1100,1100,1100,1100,,,,,
45850819,1100,1100,1100,1100,,,,,
45853318,1100,1100,1100,1100,,,,,
45855817,1100,1100,1100,1100,,,,,
45858316,1100,1100,1100,1100,,,,,
45860815,1100,1100,1100,1100,,,,,
45863314,1100,1100,1100,1100,,,,,
45865813,1100,1100,1100,1100,,,,,
45868312,1100,1100,1100,1100,,,,,
45870811,1100,1100,1100,1100,,,,,
45873310,1100,1100,1100,1100,,,,,
45875809,1100,1100,1100,1100,,,,,
45878308,1100,1100,1100,1100,,,,,
45880807,1100,1100,1100,1100,,,,,
45883306,1100,1100,1100,1100,,,,,
45885805,1100,1100,1100,1100,,,,,
45888304,1100,1100,1100,1100,,,,,
45890803,1100,1100,1100,1100,,,,,
45893302,1100,1100,1100,1100,,,,,
45895801,1100,1100,1100,1100,,,,,
45898300,1100,1100,1100,1100,,,,,
45900799,1100,1100,1100,1100,,,,,
45903298,1100,1100,1100,1100,,,,,
45905797,1100,1100,1100,1100,,,,,
45908296,1100,1100,1100,1100,,,,,
45910795,1100,1100,1100,1100,,,,,
45913294,1100,1100,1100,1100,,,,,
45915793,1100,1100,1100,1100,,,,,
45918292,1100,1100,1100,1100,,,,,
45920791,1100,1100,1100,1100,,,,,
45923290,1100,1100,1100,1100,,,,,
45925789,1100,1100,1100,1100,,,,,
45928288,1100,1100,1100,1100,,,,,
45930787,1100,1100,1100,1100,,,,,
45933286,1100,1100,1100,1100,,,,,
45935785,1100,1100,1100,1100,,,,,
45938284,1100,1100,1100,1100,,,,,
45940783,1100,1100,1100,1100,,,,,
45943282,1100,1100,1100,1100,,,,,
45945781,1100,1100,1100,1100,,,,,
45948280,1100,1100,1100,1100,,,,,
45950779,1100,1100,1100,1100,,,,,
45953278,1100,1100,1100,1100,,,,,
45955777,1100,1100,1100,1100,,,,,
45958276,1100,1100,1100,1100,,,,,
45960775,1100,1100,1100,1100,,,,,
45963274,1100,1100,1100,1100,,,,,
45965773,1100,1100,1100,1100,,,,,
45968272,1100,1100,1100,1100,,,,,
45970771,1100,1100,1100,1100,,,,,
45973270,1100,1100,1100,1100,,,,,
45975769,1100,1100,1100,1100,,,,,
45978268,1100,1100,1100,1100,,,,,
45980767,1100,1100,1100,1100,,,,,
45983266,1100,1100,1100,1100,,,,,
45985765,1100,1100,1100,1100,,,,,
45988264,1100,1100,1100,1100,,,,,
45990763,1100,1100,1100,1100,,,,,
45993262,1100,1100,1100,1100,,,,,
45995761,1100,1100,1100,1100,,,,,
45998260,1100,1100,1100,1100,,,,,
46000759,1100,1100,1100,1100,,,,,
46003258,1100,1100,1100,1100,,,,,
46005757,1100,1100,1100,1100,,,,,
46008256,1100,1100,1100,1100,,,,,
46010755,1100,1100,1100,1100,,,,,
46013254,1100,1100,1100,1100,,,,,
46015753,1100,1100,1100,1100,,,,,
46018252,1100,1100,1100,1100,,,,,
46020751,1100,1100,1100,1100,,,,,
46023250,1100,1100,1100,1100,,,,,
46025749,1100,1100,1100,1100,,,,,
46028248,1100,1100,1100,1100,,,,,
46030747,1100,1100,1100,1100,,,,,
46033246,1100,1100,1100,1100,,,,,
46035745,1100,1100,1100,1100,,,,,
46038244,1100,1100,1100,1100,,,,,
46040743,1100,1100,1100,1100,,,,,
46043242,1100,1100,1100,1100,,,,,
46045741,1100,1100,1100,1100,,,,,
46048240,1100,1100,1100,1100,,,,,
46050739,1100,1100,1100,1100,,,,,
46053238,1100,1100,1100,1100,,,,,
46055737,1100,1100,1100,1100,,,,,
46058236,1100,1100,1100,1100,,,,,
46060735,1100,1100,1100,1100,,,,,
46063234,1100,1100,1100,1100,,,,,
46065733,1100,1100,1100,1100,,,,,
46068232,1100,1100,1100,1100,,,,,
46070731,1100,1100,1100,1100,,,,,
46073230,1100,1100,1100,1100,,,,,
46075729,1100,1100,1100,1100,,,,,
46078228,1100,1100,1100,1100,,,,,
46080727,1100,1100,1100,1100,,,,,
46083226,1100,1100,1100,1100,,,,,
46085725,1100,1100,1100,1100,,,,,
46088224,1100,1100,1100,1100,,,,,
46090723,1100,1100,1100,1100,,,,,
46093222,1100,1100,1100,1100,,,,,
46095721,1100,1100,1100,1100,,,,,
46098220,1100,1100,1100,1100,,,,,
46100719,1100,1100,1100,1100,,,,,
46103218,1100,1100,1100,1100,,,,,
46105717,1100,1100,1100,1100,,,,,
46108216,1100,1100,1100,1100,,,,,
46110715,1100,1100,1100,1100,,,,,
46113214,1100,1100,1100,1100,,,,,
46115713,1100,1100,1100,1100,,,,,
46118212,1100,1100,1100,1100,,,,,
46120711,1100,1100,1100,1100,,,,,
46123210,1100,1100,1100,1100,,,,,
46125709,1100,1100,1100,1100,,,,,
46128208,1100,1100,1100,1100,,,,,
46130707,1100,1100,1100,1100,,,,,
46133206,1100,1100,1100,1100,,,,,
46135705,1100,1100,1100,1100,,,,,
46138204,1100,1100,1100,1100,,,,,
46140703,1100,1100,1100,1100,,,,,
46143202,1100,1100,1100,1100,,,,,
46145701,1100,1100,1100,1100,,,,,
46148200,1100,1100,1100,1100,,,,,
46150699,1100,1100,1100,1100,,,,,
46153198,1100,1100,1100,1100,,,,,
46155697,1100,1100,1100,1100,,,,,
46158196,1100,1100,1100,1100,,,,,
46160695,1100,1100,1100,1100,,,,,
46163194,1100,1100,1100,1100,,,,,
46165693,1100,1100,1100,1100,,,,,
46168192,1100,1100,1100,1100,,,,,
46170691,1100,1100,1100,1100,,,,,
46173190,1100,1100,1100,1100,,,,,
46175689,1100,1100,1100,1100,,,,,
46178188,1100,1100,1100,1100,,,,,
46180687,1100,1100,1100,1100,,,,,
46183186,1100,1100,1100,1100,,,,,
46185685,1100,1100,1100,1100,,,,,
46188184,1100,1100,1100,1100,,,,,
46190683,1100,1100,1100,1100,,,,,
46193182,1100,1100,1100,1100,,,,,
46195681,1100,1100,1100,1100,,,,,
46198180,1100,1100,1100,1100,,,,,
46200679,1100,1100,1100,1100,,,,,
