timestamp,TimeUS,C1,C2,C3,C4,C5,C6,C7,C8,C9,C10,C11,C12,C13,C14
1683112141.79999995,49028714,1000,1000,1000,1000,0,0,0,0,0,0,0,0,0,0
1683112141.89996004,49128674,1000,1000,1000,1000,0,0,0,0,0,0,0,0,0,0
1683112141.99992013,49228634,1000,1000,1000,1000,0,0,0,0,0,0,0,0,0,0
1683112142.09987998,49328594,1000,1000,1000,1000,0,0,0,0,0,0,0,0,0,0
1683112142.19984007,49428554,1000,1000,1000,1000,0,0,0,0,0,0,0,0,0,0
1683112142.29979992,49528514,1000,1000,1000,1000,0,0,0,0,0,0,0,0,0,0
1683112142.39976001,49628474,1000,1000,1000,1000,0,0,0,0,0,0,0,0,0,0
1683112142.49972010,49728434,1000,1000,1000,1000,0,0,0,0,0,0,0,0,0,0
1683112142.59967995,49828394,1000,1000,1000,1000,0,0,0,0,0,0,0,0,0,0
1683112142.69964004,49928354,1000,1000,1000,1000,0,0,0,0,0,0,0,0,0,0
1683112142.79960012,50028314,1000,1000,1000,1000,0,0,0,0,0,0,0,0,0,0
1683112142.89955997,50128274,1000,1000,1000,1000,0,0,0,0,0,0,0,0,0,0
1683112142.99952006,50228234,1000,1000,1000,1000,0,0,0,0,0,0,0,0,0,0
1683112143.09947991,50328194,1000,1000,1000,1000,0,0,0,0,0,0,0,0,0,0
1683112143.19944000,50428154,1000,1000,1000,1000,0,0,0,0,0,0,0,0,0,0
1683112143.30023313,50528947,1000,1000,1000,1000,0,0,0,0,0,0,0,0,0,0
1683112143.40019298,50628907,1000,1000,1000,1000,0,0,0,0,0,0,0,0,0,0
1683112143.50015306,50728867,1000,1000,1000,1000,0,0,0,0,0,0,0,0,0,0
1683112143.60011292,50828827,1000,1000,1000,1000,0,0,0,0,0,0,0,0,0,0
1683112143.70007300,50928787,1000,1000,1000,1000,0,0,0,0,0,0,0,0,0,0
1683112143.80003309,51028747,1013,1013,1013,1013,0,0,0,0,0,0,0,0,0,0
1683112143.89999294,51128707,1043,1043,1043,1043,0,0,0,0,0,0,0,0,0,0
1683112143.99995303,51228667,1073,1073,1073,1073,0,0,0,0,0,0,0,0,0,0
1683112144.09991312,51328627,1103,1103,1103,1103,0,0,0,0,0,0,0,0,0,0
1683112144.19987297,51428587,1133,1133,1133,1133,0,0,0,0,0,0,0,0,0,0
1683112144.29983306,51528547,1275,1268,1269,1275,0,0,0,0,0,0,0,0,0,0
1683112144.39979291,51628507,1485,1481,1481,1486,0,0,0,0,0,0,0,0,0,0
1683112144.49975300,51728467,1648,1644,1644,1648,0,0,0,0,0,0,0,0,0,0
1683112144.59971309,51828427,1786,1781,1782,1785,0,0,0,0,0,0,0,0,0,0
1683112144.69967294,51928387,1907,1902,1903,1907,0,0,0,0,0,0,0,0,0,0
1683112144.79963303,52028347,1900,1898,1898,1900,0,0,0,0,0,0,0,0,0,0
1683112144.89959311,52128307,1771,1771,1771,1772,0,0,0,0,0,0,0,0,0,0
1683112144.99955297,52228267,1674,1676,1676,1674,0,0,0,0,0,0,0,0,0,0
1683112145.09951305,52328227,1643,1645,1645,1643,0,0,0,0,0,0,0,0,0,0
1683112145.19947290,52428187,1645,1646,1646,1645,0,0,0,0,0,0,0,0,0,0
1683112145.30026603,52528980,1649,1649,1649,1649,0,0,0,0,0,0,0,0,0,0
1683112145.40022612,52628940,1644,1644,1644,1645,0,0,0,0,0,0,0,0,0,0
1683112145.50018597,52728900,1635,1634,1634,1635,0,0,0,0,0,0,0,0,0,0
1683112145.60014606,52828860,1626,1625,1625,1626,0,0,0,0,0,0,0,0,0,0
1683112145.70010591,52928820,1593,1593,1593,1593,0,0,0,0,0,0,0,0,0,0
1683112145.80006599,53028780,1575,1574,1574,1574,0,0,0,0,0,0,0,0,0,0
1683112145.90002608,53128740,1562,1562,1562,1562,0,0,0,0,0,0,0,0,0,0
1683112145.99998593,53228700,1552,1552,1552,1552,0,0,0,0,0,0,0,0,0,0
1683112146.09994602,53328660,1549,1549,1544,1554,0,0,0,0,0,0,0,0,0,0
1683112146.19990611,53428620,1545,1545,1538,1552,0,0,0,0,0,0,0,0,0,0
1683112146.29986596,53528580,1545,1545,1541,1549,0,0,0,0,0,0,0,0,0,0
1683112146.39982605,53628540,1546,1546,1545,1547,0,0,0,0,0,0,0,0,0,0
1683112146.49978590,53728500,1547,1547,1549,1545,0,0,0,0,0,0,0,0,0,0
1683112146.59974599,53828460,1549,1549,1552,1546,0,0,0,0,0,0,0,0,0,0
1683112146.69970608,53928420,1553,1553,1557,1550,0,0,0,0,0,0,0,0,0,0
1683112146.79966593,54028380,1541,1541,1551,1531,0,0,0,0,0,0,0,0,0,0
1683112146.89962602,54128340,1539,1539,1547,1532,0,0,0,0,0,0,0,0,0,0
1683112146.99958611,54228300,1538,1537,1538,1538,0,0,0,0,0,0,0,0,0,0
1683112147.09954596,54328260,1538,1537,1532,1543,0,0,0,0,0,0,0,0,0,0
1683112147.19950604,54428220,1538,1539,1531,1546,0,0,0,0,0,0,0,0,0,0
1683112147.29946589,54528180,1538,1539,1532,1545,0,0,0,0,0,0,0,0,0,0
1683112147.40025902,54628973,1540,1541,1537,1544,0,0,0,0,0,0,0,0,0,0
1683112147.50021911,54728933,1545,1544,1544,1545,0,0,0,0,0,0,0,0,0,0
1683112147.60017896,54828893,1548,1548,1551,1545,0,0,0,0,0,0,0,0,0,0
1683112147.70013905,54928853,1552,1552,1556,1548,0,0,0,0,0,0,0,0,0,0
1683112147.80009890,55028813,1553,1554,1557,1551,0,0,0,0,0,0,0,0,0,0
1683112147.90005898,55128773,1557,1557,1558,1556,0,0,0,0,0,0,0,0,0,0
1683112148.00001907,55228733,1559,1558,1558,1560,0,0,0,0,0,0,0,0,0,0
1683112148.09997892,55328693,1553,1553,1565,1569,0,0,0,0,0,0,0,0,0,0
1683112148.19993901,55428653,1555,1555,1566,1570,0,0,0,0,0,0,0,0,0,0
1683112148.29989910,55528613,1558,1558,1565,1568,0,0,0,0,0,0,0,0,0,0
1683112148.39985895,55628573,1561,1562,1565,1566,0,0,0,0,0,0,0,0,0,0
1683112148.49981904,55728533,1565,1566,1565,1564,0,0,0,0,0,0,0,0,0,0
1683112148.59977913,55828493,1567,1568,1563,1562,0,0,0,0,0,0,0,0,0,0
1683112148.69973898,55928453,1571,1571,1565,1564,0,0,0,0,0,0,0,0,0,0
1683112148.79969907,56028413,1572,1572,1564,1563,0,0,0,0,0,0,0,0,0,0
1683112148.89965892,56128373,1573,1573,1565,1564,0,0,0,0,0,0,0,0,0,0
1683112148.99961901,56228333,1574,1574,1567,1566,0,0,0,0,0,0,0,0,0,0
1683112149.09957910,56328293,1574,1574,1568,1568,0,0,0,0,0,0,0,0,0,0
1683112149.19953895,56428253,1575,1574,1570,1570,0,0,0,0,0,0,0,0,0,0
1683112149.29949903,56528213,1573,1573,1571,1571,0,0,0,0,0,0,0,0,0,0
1683112149.39945912,56628173,1573,1573,1573,1572,0,0,0,0,0,0,0,0,0,0
1683112149.50025201,56728966,1572,1572,1574,1573,0,0,0,0,0,0,0,0,0,0
1683112149.60021210,56828926,1573,1573,1576,1575,0,0,0,0,0,0,0,0,0,0
1683112149.70017195,56928886,1572,1573,1576,1575,0,0,0,0,0,0,0,0,0,0
1683112149.80013204,57028846,1573,1574,1577,1576,0,0,0,0,0,0,0,0,0,0
1683112149.90009212,57128806,1574,1574,1577,1577,0,0,0,0,0,0,0,0,0,0
1683112150.00005198,57228766,1575,1575,1577,1578,0,0,0,0,0,0,0,0,0,0
1683112150.10001206,57328726,1575,1575,1577,1577,0,0,0,0,0,0,0,0,0,0
1683112150.19997191,57428686,1575,1575,1576,1576,0,0,0,0,0,0,0,0,0,0
1683112150.29993200,57528646,1577,1576,1577,1577,0,0,0,0,0,0,0,0,0,0
1683112150.39989209,57628606,1577,1577,1576,1577,0,0,0,0,0,0,0,0,0,0
1683112150.49985194,57728566,1578,1578,1577,1577,0,0,0,0,0,0,0,0,0,0
1683112150.59981203,57828526,1578,1578,1577,1577,0,0,0,0,0,0,0,0,0,0
1683112150.69977212,57928486,1579,1578,1577,1577,0,0,0,0,0,0,0,0,0,0
1683112150.79973197,58028446,1579,1579,1577,1577,0,0,0,0,0,0,0,0,0,0
1683112150.89969206,58128406,1578,1578,1577,1577,0,0,0,0,0,0,0,0,0,0
1683112150.99965191,58228366,1578,1578,1578,1577,0,0,0,0,0,0,0,0,0,0
1683112151.09961200,58328326,1578,1578,1578,1578,0,0,0,0,0,0,0,0,0,0
1683112151.19957209,58428286,1577,1578,1577,1577,0,0,0,0,0,0,0,0,0,0
1683112151.29953194,58528246,1579,1578,1579,1579,0,0,0,0,0,0,0,0,0,0
1683112151.39949203,58628206,1578,1578,1579,1579,0,0,0,0,0,0,0,0,0,0
1683112151.49945211,58728166,1578,1578,1579,1579,0,0,0,0,0,0,0,0,0,0
1683112151.60024500,58828959,1579,1578,1580,1579,0,0,0,0,0,0,0,0,0,0
1683112151.70020509,58928919,1579,1579,1579,1580,0,0,0,0,0,0,0,0,0,0
1683112151.80016494,59028879,1578,1578,1579,1579,0,0,0,0,0,0,0,0,0,0
1683112151.90012503,59128839,1579,1579,1580,1580,0,0,0,0,0,0,0,0,0,0
1683112152.00008512,59228799,1579,1578,1579,1579,0,0,0,0,0,0,0,0,0,0
1683112152.10004497,59328759,1579,1579,1579,1579,0,0,0,0,0,0,0,0,0,0
1683112152.20000505,59428719,1580,1580,1580,1580,0,0,0,0,0,0,0,0,0,0
1683112152.29996490,59528679,1579,1580,1580,1580,0,0,0,0,0,0,0,0,0,0
1683112152.39992499,59628639,1581,1581,1581,1581,0,0,0,0,0,0,0,0,0,0
1683112152.49988508,59728599,1581,1580,1580,1581,0,0,0,0,0,0,0,0,0,0
1683112152.59984493,59828559,1581,1581,1580,1580,0,0,0,0,0,0,0,0,0,0
1683112152.69980502,59928519,1580,1580,1580,1580,0,0,0,0,0,0,0,0,0,0
1683112152.79976511,60028479,1580,1580,1580,1580,0,0,0,0,0,0,0,0,0,0
1683112152.89972496,60128439,1580,1580,1580,1580,0,0,0,0,0,0,0,0,0,0
1683112152.99968505,60228399,1580,1580,1580,1580,0,0,0,0,0,0,0,0,0,0
1683112153.09964490,60328359,1580,1580,1580,1580,0,0,0,0,0,0,0,0,0,0
1683112153.19960499,60428319,1580,1580,1580,1580,0,0,0,0,0,0,0,0,0,0
1683112153.29956508,60528279,1581,1581,1581,1581,0,0,0,0,0,0,0,0,0,0
1683112153.39952493,60628239,1581,1581,1581,1581,0,0,0,0,0,0,0,0,0,0
1683112153.49948502,60728199,1581,1580,1581,1581,0,0,0,0,0,0,0,0,0,0
1683112153.59944510,60828159,1581,1581,1581,1581,0,0,0,0,0,0,0,0,0,0
1683112153.70023799,60928952,1579,1580,1580,1580,0,0,0,0,0,0,0,0,0,0
1683112153.80019808,61028912,1581,1581,1581,1581,0,0,0,0,0,0,0,0,0,0
1683112153.90015793,61128872,1581,1581,1581,1581,0,0,0,0,0,0,0,0,0,0
1683112154.00011802,61228832,1582,1581,1582,1582,0,0,0,0,0,0,0,0,0,0
1683112154.10007811,61328792,1582,1582,1582,1582,0,0,0,0,0,0,0,0,0,0
1683112154.20003796,61428752,1581,1582,1582,1582,0,0,0,0,0,0,0,0,0,0
1683112154.29999804,61528712,1581,1581,1582,1580,0,0,0,0,0,0,0,0,0,0
1683112154.39995790,61628672,1581,1582,1588,1574,0,0,0,0,0,0,0,0,0,0
1683112154.49991798,61728632,1579,1581,1584,1572,0,0,0,0,0,0,0,0,0,0
1683112154.59987807,61828592,1578,1581,1576,1574,0,0,0,0,0,0,0,0,0,0
1683112154.69983792,61928552,1577,1579,1567,1571,0,0,0,0,0,0,0,0,0,0
1683112154.79979801,62028512,1576,1579,1561,1568,0,0,0,0,0,0,0,0,0,0
1683112154.89975810,62128472,1577,1578,1557,1563,0,0,0,0,0,0,0,0,0,0
1683112154.99971795,62228432,1579,1578,1556,1559,0,0,0,0,0,0,0,0,0,0
1683112155.09967804,62328392,1580,1578,1556,1556,0,0,0,0,0,0,0,0,0,0
1683112155.19963813,62428352,1579,1578,1556,1555,0,0,0,0,0,0,0,0,0,0
1683112155.29959798,62528312,1579,1578,1557,1554,0,0,0,0,0,0,0,0,0,0
1683112155.39955807,62628272,1576,1577,1556,1553,0,0,0,0,0,0,0,0,0,0
1683112155.49951792,62728232,1575,1576,1555,1554,0,0,0,0,0,0,0,0,0,0
1683112155.59947801,62828192,1574,1576,1553,1553,0,0,0,0,0,0,0,0,0,0
1683112155.70027113,62928985,1574,1575,1552,1553,0,0,0,0,0,0,0,0,0,0
1683112155.80023098,63028945,1575,1577,1552,1552,0,0,0,0,0,0,0,0,0,0
1683112155.90019107,63128905,1575,1576,1549,1549,0,0,0,0,0,0,0,0,0,0
1683112156.00015092,63228865,1578,1579,1548,1548,0,0,0,0,0,0,0,0,0,0
1683112156.10011101,63328825,1581,1582,1545,1546,0,0,0,0,0,0,0,0,0,0
1683112156.20007110,63428785,1583,1584,1542,1542,0,0,0,0,0,0,0,0,0,0
1683112156.30003095,63528745,1587,1588,1540,1540,0,0,0,0,0,0,0,0,0,0
1683112156.39999104,63628705,1589,1590,1537,1537,0,0,0,0,0,0,0,0,0,0
1683112156.49995112,63728665,1592,1592,1535,1535,0,0,0,0,0,0,0,0,0,0
1683112156.59991097,63828625,1595,1595,1535,1535,0,0,0,0,0,0,0,0,0,0
1683112156.69987106,63928585,1597,1596,1536,1537,0,0,0,0,0,0,0,0,0,0
1683112156.79983091,64028545,1595,1595,1537,1539,0,0,0,0,0,0,0,0,0,0
1683112156.89979100,64128505,1592,1592,1539,1542,0,0,0,0,0,0,0,0,0,0
1683112156.99975109,64228465,1588,1587,1544,1547,0,0,0,0,0,0,0,0,0,0
1683112157.09971094,64328425,1583,1580,1551,1555,0,0,0,0,0,0,0,0,0,0
1683112157.19967103,64428385,1575,1572,1561,1565,0,0,0,0,0,0,0,0,0,0
1683112157.29963112,64528345,1566,1562,1574,1576,0,0,0,0,0,0,0,0,0,0
1683112157.39959097,64628305,1555,1552,1587,1587,0,0,0,0,0,0,0,0,0,0
1683112157.49955106,64728265,1544,1541,1598,1598,0,0,0,0,0,0,0,0,0,0
1683112157.59951091,64828225,1536,1535,1607,1606,0,0,0,0,0,0,0,0,0,0
1683112157.69947100,64928185,1530,1531,1613,1611,0,0,0,0,0,0,0,0,0,0
1683112157.80026412,65028978,1528,1530,1615,1614,0,0,0,0,0,0,0,0,0,0
1683112157.90022397,65128938,1530,1533,1613,1613,0,0,0,0,0,0,0,0,0,0
1683112158.00018406,65228898,1537,1540,1610,1610,0,0,0,0,0,0,0,0,0,0
1683112158.10014391,65328858,1544,1546,1603,1605,0,0,0,0,0,0,0,0,0,0
1683112158.20010400,65428818,1553,1553,1596,1597,0,0,0,0,0,0,0,0,0,0
1683112158.30006409,65528778,1561,1561,1589,1587,0,0,0,0,0,0,0,0,0,0
1683112158.40002394,65628738,1569,1569,1581,1580,0,0,0,0,0,0,0,0,0,0
1683112158.49998403,65728698,1577,1576,1575,1575,0,0,0,0,0,0,0,0,0,0
1683112158.59994411,65828658,1583,1582,1571,1570,0,0,0,0,0,0,0,0,0,0
1683112158.69990396,65928618,1587,1585,1568,1568,0,0,0,0,0,0,0,0,0,0
1683112158.79986405,66028578,1588,1587,1567,1567,0,0,0,0,0,0,0,0,0,0
1683112158.89982390,66128538,1587,1586,1566,1566,0,0,0,0,0,0,0,0,0,0
1683112158.99978399,66228498,1586,1585,1568,1568,0,0,0,0,0,0,0,0,0,0
1683112159.09974408,66328458,1585,1584,1571,1572,0,0,0,0,0,0,0,0,0,0
1683112159.19970393,66428418,1581,1581,1574,1573,0,0,0,0,0,0,0,0,0,0
1683112159.29966402,66528378,1579,1579,1577,1577,0,0,0,0,0,0,0,0,0,0
1683112159.39962411,66628338,1575,1575,1578,1578,0,0,0,0,0,0,0,0,0,0
1683112159.49958396,66728298,1574,1574,1581,1581,0,0,0,0,0,0,0,0,0,0
1683112159.59954405,66828258,1573,1574,1583,1583,0,0,0,0,0,0,0,0,0,0
1683112159.69950390,66928218,1573,1574,1585,1584,0,0,0,0,0,0,0,0,0,0
1683112159.79946399,67028178,1572,1573,1584,1584,0,0,0,0,0,0,0,0,0,0
1683112159.90025711,67128971,1573,1574,1583,1584,0,0,0,0,0,0,0,0,0,0
1683112160.00021696,67228931,1321,1323,1619,1624,0,0,0,0,0,0,0,0,0,0
1683112160.10017705,67328891,1402,1408,1646,1652,0,0,0,0,0,0,0,0,0,0
1683112160.20013690,67428851,1466,1475,1639,1637,0,0,0,0,0,0,0,0,0,0
1683112160.30009699,67528811,1520,1528,1624,1616,0,0,0,0,0,0,0,0,0,0
1683112160.40005708,67628771,1563,1565,1612,1603,0,0,0,0,0,0,0,0,0,0
1683112160.50001693,67728731,1595,1591,1605,1598,0,0,0,0,0,0,0,0,0,0
1683112160.59997702,67828691,1626,1611,1591,1589,0,0,0,0,0,0,0,0,0,0
1683112160.69993711,67928651,1650,1636,1564,1571,0,0,0,0,0,0,0,0,0,0
1683112160.79989696,68028611,1650,1639,1525,1538,0,0,0,0,0,0,0,0,0,0
1683112160.89985704,68128571,1650,1649,1540,1551,0,0,0,0,0,0,0,0,0,0
1683112160.99981689,68228531,1643,1650,1556,1561,0,0,0,0,0,0,0,0,0,0
1683112161.09977698,68328491,1641,1650,1575,1574,0,0,0,0,0,0,0,0,0,0
1683112161.19973707,68428451,1637,1644,1585,1581,0,0,0,0,0,0,0,0,0,0
1683112161.29969692,68528411,1629,1633,1583,1579,0,0,0,0,0,0,0,0,0,0
1683112161.39965701,68628371,1623,1623,1581,1578,0,0,0,0,0,0,0,0,0,0
1683112161.49961710,68728331,1618,1615,1579,1578,0,0,0,0,0,0,0,0,0,0
1683112161.59957695,68828291,1613,1609,1576,1577,0,0,0,0,0,0,0,0,0,0
1683112161.69953704,68928251,1607,1604,1572,1574,0,0,0,0,0,0,0,0,0,0
1683112161.79949713,69028211,1601,1600,1570,1571,0,0,0,0,0,0,0,0,0,0
1683112161.89945698,69128171,1597,1597,1569,1570,0,0,0,0,0,0,0,0,0,0
1683112162.00025010,69228964,1593,1594,1569,1567,0,0,0,0,0,0,0,0,0,0
1683112162.10020995,69328924,1590,1591,1568,1567,0,0,0,0,0,0,0,0,0,0
1683112162.20017004,69428884,1588,1590,1567,1566,0,0,0,0,0,0,0,0,0,0
1683112162.30013013,69528844,1588,1588,1568,1567,0,0,0,0,0,0,0,0,0,0
1683112162.40008998,69628804,1590,1586,1574,1563,0,0,0,0,0,0,0,0,0,0
1683112162.50005007,69728764,1591,1583,1574,1564,0,0,0,0,0,0,0,0,0,0
1683112162.60000992,69828724,1589,1581,1567,1565,0,0,0,0,0,0,0,0,0,0
1683112162.69997001,69928684,1584,1580,1559,1563,0,0,0,0,0,0,0,0,0,0
1683112162.79993010,70028644,1874,1875,1548,1553,0,0,0,0,0,0,0,0,0,0
1683112162.89988995,70128604,1789,1791,1476,1470,0,0,0,0,0,0,0,0,0,0
1683112162.99985003,70228564,1733,1733,1468,1462,0,0,0,0,0,0,0,0,0,0
1683112163.09981012,70328524,1665,1664,1492,1488,0,0,0,0,0,0,0,0,0,0
1683112163.19976997,70428484,1598,1599,1522,1522,0,0,0,0,0,0,0,0,0,0
1683112163.29973006,70528444,1537,1542,1551,1555,0,0,0,0,0,0,0,0,0,0
1683112163.39968991,70628404,1478,1486,1588,1595,0,0,0,0,0,0,0,0,0,0
1683112163.49965000,70728364,1435,1444,1617,1624,0,0,0,0,0,0,0,0,0,0
1683112163.59961009,70828324,1427,1435,1626,1632,0,0,0,0,0,0,0,0,0,0
1683112163.69956994,70928284,1439,1443,1619,1625,0,0,0,0,0,0,0,0,0,0
1683112163.79953003,71028244,1458,1460,1607,1610,0,0,0,0,0,0,0,0,0,0
1683112163.89949012,71128204,1481,1482,1595,1596,0,0,0,0,0,0,0,0,0,0
1683112163.99944997,71228164,1502,1503,1582,1581,0,0,0,0,0,0,0,0,0,0
1683112164.10024309,71328957,1522,1523,1569,1567,0,0,0,0,0,0,0,0,0,0
1683112164.20020294,71428917,1540,1542,1558,1554,0,0,0,0,0,0,0,0,0,0
1683112164.30016303,71528877,1559,1561,1549,1545,0,0,0,0,0,0,0,0,0,0
1683112164.40012312,71628837,1576,1578,1539,1535,0,0,0,0,0,0,0,0,0,0
1683112164.50008297,71728797,1593,1593,1528,1525,0,0,0,0,0,0,0,0,0,0
1683112164.60004306,71828757,1610,1608,1516,1513,0,0,0,0,0,0,0,0,0,0
1683112164.70000291,71928717,1624,1621,1505,1503,0,0,0,0,0,0,0,0,0,0
1683112164.79996300,72028677,1633,1629,1500,1501,0,0,0,0,0,0,0,0,0,0
1683112164.89992309,72128637,1635,1631,1502,1504,0,0,0,0,0,0,0,0,0,0
1683112164.99988294,72228597,1630,1625,1510,1513,0,0,0,0,0,0,0,0,0,0
1683112165.09984303,72328557,1618,1614,1523,1526,0,0,0,0,0,0,0,0,0,0
1683112165.19980311,72428517,1601,1597,1540,1543,0,0,0,0,0,0,0,0,0,0
1683112165.29976296,72528477,1582,1580,1560,1563,0,0,0,0,0,0,0,0,0,0
1683112165.39972305,72628437,1562,1561,1578,1581,0,0,0,0,0,0,0,0,0,0
1683112165.49968290,72728397,1544,1543,1596,1597,0,0,0,0,0,0,0,0,0,0
1683112165.59964299,72828357,1531,1532,1608,1607,0,0,0,0,0,0,0,0,0,0
1683112165.69960308,72928317,1525,1525,1613,1612,0,0,0,0,0,0,0,0,0,0
1683112165.79956293,73028277,1525,1526,1616,1615,0,0,0,0,0,0,0,0,0,0
1683112165.89952302,73128237,1527,1529,1615,1614,0,0,0,0,0,0,0,0,0,0
1683112165.99948311,73228197,1531,1532,1612,1611,0,0,0,0,0,0,0,0,0,0
1683112166.09944296,73328157,1535,1536,1606,1606,0,0,0,0,0,0,0,0,0,0
1683112166.20023608,73428950,1541,1542,1601,1602,0,0,0,0,0,0,0,0,0,0
1683112166.30019593,73528910,1547,1547,1596,1597,0,0,0,0,0,0,0,0,0,0
1683112166.40015602,73628870,1553,1553,1591,1592,0,0,0,0,0,0,0,0,0,0
1683112166.50011611,73728830,1559,1559,1586,1587,0,0,0,0,0,0,0,0,0,0
1683112166.60007596,73828790,1565,1565,1583,1583,0,0,0,0,0,0,0,0,0,0
1683112166.70003605,73928750,1570,1570,1578,1578,0,0,0,0,0,0,0,0,0,0
1683112166.79999590,74028710,1575,1575,1575,1574,0,0,0,0,0,0,0,0,0,0
1683112166.89995599,74128670,1579,1579,1572,1570,0,0,0,0,0,0,0,0,0,0
1683112166.99991608,74228630,1583,1583,1569,1568,0,0,0,0,0,0,0,0,0,0
1683112167.09987593,74328590,1587,1586,1568,1567,0,0,0,0,0,0,0,0,0,0
1683112167.19983602,74428550,1587,1586,1565,1565,0,0,0,0,0,0,0,0,0,0
1683112167.29979610,74528510,1588,1587,1567,1567,0,0,0,0,0,0,0,0,0,0
1683112167.39975595,74628470,1586,1586,1568,1569,0,0,0,0,0,0,0,0,0,0
1683112167.49971604,74728430,1583,1583,1570,1570,0,0,0,0,0,0,0,0,0,0
1683112167.59967589,74828390,1581,1580,1573,1573,0,0,0,0,0,0,0,0,0,0
1683112167.69963598,74928350,1577,1577,1576,1575,0,0,0,0,0,0,0,0,0,0
1683112167.79959607,75028310,1576,1576,1579,1579,0,0,0,0,0,0,0,0,0,0
1683112167.89955592,75128270,1574,1575,1581,1581,0,0,0,0,0,0,0,0,0,0
1683112167.99951601,75228230,1572,1573,1582,1582,0,0,0,0,0,0,0,0,0,0
1683112168.09947610,75328190,1572,1573,1583,1583,0,0,0,0,0,0,0,0,0,0
1683112168.20026898,75428983,1573,1573,1583,1583,0,0,0,0,0,0,0,0,0,0
1683112168.30022907,75528943,1574,1574,1583,1583,0,0,0,0,0,0,0,0,0,0
1683112168.40018892,75628903,1575,1575,1582,1582,0,0,0,0,0,0,0,0,0,0
1683112168.50014901,75728863,1575,1576,1580,1580,0,0,0,0,0,0,0,0,0,0
1683112168.60010910,75828823,1576,1576,1578,1579,0,0,0,0,0,0,0,0,0,0
1683112168.70006895,75928783,1578,1578,1578,1578,0,0,0,0,0,0,0,0,0,0
1683112168.80002904,76028743,1579,1579,1577,1577,0,0,0,0,0,0,0,0,0,0
1683112168.89998913,76128703,1580,1579,1576,1576,0,0,0,0,0,0,0,0,0,0
1683112168.99994898,76228663,1581,1581,1577,1577,0,0,0,0,0,0,0,0,0,0
1683112169.09990907,76328623,1581,1581,1578,1577,0,0,0,0,0,0,0,0,0,0
1683112169.19986892,76428583,1580,1581,1577,1577,0,0,0,0,0,0,0,0,0,0
1683112169.29982901,76528543,1581,1581,1578,1577,0,0,0,0,0,0,0,0,0,0
1683112169.39978909,76628503,1582,1582,1579,1580,0,0,0,0,0,0,0,0,0,0
1683112169.49974895,76728463,1581,1580,1579,1579,0,0,0,0,0,0,0,0,0,0
1683112169.59970903,76828423,1581,1581,1580,1580,0,0,0,0,0,0,0,0,0,0
1683112169.69966912,76928383,1581,1581,1581,1581,0,0,0,0,0,0,0,0,0,0
1683112169.79962897,77028343,1579,1580,1581,1581,0,0,0,0,0,0,0,0,0,0
1683112169.89958906,77128303,1580,1581,1582,1582,0,0,0,0,0,0,0,0,0,0
1683112169.99954891,77228263,1579,1580,1582,1582,0,0,0,0,0,0,0,0,0,0
1683112170.09950900,77328223,1580,1580,1582,1582,0,0,0,0,0,0,0,0,0,0
1683112170.19946909,77428183,1581,1581,1583,1582,0,0,0,0,0,0,0,0,0,0
1683112170.30026197,77528976,1580,1580,1581,1581,0,0,0,0,0,0,0,0,0,0
1683112170.40022206,77628936,1581,1581,1581,1581,0,0,0,0,0,0,0,0,0,0
1683112170.50018191,77728896,1581,1581,1581,1581,0,0,0,0,0,0,0,0,0,0
1683112170.60014200,77828856,1581,1581,1581,1580,0,0,0,0,0,0,0,0,0,0
1683112170.70010209,77928816,1582,1582,1582,1581,0,0,0,0,0,0,0,0,0,0
1683112170.80006194,78028776,1582,1581,1581,1581,0,0,0,0,0,0,0,0,0,0
1683112170.90002203,78128736,1581,1581,1581,1581,0,0,0,0,0,0,0,0,0,0
1683112170.99998212,78228696,1582,1582,1581,1581,0,0,0,0,0,0,0,0,0,0
1683112171.09994197,78328656,1582,1582,1581,1581,0,0,0,0,0,0,0,0,0,0
1683112171.19990206,78428616,1581,1581,1580,1581,0,0,0,0,0,0,0,0,0,0
1683112171.29986191,78528576,1581,1582,1586,1574,0,0,0,0,0,0,0,0,0,0
1683112171.39982200,78628536,1580,1583,1586,1573,0,0,0,0,0,0,0,0,0,0
1683112171.49978209,78728496,1579,1583,1578,1574,0,0,0,0,0,0,0,0,0,0
1683112171.59974194,78828456,1577,1581,1569,1572,0,0,0,0,0,0,0,0,0,0
1683112171.69970202,78928416,1577,1579,1561,1568,0,0,0,0,0,0,0,0,0,0
1683112171.79966211,79028376,1578,1579,1557,1564,0,0,0,0,0,0,0,0,0,0
1683112171.89962196,79128336,1581,1579,1556,1560,0,0,0,0,0,0,0,0,0,0
1683112171.99958205,79228296,1581,1579,1556,1557,0,0,0,0,0,0,0,0,0,0
1683112172.09954190,79328256,1582,1579,1556,1555,0,0,0,0,0,0,0,0,0,0
1683112172.19950199,79428216,1580,1579,1557,1554,0,0,0,0,0,0,0,0,0,0
1683112172.29946208,79528176,1578,1579,1557,1554,0,0,0,0,0,0,0,0,0,0
1683112172.40025496,79628969,1577,1579,1556,1554,0,0,0,0,0,0,0,0,0,0
1683112172.50021505,79728929,1576,1578,1555,1554,0,0,0,0,0,0,0,0,0,0
1683112172.60017490,79828889,1575,1577,1554,1554,0,0,0,0,0,0,0,0,0,0
1683112172.70013499,79928849,1575,1577,1552,1553,0,0,0,0,0,0,0,0,0,0
1683112172.80009508,80028809,1577,1578,1551,1551,0,0,0,0,0,0,0,0,0,0
1683112172.90005493,80128769,1579,1579,1549,1549,0,0,0,0,0,0,0,0,0,0
1683112173.00001502,80228729,1581,1581,1547,1546,0,0,0,0,0,0,0,0,0,0
1683112173.09997511,80328689,1584,1584,1545,1544,0,0,0,0,0,0,0,0,0,0
1683112173.19993496,80428649,1586,1588,1543,1542,0,0,0,0,0,0,0,0,0,0
1683112173.29989505,80528609,1589,1590,1540,1540,0,0,0,0,0,0,0,0,0,0
1683112173.39985490,80628569,1592,1592,1538,1539,0,0,0,0,0,0,0,0,0,0
1683112173.49981499,80728529,1594,1594,1537,1539,0,0,0,0,0,0,0,0,0,0
1683112173.59977508,80828489,1595,1595,1535,1537,0,0,0,0,0,0,0,0,0,0
1683112173.69973493,80928449,1595,1595,1537,1539,0,0,0,0,0,0,0,0,0,0
1683112173.79969501,81028409,1594,1593,1540,1542,0,0,0,0,0,0,0,0,0,0
1683112173.89965510,81128369,1591,1588,1546,1549,0,0,0,0,0,0,0,0,0,0
1683112173.99961495,81228329,1584,1580,1553,1556,0,0,0,0,0,0,0,0,0,0
1683112174.09957504,81328289,1575,1570,1563,1566,0,0,0,0,0,0,0,0,0,0
1683112174.19953489,81428249,1565,1561,1576,1577,0,0,0,0,0,0,0,0,0,0
1683112174.29949498,81528209,1554,1551,1588,1589,0,0,0,0,0,0,0,0,0,0
1683112174.39945507,81628169,1543,1541,1598,1598,0,0,0,0,0,0,0,0,0,0
1683112174.50024796,81728962,1536,1536,1607,1606,0,0,0,0,0,0,0,0,0,0
1683112174.60020804,81828922,1533,1535,1612,1611,0,0,0,0,0,0,0,0,0,0
1683112174.70016789,81928882,1533,1535,1612,1611,0,0,0,0,0,0,0,0,0,0
1683112174.80012798,82028842,1538,1540,1612,1611,0,0,0,0,0,0,0,0,0,0
1683112174.90008807,82128802,1541,1543,1607,1607,0,0,0,0,0,0,0,0,0,0
1683112175.00004792,82228762,1548,1550,1603,1603,0,0,0,0,0,0,0,0,0,0
1683112175.10000801,82328722,1555,1556,1597,1597,0,0,0,0,0,0,0,0,0,0
1683112175.19996810,82428682,1563,1563,1592,1591,0,0,0,0,0,0,0,0,0,0
1683112175.29992795,82528642,1570,1569,1585,1584,0,0,0,0,0,0,0,0,0,0
1683112175.39988804,82628602,1576,1575,1578,1578,0,0,0,0,0,0,0,0,0,0
1683112175.49984813,82728562,1581,1580,1572,1573,0,0,0,0,0,0,0,0,0,0
1683112175.59980798,82828522,1585,1584,1569,1570,0,0,0,0,0,0,0,0,0,0
1683112175.69976807,82928482,1587,1585,1567,1567,0,0,0,0,0,0,0,0,0,0
1683112175.79972792,83028442,1588,1587,1568,1568,0,0,0,0,0,0,0,0,0,0
1683112175.89968801,83128402,1587,1586,1569,1569,0,0,0,0,0,0,0,0,0,0
1683112175.99964809,83228362,1585,1584,1571,1571,0,0,0,0,0,0,0,0,0,0
1683112176.09960794,83328322,1582,1582,1573,1573,0,0,0,0,0,0,0,0,0,0
1683112176.19956803,83428282,1580,1579,1576,1576,0,0,0,0,0,0,0,0,0,0
1683112176.29952812,83528242,1577,1577,1579,1579,0,0,0,0,0,0,0,0,0,0
1683112176.39948797,83628202,1575,1575,1580,1580,0,0,0,0,0,0,0,0,0,0
1683112176.49944806,83728162,1573,1573,1582,1582,0,0,0,0,0,0,0,0,0,0
1683112176.60024095,83828955,1572,1573,1583,1583,0,0,0,0,0,0,0,0,0,0
1683112176.70020103,83928915,1573,1574,1584,1584,0,0,0,0,0,0,0,0,0,0
1683112176.80016112,84028875,1573,1574,1583,1584,0,0,0,0,0,0,0,0,0,0
1683112176.90012097,84128835,1573,1574,1582,1582,0,0,0,0,0,0,0,0,0,0
1683112177.00008106,84228795,1575,1575,1582,1582,0,0,0,0,0,0,0,0,0,0
1683112177.10004091,84328755,1577,1577,1581,1581,0,0,0,0,0,0,0,0,0,0
1683112177.20000100,84428715,1578,1578,1579,1579,0,0,0,0,0,0,0,0,0,0
1683112177.29996109,84528675,1580,1579,1579,1579,0,0,0,0,0,0,0,0,0,0
1683112177.39992094,84628635,1580,1580,1577,1577,0,0,0,0,0,0,0,0,0,0
1683112177.49988103,84728595,1581,1581,1578,1577,0,0,0,0,0,0,0,0,0,0
1683112177.59984112,84828555,1581,1581,1577,1577,0,0,0,0,0,0,0,0,0,0
1683112177.69980097,84928515,1581,1581,1577,1577,0,0,0,0,0,0,0,0,0,0
1683112177.79976106,85028475,1580,1581,1577,1577,0,0,0,0,0,0,0,0,0,0
1683112177.89972091,85128435,1581,1582,1579,1579,0,0,0,0,0,0,0,0,0,0
1683112177.99968100,85228395,1582,1581,1580,1580,0,0,0,0,0,0,0,0,0,0
1683112178.09964108,85328355,1580,1581,1579,1580,0,0,0,0,0,0,0,0,0,0
1683112178.19960093,85428315,1580,1580,1580,1580,0,0,0,0,0,0,0,0,0,0
1683112178.29956102,85528275,1579,1579,1580,1580,0,0,0,0,0,0,0,0,0,0
1683112178.39952111,85628235,1578,1579,1580,1580,0,0,0,0,0,0,0,0,0,0
1683112178.49948096,85728195,1578,1579,1580,1580,0,0,0,0,0,0,0,0,0,0
1683112178.59944105,85828155,1578,1579,1580,1580,0,0,0,0,0,0,0,0,0,0
1683112178.70023394,85928948,1579,1579,1580,1581,0,0,0,0,0,0,0,0,0,0
1683112178.80019403,86028908,1579,1579,1580,1580,0,0,0,0,0,0,0,0,0,0
1683112178.90015411,86128868,1579,1579,1580,1580,0,0,0,0,0,0,0,0,0,0
1683112179.00011396,86228828,1579,1579,1580,1580,0,0,0,0,0,0,0,0,0,0
1683112179.10007405,86328788,1580,1580,1580,1580,0,0,0,0,0,0,0,0,0,0
1683112179.20003390,86428748,1581,1581,1585,1574,0,0,0,0,0,0,0,0,0,0
1683112179.29999399,86528708,1580,1580,1586,1571,0,0,0,0,0,0,0,0,0,0
1683112179.39995408,86628668,1579,1580,1580,1574,0,0,0,0,0,0,0,0,0,0
1683112179.49991393,86728628,1576,1576,1573,1575,0,0,0,0,0,0,0,0,0,0
1683112179.59987402,86828588,1573,1572,1568,1574,0,0,0,0,0,0,0,0,0,0
1683112179.69983411,86928548,1570,1569,1564,1572,0,0,0,0,0,0,0,0,0,0
1683112179.79979396,87028508,1568,1567,1564,1569,0,0,0,0,0,0,0,0,0,0
1683112179.89975405,87128468,1567,1566,1565,1567,0,0,0,0,0,0,0,0,0,0
1683112179.99971390,87228428,1566,1566,1566,1565,0,0,0,0,0,0,0,0,0,0
1683112180.09967399,87328388,1565,1566,1567,1565,0,0,0,0,0,0,0,0,0,0
1683112180.19963408,87428348,1564,1564,1566,1563,0,0,0,0,0,0,0,0,0,0
1683112180.29959393,87528308,1563,1563,1565,1563,0,0,0,0,0,0,0,0,0,0
1683112180.39955401,87628268,1563,1563,1565,1564,0,0,0,0,0,0,0,0,0,0
1683112180.49951410,87728228,1563,1563,1564,1564,0,0,0,0,0,0,0,0,0,0
1683112180.59947395,87828188,1563,1562,1563,1564,0,0,0,0,0,0,0,0,0,0
1683112180.70026708,87928981,1562,1562,1562,1563,0,0,0,0,0,0,0,0,0,0
1683112180.80022693,88028941,1561,1561,1561,1561,0,0,0,0,0,0,0,0,0,0
1683112180.90018702,88128901,1560,1560,1560,1560,0,0,0,0,0,0,0,0,0,0
1683112181.00014710,88228861,1560,1560,1560,1559,0,0,0,0,0,0,0,0,0,0
1683112181.10010695,88328821,1559,1560,1559,1559,0,0,0,0,0,0,0,0,0,0
1683112181.20006704,88428781,1558,1557,1558,1557,0,0,0,0,0,0,0,0,0,0
1683112181.30002689,88528741,1558,1558,1558,1557,0,0,0,0,0,0,0,0,0,0
1683112181.39998698,88628701,1558,1557,1558,1557,0,0,0,0,0,0,0,0,0,0
1683112181.49994707,88728661,1557,1556,1557,1556,0,0,0,0,0,0,0,0,0,0
1683112181.59990692,88828621,1557,1557,1558,1556,0,0,0,0,0,0,0,0,0,0
1683112181.69986701,88928581,1557,1558,1558,1557,0,0,0,0,0,0,0,0,0,0
1683112181.79982710,89028541,1557,1557,1558,1556,0,0,0,0,0,0,0,0,0,0
1683112181.89978695,89128501,1558,1557,1559,1556,0,0,0,0,0,0,0,0,0,0
1683112181.99974704,89228461,1559,1559,1559,1559,0,0,0,0,0,0,0,0,0,0
1683112182.09970713,89328421,1558,1559,1557,1561,0,0,0,0,0,0,0,0,0,0
1683112182.19966698,89428381,1560,1560,1557,1563,0,0,0,0,0,0,0,0,0,0
1683112182.29962707,89528341,1561,1561,1558,1564,0,0,0,0,0,0,0,0,0,0
1683112182.39958692,89628301,1559,1558,1557,1561,0,0,0,0,0,0,0,0,0,0
1683112182.49954700,89728261,1555,1555,1554,1556,0,0,0,0,0,0,0,0,0,0
1683112182.59950709,89828221,1550,1550,1550,1550,0,0,0,0,0,0,0,0,0,0
1683112182.69946694,89928181,1545,1544,1545,1544,0,0,0,0,0,0,0,0,0,0
1683112182.80026007,90028974,1537,1538,1538,1537,0,0,0,0,0,0,0,0,0,0
1683112182.90021992,90128934,1530,1530,1530,1530,0,0,0,0,0,0,0,0,0,0
1683112183.00018001,90228894,1523,1523,1523,1523,0,0,0,0,0,0,0,0,0,0
1683112183.10014009,90328854,1521,1520,1520,1521,0,0,0,0,0,0,0,0,0,0
1683112183.20009995,90428814,1520,1520,1520,1520,0,0,0,0,0,0,0,0,0,0
1683112183.30006003,90528774,1522,1522,1521,1523,0,0,0,0,0,0,0,0,0,0
1683112183.40002012,90628734,1525,1525,1524,1525,0,0,0,0,0,0,0,0,0,0
1683112183.49997997,90728694,1528,1529,1528,1529,0,0,0,0,0,0,0,0,0,0
1683112183.59994006,90828654,1533,1533,1533,1533,0,0,0,0,0,0,0,0,0,0
1683112183.69989991,90928614,1538,1538,1538,1538,0,0,0,0,0,0,0,0,0,0
1683112183.79986000,91028574,1540,1540,1541,1540,0,0,0,0,0,0,0,0,0,0
1683112183.89982009,91128534,1543,1543,1543,1543,0,0,0,0,0,0,0,0,0,0
1683112183.99977994,91228494,1544,1544,1544,1544,0,0,0,0,0,0,0,0,0,0
1683112184.09974003,91328454,1545,1545,1545,1545,0,0,0,0,0,0,0,0,0,0
1683112184.19970012,91428414,1546,1546,1546,1546,0,0,0,0,0,0,0,0,0,0
1683112184.29965997,91528374,1546,1546,1546,1546,0,0,0,0,0,0,0,0,0,0
1683112184.39962006,91628334,1545,1546,1546,1545,0,0,0,0,0,0,0,0,0,0
1683112184.49957991,91728294,1546,1546,1546,1546,0,0,0,0,0,0,0,0,0,0
1683112184.59954000,91828254,1546,1546,1546,1546,0,0,0,0,0,0,0,0,0,0
1683112184.69950008,91928214,1546,1546,1546,1546,0,0,0,0,0,0,0,0,0,0
1683112184.79945993,92028174,1546,1546,1546,1546,0,0,0,0,0,0,0,0,0,0
1683112184.90025306,92128967,1546,1546,1546,1546,0,0,0,0,0,0,0,0,0,0
1683112185.00021291,92228927,1545,1545,1545,1545,0,0,0,0,0,0,0,0,0,0
1683112185.10017300,92328887,1545,1545,1545,1545,0,0,0,0,0,0,0,0,0,0
1683112185.20013309,92428847,1544,1544,1545,1544,0,0,0,0,0,0,0,0,0,0
1683112185.30009294,92528807,1544,1544,1544,1544,0,0,0,0,0,0,0,0,0,0
1683112185.40005302,92628767,1544,1544,1544,1543,0,0,0,0,0,0,0,0,0,0
1683112185.50001311,92728727,1545,1544,1544,1544,0,0,0,0,0,0,0,0,0,0
1683112185.59997296,92828687,1545,1545,1545,1545,0,0,0,0,0,0,0,0,0,0
1683112185.69993305,92928647,1545,1545,1545,1545,0,0,0,0,0,0,0,0,0,0
1683112185.79989290,93028607,1544,1544,1544,1544,0,0,0,0,0,0,0,0,0,0
1683112185.89985299,93128567,1545,1545,1545,1545,0,0,0,0,0,0,0,0,0,0
1683112185.99981308,93228527,1544,1545,1544,1544,0,0,0,0,0,0,0,0,0,0
1683112186.09977293,93328487,1544,1544,1545,1544,0,0,0,0,0,0,0,0,0,0
1683112186.19973302,93428447,1543,1544,1544,1544,0,0,0,0,0,0,0,0,0,0
1683112186.29969311,93528407,1544,1544,1544,1544,0,0,0,0,0,0,0,0,0,0
1683112186.39965296,93628367,1544,1544,1544,1544,0,0,0,0,0,0,0,0,0,0
1683112186.49961305,93728327,1544,1544,1544,1544,0,0,0,0,0,0,0,0,0,0
1683112186.59957290,93828287,1545,1545,1545,1545,0,0,0,0,0,0,0,0,0,0
1683112186.69953299,93928247,1545,1545,1545,1545,0,0,0,0,0,0,0,0,0,0
1683112186.79949307,94028207,1543,1544,1544,1544,0,0,0,0,0,0,0,0,0,0
1683112186.89945292,94128167,1544,1544,1544,1544,0,0,0,0,0,0,0,0,0,0
1683112187.00024605,94228960,1544,1545,1545,1544,0,0,0,0,0,0,0,0,0,0
1683112187.10020590,94328920,1545,1545,1545,1545,0,0,0,0,0,0,0,0,0,0
1683112187.20016599,94428880,1544,1544,1544,1544,0,0,0,0,0,0,0,0,0,0
1683112187.30012608,94528840,1544,1544,1544,1544,0,0,0,0,0,0,0,0,0,0
1683112187.40008593,94628800,1545,1545,1545,1545,0,0,0,0,0,0,0,0,0,0
1683112187.50004601,94728760,1544,1544,1544,1544,0,0,0,0,0,0,0,0,0,0
1683112187.60000610,94828720,1544,1545,1544,1545,0,0,0,0,0,0,0,0,0,0
1683112187.69996595,94928680,1545,1545,1545,1545,0,0,0,0,0,0,0,0,0,0
1683112187.79992604,95028640,1545,1544,1545,1544,0,0,0,0,0,0,0,0,0,0
1683112187.89988589,95128600,1544,1544,1544,1544,0,0,0,0,0,0,0,0,0,0
1683112187.99984598,95228560,1543,1544,1544,1543,0,0,0,0,0,0,0,0,0,0
1683112188.09980607,95328520,1544,1543,1544,1544,0,0,0,0,0,0,0,0,0,0
1683112188.19976592,95428480,1544,1544,1544,1544,0,0,0,0,0,0,0,0,0,0
1683112188.29972601,95528440,1544,1544,1544,1544,0,0,0,0,0,0,0,0,0,0
1683112188.39968610,95628400,1545,1545,1545,1545,0,0,0,0,0,0,0,0,0,0
1683112188.49964595,95728360,1544,1544,1544,1544,0,0,0,0,0,0,0,0,0,0
1683112188.59960604,95828320,1544,1544,1544,1544,0,0,0,0,0,0,0,0,0,0
1683112188.69956613,95928280,1543,1543,1543,1543,0,0,0,0,0,0,0,0,0,0
1683112188.79952598,96028240,1544,1544,1544,1544,0,0,0,0,0,0,0,0,0,0
1683112188.89948606,96128200,1544,1544,1544,1544,0,0,0,0,0,0,0,0,0,0
1683112188.99944592,96228160,1544,1545,1544,1544,0,0,0,0,0,0,0,0,0,0
1683112189.10023904,96328953,1545,1545,1544,1545,0,0,0,0,0,0,0,0,0,0
1683112189.20019913,96428913,1544,1544,1544,1544,0,0,0,0,0,0,0,0,0,0
1683112189.30015898,96528873,1545,1545,1545,1545,0,0,0,0,0,0,0,0,0,0
1683112189.40011907,96628833,1544,1545,1544,1544,0,0,0,0,0,0,0,0,0,0
1683112189.50007892,96728793,1544,1544,1544,1544,0,0,0,0,0,0,0,0,0,0
1683112189.60003901,96828753,1544,1544,1545,1544,0,0,0,0,0,0,0,0,0,0
1683112189.69999909,96928713,1545,1544,1545,1545,0,0,0,0,0,0,0,0,0,0
1683112189.79995894,97028673,1544,1545,1545,1545,0,0,0,0,0,0,0,0,0,0
1683112189.89991903,97128633,1545,1545,1544,1545,0,0,0,0,0,0,0,0,0,0
1683112189.99987912,97228593,1544,1544,1544,1544,0,0,0,0,0,0,0,0,0,0
1683112190.09983897,97328553,1544,1544,1544,1545,0,0,0,0,0,0,0,0,0,0
1683112190.19979906,97428513,1544,1544,1544,1544,0,0,0,0,0,0,0,0,0,0
1683112190.29975891,97528473,1544,1544,1544,1544,0,0,0,0,0,0,0,0,0,0
1683112190.39971900,97628433,1545,1546,1545,1545,0,0,0,0,0,0,0,0,0,0
1683112190.49967909,97728393,1545,1545,1545,1545,0,0,0,0,0,0,0,0,0,0
1683112190.59963894,97828353,1545,1545,1545,1545,0,0,0,0,0,0,0,0,0,0
1683112190.69959903,97928313,1545,1545,1545,1545,0,0,0,0,0,0,0,0,0,0
1683112190.79955912,98028273,1545,1545,1545,1545,0,0,0,0,0,0,0,0,0,0
1683112190.89951897,98128233,1545,1545,1545,1545,0,0,0,0,0,0,0,0,0,0
1683112190.99947906,98228193,1544,1544,1544,1544,0,0,0,0,0,0,0,0,0,0
1683112191.10027194,98328986,1545,1544,1544,1544,0,0,0,0,0,0,0,0,0,0
1683112191.20023203,98428946,1545,1544,1545,1545,0,0,0,0,0,0,0,0,0,0
1683112191.30019212,98528906,1544,1544,1544,1544,0,0,0,0,0,0,0,0,0,0
1683112191.40015197,98628866,1544,1545,1545,1545,0,0,0,0,0,0,0,0,0,0
1683112191.50011206,98728826,1545,1544,1544,1545,0,0,0,0,0,0,0,0,0,0
1683112191.60007191,98828786,1544,1545,1545,1545,0,0,0,0,0,0,0,0,0,0
1683112191.70003200,98928746,1545,1544,1545,1544,0,0,0,0,0,0,0,0,0,0
1683112191.79999208,99028706,1544,1545,1544,1545,0,0,0,0,0,0,0,0,0,0
1683112191.89995193,99128666,1545,1545,1545,1545,0,0,0,0,0,0,0,0,0,0
1683112191.99991202,99228626,1544,1545,1544,1545,0,0,0,0,0,0,0,0,0,0
1683112192.09987211,99328586,1544,1544,1544,1544,0,0,0,0,0,0,0,0,0,0
1683112192.19983196,99428546,1544,1545,1544,1544,0,0,0,0,0,0,0,0,0,0
1683112192.29979205,99528506,1544,1544,1544,1544,0,0,0,0,0,0,0,0,0,0
1683112192.39975190,99628466,1543,1544,1543,1543,0,0,0,0,0,0,0,0,0,0
1683112192.49971199,99728426,1544,1544,1544,1544,0,0,0,0,0,0,0,0,0,0
1683112192.59967208,99828386,1545,1544,1544,1545,0,0,0,0,0,0,0,0,0,0
1683112192.69963193,99928346,1544,1544,1544,1544,0,0,0,0,0,0,0,0,0,0
1683112192.79959202,100028306,1437,1437,1438,1437,0,0,0,0,0,0,0,0,0,0
1683112192.89955211,100128266,1289,1285,1288,1287,0,0,0,0,0,0,0,0,0,0
1683112192.99951196,100228226,1229,1226,1229,1227,0,0,0,0,0,0,0,0,0,0
1683112193.09947205,100328186,1209,1205,1208,1207,0,0,0,0,0,0,0,0,0,0
1683112193.20026493,100428979,1177,1174,1177,1175,0,0,0,0,0,0,0,0,0,0
1683112193.30022502,100528939,1153,1150,1153,1151,0,0,0,0,0,0,0,0,0,0
1683112193.40018511,100628899,1153,1150,1153,1151,0,0,0,0,0,0,0,0,0,0
1683112193.50014496,100728859,1183,1150,1151,1183,0,0,0,0,0,0,0,0,0,0
1683112193.60010505,100828819,1178,1150,1153,1178,0,0,0,0,0,0,0,0,0,0
1683112193.70006490,100928779,1173,1150,1154,1172,0,0,0,0,0,0,0,0,0,0
1683112193.80002499,101028739,1173,1150,1154,1172,0,0,0,0,0,0,0,0,0,0
1683112193.89998507,101128699,1175,1150,1154,1174,0,0,0,0,0,0,0,0,0,0
1683112193.99994493,101228659,1177,1150,1154,1175,0,0,0,0,0,0,0,0,0,0
1683112194.09990501,101328619,1179,1150,1154,1178,0,0,0,0,0,0,0,0,0,0
1683112194.19986510,101428579,1181,1150,1155,1179,0,0,0,0,0,0,0,0,0,0
1683112194.29982495,101528539,1164,1150,1154,1164,0,0,0,0,0,0,0,0,0,0
1683112194.39978504,101628499,1168,1150,1154,1167,0,0,0,0,0,0,0,0,0,0
1683112194.49974489,101728459,1169,1150,1154,1168,0,0,0,0,0,0,0,0,0,0
1683112194.59970498,101828419,1169,1150,1154,1169,0,0,0,0,0,0,0,0,0,0
1683112194.69966507,101928379,1170,1150,1154,1169,0,0,0,0,0,0,0,0,0,0
1683112194.79962492,102028339,1000,1000,1000,1000,0,0,0,0,0,0,0,0,0,0
1683112194.89958501,102128299,1000,1000,1000,1000,0,0,0,0,0,0,0,0,0,0
1683112194.99954510,102228259,1000,1000,1000,1000,0,0,0,0,0,0,0,0,0,0
1683112195.09950495,102328219,1000,1000,1000,1000,0,0,0,0,0,0,0,0,0,0
1683112195.19946504,102428179,1000,1000,1000,1000,0,0,0,0,0,0,0,0,0,0
1683112195.30025792,102528972,1000,1000,1000,1000,0,0,0,0,0,0,0,0,0,0
1683112195.40021801,102628932,1000,1000,1000,1000,0,0,0,0,0,0,0,0,0,0
1683112195.50017810,102728892,1000,1000,1000,1000,0,0,0,0,0,0,0,0,0,0
1683112195.60013795,102828852,1000,1000,1000,1000,0,0,0,0,0,0,0,0,0,0
1683112195.70009804,102928812,1000,1000,1000,1000,0,0,0,0,0,0,0,0,0,0
1683112195.80005813,103028772,1000,1000,1000,1000,0,0,0,0,0,0,0,0,0,0
1683112195.90001798,103128732,1000,1000,1000,1000,0,0,0,0,0,0,0,0,0,0
1683112195.99997807,103228692,1000,1000,1000,1000,0,0,0,0,0,0,0,0,0,0
1683112196.09993792,103328652,1000,1000,1000,1000,0,0,0,0,0,0,0,0,0,0
1683112196.19989800,103428612,1000,1000,1000,1000,0,0,0,0,0,0,0,0,0,0
1683112196.29985809,103528572,1000,1000,1000,1000,0,0,0,0,0,0,0,0,0,0
1683112196.39981794,103628532,1000,1000,1000,1000,0,0,0,0,0,0,0,0,0,0
1683112196.49977803,103728492,1000,1000,1000,1000,0,0,0,0,0,0,0,0,0,0
1683112196.59973812,103828452,1000,1000,1000,1000,0,0,0,0,0,0,0,0,0,0
1683112196.69969797,103928412,1000,1000,1000,1000,0,0,0,0,0,0,0,0,0,0
1683112196.79965806,104028372,1000,1000,1000,1000,0,0,0,0,0,0,0,0,0,0
1683112196.89961791,104128332,1000,1000,1000,1000,0,0,0,0,0,0,0,0,0,0
1683112196.99957800,104228292,1000,1000,1000,1000,0,0,0,0,0,0,0,0,0,0
1683112197.09953809,104328252,1000,1000,1000,1000,0,0,0,0,0,0,0,0,0,0
1683112197.19949794,104428212,1000,1000,1000,1000,0,0,0,0,0,0,0,0,0,0
1683112197.29945803,104528172,1000,1000,1000,1000,0,0,0,0,0,0,0,0,0,0
1683112197.40025091,104628965,1000,1000,1000,1000,0,0,0,0,0,0,0,0,0,0
1683112197.50021100,104728925,1000,1000,1000,1000,0,0,0,0,0,0,0,0,0,0
1683112197.60017109,104828885,1000,1000,1000,1000,0,0,0,0,0,0,0,0,0,0
1683112197.70013094,104928845,1000,1000,1000,1000,0,0,0,0,0,0,0,0,0,0
1683112197.80009103,105028805,1000,1000,1000,1000,0,0,0,0,0,0,0,0,0,0
1683112197.90005112,105128765,1000,1000,1000,1000,0,0,0,0,0,0,0,0,0,0
1683112198.00001097,105228725,1000,1000,1000,1000,0,0,0,0,0,0,0,0,0,0
1683112198.09997106,105328685,1000,1000,1000,1000,0,0,0,0,0,0,0,0,0,0
1683112198.19993091,105428645,1000,1000,1000,1000,0,0,0,0,0,0,0,0,0,0
1683112198.29989100,105528605,1000,1000,1000,1000,0,0,0,0,0,0,0,0,0,0
1683112198.39985108,105628565,1000,1000,1000,1000,0,0,0,0,0,0,0,0,0,0
1683112198.49981093,105728525,1000,1000,1000,1000,0,0,0,0,0,0,0,0,0,0
1683112198.59977102,105828485,1000,1000,1000,1000,0,0,0,0,0,0,0,0,0,0
1683112198.69973111,105928445,1000,1000,1000,1000,0,0,0,0,0,0,0,0,0,0
1683112198.79969096,106028405,1000,1000,1000,1000,0,0,0,0,0,0,0,0,0,0
1683112198.89965105,106128365,1000,1000,1000,1000,0,0,0,0,0,0,0,0,0,0
1683112198.99961090,106228325,1000,1000,1000,1000,0,0,0,0,0,0,0,0,0,0
1683112199.09957099,106328285,1000,1000,1000,1000,0,0,0,0,0,0,0,0,0,0
1683112199.19953108,106428245,1000,1000,1000,1000,0,0,0,0,0,0,0,0,0,0
1683112199.29949093,106528205,1000,1000,1000,1000,0,0,0,0,0,0,0,0,0,0
1683112199.39945102,106628165,1000,1000,1000,1000,0,0,0,0,0,0,0,0,0,0
1683112199.50024390,106728958,1000,1000,1000,1000,0,0,0,0,0,0,0,0,0,0
1683112199.60020399,106828918,1000,1000,1000,1000,0,0,0,0,0,0,0,0,0,0
1683112199.70016408,106928878,1000,1000,1000,1000,0,0,0,0,0,0,0,0,0,0
1683112199.80012393,107028838,1000,1000,1000,1000,0,0,0,0,0,0,0,0,0,0
1683112199.90008402,107128798,1000,1000,1000,1000,0,0,0,0,0,0,0,0,0,0
1683112200.00004411,107228758,1000,1000,1000,1000,0,0,0,0,0,0,0,0,0,0
1683112200.10000396,107328718,1000,1000,1000,1000,0,0,0,0,0,0,0,0,0,0
1683112200.19996405,107428678,1000,1000,1000,1000,0,0,0,0,0,0,0,0,0,0
1683112200.29992390,107528638,1000,1000,1000,1000,0,0,0,0,0,0,0,0,0,0
1683112200.39988399,107628598,1000,1000,1000,1000,0,0,0,0,0,0,0,0,0,0
1683112200.49984407,107728558,1000,1000,1000,1000,0,0,0,0,0,0,0,0,0,0
1683112200.59980392,107828518,1000,1000,1000,1000,0,0,0,0,0,0,0,0,0,0
1683112200.69976401,107928478,1000,1000,1000,1000,0,0,0,0,0,0,0,0,0,0
1683112200.79972410,108028438,1000,1000,1000,1000,0,0,0,0,0,0,0,0,0,0
1683112200.89968395,108128398,1000,1000,1000,1000,0,0,0,0,0,0,0,0,0,0
1683112200.99964404,108228358,1000,1000,1000,1000,0,0,0,0,0,0,0,0,0,0
1683112201.09960413,108328318,1000,1000,1000,1000,0,0,0,0,0,0,0,0,0,0
1683112201.19956398,108428278,1000,1000,1000,1000,0,0,0,0,0,0,0,0,0,0
1683112201.29952407,108528238,1000,1000,1000,1000,0,0,0,0,0,0,0,0,0,0
1683112201.39948392,108628198,1000,1000,1000,1000,0,0,0,0,0,0,0,0,0,0
1683112201.49944401,108728158,1000,1000,1000,1000,0,0,0,0,0,0,0,0,0,0
1683112201.60023689,108828951,1000,1000,1000,1000,0,0,0,0,0,0,0,0,0,0
1683112201.70019698,108928911,1000,1000,1000,1000,0,0,0,0,0,0,0,0,0,0
1683112201.80015707,109028871,1000,1000,1000,1000,0,0,0,0,0,0,0,0,0,0
1683112201.90011692,109128831,1000,1000,1000,1000,0,0,0,0,0,0,0,0,0,0
1683112202.00007701,109228791,1000,1000,1000,1000,0,0,0,0,0,0,0,0,0,0
1683112202.10003710,109328751,1000,1000,1000,1000,0,0,0,0,0,0,0,0,0,0
1683112202.19999695,109428711,1000,1000,1000,1000,0,0,0,0,0,0,0,0,0,0
1683112202.29995704,109528671,1000,1000,1000,1000,0,0,0,0,0,0,0,0,0,0
1683112202.39991713,109628631,1000,1000,1000,1000,0,0,0,0,0,0,0,0,0,0
1683112202.49987698,109728591,1000,1000,1000,1000,0,0,0,0,0,0,0,0,0,0
1683112202.59983706,109828551,1000,1000,1000,1000,0,0,0,0,0,0,0,0,0,0
1683112202.69979692,109928511,1000,1000,1000,1000,0,0,0,0,0,0,0,0,0,0
1683112202.79975700,110028471,1000,1000,1000,1000,0,0,0,0,0,0,0,0,0,0
1683112202.89971709,110128431,1000,1000,1000,1000,0,0,0,0,0,0,0,0,0,0
1683112202.99967694,110228391,1000,1000,1000,1000,0,0,0,0,0,0,0,0,0,0
1683112203.09963703,110328351,1000,1000,1000,1000,0,0,0,0,0,0,0,0,0,0
1683112203.19959712,110428311,1000,1000,1000,1000,0,0,0,0,0,0,0,0,0,0
1683112203.29955697,110528271,1000,1000,1000,1000,0,0,0,0,0,0,0,0,0,0
1683112203.39951706,110628231,1000,1000,1000,1000,0,0,0,0,0,0,0,0,0,0
1683112203.49947691,110728191,1000,1000,1000,1000,0,0,0,0,0,0,0,0,0,0
1683112203.60027003,110828984,1000,1000,1000,1000,0,0,0,0,0,0,0,0,0,0
1683112203.70023012,110928944,1000,1000,1000,1000,0,0,0,0,0,0,0,0,0,0
1683112203.80018997,111028904,1000,1000,1000,1000,0,0,0,0,0,0,0,0,0,0
1683112203.90015006,111128864,1000,1000,1000,1000,0,0,0,0,0,0,0,0,0,0
1683112204.00010991,111228824,1000,1000,1000,1000,0,0,0,0,0,0,0,0,0,0
1683112204.10007000,111328784,1000,1000,1000,1000,0,0,0,0,0,0,0,0,0,0
1683112204.20003009,111428744,1000,1000,1000,1000,0,0,0,0,0,0,0,0,0,0
1683112204.29998994,111528704,1000,1000,1000,1000,0,0,0,0,0,0,0,0,0,0
1683112204.39995003,111628664,1000,1000,1000,1000,0,0,0,0,0,0,0,0,0,0
1683112204.49991012,111728624,1000,1000,1000,1000,0,0,0,0,0,0,0,0,0,0
1683112204.59986997,111828584,1000,1000,1000,1000,0,0,0,0,0,0,0,0,0,0
1683112204.69983006,111928544,1000,1000,1000,1000,0,0,0,0,0,0,0,0,0,0
1683112204.79978991,112028504,1000,1000,1000,1000,0,0,0,0,0,0,0,0,0,0
1683112204.89974999,112128464,1000,1000,1000,1000,0,0,0,0,0,0,0,0,0,0
1683112204.99971008,112228424,1000,1000,1000,1000,0,0,0,0,0,0,0,0,0,0
1683112205.09966993,112328384,1000,1000,1000,1000,0,0,0,0,0,0,0,0,0,0
1683112205.19963002,112428344,1000,1000,1000,1000,0,0,0,0,0,0,0,0,0,0
1683112205.29959011,112528304,1000,1000,1000,1000,0,0,0,0,0,0,0,0,0,0
1683112205.39954996,112628264,1000,1000,1000,1000,0,0,0,0,0,0,0,0,0,0
1683112205.49951005,112728224,1000,1000,1000,1000,0,0,0,0,0,0,0,0,0,0
1683112205.59946990,112828184,1000,1000,1000,1000,0,0,0,0,0,0,0,0,0,0
1683112205.70026302,112928977,1000,1000,1000,1000,0,0,0,0,0,0,0,0,0,0
1683112205.80022311,113028937,1000,1000,1000,1000,0,0,0,0,0,0,0,0,0,0
1683112205.90018296,113128897,1000,1000,1000,1000,0,0,0,0,0,0,0,0,0,0
1683112206.00014305,113228857,1000,1000,1000,1000,0,0,0,0,0,0,0,0,0,0
