timestamp,TimeUS,C1,C2,C3,C4,C5,C6,C7,C8,C9,C10,C11,C12,C13,C14
1684053403.59999990,64028545,1000,1000,1000,1000,0,0,0,0,0,0,0,0,0,0
1684053403.69995999,64128505,1000,1000,1000,1000,0,0,0,0,0,0,0,0,0,0
1684053403.79992008,64228465,1000,1000,1000,1000,0,0,0,0,0,0,0,0,0,0
1684053403.89987993,64328425,1000,1000,1000,1000,0,0,0,0,0,0,0,0,0,0
1684053403.99984002,64428385,1000,1000,1000,1000,0,0,0,0,0,0,0,0,0,0
1684053404.09980011,64528345,1000,1000,1000,1000,0,0,0,0,0,0,0,0,0,0
1684053404.19975996,64628305,1000,1000,1000,1000,0,0,0,0,0,0,0,0,0,0
1684053404.29972005,64728265,1000,1000,1000,1000,0,0,0,0,0,0,0,0,0,0
1684053404.39967990,64828225,1000,1000,1000,1000,0,0,0,0,0,0,0,0,0,0
1684053404.49963999,64928185,1000,1000,1000,1000,0,0,0,0,0,0,0,0,0,0
1684053404.60043311,65028978,1000,1000,1000,1000,0,0,0,0,0,0,0,0,0,0
1684053404.70039296,65128938,1000,1000,1000,1000,0,0,0,0,0,0,0,0,0,0
1684053404.80035305,65228898,1000,1000,1000,1000,0,0,0,0,0,0,0,0,0,0
1684053404.90031290,65328858,1000,1000,1000,1000,0,0,0,0,0,0,0,0,0,0
1684053405.00027299,65428818,1000,1000,1000,1000,0,0,0,0,0,0,0,0,0,0
1684053405.10023308,65528778,1000,1000,1000,1000,0,0,0,0,0,0,0,0,0,0
1684053405.20019293,65628738,1000,1000,1000,1000,0,0,0,0,0,0,0,0,0,0
1684053405.30015302,65728698,1000,1000,1000,1000,0,0,0,0,0,0,0,0,0,0
1684053405.40011311,65828658,1000,1000,1000,1000,0,0,0,0,0,0,0,0,0,0
1684053405.50007296,65928618,1000,1000,1000,1000,0,0,0,0,0,0,0,0,0,0
1684053405.60003304,66028578,1015,1015,1015,1015,0,0,0,0,0,0,0,0,0,0
1684053405.69999290,66128538,1045,1045,1045,1045,0,0,0,0,0,0,0,0,0,0
1684053405.79995298,66228498,1075,1075,1075,1075,0,0,0,0,0,0,0,0,0,0
1684053405.89991307,66328458,1104,1104,1104,1104,0,0,0,0,0,0,0,0,0,0
1684053405.99987292,66428418,1134,1134,1134,1134,0,0,0,0,0,0,0,0,0,0
1684053406.09983301,66528378,1289,1280,1280,1289,0,0,0,0,0,0,0,0,0,0
1684053406.19979310,66628338,1495,1489,1489,1496,0,0,0,0,0,0,0,0,0,0
1684053406.29975295,66728298,1656,1650,1651,1657,0,0,0,0,0,0,0,0,0,0
1684053406.39971304,66828258,1793,1787,1787,1793,0,0,0,0,0,0,0,0,0,0
1684053406.49967289,66928218,1913,1908,1908,1914,0,0,0,0,0,0,0,0,0,0
1684053406.59963298,67028178,1895,1892,1892,1895,0,0,0,0,0,0,0,0,0,0
1684053406.70042610,67128971,1764,1764,1764,1765,0,0,0,0,0,0,0,0,0,0
1684053406.80038595,67228931,1670,1672,1672,1671,0,0,0,0,0,0,0,0,0,0
1684053406.90034604,67328891,1642,1644,1644,1642,0,0,0,0,0,0,0,0,0,0
1684053407.00030589,67428851,1644,1646,1646,1644,0,0,0,0,0,0,0,0,0,0
1684053407.10026598,67528811,1648,1649,1649,1648,0,0,0,0,0,0,0,0,0,0
1684053407.20022607,67628771,1643,1643,1643,1643,0,0,0,0,0,0,0,0,0,0
1684053407.30018592,67728731,1620,1619,1612,1626,0,0,0,0,0,0,0,0,0,0
1684053407.40014601,67828691,1604,1603,1594,1613,0,0,0,0,0,0,0,0,0,0
1684053407.50010610,67928651,1596,1596,1590,1601,0,0,0,0,0,0,0,0,0,0
1684053407.60006595,68028611,1595,1595,1594,1595,0,0,0,0,0,0,0,0,0,0
1684053407.70002604,68128571,1598,1597,1600,1594,0,0,0,0,0,0,0,0,0,0
1684053407.79998589,68228531,1590,1591,1598,1582,0,0,0,0,0,0,0,0,0,0
1684053407.89994597,68328491,1572,1572,1592,1551,0,0,0,0,0,0,0,0,0,0
1684053407.99990606,68428451,1560,1561,1574,1548,0,0,0,0,0,0,0,0,0,0
1684053408.09986591,68528411,1551,1551,1553,1550,0,0,0,0,0,0,0,0,0,0
1684053408.19982600,68628371,1542,1541,1533,1552,0,0,0,0,0,0,0,0,0,0
1684053408.29978609,68728331,1536,1536,1523,1549,0,0,0,0,0,0,0,0,0,0
1684053408.39974594,68828291,1530,1530,1519,1541,0,0,0,0,0,0,0,0,0,0
1684053408.49970603,68928251,1526,1525,1519,1532,0,0,0,0,0,0,0,0,0,0
1684053408.59966612,69028211,1525,1524,1523,1525,0,0,0,0,0,0,0,0,0,0
1684053408.69962597,69128171,1526,1526,1527,1524,0,0,0,0,0,0,0,0,0,0
1684053408.80041909,69228964,1529,1529,1531,1526,0,0,0,0,0,0,0,0,0,0
1684053408.90037894,69328924,1533,1533,1536,1529,0,0,0,0,0,0,0,0,0,0
1684053409.00033903,69428884,1538,1538,1541,1534,0,0,0,0,0,0,0,0,0,0
1684053409.10029912,69528844,1542,1542,1545,1540,0,0,0,0,0,0,0,0,0,0
1684053409.20025897,69628804,1546,1546,1547,1545,0,0,0,0,0,0,0,0,0,0
1684053409.30021906,69728764,1548,1548,1548,1549,0,0,0,0,0,0,0,0,0,0
1684053409.40017891,69828724,1551,1551,1550,1552,0,0,0,0,0,0,0,0,0,0
1684053409.50013900,69928684,1553,1553,1552,1555,0,0,0,0,0,0,0,0,0,0
1684053409.60009909,70028644,1555,1554,1556,1560,0,0,0,0,0,0,0,0,0,0
1684053409.70005894,70128604,1555,1555,1560,1562,0,0,0,0,0,0,0,0,0,0
1684053409.80001903,70228564,1557,1557,1563,1563,0,0,0,0,0,0,0,0,0,0
1684053409.89997911,70328524,1558,1559,1564,1563,0,0,0,0,0,0,0,0,0,0
1684053409.99993896,70428484,1561,1562,1565,1565,0,0,0,0,0,0,0,0,0,0
1684053410.09989905,70528444,1564,1564,1566,1565,0,0,0,0,0,0,0,0,0,0
1684053410.19985890,70628404,1567,1567,1567,1566,0,0,0,0,0,0,0,0,0,0
1684053410.29981899,70728364,1568,1567,1566,1566,0,0,0,0,0,0,0,0,0,0
1684053410.39977908,70828324,1569,1570,1567,1567,0,0,0,0,0,0,0,0,0,0
1684053410.49973893,70928284,1571,1572,1568,1568,0,0,0,0,0,0,0,0,0,0
1684053410.59969902,71028244,1572,1573,1568,1568,0,0,0,0,0,0,0,0,0,0
1684053410.69965911,71128204,1573,1573,1569,1569,0,0,0,0,0,0,0,0,0,0
1684053410.79961896,71228164,1574,1574,1570,1571,0,0,0,0,0,0,0,0,0,0
1684053410.90041208,71328957,1575,1574,1571,1572,0,0,0,0,0,0,0,0,0,0
1684053411.00037193,71428917,1576,1575,1574,1572,0,0,0,0,0,0,0,0,0,0
1684053411.10033202,71528877,1576,1575,1575,1573,0,0,0,0,0,0,0,0,0,0
1684053411.20029211,71628837,1576,1576,1577,1575,0,0,0,0,0,0,0,0,0,0
1684053411.30025196,71728797,1576,1576,1577,1576,0,0,0,0,0,0,0,0,0,0
1684053411.40021205,71828757,1575,1575,1576,1575,0,0,0,0,0,0,0,0,0,0
1684053411.50017190,71928717,1575,1575,1576,1577,0,0,0,0,0,0,0,0,0,0
1684053411.60013199,72028677,1575,1576,1577,1577,0,0,0,0,0,0,0,0,0,0
1684053411.70009208,72128637,1575,1575,1576,1577,0,0,0,0,0,0,0,0,0,0
1684053411.80005193,72228597,1576,1576,1577,1577,0,0,0,0,0,0,0,0,0,0
1684053411.90001202,72328557,1575,1575,1576,1576,0,0,0,0,0,0,0,0,0,0
1684053411.99997211,72428517,1577,1577,1578,1577,0,0,0,0,0,0,0,0,0,0
1684053412.09993196,72528477,1577,1577,1578,1577,0,0,0,0,0,0,0,0,0,0
1684053412.19989204,72628437,1578,1578,1578,1577,0,0,0,0,0,0,0,0,0,0
1684053412.29985189,72728397,1578,1577,1577,1577,0,0,0,0,0,0,0,0,0,0
1684053412.39981198,72828357,1578,1577,1577,1577,0,0,0,0,0,0,0,0,0,0
1684053412.49977207,72928317,1578,1578,1577,1578,0,0,0,0,0,0,0,0,0,0
1684053412.59973192,73028277,1578,1578,1577,1577,0,0,0,0,0,0,0,0,0,0
1684053412.69969201,73128237,1577,1578,1577,1577,0,0,0,0,0,0,0,0,0,0
1684053412.79965210,73228197,1577,1577,1577,1577,0,0,0,0,0,0,0,0,0,0
1684053412.89961195,73328157,1577,1577,1577,1577,0,0,0,0,0,0,0,0,0,0
1684053413.00040507,73428950,1579,1579,1579,1579,0,0,0,0,0,0,0,0,0,0
1684053413.10036492,73528910,1579,1579,1579,1579,0,0,0,0,0,0,0,0,0,0
1684053413.20032501,73628870,1578,1578,1578,1578,0,0,0,0,0,0,0,0,0,0
1684053413.30028510,73728830,1579,1579,1579,1579,0,0,0,0,0,0,0,0,0,0
1684053413.40024495,73828790,1578,1579,1579,1579,0,0,0,0,0,0,0,0,0,0
1684053413.50020504,73928750,1579,1579,1579,1580,0,0,0,0,0,0,0,0,0,0
1684053413.60016489,74028710,1579,1579,1579,1579,0,0,0,0,0,0,0,0,0,0
1684053413.70012498,74128670,1579,1579,1579,1579,0,0,0,0,0,0,0,0,0,0
1684053413.80008507,74228630,1580,1580,1580,1580,0,0,0,0,0,0,0,0,0,0
1684053413.90004492,74328590,1579,1579,1579,1579,0,0,0,0,0,0,0,0,0,0
1684053414.00000501,74428550,1579,1579,1579,1579,0,0,0,0,0,0,0,0,0,0
1684053414.09996510,74528510,1580,1580,1580,1580,0,0,0,0,0,0,0,0,0,0
1684053414.19992495,74628470,1579,1579,1579,1579,0,0,0,0,0,0,0,0,0,0
1684053414.29988503,74728430,1579,1579,1579,1579,0,0,0,0,0,0,0,0,0,0
1684053414.39984488,74828390,1580,1580,1580,1580,0,0,0,0,0,0,0,0,0,0
1684053414.49980497,74928350,1580,1580,1581,1580,0,0,0,0,0,0,0,0,0,0
1684053414.59976506,75028310,1580,1580,1580,1580,0,0,0,0,0,0,0,0,0,0
1684053414.69972491,75128270,1581,1581,1581,1581,0,0,0,0,0,0,0,0,0,0
1684053414.79968500,75228230,1580,1580,1580,1580,0,0,0,0,0,0,0,0,0,0
1684053414.89964509,75328190,1581,1581,1581,1581,0,0,0,0,0,0,0,0,0,0
1684053415.00043797,75428983,1581,1581,1581,1581,0,0,0,0,0,0,0,0,0,0
1684053415.10039806,75528943,1581,1580,1581,1581,0,0,0,0,0,0,0,0,0,0
1684053415.20035791,75628903,1580,1580,1580,1580,0,0,0,0,0,0,0,0,0,0
1684053415.30031800,75728863,1580,1580,1580,1581,0,0,0,0,0,0,0,0,0,0
1684053415.40027809,75828823,1580,1581,1580,1581,0,0,0,0,0,0,0,0,0,0
1684053415.50023794,75928783,1581,1581,1581,1581,0,0,0,0,0,0,0,0,0,0
1684053415.60019803,76028743,1581,1581,1581,1580,0,0,0,0,0,0,0,0,0,0
1684053415.70015812,76128703,1580,1580,1581,1580,0,0,0,0,0,0,0,0,0,0
1684053415.80011797,76228663,1581,1581,1585,1577,0,0,0,0,0,0,0,0,0,0
1684053415.90007806,76328623,1581,1582,1588,1573,0,0,0,0,0,0,0,0,0,0
1684053416.00003791,76428583,1579,1582,1581,1573,0,0,0,0,0,0,0,0,0,0
1684053416.09999800,76528543,1578,1580,1572,1573,0,0,0,0,0,0,0,0,0,0
1684053416.19995809,76628503,1577,1579,1564,1570,0,0,0,0,0,0,0,0,0,0
1684053416.29991794,76728463,1577,1579,1559,1566,0,0,0,0,0,0,0,0,0,0
1684053416.39987803,76828423,1578,1578,1556,1561,0,0,0,0,0,0,0,0,0,0
1684053416.49983811,76928383,1579,1578,1555,1557,0,0,0,0,0,0,0,0,0,0
1684053416.59979796,77028343,1579,1577,1555,1554,0,0,0,0,0,0,0,0,0,0
1684053416.69975805,77128303,1579,1577,1556,1554,0,0,0,0,0,0,0,0,0,0
1684053416.79971790,77228263,1577,1577,1556,1554,0,0,0,0,0,0,0,0,0,0
1684053416.89967799,77328223,1576,1577,1555,1553,0,0,0,0,0,0,0,0,0,0
1684053416.99963808,77428183,1575,1577,1555,1554,0,0,0,0,0,0,0,0,0,0
1684053417.10043097,77528976,1575,1577,1554,1554,0,0,0,0,0,0,0,0,0,0
1684053417.20039105,77628936,1575,1576,1552,1553,0,0,0,0,0,0,0,0,0,0
1684053417.30035090,77728896,1576,1578,1551,1552,0,0,0,0,0,0,0,0,0,0
1684053417.40031099,77828856,1578,1579,1549,1550,0,0,0,0,0,0,0,0,0,0
1684053417.50027108,77928816,1579,1580,1546,1546,0,0,0,0,0,0,0,0,0,0
1684053417.60023093,78028776,1582,1583,1544,1544,0,0,0,0,0,0,0,0,0,0
1684053417.70019102,78128736,1585,1586,1541,1541,0,0,0,0,0,0,0,0,0,0
1684053417.80015111,78228696,1588,1589,1539,1538,0,0,0,0,0,0,0,0,0,0
1684053417.90011096,78328656,1592,1592,1536,1537,0,0,0,0,0,0,0,0,0,0
1684053418.00007105,78428616,1594,1594,1534,1534,0,0,0,0,0,0,0,0,0,0
1684053418.10003090,78528576,1596,1595,1533,1535,0,0,0,0,0,0,0,0,0,0
1684053418.19999099,78628536,1595,1595,1534,1536,0,0,0,0,0,0,0,0,0,0
1684053418.29995108,78728496,1594,1594,1536,1539,0,0,0,0,0,0,0,0,0,0
1684053418.39991093,78828456,1591,1590,1540,1543,0,0,0,0,0,0,0,0,0,0
1684053418.49987102,78928416,1586,1584,1546,1549,0,0,0,0,0,0,0,0,0,0
1684053418.59983110,79028376,1579,1576,1556,1558,0,0,0,0,0,0,0,0,0,0
1684053418.69979095,79128336,1570,1566,1567,1570,0,0,0,0,0,0,0,0,0,0
1684053418.79975104,79228296,1559,1555,1580,1582,0,0,0,0,0,0,0,0,0,0
1684053418.89971089,79328256,1548,1545,1592,1593,0,0,0,0,0,0,0,0,0,0
1684053418.99967098,79428216,1538,1536,1603,1603,0,0,0,0,0,0,0,0,0,0
1684053419.09963107,79528176,1191,1191,1620,1619,0,0,0,0,0,0,0,0,0,0
1684053419.20042396,79628969,1307,1315,1687,1692,0,0,0,0,0,0,0,0,0,0
1684053419.30038404,79728929,1383,1393,1685,1683,0,0,0,0,0,0,0,0,0,0
1684053419.40034389,79828889,1453,1464,1665,1657,0,0,0,0,0,0,0,0,0,0
1684053419.50030398,79928849,1515,1520,1640,1631,0,0,0,0,0,0,0,0,0,0
1684053419.60026407,80028809,1559,1559,1622,1615,0,0,0,0,0,0,0,0,0,0
1684053419.70022392,80128769,1595,1582,1610,1605,0,0,0,0,0,0,0,0,0,0
1684053419.80018401,80228729,1600,1584,1546,1551,0,0,0,0,0,0,0,0,0,0
1684053419.90014410,80328689,1600,1588,1490,1503,0,0,0,0,0,0,0,0,0,0
1684053420.00010395,80428649,1600,1598,1496,1508,0,0,0,0,0,0,0,0,0,0
1684053420.10006404,80528609,1594,1600,1511,1516,0,0,0,0,0,0,0,0,0,0
1684053420.20002389,80628569,1591,1600,1530,1528,0,0,0,0,0,0,0,0,0,0
1684053420.29998398,80728529,1593,1600,1547,1542,0,0,0,0,0,0,0,0,0,0
1684053420.39994407,80828489,1597,1600,1561,1557,0,0,0,0,0,0,0,0,0,0
1684053420.49990392,80928449,1600,1598,1569,1567,0,0,0,0,0,0,0,0,0,0
1684053420.59986401,81028409,1600,1596,1572,1572,0,0,0,0,0,0,0,0,0,0
1684053420.69982409,81128369,1600,1596,1574,1577,0,0,0,0,0,0,0,0,0,0
1684053420.79978395,81228329,1600,1597,1577,1580,0,0,0,0,0,0,0,0,0,0
1684053420.89974403,81328289,1600,1599,1581,1583,0,0,0,0,0,0,0,0,0,0
1684053420.99970388,81428249,1600,1597,1587,1580,0,0,0,0,0,0,0,0,0,0
1684053421.09966397,81528209,1600,1596,1588,1583,0,0,0,0,0,0,0,0,0,0
1684053421.19962406,81628169,1600,1596,1588,1586,0,0,0,0,0,0,0,0,0,0
1684053421.30041695,81728962,1600,1597,1588,1588,0,0,0,0,0,0,0,0,0,0
1684053421.40037704,81828922,1600,1599,1587,1591,0,0,0,0,0,0,0,0,0,0
1684053421.50033689,81928882,1596,1600,1582,1588,0,0,0,0,0,0,0,0,0,0
1684053421.60029697,82028842,1593,1600,1581,1584,0,0,0,0,0,0,0,0,0,0
1684053421.70025706,82128802,1592,1600,1581,1582,0,0,0,0,0,0,0,0,0,0
1684053421.80021691,82228762,1593,1600,1582,1580,0,0,0,0,0,0,0,0,0,0
1684053421.90017700,82328722,1594,1600,1582,1580,0,0,0,0,0,0,0,0,0,0
1684053422.00013709,82428682,1595,1600,1583,1580,0,0,0,0,0,0,0,0,0,0
1684053422.10009694,82528642,1597,1600,1583,1581,0,0,0,0,0,0,0,0,0,0
1684053422.20005703,82628602,1599,1600,1582,1582,0,0,0,0,0,0,0,0,0,0
1684053422.30001712,82728562,1600,1599,1581,1581,0,0,0,0,0,0,0,0,0,0
1684053422.39997697,82828522,1600,1597,1581,1576,0,0,0,0,0,0,0,0,0,0
1684053422.49993706,82928482,1600,1593,1581,1575,0,0,0,0,0,0,0,0,0,0
1684053422.59989691,83028442,1600,1592,1580,1579,0,0,0,0,0,0,0,0,0,0
1684053422.69985700,83128402,1600,1592,1579,1583,0,0,0,0,0,0,0,0,0,0
1684053422.79981709,83228362,1600,1596,1581,1586,0,0,0,0,0,0,0,0,0,0
1684053422.89977694,83328322,1599,1600,1583,1587,0,0,0,0,0,0,0,0,0,0
1684053422.99973702,83428282,1594,1598,1579,1582,0,0,0,0,0,0,0,0,0,0
1684053423.09969711,83528242,1589,1594,1574,1575,0,0,0,0,0,0,0,0,0,0
1684053423.19965696,83628202,1586,1591,1571,1569,0,0,0,0,0,0,0,0,0,0
1684053423.29961705,83728162,1585,1588,1570,1566,0,0,0,0,0,0,0,0,0,0
1684053423.40040994,83828955,1585,1586,1569,1565,0,0,0,0,0,0,0,0,0,0
1684053423.50037003,83928915,1586,1585,1568,1566,0,0,0,0,0,0,0,0,0,0
1684053423.60033011,84028875,1587,1584,1567,1567,0,0,0,0,0,0,0,0,0,0
1684053423.70028996,84128835,1587,1584,1567,1568,0,0,0,0,0,0,0,0,0,0
1684053423.80025005,84228795,1587,1584,1568,1567,0,0,0,0,0,0,0,0,0,0
1684053423.90020990,84328755,1589,1581,1571,1564,0,0,0,0,0,0,0,0,0,0
1684053424.00016999,84428715,1588,1580,1568,1566,0,0,0,0,0,0,0,0,0,0
1684053424.10013008,84528675,1584,1580,1562,1565,0,0,0,0,0,0,0,0,0,0
1684053424.20008993,84628635,1580,1581,1559,1562,0,0,0,0,0,0,0,0,0,0
1684053424.30005002,84728595,1577,1582,1558,1559,0,0,0,0,0,0,0,0,0,0
1684053424.40001011,84828555,1575,1581,1557,1556,0,0,0,0,0,0,0,0,0,0
1684053424.49996996,84928515,1576,1580,1558,1554,0,0,0,0,0,0,0,0,0,0
1684053424.59993005,85028475,1577,1579,1559,1554,0,0,0,0,0,0,0,0,0,0
1684053424.69988990,85128435,1571,1570,1566,1563,0,0,0,0,0,0,0,0,0,0
1684053424.79984999,85228395,1560,1558,1578,1577,0,0,0,0,0,0,0,0,0,0
1684053424.89981008,85328355,1549,1547,1585,1586,0,0,0,0,0,0,0,0,0,0
1684053424.99976993,85428315,1542,1542,1587,1589,0,0,0,0,0,0,0,0,0,0
1684053425.09973001,85528275,1541,1543,1585,1587,0,0,0,0,0,0,0,0,0,0
1684053425.19969010,85628235,1541,1545,1580,1581,0,0,0,0,0,0,0,0,0,0
1684053425.29964995,85728195,1545,1549,1574,1574,0,0,0,0,0,0,0,0,0,0
1684053425.39961004,85828155,1551,1554,1570,1567,0,0,0,0,0,0,0,0,0,0
1684053425.50040293,85928948,1555,1557,1563,1560,0,0,0,0,0,0,0,0,0,0
1684053425.60036302,86028908,1562,1563,1556,1553,0,0,0,0,0,0,0,0,0,0
1684053425.70032310,86128868,1573,1571,1545,1543,0,0,0,0,0,0,0,0,0,0
1684053425.80028296,86228828,1583,1581,1534,1534,0,0,0,0,0,0,0,0,0,0
1684053425.90024304,86328788,1591,1589,1527,1526,0,0,0,0,0,0,0,0,0,0
1684053426.00020289,86428748,1595,1595,1523,1524,0,0,0,0,0,0,0,0,0,0
1684053426.10016298,86528708,1595,1595,1526,1527,0,0,0,0,0,0,0,0,0,0
1684053426.20012307,86628668,1591,1593,1531,1533,0,0,0,0,0,0,0,0,0,0
1684053426.30008292,86728628,1589,1591,1537,1538,0,0,0,0,0,0,0,0,0,0
1684053426.40004301,86828588,1587,1589,1541,1541,0,0,0,0,0,0,0,0,0,0
1684053426.50000310,86928548,1585,1586,1544,1544,0,0,0,0,0,0,0,0,0,0
1684053426.59996295,87028508,1585,1584,1546,1547,0,0,0,0,0,0,0,0,0,0
1684053426.69992304,87128468,1584,1583,1548,1549,0,0,0,0,0,0,0,0,0,0
1684053426.79988289,87228428,1584,1583,1550,1551,0,0,0,0,0,0,0,0,0,0
1684053426.89984298,87328388,1583,1582,1549,1552,0,0,0,0,0,0,0,0,0,0
1684053426.99980307,87428348,1583,1582,1551,1553,0,0,0,0,0,0,0,0,0,0
1684053427.09976292,87528308,1580,1578,1556,1560,0,0,0,0,0,0,0,0,0,0
1684053427.19972301,87628268,1570,1568,1565,1570,0,0,0,0,0,0,0,0,0,0
1684053427.29968309,87728228,1560,1560,1575,1578,0,0,0,0,0,0,0,0,0,0
1684053427.39964294,87828188,1553,1553,1582,1584,0,0,0,0,0,0,0,0,0,0
1684053427.50043607,87928981,1548,1549,1587,1587,0,0,0,0,0,0,0,0,0,0
1684053427.60039592,88028941,1546,1546,1590,1590,0,0,0,0,0,0,0,0,0,0
1684053427.70035601,88128901,1544,1544,1592,1590,0,0,0,0,0,0,0,0,0,0
1684053427.80031610,88228861,1545,1544,1594,1592,0,0,0,0,0,0,0,0,0,0
1684053427.90027595,88328821,1545,1545,1594,1592,0,0,0,0,0,0,0,0,0,0
1684053428.00023603,88428781,1546,1546,1593,1592,0,0,0,0,0,0,0,0,0,0
1684053428.10019588,88528741,1549,1549,1592,1592,0,0,0,0,0,0,0,0,0,0
1684053428.20015597,88628701,1550,1551,1589,1589,0,0,0,0,0,0,0,0,0,0
1684053428.30011606,88728661,1554,1555,1588,1588,0,0,0,0,0,0,0,0,0,0
1684053428.40007591,88828621,1557,1558,1585,1586,0,0,0,0,0,0,0,0,0,0
1684053428.50003600,88928581,1562,1562,1584,1584,0,0,0,0,0,0,0,0,0,0
1684053428.59999609,89028541,1566,1566,1583,1582,0,0,0,0,0,0,0,0,0,0
1684053428.69995594,89128501,1569,1569,1581,1580,0,0,0,0,0,0,0,0,0,0
1684053428.79991603,89228461,1573,1572,1580,1579,0,0,0,0,0,0,0,0,0,0
1684053428.89987612,89328421,1575,1574,1578,1578,0,0,0,0,0,0,0,0,0,0
1684053428.99983597,89428381,1578,1577,1577,1577,0,0,0,0,0,0,0,0,0,0
1684053429.09979606,89528341,1580,1579,1577,1577,0,0,0,0,0,0,0,0,0,0
1684053429.19975591,89628301,1581,1580,1576,1576,0,0,0,0,0,0,0,0,0,0
1684053429.29971600,89728261,1581,1581,1574,1574,0,0,0,0,0,0,0,0,0,0
1684053429.39967608,89828221,1582,1582,1574,1575,0,0,0,0,0,0,0,0,0,0
1684053429.49963593,89928181,1582,1583,1575,1575,0,0,0,0,0,0,0,0,0,0
1684053429.60042906,90028974,1582,1583,1575,1575,0,0,0,0,0,0,0,0,0,0
1684053429.70038891,90128934,1583,1583,1576,1575,0,0,0,0,0,0,0,0,0,0
1684053429.80034900,90228894,1583,1583,1575,1575,0,0,0,0,0,0,0,0,0,0
1684053429.90030909,90328854,1583,1583,1576,1576,0,0,0,0,0,0,0,0,0,0
1684053430.00026894,90428814,1582,1582,1577,1576,0,0,0,0,0,0,0,0,0,0
1684053430.10022902,90528774,1582,1581,1576,1576,0,0,0,0,0,0,0,0,0,0
1684053430.20018911,90628734,1582,1582,1578,1578,0,0,0,0,0,0,0,0,0,0
1684053430.30014896,90728694,1581,1581,1578,1578,0,0,0,0,0,0,0,0,0,0
1684053430.40010905,90828654,1581,1581,1578,1578,0,0,0,0,0,0,0,0,0,0
1684053430.50006890,90928614,1580,1581,1578,1578,0,0,0,0,0,0,0,0,0,0
1684053430.60002899,91028574,1580,1580,1578,1578,0,0,0,0,0,0,0,0,0,0
1684053430.69998908,91128534,1580,1580,1579,1579,0,0,0,0,0,0,0,0,0,0
1684053430.79994893,91228494,1580,1581,1580,1579,0,0,0,0,0,0,0,0,0,0
1684053430.89990902,91328454,1581,1581,1581,1581,0,0,0,0,0,0,0,0,0,0
1684053430.99986911,91428414,1580,1581,1581,1580,0,0,0,0,0,0,0,0,0,0
1684053431.09982896,91528374,1580,1580,1580,1580,0,0,0,0,0,0,0,0,0,0
1684053431.19978905,91628334,1580,1580,1580,1580,0,0,0,0,0,0,0,0,0,0
1684053431.29974890,91728294,1580,1579,1580,1580,0,0,0,0,0,0,0,0,0,0
1684053431.39970899,91828254,1580,1580,1580,1581,0,0,0,0,0,0,0,0,0,0
1684053431.49966908,91928214,1580,1580,1580,1580,0,0,0,0,0,0,0,0,0,0
1684053431.59962893,92028174,1579,1580,1579,1580,0,0,0,0,0,0,0,0,0,0
1684053431.70042205,92128967,1579,1580,1580,1579,0,0,0,0,0,0,0,0,0,0
1684053431.80038190,92228927,1580,1580,1580,1579,0,0,0,0,0,0,0,0,0,0
1684053431.90034199,92328887,1580,1581,1581,1581,0,0,0,0,0,0,0,0,0,0
1684053432.00030208,92428847,1581,1581,1581,1580,0,0,0,0,0,0,0,0,0,0
1684053432.10026193,92528807,1581,1580,1581,1581,0,0,0,0,0,0,0,0,0,0
1684053432.20022202,92628767,1581,1580,1581,1581,0,0,0,0,0,0,0,0,0,0
1684053432.30018210,92728727,1580,1580,1579,1580,0,0,0,0,0,0,0,0,0,0
1684053432.40014195,92828687,1581,1581,1581,1581,0,0,0,0,0,0,0,0,0,0
1684053432.50010204,92928647,1581,1581,1581,1581,0,0,0,0,0,0,0,0,0,0
1684053432.60006189,93028607,1581,1582,1581,1581,0,0,0,0,0,0,0,0,0,0
1684053432.70002198,93128567,1582,1582,1582,1582,0,0,0,0,0,0,0,0,0,0
1684053432.79998207,93228527,1582,1582,1582,1581,0,0,0,0,0,0,0,0,0,0
1684053432.89994192,93328487,1582,1582,1582,1582,0,0,0,0,0,0,0,0,0,0
1684053432.99990201,93428447,1582,1582,1588,1575,0,0,0,0,0,0,0,0,0,0
1684053433.09986210,93528407,1582,1581,1586,1574,0,0,0,0,0,0,0,0,0,0
1684053433.19982195,93628367,1582,1580,1578,1574,0,0,0,0,0,0,0,0,0,0
1684053433.29978204,93728327,1579,1579,1569,1572,0,0,0,0,0,0,0,0,0,0
1684053433.39974189,93828287,1577,1579,1563,1569,0,0,0,0,0,0,0,0,0,0
1684053433.49970198,93928247,1576,1578,1558,1564,0,0,0,0,0,0,0,0,0,0
1684053433.59966207,94028207,1576,1578,1558,1560,0,0,0,0,0,0,0,0,0,0
1684053433.69962192,94128167,1576,1577,1558,1558,0,0,0,0,0,0,0,0,0,0
1684053433.80041504,94228960,1576,1577,1558,1556,0,0,0,0,0,0,0,0,0,0
1684053433.90037489,94328920,1576,1576,1557,1555,0,0,0,0,0,0,0,0,0,0
1684053434.00033498,94428880,1575,1574,1555,1554,0,0,0,0,0,0,0,0,0,0
1684053434.10029507,94528840,1576,1575,1555,1554,0,0,0,0,0,0,0,0,0,0
1684053434.20025492,94628800,1575,1575,1554,1553,0,0,0,0,0,0,0,0,0,0
1684053434.30021501,94728760,1575,1576,1553,1553,0,0,0,0,0,0,0,0,0,0
1684053434.40017509,94828720,1575,1576,1551,1551,0,0,0,0,0,0,0,0,0,0
1684053434.50013494,94928680,1576,1578,1551,1551,0,0,0,0,0,0,0,0,0,0
1684053434.60009503,95028640,1577,1579,1549,1549,0,0,0,0,0,0,0,0,0,0
1684053434.70005488,95128600,1578,1580,1547,1546,0,0,0,0,0,0,0,0,0,0
1684053434.80001497,95228560,1581,1582,1545,1545,0,0,0,0,0,0,0,0,0,0
1684053434.89997506,95328520,1582,1583,1542,1542,0,0,0,0,0,0,0,0,0,0
1684053434.99993491,95428480,1585,1586,1542,1541,0,0,0,0,0,0,0,0,0,0
1684053435.09989500,95528440,1587,1588,1541,1541,0,0,0,0,0,0,0,0,0,0
1684053435.19985509,95628400,1589,1589,1540,1539,0,0,0,0,0,0,0,0,0,0
1684053435.29981494,95728360,1591,1590,1540,1540,0,0,0,0,0,0,0,0,0,0
1684053435.39977503,95828320,1592,1590,1541,1542,0,0,0,0,0,0,0,0,0,0
1684053435.49973512,95928280,1591,1590,1542,1545,0,0,0,0,0,0,0,0,0,0
1684053435.59969497,96028240,1589,1588,1545,1547,0,0,0,0,0,0,0,0,0,0
1684053435.69965506,96128200,1586,1586,1548,1552,0,0,0,0,0,0,0,0,0,0
1684053435.79961491,96228160,1582,1582,1553,1556,0,0,0,0,0,0,0,0,0,0
1684053435.90040803,96328953,1578,1576,1560,1562,0,0,0,0,0,0,0,0,0,0
1684053436.00036812,96428913,1571,1569,1568,1570,0,0,0,0,0,0,0,0,0,0
1684053436.10032797,96528873,1565,1562,1578,1579,0,0,0,0,0,0,0,0,0,0
1684053436.20028806,96628833,1556,1554,1588,1589,0,0,0,0,0,0,0,0,0,0
1684053436.30024791,96728793,1547,1544,1596,1596,0,0,0,0,0,0,0,0,0,0
1684053436.40020800,96828753,1539,1538,1604,1603,0,0,0,0,0,0,0,0,0,0
1684053436.50016809,96928713,1534,1534,1609,1608,0,0,0,0,0,0,0,0,0,0
1684053436.60012794,97028673,1531,1532,1611,1610,0,0,0,0,0,0,0,0,0,0
1684053436.70008802,97128633,1531,1533,1610,1608,0,0,0,0,0,0,0,0,0,0
1684053436.80004811,97228593,1534,1537,1606,1605,0,0,0,0,0,0,0,0,0,0
1684053436.90000796,97328553,1541,1543,1601,1602,0,0,0,0,0,0,0,0,0,0
1684053436.99996805,97428513,1548,1549,1594,1595,0,0,0,0,0,0,0,0,0,0
1684053437.09992790,97528473,1555,1556,1587,1587,0,0,0,0,0,0,0,0,0,0
1684053437.19988799,97628433,1564,1564,1582,1581,0,0,0,0,0,0,0,0,0,0
1684053437.29984808,97728393,1572,1571,1577,1575,0,0,0,0,0,0,0,0,0,0
1684053437.39980793,97828353,1578,1577,1571,1570,0,0,0,0,0,0,0,0,0,0
1684053437.49976802,97928313,1584,1582,1568,1567,0,0,0,0,0,0,0,0,0,0
1684053437.59972811,98028273,1588,1586,1566,1566,0,0,0,0,0,0,0,0,0,0
1684053437.69968796,98128233,1590,1588,1566,1566,0,0,0,0,0,0,0,0,0,0
1684053437.79964805,98228193,1589,1588,1566,1567,0,0,0,0,0,0,0,0,0,0
1684053437.90044093,98328986,1588,1588,1568,1569,0,0,0,0,0,0,0,0,0,0
1684053438.00040102,98428946,1587,1587,1571,1571,0,0,0,0,0,0,0,0,0,0
1684053438.10036111,98528906,1585,1585,1573,1573,0,0,0,0,0,0,0,0,0,0
1684053438.20032096,98628866,1583,1583,1576,1576,0,0,0,0,0,0,0,0,0,0
1684053438.30028105,98728826,1581,1581,1579,1578,0,0,0,0,0,0,0,0,0,0
1684053438.40024090,98828786,1579,1580,1581,1581,0,0,0,0,0,0,0,0,0,0
1684053438.50020099,98928746,1577,1578,1582,1582,0,0,0,0,0,0,0,0,0,0
1684053438.60016108,99028706,1575,1576,1584,1583,0,0,0,0,0,0,0,0,0,0
1684053438.70012093,99128666,1574,1575,1584,1584,0,0,0,0,0,0,0,0,0,0
1684053438.80008101,99228626,1574,1574,1584,1584,0,0,0,0,0,0,0,0,0,0
1684053438.90004110,99328586,1574,1574,1584,1584,0,0,0,0,0,0,0,0,0,0
1684053439.00000095,99428546,1574,1574,1583,1583,0,0,0,0,0,0,0,0,0,0
1684053439.09996104,99528506,1575,1575,1582,1582,0,0,0,0,0,0,0,0,0,0
1684053439.19992089,99628466,1576,1576,1581,1581,0,0,0,0,0,0,0,0,0,0
1684053439.29988098,99728426,1577,1577,1580,1580,0,0,0,0,0,0,0,0,0,0
1684053439.39984107,99828386,1579,1579,1580,1580,0,0,0,0,0,0,0,0,0,0
1684053439.49980092,99928346,1580,1580,1580,1579,0,0,0,0,0,0,0,0,0,0
1684053439.59976101,100028306,1581,1581,1578,1578,0,0,0,0,0,0,0,0,0,0
1684053439.69972110,100128266,1581,1581,1577,1577,0,0,0,0,0,0,0,0,0,0
1684053439.79968095,100228226,1582,1582,1578,1578,0,0,0,0,0,0,0,0,0,0
1684053439.89964104,100328186,1582,1582,1577,1578,0,0,0,0,0,0,0,0,0,0
1684053440.00043392,100428979,1582,1582,1578,1578,0,0,0,0,0,0,0,0,0,0
1684053440.10039401,100528939,1583,1583,1579,1579,0,0,0,0,0,0,0,0,0,0
1684053440.20035410,100628899,1583,1583,1580,1580,0,0,0,0,0,0,0,0,0,0
1684053440.30031395,100728859,1582,1582,1580,1580,0,0,0,0,0,0,0,0,0,0
1684053440.40027404,100828819,1582,1582,1581,1581,0,0,0,0,0,0,0,0,0,0
1684053440.50023389,100928779,1582,1582,1582,1582,0,0,0,0,0,0,0,0,0,0
1684053440.60019398,101028739,1581,1581,1581,1581,0,0,0,0,0,0,0,0,0,0
1684053440.70015407,101128699,1581,1581,1581,1582,0,0,0,0,0,0,0,0,0,0
1684053440.80011392,101228659,1580,1581,1582,1582,0,0,0,0,0,0,0,0,0,0
1684053440.90007401,101328619,1580,1580,1582,1582,0,0,0,0,0,0,0,0,0,0
1684053441.00003409,101428579,1580,1580,1581,1581,0,0,0,0,0,0,0,0,0,0
1684053441.09999394,101528539,1581,1581,1582,1582,0,0,0,0,0,0,0,0,0,0
1684053441.19995403,101628499,1581,1581,1587,1576,0,0,0,0,0,0,0,0,0,0
1684053441.29991388,101728459,1580,1580,1587,1573,0,0,0,0,0,0,0,0,0,0
1684053441.39987397,101828419,1579,1578,1581,1574,0,0,0,0,0,0,0,0,0,0
1684053441.49983406,101928379,1576,1575,1572,1574,0,0,0,0,0,0,0,0,0,0
1684053441.59979391,102028339,1573,1572,1566,1572,0,0,0,0,0,0,0,0,0,0
1684053441.69975400,102128299,1570,1571,1564,1570,0,0,0,0,0,0,0,0,0,0
1684053441.79971409,102228259,1568,1568,1562,1567,0,0,0,0,0,0,0,0,0,0
1684053441.89967394,102328219,1566,1567,1563,1565,0,0,0,0,0,0,0,0,0,0
1684053441.99963403,102428179,1566,1567,1566,1565,0,0,0,0,0,0,0,0,0,0
1684053442.10042691,102528972,1565,1566,1567,1565,0,0,0,0,0,0,0,0,0,0
1684053442.20038700,102628932,1564,1565,1567,1565,0,0,0,0,0,0,0,0,0,0
1684053442.30034709,102728892,1564,1564,1567,1565,0,0,0,0,0,0,0,0,0,0
1684053442.40030694,102828852,1563,1563,1567,1565,0,0,0,0,0,0,0,0,0,0
1684053442.50026703,102928812,1563,1562,1565,1565,0,0,0,0,0,0,0,0,0,0
1684053442.60022712,103028772,1562,1561,1563,1564,0,0,0,0,0,0,0,0,0,0
1684053442.70018697,103128732,1561,1562,1563,1563,0,0,0,0,0,0,0,0,0,0
1684053442.80014706,103228692,1561,1561,1563,1563,0,0,0,0,0,0,0,0,0,0
1684053442.90010691,103328652,1561,1561,1562,1562,0,0,0,0,0,0,0,0,0,0
1684053443.00006700,103428612,1561,1561,1562,1561,0,0,0,0,0,0,0,0,0,0
1684053443.10002708,103528572,1561,1561,1561,1560,0,0,0,0,0,0,0,0,0,0
1684053443.19998693,103628532,1560,1560,1560,1560,0,0,0,0,0,0,0,0,0,0
1684053443.29994702,103728492,1560,1560,1560,1559,0,0,0,0,0,0,0,0,0,0
1684053443.39990711,103828452,1560,1560,1560,1559,0,0,0,0,0,0,0,0,0,0
1684053443.49986696,103928412,1559,1559,1559,1558,0,0,0,0,0,0,0,0,0,0
1684053443.59982705,104028372,1560,1560,1560,1559,0,0,0,0,0,0,0,0,0,0
1684053443.69978690,104128332,1561,1560,1560,1559,0,0,0,0,0,0,0,0,0,0
1684053443.79974699,104228292,1560,1560,1560,1559,0,0,0,0,0,0,0,0,0,0
1684053443.89970708,104328252,1560,1559,1560,1557,0,0,0,0,0,0,0,0,0,0
1684053443.99966693,104428212,1560,1559,1561,1559,0,0,0,0,0,0,0,0,0,0
1684053444.09962702,104528172,1561,1560,1560,1562,0,0,0,0,0,0,0,0,0,0
1684053444.20041990,104628965,1560,1560,1558,1563,0,0,0,0,0,0,0,0,0,0
1684053444.30037999,104728925,1560,1560,1557,1564,0,0,0,0,0,0,0,0,0,0
1684053444.40034008,104828885,1561,1562,1559,1565,0,0,0,0,0,0,0,0,0,0
1684053444.50029993,104928845,1561,1562,1560,1564,0,0,0,0,0,0,0,0,0,0
1684053444.60026002,105028805,1560,1561,1562,1560,0,0,0,0,0,0,0,0,0,0
1684053444.70022011,105128765,1560,1560,1561,1558,0,0,0,0,0,0,0,0,0,0
1684053444.80017996,105228725,1559,1559,1560,1555,0,0,0,0,0,0,0,0,0,0
1684053444.90014005,105328685,1559,1559,1556,1560,0,0,0,0,0,0,0,0,0,0
1684053445.00009990,105428645,1558,1557,1553,1559,0,0,0,0,0,0,0,0,0,0
1684053445.10005999,105528605,1554,1554,1549,1553,0,0,0,0,0,0,0,0,0,0
1684053445.20002007,105628565,1549,1549,1544,1546,0,0,0,0,0,0,0,0,0,0
1684053445.29997993,105728525,1544,1544,1540,1539,0,0,0,0,0,0,0,0,0,0
1684053445.39994001,105828485,1537,1538,1532,1531,0,0,0,0,0,0,0,0,0,0
1684053445.49990010,105928445,1530,1531,1525,1523,0,0,0,0,0,0,0,0,0,0
1684053445.59985995,106028405,1524,1525,1520,1519,0,0,0,0,0,0,0,0,0,0
1684053445.69982004,106128365,1522,1522,1519,1519,0,0,0,0,0,0,0,0,0,0
1684053445.79977989,106228325,1520,1520,1520,1520,0,0,0,0,0,0,0,0,0,0
1684053445.89973998,106328285,1519,1519,1522,1523,0,0,0,0,0,0,0,0,0,0
1684053445.99970007,106428245,1520,1520,1525,1526,0,0,0,0,0,0,0,0,0,0
1684053446.09965992,106528205,1524,1523,1532,1532,0,0,0,0,0,0,0,0,0,0
1684053446.19962001,106628165,1527,1526,1536,1537,0,0,0,0,0,0,0,0,0,0
1684053446.30041289,106728958,1531,1530,1541,1541,0,0,0,0,0,0,0,0,0,0
1684053446.40037298,106828918,1534,1534,1543,1543,0,0,0,0,0,0,0,0,0,0
1684053446.50033307,106928878,1537,1537,1545,1544,0,0,0,0,0,0,0,0,0,0
1684053446.60029292,107028838,1541,1541,1546,1546,0,0,0,0,0,0,0,0,0,0
1684053446.70025301,107128798,1543,1543,1546,1546,0,0,0,0,0,0,0,0,0,0
1684053446.80021310,107228758,1545,1546,1545,1545,0,0,0,0,0,0,0,0,0,0
1684053446.90017295,107328718,1547,1548,1545,1544,0,0,0,0,0,0,0,0,0,0
1684053447.00013304,107428678,1549,1549,1544,1544,0,0,0,0,0,0,0,0,0,0
1684053447.10009289,107528638,1549,1549,1543,1543,0,0,0,0,0,0,0,0,0,0
1684053447.20005298,107628598,1550,1550,1544,1544,0,0,0,0,0,0,0,0,0,0
1684053447.30001307,107728558,1550,1549,1543,1543,0,0,0,0,0,0,0,0,0,0
1684053447.39997292,107828518,1550,1550,1544,1544,0,0,0,0,0,0,0,0,0,0
1684053447.49993300,107928478,1549,1549,1544,1544,0,0,0,0,0,0,0,0,0,0
1684053447.59989309,108028438,1548,1548,1544,1544,0,0,0,0,0,0,0,0,0,0
1684053447.69985294,108128398,1547,1547,1545,1544,0,0,0,0,0,0,0,0,0,0
1684053447.79981303,108228358,1546,1546,1545,1545,0,0,0,0,0,0,0,0,0,0
1684053447.89977312,108328318,1545,1545,1545,1545,0,0,0,0,0,0,0,0,0,0
1684053447.99973297,108428278,1543,1544,1545,1545,0,0,0,0,0,0,0,0,0,0
1684053448.09969306,108528238,1543,1544,1546,1546,0,0,0,0,0,0,0,0,0,0
1684053448.19965291,108628198,1543,1543,1545,1545,0,0,0,0,0,0,0,0,0,0
1684053448.29961300,108728158,1543,1542,1545,1545,0,0,0,0,0,0,0,0,0,0
1684053448.40040588,108828951,1543,1542,1545,1545,0,0,0,0,0,0,0,0,0,0
1684053448.50036597,108928911,1543,1542,1545,1545,0,0,0,0,0,0,0,0,0,0
1684053448.60032606,109028871,1543,1543,1545,1545,0,0,0,0,0,0,0,0,0,0
1684053448.70028591,109128831,1544,1543,1545,1545,0,0,0,0,0,0,0,0,0,0
1684053448.80024600,109228791,1543,1543,1544,1544,0,0,0,0,0,0,0,0,0,0
1684053448.90020609,109328751,1543,1543,1543,1543,0,0,0,0,0,0,0,0,0,0
1684053449.00016594,109428711,1543,1544,1542,1543,0,0,0,0,0,0,0,0,0,0
1684053449.10012603,109528671,1544,1544,1544,1544,0,0,0,0,0,0,0,0,0,0
1684053449.20008612,109628631,1544,1544,1543,1543,0,0,0,0,0,0,0,0,0,0
1684053449.30004597,109728591,1544,1544,1543,1543,0,0,0,0,0,0,0,0,0,0
1684053449.40000606,109828551,1544,1544,1543,1542,0,0,0,0,0,0,0,0,0,0
1684053449.49996591,109928511,1545,1545,1544,1544,0,0,0,0,0,0,0,0,0,0
1684053449.59992599,110028471,1544,1544,1543,1543,0,0,0,0,0,0,0,0,0,0
1684053449.69988608,110128431,1545,1545,1544,1544,0,0,0,0,0,0,0,0,0,0
1684053449.79984593,110228391,1545,1545,1545,1545,0,0,0,0,0,0,0,0,0,0
1684053449.89980602,110328351,1545,1544,1545,1545,0,0,0,0,0,0,0,0,0,0
1684053449.99976611,110428311,1545,1545,1545,1545,0,0,0,0,0,0,0,0,0,0
1684053450.09972596,110528271,1545,1545,1545,1546,0,0,0,0,0,0,0,0,0,0
1684053450.19968605,110628231,1545,1545,1545,1545,0,0,0,0,0,0,0,0,0,0
1684053450.29964590,110728191,1546,1545,1546,1546,0,0,0,0,0,0,0,0,0,0
1684053450.40043902,110828984,1545,1545,1546,1545,0,0,0,0,0,0,0,0,0,0
1684053450.50039911,110928944,1545,1544,1545,1544,0,0,0,0,0,0,0,0,0,0
1684053450.60035896,111028904,1544,1545,1544,1544,0,0,0,0,0,0,0,0,0,0
1684053450.70031905,111128864,1544,1544,1544,1544,0,0,0,0,0,0,0,0,0,0
1684053450.80027890,111228824,1544,1544,1544,1544,0,0,0,0,0,0,0,0,0,0
1684053450.90023899,111328784,1545,1544,1544,1545,0,0,0,0,0,0,0,0,0,0
1684053451.00019908,111428744,1544,1544,1543,1543,0,0,0,0,0,0,0,0,0,0
1684053451.10015893,111528704,1544,1544,1543,1544,0,0,0,0,0,0,0,0,0,0
1684053451.20011902,111628664,1543,1544,1544,1544,0,0,0,0,0,0,0,0,0,0
1684053451.30007911,111728624,1544,1544,1544,1543,0,0,0,0,0,0,0,0,0,0
1684053451.40003896,111828584,1544,1544,1544,1544,0,0,0,0,0,0,0,0,0,0
1684053451.49999905,111928544,1544,1544,1544,1544,0,0,0,0,0,0,0,0,0,0
1684053451.59995890,112028504,1544,1544,1545,1545,0,0,0,0,0,0,0,0,0,0
1684053451.69991899,112128464,1543,1543,1543,1543,0,0,0,0,0,0,0,0,0,0
1684053451.79987907,112228424,1543,1544,1544,1544,0,0,0,0,0,0,0,0,0,0
1684053451.89983892,112328384,1543,1543,1543,1543,0,0,0,0,0,0,0,0,0,0
1684053451.99979901,112428344,1544,1544,1544,1544,0,0,0,0,0,0,0,0,0,0
1684053452.09975910,112528304,1544,1544,1545,1545,0,0,0,0,0,0,0,0,0,0
1684053452.19971895,112628264,1544,1544,1544,1544,0,0,0,0,0,0,0,0,0,0
1684053452.29967904,112728224,1544,1543,1543,1544,0,0,0,0,0,0,0,0,0,0
1684053452.39963889,112828184,1544,1544,1544,1544,0,0,0,0,0,0,0,0,0,0
1684053452.50043201,112928977,1544,1544,1544,1544,0,0,0,0,0,0,0,0,0,0
1684053452.60039210,113028937,1544,1545,1545,1545,0,0,0,0,0,0,0,0,0,0
1684053452.70035195,113128897,1544,1544,1544,1544,0,0,0,0,0,0,0,0,0,0
1684053452.80031204,113228857,1544,1544,1544,1544,0,0,0,0,0,0,0,0,0,0
1684053452.90027189,113328817,1544,1543,1543,1543,0,0,0,0,0,0,0,0,0,0
1684053453.00023198,113428777,1544,1544,1545,1544,0,0,0,0,0,0,0,0,0,0
1684053453.10019207,113528737,1544,1544,1544,1545,0,0,0,0,0,0,0,0,0,0
1684053453.20015192,113628697,1544,1545,1545,1545,0,0,0,0,0,0,0,0,0,0
1684053453.30011201,113728657,1544,1544,1544,1544,0,0,0,0,0,0,0,0,0,0
1684053453.40007210,113828617,1544,1544,1544,1544,0,0,0,0,0,0,0,0,0,0
1684053453.50003195,113928577,1544,1545,1544,1544,0,0,0,0,0,0,0,0,0,0
1684053453.59999204,114028537,1545,1545,1545,1545,0,0,0,0,0,0,0,0,0,0
1684053453.69995189,114128497,1545,1544,1545,1545,0,0,0,0,0,0,0,0,0,0
1684053453.79991198,114228457,1545,1545,1545,1545,0,0,0,0,0,0,0,0,0,0
1684053453.89987206,114328417,1545,1545,1545,1546,0,0,0,0,0,0,0,0,0,0
1684053453.99983191,114428377,1544,1544,1544,1544,0,0,0,0,0,0,0,0,0,0
1684053454.09979200,114528337,1544,1544,1544,1544,0,0,0,0,0,0,0,0,0,0
1684053454.19975209,114628297,1544,1544,1544,1543,0,0,0,0,0,0,0,0,0,0
1684053454.29971194,114728257,1544,1545,1544,1545,0,0,0,0,0,0,0,0,0,0
1684053454.39967203,114828217,1545,1544,1544,1545,0,0,0,0,0,0,0,0,0,0
1684053454.49963212,114928177,1545,1544,1544,1545,0,0,0,0,0,0,0,0,0,0
1684053454.60042500,115028970,1544,1544,1544,1544,0,0,0,0,0,0,0,0,0,0
1684053454.70038509,115128930,1545,1544,1544,1544,0,0,0,0,0,0,0,0,0,0
1684053454.80034494,115228890,1544,1544,1544,1544,0,0,0,0,0,0,0,0,0,0
1684053454.90030503,115328850,1544,1544,1544,1544,0,0,0,0,0,0,0,0,0,0
1684053455.00026488,115428810,1544,1544,1544,1544,0,0,0,0,0,0,0,0,0,0
1684053455.10022497,115528770,1544,1544,1543,1543,0,0,0,0,0,0,0,0,0,0
1684053455.20018506,115628730,1543,1543,1543,1542,0,0,0,0,0,0,0,0,0,0
1684053455.30014491,115728690,1541,1539,1539,1538,0,0,0,0,0,0,0,0,0,0
1684053455.40010500,115828650,1418,1419,1349,1349,0,0,0,0,0,0,0,0,0,0
1684053455.50006509,115928610,1360,1361,1244,1245,0,0,0,0,0,0,0,0,0,0
1684053455.60002494,116028570,1343,1344,1211,1210,0,0,0,0,0,0,0,0,0,0
1684053455.69998503,116128530,1332,1332,1187,1187,0,0,0,0,0,0,0,0,0,0
1684053455.79994512,116228490,1315,1315,1150,1150,0,0,0,0,0,0,0,0,0,0
1684053455.89990497,116328450,1239,1240,1150,1150,0,0,0,0,0,0,0,0,0,0
1684053455.99986506,116428410,1144,1145,1151,1150,0,0,0,0,0,0,0,0,0,0
1684053456.09982491,116528370,1039,1040,1150,1150,0,0,0,0,0,0,0,0,0,0
1684053456.19978499,116628330,975,977,1151,1150,0,0,0,0,0,0,0,0,0,0
1684053456.29974508,116728290,976,977,1150,1150,0,0,0,0,0,0,0,0,0,0
1684053456.39970493,116828250,975,977,1151,1150,0,0,0,0,0,0,0,0,0,0
1684053456.49966502,116928210,977,959,1150,1174,0,0,0,0,0,0,0,0,0,0
1684053456.59962511,117028170,977,965,1150,1166,0,0,0,0,0,0,0,0,0,0
1684053456.70041800,117128963,976,969,1150,1161,0,0,0,0,0,0,0,0,0,0
1684053456.80037808,117228923,976,970,1150,1160,0,0,0,0,0,0,0,0,0,0
1684053456.90033793,117328883,976,969,1150,1160,0,0,0,0,0,0,0,0,0,0
1684053457.00029802,117428843,976,969,1150,1160,0,0,0,0,0,0,0,0,0,0
1684053457.10025811,117528803,976,968,1150,1161,0,0,0,0,0,0,0,0,0,0
1684053457.20021796,117628763,976,968,1150,1161,0,0,0,0,0,0,0,0,0,0
1684053457.30017805,117728723,977,977,1150,1150,0,0,0,0,0,0,0,0,0,0
1684053457.40013790,117828683,977,975,1150,1151,0,0,0,0,0,0,0,0,0,0
1684053457.50009799,117928643,977,975,1150,1152,0,0,0,0,0,0,0,0,0,0
1684053457.60005808,118028603,977,975,1150,1152,0,0,0,0,0,0,0,0,0,0
1684053457.70001793,118128563,977,975,1150,1152,0,0,0,0,0,0,0,0,0,0
1684053457.79997802,118228523,1000,1000,1000,1000,0,0,0,0,0,0,0,0,0,0
1684053457.89993811,118328483,1000,1000,1000,1000,0,0,0,0,0,0,0,0,0,0
1684053457.99989796,118428443,1000,1000,1000,1000,0,0,0,0,0,0,0,0,0,0
1684053458.09985805,118528403,1000,1000,1000,1000,0,0,0,0,0,0,0,0,0,0
1684053458.19981790,118628363,1000,1000,1000,1000,0,0,0,0,0,0,0,0,0,0
1684053458.29977798,118728323,1000,1000,1000,1000,0,0,0,0,0,0,0,0,0,0
1684053458.39973807,118828283,1000,1000,1000,1000,0,0,0,0,0,0,0,0,0,0
1684053458.49969792,118928243,1000,1000,1000,1000,0,0,0,0,0,0,0,0,0,0
1684053458.59965801,119028203,1000,1000,1000,1000,0,0,0,0,0,0,0,0,0,0
1684053458.69961810,119128163,1000,1000,1000,1000,0,0,0,0,0,0,0,0,0,0
1684053458.80041099,119228956,1000,1000,1000,1000,0,0,0,0,0,0,0,0,0,0
1684053458.90037107,119328916,1000,1000,1000,1000,0,0,0,0,0,0,0,0,0,0
1684053459.00033092,119428876,1000,1000,1000,1000,0,0,0,0,0,0,0,0,0,0
1684053459.10029101,119528836,1000,1000,1000,1000,0,0,0,0,0,0,0,0,0,0
1684053459.20025110,119628796,1000,1000,1000,1000,0,0,0,0,0,0,0,0,0,0
1684053459.30021095,119728756,1000,1000,1000,1000,0,0,0,0,0,0,0,0,0,0
1684053459.40017104,119828716,1000,1000,1000,1000,0,0,0,0,0,0,0,0,0,0
1684053459.50013089,119928676,1000,1000,1000,1000,0,0,0,0,0,0,0,0,0,0
1684053459.60009098,120028636,1000,1000,1000,1000,0,0,0,0,0,0,0,0,0,0
1684053459.70005107,120128596,1000,1000,1000,1000,0,0,0,0,0,0,0,0,0,0
1684053459.80001092,120228556,1000,1000,1000,1000,0,0,0,0,0,0,0,0,0,0
1684053459.89997101,120328516,1000,1000,1000,1000,0,0,0,0,0,0,0,0,0,0
1684053459.99993110,120428476,1000,1000,1000,1000,0,0,0,0,0,0,0,0,0,0
1684053460.09989095,120528436,1000,1000,1000,1000,0,0,0,0,0,0,0,0,0,0
1684053460.19985104,120628396,1000,1000,1000,1000,0,0,0,0,0,0,0,0,0,0
1684053460.29981089,120728356,1000,1000,1000,1000,0,0,0,0,0,0,0,0,0,0
1684053460.39977098,120828316,1000,1000,1000,1000,0,0,0,0,0,0,0,0,0,0
1684053460.49973106,120928276,1000,1000,1000,1000,0,0,0,0,0,0,0,0,0,0
1684053460.59969091,121028236,1000,1000,1000,1000,0,0,0,0,0,0,0,0,0,0
1684053460.69965100,121128196,1000,1000,1000,1000,0,0,0,0,0,0,0,0,0,0
1684053460.79961109,121228156,1000,1000,1000,1000,0,0,0,0,0,0,0,0,0,0
1684053460.90040398,121328949,1000,1000,1000,1000,0,0,0,0,0,0,0,0,0,0
1684053461.00036407,121428909,1000,1000,1000,1000,0,0,0,0,0,0,0,0,0,0
1684053461.10032392,121528869,1000,1000,1000,1000,0,0,0,0,0,0,0,0,0,0
1684053461.20028400,121628829,1000,1000,1000,1000,0,0,0,0,0,0,0,0,0,0
1684053461.30024409,121728789,1000,1000,1000,1000,0,0,0,0,0,0,0,0,0,0
1684053461.40020394,121828749,1000,1000,1000,1000,0,0,0,0,0,0,0,0,0,0
1684053461.50016403,121928709,1000,1000,1000,1000,0,0,0,0,0,0,0,0,0,0
1684053461.60012412,122028669,1000,1000,1000,1000,0,0,0,0,0,0,0,0,0,0
1684053461.70008397,122128629,1000,1000,1000,1000,0,0,0,0,0,0,0,0,0,0
1684053461.80004406,122228589,1000,1000,1000,1000,0,0,0,0,0,0,0,0,0,0
1684053461.90000391,122328549,1000,1000,1000,1000,0,0,0,0,0,0,0,0,0,0
1684053461.99996400,122428509,1000,1000,1000,1000,0,0,0,0,0,0,0,0,0,0
1684053462.09992409,122528469,1000,1000,1000,1000,0,0,0,0,0,0,0,0,0,0
1684053462.19988394,122628429,1000,1000,1000,1000,0,0,0,0,0,0,0,0,0,0
1684053462.29984403,122728389,1000,1000,1000,1000,0,0,0,0,0,0,0,0,0,0
1684053462.39980412,122828349,1000,1000,1000,1000,0,0,0,0,0,0,0,0,0,0
1684053462.49976397,122928309,1000,1000,1000,1000,0,0,0,0,0,0,0,0,0,0
1684053462.59972405,123028269,1000,1000,1000,1000,0,0,0,0,0,0,0,0,0,0
1684053462.69968390,123128229,1000,1000,1000,1000,0,0,0,0,0,0,0,0,0,0
1684053462.79964399,123228189,1000,1000,1000,1000,0,0,0,0,0,0,0,0,0,0
1684053462.90043712,123328982,1000,1000,1000,1000,0,0,0,0,0,0,0,0,0,0
1684053463.00039697,123428942,1000,1000,1000,1000,0,0,0,0,0,0,0,0,0,0
1684053463.10035706,123528902,1000,1000,1000,1000,0,0,0,0,0,0,0,0,0,0
1684053463.20031691,123628862,1000,1000,1000,1000,0,0,0,0,0,0,0,0,0,0
1684053463.30027699,123728822,1000,1000,1000,1000,0,0,0,0,0,0,0,0,0,0
1684053463.40023708,123828782,1000,1000,1000,1000,0,0,0,0,0,0,0,0,0,0
1684053463.50019693,123928742,1000,1000,1000,1000,0,0,0,0,0,0,0,0,0,0
1684053463.60015702,124028702,1000,1000,1000,1000,0,0,0,0,0,0,0,0,0,0
1684053463.70011711,124128662,1000,1000,1000,1000,0,0,0,0,0,0,0,0,0,0
1684053463.80007696,124228622,1000,1000,1000,1000,0,0,0,0,0,0,0,0,0,0
1684053463.90003705,124328582,1000,1000,1000,1000,0,0,0,0,0,0,0,0,0,0
1684053463.99999690,124428542,1000,1000,1000,1000,0,0,0,0,0,0,0,0,0,0
1684053464.09995699,124528502,1000,1000,1000,1000,0,0,0,0,0,0,0,0,0,0
1684053464.19991708,124628462,1000,1000,1000,1000,0,0,0,0,0,0,0,0,0,0
1684053464.29987693,124728422,1000,1000,1000,1000,0,0,0,0,0,0,0,0,0,0
1684053464.39983702,124828382,1000,1000,1000,1000,0,0,0,0,0,0,0,0,0,0
1684053464.49979711,124928342,1000,1000,1000,1000,0,0,0,0,0,0,0,0,0,0
1684053464.59975696,125028302,1000,1000,1000,1000,0,0,0,0,0,0,0,0,0,0
1684053464.69971704,125128262,1000,1000,1000,1000,0,0,0,0,0,0,0,0,0,0
1684053464.79967690,125228222,1000,1000,1000,1000,0,0,0,0,0,0,0,0,0,0
1684053464.89963698,125328182,1000,1000,1000,1000,0,0,0,0,0,0,0,0,0,0
1684053465.00043011,125428975,1000,1000,1000,1000,0,0,0,0,0,0,0,0,0,0
1684053465.10038996,125528935,1000,1000,1000,1000,0,0,0,0,0,0,0,0,0,0
1684053465.20035005,125628895,1000,1000,1000,1000,0,0,0,0,0,0,0,0,0,0
1684053465.30030990,125728855,1000,1000,1000,1000,0,0,0,0,0,0,0,0,0,0
1684053465.40026999,125828815,1000,1000,1000,1000,0,0,0,0,0,0,0,0,0,0
1684053465.50023007,125928775,1000,1000,1000,1000,0,0,0,0,0,0,0,0,0,0
1684053465.60018992,126028735,1000,1000,1000,1000,0,0,0,0,0,0,0,0,0,0
1684053465.70015001,126128695,1000,1000,1000,1000,0,0,0,0,0,0,0,0,0,0
1684053465.80011010,126228655,1000,1000,1000,1000,0,0,0,0,0,0,0,0,0,0
1684053465.90006995,126328615,1000,1000,1000,1000,0,0,0,0,0,0,0,0,0,0
1684053466.00003004,126428575,1000,1000,1000,1000,0,0,0,0,0,0,0,0,0,0
1684053466.09998989,126528535,1000,1000,1000,1000,0,0,0,0,0,0,0,0,0,0
1684053466.19994998,126628495,1000,1000,1000,1000,0,0,0,0,0,0,0,0,0,0
1684053466.29991007,126728455,1000,1000,1000,1000,0,0,0,0,0,0,0,0,0,0
1684053466.39986992,126828415,1000,1000,1000,1000,0,0,0,0,0,0,0,0,0,0
1684053466.49983001,126928375,1000,1000,1000,1000,0,0,0,0,0,0,0,0,0,0
1684053466.59979010,127028335,1000,1000,1000,1000,0,0,0,0,0,0,0,0,0,0
1684053466.69974995,127128295,1000,1000,1000,1000,0,0,0,0,0,0,0,0,0,0
1684053466.79971004,127228255,1000,1000,1000,1000,0,0,0,0,0,0,0,0,0,0
1684053466.89966989,127328215,1000,1000,1000,1000,0,0,0,0,0,0,0,0,0,0
1684053466.99962997,127428175,1000,1000,1000,1000,0,0,0,0,0,0,0,0,0,0
1684053467.10042310,127528968,1000,1000,1000,1000,0,0,0,0,0,0,0,0,0,0
1684053467.20038295,127628928,1000,1000,1000,1000,0,0,0,0,0,0,0,0,0,0
1684053467.30034304,127728888,1000,1000,1000,1000,0,0,0,0,0,0,0,0,0,0
1684053467.40030289,127828848,1000,1000,1000,1000,0,0,0,0,0,0,0,0,0,0
1684053467.50026298,127928808,1000,1000,1000,1000,0,0,0,0,0,0,0,0,0,0
1684053467.60022306,128028768,1000,1000,1000,1000,0,0,0,0,0,0,0,0,0,0
1684053467.70018291,128128728,1000,1000,1000,1000,0,0,0,0,0,0,0,0,0,0
1684053467.80014300,128228688,1000,1000,1000,1000,0,0,0,0,0,0,0,0,0,0
1684053467.90010309,128328648,1000,1000,1000,1000,0,0,0,0,0,0,0,0,0,0
1684053468.00006294,128428608,1000,1000,1000,1000,0,0,0,0,0,0,0,0,0,0
1684053468.10002303,128528568,1000,1000,1000,1000,0,0,0,0,0,0,0,0,0,0
1684053468.19998312,128628528,1000,1000,1000,1000,0,0,0,0,0,0,0,0,0,0
1684053468.29994297,128728488,1000,1000,1000,1000,0,0,0,0,0,0,0,0,0,0
1684053468.39990306,128828448,1000,1000,1000,1000,0,0,0,0,0,0,0,0,0,0
1684053468.49986291,128928408,1000,1000,1000,1000,0,0,0,0,0,0,0,0,0,0
1684053468.59982300,129028368,1000,1000,1000,1000,0,0,0,0,0,0,0,0,0,0
1684053468.69978309,129128328,1000,1000,1000,1000,0,0,0,0,0,0,0,0,0,0
1684053468.79974294,129228288,1000,1000,1000,1000,0,0,0,0,0,0,0,0,0,0
1684053468.89970303,129328248,1000,1000,1000,1000,0,0,0,0,0,0,0,0,0,0
1684053468.99966311,129428208,1000,1000,1000,1000,0,0,0,0,0,0,0,0,0,0
1684053469.09962296,129528168,1000,1000,1000,1000,0,0,0,0,0,0,0,0,0,0
1684053469.20041609,129628961,1000,1000,1000,1000,0,0,0,0,0,0,0,0,0,0
1684053469.30037594,129728921,1000,1000,1000,1000,0,0,0,0,0,0,0,0,0,0
1684053469.40033603,129828881,1000,1000,1000,1000,0,0,0,0,0,0,0,0,0,0
1684053469.50029612,129928841,1000,1000,1000,1000,0,0,0,0,0,0,0,0,0,0
1684053469.60025597,130028801,1000,1000,1000,1000,0,0,0,0,0,0,0,0,0,0
1684053469.70021605,130128761,1000,1000,1000,1000,0,0,0,0,0,0,0,0,0,0
1684053469.80017591,130228721,1000,1000,1000,1000,0,0,0,0,0,0,0,0,0,0
1684053469.90013599,130328681,1000,1000,1000,1000,0,0,0,0,0,0,0,0,0,0
1684053470.00009608,130428641,1000,1000,1000,1000,0,0,0,0,0,0,0,0,0,0
1684053470.10005593,130528601,1000,1000,1000,1000,0,0,0,0,0,0,0,0,0,0
1684053470.20001602,130628561,1000,1000,1000,1000,0,0,0,0,0,0,0,0,0,0
1684053470.29997611,130728521,1000,1000,1000,1000,0,0,0,0,0,0,0,0,0,0
1684053470.39993596,130828481,1000,1000,1000,1000,0,0,0,0,0,0,0,0,0,0
1684053470.49989605,130928441,1000,1000,1000,1000,0,0,0,0,0,0,0,0,0,0
1684053470.59985590,131028401,1000,1000,1000,1000,0,0,0,0,0,0,0,0,0,0
1684053470.69981599,131128361,1000,1000,1000,1000,0,0,0,0,0,0,0,0,0,0
1684053470.79977608,131228321,1000,1000,1000,1000,0,0,0,0,0,0,0,0,0,0
1684053470.89973593,131328281,1000,1000,1000,1000,0,0,0,0,0,0,0,0,0,0
1684053470.99969602,131428241,1000,1000,1000,1000,0,0,0,0,0,0,0,0,0,0
1684053471.09965611,131528201,1000,1000,1000,1000,0,0,0,0,0,0,0,0,0,0
1684053471.19961596,131628161,1000,1000,1000,1000,0,0,0,0,0,0,0,0,0,0
1684053471.30040908,131728954,1000,1000,1000,1000,0,0,0,0,0,0,0,0,0,0
1684053471.40036893,131828914,1000,1000,1000,1000,0,0,0,0,0,0,0,0,0,0
1684053471.50032902,131928874,1000,1000,1000,1000,0,0,0,0,0,0,0,0,0,0
1684053471.60028911,132028834,1000,1000,1000,1000,0,0,0,0,0,0,0,0,0,0
1684053471.70024896,132128794,1000,1000,1000,1000,0,0,0,0,0,0,0,0,0,0
1684053471.80020905,132228754,1000,1000,1000,1000,0,0,0,0,0,0,0,0,0,0
1684053471.90016890,132328714,1000,1000,1000,1000,0,0,0,0,0,0,0,0,0,0
1684053472.00012898,132428674,1000,1000,1000,1000,0,0,0,0,0,0,0,0,0,0
1684053472.10008907,132528634,1000,1000,1000,1000,0,0,0,0,0,0,0,0,0,0
1684053472.20004892,132628594,1000,1000,1000,1000,0,0,0,0,0,0,0,0,0,0
1684053472.30000901,132728554,1000,1000,1000,1000,0,0,0,0,0,0,0,0,0,0
1684053472.39996910,132828514,1000,1000,1000,1000,0,0,0,0,0,0,0,0,0,0
1684053472.49992895,132928474,1000,1000,1000,1000,0,0,0,0,0,0,0,0,0,0
1684053472.59988904,133028434,1000,1000,1000,1000,0,0,0,0,0,0,0,0,0,0
1684053472.69984889,133128394,1000,1000,1000,1000,0,0,0,0,0,0,0,0,0,0
