TimeUS,M1,M2,M3,M4,TimeUS,C1,C2,C3,C4
69941179,1000,1000,1000,1000,70028644,1000,1000,1000,1000
69943678,1000,1000,1000,1000,70128604,1000,1000,1000,1000
69946177,1000,1000,1000,1000,70228564,1000,1000,1000,1000
69948676,1000,1000,1000,1000,70328524,1000,1000,1000,1000
69951175,1000,1000,1000,1000,70428484,1000,1000,1000,1000
69953674,1000,1000,1000,1000,70528444,1000,1000,1000,1000
69956173,1000,1000,1000,1000,70628404,1000,1000,1000,1000
69958672,1000,1000,1000,1000,70728364,1000,1000,1000,1000
69961171,1000,1000,1000,1000,70828324,1000,1000,1000,1000
69963670,1000,1000,1000,1000,70928284,1000,1000,1000,1000
69966169,1000,1000,1000,1000,71028244,1000,1000,1000,1000
69968668,1000,1000,1000,1000,71128204,1000,1000,1000,1000
69971167,1000,1000,1000,1000,71228164,1000,1000,1000,1000
69973666,1000,1000,1000,1000,71328957,1000,1000,1000,1000
69976165,1000,1000,1000,1000,71428917,1000,1000,1000,1000
69978664,1000,1000,1000,1000,71528877,1000,1000,1000,1000
69981163,1000,1000,1000,1000,71628837,1000,1000,1000,1000
69983662,1000,1000,1000,1000,71728797,1000,1000,1000,1000
69986161,1000,1000,1000,1000,71828757,1000,1000,1000,1000
69988660,1000,1000,1000,1000,71928717,1000,1000,1000,1000
69991159,1000,1000,1000,1000,72028677,1026,1026,1026,1026
69993658,1000,1000,1000,1000,72128637,1056,1056,1056,1056
69996157,1000,1000,1000,1000,72228597,1086,1086,1086,1086
69998656,1000,1000,1000,1000,72328557,1116,1116,1116,1116
70001155,1000,1000,1000,1000,72428517,1146,1146,1146,1146
70003654,1000,1000,1000,1000,72528477,1374,1366,1367,1375
70006153,1000,1000,1000,1000,72628437,1560,1553,1553,1560
70008652,1000,1000,1000,1000,72728397,1710,1703,1704,1711
70011151,1000,1000,1000,1000,72828357,1840,1834,1834,1840
70013650,1000,1000,1000,1000,72928317,1909,1902,1903,1909
70016149,1000,1000,1000,1000,73028277,1833,1831,1830,1834
70018648,1000,1000,1000,1000,73128237,1701,1701,1698,1704
70021147,1000,1000,1000,1000,73228197,1629,1631,1629,1632
70023646,1000,1000,1000,1000,73328157,1615,1618,1617,1616
70026145,1000,1000,1000,1000,73428950,1623,1625,1625,1622
70028644,1000,1000,1000,1000,73528910,1626,1627,1628,1625
70031143,1000,1000,1000,1000,73628870,1623,1623,1624,1622
70033642,1000,1000,1000,1000,73728830,1618,1617,1617,1617
70036141,1000,1000,1000,1000,73828790,1614,1613,1613,1614
70038640,1000,1000,1000,1000,73928750,1614,1613,1612,1614
70041139,1000,1000,1000,1000,74028710,1614,1613,1614,1613
70043638,1000,1000,1000,1000,74128670,1616,1616,1617,1615
70046137,1000,1000,1000,1000,74228630,1613,1613,1615,1611
70048636,1000,1000,1000,1000,74328590,1583,1584,1591,1576
70051135,1000,1000,1000,1000,74428550,1571,1571,1576,1566
70053634,1000,1000,1000,1000,74528510,1561,1561,1561,1561
70056133,1000,1000,1000,1000,74628470,1552,1552,1548,1557
70058632,1000,1000,1000,1000,74728430,1545,1545,1536,1554
70061131,1000,1000,1000,1000,74828390,1539,1538,1531,1546
70063630,1000,1000,1000,1000,74928350,1533,1532,1528,1537
70066129,1000,1000,1000,1000,75028310,1528,1528,1527,1529
70068628,1000,1000,1000,1000,75128270,1528,1527,1528,1526
70071127,1000,1000,1000,1000,75228230,1529,1529,1531,1526
70073626,1000,1000,1000,1000,75328190,1532,1533,1536,1530
70076125,1000,1000,1000,1000,75428983,1535,1536,1539,1533
70078624,1000,1000,1000,1000,75528943,1539,1539,1542,1538
70081123,1000,1000,1000,1000,75628903,1541,1542,1543,1541
70083622,1000,1000,1000,1000,75728863,1545,1545,1545,1545
70086121,1000,1000,1000,1000,75828823,1548,1548,1548,1549
70088620,1000,1000,1000,1000,75928783,1552,1552,1551,1553
70091119,1000,1000,1000,1000,76028743,1554,1553,1552,1555
70093618,1000,1000,1000,1000,76128703,1554,1554,1557,1559
70096117,1000,1000,1000,1000,76228663,1554,1554,1561,1563
70098616,1000,1000,1000,1000,76328623,1557,1557,1564,1565
70101115,1000,1000,1000,1000,76428583,1559,1560,1565,1565
70103614,1000,1000,1000,1000,76528543,1562,1562,1565,1564
70106113,1000,1000,1000,1000,76628503,1564,1564,1564,1564
70108612,1000,1000,1000,1000,76728463,1566,1566,1564,1564
70111111,1000,1000,1000,1000,76828423,1568,1568,1565,1565
70113610,1000,1000,1000,1000,76928383,1570,1570,1565,1566
70116109,1000,1000,1000,1000,77028343,1571,1571,1567,1567
70118608,1000,1000,1000,1000,77128303,1572,1571,1567,1568
70121107,1000,1000,1000,1000,77228263,1572,1572,1568,1569
70123606,1000,1000,1000,1000,77328223,1573,1572,1570,1570
70126105,1000,1000,1000,1000,77428183,1573,1573,1571,1571
70128604,1000,1000,1000,1000,77528976,1573,1573,1573,1572
70131103,1000,1000,1000,1000,77628936,1575,1575,1575,1574
70133602,1000,1000,1000,1000,77728896,1574,1574,1576,1574
70136101,1000,1000,1000,1000,77828856,1576,1576,1578,1577
70138600,1000,1000,1000,1000,77928816,1575,1575,1577,1577
70141099,1000,1000,1000,1000,78028776,1576,1576,1577,1577
70143598,1000,1000,1000,1000,78128736,1576,1575,1576,1577
70146097,1000,1000,1000,1000,78228696,1575,1575,1576,1576
70148596,1000,1000,1000,1000,78328656,1576,1576,1576,1577
70151095,1000,1000,1000,1000,78428616,1576,1576,1576,1576
70153594,1000,1000,1000,1000,78528576,1577,1576,1577,1577
70156093,1000,1000,1000,1000,78628536,1577,1578,1577,1577
70158592,1000,1000,1000,1000,78728496,1578,1577,1577,1577
70161091,1000,1000,1000,1000,78828456,1578,1577,1577,1577
70163590,1000,1000,1000,1000,78928416,1578,1578,1577,1578
70166089,1000,1000,1000,1000,79028376,1578,1578,1578,1577
70168588,1000,1000,1000,1000,79128336,1578,1578,1578,1577
70171087,1000,1000,1000,1000,79228296,1578,1578,1578,1578
70173586,1000,1000,1000,1000,79328256,1577,1578,1577,1577
70176085,1000,1000,1000,1000,79428216,1578,1577,1578,1578
70178584,1000,1000,1000,1000,79528176,1579,1578,1579,1579
70181083,1000,1000,1000,1000,79628969,1579,1579,1579,1579
70183582,1000,1000,1000,1000,79728929,1578,1578,1579,1578
70186081,1000,1000,1000,1000,79828889,1578,1578,1578,1579
70188580,1000,1000,1000,1000,79928849,1579,1579,1579,1579
70191079,1000,1000,1000,1000,80028809,1579,1579,1579,1579
70193578,1000,1000,1000,1000,80128769,1579,1579,1579,1580
70196077,1000,1000,1000,1000,80228729,1579,1580,1580,1580
70198576,1000,1000,1000,1000,80328689,1579,1579,1580,1579
70201075,1000,1000,1000,1000,80428649,1580,1580,1580,1580
70203574,1000,1000,1000,1000,80528609,1580,1580,1580,1580
70206073,1000,1000,1000,1000,80628569,1581,1580,1580,1580
70208572,1000,1000,1000,1000,80728529,1581,1580,1581,1580
70211071,1000,1000,1000,1000,80828489,1580,1581,1580,1580
70213570,1000,1000,1000,1000,80928449,1580,1581,1580,1581
70216069,1000,1000,1000,1000,81028409,1580,1580,1580,1581
70218568,1000,1000,1000,1000,81128369,1580,1580,1580,1580
70221067,1000,1000,1000,1000,81228329,1580,1581,1581,1581
70223566,1000,1000,1000,1000,81328289,1580,1580,1580,1580
70226065,1000,1000,1000,1000,81428249,1579,1579,1580,1580
70228564,1000,1000,1000,1000,81528209,1580,1580,1580,1580
70231063,1000,1000,1000,1000,81628169,1580,1581,1581,1581
70233562,1000,1000,1000,1000,81728962,1579,1580,1580,1580
70236061,1000,1000,1000,1000,81828922,1580,1580,1580,1580
70238560,1000,1000,1000,1000,81928882,1581,1580,1580,1581
70241059,1000,1000,1000,1000,82028842,1581,1581,1581,1581
70243558,1000,1000,1000,1000,82128802,1581,1581,1581,1581
70246057,1000,1000,1000,1000,82228762,1582,1581,1581,1581
70248556,1000,1000,1000,1000,82328722,1582,1582,1586,1578
70251055,1000,1000,1000,1000,82428682,1581,1583,1588,1573
70253554,1000,1000,1000,1000,82528642,1579,1582,1581,1574
70256053,1000,1000,1000,1000,82628602,1578,1581,1573,1573
70258552,1000,1000,1000,1000,82728562,1577,1579,1564,1570
70261051,1000,1000,1000,1000,82828522,1578,1580,1559,1567
70263550,1000,1000,1000,1000,82928482,1578,1578,1555,1561
70266049,1000,1000,1000,1000,83028442,1579,1578,1555,1557
70268548,1000,1000,1000,1000,83128402,1580,1578,1556,1555
70271047,1000,1000,1000,1000,83228362,1580,1578,1556,1554
70273546,1000,1000,1000,1000,83328322,1578,1577,1556,1553
70276045,1000,1000,1000,1000,83428282,1576,1577,1555,1553
70278544,1000,1000,1000,1000,83528242,1575,1577,1555,1554
70281043,1000,1000,1000,1000,83628202,1575,1577,1554,1554
70283542,1000,1000,1000,1000,83728162,1576,1577,1553,1553
70286041,1000,1000,1000,1000,83828955,1577,1578,1551,1551
70288540,1000,1000,1000,1000,83928915,1578,1579,1549,1549
70291039,1000,1000,1000,1000,84028875,1581,1582,1548,1548
70293538,1000,1000,1000,1000,84128835,1582,1583,1544,1544
70296037,1000,1000,1000,1000,84228795,1585,1586,1541,1540
70298536,1000,1000,1000,1000,84328755,1589,1590,1539,1539
70301035,1000,1000,1000,1000,84428715,1592,1593,1536,1536
70303534,1000,1000,1000,1000,84528675,1594,1594,1534,1535
70306033,1000,1000,1000,1000,84628635,1595,1594,1534,1535
70308532,1000,1000,1000,1000,84728595,1594,1594,1534,1536
70311031,1000,1000,1000,1000,84828555,1593,1593,1536,1539
70313530,1000,1000,1000,1000,84928515,1591,1590,1541,1545
70316029,1000,1000,1000,1000,85028475,1586,1584,1548,1551
70318528,1000,1000,1000,1000,85128435,1579,1576,1558,1560
70321027,1000,1000,1000,1000,85228395,1570,1566,1570,1572
70323526,1000,1000,1000,1000,85328355,1559,1555,1582,1583
70326025,1000,1000,1000,1000,85428315,1547,1544,1594,1594
70328524,1000,1000,1000,1000,85528275,1537,1535,1603,1603
70331023,1000,1000,1000,1000,85628235,1530,1530,1610,1609
70333522,1000,1000,1000,1000,85728195,1527,1529,1614,1613
70336021,1000,1000,1000,1000,85828155,1529,1531,1615,1614
70338520,1000,1000,1000,1000,85928948,1534,1536,1612,1611
70341019,1000,1000,1000,1000,86028908,1541,1543,1606,1606
70343518,1000,1000,1000,1000,86128868,1549,1551,1599,1600
70346017,1000,1000,1000,1000,86228828,1559,1560,1592,1592
70348516,1000,1000,1000,1000,86328788,1567,1567,1584,1584
70351015,1000,1000,1000,1000,86428748,1575,1575,1578,1577
70353514,1000,1000,1000,1000,86528708,1581,1580,1572,1572
70356013,1000,1000,1000,1000,86628668,1585,1584,1568,1568
70358512,1000,1000,1000,1000,86728628,1588,1586,1566,1566
70361011,1000,1000,1000,1000,86828588,1588,1586,1566,1566
70363510,1000,1000,1000,1000,86928548,1587,1585,1567,1567
70366009,1000,1000,1000,1000,87028508,1584,1584,1569,1569
70368508,1000,1000,1000,1000,87128468,1582,1582,1572,1572
70371007,1000,1000,1000,1000,87228428,1579,1579,1575,1575
70373506,1000,1000,1000,1000,87328388,1576,1577,1578,1578
70376005,1000,1000,1000,1000,87428348,1574,1575,1581,1580
70378504,1000,1000,1000,1000,87528308,1573,1573,1582,1582
70381003,1000,1000,1000,1000,87628268,1572,1572,1583,1583
70383502,1000,1000,1000,1000,87728228,1572,1572,1583,1583
70386001,1000,1000,1000,1000,87828188,1571,1572,1583,1582
70388500,1000,1000,1000,1000,87928981,1573,1574,1582,1582
70390999,1000,1000,1000,1000,88028941,1288,1289,1593,1594
70393498,1000,1000,1000,1000,88128901,1387,1392,1644,1652
70395997,1000,1000,1000,1000,88228861,1451,1460,1641,1641
70398496,1000,1000,1000,1000,88328821,1508,1517,1626,1620
70400995,1000,1000,1000,1000,88428781,1554,1558,1615,1605
70403494,1000,1000,1000,1000,88528741,1589,1586,1607,1599
70405993,1000,1000,1000,1000,88628701,1619,1605,1595,1591
70408492,1000,1000,1000,1000,88728661,1645,1630,1571,1576
70410991,1000,1000,1000,1000,88828621,1650,1637,1528,1539
70413490,1000,1000,1000,1000,88928581,1650,1647,1534,1547
70415989,1000,1000,1000,1000,89028541,1644,1650,1552,1559
70418488,1000,1000,1000,1000,89128501,1640,1650,1571,1571
70420987,1000,1000,1000,1000,89228461,1641,1649,1589,1585
70423486,1000,1000,1000,1000,89328421,1631,1635,1585,1580
70425985,1000,1000,1000,1000,89428381,1624,1625,1581,1579
70428484,1000,1000,1000,1000,89528341,1619,1617,1579,1578
70430983,1000,1000,1000,1000,89628301,1613,1610,1575,1576
70433482,1000,1000,1000,1000,89728261,1608,1605,1573,1575
70435981,1000,1000,1000,1000,89828221,1602,1601,1571,1572
70438480,1000,1000,1000,1000,89928181,1598,1598,1570,1570
70440979,1000,1000,1000,1000,90028974,1594,1594,1569,1568
70443478,1000,1000,1000,1000,90128934,1591,1592,1568,1567
70445977,1000,1000,1000,1000,90228894,1589,1590,1568,1567
70448476,1000,1000,1000,1000,90328854,1589,1588,1569,1565
70450975,1000,1000,1000,1000,90428814,1591,1584,1574,1562
70453474,1000,1000,1000,1000,90528774,1589,1581,1569,1564
70455973,1000,1000,1000,1000,90628734,1586,1581,1562,1564
70458472,1000,1000,1000,1000,90728694,1581,1580,1556,1561
70460971,1000,1000,1000,1000,90828654,1577,1581,1554,1557
70463470,1000,1000,1000,1000,90928614,1574,1579,1553,1553
70465969,1000,1000,1000,1000,91028574,1573,1579,1554,1551
70468468,1000,1000,1000,1000,91128534,1574,1577,1554,1550
70470967,1000,1000,1000,1000,91228494,1574,1576,1552,1549
70473466,1000,1000,1000,1000,91328454,1857,1857,1532,1527
70475965,1000,1000,1000,1000,91428414,1772,1769,1481,1473
70478464,1000,1000,1000,1000,91528374,1700,1697,1492,1491
70480963,1000,1000,1000,1000,91628334,1633,1633,1508,1513
70483462,1000,1000,1000,1000,91728294,1576,1579,1526,1535
70485961,1000,1000,1000,1000,91828254,1519,1525,1552,1561
70488460,1000,1000,1000,1000,91928214,1472,1479,1583,1590
70490959,1000,1000,1000,1000,92028174,1450,1455,1600,1604
70493458,1000,1000,1000,1000,92128967,1453,1455,1600,1602
70495957,1000,1000,1000,1000,92228927,1468,1469,1592,1593
70498456,1000,1000,1000,1000,92328887,1488,1489,1581,1581
70500955,1000,1000,1000,1000,92428847,1509,1509,1569,1568
70503454,1000,1000,1000,1000,92528807,1528,1530,1560,1557
70505953,1000,1000,1000,1000,92628767,1547,1549,1551,1549
70508452,1000,1000,1000,1000,92728727,1563,1564,1545,1543
70510951,1000,1000,1000,1000,92828687,1576,1575,1538,1537
70513450,1000,1000,1000,1000,92928647,1588,1585,1536,1535
70515949,1000,1000,1000,1000,93028607,1595,1592,1533,1534
70518448,1000,1000,1000,1000,93128567,1600,1595,1535,1536
70520947,1000,1000,1000,1000,93228527,1598,1593,1539,1541
70523446,1000,1000,1000,1000,93328487,1592,1588,1549,1551
70525945,1000,1000,1000,1000,93428447,1582,1579,1561,1563
70528444,1000,1000,1000,1000,93528407,1569,1567,1574,1575
70530943,1000,1000,1000,1000,93628367,1557,1556,1586,1585
70533442,1000,1000,1000,1000,93728327,1548,1548,1595,1594
70535941,1000,1000,1000,1000,93828287,1543,1543,1601,1600
70538440,1000,1000,1000,1000,93928247,1540,1541,1603,1603
70540939,1000,1000,1000,1000,94028207,1540,1542,1604,1603
70543438,1000,1000,1000,1000,94128167,1542,1544,1602,1602
70545937,1000,1000,1000,1000,94228960,1545,1546,1599,1600
70548436,1000,1000,1000,1000,94328920,1549,1550,1596,1597
70550935,1000,1000,1000,1000,94428880,1553,1554,1592,1593
70553434,1000,1000,1000,1000,94528840,1558,1558,1588,1589
70555933,1000,1000,1000,1000,94628800,1562,1562,1584,1585
70558432,1000,1000,1000,1000,94728760,1566,1567,1581,1581
70560931,1000,1000,1000,1000,94828720,1572,1572,1579,1578
70563430,1000,1000,1000,1000,94928680,1575,1575,1576,1575
70565929,1000,1000,1000,1000,95028640,1579,1578,1574,1572
70568428,1000,1000,1000,1000,95128600,1581,1581,1571,1570
70570927,1000,1000,1000,1000,95228560,1584,1583,1570,1569
70573426,1000,1000,1000,1000,95328520,1585,1585,1569,1568
70575925,1000,1000,1000,1000,95428480,1585,1584,1568,1569
70578424,1000,1000,1000,1000,95528440,1585,1585,1570,1571
70580923,1000,1000,1000,1000,95628400,1583,1583,1571,1572
70583422,1000,1000,1000,1000,95728360,1582,1581,1574,1574
70585921,1000,1000,1000,1000,95828320,1579,1579,1576,1575
70588420,1000,1000,1000,1000,95928280,1577,1578,1578,1578
70590919,1000,1000,1000,1000,96028240,1575,1576,1580,1579
70593418,1000,1000,1000,1000,96128200,1575,1575,1581,1581
70595917,1000,1000,1000,1000,96228160,1575,1575,1582,1583
70598416,1000,1000,1000,1000,96328953,1574,1575,1582,1582
70600915,1000,1000,1000,1000,96428913,1575,1576,1582,1583
70603414,1000,1000,1000,1000,96528873,1575,1575,1581,1581
70605913,1000,1000,1000,1000,96628833,1577,1577,1582,1582
70608412,1000,1000,1000,1000,96728793,1578,1578,1580,1580
70610911,1000,1000,1000,1000,96828753,1579,1579,1580,1580
70613410,1000,1000,1000,1000,96928713,1581,1581,1580,1580
70615909,1000,1000,1000,1000,97028673,1581,1581,1579,1579
70618408,1000,1000,1000,1000,97128633,1581,1581,1578,1579
70620907,1000,1000,1000,1000,97228593,1582,1582,1578,1579
70623406,1000,1000,1000,1000,97328553,1581,1581,1578,1578
70625905,1000,1000,1000,1000,97428513,1581,1581,1578,1578
70628404,1000,1000,1000,1000,97528473,1581,1581,1579,1579
70630903,1000,1000,1000,1000,97628433,1580,1580,1579,1579
70633402,1000,1000,1000,1000,97728393,1581,1580,1580,1580
70635901,1000,1000,1000,1000,97828353,1580,1580,1580,1580
70638400,1000,1000,1000,1000,97928313,1580,1580,1580,1581
70640899,1000,1000,1000,1000,98028273,1580,1580,1581,1581
70643398,1000,1000,1000,1000,98128233,1581,1582,1583,1583
70645897,1000,1000,1000,1000,98228193,1580,1581,1582,1582
70648396,1000,1000,1000,1000,98328986,1580,1580,1582,1582
70650895,1000,1000,1000,1000,98428946,1580,1580,1581,1582
70653394,1000,1000,1000,1000,98528906,1581,1581,1582,1582
70655893,1000,1000,1000,1000,98628866,1581,1581,1581,1581
70658392,1000,1000,1000,1000,98728826,1582,1581,1581,1581
70660891,1000,1000,1000,1000,98828786,1581,1581,1581,1581
70663390,1000,1000,1000,1000,98928746,1581,1581,1581,1581
70665889,1000,1000,1000,1000,99028706,1580,1581,1580,1580
70668388,1000,1000,1000,1000,99128666,1581,1581,1580,1581
70670887,1000,1000,1000,1000,99228626,1581,1582,1587,1574
70673386,1000,1000,1000,1000,99328586,1579,1583,1585,1572
70675885,1000,1000,1000,1000,99428546,1578,1583,1578,1573
70678384,1000,1000,1000,1000,99528506,1577,1581,1568,1572
70680883,1000,1000,1000,1000,99628466,1577,1579,1562,1568
70683382,1000,1000,1000,1000,99728426,1579,1579,1557,1564
70685881,1000,1000,1000,1000,99828386,1581,1579,1556,1560
70688380,1000,1000,1000,1000,99928346,1581,1579,1556,1557
70690879,1000,1000,1000,1000,100028306,1582,1580,1557,1555
70693378,1000,1000,1000,1000,100128266,1580,1579,1556,1554
70695877,1000,1000,1000,1000,100228226,1577,1578,1556,1554
70698376,1000,1000,1000,1000,100328186,1577,1578,1556,1555
70700875,1000,1000,1000,1000,100428979,1574,1577,1554,1553
70703374,1000,1000,1000,1000,100528939,1575,1577,1553,1554
70705873,1000,1000,1000,1000,100628899,1575,1577,1552,1553
70708372,1000,1000,1000,1000,100728859,1578,1579,1552,1552
70710871,1000,1000,1000,1000,100828819,1580,1580,1550,1550
70713370,1000,1000,1000,1000,100928779,1581,1582,1547,1547
70715869,1000,1000,1000,1000,101028739,1585,1585,1546,1545
70718368,1000,1000,1000,1000,101128699,1586,1587,1541,1541
70720867,1000,1000,1000,1000,101228659,1589,1590,1539,1539
70723366,1000,1000,1000,1000,101328619,1591,1591,1537,1537
70725865,1000,1000,1000,1000,101428579,1593,1594,1536,1537
70728364,1000,1000,1000,1000,101528539,1595,1596,1535,1537
70730863,1000,1000,1000,1000,101628499,1595,1595,1536,1538
70733362,1000,1000,1000,1000,101728459,1594,1592,1539,1541
70735861,1000,1000,1000,1000,101828419,1591,1588,1546,1548
70738360,1000,1000,1000,1000,101928379,1583,1579,1552,1555
70740859,1000,1000,1000,1000,102028339,1575,1571,1564,1567
70743358,1000,1000,1000,1000,102128299,1564,1559,1576,1578
70745857,1000,1000,1000,1000,102228259,1553,1550,1589,1590
70748356,1000,1000,1000,1000,102328219,1542,1541,1601,1600
70750855,1000,1000,1000,1000,102428179,1535,1535,1608,1607
70753354,1000,1000,1000,1000,102528972,1532,1533,1612,1611
70755853,1000,1000,1000,1000,102628932,1533,1535,1613,1611
70758352,1000,1000,1000,1000,102728892,1538,1540,1611,1611
70760851,1000,1000,1000,1000,102828852,1542,1544,1607,1607
70763350,1000,1000,1000,1000,102928812,1548,1549,1602,1602
70765849,1000,1000,1000,1000,103028772,1555,1556,1597,1597
70768348,1000,1000,1000,1000,103128732,1562,1562,1592,1591
70770847,1000,1000,1000,1000,103228692,1568,1568,1585,1584
70773346,1000,1000,1000,1000,103328652,1574,1574,1578,1578
70775845,1000,1000,1000,1000,103428612,1579,1579,1572,1572
70778344,1000,1000,1000,1000,103528572,1584,1582,1568,1568
70780843,1000,1000,1000,1000,103628532,1587,1586,1567,1567
70783342,1000,1000,1000,1000,103728492,1587,1586,1566,1566
70785841,1000,1000,1000,1000,103828452,1587,1586,1568,1568
70788340,1000,1000,1000,1000,103928412,1585,1584,1570,1570
70790839,1000,1000,1000,1000,104028372,1583,1583,1573,1573
70793338,1000,1000,1000,1000,104128332,1579,1579,1575,1575
70795837,1000,1000,1000,1000,104228292,1578,1578,1579,1579
70798336,1000,1000,1000,1000,104328252,1575,1575,1580,1580
70800835,1000,1000,1000,1000,104428212,1574,1574,1583,1583
70803334,1000,1000,1000,1000,104528172,1573,1574,1584,1584
70805833,1000,1000,1000,1000,104628965,1573,1573,1584,1584
70808332,1000,1000,1000,1000,104728925,1573,1574,1584,1584
70810831,1000,1000,1000,1000,104828885,1573,1574,1582,1582
70813330,1000,1000,1000,1000,104928845,1575,1575,1582,1582
70815829,1000,1000,1000,1000,105028805,1576,1576,1581,1581
70818328,1000,1000,1000,1000,105128765,1578,1579,1580,1580
70820827,1000,1000,1000,1000,105228725,1580,1580,1580,1579
70823326,1000,1000,1000,1000,105328685,1581,1581,1579,1578
70825825,1000,1000,1000,1000,105428645,1581,1582,1578,1578
70828324,1000,1000,1000,1000,105528605,1582,1582,1578,1578
70830823,1000,1000,1000,1000,105628565,1582,1582,1578,1578
70833322,1000,1000,1000,1000,105728525,1582,1581,1577,1578
70835821,1000,1000,1000,1000,105828485,1582,1582,1579,1578
70838320,1000,1000,1000,1000,105928445,1581,1581,1578,1579
70840819,1000,1000,1000,1000,106028405,1580,1580,1579,1579
70843318,1000,1000,1000,1000,106128365,1581,1580,1580,1580
70845817,1000,1000,1000,1000,106228325,1580,1581,1582,1581
70848316,1000,1000,1000,1000,106328285,1580,1580,1582,1581
70850815,1000,1000,1000,1000,106428245,1579,1579,1581,1581
70853314,1000,1000,1000,1000,106528205,1578,1578,1580,1580
70855813,1000,1000,1000,1000,106628165,1580,1580,1582,1581
70858312,1000,1000,1000,1000,106728958,1580,1580,1581,1582
70860811,1000,1000,1000,1000,106828918,1580,1580,1581,1582
70863310,1000,1000,1000,1000,106928878,1581,1581,1582,1582
70865809,1000,1000,1000,1000,107028838,1582,1582,1582,1582
70868308,1000,1000,1000,1000,107128798,1582,1583,1587,1576
70870807,1000,1000,1000,1000,107228758,1582,1583,1587,1573
70873306,1000,1000,1000,1000,107328718,1579,1580,1580,1574
70875805,1000,1000,1000,1000,107428678,1577,1577,1574,1576
70878304,1000,1000,1000,1000,107528638,1574,1573,1568,1575
70880803,1000,1000,1000,1000,107628598,1571,1570,1565,1573
70883302,1000,1000,1000,1000,107728558,1569,1568,1565,1570
70885801,1000,1000,1000,1000,107828518,1567,1567,1566,1567
70888300,1000,1000,1000,1000,107928478,1566,1566,1566,1566
70890799,1000,1000,1000,1000,108028438,1564,1564,1565,1563
70893298,1000,1000,1000,1000,108128398,1564,1565,1566,1564
70895797,1000,1000,1000,1000,108228358,1564,1564,1566,1564
70898296,1000,1000,1000,1000,108328318,1563,1564,1565,1564
70900795,1000,1000,1000,1000,108428278,1563,1563,1564,1564
70903294,1000,1000,1000,1000,108528238,1563,1562,1563,1563
70905793,1000,1000,1000,1000,108628198,1562,1562,1563,1563
70908292,1000,1000,1000,1000,108728158,1562,1562,1562,1562
70910791,1000,1000,1000,1000,108828951,1561,1561,1561,1561
70913290,1000,1000,1000,1000,108928911,1560,1561,1560,1561
70915789,1000,1000,1000,1000,109028871,1559,1559,1559,1558
70918288,1000,1000,1000,1000,109128831,1559,1560,1560,1559
70920787,1000,1000,1000,1000,109228791,1558,1558,1558,1557
70923286,1000,1000,1000,1000,109328751,1557,1557,1558,1556
70925785,1000,1000,1000,1000,109428711,1557,1557,1558,1556
70928284,1000,1000,1000,1000,109528671,1557,1557,1557,1556
70930783,1000,1000,1000,1000,109628631,1558,1557,1558,1557
70933282,1000,1000,1000,1000,109728591,1557,1557,1558,1556
70935781,1000,1000,1000,1000,109828551,1558,1559,1560,1557
70938280,1000,1000,1000,1000,109928511,1559,1559,1559,1559
70940779,1000,1000,1000,1000,110028471,1560,1560,1558,1562
70943278,1000,1000,1000,1000,110128431,1561,1560,1558,1564
70945777,1000,1000,1000,1000,110228391,1560,1561,1558,1564
70948276,1000,1000,1000,1000,110328351,1561,1561,1559,1564
70950775,1000,1000,1000,1000,110428311,1561,1561,1561,1562
70953274,1000,1000,1000,1000,110528271,1561,1561,1563,1559
70955773,1000,1000,1000,1000,110628231,1561,1561,1561,1560
70958272,1000,1000,1000,1000,110728191,1559,1558,1557,1560
70960771,1000,1000,1000,1000,110828984,1553,1553,1552,1555
70963270,1000,1000,1000,1000,110928944,1549,1550,1549,1550
70965769,1000,1000,1000,1000,111028904,1544,1544,1544,1544
70968268,1000,1000,1000,1000,111128864,1537,1537,1537,1537
70970767,1000,1000,1000,1000,111228824,1529,1529,1530,1529
70973266,1000,1000,1000,1000,111328784,1522,1522,1522,1522
70975765,1000,1000,1000,1000,111428744,1519,1520,1520,1520
70978264,1000,1000,1000,1000,111528704,1520,1520,1520,1520
70980763,1000,1000,1000,1000,111628664,1521,1521,1521,1522
70983262,1000,1000,1000,1000,111728624,1523,1523,1523,1523
70985761,1000,1000,1000,1000,111828584,1528,1527,1527,1528
70988260,1000,1000,1000,1000,111928544,1532,1532,1532,1532
70990759,1000,1000,1000,1000,112028504,1537,1537,1536,1537
70993258,1000,1000,1000,1000,112128464,1539,1539,1539,1539
70995757,1000,1000,1000,1000,112228424,1541,1541,1541,1541
70998256,1000,1000,1000,1000,112328384,1543,1544,1544,1543
71000755,1000,1000,1000,1000,112428344,1545,1546,1546,1545
71003254,1000,1000,1000,1000,112528304,1546,1546,1546,1546
71005753,1000,1000,1000,1000,112628264,1547,1547,1547,1547
71008252,1000,1000,1000,1000,112728224,1546,1546,1546,1546
71010751,1000,1000,1000,1000,112828184,1547,1547,1547,1547
71013250,1000,1000,1000,1000,112928977,1547,1547,1547,1547
71015749,1000,1000,1000,1000,113028937,1545,1545,1545,1546
71018248,1000,1000,1000,1000,113128897,1546,1546,1546,1546
71020747,1000,1000,1000,1000,113228857,1546,1546,1546,1546
71023246,1000,1000,1000,1000,113328817,1546,1546,1546,1546
71025745,1000,1000,1000,1000,113428777,1545,1545,1545,1545
71028244,1000,1000,1000,1000,113528737,1545,1545,1545,1545
71030743,1000,1000,1000,1000,113628697,1545,1544,1545,1545
71033242,1000,1000,1000,1000,113728657,1545,1543,1544,1544
71035741,1000,1000,1000,1000,113828617,1544,1544,1545,1544
71038240,1000,1000,1000,1000,113928577,1544,1544,1544,1544
71040739,1000,1000,1000,1000,114028537,1544,1544,1544,1544
71043238,1000,1000,1000,1000,114128497,1544,1544,1544,1544
71045737,1000,1000,1000,1000,114228457,1544,1544,1544,1544
71048236,1000,1000,1000,1000,114328417,1544,1544,1544,1544
71050735,1000,1000,1000,1000,114428377,1544,1544,1544,1544
71053234,1000,1000,1000,1000,114528337,1544,1544,1544,1544
71055733,1000,1000,1000,1000,114628297,1543,1544,1544,1543
71058232,1000,1000,1000,1000,114728257,1544,1544,1544,1543
71060731,1000,1000,1000,1000,114828217,1544,1544,1544,1544
71063230,1000,1000,1000,1000,114928177,1544,1544,1543,1544
71065729,1000,1000,1000,1000,115028970,1545,1544,1544,1544
71068228,1000,1000,1000,1000,115128930,1545,1544,1544,1545
71070727,1000,1000,1000,1000,115228890,1543,1544,1544,1544
71073226,1000,1000,1000,1000,115328850,1544,1544,1544,1544
71075725,1000,1000,1000,1000,115428810,1543,1544,1544,1543
71078224,1000,1000,1000,1000,115528770,1543,1542,1542,1543
71080723,1000,1000,1000,1000,115628730,1544,1545,1545,1544
71083222,1000,1000,1000,1000,115728690,1544,1544,1544,1544
71085721,1000,1000,1000,1000,115828650,1543,1544,1544,1544
71088220,1000,1000,1000,1000,115928610,1544,1543,1543,1544
71090719,1000,1000,1000,1000,116028570,1544,1544,1544,1544
71093218,1000,1000,1000,1000,116128530,1544,1544,1544,1544
71095717,1000,1000,1000,1000,116228490,1545,1545,1545,1545
71098216,1000,1000,1000,1000,116328450,1545,1545,1545,1545
71100715,1000,1000,1000,1000,116428410,1544,1545,1545,1544
71103214,1000,1000,1000,1000,116528370,1545,1544,1544,1545
71105713,1000,1000,1000,1000,116628330,1545,1545,1545,1545
71108212,1000,1000,1000,1000,116728290,1544,1543,1544,1544
71110711,1000,1000,1000,1000,116828250,1543,1544,1544,1543
71113210,1000,1000,1000,1000,116928210,1544,1544,1544,1544
71115709,1000,1000,1000,1000,117028170,1544,1545,1545,1544
71118208,1000,1000,1000,1000,117128963,1545,1544,1544,1545
71120707,1000,1000,1000,1000,117228923,1544,1544,1544,1544
71123206,1000,1000,1000,1000,117328883,1544,1543,1544,1544
71125705,1000,1000,1000,1000,117428843,1543,1543,1543,1543
71128204,1000,1000,1000,1000,117528803,1545,1545,1545,1545
71130703,1000,1000,1000,1000,117628763,1545,1545,1544,1545
71133202,1000,1000,1000,1000,117728723,1544,1544,1544,1545
71135701,1000,1000,1000,1000,117828683,1545,1545,1545,1545
71138200,1000,1000,1000,1000,117928643,1544,1544,1545,1544
71140699,1000,1000,1000,1000,118028603,1544,1545,1545,1544
71143198,1000,1000,1000,1000,118128563,1544,1544,1544,1545
71145697,1000,1000,1000,1000,118228523,1544,1544,1544,1544
71148196,1000,1000,1000,1000,118328483,1544,1543,1543,1543
71150695,1000,1000,1000,1000,118428443,1544,1544,1544,1544
71153194,1000,1000,1000,1000,118528403,1544,1544,1543,1544
71155693,1000,1000,1000,1000,118628363,1544,1544,1544,1544
71158192,1000,1000,1000,1000,118728323,1544,1544,1544,1545
71160691,1000,1000,1000,1000,118828283,1544,1544,1544,1544
71163190,1000,1000,1000,1000,118928243,1545,1544,1544,1544
71165689,1000,1000,1000,1000,119028203,1544,1544,1544,1543
71168188,1000,1000,1000,1000,119128163,1545,1544,1544,1545
71170687,1000,1000,1000,1000,119228956,1545,1545,1545,1545
71173186,1000,1000,1000,1000,119328916,1544,1544,1544,1545
71175685,1000,1000,1000,1000,119428876,1544,1544,1544,1544
71178184,1000,1000,1000,1000,119528836,1545,1545,1545,1545
71180683,1000,1000,1000,1000,119628796,1545,1545,1545,1544
71183182,1000,1000,1000,1000,119728756,1545,1545,1545,1545
71185681,1000,1000,1000,1000,119828716,1544,1545,1545,1545
71188180,1000,1000,1000,1000,119928676,1544,1544,1544,1544
71190679,1000,1000,1000,1000,120028636,1544,1544,1544,1544
71193178,1000,1000,1000,1000,120128596,1545,1545,1545,1545
71195677,1000,1000,1000,1000,120228556,1545,1545,1545,1545
71198176,1000,1000,1000,1000,120328516,1545,1545,1545,1546
71200675,1000,1000,1000,1000,120428476,1544,1545,1545,1544
71203174,1000,1000,1000,1000,120528436,1544,1544,1544,1545
71205673,1000,1000,1000,1000,120628396,1544,1544,1544,1544
71208172,1000,1000,1000,1000,120728356,1544,1544,1544,1544
71210671,1000,1000,1000,1000,120828316,1544,1543,1544,1543
71213170,1000,1000,1000,1000,120928276,1545,1544,1545,1545
71215669,1000,1000,1000,1000,121028236,1545,1545,1545,1545
71218168,1000,1000,1000,1000,121128196,1446,1447,1447,1447
71220667,1000,1000,1000,1000,121228156,1288,1292,1290,1290
71223166,1000,1000,1000,1000,121328949,1223,1227,1225,1226
71225665,1000,1000,1000,1000,121428909,1200,1205,1203,1203
71228164,1000,1000,1000,1000,121528869,1166,1170,1168,1169
71230663,1000,1000,1000,1000,121628829,1150,1155,1154,1153
71233162,1000,1000,1000,1000,121728789,1150,1155,1153,1154
71235661,1000,1000,1000,1000,121828749,1191,1150,1151,1192
71238160,1000,1000,1000,1000,121928709,1178,1150,1150,1181
71240659,1000,1000,1000,1000,122028669,1171,1150,1150,1174
71243158,1000,1000,1000,1000,122128629,1171,1150,1150,1174
71245657,1000,1000,1000,1000,122228589,1172,1150,1150,1176
71248156,1000,1000,1000,1000,122328549,1175,1150,1150,1179
71250655,1000,1000,1000,1000,122428509,1177,1150,1150,1181
71253154,1000,1000,1000,1000,122528469,1180,1150,1150,1184
71256486,1000,1000,1000,1000,122628429,1164,1150,1151,1167
71258985,1000,1000,1000,1000,122728389,1166,1150,1151,1169
71261484,1000,1000,1000,1000,122828349,1167,1150,1151,1171
71263983,1000,1000,1000,1000,122928309,1168,1150,1152,1171
71266482,1000,1000,1000,1000,123028269,1168,1150,1152,1172
71268981,1000,1000,1000,1000,123128229,1000,1000,1000,1000
71271480,1000,1000,1000,1000,123228189,1000,1000,1000,1000
71273979,1000,1000,1000,1000,123328982,1000,1000,1000,1000
71276478,1000,1000,1000,1000,123428942,1000,1000,1000,1000
71278977,1000,1000,1000,1000,123528902,1000,1000,1000,1000
71281476,1000,1000,1000,1000,123628862,1000,1000,1000,1000
71283975,1000,1000,1000,1000,123728822,1000,1000,1000,1000
71286474,1000,1000,1000,1000,123828782,1000,1000,1000,1000
71288973,1000,1000,1000,1000,123928742,1000,1000,1000,1000
71291472,1000,1000,1000,1000,124028702,1000,1000,1000,1000
71293971,1000,1000,1000,1000,124128662,1000,1000,1000,1000
71296470,1000,1000,1000,1000,124228622,1000,1000,1000,1000
71298969,1000,1000,1000,1000,124328582,1000,1000,1000,1000
71301468,1000,1000,1000,1000,124428542,1000,1000,1000,1000
71303967,1000,1000,1000,1000,124528502,1000,1000,1000,1000
71306466,1000,1000,1000,1000,124628462,1000,1000,1000,1000
71308965,1000,1000,1000,1000,124728422,1000,1000,1000,1000
71311464,1000,1000,1000,1000,124828382,1000,1000,1000,1000
71313963,1000,1000,1000,1000,124928342,1000,1000,1000,1000
71316462,1000,1000,1000,1000,125028302,1000,1000,1000,1000
71318961,1000,1000,1000,1000,125128262,1000,1000,1000,1000
71321460,1000,1000,1000,1000,125228222,1000,1000,1000,1000
71323959,1000,1000,1000,1000,125328182,1000,1000,1000,1000
71326458,1000,1000,1000,1000,125428975,1000,1000,1000,1000
71328957,1000,1000,1000,1000,125528935,1000,1000,1000,1000
71331456,1000,1000,1000,1000,125628895,1000,1000,1000,1000
71333955,1000,1000,1000,1000,125728855,1000,1000,1000,1000
71336454,1000,1000,1000,1000,125828815,1000,1000,1000,1000
71338953,1000,1000,1000,1000,125928775,1000,1000,1000,1000
71341452,1000,1000,1000,1000,126028735,1000,1000,1000,1000
71343951,1000,1000,1000,1000,126128695,1000,1000,1000,1000
71346450,1000,1000,1000,1000,126228655,1000,1000,1000,1000
71348949,1000,1000,1000,1000,126328615,1000,1000,1000,1000
71351448,1000,1000,1000,1000,126428575,1000,1000,1000,1000
71353947,1000,1000,1000,1000,126528535,1000,1000,1000,1000
71356446,1000,1000,1000,1000,126628495,1000,1000,1000,1000
71358945,1000,1000,1000,1000,126728455,1000,1000,1000,1000
71361444,1000,1000,1000,1000,126828415,1000,1000,1000,1000
71363943,1000,1000,1000,1000,126928375,1000,1000,1000,1000
71366442,1000,1000,1000,1000,127028335,1000,1000,1000,1000
71368941,1000,1000,1000,1000,127128295,1000,1000,1000,1000
71371440,1000,1000,1000,1000,127228255,1000,1000,1000,1000
71373939,1000,1000,1000,1000,127328215,1000,1000,1000,1000
71376438,1000,1000,1000,1000,127428175,1000,1000,1000,1000
71378937,1000,1000,1000,1000,127528968,1000,1000,1000,1000
71381436,1000,1000,1000,1000,127628928,1000,1000,1000,1000
71383935,1000,1000,1000,1000,127728888,1000,1000,1000,1000
71386434,1000,1000,1000,1000,127828848,1000,1000,1000,1000
71388933,1000,1000,1000,1000,127928808,1000,1000,1000,1000
71391432,1000,1000,1000,1000,128028768,1000,1000,1000,1000
71393931,1000,1000,1000,1000,128128728,1000,1000,1000,1000
71396430,1000,1000,1000,1000,128228688,1000,1000,1000,1000
71398929,1000,1000,1000,1000,128328648,1000,1000,1000,1000
71401428,1000,1000,1000,1000,128428608,1000,1000,1000,1000
71403927,1000,1000,1000,1000,128528568,1000,1000,1000,1000
71406426,1000,1000,1000,1000,128628528,1000,1000,1000,1000
71408925,1000,1000,1000,1000,128728488,1000,1000,1000,1000
71411424,1000,1000,1000,1000,128828448,1000,1000,1000,1000
71413923,1000,1000,1000,1000,128928408,1000,1000,1000,1000
71416422,1000,1000,1000,1000,129028368,1000,1000,1000,1000
71418921,1000,1000,1000,1000,129128328,1000,1000,1000,1000
71421420,1000,1000,1000,1000,129228288,1000,1000,1000,1000
71423919,1000,1000,1000,1000,129328248,1000,1000,1000,1000
71426418,1000,1000,1000,1000,129428208,1000,1000,1000,1000
71428917,1000,1000,1000,1000,129528168,1000,1000,1000,1000
71431416,1000,1000,1000,1000,129628961,1000,1000,1000,1000
71433915,1000,1000,1000,1000,129728921,1000,1000,1000,1000
71436414,1000,1000,1000,1000,129828881,1000,1000,1000,1000
71438913,1000,1000,1000,1000,129928841,1000,1000,1000,1000
71441412,1000,1000,1000,1000,130028801,1000,1000,1000,1000
71443911,1000,1000,1000,1000,130128761,1000,1000,1000,1000
71446410,1000,1000,1000,1000,130228721,1000,1000,1000,1000
71448909,1000,1000,1000,1000,130328681,1000,1000,1000,1000
71451408,1000,1000,1000,1000,130428641,1000,1000,1000,1000
71453907,1000,1000,1000,1000,130528601,1000,1000,1000,1000
71456406,1000,1000,1000,1000,130628561,1000,1000,1000,1000
71458905,1000,1000,1000,1000,130728521,1000,1000,1000,1000
71461404,1000,1000,1000,1000,130828481,1000,1000,1000,1000
71463903,1000,1000,1000,1000,130928441,1000,1000,1000,1000
71466402,1000,1000,1000,1000,131028401,1000,1000,1000,1000
71468901,1000,1000,1000,1000,131128361,1000,1000,1000,1000
71471400,1000,1000,1000,1000,131228321,1000,1000,1000,1000
71473899,1000,1000,1000,1000,131328281,1000,1000,1000,1000
71476398,1000,1000,1000,1000,131428241,1000,1000,1000,1000
71478897,1000,1000,1000,1000,131528201,1000,1000,1000,1000
71481396,1000,1000,1000,1000,131628161,1000,1000,1000,1000
71483895,1000,1000,1000,1000,131728954,1000,1000,1000,1000
71486394,1000,1000,1000,1000,,,,,
71488893,1000,1000,1000,1000,,,,,
71491392,1000,1000,1000,1000,,,,,
71493891,1000,1000,1000,1000,,,,,
71496390,1000,1000,1000,1000,,,,,
71498889,1000,1000,1000,1000,,,,,
71501388,1000,1000,1000,1000,,,,,
71503887,1000,1000,1000,1000,,,,,
71506386,1000,1000,1000,1000,,,,,
71508885,1000,1000,1000,1000,,,,,
71511384,1000,1000,1000,1000,,,,,
71513883,1000,1000,1000,1000,,,,,
71516382,1000,1000,1000,1000,,,,,
71518881,1000,1000,1000,1000,,,,,
71521380,1000,1000,1000,1000,,,,,
71523879,1000,1000,1000,1000,,,,,
71526378,1000,1000,1000,1000,,,,,
71528877,1000,1000,1000,1000,,,,,
71531376,1000,1000,1000,1000,,,,,
71533875,1000,1000,1000,1000,,,,,
71536374,1000,1000,1000,1000,,,,,
71538873,1000,1000,1000,1000,,,,,
71541372,1000,1000,1000,1000,,,,,
71543871,1000,1000,1000,1000,,,,,
71546370,1000,1000,1000,1000,,,,,
71548869,1000,1000,1000,1000,,,,,
71551368,1000,1000,1000,1000,,,,,
71553867,1000,1000,1000,1000,,,,,
71556366,1000,1000,1000,1000,,,,,
71558865,1000,1000,1000,1000,,,,,
71561364,1000,1000,1000,1000,,,,,
71563863,1000,1000,1000,1000,,,,,
71566362,1000,1000,1000,1000,,,,,
71568861,1000,1000,1000,1000,,,,,
71571360,1000,1000,1000,1000,,,,,
71573859,1000,1000,1000,1000,,,,,
71576358,1000,1000,1000,1000,,,,,
71578857,1000,1000,1000,1000,,,,,
71581356,1000,1000,1000,1000,,,,,
71583855,1000,1000,1000,1000,,,,,
71586354,1000,1000,1000,1000,,,,,
71588853,1000,1000,1000,1000,,,,,
71591352,1000,1000,1000,1000,,,,,
71593851,1000,1000,1000,1000,,,,,
71596350,1000,1000,1000,1000,,,,,
71598849,1000,1000,1000,1000,,,,,
71601348,1000,1000,1000,1000,,,,,
71603847,1000,1000,1000,1000,,,,,
71606346,1000,1000,1000,1000,,,,,
71608845,1000,1000,1000,1000,,,,,
71611344,1000,1000,1000,1000,,,,,
71613843,1000,1000,1000,1000,,,,,
71616342,1000,1000,1000,1000,,,,,
71618841,1000,1000,1000,1000,,,,,
71621340,1000,1000,1000,1000,,,,,
71623839,1000,1000,1000,1000,,,,,
71626338,1000,1000,1000,1000,,,,,
71628837,1000,1000,1000,1000,,,,,
71631336,1000,1000,1000,1000,,,,,
71633835,1000,1000,1000,1000,,,,,
71636334,1000,1000,1000,1000,,,,,
71638833,1000,1000,1000,1000,,,,,
71641332,1000,1000,1000,1000,,,,,
71643831,1000,1000,1000,1000,,,,,
71646330,1000,1000,1000,1000,,,,,
71648829,1000,1000,1000,1000,,,,,
71651328,1000,1000,1000,1000,,,,,
71653827,1000,1000,1000,1000,,,,,
71656326,1000,1000,1000,1000,,,,,
71658825,1000,1000,1000,1000,,,,,
71661324,1000,1000,1000,1000,,,,,
71663823,1000,1000,1000,1000,,,,,
71666322,1000,1000,1000,1000,,,,,
71668821,1000,1000,1000,1000,,,,,
71671320,1000,1000,1000,1000,,,,,
71673819,1000,1000,1000,1000,,,,,
71676318,1000,1000,1000,1000,,,,,
71678817,1000,1000,1000,1000,,,,,
71681316,1000,1000,1000,1000,,,,,
71683815,1000,1000,1000,1000,,,,,
71686314,1000,1000,1000,1000,,,,,
71688813,1000,1000,1000,1000,,,,,
71691312,1000,1000,1000,1000,,,,,
71693811,1000,1000,1000,1000,,,,,
71696310,1000,1000,1000,1000,,,,,
71698809,1000,1000,1000,1000,,,,,
71701308,1000,1000,1000,1000,,,,,
71703807,1000,1000,1000,1000,,,,,
71706306,1000,1000,1000,1000,,,,,
71708805,1000,1000,1000,1000,,,,,
71711304,1000,1000,1000,1000,,,,,
71713803,1000,1000,1000,1000,,,,,
71716302,1000,1000,1000,1000,,,,,
71718801,1000,1000,1000,1000,,,,,
71721300,1000,1000,1000,1000,,,,,
71723799,1000,1000,1000,1000,,,,,
71726298,1000,1000,1000,1000,,,,,
71728797,1000,1000,1000,1000,,,,,
71731296,1000,1000,1000,1000,,,,,
71733795,1000,1000,1000,1000,,,,,
71736294,1000,1000,1000,1000,,,,,
71738793,1000,1000,1000,1000,,,,,
71741292,1000,1000,1000,1000,,,,,
71743791,1000,1000,1000,1000,,,,,
71746290,1000,1000,1000,1000,,,,,
71748789,1000,1000,1000,1000,,,,,
71751288,1000,1000,1000,1000,,,,,
71753787,1000,1000,1000,1000,,,,,
71756286,1000,1000,1000,1000,,,,,
71758785,1000,1000,1000,1000,,,,,
71761284,1000,1000,1000,1000,,,,,
71763783,1000,1000,1000,1000,,,,,
71766282,1000,1000,1000,1000,,,,,
71768781,1000,1000,1000,1000,,,,,
71771280,1000,1000,1000,1000,,,,,
71773779,1000,1000,1000,1000,,,,,
71776278,1000,1000,1000,1000,,,,,
71778777,1000,1000,1000,1000,,,,,
71781276,1000,1000,1000,1000,,,,,
71783775,1000,1000,1000,1000,,,,,
71786274,1000,1000,1000,1000,,,,,
71788773,1000,1000,1000,1000,,,,,
71791272,1000,1000,1000,1000,,,,,
71793771,1000,1000,1000,1000,,,,,
71796270,1000,1000,1000,1000,,,,,
71798769,1000,1000,1000,1000,,,,,
71801268,1000,1000,1000,1000,,,,,
71803767,1000,1000,1000,1000,,,,,
71806266,1000,1000,1000,1000,,,,,
71808765,1000,1000,1000,1000,,,,,
71811264,1000,1000,1000,1000,,,,,
71813763,1000,1000,1000,1000,,,,,
71816262,1000,1000,1000,1000,,,,,
71818761,1000,1000,1000,1000,,,,,
71821260,1000,1000,1000,1000,,,,,
71823759,1000,1000,1000,1000,,,,,
71826258,1000,1000,1000,1000,,,,,
71828757,1000,1000,1000,1000,,,,,
71831256,1000,1000,1000,1000,,,,,
71833755,1000,1000,1000,1000,,,,,
71836254,1000,1000,1000,1000,,,,,
71838753,1000,1000,1000,1000,,,,,
71841252,1000,1000,1000,1000,,,,,
71843751,1000,1000,1000,1000,,,,,
71846250,1000,1000,1000,1000,,,,,
71848749,1000,1000,1000,1000,,,,,
71851248,1000,1000,1000,1000,,,,,
71853747,1000,1000,1000,1000,,,,,
71856246,1000,1000,1000,1000,,,,,
71858745,1000,1000,1000,1000,,,,,
71861244,1000,1000,1000,1000,,,,,
71863743,1000,1000,1000,1000,,,,,
71866242,1000,1000,1000,1000,,,,,
71868741,1000,1000,1000,1000,,,,,
71871240,1000,1000,1000,1000,,,,,
71873739,1000,1000,1000,1000,,,,,
71876238,1000,1000,1000,1000,,,,,
71878737,1000,1000,1000,1000,,,,,
71881236,1000,1000,1000,1000,,,,,
71883735,1000,1000,1000,1000,,,,,
71886234,1000,1000,1000,1000,,,,,
71888733,1000,1000,1000,1000,,,,,
71891232,1000,1000,1000,1000,,,,,
71893731,1000,1000,1000,1000,,,,,
71896230,1000,1000,1000,1000,,,,,
71898729,1000,1000,1000,1000,,,,,
71901228,1000,1000,1000,1000,,,,,
71903727,1000,1000,1000,1000,,,,,
71906226,1000,1000,1000,1000,,,,,
71908725,1000,1000,1000,1000,,,,,
71911224,1000,1000,1000,1000,,,,,
71913723,1000,1000,1000,1000,,,,,
71916222,1000,1000,1000,1000,,,,,
71918721,1000,1000,1000,1000,,,,,
71921220,1000,1000,1000,1000,,,,,
71923719,1000,1000,1000,1000,,,,,
71926218,1000,1000,1000,1000,,,,,
71928717,1000,1000,1000,1000,,,,,
71931216,1000,1000,1000,1000,,,,,
71933715,1000,1000,1000,1000,,,,,
71936214,1000,1000,1000,1000,,,,,
71938713,1000,1000,1000,1000,,,,,
71941212,1000,1000,1000,1000,,,,,
71943711,1000,1000,1000,1000,,,,,
71946210,1000,1000,1000,1000,,,,,
71948709,1001,1001,1001,1001,,,,,
71951208,1002,1002,1002,1002,,,,,
71953707,1003,1003,1003,1003,,,,,
71956206,1003,1003,1003,1003,,,,,
71958705,1004,1004,1004,1004,,,,,
71961204,1005,1005,1005,1005,,,,,
71963703,1006,1006,1006,1006,,,,,
71966202,1006,1006,1006,1006,,,,,
71968701,1007,1007,1007,1007,,,,,
71971200,1008,1008,1008,1008,,,,,
71973699,1009,1009,1009,1009,,,,,
71976198,1009,1009,1009,1009,,,,,
71978697,1010,1010,1010,1010,,,,,
71981196,1011,1011,1011,1011,,,,,
71983695,1012,1012,1012,1012,,,,,
71986194,1012,1012,1012,1012,,,,,
71988693,1013,1013,1013,1013,,,,,
71991192,1014,1014,1014,1014,,,,,
71993691,1015,1015,1015,1015,,,,,
71996190,1015,1015,1015,1015,,,,,
71998689,1016,1016,1016,1016,,,,,
72001188,1017,1017,1017,1017,,,,,
72003687,1018,1018,1018,1018,,,,,
72006186,1018,1018,1018,1018,,,,,
72008685,1019,1019,1019,1019,,,,,
72011184,1020,1020,1020,1020,,,,,
72013683,1021,1021,1021,1021,,,,,
72016182,1021,1021,1021,1021,,,,,
72018681,1022,1022,1022,1022,,,,,
72021180,1023,1023,1023,1023,,,,,
72023679,1024,1024,1024,1024,,,,,
72026178,1024,1024,1024,1024,,,,,
72028677,1025,1025,1025,1025,,,,,
72031176,1026,1026,1026,1026,,,,,
72033675,1027,1027,1027,1027,,,,,
72036174,1027,1027,1027,1027,,,,,
72038673,1028,1028,1028,1028,,,,,
72041172,1029,1029,1029,1029,,,,,
72043671,1030,1030,1030,1030,,,,,
72046170,1030,1030,1030,1030,,,,,
72048669,1031,1031,1031,1031,,,,,
72051168,1032,1032,1032,1032,,,,,
72053667,1033,1033,1033,1033,,,,,
72056166,1033,1033,1033,1033,,,,,
72058665,1034,1034,1034,1034,,,,,
72061164,1035,1035,1035,1035,,,,,
72063663,1036,1036,1036,1036,,,,,
72066162,1036,1036,1036,1036,,,,,
72068661,1037,1037,1037,1037,,,,,
72071160,1038,1038,1038,1038,,,,,
72073659,1039,1039,1039,1039,,,,,
72076158,1039,1039,1039,1039,,,,,
72078657,1040,1040,1040,1040,,,,,
72081156,1041,1041,1041,1041,,,,,
72083655,1042,1042,1042,1042,,,,,
72086154,1042,1042,1042,1042,,,,,
72088653,1043,1043,1043,1043,,,,,
72091152,1044,1044,1044,1044,,,,,
72093651,1045,1045,1045,1045,,,,,
72096150,1045,1045,1045,1045,,,,,
72098649,1046,1046,1046,1046,,,,,
72101148,1047,1047,1047,1047,,,,,
72103647,1048,1048,1048,1048,,,,,
72106146,1048,1048,1048,1048,,,,,
72108645,1049,1049,1049,1049,,,,,
72111144,1050,1050,1050,1050,,,,,
72113643,1051,1051,1051,1051,,,,,
72116142,1051,1051,1051,1051,,,,,
72118641,1052,1052,1052,1052,,,,,
72121140,1053,1053,1053,1053,,,,,
72123639,1054,1054,1054,1054,,,,,
72126138,1054,1054,1054,1054,,,,,
72128637,1055,1055,1055,1055,,,,,
72131136,1056,1056,1056,1056,,,,,
72133635,1057,1057,1057,1057,,,,,
72136134,1057,1057,1057,1057,,,,,
72138633,1058,1058,1058,1058,,,,,
72141132,1059,1059,1059,1059,,,,,
72143631,1060,1060,1060,1060,,,,,
72146130,1060,1060,1060,1060,,,,,
72148629,1061,1061,1061,1061,,,,,
72151128,1062,1062,1062,1062,,,,,
72153627,1063,1063,1063,1063,,,,,
72156126,1063,1063,1063,1063,,,,,
72158625,1064,1064,1064,1064,,,,,
72161124,1065,1065,1065,1065,,,,,
72163623,1066,1066,1066,1066,,,,,
72166122,1066,1066,1066,1066,,,,,
72168621,1067,1067,1067,1067,,,,,
72171120,1068,1068,1068,1068,,,,,
72173619,1069,1069,1069,1069,,,,,
72176118,1069,1069,1069,1069,,,,,
72178617,1070,1070,1070,1070,,,,,
72181116,1071,1071,1071,1071,,,,,
72183615,1072,1072,1072,1072,,,,,
72186114,1072,1072,1072,1072,,,,,
72188613,1073,1073,1073,1073,,,,,
72191112,1074,1074,1074,1074,,,,,
72193611,1075,1075,1075,1075,,,,,
72196110,1075,1075,1075,1075,,,,,
72198609,1076,1076,1076,1076,,,,,
72201108,1077,1077,1077,1077,,,,,
72203607,1078,1078,1078,1078,,,,,
72206106,1078,1078,1078,1078,,,,,
72208605,1079,1079,1079,1079,,,,,
72211104,1080,1080,1080,1080,,,,,
72213603,1081,1081,1081,1081,,,,,
72216102,1081,1081,1081,1081,,,,,
72218601,1082,1082,1082,1082,,,,,
72221100,1083,1083,1083,1083,,,,,
72223599,1084,1084,1084,1084,,,,,
72226098,1084,1084,1084,1084,,,,,
72228597,1085,1085,1085,1085,,,,,
72231096,1086,1086,1086,1086,,,,,
72233595,1087,1087,1087,1087,,,,,
72236094,1087,1087,1087,1087,,,,,
72238593,1088,1088,1088,1088,,,,,
72241092,1089,1089,1089,1089,,,,,
72243591,1090,1090,1090,1090,,,,,
72246090,1090,1090,1090,1090,,,,,
72248589,1091,1091,1091,1091,,,,,
72251088,1092,1092,1092,1092,,,,,
72253587,1093,1093,1093,1093,,,,,
72256086,1093,1093,1093,1093,,,,,
72258585,1094,1094,1094,1094,,,,,
72261084,1095,1095,1095,1095,,,,,
72263583,1096,1096,1096,1096,,,,,
72266082,1096,1096,1096,1096,,,,,
72268581,1097,1097,1097,1097,,,,,
72271080,1098,1098,1098,1098,,,,,
72273579,1099,1099,1099,1099,,,,,
72276078,1099,1099,1099,1099,,,,,
72278577,1100,1100,1100,1100,,,,,
72281076,1101,1101,1101,1101,,,,,
72283575,1101,1101,1101,1101,,,,,
72286074,1102,1102,1102,1102,,,,,
72288573,1103,1103,1103,1103,,,,,
72291072,1104,1104,1104,1104,,,,,
72293571,1104,1104,1104,1104,,,,,
72296070,1105,1105,1105,1105,,,,,
72298569,1106,1106,1106,1106,,,,,
72301068,1107,1107,1107,1107,,,,,
72303567,1107,1107,1107,1107,,,,,
72306066,1108,1108,1108,1108,,,,,
72308565,1109,1109,1109,1109,,,,,
72311064,1110,1110,1110,1110,,,,,
72313563,1110,1110,1110,1110,,,,,
72316062,1111,1111,1111,1111,,,,,
72318561,1112,1112,1112,1112,,,,,
72321060,1113,1113,1113,1113,,,,,
72323559,1113,1113,1113,1113,,,,,
72326058,1114,1114,1114,1114,,,,,
72328557,1115,1115,1115,1115,,,,,
72331056,1116,1116,1116,1116,,,,,
72333555,1116,1116,1116,1116,,,,,
72336054,1117,1117,1117,1117,,,,,
72338553,1118,1118,1118,1118,,,,,
72341052,1119,1119,1119,1119,,,,,
72343551,1119,1119,1119,1119,,,,,
72346050,1120,1120,1120,1120,,,,,
72348549,1121,1121,1121,1121,,,,,
72351048,1122,1122,1122,1122,,,,,
72353547,1122,1122,1122,1122,,,,,
72356046,1123,1123,1123,1123,,,,,
72358545,1124,1124,1124,1124,,,,,
72361044,1125,1125,1125,1125,,,,,
72363543,1125,1125,1125,1125,,,,,
72366042,1126,1126,1126,1126,,,,,
72368541,1127,1127,1127,1127,,,,,
72371040,1128,1128,1128,1128,,,,,
72373539,1128,1128,1128,1128,,,,,
72376038,1129,1129,1129,1129,,,,,
72378537,1130,1130,1130,1130,,,,,
72381036,1131,1131,1131,1131,,,,,
72383535,1131,1131,1131,1131,,,,,
72386034,1132,1132,1132,1132,,,,,
72388533,1133,1133,1133,1133,,,,,
72391032,1134,1134,1134,1134,,,,,
72393531,1134,1134,1134,1134,,,,,
72396030,1135,1135,1135,1135,,,,,
72398529,1136,1136,1136,1136,,,,,
72401028,1137,1137,1137,1137,,,,,
72403527,1137,1137,1137,1137,,,,,
72406026,1138,1138,1138,1138,,,,,
72408525,1139,1139,1139,1139,,,,,
72411024,1140,1140,1140,1140,,,,,
72413523,1140,1140,1140,1140,,,,,
72416022,1141,1141,1141,1141,,,,,
72418521,1142,1142,1142,1142,,,,,
72421020,1143,1143,1143,1143,,,,,
72423519,1143,1143,1143,1143,,,,,
72426018,1144,1144,1144,1144,,,,,
72428517,1145,1145,1145,1145,,,,,
72431016,1146,1146,1146,1146,,,,,
72433515,1146,1146,1146,1146,,,,,
72436014,1147,1147,1147,1147,,,,,
72438513,1148,1148,1148,1148,,,,,
72441012,1149,1149,1149,1149,,,,,
72443511,1149,1149,1149,1149,,,,,
72446010,1150,1150,1150,1150,,,,,
72448509,1163,1152,1153,1164,,,,,
72451008,1171,1160,1161,1172,,,,,
72453507,1179,1168,1169,1179,,,,,
72456006,1186,1176,1176,1187,,,,,
72458505,1194,1183,1184,1195,,,,,
72461004,1201,1191,1192,1202,,,,,
72463503,1209,1198,1199,1209,,,,,
72466002,1216,1206,1206,1217,,,,,
72468501,1223,1213,1214,1224,,,,,
72471000,1230,1220,1221,1231,,,,,
72473499,1237,1227,1228,1237,,,,,
72475998,1244,1234,1235,1244,,,,,
72478497,1250,1241,1241,1251,,,,,
72480996,1257,1247,1248,1257,,,,,
72483495,1263,1254,1255,1264,,,,,
72485994,1270,1260,1261,1270,,,,,
72488493,1276,1267,1268,1277,,,,,
72490992,1282,1273,1274,1283,,,,,
72493491,1289,1279,1280,1289,,,,,
72495990,1295,1286,1286,1295,,,,,
72498489,1301,1292,1293,1301,,,,,
72500988,1307,1298,1299,1307,,,,,
72503487,1313,1304,1305,1313,,,,,
72505986,1319,1310,1311,1319,,,,,
72508485,1325,1316,1316,1325,,,,,
72510984,1330,1321,1322,1331,,,,,
72513483,1336,1327,1328,1337,,,,,
72515982,1342,1333,1334,1342,,,,,
72518481,1347,1339,1339,1348,,,,,
72520980,1353,1344,1345,1353,,,,,
72523479,1358,1350,1350,1359,,,,,
72525978,1364,1355,1356,1364,,,,,
72528477,1369,1361,1361,1370,,,,,
72530976,1374,1366,1367,1375,,,,,
72533475,1380,1371,1372,1380,,,,,
72535974,1385,1377,1377,1385,,,,,
72538473,1390,1382,1383,1391,,,,,
72540972,1395,1387,1388,1396,,,,,
72543471,1400,1392,1393,1401,,,,,
72545970,1406,1398,1398,1406,,,,,
72548469,1411,1403,1403,1411,,,,,
72550968,1416,1408,1408,1416,,,,,
72553467,1421,1413,1413,1421,,,,,
72555966,1425,1418,1418,1426,,,,,
72558465,1430,1423,1423,1431,,,,,
72560964,1435,1428,1428,1436,,,,,
72563463,1440,1432,1433,1441,,,,,
72565962,1445,1437,1438,1445,,,,,
72568461,1450,1442,1443,1450,,,,,
72570960,1454,1447,1447,1455,,,,,
72573459,1459,1452,1452,1460,,,,,
72575958,1464,1456,1457,1464,,,,,
72578457,1468,1461,1461,1469,,,,,
72580956,1473,1466,1466,1474,,,,,
72583455,1478,1470,1471,1478,,,,,
72585954,1482,1475,1475,1483,,,,,
72588453,1487,1479,1480,1487,,,,,
72590952,1491,1484,1484,1492,,,,,
72593451,1496,1488,1489,1496,,,,,
72595950,1500,1493,1493,1501,,,,,
72598449,1505,1497,1498,1505,,,,,
72600948,1509,1502,1502,1509,,,,,
72603447,1513,1506,1507,1514,,,,,
72605946,1518,1510,1511,1518,,,,,
72608445,1522,1515,1515,1522,,,,,
72610944,1526,1519,1520,1527,,,,,
72613443,1530,1523,1524,1531,,,,,
72615942,1535,1528,1528,1535,,,,,
72618441,1539,1532,1532,1539,,,,,
72620940,1543,1536,1537,1544,,,,,
72623439,1547,1540,1541,1548,,,,,
72625938,1551,1545,1545,1552,,,,,
72628437,1556,1549,1549,1556,,,,,
72630936,1560,1553,1553,1560,,,,,
72633435,1564,1557,1557,1564,,,,,
72635934,1568,1561,1561,1568,,,,,
72638433,1572,1565,1566,1572,,,,,
72640932,1576,1569,1570,1576,,,,,
72643431,1580,1573,1574,1580,,,,,
72645930,1584,1577,1578,1584,,,,,
72648429,1588,1581,1582,1588,,,,,
72650928,1592,1585,1586,1592,,,,,
72653427,1596,1589,1590,1596,,,,,
72655926,1600,1593,1594,1600,,,,,
72658425,1604,1597,1597,1604,,,,,
72660924,1608,1601,1601,1608,,,,,
72663423,1612,1605,1605,1612,,,,,
72665922,1615,1609,1609,1616,,,,,
72668421,1619,1612,1613,1620,,,,,
72670920,1623,1616,1617,1623,,,,,
72673419,1627,1620,1621,1627,,,,,
72675918,1631,1624,1624,1631,,,,,
72678417,1634,1628,1628,1635,,,,,
72680916,1638,1631,1632,1638,,,,,
72683415,1642,1635,1636,1642,,,,,
72685914,1646,1639,1639,1646,,,,,
72688413,1649,1643,1643,1650,,,,,
72690912,1653,1646,1647,1653,,,,,
72693411,1657,1650,1650,1657,,,,,
72695910,1660,1654,1654,1661,,,,,
72698409,1664,1657,1658,1664,,,,,
72700908,1668,1661,1661,1668,,,,,
72703407,1671,1664,1665,1672,,,,,
72705906,1675,1668,1669,1675,,,,,
72708405,1679,1672,1672,1679,,,,,
72710904,1682,1675,1676,1682,,,,,
72713403,1686,1679,1679,1686,,,,,
72715902,1689,1682,1683,1689,,,,,
72718401,1693,1686,1686,1693,,,,,
72720900,1696,1689,1690,1697,,,,,
72723399,1700,1693,1693,1700,,,,,
72725898,1703,1696,1697,1704,,,,,
72728397,1707,1700,1700,1707,,,,,
72730896,1710,1703,1704,1711,,,,,
72733395,1714,1707,1707,1714,,,,,
72735894,1717,1710,1711,1717,,,,,
72738393,1721,1714,1714,1721,,,,,
72740892,1724,1717,1718,1724,,,,,
72743391,1727,1721,1721,1728,,,,,
72745890,1731,1724,1724,1731,,,,,
72748389,1734,1727,1728,1734,,,,,
72750888,1738,1731,1731,1738,,,,,
72753387,1741,1734,1735,1741,,,,,
72755886,1744,1738,1738,1745,,,,,
72758385,1748,1741,1741,1748,,,,,
72760884,1751,1744,1745,1751,,,,,
72763383,1754,1748,1748,1755,,,,,
72765882,1758,1751,1751,1758,,,,,
72768381,1761,1754,1755,1761,,,,,
72770880,1764,1757,1758,1764,,,,,
72773379,1767,1761,1761,1768,,,,,
72775878,1771,1764,1764,1771,,,,,
72778377,1774,1767,1768,1774,,,,,
72780876,1777,1771,1771,1777,,,,,
72783375,1780,1774,1774,1781,,,,,
72785874,1784,1777,1777,1784,,,,,
72788373,1787,1780,1781,1787,,,,,
72790872,1790,1783,1784,1790,,,,,
72793371,1793,1787,1787,1793,,,,,
72795870,1796,1790,1790,1797,,,,,
72798369,1799,1793,1793,1800,,,,,
72800868,1803,1796,1797,1803,,,,,
72803367,1806,1799,1800,1806,,,,,
72805866,1809,1803,1803,1809,,,,,
72808365,1812,1806,1806,1812,,,,,
72810864,1815,1809,1809,1815,,,,,
72813363,1818,1812,1812,1819,,,,,
72815862,1821,1815,1815,1822,,,,,
72818361,1824,1818,1819,1825,,,,,
72820860,1827,1821,1822,1828,,,,,
72823359,1830,1825,1825,1831,,,,,
72825858,1834,1828,1828,1834,,,,,
72828357,1837,1831,1831,1837,,,,,
72830856,1840,1834,1834,1840,,,,,
72833355,1843,1837,1837,1843,,,,,
72835854,1846,1840,1840,1846,,,,,
72838353,1849,1843,1843,1849,,,,,
72840852,1852,1846,1846,1852,,,,,
72843351,1855,1849,1849,1855,,,,,
72845850,1858,1852,1852,1858,,,,,
72848349,1861,1855,1855,1861,,,,,
72850848,1864,1858,1858,1864,,,,,
72853347,1867,1861,1861,1867,,,,,
72855846,1870,1864,1864,1870,,,,,
72858345,1873,1867,1867,1873,,,,,
72860844,1876,1870,1870,1876,,,,,
72863343,1879,1873,1873,1879,,,,,
72865842,1882,1876,1876,1882,,,,,
72868341,1885,1879,1879,1885,,,,,
72870840,1887,1882,1882,1888,,,,,
72873339,1890,1884,1885,1891,,,,,
72875838,1893,1887,1887,1894,,,,,
72878337,1896,1890,1890,1897,,,,,
72880836,1899,1893,1893,1900,,,,,
72883335,1902,1896,1896,1903,,,,,
72885834,1905,1899,1899,1905,,,,,
72888333,1908,1902,1902,1908,,,,,
72890832,1911,1904,1905,1911,,,,,
72893331,1914,1907,1908,1914,,,,,
72895830,1917,1910,1911,1917,,,,,
72898329,1917,1910,1911,1917,,,,,
72900828,1916,1910,1910,1916,,,,,
72903327,1915,1909,1909,1916,,,,,
72905826,1915,1908,1908,1915,,,,,
72908325,1914,1907,1908,1914,,,,,
72910824,1913,1906,1907,1913,,,,,
72913323,1912,1906,1906,1913,,,,,
72915822,1912,1905,1906,1912,,,,,
72918321,1911,1904,1905,1911,,,,,
72920820,1911,1904,1904,1911,,,,,
72923319,1910,1903,1904,1910,,,,,
72925818,1910,1903,1903,1910,,,,,
72928317,1909,1902,1903,1909,,,,,
72930816,1909,1902,1903,1909,,,,,
72933315,1909,1902,1903,1909,,,,,
72935814,1909,1902,1903,1909,,,,,
72938313,1908,1902,1903,1909,,,,,
72940812,1908,1902,1903,1908,,,,,
72943311,1908,1902,1903,1908,,,,,
72945810,1908,1902,1903,1908,,,,,
72948309,1908,1902,1903,1908,,,,,
72950808,1907,1902,1902,1907,,,,,
72953307,1907,1902,1902,1907,,,,,
72955806,1906,1901,1902,1907,,,,,
72958305,1906,1901,1901,1906,,,,,
72960804,1905,1900,1901,1905,,,,,
72963303,1904,1899,1900,1904,,,,,
72965802,1903,1899,1899,1903,,,,,
72968301,1902,1897,1898,1902,,,,,
72970800,1901,1896,1897,1901,,,,,
72973299,1899,1895,1895,1899,,,,,
72975798,1898,1893,1894,1898,,,,,
72978297,1896,1892,1893,1896,,,,,
72980796,1893,1891,1891,1894,,,,,
72983295,1891,1889,1889,1891,,,,,
72985794,1889,1887,1887,1889,,,,,
72988293,1886,1884,1885,1887,,,,,
72990792,1884,1882,1882,1884,,,,,
72993291,1881,1879,1879,1881,,,,,
72995790,1878,1876,1877,1879,,,,,
72998289,1875,1873,1874,1876,,,,,
73000788,1872,1870,1871,1873,,,,,
73003287,1869,1867,1867,1870,,,,,
73005786,1866,1864,1864,1867,,,,,
73008285,1863,1861,1861,1864,,,,,
73010784,1860,1858,1858,1861,,,,,
73013283,1856,1854,1854,1857,,,,,
73015782,1853,1851,1851,1854,,,,,
73018281,1850,1848,1847,1851,,,,,
73020780,1846,1845,1844,1848,,,,,
73023279,1843,1841,1841,1844,,,,,
73025778,1839,1838,1837,1841,,,,,
73028277,1836,1834,1834,1837,,,,,
73030776,1833,1831,1830,1834,,,,,
73033275,1829,1827,1827,1831,,,,,
73035774,1826,1824,1823,1827,,,,,
73038273,1822,1821,1820,1824,,,,,
73040772,1819,1817,1816,1820,,,,,
73043271,1815,1814,1812,1817,,,,,
73045770,1811,1810,1809,1813,,,,,
73048269,1808,1807,1805,1810,,,,,
73050768,1804,1803,1802,1806,,,,,
73053267,1801,1800,1798,1803,,,,,
73055766,1797,1796,1795,1799,,,,,
73058265,1794,1792,1791,1796,,,,,
73060764,1790,1789,1788,1792,,,,,
73063263,1787,1785,1784,1789,,,,,
73065762,1783,1782,1780,1785,,,,,
73068261,1780,1778,1777,1782,,,,,
73070760,1776,1775,1773,1779,,,,,
73073259,1773,1772,1770,1775,,,,,
73075758,1769,1768,1767,1772,,,,,
73078257,1766,1765,1763,1768,,,,,
73080756,1763,1761,1760,1765,,,,,
73083255,1759,1758,1756,1762,,,,,
73085754,1756,1755,1753,1758,,,,,
73088253,1752,1751,1750,1755,,,,,
73090752,1749,1748,1746,1752,,,,,
73093251,1746,1745,1743,1748,,,,,
73095750,1743,1742,1740,1745,,,,,
73098249,1739,1738,1736,1742,,,,,
73100748,1736,1735,1733,1739,,,,,
73103247,1733,1732,1730,1736,,,,,
73105746,1730,1729,1727,1733,,,,,
73108245,1727,1726,1724,1729,,,,,
73110744,1724,1723,1721,1726,,,,,
73113243,1721,1720,1718,1724,,,,,
73115742,1718,1717,1715,1721,,,,,
73118241,1715,1714,1712,1718,,,,,
73120740,1712,1712,1709,1715,,,,,
73123239,1709,1709,1706,1712,,,,,
73125738,1706,1706,1704,1709,,,,,
73128237,1703,1703,1701,1707,,,,,
73130736,1701,1701,1698,1704,,,,,
73133235,1698,1698,1696,1701,,,,,
73135734,1695,1696,1693,1699,,,,,
73138233,1693,1693,1691,1696,,,,,
73140732,1690,1691,1688,1693,,,,,
73143231,1688,1688,1686,1691,,,,,
73145730,1685,1686,1683,1688,,,,,
73148229,1683,1684,1681,1686,,,,,
73150728,1680,1681,1679,1684,,,,,
73153227,1678,1679,1676,1681,,,,,
73155726,1676,1677,1674,1679,,,,,
73158225,1674,1675,1672,1677,,,,,
73160724,1671,1673,1670,1675,,,,,
73163223,1669,1670,1668,1673,,,,,
73165722,1667,1668,1666,1670,,,,,
73168221,1665,1666,1664,1668,,,,,
73170720,1663,1665,1662,1666,,,,,
73173219,1661,1663,1660,1664,,,,,
73175718,1659,1661,1659,1663,,,,,
73178217,1657,1659,1657,1661,,,,,
73180716,1656,1657,1655,1659,,,,,
73183215,1654,1656,1653,1657,,,,,
73185714,1652,1654,1652,1655,,,,,
73188213,1651,1652,1650,1654,,,,,
73190712,1649,1651,1648,1652,,,,,
73193211,1647,1649,1647,1650,,,,,
73195710,1646,1648,1645,1649,,,,,
73198209,1644,1646,1644,1647,,,,,
73200708,1643,1645,1643,1646,,,,,
73203207,1641,1643,1641,1644,,,,,
73205706,1640,1642,1640,1643,,,,,
73208205,1639,1641,1639,1642,,,,,
73210704,1638,1640,1638,1640,,,,,
73213203,1636,1638,1636,1639,,,,,
73215702,1635,1637,1635,1638,,,,,
73218201,1634,1636,1634,1637,,,,,
73220700,1633,1635,1633,1636,,,,,
73223199,1632,1634,1632,1635,,,,,
73225698,1631,1633,1631,1634,,,,,
73228197,1630,1632,1630,1633,,,,,
73230696,1629,1631,1629,1632,,,,,
73233195,1628,1630,1629,1631,,,,,
