TimeUS,M1,M2,M3,M4,TimeUS,C1,C2,C3,C4
44286445,1000,1000,1000,1000,44328928,1000,1000,1000,1000
44288944,1000,1000,1000,1000,44428888,1000,1000,1000,1000
44291443,1000,1000,1000,1000,44528848,1000,1000,1000,1000
44293942,1000,1000,1000,1000,44628808,1000,1000,1000,1000
44296441,1000,1000,1000,1000,44728768,1000,1000,1000,1000
44298940,1000,1000,1000,1000,44828728,1000,1000,1000,1000
44301439,1000,1000,1000,1000,44928688,1000,1000,1000,1000
44303938,1000,1000,1000,1000,45028648,1000,1000,1000,1000
44306437,1000,1000,1000,1000,45128608,1000,1000,1000,1000
44308936,1000,1000,1000,1000,45228568,1000,1000,1000,1000
44311435,1000,1000,1000,1000,45328528,1000,1000,1000,1000
44313934,1000,1000,1000,1000,45428488,1000,1000,1000,1000
44316433,1000,1000,1000,1000,45528448,1000,1000,1000,1000
44318932,1000,1000,1000,1000,45628408,1000,1000,1000,1000
44321431,1000,1000,1000,1000,45728368,1000,1000,1000,1000
44323930,1000,1000,1000,1000,45828328,1000,1000,1000,1000
44326429,1000,1000,1000,1000,45928288,1000,1000,1000,1000
44328928,1000,1000,1000,1000,46028248,1000,1000,1000,1000
44331427,1000,1000,1000,1000,46128208,1000,1000,1000,1000
44333926,1000,1000,1000,1000,46228168,1000,1000,1000,1000
44336425,1000,1000,1000,1000,46328961,1012,1012,1012,1012
44338924,1000,1000,1000,1000,46428921,1042,1042,1042,1042
44341423,1000,1000,1000,1000,46528881,1072,1072,1072,1072
44343922,1000,1000,1000,1000,46628841,1102,1102,1102,1102
44346421,1000,1000,1000,1000,46728801,1132,1132,1132,1132
44348920,1000,1000,1000,1000,46828761,1268,1263,1263,1268
44351419,1000,1000,1000,1000,46928721,1481,1477,1477,1481
44353918,1000,1000,1000,1000,47028681,1644,1641,1641,1644
44356417,1000,1000,1000,1000,47128641,1782,1779,1779,1782
44358916,1000,1000,1000,1000,47228601,1903,1901,1900,1904
44361415,1000,1000,1000,1000,47328561,1880,1878,1879,1880
44363914,1000,1000,1000,1000,47428521,1754,1753,1754,1754
44366413,1000,1000,1000,1000,47528481,1653,1654,1654,1653
44368912,1000,1000,1000,1000,47628441,1620,1621,1621,1620
44371411,1000,1000,1000,1000,47728401,1623,1624,1624,1623
44373910,1000,1000,1000,1000,47828361,1631,1632,1632,1631
44376409,1000,1000,1000,1000,47928321,1629,1629,1629,1629
44378908,1000,1000,1000,1000,48028281,1623,1622,1622,1622
44381407,1000,1000,1000,1000,48128241,1615,1615,1615,1615
44383906,1000,1000,1000,1000,48228201,1611,1611,1610,1611
44386405,1000,1000,1000,1000,48328161,1610,1610,1609,1610
44388904,1000,1000,1000,1000,48428954,1611,1611,1611,1611
44391403,1000,1000,1000,1000,48528914,1613,1613,1613,1613
44393902,1000,1000,1000,1000,48628874,1615,1614,1615,1614
44396401,1000,1000,1000,1000,48728834,1616,1617,1617,1616
44398900,1000,1000,1000,1000,48828794,1619,1619,1620,1619
44401399,1000,1000,1000,1000,48928754,1602,1602,1602,1602
44403898,1000,1000,1000,1000,49028714,1582,1581,1582,1581
44406397,1000,1000,1000,1000,49128674,1569,1569,1569,1570
44408896,1000,1000,1000,1000,49228634,1559,1559,1559,1560
44411395,1000,1000,1000,1000,49328594,1550,1550,1549,1551
44413894,1000,1000,1000,1000,49428554,1541,1541,1540,1542
44416393,1000,1000,1000,1000,49528514,1532,1532,1531,1533
44418892,1000,1000,1000,1000,49628474,1521,1521,1521,1522
44421391,1000,1000,1000,1000,49728434,1513,1513,1513,1513
44423890,1000,1000,1000,1000,49828394,1508,1508,1508,1509
44426389,1000,1000,1000,1000,49928354,1507,1507,1506,1507
44428888,1000,1000,1000,1000,50028314,1505,1505,1505,1505
44431387,1000,1000,1000,1000,50128274,1503,1503,1502,1503
44433886,1000,1000,1000,1000,50228234,1501,1501,1500,1501
44436385,1000,1000,1000,1000,50328194,1501,1501,1500,1501
44438884,1000,1000,1000,1000,50428154,1501,1501,1501,1501
44441383,1000,1000,1000,1000,50528947,1500,1501,1500,1501
44443882,1000,1000,1000,1000,50628907,1517,1517,1519,1516
44446381,1000,1000,1000,1000,50728867,1540,1540,1547,1533
44448880,1000,1000,1000,1000,50828827,1550,1550,1553,1546
44451379,1000,1000,1000,1000,50928787,1557,1557,1556,1558
44453878,1000,1000,1000,1000,51028747,1562,1562,1558,1566
44456377,1000,1000,1000,1000,51128707,1565,1565,1560,1570
44458876,1000,1000,1000,1000,51228667,1567,1567,1563,1571
44461375,1000,1000,1000,1000,51328627,1569,1569,1567,1571
44463874,1000,1000,1000,1000,51428587,1571,1571,1572,1569
44466373,1000,1000,1000,1000,51528547,1574,1573,1576,1570
44468872,1000,1000,1000,1000,51628507,1574,1574,1577,1571
44471371,1000,1000,1000,1000,51728467,1574,1574,1576,1572
44473870,1000,1000,1000,1000,51828427,1574,1574,1574,1573
44476369,1000,1000,1000,1000,51928387,1572,1571,1571,1574
44478868,1000,1000,1000,1000,52028347,1565,1565,1575,1579
44481367,1000,1000,1000,1000,52128307,1563,1563,1573,1577
44483866,1000,1000,1000,1000,52228267,1566,1566,1573,1575
44486365,1000,1000,1000,1000,52328227,1568,1569,1572,1572
44488864,1000,1000,1000,1000,52428187,1569,1570,1569,1569
44491363,1000,1000,1000,1000,52528980,1571,1571,1568,1567
44493862,1000,1000,1000,1000,52628940,1572,1572,1567,1566
44496361,1000,1000,1000,1000,52728900,1573,1573,1566,1566
44498860,1000,1000,1000,1000,52828860,1574,1574,1567,1567
44501359,1000,1000,1000,1000,52928820,1574,1574,1567,1568
44503858,1000,1000,1000,1000,53028780,1574,1574,1568,1569
44506357,1000,1000,1000,1000,53128740,1574,1573,1570,1570
44508856,1000,1000,1000,1000,53228700,1574,1574,1572,1572
44511355,1000,1000,1000,1000,53328660,1574,1573,1574,1573
44513854,1000,1000,1000,1000,53428620,1573,1574,1576,1574
44516353,1000,1000,1000,1000,53528580,1573,1574,1576,1575
44518852,1000,1000,1000,1000,53628540,1574,1575,1577,1576
44521351,1000,1000,1000,1000,53728500,1574,1574,1577,1576
44523850,1000,1000,1000,1000,53828460,1574,1574,1577,1576
44526349,1000,1000,1000,1000,53928420,1574,1574,1576,1576
44528848,1000,1000,1000,1000,54028380,1575,1575,1577,1577
44531347,1000,1000,1000,1000,54128340,1576,1575,1576,1577
44533846,1000,1000,1000,1000,54228300,1577,1576,1577,1577
44536345,1000,1000,1000,1000,54328260,1576,1576,1576,1576
44538844,1000,1000,1000,1000,54428220,1577,1578,1577,1577
44541343,1000,1000,1000,1000,54528180,1577,1576,1575,1575
44543842,1000,1000,1000,1000,54628973,1579,1579,1578,1577
44546341,1000,1000,1000,1000,54728933,1578,1578,1577,1577
44548840,1000,1000,1000,1000,54828893,1578,1578,1578,1577
44551339,1000,1000,1000,1000,54928853,1578,1579,1578,1578
44553838,1000,1000,1000,1000,55028813,1579,1579,1578,1578
44556337,1000,1000,1000,1000,55128773,1578,1578,1578,1578
44558836,1000,1000,1000,1000,55228733,1579,1579,1579,1579
44561335,1000,1000,1000,1000,55328693,1579,1579,1579,1579
44563834,1000,1000,1000,1000,55428653,1578,1579,1579,1579
44566333,1000,1000,1000,1000,55528613,1580,1579,1580,1580
44568832,1000,1000,1000,1000,55628573,1578,1579,1579,1579
44571331,1000,1000,1000,1000,55728533,1579,1579,1580,1580
44573830,1000,1000,1000,1000,55828493,1579,1579,1579,1580
44576329,1000,1000,1000,1000,55928453,1580,1580,1580,1580
44578828,1000,1000,1000,1000,56028413,1580,1580,1580,1580
44581327,1000,1000,1000,1000,56128373,1580,1580,1580,1579
44583826,1000,1000,1000,1000,56228333,1580,1580,1580,1580
44586325,1000,1000,1000,1000,56328293,1580,1580,1580,1581
44588824,1000,1000,1000,1000,56428253,1580,1580,1580,1580
44591323,1000,1000,1000,1000,56528213,1580,1580,1580,1579
44593822,1000,1000,1000,1000,56628173,1580,1580,1580,1580
44596321,1000,1000,1000,1000,56728966,1580,1581,1580,1580
44598820,1000,1000,1000,1000,56828926,1581,1581,1581,1581
44601319,1000,1000,1000,1000,56928886,1581,1580,1581,1580
44603818,1000,1000,1000,1000,57028846,1581,1581,1581,1581
44606317,1000,1000,1000,1000,57128806,1581,1580,1580,1581
44608816,1000,1000,1000,1000,57228766,1580,1580,1580,1580
44611315,1000,1000,1000,1000,57328726,1581,1581,1581,1581
44613814,1000,1000,1000,1000,57428686,1580,1580,1580,1580
44616313,1000,1000,1000,1000,57528646,1580,1580,1580,1580
44618812,1000,1000,1000,1000,57628606,1580,1580,1581,1580
44621311,1000,1000,1000,1000,57728566,1580,1580,1581,1580
44623810,1000,1000,1000,1000,57828526,1581,1581,1581,1581
44626309,1000,1000,1000,1000,57928486,1580,1580,1580,1580
44628808,1000,1000,1000,1000,58028446,1580,1580,1580,1580
44631307,1000,1000,1000,1000,58128406,1581,1581,1581,1581
44633806,1000,1000,1000,1000,58228366,1581,1581,1586,1576
44636305,1000,1000,1000,1000,58328326,1581,1583,1587,1574
44638804,1000,1000,1000,1000,58428286,1578,1582,1579,1573
44641303,1000,1000,1000,1000,58528246,1577,1580,1570,1572
44643802,1000,1000,1000,1000,58628206,1576,1579,1563,1569
44646301,1000,1000,1000,1000,58728166,1578,1579,1558,1566
44648800,1000,1000,1000,1000,58828959,1580,1578,1557,1561
44651299,1000,1000,1000,1000,58928919,1580,1579,1557,1557
44653798,1000,1000,1000,1000,59028879,1580,1578,1557,1555
44656297,1000,1000,1000,1000,59128839,1579,1577,1556,1554
44658796,1000,1000,1000,1000,59228799,1578,1578,1556,1554
44661295,1000,1000,1000,1000,59328759,1576,1577,1556,1554
44663794,1000,1000,1000,1000,59428719,1576,1578,1556,1555
44666293,1000,1000,1000,1000,59528679,1575,1576,1553,1554
44668792,1000,1000,1000,1000,59628639,1575,1577,1552,1552
44671291,1000,1000,1000,1000,59728599,1576,1577,1551,1551
44673790,1000,1000,1000,1000,59828559,1577,1578,1548,1548
44676289,1000,1000,1000,1000,59928519,1580,1580,1546,1546
44678788,1000,1000,1000,1000,60028479,1583,1583,1544,1544
44681287,1000,1000,1000,1000,60128439,1586,1587,1542,1542
44683786,1000,1000,1000,1000,60228399,1589,1590,1540,1539
44686285,1000,1000,1000,1000,60328359,1591,1592,1537,1536
44688784,1000,1000,1000,1000,60428319,1593,1594,1535,1535
44691283,1000,1000,1000,1000,60528279,1594,1593,1535,1535
44693782,1000,1000,1000,1000,60628239,1594,1594,1535,1537
44696281,1000,1000,1000,1000,60728199,1593,1592,1538,1541
44698780,1000,1000,1000,1000,60828159,1589,1588,1541,1544
44701279,1000,1000,1000,1000,60928952,1585,1582,1548,1551
44703778,1000,1000,1000,1000,61028912,1578,1575,1558,1561
44706277,1000,1000,1000,1000,61128872,1569,1565,1569,1571
44708776,1000,1000,1000,1000,61228832,1558,1555,1581,1583
44711275,1000,1000,1000,1000,61328792,1548,1545,1594,1594
44713774,1000,1000,1000,1000,61428752,1538,1537,1604,1603
44716273,1000,1000,1000,1000,61528712,1532,1532,1610,1610
44718772,1000,1000,1000,1000,61628672,1530,1531,1615,1613
44721271,1000,1000,1000,1000,61728632,1531,1533,1614,1613
44723770,1000,1000,1000,1000,61828592,1535,1537,1611,1611
44726269,1000,1000,1000,1000,61928552,1542,1543,1606,1606
44728768,1000,1000,1000,1000,62028512,1549,1550,1598,1598
44731267,1000,1000,1000,1000,62128472,1558,1559,1591,1591
44733766,1000,1000,1000,1000,62228432,1568,1568,1585,1584
44736265,1000,1000,1000,1000,62328392,1574,1574,1577,1577
44738764,1000,1000,1000,1000,62428352,1580,1579,1572,1572
44741263,1000,1000,1000,1000,62528312,1584,1583,1568,1568
44743762,1000,1000,1000,1000,62628272,1587,1586,1567,1567
44746261,1000,1000,1000,1000,62728232,1587,1585,1566,1566
44748760,1000,1000,1000,1000,62828192,1586,1585,1567,1568
44751259,1000,1000,1000,1000,62928985,1584,1584,1569,1569
44753758,1000,1000,1000,1000,63028945,1581,1582,1572,1572
44756257,1000,1000,1000,1000,63128905,1578,1578,1574,1574
44758756,1000,1000,1000,1000,63228865,1575,1575,1577,1576
44761255,1000,1000,1000,1000,63328825,1573,1574,1580,1579
44763754,1000,1000,1000,1000,63428785,1572,1572,1581,1581
44766253,1000,1000,1000,1000,63528745,1571,1572,1581,1582
44768752,1000,1000,1000,1000,63628705,1571,1572,1582,1582
44771251,1000,1000,1000,1000,63728665,1572,1572,1582,1582
44773750,1000,1000,1000,1000,63828625,1573,1573,1581,1582
44776249,1000,1000,1000,1000,63928585,1575,1576,1582,1582
44778748,1000,1000,1000,1000,64028545,1577,1577,1581,1581
44781247,1000,1000,1000,1000,64128505,1578,1578,1580,1580
44783746,1000,1000,1000,1000,64228465,1579,1579,1579,1579
44786245,1000,1000,1000,1000,64328425,1581,1581,1578,1578
44788744,1000,1000,1000,1000,64428385,1581,1581,1577,1578
44791243,1000,1000,1000,1000,64528345,1582,1582,1577,1578
44793742,1000,1000,1000,1000,64628305,1582,1581,1577,1577
44796241,1000,1000,1000,1000,64728265,1582,1581,1577,1578
44798740,1000,1000,1000,1000,64828225,1581,1581,1578,1578
44801239,1000,1000,1000,1000,64928185,1581,1581,1579,1579
44803738,1000,1000,1000,1000,65028978,1581,1580,1579,1579
44806237,1000,1000,1000,1000,65128938,1579,1579,1579,1579
44808736,1000,1000,1000,1000,65228898,1579,1580,1580,1580
44811235,1000,1000,1000,1000,65328858,1579,1580,1581,1581
44813734,1000,1000,1000,1000,65428818,1578,1579,1581,1580
44816233,1000,1000,1000,1000,65528778,1579,1579,1581,1580
44818732,1000,1000,1000,1000,65628738,1580,1580,1582,1581
44821231,1000,1000,1000,1000,65728698,1581,1581,1582,1582
44823730,1000,1000,1000,1000,65828658,1580,1580,1581,1581
44826229,1000,1000,1000,1000,65928618,1580,1580,1580,1580
44828728,1000,1000,1000,1000,66028578,1582,1581,1581,1582
44831227,1000,1000,1000,1000,66128538,1581,1581,1581,1581
44833726,1000,1000,1000,1000,66228498,1581,1582,1584,1577
44836225,1000,1000,1000,1000,66328458,1580,1583,1586,1571
44838724,1000,1000,1000,1000,66428418,1580,1583,1579,1571
44841223,1000,1000,1000,1000,66528378,1580,1583,1570,1571
44843722,1000,1000,1000,1000,66628338,1579,1581,1562,1568
44846221,1000,1000,1000,1000,66728298,1579,1580,1556,1563
44848720,1000,1000,1000,1000,66828258,1580,1580,1553,1558
44851219,1000,1000,1000,1000,66928218,1581,1579,1552,1555
44853718,1000,1000,1000,1000,67028178,1581,1580,1553,1553
44856217,1000,1000,1000,1000,67128971,1581,1580,1555,1552
44858716,1000,1000,1000,1000,67228931,1579,1579,1555,1552
44861215,1000,1000,1000,1000,67328891,1579,1580,1556,1554
44863714,1000,1000,1000,1000,67428851,1577,1578,1554,1553
44866213,1000,1000,1000,1000,67528811,1575,1577,1552,1553
44868712,1000,1000,1000,1000,67628771,1576,1578,1552,1552
44871211,1000,1000,1000,1000,67728731,1577,1578,1551,1551
44873710,1000,1000,1000,1000,67828691,1579,1580,1550,1550
44876209,1000,1000,1000,1000,67928651,1581,1581,1548,1547
44878708,1000,1000,1000,1000,68028611,1584,1584,1546,1546
44881207,1000,1000,1000,1000,68128571,1585,1585,1543,1543
44883706,1000,1000,1000,1000,68228531,1587,1588,1541,1542
44886205,1000,1000,1000,1000,68328491,1589,1590,1540,1540
44888704,1000,1000,1000,1000,68428451,1591,1592,1539,1540
44891203,1000,1000,1000,1000,68528411,1593,1593,1539,1541
44893702,1000,1000,1000,1000,68628371,1593,1592,1541,1543
44896201,1000,1000,1000,1000,68728331,1590,1588,1545,1548
44898700,1000,1000,1000,1000,68828291,1585,1582,1552,1555
44901199,1000,1000,1000,1000,68928251,1578,1574,1561,1564
44903698,1000,1000,1000,1000,69028211,1569,1565,1572,1574
44906197,1000,1000,1000,1000,69128171,1558,1555,1583,1584
44908696,1000,1000,1000,1000,69228964,1549,1547,1593,1594
44911195,1000,1000,1000,1000,69328924,1541,1541,1602,1601
44913694,1000,1000,1000,1000,69428884,1537,1537,1608,1607
44916193,1000,1000,1000,1000,69528844,1535,1537,1611,1610
44918692,1000,1000,1000,1000,69628804,1537,1539,1610,1609
44921191,1000,1000,1000,1000,69728764,1541,1543,1607,1607
44923690,1000,1000,1000,1000,69828724,1547,1548,1602,1601
44926189,1000,1000,1000,1000,69928684,1555,1556,1597,1596
44928688,1000,1000,1000,1000,70028644,1562,1563,1590,1589
44931187,1000,1000,1000,1000,70128604,1570,1570,1584,1584
44933686,1000,1000,1000,1000,70228564,1577,1576,1578,1578
44936185,1000,1000,1000,1000,70328524,1581,1580,1573,1573
44938684,1000,1000,1000,1000,70428484,1584,1583,1570,1571
44941183,1000,1000,1000,1000,70528444,1585,1584,1568,1568
44943682,1000,1000,1000,1000,70628404,1585,1584,1568,1568
44946181,1000,1000,1000,1000,70728364,1586,1585,1570,1571
44948680,1000,1000,1000,1000,70828324,1584,1583,1572,1572
44951179,1000,1000,1000,1000,70928284,1581,1581,1574,1574
44953678,1000,1000,1000,1000,71028244,1578,1579,1577,1577
44956177,1000,1000,1000,1000,71128204,1576,1576,1578,1579
44958676,1000,1000,1000,1000,71228164,1574,1575,1581,1581
44961175,1000,1000,1000,1000,71328957,1574,1575,1583,1583
44963674,1000,1000,1000,1000,71428917,1573,1573,1583,1583
44966173,1000,1000,1000,1000,71528877,1573,1573,1583,1583
44968672,1000,1000,1000,1000,71628837,1573,1573,1582,1583
44971171,1000,1000,1000,1000,71728797,1574,1575,1582,1582
44973670,1000,1000,1000,1000,71828757,1575,1575,1581,1581
44976169,1000,1000,1000,1000,71928717,1576,1577,1580,1580
44978668,1000,1000,1000,1000,72028677,1577,1577,1579,1578
44981167,1000,1000,1000,1000,72128637,1579,1579,1579,1578
44983666,1000,1000,1000,1000,72228597,1580,1580,1578,1578
44986165,1000,1000,1000,1000,72328557,1580,1581,1577,1578
44988664,1000,1000,1000,1000,72428517,1580,1581,1577,1577
44991163,1000,1000,1000,1000,72528477,1582,1582,1579,1579
44993662,1000,1000,1000,1000,72628437,1582,1582,1579,1579
44996161,1000,1000,1000,1000,72728397,1581,1580,1578,1578
44998660,1000,1000,1000,1000,72828357,1581,1580,1579,1579
45001159,1000,1000,1000,1000,72928317,1581,1580,1580,1580
45003658,1000,1000,1000,1000,73028277,1580,1580,1581,1580
45006157,1000,1000,1000,1000,73128237,1580,1581,1581,1581
45008656,1000,1000,1000,1000,73228197,1580,1581,1582,1582
45011155,1000,1000,1000,1000,73328157,1581,1580,1582,1582
45013654,1000,1000,1000,1000,73428950,1580,1580,1582,1582
45016153,1000,1000,1000,1000,73528910,1580,1580,1581,1582
45018652,1000,1000,1000,1000,73628870,1581,1581,1582,1582
45021151,1000,1000,1000,1000,73728830,1580,1579,1581,1580
45023650,1000,1000,1000,1000,73828790,1580,1581,1581,1581
45026149,1000,1000,1000,1000,73928750,1581,1581,1581,1581
45028648,1000,1000,1000,1000,74028710,1581,1581,1581,1581
45031147,1000,1000,1000,1000,74128670,1581,1581,1580,1580
45033646,1000,1000,1000,1000,74228630,1582,1582,1581,1581
45036145,1000,1000,1000,1000,74328590,1582,1582,1581,1582
45038644,1000,1000,1000,1000,74428550,1581,1582,1586,1576
45041143,1000,1000,1000,1000,74528510,1580,1583,1586,1572
45043642,1000,1000,1000,1000,74628470,1580,1582,1579,1573
45046141,1000,1000,1000,1000,74728430,1579,1581,1570,1572
45048640,1000,1000,1000,1000,74828390,1577,1579,1562,1568
45051139,1000,1000,1000,1000,74928350,1577,1579,1557,1564
45053638,1000,1000,1000,1000,75028310,1578,1578,1555,1559
45056137,1000,1000,1000,1000,75128270,1578,1577,1554,1555
45058636,1000,1000,1000,1000,75228230,1579,1578,1555,1554
45061135,1000,1000,1000,1000,75328190,1578,1577,1555,1553
45063634,1000,1000,1000,1000,75428983,1578,1578,1556,1554
45066133,1000,1000,1000,1000,75528943,1577,1577,1556,1554
45068632,1000,1000,1000,1000,75628903,1575,1576,1554,1554
45071131,1000,1000,1000,1000,75728863,1574,1576,1553,1553
45073630,1000,1000,1000,1000,75828823,1575,1577,1552,1552
45076129,1000,1000,1000,1000,75928783,1576,1577,1551,1551
45078628,1000,1000,1000,1000,76028743,1578,1579,1550,1550
45081127,1000,1000,1000,1000,76128703,1580,1581,1547,1548
45083626,1000,1000,1000,1000,76228663,1582,1584,1545,1544
45086125,1000,1000,1000,1000,76328623,1585,1586,1542,1542
45088624,1000,1000,1000,1000,76428583,1587,1588,1539,1539
45091123,1000,1000,1000,1000,76528543,1590,1590,1538,1538
45093622,1000,1000,1000,1000,76628503,1592,1592,1537,1538
45096121,1000,1000,1000,1000,76728463,1594,1594,1537,1539
45098620,1000,1000,1000,1000,76828423,1594,1594,1538,1540
45101119,1000,1000,1000,1000,76928383,1593,1593,1540,1543
45103618,1000,1000,1000,1000,77028343,1590,1588,1545,1547
45106117,1000,1000,1000,1000,77128303,1585,1581,1553,1555
45108616,1000,1000,1000,1000,77228263,1577,1573,1563,1564
45111115,1000,1000,1000,1000,77328223,1568,1564,1574,1576
45113614,1000,1000,1000,1000,77428183,1557,1554,1585,1587
45116113,1000,1000,1000,1000,77528976,1547,1545,1597,1597
45118612,1000,1000,1000,1000,77628936,1539,1538,1605,1605
45121111,1000,1000,1000,1000,77728896,1533,1534,1611,1610
45123610,1000,1000,1000,1000,77828856,1532,1535,1614,1612
45126109,1000,1000,1000,1000,77928816,1535,1537,1613,1612
45128608,1000,1000,1000,1000,78028776,1539,1540,1608,1608
45131107,1000,1000,1000,1000,78128736,1546,1547,1603,1603
45133606,1000,1000,1000,1000,78228696,1554,1555,1596,1596
45136105,1000,1000,1000,1000,78328656,1562,1562,1589,1589
45138604,1000,1000,1000,1000,78428616,1569,1569,1582,1582
45141103,1000,1000,1000,1000,78528576,1576,1576,1577,1576
45143602,1000,1000,1000,1000,78628536,1582,1581,1573,1572
45146101,1000,1000,1000,1000,78728496,1586,1584,1569,1570
45148600,1000,1000,1000,1000,78828456,1587,1585,1567,1567
45151099,1000,1000,1000,1000,78928416,1588,1586,1568,1568
45153598,1000,1000,1000,1000,79028376,1587,1586,1570,1570
45156097,1000,1000,1000,1000,79128336,1584,1583,1571,1571
45158596,1000,1000,1000,1000,79228296,1581,1580,1573,1573
45161095,1000,1000,1000,1000,79328256,1578,1578,1577,1576
45163594,1000,1000,1000,1000,79428216,1575,1577,1579,1579
45166093,1000,1000,1000,1000,79528176,1573,1574,1580,1580
45168592,1000,1000,1000,1000,79628969,1573,1574,1583,1583
45171091,1000,1000,1000,1000,79728929,1571,1572,1582,1582
45173590,1000,1000,1000,1000,79828889,1572,1573,1583,1583
45176089,1000,1000,1000,1000,79928849,1573,1573,1582,1582
45178588,1000,1000,1000,1000,80028809,1573,1573,1581,1581
45181087,1000,1000,1000,1000,80128769,1575,1575,1580,1580
45183586,1000,1000,1000,1000,80228729,1578,1578,1581,1581
45186085,1000,1000,1000,1000,80328689,1577,1578,1578,1578
45188584,1000,1000,1000,1000,80428649,1580,1580,1579,1579
45191083,1000,1000,1000,1000,80528609,1581,1581,1579,1578
45193582,1000,1000,1000,1000,80628569,1582,1582,1578,1578
45196081,1000,1000,1000,1000,80728529,1581,1581,1577,1577
45198580,1000,1000,1000,1000,80828489,1582,1582,1578,1578
45201079,1000,1000,1000,1000,80928449,1581,1581,1577,1578
45203578,1000,1000,1000,1000,81028409,1580,1580,1577,1577
45206077,1000,1000,1000,1000,81128369,1580,1580,1579,1579
45208576,1000,1000,1000,1000,81228329,1580,1580,1580,1579
45211075,1000,1000,1000,1000,81328289,1580,1581,1581,1580
45213574,1000,1000,1000,1000,81428249,1580,1581,1582,1581
45216073,1000,1000,1000,1000,81528209,1579,1579,1580,1580
45218572,1000,1000,1000,1000,81628169,1580,1579,1581,1581
45221071,1000,1000,1000,1000,81728962,1579,1579,1580,1581
45223570,1000,1000,1000,1000,81828922,1580,1580,1581,1581
45226069,1000,1000,1000,1000,81928882,1580,1580,1581,1581
45228568,1000,1000,1000,1000,82028842,1580,1580,1580,1581
45231067,1000,1000,1000,1000,82128802,1581,1580,1581,1581
45233566,1000,1000,1000,1000,82228762,1580,1580,1580,1580
45236065,1000,1000,1000,1000,82328722,1580,1581,1581,1580
45238564,1000,1000,1000,1000,82428682,1582,1583,1588,1573
45241063,1000,1000,1000,1000,82528642,1581,1581,1585,1573
45243562,1000,1000,1000,1000,82628602,1578,1578,1578,1575
45246061,1000,1000,1000,1000,82728562,1575,1574,1571,1575
45248560,1000,1000,1000,1000,82828522,1571,1571,1566,1573
45251059,1000,1000,1000,1000,82928482,1569,1568,1564,1571
45253558,1000,1000,1000,1000,83028442,1567,1567,1565,1568
45256057,1000,1000,1000,1000,83128402,1567,1566,1567,1566
45258556,1000,1000,1000,1000,83228362,1566,1566,1567,1565
45261055,1000,1000,1000,1000,83328322,1565,1564,1566,1564
45263554,1000,1000,1000,1000,83428282,1564,1564,1566,1564
45266053,1000,1000,1000,1000,83528242,1563,1563,1564,1564
45268552,1000,1000,1000,1000,83628202,1562,1562,1563,1563
45271051,1000,1000,1000,1000,83728162,1563,1563,1564,1564
45273550,1000,1000,1000,1000,83828955,1562,1562,1563,1562
45276049,1000,1000,1000,1000,83928915,1562,1561,1562,1562
45278548,1000,1000,1000,1000,84028875,1562,1562,1562,1561
45281047,1000,1000,1000,1000,84128835,1561,1562,1562,1561
45283546,1000,1000,1000,1000,84228795,1561,1561,1561,1560
45286045,1000,1000,1000,1000,84328755,1559,1559,1559,1559
45288544,1000,1000,1000,1000,84428715,1558,1558,1559,1558
45291043,1000,1000,1000,1000,84528675,1558,1557,1557,1557
45293542,1000,1000,1000,1000,84628635,1559,1558,1559,1558
45296041,1000,1000,1000,1000,84728595,1558,1558,1558,1557
45298540,1000,1000,1000,1000,84828555,1558,1558,1558,1556
45301039,1000,1000,1000,1000,84928515,1557,1557,1558,1556
45303538,1000,1000,1000,1000,85028475,1557,1557,1559,1556
45306037,1000,1000,1000,1000,85128435,1557,1557,1559,1556
45308536,1000,1000,1000,1000,85228395,1558,1558,1558,1559
45311035,1000,1000,1000,1000,85328355,1559,1559,1557,1562
45313534,1000,1000,1000,1000,85428315,1560,1560,1556,1564
45316033,1000,1000,1000,1000,85528275,1561,1561,1558,1564
45318532,1000,1000,1000,1000,85628235,1563,1563,1561,1565
45321031,1000,1000,1000,1000,85728195,1563,1563,1562,1563
45323530,1000,1000,1000,1000,85828155,1562,1562,1563,1561
45326029,1000,1000,1000,1000,85928948,1561,1561,1564,1559
45328528,1000,1000,1000,1000,86028908,1560,1561,1560,1561
45331027,1000,1000,1000,1000,86128868,1559,1559,1556,1561
45333526,1000,1000,1000,1000,86228828,1554,1554,1552,1556
45336025,1000,1000,1000,1000,86328788,1549,1549,1548,1550
45338524,1000,1000,1000,1000,86428748,1543,1543,1543,1543
45341023,1000,1000,1000,1000,86528708,1536,1536,1536,1535
45343522,1000,1000,1000,1000,86628668,1528,1528,1529,1527
45346021,1000,1000,1000,1000,86728628,1522,1522,1522,1521
45348520,1000,1000,1000,1000,86828588,1519,1519,1519,1519
45351019,1000,1000,1000,1000,86928548,1520,1520,1519,1520
45353518,1000,1000,1000,1000,87028508,1521,1521,1521,1522
45356017,1000,1000,1000,1000,87128468,1523,1524,1523,1524
45358516,1000,1000,1000,1000,87228428,1528,1528,1528,1528
45361015,1000,1000,1000,1000,87328388,1532,1532,1532,1532
45363514,1000,1000,1000,1000,87428348,1537,1537,1537,1537
45366013,1000,1000,1000,1000,87528308,1540,1540,1540,1540
45368512,1000,1000,1000,1000,87628268,1542,1542,1543,1542
45371011,1000,1000,1000,1000,87728228,1543,1543,1543,1543
45373510,1000,1000,1000,1000,87828188,1545,1545,1545,1544
45376009,1000,1000,1000,1000,87928981,1546,1545,1545,1545
45378508,1000,1000,1000,1000,88028941,1546,1546,1546,1546
45381007,1000,1000,1000,1000,88128901,1546,1547,1546,1547
45383506,1000,1000,1000,1000,88228861,1547,1547,1547,1547
45386005,1000,1000,1000,1000,88328821,1547,1547,1547,1546
45388504,1000,1000,1000,1000,88428781,1546,1546,1546,1546
45391003,1000,1000,1000,1000,88528741,1545,1546,1546,1545
45393502,1000,1000,1000,1000,88628701,1545,1545,1545,1545
45396001,1000,1000,1000,1000,88728661,1545,1545,1546,1545
45398500,1000,1000,1000,1000,88828621,1545,1545,1545,1545
45400999,1000,1000,1000,1000,88928581,1545,1544,1545,1544
45403498,1000,1000,1000,1000,89028541,1545,1545,1545,1545
45405997,1000,1000,1000,1000,89128501,1545,1545,1545,1545
45408496,1000,1000,1000,1000,89228461,1545,1546,1545,1545
45410995,1000,1000,1000,1000,89328421,1544,1544,1544,1545
45413494,1000,1000,1000,1000,89428381,1544,1545,1544,1544
45415993,1000,1000,1000,1000,89528341,1545,1544,1544,1544
45418492,1000,1000,1000,1000,89628301,1544,1544,1544,1544
45420991,1000,1000,1000,1000,89728261,1544,1543,1544,1543
45423490,1000,1000,1000,1000,89828221,1544,1544,1545,1544
45425989,1000,1000,1000,1000,89928181,1543,1543,1543,1543
45428488,1000,1000,1000,1000,90028974,1543,1543,1543,1542
45430987,1000,1000,1000,1000,90128934,1543,1543,1543,1543
45433486,1000,1000,1000,1000,90228894,1545,1544,1544,1545
45435985,1000,1000,1000,1000,90328854,1545,1544,1544,1545
45438484,1000,1000,1000,1000,90428814,1545,1544,1544,1544
45440983,1000,1000,1000,1000,90528774,1544,1544,1544,1544
45443482,1000,1000,1000,1000,90628734,1545,1545,1545,1544
45445981,1000,1000,1000,1000,90728694,1544,1544,1544,1544
45448480,1000,1000,1000,1000,90828654,1544,1544,1544,1544
45450979,1000,1000,1000,1000,90928614,1543,1543,1543,1544
45453478,1000,1000,1000,1000,91028574,1543,1543,1543,1543
45455977,1000,1000,1000,1000,91128534,1544,1543,1543,1544
45458476,1000,1000,1000,1000,91228494,1544,1544,1545,1544
45460975,1000,1000,1000,1000,91328454,1544,1544,1544,1544
45463474,1000,1000,1000,1000,91428414,1543,1543,1543,1543
45465973,1000,1000,1000,1000,91528374,1544,1544,1544,1544
45468472,1000,1000,1000,1000,91628334,1544,1544,1545,1545
45470971,1000,1000,1000,1000,91728294,1544,1544,1544,1544
45473470,1000,1000,1000,1000,91828254,1543,1544,1544,1544
45475969,1000,1000,1000,1000,91928214,1544,1544,1544,1544
45478468,1000,1000,1000,1000,92028174,1544,1544,1543,1544
45480967,1000,1000,1000,1000,92128967,1544,1543,1543,1543
45483466,1000,1000,1000,1000,92228927,1545,1545,1545,1544
45485965,1000,1000,1000,1000,92328887,1544,1544,1544,1544
45488464,1000,1000,1000,1000,92428847,1545,1545,1545,1545
45490963,1000,1000,1000,1000,92528807,1545,1545,1545,1545
45493462,1000,1000,1000,1000,92628767,1545,1545,1544,1545
45495961,1000,1000,1000,1000,92728727,1544,1544,1544,1544
45498460,1000,1000,1000,1000,92828687,1544,1544,1544,1544
45500959,1000,1000,1000,1000,92928647,1545,1544,1544,1544
45503458,1000,1000,1000,1000,93028607,1544,1544,1544,1544
45505957,1000,1000,1000,1000,93128567,1545,1545,1545,1545
45508456,1000,1000,1000,1000,93228527,1544,1545,1544,1545
45510955,1000,1000,1000,1000,93328487,1544,1545,1545,1545
45513454,1000,1000,1000,1000,93428447,1544,1544,1544,1544
45515953,1000,1000,1000,1000,93528407,1545,1544,1545,1545
45518452,1000,1000,1000,1000,93628367,1544,1544,1544,1545
45520951,1000,1000,1000,1000,93728327,1545,1545,1545,1545
45523450,1000,1000,1000,1000,93828287,1545,1544,1545,1544
45525949,1000,1000,1000,1000,93928247,1544,1544,1544,1544
45528448,1000,1000,1000,1000,94028207,1544,1544,1544,1543
45530947,1000,1000,1000,1000,94128167,1544,1544,1544,1544
45533446,1000,1000,1000,1000,94228960,1544,1544,1544,1544
45535945,1000,1000,1000,1000,94328920,1543,1544,1544,1544
45538444,1000,1000,1000,1000,94428880,1544,1545,1545,1544
45540943,1000,1000,1000,1000,94528840,1544,1544,1544,1544
45543442,1000,1000,1000,1000,94628800,1544,1543,1544,1544
45545941,1000,1000,1000,1000,94728760,1545,1544,1544,1544
45548440,1000,1000,1000,1000,94828720,1543,1543,1543,1543
45550939,1000,1000,1000,1000,94928680,1544,1544,1544,1544
45553438,1000,1000,1000,1000,95028640,1543,1544,1543,1543
45555937,1000,1000,1000,1000,95128600,1545,1544,1544,1544
45558436,1000,1000,1000,1000,95228560,1544,1544,1545,1544
45560935,1000,1000,1000,1000,95328520,1545,1545,1545,1545
45563434,1000,1000,1000,1000,95428480,1544,1544,1544,1544
45565933,1000,1000,1000,1000,95528440,1544,1544,1544,1544
45568432,1000,1000,1000,1000,95628400,1545,1545,1545,1545
45570931,1000,1000,1000,1000,95728360,1545,1545,1545,1545
45573430,1000,1000,1000,1000,95828320,1544,1544,1544,1544
45575929,1000,1000,1000,1000,95928280,1544,1544,1544,1544
45578428,1000,1000,1000,1000,96028240,1544,1544,1544,1544
45580927,1000,1000,1000,1000,96128200,1544,1544,1545,1544
45583426,1000,1000,1000,1000,96228160,1544,1545,1545,1544
45585925,1000,1000,1000,1000,96328953,1545,1544,1544,1545
45588424,1000,1000,1000,1000,96428913,1544,1544,1544,1544
45590923,1000,1000,1000,1000,96528873,1407,1407,1408,1407
45593422,1000,1000,1000,1000,96628833,1274,1272,1273,1272
45595921,1000,1000,1000,1000,96728793,1224,1222,1223,1223
45598420,1000,1000,1000,1000,96828753,1203,1202,1203,1202
45600919,1000,1000,1000,1000,96928713,1164,1163,1164,1163
45603418,1000,1000,1000,1000,97028673,1151,1150,1152,1150
45605917,1000,1000,1000,1000,97128633,1151,1150,1151,1150
45608416,1000,1000,1000,1000,97228593,1181,1150,1150,1181
45610915,1000,1000,1000,1000,97328553,1172,1150,1151,1172
45613414,1000,1000,1000,1000,97428513,1169,1150,1151,1167
45615913,1000,1000,1000,1000,97528473,1170,1150,1151,1168
45618412,1000,1000,1000,1000,97628433,1171,1150,1151,1170
45620911,1000,1000,1000,1000,97728393,1173,1150,1152,1172
45623410,1000,1000,1000,1000,97828353,1175,1150,1152,1173
45625909,1000,1000,1000,1000,97928313,1177,1150,1152,1175
45628408,1000,1000,1000,1000,98028273,1163,1150,1151,1162
45630907,1000,1000,1000,1000,98128233,1165,1150,1151,1164
45633406,1000,1000,1000,1000,98228193,1166,1150,1151,1165
45635905,1000,1000,1000,1000,98328986,1166,1150,1151,1165
45638404,1000,1000,1000,1000,98428946,1167,1150,1151,1166
45640903,1000,1000,1000,1000,98528906,1000,1000,1000,1000
45643402,1000,1000,1000,1000,98628866,1000,1000,1000,1000
45645901,1000,1000,1000,1000,98728826,1000,1000,1000,1000
45648400,1000,1000,1000,1000,98828786,1000,1000,1000,1000
45650899,1000,1000,1000,1000,98928746,1000,1000,1000,1000
45653398,1000,1000,1000,1000,99028706,1000,1000,1000,1000
45655897,1000,1000,1000,1000,99128666,1000,1000,1000,1000
45658396,1000,1000,1000,1000,99228626,1000,1000,1000,1000
45660895,1000,1000,1000,1000,99328586,1000,1000,1000,1000
45663394,1000,1000,1000,1000,99428546,1000,1000,1000,1000
45665893,1000,1000,1000,1000,99528506,1000,1000,1000,1000
45668392,1000,1000,1000,1000,99628466,1000,1000,1000,1000
45670891,1000,1000,1000,1000,99728426,1000,1000,1000,1000
45673390,1000,1000,1000,1000,99828386,1000,1000,1000,1000
45675889,1000,1000,1000,1000,99928346,1000,1000,1000,1000
45678388,1000,1000,1000,1000,100028306,1000,1000,1000,1000
45680887,1000,1000,1000,1000,100128266,1000,1000,1000,1000
45683386,1000,1000,1000,1000,100228226,1000,1000,1000,1000
45685885,1000,1000,1000,1000,100328186,1000,1000,1000,1000
45688384,1000,1000,1000,1000,100428979,1000,1000,1000,1000
45690883,1000,1000,1000,1000,100528939,1000,1000,1000,1000
45693382,1000,1000,1000,1000,100628899,1000,1000,1000,1000
45695881,1000,1000,1000,1000,100728859,1000,1000,1000,1000
45698380,1000,1000,1000,1000,100828819,1000,1000,1000,1000
45700879,1000,1000,1000,1000,100928779,1000,1000,1000,1000
45703378,1000,1000,1000,1000,101028739,1000,1000,1000,1000
45705877,1000,1000,1000,1000,101128699,1000,1000,1000,1000
45708376,1000,1000,1000,1000,101228659,1000,1000,1000,1000
45710875,1000,1000,1000,1000,101328619,1000,1000,1000,1000
45713374,1000,1000,1000,1000,101428579,1000,1000,1000,1000
45715873,1000,1000,1000,1000,101528539,1000,1000,1000,1000
45718372,1000,1000,1000,1000,101628499,1000,1000,1000,1000
45720871,1000,1000,1000,1000,101728459,1000,1000,1000,1000
45723370,1000,1000,1000,1000,101828419,1000,1000,1000,1000
45725869,1000,1000,1000,1000,101928379,1000,1000,1000,1000
45728368,1000,1000,1000,1000,102028339,1000,1000,1000,1000
45730867,1000,1000,1000,1000,102128299,1000,1000,1000,1000
45733366,1000,1000,1000,1000,102228259,1000,1000,1000,1000
45735865,1000,1000,1000,1000,102328219,1000,1000,1000,1000
45738364,1000,1000,1000,1000,102428179,1000,1000,1000,1000
45740863,1000,1000,1000,1000,102528972,1000,1000,1000,1000
45743362,1000,1000,1000,1000,102628932,1000,1000,1000,1000
45745861,1000,1000,1000,1000,102728892,1000,1000,1000,1000
45748360,1000,1000,1000,1000,102828852,1000,1000,1000,1000
45750859,1000,1000,1000,1000,102928812,1000,1000,1000,1000
45753358,1000,1000,1000,1000,103028772,1000,1000,1000,1000
45755857,1000,1000,1000,1000,103128732,1000,1000,1000,1000
45758356,1000,1000,1000,1000,103228692,1000,1000,1000,1000
45760855,1000,1000,1000,1000,103328652,1000,1000,1000,1000
45763354,1000,1000,1000,1000,103428612,1000,1000,1000,1000
45765853,1000,1000,1000,1000,103528572,1000,1000,1000,1000
45768352,1000,1000,1000,1000,103628532,1000,1000,1000,1000
45770851,1000,1000,1000,1000,103728492,1000,1000,1000,1000
45773350,1000,1000,1000,1000,103828452,1000,1000,1000,1000
45775849,1000,1000,1000,1000,103928412,1000,1000,1000,1000
45778348,1000,1000,1000,1000,104028372,1000,1000,1000,1000
45780847,1000,1000,1000,1000,104128332,1000,1000,1000,1000
45783346,1000,1000,1000,1000,104228292,1000,1000,1000,1000
45785845,1000,1000,1000,1000,104328252,1000,1000,1000,1000
45788344,1000,1000,1000,1000,104428212,1000,1000,1000,1000
45790843,1000,1000,1000,1000,104528172,1000,1000,1000,1000
45793342,1000,1000,1000,1000,104628965,1000,1000,1000,1000
45795841,1000,1000,1000,1000,104728925,1000,1000,1000,1000
45798340,1000,1000,1000,1000,104828885,1000,1000,1000,1000
45800839,1000,1000,1000,1000,104928845,1000,1000,1000,1000
45803338,1000,1000,1000,1000,105028805,1000,1000,1000,1000
45805837,1000,1000,1000,1000,105128765,1000,1000,1000,1000
45808336,1000,1000,1000,1000,105228725,1000,1000,1000,1000
45810835,1000,1000,1000,1000,105328685,1000,1000,1000,1000
45813334,1000,1000,1000,1000,105428645,1000,1000,1000,1000
45815833,1000,1000,1000,1000,105528605,1000,1000,1000,1000
45818332,1000,1000,1000,1000,105628565,1000,1000,1000,1000
45820831,1000,1000,1000,1000,105728525,1000,1000,1000,1000
45823330,1000,1000,1000,1000,105828485,1000,1000,1000,1000
45825829,1000,1000,1000,1000,105928445,1000,1000,1000,1000
45828328,1000,1000,1000,1000,106028405,1000,1000,1000,1000
45830827,1000,1000,1000,1000,106128365,1000,1000,1000,1000
45833326,1000,1000,1000,1000,106228325,1000,1000,1000,1000
45835825,1000,1000,1000,1000,106328285,1000,1000,1000,1000
45838324,1000,1000,1000,1000,,,,,
45840823,1000,1000,1000,1000,,,,,
45843322,1000,1000,1000,1000,,,,,
45845821,1000,1000,1000,1000,,,,,
45848320,1000,1000,1000,1000,,,,,
45850819,1000,1000,1000,1000,,,,,
45853318,1000,1000,1000,1000,,,,,
45855817,1000,1000,1000,1000,,,,,
45858316,1000,1000,1000,1000,,,,,
45860815,1000,1000,1000,1000,,,,,
45863314,1000,1000,1000,1000,,,,,
45865813,1000,1000,1000,1000,,,,,
45868312,1000,1000,1000,1000,,,,,
45870811,1000,1000,1000,1000,,,,,
45873310,1000,1000,1000,1000,,,,,
45875809,1000,1000,1000,1000,,,,,
45878308,1000,1000,1000,1000,,,,,
45880807,1000,1000,1000,1000,,,,,
45883306,1000,1000,1000,1000,,,,,
45885805,1000,1000,1000,1000,,,,,
45888304,1000,1000,1000,1000,,,,,
45890803,1000,1000,1000,1000,,,,,
45893302,1000,1000,1000,1000,,,,,
45895801,1000,1000,1000,1000,,,,,
45898300,1000,1000,1000,1000,,,,,
45900799,1000,1000,1000,1000,,,,,
45903298,1000,1000,1000,1000,,,,,
45905797,1000,1000,1000,1000,,,,,
45908296,1000,1000,1000,1000,,,,,
45910795,1000,1000,1000,1000,,,,,
45913294,1000,1000,1000,1000,,,,,
45915793,1000,1000,1000,1000,,,,,
45918292,1000,1000,1000,1000,,,,,
45920791,1000,1000,1000,1000,,,,,
45923290,1000,1000,1000,1000,,,,,
45925789,1000,1000,1000,1000,,,,,
45928288,1000,1000,1000,1000,,,,,
45930787,1000,1000,1000,1000,,,,,
45933286,1000,1000,1000,1000,,,,,
45935785,1000,1000,1000,1000,,,,,
45938284,1000,1000,1000,1000,,,,,
45940783,1000,1000,1000,1000,,,,,
45943282,1000,1000,1000,1000,,,,,
45945781,1000,1000,1000,1000,,,,,
45948280,1000,1000,1000,1000,,,,,
45950779,1000,1000,1000,1000,,,,,
45953278,1000,1000,1000,1000,,,,,
45955777,1000,1000,1000,1000,,,,,
45958276,1000,1000,1000,1000,,,,,
45960775,1000,1000,1000,1000,,,,,
45963274,1000,1000,1000,1000,,,,,
45965773,1000,1000,1000,1000,,,,,
45968272,1000,1000,1000,1000,,,,,
45970771,1000,1000,1000,1000,,,,,
45973270,1000,1000,1000,1000,,,,,
45975769,1000,1000,1000,1000,,,,,
45978268,1000,1000,1000,1000,,,,,
45980767,1000,1000,1000,1000,,,,,
45983266,1000,1000,1000,1000,,,,,
45985765,1000,1000,1000,1000,,,,,
45988264,1000,1000,1000,1000,,,,,
45990763,1000,1000,1000,1000,,,,,
45993262,1000,1000,1000,1000,,,,,
45995761,1000,1000,1000,1000,,,,,
45998260,1000,1000,1000,1000,,,,,
46000759,1000,1000,1000,1000,,,,,
46003258,1000,1000,1000,1000,,,,,
46005757,1000,1000,1000,1000,,,,,
46008256,1000,1000,1000,1000,,,,,
46010755,1000,1000,1000,1000,,,,,
46013254,1000,1000,1000,1000,,,,,
46015753,1000,1000,1000,1000,,,,,
46018252,1000,1000,1000,1000,,,,,
46020751,1000,1000,1000,1000,,,,,
46023250,1000,1000,1000,1000,,,,,
46025749,1000,1000,1000,1000,,,,,
46028248,1000,1000,1000,1000,,,,,
46030747,1000,1000,1000,1000,,,,,
46033246,1000,1000,1000,1000,,,,,
46035745,1000,1000,1000,1000,,,,,
46038244,1000,1000,1000,1000,,,,,
46040743,1000,1000,1000,1000,,,,,
46043242,1000,1000,1000,1000,,,,,
46045741,1000,1000,1000,1000,,,,,
46048240,1000,1000,1000,1000,,,,,
46050739,1000,1000,1000,1000,,,,,
46053238,1000,1000,1000,1000,,,,,
46055737,1000,1000,1000,1000,,,,,
46058236,1000,1000,1000,1000,,,,,
46060735,1000,1000,1000,1000,,,,,
46063234,1000,1000,1000,1000,,,,,
46065733,1000,1000,1000,1000,,,,,
46068232,1000,1000,1000,1000,,,,,
46070731,1000,1000,1000,1000,,,,,
46073230,1000,1000,1000,1000,,,,,
46075729,1000,1000,1000,1000,,,,,
46078228,1000,1000,1000,1000,,,,,
46080727,1000,1000,1000,1000,,,,,
46083226,1000,1000,1000,1000,,,,,
46085725,1000,1000,1000,1000,,,,,
46088224,1000,1000,1000,1000,,,,,
46090723,1000,1000,1000,1000,,,,,
46093222,1000,1000,1000,1000,,,,,
46095721,1000,1000,1000,1000,,,,,
46098220,1000,1000,1000,1000,,,,,
46100719,1000,1000,1000,1000,,,,,
46103218,1000,1000,1000,1000,,,,,
46105717,1000,1000,1000,1000,,,,,
46108216,1000,1000,1000,1000,,,,,
46110715,1000,1000,1000,1000,,,,,
46113214,1000,1000,1000,1000,,,,,
46115713,1000,1000,1000,1000,,,,,
46118212,1000,1000,1000,1000,,,,,
46120711,1000,1000,1000,1000,,,,,
46123210,1000,1000,1000,1000,,,,,
46125709,1000,1000,1000,1000,,,,,
46128208,1000,1000,1000,1000,,,,,
46130707,1000,1000,1000,1000,,,,,
46133206,1000,1000,1000,1000,,,,,
46135705,1000,1000,1000,1000,,,,,
46138204,1000,1000,1000,1000,,,,,
46140703,1000,1000,1000,1000,,,,,
46143202,1000,1000,1000,1000,,,,,
46145701,1000,1000,1000,1000,,,,,
46148200,1000,1000,1000,1000,,,,,
46150699,1000,1000,1000,1000,,,,,
46153198,1000,1000,1000,1000,,,,,
46155697,1000,1000,1000,1000,,,,,
46158196,1000,1000,1000,1000,,,,,
46160695,1000,1000,1000,1000,,,,,
46163194,1000,1000,1000,1000,,,,,
46165693,1000,1000,1000,1000,,,,,
46168192,1000,1000,1000,1000,,,,,
46170691,1000,1000,1000,1000,,,,,
46173190,1000,1000,1000,1000,,,,,
46175689,1000,1000,1000,1000,,,,,
46178188,1000,1000,1000,1000,,,,,
46180687,1000,1000,1000,1000,,,,,
46183186,1000,1000,1000,1000,,,,,
46185685,1000,1000,1000,1000,,,,,
46188184,1000,1000,1000,1000,,,,,
46190683,1000,1000,1000,1000,,,,,
46193182,1000,1000,1000,1000,,,,,
46195681,1000,1000,1000,1000,,,,,
46198180,1000,1000,1000,1000,,,,,
46200679,1000,1000,1000,1000,,,,,
46203178,1000,1000,1000,1000,,,,,
46205677,1000,1000,1000,1000,,,,,
46208176,1000,1000,1000,1000,,,,,
46210675,1000,1000,1000,1000,,,,,
46213174,1000,1000,1000,1000,,,,,
46215673,1000,1000,1000,1000,,,,,
46218172,1000,1000,1000,1000,,,,,
46220671,1000,1000,1000,1000,,,,,
46223170,1000,1000,1000,1000,,,,,
46225669,1000,1000,1000,1000,,,,,
46228168,1000,1000,1000,1000,,,,,
46230667,1000,1000,1000,1000,,,,,
46233166,1000,1000,1000,1000,,,,,
46235665,1000,1000,1000,1000,,,,,
46238164,1000,1000,1000,1000,,,,,
46240663,1000,1000,1000,1000,,,,,
46243162,1000,1000,1000,1000,,,,,
46245661,1000,1000,1000,1000,,,,,
46248160,1000,1000,1000,1000,,,,,
46250659,1000,1000,1000,1000,,,,,
46253158,1000,1000,1000,1000,,,,,
46255657,1000,1000,1000,1000,,,,,
46258156,1000,1000,1000,1000,,,,,
46260655,1000,1000,1000,1000,,,,,
46263154,1000,1000,1000,1000,,,,,
46266486,1000,1000,1000,1000,,,,,
46268985,1000,1000,1000,1000,,,,,
46271484,1000,1000,1000,1000,,,,,
46273983,1000,1000,1000,1000,,,,,
46276482,1000,1000,1000,1000,,,,,
46278981,1000,1000,1000,1000,,,,,
46281480,1000,1000,1000,1000,,,,,
46283979,1000,1000,1000,1000,,,,,
46286478,1000,1000,1000,1000,,,,,
46288977,1000,1000,1000,1000,,,,,
46291476,1000,1000,1000,1000,,,,,
46293975,1001,1001,1001,1001,,,,,
46296474,1002,1002,1002,1002,,,,,
46298973,1003,1003,1003,1003,,,,,
46301472,1003,1003,1003,1003,,,,,
46303971,1004,1004,1004,1004,,,,,
46306470,1005,1005,1005,1005,,,,,
46308969,1006,1006,1006,1006,,,,,
46311468,1006,1006,1006,1006,,,,,
46313967,1007,1007,1007,1007,,,,,
46316466,1008,1008,1008,1008,,,,,
46318965,1009,1009,1009,1009,,,,,
46321464,1009,1009,1009,1009,,,,,
46323963,1010,1010,1010,1010,,,,,
46326462,1011,1011,1011,1011,,,,,
46328961,1012,1012,1012,1012,,,,,
46331460,1012,1012,1012,1012,,,,,
46333959,1013,1013,1013,1013,,,,,
46336458,1014,1014,1014,1014,,,,,
46338957,1015,1015,1015,1015,,,,,
46341456,1015,1015,1015,1015,,,,,
46343955,1016,1016,1016,1016,,,,,
46346454,1017,1017,1017,1017,,,,,
46348953,1018,1018,1018,1018,,,,,
46351452,1018,1018,1018,1018,,,,,
46353951,1019,1019,1019,1019,,,,,
46356450,1020,1020,1020,1020,,,,,
46358949,1021,1021,1021,1021,,,,,
46361448,1021,1021,1021,1021,,,,,
46363947,1022,1022,1022,1022,,,,,
46366446,1023,1023,1023,1023,,,,,
46368945,1024,1024,1024,1024,,,,,
46371444,1024,1024,1024,1024,,,,,
46373943,1025,1025,1025,1025,,,,,
46376442,1026,1026,1026,1026,,,,,
46378941,1027,1027,1027,1027,,,,,
46381440,1027,1027,1027,1027,,,,,
46383939,1028,1028,1028,1028,,,,,
46386438,1029,1029,1029,1029,,,,,
46388937,1030,1030,1030,1030,,,,,
46391436,1030,1030,1030,1030,,,,,
46393935,1031,1031,1031,1031,,,,,
46396434,1032,1032,1032,1032,,,,,
46398933,1033,1033,1033,1033,,,,,
46401432,1033,1033,1033,1033,,,,,
46403931,1034,1034,1034,1034,,,,,
46406430,1035,1035,1035,1035,,,,,
46408929,1036,1036,1036,1036,,,,,
46411428,1036,1036,1036,1036,,,,,
46413927,1037,1037,1037,1037,,,,,
46416426,1038,1038,1038,1038,,,,,
46418925,1039,1039,1039,1039,,,,,
46421424,1039,1039,1039,1039,,,,,
46423923,1040,1040,1040,1040,,,,,
46426422,1041,1041,1041,1041,,,,,
46428921,1042,1042,1042,1042,,,,,
46431420,1042,1042,1042,1042,,,,,
46433919,1043,1043,1043,1043,,,,,
46436418,1044,1044,1044,1044,,,,,
46438917,1045,1045,1045,1045,,,,,
46441416,1045,1045,1045,1045,,,,,
46443915,1046,1046,1046,1046,,,,,
46446414,1047,1047,1047,1047,,,,,
46448913,1048,1048,1048,1048,,,,,
46451412,1048,1048,1048,1048,,,,,
46453911,1049,1049,1049,1049,,,,,
46456410,1050,1050,1050,1050,,,,,
46458909,1051,1051,1051,1051,,,,,
46461408,1051,1051,1051,1051,,,,,
46463907,1052,1052,1052,1052,,,,,
46466406,1053,1053,1053,1053,,,,,
46468905,1054,1054,1054,1054,,,,,
46471404,1054,1054,1054,1054,,,,,
46473903,1055,1055,1055,1055,,,,,
46476402,1056,1056,1056,1056,,,,,
46478901,1057,1057,1057,1057,,,,,
46481400,1057,1057,1057,1057,,,,,
46483899,1058,1058,1058,1058,,,,,
46486398,1059,1059,1059,1059,,,,,
46488897,1060,1060,1060,1060,,,,,
46491396,1060,1060,1060,1060,,,,,
46493895,1061,1061,1061,1061,,,,,
46496394,1062,1062,1062,1062,,,,,
46498893,1063,1063,1063,1063,,,,,
46501392,1063,1063,1063,1063,,,,,
46503891,1064,1064,1064,1064,,,,,
46506390,1065,1065,1065,1065,,,,,
46508889,1066,1066,1066,1066,,,,,
46511388,1066,1066,1066,1066,,,,,
46513887,1067,1067,1067,1067,,,,,
46516386,1068,1068,1068,1068,,,,,
46518885,1069,1069,1069,1069,,,,,
46521384,1069,1069,1069,1069,,,,,
46523883,1070,1070,1070,1070,,,,,
46526382,1071,1071,1071,1071,,,,,
46528881,1072,1072,1072,1072,,,,,
46531380,1072,1072,1072,1072,,,,,
46533879,1073,1073,1073,1073,,,,,
46536378,1074,1074,1074,1074,,,,,
46538877,1075,1075,1075,1075,,,,,
46541376,1075,1075,1075,1075,,,,,
46543875,1076,1076,1076,1076,,,,,
46546374,1077,1077,1077,1077,,,,,
46548873,1078,1078,1078,1078,,,,,
46551372,1078,1078,1078,1078,,,,,
46553871,1079,1079,1079,1079,,,,,
46556370,1080,1080,1080,1080,,,,,
46558869,1081,1081,1081,1081,,,,,
46561368,1081,1081,1081,1081,,,,,
46563867,1082,1082,1082,1082,,,,,
46566366,1083,1083,1083,1083,,,,,
46568865,1084,1084,1084,1084,,,,,
46571364,1084,1084,1084,1084,,,,,
46573863,1085,1085,1085,1085,,,,,
46576362,1086,1086,1086,1086,,,,,
46578861,1087,1087,1087,1087,,,,,
46581360,1087,1087,1087,1087,,,,,
46583859,1088,1088,1088,1088,,,,,
46586358,1089,1089,1089,1089,,,,,
46588857,1090,1090,1090,1090,,,,,
46591356,1090,1090,1090,1090,,,,,
46593855,1091,1091,1091,1091,,,,,
46596354,1092,1092,1092,1092,,,,,
46598853,1093,1093,1093,1093,,,,,
46601352,1093,1093,1093,1093,,,,,
46603851,1094,1094,1094,1094,,,,,
46606350,1095,1095,1095,1095,,,,,
46608849,1096,1096,1096,1096,,,,,
46611348,1096,1096,1096,1096,,,,,
46613847,1097,1097,1097,1097,,,,,
46616346,1098,1098,1098,1098,,,,,
46618845,1099,1099,1099,1099,,,,,
46621344,1099,1099,1099,1099,,,,,
46623843,1100,1100,1100,1100,,,,,
46626342,1101,1101,1101,1101,,,,,
46628841,1101,1101,1101,1101,,,,,
46631340,1102,1102,1102,1102,,,,,
46633839,1103,1103,1103,1103,,,,,
46636338,1104,1104,1104,1104,,,,,
46638837,1104,1104,1104,1104,,,,,
46641336,1105,1105,1105,1105,,,,,
46643835,1106,1106,1106,1106,,,,,
46646334,1107,1107,1107,1107,,,,,
46648833,1107,1107,1107,1107,,,,,
46651332,1108,1108,1108,1108,,,,,
46653831,1109,1109,1109,1109,,,,,
46656330,1110,1110,1110,1110,,,,,
46658829,1110,1110,1110,1110,,,,,
46661328,1111,1111,1111,1111,,,,,
46663827,1112,1112,1112,1112,,,,,
46666326,1113,1113,1113,1113,,,,,
46668825,1113,1113,1113,1113,,,,,
46671324,1114,1114,1114,1114,,,,,
46673823,1115,1115,1115,1115,,,,,
46676322,1116,1116,1116,1116,,,,,
46678821,1116,1116,1116,1116,,,,,
46681320,1117,1117,1117,1117,,,,,
46683819,1118,1118,1118,1118,,,,,
46686318,1119,1119,1119,1119,,,,,
46688817,1119,1119,1119,1119,,,,,
46691316,1120,1120,1120,1120,,,,,
46693815,1121,1121,1121,1121,,,,,
46696314,1122,1122,1122,1122,,,,,
46698813,1122,1122,1122,1122,,,,,
46701312,1123,1123,1123,1123,,,,,
46703811,1124,1124,1124,1124,,,,,
46706310,1125,1125,1125,1125,,,,,
46708809,1125,1125,1125,1125,,,,,
46711308,1126,1126,1126,1126,,,,,
46713807,1127,1127,1127,1127,,,,,
46716306,1128,1128,1128,1128,,,,,
46718805,1128,1128,1128,1128,,,,,
46721304,1129,1129,1129,1129,,,,,
46723803,1130,1130,1130,1130,,,,,
46726302,1131,1131,1131,1131,,,,,
46728801,1131,1131,1131,1131,,,,,
46731300,1132,1132,1132,1132,,,,,
46733799,1133,1133,1133,1133,,,,,
46736298,1134,1134,1134,1134,,,,,
46738797,1134,1134,1134,1134,,,,,
46741296,1135,1135,1135,1135,,,,,
46743795,1136,1136,1136,1136,,,,,
46746294,1137,1137,1137,1137,,,,,
46748793,1137,1137,1137,1137,,,,,
46751292,1138,1138,1138,1138,,,,,
46753791,1139,1139,1139,1139,,,,,
46756290,1140,1140,1140,1140,,,,,
46758789,1140,1140,1140,1140,,,,,
46761288,1141,1141,1141,1141,,,,,
46763787,1142,1142,1142,1142,,,,,
46766286,1143,1143,1143,1143,,,,,
46768785,1143,1143,1143,1143,,,,,
46771284,1144,1144,1144,1144,,,,,
46773783,1145,1145,1145,1145,,,,,
46776282,1146,1146,1146,1146,,,,,
46778781,1146,1146,1146,1146,,,,,
46781280,1147,1147,1147,1147,,,,,
46783779,1148,1148,1148,1148,,,,,
46786278,1149,1149,1149,1149,,,,,
46788777,1149,1149,1149,1149,,,,,
46791276,1150,1150,1150,1150,,,,,
46793775,1161,1154,1155,1161,,,,,
46796274,1169,1162,1163,1169,,,,,
46798773,1176,1170,1171,1177,,,,,
46801272,1184,1178,1179,1185,,,,,
46803771,1192,1186,1186,1192,,,,,
46806270,1199,1193,1194,1200,,,,,
46808769,1207,1201,1201,1207,,,,,
46811268,1214,1208,1208,1214,,,,,
46813767,1221,1215,1216,1221,,,,,
46816266,1228,1222,1223,1228,,,,,
46818765,1235,1229,1230,1235,,,,,
46821264,1242,1236,1237,1242,,,,,
46823763,1248,1243,1243,1249,,,,,
46826262,1255,1250,1250,1255,,,,,
46828761,1261,1256,1257,1262,,,,,
46831260,1268,1263,1263,1268,,,,,
46833759,1274,1269,1269,1275,,,,,
46836258,1281,1275,1276,1281,,,,,
46838757,1287,1282,1282,1287,,,,,
46841256,1293,1288,1288,1293,,,,,
46843755,1299,1294,1294,1299,,,,,
46846254,1305,1300,1300,1305,,,,,
46848753,1311,1306,1306,1311,,,,,
46851252,1317,1312,1312,1317,,,,,
46853751,1323,1318,1318,1323,,,,,
46856250,1328,1324,1324,1329,,,,,
46858749,1334,1329,1330,1334,,,,,
46861248,1340,1335,1335,1340,,,,,
46863747,1345,1341,1341,1346,,,,,
46866246,1351,1346,1347,1351,,,,,
46868745,1356,1352,1352,1357,,,,,
46871244,1362,1357,1358,1362,,,,,
46873743,1367,1363,1363,1368,,,,,
46876242,1373,1368,1368,1373,,,,,
46878741,1378,1373,1374,1378,,,,,
46881240,1383,1379,1379,1384,,,,,
46883739,1388,1384,1384,1389,,,,,
46886238,1394,1389,1389,1394,,,,,
46888737,1399,1394,1395,1399,,,,,
46891236,1404,1400,1400,1404,,,,,
46893735,1409,1405,1405,1409,,,,,
46896234,1414,1410,1410,1414,,,,,
46898733,1419,1415,1415,1419,,,,,
46901232,1424,1420,1420,1424,,,,,
46903731,1429,1425,1425,1429,,,,,
46906230,1434,1429,1430,1434,,,,,
46908729,1438,1434,1434,1439,,,,,
46911228,1443,1439,1439,1444,,,,,
46913727,1448,1444,1444,1448,,,,,
46916226,1453,1449,1449,1453,,,,,
46918725,1457,1453,1454,1458,,,,,
46921224,1462,1458,1458,1463,,,,,
46923723,1467,1463,1463,1467,,,,,
46926222,1471,1467,1468,1472,,,,,
46928721,1476,1472,1472,1476,,,,,
46931220,1481,1477,1477,1481,,,,,
46933719,1485,1481,1481,1486,,,,,
46936218,1490,1486,1486,1490,,,,,
46938717,1494,1490,1490,1495,,,,,
46941216,1498,1495,1495,1499,,,,,
46943715,1503,1499,1499,1503,,,,,
46946214,1507,1504,1504,1508,,,,,
46948713,1512,1508,1508,1512,,,,,
46951212,1516,1512,1512,1516,,,,,
46953711,1520,1517,1517,1521,,,,,
46956210,1525,1521,1521,1525,,,,,
46958709,1529,1525,1525,1529,,,,,
46961208,1533,1530,1530,1534,,,,,
46963707,1537,1534,1534,1538,,,,,
46966206,1542,1538,1538,1542,,,,,
46968705,1546,1542,1542,1546,,,,,
46971204,1550,1546,1546,1550,,,,,
46973703,1554,1550,1551,1554,,,,,
46976202,1558,1555,1555,1559,,,,,
46978701,1562,1559,1559,1563,,,,,
46981200,1566,1563,1563,1567,,,,,
46983699,1570,1567,1567,1571,,,,,
46986198,1574,1571,1571,1575,,,,,
46988697,1578,1575,1575,1579,,,,,
46991196,1582,1579,1579,1583,,,,,
46993695,1586,1583,1583,1587,,,,,
46996194,1590,1587,1587,1591,,,,,
46998693,1594,1591,1591,1595,,,,,
47001192,1598,1595,1595,1599,,,,,
47003691,1602,1599,1599,1602,,,,,
47006190,1606,1603,1603,1606,,,,,
47008689,1610,1606,1607,1610,,,,,
47011188,1614,1610,1611,1614,,,,,
47013687,1618,1614,1614,1618,,,,,
47016186,1621,1618,1618,1622,,,,,
47018685,1625,1622,1622,1625,,,,,
47021184,1629,1626,1626,1629,,,,,
47023683,1633,1629,1630,1633,,,,,
47026182,1637,1633,1633,1637,,,,,
47028681,1640,1637,1637,1641,,,,,
47031180,1644,1641,1641,1644,,,,,
47033679,1648,1644,1645,1648,,,,,
47036178,1652,1648,1648,1652,,,,,
47038677,1655,1652,1652,1655,,,,,
47041176,1659,1655,1656,1659,,,,,
47043675,1663,1659,1659,1663,,,,,
47046174,1666,1663,1663,1666,,,,,
47048673,1670,1666,1667,1670,,,,,
47051172,1673,1670,1670,1673,,,,,
47053671,1677,1673,1674,1677,,,,,
47056170,1681,1677,1677,1681,,,,,
47058669,1684,1680,1681,1684,,,,,
47061168,1688,1684,1684,1688,,,,,
47063667,1691,1688,1688,1691,,,,,
47066166,1695,1691,1691,1695,,,,,
47068665,1698,1695,1695,1698,,,,,
47071164,1702,1698,1698,1702,,,,,
47073663,1705,1702,1702,1705,,,,,
47076162,1709,1705,1705,1709,,,,,
47078661,1712,1709,1709,1712,,,,,
47081160,1716,1712,1712,1716,,,,,
47083659,1719,1715,1716,1719,,,,,
47086158,1723,1719,1719,1723,,,,,
47088657,1726,1722,1723,1726,,,,,
47091156,1729,1726,1726,1729,,,,,
47093655,1733,1729,1729,1733,,,,,
47096154,1736,1732,1733,1736,,,,,
47098653,1739,1736,1736,1740,,,,,
47101152,1743,1739,1739,1743,,,,,
47103651,1746,1742,1743,1746,,,,,
47106150,1749,1746,1746,1750,,,,,
47108649,1753,1749,1749,1753,,,,,
47111148,1756,1752,1753,1756,,,,,
47113647,1759,1756,1756,1760,,,,,
47116146,1763,1759,1759,1763,,,,,
47118645,1766,1762,1763,1766,,,,,
47121144,1769,1766,1766,1769,,,,,
47123643,1772,1769,1769,1773,,,,,
47126142,1776,1772,1772,1776,,,,,
47128641,1779,1775,1776,1779,,,,,
47131140,1782,1779,1779,1782,,,,,
47133639,1785,1782,1782,1786,,,,,
47136138,1788,1785,1785,1789,,,,,
47138637,1792,1788,1788,1792,,,,,
47141136,1795,1792,1792,1795,,,,,
47143635,1798,1795,1795,1798,,,,,
47146134,1801,1798,1798,1801,,,,,
47148633,1804,1801,1801,1805,,,,,
47151132,1807,1804,1804,1808,,,,,
47153631,1811,1807,1807,1811,,,,,
47156130,1814,1810,1811,1814,,,,,
47158629,1817,1814,1814,1817,,,,,
47161128,1820,1817,1817,1820,,,,,
47163627,1823,1820,1820,1823,,,,,
47166126,1826,1823,1823,1826,,,,,
47168625,1829,1826,1826,1830,,,,,
47171124,1832,1829,1829,1833,,,,,
47173623,1835,1832,1832,1836,,,,,
47176122,1838,1835,1835,1839,,,,,
47178621,1841,1838,1838,1842,,,,,
47181120,1844,1841,1841,1845,,,,,
47183619,1847,1844,1844,1848,,,,,
47186118,1850,1847,1847,1851,,,,,
47188617,1853,1851,1850,1854,,,,,
47191116,1856,1854,1853,1857,,,,,
47193615,1859,1857,1856,1860,,,,,
47196114,1862,1860,1859,1863,,,,,
47198613,1865,1863,1862,1866,,,,,
47201112,1868,1866,1865,1869,,,,,
47203611,1871,1868,1868,1872,,,,,
47206110,1874,1871,1871,1875,,,,,
47208609,1877,1874,1874,1878,,,,,
47211108,1880,1877,1877,1881,,,,,
47213607,1883,1880,1880,1884,,,,,
47216106,1886,1883,1883,1887,,,,,
47218605,1889,1886,1886,1890,,,,,
47221104,1892,1889,1889,1892,,,,,
47223603,1895,1892,1892,1895,,,,,
47226102,1898,1895,1895,1898,,,,,
47228601,1900,1898,1897,1901,,,,,
47231100,1903,1901,1900,1904,,,,,
47233599,1906,1904,1903,1907,,,,,
47236098,1908,1905,1905,1908,,,,,
47238597,1907,1904,1904,1907,,,,,
47241096,1906,1903,1903,1907,,,,,
47243595,1905,1902,1902,1906,,,,,
47246094,1904,1901,1901,1905,,,,,
47248593,1903,1901,1900,1904,,,,,
47251092,1902,1900,1900,1903,,,,,
47253591,1902,1899,1899,1902,,,,,
47256090,1901,1898,1898,1902,,,,,
47258589,1900,1898,1897,1901,,,,,
47261088,1900,1897,1897,1900,,,,,
47263587,1899,1897,1896,1900,,,,,
47266086,1899,1896,1896,1899,,,,,
47268585,1898,1896,1895,1899,,,,,
47271084,1898,1895,1895,1899,,,,,
47273583,1898,1895,1895,1898,,,,,
47276082,1897,1895,1894,1898,,,,,
47278581,1897,1895,1894,1898,,,,,
47281080,1897,1895,1894,1898,,,,,
47283579,1897,1895,1894,1898,,,,,
47286078,1897,1895,1894,1898,,,,,
47288577,1897,1895,1895,1898,,,,,
47291076,1897,1895,1895,1898,,,,,
47293575,1897,1895,1895,1898,,,,,
47296074,1897,1895,1895,1898,,,,,
47298573,1897,1894,1895,1897,,,,,
47301072,1897,1894,1894,1897,,,,,
47303571,1896,1894,1894,1896,,,,,
47306070,1895,1893,1893,1896,,,,,
47308569,1895,1892,1892,1895,,,,,
47311068,1894,1891,1891,1894,,,,,
47313567,1892,1890,1890,1892,,,,,
47316066,1891,1889,1889,1891,,,,,
47318565,1890,1887,1888,1890,,,,,
47321064,1888,1886,1886,1888,,,,,
47323563,1886,1884,1884,1886,,,,,
47326062,1884,1882,1883,1884,,,,,
47328561,1882,1880,1881,1882,,,,,
47331060,1880,1878,1879,1880,,,,,
47333559,1878,1876,1877,1878,,,,,
47336058,1876,1874,1874,1876,,,,,
47338557,1874,1872,1872,1874,,,,,
47341056,1871,1869,1870,1871,,,,,
47343555,1869,1867,1867,1869,,,,,
47346054,1866,1864,1865,1866,,,,,
47348553,1863,1862,1862,1863,,,,,
47351052,1861,1859,1859,1861,,,,,
47353551,1858,1856,1856,1858,,,,,
47356050,1855,1853,1853,1855,,,,,
47358549,1852,1850,1851,1852,,,,,
47361048,1849,1847,1847,1849,,,,,
47363547,1846,1844,1844,1846,,,,,
47366046,1843,1841,1841,1843,,,,,
47368545,1839,1838,1838,1839,,,,,
47371044,1836,1834,1835,1836,,,,,
47373543,1833,1831,1832,1833,,,,,
47376042,1829,1828,1828,1829,,,,,
47378541,1826,1824,1825,1826,,,,,
47381040,1822,1821,1821,1822,,,,,
47383539,1819,1818,1818,1819,,,,,
47386038,1815,1814,1815,1815,,,,,
47388537,1812,1811,1811,1812,,,,,
47391036,1809,1807,1808,1808,,,,,
47393535,1805,1804,1804,1805,,,,,
47396034,1802,1800,1801,1802,,,,,
47398533,1798,1797,1797,1798,,,,,
47401032,1795,1793,1794,1795,,,,,
47403531,1791,1790,1790,1791,,,,,
47406030,1788,1787,1787,1788,,,,,
47408529,1784,1783,1784,1784,,,,,
47411028,1781,1780,1780,1781,,,,,
47413527,1777,1776,1777,1777,,,,,
47416026,1774,1773,1773,1774,,,,,
47418525,1771,1770,1770,1771,,,,,
47421024,1767,1766,1767,1767,,,,,
47423523,1764,1763,1763,1764,,,,,
47426022,1761,1760,1760,1761,,,,,
47428521,1757,1757,1757,1757,,,,,
47431020,1754,1753,1754,1754,,,,,
47433519,1751,1750,1751,1751,,,,,
47436018,1748,1747,1747,1748,,,,,
47438517,1744,1744,1744,1744,,,,,
47441016,1741,1741,1741,1741,,,,,
47443515,1738,1738,1738,1738,,,,,
47446014,1735,1735,1735,1735,,,,,
47448513,1732,1732,1732,1732,,,,,
47451012,1729,1729,1729,1729,,,,,
47453511,1726,1726,1726,1726,,,,,
47456010,1723,1723,1723,1723,,,,,
47458509,1720,1720,1720,1720,,,,,
47461008,1717,1717,1717,1717,,,,,
47463507,1714,1714,1714,1714,,,,,
47466006,1711,1711,1711,1711,,,,,
47468505,1708,1708,1708,1708,,,,,
47471004,1705,1705,1706,1705,,,,,
47473503,1703,1703,1703,1703,,,,,
47476002,1700,1700,1700,1700,,,,,
47478501,1697,1697,1698,1697,,,,,
47481000,1694,1695,1695,1695,,,,,
47483499,1692,1692,1692,1692,,,,,
47485998,1689,1690,1690,1689,,,,,
47488497,1687,1687,1687,1687,,,,,
47490996,1684,1685,1685,1685,,,,,
47493495,1682,1683,1683,1682,,,,,
47495994,1680,1680,1681,1680,,,,,
47498493,1677,1678,1678,1678,,,,,
47500992,1675,1676,1676,1676,,,,,
47503491,1673,1674,1674,1673,,,,,
47505990,1671,1672,1672,1671,,,,,
47508489,1669,1670,1670,1669,,,,,
47510988,1667,1668,1668,1667,,,,,
47513487,1665,1666,1666,1665,,,,,
47515986,1663,1664,1664,1663,,,,,
47518485,1661,1662,1662,1661,,,,,
47520984,1659,1660,1660,1660,,,,,
47523483,1658,1659,1659,1658,,,,,
47525982,1656,1657,1657,1656,,,,,
47528481,1654,1655,1655,1655,,,,,
47530980,1653,1654,1654,1653,,,,,
47533479,1651,1652,1652,1652,,,,,
47535978,1650,1651,1651,1650,,,,,
47538477,1648,1649,1649,1649,,,,,
47540976,1647,1648,1648,1647,,,,,
47543475,1645,1647,1646,1646,,,,,
47545974,1644,1645,1645,1645,,,,,
47548473,1643,1644,1644,1643,,,,,
47550972,1642,1643,1643,1642,,,,,
47553471,1640,1642,1641,1641,,,,,
47555970,1639,1641,1640,1640,,,,,
47558469,1638,1639,1639,1639,,,,,
47560968,1637,1638,1638,1638,,,,,
47563467,1636,1637,1637,1637,,,,,
47565966,1635,1636,1636,1636,,,,,
47568465,1634,1635,1635,1634,,,,,
47570964,1633,1634,1634,1634,,,,,
47573463,1632,1633,1633,1632,,,,,
47575962,1631,1633,1632,1632,,,,,
47578461,1630,1632,1631,1631,,,,,
47580960,1629,1631,1631,1630,,,,,
47583459,1629,1630,1630,1629,,,,,
47585958,1628,1629,1629,1628,,,,,
47588457,1627,1629,1628,1628,,,,,
47590956,1626,1628,1628,1627,,,,,
