timestamp,TimeUS,C1,C2,C3,C4,C5,C6,C7,C8,C9,C10,C11,C12,C13,C14
1684153107.30004025,43128575,1000,1000,1000,1000,0,0,0,0,0,0,0,0,0,0
1684153107.40000010,43228535,1000,1000,1000,1000,0,0,0,0,0,0,0,0,0,0
1684153107.49996018,43328495,1000,1000,1000,1000,0,0,0,0,0,0,0,0,0,0
1684153107.59992027,43428455,1000,1000,1000,1000,0,0,0,0,0,0,0,0,0,0
1684153107.69988012,43528415,1000,1000,1000,1000,0,0,0,0,0,0,0,0,0,0
1684153107.79984021,43628375,1000,1000,1000,1000,0,0,0,0,0,0,0,0,0,0
1684153107.89980006,43728335,1000,1000,1000,1000,0,0,0,0,0,0,0,0,0,0
1684153107.99976015,43828295,1000,1000,1000,1000,0,0,0,0,0,0,0,0,0,0
1684153108.09972024,43928255,1000,1000,1000,1000,0,0,0,0,0,0,0,0,0,0
1684153108.19968009,44028215,1000,1000,1000,1000,0,0,0,0,0,0,0,0,0,0
1684153108.29964018,44128175,1000,1000,1000,1000,0,0,0,0,0,0,0,0,0,0
1684153108.40043306,44228968,1000,1000,1000,1000,0,0,0,0,0,0,0,0,0,0
1684153108.50039315,44328928,1000,1000,1000,1000,0,0,0,0,0,0,0,0,0,0
1684153108.60035324,44428888,1000,1000,1000,1000,0,0,0,0,0,0,0,0,0,0
1684153108.70031309,44528848,1000,1000,1000,1000,0,0,0,0,0,0,0,0,0,0
1684153108.80027318,44628808,1000,1000,1000,1000,0,0,0,0,0,0,0,0,0,0
1684153108.90023327,44728768,1000,1000,1000,1000,0,0,0,0,0,0,0,0,0,0
1684153109.00019312,44828728,1000,1000,1000,1000,0,0,0,0,0,0,0,0,0,0
1684153109.10015321,44928688,1000,1000,1000,1000,0,0,0,0,0,0,0,0,0,0
1684153109.20011306,45028648,1000,1000,1000,1000,0,0,0,0,0,0,0,0,0,0
1684153109.30007315,45128608,1022,1022,1022,1022,0,0,0,0,0,0,0,0,0,0
1684153109.40003324,45228568,1052,1052,1052,1052,0,0,0,0,0,0,0,0,0,0
1684153109.49999309,45328528,1082,1082,1082,1082,0,0,0,0,0,0,0,0,0,0
1684153109.59995317,45428488,1100,1100,1100,1100,0,0,0,0,0,0,0,0,0,0
1684153109.69991326,45528448,1100,1100,1100,1100,0,0,0,0,0,0,0,0,0,0
1684153109.79987311,45628408,1100,1100,1100,1100,0,0,0,0,0,0,0,0,0,0
1684153109.89983320,45728368,1100,1100,1100,1100,0,0,0,0,0,0,0,0,0,0
1684153109.99979305,45828328,1100,1100,1100,1100,0,0,0,0,0,0,0,0,0,0
1684153110.09975314,45928288,1100,1100,1100,1100,0,0,0,0,0,0,0,0,0,0
1684153110.19971323,46028248,1100,1100,1100,1100,0,0,0,0,0,0,0,0,0,0
1684153110.29967308,46128208,1100,1100,1100,1100,0,0,0,0,0,0,0,0,0,0
1684153110.39963317,46228168,1100,1100,1100,1100,0,0,0,0,0,0,0,0,0,0
1684153110.50042605,46328961,1100,1100,1100,1100,0,0,0,0,0,0,0,0,0,0
1684153110.60038614,46428921,1100,1100,1100,1100,0,0,0,0,0,0,0,0,0,0
1684153110.70034623,46528881,1100,1100,1100,1100,0,0,0,0,0,0,0,0,0,0
1684153110.80030608,46628841,1100,1100,1100,1100,0,0,0,0,0,0,0,0,0,0
1684153110.90026617,46728801,1100,1100,1100,1100,0,0,0,0,0,0,0,0,0,0
1684153111.00022626,46828761,1100,1100,1100,1100,0,0,0,0,0,0,0,0,0,0
1684153111.10018611,46928721,1100,1100,1100,1100,0,0,0,0,0,0,0,0,0,0
1684153111.20014620,47028681,1100,1100,1100,1100,0,0,0,0,0,0,0,0,0,0
1684153111.30010605,47128641,1100,1100,1100,1100,0,0,0,0,0,0,0,0,0,0
1684153111.40006614,47228601,1100,1100,1100,1100,0,0,0,0,0,0,0,0,0,0
1684153111.50002623,47328561,1100,1100,1100,1100,0,0,0,0,0,0,0,0,0,0
1684153111.59998608,47428521,1100,1100,1100,1100,0,0,0,0,0,0,0,0,0,0
1684153111.69994617,47528481,1100,1100,1100,1100,0,0,0,0,0,0,0,0,0,0
1684153111.79990625,47628441,1100,1100,1100,1100,0,0,0,0,0,0,0,0,0,0
1684153111.89986610,47728401,1100,1100,1100,1100,0,0,0,0,0,0,0,0,0,0
1684153111.99982619,47828361,1100,1100,1100,1100,0,0,0,0,0,0,0,0,0,0
1684153112.09978604,47928321,1100,1100,1100,1100,0,0,0,0,0,0,0,0,0,0
1684153112.19974613,48028281,1100,1100,1100,1100,0,0,0,0,0,0,0,0,0,0
1684153112.29970622,48128241,1100,1100,1100,1100,0,0,0,0,0,0,0,0,0,0
1684153112.39966607,48228201,1103,1103,1103,1103,0,0,0,0,0,0,0,0,0,0
1684153112.49962616,48328161,1133,1133,1133,1133,0,0,0,0,0,0,0,0,0,0
1684153112.60041904,48428954,1181,1176,1177,1181,0,0,0,0,0,0,0,0,0,0
1684153112.70037913,48528914,1208,1203,1203,1208,0,0,0,0,0,0,0,0,0,0
1684153112.80033922,48628874,1244,1239,1239,1244,0,0,0,0,0,0,0,0,0,0
1684153112.90029907,48728834,1290,1284,1284,1290,0,0,0,0,0,0,0,0,0,0
1684153113.00025916,48828794,1338,1333,1333,1338,0,0,0,0,0,0,0,0,0,0
1684153113.10021925,48928754,1388,1382,1382,1388,0,0,0,0,0,0,0,0,0,0
1684153113.20017910,49028714,1438,1433,1433,1439,0,0,0,0,0,0,0,0,0,0
1684153113.30013919,49128674,1491,1485,1485,1491,0,0,0,0,0,0,0,0,0,0
1684153113.40009928,49228634,1544,1538,1538,1544,0,0,0,0,0,0,0,0,0,0
1684153113.50005913,49328594,1593,1586,1587,1593,0,0,0,0,0,0,0,0,0,0
1684153113.60001922,49428554,1625,1619,1619,1625,0,0,0,0,0,0,0,0,0,0
1684153113.69997907,49528514,1658,1652,1651,1659,0,0,0,0,0,0,0,0,0,0
1684153113.79993916,49628474,1692,1686,1686,1693,0,0,0,0,0,0,0,0,0,0
1684153113.89989924,49728434,1729,1721,1722,1729,0,0,0,0,0,0,0,0,0,0
1684153113.99985909,49828394,1766,1758,1759,1765,0,0,0,0,0,0,0,0,0,0
1684153114.09981918,49928354,1748,1745,1745,1748,0,0,0,0,0,0,0,0,0,0
1684153114.19977927,50028314,1613,1613,1613,1613,0,0,0,0,0,0,0,0,0,0
1684153114.29973912,50128274,1554,1556,1556,1554,0,0,0,0,0,0,0,0,0,0
1684153114.39969921,50228234,1574,1577,1577,1574,0,0,0,0,0,0,0,0,0,0
1684153114.49965906,50328194,1613,1616,1616,1613,0,0,0,0,0,0,0,0,0,0
1684153114.59961915,50428154,1639,1641,1640,1639,0,0,0,0,0,0,0,0,0,0
1684153114.70041227,50528947,1646,1646,1646,1646,0,0,0,0,0,0,0,0,0,0
1684153114.80037212,50628907,1643,1642,1641,1643,0,0,0,0,0,0,0,0,0,0
1684153114.90033221,50728867,1639,1637,1637,1639,0,0,0,0,0,0,0,0,0,0
1684153115.00029206,50828827,1636,1634,1634,1635,0,0,0,0,0,0,0,0,0,0
1684153115.10025215,50928787,1635,1634,1634,1634,0,0,0,0,0,0,0,0,0,0
1684153115.20021224,51028747,1635,1635,1635,1634,0,0,0,0,0,0,0,0,0,0
1684153115.30017209,51128707,1622,1623,1621,1624,0,0,0,0,0,0,0,0,0,0
1684153115.40013218,51228667,1608,1608,1600,1615,0,0,0,0,0,0,0,0,0,0
1684153115.50009227,51328627,1603,1602,1596,1608,0,0,0,0,0,0,0,0,0,0
1684153115.60005212,51428587,1599,1600,1597,1602,0,0,0,0,0,0,0,0,0,0
1684153115.70001221,51528547,1600,1599,1600,1599,0,0,0,0,0,0,0,0,0,0
1684153115.79997206,51628507,1602,1602,1605,1599,0,0,0,0,0,0,0,0,0,0
1684153115.89993215,51728467,1592,1592,1599,1586,0,0,0,0,0,0,0,0,0,0
1684153115.99989223,51828427,1575,1575,1592,1558,0,0,0,0,0,0,0,0,0,0
1684153116.09985209,51928387,1565,1565,1575,1556,0,0,0,0,0,0,0,0,0,0
1684153116.19981217,52028347,1554,1554,1553,1557,0,0,0,0,0,0,0,0,0,0
1684153116.29977226,52128307,1545,1544,1535,1555,0,0,0,0,0,0,0,0,0,0
1684153116.39973211,52228267,1537,1537,1527,1548,0,0,0,0,0,0,0,0,0,0
1684153116.49969220,52328227,1532,1532,1524,1540,0,0,0,0,0,0,0,0,0,0
1684153116.59965205,52428187,1530,1530,1526,1533,0,0,0,0,0,0,0,0,0,0
1684153116.70044518,52528980,1531,1530,1530,1531,0,0,0,0,0,0,0,0,0,0
1684153116.80040526,52628940,1533,1533,1536,1530,0,0,0,0,0,0,0,0,0,0
1684153116.90036511,52728900,1537,1537,1542,1532,0,0,0,0,0,0,0,0,0,0
1684153117.00032520,52828860,1541,1541,1545,1536,0,0,0,0,0,0,0,0,0,0
1684153117.10028505,52928820,1544,1544,1547,1541,0,0,0,0,0,0,0,0,0,0
1684153117.20024514,53028780,1548,1548,1548,1547,0,0,0,0,0,0,0,0,0,0
1684153117.30020523,53128740,1549,1549,1548,1550,0,0,0,0,0,0,0,0,0,0
1684153117.40016508,53228700,1552,1552,1550,1554,0,0,0,0,0,0,0,0,0,0
1684153117.50012517,53328660,1549,1549,1558,1562,0,0,0,0,0,0,0,0,0,0
1684153117.60008526,53428620,1550,1551,1561,1564,0,0,0,0,0,0,0,0,0,0
1684153117.70004511,53528580,1554,1555,1562,1563,0,0,0,0,0,0,0,0,0,0
1684153117.80000520,53628540,1559,1560,1564,1563,0,0,0,0,0,0,0,0,0,0
1684153117.89996505,53728500,1563,1563,1564,1562,0,0,0,0,0,0,0,0,0,0
1684153117.99992514,53828460,1566,1566,1564,1562,0,0,0,0,0,0,0,0,0,0
1684153118.09988523,53928420,1569,1569,1564,1563,0,0,0,0,0,0,0,0,0,0
1684153118.19984508,54028380,1572,1572,1565,1565,0,0,0,0,0,0,0,0,0,0
1684153118.29980516,54128340,1574,1573,1565,1566,0,0,0,0,0,0,0,0,0,0
1684153118.39976525,54228300,1574,1573,1566,1566,0,0,0,0,0,0,0,0,0,0
1684153118.49972510,54328260,1574,1573,1567,1568,0,0,0,0,0,0,0,0,0,0
1684153118.59968519,54428220,1574,1574,1570,1570,0,0,0,0,0,0,0,0,0,0
1684153118.69964504,54528180,1574,1574,1571,1571,0,0,0,0,0,0,0,0,0,0
1684153118.80043817,54628973,1574,1574,1573,1573,0,0,0,0,0,0,0,0,0,0
1684153118.90039825,54728933,1573,1574,1575,1574,0,0,0,0,0,0,0,0,0,0
1684153119.00035810,54828893,1573,1573,1576,1574,0,0,0,0,0,0,0,0,0,0
1684153119.10031819,54928853,1574,1574,1578,1576,0,0,0,0,0,0,0,0,0,0
1684153119.20027804,55028813,1575,1575,1578,1577,0,0,0,0,0,0,0,0,0,0
1684153119.30023813,55128773,1575,1575,1578,1578,0,0,0,0,0,0,0,0,0,0
1684153119.40019822,55228733,1574,1574,1576,1577,0,0,0,0,0,0,0,0,0,0
1684153119.50015807,55328693,1574,1574,1576,1576,0,0,0,0,0,0,0,0,0,0
1684153119.60011816,55428653,1575,1575,1575,1577,0,0,0,0,0,0,0,0,0,0
1684153119.70007825,55528613,1575,1575,1575,1576,0,0,0,0,0,0,0,0,0,0
1684153119.80003810,55628573,1576,1576,1576,1576,0,0,0,0,0,0,0,0,0,0
1684153119.89999819,55728533,1576,1576,1576,1575,0,0,0,0,0,0,0,0,0,0
1684153119.99995828,55828493,1578,1578,1577,1577,0,0,0,0,0,0,0,0,0,0
1684153120.09991813,55928453,1578,1578,1577,1576,0,0,0,0,0,0,0,0,0,0
1684153120.19987822,56028413,1578,1579,1577,1577,0,0,0,0,0,0,0,0,0,0
1684153120.29983807,56128373,1578,1579,1577,1577,0,0,0,0,0,0,0,0,0,0
1684153120.39979815,56228333,1579,1578,1578,1577,0,0,0,0,0,0,0,0,0,0
1684153120.49975824,56328293,1579,1579,1579,1579,0,0,0,0,0,0,0,0,0,0
1684153120.59971809,56428253,1579,1579,1578,1578,0,0,0,0,0,0,0,0,0,0
1684153120.69967818,56528213,1578,1577,1578,1578,0,0,0,0,0,0,0,0,0,0
1684153120.79963827,56628173,1578,1577,1578,1578,0,0,0,0,0,0,0,0,0,0
1684153120.90043116,56728966,1578,1578,1578,1578,0,0,0,0,0,0,0,0,0,0
1684153121.00039124,56828926,1577,1577,1578,1578,0,0,0,0,0,0,0,0,0,0
1684153121.10035110,56928886,1578,1577,1578,1578,0,0,0,0,0,0,0,0,0,0
1684153121.20031118,57028846,1578,1578,1579,1579,0,0,0,0,0,0,0,0,0,0
1684153121.30027127,57128806,1578,1579,1579,1579,0,0,0,0,0,0,0,0,0,0
1684153121.40023112,57228766,1578,1579,1579,1579,0,0,0,0,0,0,0,0,0,0
1684153121.50019121,57328726,1580,1579,1580,1580,0,0,0,0,0,0,0,0,0,0
1684153121.60015106,57428686,1580,1580,1580,1580,0,0,0,0,0,0,0,0,0,0
1684153121.70011115,57528646,1580,1580,1580,1580,0,0,0,0,0,0,0,0,0,0
1684153121.80007124,57628606,1580,1580,1580,1580,0,0,0,0,0,0,0,0,0,0
1684153121.90003109,57728566,1580,1580,1580,1580,0,0,0,0,0,0,0,0,0,0
1684153121.99999118,57828526,1580,1580,1580,1580,0,0,0,0,0,0,0,0,0,0
1684153122.09995127,57928486,1580,1581,1580,1580,0,0,0,0,0,0,0,0,0,0
1684153122.19991112,58028446,1580,1580,1580,1580,0,0,0,0,0,0,0,0,0,0
1684153122.29987121,58128406,1580,1581,1580,1580,0,0,0,0,0,0,0,0,0,0
1684153122.39983106,58228366,1580,1580,1580,1580,0,0,0,0,0,0,0,0,0,0
1684153122.49979115,58328326,1581,1580,1581,1580,0,0,0,0,0,0,0,0,0,0
1684153122.59975123,58428286,1580,1580,1580,1580,0,0,0,0,0,0,0,0,0,0
1684153122.69971108,58528246,1580,1580,1580,1580,0,0,0,0,0,0,0,0,0,0
1684153122.79967117,58628206,1579,1580,1580,1580,0,0,0,0,0,0,0,0,0,0
1684153122.89963126,58728166,1580,1581,1581,1581,0,0,0,0,0,0,0,0,0,0
1684153123.00042415,58828959,1580,1580,1580,1580,0,0,0,0,0,0,0,0,0,0
1684153123.10038424,58928919,1581,1580,1581,1581,0,0,0,0,0,0,0,0,0,0
1684153123.20034409,59028879,1581,1580,1581,1581,0,0,0,0,0,0,0,0,0,0
1684153123.30030417,59128839,1581,1581,1581,1581,0,0,0,0,0,0,0,0,0,0
1684153123.40026426,59228799,1581,1581,1581,1581,0,0,0,0,0,0,0,0,0,0
1684153123.50022411,59328759,1581,1582,1582,1581,0,0,0,0,0,0,0,0,0,0
1684153123.60018420,59428719,1582,1581,1582,1582,0,0,0,0,0,0,0,0,0,0
1684153123.70014405,59528679,1582,1582,1586,1579,0,0,0,0,0,0,0,0,0,0
1684153123.80010414,59628639,1580,1582,1587,1573,0,0,0,0,0,0,0,0,0,0
1684153123.90006423,59728599,1580,1582,1582,1574,0,0,0,0,0,0,0,0,0,0
1684153124.00002408,59828559,1578,1581,1573,1573,0,0,0,0,0,0,0,0,0,0
1684153124.09998417,59928519,1576,1579,1564,1570,0,0,0,0,0,0,0,0,0,0
1684153124.19994426,60028479,1577,1579,1559,1566,0,0,0,0,0,0,0,0,0,0
1684153124.29990411,60128439,1578,1578,1556,1562,0,0,0,0,0,0,0,0,0,0
1684153124.39986420,60228399,1580,1578,1556,1558,0,0,0,0,0,0,0,0,0,0
1684153124.49982405,60328359,1579,1577,1555,1554,0,0,0,0,0,0,0,0,0,0
1684153124.59978414,60428319,1579,1578,1557,1555,0,0,0,0,0,0,0,0,0,0
1684153124.69974422,60528279,1578,1577,1557,1554,0,0,0,0,0,0,0,0,0,0
1684153124.79970407,60628239,1576,1577,1556,1554,0,0,0,0,0,0,0,0,0,0
1684153124.89966416,60728199,1575,1576,1555,1555,0,0,0,0,0,0,0,0,0,0
1684153124.99962425,60828159,1575,1576,1555,1554,0,0,0,0,0,0,0,0,0,0
1684153125.10041714,60928952,1575,1576,1553,1553,0,0,0,0,0,0,0,0,0,0
1684153125.20037723,61028912,1576,1577,1552,1552,0,0,0,0,0,0,0,0,0,0
1684153125.30033708,61128872,1577,1578,1549,1549,0,0,0,0,0,0,0,0,0,0
1684153125.40029716,61228832,1579,1580,1547,1547,0,0,0,0,0,0,0,0,0,0
1684153125.50025725,61328792,1581,1583,1544,1544,0,0,0,0,0,0,0,0,0,0
1684153125.60021710,61428752,1585,1586,1542,1542,0,0,0,0,0,0,0,0,0,0
1684153125.70017719,61528712,1588,1588,1539,1539,0,0,0,0,0,0,0,0,0,0
1684153125.80013704,61628672,1591,1592,1537,1536,0,0,0,0,0,0,0,0,0,0
1684153125.90009713,61728632,1594,1593,1535,1535,0,0,0,0,0,0,0,0,0,0
1684153126.00005722,61828592,1596,1595,1535,1536,0,0,0,0,0,0,0,0,0,0
1684153126.10001707,61928552,1595,1594,1534,1536,0,0,0,0,0,0,0,0,0,0
1684153126.19997716,62028512,1594,1594,1537,1540,0,0,0,0,0,0,0,0,0,0
1684153126.29993725,62128472,1591,1590,1540,1543,0,0,0,0,0,0,0,0,0,0
1684153126.39989710,62228432,1586,1585,1546,1549,0,0,0,0,0,0,0,0,0,0
1684153126.49985719,62328392,1581,1578,1556,1559,0,0,0,0,0,0,0,0,0,0
1684153126.59981728,62428352,1572,1569,1567,1569,0,0,0,0,0,0,0,0,0,0
1684153126.69977713,62528312,1561,1558,1579,1581,0,0,0,0,0,0,0,0,0,0
1684153126.79973722,62628272,1550,1546,1590,1591,0,0,0,0,0,0,0,0,0,0
1684153126.89969707,62728232,1540,1538,1602,1602,0,0,0,0,0,0,0,0,0,0
1684153126.99965715,62828192,1533,1533,1610,1609,0,0,0,0,0,0,0,0,0,0
1684153127.10045028,62928985,1530,1531,1615,1614,0,0,0,0,0,0,0,0,0,0
1684153127.20041013,63028945,1529,1531,1615,1614,0,0,0,0,0,0,0,0,0,0
1684153127.30037022,63128905,1534,1536,1613,1613,0,0,0,0,0,0,0,0,0,0
1684153127.40033007,63228865,1539,1542,1608,1608,0,0,0,0,0,0,0,0,0,0
1684153127.50029016,63328825,1547,1548,1600,1601,0,0,0,0,0,0,0,0,0,0
1684153127.60025024,63428785,1557,1557,1593,1594,0,0,0,0,0,0,0,0,0,0
1684153127.70021009,63528745,1566,1566,1586,1586,0,0,0,0,0,0,0,0,0,0
1684153127.80017018,63628705,1573,1573,1579,1578,0,0,0,0,0,0,0,0,0,0
1684153127.90013027,63728665,1580,1579,1574,1573,0,0,0,0,0,0,0,0,0,0
1684153128.00009012,63828625,1585,1584,1570,1569,0,0,0,0,0,0,0,0,0,0
1684153128.10005021,63928585,1587,1585,1567,1566,0,0,0,0,0,0,0,0,0,0
1684153128.20001006,64028545,1588,1587,1566,1566,0,0,0,0,0,0,0,0,0,0
1684153128.29997015,64128505,1588,1586,1567,1567,0,0,0,0,0,0,0,0,0,0
1684153128.39993024,64228465,1585,1584,1568,1569,0,0,0,0,0,0,0,0,0,0
1684153128.49989009,64328425,1434,1436,1610,1615,0,0,0,0,0,0,0,0,0,0
1684153128.59985018,64428385,1479,1483,1618,1620,0,0,0,0,0,0,0,0,0,0
1684153128.69981027,64528345,1519,1525,1613,1610,0,0,0,0,0,0,0,0,0,0
1684153128.79977012,64628305,1553,1558,1602,1597,0,0,0,0,0,0,0,0,0,0
1684153128.89973021,64728265,1581,1582,1593,1589,0,0,0,0,0,0,0,0,0,0
1684153128.99969006,64828225,1599,1597,1586,1584,0,0,0,0,0,0,0,0,0,0
1684153129.09965014,64928185,1612,1607,1582,1581,0,0,0,0,0,0,0,0,0,0
1684153129.20044327,65028978,1619,1613,1578,1580,0,0,0,0,0,0,0,0,0,0
1684153129.30040312,65128938,1622,1618,1572,1576,0,0,0,0,0,0,0,0,0,0
1684153129.40036321,65228898,1631,1628,1558,1563,0,0,0,0,0,0,0,0,0,0
1684153129.50032306,65328858,1637,1637,1547,1551,0,0,0,0,0,0,0,0,0,0
1684153129.60028315,65428818,1638,1639,1543,1545,0,0,0,0,0,0,0,0,0,0
1684153129.70024323,65528778,1633,1634,1546,1546,0,0,0,0,0,0,0,0,0,0
1684153129.80020308,65628738,1624,1624,1556,1555,0,0,0,0,0,0,0,0,0,0
1684153129.90016317,65728698,1612,1610,1568,1567,0,0,0,0,0,0,0,0,0,0
1684153130.00012326,65828658,1596,1594,1580,1580,0,0,0,0,0,0,0,0,0,0
1684153130.10008311,65928618,1582,1580,1591,1592,0,0,0,0,0,0,0,0,0,0
1684153130.20004320,66028578,1573,1573,1597,1597,0,0,0,0,0,0,0,0,0,0
1684153130.30000305,66128538,1567,1569,1598,1598,0,0,0,0,0,0,0,0,0,0
1684153130.39996314,66228498,1565,1567,1597,1596,0,0,0,0,0,0,0,0,0,0
1684153130.49992323,66328458,1566,1568,1596,1594,0,0,0,0,0,0,0,0,0,0
1684153130.59988308,66428418,1567,1569,1593,1591,0,0,0,0,0,0,0,0,0,0
1684153130.69984317,66528378,1568,1570,1589,1588,0,0,0,0,0,0,0,0,0,0
1684153130.79980326,66628338,1571,1572,1586,1586,0,0,0,0,0,0,0,0,0,0
1684153130.89976311,66728298,1574,1574,1584,1584,0,0,0,0,0,0,0,0,0,0
1684153130.99972320,66828258,1577,1577,1583,1582,0,0,0,0,0,0,0,0,0,0
1684153131.09968305,66928218,1579,1578,1580,1580,0,0,0,0,0,0,0,0,0,0
1684153131.19964314,67028178,1580,1579,1578,1578,0,0,0,0,0,0,0,0,0,0
1684153131.30043626,67128971,1581,1581,1577,1577,0,0,0,0,0,0,0,0,0,0
1684153131.40039611,67228931,1582,1582,1576,1577,0,0,0,0,0,0,0,0,0,0
1684153131.50035620,67328891,1583,1583,1576,1576,0,0,0,0,0,0,0,0,0,0
1684153131.60031605,67428851,1584,1584,1577,1576,0,0,0,0,0,0,0,0,0,0
1684153131.70027614,67528811,1585,1584,1576,1575,0,0,0,0,0,0,0,0,0,0
1684153131.80023623,67628771,1586,1583,1583,1568,0,0,0,0,0,0,0,0,0,0
1684153131.90019608,67728731,1585,1581,1578,1568,0,0,0,0,0,0,0,0,0,0
1684153132.00015616,67828691,1584,1581,1570,1569,0,0,0,0,0,0,0,0,0,0
1684153132.10011625,67928651,1581,1580,1563,1568,0,0,0,0,0,0,0,0,0,0
1684153132.20007610,68028611,1578,1579,1558,1564,0,0,0,0,0,0,0,0,0,0
1684153132.30003619,68128571,1576,1579,1556,1560,0,0,0,0,0,0,0,0,0,0
1684153132.39999604,68228531,1575,1579,1557,1557,0,0,0,0,0,0,0,0,0,0
1684153132.49995613,68328491,1575,1579,1557,1556,0,0,0,0,0,0,0,0,0,0
1684153132.59991622,68428451,1575,1577,1557,1554,0,0,0,0,0,0,0,0,0,0
1684153132.69987607,68528411,1575,1575,1556,1553,0,0,0,0,0,0,0,0,0,0
1684153132.79983616,68628371,1575,1575,1555,1553,0,0,0,0,0,0,0,0,0,0
1684153132.89979625,68728331,1575,1574,1553,1553,0,0,0,0,0,0,0,0,0,0
1684153132.99975610,68828291,1575,1574,1551,1552,0,0,0,0,0,0,0,0,0,0
1684153133.09971619,68928251,1575,1575,1550,1551,0,0,0,0,0,0,0,0,0,0
1684153133.19967628,69028211,1575,1576,1549,1549,0,0,0,0,0,0,0,0,0,0
1684153133.29963613,69128171,1575,1576,1546,1546,0,0,0,0,0,0,0,0,0,0
1684153133.40042925,69228964,1576,1579,1545,1545,0,0,0,0,0,0,0,0,0,0
1684153133.50038910,69328924,1578,1580,1543,1542,0,0,0,0,0,0,0,0,0,0
1684153133.60034919,69428884,1580,1581,1541,1539,0,0,0,0,0,0,0,0,0,0
1684153133.70030928,69528844,1583,1583,1538,1538,0,0,0,0,0,0,0,0,0,0
1684153133.80026913,69628804,1586,1586,1537,1536,0,0,0,0,0,0,0,0,0,0
1684153133.90022922,69728764,1589,1588,1536,1536,0,0,0,0,0,0,0,0,0,0
1684153134.00018907,69828724,1590,1590,1535,1536,0,0,0,0,0,0,0,0,0,0
1684153134.10014915,69928684,1591,1591,1536,1537,0,0,0,0,0,0,0,0,0,0
1684153134.20010924,70028644,1591,1590,1537,1540,0,0,0,0,0,0,0,0,0,0
1684153134.30006909,70128604,1589,1587,1540,1543,0,0,0,0,0,0,0,0,0,0
1684153134.40002918,70228564,1585,1584,1544,1547,0,0,0,0,0,0,0,0,0,0
1684153134.49998927,70328524,1581,1580,1551,1554,0,0,0,0,0,0,0,0,0,0
1684153134.59994912,70428484,1575,1574,1556,1560,0,0,0,0,0,0,0,0,0,0
1684153134.69990921,70528444,1569,1568,1563,1566,0,0,0,0,0,0,0,0,0,0
1684153134.79986906,70628404,1563,1561,1571,1573,0,0,0,0,0,0,0,0,0,0
1684153134.89982915,70728364,1557,1555,1579,1580,0,0,0,0,0,0,0,0,0,0
1684153134.99978924,70828324,1550,1548,1586,1586,0,0,0,0,0,0,0,0,0,0
1684153135.09974909,70928284,1545,1544,1594,1594,0,0,0,0,0,0,0,0,0,0
1684153135.19970918,71028244,1539,1539,1600,1599,0,0,0,0,0,0,0,0,0,0
1684153135.29966927,71128204,1535,1535,1605,1604,0,0,0,0,0,0,0,0,0,0
1684153135.39962912,71228164,1532,1533,1609,1608,0,0,0,0,0,0,0,0,0,0
1684153135.50042224,71328957,1532,1534,1610,1609,0,0,0,0,0,0,0,0,0,0
1684153135.60038209,71428917,1534,1537,1606,1605,0,0,0,0,0,0,0,0,0,0
1684153135.70034218,71528877,1539,1542,1600,1600,0,0,0,0,0,0,0,0,0,0
1684153135.80030227,71628837,1547,1549,1594,1595,0,0,0,0,0,0,0,0,0,0
1684153135.90026212,71728797,1556,1557,1588,1588,0,0,0,0,0,0,0,0,0,0
1684153136.00022221,71828757,1564,1565,1581,1581,0,0,0,0,0,0,0,0,0,0
1684153136.10018206,71928717,1573,1572,1576,1575,0,0,0,0,0,0,0,0,0,0
1684153136.20014215,72028677,1580,1578,1573,1572,0,0,0,0,0,0,0,0,0,0
1684153136.30010223,72128637,1583,1581,1570,1569,0,0,0,0,0,0,0,0,0,0
1684153136.40006208,72228597,1585,1584,1569,1568,0,0,0,0,0,0,0,0,0,0
1684153136.50002217,72328557,1586,1585,1568,1568,0,0,0,0,0,0,0,0,0,0
1684153136.59998226,72428517,1587,1586,1569,1569,0,0,0,0,0,0,0,0,0,0
1684153136.69994211,72528477,1585,1584,1568,1569,0,0,0,0,0,0,0,0,0,0
1684153136.79990220,72628437,1585,1585,1571,1571,0,0,0,0,0,0,0,0,0,0
1684153136.89986205,72728397,1584,1584,1572,1572,0,0,0,0,0,0,0,0,0,0
1684153136.99982214,72828357,1582,1582,1574,1574,0,0,0,0,0,0,0,0,0,0
1684153137.09978223,72928317,1581,1581,1575,1575,0,0,0,0,0,0,0,0,0,0
1684153137.19974208,73028277,1580,1580,1577,1577,0,0,0,0,0,0,0,0,0,0
1684153137.29970217,73128237,1578,1578,1578,1578,0,0,0,0,0,0,0,0,0,0
1684153137.39966226,73228197,1577,1577,1578,1578,0,0,0,0,0,0,0,0,0,0
1684153137.49962211,73328157,1577,1577,1580,1580,0,0,0,0,0,0,0,0,0,0
1684153137.60041523,73428950,1576,1577,1581,1580,0,0,0,0,0,0,0,0,0,0
1684153137.70037508,73528910,1576,1576,1581,1581,0,0,0,0,0,0,0,0,0,0
1684153137.80033517,73628870,1576,1576,1581,1581,0,0,0,0,0,0,0,0,0,0
1684153137.90029526,73728830,1577,1576,1582,1582,0,0,0,0,0,0,0,0,0,0
1684153138.00025511,73828790,1577,1577,1582,1582,0,0,0,0,0,0,0,0,0,0
1684153138.10021520,73928750,1576,1577,1580,1581,0,0,0,0,0,0,0,0,0,0
1684153138.20017505,74028710,1577,1578,1580,1580,0,0,0,0,0,0,0,0,0,0
1684153138.30013514,74128670,1579,1580,1581,1581,0,0,0,0,0,0,0,0,0,0
1684153138.40009522,74228630,1580,1580,1581,1581,0,0,0,0,0,0,0,0,0,0
1684153138.50005507,74328590,1580,1580,1580,1580,0,0,0,0,0,0,0,0,0,0
1684153138.60001516,74428550,1581,1580,1579,1580,0,0,0,0,0,0,0,0,0,0
1684153138.69997525,74528510,1581,1580,1578,1578,0,0,0,0,0,0,0,0,0,0
1684153138.79993510,74628470,1581,1581,1579,1579,0,0,0,0,0,0,0,0,0,0
1684153138.89989519,74728430,1581,1581,1578,1578,0,0,0,0,0,0,0,0,0,0
1684153138.99985504,74828390,1582,1581,1579,1579,0,0,0,0,0,0,0,0,0,0
1684153139.09981513,74928350,1581,1581,1578,1578,0,0,0,0,0,0,0,0,0,0
1684153139.19977522,75028310,1581,1581,1579,1579,0,0,0,0,0,0,0,0,0,0
1684153139.29973507,75128270,1581,1581,1579,1579,0,0,0,0,0,0,0,0,0,0
1684153139.39969516,75228230,1580,1580,1579,1579,0,0,0,0,0,0,0,0,0,0
1684153139.49965525,75328190,1581,1581,1580,1580,0,0,0,0,0,0,0,0,0,0
1684153139.60044813,75428983,1581,1581,1580,1580,0,0,0,0,0,0,0,0,0,0
1684153139.70040822,75528943,1581,1581,1581,1581,0,0,0,0,0,0,0,0,0,0
1684153139.80036807,75628903,1580,1580,1581,1581,0,0,0,0,0,0,0,0,0,0
1684153139.90032816,75728863,1579,1580,1580,1581,0,0,0,0,0,0,0,0,0,0
1684153140.00028825,75828823,1580,1580,1580,1581,0,0,0,0,0,0,0,0,0,0
1684153140.10024810,75928783,1580,1580,1581,1581,0,0,0,0,0,0,0,0,0,0
1684153140.20020819,76028743,1581,1581,1582,1582,0,0,0,0,0,0,0,0,0,0
1684153140.30016828,76128703,1581,1581,1582,1582,0,0,0,0,0,0,0,0,0,0
1684153140.40012813,76228663,1580,1581,1581,1581,0,0,0,0,0,0,0,0,0,0
1684153140.50008821,76328623,1582,1582,1586,1578,0,0,0,0,0,0,0,0,0,0
1684153140.60004807,76428583,1581,1582,1588,1573,0,0,0,0,0,0,0,0,0,0
1684153140.70000815,76528543,1581,1582,1582,1574,0,0,0,0,0,0,0,0,0,0
1684153140.79996824,76628503,1578,1580,1572,1572,0,0,0,0,0,0,0,0,0,0
1684153140.89992809,76728463,1578,1579,1564,1569,0,0,0,0,0,0,0,0,0,0
1684153140.99988818,76828423,1577,1579,1558,1565,0,0,0,0,0,0,0,0,0,0
1684153141.09984827,76928383,1577,1579,1556,1561,0,0,0,0,0,0,0,0,0,0
1684153141.19980812,77028343,1578,1579,1555,1558,0,0,0,0,0,0,0,0,0,0
1684153141.29976821,77128303,1580,1579,1557,1556,0,0,0,0,0,0,0,0,0,0
1684153141.39972806,77228263,1579,1579,1557,1555,0,0,0,0,0,0,0,0,0,0
1684153141.49968815,77328223,1578,1578,1557,1554,0,0,0,0,0,0,0,0,0,0
1684153141.59964824,77428183,1577,1577,1556,1554,0,0,0,0,0,0,0,0,0,0
1684153141.70044112,77528976,1576,1577,1555,1554,0,0,0,0,0,0,0,0,0,0
1684153141.80040121,77628936,1576,1577,1554,1554,0,0,0,0,0,0,0,0,0,0
1684153141.90036106,77728896,1576,1577,1553,1553,0,0,0,0,0,0,0,0,0,0
1684153142.00032115,77828856,1576,1577,1551,1552,0,0,0,0,0,0,0,0,0,0
1684153142.10028124,77928816,1577,1579,1550,1550,0,0,0,0,0,0,0,0,0,0
1684153142.20024109,78028776,1578,1580,1548,1548,0,0,0,0,0,0,0,0,0,0
1684153142.30020118,78128736,1580,1581,1545,1545,0,0,0,0,0,0,0,0,0,0
1684153142.40016127,78228696,1582,1583,1544,1543,0,0,0,0,0,0,0,0,0,0
1684153142.50012112,78328656,1585,1585,1541,1542,0,0,0,0,0,0,0,0,0,0
1684153142.60008121,78428616,1587,1587,1540,1540,0,0,0,0,0,0,0,0,0,0
1684153142.70004106,78528576,1589,1589,1539,1539,0,0,0,0,0,0,0,0,0,0
1684153142.80000114,78628536,1590,1590,1539,1539,0,0,0,0,0,0,0,0,0,0
1684153142.89996123,78728496,1591,1590,1539,1540,0,0,0,0,0,0,0,0,0,0
1684153142.99992108,78828456,1590,1591,1540,1542,0,0,0,0,0,0,0,0,0,0
1684153143.09988117,78928416,1589,1589,1542,1545,0,0,0,0,0,0,0,0,0,0
1684153143.19984126,79028376,1587,1586,1546,1549,0,0,0,0,0,0,0,0,0,0
1684153143.29980111,79128336,1583,1580,1553,1555,0,0,0,0,0,0,0,0,0,0
1684153143.39976120,79228296,1775,1772,1556,1558,0,0,0,0,0,0,0,0,0,0
1684153143.49972105,79328256,1707,1698,1524,1524,0,0,0,0,0,0,0,0,0,0
1684153143.59968114,79428216,1647,1640,1538,1541,0,0,0,0,0,0,0,0,0,0
1684153143.69964123,79528176,1589,1583,1565,1569,0,0,0,0,0,0,0,0,0,0
1684153143.80043411,79628969,1539,1537,1592,1593,0,0,0,0,0,0,0,0,0,0
1684153143.90039420,79728929,1509,1510,1607,1606,0,0,0,0,0,0,0,0,0,0
1684153144.00035405,79828889,1496,1499,1615,1612,0,0,0,0,0,0,0,0,0,0
1684153144.10031414,79928849,1493,1497,1617,1613,0,0,0,0,0,0,0,0,0,0
1684153144.20027423,80028809,1485,1488,1626,1622,0,0,0,0,0,0,0,0,0,0
1684153144.30023408,80128769,1479,1482,1635,1635,0,0,0,0,0,0,0,0,0,0
1684153144.40019417,80228729,1482,1485,1635,1637,0,0,0,0,0,0,0,0,0,0
1684153144.50015426,80328689,1495,1499,1626,1629,0,0,0,0,0,0,0,0,0,0
1684153144.60011411,80428649,1517,1520,1610,1613,0,0,0,0,0,0,0,0,0,0
1684153144.70007420,80528609,1543,1547,1591,1594,0,0,0,0,0,0,0,0,0,0
1684153144.80003405,80628569,1564,1566,1573,1575,0,0,0,0,0,0,0,0,0,0
1684153144.89999413,80728529,1578,1578,1564,1564,0,0,0,0,0,0,0,0,0,0
1684153144.99995422,80828489,1587,1586,1561,1560,0,0,0,0,0,0,0,0,0,0
1684153145.09991407,80928449,1592,1590,1561,1559,0,0,0,0,0,0,0,0,0,0
1684153145.19987416,81028409,1594,1591,1563,1560,0,0,0,0,0,0,0,0,0,0
1684153145.29983425,81128369,1594,1592,1565,1563,0,0,0,0,0,0,0,0,0,0
1684153145.39979410,81228329,1593,1591,1568,1566,0,0,0,0,0,0,0,0,0,0
1684153145.49975419,81328289,1592,1591,1572,1571,0,0,0,0,0,0,0,0,0,0
1684153145.59971404,81428249,1589,1589,1573,1573,0,0,0,0,0,0,0,0,0,0
1684153145.69967413,81528209,1587,1586,1575,1575,0,0,0,0,0,0,0,0,0,0
1684153145.79963422,81628169,1584,1584,1577,1577,0,0,0,0,0,0,0,0,0,0
1684153145.90042710,81728962,1582,1582,1579,1579,0,0,0,0,0,0,0,0,0,0
1684153146.00038719,81828922,1580,1580,1581,1581,0,0,0,0,0,0,0,0,0,0
1684153146.10034704,81928882,1578,1578,1582,1582,0,0,0,0,0,0,0,0,0,0
1684153146.20030713,82028842,1578,1578,1583,1584,0,0,0,0,0,0,0,0,0,0
1684153146.30026722,82128802,1576,1577,1584,1584,0,0,0,0,0,0,0,0,0,0
1684153146.40022707,82228762,1576,1576,1584,1584,0,0,0,0,0,0,0,0,0,0
1684153146.50018716,82328722,1576,1577,1585,1585,0,0,0,0,0,0,0,0,0,0
1684153146.60014725,82428682,1576,1576,1584,1583,0,0,0,0,0,0,0,0,0,0
1684153146.70010710,82528642,1577,1577,1584,1584,0,0,0,0,0,0,0,0,0,0
1684153146.80006719,82628602,1576,1576,1583,1583,0,0,0,0,0,0,0,0,0,0
1684153146.90002728,82728562,1576,1577,1582,1582,0,0,0,0,0,0,0,0,0,0
1684153146.99998713,82828522,1577,1577,1582,1582,0,0,0,0,0,0,0,0,0,0
1684153147.09994721,82928482,1577,1577,1580,1581,0,0,0,0,0,0,0,0,0,0
1684153147.19990706,83028442,1578,1578,1581,1581,0,0,0,0,0,0,0,0,0,0
1684153147.29986715,83128402,1578,1578,1580,1580,0,0,0,0,0,0,0,0,0,0
1684153147.39982724,83228362,1580,1579,1581,1581,0,0,0,0,0,0,0,0,0,0
1684153147.49978709,83328322,1580,1580,1580,1581,0,0,0,0,0,0,0,0,0,0
1684153147.59974718,83428282,1579,1579,1579,1579,0,0,0,0,0,0,0,0,0,0
1684153147.69970727,83528242,1580,1580,1579,1579,0,0,0,0,0,0,0,0,0,0
1684153147.79966712,83628202,1581,1580,1580,1580,0,0,0,0,0,0,0,0,0,0
1684153147.89962721,83728162,1581,1582,1581,1580,0,0,0,0,0,0,0,0,0,0
1684153148.00042009,83828955,1581,1581,1580,1580,0,0,0,0,0,0,0,0,0,0
1684153148.10038018,83928915,1581,1581,1580,1580,0,0,0,0,0,0,0,0,0,0
1684153148.20034027,84028875,1581,1582,1580,1581,0,0,0,0,0,0,0,0,0,0
1684153148.30030012,84128835,1582,1582,1581,1581,0,0,0,0,0,0,0,0,0,0
1684153148.40026021,84228795,1583,1582,1582,1581,0,0,0,0,0,0,0,0,0,0
1684153148.50022006,84328755,1582,1582,1581,1581,0,0,0,0,0,0,0,0,0,0
1684153148.60018015,84428715,1582,1584,1586,1575,0,0,0,0,0,0,0,0,0,0
1684153148.70014024,84528675,1581,1585,1586,1573,0,0,0,0,0,0,0,0,0,0
1684153148.80010009,84628635,1578,1581,1580,1574,0,0,0,0,0,0,0,0,0,0
1684153148.90006018,84728595,1575,1577,1572,1575,0,0,0,0,0,0,0,0,0,0
1684153149.00002027,84828555,1572,1571,1567,1574,0,0,0,0,0,0,0,0,0,0
1684153149.09998012,84928515,1570,1568,1564,1571,0,0,0,0,0,0,0,0,0,0
1684153149.19994020,85028475,1569,1566,1564,1568,0,0,0,0,0,0,0,0,0,0
1684153149.29990005,85128435,1568,1566,1565,1566,0,0,0,0,0,0,0,0,0,0
1684153149.39986014,85228395,1567,1566,1567,1565,0,0,0,0,0,0,0,0,0,0
1684153149.49982023,85328355,1566,1566,1568,1565,0,0,0,0,0,0,0,0,0,0
1684153149.59978008,85428315,1564,1565,1566,1564,0,0,0,0,0,0,0,0,0,0
1684153149.69974017,85528275,1564,1564,1566,1565,0,0,0,0,0,0,0,0,0,0
1684153149.79970026,85628235,1563,1564,1565,1564,0,0,0,0,0,0,0,0,0,0
1684153149.89966011,85728195,1562,1563,1564,1564,0,0,0,0,0,0,0,0,0,0
1684153149.99962020,85828155,1562,1562,1563,1563,0,0,0,0,0,0,0,0,0,0
1684153150.10041308,85928948,1562,1561,1562,1563,0,0,0,0,0,0,0,0,0,0
1684153150.20037317,86028908,1562,1561,1563,1563,0,0,0,0,0,0,0,0,0,0
1684153150.30033326,86128868,1562,1562,1562,1562,0,0,0,0,0,0,0,0,0,0
1684153150.40029311,86228828,1562,1561,1562,1561,0,0,0,0,0,0,0,0,0,0
1684153150.50025320,86328788,1561,1561,1562,1561,0,0,0,0,0,0,0,0,0,0
1684153150.60021305,86428748,1559,1559,1560,1559,0,0,0,0,0,0,0,0,0,0
1684153150.70017314,86528708,1558,1559,1558,1558,0,0,0,0,0,0,0,0,0,0
1684153150.80013323,86628668,1559,1559,1559,1558,0,0,0,0,0,0,0,0,0,0
1684153150.90009308,86728628,1558,1558,1558,1557,0,0,0,0,0,0,0,0,0,0
1684153151.00005317,86828588,1558,1558,1558,1557,0,0,0,0,0,0,0,0,0,0
1684153151.10001326,86928548,1558,1558,1558,1557,0,0,0,0,0,0,0,0,0,0
1684153151.19997311,87028508,1558,1558,1559,1557,0,0,0,0,0,0,0,0,0,0
1684153151.29993320,87128468,1557,1559,1559,1557,0,0,0,0,0,0,0,0,0,0
1684153151.39989305,87228428,1558,1559,1559,1558,0,0,0,0,0,0,0,0,0,0
1684153151.49985313,87328388,1559,1560,1558,1561,0,0,0,0,0,0,0,0,0,0
1684153151.59981322,87428348,1561,1560,1557,1563,0,0,0,0,0,0,0,0,0,0
1684153151.69977307,87528308,1561,1560,1557,1564,0,0,0,0,0,0,0,0,0,0
1684153151.79973316,87628268,1562,1561,1559,1563,0,0,0,0,0,0,0,0,0,0
1684153151.89969325,87728228,1561,1560,1560,1561,0,0,0,0,0,0,0,0,0,0
1684153151.99965310,87828188,1560,1559,1560,1558,0,0,0,0,0,0,0,0,0,0
1684153152.10044622,87928981,1559,1558,1558,1560,0,0,0,0,0,0,0,0,0,0
1684153152.20040607,88028941,1556,1556,1555,1558,0,0,0,0,0,0,0,0,0,0
1684153152.30036616,88128901,1551,1551,1551,1552,0,0,0,0,0,0,0,0,0,0
1684153152.40032625,88228861,1546,1546,1546,1546,0,0,0,0,0,0,0,0,0,0
1684153152.50028610,88328821,1539,1539,1540,1540,0,0,0,0,0,0,0,0,0,0
1684153152.60024619,88428781,1532,1532,1532,1532,0,0,0,0,0,0,0,0,0,0
1684153152.70020604,88528741,1524,1525,1525,1525,0,0,0,0,0,0,0,0,0,0
1684153152.80016613,88628701,1520,1520,1520,1520,0,0,0,0,0,0,0,0,0,0
1684153152.90012622,88728661,1520,1519,1520,1520,0,0,0,0,0,0,0,0,0,0
1684153153.00008607,88828621,1520,1521,1521,1521,0,0,0,0,0,0,0,0,0,0
1684153153.10004616,88928581,1522,1523,1522,1523,0,0,0,0,0,0,0,0,0,0
1684153153.20000625,89028541,1526,1526,1526,1526,0,0,0,0,0,0,0,0,0,0
1684153153.29996610,89128501,1529,1529,1529,1529,0,0,0,0,0,0,0,0,0,0
1684153153.39992619,89228461,1535,1534,1535,1534,0,0,0,0,0,0,0,0,0,0
1684153153.49988627,89328421,1538,1538,1538,1538,0,0,0,0,0,0,0,0,0,0
1684153153.59984612,89428381,1541,1542,1541,1542,0,0,0,0,0,0,0,0,0,0
1684153153.69980621,89528341,1542,1543,1543,1542,0,0,0,0,0,0,0,0,0,0
1684153153.79976606,89628301,1545,1545,1545,1545,0,0,0,0,0,0,0,0,0,0
1684153153.89972615,89728261,1544,1545,1545,1545,0,0,0,0,0,0,0,0,0,0
1684153153.99968624,89828221,1546,1546,1546,1546,0,0,0,0,0,0,0,0,0,0
1684153154.09964609,89928181,1546,1545,1546,1545,0,0,0,0,0,0,0,0,0,0
1684153154.20043921,90028974,1546,1546,1546,1546,0,0,0,0,0,0,0,0,0,0
1684153154.30039907,90128934,1546,1546,1547,1546,0,0,0,0,0,0,0,0,0,0
1684153154.40035915,90228894,1545,1546,1546,1546,0,0,0,0,0,0,0,0,0,0
1684153154.50031924,90328854,1546,1546,1546,1546,0,0,0,0,0,0,0,0,0,0
1684153154.60027909,90428814,1546,1546,1546,1546,0,0,0,0,0,0,0,0,0,0
1684153154.70023918,90528774,1546,1545,1545,1546,0,0,0,0,0,0,0,0,0,0
1684153154.80019927,90628734,1545,1545,1545,1545,0,0,0,0,0,0,0,0,0,0
1684153154.90015912,90728694,1545,1544,1545,1544,0,0,0,0,0,0,0,0,0,0
1684153155.00011921,90828654,1543,1543,1544,1543,0,0,0,0,0,0,0,0,0,0
1684153155.10007906,90928614,1544,1543,1544,1544,0,0,0,0,0,0,0,0,0,0
1684153155.20003915,91028574,1544,1544,1545,1544,0,0,0,0,0,0,0,0,0,0
1684153155.29999924,91128534,1544,1544,1544,1544,0,0,0,0,0,0,0,0,0,0
1684153155.39995909,91228494,1543,1544,1544,1543,0,0,0,0,0,0,0,0,0,0
1684153155.49991918,91328454,1545,1544,1544,1544,0,0,0,0,0,0,0,0,0,0
1684153155.59987926,91428414,1545,1544,1545,1544,0,0,0,0,0,0,0,0,0,0
1684153155.69983912,91528374,1544,1544,1544,1545,0,0,0,0,0,0,0,0,0,0
1684153155.79979920,91628334,1544,1544,1544,1545,0,0,0,0,0,0,0,0,0,0
1684153155.89975905,91728294,1544,1544,1544,1544,0,0,0,0,0,0,0,0,0,0
1684153155.99971914,91828254,1544,1544,1544,1544,0,0,0,0,0,0,0,0,0,0
1684153156.09967923,91928214,1544,1544,1545,1544,0,0,0,0,0,0,0,0,0,0
1684153156.19963908,92028174,1545,1545,1545,1545,0,0,0,0,0,0,0,0,0,0
1684153156.30043221,92128967,1544,1544,1544,1545,0,0,0,0,0,0,0,0,0,0
1684153156.40039206,92228927,1545,1544,1545,1545,0,0,0,0,0,0,0,0,0,0
1684153156.50035214,92328887,1544,1544,1544,1544,0,0,0,0,0,0,0,0,0,0
1684153156.60031223,92428847,1543,1544,1544,1544,0,0,0,0,0,0,0,0,0,0
1684153156.70027208,92528807,1544,1544,1544,1544,0,0,0,0,0,0,0,0,0,0
1684153156.80023217,92628767,1544,1544,1544,1544,0,0,0,0,0,0,0,0,0,0
1684153156.90019226,92728727,1544,1544,1544,1544,0,0,0,0,0,0,0,0,0,0
1684153157.00015211,92828687,1545,1544,1544,1544,0,0,0,0,0,0,0,0,0,0
1684153157.10011220,92928647,1544,1544,1545,1544,0,0,0,0,0,0,0,0,0,0
1684153157.20007205,93028607,1543,1543,1544,1543,0,0,0,0,0,0,0,0,0,0
1684153157.30003214,93128567,1544,1543,1544,1543,0,0,0,0,0,0,0,0,0,0
1684153157.39999223,93228527,1544,1544,1544,1545,0,0,0,0,0,0,0,0,0,0
1684153157.49995208,93328487,1544,1544,1544,1545,0,0,0,0,0,0,0,0,0,0
1684153157.59991217,93428447,1544,1545,1544,1544,0,0,0,0,0,0,0,0,0,0
1684153157.69987226,93528407,1544,1544,1544,1545,0,0,0,0,0,0,0,0,0,0
1684153157.79983211,93628367,1544,1544,1545,1544,0,0,0,0,0,0,0,0,0,0
1684153157.89979219,93728327,1544,1544,1544,1544,0,0,0,0,0,0,0,0,0,0
1684153157.99975204,93828287,1545,1544,1545,1545,0,0,0,0,0,0,0,0,0,0
1684153158.09971213,93928247,1544,1544,1544,1544,0,0,0,0,0,0,0,0,0,0
1684153158.19967222,94028207,1545,1544,1545,1544,0,0,0,0,0,0,0,0,0,0
1684153158.29963207,94128167,1544,1544,1544,1544,0,0,0,0,0,0,0,0,0,0
1684153158.40042520,94228960,1544,1545,1545,1544,0,0,0,0,0,0,0,0,0,0
1684153158.50038505,94328920,1544,1544,1544,1544,0,0,0,0,0,0,0,0,0,0
1684153158.60034513,94428880,1545,1544,1544,1545,0,0,0,0,0,0,0,0,0,0
1684153158.70030522,94528840,1544,1544,1544,1545,0,0,0,0,0,0,0,0,0,0
1684153158.80026507,94628800,1544,1544,1544,1544,0,0,0,0,0,0,0,0,0,0
1684153158.90022516,94728760,1543,1543,1543,1543,0,0,0,0,0,0,0,0,0,0
1684153159.00018525,94828720,1544,1544,1544,1544,0,0,0,0,0,0,0,0,0,0
1684153159.10014510,94928680,1544,1544,1544,1544,0,0,0,0,0,0,0,0,0,0
1684153159.20010519,95028640,1543,1544,1544,1544,0,0,0,0,0,0,0,0,0,0
1684153159.30006504,95128600,1544,1544,1545,1544,0,0,0,0,0,0,0,0,0,0
1684153159.40002513,95228560,1545,1545,1545,1545,0,0,0,0,0,0,0,0,0,0
1684153159.49998522,95328520,1545,1544,1545,1545,0,0,0,0,0,0,0,0,0,0
1684153159.59994507,95428480,1544,1545,1545,1544,0,0,0,0,0,0,0,0,0,0
1684153159.69990516,95528440,1544,1544,1543,1544,0,0,0,0,0,0,0,0,0,0
1684153159.79986525,95628400,1544,1544,1544,1544,0,0,0,0,0,0,0,0,0,0
1684153159.89982510,95728360,1544,1544,1544,1544,0,0,0,0,0,0,0,0,0,0
1684153159.99978518,95828320,1543,1543,1544,1543,0,0,0,0,0,0,0,0,0,0
1684153160.09974527,95928280,1545,1545,1545,1545,0,0,0,0,0,0,0,0,0,0
1684153160.19970512,96028240,1544,1544,1544,1544,0,0,0,0,0,0,0,0,0,0
1684153160.29966521,96128200,1544,1544,1544,1544,0,0,0,0,0,0,0,0,0,0
1684153160.39962506,96228160,1544,1544,1545,1544,0,0,0,0,0,0,0,0,0,0
1684153160.50041819,96328953,1543,1543,1543,1543,0,0,0,0,0,0,0,0,0,0
1684153160.60037827,96428913,1544,1544,1544,1544,0,0,0,0,0,0,0,0,0,0
1684153160.70033813,96528873,1545,1545,1545,1545,0,0,0,0,0,0,0,0,0,0
1684153160.80029821,96628833,1545,1545,1545,1545,0,0,0,0,0,0,0,0,0,0
1684153160.90025806,96728793,1545,1545,1544,1545,0,0,0,0,0,0,0,0,0,0
1684153161.00021815,96828753,1544,1544,1544,1544,0,0,0,0,0,0,0,0,0,0
1684153161.10017824,96928713,1544,1544,1544,1544,0,0,0,0,0,0,0,0,0,0
1684153161.20013809,97028673,1545,1544,1545,1544,0,0,0,0,0,0,0,0,0,0
1684153161.30009818,97128633,1545,1544,1545,1545,0,0,0,0,0,0,0,0,0,0
1684153161.40005827,97228593,1544,1545,1545,1545,0,0,0,0,0,0,0,0,0,0
1684153161.50001812,97328553,1544,1544,1544,1544,0,0,0,0,0,0,0,0,0,0
1684153161.59997821,97428513,1544,1544,1544,1544,0,0,0,0,0,0,0,0,0,0
1684153161.69993806,97528473,1544,1544,1544,1544,0,0,0,0,0,0,0,0,0,0
1684153161.79989815,97628433,1544,1544,1544,1544,0,0,0,0,0,0,0,0,0,0
1684153161.89985824,97728393,1544,1543,1544,1544,0,0,0,0,0,0,0,0,0,0
1684153161.99981809,97828353,1544,1544,1544,1544,0,0,0,0,0,0,0,0,0,0
1684153162.09977818,97928313,1545,1544,1544,1544,0,0,0,0,0,0,0,0,0,0
1684153162.19973826,98028273,1544,1545,1545,1544,0,0,0,0,0,0,0,0,0,0
1684153162.29969811,98128233,1544,1544,1544,1544,0,0,0,0,0,0,0,0,0,0
1684153162.39965820,98228193,1544,1544,1544,1544,0,0,0,0,0,0,0,0,0,0
1684153162.50045109,98328986,1509,1507,1508,1509,0,0,0,0,0,0,0,0,0,0
1684153162.60041118,98428946,1326,1324,1327,1325,0,0,0,0,0,0,0,0,0,0
1684153162.70037127,98528906,1240,1237,1241,1239,0,0,0,0,0,0,0,0,0,0
1684153162.80033112,98628866,1212,1210,1215,1212,0,0,0,0,0,0,0,0,0,0
1684153162.90029120,98728826,1185,1182,1188,1186,0,0,0,0,0,0,0,0,0,0
1684153163.00025105,98828786,1152,1150,1157,1153,0,0,0,0,0,0,0,0,0,0
1684153163.10021114,98928746,1153,1150,1158,1154,0,0,0,0,0,0,0,0,0,0
1684153163.20017123,99028706,1153,1150,1159,1154,0,0,0,0,0,0,0,0,0,0
1684153163.30013108,99128666,1183,1150,1155,1189,0,0,0,0,0,0,0,0,0,0
1684153163.40009117,99228626,1176,1150,1158,1180,0,0,0,0,0,0,0,0,0,0
1684153163.50005126,99328586,1173,1150,1160,1176,0,0,0,0,0,0,0,0,0,0
1684153163.60001111,99428546,1173,1150,1161,1176,0,0,0,0,0,0,0,0,0,0
1684153163.69997120,99528506,1175,1150,1161,1179,0,0,0,0,0,0,0,0,0,0
1684153163.79993105,99628466,1177,1150,1162,1181,0,0,0,0,0,0,0,0,0,0
1684153163.89989114,99728426,1179,1150,1163,1184,0,0,0,0,0,0,0,0,0,0
1684153163.99985123,99828386,1181,1150,1163,1186,0,0,0,0,0,0,0,0,0,0
1684153164.09981108,99928346,1166,1150,1163,1172,0,0,0,0,0,0,0,0,0,0
1684153164.19977117,100028306,1168,1150,1163,1175,0,0,0,0,0,0,0,0,0,0
1684153164.29973125,100128266,1168,1150,1164,1176,0,0,0,0,0,0,0,0,0,0
1684153164.39969110,100228226,1169,1150,1164,1177,0,0,0,0,0,0,0,0,0,0
1684153164.49965119,100328186,1170,1150,1165,1178,0,0,0,0,0,0,0,0,0,0
1684153164.60044408,100428979,1000,1000,1000,1000,0,0,0,0,0,0,0,0,0,0
1684153164.70040417,100528939,1000,1000,1000,1000,0,0,0,0,0,0,0,0,0,0
1684153164.80036426,100628899,1000,1000,1000,1000,0,0,0,0,0,0,0,0,0,0
1684153164.90032411,100728859,1000,1000,1000,1000,0,0,0,0,0,0,0,0,0,0
1684153165.00028419,100828819,1000,1000,1000,1000,0,0,0,0,0,0,0,0,0,0
1684153165.10024405,100928779,1000,1000,1000,1000,0,0,0,0,0,0,0,0,0,0
1684153165.20020413,101028739,1000,1000,1000,1000,0,0,0,0,0,0,0,0,0,0
1684153165.30016422,101128699,1000,1000,1000,1000,0,0,0,0,0,0,0,0,0,0
1684153165.40012407,101228659,1000,1000,1000,1000,0,0,0,0,0,0,0,0,0,0
1684153165.50008416,101328619,1000,1000,1000,1000,0,0,0,0,0,0,0,0,0,0
1684153165.60004425,101428579,1000,1000,1000,1000,0,0,0,0,0,0,0,0,0,0
1684153165.70000410,101528539,1000,1000,1000,1000,0,0,0,0,0,0,0,0,0,0
1684153165.79996419,101628499,1000,1000,1000,1000,0,0,0,0,0,0,0,0,0,0
1684153165.89992404,101728459,1000,1000,1000,1000,0,0,0,0,0,0,0,0,0,0
1684153165.99988413,101828419,1000,1000,1000,1000,0,0,0,0,0,0,0,0,0,0
1684153166.09984422,101928379,1000,1000,1000,1000,0,0,0,0,0,0,0,0,0,0
1684153166.19980407,102028339,1000,1000,1000,1000,0,0,0,0,0,0,0,0,0,0
1684153166.29976416,102128299,1000,1000,1000,1000,0,0,0,0,0,0,0,0,0,0
1684153166.39972425,102228259,1000,1000,1000,1000,0,0,0,0,0,0,0,0,0,0
1684153166.49968410,102328219,1000,1000,1000,1000,0,0,0,0,0,0,0,0,0,0
1684153166.59964418,102428179,1000,1000,1000,1000,0,0,0,0,0,0,0,0,0,0
1684153166.70043707,102528972,1000,1000,1000,1000,0,0,0,0,0,0,0,0,0,0
1684153166.80039716,102628932,1000,1000,1000,1000,0,0,0,0,0,0,0,0,0,0
1684153166.90035725,102728892,1000,1000,1000,1000,0,0,0,0,0,0,0,0,0,0
1684153167.00031710,102828852,1000,1000,1000,1000,0,0,0,0,0,0,0,0,0,0
1684153167.10027719,102928812,1000,1000,1000,1000,0,0,0,0,0,0,0,0,0,0
1684153167.20023727,103028772,1000,1000,1000,1000,0,0,0,0,0,0,0,0,0,0
1684153167.30019712,103128732,1000,1000,1000,1000,0,0,0,0,0,0,0,0,0,0
1684153167.40015721,103228692,1000,1000,1000,1000,0,0,0,0,0,0,0,0,0,0
1684153167.50011706,103328652,1000,1000,1000,1000,0,0,0,0,0,0,0,0,0,0
1684153167.60007715,103428612,1000,1000,1000,1000,0,0,0,0,0,0,0,0,0,0
1684153167.70003724,103528572,1000,1000,1000,1000,0,0,0,0,0,0,0,0,0,0
1684153167.79999709,103628532,1000,1000,1000,1000,0,0,0,0,0,0,0,0,0,0
1684153167.89995718,103728492,1000,1000,1000,1000,0,0,0,0,0,0,0,0,0,0
1684153167.99991727,103828452,1000,1000,1000,1000,0,0,0,0,0,0,0,0,0,0
1684153168.09987712,103928412,1000,1000,1000,1000,0,0,0,0,0,0,0,0,0,0
1684153168.19983721,104028372,1000,1000,1000,1000,0,0,0,0,0,0,0,0,0,0
1684153168.29979706,104128332,1000,1000,1000,1000,0,0,0,0,0,0,0,0,0,0
1684153168.39975715,104228292,1000,1000,1000,1000,0,0,0,0,0,0,0,0,0,0
1684153168.49971724,104328252,1000,1000,1000,1000,0,0,0,0,0,0,0,0,0,0
1684153168.59967709,104428212,1000,1000,1000,1000,0,0,0,0,0,0,0,0,0,0
1684153168.69963717,104528172,1000,1000,1000,1000,0,0,0,0,0,0,0,0,0,0
1684153168.80043006,104628965,1000,1000,1000,1000,0,0,0,0,0,0,0,0,0,0
1684153168.90039015,104728925,1000,1000,1000,1000,0,0,0,0,0,0,0,0,0,0
1684153169.00035024,104828885,1000,1000,1000,1000,0,0,0,0,0,0,0,0,0,0
1684153169.10031009,104928845,1000,1000,1000,1000,0,0,0,0,0,0,0,0,0,0
1684153169.20027018,105028805,1000,1000,1000,1000,0,0,0,0,0,0,0,0,0,0
1684153169.30023026,105128765,1000,1000,1000,1000,0,0,0,0,0,0,0,0,0,0
1684153169.40019011,105228725,1000,1000,1000,1000,0,0,0,0,0,0,0,0,0,0
1684153169.50015020,105328685,1000,1000,1000,1000,0,0,0,0,0,0,0,0,0,0
1684153169.60011005,105428645,1000,1000,1000,1000,0,0,0,0,0,0,0,0,0,0
1684153169.70007014,105528605,1000,1000,1000,1000,0,0,0,0,0,0,0,0,0,0
1684153169.80003023,105628565,1000,1000,1000,1000,0,0,0,0,0,0,0,0,0,0
1684153169.89999008,105728525,1000,1000,1000,1000,0,0,0,0,0,0,0,0,0,0
1684153169.99995017,105828485,1000,1000,1000,1000,0,0,0,0,0,0,0,0,0,0
1684153170.09991026,105928445,1000,1000,1000,1000,0,0,0,0,0,0,0,0,0,0
1684153170.19987011,106028405,1000,1000,1000,1000,0,0,0,0,0,0,0,0,0,0
1684153170.29983020,106128365,1000,1000,1000,1000,0,0,0,0,0,0,0,0,0,0
1684153170.39979005,106228325,1000,1000,1000,1000,0,0,0,0,0,0,0,0,0,0
1684153170.49975014,106328285,1000,1000,1000,1000,0,0,0,0,0,0,0,0,0,0
1684153170.59971023,106428245,1000,1000,1000,1000,0,0,0,0,0,0,0,0,0,0
1684153170.69967008,106528205,1000,1000,1000,1000,0,0,0,0,0,0,0,0,0,0
1684153170.79963017,106628165,1000,1000,1000,1000,0,0,0,0,0,0,0,0,0,0
1684153170.90042305,106728958,1000,1000,1000,1000,0,0,0,0,0,0,0,0,0,0
1684153171.00038314,106828918,1000,1000,1000,1000,0,0,0,0,0,0,0,0,0,0
1684153171.10034323,106928878,1000,1000,1000,1000,0,0,0,0,0,0,0,0,0,0
1684153171.20030308,107028838,1000,1000,1000,1000,0,0,0,0,0,0,0,0,0,0
1684153171.30026317,107128798,1000,1000,1000,1000,0,0,0,0,0,0,0,0,0,0
1684153171.40022326,107228758,1000,1000,1000,1000,0,0,0,0,0,0,0,0,0,0
1684153171.50018311,107328718,1000,1000,1000,1000,0,0,0,0,0,0,0,0,0,0
1684153171.60014319,107428678,1000,1000,1000,1000,0,0,0,0,0,0,0,0,0,0
1684153171.70010304,107528638,1000,1000,1000,1000,0,0,0,0,0,0,0,0,0,0
1684153171.80006313,107628598,1000,1000,1000,1000,0,0,0,0,0,0,0,0,0,0
1684153171.90002322,107728558,1000,1000,1000,1000,0,0,0,0,0,0,0,0,0,0
1684153171.99998307,107828518,1000,1000,1000,1000,0,0,0,0,0,0,0,0,0,0
1684153172.09994316,107928478,1000,1000,1000,1000,0,0,0,0,0,0,0,0,0,0
1684153172.19990325,108028438,1000,1000,1000,1000,0,0,0,0,0,0,0,0,0,0
1684153172.29986310,108128398,1000,1000,1000,1000,0,0,0,0,0,0,0,0,0,0
1684153172.39982319,108228358,1000,1000,1000,1000,0,0,0,0,0,0,0,0,0,0
1684153172.49978328,108328318,1000,1000,1000,1000,0,0,0,0,0,0,0,0,0,0
1684153172.59974313,108428278,1000,1000,1000,1000,0,0,0,0,0,0,0,0,0,0
1684153172.69970322,108528238,1000,1000,1000,1000,0,0,0,0,0,0,0,0,0,0
1684153172.79966307,108628198,1000,1000,1000,1000,0,0,0,0,0,0,0,0,0,0
1684153172.89962316,108728158,1000,1000,1000,1000,0,0,0,0,0,0,0,0,0,0
1684153173.00041604,108828951,1000,1000,1000,1000,0,0,0,0,0,0,0,0,0,0
1684153173.10037613,108928911,1000,1000,1000,1000,0,0,0,0,0,0,0,0,0,0
1684153173.20033622,109028871,1000,1000,1000,1000,0,0,0,0,0,0,0,0,0,0
1684153173.30029607,109128831,1000,1000,1000,1000,0,0,0,0,0,0,0,0,0,0
1684153173.40025616,109228791,1000,1000,1000,1000,0,0,0,0,0,0,0,0,0,0
1684153173.50021625,109328751,1000,1000,1000,1000,0,0,0,0,0,0,0,0,0,0
1684153173.60017610,109428711,1000,1000,1000,1000,0,0,0,0,0,0,0,0,0,0
1684153173.70013618,109528671,1000,1000,1000,1000,0,0,0,0,0,0,0,0,0,0
1684153173.80009627,109628631,1000,1000,1000,1000,0,0,0,0,0,0,0,0,0,0
1684153173.90005612,109728591,1000,1000,1000,1000,0,0,0,0,0,0,0,0,0,0
1684153174.00001621,109828551,1000,1000,1000,1000,0,0,0,0,0,0,0,0,0,0
1684153174.09997606,109928511,1000,1000,1000,1000,0,0,0,0,0,0,0,0,0,0
1684153174.19993615,110028471,1000,1000,1000,1000,0,0,0,0,0,0,0,0,0,0
1684153174.29989624,110128431,1000,1000,1000,1000,0,0,0,0,0,0,0,0,0,0
1684153174.39985609,110228391,1000,1000,1000,1000,0,0,0,0,0,0,0,0,0,0
1684153174.49981618,110328351,1000,1000,1000,1000,0,0,0,0,0,0,0,0,0,0
1684153174.59977627,110428311,1000,1000,1000,1000,0,0,0,0,0,0,0,0,0,0
1684153174.69973612,110528271,1000,1000,1000,1000,0,0,0,0,0,0,0,0,0,0
1684153174.79969621,110628231,1000,1000,1000,1000,0,0,0,0,0,0,0,0,0,0
1684153174.89965606,110728191,1000,1000,1000,1000,0,0,0,0,0,0,0,0,0,0
1684153175.00044918,110828984,1000,1000,1000,1000,0,0,0,0,0,0,0,0,0,0
1684153175.10040927,110928944,1000,1000,1000,1000,0,0,0,0,0,0,0,0,0,0
1684153175.20036912,111028904,1000,1000,1000,1000,0,0,0,0,0,0,0,0,0,0
1684153175.30032921,111128864,1000,1000,1000,1000,0,0,0,0,0,0,0,0,0,0
1684153175.40028906,111228824,1000,1000,1000,1000,0,0,0,0,0,0,0,0,0,0
1684153175.50024915,111328784,1000,1000,1000,1000,0,0,0,0,0,0,0,0,0,0
1684153175.60020924,111428744,1000,1000,1000,1000,0,0,0,0,0,0,0,0,0,0
1684153175.70016909,111528704,1000,1000,1000,1000,0,0,0,0,0,0,0,0,0,0
1684153175.80012918,111628664,1000,1000,1000,1000,0,0,0,0,0,0,0,0,0,0
1684153175.90008926,111728624,1000,1000,1000,1000,0,0,0,0,0,0,0,0,0,0
1684153176.00004911,111828584,1000,1000,1000,1000,0,0,0,0,0,0,0,0,0,0
1684153176.10000920,111928544,1000,1000,1000,1000,0,0,0,0,0,0,0,0,0,0
1684153176.19996905,112028504,1000,1000,1000,1000,0,0,0,0,0,0,0,0,0,0
1684153176.29992914,112128464,1000,1000,1000,1000,0,0,0,0,0,0,0,0,0,0
1684153176.39988923,112228424,1000,1000,1000,1000,0,0,0,0,0,0,0,0,0,0
1684153176.49984908,112328384,1000,1000,1000,1000,0,0,0,0,0,0,0,0,0,0
1684153176.59980917,112428344,1000,1000,1000,1000,0,0,0,0,0,0,0,0,0,0
1684153176.69976926,112528304,1000,1000,1000,1000,0,0,0,0,0,0,0,0,0,0
1684153176.79972911,112628264,1000,1000,1000,1000,0,0,0,0,0,0,0,0,0,0
1684153176.89968920,112728224,1000,1000,1000,1000,0,0,0,0,0,0,0,0,0,0
1684153176.99964905,112828184,1000,1000,1000,1000,0,0,0,0,0,0,0,0,0,0
1684153177.10044217,112928977,1000,1000,1000,1000,0,0,0,0,0,0,0,0,0,0
1684153177.20040226,113028937,1000,1000,1000,1000,0,0,0,0,0,0,0,0,0,0
1684153177.30036211,113128897,1000,1000,1000,1000,0,0,0,0,0,0,0,0,0,0
1684153177.40032220,113228857,1000,1000,1000,1000,0,0,0,0,0,0,0,0,0,0
1684153177.50028205,113328817,1000,1000,1000,1000,0,0,0,0,0,0,0,0,0,0
1684153177.60024214,113428777,1000,1000,1000,1000,0,0,0,0,0,0,0,0,0,0
1684153177.70020223,113528737,1000,1000,1000,1000,0,0,0,0,0,0,0,0,0,0
1684153177.80016208,113628697,1000,1000,1000,1000,0,0,0,0,0,0,0,0,0,0
1684153177.90012217,113728657,1000,1000,1000,1000,0,0,0,0,0,0,0,0,0,0
