timestamp,TimeUS,C1,C2,C3,C4,C5,C6,C7,C8,C9,C10,C11,C12,C13,C14
1684165944.40000010,61428752,1000,1000,1000,1000,0,0,0,0,0,0,0,0,0,0
1684165944.49996018,61528712,1000,1000,1000,1000,0,0,0,0,0,0,0,0,0,0
1684165944.59992003,61628672,1000,1000,1000,1000,0,0,0,0,0,0,0,0,0,0
1684165944.69988012,61728632,1000,1000,1000,1000,0,0,0,0,0,0,0,0,0,0
1684165944.79984021,61828592,1000,1000,1000,1000,0,0,0,0,0,0,0,0,0,0
1684165944.89980006,61928552,1000,1000,1000,1000,0,0,0,0,0,0,0,0,0,0
1684165944.99976015,62028512,1000,1000,1000,1000,0,0,0,0,0,0,0,0,0,0
1684165945.09972024,62128472,1000,1000,1000,1000,0,0,0,0,0,0,0,0,0,0
1684165945.19968009,62228432,1000,1000,1000,1000,0,0,0,0,0,0,0,0,0,0
1684165945.29964018,62328392,1000,1000,1000,1000,0,0,0,0,0,0,0,0,0,0
1684165945.39960027,62428352,1000,1000,1000,1000,0,0,0,0,0,0,0,0,0,0
1684165945.49956012,62528312,1000,1000,1000,1000,0,0,0,0,0,0,0,0,0,0
1684165945.59952021,62628272,1000,1000,1000,1000,0,0,0,0,0,0,0,0,0,0
1684165945.69948006,62728232,1000,1000,1000,1000,0,0,0,0,0,0,0,0,0,0
1684165945.79944015,62828192,1000,1000,1000,1000,0,0,0,0,0,0,0,0,0,0
1684165945.90023327,62928985,1000,1000,1000,1000,0,0,0,0,0,0,0,0,0,0
1684165946.00019312,63028945,1000,1000,1000,1000,0,0,0,0,0,0,0,0,0,0
1684165946.10015321,63128905,1000,1000,1000,1000,0,0,0,0,0,0,0,0,0,0
1684165946.20011306,63228865,1000,1000,1000,1000,0,0,0,0,0,0,0,0,0,0
1684165946.30007315,63328825,1000,1000,1000,1000,0,0,0,0,0,0,0,0,0,0
1684165946.40003324,63428785,1015,1015,1015,1015,0,0,0,0,0,0,0,0,0,0
1684165946.49999309,63528745,1045,1045,1045,1045,0,0,0,0,0,0,0,0,0,0
1684165946.59995317,63628705,1075,1075,1075,1075,0,0,0,0,0,0,0,0,0,0
1684165946.69991326,63728665,1104,1104,1104,1104,0,0,0,0,0,0,0,0,0,0
1684165946.79987311,63828625,1134,1134,1134,1134,0,0,0,0,0,0,0,0,0,0
1684165946.89983320,63928585,1288,1280,1281,1289,0,0,0,0,0,0,0,0,0,0
1684165946.99979305,64028545,1495,1489,1489,1495,0,0,0,0,0,0,0,0,0,0
1684165947.09975314,64128505,1656,1651,1651,1657,0,0,0,0,0,0,0,0,0,0
1684165947.19971323,64228465,1792,1788,1788,1792,0,0,0,0,0,0,0,0,0,0
1684165947.29967308,64328425,1847,1842,1842,1847,0,0,0,0,0,0,0,0,0,0
1684165947.39963317,64428385,1857,1854,1854,1858,0,0,0,0,0,0,0,0,0,0
1684165947.49959326,64528345,1738,1736,1737,1738,0,0,0,0,0,0,0,0,0,0
1684165947.59955311,64628305,1638,1640,1640,1639,0,0,0,0,0,0,0,0,0,0
1684165947.69951320,64728265,1616,1608,1609,1616,0,0,0,0,0,0,0,0,0,0
1684165947.79947305,64828225,1618,1621,1615,1624,0,0,0,0,0,0,0,0,0,0
1684165947.89943314,64928185,1630,1633,1629,1635,0,0,0,0,0,0,0,0,0,0
1684165948.00022626,65028978,1634,1637,1635,1636,0,0,0,0,0,0,0,0,0,0
1684165948.10018611,65128938,1633,1633,1635,1632,0,0,0,0,0,0,0,0,0,0
1684165948.20014620,65228898,1626,1625,1629,1623,0,0,0,0,0,0,0,0,0,0
1684165948.30010605,65328858,1624,1622,1626,1620,0,0,0,0,0,0,0,0,0,0
1684165948.40006614,65428818,1623,1621,1624,1619,0,0,0,0,0,0,0,0,0,0
1684165948.50002623,65528778,1622,1622,1623,1621,0,0,0,0,0,0,0,0,0,0
1684165948.59998608,65628738,1623,1623,1622,1623,0,0,0,0,0,0,0,0,0,0
1684165948.69994617,65728698,1610,1610,1611,1609,0,0,0,0,0,0,0,0,0,0
1684165948.79990625,65828658,1585,1586,1592,1579,0,0,0,0,0,0,0,0,0,0
1684165948.89986610,65928618,1572,1573,1576,1569,0,0,0,0,0,0,0,0,0,0
1684165948.99982619,66028578,1562,1562,1561,1563,0,0,0,0,0,0,0,0,0,0
1684165949.09978604,66128538,1554,1553,1550,1558,0,0,0,0,0,0,0,0,0,0
1684165949.19974613,66228498,1546,1546,1538,1554,0,0,0,0,0,0,0,0,0,0
1684165949.29970622,66328458,1540,1539,1532,1546,0,0,0,0,0,0,0,0,0,0
1684165949.39966607,66428418,1534,1533,1529,1538,0,0,0,0,0,0,0,0,0,0
1684165949.49962616,66528378,1528,1527,1526,1529,0,0,0,0,0,0,0,0,0,0
1684165949.59958625,66628338,1527,1527,1528,1526,0,0,0,0,0,0,0,0,0,0
1684165949.69954610,66728298,1528,1529,1531,1526,0,0,0,0,0,0,0,0,0,0
1684165949.79950619,66828258,1531,1531,1534,1528,0,0,0,0,0,0,0,0,0,0
1684165949.89946604,66928218,1535,1534,1537,1533,0,0,0,0,0,0,0,0,0,0
1684165949.99942613,67028178,1538,1538,1540,1536,0,0,0,0,0,0,0,0,0,0
1684165950.10021925,67128971,1542,1542,1543,1541,0,0,0,0,0,0,0,0,0,0
1684165950.20017910,67228931,1545,1545,1546,1545,0,0,0,0,0,0,0,0,0,0
1684165950.30013919,67328891,1548,1548,1548,1549,0,0,0,0,0,0,0,0,0,0
1684165950.40009904,67428851,1550,1550,1550,1552,0,0,0,0,0,0,0,0,0,0
1684165950.50005913,67528811,1553,1553,1551,1554,0,0,0,0,0,0,0,0,0,0
1684165950.60001922,67628771,1556,1556,1554,1557,0,0,0,0,0,0,0,0,0,0
1684165950.69997907,67728731,1558,1558,1558,1559,0,0,0,0,0,0,0,0,0,0
1684165950.79993916,67828691,1559,1559,1561,1561,0,0,0,0,0,0,0,0,0,0
1684165950.89989924,67928651,1561,1560,1565,1564,0,0,0,0,0,0,0,0,0,0
1684165950.99985909,68028611,1562,1562,1567,1566,0,0,0,0,0,0,0,0,0,0
1684165951.09981918,68128571,1564,1565,1569,1568,0,0,0,0,0,0,0,0,0,0
1684165951.19977903,68228531,1566,1566,1569,1569,0,0,0,0,0,0,0,0,0,0
1684165951.29973912,68328491,1567,1567,1570,1570,0,0,0,0,0,0,0,0,0,0
1684165951.39969921,68428451,1568,1569,1569,1569,0,0,0,0,0,0,0,0,0,0
1684165951.49965906,68528411,1569,1570,1569,1570,0,0,0,0,0,0,0,0,0,0
1684165951.59961915,68628371,1571,1571,1569,1569,0,0,0,0,0,0,0,0,0,0
1684165951.69957924,68728331,1571,1571,1569,1569,0,0,0,0,0,0,0,0,0,0
1684165951.79953909,68828291,1573,1573,1570,1570,0,0,0,0,0,0,0,0,0,0
1684165951.89949918,68928251,1574,1573,1571,1570,0,0,0,0,0,0,0,0,0,0
1684165951.99945927,69028211,1575,1575,1572,1571,0,0,0,0,0,0,0,0,0,0
1684165952.09941912,69128171,1576,1575,1574,1572,0,0,0,0,0,0,0,0,0,0
1684165952.20021224,69228964,1576,1575,1574,1573,0,0,0,0,0,0,0,0,0,0
1684165952.30017209,69328924,1575,1576,1575,1574,0,0,0,0,0,0,0,0,0,0
1684165952.40013218,69428884,1575,1575,1575,1575,0,0,0,0,0,0,0,0,0,0
1684165952.50009227,69528844,1576,1576,1575,1576,0,0,0,0,0,0,0,0,0,0
1684165952.60005212,69628804,1574,1575,1575,1575,0,0,0,0,0,0,0,0,0,0
1684165952.70001221,69728764,1576,1576,1576,1576,0,0,0,0,0,0,0,0,0,0
1684165952.79997206,69828724,1576,1577,1578,1577,0,0,0,0,0,0,0,0,0,0
1684165952.89993215,69928684,1577,1577,1578,1578,0,0,0,0,0,0,0,0,0,0
1684165952.99989223,70028644,1577,1577,1578,1577,0,0,0,0,0,0,0,0,0,0
1684165953.09985209,70128604,1577,1577,1578,1578,0,0,0,0,0,0,0,0,0,0
1684165953.19981217,70228564,1577,1577,1578,1578,0,0,0,0,0,0,0,0,0,0
1684165953.29977226,70328524,1577,1577,1577,1577,0,0,0,0,0,0,0,0,0,0
1684165953.39973211,70428484,1578,1577,1577,1578,0,0,0,0,0,0,0,0,0,0
1684165953.49969220,70528444,1578,1577,1577,1577,0,0,0,0,0,0,0,0,0,0
1684165953.59965205,70628404,1578,1579,1578,1578,0,0,0,0,0,0,0,0,0,0
1684165953.69961214,70728364,1578,1578,1578,1577,0,0,0,0,0,0,0,0,0,0
1684165953.79957223,70828324,1579,1579,1579,1578,0,0,0,0,0,0,0,0,0,0
1684165953.89953208,70928284,1579,1579,1579,1578,0,0,0,0,0,0,0,0,0,0
1684165953.99949217,71028244,1579,1579,1579,1579,0,0,0,0,0,0,0,0,0,0
1684165954.09945226,71128204,1579,1579,1578,1579,0,0,0,0,0,0,0,0,0,0
1684165954.19941211,71228164,1578,1579,1578,1579,0,0,0,0,0,0,0,0,0,0
1684165954.30020523,71328957,1578,1578,1578,1579,0,0,0,0,0,0,0,0,0,0
1684165954.40016508,71428917,1578,1578,1578,1578,0,0,0,0,0,0,0,0,0,0
1684165954.50012517,71528877,1579,1579,1579,1579,0,0,0,0,0,0,0,0,0,0
1684165954.60008526,71628837,1580,1579,1580,1579,0,0,0,0,0,0,0,0,0,0
1684165954.70004511,71728797,1579,1579,1579,1579,0,0,0,0,0,0,0,0,0,0
1684165954.80000520,71828757,1579,1580,1580,1579,0,0,0,0,0,0,0,0,0,0
1684165954.89996505,71928717,1578,1579,1579,1579,0,0,0,0,0,0,0,0,0,0
1684165954.99992514,72028677,1580,1580,1580,1580,0,0,0,0,0,0,0,0,0,0
1684165955.09988523,72128637,1579,1579,1579,1580,0,0,0,0,0,0,0,0,0,0
1684165955.19984508,72228597,1579,1579,1579,1579,0,0,0,0,0,0,0,0,0,0
1684165955.29980516,72328557,1579,1579,1579,1579,0,0,0,0,0,0,0,0,0,0
1684165955.39976525,72428517,1580,1580,1581,1580,0,0,0,0,0,0,0,0,0,0
1684165955.49972510,72528477,1580,1580,1580,1580,0,0,0,0,0,0,0,0,0,0
1684165955.59968519,72628437,1581,1581,1581,1581,0,0,0,0,0,0,0,0,0,0
1684165955.69964504,72728397,1581,1581,1581,1581,0,0,0,0,0,0,0,0,0,0
1684165955.79960513,72828357,1580,1580,1580,1580,0,0,0,0,0,0,0,0,0,0
1684165955.89956522,72928317,1579,1580,1580,1580,0,0,0,0,0,0,0,0,0,0
1684165955.99952507,73028277,1580,1580,1580,1579,0,0,0,0,0,0,0,0,0,0
1684165956.09948516,73128237,1580,1580,1580,1581,0,0,0,0,0,0,0,0,0,0
1684165956.19944525,73228197,1581,1581,1581,1580,0,0,0,0,0,0,0,0,0,0
1684165956.29940510,73328157,1580,1580,1580,1580,0,0,0,0,0,0,0,0,0,0
1684165956.40019822,73428950,1580,1580,1580,1580,0,0,0,0,0,0,0,0,0,0
1684165956.50015807,73528910,1581,1581,1581,1581,0,0,0,0,0,0,0,0,0,0
1684165956.60011816,73628870,1581,1581,1581,1581,0,0,0,0,0,0,0,0,0,0
1684165956.70007825,73728830,1580,1580,1580,1580,0,0,0,0,0,0,0,0,0,0
1684165956.80003810,73828790,1580,1581,1584,1577,0,0,0,0,0,0,0,0,0,0
1684165956.89999819,73928750,1579,1582,1587,1572,0,0,0,0,0,0,0,0,0,0
1684165956.99995804,74028710,1578,1581,1581,1572,0,0,0,0,0,0,0,0,0,0
1684165957.09991813,74128670,1577,1579,1571,1572,0,0,0,0,0,0,0,0,0,0
1684165957.19987822,74228630,1576,1579,1564,1570,0,0,0,0,0,0,0,0,0,0
1684165957.29983807,74328590,1577,1579,1558,1566,0,0,0,0,0,0,0,0,0,0
1684165957.39979815,74428550,1579,1578,1556,1561,0,0,0,0,0,0,0,0,0,0
1684165957.49975824,74528510,1579,1577,1555,1557,0,0,0,0,0,0,0,0,0,0
1684165957.59971809,74628470,1579,1577,1555,1554,0,0,0,0,0,0,0,0,0,0
1684165957.69967818,74728430,1579,1578,1556,1554,0,0,0,0,0,0,0,0,0,0
1684165957.79963803,74828390,1577,1577,1556,1553,0,0,0,0,0,0,0,0,0,0
1684165957.89959812,74928350,1576,1576,1555,1554,0,0,0,0,0,0,0,0,0,0
1684165957.99955821,75028310,1575,1577,1555,1554,0,0,0,0,0,0,0,0,0,0
1684165958.09951806,75128270,1575,1577,1554,1555,0,0,0,0,0,0,0,0,0,0
1684165958.19947815,75228230,1575,1577,1552,1553,0,0,0,0,0,0,0,0,0,0
1684165958.29943824,75328190,1575,1577,1550,1551,0,0,0,0,0,0,0,0,0,0
1684165958.40023112,75428983,1577,1578,1549,1549,0,0,0,0,0,0,0,0,0,0
1684165958.50019121,75528943,1580,1580,1547,1547,0,0,0,0,0,0,0,0,0,0
1684165958.60015106,75628903,1582,1583,1544,1543,0,0,0,0,0,0,0,0,0,0
1684165958.70011115,75728863,1585,1586,1542,1541,0,0,0,0,0,0,0,0,0,0
1684165958.80007124,75828823,1588,1588,1538,1538,0,0,0,0,0,0,0,0,0,0
1684165958.90003109,75928783,1590,1591,1535,1535,0,0,0,0,0,0,0,0,0,0
1684165958.99999118,76028743,1594,1594,1534,1535,0,0,0,0,0,0,0,0,0,0
1684165959.09995127,76128703,1595,1594,1533,1535,0,0,0,0,0,0,0,0,0,0
1684165959.19991112,76228663,1594,1595,1534,1536,0,0,0,0,0,0,0,0,0,0
1684165959.29987121,76328623,1594,1593,1537,1539,0,0,0,0,0,0,0,0,0,0
1684165959.39983106,76428583,1591,1591,1542,1545,0,0,0,0,0,0,0,0,0,0
1684165959.49979115,76528543,1586,1584,1548,1551,0,0,0,0,0,0,0,0,0,0
1684165959.59975123,76628503,1579,1576,1557,1560,0,0,0,0,0,0,0,0,0,0
1684165959.69971108,76728463,1571,1567,1569,1571,0,0,0,0,0,0,0,0,0,0
1684165959.79967117,76828423,1560,1556,1581,1583,0,0,0,0,0,0,0,0,0,0
1684165959.89963126,76928383,1547,1544,1593,1593,0,0,0,0,0,0,0,0,0,0
1684165959.99959111,77028343,1538,1537,1604,1603,0,0,0,0,0,0,0,0,0,0
1684165960.09955120,77128303,1531,1531,1611,1610,0,0,0,0,0,0,0,0,0,0
1684165960.19951105,77228263,1529,1530,1616,1614,0,0,0,0,0,0,0,0,0,0
1684165960.29947114,77328223,1530,1532,1616,1615,0,0,0,0,0,0,0,0,0,0
1684165960.39943123,77428183,1534,1536,1612,1612,0,0,0,0,0,0,0,0,0,0
1684165960.50022411,77528976,1540,1542,1606,1606,0,0,0,0,0,0,0,0,0,0
1684165960.60018420,77628936,1549,1550,1599,1600,0,0,0,0,0,0,0,0,0,0
1684165960.70014405,77728896,1558,1558,1592,1592,0,0,0,0,0,0,0,0,0,0
1684165960.80010414,77828856,1568,1568,1585,1585,0,0,0,0,0,0,0,0,0,0
1684165960.90006423,77928816,1576,1575,1579,1578,0,0,0,0,0,0,0,0,0,0
1684165961.00002408,78028776,1581,1580,1573,1571,0,0,0,0,0,0,0,0,0,0
1684165961.09998417,78128736,1585,1584,1568,1568,0,0,0,0,0,0,0,0,0,0
1684165961.19994426,78228696,1587,1586,1566,1566,0,0,0,0,0,0,0,0,0,0
1684165961.29990411,78328656,1587,1586,1565,1566,0,0,0,0,0,0,0,0,0,0
1684165961.39986420,78428616,1586,1585,1566,1567,0,0,0,0,0,0,0,0,0,0
1684165961.49982405,78528576,1584,1584,1568,1569,0,0,0,0,0,0,0,0,0,0
1684165961.59978414,78628536,1582,1582,1572,1572,0,0,0,0,0,0,0,0,0,0
1684165961.69974422,78728496,1579,1579,1576,1575,0,0,0,0,0,0,0,0,0,0
1684165961.79970407,78828456,1577,1577,1579,1578,0,0,0,0,0,0,0,0,0,0
1684165961.89966416,78928416,1514,1515,1596,1598,0,0,0,0,0,0,0,0,0,0
1684165961.99962425,79028376,1533,1535,1600,1600,0,0,0,0,0,0,0,0,0,0
1684165962.09958410,79128336,1551,1554,1597,1596,0,0,0,0,0,0,0,0,0,0
1684165962.19954419,79228296,1568,1570,1591,1590,0,0,0,0,0,0,0,0,0,0
1684165962.29950404,79328256,1582,1583,1583,1582,0,0,0,0,0,0,0,0,0,0
1684165962.39946413,79428216,1594,1593,1576,1575,0,0,0,0,0,0,0,0,0,0
1684165962.49942422,79528176,1601,1599,1571,1571,0,0,0,0,0,0,0,0,0,0
1684165962.60021710,79628969,1605,1602,1568,1568,0,0,0,0,0,0,0,0,0,0
1684165962.70017719,79728929,1606,1603,1568,1569,0,0,0,0,0,0,0,0,0,0
1684165962.80013704,79828889,1603,1601,1568,1569,0,0,0,0,0,0,0,0,0,0
1684165962.90009713,79928849,1600,1599,1570,1571,0,0,0,0,0,0,0,0,0,0
1684165963.00005722,80028809,1596,1596,1572,1573,0,0,0,0,0,0,0,0,0,0
1684165963.10001707,80128769,1592,1592,1574,1575,0,0,0,0,0,0,0,0,0,0
1684165963.19997716,80228729,1588,1589,1577,1577,0,0,0,0,0,0,0,0,0,0
1684165963.29993725,80328689,1584,1585,1579,1579,0,0,0,0,0,0,0,0,0,0
1684165963.39989710,80428649,1581,1582,1582,1581,0,0,0,0,0,0,0,0,0,0
1684165963.49985719,80528609,1579,1579,1583,1583,0,0,0,0,0,0,0,0,0,0
1684165963.59981704,80628569,1577,1577,1585,1585,0,0,0,0,0,0,0,0,0,0
1684165963.69977713,80728529,1574,1575,1586,1586,0,0,0,0,0,0,0,0,0,0
1684165963.79973722,80828489,1573,1574,1586,1586,0,0,0,0,0,0,0,0,0,0
1684165963.89969707,80928449,1573,1573,1586,1586,0,0,0,0,0,0,0,0,0,0
1684165963.99965715,81028409,1573,1573,1585,1585,0,0,0,0,0,0,0,0,0,0
1684165964.09961724,81128369,1575,1576,1585,1585,0,0,0,0,0,0,0,0,0,0
1684165964.19957709,81228329,1576,1577,1584,1584,0,0,0,0,0,0,0,0,0,0
1684165964.29953718,81328289,1578,1578,1582,1582,0,0,0,0,0,0,0,0,0,0
1684165964.39949703,81428249,1580,1580,1581,1580,0,0,0,0,0,0,0,0,0,0
1684165964.49945712,81528209,1581,1581,1578,1579,0,0,0,0,0,0,0,0,0,0
1684165964.59941721,81628169,1583,1582,1578,1578,0,0,0,0,0,0,0,0,0,0
1684165964.70021009,81728962,1584,1583,1578,1578,0,0,0,0,0,0,0,0,0,0
1684165964.80017018,81828922,1585,1585,1580,1577,0,0,0,0,0,0,0,0,0,0
1684165964.90013003,81928882,1584,1585,1584,1569,0,0,0,0,0,0,0,0,0,0
1684165965.00009012,82028842,1583,1584,1579,1569,0,0,0,0,0,0,0,0,0,0
1684165965.10005021,82128802,1581,1582,1569,1568,0,0,0,0,0,0,0,0,0,0
1684165965.20001006,82228762,1580,1582,1562,1567,0,0,0,0,0,0,0,0,0,0
1684165965.29997015,82328722,1578,1580,1556,1563,0,0,0,0,0,0,0,0,0,0
1684165965.39993024,82428682,1578,1580,1554,1559,0,0,0,0,0,0,0,0,0,0
1684165965.49989009,82528642,1579,1580,1555,1557,0,0,0,0,0,0,0,0,0,0
1684165965.59985018,82628602,1580,1579,1555,1555,0,0,0,0,0,0,0,0,0,0
1684165965.69981027,82728562,1578,1577,1555,1553,0,0,0,0,0,0,0,0,0,0
1684165965.79977012,82828522,1577,1577,1555,1552,0,0,0,0,0,0,0,0,0,0
1684165965.89973021,82928482,1577,1577,1555,1554,0,0,0,0,0,0,0,0,0,0
1684165965.99969006,83028442,1575,1576,1553,1553,0,0,0,0,0,0,0,0,0,0
1684165966.09965014,83128402,1575,1577,1552,1553,0,0,0,0,0,0,0,0,0,0
1684165966.19961023,83228362,1575,1577,1551,1552,0,0,0,0,0,0,0,0,0,0
1684165966.29957008,83328322,1577,1578,1551,1551,0,0,0,0,0,0,0,0,0,0
1684165966.39953017,83428282,1578,1579,1549,1548,0,0,0,0,0,0,0,0,0,0
1684165966.49949026,83528242,1579,1581,1547,1547,0,0,0,0,0,0,0,0,0,0
1684165966.59945011,83628202,1582,1583,1545,1545,0,0,0,0,0,0,0,0,0,0
1684165966.69941020,83728162,1584,1584,1543,1542,0,0,0,0,0,0,0,0,0,0
1684165966.80020308,83828955,1586,1586,1541,1541,0,0,0,0,0,0,0,0,0,0
1684165966.90016317,83928915,1588,1587,1540,1540,0,0,0,0,0,0,0,0,0,0
1684165967.00012326,84028875,1589,1589,1539,1540,0,0,0,0,0,0,0,0,0,0
1684165967.10008311,84128835,1589,1590,1538,1541,0,0,0,0,0,0,0,0,0,0
1684165967.20004320,84228795,1589,1590,1539,1541,0,0,0,0,0,0,0,0,0,0
1684165967.30000305,84328755,1589,1589,1542,1545,0,0,0,0,0,0,0,0,0,0
1684165967.39996314,84428715,1587,1586,1548,1550,0,0,0,0,0,0,0,0,0,0
1684165967.49992323,84528675,1583,1579,1554,1556,0,0,0,0,0,0,0,0,0,0
1684165967.59988308,84628635,1576,1573,1563,1566,0,0,0,0,0,0,0,0,0,0
1684165967.69984317,84728595,1567,1564,1574,1576,0,0,0,0,0,0,0,0,0,0
1684165967.79980326,84828555,1558,1554,1585,1587,0,0,0,0,0,0,0,0,0,0
1684165967.89976311,84928515,1548,1546,1595,1596,0,0,0,0,0,0,0,0,0,0
1684165967.99972320,85028475,1541,1540,1604,1604,0,0,0,0,0,0,0,0,0,0
1684165968.09968305,85128435,1536,1536,1609,1608,0,0,0,0,0,0,0,0,0,0
1684165968.19964314,85228395,1534,1536,1612,1611,0,0,0,0,0,0,0,0,0,0
1684165968.29960322,85328355,1535,1537,1610,1610,0,0,0,0,0,0,0,0,0,0
1684165968.39956307,85428315,1539,1541,1607,1606,0,0,0,0,0,0,0,0,0,0
1684165968.49952316,85528275,1546,1548,1602,1602,0,0,0,0,0,0,0,0,0,0
1684165968.59948325,85628235,1554,1555,1596,1595,0,0,0,0,0,0,0,0,0,0
1684165968.69944310,85728195,1562,1562,1589,1588,0,0,0,0,0,0,0,0,0,0
1684165968.79940319,85828155,1569,1569,1582,1581,0,0,0,0,0,0,0,0,0,0
1684165968.90019608,85928948,1576,1575,1576,1576,0,0,0,0,0,0,0,0,0,0
1684165969.00015616,86028908,1581,1580,1571,1572,0,0,0,0,0,0,0,0,0,0
1684165969.10011625,86128868,1585,1584,1569,1569,0,0,0,0,0,0,0,0,0,0
1684165969.20007610,86228828,1587,1585,1567,1568,0,0,0,0,0,0,0,0,0,0
1684165969.30003619,86328788,1587,1586,1567,1567,0,0,0,0,0,0,0,0,0,0
1684165969.39999604,86428748,1587,1585,1568,1569,0,0,0,0,0,0,0,0,0,0
1684165969.49995613,86528708,1585,1585,1571,1571,0,0,0,0,0,0,0,0,0,0
1684165969.59991622,86628668,1583,1583,1574,1573,0,0,0,0,0,0,0,0,0,0
1684165969.69987607,86728628,1580,1580,1576,1576,0,0,0,0,0,0,0,0,0,0
1684165969.79983616,86828588,1578,1577,1579,1578,0,0,0,0,0,0,0,0,0,0
1684165969.89979625,86928548,1575,1575,1580,1580,0,0,0,0,0,0,0,0,0,0
1684165969.99975610,87028508,1573,1574,1582,1582,0,0,0,0,0,0,0,0,0,0
1684165970.09971619,87128468,1573,1574,1583,1583,0,0,0,0,0,0,0,0,0,0
1684165970.19967604,87228428,1574,1574,1584,1585,0,0,0,0,0,0,0,0,0,0
1684165970.29963613,87328388,1573,1574,1584,1584,0,0,0,0,0,0,0,0,0,0
1684165970.39959621,87428348,1575,1575,1583,1583,0,0,0,0,0,0,0,0,0,0
1684165970.49955606,87528308,1576,1576,1582,1582,0,0,0,0,0,0,0,0,0,0
1684165970.59951615,87628268,1577,1577,1582,1581,0,0,0,0,0,0,0,0,0,0
1684165970.69947624,87728228,1579,1578,1580,1580,0,0,0,0,0,0,0,0,0,0
1684165970.79943609,87828188,1579,1579,1579,1579,0,0,0,0,0,0,0,0,0,0
1684165970.90022922,87928981,1581,1581,1579,1579,0,0,0,0,0,0,0,0,0,0
1684165971.00018907,88028941,1581,1581,1578,1578,0,0,0,0,0,0,0,0,0,0
1684165971.10014915,88128901,1582,1582,1578,1578,0,0,0,0,0,0,0,0,0,0
1684165971.20010924,88228861,1582,1582,1578,1577,0,0,0,0,0,0,0,0,0,0
1684165971.30006909,88328821,1581,1581,1577,1577,0,0,0,0,0,0,0,0,0,0
1684165971.40002918,88428781,1582,1582,1578,1579,0,0,0,0,0,0,0,0,0,0
1684165971.49998903,88528741,1582,1581,1579,1579,0,0,0,0,0,0,0,0,0,0
1684165971.59994912,88628701,1581,1581,1580,1580,0,0,0,0,0,0,0,0,0,0
1684165971.69990921,88728661,1580,1580,1580,1580,0,0,0,0,0,0,0,0,0,0
1684165971.79986906,88828621,1580,1580,1581,1580,0,0,0,0,0,0,0,0,0,0
1684165971.89982915,88928581,1579,1580,1581,1581,0,0,0,0,0,0,0,0,0,0
1684165971.99978924,89028541,1580,1580,1582,1582,0,0,0,0,0,0,0,0,0,0
1684165972.09974909,89128501,1580,1580,1582,1582,0,0,0,0,0,0,0,0,0,0
1684165972.19970918,89228461,1580,1580,1581,1581,0,0,0,0,0,0,0,0,0,0
1684165972.29966927,89328421,1580,1580,1582,1581,0,0,0,0,0,0,0,0,0,0
1684165972.39962912,89428381,1580,1580,1581,1581,0,0,0,0,0,0,0,0,0,0
1684165972.49958920,89528341,1581,1581,1581,1581,0,0,0,0,0,0,0,0,0,0
1684165972.59954906,89628301,1581,1581,1581,1581,0,0,0,0,0,0,0,0,0,0
1684165972.69950914,89728261,1581,1581,1581,1581,0,0,0,0,0,0,0,0,0,0
1684165972.79946923,89828221,1582,1582,1582,1582,0,0,0,0,0,0,0,0,0,0
1684165972.89942908,89928181,1581,1582,1581,1581,0,0,0,0,0,0,0,0,0,0
1684165973.00022221,90028974,1581,1581,1580,1580,0,0,0,0,0,0,0,0,0,0
1684165973.10018206,90128934,1581,1581,1585,1575,0,0,0,0,0,0,0,0,0,0
1684165973.20014215,90228894,1581,1583,1587,1572,0,0,0,0,0,0,0,0,0,0
1684165973.30010223,90328854,1581,1583,1580,1573,0,0,0,0,0,0,0,0,0,0
1684165973.40006208,90428814,1579,1581,1570,1572,0,0,0,0,0,0,0,0,0,0
1684165973.50002217,90528774,1578,1580,1563,1569,0,0,0,0,0,0,0,0,0,0
1684165973.59998226,90628734,1577,1579,1557,1564,0,0,0,0,0,0,0,0,0,0
1684165973.69994211,90728694,1578,1579,1555,1560,0,0,0,0,0,0,0,0,0,0
1684165973.79990220,90828654,1579,1579,1555,1556,0,0,0,0,0,0,0,0,0,0
1684165973.89986205,90928614,1580,1579,1556,1555,0,0,0,0,0,0,0,0,0,0
1684165973.99982214,91028574,1579,1578,1556,1553,0,0,0,0,0,0,0,0,0,0
1684165974.09978223,91128534,1578,1577,1556,1553,0,0,0,0,0,0,0,0,0,0
1684165974.19974208,91228494,1576,1577,1555,1554,0,0,0,0,0,0,0,0,0,0
1684165974.29970217,91328454,1575,1576,1554,1554,0,0,0,0,0,0,0,0,0,0
1684165974.39966226,91428414,1574,1576,1552,1553,0,0,0,0,0,0,0,0,0,0
1684165974.49962211,91528374,1574,1576,1552,1552,0,0,0,0,0,0,0,0,0,0
1684165974.59958220,91628334,1575,1577,1551,1551,0,0,0,0,0,0,0,0,0,0
1684165974.69954205,91728294,1577,1578,1550,1549,0,0,0,0,0,0,0,0,0,0
1684165974.79950213,91828254,1579,1580,1547,1547,0,0,0,0,0,0,0,0,0,0
1684165974.89946222,91928214,1581,1582,1545,1545,0,0,0,0,0,0,0,0,0,0
1684165974.99942207,92028174,1584,1584,1542,1542,0,0,0,0,0,0,0,0,0,0
1684165975.10021520,92128967,1587,1586,1540,1540,0,0,0,0,0,0,0,0,0,0
1684165975.20017505,92228927,1589,1590,1539,1539,0,0,0,0,0,0,0,0,0,0
1684165975.30013514,92328887,1591,1591,1538,1539,0,0,0,0,0,0,0,0,0,0
1684165975.40009522,92428847,1591,1592,1537,1538,0,0,0,0,0,0,0,0,0,0
1684165975.50005507,92528807,1593,1593,1539,1540,0,0,0,0,0,0,0,0,0,0
1684165975.60001516,92628767,1592,1592,1541,1542,0,0,0,0,0,0,0,0,0,0
1684165975.69997525,92728727,1590,1588,1544,1547,0,0,0,0,0,0,0,0,0,0
1684165975.79993510,92828687,1585,1582,1550,1554,0,0,0,0,0,0,0,0,0,0
1684165975.89989519,92928647,1578,1574,1558,1561,0,0,0,0,0,0,0,0,0,0
1684165975.99985504,93028607,1569,1566,1569,1571,0,0,0,0,0,0,0,0,0,0
1684165976.09981513,93128567,1559,1556,1580,1581,0,0,0,0,0,0,0,0,0,0
1684165976.19977522,93228527,1551,1548,1592,1593,0,0,0,0,0,0,0,0,0,0
1684165976.29973507,93328487,1543,1541,1601,1601,0,0,0,0,0,0,0,0,0,0
1684165976.39969516,93428447,1535,1536,1607,1606,0,0,0,0,0,0,0,0,0,0
1684165976.49965525,93528407,1533,1534,1611,1610,0,0,0,0,0,0,0,0,0,0
1684165976.59961510,93628367,1534,1536,1611,1611,0,0,0,0,0,0,0,0,0,0
1684165976.69957519,93728327,1537,1538,1609,1608,0,0,0,0,0,0,0,0,0,0
1684165976.79953504,93828287,1543,1545,1605,1605,0,0,0,0,0,0,0,0,0,0
1684165976.89949512,93928247,1551,1552,1600,1599,0,0,0,0,0,0,0,0,0,0
1684165976.99945521,94028207,1558,1559,1593,1592,0,0,0,0,0,0,0,0,0,0
1684165977.09941506,94128167,1566,1566,1586,1585,0,0,0,0,0,0,0,0,0,0
1684165977.20020819,94228960,1573,1573,1580,1579,0,0,0,0,0,0,0,0,0,0
1684165977.30016804,94328920,1579,1578,1575,1574,0,0,0,0,0,0,0,0,0,0
1684165977.40012813,94428880,1583,1582,1570,1570,0,0,0,0,0,0,0,0,0,0
1684165977.50008821,94528840,1586,1585,1568,1569,0,0,0,0,0,0,0,0,0,0
1684165977.60004807,94628800,1588,1587,1568,1568,0,0,0,0,0,0,0,0,0,0
1684165977.70000815,94728760,1588,1586,1568,1569,0,0,0,0,0,0,0,0,0,0
1684165977.79996824,94828720,1586,1585,1570,1570,0,0,0,0,0,0,0,0,0,0
1684165977.89992809,94928680,1584,1583,1571,1572,0,0,0,0,0,0,0,0,0,0
1684165977.99988818,95028640,1581,1581,1574,1574,0,0,0,0,0,0,0,0,0,0
1684165978.09984803,95128600,1578,1579,1578,1577,0,0,0,0,0,0,0,0,0,0
1684165978.19980812,95228560,1576,1577,1580,1579,0,0,0,0,0,0,0,0,0,0
1684165978.29976821,95328520,1575,1575,1582,1582,0,0,0,0,0,0,0,0,0,0
1684165978.39972806,95428480,1574,1575,1583,1584,0,0,0,0,0,0,0,0,0,0
1684165978.49968815,95528440,1573,1573,1584,1584,0,0,0,0,0,0,0,0,0,0
1684165978.59964824,95628400,1574,1574,1584,1584,0,0,0,0,0,0,0,0,0,0
1684165978.69960809,95728360,1574,1575,1584,1583,0,0,0,0,0,0,0,0,0,0
1684165978.79956818,95828320,1576,1576,1584,1583,0,0,0,0,0,0,0,0,0,0
1684165978.89952826,95928280,1577,1577,1582,1582,0,0,0,0,0,0,0,0,0,0
1684165978.99948812,96028240,1577,1577,1580,1580,0,0,0,0,0,0,0,0,0,0
1684165979.09944820,96128200,1578,1578,1579,1579,0,0,0,0,0,0,0,0,0,0
1684165979.19940805,96228160,1579,1579,1578,1578,0,0,0,0,0,0,0,0,0,0
1684165979.30020118,96328953,1581,1581,1578,1578,0,0,0,0,0,0,0,0,0,0
1684165979.40016127,96428913,1580,1581,1577,1576,0,0,0,0,0,0,0,0,0,0
1684165979.50012112,96528873,1580,1581,1576,1576,0,0,0,0,0,0,0,0,0,0
1684165979.60008121,96628833,1581,1581,1576,1576,0,0,0,0,0,0,0,0,0,0
1684165979.70004106,96728793,1581,1580,1577,1577,0,0,0,0,0,0,0,0,0,0
1684165979.80000114,96828753,1581,1581,1578,1578,0,0,0,0,0,0,0,0,0,0
1684165979.89996123,96928713,1581,1581,1579,1579,0,0,0,0,0,0,0,0,0,0
1684165979.99992108,97028673,1580,1580,1580,1580,0,0,0,0,0,0,0,0,0,0
1684165980.09988117,97128633,1580,1581,1580,1581,0,0,0,0,0,0,0,0,0,0
1684165980.19984126,97228593,1580,1580,1580,1581,0,0,0,0,0,0,0,0,0,0
1684165980.29980111,97328553,1580,1580,1581,1581,0,0,0,0,0,0,0,0,0,0
1684165980.39976120,97428513,1580,1580,1582,1582,0,0,0,0,0,0,0,0,0,0
1684165980.49972105,97528473,1579,1579,1581,1581,0,0,0,0,0,0,0,0,0,0
1684165980.59968114,97628433,1580,1580,1581,1581,0,0,0,0,0,0,0,0,0,0
1684165980.69964123,97728393,1580,1580,1581,1581,0,0,0,0,0,0,0,0,0,0
1684165980.79960108,97828353,1580,1580,1581,1581,0,0,0,0,0,0,0,0,0,0
1684165980.89956117,97928313,1581,1581,1582,1581,0,0,0,0,0,0,0,0,0,0
1684165980.99952126,98028273,1580,1580,1580,1580,0,0,0,0,0,0,0,0,0,0
1684165981.09948111,98128233,1580,1581,1585,1575,0,0,0,0,0,0,0,0,0,0
1684165981.19944119,98228193,1580,1581,1586,1572,0,0,0,0,0,0,0,0,0,0
1684165981.30023408,98328986,1579,1579,1580,1574,0,0,0,0,0,0,0,0,0,0
1684165981.40019417,98428946,1576,1575,1573,1574,0,0,0,0,0,0,0,0,0,0
1684165981.50015426,98528906,1572,1572,1567,1573,0,0,0,0,0,0,0,0,0,0
1684165981.60011411,98628866,1570,1569,1565,1571,0,0,0,0,0,0,0,0,0,0
1684165981.70007420,98728826,1568,1568,1564,1569,0,0,0,0,0,0,0,0,0,0
1684165981.80003405,98828786,1567,1567,1565,1567,0,0,0,0,0,0,0,0,0,0
1684165981.89999413,98928746,1566,1567,1567,1566,0,0,0,0,0,0,0,0,0,0
1684165981.99995422,99028706,1566,1566,1568,1565,0,0,0,0,0,0,0,0,0,0
1684165982.09991407,99128666,1564,1564,1566,1564,0,0,0,0,0,0,0,0,0,0
1684165982.19987416,99228626,1563,1563,1565,1564,0,0,0,0,0,0,0,0,0,0
1684165982.29983425,99328586,1563,1563,1564,1564,0,0,0,0,0,0,0,0,0,0
1684165982.39979410,99428546,1563,1563,1564,1564,0,0,0,0,0,0,0,0,0,0
1684165982.49975419,99528506,1562,1562,1563,1563,0,0,0,0,0,0,0,0,0,0
1684165982.59971404,99628466,1561,1561,1562,1562,0,0,0,0,0,0,0,0,0,0
1684165982.69967413,99728426,1562,1561,1562,1562,0,0,0,0,0,0,0,0,0,0
1684165982.79963422,99828386,1562,1561,1562,1562,0,0,0,0,0,0,0,0,0,0
1684165982.89959407,99928346,1562,1562,1562,1561,0,0,0,0,0,0,0,0,0,0
1684165982.99955416,100028306,1560,1561,1561,1560,0,0,0,0,0,0,0,0,0,0
1684165983.09951425,100128266,1561,1560,1560,1560,0,0,0,0,0,0,0,0,0,0
1684165983.19947410,100228226,1560,1560,1560,1559,0,0,0,0,0,0,0,0,0,0
1684165983.29943419,100328186,1560,1560,1559,1559,0,0,0,0,0,0,0,0,0,0
1684165983.40022707,100428979,1559,1559,1559,1558,0,0,0,0,0,0,0,0,0,0
1684165983.50018716,100528939,1558,1558,1558,1557,0,0,0,0,0,0,0,0,0,0
1684165983.60014725,100628899,1558,1558,1559,1556,0,0,0,0,0,0,0,0,0,0
1684165983.70010710,100728859,1559,1558,1559,1557,0,0,0,0,0,0,0,0,0,0
1684165983.80006719,100828819,1558,1558,1560,1556,0,0,0,0,0,0,0,0,0,0
1684165983.90002704,100928779,1558,1558,1559,1558,0,0,0,0,0,0,0,0,0,0
1684165983.99998713,101028739,1559,1559,1558,1561,0,0,0,0,0,0,0,0,0,0
1684165984.09994721,101128699,1560,1559,1557,1563,0,0,0,0,0,0,0,0,0,0
1684165984.19990706,101228659,1560,1560,1557,1564,0,0,0,0,0,0,0,0,0,0
1684165984.29986715,101328619,1561,1561,1559,1563,0,0,0,0,0,0,0,0,0,0
1684165984.39982724,101428579,1561,1562,1561,1563,0,0,0,0,0,0,0,0,0,0
1684165984.49978709,101528539,1562,1561,1562,1561,0,0,0,0,0,0,0,0,0,0
1684165984.59974718,101628499,1561,1561,1562,1558,0,0,0,0,0,0,0,0,0,0
1684165984.69970703,101728459,1560,1560,1562,1557,0,0,0,0,0,0,0,0,0,0
1684165984.79966712,101828419,1560,1559,1557,1561,0,0,0,0,0,0,0,0,0,0
1684165984.89962721,101928379,1558,1557,1553,1560,0,0,0,0,0,0,0,0,0,0
1684165984.99958706,102028339,1552,1552,1549,1554,0,0,0,0,0,0,0,0,0,0
1684165985.09954715,102128299,1548,1548,1545,1548,0,0,0,0,0,0,0,0,0,0
1684165985.19950724,102228259,1542,1542,1541,1540,0,0,0,0,0,0,0,0,0,0
1684165985.29946709,102328219,1535,1536,1535,1533,0,0,0,0,0,0,0,0,0,0
1684165985.39942718,102428179,1528,1528,1528,1526,0,0,0,0,0,0,0,0,0,0
1684165985.50022006,102528972,1522,1521,1521,1520,0,0,0,0,0,0,0,0,0,0
1684165985.60018015,102628932,1519,1519,1518,1518,0,0,0,0,0,0,0,0,0,0
1684165985.70014024,102728892,1518,1518,1518,1519,0,0,0,0,0,0,0,0,0,0
1684165985.80010009,102828852,1520,1520,1521,1522,0,0,0,0,0,0,0,0,0,0
1684165985.90006018,102928812,1522,1522,1524,1525,0,0,0,0,0,0,0,0,0,0
1684165986.00002027,103028772,1526,1526,1529,1529,0,0,0,0,0,0,0,0,0,0
1684165986.09998012,103128732,1531,1531,1534,1534,0,0,0,0,0,0,0,0,0,0
1684165986.19994020,103228692,1534,1534,1537,1536,0,0,0,0,0,0,0,0,0,0
1684165986.29990005,103328652,1538,1538,1541,1540,0,0,0,0,0,0,0,0,0,0
1684165986.39986014,103428612,1541,1541,1543,1542,0,0,0,0,0,0,0,0,0,0
1684165986.49982023,103528572,1543,1543,1544,1544,0,0,0,0,0,0,0,0,0,0
1684165986.59978008,103628532,1545,1545,1545,1545,0,0,0,0,0,0,0,0,0,0
1684165986.69974017,103728492,1547,1547,1546,1546,0,0,0,0,0,0,0,0,0,0
1684165986.79970026,103828452,1547,1547,1545,1545,0,0,0,0,0,0,0,0,0,0
1684165986.89966011,103928412,1548,1547,1546,1546,0,0,0,0,0,0,0,0,0,0
1684165986.99962020,104028372,1548,1548,1546,1546,0,0,0,0,0,0,0,0,0,0
1684165987.09958005,104128332,1547,1548,1546,1545,0,0,0,0,0,0,0,0,0,0
1684165987.19954014,104228292,1547,1547,1546,1546,0,0,0,0,0,0,0,0,0,0
1684165987.29950023,104328252,1547,1547,1546,1546,0,0,0,0,0,0,0,0,0,0
1684165987.39946008,104428212,1547,1547,1546,1545,0,0,0,0,0,0,0,0,0,0
1684165987.49942017,104528172,1546,1546,1545,1546,0,0,0,0,0,0,0,0,0,0
1684165987.60021305,104628965,1545,1545,1545,1545,0,0,0,0,0,0,0,0,0,0
1684165987.70017314,104728925,1546,1545,1546,1546,0,0,0,0,0,0,0,0,0,0
1684165987.80013323,104828885,1544,1545,1546,1545,0,0,0,0,0,0,0,0,0,0
1684165987.90009308,104928845,1544,1545,1545,1545,0,0,0,0,0,0,0,0,0,0
1684165988.00005317,105028805,1544,1544,1545,1545,0,0,0,0,0,0,0,0,0,0
1684165988.10001326,105128765,1544,1543,1544,1544,0,0,0,0,0,0,0,0,0,0
1684165988.19997311,105228725,1544,1544,1545,1545,0,0,0,0,0,0,0,0,0,0
1684165988.29993320,105328685,1544,1544,1545,1545,0,0,0,0,0,0,0,0,0,0
1684165988.39989305,105428645,1545,1544,1545,1544,0,0,0,0,0,0,0,0,0,0
1684165988.49985313,105528605,1545,1544,1544,1545,0,0,0,0,0,0,0,0,0,0
1684165988.59981322,105628565,1544,1544,1544,1544,0,0,0,0,0,0,0,0,0,0
1684165988.69977307,105728525,1544,1544,1544,1544,0,0,0,0,0,0,0,0,0,0
1684165988.79973316,105828485,1544,1545,1544,1544,0,0,0,0,0,0,0,0,0,0
1684165988.89969325,105928445,1545,1545,1544,1545,0,0,0,0,0,0,0,0,0,0
1684165988.99965310,106028405,1545,1545,1545,1545,0,0,0,0,0,0,0,0,0,0
1684165989.09961319,106128365,1545,1545,1544,1545,0,0,0,0,0,0,0,0,0,0
1684165989.19957304,106228325,1545,1545,1545,1544,0,0,0,0,0,0,0,0,0,0
1684165989.29953313,106328285,1544,1544,1544,1544,0,0,0,0,0,0,0,0,0,0
1684165989.39949322,106428245,1543,1544,1544,1543,0,0,0,0,0,0,0,0,0,0
1684165989.49945307,106528205,1544,1544,1544,1544,0,0,0,0,0,0,0,0,0,0
1684165989.59941316,106628165,1543,1543,1543,1543,0,0,0,0,0,0,0,0,0,0
1684165989.70020604,106728958,1545,1544,1544,1545,0,0,0,0,0,0,0,0,0,0
1684165989.80016613,106828918,1543,1543,1542,1543,0,0,0,0,0,0,0,0,0,0
1684165989.90012622,106928878,1543,1543,1543,1543,0,0,0,0,0,0,0,0,0,0
1684165990.00008607,107028838,1543,1544,1544,1544,0,0,0,0,0,0,0,0,0,0
1684165990.10004616,107128798,1544,1544,1544,1544,0,0,0,0,0,0,0,0,0,0
1684165990.20000625,107228758,1544,1545,1545,1544,0,0,0,0,0,0,0,0,0,0
1684165990.29996610,107328718,1544,1544,1544,1545,0,0,0,0,0,0,0,0,0,0
1684165990.39992619,107428678,1544,1543,1544,1543,0,0,0,0,0,0,0,0,0,0
1684165990.49988604,107528638,1544,1543,1544,1544,0,0,0,0,0,0,0,0,0,0
1684165990.59984612,107628598,1545,1545,1545,1545,0,0,0,0,0,0,0,0,0,0
1684165990.69980621,107728558,1544,1543,1543,1544,0,0,0,0,0,0,0,0,0,0
1684165990.79976606,107828518,1545,1545,1545,1545,0,0,0,0,0,0,0,0,0,0
1684165990.89972615,107928478,1545,1544,1544,1545,0,0,0,0,0,0,0,0,0,0
1684165990.99968624,108028438,1544,1544,1544,1544,0,0,0,0,0,0,0,0,0,0
1684165991.09964609,108128398,1545,1544,1545,1545,0,0,0,0,0,0,0,0,0,0
1684165991.19960618,108228358,1545,1545,1545,1544,0,0,0,0,0,0,0,0,0,0
1684165991.29956627,108328318,1544,1544,1544,1544,0,0,0,0,0,0,0,0,0,0
1684165991.39952612,108428278,1544,1544,1544,1544,0,0,0,0,0,0,0,0,0,0
1684165991.49948621,108528238,1543,1544,1543,1544,0,0,0,0,0,0,0,0,0,0
1684165991.59944606,108628198,1545,1545,1545,1545,0,0,0,0,0,0,0,0,0,0
1684165991.69940615,108728158,1544,1544,1544,1544,0,0,0,0,0,0,0,0,0,0
1684165991.80019903,108828951,1544,1543,1544,1543,0,0,0,0,0,0,0,0,0,0
1684165991.90015912,108928911,1544,1544,1544,1544,0,0,0,0,0,0,0,0,0,0
1684165992.00011921,109028871,1544,1544,1544,1543,0,0,0,0,0,0,0,0,0,0
1684165992.10007906,109128831,1544,1544,1544,1544,0,0,0,0,0,0,0,0,0,0
1684165992.20003915,109228791,1545,1545,1545,1545,0,0,0,0,0,0,0,0,0,0
1684165992.29999924,109328751,1544,1544,1544,1544,0,0,0,0,0,0,0,0,0,0
1684165992.39995909,109428711,1545,1545,1545,1545,0,0,0,0,0,0,0,0,0,0
1684165992.49991918,109528671,1544,1544,1544,1545,0,0,0,0,0,0,0,0,0,0
1684165992.59987926,109628631,1545,1545,1545,1545,0,0,0,0,0,0,0,0,0,0
1684165992.69983912,109728591,1544,1544,1544,1544,0,0,0,0,0,0,0,0,0,0
1684165992.79979920,109828551,1543,1543,1543,1543,0,0,0,0,0,0,0,0,0,0
1684165992.89975905,109928511,1544,1544,1544,1544,0,0,0,0,0,0,0,0,0,0
1684165992.99971914,110028471,1544,1545,1544,1544,0,0,0,0,0,0,0,0,0,0
1684165993.09967923,110128431,1545,1545,1545,1545,0,0,0,0,0,0,0,0,0,0
1684165993.19963908,110228391,1544,1544,1544,1544,0,0,0,0,0,0,0,0,0,0
1684165993.29959917,110328351,1545,1544,1544,1544,0,0,0,0,0,0,0,0,0,0
1684165993.39955926,110428311,1544,1544,1545,1544,0,0,0,0,0,0,0,0,0,0
1684165993.49951911,110528271,1544,1545,1544,1544,0,0,0,0,0,0,0,0,0,0
1684165993.59947920,110628231,1545,1545,1545,1545,0,0,0,0,0,0,0,0,0,0
1684165993.69943905,110728191,1544,1544,1544,1544,0,0,0,0,0,0,0,0,0,0
1684165993.80023217,110828984,1544,1544,1544,1544,0,0,0,0,0,0,0,0,0,0
1684165993.90019226,110928944,1545,1544,1544,1545,0,0,0,0,0,0,0,0,0,0
1684165994.00015211,111028904,1545,1544,1545,1545,0,0,0,0,0,0,0,0,0,0
1684165994.10011220,111128864,1545,1544,1544,1545,0,0,0,0,0,0,0,0,0,0
1684165994.20007205,111228824,1544,1545,1545,1545,0,0,0,0,0,0,0,0,0,0
1684165994.30003214,111328784,1545,1545,1545,1545,0,0,0,0,0,0,0,0,0,0
1684165994.39999223,111428744,1544,1544,1544,1544,0,0,0,0,0,0,0,0,0,0
1684165994.49995208,111528704,1544,1544,1544,1543,0,0,0,0,0,0,0,0,0,0
1684165994.59991217,111628664,1544,1544,1544,1544,0,0,0,0,0,0,0,0,0,0
1684165994.69987226,111728624,1544,1543,1543,1543,0,0,0,0,0,0,0,0,0,0
1684165994.79983211,111828584,1544,1544,1544,1544,0,0,0,0,0,0,0,0,0,0
1684165994.89979219,111928544,1545,1545,1545,1545,0,0,0,0,0,0,0,0,0,0
1684165994.99975204,112028504,1545,1545,1545,1545,0,0,0,0,0,0,0,0,0,0
1684165995.09971213,112128464,1545,1545,1544,1545,0,0,0,0,0,0,0,0,0,0
1684165995.19967222,112228424,1513,1514,1511,1510,0,0,0,0,0,0,0,0,0,0
1684165995.29963207,112328384,1352,1354,1326,1326,0,0,0,0,0,0,0,0,0,0
1684165995.39959216,112428344,1280,1283,1238,1238,0,0,0,0,0,0,0,0,0,0
1684165995.49955225,112528304,1260,1262,1212,1213,0,0,0,0,0,0,0,0,0,0
1684165995.59951210,112628264,1243,1245,1191,1190,0,0,0,0,0,0,0,0,0,0
1684165995.69947219,112728224,1213,1215,1150,1150,0,0,0,0,0,0,0,0,0,0
1684165995.79943204,112828184,1212,1215,1150,1150,0,0,0,0,0,0,0,0,0,0
1684165995.90022516,112928977,1212,1214,1150,1150,0,0,0,0,0,0,0,0,0,0
1684165996.00018525,113028937,1213,1214,1150,1151,0,0,0,0,0,0,0,0,0,0
1684165996.10014510,113128897,1216,1193,1150,1178,0,0,0,0,0,0,0,0,0,0
1684165996.20010519,113228857,1215,1202,1150,1167,0,0,0,0,0,0,0,0,0,0
1684165996.30006504,113328817,1215,1205,1150,1164,0,0,0,0,0,0,0,0,0,0
1684165996.40002513,113428777,1215,1205,1150,1163,0,0,0,0,0,0,0,0,0,0
1684165996.49998522,113528737,1215,1205,1150,1164,0,0,0,0,0,0,0,0,0,0
1684165996.59994507,113628697,1215,1205,1150,1164,0,0,0,0,0,0,0,0,0,0
1684165996.69990516,113728657,1215,1204,1150,1165,0,0,0,0,0,0,0,0,0,0
1684165996.79986525,113828617,1212,1215,1154,1150,0,0,0,0,0,0,0,0,0,0
1684165996.89982510,113928577,1213,1212,1150,1150,0,0,0,0,0,0,0,0,0,0
1684165996.99978518,114028537,1214,1212,1150,1152,0,0,0,0,0,0,0,0,0,0
1684165997.09974504,114128497,1215,1212,1150,1153,0,0,0,0,0,0,0,0,0,0
1684165997.19970512,114228457,1215,1212,1150,1153,0,0,0,0,0,0,0,0,0,0
1684165997.29966521,114328417,1066,1066,1150,1150,0,0,0,0,0,0,0,0,0,0
1684165997.39962506,114428377,1000,1000,1000,1000,0,0,0,0,0,0,0,0,0,0
1684165997.49958515,114528337,1000,1000,1000,1000,0,0,0,0,0,0,0,0,0,0
1684165997.59954524,114628297,1000,1000,1000,1000,0,0,0,0,0,0,0,0,0,0
1684165997.69950509,114728257,1000,1000,1000,1000,0,0,0,0,0,0,0,0,0,0
1684165997.79946518,114828217,1000,1000,1000,1000,0,0,0,0,0,0,0,0,0,0
1684165997.89942527,114928177,1000,1000,1000,1000,0,0,0,0,0,0,0,0,0,0
1684165998.00021815,115028970,1000,1000,1000,1000,0,0,0,0,0,0,0,0,0,0
1684165998.10017824,115128930,1000,1000,1000,1000,0,0,0,0,0,0,0,0,0,0
1684165998.20013809,115228890,1000,1000,1000,1000,0,0,0,0,0,0,0,0,0,0
1684165998.30009818,115328850,1000,1000,1000,1000,0,0,0,0,0,0,0,0,0,0
1684165998.40005803,115428810,1000,1000,1000,1000,0,0,0,0,0,0,0,0,0,0
1684165998.50001812,115528770,1000,1000,1000,1000,0,0,0,0,0,0,0,0,0,0
1684165998.59997821,115628730,1000,1000,1000,1000,0,0,0,0,0,0,0,0,0,0
1684165998.69993806,115728690,1000,1000,1000,1000,0,0,0,0,0,0,0,0,0,0
1684165998.79989815,115828650,1000,1000,1000,1000,0,0,0,0,0,0,0,0,0,0
1684165998.89985824,115928610,1000,1000,1000,1000,0,0,0,0,0,0,0,0,0,0
1684165998.99981809,116028570,1000,1000,1000,1000,0,0,0,0,0,0,0,0,0,0
1684165999.09977818,116128530,1000,1000,1000,1000,0,0,0,0,0,0,0,0,0,0
1684165999.19973826,116228490,1000,1000,1000,1000,0,0,0,0,0,0,0,0,0,0
1684165999.29969811,116328450,1000,1000,1000,1000,0,0,0,0,0,0,0,0,0,0
1684165999.39965820,116428410,1000,1000,1000,1000,0,0,0,0,0,0,0,0,0,0
1684165999.49961805,116528370,1000,1000,1000,1000,0,0,0,0,0,0,0,0,0,0
1684165999.59957814,116628330,1000,1000,1000,1000,0,0,0,0,0,0,0,0,0,0
1684165999.69953823,116728290,1000,1000,1000,1000,0,0,0,0,0,0,0,0,0,0
1684165999.79949808,116828250,1000,1000,1000,1000,0,0,0,0,0,0,0,0,0,0
1684165999.89945817,116928210,1000,1000,1000,1000,0,0,0,0,0,0,0,0,0,0
1684165999.99941826,117028170,1000,1000,1000,1000,0,0,0,0,0,0,0,0,0,0
1684166000.10021114,117128963,1000,1000,1000,1000,0,0,0,0,0,0,0,0,0,0
1684166000.20017123,117228923,1000,1000,1000,1000,0,0,0,0,0,0,0,0,0,0
1684166000.30013108,117328883,1000,1000,1000,1000,0,0,0,0,0,0,0,0,0,0
1684166000.40009117,117428843,1000,1000,1000,1000,0,0,0,0,0,0,0,0,0,0
1684166000.50005126,117528803,1000,1000,1000,1000,0,0,0,0,0,0,0,0,0,0
1684166000.60001111,117628763,1000,1000,1000,1000,0,0,0,0,0,0,0,0,0,0
1684166000.69997120,117728723,1000,1000,1000,1000,0,0,0,0,0,0,0,0,0,0
1684166000.79993105,117828683,1000,1000,1000,1000,0,0,0,0,0,0,0,0,0,0
1684166000.89989114,117928643,1000,1000,1000,1000,0,0,0,0,0,0,0,0,0,0
1684166000.99985123,118028603,1000,1000,1000,1000,0,0,0,0,0,0,0,0,0,0
1684166001.09981108,118128563,1000,1000,1000,1000,0,0,0,0,0,0,0,0,0,0
1684166001.19977117,118228523,1000,1000,1000,1000,0,0,0,0,0,0,0,0,0,0
1684166001.29973125,118328483,1000,1000,1000,1000,0,0,0,0,0,0,0,0,0,0
1684166001.39969110,118428443,1000,1000,1000,1000,0,0,0,0,0,0,0,0,0,0
1684166001.49965119,118528403,1000,1000,1000,1000,0,0,0,0,0,0,0,0,0,0
1684166001.59961104,118628363,1000,1000,1000,1000,0,0,0,0,0,0,0,0,0,0
1684166001.69957113,118728323,1000,1000,1000,1000,0,0,0,0,0,0,0,0,0,0
1684166001.79953122,118828283,1000,1000,1000,1000,0,0,0,0,0,0,0,0,0,0
1684166001.89949107,118928243,1000,1000,1000,1000,0,0,0,0,0,0,0,0,0,0
1684166001.99945116,119028203,1000,1000,1000,1000,0,0,0,0,0,0,0,0,0,0
1684166002.09941125,119128163,1000,1000,1000,1000,0,0,0,0,0,0,0,0,0,0
1684166002.20020413,119228956,1000,1000,1000,1000,0,0,0,0,0,0,0,0,0,0
1684166002.30016422,119328916,1000,1000,1000,1000,0,0,0,0,0,0,0,0,0,0
1684166002.40012407,119428876,1000,1000,1000,1000,0,0,0,0,0,0,0,0,0,0
1684166002.50008416,119528836,1000,1000,1000,1000,0,0,0,0,0,0,0,0,0,0
1684166002.60004425,119628796,1000,1000,1000,1000,0,0,0,0,0,0,0,0,0,0
1684166002.70000410,119728756,1000,1000,1000,1000,0,0,0,0,0,0,0,0,0,0
1684166002.79996419,119828716,1000,1000,1000,1000,0,0,0,0,0,0,0,0,0,0
1684166002.89992404,119928676,1000,1000,1000,1000,0,0,0,0,0,0,0,0,0,0
1684166002.99988413,120028636,1000,1000,1000,1000,0,0,0,0,0,0,0,0,0,0
1684166003.09984422,120128596,1000,1000,1000,1000,0,0,0,0,0,0,0,0,0,0
1684166003.19980407,120228556,1000,1000,1000,1000,0,0,0,0,0,0,0,0,0,0
1684166003.29976416,120328516,1000,1000,1000,1000,0,0,0,0,0,0,0,0,0,0
1684166003.39972425,120428476,1000,1000,1000,1000,0,0,0,0,0,0,0,0,0,0
1684166003.49968410,120528436,1000,1000,1000,1000,0,0,0,0,0,0,0,0,0,0
1684166003.59964418,120628396,1000,1000,1000,1000,0,0,0,0,0,0,0,0,0,0
1684166003.69960403,120728356,1000,1000,1000,1000,0,0,0,0,0,0,0,0,0,0
1684166003.79956412,120828316,1000,1000,1000,1000,0,0,0,0,0,0,0,0,0,0
1684166003.89952421,120928276,1000,1000,1000,1000,0,0,0,0,0,0,0,0,0,0
1684166003.99948406,121028236,1000,1000,1000,1000,0,0,0,0,0,0,0,0,0,0
1684166004.09944415,121128196,1000,1000,1000,1000,0,0,0,0,0,0,0,0,0,0
1684166004.19940424,121228156,1000,1000,1000,1000,0,0,0,0,0,0,0,0,0,0
1684166004.30019712,121328949,1000,1000,1000,1000,0,0,0,0,0,0,0,0,0,0
1684166004.40015721,121428909,1000,1000,1000,1000,0,0,0,0,0,0,0,0,0,0
1684166004.50011706,121528869,1000,1000,1000,1000,0,0,0,0,0,0,0,0,0,0
1684166004.60007715,121628829,1000,1000,1000,1000,0,0,0,0,0,0,0,0,0,0
1684166004.70003724,121728789,1000,1000,1000,1000,0,0,0,0,0,0,0,0,0,0
1684166004.79999709,121828749,1000,1000,1000,1000,0,0,0,0,0,0,0,0,0,0
1684166004.89995718,121928709,1000,1000,1000,1000,0,0,0,0,0,0,0,0,0,0
1684166004.99991727,122028669,1000,1000,1000,1000,0,0,0,0,0,0,0,0,0,0
1684166005.09987712,122128629,1000,1000,1000,1000,0,0,0,0,0,0,0,0,0,0
1684166005.19983721,122228589,1000,1000,1000,1000,0,0,0,0,0,0,0,0,0,0
1684166005.29979706,122328549,1000,1000,1000,1000,0,0,0,0,0,0,0,0,0,0
1684166005.39975715,122428509,1000,1000,1000,1000,0,0,0,0,0,0,0,0,0,0
1684166005.49971724,122528469,1000,1000,1000,1000,0,0,0,0,0,0,0,0,0,0
1684166005.59967709,122628429,1000,1000,1000,1000,0,0,0,0,0,0,0,0,0,0
1684166005.69963717,122728389,1000,1000,1000,1000,0,0,0,0,0,0,0,0,0,0
1684166005.79959726,122828349,1000,1000,1000,1000,0,0,0,0,0,0,0,0,0,0
1684166005.89955711,122928309,1000,1000,1000,1000,0,0,0,0,0,0,0,0,0,0
1684166005.99951720,123028269,1000,1000,1000,1000,0,0,0,0,0,0,0,0,0,0
1684166006.09947705,123128229,1000,1000,1000,1000,0,0,0,0,0,0,0,0,0,0
1684166006.19943714,123228189,1000,1000,1000,1000,0,0,0,0,0,0,0,0,0,0
1684166006.30023026,123328982,1000,1000,1000,1000,0,0,0,0,0,0,0,0,0,0
1684166006.40019011,123428942,1000,1000,1000,1000,0,0,0,0,0,0,0,0,0,0
1684166006.50015020,123528902,1000,1000,1000,1000,0,0,0,0,0,0,0,0,0,0
1684166006.60011005,123628862,1000,1000,1000,1000,0,0,0,0,0,0,0,0,0,0
1684166006.70007014,123728822,1000,1000,1000,1000,0,0,0,0,0,0,0,0,0,0
1684166006.80003023,123828782,1000,1000,1000,1000,0,0,0,0,0,0,0,0,0,0
1684166006.89999008,123928742,1000,1000,1000,1000,0,0,0,0,0,0,0,0,0,0
1684166006.99995017,124028702,1000,1000,1000,1000,0,0,0,0,0,0,0,0,0,0
1684166007.09991026,124128662,1000,1000,1000,1000,0,0,0,0,0,0,0,0,0,0
1684166007.19987011,124228622,1000,1000,1000,1000,0,0,0,0,0,0,0,0,0,0
1684166007.29983020,124328582,1000,1000,1000,1000,0,0,0,0,0,0,0,0,0,0
1684166007.39979005,124428542,1000,1000,1000,1000,0,0,0,0,0,0,0,0,0,0
1684166007.49975014,124528502,1000,1000,1000,1000,0,0,0,0,0,0,0,0,0,0
1684166007.59971023,124628462,1000,1000,1000,1000,0,0,0,0,0,0,0,0,0,0
1684166007.69967008,124728422,1000,1000,1000,1000,0,0,0,0,0,0,0,0,0,0
1684166007.79963017,124828382,1000,1000,1000,1000,0,0,0,0,0,0,0,0,0,0
1684166007.89959025,124928342,1000,1000,1000,1000,0,0,0,0,0,0,0,0,0,0
1684166007.99955010,125028302,1000,1000,1000,1000,0,0,0,0,0,0,0,0,0,0
1684166008.09951019,125128262,1000,1000,1000,1000,0,0,0,0,0,0,0,0,0,0
1684166008.19947004,125228222,1000,1000,1000,1000,0,0,0,0,0,0,0,0,0,0
1684166008.29943013,125328182,1000,1000,1000,1000,0,0,0,0,0,0,0,0,0,0
1684166008.40022326,125428975,1000,1000,1000,1000,0,0,0,0,0,0,0,0,0,0
1684166008.50018311,125528935,1000,1000,1000,1000,0,0,0,0,0,0,0,0,0,0
1684166008.60014319,125628895,1000,1000,1000,1000,0,0,0,0,0,0,0,0,0,0
1684166008.70010304,125728855,1000,1000,1000,1000,0,0,0,0,0,0,0,0,0,0
1684166008.80006313,125828815,1000,1000,1000,1000,0,0,0,0,0,0,0,0,0,0
1684166008.90002322,125928775,1000,1000,1000,1000,0,0,0,0,0,0,0,0,0,0
1684166008.99998307,126028735,1000,1000,1000,1000,0,0,0,0,0,0,0,0,0,0
1684166009.09994316,126128695,1000,1000,1000,1000,0,0,0,0,0,0,0,0,0,0
1684166009.19990325,126228655,1000,1000,1000,1000,0,0,0,0,0,0,0,0,0,0
1684166009.29986310,126328615,1000,1000,1000,1000,0,0,0,0,0,0,0,0,0,0
1684166009.39982319,126428575,1000,1000,1000,1000,0,0,0,0,0,0,0,0,0,0
1684166009.49978304,126528535,1000,1000,1000,1000,0,0,0,0,0,0,0,0,0,0
1684166009.59974313,126628495,1000,1000,1000,1000,0,0,0,0,0,0,0,0,0,0
1684166009.69970322,126728455,1000,1000,1000,1000,0,0,0,0,0,0,0,0,0,0
1684166009.79966307,126828415,1000,1000,1000,1000,0,0,0,0,0,0,0,0,0,0
1684166009.89962316,126928375,1000,1000,1000,1000,0,0,0,0,0,0,0,0,0,0
1684166009.99958324,127028335,1000,1000,1000,1000,0,0,0,0,0,0,0,0,0,0
1684166010.09954309,127128295,1000,1000,1000,1000,0,0,0,0,0,0,0,0,0,0
1684166010.19950318,127228255,1000,1000,1000,1000,0,0,0,0,0,0,0,0,0,0
1684166010.29946303,127328215,1000,1000,1000,1000,0,0,0,0,0,0,0,0,0,0
1684166010.39942312,127428175,1000,1000,1000,1000,0,0,0,0,0,0,0,0,0,0
1684166010.50021625,127528968,1000,1000,1000,1000,0,0,0,0,0,0,0,0,0,0
1684166010.60017610,127628928,1000,1000,1000,1000,0,0,0,0,0,0,0,0,0,0
1684166010.70013618,127728888,1000,1000,1000,1000,0,0,0,0,0,0,0,0,0,0
1684166010.80009604,127828848,1000,1000,1000,1000,0,0,0,0,0,0,0,0,0,0
1684166010.90005612,127928808,1000,1000,1000,1000,0,0,0,0,0,0,0,0,0,0
1684166011.00001621,128028768,1000,1000,1000,1000,0,0,0,0,0,0,0,0,0,0
1684166011.09997606,128128728,1000,1000,1000,1000,0,0,0,0,0,0,0,0,0,0
1684166011.19993615,128228688,1000,1000,1000,1000,0,0,0,0,0,0,0,0,0,0
1684166011.29989624,128328648,1000,1000,1000,1000,0,0,0,0,0,0,0,0,0,0
1684166011.39985609,128428608,1000,1000,1000,1000,0,0,0,0,0,0,0,0,0,0
1684166011.49981618,128528568,1000,1000,1000,1000,0,0,0,0,0,0,0,0,0,0
1684166011.59977627,128628528,1000,1000,1000,1000,0,0,0,0,0,0,0,0,0,0
1684166011.69973612,128728488,1000,1000,1000,1000,0,0,0,0,0,0,0,0,0,0
1684166011.79969621,128828448,1000,1000,1000,1000,0,0,0,0,0,0,0,0,0,0
1684166011.89965606,128928408,1000,1000,1000,1000,0,0,0,0,0,0,0,0,0,0
1684166011.99961615,129028368,1000,1000,1000,1000,0,0,0,0,0,0,0,0,0,0
1684166012.09957623,129128328,1000,1000,1000,1000,0,0,0,0,0,0,0,0,0,0
1684166012.19953609,129228288,1000,1000,1000,1000,0,0,0,0,0,0,0,0,0,0
