timestamp,TimeUS,C1,C2,C3,C4,C5,C6,C7,C8,C9,C10,C11,C12,C13,C14
1683193294.40000010,57028846,1000,1000,1000,1000,0,0,0,0,0,0,0,0,0,0
1683193294.49996018,57128806,1000,1000,1000,1000,0,0,0,0,0,0,0,0,0,0
1683193294.59992003,57228766,1000,1000,1000,1000,0,0,0,0,0,0,0,0,0,0
1683193294.69988012,57328726,1000,1000,1000,1000,0,0,0,0,0,0,0,0,0,0
1683193294.79983997,57428686,1000,1000,1000,1000,0,0,0,0,0,0,0,0,0,0
1683193294.89980006,57528646,1000,1000,1000,1000,0,0,0,0,0,0,0,0,0,0
1683193294.99976015,57628606,1000,1000,1000,1000,0,0,0,0,0,0,0,0,0,0
1683193295.09972000,57728566,1000,1000,1000,1000,0,0,0,0,0,0,0,0,0,0
1683193295.19968009,57828526,1000,1000,1000,1000,0,0,0,0,0,0,0,0,0,0
1683193295.29964018,57928486,1000,1000,1000,1000,0,0,0,0,0,0,0,0,0,0
1683193295.39960003,58028446,1000,1000,1000,1000,0,0,0,0,0,0,0,0,0,0
1683193295.49956012,58128406,1000,1000,1000,1000,0,0,0,0,0,0,0,0,0,0
1683193295.59951997,58228366,1000,1000,1000,1000,0,0,0,0,0,0,0,0,0,0
1683193295.69948006,58328326,1000,1000,1000,1000,0,0,0,0,0,0,0,0,0,0
1683193295.79944015,58428286,1000,1000,1000,1000,0,0,0,0,0,0,0,0,0,0
1683193295.89940000,58528246,1000,1000,1000,1000,0,0,0,0,0,0,0,0,0,0
1683193295.99936008,58628206,1000,1000,1000,1000,0,0,0,0,0,0,0,0,0,0
1683193296.09932017,58728166,1000,1000,1000,1000,0,0,0,0,0,0,0,0,0,0
1683193296.20011306,58828959,1000,1000,1000,1000,0,0,0,0,0,0,0,0,0,0
1683193296.30007315,58928919,1000,1000,1000,1000,0,0,0,0,0,0,0,0,0,0
1683193296.40003300,59028879,1024,1024,1024,1024,0,0,0,0,0,0,0,0,0,0
1683193296.49999309,59128839,1054,1054,1054,1054,0,0,0,0,0,0,0,0,0,0
1683193296.59995317,59228799,1084,1084,1084,1084,0,0,0,0,0,0,0,0,0,0
1683193296.69991302,59328759,1114,1114,1114,1114,0,0,0,0,0,0,0,0,0,0
1683193296.79987311,59428719,1144,1144,1144,1144,0,0,0,0,0,0,0,0,0,0
1683193296.89983296,59528679,1363,1356,1357,1363,0,0,0,0,0,0,0,0,0,0
1683193296.99979305,59628639,1551,1545,1546,1551,0,0,0,0,0,0,0,0,0,0
1683193297.09975314,59728599,1703,1697,1697,1703,0,0,0,0,0,0,0,0,0,0
1683193297.19971299,59828559,1833,1828,1828,1834,0,0,0,0,0,0,0,0,0,0
1683193297.29967308,59928519,1913,1907,1909,1913,0,0,0,0,0,0,0,0,0,0
1683193297.39963317,60028479,1849,1847,1847,1849,0,0,0,0,0,0,0,0,0,0
1683193297.49959302,60128439,1722,1722,1722,1722,0,0,0,0,0,0,0,0,0,0
1683193297.59955311,60228399,1651,1653,1653,1652,0,0,0,0,0,0,0,0,0,0
1683193297.69951296,60328359,1638,1640,1640,1638,0,0,0,0,0,0,0,0,0,0
1683193297.79947305,60428319,1642,1641,1639,1644,0,0,0,0,0,0,0,0,0,0
1683193297.89943314,60528279,1638,1640,1632,1646,0,0,0,0,0,0,0,0,0,0
1683193297.99939299,60628239,1632,1634,1628,1638,0,0,0,0,0,0,0,0,0,0
1683193298.09935308,60728199,1625,1626,1625,1626,0,0,0,0,0,0,0,0,0,0
1683193298.19931316,60828159,1622,1621,1624,1619,0,0,0,0,0,0,0,0,0,0
1683193298.30010605,60928952,1620,1618,1624,1614,0,0,0,0,0,0,0,0,0,0
1683193298.40006614,61028912,1620,1619,1624,1615,0,0,0,0,0,0,0,0,0,0
1683193298.50002599,61128872,1590,1589,1603,1575,0,0,0,0,0,0,0,0,0,0
1683193298.59998608,61228832,1575,1575,1586,1565,0,0,0,0,0,0,0,0,0,0
1683193298.69994617,61328792,1564,1564,1565,1562,0,0,0,0,0,0,0,0,0,0
1683193298.79990602,61428752,1553,1553,1548,1558,0,0,0,0,0,0,0,0,0,0
1683193298.89986610,61528712,1545,1546,1537,1554,0,0,0,0,0,0,0,0,0,0
1683193298.99982595,61628672,1539,1539,1528,1549,0,0,0,0,0,0,0,0,0,0
1683193299.09978604,61728632,1534,1533,1525,1541,0,0,0,0,0,0,0,0,0,0
1683193299.19974613,61828592,1529,1529,1525,1532,0,0,0,0,0,0,0,0,0,0
1683193299.29970598,61928552,1525,1524,1524,1524,0,0,0,0,0,0,0,0,0,0
1683193299.39966607,62028512,1525,1525,1527,1523,0,0,0,0,0,0,0,0,0,0
1683193299.49962616,62128472,1528,1527,1530,1525,0,0,0,0,0,0,0,0,0,0
1683193299.59958601,62228432,1530,1531,1533,1528,0,0,0,0,0,0,0,0,0,0
1683193299.69954610,62328392,1535,1534,1537,1533,0,0,0,0,0,0,0,0,0,0
1683193299.79950619,62428352,1538,1538,1540,1537,0,0,0,0,0,0,0,0,0,0
1683193299.89946604,62528312,1542,1542,1543,1541,0,0,0,0,0,0,0,0,0,0
1683193299.99942613,62628272,1544,1545,1545,1545,0,0,0,0,0,0,0,0,0,0
1683193300.09938598,62728232,1549,1548,1549,1549,0,0,0,0,0,0,0,0,0,0
1683193300.19934607,62828192,1551,1551,1551,1552,0,0,0,0,0,0,0,0,0,0
1683193300.30013919,62928985,1554,1554,1554,1555,0,0,0,0,0,0,0,0,0,0
1683193300.40009904,63028945,1557,1557,1555,1558,0,0,0,0,0,0,0,0,0,0
1683193300.50005913,63128905,1558,1558,1557,1559,0,0,0,0,0,0,0,0,0,0
1683193300.60001898,63228865,1558,1558,1560,1561,0,0,0,0,0,0,0,0,0,0
1683193300.69997907,63328825,1559,1559,1563,1564,0,0,0,0,0,0,0,0,0,0
1683193300.79993916,63428785,1561,1561,1566,1565,0,0,0,0,0,0,0,0,0,0
1683193300.89989901,63528745,1562,1562,1567,1566,0,0,0,0,0,0,0,0,0,0
1683193300.99985909,63628705,1565,1566,1569,1569,0,0,0,0,0,0,0,0,0,0
1683193301.09981918,63728665,1567,1567,1569,1569,0,0,0,0,0,0,0,0,0,0
1683193301.19977903,63828625,1569,1569,1570,1570,0,0,0,0,0,0,0,0,0,0
1683193301.29973912,63928585,1569,1568,1568,1569,0,0,0,0,0,0,0,0,0,0
1683193301.39969897,64028545,1571,1571,1569,1570,0,0,0,0,0,0,0,0,0,0
1683193301.49965906,64128505,1572,1572,1569,1570,0,0,0,0,0,0,0,0,0,0
1683193301.59961915,64228465,1573,1573,1570,1570,0,0,0,0,0,0,0,0,0,0
1683193301.69957900,64328425,1574,1574,1571,1571,0,0,0,0,0,0,0,0,0,0
1683193301.79953909,64428385,1573,1574,1571,1570,0,0,0,0,0,0,0,0,0,0
1683193301.89949918,64528345,1575,1574,1573,1572,0,0,0,0,0,0,0,0,0,0
1683193301.99945903,64628305,1575,1575,1574,1573,0,0,0,0,0,0,0,0,0,0
1683193302.09941912,64728265,1575,1575,1575,1574,0,0,0,0,0,0,0,0,0,0
1683193302.19937897,64828225,1575,1575,1575,1574,0,0,0,0,0,0,0,0,0,0
1683193302.29933906,64928185,1575,1575,1575,1575,0,0,0,0,0,0,0,0,0,0
1683193302.40013218,65028978,1576,1576,1576,1576,0,0,0,0,0,0,0,0,0,0
1683193302.50009203,65128938,1576,1576,1576,1576,0,0,0,0,0,0,0,0,0,0
1683193302.60005212,65228898,1576,1576,1576,1577,0,0,0,0,0,0,0,0,0,0
1683193302.70001197,65328858,1576,1576,1576,1577,0,0,0,0,0,0,0,0,0,0
1683193302.79997206,65428818,1576,1576,1577,1577,0,0,0,0,0,0,0,0,0,0
1683193302.89993215,65528778,1576,1576,1577,1577,0,0,0,0,0,0,0,0,0,0
1683193302.99989200,65628738,1576,1577,1577,1577,0,0,0,0,0,0,0,0,0,0
1683193303.09985209,65728698,1578,1578,1578,1578,0,0,0,0,0,0,0,0,0,0
1683193303.19981217,65828658,1578,1578,1578,1578,0,0,0,0,0,0,0,0,0,0
1683193303.29977202,65928618,1578,1578,1578,1578,0,0,0,0,0,0,0,0,0,0
1683193303.39973211,66028578,1579,1579,1579,1578,0,0,0,0,0,0,0,0,0,0
1683193303.49969196,66128538,1579,1578,1578,1578,0,0,0,0,0,0,0,0,0,0
1683193303.59965205,66228498,1578,1578,1578,1578,0,0,0,0,0,0,0,0,0,0
1683193303.69961214,66328458,1578,1578,1578,1578,0,0,0,0,0,0,0,0,0,0
1683193303.79957199,66428418,1579,1579,1579,1579,0,0,0,0,0,0,0,0,0,0
1683193303.89953208,66528378,1578,1579,1578,1579,0,0,0,0,0,0,0,0,0,0
1683193303.99949217,66628338,1578,1578,1578,1578,0,0,0,0,0,0,0,0,0,0
1683193304.09945202,66728298,1579,1579,1579,1579,0,0,0,0,0,0,0,0,0,0
1683193304.19941211,66828258,1579,1579,1579,1578,0,0,0,0,0,0,0,0,0,0
1683193304.29937196,66928218,1580,1579,1580,1579,0,0,0,0,0,0,0,0,0,0
1683193304.39933205,67028178,1580,1580,1580,1580,0,0,0,0,0,0,0,0,0,0
1683193304.50012517,67128971,1580,1579,1580,1580,0,0,0,0,0,0,0,0,0,0
1683193304.60008502,67228931,1579,1580,1580,1580,0,0,0,0,0,0,0,0,0,0
1683193304.70004511,67328891,1579,1579,1579,1580,0,0,0,0,0,0,0,0,0,0
1683193304.80000496,67428851,1579,1580,1580,1580,0,0,0,0,0,0,0,0,0,0
1683193304.89996505,67528811,1580,1579,1580,1580,0,0,0,0,0,0,0,0,0,0
1683193304.99992514,67628771,1580,1580,1580,1580,0,0,0,0,0,0,0,0,0,0
1683193305.09988499,67728731,1580,1579,1580,1580,0,0,0,0,0,0,0,0,0,0
1683193305.19984508,67828691,1580,1580,1580,1580,0,0,0,0,0,0,0,0,0,0
1683193305.29980516,67928651,1580,1580,1581,1580,0,0,0,0,0,0,0,0,0,0
1683193305.39976501,68028611,1581,1581,1581,1581,0,0,0,0,0,0,0,0,0,0
1683193305.49972510,68128571,1580,1580,1580,1580,0,0,0,0,0,0,0,0,0,0
1683193305.59968495,68228531,1580,1580,1580,1580,0,0,0,0,0,0,0,0,0,0
1683193305.69964504,68328491,1580,1580,1580,1580,0,0,0,0,0,0,0,0,0,0
1683193305.79960513,68428451,1580,1579,1580,1580,0,0,0,0,0,0,0,0,0,0
1683193305.89956498,68528411,1580,1581,1580,1580,0,0,0,0,0,0,0,0,0,0
1683193305.99952507,68628371,1580,1580,1580,1580,0,0,0,0,0,0,0,0,0,0
1683193306.09948516,68728331,1579,1580,1579,1580,0,0,0,0,0,0,0,0,0,0
1683193306.19944501,68828291,1579,1579,1579,1579,0,0,0,0,0,0,0,0,0,0
1683193306.29940510,68928251,1579,1579,1579,1580,0,0,0,0,0,0,0,0,0,0
1683193306.39936519,69028211,1580,1581,1581,1580,0,0,0,0,0,0,0,0,0,0
1683193306.49932504,69128171,1581,1581,1581,1581,0,0,0,0,0,0,0,0,0,0
1683193306.60011816,69228964,1581,1581,1585,1577,0,0,0,0,0,0,0,0,0,0
1683193306.70007801,69328924,1580,1582,1588,1573,0,0,0,0,0,0,0,0,0,0
1683193306.80003810,69428884,1579,1582,1582,1573,0,0,0,0,0,0,0,0,0,0
1683193306.89999819,69528844,1578,1581,1573,1573,0,0,0,0,0,0,0,0,0,0
1683193306.99995804,69628804,1577,1580,1565,1571,0,0,0,0,0,0,0,0,0,0
1683193307.09991813,69728764,1577,1578,1558,1566,0,0,0,0,0,0,0,0,0,0
1683193307.19987798,69828724,1579,1578,1556,1562,0,0,0,0,0,0,0,0,0,0
1683193307.29983807,69928684,1580,1578,1556,1558,0,0,0,0,0,0,0,0,0,0
1683193307.39979815,70028644,1579,1578,1555,1555,0,0,0,0,0,0,0,0,0,0
1683193307.49975801,70128604,1579,1578,1556,1554,0,0,0,0,0,0,0,0,0,0
1683193307.59971809,70228564,1577,1577,1556,1553,0,0,0,0,0,0,0,0,0,0
1683193307.69967818,70328524,1576,1577,1556,1554,0,0,0,0,0,0,0,0,0,0
1683193307.79963803,70428484,1575,1576,1555,1553,0,0,0,0,0,0,0,0,0,0
1683193307.89959812,70528444,1575,1576,1553,1553,0,0,0,0,0,0,0,0,0,0
1683193307.99955797,70628404,1575,1576,1552,1552,0,0,0,0,0,0,0,0,0,0
1683193308.09951806,70728364,1576,1577,1551,1552,0,0,0,0,0,0,0,0,0,0
1683193308.19947815,70828324,1578,1579,1550,1550,0,0,0,0,0,0,0,0,0,0
1683193308.29943800,70928284,1580,1581,1547,1547,0,0,0,0,0,0,0,0,0,0
1683193308.39939809,71028244,1582,1583,1544,1544,0,0,0,0,0,0,0,0,0,0
1683193308.49935818,71128204,1585,1586,1541,1541,0,0,0,0,0,0,0,0,0,0
1683193308.59931803,71228164,1588,1589,1538,1538,0,0,0,0,0,0,0,0,0,0
1683193308.70011115,71328957,1592,1592,1537,1537,0,0,0,0,0,0,0,0,0,0
1683193308.80007100,71428917,1594,1594,1534,1534,0,0,0,0,0,0,0,0,0,0
1683193308.90003109,71528877,1596,1594,1534,1535,0,0,0,0,0,0,0,0,0,0
1683193308.99999118,71628837,1595,1595,1535,1536,0,0,0,0,0,0,0,0,0,0
1683193309.09995103,71728797,1594,1594,1537,1539,0,0,0,0,0,0,0,0,0,0
1683193309.19991112,71828757,1591,1590,1540,1544,0,0,0,0,0,0,0,0,0,0
1683193309.29987097,71928717,1587,1585,1547,1551,0,0,0,0,0,0,0,0,0,0
1683193309.39983106,72028677,1580,1577,1557,1560,0,0,0,0,0,0,0,0,0,0
1683193309.49979115,72128637,1571,1567,1567,1570,0,0,0,0,0,0,0,0,0,0
1683193309.59975100,72228597,1559,1556,1580,1581,0,0,0,0,0,0,0,0,0,0
1683193309.69971108,72328557,1548,1545,1592,1592,0,0,0,0,0,0,0,0,0,0
1683193309.79967117,72428517,1539,1537,1603,1603,0,0,0,0,0,0,0,0,0,0
1683193309.89963102,72528477,1532,1532,1611,1611,0,0,0,0,0,0,0,0,0,0
1683193309.99959111,72628437,1528,1530,1616,1615,0,0,0,0,0,0,0,0,0,0
1683193310.09955096,72728397,1529,1531,1616,1615,0,0,0,0,0,0,0,0,0,0
1683193310.19951105,72828357,1533,1535,1612,1612,0,0,0,0,0,0,0,0,0,0
1683193310.29947114,72928317,1539,1541,1607,1607,0,0,0,0,0,0,0,0,0,0
1683193310.39943099,73028277,1547,1549,1600,1600,0,0,0,0,0,0,0,0,0,0
1683193310.49939108,73128237,1556,1557,1592,1592,0,0,0,0,0,0,0,0,0,0
1683193310.59935117,73228197,1566,1566,1585,1585,0,0,0,0,0,0,0,0,0,0
1683193310.69931102,73328157,1574,1573,1578,1577,0,0,0,0,0,0,0,0,0,0
1683193310.80010414,73428950,1581,1580,1573,1572,0,0,0,0,0,0,0,0,0,0
1683193310.90006399,73528910,1585,1584,1569,1568,0,0,0,0,0,0,0,0,0,0
1683193311.00002408,73628870,1588,1587,1567,1567,0,0,0,0,0,0,0,0,0,0
1683193311.09998417,73728830,1589,1587,1566,1567,0,0,0,0,0,0,0,0,0,0
1683193311.19994402,73828790,1588,1587,1567,1567,0,0,0,0,0,0,0,0,0,0
1683193311.29990411,73928750,1586,1585,1570,1570,0,0,0,0,0,0,0,0,0,0
1683193311.39986396,74028710,1583,1582,1572,1572,0,0,0,0,0,0,0,0,0,0
1683193311.49982405,74128670,1580,1580,1575,1576,0,0,0,0,0,0,0,0,0,0
1683193311.59978414,74228630,1578,1579,1579,1579,0,0,0,0,0,0,0,0,0,0
1683193311.69974399,74328590,1574,1575,1580,1580,0,0,0,0,0,0,0,0,0,0
1683193311.79970407,74428550,1573,1574,1583,1583,0,0,0,0,0,0,0,0,0,0
1683193311.89966416,74528510,1572,1573,1583,1583,0,0,0,0,0,0,0,0,0,0
1683193311.99962401,74628470,1573,1573,1584,1585,0,0,0,0,0,0,0,0,0,0
1683193312.09958410,74728430,1573,1574,1584,1584,0,0,0,0,0,0,0,0,0,0
1683193312.19954395,74828390,1575,1575,1584,1584,0,0,0,0,0,0,0,0,0,0
1683193312.29950404,74928350,1575,1575,1582,1582,0,0,0,0,0,0,0,0,0,0
1683193312.39946413,75028310,1583,1583,1581,1580,0,0,0,0,0,0,0,0,0,0
1683193312.49942398,75128270,1581,1581,1578,1578,0,0,0,0,0,0,0,0,0,0
1683193312.59938407,75228230,1581,1581,1577,1578,0,0,0,0,0,0,0,0,0,0
1683193312.69934416,75328190,1580,1579,1576,1577,0,0,0,0,0,0,0,0,0,0
1683193312.80013704,75428983,1579,1579,1577,1576,0,0,0,0,0,0,0,0,0,0
1683193312.90009713,75528943,1580,1580,1578,1578,0,0,0,0,0,0,0,0,0,0
1683193313.00005698,75628903,1579,1579,1578,1578,0,0,0,0,0,0,0,0,0,0
1683193313.10001707,75728863,1579,1580,1579,1579,0,0,0,0,0,0,0,0,0,0
1683193313.19997716,75828823,1579,1579,1579,1580,0,0,0,0,0,0,0,0,0,0
1683193313.29993701,75928783,1578,1579,1580,1580,0,0,0,0,0,0,0,0,0,0
1683193313.39989710,76028743,1579,1579,1580,1580,0,0,0,0,0,0,0,0,0,0
1683193313.49985719,76128703,1578,1578,1580,1580,0,0,0,0,0,0,0,0,0,0
1683193313.59981704,76228663,1579,1579,1580,1580,0,0,0,0,0,0,0,0,0,0
1683193313.69977713,76328623,1579,1580,1581,1581,0,0,0,0,0,0,0,0,0,0
1683193313.79973698,76428583,1580,1580,1581,1581,0,0,0,0,0,0,0,0,0,0
1683193313.89969707,76528543,1580,1580,1580,1581,0,0,0,0,0,0,0,0,0,0
1683193313.99965715,76628503,1580,1581,1580,1581,0,0,0,0,0,0,0,0,0,0
1683193314.09961700,76728463,1580,1580,1580,1580,0,0,0,0,0,0,0,0,0,0
1683193314.19957709,76828423,1580,1580,1580,1580,0,0,0,0,0,0,0,0,0,0
1683193314.29953718,76928383,1580,1580,1580,1580,0,0,0,0,0,0,0,0,0,0
1683193314.39949703,77028343,1581,1581,1580,1580,0,0,0,0,0,0,0,0,0,0
1683193314.49945712,77128303,1582,1582,1581,1581,0,0,0,0,0,0,0,0,0,0
1683193314.59941697,77228263,1581,1582,1582,1579,0,0,0,0,0,0,0,0,0,0
1683193314.69937706,77328223,1582,1585,1588,1573,0,0,0,0,0,0,0,0,0,0
1683193314.79933715,77428183,1581,1585,1582,1572,0,0,0,0,0,0,0,0,0,0
1683193314.90013003,77528976,1580,1583,1572,1571,0,0,0,0,0,0,0,0,0,0
1683193315.00009012,77628936,1580,1581,1563,1569,0,0,0,0,0,0,0,0,0,0
1683193315.10004997,77728896,1580,1581,1557,1565,0,0,0,0,0,0,0,0,0,0
1683193315.20001006,77828856,1581,1581,1554,1560,0,0,0,0,0,0,0,0,0,0
1683193315.29997015,77928816,1582,1580,1553,1556,0,0,0,0,0,0,0,0,0,0
1683193315.39993000,78028776,1582,1580,1554,1552,0,0,0,0,0,0,0,0,0,0
1683193315.49989009,78128736,1581,1580,1554,1552,0,0,0,0,0,0,0,0,0,0
1683193315.59985018,78228696,1578,1579,1554,1551,0,0,0,0,0,0,0,0,0,0
1683193315.69981003,78328656,1577,1578,1554,1552,0,0,0,0,0,0,0,0,0,0
1683193315.79977012,78428616,1576,1578,1553,1552,0,0,0,0,0,0,0,0,0,0
1683193315.89972997,78528576,1577,1577,1554,1553,0,0,0,0,0,0,0,0,0,0
1683193315.99969006,78628536,1577,1578,1553,1553,0,0,0,0,0,0,0,0,0,0
1683193316.09965014,78728496,1577,1579,1551,1551,0,0,0,0,0,0,0,0,0,0
1683193316.19960999,78828456,1579,1580,1550,1550,0,0,0,0,0,0,0,0,0,0
1683193316.29957008,78928416,1581,1582,1549,1549,0,0,0,0,0,0,0,0,0,0
1683193316.39953017,79028376,1584,1585,1547,1548,0,0,0,0,0,0,0,0,0,0
1683193316.49949002,79128336,1585,1585,1544,1544,0,0,0,0,0,0,0,0,0,0
1683193316.59945011,79228296,1587,1588,1543,1543,0,0,0,0,0,0,0,0,0,0
1683193316.69940996,79328256,1590,1591,1541,1542,0,0,0,0,0,0,0,0,0,0
1683193316.79937005,79428216,1591,1593,1539,1540,0,0,0,0,0,0,0,0,0,0
1683193316.89933014,79528176,1593,1593,1540,1540,0,0,0,0,0,0,0,0,0,0
1683193317.00012302,79628969,1593,1592,1542,1544,0,0,0,0,0,0,0,0,0,0
1683193317.10008311,79728929,1591,1588,1546,1549,0,0,0,0,0,0,0,0,0,0
1683193317.20004296,79828889,1587,1583,1553,1556,0,0,0,0,0,0,0,0,0,0
1683193317.30000305,79928849,1580,1575,1562,1565,0,0,0,0,0,0,0,0,0,0
1683193317.39996314,80028809,1571,1567,1574,1575,0,0,0,0,0,0,0,0,0,0
1683193317.49992299,80128769,1561,1558,1585,1586,0,0,0,0,0,0,0,0,0,0
1683193317.59988308,80228729,1550,1549,1594,1594,0,0,0,0,0,0,0,0,0,0
1683193317.69984317,80328689,1542,1542,1602,1602,0,0,0,0,0,0,0,0,0,0
1683193317.79980302,80428649,1537,1538,1607,1607,0,0,0,0,0,0,0,0,0,0
1683193317.89976311,80528609,1537,1538,1610,1610,0,0,0,0,0,0,0,0,0,0
1683193317.99972296,80628569,1539,1541,1610,1610,0,0,0,0,0,0,0,0,0,0
1683193318.09968305,80728529,1543,1545,1608,1607,0,0,0,0,0,0,0,0,0,0
1683193318.19964314,80828489,1549,1551,1604,1602,0,0,0,0,0,0,0,0,0,0
1683193318.29960299,80928449,1556,1557,1598,1596,0,0,0,0,0,0,0,0,0,0
1683193318.39956307,81028409,1564,1564,1591,1590,0,0,0,0,0,0,0,0,0,0
1683193318.49952316,81128369,1570,1569,1583,1583,0,0,0,0,0,0,0,0,0,0
1683193318.59948301,81228329,1575,1574,1577,1577,0,0,0,0,0,0,0,0,0,0
1683193318.69944310,81328289,1580,1579,1572,1573,0,0,0,0,0,0,0,0,0,0
1683193318.79940295,81428249,1583,1583,1570,1571,0,0,0,0,0,0,0,0,0,0
1683193318.89936304,81528209,1585,1584,1569,1568,0,0,0,0,0,0,0,0,0,0
1683193318.99932313,81628169,1586,1585,1569,1569,0,0,0,0,0,0,0,0,0,0
1683193319.10011601,81728962,1584,1583,1569,1569,0,0,0,0,0,0,0,0,0,0
1683193319.20007610,81828922,1583,1582,1572,1572,0,0,0,0,0,0,0,0,0,0
1683193319.30003595,81928882,1580,1580,1574,1574,0,0,0,0,0,0,0,0,0,0
1683193319.39999604,82028842,1578,1578,1576,1576,0,0,0,0,0,0,0,0,0,0
1683193319.49995613,82128802,1577,1577,1580,1580,0,0,0,0,0,0,0,0,0,0
1683193319.59991598,82228762,1574,1574,1580,1580,0,0,0,0,0,0,0,0,0,0
1683193319.69987607,82328722,1574,1574,1582,1582,0,0,0,0,0,0,0,0,0,0
1683193319.79983616,82428682,1574,1575,1584,1584,0,0,0,0,0,0,0,0,0,0
1683193319.89979601,82528642,1574,1575,1585,1584,0,0,0,0,0,0,0,0,0,0
1683193319.99975610,82628602,1574,1575,1584,1583,0,0,0,0,0,0,0,0,0,0
1683193320.09971619,82728562,1576,1576,1583,1583,0,0,0,0,0,0,0,0,0,0
1683193320.19967604,82828522,1576,1576,1581,1582,0,0,0,0,0,0,0,0,0,0
1683193320.29963613,82928482,1578,1577,1581,1581,0,0,0,0,0,0,0,0,0,0
1683193320.39959598,83028442,1579,1579,1580,1580,0,0,0,0,0,0,0,0,0,0
1683193320.49955606,83128402,1581,1581,1580,1580,0,0,0,0,0,0,0,0,0,0
1683193320.59951615,83228362,1581,1581,1579,1579,0,0,0,0,0,0,0,0,0,0
1683193320.69947600,83328322,1582,1581,1578,1578,0,0,0,0,0,0,0,0,0,0
1683193320.79943609,83428282,1582,1581,1578,1578,0,0,0,0,0,0,0,0,0,0
1683193320.89939618,83528242,1582,1582,1579,1579,0,0,0,0,0,0,0,0,0,0
1683193320.99935603,83628202,1582,1582,1579,1579,0,0,0,0,0,0,0,0,0,0
1683193321.09931612,83728162,1581,1581,1579,1579,0,0,0,0,0,0,0,0,0,0
1683193321.20010900,83828955,1581,1582,1580,1580,0,0,0,0,0,0,0,0,0,0
1683193321.30006909,83928915,1580,1580,1579,1580,0,0,0,0,0,0,0,0,0,0
1683193321.40002918,84028875,1579,1579,1580,1579,0,0,0,0,0,0,0,0,0,0
1683193321.49998903,84128835,1579,1579,1580,1580,0,0,0,0,0,0,0,0,0,0
1683193321.59994912,84228795,1580,1580,1581,1581,0,0,0,0,0,0,0,0,0,0
1683193321.69990897,84328755,1580,1580,1581,1581,0,0,0,0,0,0,0,0,0,0
1683193321.79986906,84428715,1580,1580,1581,1581,0,0,0,0,0,0,0,0,0,0
1683193321.89982915,84528675,1580,1580,1581,1581,0,0,0,0,0,0,0,0,0,0
1683193321.99978900,84628635,1579,1580,1581,1581,0,0,0,0,0,0,0,0,0,0
1683193322.09974909,84728595,1580,1581,1581,1581,0,0,0,0,0,0,0,0,0,0
1683193322.19970918,84828555,1580,1580,1581,1580,0,0,0,0,0,0,0,0,0,0
1683193322.29966903,84928515,1580,1580,1580,1580,0,0,0,0,0,0,0,0,0,0
1683193322.39962912,85028475,1581,1581,1581,1580,0,0,0,0,0,0,0,0,0,0
1683193322.49958897,85128435,1582,1582,1581,1582,0,0,0,0,0,0,0,0,0,0
1683193322.59954906,85228395,1582,1582,1581,1582,0,0,0,0,0,0,0,0,0,0
1683193322.69950914,85328355,1581,1581,1581,1581,0,0,0,0,0,0,0,0,0,0
1683193322.79946899,85428315,1581,1582,1587,1573,0,0,0,0,0,0,0,0,0,0
1683193322.89942908,85528275,1580,1582,1583,1572,0,0,0,0,0,0,0,0,0,0
1683193322.99938917,85628235,1579,1582,1575,1573,0,0,0,0,0,0,0,0,0,0
1683193323.09934902,85728195,1577,1580,1566,1570,0,0,0,0,0,0,0,0,0,0
1683193323.19930911,85828155,1577,1579,1560,1566,0,0,0,0,0,0,0,0,0,0
1683193323.30010200,85928948,1578,1578,1555,1561,0,0,0,0,0,0,0,0,0,0
1683193323.40006208,86028908,1580,1579,1555,1558,0,0,0,0,0,0,0,0,0,0
1683193323.50002217,86128868,1579,1578,1553,1554,0,0,0,0,0,0,0,0,0,0
1683193323.59998202,86228828,1580,1578,1555,1553,0,0,0,0,0,0,0,0,0,0
1683193323.69994211,86328788,1579,1578,1556,1553,0,0,0,0,0,0,0,0,0,0
1683193323.79990196,86428748,1577,1577,1555,1553,0,0,0,0,0,0,0,0,0,0
1683193323.89986205,86528708,1575,1577,1554,1553,0,0,0,0,0,0,0,0,0,0
1683193323.99982214,86628668,1574,1576,1554,1553,0,0,0,0,0,0,0,0,0,0
1683193324.09978199,86728628,1575,1577,1553,1553,0,0,0,0,0,0,0,0,0,0
1683193324.19974208,86828588,1575,1577,1552,1552,0,0,0,0,0,0,0,0,0,0
1683193324.29970217,86928548,1577,1578,1550,1551,0,0,0,0,0,0,0,0,0,0
1683193324.39966202,87028508,1579,1580,1549,1549,0,0,0,0,0,0,0,0,0,0
1683193324.49962211,87128468,1581,1582,1546,1546,0,0,0,0,0,0,0,0,0,0
1683193324.59958196,87228428,1583,1584,1544,1543,0,0,0,0,0,0,0,0,0,0
1683193324.69954205,87328388,1586,1587,1542,1542,0,0,0,0,0,0,0,0,0,0
1683193324.79950213,87428348,1589,1590,1540,1541,0,0,0,0,0,0,0,0,0,0
1683193324.89946198,87528308,1591,1591,1538,1539,0,0,0,0,0,0,0,0,0,0
1683193324.99942207,87628268,1591,1592,1537,1538,0,0,0,0,0,0,0,0,0,0
1683193325.09938216,87728228,1593,1594,1537,1539,0,0,0,0,0,0,0,0,0,0
1683193325.19934201,87828188,1593,1593,1539,1541,0,0,0,0,0,0,0,0,0,0
1683193325.30013514,87928981,1592,1590,1543,1546,0,0,0,0,0,0,0,0,0,0
1683193325.40009499,88028941,1587,1585,1549,1551,0,0,0,0,0,0,0,0,0,0
1683193325.50005507,88128901,1580,1576,1556,1559,0,0,0,0,0,0,0,0,0,0
1683193325.60001516,88228861,1572,1568,1567,1569,0,0,0,0,0,0,0,0,0,0
1683193325.69997501,88328821,1562,1558,1579,1580,0,0,0,0,0,0,0,0,0,0
1683193325.79993510,88428781,1552,1549,1590,1591,0,0,0,0,0,0,0,0,0,0
1683193325.89989495,88528741,1542,1541,1600,1599,0,0,0,0,0,0,0,0,0,0
1683193325.99985504,88628701,1537,1537,1608,1607,0,0,0,0,0,0,0,0,0,0
1683193326.09981513,88728661,1534,1535,1612,1611,0,0,0,0,0,0,0,0,0,0
1683193326.19977498,88828621,1534,1536,1613,1612,0,0,0,0,0,0,0,0,0,0
1683193326.29973507,88928581,1537,1539,1610,1610,0,0,0,0,0,0,0,0,0,0
1683193326.39969516,89028541,1542,1545,1605,1605,0,0,0,0,0,0,0,0,0,0
1683193326.49965501,89128501,1550,1551,1599,1599,0,0,0,0,0,0,0,0,0,0
1683193326.59961510,89228461,1558,1559,1593,1593,0,0,0,0,0,0,0,0,0,0
1683193326.69957519,89328421,1566,1566,1587,1586,0,0,0,0,0,0,0,0,0,0
1683193326.79953504,89428381,1574,1573,1580,1580,0,0,0,0,0,0,0,0,0,0
1683193326.89949512,89528341,1580,1579,1575,1575,0,0,0,0,0,0,0,0,0,0
1683193326.99945498,89628301,1584,1582,1571,1571,0,0,0,0,0,0,0,0,0,0
1683193327.09941506,89728261,1586,1584,1568,1568,0,0,0,0,0,0,0,0,0,0
1683193327.19937515,89828221,1586,1585,1567,1567,0,0,0,0,0,0,0,0,0,0
1683193327.29933500,89928181,1586,1585,1567,1568,0,0,0,0,0,0,0,0,0,0
1683193327.40012813,90028974,1584,1584,1570,1570,0,0,0,0,0,0,0,0,0,0
1683193327.50008798,90128934,1582,1581,1572,1572,0,0,0,0,0,0,0,0,0,0
1683193327.60004807,90228894,1579,1579,1575,1575,0,0,0,0,0,0,0,0,0,0
1683193327.70000815,90328854,1577,1577,1577,1577,0,0,0,0,0,0,0,0,0,0
1683193327.79996800,90428814,1575,1576,1580,1580,0,0,0,0,0,0,0,0,0,0
1683193327.89992809,90528774,1573,1574,1581,1581,0,0,0,0,0,0,0,0,0,0
1683193327.99988818,90628734,1572,1573,1582,1582,0,0,0,0,0,0,0,0,0,0
1683193328.09984803,90728694,1572,1572,1582,1583,0,0,0,0,0,0,0,0,0,0
1683193328.19980812,90828654,1573,1574,1583,1583,0,0,0,0,0,0,0,0,0,0
1683193328.29976797,90928614,1574,1575,1583,1583,0,0,0,0,0,0,0,0,0,0
1683193328.39972806,91028574,1574,1575,1581,1581,0,0,0,0,0,0,0,0,0,0
1683193328.49968815,91128534,1576,1576,1581,1581,0,0,0,0,0,0,0,0,0,0
1683193328.59964800,91228494,1578,1578,1580,1580,0,0,0,0,0,0,0,0,0,0
1683193328.69960809,91328454,1580,1580,1580,1580,0,0,0,0,0,0,0,0,0,0
1683193328.79956818,91428414,1581,1581,1580,1579,0,0,0,0,0,0,0,0,0,0
1683193328.89952803,91528374,1582,1581,1578,1578,0,0,0,0,0,0,0,0,0,0
1683193328.99948812,91628334,1581,1581,1578,1577,0,0,0,0,0,0,0,0,0,0
1683193329.09944797,91728294,1582,1582,1578,1578,0,0,0,0,0,0,0,0,0,0
1683193329.19940805,91828254,1581,1581,1577,1577,0,0,0,0,0,0,0,0,0,0
1683193329.29936814,91928214,1581,1581,1578,1578,0,0,0,0,0,0,0,0,0,0
1683193329.39932799,92028174,1581,1581,1579,1579,0,0,0,0,0,0,0,0,0,0
1683193329.50012112,92128967,1580,1581,1580,1580,0,0,0,0,0,0,0,0,0,0
1683193329.60008097,92228927,1579,1579,1579,1579,0,0,0,0,0,0,0,0,0,0
1683193329.70004106,92328887,1578,1578,1579,1579,0,0,0,0,0,0,0,0,0,0
1683193329.80000114,92428847,1579,1579,1580,1580,0,0,0,0,0,0,0,0,0,0
1683193329.89996099,92528807,1580,1580,1582,1582,0,0,0,0,0,0,0,0,0,0
1683193329.99992108,92628767,1579,1580,1581,1581,0,0,0,0,0,0,0,0,0,0
1683193330.09988117,92728727,1579,1580,1581,1581,0,0,0,0,0,0,0,0,0,0
1683193330.19984102,92828687,1579,1580,1581,1581,0,0,0,0,0,0,0,0,0,0
1683193330.29980111,92928647,1580,1579,1580,1580,0,0,0,0,0,0,0,0,0,0
1683193330.39976096,93028607,1581,1581,1581,1581,0,0,0,0,0,0,0,0,0,0
1683193330.49972105,93128567,1582,1581,1581,1581,0,0,0,0,0,0,0,0,0,0
1683193330.59968114,93228527,1581,1581,1581,1581,0,0,0,0,0,0,0,0,0,0
1683193330.69964099,93328487,1581,1582,1585,1575,0,0,0,0,0,0,0,0,0,0
1683193330.79960108,93428447,1581,1582,1586,1573,0,0,0,0,0,0,0,0,0,0
1683193330.89956117,93528407,1579,1579,1580,1574,0,0,0,0,0,0,0,0,0,0
1683193330.99952102,93628367,1575,1575,1573,1575,0,0,0,0,0,0,0,0,0,0
1683193331.09948111,93728327,1573,1573,1569,1575,0,0,0,0,0,0,0,0,0,0
1683193331.19944096,93828287,1570,1569,1565,1572,0,0,0,0,0,0,0,0,0,0
1683193331.29940104,93928247,1569,1568,1565,1570,0,0,0,0,0,0,0,0,0,0
1683193331.39936113,94028207,1567,1567,1566,1567,0,0,0,0,0,0,0,0,0,0
1683193331.49932098,94128167,1566,1566,1567,1566,0,0,0,0,0,0,0,0,0,0
1683193331.60011411,94228960,1565,1565,1567,1564,0,0,0,0,0,0,0,0,0,0
1683193331.70007396,94328920,1564,1565,1566,1564,0,0,0,0,0,0,0,0,0,0
1683193331.80003405,94428880,1564,1564,1566,1563,0,0,0,0,0,0,0,0,0,0
1683193331.89999413,94528840,1564,1563,1565,1564,0,0,0,0,0,0,0,0,0,0
1683193331.99995399,94628800,1563,1562,1563,1563,0,0,0,0,0,0,0,0,0,0
1683193332.09991407,94728760,1564,1563,1564,1564,0,0,0,0,0,0,0,0,0,0
1683193332.19987416,94828720,1562,1563,1563,1563,0,0,0,0,0,0,0,0,0,0
1683193332.29983401,94928680,1562,1562,1562,1562,0,0,0,0,0,0,0,0,0,0
1683193332.39979410,95028640,1560,1560,1560,1560,0,0,0,0,0,0,0,0,0,0
1683193332.49975395,95128600,1561,1561,1561,1561,0,0,0,0,0,0,0,0,0,0
1683193332.59971404,95228560,1560,1561,1561,1560,0,0,0,0,0,0,0,0,0,0
1683193332.69967413,95328520,1559,1559,1559,1559,0,0,0,0,0,0,0,0,0,0
1683193332.79963398,95428480,1558,1558,1558,1557,0,0,0,0,0,0,0,0,0,0
1683193332.89959407,95528440,1558,1558,1558,1558,0,0,0,0,0,0,0,0,0,0
1683193332.99955416,95628400,1557,1557,1558,1556,0,0,0,0,0,0,0,0,0,0
1683193333.09951401,95728360,1556,1556,1557,1555,0,0,0,0,0,0,0,0,0,0
1683193333.19947410,95828320,1558,1558,1558,1557,0,0,0,0,0,0,0,0,0,0
1683193333.29943419,95928280,1557,1558,1559,1556,0,0,0,0,0,0,0,0,0,0
1683193333.39939404,96028240,1558,1558,1560,1557,0,0,0,0,0,0,0,0,0,0
1683193333.49935412,96128200,1558,1558,1559,1558,0,0,0,0,0,0,0,0,0,0
1683193333.59931397,96228160,1560,1560,1558,1562,0,0,0,0,0,0,0,0,0,0
1683193333.70010710,96328953,1561,1560,1557,1564,0,0,0,0,0,0,0,0,0,0
1683193333.80006719,96428913,1561,1561,1558,1564,0,0,0,0,0,0,0,0,0,0
1683193333.90002704,96528873,1562,1562,1560,1564,0,0,0,0,0,0,0,0,0,0
1683193333.99998713,96628833,1561,1562,1560,1562,0,0,0,0,0,0,0,0,0,0
1683193334.09994698,96728793,1562,1562,1562,1561,0,0,0,0,0,0,0,0,0,0
1683193334.19990706,96828753,1560,1560,1562,1558,0,0,0,0,0,0,0,0,0,0
1683193334.29986715,96928713,1560,1560,1559,1561,0,0,0,0,0,0,0,0,0,0
1683193334.39982700,97028673,1558,1557,1556,1559,0,0,0,0,0,0,0,0,0,0
1683193334.49978709,97128633,1553,1552,1551,1554,0,0,0,0,0,0,0,0,0,0
1683193334.59974718,97228593,1548,1548,1547,1549,0,0,0,0,0,0,0,0,0,0
1683193334.69970703,97328553,1541,1541,1541,1541,0,0,0,0,0,0,0,0,0,0
1683193334.79966712,97428513,1535,1535,1535,1535,0,0,0,0,0,0,0,0,0,0
1683193334.89962697,97528473,1527,1527,1528,1526,0,0,0,0,0,0,0,0,0,0
1683193334.99958706,97628433,1521,1521,1521,1521,0,0,0,0,0,0,0,0,0,0
1683193335.09954715,97728393,1519,1519,1519,1519,0,0,0,0,0,0,0,0,0,0
1683193335.19950700,97828353,1520,1520,1520,1520,0,0,0,0,0,0,0,0,0,0
1683193335.29946709,97928313,1522,1522,1522,1522,0,0,0,0,0,0,0,0,0,0
1683193335.39942718,98028273,1525,1525,1525,1525,0,0,0,0,0,0,0,0,0,0
1683193335.49938703,98128233,1528,1528,1528,1528,0,0,0,0,0,0,0,0,0,0
1683193335.59934711,98228193,1533,1533,1533,1533,0,0,0,0,0,0,0,0,0,0
1683193335.70014000,98328986,1537,1537,1537,1537,0,0,0,0,0,0,0,0,0,0
1683193335.80010009,98428946,1540,1540,1539,1540,0,0,0,0,0,0,0,0,0,0
1683193335.90006018,98528906,1542,1542,1542,1542,0,0,0,0,0,0,0,0,0,0
1683193336.00002003,98628866,1543,1543,1544,1543,0,0,0,0,0,0,0,0,0,0
1683193336.09998012,98728826,1545,1545,1545,1545,0,0,0,0,0,0,0,0,0,0
1683193336.19993997,98828786,1546,1545,1546,1545,0,0,0,0,0,0,0,0,0,0
1683193336.29990005,98928746,1545,1546,1546,1546,0,0,0,0,0,0,0,0,0,0
1683193336.39986014,99028706,1546,1546,1546,1546,0,0,0,0,0,0,0,0,0,0
1683193336.49981999,99128666,1546,1546,1546,1547,0,0,0,0,0,0,0,0,0,0
1683193336.59978008,99228626,1546,1546,1546,1546,0,0,0,0,0,0,0,0,0,0
1683193336.69974017,99328586,1547,1546,1546,1546,0,0,0,0,0,0,0,0,0,0
1683193336.79970002,99428546,1547,1547,1547,1547,0,0,0,0,0,0,0,0,0,0
1683193336.89966011,99528506,1546,1545,1546,1545,0,0,0,0,0,0,0,0,0,0
1683193336.99961996,99628466,1545,1545,1545,1545,0,0,0,0,0,0,0,0,0,0
1683193337.09958005,99728426,1544,1545,1545,1545,0,0,0,0,0,0,0,0,0,0
1683193337.19954014,99828386,1545,1546,1545,1545,0,0,0,0,0,0,0,0,0,0
1683193337.29949999,99928346,1545,1545,1545,1545,0,0,0,0,0,0,0,0,0,0
1683193337.39946008,100028306,1545,1545,1545,1545,0,0,0,0,0,0,0,0,0,0
1683193337.49942017,100128266,1546,1545,1545,1545,0,0,0,0,0,0,0,0,0,0
1683193337.59938002,100228226,1545,1545,1545,1545,0,0,0,0,0,0,0,0,0,0
1683193337.69934011,100328186,1545,1545,1545,1544,0,0,0,0,0,0,0,0,0,0
1683193337.80013299,100428979,1544,1544,1544,1544,0,0,0,0,0,0,0,0,0,0
1683193337.90009308,100528939,1544,1543,1544,1544,0,0,0,0,0,0,0,0,0,0
1683193338.00005317,100628899,1544,1544,1544,1544,0,0,0,0,0,0,0,0,0,0
1683193338.10001302,100728859,1544,1544,1544,1544,0,0,0,0,0,0,0,0,0,0
1683193338.19997311,100828819,1544,1545,1544,1545,0,0,0,0,0,0,0,0,0,0
1683193338.29993296,100928779,1544,1544,1544,1544,0,0,0,0,0,0,0,0,0,0
1683193338.39989305,101028739,1544,1544,1544,1544,0,0,0,0,0,0,0,0,0,0
1683193338.49985313,101128699,1544,1543,1544,1543,0,0,0,0,0,0,0,0,0,0
1683193338.59981298,101228659,1543,1544,1544,1543,0,0,0,0,0,0,0,0,0,0
1683193338.69977307,101328619,1543,1543,1543,1544,0,0,0,0,0,0,0,0,0,0
1683193338.79973316,101428579,1544,1544,1544,1544,0,0,0,0,0,0,0,0,0,0
1683193338.89969301,101528539,1544,1543,1544,1544,0,0,0,0,0,0,0,0,0,0
1683193338.99965310,101628499,1543,1543,1543,1543,0,0,0,0,0,0,0,0,0,0
1683193339.09961295,101728459,1543,1543,1543,1543,0,0,0,0,0,0,0,0,0,0
1683193339.19957304,101828419,1544,1544,1544,1544,0,0,0,0,0,0,0,0,0,0
1683193339.29953313,101928379,1544,1545,1544,1545,0,0,0,0,0,0,0,0,0,0
1683193339.39949298,102028339,1545,1544,1545,1544,0,0,0,0,0,0,0,0,0,0
1683193339.49945307,102128299,1544,1544,1544,1544,0,0,0,0,0,0,0,0,0,0
1683193339.59941316,102228259,1544,1544,1544,1544,0,0,0,0,0,0,0,0,0,0
1683193339.69937301,102328219,1545,1545,1545,1545,0,0,0,0,0,0,0,0,0,0
1683193339.79933310,102428179,1544,1544,1544,1544,0,0,0,0,0,0,0,0,0,0
1683193339.90012598,102528972,1545,1545,1544,1545,0,0,0,0,0,0,0,0,0,0
1683193340.00008607,102628932,1544,1545,1545,1545,0,0,0,0,0,0,0,0,0,0
1683193340.10004616,102728892,1545,1545,1545,1545,0,0,0,0,0,0,0,0,0,0
1683193340.20000601,102828852,1545,1545,1545,1545,0,0,0,0,0,0,0,0,0,0
1683193340.29996610,102928812,1545,1544,1545,1545,0,0,0,0,0,0,0,0,0,0
1683193340.39992619,103028772,1544,1544,1544,1544,0,0,0,0,0,0,0,0,0,0
1683193340.49988604,103128732,1544,1543,1543,1543,0,0,0,0,0,0,0,0,0,0
1683193340.59984612,103228692,1543,1544,1544,1544,0,0,0,0,0,0,0,0,0,0
1683193340.69980597,103328652,1544,1544,1544,1544,0,0,0,0,0,0,0,0,0,0
1683193340.79976606,103428612,1544,1544,1544,1544,0,0,0,0,0,0,0,0,0,0
1683193340.89972615,103528572,1545,1544,1544,1545,0,0,0,0,0,0,0,0,0,0
1683193340.99968600,103628532,1544,1544,1544,1544,0,0,0,0,0,0,0,0,0,0
1683193341.09964609,103728492,1543,1543,1543,1544,0,0,0,0,0,0,0,0,0,0
1683193341.19960618,103828452,1544,1544,1544,1544,0,0,0,0,0,0,0,0,0,0
1683193341.29956603,103928412,1544,1544,1544,1544,0,0,0,0,0,0,0,0,0,0
1683193341.39952612,104028372,1544,1544,1544,1543,0,0,0,0,0,0,0,0,0,0
1683193341.49948597,104128332,1544,1543,1543,1544,0,0,0,0,0,0,0,0,0,0
1683193341.59944606,104228292,1543,1544,1544,1544,0,0,0,0,0,0,0,0,0,0
1683193341.69940615,104328252,1544,1544,1544,1544,0,0,0,0,0,0,0,0,0,0
1683193341.79936600,104428212,1544,1544,1543,1544,0,0,0,0,0,0,0,0,0,0
1683193341.89932609,104528172,1545,1544,1544,1545,0,0,0,0,0,0,0,0,0,0
1683193342.00011897,104628965,1545,1545,1545,1545,0,0,0,0,0,0,0,0,0,0
1683193342.10007906,104728925,1545,1545,1545,1545,0,0,0,0,0,0,0,0,0,0
1683193342.20003915,104828885,1545,1545,1545,1545,0,0,0,0,0,0,0,0,0,0
1683193342.29999900,104928845,1545,1544,1544,1545,0,0,0,0,0,0,0,0,0,0
1683193342.39995909,105028805,1544,1544,1545,1544,0,0,0,0,0,0,0,0,0,0
1683193342.49991918,105128765,1544,1544,1544,1544,0,0,0,0,0,0,0,0,0,0
1683193342.59987903,105228725,1544,1544,1544,1544,0,0,0,0,0,0,0,0,0,0
1683193342.69983912,105328685,1545,1544,1545,1545,0,0,0,0,0,0,0,0,0,0
1683193342.79979897,105428645,1544,1544,1544,1544,0,0,0,0,0,0,0,0,0,0
1683193342.89975905,105528605,1544,1544,1544,1544,0,0,0,0,0,0,0,0,0,0
1683193342.99971914,105628565,1544,1545,1544,1544,0,0,0,0,0,0,0,0,0,0
1683193343.09967899,105728525,1545,1545,1545,1545,0,0,0,0,0,0,0,0,0,0
1683193343.19963908,105828485,1544,1544,1544,1544,0,0,0,0,0,0,0,0,0,0
1683193343.29959917,105928445,1544,1543,1543,1543,0,0,0,0,0,0,0,0,0,0
1683193343.39955902,106028405,1543,1543,1543,1543,0,0,0,0,0,0,0,0,0,0
1683193343.49951911,106128365,1544,1543,1543,1544,0,0,0,0,0,0,0,0,0,0
1683193343.59947896,106228325,1544,1544,1545,1544,0,0,0,0,0,0,0,0,0,0
1683193343.69943905,106328285,1543,1543,1544,1543,0,0,0,0,0,0,0,0,0,0
1683193343.79939914,106428245,1545,1545,1545,1544,0,0,0,0,0,0,0,0,0,0
1683193343.89935899,106528205,1545,1545,1545,1545,0,0,0,0,0,0,0,0,0,0
1683193343.99931908,106628165,1544,1545,1545,1544,0,0,0,0,0,0,0,0,0,0
1683193344.10011196,106728958,1545,1544,1544,1545,0,0,0,0,0,0,0,0,0,0
1683193344.20007205,106828918,1545,1545,1545,1545,0,0,0,0,0,0,0,0,0,0
1683193344.30003214,106928878,1545,1545,1545,1545,0,0,0,0,0,0,0,0,0,0
1683193344.39999199,107028838,1545,1544,1545,1545,0,0,0,0,0,0,0,0,0,0
1683193344.49995208,107128798,1545,1545,1545,1545,0,0,0,0,0,0,0,0,0,0
1683193344.59991217,107228758,1545,1545,1546,1545,0,0,0,0,0,0,0,0,0,0
1683193344.69987202,107328718,1542,1539,1540,1541,0,0,0,0,0,0,0,0,0,0
1683193344.79983211,107428678,1354,1354,1356,1357,0,0,0,0,0,0,0,0,0,0
1683193344.89979196,107528638,1248,1247,1251,1252,0,0,0,0,0,0,0,0,0,0
1683193344.99975204,107628598,1212,1212,1217,1217,0,0,0,0,0,0,0,0,0,0
1683193345.09971213,107728558,1189,1188,1194,1195,0,0,0,0,0,0,0,0,0,0
1683193345.19967198,107828518,1157,1157,1163,1164,0,0,0,0,0,0,0,0,0,0
1683193345.29963207,107928478,1157,1157,1163,1164,0,0,0,0,0,0,0,0,0,0
1683193345.39959216,108028438,1157,1157,1164,1164,0,0,0,0,0,0,0,0,0,0
1683193345.49955201,108128398,1189,1157,1164,1195,0,0,0,0,0,0,0,0,0,0
1683193345.59951210,108228358,1185,1157,1164,1192,0,0,0,0,0,0,0,0,0,0
1683193345.69947219,108328318,1179,1157,1164,1185,0,0,0,0,0,0,0,0,0,0
1683193345.79943204,108428278,1178,1157,1164,1184,0,0,0,0,0,0,0,0,0,0
1683193345.89939213,108528238,1180,1157,1164,1186,0,0,0,0,0,0,0,0,0,0
1683193345.99935198,108628198,1181,1157,1164,1188,0,0,0,0,0,0,0,0,0,0
1683193346.09931207,108728158,1184,1157,1164,1190,0,0,0,0,0,0,0,0,0,0
1683193346.20010495,108828951,1185,1157,1164,1192,0,0,0,0,0,0,0,0,0,0
1683193346.30006504,108928911,1169,1157,1164,1176,0,0,0,0,0,0,0,0,0,0
1683193346.40002513,109028871,1173,1157,1164,1180,0,0,0,0,0,0,0,0,0,0
1683193346.49998498,109128831,1174,1157,1164,1181,0,0,0,0,0,0,0,0,0,0
1683193346.59994507,109228791,1175,1157,1164,1181,0,0,0,0,0,0,0,0,0,0
1683193346.69990516,109328751,1175,1157,1164,1182,0,0,0,0,0,0,0,0,0,0
1683193346.79986501,109428711,1000,1000,1000,1000,0,0,0,0,0,0,0,0,0,0
1683193346.89982510,109528671,1000,1000,1000,1000,0,0,0,0,0,0,0,0,0,0
1683193346.99978518,109628631,1000,1000,1000,1000,0,0,0,0,0,0,0,0,0,0
1683193347.09974504,109728591,1000,1000,1000,1000,0,0,0,0,0,0,0,0,0,0
1683193347.19970512,109828551,1000,1000,1000,1000,0,0,0,0,0,0,0,0,0,0
1683193347.29966497,109928511,1000,1000,1000,1000,0,0,0,0,0,0,0,0,0,0
1683193347.39962506,110028471,1000,1000,1000,1000,0,0,0,0,0,0,0,0,0,0
1683193347.49958515,110128431,1000,1000,1000,1000,0,0,0,0,0,0,0,0,0,0
1683193347.59954500,110228391,1000,1000,1000,1000,0,0,0,0,0,0,0,0,0,0
1683193347.69950509,110328351,1000,1000,1000,1000,0,0,0,0,0,0,0,0,0,0
1683193347.79946518,110428311,1000,1000,1000,1000,0,0,0,0,0,0,0,0,0,0
1683193347.89942503,110528271,1000,1000,1000,1000,0,0,0,0,0,0,0,0,0,0
1683193347.99938512,110628231,1000,1000,1000,1000,0,0,0,0,0,0,0,0,0,0
1683193348.09934497,110728191,1000,1000,1000,1000,0,0,0,0,0,0,0,0,0,0
1683193348.20013809,110828984,1000,1000,1000,1000,0,0,0,0,0,0,0,0,0,0
1683193348.30009818,110928944,1000,1000,1000,1000,0,0,0,0,0,0,0,0,0,0
1683193348.40005803,111028904,1000,1000,1000,1000,0,0,0,0,0,0,0,0,0,0
1683193348.50001812,111128864,1000,1000,1000,1000,0,0,0,0,0,0,0,0,0,0
1683193348.59997797,111228824,1000,1000,1000,1000,0,0,0,0,0,0,0,0,0,0
1683193348.69993806,111328784,1000,1000,1000,1000,0,0,0,0,0,0,0,0,0,0
1683193348.79989815,111428744,1000,1000,1000,1000,0,0,0,0,0,0,0,0,0,0
1683193348.89985800,111528704,1000,1000,1000,1000,0,0,0,0,0,0,0,0,0,0
1683193348.99981809,111628664,1000,1000,1000,1000,0,0,0,0,0,0,0,0,0,0
1683193349.09977818,111728624,1000,1000,1000,1000,0,0,0,0,0,0,0,0,0,0
1683193349.19973803,111828584,1000,1000,1000,1000,0,0,0,0,0,0,0,0,0,0
1683193349.29969811,111928544,1000,1000,1000,1000,0,0,0,0,0,0,0,0,0,0
1683193349.39965796,112028504,1000,1000,1000,1000,0,0,0,0,0,0,0,0,0,0
1683193349.49961805,112128464,1000,1000,1000,1000,0,0,0,0,0,0,0,0,0,0
1683193349.59957814,112228424,1000,1000,1000,1000,0,0,0,0,0,0,0,0,0,0
1683193349.69953799,112328384,1000,1000,1000,1000,0,0,0,0,0,0,0,0,0,0
1683193349.79949808,112428344,1000,1000,1000,1000,0,0,0,0,0,0,0,0,0,0
1683193349.89945817,112528304,1000,1000,1000,1000,0,0,0,0,0,0,0,0,0,0
1683193349.99941802,112628264,1000,1000,1000,1000,0,0,0,0,0,0,0,0,0,0
1683193350.09937811,112728224,1000,1000,1000,1000,0,0,0,0,0,0,0,0,0,0
1683193350.19933796,112828184,1000,1000,1000,1000,0,0,0,0,0,0,0,0,0,0
1683193350.30013108,112928977,1000,1000,1000,1000,0,0,0,0,0,0,0,0,0,0
1683193350.40009117,113028937,1000,1000,1000,1000,0,0,0,0,0,0,0,0,0,0
1683193350.50005102,113128897,1000,1000,1000,1000,0,0,0,0,0,0,0,0,0,0
1683193350.60001111,113228857,1000,1000,1000,1000,0,0,0,0,0,0,0,0,0,0
1683193350.69997096,113328817,1000,1000,1000,1000,0,0,0,0,0,0,0,0,0,0
1683193350.79993105,113428777,1000,1000,1000,1000,0,0,0,0,0,0,0,0,0,0
1683193350.89989114,113528737,1000,1000,1000,1000,0,0,0,0,0,0,0,0,0,0
1683193350.99985099,113628697,1000,1000,1000,1000,0,0,0,0,0,0,0,0,0,0
1683193351.09981108,113728657,1000,1000,1000,1000,0,0,0,0,0,0,0,0,0,0
1683193351.19977117,113828617,1000,1000,1000,1000,0,0,0,0,0,0,0,0,0,0
1683193351.29973102,113928577,1000,1000,1000,1000,0,0,0,0,0,0,0,0,0,0
1683193351.39969110,114028537,1000,1000,1000,1000,0,0,0,0,0,0,0,0,0,0
1683193351.49965096,114128497,1000,1000,1000,1000,0,0,0,0,0,0,0,0,0,0
1683193351.59961104,114228457,1000,1000,1000,1000,0,0,0,0,0,0,0,0,0,0
1683193351.69957113,114328417,1000,1000,1000,1000,0,0,0,0,0,0,0,0,0,0
1683193351.79953098,114428377,1000,1000,1000,1000,0,0,0,0,0,0,0,0,0,0
1683193351.89949107,114528337,1000,1000,1000,1000,0,0,0,0,0,0,0,0,0,0
1683193351.99945116,114628297,1000,1000,1000,1000,0,0,0,0,0,0,0,0,0,0
1683193352.09941101,114728257,1000,1000,1000,1000,0,0,0,0,0,0,0,0,0,0
1683193352.19937110,114828217,1000,1000,1000,1000,0,0,0,0,0,0,0,0,0,0
1683193352.29933119,114928177,1000,1000,1000,1000,0,0,0,0,0,0,0,0,0,0
1683193352.40012407,115028970,1000,1000,1000,1000,0,0,0,0,0,0,0,0,0,0
1683193352.50008416,115128930,1000,1000,1000,1000,0,0,0,0,0,0,0,0,0,0
1683193352.60004401,115228890,1000,1000,1000,1000,0,0,0,0,0,0,0,0,0,0
1683193352.70000410,115328850,1000,1000,1000,1000,0,0,0,0,0,0,0,0,0,0
1683193352.79996395,115428810,1000,1000,1000,1000,0,0,0,0,0,0,0,0,0,0
1683193352.89992404,115528770,1000,1000,1000,1000,0,0,0,0,0,0,0,0,0,0
1683193352.99988413,115628730,1000,1000,1000,1000,0,0,0,0,0,0,0,0,0,0
1683193353.09984398,115728690,1000,1000,1000,1000,0,0,0,0,0,0,0,0,0,0
1683193353.19980407,115828650,1000,1000,1000,1000,0,0,0,0,0,0,0,0,0,0
1683193353.29976416,115928610,1000,1000,1000,1000,0,0,0,0,0,0,0,0,0,0
1683193353.39972401,116028570,1000,1000,1000,1000,0,0,0,0,0,0,0,0,0,0
1683193353.49968410,116128530,1000,1000,1000,1000,0,0,0,0,0,0,0,0,0,0
1683193353.59964418,116228490,1000,1000,1000,1000,0,0,0,0,0,0,0,0,0,0
1683193353.69960403,116328450,1000,1000,1000,1000,0,0,0,0,0,0,0,0,0,0
1683193353.79956412,116428410,1000,1000,1000,1000,0,0,0,0,0,0,0,0,0,0
1683193353.89952397,116528370,1000,1000,1000,1000,0,0,0,0,0,0,0,0,0,0
1683193353.99948406,116628330,1000,1000,1000,1000,0,0,0,0,0,0,0,0,0,0
1683193354.09944415,116728290,1000,1000,1000,1000,0,0,0,0,0,0,0,0,0,0
1683193354.19940400,116828250,1000,1000,1000,1000,0,0,0,0,0,0,0,0,0,0
1683193354.29936409,116928210,1000,1000,1000,1000,0,0,0,0,0,0,0,0,0,0
1683193354.39932418,117028170,1000,1000,1000,1000,0,0,0,0,0,0,0,0,0,0
1683193354.50011706,117128963,1000,1000,1000,1000,0,0,0,0,0,0,0,0,0,0
1683193354.60007715,117228923,1000,1000,1000,1000,0,0,0,0,0,0,0,0,0,0
1683193354.70003700,117328883,1000,1000,1000,1000,0,0,0,0,0,0,0,0,0,0
1683193354.79999709,117428843,1000,1000,1000,1000,0,0,0,0,0,0,0,0,0,0
1683193354.89995718,117528803,1000,1000,1000,1000,0,0,0,0,0,0,0,0,0,0
1683193354.99991703,117628763,1000,1000,1000,1000,0,0,0,0,0,0,0,0,0,0
1683193355.09987712,117728723,1000,1000,1000,1000,0,0,0,0,0,0,0,0,0,0
1683193355.19983697,117828683,1000,1000,1000,1000,0,0,0,0,0,0,0,0,0,0
1683193355.29979706,117928643,1000,1000,1000,1000,0,0,0,0,0,0,0,0,0,0
1683193355.39975715,118028603,1000,1000,1000,1000,0,0,0,0,0,0,0,0,0,0
1683193355.49971700,118128563,1000,1000,1000,1000,0,0,0,0,0,0,0,0,0,0
1683193355.59967709,118228523,1000,1000,1000,1000,0,0,0,0,0,0,0,0,0,0
1683193355.69963717,118328483,1000,1000,1000,1000,0,0,0,0,0,0,0,0,0,0
1683193355.79959702,118428443,1000,1000,1000,1000,0,0,0,0,0,0,0,0,0,0
1683193355.89955711,118528403,1000,1000,1000,1000,0,0,0,0,0,0,0,0,0,0
1683193355.99951696,118628363,1000,1000,1000,1000,0,0,0,0,0,0,0,0,0,0
1683193356.09947705,118728323,1000,1000,1000,1000,0,0,0,0,0,0,0,0,0,0
1683193356.19943714,118828283,1000,1000,1000,1000,0,0,0,0,0,0,0,0,0,0
1683193356.29939699,118928243,1000,1000,1000,1000,0,0,0,0,0,0,0,0,0,0
1683193356.39935708,119028203,1000,1000,1000,1000,0,0,0,0,0,0,0,0,0,0
1683193356.49931717,119128163,1000,1000,1000,1000,0,0,0,0,0,0,0,0,0,0
1683193356.60011005,119228956,1000,1000,1000,1000,0,0,0,0,0,0,0,0,0,0
1683193356.70007014,119328916,1000,1000,1000,1000,0,0,0,0,0,0,0,0,0,0
1683193356.80002999,119428876,1000,1000,1000,1000,0,0,0,0,0,0,0,0,0,0
1683193356.89999008,119528836,1000,1000,1000,1000,0,0,0,0,0,0,0,0,0,0
1683193356.99995017,119628796,1000,1000,1000,1000,0,0,0,0,0,0,0,0,0,0
1683193357.09991002,119728756,1000,1000,1000,1000,0,0,0,0,0,0,0,0,0,0
1683193357.19987011,119828716,1000,1000,1000,1000,0,0,0,0,0,0,0,0,0,0
1683193357.29982996,119928676,1000,1000,1000,1000,0,0,0,0,0,0,0,0,0,0
1683193357.39979005,120028636,1000,1000,1000,1000,0,0,0,0,0,0,0,0,0,0
1683193357.49975014,120128596,1000,1000,1000,1000,0,0,0,0,0,0,0,0,0,0
1683193357.59970999,120228556,1000,1000,1000,1000,0,0,0,0,0,0,0,0,0,0
1683193357.69967008,120328516,1000,1000,1000,1000,0,0,0,0,0,0,0,0,0,0
1683193357.79963017,120428476,1000,1000,1000,1000,0,0,0,0,0,0,0,0,0,0
1683193357.89959002,120528436,1000,1000,1000,1000,0,0,0,0,0,0,0,0,0,0
1683193357.99955010,120628396,1000,1000,1000,1000,0,0,0,0,0,0,0,0,0,0
1683193358.09950995,120728356,1000,1000,1000,1000,0,0,0,0,0,0,0,0,0,0
