timestamp,TimeUS,C1,C2,C3,C4,C5,C6,C7,C8,C9,C10,C11,C12,C13,C14
1684047068.34002423,1105968269,1000,1000,1000,1000,0,0,0,0,0,0,0,0,0,0
1684047068.43998408,1106068229,1000,1000,1000,1000,0,0,0,0,0,0,0,0,0,0
1684047068.53994417,1106168189,1000,1000,1000,1000,0,0,0,0,0,0,0,0,0,0
1684047068.64073706,1106268982,1000,1000,1000,1000,0,0,0,0,0,0,0,0,0,0
1684047068.74069715,1106368942,1000,1000,1000,1000,0,0,0,0,0,0,0,0,0,0
1684047068.84065723,1106468902,1000,1000,1000,1000,0,0,0,0,0,0,0,0,0,0
1684047068.94061708,1106568862,1000,1000,1000,1000,0,0,0,0,0,0,0,0,0,0
1684047069.04057717,1106668822,1000,1000,1000,1000,0,0,0,0,0,0,0,0,0,0
1684047069.14053702,1106768782,1000,1000,1000,1000,0,0,0,0,0,0,0,0,0,0
1684047069.24049711,1106868742,1000,1000,1000,1000,0,0,0,0,0,0,0,0,0,0
1684047069.34045720,1106968702,1000,1000,1000,1000,0,0,0,0,0,0,0,0,0,0
1684047069.44041705,1107068662,1000,1000,1000,1000,0,0,0,0,0,0,0,0,0,0
1684047069.54037714,1107168622,1000,1000,1000,1000,0,0,0,0,0,0,0,0,0,0
1684047069.64033723,1107268582,1000,1000,1000,1000,0,0,0,0,0,0,0,0,0,0
1684047069.74029708,1107368542,1000,1000,1000,1000,0,0,0,0,0,0,0,0,0,0
1684047069.84025717,1107468502,1000,1000,1000,1000,0,0,0,0,0,0,0,0,0,0
1684047069.94021702,1107568462,1000,1000,1000,1000,0,0,0,0,0,0,0,0,0,0
1684047070.04017711,1107668422,1000,1000,1000,1000,0,0,0,0,0,0,0,0,0,0
1684047070.14013720,1107768382,1000,1000,1000,1000,0,0,0,0,0,0,0,0,0,0
1684047070.24009705,1107868342,1000,1000,1000,1000,0,0,0,0,0,0,0,0,0,0
1684047070.34005713,1107968302,1012,1012,1012,1012,0,0,0,0,0,0,0,0,0,0
1684047070.44001722,1108068262,1042,1042,1042,1042,0,0,0,0,0,0,0,0,0,0
1684047070.53997707,1108168222,1072,1072,1072,1072,0,0,0,0,0,0,0,0,0,0
1684047070.63993716,1108268182,1101,1101,1101,1101,0,0,0,0,0,0,0,0,0,0
1684047070.74073005,1108368975,1131,1131,1131,1131,0,0,0,0,0,0,0,0,0,0
1684047070.84069014,1108468935,1248,1272,1270,1246,0,0,0,0,0,0,0,0,0,0
1684047070.94065022,1108568895,1465,1484,1483,1464,0,0,0,0,0,0,0,0,0,0
1684047071.04061007,1108668855,1631,1648,1646,1630,0,0,0,0,0,0,0,0,0,0
1684047071.14057016,1108768815,1772,1784,1783,1771,0,0,0,0,0,0,0,0,0,0
1684047071.24053001,1108868775,1893,1907,1904,1893,0,0,0,0,0,0,0,0,0,0
1684047071.34049010,1108968735,1877,1886,1883,1878,0,0,0,0,0,0,0,0,0,0
1684047071.44045019,1109068695,1752,1754,1751,1752,0,0,0,0,0,0,0,0,0,0
1684047071.54041004,1109168655,1649,1644,1643,1648,0,0,0,0,0,0,0,0,0,0
1684047071.64037013,1109268615,1611,1605,1604,1610,0,0,0,0,0,0,0,0,0,0
1684047071.74033022,1109368575,1613,1607,1607,1612,0,0,0,0,0,0,0,0,0,0
1684047071.84029007,1109468535,1617,1613,1614,1616,0,0,0,0,0,0,0,0,0,0
1684047071.94025016,1109568495,1615,1615,1615,1615,0,0,0,0,0,0,0,0,0,0
1684047072.04021001,1109668455,1609,1611,1612,1610,0,0,0,0,0,0,0,0,0,0
1684047072.14017010,1109768415,1603,1606,1607,1605,0,0,0,0,0,0,0,0,0,0
1684047072.24013019,1109868375,1604,1606,1607,1605,0,0,0,0,0,0,0,0,0,0
1684047072.34009004,1109968335,1608,1609,1610,1609,0,0,0,0,0,0,0,0,0,0
1684047072.44005013,1110068295,1610,1611,1612,1611,0,0,0,0,0,0,0,0,0,0
1684047072.54001021,1110168255,1615,1615,1616,1615,0,0,0,0,0,0,0,0,0,0
1684047072.63997006,1110268215,1618,1617,1619,1617,0,0,0,0,0,0,0,0,0,0
1684047072.73993015,1110368175,1606,1605,1607,1604,0,0,0,0,0,0,0,0,0,0
1684047072.84072304,1110468968,1582,1579,1586,1574,0,0,0,0,0,0,0,0,0,0
1684047072.94068313,1110568928,1569,1568,1572,1565,0,0,0,0,0,0,0,0,0,0
1684047073.04064322,1110668888,1559,1559,1558,1559,0,0,0,0,0,0,0,0,0,0
1684047073.14060307,1110768848,1550,1551,1543,1557,0,0,0,0,0,0,0,0,0,0
1684047073.24056315,1110868808,1542,1543,1535,1550,0,0,0,0,0,0,0,0,0,0
1684047073.34052300,1110968768,1535,1536,1530,1541,0,0,0,0,0,0,0,0,0,0
1684047073.44048309,1111068728,1530,1530,1528,1533,0,0,0,0,0,0,0,0,0,0
1684047073.54044318,1111168688,1529,1529,1530,1529,0,0,0,0,0,0,0,0,0,0
1684047073.64040303,1111268648,1529,1530,1531,1528,0,0,0,0,0,0,0,0,0,0
1684047073.74036312,1111368608,1533,1532,1536,1530,0,0,0,0,0,0,0,0,0,0
1684047073.84032321,1111468568,1536,1536,1539,1533,0,0,0,0,0,0,0,0,0,0
1684047073.94028306,1111568528,1539,1540,1542,1536,0,0,0,0,0,0,0,0,0,0
1684047074.04024315,1111668488,1543,1543,1543,1541,0,0,0,0,0,0,0,0,0,0
1684047074.14020324,1111768448,1546,1546,1546,1545,0,0,0,0,0,0,0,0,0,0
1684047074.24016309,1111868408,1548,1548,1547,1548,0,0,0,0,0,0,0,0,0,0
1684047074.34012318,1111968368,1550,1545,1553,1556,0,0,0,0,0,0,0,0,0,0
1684047074.44008303,1112068328,1527,1527,1576,1579,0,0,0,0,0,0,0,0,0,0
1684047074.54004312,1112168288,1532,1534,1577,1580,0,0,0,0,0,0,0,0,0,0
1684047074.64000320,1112268248,1544,1547,1569,1571,0,0,0,0,0,0,0,0,0,0
1684047074.73996305,1112368208,1558,1560,1561,1562,0,0,0,0,0,0,0,0,0,0
1684047074.83992314,1112468168,1569,1571,1556,1554,0,0,0,0,0,0,0,0,0,0
1684047074.94071603,1112568961,1578,1577,1551,1549,0,0,0,0,0,0,0,0,0,0
1684047075.04067612,1112668921,1584,1582,1550,1550,0,0,0,0,0,0,0,0,0,0
1684047075.14063621,1112768881,1588,1584,1551,1551,0,0,0,0,0,0,0,0,0,0
1684047075.24059606,1112868841,1586,1584,1554,1554,0,0,0,0,0,0,0,0,0,0
1684047075.34055614,1112968801,1583,1582,1558,1558,0,0,0,0,0,0,0,0,0,0
1684047075.44051623,1113068761,1579,1578,1562,1562,0,0,0,0,0,0,0,0,0,0
1684047075.54047608,1113168721,1574,1574,1566,1567,0,0,0,0,0,0,0,0,0,0
1684047075.64043617,1113268681,1570,1571,1571,1571,0,0,0,0,0,0,0,0,0,0
1684047075.74039602,1113368641,1568,1568,1576,1575,0,0,0,0,0,0,0,0,0,0
1684047075.84035611,1113468601,1567,1567,1580,1579,0,0,0,0,0,0,0,0,0,0
1684047075.94031620,1113568561,1565,1566,1581,1580,0,0,0,0,0,0,0,0,0,0
1684047076.04027605,1113668521,1565,1566,1582,1581,0,0,0,0,0,0,0,0,0,0
1684047076.14023614,1113768481,1566,1567,1582,1582,0,0,0,0,0,0,0,0,0,0
1684047076.24019623,1113868441,1568,1569,1581,1581,0,0,0,0,0,0,0,0,0,0
1684047076.34015608,1113968401,1571,1571,1580,1580,0,0,0,0,0,0,0,0,0,0
1684047076.44011617,1114068361,1573,1573,1578,1578,0,0,0,0,0,0,0,0,0,0
1684047076.54007602,1114168321,1575,1575,1576,1576,0,0,0,0,0,0,0,0,0,0
1684047076.64003611,1114268281,1577,1576,1575,1575,0,0,0,0,0,0,0,0,0,0
1684047076.73999619,1114368241,1579,1578,1575,1575,0,0,0,0,0,0,0,0,0,0
1684047076.83995605,1114468201,1580,1579,1574,1574,0,0,0,0,0,0,0,0,0,0
1684047076.93991613,1114568161,1580,1579,1573,1573,0,0,0,0,0,0,0,0,0,0
1684047077.04070902,1114668954,1580,1579,1573,1573,0,0,0,0,0,0,0,0,0,0
1684047077.14066911,1114768914,1580,1580,1574,1574,0,0,0,0,0,0,0,0,0,0
1684047077.24062920,1114868874,1579,1579,1575,1575,0,0,0,0,0,0,0,0,0,0
1684047077.34058905,1114968834,1579,1579,1577,1576,0,0,0,0,0,0,0,0,0,0
1684047077.44054914,1115068794,1578,1578,1577,1577,0,0,0,0,0,0,0,0,0,0
1684047077.54050922,1115168754,1577,1578,1578,1577,0,0,0,0,0,0,0,0,0,0
1684047077.64046907,1115268714,1577,1578,1579,1578,0,0,0,0,0,0,0,0,0,0
1684047077.74042916,1115368674,1577,1577,1579,1579,0,0,0,0,0,0,0,0,0,0
1684047077.84038901,1115468634,1577,1577,1579,1579,0,0,0,0,0,0,0,0,0,0
1684047077.94034910,1115568594,1576,1576,1578,1579,0,0,0,0,0,0,0,0,0,0
1684047078.04030919,1115668554,1577,1577,1579,1579,0,0,0,0,0,0,0,0,0,0
1684047078.14026904,1115768514,1577,1577,1578,1579,0,0,0,0,0,0,0,0,0,0
1684047078.24022913,1115868474,1577,1578,1579,1579,0,0,0,0,0,0,0,0,0,0
1684047078.34018922,1115968434,1578,1578,1578,1578,0,0,0,0,0,0,0,0,0,0
1684047078.44014907,1116068394,1579,1579,1579,1579,0,0,0,0,0,0,0,0,0,0
1684047078.54010916,1116168354,1580,1579,1579,1579,0,0,0,0,0,0,0,0,0,0
1684047078.64006901,1116268314,1581,1581,1580,1580,0,0,0,0,0,0,0,0,0,0
1684047078.74002910,1116368274,1580,1580,1579,1579,0,0,0,0,0,0,0,0,0,0
1684047078.83998919,1116468234,1581,1581,1579,1579,0,0,0,0,0,0,0,0,0,0
1684047078.93994904,1116568194,1580,1580,1579,1579,0,0,0,0,0,0,0,0,0,0
1684047079.03990912,1116668154,1580,1580,1579,1579,0,0,0,0,0,0,0,0,0,0
1684047079.14070201,1116768947,1581,1580,1580,1580,0,0,0,0,0,0,0,0,0,0
1684047079.24066210,1116868907,1581,1581,1580,1580,0,0,0,0,0,0,0,0,0,0
1684047079.34062219,1116968867,1580,1580,1580,1580,0,0,0,0,0,0,0,0,0,0
1684047079.44058204,1117068827,1579,1580,1580,1580,0,0,0,0,0,0,0,0,0,0
1684047079.54054213,1117168787,1580,1580,1580,1581,0,0,0,0,0,0,0,0,0,0
1684047079.64050221,1117268747,1580,1580,1581,1581,0,0,0,0,0,0,0,0,0,0
1684047079.74046206,1117368707,1580,1580,1581,1580,0,0,0,0,0,0,0,0,0,0
1684047079.84042215,1117468667,1581,1580,1581,1581,0,0,0,0,0,0,0,0,0,0
1684047079.94038224,1117568627,1580,1579,1579,1580,0,0,0,0,0,0,0,0,0,0
1684047080.04034209,1117668587,1581,1581,1581,1582,0,0,0,0,0,0,0,0,0,0
1684047080.14030218,1117768547,1581,1581,1581,1580,0,0,0,0,0,0,0,0,0,0
1684047080.24026203,1117868507,1581,1580,1581,1580,0,0,0,0,0,0,0,0,0,0
1684047080.34022212,1117968467,1581,1581,1581,1581,0,0,0,0,0,0,0,0,0,0
1684047080.44018221,1118068427,1581,1581,1581,1581,0,0,0,0,0,0,0,0,0,0
1684047080.54014206,1118168387,1582,1582,1581,1581,0,0,0,0,0,0,0,0,0,0
1684047080.64010215,1118268347,1581,1581,1584,1577,0,0,0,0,0,0,0,0,0,0
1684047080.74006224,1118368307,1581,1581,1588,1574,0,0,0,0,0,0,0,0,0,0
1684047080.84002209,1118468267,1579,1581,1581,1573,0,0,0,0,0,0,0,0,0,0
1684047080.93998218,1118568227,1577,1580,1573,1574,0,0,0,0,0,0,0,0,0,0
1684047081.03994203,1118668187,1576,1579,1566,1572,0,0,0,0,0,0,0,0,0,0
1684047081.14073515,1118768980,1575,1577,1560,1567,0,0,0,0,0,0,0,0,0,0
1684047081.24069524,1118868940,1576,1575,1558,1563,0,0,0,0,0,0,0,0,0,0
1684047081.34065509,1118968900,1576,1574,1558,1559,0,0,0,0,0,0,0,0,0,0
1684047081.44061518,1119068860,1576,1574,1558,1557,0,0,0,0,0,0,0,0,0,0
1684047081.54057503,1119168820,1575,1574,1558,1556,0,0,0,0,0,0,0,0,0,0
1684047081.64053512,1119268780,1573,1574,1559,1556,0,0,0,0,0,0,0,0,0,0
1684047081.74049520,1119368740,1573,1574,1558,1556,0,0,0,0,0,0,0,0,0,0
1684047081.84045506,1119468700,1571,1573,1556,1555,0,0,0,0,0,0,0,0,0,0
1684047081.94041514,1119568660,1570,1572,1554,1555,0,0,0,0,0,0,0,0,0,0
1684047082.04037523,1119668620,1570,1571,1553,1554,0,0,0,0,0,0,0,0,0,0
1684047082.14033508,1119768580,1571,1572,1552,1552,0,0,0,0,0,0,0,0,0,0
1684047082.24029517,1119868540,1573,1573,1551,1551,0,0,0,0,0,0,0,0,0,0
1684047082.34025502,1119968500,1574,1575,1549,1549,0,0,0,0,0,0,0,0,0,0
1684047082.44021511,1120068460,1577,1577,1547,1547,0,0,0,0,0,0,0,0,0,0
1684047082.54017520,1120168420,1579,1580,1545,1544,0,0,0,0,0,0,0,0,0,0
1684047082.64013505,1120268380,1582,1583,1542,1541,0,0,0,0,0,0,0,0,0,0
1684047082.74009514,1120368340,1584,1585,1538,1539,0,0,0,0,0,0,0,0,0,0
1684047082.84005523,1120468300,1588,1588,1536,1536,0,0,0,0,0,0,0,0,0,0
1684047082.94001508,1120568260,1590,1591,1534,1534,0,0,0,0,0,0,0,0,0,0
1684047083.03997517,1120668220,1593,1593,1533,1534,0,0,0,0,0,0,0,0,0,0
1684047083.13993502,1120768180,1594,1593,1533,1534,0,0,0,0,0,0,0,0,0,0
1684047083.24072814,1120868973,1593,1592,1534,1535,0,0,0,0,0,0,0,0,0,0
1684047083.34068823,1120968933,1591,1590,1538,1539,0,0,0,0,0,0,0,0,0,0
1684047083.44064808,1121068893,1587,1587,1541,1544,0,0,0,0,0,0,0,0,0,0
1684047083.54060817,1121168853,1583,1582,1548,1552,0,0,0,0,0,0,0,0,0,0
1684047083.64056802,1121268813,1575,1574,1555,1558,0,0,0,0,0,0,0,0,0,0
1684047083.74052811,1121368773,1568,1565,1566,1568,0,0,0,0,0,0,0,0,0,0
1684047083.84048820,1121468733,1558,1554,1577,1579,0,0,0,0,0,0,0,0,0,0
1684047083.94044805,1121568693,1549,1545,1589,1590,0,0,0,0,0,0,0,0,0,0
1684047084.04040813,1121668653,1540,1538,1600,1599,0,0,0,0,0,0,0,0,0,0
1684047084.14036822,1121768613,1533,1532,1607,1606,0,0,0,0,0,0,0,0,0,0
1684047084.24032807,1121868573,1530,1530,1612,1610,0,0,0,0,0,0,0,0,0,0
1684047084.34028816,1121968533,1530,1532,1613,1612,0,0,0,0,0,0,0,0,0,0
1684047084.44024801,1122068493,1534,1536,1611,1611,0,0,0,0,0,0,0,0,0,0
1684047084.54020810,1122168453,1539,1541,1605,1606,0,0,0,0,0,0,0,0,0,0
1684047084.64016819,1122268413,1547,1548,1599,1600,0,0,0,0,0,0,0,0,0,0
1684047084.74012804,1122368373,1557,1557,1593,1594,0,0,0,0,0,0,0,0,0,0
1684047084.84008813,1122468333,1565,1566,1586,1586,0,0,0,0,0,0,0,0,0,0
1684047084.94004822,1122568293,1574,1573,1581,1580,0,0,0,0,0,0,0,0,0,0
1684047085.04000807,1122668253,1579,1578,1575,1574,0,0,0,0,0,0,0,0,0,0
1684047085.13996816,1122768213,1584,1583,1571,1570,0,0,0,0,0,0,0,0,0,0
1684047085.23992801,1122868173,1587,1585,1568,1568,0,0,0,0,0,0,0,0,0,0
1684047085.34072113,1122968966,1588,1587,1568,1568,0,0,0,0,0,0,0,0,0,0
1684047085.44068122,1123068926,1586,1585,1568,1568,0,0,0,0,0,0,0,0,0,0
1684047085.54064107,1123168886,1585,1585,1570,1570,0,0,0,0,0,0,0,0,0,0
1684047085.64060116,1123268846,1583,1583,1573,1573,0,0,0,0,0,0,0,0,0,0
1684047085.74056101,1123368806,1581,1581,1575,1576,0,0,0,0,0,0,0,0,0,0
1684047085.84052110,1123468766,1578,1579,1578,1578,0,0,0,0,0,0,0,0,0,0
1684047085.94048119,1123568726,1576,1577,1580,1580,0,0,0,0,0,0,0,0,0,0
1684047086.04044104,1123668686,1575,1576,1583,1583,0,0,0,0,0,0,0,0,0,0
1684047086.14040112,1123768646,1574,1575,1584,1584,0,0,0,0,0,0,0,0,0,0
1684047086.24036121,1123868606,1573,1574,1584,1583,0,0,0,0,0,0,0,0,0,0
1684047086.34032106,1123968566,1575,1574,1584,1584,0,0,0,0,0,0,0,0,0,0
1684047086.44028115,1124068526,1576,1576,1584,1584,0,0,0,0,0,0,0,0,0,0
1684047086.54024124,1124168486,1258,1259,1620,1625,0,0,0,0,0,0,0,0,0,0
1684047086.64020109,1124268446,1359,1367,1660,1668,0,0,0,0,0,0,0,0,0,0
1684047086.74016118,1124368406,1434,1445,1652,1650,0,0,0,0,0,0,0,0,0,0
1684047086.84012103,1124468366,1498,1508,1639,1630,0,0,0,0,0,0,0,0,0,0
1684047086.94008112,1124568326,1550,1553,1631,1619,0,0,0,0,0,0,0,0,0,0
1684047087.04004121,1124668286,1584,1569,1605,1594,0,0,0,0,0,0,0,0,0,0
1684047087.14000106,1124768246,1584,1565,1527,1530,0,0,0,0,0,0,0,0,0,0
1684047087.23996115,1124868206,1584,1570,1465,1480,0,0,0,0,0,0,0,0,0,0
1684047087.33992124,1124968166,1584,1581,1469,1484,0,0,0,0,0,0,0,0,0,0
1684047087.44071412,1125068959,1577,1584,1486,1492,0,0,0,0,0,0,0,0,0,0
1684047087.54067421,1125168919,1573,1584,1506,1504,0,0,0,0,0,0,0,0,0,0
1684047087.64063406,1125268879,1575,1584,1526,1520,0,0,0,0,0,0,0,0,0,0
1684047087.74059415,1125368839,1580,1584,1542,1537,0,0,0,0,0,0,0,0,0,0
1684047087.84055424,1125468799,1584,1583,1552,1549,0,0,0,0,0,0,0,0,0,0
1684047087.94051409,1125568759,1584,1580,1554,1555,0,0,0,0,0,0,0,0,0,0
1684047088.04047418,1125668719,1584,1580,1557,1560,0,0,0,0,0,0,0,0,0,0
1684047088.14043403,1125768679,1584,1577,1562,1557,0,0,0,0,0,0,0,0,0,0
1684047088.24039412,1125868639,1584,1576,1566,1563,0,0,0,0,0,0,0,0,0,0
1684047088.34035420,1125968599,1584,1578,1569,1569,0,0,0,0,0,0,0,0,0,0
1684047088.44031405,1126068559,1584,1576,1565,1571,0,0,0,0,0,0,0,0,0,0
1684047088.54027414,1126168519,1584,1580,1567,1573,0,0,0,0,0,0,0,0,0,0
1684047088.64023423,1126268479,1582,1584,1570,1573,0,0,0,0,0,0,0,0,0,0
1684047088.74019408,1126368439,1579,1584,1571,1570,0,0,0,0,0,0,0,0,0,0
1684047088.84015417,1126468399,1577,1584,1568,1570,0,0,0,0,0,0,0,0,0,0
1684047088.94011402,1126568359,1577,1584,1569,1569,0,0,0,0,0,0,0,0,0,0
1684047089.04007411,1126668319,1579,1584,1572,1569,0,0,0,0,0,0,0,0,0,0
1684047089.14003420,1126768279,1581,1584,1573,1570,0,0,0,0,0,0,0,0,0,0
1684047089.23999405,1126868239,1583,1584,1574,1571,0,0,0,0,0,0,0,0,0,0
1684047089.33995414,1126968199,1584,1583,1572,1571,0,0,0,0,0,0,0,0,0,0
1684047089.43991423,1127068159,1584,1583,1570,1571,0,0,0,0,0,0,0,0,0,0
1684047089.54070711,1127168952,1584,1583,1570,1570,0,0,0,0,0,0,0,0,0,0
1684047089.64066720,1127268912,1583,1584,1570,1570,0,0,0,0,0,0,0,0,0,0
1684047089.74062705,1127368872,1582,1584,1570,1569,0,0,0,0,0,0,0,0,0,0
1684047089.84058714,1127468832,1582,1584,1570,1568,0,0,0,0,0,0,0,0,0,0
1684047089.94054723,1127568792,1583,1584,1571,1569,0,0,0,0,0,0,0,0,0,0
1684047090.04050708,1127668752,1583,1584,1570,1569,0,0,0,0,0,0,0,0,0,0
1684047090.14046717,1127768712,1583,1584,1571,1568,0,0,0,0,0,0,0,0,0,0
1684047090.24042702,1127868672,1583,1584,1570,1568,0,0,0,0,0,0,0,0,0,0
1684047090.34038711,1127968632,1583,1584,1570,1567,0,0,0,0,0,0,0,0,0,0
1684047090.44034719,1128068592,1584,1583,1569,1567,0,0,0,0,0,0,0,0,0,0
1684047090.54030704,1128168552,1584,1581,1566,1566,0,0,0,0,0,0,0,0,0,0
1684047090.64026713,1128268512,1584,1574,1557,1563,0,0,0,0,0,0,0,0,0,0
1684047090.74022722,1128368472,1584,1577,1557,1565,0,0,0,0,0,0,0,0,0,0
1684047090.84018707,1128468432,1584,1583,1563,1568,0,0,0,0,0,0,0,0,0,0
1684047090.94014716,1128568392,1582,1584,1568,1563,0,0,0,0,0,0,0,0,0,0
1684047091.04010701,1128668352,1583,1584,1571,1564,0,0,0,0,0,0,0,0,0,0
1684047091.14006710,1128768312,1584,1582,1570,1564,0,0,0,0,0,0,0,0,0,0
1684047091.24002719,1128868272,1584,1581,1567,1564,0,0,0,0,0,0,0,0,0,0
1684047091.33998704,1128968232,1584,1581,1565,1564,0,0,0,0,0,0,0,0,0,0
1684047091.43994713,1129068192,1584,1582,1564,1564,0,0,0,0,0,0,0,0,0,0
1684047091.54074001,1129168985,1584,1582,1564,1563,0,0,0,0,0,0,0,0,0,0
1684047091.64070010,1129268945,1583,1584,1564,1563,0,0,0,0,0,0,0,0,0,0
1684047091.74066019,1129368905,1583,1584,1564,1561,0,0,0,0,0,0,0,0,0,0
1684047091.84062004,1129468865,1583,1584,1564,1561,0,0,0,0,0,0,0,0,0,0
1684047091.94058013,1129568825,1584,1583,1563,1561,0,0,0,0,0,0,0,0,0,0
1684047092.04054022,1129668785,1584,1583,1562,1562,0,0,0,0,0,0,0,0,0,0
1684047092.14050007,1129768745,1582,1584,1561,1563,0,0,0,0,0,0,0,0,0,0
1684047092.24046016,1129868705,1580,1584,1559,1562,0,0,0,0,0,0,0,0,0,0
1684047092.34042001,1129968665,1577,1584,1559,1561,0,0,0,0,0,0,0,0,0,0
1684047092.44038010,1130068625,1576,1584,1560,1561,0,0,0,0,0,0,0,0,0,0
1684047092.54034019,1130168585,1578,1584,1562,1563,0,0,0,0,0,0,0,0,0,0
1684047092.64030004,1130268545,1580,1584,1563,1565,0,0,0,0,0,0,0,0,0,0
1684047092.74026012,1130368505,1582,1584,1564,1565,0,0,0,0,0,0,0,0,0,0
1684047092.84022021,1130468465,1583,1584,1564,1565,0,0,0,0,0,0,0,0,0,0
1684047092.94018006,1130568425,1583,1584,1563,1564,0,0,0,0,0,0,0,0,0,0
1684047093.04014015,1130668385,1583,1584,1561,1563,0,0,0,0,0,0,0,0,0,0
1684047093.14010024,1130768345,1583,1584,1565,1570,0,0,0,0,0,0,0,0,0,0
1684047093.24006009,1130868305,1583,1584,1601,1606,0,0,0,0,0,0,0,0,0,0
1684047093.34002018,1130968265,1584,1583,1619,1614,0,0,0,0,0,0,0,0,0,0
1684047093.43998003,1131068225,1584,1582,1565,1562,0,0,0,0,0,0,0,0,0,0
1684047093.53994012,1131168185,1584,1582,1540,1541,0,0,0,0,0,0,0,0,0,0
1684047093.64073324,1131268978,1584,1582,1537,1540,0,0,0,0,0,0,0,0,0,0
1684047093.74069309,1131368938,1584,1583,1541,1544,0,0,0,0,0,0,0,0,0,0
1684047093.84065318,1131468898,1584,1583,1546,1547,0,0,0,0,0,0,0,0,0,0
1684047093.94061303,1131568858,1584,1583,1550,1550,0,0,0,0,0,0,0,0,0,0
1684047094.04057312,1131668818,1583,1584,1553,1553,0,0,0,0,0,0,0,0,0,0
1684047094.14053321,1131768778,1584,1583,1556,1555,0,0,0,0,0,0,0,0,0,0
1684047094.24049306,1131868738,1581,1584,1554,1557,0,0,0,0,0,0,0,0,0,0
1684047094.34045315,1131968698,1581,1584,1554,1557,0,0,0,0,0,0,0,0,0,0
1684047094.44041324,1132068658,1581,1584,1557,1555,0,0,0,0,0,0,0,0,0,0
1684047094.54037309,1132168618,1584,1583,1563,1556,0,0,0,0,0,0,0,0,0,0
1684047094.64033318,1132268578,1584,1582,1562,1557,0,0,0,0,0,0,0,0,0,0
1684047094.74029303,1132368538,1584,1580,1560,1558,0,0,0,0,0,0,0,0,0,0
1684047094.84025311,1132468498,1584,1581,1559,1560,0,0,0,0,0,0,0,0,0,0
1684047094.94021320,1132568458,1584,1581,1559,1561,0,0,0,0,0,0,0,0,0,0
1684047095.04017305,1132668418,1584,1580,1561,1563,0,0,0,0,0,0,0,0,0,0
1684047095.14013314,1132768378,1584,1579,1603,1605,0,0,0,0,0,0,0,0,0,0
1684047095.24009323,1132868338,1572,1568,1632,1633,0,0,0,0,0,0,0,0,0,0
1684047095.34005308,1132968298,1551,1550,1629,1633,0,0,0,0,0,0,0,0,0,0
1684047095.44001317,1133068258,1539,1542,1625,1630,0,0,0,0,0,0,0,0,0,0
1684047095.53997302,1133168218,1533,1539,1620,1623,0,0,0,0,0,0,0,0,0,0
1684047095.63993311,1133268178,1532,1539,1616,1614,0,0,0,0,0,0,0,0,0,0
1684047095.74072623,1133368971,1534,1540,1610,1607,0,0,0,0,0,0,0,0,0,0
1684047095.84068608,1133468931,1539,1543,1603,1599,0,0,0,0,0,0,0,0,0,0
1684047095.94064617,1133568891,1546,1547,1596,1593,0,0,0,0,0,0,0,0,0,0
1684047096.04060602,1133668851,1552,1551,1588,1585,0,0,0,0,0,0,0,0,0,0
1684047096.14056611,1133768811,1559,1556,1580,1579,0,0,0,0,0,0,0,0,0,0
1684047096.24052620,1133868771,1564,1561,1573,1574,0,0,0,0,0,0,0,0,0,0
1684047096.34048605,1133968731,1570,1568,1571,1572,0,0,0,0,0,0,0,0,0,0
1684047096.44044614,1134068691,1574,1573,1569,1569,0,0,0,0,0,0,0,0,0,0
1684047096.54040623,1134168651,1577,1576,1566,1567,0,0,0,0,0,0,0,0,0,0
1684047096.64036608,1134268611,1580,1579,1566,1566,0,0,0,0,0,0,0,0,0,0
1684047096.74032617,1134368571,1582,1581,1566,1566,0,0,0,0,0,0,0,0,0,0
1684047096.84028602,1134468531,1583,1584,1567,1567,0,0,0,0,0,0,0,0,0,0
1684047096.94024611,1134568491,1584,1583,1567,1565,0,0,0,0,0,0,0,0,0,0
1684047097.04020619,1134668451,1584,1583,1568,1566,0,0,0,0,0,0,0,0,0,0
1684047097.14016604,1134768411,1584,1583,1568,1567,0,0,0,0,0,0,0,0,0,0
1684047097.24012613,1134868371,1584,1583,1569,1569,0,0,0,0,0,0,0,0,0,0
1684047097.34008622,1134968331,1584,1583,1570,1571,0,0,0,0,0,0,0,0,0,0
1684047097.44004607,1135068291,1584,1583,1572,1573,0,0,0,0,0,0,0,0,0,0
1684047097.54000616,1135168251,1583,1584,1575,1576,0,0,0,0,0,0,0,0,0,0
1684047097.63996601,1135268211,1583,1584,1576,1577,0,0,0,0,0,0,0,0,0,0
1684047097.73992610,1135368171,1583,1584,1578,1579,0,0,0,0,0,0,0,0,0,0
1684047097.84071922,1135468964,1583,1583,1580,1579,0,0,0,0,0,0,0,0,0,0
1684047097.94067907,1135568924,1582,1582,1579,1580,0,0,0,0,0,0,0,0,0,0
1684047098.04063916,1135668884,1580,1581,1578,1579,0,0,0,0,0,0,0,0,0,0
1684047098.14059901,1135768844,1579,1580,1577,1578,0,0,0,0,0,0,0,0,0,0
1684047098.24055910,1135868804,1578,1579,1578,1578,0,0,0,0,0,0,0,0,0,0
1684047098.34051919,1135968764,1579,1579,1579,1579,0,0,0,0,0,0,0,0,0,0
1684047098.44047904,1136068724,1579,1579,1580,1579,0,0,0,0,0,0,0,0,0,0
1684047098.54043913,1136168684,1578,1578,1579,1579,0,0,0,0,0,0,0,0,0,0
1684047098.64039922,1136268644,1578,1578,1580,1579,0,0,0,0,0,0,0,0,0,0
1684047098.74035907,1136368604,1578,1578,1580,1579,0,0,0,0,0,0,0,0,0,0
1684047098.84031916,1136468564,1579,1578,1580,1580,0,0,0,0,0,0,0,0,0,0
1684047098.94027901,1136568524,1578,1578,1580,1580,0,0,0,0,0,0,0,0,0,0
1684047099.04023910,1136668484,1579,1579,1580,1580,0,0,0,0,0,0,0,0,0,0
1684047099.14019918,1136768444,1578,1579,1580,1579,0,0,0,0,0,0,0,0,0,0
1684047099.24015903,1136868404,1579,1579,1580,1580,0,0,0,0,0,0,0,0,0,0
1684047099.34011912,1136968364,1580,1580,1581,1581,0,0,0,0,0,0,0,0,0,0
1684047099.44007921,1137068324,1580,1580,1581,1581,0,0,0,0,0,0,0,0,0,0
1684047099.54003906,1137168284,1580,1580,1580,1581,0,0,0,0,0,0,0,0,0,0
1684047099.63999915,1137268244,1581,1581,1581,1582,0,0,0,0,0,0,0,0,0,0
1684047099.73995924,1137368204,1580,1581,1580,1580,0,0,0,0,0,0,0,0,0,0
1684047099.83991909,1137468164,1581,1581,1581,1580,0,0,0,0,0,0,0,0,0,0
1684047099.94071221,1137568957,1582,1581,1581,1580,0,0,0,0,0,0,0,0,0,0
1684047100.04067206,1137668917,1582,1581,1581,1580,0,0,0,0,0,0,0,0,0,0
1684047100.14063215,1137768877,1582,1580,1587,1573,0,0,0,0,0,0,0,0,0,0
1684047100.24059224,1137868837,1581,1580,1583,1573,0,0,0,0,0,0,0,0,0,0
1684047100.34055209,1137968797,1579,1578,1574,1573,0,0,0,0,0,0,0,0,0,0
1684047100.44051218,1138068757,1576,1578,1567,1572,0,0,0,0,0,0,0,0,0,0
1684047100.54047203,1138168717,1574,1577,1562,1568,0,0,0,0,0,0,0,0,0,0
1684047100.64043212,1138268677,1573,1576,1560,1564,0,0,0,0,0,0,0,0,0,0
1684047100.74039221,1138368637,1573,1575,1560,1561,0,0,0,0,0,0,0,0,0,0
1684047100.84035206,1138468597,1573,1574,1560,1559,0,0,0,0,0,0,0,0,0,0
1684047100.94031215,1138568557,1573,1573,1560,1558,0,0,0,0,0,0,0,0,0,0
1684047101.04027224,1138668517,1574,1573,1560,1558,0,0,0,0,0,0,0,0,0,0
1684047101.14023209,1138768477,1573,1573,1559,1558,0,0,0,0,0,0,0,0,0,0
1684047101.24019217,1138868437,1572,1572,1557,1557,0,0,0,0,0,0,0,0,0,0
1684047101.34015203,1138968397,1572,1572,1557,1556,0,0,0,0,0,0,0,0,0,0
1684047101.44011211,1139068357,1571,1572,1555,1555,0,0,0,0,0,0,0,0,0,0
1684047101.54007220,1139168317,1571,1573,1554,1554,0,0,0,0,0,0,0,0,0,0
1684047101.64003205,1139268277,1571,1573,1552,1552,0,0,0,0,0,0,0,0,0,0
1684047101.73999214,1139368237,1572,1574,1551,1550,0,0,0,0,0,0,0,0,0,0
1684047101.83995223,1139468197,1572,1574,1548,1547,0,0,0,0,0,0,0,0,0,0
1684047101.93991208,1139568157,1575,1575,1547,1546,0,0,0,0,0,0,0,0,0,0
1684047102.04070520,1139668950,1576,1577,1545,1545,0,0,0,0,0,0,0,0,0,0
1684047102.14066505,1139768910,1578,1579,1542,1542,0,0,0,0,0,0,0,0,0,0
1684047102.24062514,1139868870,1580,1581,1541,1540,0,0,0,0,0,0,0,0,0,0
1684047102.34058523,1139968830,1583,1584,1539,1539,0,0,0,0,0,0,0,0,0,0
1684047102.44054508,1140068790,1583,1584,1534,1534,0,0,0,0,0,0,0,0,0,0
1684047102.54050517,1140168750,1584,1583,1530,1531,0,0,0,0,0,0,0,0,0,0
1684047102.64046502,1140268710,1584,1583,1528,1529,0,0,0,0,0,0,0,0,0,0
1684047102.74042511,1140368670,1584,1583,1529,1530,0,0,0,0,0,0,0,0,0,0
1684047102.84038520,1140468630,1584,1583,1533,1535,0,0,0,0,0,0,0,0,0,0
1684047102.94034505,1140568590,1584,1583,1539,1542,0,0,0,0,0,0,0,0,0,0
1684047103.04030514,1140668550,1584,1583,1548,1551,0,0,0,0,0,0,0,0,0,0
1684047103.14026523,1140768510,1584,1582,1558,1562,0,0,0,0,0,0,0,0,0,0
1684047103.24022508,1140868470,1584,1582,1572,1574,0,0,0,0,0,0,0,0,0,0
1684047103.34018517,1140968430,1577,1576,1578,1580,0,0,0,0,0,0,0,0,0,0
1684047103.44014502,1141068390,1569,1567,1582,1584,0,0,0,0,0,0,0,0,0,0
1684047103.54010510,1141168350,1560,1558,1588,1589,0,0,0,0,0,0,0,0,0,0
1684047103.64006519,1141268310,1551,1549,1595,1596,0,0,0,0,0,0,0,0,0,0
1684047103.74002504,1141368270,1542,1541,1601,1601,0,0,0,0,0,0,0,0,0,0
1684047103.83998513,1141468230,1536,1536,1605,1605,0,0,0,0,0,0,0,0,0,0
1684047103.93994522,1141568190,1532,1533,1608,1607,0,0,0,0,0,0,0,0,0,0
1684047104.04073811,1141668983,1532,1532,1607,1606,0,0,0,0,0,0,0,0,0,0
1684047104.14069819,1141768943,1533,1535,1604,1603,0,0,0,0,0,0,0,0,0,0
1684047104.24065804,1141868903,1537,1539,1599,1599,0,0,0,0,0,0,0,0,0,0
1684047104.34061813,1141968863,1544,1546,1593,1593,0,0,0,0,0,0,0,0,0,0
1684047104.44057822,1142068823,1552,1553,1587,1588,0,0,0,0,0,0,0,0,0,0
1684047104.54053807,1142168783,1560,1561,1582,1581,0,0,0,0,0,0,0,0,0,0
1684047104.64049816,1142268743,1568,1567,1577,1575,0,0,0,0,0,0,0,0,0,0
1684047104.74045801,1142368703,1575,1574,1573,1572,0,0,0,0,0,0,0,0,0,0
1684047104.84041810,1142468663,1582,1580,1570,1569,0,0,0,0,0,0,0,0,0,0
1684047104.94037819,1142568623,1584,1582,1565,1564,0,0,0,0,0,0,0,0,0,0
1684047105.04033804,1142668583,1584,1582,1561,1560,0,0,0,0,0,0,0,0,0,0
1684047105.14029813,1142768543,1584,1582,1561,1560,0,0,0,0,0,0,0,0,0,0
1684047105.24025822,1142868503,1584,1583,1564,1563,0,0,0,0,0,0,0,0,0,0
1684047105.34021807,1142968463,1584,1583,1568,1568,0,0,0,0,0,0,0,0,0,0
1684047105.44017816,1143068423,1583,1584,1572,1572,0,0,0,0,0,0,0,0,0,0
1684047105.54013801,1143168383,1584,1583,1577,1577,0,0,0,0,0,0,0,0,0,0
1684047105.64009809,1143268343,1584,1583,1581,1582,0,0,0,0,0,0,0,0,0,0
1684047105.74005818,1143368303,1584,1583,1586,1586,0,0,0,0,0,0,0,0,0,0
1684047105.84001803,1143468263,1583,1584,1589,1589,0,0,0,0,0,0,0,0,0,0
1684047105.93997812,1143568223,1580,1580,1586,1587,0,0,0,0,0,0,0,0,0,0
1684047106.03993821,1143668183,1577,1578,1584,1585,0,0,0,0,0,0,0,0,0,0
1684047106.14073110,1143768976,1576,1576,1582,1584,0,0,0,0,0,0,0,0,0,0
1684047106.24069118,1143868936,1575,1576,1582,1583,0,0,0,0,0,0,0,0,0,0
1684047106.34065104,1143968896,1574,1575,1581,1580,0,0,0,0,0,0,0,0,0,0
1684047106.44061112,1144068856,1575,1575,1580,1579,0,0,0,0,0,0,0,0,0,0
1684047106.54057121,1144168816,1576,1576,1580,1579,0,0,0,0,0,0,0,0,0,0
1684047106.64053106,1144268776,1578,1577,1580,1579,0,0,0,0,0,0,0,0,0,0
1684047106.74049115,1144368736,1578,1578,1578,1578,0,0,0,0,0,0,0,0,0,0
1684047106.84045124,1144468696,1579,1578,1578,1577,0,0,0,0,0,0,0,0,0,0
1684047106.94041109,1144568656,1579,1578,1576,1576,0,0,0,0,0,0,0,0,0,0
1684047107.04037118,1144668616,1579,1579,1576,1576,0,0,0,0,0,0,0,0,0,0
1684047107.14033103,1144768576,1580,1580,1577,1577,0,0,0,0,0,0,0,0,0,0
1684047107.24029112,1144868536,1580,1580,1576,1577,0,0,0,0,0,0,0,0,0,0
1684047107.34025121,1144968496,1581,1581,1578,1578,0,0,0,0,0,0,0,0,0,0
1684047107.44021106,1145068456,1580,1581,1578,1578,0,0,0,0,0,0,0,0,0,0
1684047107.54017115,1145168416,1581,1581,1579,1578,0,0,0,0,0,0,0,0,0,0
1684047107.64013124,1145268376,1581,1581,1580,1579,0,0,0,0,0,0,0,0,0,0
1684047107.74009109,1145368336,1581,1581,1579,1579,0,0,0,0,0,0,0,0,0,0
1684047107.84005117,1145468296,1581,1581,1581,1581,0,0,0,0,0,0,0,0,0,0
1684047107.94001102,1145568256,1581,1581,1581,1581,0,0,0,0,0,0,0,0,0,0
1684047108.03997111,1145668216,1582,1581,1582,1582,0,0,0,0,0,0,0,0,0,0
1684047108.13993120,1145768176,1581,1581,1582,1582,0,0,0,0,0,0,0,0,0,0
1684047108.24072409,1145868969,1581,1581,1581,1581,0,0,0,0,0,0,0,0,0,0
1684047108.34068418,1145968929,1581,1581,1582,1582,0,0,0,0,0,0,0,0,0,0
1684047108.44064403,1146068889,1581,1581,1581,1582,0,0,0,0,0,0,0,0,0,0
1684047108.54060411,1146168849,1581,1581,1581,1581,0,0,0,0,0,0,0,0,0,0
1684047108.64056420,1146268809,1581,1581,1586,1576,0,0,0,0,0,0,0,0,0,0
1684047108.74052405,1146368769,1581,1579,1586,1572,0,0,0,0,0,0,0,0,0,0
1684047108.84048414,1146468729,1580,1577,1579,1574,0,0,0,0,0,0,0,0,0,0
1684047108.94044423,1146568689,1577,1575,1571,1574,0,0,0,0,0,0,0,0,0,0
1684047109.04040408,1146668649,1573,1573,1566,1572,0,0,0,0,0,0,0,0,0,0
1684047109.14036417,1146768609,1570,1571,1564,1570,0,0,0,0,0,0,0,0,0,0
1684047109.24032402,1146868569,1568,1569,1564,1568,0,0,0,0,0,0,0,0,0,0
1684047109.34028411,1146968529,1566,1568,1565,1567,0,0,0,0,0,0,0,0,0,0
1684047109.44024420,1147068489,1565,1566,1566,1565,0,0,0,0,0,0,0,0,0,0
1684047109.54020405,1147168449,1565,1565,1568,1566,0,0,0,0,0,0,0,0,0,0
1684047109.64016414,1147268409,1564,1565,1568,1566,0,0,0,0,0,0,0,0,0,0
1684047109.74012423,1147368369,1563,1563,1566,1565,0,0,0,0,0,0,0,0,0,0
1684047109.84008408,1147468329,1563,1562,1566,1565,0,0,0,0,0,0,0,0,0,0
1684047109.94004416,1147568289,1562,1562,1565,1565,0,0,0,0,0,0,0,0,0,0
1684047110.04000401,1147668249,1561,1561,1562,1563,0,0,0,0,0,0,0,0,0,0
1684047110.13996410,1147768209,1561,1560,1561,1562,0,0,0,0,0,0,0,0,0,0
1684047110.23992419,1147868169,1560,1560,1561,1561,0,0,0,0,0,0,0,0,0,0
1684047110.34071708,1147968962,1560,1560,1561,1561,0,0,0,0,0,0,0,0,0,0
1684047110.44067717,1148068922,1560,1561,1561,1560,0,0,0,0,0,0,0,0,0,0
1684047110.54063702,1148168882,1560,1560,1560,1559,0,0,0,0,0,0,0,0,0,0
1684047110.64059711,1148268842,1560,1560,1559,1559,0,0,0,0,0,0,0,0,0,0
1684047110.74055719,1148368802,1559,1560,1559,1558,0,0,0,0,0,0,0,0,0,0
1684047110.84051704,1148468762,1559,1559,1559,1558,0,0,0,0,0,0,0,0,0,0
1684047110.94047713,1148568722,1559,1559,1559,1558,0,0,0,0,0,0,0,0,0,0
1684047111.04043722,1148668682,1559,1559,1559,1558,0,0,0,0,0,0,0,0,0,0
1684047111.14039707,1148768642,1559,1559,1559,1558,0,0,0,0,0,0,0,0,0,0
1684047111.24035716,1148868602,1558,1558,1559,1557,0,0,0,0,0,0,0,0,0,0
1684047111.34031701,1148968562,1559,1559,1559,1558,0,0,0,0,0,0,0,0,0,0
1684047111.44027710,1149068522,1558,1558,1559,1558,0,0,0,0,0,0,0,0,0,0
1684047111.54023719,1149168482,1558,1558,1559,1557,0,0,0,0,0,0,0,0,0,0
1684047111.64019704,1149268442,1558,1559,1559,1559,0,0,0,0,0,0,0,0,0,0
1684047111.74015713,1149368402,1559,1559,1558,1561,0,0,0,0,0,0,0,0,0,0
1684047111.78014112,1149408386,1559,1559,1557,1562,0,0,0,0,0,0,0,0,0,0
1684047111.88010120,1149508346,1559,1559,1558,1562,0,0,0,0,0,0,0,0,0,0
1684047111.98006105,1149608306,1557,1557,1556,1559,0,0,0,0,0,0,0,0,0,0
1684047112.08002114,1149708266,1556,1557,1556,1557,0,0,0,0,0,0,0,0,0,0
1684047112.17998123,1149808226,1556,1557,1554,1559,0,0,0,0,0,0,0,0,0,0
1684047112.27994108,1149908186,1554,1554,1552,1555,0,0,0,0,0,0,0,0,0,0
1684047112.38073421,1150008979,1551,1551,1548,1549,0,0,0,0,0,0,0,0,0,0
1684047112.48069406,1150108939,1547,1547,1543,1543,0,0,0,0,0,0,0,0,0,0
1684047112.58065414,1150208899,1541,1542,1537,1536,0,0,0,0,0,0,0,0,0,0
1684047112.68061423,1150308859,1536,1535,1530,1529,0,0,0,0,0,0,0,0,0,0
1684047112.78057408,1150408819,1529,1529,1523,1523,0,0,0,0,0,0,0,0,0,0
1684047112.88053417,1150508779,1524,1524,1519,1518,0,0,0,0,0,0,0,0,0,0
1684047112.98049402,1150608739,1522,1522,1519,1519,0,0,0,0,0,0,0,0,0,0
1684047113.08045411,1150708699,1520,1520,1520,1520,0,0,0,0,0,0,0,0,0,0
1684047113.18041420,1150808659,1521,1520,1523,1524,0,0,0,0,0,0,0,0,0,0
1684047113.28037405,1150908619,1521,1521,1527,1528,0,0,0,0,0,0,0,0,0,0
1684047113.38033414,1151008579,1525,1525,1532,1533,0,0,0,0,0,0,0,0,0,0
1684047113.48029423,1151108539,1529,1528,1538,1538,0,0,0,0,0,0,0,0,0,0
1684047113.58025408,1151208499,1533,1532,1542,1543,0,0,0,0,0,0,0,0,0,0
1684047113.68021417,1151308459,1535,1535,1544,1544,0,0,0,0,0,0,0,0,0,0
1684047113.78017402,1151408419,1538,1538,1545,1545,0,0,0,0,0,0,0,0,0,0
1684047113.88013411,1151508379,1542,1541,1547,1546,0,0,0,0,0,0,0,0,0,0
1684047113.98009419,1151608339,1544,1544,1546,1546,0,0,0,0,0,0,0,0,0,0
1684047114.08005404,1151708299,1546,1547,1547,1546,0,0,0,0,0,0,0,0,0,0
1684047114.18001413,1151808259,1548,1548,1545,1546,0,0,0,0,0,0,0,0,0,0
1684047114.27997422,1151908219,1549,1550,1546,1545,0,0,0,0,0,0,0,0,0,0
1684047114.37993407,1152008179,1550,1550,1544,1545,0,0,0,0,0,0,0,0,0,0
1684047114.48072720,1152108972,1550,1551,1545,1544,0,0,0,0,0,0,0,0,0,0
1684047114.58068705,1152208932,1551,1550,1544,1545,0,0,0,0,0,0,0,0,0,0
1684047114.68064713,1152308892,1550,1550,1544,1544,0,0,0,0,0,0,0,0,0,0
1684047114.78060722,1152408852,1549,1549,1544,1544,0,0,0,0,0,0,0,0,0,0
1684047114.88056707,1152508812,1549,1549,1546,1545,0,0,0,0,0,0,0,0,0,0
1684047114.98052716,1152608772,1548,1547,1545,1545,0,0,0,0,0,0,0,0,0,0
1684047115.08048701,1152708732,1547,1547,1546,1545,0,0,0,0,0,0,0,0,0,0
1684047115.18044710,1152808692,1546,1546,1547,1547,0,0,0,0,0,0,0,0,0,0
1684047115.28040719,1152908652,1545,1546,1547,1546,0,0,0,0,0,0,0,0,0,0
1684047115.38036704,1153008612,1545,1545,1547,1548,0,0,0,0,0,0,0,0,0,0
1684047115.48032713,1153108572,1544,1545,1547,1546,0,0,0,0,0,0,0,0,0,0
1684047115.58028722,1153208532,1545,1544,1547,1547,0,0,0,0,0,0,0,0,0,0
1684047115.68024707,1153308492,1544,1544,1546,1546,0,0,0,0,0,0,0,0,0,0
1684047115.78020716,1153408452,1544,1544,1546,1546,0,0,0,0,0,0,0,0,0,0
1684047115.88016701,1153508412,1544,1544,1546,1545,0,0,0,0,0,0,0,0,0,0
1684047115.98012710,1153608372,1544,1544,1545,1545,0,0,0,0,0,0,0,0,0,0
1684047116.08008718,1153708332,1544,1544,1545,1544,0,0,0,0,0,0,0,0,0,0
1684047116.18004704,1153808292,1545,1544,1544,1545,0,0,0,0,0,0,0,0,0,0
1684047116.28000712,1153908252,1544,1545,1544,1544,0,0,0,0,0,0,0,0,0,0
1684047116.37996721,1154008212,1545,1544,1544,1544,0,0,0,0,0,0,0,0,0,0
1684047116.47992706,1154108172,1544,1545,1544,1544,0,0,0,0,0,0,0,0,0,0
1684047116.58072019,1154208965,1545,1545,1544,1544,0,0,0,0,0,0,0,0,0,0
1684047116.68068004,1154308925,1544,1545,1543,1543,0,0,0,0,0,0,0,0,0,0
1684047116.78064013,1154408885,1545,1544,1543,1544,0,0,0,0,0,0,0,0,0,0
1684047116.88060021,1154508845,1544,1544,1544,1543,0,0,0,0,0,0,0,0,0,0
1684047116.98056006,1154608805,1544,1544,1543,1543,0,0,0,0,0,0,0,0,0,0
1684047117.08052015,1154708765,1544,1545,1545,1544,0,0,0,0,0,0,0,0,0,0
1684047117.18048024,1154808725,1544,1544,1544,1544,0,0,0,0,0,0,0,0,0,0
1684047117.28044009,1154908685,1544,1544,1545,1544,0,0,0,0,0,0,0,0,0,0
1684047117.38040018,1155008645,1544,1544,1544,1545,0,0,0,0,0,0,0,0,0,0
1684047117.48036003,1155108605,1544,1544,1544,1544,0,0,0,0,0,0,0,0,0,0
1684047117.58032012,1155208565,1544,1543,1544,1544,0,0,0,0,0,0,0,0,0,0
1684047117.68028021,1155308525,1544,1544,1544,1544,0,0,0,0,0,0,0,0,0,0
1684047117.78024006,1155408485,1544,1543,1543,1544,0,0,0,0,0,0,0,0,0,0
1684047117.88020015,1155508445,1543,1544,1544,1544,0,0,0,0,0,0,0,0,0,0
1684047117.98016024,1155608405,1544,1544,1544,1545,0,0,0,0,0,0,0,0,0,0
1684047118.08012009,1155708365,1544,1544,1544,1544,0,0,0,0,0,0,0,0,0,0
1684047118.18008018,1155808325,1545,1544,1544,1545,0,0,0,0,0,0,0,0,0,0
1684047118.28004003,1155908285,1544,1545,1545,1544,0,0,0,0,0,0,0,0,0,0
1684047118.38000011,1156008245,1545,1544,1544,1544,0,0,0,0,0,0,0,0,0,0
1684047118.47996020,1156108205,1544,1545,1545,1544,0,0,0,0,0,0,0,0,0,0
1684047118.57992005,1156208165,1545,1545,1544,1544,0,0,0,0,0,0,0,0,0,0
1684047118.68071318,1156308958,1544,1545,1544,1544,0,0,0,0,0,0,0,0,0,0
1684047118.78067303,1156408918,1545,1544,1544,1544,0,0,0,0,0,0,0,0,0,0
1684047118.88063312,1156508878,1544,1544,1544,1543,0,0,0,0,0,0,0,0,0,0
1684047118.98059320,1156608838,1544,1544,1543,1544,0,0,0,0,0,0,0,0,0,0
1684047119.08055305,1156708798,1544,1544,1544,1543,0,0,0,0,0,0,0,0,0,0
1684047119.18051314,1156808758,1544,1545,1544,1544,0,0,0,0,0,0,0,0,0,0
1684047119.28047323,1156908718,1544,1544,1544,1544,0,0,0,0,0,0,0,0,0,0
1684047119.38043308,1157008678,1544,1544,1544,1544,0,0,0,0,0,0,0,0,0,0
1684047119.48039317,1157108638,1544,1544,1544,1544,0,0,0,0,0,0,0,0,0,0
1684047119.58035302,1157208598,1544,1543,1543,1544,0,0,0,0,0,0,0,0,0,0
1684047119.68031311,1157308558,1543,1544,1544,1543,0,0,0,0,0,0,0,0,0,0
1684047119.78027320,1157408518,1544,1544,1544,1544,0,0,0,0,0,0,0,0,0,0
1684047119.88023305,1157508478,1544,1544,1545,1544,0,0,0,0,0,0,0,0,0,0
1684047119.98019314,1157608438,1544,1544,1544,1544,0,0,0,0,0,0,0,0,0,0
1684047120.08015323,1157708398,1544,1544,1545,1544,0,0,0,0,0,0,0,0,0,0
1684047120.18011308,1157808358,1544,1544,1544,1544,0,0,0,0,0,0,0,0,0,0
1684047120.28007317,1157908318,1544,1545,1545,1545,0,0,0,0,0,0,0,0,0,0
1684047120.38003302,1158008278,1544,1544,1544,1544,0,0,0,0,0,0,0,0,0,0
1684047120.47999310,1158108238,1544,1545,1545,1545,0,0,0,0,0,0,0,0,0,0
1684047120.57995319,1158208198,1544,1543,1543,1543,0,0,0,0,0,0,0,0,0,0
1684047120.67991304,1158308158,1545,1545,1545,1545,0,0,0,0,0,0,0,0,0,0
1684047120.78070617,1158408951,1544,1544,1544,1544,0,0,0,0,0,0,0,0,0,0
1684047120.88066602,1158508911,1544,1544,1545,1544,0,0,0,0,0,0,0,0,0,0
1684047120.98062611,1158608871,1544,1544,1544,1544,0,0,0,0,0,0,0,0,0,0
1684047121.08058619,1158708831,1544,1544,1544,1544,0,0,0,0,0,0,0,0,0,0
1684047121.18054605,1158808791,1545,1545,1544,1545,0,0,0,0,0,0,0,0,0,0
1684047121.28050613,1158908751,1545,1545,1545,1544,0,0,0,0,0,0,0,0,0,0
1684047121.38046622,1159008711,1545,1544,1544,1545,0,0,0,0,0,0,0,0,0,0
1684047121.48042607,1159108671,1545,1545,1545,1544,0,0,0,0,0,0,0,0,0,0
1684047121.58038616,1159208631,1544,1544,1544,1545,0,0,0,0,0,0,0,0,0,0
1684047121.68034601,1159308591,1545,1545,1545,1545,0,0,0,0,0,0,0,0,0,0
1684047121.78030610,1159408551,1545,1544,1544,1545,0,0,0,0,0,0,0,0,0,0
1684047121.88026619,1159508511,1544,1544,1544,1544,0,0,0,0,0,0,0,0,0,0
1684047121.98022604,1159608471,1544,1544,1543,1544,0,0,0,0,0,0,0,0,0,0
1684047122.08018613,1159708431,1544,1544,1544,1544,0,0,0,0,0,0,0,0,0,0
1684047122.18014622,1159808391,1544,1544,1545,1544,0,0,0,0,0,0,0,0,0,0
1684047122.28010607,1159908351,1544,1544,1544,1544,0,0,0,0,0,0,0,0,0,0
1684047122.38006616,1160008311,1544,1544,1544,1544,0,0,0,0,0,0,0,0,0,0
1684047122.48002601,1160108271,1494,1493,1468,1467,0,0,0,0,0,0,0,0,0,0
1684047122.57998610,1160208231,1394,1392,1303,1299,0,0,0,0,0,0,0,0,0,0
1684047122.67994618,1160308191,1357,1355,1232,1226,0,0,0,0,0,0,0,0,0,0
1684047122.78073907,1160408984,1347,1344,1209,1206,0,0,0,0,0,0,0,0,0,0
1684047122.88069916,1160508944,1332,1330,1179,1175,0,0,0,0,0,0,0,0,0,0
1684047122.98065901,1160608904,1321,1318,1153,1150,0,0,0,0,0,0,0,0,0,0
1684047123.08061910,1160708864,1217,1214,1156,1150,0,0,0,0,0,0,0,0,0,0
1684047123.18057919,1160808824,1123,1118,1155,1150,0,0,0,0,0,0,0,0,0,0
1684047123.28053904,1160908784,1018,1013,1156,1150,0,0,0,0,0,0,0,0,0,0
1684047123.38049912,1161008744,964,959,1153,1150,0,0,0,0,0,0,0,0,0,0
1684047123.48045921,1161108704,964,959,1154,1150,0,0,0,0,0,0,0,0,0,0
1684047123.58041906,1161208664,964,959,1153,1150,0,0,0,0,0,0,0,0,0,0
1684047123.68037915,1161308624,929,962,1196,1150,0,0,0,0,0,0,0,0,0,0
1684047123.78033924,1161408584,941,960,1183,1150,0,0,0,0,0,0,0,0,0,0
1684047123.88029909,1161508544,947,959,1176,1150,0,0,0,0,0,0,0,0,0,0
1684047123.98025918,1161608504,948,959,1175,1150,0,0,0,0,0,0,0,0,0,0
1684047124.08021903,1161708464,948,959,1176,1150,0,0,0,0,0,0,0,0,0,0
1684047124.18017912,1161808424,947,959,1176,1150,0,0,0,0,0,0,0,0,0,0
1684047124.28013921,1161908384,947,959,1177,1150,0,0,0,0,0,0,0,0,0,0
1684047124.38009906,1162008344,946,959,1178,1150,0,0,0,0,0,0,0,0,0,0
1684047124.48005915,1162108304,962,962,1152,1150,0,0,0,0,0,0,0,0,0,0
1684047124.58001924,1162208264,960,962,1155,1150,0,0,0,0,0,0,0,0,0,0
1684047124.67997909,1162308224,959,962,1156,1150,0,0,0,0,0,0,0,0,0,0
1684047124.77993917,1162408184,959,962,1157,1150,0,0,0,0,0,0,0,0,0,0
1684047124.88073206,1162508977,944,948,1157,1150,0,0,0,0,0,0,0,0,0,0
1684047124.98069215,1162608937,1000,1000,1000,1000,0,0,0,0,0,0,0,0,0,0
1684047125.08065224,1162708897,1000,1000,1000,1000,0,0,0,0,0,0,0,0,0,0
1684047125.18061209,1162808857,1000,1000,1000,1000,0,0,0,0,0,0,0,0,0,0
1684047125.28057218,1162908817,1000,1000,1000,1000,0,0,0,0,0,0,0,0,0,0
1684047125.38053203,1163008777,1000,1000,1000,1000,0,0,0,0,0,0,0,0,0,0
1684047125.48049212,1163108737,1000,1000,1000,1000,0,0,0,0,0,0,0,0,0,0
1684047125.58045220,1163208697,1000,1000,1000,1000,0,0,0,0,0,0,0,0,0,0
1684047125.68041205,1163308657,1000,1000,1000,1000,0,0,0,0,0,0,0,0,0,0
1684047125.78037214,1163408617,1000,1000,1000,1000,0,0,0,0,0,0,0,0,0,0
1684047125.88033223,1163508577,1000,1000,1000,1000,0,0,0,0,0,0,0,0,0,0
1684047125.98029208,1163608537,1000,1000,1000,1000,0,0,0,0,0,0,0,0,0,0
1684047126.08025217,1163708497,1000,1000,1000,1000,0,0,0,0,0,0,0,0,0,0
1684047126.18021202,1163808457,1000,1000,1000,1000,0,0,0,0,0,0,0,0,0,0
1684047126.28017211,1163908417,1000,1000,1000,1000,0,0,0,0,0,0,0,0,0,0
1684047126.38013220,1164008377,1000,1000,1000,1000,0,0,0,0,0,0,0,0,0,0
1684047126.48009205,1164108337,1000,1000,1000,1000,0,0,0,0,0,0,0,0,0,0
1684047126.58005214,1164208297,1000,1000,1000,1000,0,0,0,0,0,0,0,0,0,0
1684047126.68001223,1164308257,1000,1000,1000,1000,0,0,0,0,0,0,0,0,0,0
1684047126.77997208,1164408217,1000,1000,1000,1000,0,0,0,0,0,0,0,0,0,0
1684047126.87993217,1164508177,1000,1000,1000,1000,0,0,0,0,0,0,0,0,0,0
1684047126.98072505,1164608970,1000,1000,1000,1000,0,0,0,0,0,0,0,0,0,0
1684047127.08068514,1164708930,1000,1000,1000,1000,0,0,0,0,0,0,0,0,0,0
1684047127.18064523,1164808890,1000,1000,1000,1000,0,0,0,0,0,0,0,0,0,0
1684047127.28060508,1164908850,1000,1000,1000,1000,0,0,0,0,0,0,0,0,0,0
1684047127.38056517,1165008810,1000,1000,1000,1000,0,0,0,0,0,0,0,0,0,0
1684047127.48052502,1165108770,1000,1000,1000,1000,0,0,0,0,0,0,0,0,0,0
1684047127.58048511,1165208730,1000,1000,1000,1000,0,0,0,0,0,0,0,0,0,0
1684047127.68044519,1165308690,1000,1000,1000,1000,0,0,0,0,0,0,0,0,0,0
1684047127.78040504,1165408650,1000,1000,1000,1000,0,0,0,0,0,0,0,0,0,0
1684047127.88036513,1165508610,1000,1000,1000,1000,0,0,0,0,0,0,0,0,0,0
1684047127.98032522,1165608570,1000,1000,1000,1000,0,0,0,0,0,0,0,0,0,0
1684047128.08028507,1165708530,1000,1000,1000,1000,0,0,0,0,0,0,0,0,0,0
1684047128.18024516,1165808490,1000,1000,1000,1000,0,0,0,0,0,0,0,0,0,0
1684047128.28020501,1165908450,1000,1000,1000,1000,0,0,0,0,0,0,0,0,0,0
1684047128.38016510,1166008410,1000,1000,1000,1000,0,0,0,0,0,0,0,0,0,0
1684047128.48012519,1166108370,1000,1000,1000,1000,0,0,0,0,0,0,0,0,0,0
1684047128.58008504,1166208330,1000,1000,1000,1000,0,0,0,0,0,0,0,0,0,0
1684047128.68004513,1166308290,1000,1000,1000,1000,0,0,0,0,0,0,0,0,0,0
1684047128.78000522,1166408250,1000,1000,1000,1000,0,0,0,0,0,0,0,0,0,0
1684047128.87996507,1166508210,1000,1000,1000,1000,0,0,0,0,0,0,0,0,0,0
1684047128.97992516,1166608170,1000,1000,1000,1000,0,0,0,0,0,0,0,0,0,0
1684047129.08071804,1166708963,1000,1000,1000,1000,0,0,0,0,0,0,0,0,0,0
1684047129.18067813,1166808923,1000,1000,1000,1000,0,0,0,0,0,0,0,0,0,0
1684047129.28063822,1166908883,1000,1000,1000,1000,0,0,0,0,0,0,0,0,0,0
1684047129.38059807,1167008843,1000,1000,1000,1000,0,0,0,0,0,0,0,0,0,0
1684047129.48055816,1167108803,1000,1000,1000,1000,0,0,0,0,0,0,0,0,0,0
1684047129.58051801,1167208763,1000,1000,1000,1000,0,0,0,0,0,0,0,0,0,0
1684047129.68047810,1167308723,1000,1000,1000,1000,0,0,0,0,0,0,0,0,0,0
1684047129.78043818,1167408683,1000,1000,1000,1000,0,0,0,0,0,0,0,0,0,0
1684047129.88039804,1167508643,1000,1000,1000,1000,0,0,0,0,0,0,0,0,0,0
1684047129.98035812,1167608603,1000,1000,1000,1000,0,0,0,0,0,0,0,0,0,0
1684047130.08031821,1167708563,1000,1000,1000,1000,0,0,0,0,0,0,0,0,0,0
1684047130.18027806,1167808523,1000,1000,1000,1000,0,0,0,0,0,0,0,0,0,0
1684047130.28023815,1167908483,1000,1000,1000,1000,0,0,0,0,0,0,0,0,0,0
1684047130.38019824,1168008443,1000,1000,1000,1000,0,0,0,0,0,0,0,0,0,0
1684047130.48015809,1168108403,1000,1000,1000,1000,0,0,0,0,0,0,0,0,0,0
1684047130.58011818,1168208363,1000,1000,1000,1000,0,0,0,0,0,0,0,0,0,0
1684047130.68007803,1168308323,1000,1000,1000,1000,0,0,0,0,0,0,0,0,0,0
1684047130.78003812,1168408283,1000,1000,1000,1000,0,0,0,0,0,0,0,0,0,0
1684047130.87999821,1168508243,1000,1000,1000,1000,0,0,0,0,0,0,0,0,0,0
1684047130.97995806,1168608203,1000,1000,1000,1000,0,0,0,0,0,0,0,0,0,0
1684047131.07991815,1168708163,1000,1000,1000,1000,0,0,0,0,0,0,0,0,0,0
1684047131.18071103,1168808956,1000,1000,1000,1000,0,0,0,0,0,0,0,0,0,0
1684047131.28067112,1168908916,1000,1000,1000,1000,0,0,0,0,0,0,0,0,0,0
1684047131.38063121,1169008876,1000,1000,1000,1000,0,0,0,0,0,0,0,0,0,0
1684047131.48059106,1169108836,1000,1000,1000,1000,0,0,0,0,0,0,0,0,0,0
1684047131.58055115,1169208796,1000,1000,1000,1000,0,0,0,0,0,0,0,0,0,0
1684047131.68051124,1169308756,1000,1000,1000,1000,0,0,0,0,0,0,0,0,0,0
1684047131.78047109,1169408716,1000,1000,1000,1000,0,0,0,0,0,0,0,0,0,0
1684047131.88043118,1169508676,1000,1000,1000,1000,0,0,0,0,0,0,0,0,0,0
1684047131.98039103,1169608636,1000,1000,1000,1000,0,0,0,0,0,0,0,0,0,0
1684047132.08035111,1169708596,1000,1000,1000,1000,0,0,0,0,0,0,0,0,0,0
1684047132.18031120,1169808556,1000,1000,1000,1000,0,0,0,0,0,0,0,0,0,0
1684047132.28027105,1169908516,1000,1000,1000,1000,0,0,0,0,0,0,0,0,0,0
1684047132.38023114,1170008476,1000,1000,1000,1000,0,0,0,0,0,0,0,0,0,0
1684047132.48019123,1170108436,1000,1000,1000,1000,0,0,0,0,0,0,0,0,0,0
1684047132.58015108,1170208396,1000,1000,1000,1000,0,0,0,0,0,0,0,0,0,0
1684047132.68011117,1170308356,1000,1000,1000,1000,0,0,0,0,0,0,0,0,0,0
1684047132.78007102,1170408316,1000,1000,1000,1000,0,0,0,0,0,0,0,0,0,0
1684047132.88003111,1170508276,1000,1000,1000,1000,0,0,0,0,0,0,0,0,0,0
1684047132.97999120,1170608236,1000,1000,1000,1000,0,0,0,0,0,0,0,0,0,0
1684047133.07995105,1170708196,1000,1000,1000,1000,0,0,0,0,0,0,0,0,0,0
1684047133.17991114,1170808156,1000,1000,1000,1000,0,0,0,0,0,0,0,0,0,0
1684047133.28070402,1170908949,1000,1000,1000,1000,0,0,0,0,0,0,0,0,0,0
1684047133.38066411,1171008909,1000,1000,1000,1000,0,0,0,0,0,0,0,0,0,0
1684047133.48062420,1171108869,1000,1000,1000,1000,0,0,0,0,0,0,0,0,0,0
1684047133.58058405,1171208829,1000,1000,1000,1000,0,0,0,0,0,0,0,0,0,0
1684047133.68054414,1171308789,1000,1000,1000,1000,0,0,0,0,0,0,0,0,0,0
1684047133.78050423,1171408749,1000,1000,1000,1000,0,0,0,0,0,0,0,0,0,0
1684047133.88046408,1171508709,1000,1000,1000,1000,0,0,0,0,0,0,0,0,0,0
1684047133.98042417,1171608669,1000,1000,1000,1000,0,0,0,0,0,0,0,0,0,0
1684047134.08038402,1171708629,1000,1000,1000,1000,0,0,0,0,0,0,0,0,0,0
1684047134.18034410,1171808589,1000,1000,1000,1000,0,0,0,0,0,0,0,0,0,0
1684047134.28030419,1171908549,1000,1000,1000,1000,0,0,0,0,0,0,0,0,0,0
1684047134.38026404,1172008509,1000,1000,1000,1000,0,0,0,0,0,0,0,0,0,0
1684047134.48022413,1172108469,1000,1000,1000,1000,0,0,0,0,0,0,0,0,0,0
1684047134.58018422,1172208429,1000,1000,1000,1000,0,0,0,0,0,0,0,0,0,0
1684047134.68014407,1172308389,1000,1000,1000,1000,0,0,0,0,0,0,0,0,0,0
1684047134.78010416,1172408349,1000,1000,1000,1000,0,0,0,0,0,0,0,0,0,0
1684047134.88006401,1172508309,1000,1000,1000,1000,0,0,0,0,0,0,0,0,0,0
1684047134.98002410,1172608269,1000,1000,1000,1000,0,0,0,0,0,0,0,0,0,0
1684047135.07998419,1172708229,1000,1000,1000,1000,0,0,0,0,0,0,0,0,0,0
1684047135.17994404,1172808189,1000,1000,1000,1000,0,0,0,0,0,0,0,0,0,0
1684047135.28073716,1172908982,1000,1000,1000,1000,0,0,0,0,0,0,0,0,0,0
1684047135.38069701,1173008942,1000,1000,1000,1000,0,0,0,0,0,0,0,0,0,0
1684047135.48065710,1173108902,1000,1000,1000,1000,0,0,0,0,0,0,0,0,0,0
1684047135.58061719,1173208862,1000,1000,1000,1000,0,0,0,0,0,0,0,0,0,0
1684047135.68057704,1173308822,1000,1000,1000,1000,0,0,0,0,0,0,0,0,0,0
1684047135.78053713,1173408782,1000,1000,1000,1000,0,0,0,0,0,0,0,0,0,0
1684047135.88049722,1173508742,1000,1000,1000,1000,0,0,0,0,0,0,0,0,0,0
1684047135.98045707,1173608702,1000,1000,1000,1000,0,0,0,0,0,0,0,0,0,0
1684047136.08041716,1173708662,1000,1000,1000,1000,0,0,0,0,0,0,0,0,0,0
1684047136.18037701,1173808622,1000,1000,1000,1000,0,0,0,0,0,0,0,0,0,0
1684047136.28033710,1173908582,1000,1000,1000,1000,0,0,0,0,0,0,0,0,0,0
1684047136.38029718,1174008542,1000,1000,1000,1000,0,0,0,0,0,0,0,0,0,0
1684047136.48025703,1174108502,1000,1000,1000,1000,0,0,0,0,0,0,0,0,0,0
1684047136.58021712,1174208462,1000,1000,1000,1000,0,0,0,0,0,0,0,0,0,0
1684047136.68017721,1174308422,1000,1000,1000,1000,0,0,0,0,0,0,0,0,0,0
1684047136.78013706,1174408382,1000,1000,1000,1000,0,0,0,0,0,0,0,0,0,0
1684047136.88009715,1174508342,1000,1000,1000,1000,0,0,0,0,0,0,0,0,0,0
1684047136.98005724,1174608302,1000,1000,1000,1000,0,0,0,0,0,0,0,0,0,0
1684047137.08001709,1174708262,1000,1000,1000,1000,0,0,0,0,0,0,0,0,0,0
1684047137.17997718,1174808222,1000,1000,1000,1000,0,0,0,0,0,0,0,0,0,0
1684047137.27993703,1174908182,1000,1000,1000,1000,0,0,0,0,0,0,0,0,0,0
1684047137.38073015,1175008975,1000,1000,1000,1000,0,0,0,0,0,0,0,0,0,0
1684047137.48069024,1175108935,1000,1000,1000,1000,0,0,0,0,0,0,0,0,0,0
1684047137.58065009,1175208895,1000,1000,1000,1000,0,0,0,0,0,0,0,0,0,0
1684047137.68061018,1175308855,1000,1000,1000,1000,0,0,0,0,0,0,0,0,0,0
1684047137.78057003,1175408815,1000,1000,1000,1000,0,0,0,0,0,0,0,0,0,0
1684047137.88053012,1175508775,1000,1000,1000,1000,0,0,0,0,0,0,0,0,0,0
1684047137.98049021,1175608735,1000,1000,1000,1000,0,0,0,0,0,0,0,0,0,0
1684047138.08045006,1175708695,1000,1000,1000,1000,0,0,0,0,0,0,0,0,0,0
1684047138.18041015,1175808655,1000,1000,1000,1000,0,0,0,0,0,0,0,0,0,0
1684047138.28037024,1175908615,1000,1000,1000,1000,0,0,0,0,0,0,0,0,0,0
1684047138.38033009,1176008575,1000,1000,1000,1000,0,0,0,0,0,0,0,0,0,0
1684047138.48029017,1176108535,1000,1000,1000,1000,0,0,0,0,0,0,0,0,0,0
1684047138.58025002,1176208495,1000,1000,1000,1000,0,0,0,0,0,0,0,0,0,0
1684047138.68021011,1176308455,1000,1000,1000,1000,0,0,0,0,0,0,0,0,0,0
1684047138.78017020,1176408415,1000,1000,1000,1000,0,0,0,0,0,0,0,0,0,0
1684047138.88013005,1176508375,1000,1000,1000,1000,0,0,0,0,0,0,0,0,0,0
1684047138.98009014,1176608335,1000,1000,1000,1000,0,0,0,0,0,0,0,0,0,0
1684047139.08005023,1176708295,1000,1000,1000,1000,0,0,0,0,0,0,0,0,0,0
1684047139.18001008,1176808255,1000,1000,1000,1000,0,0,0,0,0,0,0,0,0,0
1684047139.27997017,1176908215,1000,1000,1000,1000,0,0,0,0,0,0,0,0,0,0
1684047139.37993002,1177008175,1000,1000,1000,1000,0,0,0,0,0,0,0,0,0,0
1684047139.48072314,1177108968,1000,1000,1000,1000,0,0,0,0,0,0,0,0,0,0
1684047139.58068323,1177208928,1000,1000,1000,1000,0,0,0,0,0,0,0,0,0,0
1684047139.68064308,1177308888,1000,1000,1000,1000,0,0,0,0,0,0,0,0,0,0
1684047139.78060317,1177408848,1000,1000,1000,1000,0,0,0,0,0,0,0,0,0,0
1684047139.88056302,1177508808,1000,1000,1000,1000,0,0,0,0,0,0,0,0,0,0
