timestamp,TimeUS,C1,C2,C3,C4,C5,C6,C7,C8,C9,C10,C11,C12,C13,C14
1683171365.20000005,43428455,1000,1000,1000,1000,0,0,0,0,0,0,0,0,0,0
1683171365.29995990,43528415,1000,1000,1000,1000,0,0,0,0,0,0,0,0,0,0
1683171365.39991999,43628375,1000,1000,1000,1000,0,0,0,0,0,0,0,0,0,0
1683171365.49987984,43728335,1000,1000,1000,1000,0,0,0,0,0,0,0,0,0,0
1683171365.59983993,43828295,1000,1000,1000,1000,0,0,0,0,0,0,0,0,0,0
1683171365.69980001,43928255,1000,1000,1000,1000,0,0,0,0,0,0,0,0,0,0
1683171365.79975986,44028215,1000,1000,1000,1000,0,0,0,0,0,0,0,0,0,0
1683171365.89971995,44128175,1000,1000,1000,1000,0,0,0,0,0,0,0,0,0,0
1683171366.00051284,44228968,1000,1000,1000,1000,0,0,0,0,0,0,0,0,0,0
1683171366.10047293,44328928,1000,1000,1000,1000,0,0,0,0,0,0,0,0,0,0
1683171366.20043302,44428888,1000,1000,1000,1000,0,0,0,0,0,0,0,0,0,0
1683171366.30039287,44528848,1000,1000,1000,1000,0,0,0,0,0,0,0,0,0,0
1683171366.40035295,44628808,1000,1000,1000,1000,0,0,0,0,0,0,0,0,0,0
1683171366.50031304,44728768,1000,1000,1000,1000,0,0,0,0,0,0,0,0,0,0
1683171366.60027289,44828728,1000,1000,1000,1000,0,0,0,0,0,0,0,0,0,0
1683171366.70023298,44928688,1000,1000,1000,1000,0,0,0,0,0,0,0,0,0,0
1683171366.80019283,45028648,1000,1000,1000,1000,0,0,0,0,0,0,0,0,0,0
1683171366.90015292,45128608,1000,1000,1000,1000,0,0,0,0,0,0,0,0,0,0
1683171367.00011301,45228568,1000,1000,1000,1000,0,0,0,0,0,0,0,0,0,0
1683171367.10007286,45328528,1000,1000,1000,1000,0,0,0,0,0,0,0,0,0,0
1683171367.20003295,45428488,1023,1023,1023,1023,0,0,0,0,0,0,0,0,0,0
1683171367.29999304,45528448,1053,1053,1053,1053,0,0,0,0,0,0,0,0,0,0
1683171367.39995289,45628408,1083,1083,1083,1083,0,0,0,0,0,0,0,0,0,0
1683171367.49991298,45728368,1113,1113,1113,1113,0,0,0,0,0,0,0,0,0,0
1683171367.59987283,45828328,1143,1143,1143,1143,0,0,0,0,0,0,0,0,0,0
1683171367.69983292,45928288,1351,1346,1347,1351,0,0,0,0,0,0,0,0,0,0
1683171367.79979300,46028248,1542,1538,1538,1542,0,0,0,0,0,0,0,0,0,0
1683171367.89975286,46128208,1695,1691,1691,1695,0,0,0,0,0,0,0,0,0,0
1683171367.99971294,46228168,1826,1823,1823,1827,0,0,0,0,0,0,0,0,0,0
1683171368.10050583,46328961,1889,1886,1886,1890,0,0,0,0,0,0,0,0,0,0
1683171368.20046592,46428921,1838,1837,1837,1838,0,0,0,0,0,0,0,0,0,0
1683171368.30042601,46528881,1707,1708,1708,1707,0,0,0,0,0,0,0,0,0,0
1683171368.40038586,46628841,1633,1634,1634,1633,0,0,0,0,0,0,0,0,0,0
1683171368.50034595,46728801,1620,1622,1621,1621,0,0,0,0,0,0,0,0,0,0
1683171368.60030603,46828761,1629,1630,1630,1629,0,0,0,0,0,0,0,0,0,0
1683171368.70026588,46928721,1636,1636,1637,1635,0,0,0,0,0,0,0,0,0,0
1683171368.80022597,47028681,1631,1632,1632,1631,0,0,0,0,0,0,0,0,0,0
1683171368.90018582,47128641,1625,1624,1624,1624,0,0,0,0,0,0,0,0,0,0
1683171369.00014591,47228601,1619,1619,1618,1619,0,0,0,0,0,0,0,0,0,0
1683171369.10010600,47328561,1616,1614,1615,1616,0,0,0,0,0,0,0,0,0,0
1683171369.20006585,47428521,1614,1614,1613,1614,0,0,0,0,0,0,0,0,0,0
1683171369.30002594,47528481,1616,1615,1615,1616,0,0,0,0,0,0,0,0,0,0
1683171369.39998603,47628441,1616,1616,1616,1616,0,0,0,0,0,0,0,0,0,0
1683171369.49994588,47728401,1618,1618,1618,1618,0,0,0,0,0,0,0,0,0,0
1683171369.59990597,47828361,1619,1620,1619,1619,0,0,0,0,0,0,0,0,0,0
1683171369.69986582,47928321,1621,1621,1621,1621,0,0,0,0,0,0,0,0,0,0
1683171369.79982591,48028281,1622,1622,1622,1622,0,0,0,0,0,0,0,0,0,0
1683171369.89978600,48128241,1623,1623,1623,1623,0,0,0,0,0,0,0,0,0,0
1683171369.99974585,48228201,1598,1598,1599,1598,0,0,0,0,0,0,0,0,0,0
1683171370.09970593,48328161,1583,1583,1583,1583,0,0,0,0,0,0,0,0,0,0
1683171370.20049882,48428954,1572,1572,1572,1573,0,0,0,0,0,0,0,0,0,0
1683171370.30045891,48528914,1564,1563,1563,1564,0,0,0,0,0,0,0,0,0,0
1683171370.40041900,48628874,1556,1556,1556,1556,0,0,0,0,0,0,0,0,0,0
1683171370.50037885,48728834,1549,1549,1549,1549,0,0,0,0,0,0,0,0,0,0
1683171370.60033894,48828794,1542,1543,1542,1542,0,0,0,0,0,0,0,0,0,0
1683171370.70029902,48928754,1535,1536,1536,1536,0,0,0,0,0,0,0,0,0,0
1683171370.80025887,49028714,1527,1527,1527,1528,0,0,0,0,0,0,0,0,0,0
1683171370.90021896,49128674,1521,1521,1520,1522,0,0,0,0,0,0,0,0,0,0
1683171371.00017905,49228634,1517,1517,1516,1518,0,0,0,0,0,0,0,0,0,0
1683171371.10013890,49328594,1514,1514,1513,1515,0,0,0,0,0,0,0,0,0,0
1683171371.20009899,49428554,1511,1512,1511,1512,0,0,0,0,0,0,0,0,0,0
1683171371.30005884,49528514,1508,1509,1508,1508,0,0,0,0,0,0,0,0,0,0
1683171371.40001893,49628474,1505,1505,1505,1505,0,0,0,0,0,0,0,0,0,0
1683171371.49997902,49728434,1503,1503,1503,1503,0,0,0,0,0,0,0,0,0,0
1683171371.59993887,49828394,1500,1500,1500,1500,0,0,0,0,0,0,0,0,0,0
1683171371.69989896,49928354,1499,1498,1498,1499,0,0,0,0,0,0,0,0,0,0
1683171371.79985905,50028314,1496,1496,1496,1496,0,0,0,0,0,0,0,0,0,0
1683171371.89981890,50128274,1495,1495,1494,1495,0,0,0,0,0,0,0,0,0,0
1683171371.99977899,50228234,1493,1493,1493,1493,0,0,0,0,0,0,0,0,0,0
1683171372.09973884,50328194,1492,1493,1492,1493,0,0,0,0,0,0,0,0,0,0
1683171372.19969893,50428154,1492,1492,1492,1492,0,0,0,0,0,0,0,0,0,0
1683171372.30049205,50528947,1502,1502,1503,1501,0,0,0,0,0,0,0,0,0,0
1683171372.40045190,50628907,1542,1542,1547,1537,0,0,0,0,0,0,0,0,0,0
1683171372.50041199,50728867,1556,1556,1559,1553,0,0,0,0,0,0,0,0,0,0
1683171372.60037184,50828827,1565,1565,1564,1566,0,0,0,0,0,0,0,0,0,0
1683171372.70033193,50928787,1571,1571,1568,1575,0,0,0,0,0,0,0,0,0,0
1683171372.80029202,51028747,1575,1575,1571,1580,0,0,0,0,0,0,0,0,0,0
1683171372.90025187,51128707,1576,1576,1572,1580,0,0,0,0,0,0,0,0,0,0
1683171373.00021195,51228667,1576,1576,1574,1578,0,0,0,0,0,0,0,0,0,0
1683171373.10017204,51328627,1578,1577,1579,1576,0,0,0,0,0,0,0,0,0,0
1683171373.20013189,51428587,1579,1579,1582,1576,0,0,0,0,0,0,0,0,0,0
1683171373.30009198,51528547,1578,1579,1582,1575,0,0,0,0,0,0,0,0,0,0
1683171373.40005183,51628507,1578,1578,1580,1576,0,0,0,0,0,0,0,0,0,0
1683171373.50001192,51728467,1576,1576,1576,1576,0,0,0,0,0,0,0,0,0,0
1683171373.59997201,51828427,1574,1574,1572,1576,0,0,0,0,0,0,0,0,0,0
1683171373.69993186,51928387,1569,1568,1575,1579,0,0,0,0,0,0,0,0,0,0
1683171373.79989195,52028347,1567,1567,1576,1580,0,0,0,0,0,0,0,0,0,0
1683171373.89985204,52128307,1566,1567,1574,1576,0,0,0,0,0,0,0,0,0,0
1683171373.99981189,52228267,1567,1568,1572,1572,0,0,0,0,0,0,0,0,0,0
1683171374.09977198,52328227,1569,1569,1571,1570,0,0,0,0,0,0,0,0,0,0
1683171374.19973183,52428187,1570,1571,1569,1568,0,0,0,0,0,0,0,0,0,0
1683171374.30052495,52528980,1572,1573,1568,1568,0,0,0,0,0,0,0,0,0,0
1683171374.40048504,52628940,1573,1573,1567,1566,0,0,0,0,0,0,0,0,0,0
1683171374.50044489,52728900,1575,1574,1567,1568,0,0,0,0,0,0,0,0,0,0
1683171374.60040498,52828860,1574,1573,1567,1567,0,0,0,0,0,0,0,0,0,0
1683171374.70036483,52928820,1574,1573,1568,1568,0,0,0,0,0,0,0,0,0,0
1683171374.80032492,53028780,1574,1574,1570,1570,0,0,0,0,0,0,0,0,0,0
1683171374.90028501,53128740,1574,1574,1571,1572,0,0,0,0,0,0,0,0,0,0
1683171375.00024486,53228700,1574,1574,1574,1573,0,0,0,0,0,0,0,0,0,0
1683171375.10020494,53328660,1574,1574,1575,1574,0,0,0,0,0,0,0,0,0,0
1683171375.20016503,53428620,1574,1574,1577,1575,0,0,0,0,0,0,0,0,0,0
1683171375.30012488,53528580,1574,1574,1577,1576,0,0,0,0,0,0,0,0,0,0
1683171375.40008497,53628540,1575,1575,1578,1577,0,0,0,0,0,0,0,0,0,0
1683171375.50004482,53728500,1576,1576,1578,1578,0,0,0,0,0,0,0,0,0,0
1683171375.60000491,53828460,1576,1575,1577,1578,0,0,0,0,0,0,0,0,0,0
1683171375.69996500,53928420,1576,1576,1577,1577,0,0,0,0,0,0,0,0,0,0
1683171375.79992485,54028380,1576,1577,1577,1577,0,0,0,0,0,0,0,0,0,0
1683171375.89988494,54128340,1578,1578,1578,1579,0,0,0,0,0,0,0,0,0,0
1683171375.99984503,54228300,1578,1578,1578,1578,0,0,0,0,0,0,0,0,0,0
1683171376.09980488,54328260,1578,1578,1578,1578,0,0,0,0,0,0,0,0,0,0
1683171376.19976497,54428220,1578,1578,1577,1577,0,0,0,0,0,0,0,0,0,0
1683171376.29972482,54528180,1578,1577,1577,1576,0,0,0,0,0,0,0,0,0,0
1683171376.40051794,54628973,1579,1578,1578,1577,0,0,0,0,0,0,0,0,0,0
1683171376.50047803,54728933,1579,1578,1578,1577,0,0,0,0,0,0,0,0,0,0
1683171376.60043788,54828893,1578,1578,1578,1578,0,0,0,0,0,0,0,0,0,0
1683171376.70039797,54928853,1578,1578,1578,1578,0,0,0,0,0,0,0,0,0,0
1683171376.80035782,55028813,1577,1578,1578,1577,0,0,0,0,0,0,0,0,0,0
1683171376.90031791,55128773,1578,1578,1578,1578,0,0,0,0,0,0,0,0,0,0
1683171377.00027800,55228733,1578,1579,1579,1579,0,0,0,0,0,0,0,0,0,0
1683171377.10023785,55328693,1578,1578,1578,1578,0,0,0,0,0,0,0,0,0,0
1683171377.20019794,55428653,1579,1578,1579,1579,0,0,0,0,0,0,0,0,0,0
1683171377.30015802,55528613,1579,1579,1579,1579,0,0,0,0,0,0,0,0,0,0
1683171377.40011787,55628573,1579,1578,1579,1579,0,0,0,0,0,0,0,0,0,0
1683171377.50007796,55728533,1579,1579,1579,1579,0,0,0,0,0,0,0,0,0,0
1683171377.60003805,55828493,1578,1579,1579,1578,0,0,0,0,0,0,0,0,0,0
1683171377.69999790,55928453,1579,1579,1579,1579,0,0,0,0,0,0,0,0,0,0
1683171377.79995799,56028413,1580,1579,1579,1580,0,0,0,0,0,0,0,0,0,0
1683171377.89991784,56128373,1580,1580,1580,1580,0,0,0,0,0,0,0,0,0,0
1683171377.99987793,56228333,1580,1581,1581,1580,0,0,0,0,0,0,0,0,0,0
1683171378.09983802,56328293,1581,1581,1581,1581,0,0,0,0,0,0,0,0,0,0
1683171378.19979787,56428253,1581,1580,1581,1580,0,0,0,0,0,0,0,0,0,0
1683171378.29975796,56528213,1581,1581,1581,1581,0,0,0,0,0,0,0,0,0,0
1683171378.39971805,56628173,1581,1581,1581,1581,0,0,0,0,0,0,0,0,0,0
1683171378.50051093,56728966,1581,1581,1581,1581,0,0,0,0,0,0,0,0,0,0
1683171378.60047102,56828926,1580,1581,1580,1581,0,0,0,0,0,0,0,0,0,0
1683171378.70043087,56928886,1580,1580,1580,1580,0,0,0,0,0,0,0,0,0,0
1683171378.80039096,57028846,1579,1579,1579,1579,0,0,0,0,0,0,0,0,0,0
1683171378.90035105,57128806,1579,1579,1579,1579,0,0,0,0,0,0,0,0,0,0
1683171379.00031090,57228766,1579,1579,1579,1579,0,0,0,0,0,0,0,0,0,0
1683171379.10027099,57328726,1581,1580,1580,1581,0,0,0,0,0,0,0,0,0,0
1683171379.20023084,57428686,1581,1581,1581,1581,0,0,0,0,0,0,0,0,0,0
1683171379.30019093,57528646,1582,1582,1582,1582,0,0,0,0,0,0,0,0,0,0
1683171379.40015101,57628606,1581,1581,1581,1581,0,0,0,0,0,0,0,0,0,0
1683171379.50011086,57728566,1580,1580,1581,1580,0,0,0,0,0,0,0,0,0,0
1683171379.60007095,57828526,1582,1582,1582,1582,0,0,0,0,0,0,0,0,0,0
1683171379.70003104,57928486,1582,1582,1582,1582,0,0,0,0,0,0,0,0,0,0
1683171379.79999089,58028446,1582,1582,1582,1582,0,0,0,0,0,0,0,0,0,0
1683171379.89995098,58128406,1581,1581,1583,1580,0,0,0,0,0,0,0,0,0,0
1683171379.99991083,58228366,1581,1582,1588,1574,0,0,0,0,0,0,0,0,0,0
1683171380.09987092,58328326,1580,1582,1583,1574,0,0,0,0,0,0,0,0,0,0
1683171380.19983101,58428286,1578,1582,1575,1574,0,0,0,0,0,0,0,0,0,0
1683171380.29979086,58528246,1577,1579,1566,1571,0,0,0,0,0,0,0,0,0,0
1683171380.39975095,58628206,1577,1579,1560,1567,0,0,0,0,0,0,0,0,0,0
1683171380.49971104,58728166,1578,1578,1556,1562,0,0,0,0,0,0,0,0,0,0
1683171380.60050392,58828959,1579,1577,1555,1558,0,0,0,0,0,0,0,0,0,0
1683171380.70046401,58928919,1579,1577,1556,1555,0,0,0,0,0,0,0,0,0,0
1683171380.80042386,59028879,1579,1578,1557,1555,0,0,0,0,0,0,0,0,0,0
1683171380.90038395,59128839,1577,1577,1556,1553,0,0,0,0,0,0,0,0,0,0
1683171381.00034404,59228799,1576,1577,1556,1554,0,0,0,0,0,0,0,0,0,0
1683171381.10030389,59328759,1576,1577,1555,1555,0,0,0,0,0,0,0,0,0,0
1683171381.20026398,59428719,1574,1576,1554,1553,0,0,0,0,0,0,0,0,0,0
1683171381.30022383,59528679,1574,1575,1552,1553,0,0,0,0,0,0,0,0,0,0
1683171381.40018392,59628639,1575,1576,1551,1551,0,0,0,0,0,0,0,0,0,0
1683171381.50014400,59728599,1575,1577,1548,1549,0,0,0,0,0,0,0,0,0,0
1683171381.60010386,59828559,1578,1579,1547,1547,0,0,0,0,0,0,0,0,0,0
1683171381.70006394,59928519,1581,1582,1545,1544,0,0,0,0,0,0,0,0,0,0
1683171381.80002403,60028479,1583,1584,1542,1541,0,0,0,0,0,0,0,0,0,0
1683171381.89998388,60128439,1588,1588,1540,1539,0,0,0,0,0,0,0,0,0,0
1683171381.99994397,60228399,1590,1591,1537,1537,0,0,0,0,0,0,0,0,0,0
1683171382.09990382,60328359,1592,1593,1534,1535,0,0,0,0,0,0,0,0,0,0
1683171382.19986391,60428319,1596,1596,1536,1536,0,0,0,0,0,0,0,0,0,0
1683171382.29982400,60528279,1595,1595,1535,1536,0,0,0,0,0,0,0,0,0,0
1683171382.39978385,60628239,1594,1594,1536,1539,0,0,0,0,0,0,0,0,0,0
1683171382.49974394,60728199,1593,1592,1540,1544,0,0,0,0,0,0,0,0,0,0
1683171382.59970403,60828159,1589,1587,1545,1548,0,0,0,0,0,0,0,0,0,0
1683171382.70049691,60928952,1582,1579,1553,1556,0,0,0,0,0,0,0,0,0,0
1683171382.80045700,61028912,1573,1570,1563,1566,0,0,0,0,0,0,0,0,0,0
1683171382.90041685,61128872,1562,1558,1575,1577,0,0,0,0,0,0,0,0,0,0
1683171383.00037694,61228832,1552,1548,1587,1588,0,0,0,0,0,0,0,0,0,0
1683171383.10033703,61328792,1542,1540,1599,1599,0,0,0,0,0,0,0,0,0,0
1683171383.20029688,61428752,1534,1533,1608,1607,0,0,0,0,0,0,0,0,0,0
1683171383.30025697,61528712,1530,1530,1613,1612,0,0,0,0,0,0,0,0,0,0
1683171383.40021682,61628672,1529,1531,1616,1615,0,0,0,0,0,0,0,0,0,0
1683171383.50017691,61728632,1533,1535,1614,1613,0,0,0,0,0,0,0,0,0,0
1683171383.60013700,61828592,1539,1541,1610,1609,0,0,0,0,0,0,0,0,0,0
1683171383.70009685,61928552,1546,1547,1603,1603,0,0,0,0,0,0,0,0,0,0
1683171383.80005693,62028512,1554,1555,1595,1595,0,0,0,0,0,0,0,0,0,0
1683171383.90001702,62128472,1563,1564,1588,1588,0,0,0,0,0,0,0,0,0,0
1683171383.99997687,62228432,1571,1571,1581,1580,0,0,0,0,0,0,0,0,0,0
1683171384.09993696,62328392,1578,1577,1575,1574,0,0,0,0,0,0,0,0,0,0
1683171384.19989705,62428352,1583,1581,1570,1569,0,0,0,0,0,0,0,0,0,0
1683171384.29985690,62528312,1586,1584,1566,1567,0,0,0,0,0,0,0,0,0,0
1683171384.39981699,62628272,1587,1585,1565,1566,0,0,0,0,0,0,0,0,0,0
1683171384.49977684,62728232,1587,1586,1566,1566,0,0,0,0,0,0,0,0,0,0
1683171384.59973693,62828192,1585,1585,1568,1568,0,0,0,0,0,0,0,0,0,0
1683171384.70053005,62928985,1584,1583,1571,1571,0,0,0,0,0,0,0,0,0,0
1683171384.80048990,63028945,1581,1581,1574,1574,0,0,0,0,0,0,0,0,0,0
1683171384.90044999,63128905,1578,1578,1577,1576,0,0,0,0,0,0,0,0,0,0
1683171385.00040984,63228865,1575,1575,1579,1578,0,0,0,0,0,0,0,0,0,0
1683171385.10036993,63328825,1573,1573,1581,1581,0,0,0,0,0,0,0,0,0,0
1683171385.20033002,63428785,1572,1573,1583,1583,0,0,0,0,0,0,0,0,0,0
1683171385.30028987,63528745,1572,1572,1583,1583,0,0,0,0,0,0,0,0,0,0
1683171385.40024996,63628705,1573,1573,1584,1584,0,0,0,0,0,0,0,0,0,0
1683171385.50021005,63728665,1573,1574,1583,1583,0,0,0,0,0,0,0,0,0,0
1683171385.60016990,63828625,1575,1576,1583,1583,0,0,0,0,0,0,0,0,0,0
1683171385.70012999,63928585,1576,1576,1581,1581,0,0,0,0,0,0,0,0,0,0
1683171385.80008984,64028545,1233,1233,1584,1585,0,0,0,0,0,0,0,0,0,0
1683171385.90004992,64128505,1350,1354,1653,1661,0,0,0,0,0,0,0,0,0,0
1683171386.00001001,64228465,1422,1432,1651,1652,0,0,0,0,0,0,0,0,0,0
1683171386.09996986,64328425,1488,1498,1638,1632,0,0,0,0,0,0,0,0,0,0
1683171386.19992995,64428385,1539,1544,1626,1615,0,0,0,0,0,0,0,0,0,0
1683171386.29989004,64528345,1582,1574,1620,1608,0,0,0,0,0,0,0,0,0,0
1683171386.39984989,64628305,1600,1582,1572,1570,0,0,0,0,0,0,0,0,0,0
1683171386.49980998,64728265,1600,1585,1502,1512,0,0,0,0,0,0,0,0,0,0
1683171386.59976983,64828225,1600,1592,1477,1493,0,0,0,0,0,0,0,0,0,0
1683171386.69972992,64928185,1596,1600,1495,1505,0,0,0,0,0,0,0,0,0,0
1683171386.80052304,65028978,1590,1600,1513,1514,0,0,0,0,0,0,0,0,0,0
1683171386.90048289,65128938,1590,1600,1533,1529,0,0,0,0,0,0,0,0,0,0
1683171387.00044298,65228898,1594,1600,1551,1545,0,0,0,0,0,0,0,0,0,0
1683171387.10040283,65328858,1599,1600,1564,1561,0,0,0,0,0,0,0,0,0,0
1683171387.20036292,65428818,1600,1597,1568,1568,0,0,0,0,0,0,0,0,0,0
1683171387.30032301,65528778,1600,1595,1571,1573,0,0,0,0,0,0,0,0,0,0
1683171387.40028286,65628738,1600,1596,1575,1577,0,0,0,0,0,0,0,0,0,0
1683171387.50024295,65728698,1600,1595,1581,1575,0,0,0,0,0,0,0,0,0,0
1683171387.60020304,65828658,1600,1593,1584,1579,0,0,0,0,0,0,0,0,0,0
1683171387.70016289,65928618,1600,1594,1586,1584,0,0,0,0,0,0,0,0,0,0
1683171387.80012298,66028578,1600,1596,1587,1588,0,0,0,0,0,0,0,0,0,0
1683171387.90008283,66128538,1600,1598,1588,1589,0,0,0,0,0,0,0,0,0,0
1683171388.00004292,66228498,1600,1598,1586,1589,0,0,0,0,0,0,0,0,0,0
1683171388.10000300,66328458,1599,1600,1586,1589,0,0,0,0,0,0,0,0,0,0
1683171388.19996285,66428418,1595,1600,1581,1586,0,0,0,0,0,0,0,0,0,0
1683171388.29992294,66528378,1593,1600,1582,1582,0,0,0,0,0,0,0,0,0,0
1683171388.39988303,66628338,1593,1600,1584,1581,0,0,0,0,0,0,0,0,0,0
1683171388.49984288,66728298,1595,1600,1587,1582,0,0,0,0,0,0,0,0,0,0
1683171388.59980297,66828258,1598,1600,1588,1584,0,0,0,0,0,0,0,0,0,0
1683171388.69976282,66928218,1598,1600,1584,1587,0,0,0,0,0,0,0,0,0,0
1683171388.79972291,67028178,1596,1600,1580,1584,0,0,0,0,0,0,0,0,0,0
1683171388.90051603,67128971,1600,1597,1588,1577,0,0,0,0,0,0,0,0,0,0
1683171389.00047588,67228931,1600,1591,1584,1575,0,0,0,0,0,0,0,0,0,0
1683171389.10043597,67328891,1600,1589,1581,1578,0,0,0,0,0,0,0,0,0,0
1683171389.20039582,67428851,1600,1591,1579,1582,0,0,0,0,0,0,0,0,0,0
1683171389.30035591,67528811,1598,1594,1577,1584,0,0,0,0,0,0,0,0,0,0
1683171389.40031600,67628771,1589,1590,1569,1573,0,0,0,0,0,0,0,0,0,0
1683171389.50027585,67728731,1583,1587,1564,1565,0,0,0,0,0,0,0,0,0,0
1683171389.60023594,67828691,1580,1585,1562,1560,0,0,0,0,0,0,0,0,0,0
1683171389.70019603,67928651,1578,1581,1560,1556,0,0,0,0,0,0,0,0,0,0
1683171389.80015588,68028611,1575,1577,1556,1552,0,0,0,0,0,0,0,0,0,0
1683171389.90011597,68128571,1574,1574,1554,1550,0,0,0,0,0,0,0,0,0,0
1683171390.00007582,68228531,1573,1571,1551,1549,0,0,0,0,0,0,0,0,0,0
1683171390.10003591,68328491,1573,1570,1549,1549,0,0,0,0,0,0,0,0,0,0
1683171390.19999599,68428451,1570,1569,1547,1548,0,0,0,0,0,0,0,0,0,0
1683171390.29995584,68528411,1569,1569,1546,1549,0,0,0,0,0,0,0,0,0,0
1683171390.39991593,68628371,1568,1569,1546,1548,0,0,0,0,0,0,0,0,0,0
1683171390.49987602,68728331,1567,1570,1548,1548,0,0,0,0,0,0,0,0,0,0
1683171390.59983587,68828291,1568,1570,1549,1549,0,0,0,0,0,0,0,0,0,0
1683171390.69979596,68928251,1568,1571,1549,1550,0,0,0,0,0,0,0,0,0,0
1683171390.79975605,69028211,1568,1571,1549,1550,0,0,0,0,0,0,0,0,0,0
1683171390.89971590,69128171,1569,1571,1550,1551,0,0,0,0,0,0,0,0,0,0
1683171391.00050902,69228964,1570,1572,1550,1551,0,0,0,0,0,0,0,0,0,0
1683171391.10046887,69328924,1570,1573,1551,1552,0,0,0,0,0,0,0,0,0,0
1683171391.20042896,69428884,1572,1574,1552,1552,0,0,0,0,0,0,0,0,0,0
1683171391.30038905,69528844,1573,1575,1553,1553,0,0,0,0,0,0,0,0,0,0
1683171391.40034890,69628804,1574,1576,1553,1553,0,0,0,0,0,0,0,0,0,0
1683171391.50030899,69728764,1576,1576,1554,1554,0,0,0,0,0,0,0,0,0,0
1683171391.60026884,69828724,1578,1578,1555,1555,0,0,0,0,0,0,0,0,0,0
1683171391.70022893,69928684,1580,1579,1555,1556,0,0,0,0,0,0,0,0,0,0
1683171391.80018902,70028644,1581,1581,1556,1558,0,0,0,0,0,0,0,0,0,0
1683171391.90014887,70128604,1582,1582,1557,1558,0,0,0,0,0,0,0,0,0,0
1683171392.00010896,70228564,1583,1583,1557,1559,0,0,0,0,0,0,0,0,0,0
1683171392.10006905,70328524,1583,1584,1559,1559,0,0,0,0,0,0,0,0,0,0
1683171392.20002890,70428484,1584,1585,1560,1561,0,0,0,0,0,0,0,0,0,0
1683171392.29998899,70528444,1586,1585,1561,1562,0,0,0,0,0,0,0,0,0,0
1683171392.39994884,70628404,1587,1586,1564,1564,0,0,0,0,0,0,0,0,0,0
1683171392.49990892,70728364,1588,1587,1566,1566,0,0,0,0,0,0,0,0,0,0
1683171392.59986901,70828324,1589,1587,1567,1567,0,0,0,0,0,0,0,0,0,0
1683171392.69982886,70928284,1589,1588,1569,1568,0,0,0,0,0,0,0,0,0,0
1683171392.79978895,71028244,1590,1588,1570,1570,0,0,0,0,0,0,0,0,0,0
1683171392.89974904,71128204,1590,1589,1570,1570,0,0,0,0,0,0,0,0,0,0
1683171392.99970889,71228164,1590,1589,1571,1571,0,0,0,0,0,0,0,0,0,0
1683171393.10050201,71328957,1590,1589,1571,1571,0,0,0,0,0,0,0,0,0,0
1683171393.20046186,71428917,1589,1589,1571,1571,0,0,0,0,0,0,0,0,0,0
1683171393.30042195,71528877,1589,1589,1571,1570,0,0,0,0,0,0,0,0,0,0
1683171393.40038204,71628837,1590,1587,1572,1570,0,0,0,0,0,0,0,0,0,0
1683171393.50034189,71728797,1578,1570,1590,1588,0,0,0,0,0,0,0,0,0,0
1683171393.60030198,71828757,1561,1553,1609,1609,0,0,0,0,0,0,0,0,0,0
1683171393.70026183,71928717,1546,1543,1617,1618,0,0,0,0,0,0,0,0,0,0
1683171393.80022192,72028677,1538,1540,1619,1621,0,0,0,0,0,0,0,0,0,0
1683171393.90018201,72128637,1534,1541,1618,1619,0,0,0,0,0,0,0,0,0,0
1683171394.00014186,72228597,1533,1544,1615,1615,0,0,0,0,0,0,0,0,0,0
1683171394.10010195,72328557,1538,1548,1612,1610,0,0,0,0,0,0,0,0,0,0
1683171394.20006204,72428517,1544,1552,1607,1604,0,0,0,0,0,0,0,0,0,0
1683171394.30002189,72528477,1551,1555,1600,1597,0,0,0,0,0,0,0,0,0,0
1683171394.39998198,72628437,1560,1559,1593,1591,0,0,0,0,0,0,0,0,0,0
1683171394.49994183,72728397,1567,1564,1587,1586,0,0,0,0,0,0,0,0,0,0
1683171394.59990191,72828357,1573,1569,1581,1582,0,0,0,0,0,0,0,0,0,0
1683171394.69986200,72928317,1578,1574,1577,1578,0,0,0,0,0,0,0,0,0,0
1683171394.79982185,73028277,1581,1579,1575,1576,0,0,0,0,0,0,0,0,0,0
1683171394.89978194,73128237,1584,1582,1572,1573,0,0,0,0,0,0,0,0,0,0
1683171394.99974203,73228197,1586,1586,1572,1573,0,0,0,0,0,0,0,0,0,0
1683171395.09970188,73328157,1587,1587,1571,1571,0,0,0,0,0,0,0,0,0,0
1683171395.20049500,73428950,1588,1588,1572,1571,0,0,0,0,0,0,0,0,0,0
1683171395.30045485,73528910,1589,1589,1572,1571,0,0,0,0,0,0,0,0,0,0
1683171395.40041494,73628870,1589,1589,1572,1572,0,0,0,0,0,0,0,0,0,0
1683171395.50037503,73728830,1590,1589,1573,1573,0,0,0,0,0,0,0,0,0,0
1683171395.60033488,73828790,1589,1588,1574,1574,0,0,0,0,0,0,0,0,0,0
1683171395.70029497,73928750,1589,1588,1575,1576,0,0,0,0,0,0,0,0,0,0
1683171395.80025482,74028710,1587,1586,1574,1575,0,0,0,0,0,0,0,0,0,0
1683171395.90021491,74128670,1586,1586,1576,1576,0,0,0,0,0,0,0,0,0,0
1683171396.00017500,74228630,1584,1585,1577,1576,0,0,0,0,0,0,0,0,0,0
1683171396.10013485,74328590,1584,1584,1578,1578,0,0,0,0,0,0,0,0,0,0
1683171396.20009494,74428550,1584,1584,1579,1579,0,0,0,0,0,0,0,0,0,0
1683171396.30005503,74528510,1583,1583,1580,1579,0,0,0,0,0,0,0,0,0,0
1683171396.40001488,74628470,1582,1582,1580,1580,0,0,0,0,0,0,0,0,0,0
1683171396.49997497,74728430,1582,1582,1582,1582,0,0,0,0,0,0,0,0,0,0
1683171396.59993482,74828390,1581,1581,1581,1581,0,0,0,0,0,0,0,0,0,0
1683171396.69989491,74928350,1581,1581,1582,1582,0,0,0,0,0,0,0,0,0,0
1683171396.79985499,75028310,1580,1580,1583,1580,0,0,0,0,0,0,0,0,0,0
1683171396.89981484,75128270,1581,1579,1588,1574,0,0,0,0,0,0,0,0,0,0
1683171396.99977493,75228230,1580,1578,1583,1574,0,0,0,0,0,0,0,0,0,0
1683171397.09973502,75328190,1579,1577,1575,1574,0,0,0,0,0,0,0,0,0,0
1683171397.20052791,75428983,1576,1577,1567,1571,0,0,0,0,0,0,0,0,0,0
1683171397.30048800,75528943,1574,1576,1561,1567,0,0,0,0,0,0,0,0,0,0
1683171397.40044785,75628903,1572,1576,1559,1563,0,0,0,0,0,0,0,0,0,0
1683171397.50040793,75728863,1572,1576,1559,1560,0,0,0,0,0,0,0,0,0,0
1683171397.60036802,75828823,1573,1575,1558,1557,0,0,0,0,0,0,0,0,0,0
1683171397.70032787,75928783,1574,1575,1559,1557,0,0,0,0,0,0,0,0,0,0
1683171397.80028796,76028743,1574,1574,1557,1556,0,0,0,0,0,0,0,0,0,0
1683171397.90024805,76128703,1575,1574,1557,1556,0,0,0,0,0,0,0,0,0,0
1683171398.00020790,76228663,1574,1574,1555,1554,0,0,0,0,0,0,0,0,0,0
1683171398.10016799,76328623,1574,1574,1553,1553,0,0,0,0,0,0,0,0,0,0
1683171398.20012784,76428583,1574,1574,1551,1552,0,0,0,0,0,0,0,0,0,0
1683171398.30008793,76528543,1574,1575,1549,1549,0,0,0,0,0,0,0,0,0,0
1683171398.40004802,76628503,1574,1576,1548,1547,0,0,0,0,0,0,0,0,0,0
1683171398.50000787,76728463,1576,1578,1547,1546,0,0,0,0,0,0,0,0,0,0
1683171398.59996796,76828423,1578,1579,1546,1545,0,0,0,0,0,0,0,0,0,0
1683171398.69992805,76928383,1581,1581,1545,1544,0,0,0,0,0,0,0,0,0,0
1683171398.79988790,77028343,1583,1583,1542,1543,0,0,0,0,0,0,0,0,0,0
1683171398.89984798,77128303,1584,1584,1540,1540,0,0,0,0,0,0,0,0,0,0
1683171398.99980783,77228263,1586,1586,1538,1539,0,0,0,0,0,0,0,0,0,0
1683171399.09976792,77328223,1588,1587,1538,1539,0,0,0,0,0,0,0,0,0,0
1683171399.19972801,77428183,1589,1589,1539,1540,0,0,0,0,0,0,0,0,0,0
1683171399.30052090,77528976,1590,1588,1540,1542,0,0,0,0,0,0,0,0,0,0
1683171399.40048099,77628936,1589,1588,1543,1545,0,0,0,0,0,0,0,0,0,0
1683171399.50044084,77728896,1587,1586,1546,1549,0,0,0,0,0,0,0,0,0,0
1683171399.60040092,77828856,1583,1583,1549,1553,0,0,0,0,0,0,0,0,0,0
1683171399.70036101,77928816,1580,1579,1555,1558,0,0,0,0,0,0,0,0,0,0
1683171399.80032086,78028776,1575,1574,1560,1563,0,0,0,0,0,0,0,0,0,0
1683171399.90028095,78128736,1570,1568,1566,1569,0,0,0,0,0,0,0,0,0,0
1683171400.00024104,78228696,1564,1562,1574,1576,0,0,0,0,0,0,0,0,0,0
1683171400.10020089,78328656,1558,1556,1583,1583,0,0,0,0,0,0,0,0,0,0
1683171400.20016098,78428616,1552,1550,1591,1590,0,0,0,0,0,0,0,0,0,0
1683171400.30012083,78528576,1546,1544,1598,1598,0,0,0,0,0,0,0,0,0,0
1683171400.40008092,78628536,1539,1539,1604,1604,0,0,0,0,0,0,0,0,0,0
1683171400.50004101,78728496,1535,1536,1608,1608,0,0,0,0,0,0,0,0,0,0
1683171400.60000086,78828456,1533,1535,1609,1608,0,0,0,0,0,0,0,0,0,0
1683171400.69996095,78928416,1534,1537,1607,1605,0,0,0,0,0,0,0,0,0,0
1683171400.79992104,79028376,1538,1541,1602,1602,0,0,0,0,0,0,0,0,0,0
1683171400.89988089,79128336,1544,1546,1596,1596,0,0,0,0,0,0,0,0,0,0
1683171400.99984097,79228296,1552,1553,1590,1591,0,0,0,0,0,0,0,0,0,0
1683171401.09980083,79328256,1560,1560,1584,1584,0,0,0,0,0,0,0,0,0,0
1683171401.19976091,79428216,1568,1567,1579,1577,0,0,0,0,0,0,0,0,0,0
1683171401.29972100,79528176,1575,1574,1574,1572,0,0,0,0,0,0,0,0,0,0
1683171401.40051389,79628969,1581,1579,1570,1570,0,0,0,0,0,0,0,0,0,0
1683171401.50047398,79728929,1584,1583,1567,1567,0,0,0,0,0,0,0,0,0,0
1683171401.60043383,79828889,1587,1585,1568,1568,0,0,0,0,0,0,0,0,0,0
1683171401.70039392,79928849,1588,1586,1568,1568,0,0,0,0,0,0,0,0,0,0
1683171401.80035400,80028809,1588,1587,1569,1570,0,0,0,0,0,0,0,0,0,0
1683171401.90031385,80128769,1587,1587,1571,1572,0,0,0,0,0,0,0,0,0,0
1683171402.00027394,80228729,1586,1586,1573,1574,0,0,0,0,0,0,0,0,0,0
1683171402.10023403,80328689,1585,1585,1575,1575,0,0,0,0,0,0,0,0,0,0
1683171402.20019388,80428649,1584,1584,1577,1577,0,0,0,0,0,0,0,0,0,0
1683171402.30015397,80528609,1582,1582,1578,1578,0,0,0,0,0,0,0,0,0,0
1683171402.40011382,80628569,1580,1580,1579,1579,0,0,0,0,0,0,0,0,0,0
1683171402.50007391,80728529,1579,1579,1580,1580,0,0,0,0,0,0,0,0,0,0
1683171402.60003400,80828489,1578,1578,1581,1581,0,0,0,0,0,0,0,0,0,0
1683171402.69999385,80928449,1577,1577,1582,1582,0,0,0,0,0,0,0,0,0,0
1683171402.79995394,81028409,1576,1577,1583,1583,0,0,0,0,0,0,0,0,0,0
1683171402.89991403,81128369,1576,1576,1583,1583,0,0,0,0,0,0,0,0,0,0
1683171402.99987388,81228329,1575,1576,1582,1583,0,0,0,0,0,0,0,0,0,0
1683171403.09983397,81328289,1576,1577,1582,1583,0,0,0,0,0,0,0,0,0,0
1683171403.19979382,81428249,1577,1577,1582,1582,0,0,0,0,0,0,0,0,0,0
1683171403.29975390,81528209,1578,1578,1582,1582,0,0,0,0,0,0,0,0,0,0
1683171403.39971399,81628169,1579,1579,1582,1581,0,0,0,0,0,0,0,0,0,0
1683171403.50050688,81728962,1580,1579,1581,1581,0,0,0,0,0,0,0,0,0,0
1683171403.60046697,81828922,1581,1581,1580,1581,0,0,0,0,0,0,0,0,0,0
1683171403.70042682,81928882,1581,1580,1579,1580,0,0,0,0,0,0,0,0,0,0
1683171403.80038691,82028842,1582,1582,1579,1580,0,0,0,0,0,0,0,0,0,0
1683171403.90034699,82128802,1581,1581,1578,1578,0,0,0,0,0,0,0,0,0,0
1683171404.00030684,82228762,1581,1581,1578,1578,0,0,0,0,0,0,0,0,0,0
1683171404.10026693,82328722,1582,1582,1579,1579,0,0,0,0,0,0,0,0,0,0
1683171404.20022702,82428682,1582,1582,1579,1579,0,0,0,0,0,0,0,0,0,0
1683171404.30018687,82528642,1582,1582,1580,1579,0,0,0,0,0,0,0,0,0,0
1683171404.40014696,82628602,1582,1582,1580,1580,0,0,0,0,0,0,0,0,0,0
1683171404.50010705,82728562,1582,1581,1580,1580,0,0,0,0,0,0,0,0,0,0
1683171404.60006690,82828522,1582,1582,1581,1581,0,0,0,0,0,0,0,0,0,0
1683171404.70002699,82928482,1581,1581,1581,1581,0,0,0,0,0,0,0,0,0,0
1683171404.79998684,83028442,1581,1581,1581,1581,0,0,0,0,0,0,0,0,0,0
1683171404.89994693,83128402,1581,1581,1582,1582,0,0,0,0,0,0,0,0,0,0
1683171404.99990702,83228362,1580,1581,1582,1581,0,0,0,0,0,0,0,0,0,0
1683171405.09986687,83328322,1580,1581,1582,1582,0,0,0,0,0,0,0,0,0,0
1683171405.19982696,83428282,1581,1580,1588,1575,0,0,0,0,0,0,0,0,0,0
1683171405.29978704,83528242,1580,1579,1587,1574,0,0,0,0,0,0,0,0,0,0
1683171405.39974689,83628202,1579,1577,1579,1575,0,0,0,0,0,0,0,0,0,0
1683171405.49970698,83728162,1576,1574,1571,1575,0,0,0,0,0,0,0,0,0,0
1683171405.60049987,83828955,1572,1572,1566,1573,0,0,0,0,0,0,0,0,0,0
1683171405.70045996,83928915,1569,1570,1563,1570,0,0,0,0,0,0,0,0,0,0
1683171405.80042005,84028875,1567,1568,1563,1567,0,0,0,0,0,0,0,0,0,0
1683171405.90037990,84128835,1566,1568,1566,1567,0,0,0,0,0,0,0,0,0,0
1683171406.00033998,84228795,1566,1568,1568,1566,0,0,0,0,0,0,0,0,0,0
1683171406.10029984,84328755,1566,1566,1568,1565,0,0,0,0,0,0,0,0,0,0
1683171406.20025992,84428715,1566,1566,1568,1565,0,0,0,0,0,0,0,0,0,0
1683171406.30022001,84528675,1565,1564,1567,1566,0,0,0,0,0,0,0,0,0,0
1683171406.40017986,84628635,1564,1563,1565,1565,0,0,0,0,0,0,0,0,0,0
1683171406.50013995,84728595,1563,1563,1564,1565,0,0,0,0,0,0,0,0,0,0
1683171406.60010004,84828555,1562,1562,1563,1563,0,0,0,0,0,0,0,0,0,0
1683171406.70005989,84928515,1562,1562,1562,1563,0,0,0,0,0,0,0,0,0,0
1683171406.80001998,85028475,1561,1561,1562,1562,0,0,0,0,0,0,0,0,0,0
1683171406.89997983,85128435,1560,1560,1561,1560,0,0,0,0,0,0,0,0,0,0
1683171406.99993992,85228395,1559,1560,1560,1559,0,0,0,0,0,0,0,0,0,0
1683171407.09990001,85328355,1560,1560,1561,1560,0,0,0,0,0,0,0,0,0,0
1683171407.19985986,85428315,1560,1560,1560,1560,0,0,0,0,0,0,0,0,0,0
1683171407.29981995,85528275,1560,1560,1560,1559,0,0,0,0,0,0,0,0,0,0
1683171407.39978004,85628235,1559,1559,1560,1558,0,0,0,0,0,0,0,0,0,0
1683171407.49973989,85728195,1560,1560,1560,1559,0,0,0,0,0,0,0,0,0,0
1683171407.59969997,85828155,1560,1560,1560,1559,0,0,0,0,0,0,0,0,0,0
1683171407.70049286,85928948,1560,1560,1561,1559,0,0,0,0,0,0,0,0,0,0
1683171407.80045295,86028908,1560,1559,1560,1558,0,0,0,0,0,0,0,0,0,0
1683171407.90041304,86128868,1559,1558,1560,1557,0,0,0,0,0,0,0,0,0,0
1683171408.00037289,86228828,1560,1559,1560,1558,0,0,0,0,0,0,0,0,0,0
1683171408.10033298,86328788,1560,1559,1558,1561,0,0,0,0,0,0,0,0,0,0
1683171408.20029283,86428748,1560,1560,1557,1563,0,0,0,0,0,0,0,0,0,0
1683171408.30025291,86528708,1560,1561,1558,1564,0,0,0,0,0,0,0,0,0,0
1683171408.40021300,86628668,1561,1562,1560,1564,0,0,0,0,0,0,0,0,0,0
1683171408.50017285,86728628,1560,1561,1559,1562,0,0,0,0,0,0,0,0,0,0
1683171408.60013294,86828588,1558,1559,1559,1557,0,0,0,0,0,0,0,0,0,0
1683171408.70009303,86928548,1559,1559,1559,1557,0,0,0,0,0,0,0,0,0,0
1683171408.80005288,87028508,1559,1558,1556,1559,0,0,0,0,0,0,0,0,0,0
1683171408.90001297,87128468,1556,1555,1552,1555,0,0,0,0,0,0,0,0,0,0
1683171408.99997282,87228428,1552,1552,1547,1550,0,0,0,0,0,0,0,0,0,0
1683171409.09993291,87328388,1547,1546,1541,1543,0,0,0,0,0,0,0,0,0,0
1683171409.19989300,87428348,1540,1540,1535,1535,0,0,0,0,0,0,0,0,0,0
1683171409.29985285,87528308,1534,1535,1529,1528,0,0,0,0,0,0,0,0,0,0
1683171409.39981294,87628268,1527,1527,1521,1520,0,0,0,0,0,0,0,0,0,0
1683171409.49977303,87728228,1522,1522,1518,1517,0,0,0,0,0,0,0,0,0,0
1683171409.59973288,87828188,1520,1520,1518,1518,0,0,0,0,0,0,0,0,0,0
1683171409.70052600,87928981,1518,1518,1519,1520,0,0,0,0,0,0,0,0,0,0
1683171409.80048585,88028941,1519,1519,1523,1524,0,0,0,0,0,0,0,0,0,0
1683171409.90044594,88128901,1521,1520,1528,1528,0,0,0,0,0,0,0,0,0,0
1683171410.00040603,88228861,1524,1524,1534,1534,0,0,0,0,0,0,0,0,0,0
1683171410.10036588,88328821,1528,1528,1538,1538,0,0,0,0,0,0,0,0,0,0
1683171410.20032597,88428781,1531,1532,1542,1542,0,0,0,0,0,0,0,0,0,0
1683171410.30028582,88528741,1535,1535,1544,1544,0,0,0,0,0,0,0,0,0,0
1683171410.40024590,88628701,1539,1539,1546,1545,0,0,0,0,0,0,0,0,0,0
1683171410.50020599,88728661,1542,1542,1546,1546,0,0,0,0,0,0,0,0,0,0
1683171410.60016584,88828621,1544,1544,1545,1545,0,0,0,0,0,0,0,0,0,0
1683171410.70012593,88928581,1547,1547,1546,1546,0,0,0,0,0,0,0,0,0,0
1683171410.80008602,89028541,1548,1548,1544,1544,0,0,0,0,0,0,0,0,0,0
1683171410.90004587,89128501,1549,1550,1544,1544,0,0,0,0,0,0,0,0,0,0
1683171411.00000596,89228461,1550,1550,1544,1544,0,0,0,0,0,0,0,0,0,0
1683171411.09996605,89328421,1550,1550,1544,1544,0,0,0,0,0,0,0,0,0,0
1683171411.19992590,89428381,1550,1550,1544,1544,0,0,0,0,0,0,0,0,0,0
1683171411.29988599,89528341,1550,1549,1543,1543,0,0,0,0,0,0,0,0,0,0
1683171411.39984584,89628301,1549,1549,1544,1543,0,0,0,0,0,0,0,0,0,0
1683171411.49980593,89728261,1547,1548,1544,1543,0,0,0,0,0,0,0,0,0,0
1683171411.59976602,89828221,1547,1547,1545,1544,0,0,0,0,0,0,0,0,0,0
1683171411.69972587,89928181,1546,1546,1546,1545,0,0,0,0,0,0,0,0,0,0
1683171411.80051899,90028974,1545,1545,1545,1545,0,0,0,0,0,0,0,0,0,0
1683171411.90047884,90128934,1544,1544,1546,1546,0,0,0,0,0,0,0,0,0,0
1683171412.00043893,90228894,1543,1543,1546,1545,0,0,0,0,0,0,0,0,0,0
1683171412.10039902,90328854,1543,1543,1546,1546,0,0,0,0,0,0,0,0,0,0
1683171412.20035887,90428814,1543,1543,1547,1546,0,0,0,0,0,0,0,0,0,0
1683171412.30031896,90528774,1542,1542,1545,1545,0,0,0,0,0,0,0,0,0,0
1683171412.40027905,90628734,1542,1542,1544,1544,0,0,0,0,0,0,0,0,0,0
1683171412.50023890,90728694,1542,1543,1544,1544,0,0,0,0,0,0,0,0,0,0
1683171412.60019898,90828654,1542,1543,1544,1544,0,0,0,0,0,0,0,0,0,0
1683171412.70015883,90928614,1543,1543,1543,1543,0,0,0,0,0,0,0,0,0,0
1683171412.80011892,91028574,1543,1543,1543,1543,0,0,0,0,0,0,0,0,0,0
1683171412.90007901,91128534,1544,1544,1543,1544,0,0,0,0,0,0,0,0,0,0
1683171413.00003886,91228494,1544,1544,1543,1543,0,0,0,0,0,0,0,0,0,0
1683171413.09999895,91328454,1545,1545,1544,1544,0,0,0,0,0,0,0,0,0,0
1683171413.19995904,91428414,1544,1544,1543,1543,0,0,0,0,0,0,0,0,0,0
1683171413.29991889,91528374,1545,1545,1544,1544,0,0,0,0,0,0,0,0,0,0
1683171413.39987898,91628334,1545,1546,1545,1545,0,0,0,0,0,0,0,0,0,0
1683171413.49983883,91728294,1545,1545,1544,1544,0,0,0,0,0,0,0,0,0,0
1683171413.59979892,91828254,1545,1545,1544,1544,0,0,0,0,0,0,0,0,0,0
1683171413.69975901,91928214,1545,1545,1544,1545,0,0,0,0,0,0,0,0,0,0
1683171413.79971886,92028174,1545,1545,1544,1544,0,0,0,0,0,0,0,0,0,0
1683171413.90051198,92128967,1545,1545,1545,1545,0,0,0,0,0,0,0,0,0,0
1683171414.00047183,92228927,1544,1545,1544,1545,0,0,0,0,0,0,0,0,0,0
1683171414.10043192,92328887,1544,1544,1544,1544,0,0,0,0,0,0,0,0,0,0
1683171414.20039201,92428847,1544,1544,1544,1544,0,0,0,0,0,0,0,0,0,0
1683171414.30035186,92528807,1544,1544,1543,1544,0,0,0,0,0,0,0,0,0,0
1683171414.40031195,92628767,1544,1544,1544,1544,0,0,0,0,0,0,0,0,0,0
1683171414.50027204,92728727,1544,1543,1543,1544,0,0,0,0,0,0,0,0,0,0
1683171414.60023189,92828687,1544,1544,1544,1544,0,0,0,0,0,0,0,0,0,0
1683171414.70019197,92928647,1544,1544,1544,1544,0,0,0,0,0,0,0,0,0,0
1683171414.80015182,93028607,1544,1544,1544,1544,0,0,0,0,0,0,0,0,0,0
1683171414.90011191,93128567,1544,1543,1544,1544,0,0,0,0,0,0,0,0,0,0
1683171415.00007200,93228527,1543,1544,1544,1544,0,0,0,0,0,0,0,0,0,0
1683171415.10003185,93328487,1544,1544,1545,1545,0,0,0,0,0,0,0,0,0,0
1683171415.19999194,93428447,1544,1544,1545,1544,0,0,0,0,0,0,0,0,0,0
1683171415.29995203,93528407,1545,1544,1545,1545,0,0,0,0,0,0,0,0,0,0
1683171415.39991188,93628367,1544,1544,1544,1544,0,0,0,0,0,0,0,0,0,0
1683171415.49987197,93728327,1545,1544,1544,1544,0,0,0,0,0,0,0,0,0,0
1683171415.59983182,93828287,1544,1544,1544,1544,0,0,0,0,0,0,0,0,0,0
1683171415.69979191,93928247,1544,1545,1544,1544,0,0,0,0,0,0,0,0,0,0
1683171415.79975200,94028207,1544,1545,1544,1544,0,0,0,0,0,0,0,0,0,0
1683171415.89971185,94128167,1544,1544,1543,1544,0,0,0,0,0,0,0,0,0,0
1683171416.00050497,94228960,1544,1544,1543,1544,0,0,0,0,0,0,0,0,0,0
1683171416.10046482,94328920,1545,1543,1544,1544,0,0,0,0,0,0,0,0,0,0
1683171416.20042491,94428880,1545,1544,1545,1544,0,0,0,0,0,0,0,0,0,0
1683171416.30038500,94528840,1544,1544,1544,1543,0,0,0,0,0,0,0,0,0,0
1683171416.40034485,94628800,1543,1544,1544,1543,0,0,0,0,0,0,0,0,0,0
1683171416.50030494,94728760,1544,1544,1543,1544,0,0,0,0,0,0,0,0,0,0
1683171416.60026503,94828720,1544,1544,1545,1544,0,0,0,0,0,0,0,0,0,0
1683171416.70022488,94928680,1544,1545,1545,1545,0,0,0,0,0,0,0,0,0,0
1683171416.80018497,95028640,1544,1544,1544,1544,0,0,0,0,0,0,0,0,0,0
1683171416.90014482,95128600,1545,1544,1545,1545,0,0,0,0,0,0,0,0,0,0
1683171417.00010490,95228560,1545,1545,1545,1545,0,0,0,0,0,0,0,0,0,0
1683171417.10006499,95328520,1545,1545,1545,1545,0,0,0,0,0,0,0,0,0,0
1683171417.20002484,95428480,1545,1545,1545,1545,0,0,0,0,0,0,0,0,0,0
1683171417.29998493,95528440,1545,1545,1545,1545,0,0,0,0,0,0,0,0,0,0
1683171417.39994502,95628400,1545,1544,1544,1545,0,0,0,0,0,0,0,0,0,0
1683171417.49990487,95728360,1545,1544,1544,1545,0,0,0,0,0,0,0,0,0,0
1683171417.59986496,95828320,1544,1544,1544,1544,0,0,0,0,0,0,0,0,0,0
1683171417.69982505,95928280,1545,1545,1545,1544,0,0,0,0,0,0,0,0,0,0
1683171417.79978490,96028240,1544,1545,1545,1545,0,0,0,0,0,0,0,0,0,0
1683171417.89974499,96128200,1545,1545,1545,1545,0,0,0,0,0,0,0,0,0,0
1683171417.99970484,96228160,1544,1545,1544,1544,0,0,0,0,0,0,0,0,0,0
1683171418.10049796,96328953,1544,1544,1544,1544,0,0,0,0,0,0,0,0,0,0
1683171418.20045805,96428913,1544,1544,1544,1544,0,0,0,0,0,0,0,0,0,0
1683171418.30041790,96528873,1545,1544,1544,1545,0,0,0,0,0,0,0,0,0,0
1683171418.40037799,96628833,1545,1545,1545,1545,0,0,0,0,0,0,0,0,0,0
1683171418.50033784,96728793,1545,1544,1544,1545,0,0,0,0,0,0,0,0,0,0
1683171418.60029793,96828753,1544,1544,1545,1544,0,0,0,0,0,0,0,0,0,0
1683171418.70025802,96928713,1545,1544,1545,1545,0,0,0,0,0,0,0,0,0,0
1683171418.80021787,97028673,1544,1544,1544,1544,0,0,0,0,0,0,0,0,0,0
1683171418.90017796,97128633,1545,1545,1545,1545,0,0,0,0,0,0,0,0,0,0
1683171419.00013804,97228593,1544,1544,1544,1544,0,0,0,0,0,0,0,0,0,0
1683171419.10009789,97328553,1544,1544,1544,1544,0,0,0,0,0,0,0,0,0,0
1683171419.20005798,97428513,1458,1457,1412,1413,0,0,0,0,0,0,0,0,0,0
1683171419.30001783,97528473,1377,1376,1273,1276,0,0,0,0,0,0,0,0,0,0
1683171419.39997792,97628433,1350,1350,1221,1224,0,0,0,0,0,0,0,0,0,0
1683171419.49993801,97728393,1340,1340,1201,1204,0,0,0,0,0,0,0,0,0,0
1683171419.59989786,97828353,1323,1323,1166,1168,0,0,0,0,0,0,0,0,0,0
1683171419.69985795,97928313,1274,1273,1150,1152,0,0,0,0,0,0,0,0,0,0
1683171419.79981804,98028273,1186,1185,1150,1151,0,0,0,0,0,0,0,0,0,0
1683171419.89977789,98128233,1087,1086,1150,1152,0,0,0,0,0,0,0,0,0,0
1683171419.99973798,98228193,975,974,1150,1151,0,0,0,0,0,0,0,0,0,0
1683171420.10053086,98328986,969,968,1150,1151,0,0,0,0,0,0,0,0,0,0
1683171420.20049095,98428946,969,969,1150,1151,0,0,0,0,0,0,0,0,0,0
1683171420.30045104,98528906,969,965,1150,1155,0,0,0,0,0,0,0,0,0,0
1683171420.40041089,98628866,969,957,1150,1167,0,0,0,0,0,0,0,0,0,0
1683171420.50037098,98728826,969,961,1150,1161,0,0,0,0,0,0,0,0,0,0
1683171420.60033083,98828786,969,963,1150,1159,0,0,0,0,0,0,0,0,0,0
1683171420.70029092,98928746,969,963,1150,1159,0,0,0,0,0,0,0,0,0,0
1683171420.80025101,99028706,969,963,1150,1159,0,0,0,0,0,0,0,0,0,0
1683171420.90021086,99128666,969,962,1150,1159,0,0,0,0,0,0,0,0,0,0
1683171421.00017095,99228626,969,962,1150,1159,0,0,0,0,0,0,0,0,0,0
1683171421.10013103,99328586,963,970,1158,1150,0,0,0,0,0,0,0,0,0,0
1683171421.20009089,99428546,969,968,1150,1151,0,0,0,0,0,0,0,0,0,0
1683171421.30005097,99528506,969,968,1150,1152,0,0,0,0,0,0,0,0,0,0
1683171421.40001082,99628466,969,968,1150,1152,0,0,0,0,0,0,0,0,0,0
1683171421.49997091,99728426,969,967,1150,1152,0,0,0,0,0,0,0,0,0,0
1683171421.59993100,99828386,797,797,1147,1147,0,0,0,0,0,0,0,0,0,0
1683171421.69989085,99928346,1000,1000,1000,1000,0,0,0,0,0,0,0,0,0,0
1683171421.79985094,100028306,1000,1000,1000,1000,0,0,0,0,0,0,0,0,0,0
1683171421.89981103,100128266,1000,1000,1000,1000,0,0,0,0,0,0,0,0,0,0
1683171421.99977088,100228226,1000,1000,1000,1000,0,0,0,0,0,0,0,0,0,0
1683171422.09973097,100328186,1000,1000,1000,1000,0,0,0,0,0,0,0,0,0,0
1683171422.20052385,100428979,1000,1000,1000,1000,0,0,0,0,0,0,0,0,0,0
1683171422.30048394,100528939,1000,1000,1000,1000,0,0,0,0,0,0,0,0,0,0
1683171422.40044403,100628899,1000,1000,1000,1000,0,0,0,0,0,0,0,0,0,0
1683171422.50040388,100728859,1000,1000,1000,1000,0,0,0,0,0,0,0,0,0,0
1683171422.60036397,100828819,1000,1000,1000,1000,0,0,0,0,0,0,0,0,0,0
1683171422.70032382,100928779,1000,1000,1000,1000,0,0,0,0,0,0,0,0,0,0
1683171422.80028391,101028739,1000,1000,1000,1000,0,0,0,0,0,0,0,0,0,0
1683171422.90024400,101128699,1000,1000,1000,1000,0,0,0,0,0,0,0,0,0,0
1683171423.00020385,101228659,1000,1000,1000,1000,0,0,0,0,0,0,0,0,0,0
1683171423.10016394,101328619,1000,1000,1000,1000,0,0,0,0,0,0,0,0,0,0
1683171423.20012403,101428579,1000,1000,1000,1000,0,0,0,0,0,0,0,0,0,0
1683171423.30008388,101528539,1000,1000,1000,1000,0,0,0,0,0,0,0,0,0,0
1683171423.40004396,101628499,1000,1000,1000,1000,0,0,0,0,0,0,0,0,0,0
1683171423.50000381,101728459,1000,1000,1000,1000,0,0,0,0,0,0,0,0,0,0
1683171423.59996390,101828419,1000,1000,1000,1000,0,0,0,0,0,0,0,0,0,0
1683171423.69992399,101928379,1000,1000,1000,1000,0,0,0,0,0,0,0,0,0,0
1683171423.79988384,102028339,1000,1000,1000,1000,0,0,0,0,0,0,0,0,0,0
1683171423.89984393,102128299,1000,1000,1000,1000,0,0,0,0,0,0,0,0,0,0
1683171423.99980402,102228259,1000,1000,1000,1000,0,0,0,0,0,0,0,0,0,0
1683171424.09976387,102328219,1000,1000,1000,1000,0,0,0,0,0,0,0,0,0,0
1683171424.19972396,102428179,1000,1000,1000,1000,0,0,0,0,0,0,0,0,0,0
1683171424.30051684,102528972,1000,1000,1000,1000,0,0,0,0,0,0,0,0,0,0
1683171424.40047693,102628932,1000,1000,1000,1000,0,0,0,0,0,0,0,0,0,0
1683171424.50043702,102728892,1000,1000,1000,1000,0,0,0,0,0,0,0,0,0,0
1683171424.60039687,102828852,1000,1000,1000,1000,0,0,0,0,0,0,0,0,0,0
1683171424.70035696,102928812,1000,1000,1000,1000,0,0,0,0,0,0,0,0,0,0
1683171424.80031705,103028772,1000,1000,1000,1000,0,0,0,0,0,0,0,0,0,0
1683171424.90027690,103128732,1000,1000,1000,1000,0,0,0,0,0,0,0,0,0,0
1683171425.00023699,103228692,1000,1000,1000,1000,0,0,0,0,0,0,0,0,0,0
1683171425.10019684,103328652,1000,1000,1000,1000,0,0,0,0,0,0,0,0,0,0
1683171425.20015693,103428612,1000,1000,1000,1000,0,0,0,0,0,0,0,0,0,0
1683171425.30011702,103528572,1000,1000,1000,1000,0,0,0,0,0,0,0,0,0,0
1683171425.40007687,103628532,1000,1000,1000,1000,0,0,0,0,0,0,0,0,0,0
1683171425.50003695,103728492,1000,1000,1000,1000,0,0,0,0,0,0,0,0,0,0
1683171425.59999704,103828452,1000,1000,1000,1000,0,0,0,0,0,0,0,0,0,0
1683171425.69995689,103928412,1000,1000,1000,1000,0,0,0,0,0,0,0,0,0,0
1683171425.79991698,104028372,1000,1000,1000,1000,0,0,0,0,0,0,0,0,0,0
1683171425.89987683,104128332,1000,1000,1000,1000,0,0,0,0,0,0,0,0,0,0
1683171425.99983692,104228292,1000,1000,1000,1000,0,0,0,0,0,0,0,0,0,0
1683171426.09979701,104328252,1000,1000,1000,1000,0,0,0,0,0,0,0,0,0,0
1683171426.19975686,104428212,1000,1000,1000,1000,0,0,0,0,0,0,0,0,0,0
1683171426.29971695,104528172,1000,1000,1000,1000,0,0,0,0,0,0,0,0,0,0
1683171426.40050983,104628965,1000,1000,1000,1000,0,0,0,0,0,0,0,0,0,0
1683171426.50046992,104728925,1000,1000,1000,1000,0,0,0,0,0,0,0,0,0,0
1683171426.60043001,104828885,1000,1000,1000,1000,0,0,0,0,0,0,0,0,0,0
1683171426.70038986,104928845,1000,1000,1000,1000,0,0,0,0,0,0,0,0,0,0
1683171426.80034995,105028805,1000,1000,1000,1000,0,0,0,0,0,0,0,0,0,0
1683171426.90031004,105128765,1000,1000,1000,1000,0,0,0,0,0,0,0,0,0,0
1683171427.00026989,105228725,1000,1000,1000,1000,0,0,0,0,0,0,0,0,0,0
1683171427.10022998,105328685,1000,1000,1000,1000,0,0,0,0,0,0,0,0,0,0
1683171427.20018983,105428645,1000,1000,1000,1000,0,0,0,0,0,0,0,0,0,0
1683171427.30014992,105528605,1000,1000,1000,1000,0,0,0,0,0,0,0,0,0,0
1683171427.40011001,105628565,1000,1000,1000,1000,0,0,0,0,0,0,0,0,0,0
1683171427.50006986,105728525,1000,1000,1000,1000,0,0,0,0,0,0,0,0,0,0
1683171427.60002995,105828485,1000,1000,1000,1000,0,0,0,0,0,0,0,0,0,0
1683171427.69999003,105928445,1000,1000,1000,1000,0,0,0,0,0,0,0,0,0,0
1683171427.79994988,106028405,1000,1000,1000,1000,0,0,0,0,0,0,0,0,0,0
1683171427.89990997,106128365,1000,1000,1000,1000,0,0,0,0,0,0,0,0,0,0
1683171427.99986982,106228325,1000,1000,1000,1000,0,0,0,0,0,0,0,0,0,0
1683171428.09982991,106328285,1000,1000,1000,1000,0,0,0,0,0,0,0,0,0,0
1683171428.19979000,106428245,1000,1000,1000,1000,0,0,0,0,0,0,0,0,0,0
1683171428.29974985,106528205,1000,1000,1000,1000,0,0,0,0,0,0,0,0,0,0
1683171428.39970994,106628165,1000,1000,1000,1000,0,0,0,0,0,0,0,0,0,0
1683171428.50050282,106728958,1000,1000,1000,1000,0,0,0,0,0,0,0,0,0,0
1683171428.60046291,106828918,1000,1000,1000,1000,0,0,0,0,0,0,0,0,0,0
1683171428.70042300,106928878,1000,1000,1000,1000,0,0,0,0,0,0,0,0,0,0
1683171428.80038285,107028838,1000,1000,1000,1000,0,0,0,0,0,0,0,0,0,0
1683171428.90034294,107128798,1000,1000,1000,1000,0,0,0,0,0,0,0,0,0,0
1683171429.00030303,107228758,1000,1000,1000,1000,0,0,0,0,0,0,0,0,0,0
1683171429.10026288,107328718,1000,1000,1000,1000,0,0,0,0,0,0,0,0,0,0
1683171429.20022297,107428678,1000,1000,1000,1000,0,0,0,0,0,0,0,0,0,0
1683171429.30018282,107528638,1000,1000,1000,1000,0,0,0,0,0,0,0,0,0,0
1683171429.40014291,107628598,1000,1000,1000,1000,0,0,0,0,0,0,0,0,0,0
1683171429.50010300,107728558,1000,1000,1000,1000,0,0,0,0,0,0,0,0,0,0
1683171429.60006285,107828518,1000,1000,1000,1000,0,0,0,0,0,0,0,0,0,0
1683171429.70002294,107928478,1000,1000,1000,1000,0,0,0,0,0,0,0,0,0,0
1683171429.79998302,108028438,1000,1000,1000,1000,0,0,0,0,0,0,0,0,0,0
1683171429.89994287,108128398,1000,1000,1000,1000,0,0,0,0,0,0,0,0,0,0
1683171429.99990296,108228358,1000,1000,1000,1000,0,0,0,0,0,0,0,0,0,0
1683171430.09986305,108328318,1000,1000,1000,1000,0,0,0,0,0,0,0,0,0,0
1683171430.19982290,108428278,1000,1000,1000,1000,0,0,0,0,0,0,0,0,0,0
1683171430.29978299,108528238,1000,1000,1000,1000,0,0,0,0,0,0,0,0,0,0
1683171430.39974284,108628198,1000,1000,1000,1000,0,0,0,0,0,0,0,0,0,0
1683171430.49970293,108728158,1000,1000,1000,1000,0,0,0,0,0,0,0,0,0,0
1683171430.60049582,108828951,1000,1000,1000,1000,0,0,0,0,0,0,0,0,0,0
1683171430.70045590,108928911,1000,1000,1000,1000,0,0,0,0,0,0,0,0,0,0
1683171430.80041599,109028871,1000,1000,1000,1000,0,0,0,0,0,0,0,0,0,0
1683171430.90037584,109128831,1000,1000,1000,1000,0,0,0,0,0,0,0,0,0,0
1683171431.00033593,109228791,1000,1000,1000,1000,0,0,0,0,0,0,0,0,0,0
1683171431.10029602,109328751,1000,1000,1000,1000,0,0,0,0,0,0,0,0,0,0
1683171431.20025587,109428711,1000,1000,1000,1000,0,0,0,0,0,0,0,0,0,0
1683171431.30021596,109528671,1000,1000,1000,1000,0,0,0,0,0,0,0,0,0,0
1683171431.40017605,109628631,1000,1000,1000,1000,0,0,0,0,0,0,0,0,0,0
1683171431.50013590,109728591,1000,1000,1000,1000,0,0,0,0,0,0,0,0,0,0
1683171431.60009599,109828551,1000,1000,1000,1000,0,0,0,0,0,0,0,0,0,0
1683171431.70005584,109928511,1000,1000,1000,1000,0,0,0,0,0,0,0,0,0,0
1683171431.80001593,110028471,1000,1000,1000,1000,0,0,0,0,0,0,0,0,0,0
1683171431.89997602,110128431,1000,1000,1000,1000,0,0,0,0,0,0,0,0,0,0
1683171431.99993587,110228391,1000,1000,1000,1000,0,0,0,0,0,0,0,0,0,0
1683171432.09989595,110328351,1000,1000,1000,1000,0,0,0,0,0,0,0,0,0,0
1683171432.19985604,110428311,1000,1000,1000,1000,0,0,0,0,0,0,0,0,0,0
1683171432.29981589,110528271,1000,1000,1000,1000,0,0,0,0,0,0,0,0,0,0
1683171432.39977598,110628231,1000,1000,1000,1000,0,0,0,0,0,0,0,0,0,0
1683171432.49973583,110728191,1000,1000,1000,1000,0,0,0,0,0,0,0,0,0,0
1683171432.60052896,110828984,1000,1000,1000,1000,0,0,0,0,0,0,0,0,0,0
1683171432.70048904,110928944,1000,1000,1000,1000,0,0,0,0,0,0,0,0,0,0
1683171432.80044889,111028904,1000,1000,1000,1000,0,0,0,0,0,0,0,0,0,0
1683171432.90040898,111128864,1000,1000,1000,1000,0,0,0,0,0,0,0,0,0,0
1683171433.00036883,111228824,1000,1000,1000,1000,0,0,0,0,0,0,0,0,0,0
1683171433.10032892,111328784,1000,1000,1000,1000,0,0,0,0,0,0,0,0,0,0
1683171433.20028901,111428744,1000,1000,1000,1000,0,0,0,0,0,0,0,0,0,0
1683171433.30024886,111528704,1000,1000,1000,1000,0,0,0,0,0,0,0,0,0,0
1683171433.40020895,111628664,1000,1000,1000,1000,0,0,0,0,0,0,0,0,0,0
1683171433.50016904,111728624,1000,1000,1000,1000,0,0,0,0,0,0,0,0,0,0
1683171433.60012889,111828584,1000,1000,1000,1000,0,0,0,0,0,0,0,0,0,0
1683171433.70008898,111928544,1000,1000,1000,1000,0,0,0,0,0,0,0,0,0,0
1683171433.80004883,112028504,1000,1000,1000,1000,0,0,0,0,0,0,0,0,0,0
1683171433.90000892,112128464,1000,1000,1000,1000,0,0,0,0,0,0,0,0,0,0
1683171433.99996901,112228424,1000,1000,1000,1000,0,0,0,0,0,0,0,0,0,0
1683171434.09992886,112328384,1000,1000,1000,1000,0,0,0,0,0,0,0,0,0,0
1683171434.19988894,112428344,1000,1000,1000,1000,0,0,0,0,0,0,0,0,0,0
1683171434.29984903,112528304,1000,1000,1000,1000,0,0,0,0,0,0,0,0,0,0
1683171434.39980888,112628264,1000,1000,1000,1000,0,0,0,0,0,0,0,0,0,0
1683171434.49976897,112728224,1000,1000,1000,1000,0,0,0,0,0,0,0,0,0,0
1683171434.59972882,112828184,1000,1000,1000,1000,0,0,0,0,0,0,0,0,0,0
1683171434.70052195,112928977,1000,1000,1000,1000,0,0,0,0,0,0,0,0,0,0
1683171434.80048203,113028937,1000,1000,1000,1000,0,0,0,0,0,0,0,0,0,0
1683171434.90044188,113128897,1000,1000,1000,1000,0,0,0,0,0,0,0,0,0,0
1683171435.00040197,113228857,1000,1000,1000,1000,0,0,0,0,0,0,0,0,0,0
1683171435.10036182,113328817,1000,1000,1000,1000,0,0,0,0,0,0,0,0,0,0
1683171435.20032191,113428777,1000,1000,1000,1000,0,0,0,0,0,0,0,0,0,0
1683171435.30028200,113528737,1000,1000,1000,1000,0,0,0,0,0,0,0,0,0,0
1683171435.40024185,113628697,1000,1000,1000,1000,0,0,0,0,0,0,0,0,0,0
1683171435.50020194,113728657,1000,1000,1000,1000,0,0,0,0,0,0,0,0,0,0
1683171435.60016203,113828617,1000,1000,1000,1000,0,0,0,0,0,0,0,0,0,0
1683171435.70012188,113928577,1000,1000,1000,1000,0,0,0,0,0,0,0,0,0,0
1683171435.80008197,114028537,1000,1000,1000,1000,0,0,0,0,0,0,0,0,0,0
1683171435.90004182,114128497,1000,1000,1000,1000,0,0,0,0,0,0,0,0,0,0
1683171436.00000191,114228457,1000,1000,1000,1000,0,0,0,0,0,0,0,0,0,0
1683171436.09996200,114328417,1000,1000,1000,1000,0,0,0,0,0,0,0,0,0,0
1683171436.19992185,114428377,1000,1000,1000,1000,0,0,0,0,0,0,0,0,0,0
1683171436.29988194,114528337,1000,1000,1000,1000,0,0,0,0,0,0,0,0,0,0
1683171436.39984202,114628297,1000,1000,1000,1000,0,0,0,0,0,0,0,0,0,0
1683171436.49980187,114728257,1000,1000,1000,1000,0,0,0,0,0,0,0,0,0,0
