TimeUS,M1,M2,M3,M4,TimeUS,C1,C2,C3,C4
61378772,1000,1000,1000,1000,61428752,1000,1000,1000,1000
61381271,1000,1000,1000,1000,61528712,1000,1000,1000,1000
61383770,1000,1000,1000,1000,61628672,1000,1000,1000,1000
61386269,1000,1000,1000,1000,61728632,1000,1000,1000,1000
61388768,1000,1000,1000,1000,61828592,1000,1000,1000,1000
61391267,1000,1000,1000,1000,61928552,1000,1000,1000,1000
61393766,1000,1000,1000,1000,62028512,1000,1000,1000,1000
61396265,1000,1000,1000,1000,62128472,1000,1000,1000,1000
61398764,1000,1000,1000,1000,62228432,1000,1000,1000,1000
61401263,1000,1000,1000,1000,62328392,1000,1000,1000,1000
61403762,1000,1000,1000,1000,62428352,1000,1000,1000,1000
61406261,1000,1000,1000,1000,62528312,1000,1000,1000,1000
61408760,1000,1000,1000,1000,62628272,1000,1000,1000,1000
61411259,1000,1000,1000,1000,62728232,1000,1000,1000,1000
61413758,1000,1000,1000,1000,62828192,1000,1000,1000,1000
61416257,1000,1000,1000,1000,62928985,1000,1000,1000,1000
61418756,1000,1000,1000,1000,63028945,1000,1000,1000,1000
61421255,1000,1000,1000,1000,63128905,1000,1000,1000,1000
61423754,1000,1000,1000,1000,63228865,1000,1000,1000,1000
61426253,1000,1000,1000,1000,63328825,1000,1000,1000,1000
61428752,1000,1000,1000,1000,63428785,1015,1015,1015,1015
61431251,1000,1000,1000,1000,63528745,1045,1045,1045,1045
61433750,1000,1000,1000,1000,63628705,1075,1075,1075,1075
61436249,1000,1000,1000,1000,63728665,1104,1104,1104,1104
61438748,1000,1000,1000,1000,63828625,1134,1134,1134,1134
61441247,1000,1000,1000,1000,63928585,1288,1280,1281,1289
61443746,1000,1000,1000,1000,64028545,1495,1489,1489,1495
61446245,1000,1000,1000,1000,64128505,1656,1651,1651,1657
61448744,1000,1000,1000,1000,64228465,1792,1788,1788,1792
61451243,1000,1000,1000,1000,64328425,1847,1842,1842,1847
61453742,1000,1000,1000,1000,64428385,1857,1854,1854,1858
61456241,1000,1000,1000,1000,64528345,1738,1736,1737,1738
61458740,1000,1000,1000,1000,64628305,1638,1640,1640,1639
61461239,1000,1000,1000,1000,64728265,1616,1608,1609,1616
61463738,1000,1000,1000,1000,64828225,1618,1621,1615,1624
61466237,1000,1000,1000,1000,64928185,1630,1633,1629,1635
61468736,1000,1000,1000,1000,65028978,1634,1637,1635,1636
61471235,1000,1000,1000,1000,65128938,1633,1633,1635,1632
61473734,1000,1000,1000,1000,65228898,1626,1625,1629,1623
61476233,1000,1000,1000,1000,65328858,1624,1622,1626,1620
61478732,1000,1000,1000,1000,65428818,1623,1621,1624,1619
61481231,1000,1000,1000,1000,65528778,1622,1622,1623,1621
61483730,1000,1000,1000,1000,65628738,1623,1623,1622,1623
61486229,1000,1000,1000,1000,65728698,1610,1610,1611,1609
61488728,1000,1000,1000,1000,65828658,1585,1586,1592,1579
61491227,1000,1000,1000,1000,65928618,1572,1573,1576,1569
61493726,1000,1000,1000,1000,66028578,1562,1562,1561,1563
61496225,1000,1000,1000,1000,66128538,1554,1553,1550,1558
61498724,1000,1000,1000,1000,66228498,1546,1546,1538,1554
61501223,1000,1000,1000,1000,66328458,1540,1539,1532,1546
61503722,1000,1000,1000,1000,66428418,1534,1533,1529,1538
61506221,1000,1000,1000,1000,66528378,1528,1527,1526,1529
61508720,1000,1000,1000,1000,66628338,1527,1527,1528,1526
61511219,1000,1000,1000,1000,66728298,1528,1529,1531,1526
61513718,1000,1000,1000,1000,66828258,1531,1531,1534,1528
61516217,1000,1000,1000,1000,66928218,1535,1534,1537,1533
61518716,1000,1000,1000,1000,67028178,1538,1538,1540,1536
61521215,1000,1000,1000,1000,67128971,1542,1542,1543,1541
61523714,1000,1000,1000,1000,67228931,1545,1545,1546,1545
61526213,1000,1000,1000,1000,67328891,1548,1548,1548,1549
61528712,1000,1000,1000,1000,67428851,1550,1550,1550,1552
61531211,1000,1000,1000,1000,67528811,1553,1553,1551,1554
61533710,1000,1000,1000,1000,67628771,1556,1556,1554,1557
61536209,1000,1000,1000,1000,67728731,1558,1558,1558,1559
61538708,1000,1000,1000,1000,67828691,1559,1559,1561,1561
61541207,1000,1000,1000,1000,67928651,1561,1560,1565,1564
61543706,1000,1000,1000,1000,68028611,1562,1562,1567,1566
61546205,1000,1000,1000,1000,68128571,1564,1565,1569,1568
61548704,1000,1000,1000,1000,68228531,1566,1566,1569,1569
61551203,1000,1000,1000,1000,68328491,1567,1567,1570,1570
61553702,1000,1000,1000,1000,68428451,1568,1569,1569,1569
61556201,1000,1000,1000,1000,68528411,1569,1570,1569,1570
61558700,1000,1000,1000,1000,68628371,1571,1571,1569,1569
61561199,1000,1000,1000,1000,68728331,1571,1571,1569,1569
61563698,1000,1000,1000,1000,68828291,1573,1573,1570,1570
61566197,1000,1000,1000,1000,68928251,1574,1573,1571,1570
61568696,1000,1000,1000,1000,69028211,1575,1575,1572,1571
61571195,1000,1000,1000,1000,69128171,1576,1575,1574,1572
61573694,1000,1000,1000,1000,69228964,1576,1575,1574,1573
61576193,1000,1000,1000,1000,69328924,1575,1576,1575,1574
61578692,1000,1000,1000,1000,69428884,1575,1575,1575,1575
61581191,1000,1000,1000,1000,69528844,1576,1576,1575,1576
61583690,1000,1000,1000,1000,69628804,1574,1575,1575,1575
61586189,1000,1000,1000,1000,69728764,1576,1576,1576,1576
61588688,1000,1000,1000,1000,69828724,1576,1577,1578,1577
61591187,1000,1000,1000,1000,69928684,1577,1577,1578,1578
61593686,1000,1000,1000,1000,70028644,1577,1577,1578,1577
61596185,1000,1000,1000,1000,70128604,1577,1577,1578,1578
61598684,1000,1000,1000,1000,70228564,1577,1577,1578,1578
61601183,1000,1000,1000,1000,70328524,1577,1577,1577,1577
61603682,1000,1000,1000,1000,70428484,1578,1577,1577,1578
61606181,1000,1000,1000,1000,70528444,1578,1577,1577,1577
61608680,1000,1000,1000,1000,70628404,1578,1579,1578,1578
61611179,1000,1000,1000,1000,70728364,1578,1578,1578,1577
61613678,1000,1000,1000,1000,70828324,1579,1579,1579,1578
61616177,1000,1000,1000,1000,70928284,1579,1579,1579,1578
61618676,1000,1000,1000,1000,71028244,1579,1579,1579,1579
61621175,1000,1000,1000,1000,71128204,1579,1579,1578,1579
61623674,1000,1000,1000,1000,71228164,1578,1579,1578,1579
61626173,1000,1000,1000,1000,71328957,1578,1578,1578,1579
61628672,1000,1000,1000,1000,71428917,1578,1578,1578,1578
61631171,1000,1000,1000,1000,71528877,1579,1579,1579,1579
61633670,1000,1000,1000,1000,71628837,1580,1579,1580,1579
61636169,1000,1000,1000,1000,71728797,1579,1579,1579,1579
61638668,1000,1000,1000,1000,71828757,1579,1580,1580,1579
61641167,1000,1000,1000,1000,71928717,1578,1579,1579,1579
61643666,1000,1000,1000,1000,72028677,1580,1580,1580,1580
61646165,1000,1000,1000,1000,72128637,1579,1579,1579,1580
61648664,1000,1000,1000,1000,72228597,1579,1579,1579,1579
61651163,1000,1000,1000,1000,72328557,1579,1579,1579,1579
61653662,1000,1000,1000,1000,72428517,1580,1580,1581,1580
61656161,1000,1000,1000,1000,72528477,1580,1580,1580,1580
61658660,1000,1000,1000,1000,72628437,1581,1581,1581,1581
61661159,1000,1000,1000,1000,72728397,1581,1581,1581,1581
61663658,1000,1000,1000,1000,72828357,1580,1580,1580,1580
61666157,1000,1000,1000,1000,72928317,1579,1580,1580,1580
61668656,1000,1000,1000,1000,73028277,1580,1580,1580,1579
61671155,1000,1000,1000,1000,73128237,1580,1580,1580,1581
61673654,1000,1000,1000,1000,73228197,1581,1581,1581,1580
61676153,1000,1000,1000,1000,73328157,1580,1580,1580,1580
61678652,1000,1000,1000,1000,73428950,1580,1580,1580,1580
61681151,1000,1000,1000,1000,73528910,1581,1581,1581,1581
61683650,1000,1000,1000,1000,73628870,1581,1581,1581,1581
61686149,1000,1000,1000,1000,73728830,1580,1580,1580,1580
61688648,1000,1000,1000,1000,73828790,1580,1581,1584,1577
61691147,1000,1000,1000,1000,73928750,1579,1582,1587,1572
61693646,1000,1000,1000,1000,74028710,1578,1581,1581,1572
61696145,1000,1000,1000,1000,74128670,1577,1579,1571,1572
61698644,1000,1000,1000,1000,74228630,1576,1579,1564,1570
61701143,1000,1000,1000,1000,74328590,1577,1579,1558,1566
61703642,1000,1000,1000,1000,74428550,1579,1578,1556,1561
61706141,1000,1000,1000,1000,74528510,1579,1577,1555,1557
61708640,1000,1000,1000,1000,74628470,1579,1577,1555,1554
61711139,1000,1000,1000,1000,74728430,1579,1578,1556,1554
61713638,1000,1000,1000,1000,74828390,1577,1577,1556,1553
61716137,1000,1000,1000,1000,74928350,1576,1576,1555,1554
61718636,1000,1000,1000,1000,75028310,1575,1577,1555,1554
61721135,1000,1000,1000,1000,75128270,1575,1577,1554,1555
61723634,1000,1000,1000,1000,75228230,1575,1577,1552,1553
61726133,1000,1000,1000,1000,75328190,1575,1577,1550,1551
61728632,1000,1000,1000,1000,75428983,1577,1578,1549,1549
61731131,1000,1000,1000,1000,75528943,1580,1580,1547,1547
61733630,1000,1000,1000,1000,75628903,1582,1583,1544,1543
61736129,1000,1000,1000,1000,75728863,1585,1586,1542,1541
61738628,1000,1000,1000,1000,75828823,1588,1588,1538,1538
61741127,1000,1000,1000,1000,75928783,1590,1591,1535,1535
61743626,1000,1000,1000,1000,76028743,1594,1594,1534,1535
61746125,1000,1000,1000,1000,76128703,1595,1594,1533,1535
61748624,1000,1000,1000,1000,76228663,1594,1595,1534,1536
61751123,1000,1000,1000,1000,76328623,1594,1593,1537,1539
61753622,1000,1000,1000,1000,76428583,1591,1591,1542,1545
61756121,1000,1000,1000,1000,76528543,1586,1584,1548,1551
61758620,1000,1000,1000,1000,76628503,1579,1576,1557,1560
61761119,1000,1000,1000,1000,76728463,1571,1567,1569,1571
61763618,1000,1000,1000,1000,76828423,1560,1556,1581,1583
61766117,1000,1000,1000,1000,76928383,1547,1544,1593,1593
61768616,1000,1000,1000,1000,77028343,1538,1537,1604,1603
61771115,1000,1000,1000,1000,77128303,1531,1531,1611,1610
61773614,1000,1000,1000,1000,77228263,1529,1530,1616,1614
61776113,1000,1000,1000,1000,77328223,1530,1532,1616,1615
61778612,1000,1000,1000,1000,77428183,1534,1536,1612,1612
61781111,1000,1000,1000,1000,77528976,1540,1542,1606,1606
61783610,1000,1000,1000,1000,77628936,1549,1550,1599,1600
61786109,1000,1000,1000,1000,77728896,1558,1558,1592,1592
61788608,1000,1000,1000,1000,77828856,1568,1568,1585,1585
61791107,1000,1000,1000,1000,77928816,1576,1575,1579,1578
61793606,1000,1000,1000,1000,78028776,1581,1580,1573,1571
61796105,1000,1000,1000,1000,78128736,1585,1584,1568,1568
61798604,1000,1000,1000,1000,78228696,1587,1586,1566,1566
61801103,1000,1000,1000,1000,78328656,1587,1586,1565,1566
61803602,1000,1000,1000,1000,78428616,1586,1585,1566,1567
61806101,1000,1000,1000,1000,78528576,1584,1584,1568,1569
61808600,1000,1000,1000,1000,78628536,1582,1582,1572,1572
61811099,1000,1000,1000,1000,78728496,1579,1579,1576,1575
61813598,1000,1000,1000,1000,78828456,1577,1577,1579,1578
61816097,1000,1000,1000,1000,78928416,1514,1515,1596,1598
61818596,1000,1000,1000,1000,79028376,1533,1535,1600,1600
61821095,1000,1000,1000,1000,79128336,1551,1554,1597,1596
61823594,1000,1000,1000,1000,79228296,1568,1570,1591,1590
61826093,1000,1000,1000,1000,79328256,1582,1583,1583,1582
61828592,1000,1000,1000,1000,79428216,1594,1593,1576,1575
61831091,1000,1000,1000,1000,79528176,1601,1599,1571,1571
61833590,1000,1000,1000,1000,79628969,1605,1602,1568,1568
61836089,1000,1000,1000,1000,79728929,1606,1603,1568,1569
61838588,1000,1000,1000,1000,79828889,1603,1601,1568,1569
61841087,1000,1000,1000,1000,79928849,1600,1599,1570,1571
61843586,1000,1000,1000,1000,80028809,1596,1596,1572,1573
61846085,1000,1000,1000,1000,80128769,1592,1592,1574,1575
61848584,1000,1000,1000,1000,80228729,1588,1589,1577,1577
61851083,1000,1000,1000,1000,80328689,1584,1585,1579,1579
61853582,1000,1000,1000,1000,80428649,1581,1582,1582,1581
61856081,1000,1000,1000,1000,80528609,1579,1579,1583,1583
61858580,1000,1000,1000,1000,80628569,1577,1577,1585,1585
61861079,1000,1000,1000,1000,80728529,1574,1575,1586,1586
61863578,1000,1000,1000,1000,80828489,1573,1574,1586,1586
61866077,1000,1000,1000,1000,80928449,1573,1573,1586,1586
61868576,1000,1000,1000,1000,81028409,1573,1573,1585,1585
61871075,1000,1000,1000,1000,81128369,1575,1576,1585,1585
61873574,1000,1000,1000,1000,81228329,1576,1577,1584,1584
61876073,1000,1000,1000,1000,81328289,1578,1578,1582,1582
61878572,1000,1000,1000,1000,81428249,1580,1580,1581,1580
61881071,1000,1000,1000,1000,81528209,1581,1581,1578,1579
61883570,1000,1000,1000,1000,81628169,1583,1582,1578,1578
61886069,1000,1000,1000,1000,81728962,1584,1583,1578,1578
61888568,1000,1000,1000,1000,81828922,1585,1585,1580,1577
61891067,1000,1000,1000,1000,81928882,1584,1585,1584,1569
61893566,1000,1000,1000,1000,82028842,1583,1584,1579,1569
61896065,1000,1000,1000,1000,82128802,1581,1582,1569,1568
61898564,1000,1000,1000,1000,82228762,1580,1582,1562,1567
61901063,1000,1000,1000,1000,82328722,1578,1580,1556,1563
61903562,1000,1000,1000,1000,82428682,1578,1580,1554,1559
61906061,1000,1000,1000,1000,82528642,1579,1580,1555,1557
61908560,1000,1000,1000,1000,82628602,1580,1579,1555,1555
61911059,1000,1000,1000,1000,82728562,1578,1577,1555,1553
61913558,1000,1000,1000,1000,82828522,1577,1577,1555,1552
61916057,1000,1000,1000,1000,82928482,1577,1577,1555,1554
61918556,1000,1000,1000,1000,83028442,1575,1576,1553,1553
61921055,1000,1000,1000,1000,83128402,1575,1577,1552,1553
61923554,1000,1000,1000,1000,83228362,1575,1577,1551,1552
61926053,1000,1000,1000,1000,83328322,1577,1578,1551,1551
61928552,1000,1000,1000,1000,83428282,1578,1579,1549,1548
61931051,1000,1000,1000,1000,83528242,1579,1581,1547,1547
61933550,1000,1000,1000,1000,83628202,1582,1583,1545,1545
61936049,1000,1000,1000,1000,83728162,1584,1584,1543,1542
61938548,1000,1000,1000,1000,83828955,1586,1586,1541,1541
61941047,1000,1000,1000,1000,83928915,1588,1587,1540,1540
61943546,1000,1000,1000,1000,84028875,1589,1589,1539,1540
61946045,1000,1000,1000,1000,84128835,1589,1590,1538,1541
61948544,1000,1000,1000,1000,84228795,1589,1590,1539,1541
61951043,1000,1000,1000,1000,84328755,1589,1589,1542,1545
61953542,1000,1000,1000,1000,84428715,1587,1586,1548,1550
61956041,1000,1000,1000,1000,84528675,1583,1579,1554,1556
61958540,1000,1000,1000,1000,84628635,1576,1573,1563,1566
61961039,1000,1000,1000,1000,84728595,1567,1564,1574,1576
61963538,1000,1000,1000,1000,84828555,1558,1554,1585,1587
61966037,1000,1000,1000,1000,84928515,1548,1546,1595,1596
61968536,1000,1000,1000,1000,85028475,1541,1540,1604,1604
61971035,1000,1000,1000,1000,85128435,1536,1536,1609,1608
61973534,1000,1000,1000,1000,85228395,1534,1536,1612,1611
61976033,1000,1000,1000,1000,85328355,1535,1537,1610,1610
61978532,1000,1000,1000,1000,85428315,1539,1541,1607,1606
61981031,1000,1000,1000,1000,85528275,1546,1548,1602,1602
61983530,1000,1000,1000,1000,85628235,1554,1555,1596,1595
61986029,1000,1000,1000,1000,85728195,1562,1562,1589,1588
61988528,1000,1000,1000,1000,85828155,1569,1569,1582,1581
61991027,1000,1000,1000,1000,85928948,1576,1575,1576,1576
61993526,1000,1000,1000,1000,86028908,1581,1580,1571,1572
61996025,1000,1000,1000,1000,86128868,1585,1584,1569,1569
61998524,1000,1000,1000,1000,86228828,1587,1585,1567,1568
62001023,1000,1000,1000,1000,86328788,1587,1586,1567,1567
62003522,1000,1000,1000,1000,86428748,1587,1585,1568,1569
62006021,1000,1000,1000,1000,86528708,1585,1585,1571,1571
62008520,1000,1000,1000,1000,86628668,1583,1583,1574,1573
62011019,1000,1000,1000,1000,86728628,1580,1580,1576,1576
62013518,1000,1000,1000,1000,86828588,1578,1577,1579,1578
62016017,1000,1000,1000,1000,86928548,1575,1575,1580,1580
62018516,1000,1000,1000,1000,87028508,1573,1574,1582,1582
62021015,1000,1000,1000,1000,87128468,1573,1574,1583,1583
62023514,1000,1000,1000,1000,87228428,1574,1574,1584,1585
62026013,1000,1000,1000,1000,87328388,1573,1574,1584,1584
62028512,1000,1000,1000,1000,87428348,1575,1575,1583,1583
62031011,1000,1000,1000,1000,87528308,1576,1576,1582,1582
62033510,1000,1000,1000,1000,87628268,1577,1577,1582,1581
62036009,1000,1000,1000,1000,87728228,1579,1578,1580,1580
62038508,1000,1000,1000,1000,87828188,1579,1579,1579,1579
62041007,1000,1000,1000,1000,87928981,1581,1581,1579,1579
62043506,1000,1000,1000,1000,88028941,1581,1581,1578,1578
62046005,1000,1000,1000,1000,88128901,1582,1582,1578,1578
62048504,1000,1000,1000,1000,88228861,1582,1582,1578,1577
62051003,1000,1000,1000,1000,88328821,1581,1581,1577,1577
62053502,1000,1000,1000,1000,88428781,1582,1582,1578,1579
62056001,1000,1000,1000,1000,88528741,1582,1581,1579,1579
62058500,1000,1000,1000,1000,88628701,1581,1581,1580,1580
62060999,1000,1000,1000,1000,88728661,1580,1580,1580,1580
62063498,1000,1000,1000,1000,88828621,1580,1580,1581,1580
62065997,1000,1000,1000,1000,88928581,1579,1580,1581,1581
62068496,1000,1000,1000,1000,89028541,1580,1580,1582,1582
62070995,1000,1000,1000,1000,89128501,1580,1580,1582,1582
62073494,1000,1000,1000,1000,89228461,1580,1580,1581,1581
62075993,1000,1000,1000,1000,89328421,1580,1580,1582,1581
62078492,1000,1000,1000,1000,89428381,1580,1580,1581,1581
62080991,1000,1000,1000,1000,89528341,1581,1581,1581,1581
62083490,1000,1000,1000,1000,89628301,1581,1581,1581,1581
62085989,1000,1000,1000,1000,89728261,1581,1581,1581,1581
62088488,1000,1000,1000,1000,89828221,1582,1582,1582,1582
62090987,1000,1000,1000,1000,89928181,1581,1582,1581,1581
62093486,1000,1000,1000,1000,90028974,1581,1581,1580,1580
62095985,1000,1000,1000,1000,90128934,1581,1581,1585,1575
62098484,1000,1000,1000,1000,90228894,1581,1583,1587,1572
62100983,1000,1000,1000,1000,90328854,1581,1583,1580,1573
62103482,1000,1000,1000,1000,90428814,1579,1581,1570,1572
62105981,1000,1000,1000,1000,90528774,1578,1580,1563,1569
62108480,1000,1000,1000,1000,90628734,1577,1579,1557,1564
62110979,1000,1000,1000,1000,90728694,1578,1579,1555,1560
62113478,1000,1000,1000,1000,90828654,1579,1579,1555,1556
62115977,1000,1000,1000,1000,90928614,1580,1579,1556,1555
62118476,1000,1000,1000,1000,91028574,1579,1578,1556,1553
62120975,1000,1000,1000,1000,91128534,1578,1577,1556,1553
62123474,1000,1000,1000,1000,91228494,1576,1577,1555,1554
62125973,1000,1000,1000,1000,91328454,1575,1576,1554,1554
62128472,1000,1000,1000,1000,91428414,1574,1576,1552,1553
62130971,1000,1000,1000,1000,91528374,1574,1576,1552,1552
62133470,1000,1000,1000,1000,91628334,1575,1577,1551,1551
62135969,1000,1000,1000,1000,91728294,1577,1578,1550,1549
62138468,1000,1000,1000,1000,91828254,1579,1580,1547,1547
62140967,1000,1000,1000,1000,91928214,1581,1582,1545,1545
62143466,1000,1000,1000,1000,92028174,1584,1584,1542,1542
62145965,1000,1000,1000,1000,92128967,1587,1586,1540,1540
62148464,1000,1000,1000,1000,92228927,1589,1590,1539,1539
62150963,1000,1000,1000,1000,92328887,1591,1591,1538,1539
62153462,1000,1000,1000,1000,92428847,1591,1592,1537,1538
62155961,1000,1000,1000,1000,92528807,1593,1593,1539,1540
62158460,1000,1000,1000,1000,92628767,1592,1592,1541,1542
62160959,1000,1000,1000,1000,92728727,1590,1588,1544,1547
62163458,1000,1000,1000,1000,92828687,1585,1582,1550,1554
62165957,1000,1000,1000,1000,92928647,1578,1574,1558,1561
62168456,1000,1000,1000,1000,93028607,1569,1566,1569,1571
62170955,1000,1000,1000,1000,93128567,1559,1556,1580,1581
62173454,1000,1000,1000,1000,93228527,1551,1548,1592,1593
62175953,1000,1000,1000,1000,93328487,1543,1541,1601,1601
62178452,1000,1000,1000,1000,93428447,1535,1536,1607,1606
62180951,1000,1000,1000,1000,93528407,1533,1534,1611,1610
62183450,1000,1000,1000,1000,93628367,1534,1536,1611,1611
62185949,1000,1000,1000,1000,93728327,1537,1538,1609,1608
62188448,1000,1000,1000,1000,93828287,1543,1545,1605,1605
62190947,1000,1000,1000,1000,93928247,1551,1552,1600,1599
62193446,1000,1000,1000,1000,94028207,1558,1559,1593,1592
62195945,1000,1000,1000,1000,94128167,1566,1566,1586,1585
62198444,1000,1000,1000,1000,94228960,1573,1573,1580,1579
62200943,1000,1000,1000,1000,94328920,1579,1578,1575,1574
62203442,1000,1000,1000,1000,94428880,1583,1582,1570,1570
62205941,1000,1000,1000,1000,94528840,1586,1585,1568,1569
62208440,1000,1000,1000,1000,94628800,1588,1587,1568,1568
62210939,1000,1000,1000,1000,94728760,1588,1586,1568,1569
62213438,1000,1000,1000,1000,94828720,1586,1585,1570,1570
62215937,1000,1000,1000,1000,94928680,1584,1583,1571,1572
62218436,1000,1000,1000,1000,95028640,1581,1581,1574,1574
62220935,1000,1000,1000,1000,95128600,1578,1579,1578,1577
62223434,1000,1000,1000,1000,95228560,1576,1577,1580,1579
62225933,1000,1000,1000,1000,95328520,1575,1575,1582,1582
62228432,1000,1000,1000,1000,95428480,1574,1575,1583,1584
62230931,1000,1000,1000,1000,95528440,1573,1573,1584,1584
62233430,1000,1000,1000,1000,95628400,1574,1574,1584,1584
62235929,1000,1000,1000,1000,95728360,1574,1575,1584,1583
62238428,1000,1000,1000,1000,95828320,1576,1576,1584,1583
62240927,1000,1000,1000,1000,95928280,1577,1577,1582,1582
62243426,1000,1000,1000,1000,96028240,1577,1577,1580,1580
62245925,1000,1000,1000,1000,96128200,1578,1578,1579,1579
62248424,1000,1000,1000,1000,96228160,1579,1579,1578,1578
62250923,1000,1000,1000,1000,96328953,1581,1581,1578,1578
62253422,1000,1000,1000,1000,96428913,1580,1581,1577,1576
62255921,1000,1000,1000,1000,96528873,1580,1581,1576,1576
62258420,1000,1000,1000,1000,96628833,1581,1581,1576,1576
62260919,1000,1000,1000,1000,96728793,1581,1580,1577,1577
62263418,1000,1000,1000,1000,96828753,1581,1581,1578,1578
62265917,1000,1000,1000,1000,96928713,1581,1581,1579,1579
62268416,1000,1000,1000,1000,97028673,1580,1580,1580,1580
62270915,1000,1000,1000,1000,97128633,1580,1581,1580,1581
62273414,1000,1000,1000,1000,97228593,1580,1580,1580,1581
62275913,1000,1000,1000,1000,97328553,1580,1580,1581,1581
62278412,1000,1000,1000,1000,97428513,1580,1580,1582,1582
62280911,1000,1000,1000,1000,97528473,1579,1579,1581,1581
62283410,1000,1000,1000,1000,97628433,1580,1580,1581,1581
62285909,1000,1000,1000,1000,97728393,1580,1580,1581,1581
62288408,1000,1000,1000,1000,97828353,1580,1580,1581,1581
62290907,1000,1000,1000,1000,97928313,1581,1581,1582,1581
62293406,1000,1000,1000,1000,98028273,1580,1580,1580,1580
62295905,1000,1000,1000,1000,98128233,1580,1581,1585,1575
62298404,1000,1000,1000,1000,98228193,1580,1581,1586,1572
62300903,1000,1000,1000,1000,98328986,1579,1579,1580,1574
62303402,1000,1000,1000,1000,98428946,1576,1575,1573,1574
62305901,1000,1000,1000,1000,98528906,1572,1572,1567,1573
62308400,1000,1000,1000,1000,98628866,1570,1569,1565,1571
62310899,1000,1000,1000,1000,98728826,1568,1568,1564,1569
62313398,1000,1000,1000,1000,98828786,1567,1567,1565,1567
62315897,1000,1000,1000,1000,98928746,1566,1567,1567,1566
62318396,1000,1000,1000,1000,99028706,1566,1566,1568,1565
62320895,1000,1000,1000,1000,99128666,1564,1564,1566,1564
62323394,1000,1000,1000,1000,99228626,1563,1563,1565,1564
62325893,1000,1000,1000,1000,99328586,1563,1563,1564,1564
62328392,1000,1000,1000,1000,99428546,1563,1563,1564,1564
62330891,1000,1000,1000,1000,99528506,1562,1562,1563,1563
62333390,1000,1000,1000,1000,99628466,1561,1561,1562,1562
62335889,1000,1000,1000,1000,99728426,1562,1561,1562,1562
62338388,1000,1000,1000,1000,99828386,1562,1561,1562,1562
62340887,1000,1000,1000,1000,99928346,1562,1562,1562,1561
62343386,1000,1000,1000,1000,100028306,1560,1561,1561,1560
62345885,1000,1000,1000,1000,100128266,1561,1560,1560,1560
62348384,1000,1000,1000,1000,100228226,1560,1560,1560,1559
62350883,1000,1000,1000,1000,100328186,1560,1560,1559,1559
62353382,1000,1000,1000,1000,100428979,1559,1559,1559,1558
62355881,1000,1000,1000,1000,100528939,1558,1558,1558,1557
62358380,1000,1000,1000,1000,100628899,1558,1558,1559,1556
62360879,1000,1000,1000,1000,100728859,1559,1558,1559,1557
62363378,1000,1000,1000,1000,100828819,1558,1558,1560,1556
62365877,1000,1000,1000,1000,100928779,1558,1558,1559,1558
62368376,1000,1000,1000,1000,101028739,1559,1559,1558,1561
62370875,1000,1000,1000,1000,101128699,1560,1559,1557,1563
62373374,1000,1000,1000,1000,101228659,1560,1560,1557,1564
62375873,1000,1000,1000,1000,101328619,1561,1561,1559,1563
62378372,1000,1000,1000,1000,101428579,1561,1562,1561,1563
62380871,1000,1000,1000,1000,101528539,1562,1561,1562,1561
62383370,1000,1000,1000,1000,101628499,1561,1561,1562,1558
62385869,1000,1000,1000,1000,101728459,1560,1560,1562,1557
62388368,1000,1000,1000,1000,101828419,1560,1559,1557,1561
62390867,1000,1000,1000,1000,101928379,1558,1557,1553,1560
62393366,1000,1000,1000,1000,102028339,1552,1552,1549,1554
62395865,1000,1000,1000,1000,102128299,1548,1548,1545,1548
62398364,1000,1000,1000,1000,102228259,1542,1542,1541,1540
62400863,1000,1000,1000,1000,102328219,1535,1536,1535,1533
62403362,1000,1000,1000,1000,102428179,1528,1528,1528,1526
62405861,1000,1000,1000,1000,102528972,1522,1521,1521,1520
62408360,1000,1000,1000,1000,102628932,1519,1519,1518,1518
62410859,1000,1000,1000,1000,102728892,1518,1518,1518,1519
62413358,1000,1000,1000,1000,102828852,1520,1520,1521,1522
62415857,1000,1000,1000,1000,102928812,1522,1522,1524,1525
62418356,1000,1000,1000,1000,103028772,1526,1526,1529,1529
62420855,1000,1000,1000,1000,103128732,1531,1531,1534,1534
62423354,1000,1000,1000,1000,103228692,1534,1534,1537,1536
62425853,1000,1000,1000,1000,103328652,1538,1538,1541,1540
62428352,1000,1000,1000,1000,103428612,1541,1541,1543,1542
62430851,1000,1000,1000,1000,103528572,1543,1543,1544,1544
62433350,1000,1000,1000,1000,103628532,1545,1545,1545,1545
62435849,1000,1000,1000,1000,103728492,1547,1547,1546,1546
62438348,1000,1000,1000,1000,103828452,1547,1547,1545,1545
62440847,1000,1000,1000,1000,103928412,1548,1547,1546,1546
62443346,1000,1000,1000,1000,104028372,1548,1548,1546,1546
62445845,1000,1000,1000,1000,104128332,1547,1548,1546,1545
62448344,1000,1000,1000,1000,104228292,1547,1547,1546,1546
62450843,1000,1000,1000,1000,104328252,1547,1547,1546,1546
62453342,1000,1000,1000,1000,104428212,1547,1547,1546,1545
62455841,1000,1000,1000,1000,104528172,1546,1546,1545,1546
62458340,1000,1000,1000,1000,104628965,1545,1545,1545,1545
62460839,1000,1000,1000,1000,104728925,1546,1545,1546,1546
62463338,1000,1000,1000,1000,104828885,1544,1545,1546,1545
62465837,1000,1000,1000,1000,104928845,1544,1545,1545,1545
62468336,1000,1000,1000,1000,105028805,1544,1544,1545,1545
62470835,1000,1000,1000,1000,105128765,1544,1543,1544,1544
62473334,1000,1000,1000,1000,105228725,1544,1544,1545,1545
62475833,1000,1000,1000,1000,105328685,1544,1544,1545,1545
62478332,1000,1000,1000,1000,105428645,1545,1544,1545,1544
62480831,1000,1000,1000,1000,105528605,1545,1544,1544,1545
62483330,1000,1000,1000,1000,105628565,1544,1544,1544,1544
62485829,1000,1000,1000,1000,105728525,1544,1544,1544,1544
62488328,1000,1000,1000,1000,105828485,1544,1545,1544,1544
62490827,1000,1000,1000,1000,105928445,1545,1545,1544,1545
62493326,1000,1000,1000,1000,106028405,1545,1545,1545,1545
62495825,1000,1000,1000,1000,106128365,1545,1545,1544,1545
62498324,1000,1000,1000,1000,106228325,1545,1545,1545,1544
62500823,1000,1000,1000,1000,106328285,1544,1544,1544,1544
62503322,1000,1000,1000,1000,106428245,1543,1544,1544,1543
62505821,1000,1000,1000,1000,106528205,1544,1544,1544,1544
62508320,1000,1000,1000,1000,106628165,1543,1543,1543,1543
62510819,1000,1000,1000,1000,106728958,1545,1544,1544,1545
62513318,1000,1000,1000,1000,106828918,1543,1543,1542,1543
62515817,1000,1000,1000,1000,106928878,1543,1543,1543,1543
62518316,1000,1000,1000,1000,107028838,1543,1544,1544,1544
62520815,1000,1000,1000,1000,107128798,1544,1544,1544,1544
62523314,1000,1000,1000,1000,107228758,1544,1545,1545,1544
62525813,1000,1000,1000,1000,107328718,1544,1544,1544,1545
62528312,1000,1000,1000,1000,107428678,1544,1543,1544,1543
62530811,1000,1000,1000,1000,107528638,1544,1543,1544,1544
62533310,1000,1000,1000,1000,107628598,1545,1545,1545,1545
62535809,1000,1000,1000,1000,107728558,1544,1543,1543,1544
62538308,1000,1000,1000,1000,107828518,1545,1545,1545,1545
62540807,1000,1000,1000,1000,107928478,1545,1544,1544,1545
62543306,1000,1000,1000,1000,108028438,1544,1544,1544,1544
62545805,1000,1000,1000,1000,108128398,1545,1544,1545,1545
62548304,1000,1000,1000,1000,108228358,1545,1545,1545,1544
62550803,1000,1000,1000,1000,108328318,1544,1544,1544,1544
62553302,1000,1000,1000,1000,108428278,1544,1544,1544,1544
62555801,1000,1000,1000,1000,108528238,1543,1544,1543,1544
62558300,1000,1000,1000,1000,108628198,1545,1545,1545,1545
62560799,1000,1000,1000,1000,108728158,1544,1544,1544,1544
62563298,1000,1000,1000,1000,108828951,1544,1543,1544,1543
62565797,1000,1000,1000,1000,108928911,1544,1544,1544,1544
62568296,1000,1000,1000,1000,109028871,1544,1544,1544,1543
62570795,1000,1000,1000,1000,109128831,1544,1544,1544,1544
62573294,1000,1000,1000,1000,109228791,1545,1545,1545,1545
62575793,1000,1000,1000,1000,109328751,1544,1544,1544,1544
62578292,1000,1000,1000,1000,109428711,1545,1545,1545,1545
62580791,1000,1000,1000,1000,109528671,1544,1544,1544,1545
62583290,1000,1000,1000,1000,109628631,1545,1545,1545,1545
62585789,1000,1000,1000,1000,109728591,1544,1544,1544,1544
62588288,1000,1000,1000,1000,109828551,1543,1543,1543,1543
62590787,1000,1000,1000,1000,109928511,1544,1544,1544,1544
62593286,1000,1000,1000,1000,110028471,1544,1545,1544,1544
62595785,1000,1000,1000,1000,110128431,1545,1545,1545,1545
62598284,1000,1000,1000,1000,110228391,1544,1544,1544,1544
62600783,1000,1000,1000,1000,110328351,1545,1544,1544,1544
62603282,1000,1000,1000,1000,110428311,1544,1544,1545,1544
62605781,1000,1000,1000,1000,110528271,1544,1545,1544,1544
62608280,1000,1000,1000,1000,110628231,1545,1545,1545,1545
62610779,1000,1000,1000,1000,110728191,1544,1544,1544,1544
62613278,1000,1000,1000,1000,110828984,1544,1544,1544,1544
62615777,1000,1000,1000,1000,110928944,1545,1544,1544,1545
62618276,1000,1000,1000,1000,111028904,1545,1544,1545,1545
62620775,1000,1000,1000,1000,111128864,1545,1544,1544,1545
62623274,1000,1000,1000,1000,111228824,1544,1545,1545,1545
62625773,1000,1000,1000,1000,111328784,1545,1545,1545,1545
62628272,1000,1000,1000,1000,111428744,1544,1544,1544,1544
62630771,1000,1000,1000,1000,111528704,1544,1544,1544,1543
62633270,1000,1000,1000,1000,111628664,1544,1544,1544,1544
62635769,1000,1000,1000,1000,111728624,1544,1543,1543,1543
62638268,1000,1000,1000,1000,111828584,1544,1544,1544,1544
62640767,1000,1000,1000,1000,111928544,1545,1545,1545,1545
62643266,1000,1000,1000,1000,112028504,1545,1545,1545,1545
62645765,1000,1000,1000,1000,112128464,1545,1545,1544,1545
62648264,1000,1000,1000,1000,112228424,1513,1514,1511,1510
62650763,1000,1000,1000,1000,112328384,1352,1354,1326,1326
62653262,1000,1000,1000,1000,112428344,1280,1283,1238,1238
62655761,1000,1000,1000,1000,112528304,1260,1262,1212,1213
62658260,1000,1000,1000,1000,112628264,1243,1245,1191,1190
62660759,1000,1000,1000,1000,112728224,1213,1215,1150,1150
62663258,1000,1000,1000,1000,112828184,1212,1215,1150,1150
62665757,1000,1000,1000,1000,112928977,1212,1214,1150,1150
62668256,1000,1000,1000,1000,113028937,1213,1214,1150,1151
62670755,1000,1000,1000,1000,113128897,1216,1193,1150,1178
62673254,1000,1000,1000,1000,113228857,1215,1202,1150,1167
62675753,1000,1000,1000,1000,113328817,1215,1205,1150,1164
62678252,1000,1000,1000,1000,113428777,1215,1205,1150,1163
62680751,1000,1000,1000,1000,113528737,1215,1205,1150,1164
62683250,1000,1000,1000,1000,113628697,1215,1205,1150,1164
62685749,1000,1000,1000,1000,113728657,1215,1204,1150,1165
62688248,1000,1000,1000,1000,113828617,1212,1215,1154,1150
62690747,1000,1000,1000,1000,113928577,1213,1212,1150,1150
62693246,1000,1000,1000,1000,114028537,1214,1212,1150,1152
62695745,1000,1000,1000,1000,114128497,1215,1212,1150,1153
62698244,1000,1000,1000,1000,114228457,1215,1212,1150,1153
62700743,1000,1000,1000,1000,114328417,1066,1066,1150,1150
62703242,1000,1000,1000,1000,114428377,1000,1000,1000,1000
62705741,1000,1000,1000,1000,114528337,1000,1000,1000,1000
62708240,1000,1000,1000,1000,114628297,1000,1000,1000,1000
62710739,1000,1000,1000,1000,114728257,1000,1000,1000,1000
62713238,1000,1000,1000,1000,114828217,1000,1000,1000,1000
62715737,1000,1000,1000,1000,114928177,1000,1000,1000,1000
62718236,1000,1000,1000,1000,115028970,1000,1000,1000,1000
62720735,1000,1000,1000,1000,115128930,1000,1000,1000,1000
62723234,1000,1000,1000,1000,115228890,1000,1000,1000,1000
62725733,1000,1000,1000,1000,115328850,1000,1000,1000,1000
62728232,1000,1000,1000,1000,115428810,1000,1000,1000,1000
62730731,1000,1000,1000,1000,115528770,1000,1000,1000,1000
62733230,1000,1000,1000,1000,115628730,1000,1000,1000,1000
62735729,1000,1000,1000,1000,115728690,1000,1000,1000,1000
62738228,1000,1000,1000,1000,115828650,1000,1000,1000,1000
62740727,1000,1000,1000,1000,115928610,1000,1000,1000,1000
62743226,1000,1000,1000,1000,116028570,1000,1000,1000,1000
62745725,1000,1000,1000,1000,116128530,1000,1000,1000,1000
62748224,1000,1000,1000,1000,116228490,1000,1000,1000,1000
62750723,1000,1000,1000,1000,116328450,1000,1000,1000,1000
62753222,1000,1000,1000,1000,116428410,1000,1000,1000,1000
62755721,1000,1000,1000,1000,116528370,1000,1000,1000,1000
62758220,1000,1000,1000,1000,116628330,1000,1000,1000,1000
62760719,1000,1000,1000,1000,116728290,1000,1000,1000,1000
62763218,1000,1000,1000,1000,116828250,1000,1000,1000,1000
62765717,1000,1000,1000,1000,116928210,1000,1000,1000,1000
62768216,1000,1000,1000,1000,117028170,1000,1000,1000,1000
62770715,1000,1000,1000,1000,117128963,1000,1000,1000,1000
62773214,1000,1000,1000,1000,117228923,1000,1000,1000,1000
62775713,1000,1000,1000,1000,117328883,1000,1000,1000,1000
62778212,1000,1000,1000,1000,117428843,1000,1000,1000,1000
62780711,1000,1000,1000,1000,117528803,1000,1000,1000,1000
62783210,1000,1000,1000,1000,117628763,1000,1000,1000,1000
62785709,1000,1000,1000,1000,117728723,1000,1000,1000,1000
62788208,1000,1000,1000,1000,117828683,1000,1000,1000,1000
62790707,1000,1000,1000,1000,117928643,1000,1000,1000,1000
62793206,1000,1000,1000,1000,118028603,1000,1000,1000,1000
62795705,1000,1000,1000,1000,118128563,1000,1000,1000,1000
62798204,1000,1000,1000,1000,118228523,1000,1000,1000,1000
62800703,1000,1000,1000,1000,118328483,1000,1000,1000,1000
62803202,1000,1000,1000,1000,118428443,1000,1000,1000,1000
62805701,1000,1000,1000,1000,118528403,1000,1000,1000,1000
62808200,1000,1000,1000,1000,118628363,1000,1000,1000,1000
62810699,1000,1000,1000,1000,118728323,1000,1000,1000,1000
62813198,1000,1000,1000,1000,118828283,1000,1000,1000,1000
62815697,1000,1000,1000,1000,118928243,1000,1000,1000,1000
62818196,1000,1000,1000,1000,119028203,1000,1000,1000,1000
62820695,1000,1000,1000,1000,119128163,1000,1000,1000,1000
62823194,1000,1000,1000,1000,119228956,1000,1000,1000,1000
62825693,1000,1000,1000,1000,119328916,1000,1000,1000,1000
62828192,1000,1000,1000,1000,119428876,1000,1000,1000,1000
62830691,1000,1000,1000,1000,119528836,1000,1000,1000,1000
62833190,1000,1000,1000,1000,119628796,1000,1000,1000,1000
62835689,1000,1000,1000,1000,119728756,1000,1000,1000,1000
62838188,1000,1000,1000,1000,119828716,1000,1000,1000,1000
62840687,1000,1000,1000,1000,119928676,1000,1000,1000,1000
62843186,1000,1000,1000,1000,120028636,1000,1000,1000,1000
62845685,1000,1000,1000,1000,120128596,1000,1000,1000,1000
62848184,1000,1000,1000,1000,120228556,1000,1000,1000,1000
62850683,1000,1000,1000,1000,120328516,1000,1000,1000,1000
62853182,1000,1000,1000,1000,120428476,1000,1000,1000,1000
62855681,1000,1000,1000,1000,120528436,1000,1000,1000,1000
62858180,1000,1000,1000,1000,120628396,1000,1000,1000,1000
62860679,1000,1000,1000,1000,120728356,1000,1000,1000,1000
62863178,1000,1000,1000,1000,120828316,1000,1000,1000,1000
62865677,1000,1000,1000,1000,120928276,1000,1000,1000,1000
62868176,1000,1000,1000,1000,121028236,1000,1000,1000,1000
62870675,1000,1000,1000,1000,121128196,1000,1000,1000,1000
62873174,1000,1000,1000,1000,121228156,1000,1000,1000,1000
62875673,1000,1000,1000,1000,121328949,1000,1000,1000,1000
62878172,1000,1000,1000,1000,121428909,1000,1000,1000,1000
62880671,1000,1000,1000,1000,121528869,1000,1000,1000,1000
62883170,1000,1000,1000,1000,121628829,1000,1000,1000,1000
62885669,1000,1000,1000,1000,121728789,1000,1000,1000,1000
62888168,1000,1000,1000,1000,121828749,1000,1000,1000,1000
62890667,1000,1000,1000,1000,121928709,1000,1000,1000,1000
62893166,1000,1000,1000,1000,122028669,1000,1000,1000,1000
62895665,1000,1000,1000,1000,122128629,1000,1000,1000,1000
62898164,1000,1000,1000,1000,122228589,1000,1000,1000,1000
62900663,1000,1000,1000,1000,122328549,1000,1000,1000,1000
62903162,1000,1000,1000,1000,122428509,1000,1000,1000,1000
62905661,1000,1000,1000,1000,122528469,1000,1000,1000,1000
62908160,1000,1000,1000,1000,122628429,1000,1000,1000,1000
62910659,1000,1000,1000,1000,122728389,1000,1000,1000,1000
62913158,1000,1000,1000,1000,122828349,1000,1000,1000,1000
62915657,1000,1000,1000,1000,122928309,1000,1000,1000,1000
62918156,1000,1000,1000,1000,123028269,1000,1000,1000,1000
62920655,1000,1000,1000,1000,123128229,1000,1000,1000,1000
62923154,1000,1000,1000,1000,123228189,1000,1000,1000,1000
62926486,1000,1000,1000,1000,123328982,1000,1000,1000,1000
62928985,1000,1000,1000,1000,123428942,1000,1000,1000,1000
62931484,1000,1000,1000,1000,123528902,1000,1000,1000,1000
62933983,1000,1000,1000,1000,123628862,1000,1000,1000,1000
62936482,1000,1000,1000,1000,123728822,1000,1000,1000,1000
62938981,1000,1000,1000,1000,123828782,1000,1000,1000,1000
62941480,1000,1000,1000,1000,123928742,1000,1000,1000,1000
62943979,1000,1000,1000,1000,124028702,1000,1000,1000,1000
62946478,1000,1000,1000,1000,124128662,1000,1000,1000,1000
62948977,1000,1000,1000,1000,124228622,1000,1000,1000,1000
62951476,1000,1000,1000,1000,124328582,1000,1000,1000,1000
62953975,1000,1000,1000,1000,124428542,1000,1000,1000,1000
62956474,1000,1000,1000,1000,124528502,1000,1000,1000,1000
62958973,1000,1000,1000,1000,124628462,1000,1000,1000,1000
62961472,1000,1000,1000,1000,124728422,1000,1000,1000,1000
62963971,1000,1000,1000,1000,124828382,1000,1000,1000,1000
62966470,1000,1000,1000,1000,124928342,1000,1000,1000,1000
62968969,1000,1000,1000,1000,125028302,1000,1000,1000,1000
62971468,1000,1000,1000,1000,125128262,1000,1000,1000,1000
62973967,1000,1000,1000,1000,125228222,1000,1000,1000,1000
62976466,1000,1000,1000,1000,125328182,1000,1000,1000,1000
62978965,1000,1000,1000,1000,125428975,1000,1000,1000,1000
62981464,1000,1000,1000,1000,125528935,1000,1000,1000,1000
62983963,1000,1000,1000,1000,125628895,1000,1000,1000,1000
62986462,1000,1000,1000,1000,125728855,1000,1000,1000,1000
62988961,1000,1000,1000,1000,125828815,1000,1000,1000,1000
62991460,1000,1000,1000,1000,125928775,1000,1000,1000,1000
62993959,1000,1000,1000,1000,126028735,1000,1000,1000,1000
62996458,1000,1000,1000,1000,126128695,1000,1000,1000,1000
62998957,1000,1000,1000,1000,126228655,1000,1000,1000,1000
63001456,1000,1000,1000,1000,126328615,1000,1000,1000,1000
63003955,1000,1000,1000,1000,126428575,1000,1000,1000,1000
63006454,1000,1000,1000,1000,126528535,1000,1000,1000,1000
63008953,1000,1000,1000,1000,126628495,1000,1000,1000,1000
63011452,1000,1000,1000,1000,126728455,1000,1000,1000,1000
63013951,1000,1000,1000,1000,126828415,1000,1000,1000,1000
63016450,1000,1000,1000,1000,126928375,1000,1000,1000,1000
63018949,1000,1000,1000,1000,127028335,1000,1000,1000,1000
63021448,1000,1000,1000,1000,127128295,1000,1000,1000,1000
63023947,1000,1000,1000,1000,127228255,1000,1000,1000,1000
63026446,1000,1000,1000,1000,127328215,1000,1000,1000,1000
63028945,1000,1000,1000,1000,127428175,1000,1000,1000,1000
63031444,1000,1000,1000,1000,127528968,1000,1000,1000,1000
63033943,1000,1000,1000,1000,127628928,1000,1000,1000,1000
63036442,1000,1000,1000,1000,127728888,1000,1000,1000,1000
63038941,1000,1000,1000,1000,127828848,1000,1000,1000,1000
63041440,1000,1000,1000,1000,127928808,1000,1000,1000,1000
63043939,1000,1000,1000,1000,128028768,1000,1000,1000,1000
63046438,1000,1000,1000,1000,128128728,1000,1000,1000,1000
63048937,1000,1000,1000,1000,128228688,1000,1000,1000,1000
63051436,1000,1000,1000,1000,128328648,1000,1000,1000,1000
63053935,1000,1000,1000,1000,128428608,1000,1000,1000,1000
63056434,1000,1000,1000,1000,128528568,1000,1000,1000,1000
63058933,1000,1000,1000,1000,128628528,1000,1000,1000,1000
63061432,1000,1000,1000,1000,128728488,1000,1000,1000,1000
63063931,1000,1000,1000,1000,128828448,1000,1000,1000,1000
63066430,1000,1000,1000,1000,128928408,1000,1000,1000,1000
63068929,1000,1000,1000,1000,129028368,1000,1000,1000,1000
63071428,1000,1000,1000,1000,129128328,1000,1000,1000,1000
63073927,1000,1000,1000,1000,129228288,1000,1000,1000,1000
63076426,1000,1000,1000,1000,,,,,
63078925,1000,1000,1000,1000,,,,,
63081424,1000,1000,1000,1000,,,,,
63083923,1000,1000,1000,1000,,,,,
63086422,1000,1000,1000,1000,,,,,
63088921,1000,1000,1000,1000,,,,,
63091420,1000,1000,1000,1000,,,,,
63093919,1000,1000,1000,1000,,,,,
63096418,1000,1000,1000,1000,,,,,
63098917,1000,1000,1000,1000,,,,,
63101416,1000,1000,1000,1000,,,,,
63103915,1000,1000,1000,1000,,,,,
63106414,1000,1000,1000,1000,,,,,
63108913,1000,1000,1000,1000,,,,,
63111412,1000,1000,1000,1000,,,,,
63113911,1000,1000,1000,1000,,,,,
63116410,1000,1000,1000,1000,,,,,
63118909,1000,1000,1000,1000,,,,,
63121408,1000,1000,1000,1000,,,,,
63123907,1000,1000,1000,1000,,,,,
63126406,1000,1000,1000,1000,,,,,
63128905,1000,1000,1000,1000,,,,,
63131404,1000,1000,1000,1000,,,,,
63133903,1000,1000,1000,1000,,,,,
63136402,1000,1000,1000,1000,,,,,
63138901,1000,1000,1000,1000,,,,,
63141400,1000,1000,1000,1000,,,,,
63143899,1000,1000,1000,1000,,,,,
63146398,1000,1000,1000,1000,,,,,
63148897,1000,1000,1000,1000,,,,,
63151396,1000,1000,1000,1000,,,,,
63153895,1000,1000,1000,1000,,,,,
63156394,1000,1000,1000,1000,,,,,
63158893,1000,1000,1000,1000,,,,,
63161392,1000,1000,1000,1000,,,,,
63163891,1000,1000,1000,1000,,,,,
63166390,1000,1000,1000,1000,,,,,
63168889,1000,1000,1000,1000,,,,,
63171388,1000,1000,1000,1000,,,,,
63173887,1000,1000,1000,1000,,,,,
63176386,1000,1000,1000,1000,,,,,
63178885,1000,1000,1000,1000,,,,,
63181384,1000,1000,1000,1000,,,,,
63183883,1000,1000,1000,1000,,,,,
63186382,1000,1000,1000,1000,,,,,
63188881,1000,1000,1000,1000,,,,,
63191380,1000,1000,1000,1000,,,,,
63193879,1000,1000,1000,1000,,,,,
63196378,1000,1000,1000,1000,,,,,
63198877,1000,1000,1000,1000,,,,,
63201376,1000,1000,1000,1000,,,,,
63203875,1000,1000,1000,1000,,,,,
63206374,1000,1000,1000,1000,,,,,
63208873,1000,1000,1000,1000,,,,,
63211372,1000,1000,1000,1000,,,,,
63213871,1000,1000,1000,1000,,,,,
63216370,1000,1000,1000,1000,,,,,
63218869,1000,1000,1000,1000,,,,,
63221368,1000,1000,1000,1000,,,,,
63223867,1000,1000,1000,1000,,,,,
63226366,1000,1000,1000,1000,,,,,
63228865,1000,1000,1000,1000,,,,,
63231364,1000,1000,1000,1000,,,,,
63233863,1000,1000,1000,1000,,,,,
63236362,1000,1000,1000,1000,,,,,
63238861,1000,1000,1000,1000,,,,,
63241360,1000,1000,1000,1000,,,,,
63243859,1000,1000,1000,1000,,,,,
63246358,1000,1000,1000,1000,,,,,
63248857,1000,1000,1000,1000,,,,,
63251356,1000,1000,1000,1000,,,,,
63253855,1000,1000,1000,1000,,,,,
63256354,1000,1000,1000,1000,,,,,
63258853,1000,1000,1000,1000,,,,,
63261352,1000,1000,1000,1000,,,,,
63263851,1000,1000,1000,1000,,,,,
63266350,1000,1000,1000,1000,,,,,
63268849,1000,1000,1000,1000,,,,,
63271348,1000,1000,1000,1000,,,,,
63273847,1000,1000,1000,1000,,,,,
63276346,1000,1000,1000,1000,,,,,
63278845,1000,1000,1000,1000,,,,,
63281344,1000,1000,1000,1000,,,,,
63283843,1000,1000,1000,1000,,,,,
63286342,1000,1000,1000,1000,,,,,
63288841,1000,1000,1000,1000,,,,,
63291340,1000,1000,1000,1000,,,,,
63293839,1000,1000,1000,1000,,,,,
63296338,1000,1000,1000,1000,,,,,
63298837,1000,1000,1000,1000,,,,,
63301336,1000,1000,1000,1000,,,,,
63303835,1000,1000,1000,1000,,,,,
63306334,1000,1000,1000,1000,,,,,
63308833,1000,1000,1000,1000,,,,,
63311332,1000,1000,1000,1000,,,,,
63313831,1000,1000,1000,1000,,,,,
63316330,1000,1000,1000,1000,,,,,
63318829,1000,1000,1000,1000,,,,,
63321328,1000,1000,1000,1000,,,,,
63323827,1000,1000,1000,1000,,,,,
63326326,1000,1000,1000,1000,,,,,
63328825,1000,1000,1000,1000,,,,,
63331324,1000,1000,1000,1000,,,,,
63333823,1000,1000,1000,1000,,,,,
63336322,1000,1000,1000,1000,,,,,
63338821,1000,1000,1000,1000,,,,,
63341320,1000,1000,1000,1000,,,,,
63343819,1000,1000,1000,1000,,,,,
63346318,1000,1000,1000,1000,,,,,
63348817,1000,1000,1000,1000,,,,,
63351316,1000,1000,1000,1000,,,,,
63353815,1000,1000,1000,1000,,,,,
63356314,1000,1000,1000,1000,,,,,
63358813,1000,1000,1000,1000,,,,,
63361312,1000,1000,1000,1000,,,,,
63363811,1000,1000,1000,1000,,,,,
63366310,1000,1000,1000,1000,,,,,
63368809,1000,1000,1000,1000,,,,,
63371308,1000,1000,1000,1000,,,,,
63373807,1000,1000,1000,1000,,,,,
63376306,1000,1000,1000,1000,,,,,
63378805,1000,1000,1000,1000,,,,,
63381304,1000,1000,1000,1000,,,,,
63383803,1000,1000,1000,1000,,,,,
63386302,1001,1001,1001,1001,,,,,
63388801,1002,1002,1002,1002,,,,,
63391300,1003,1003,1003,1003,,,,,
63393799,1003,1003,1003,1003,,,,,
63396298,1004,1004,1004,1004,,,,,
63398797,1005,1005,1005,1005,,,,,
63401296,1006,1006,1006,1006,,,,,
63403795,1006,1006,1006,1006,,,,,
63406294,1007,1007,1007,1007,,,,,
63408793,1008,1008,1008,1008,,,,,
63411292,1009,1009,1009,1009,,,,,
63413791,1009,1009,1009,1009,,,,,
63416290,1010,1010,1010,1010,,,,,
63418789,1011,1011,1011,1011,,,,,
63421288,1012,1012,1012,1012,,,,,
63423787,1012,1012,1012,1012,,,,,
63426286,1013,1013,1013,1013,,,,,
63428785,1014,1014,1014,1014,,,,,
63431284,1015,1015,1015,1015,,,,,
63433783,1015,1015,1015,1015,,,,,
63436282,1016,1016,1016,1016,,,,,
63438781,1017,1017,1017,1017,,,,,
63441280,1018,1018,1018,1018,,,,,
63443779,1018,1018,1018,1018,,,,,
63446278,1019,1019,1019,1019,,,,,
63448777,1020,1020,1020,1020,,,,,
63451276,1021,1021,1021,1021,,,,,
63453775,1021,1021,1021,1021,,,,,
63456274,1022,1022,1022,1022,,,,,
63458773,1023,1023,1023,1023,,,,,
63461272,1024,1024,1024,1024,,,,,
63463771,1024,1024,1024,1024,,,,,
63466270,1025,1025,1025,1025,,,,,
63468769,1026,1026,1026,1026,,,,,
63471268,1027,1027,1027,1027,,,,,
63473767,1027,1027,1027,1027,,,,,
63476266,1028,1028,1028,1028,,,,,
63478765,1029,1029,1029,1029,,,,,
63481264,1030,1030,1030,1030,,,,,
63483763,1030,1030,1030,1030,,,,,
63486262,1031,1031,1031,1031,,,,,
63488761,1032,1032,1032,1032,,,,,
63491260,1033,1033,1033,1033,,,,,
63493759,1033,1033,1033,1033,,,,,
63496258,1034,1034,1034,1034,,,,,
63498757,1035,1035,1035,1035,,,,,
63501256,1036,1036,1036,1036,,,,,
63503755,1036,1036,1036,1036,,,,,
63506254,1037,1037,1037,1037,,,,,
63508753,1038,1038,1038,1038,,,,,
63511252,1039,1039,1039,1039,,,,,
63513751,1039,1039,1039,1039,,,,,
63516250,1040,1040,1040,1040,,,,,
63518749,1041,1041,1041,1041,,,,,
63521248,1042,1042,1042,1042,,,,,
63523747,1042,1042,1042,1042,,,,,
63526246,1043,1043,1043,1043,,,,,
63528745,1044,1044,1044,1044,,,,,
63531244,1045,1045,1045,1045,,,,,
63533743,1045,1045,1045,1045,,,,,
63536242,1046,1046,1046,1046,,,,,
63538741,1047,1047,1047,1047,,,,,
63541240,1048,1048,1048,1048,,,,,
63543739,1048,1048,1048,1048,,,,,
63546238,1049,1049,1049,1049,,,,,
63548737,1050,1050,1050,1050,,,,,
63551236,1051,1051,1051,1051,,,,,
63553735,1051,1051,1051,1051,,,,,
63556234,1052,1052,1052,1052,,,,,
63558733,1053,1053,1053,1053,,,,,
63561232,1054,1054,1054,1054,,,,,
63563731,1054,1054,1054,1054,,,,,
63566230,1055,1055,1055,1055,,,,,
63568729,1056,1056,1056,1056,,,,,
63571228,1057,1057,1057,1057,,,,,
63573727,1057,1057,1057,1057,,,,,
63576226,1058,1058,1058,1058,,,,,
63578725,1059,1059,1059,1059,,,,,
63581224,1060,1060,1060,1060,,,,,
63583723,1060,1060,1060,1060,,,,,
63586222,1061,1061,1061,1061,,,,,
63588721,1062,1062,1062,1062,,,,,
63591220,1063,1063,1063,1063,,,,,
63593719,1063,1063,1063,1063,,,,,
63596218,1064,1064,1064,1064,,,,,
63598717,1065,1065,1065,1065,,,,,
63601216,1066,1066,1066,1066,,,,,
63603715,1066,1066,1066,1066,,,,,
63606214,1067,1067,1067,1067,,,,,
63608713,1068,1068,1068,1068,,,,,
63611212,1069,1069,1069,1069,,,,,
63613711,1069,1069,1069,1069,,,,,
63616210,1070,1070,1070,1070,,,,,
63618709,1071,1071,1071,1071,,,,,
63621208,1072,1072,1072,1072,,,,,
63623707,1072,1072,1072,1072,,,,,
63626206,1073,1073,1073,1073,,,,,
63628705,1074,1074,1074,1074,,,,,
63631204,1075,1075,1075,1075,,,,,
63633703,1075,1075,1075,1075,,,,,
63636202,1076,1076,1076,1076,,,,,
63638701,1077,1077,1077,1077,,,,,
63641200,1078,1078,1078,1078,,,,,
63643699,1078,1078,1078,1078,,,,,
63646198,1079,1079,1079,1079,,,,,
63648697,1080,1080,1080,1080,,,,,
63651196,1081,1081,1081,1081,,,,,
63653695,1081,1081,1081,1081,,,,,
63656194,1082,1082,1082,1082,,,,,
63658693,1083,1083,1083,1083,,,,,
63661192,1084,1084,1084,1084,,,,,
63663691,1084,1084,1084,1084,,,,,
63666190,1085,1085,1085,1085,,,,,
63668689,1086,1086,1086,1086,,,,,
63671188,1087,1087,1087,1087,,,,,
63673687,1087,1087,1087,1087,,,,,
63676186,1088,1088,1088,1088,,,,,
63678685,1089,1089,1089,1089,,,,,
63681184,1090,1090,1090,1090,,,,,
63683683,1090,1090,1090,1090,,,,,
63686182,1091,1091,1091,1091,,,,,
63688681,1092,1092,1092,1092,,,,,
63691180,1093,1093,1093,1093,,,,,
63693679,1093,1093,1093,1093,,,,,
63696178,1094,1094,1094,1094,,,,,
63698677,1095,1095,1095,1095,,,,,
63701176,1096,1096,1096,1096,,,,,
63703675,1096,1096,1096,1096,,,,,
63706174,1097,1097,1097,1097,,,,,
63708673,1098,1098,1098,1098,,,,,
63711172,1099,1099,1099,1099,,,,,
63713671,1099,1099,1099,1099,,,,,
63716170,1100,1100,1100,1100,,,,,
63718669,1101,1101,1101,1101,,,,,
63721168,1101,1101,1101,1101,,,,,
63723667,1102,1102,1102,1102,,,,,
63726166,1103,1103,1103,1103,,,,,
63728665,1104,1104,1104,1104,,,,,
63731164,1104,1104,1104,1104,,,,,
63733663,1105,1105,1105,1105,,,,,
63736162,1106,1106,1106,1106,,,,,
63738661,1107,1107,1107,1107,,,,,
63741160,1107,1107,1107,1107,,,,,
63743659,1108,1108,1108,1108,,,,,
63746158,1109,1109,1109,1109,,,,,
63748657,1110,1110,1110,1110,,,,,
63751156,1110,1110,1110,1110,,,,,
63753655,1111,1111,1111,1111,,,,,
63756154,1112,1112,1112,1112,,,,,
63758653,1113,1113,1113,1113,,,,,
63761152,1113,1113,1113,1113,,,,,
63763651,1114,1114,1114,1114,,,,,
63766150,1115,1115,1115,1115,,,,,
63768649,1116,1116,1116,1116,,,,,
63771148,1116,1116,1116,1116,,,,,
63773647,1117,1117,1117,1117,,,,,
63776146,1118,1118,1118,1118,,,,,
63778645,1119,1119,1119,1119,,,,,
63781144,1119,1119,1119,1119,,,,,
63783643,1120,1120,1120,1120,,,,,
63786142,1121,1121,1121,1121,,,,,
63788641,1122,1122,1122,1122,,,,,
63791140,1122,1122,1122,1122,,,,,
63793639,1123,1123,1123,1123,,,,,
63796138,1124,1124,1124,1124,,,,,
63798637,1125,1125,1125,1125,,,,,
63801136,1125,1125,1125,1125,,,,,
63803635,1126,1126,1126,1126,,,,,
63806134,1127,1127,1127,1127,,,,,
63808633,1128,1128,1128,1128,,,,,
63811132,1128,1128,1128,1128,,,,,
63813631,1129,1129,1129,1129,,,,,
63816130,1130,1130,1130,1130,,,,,
63818629,1131,1131,1131,1131,,,,,
63821128,1131,1131,1131,1131,,,,,
63823627,1132,1132,1132,1132,,,,,
63826126,1133,1133,1133,1133,,,,,
63828625,1134,1134,1134,1134,,,,,
63831124,1134,1134,1134,1134,,,,,
63833623,1135,1135,1135,1135,,,,,
63836122,1136,1136,1136,1136,,,,,
63838621,1137,1137,1137,1137,,,,,
63841120,1137,1137,1137,1137,,,,,
63843619,1138,1138,1138,1138,,,,,
63846118,1139,1139,1139,1139,,,,,
63848617,1140,1140,1140,1140,,,,,
63851116,1140,1140,1140,1140,,,,,
63853615,1141,1141,1141,1141,,,,,
63856114,1142,1142,1142,1142,,,,,
63858613,1143,1143,1143,1143,,,,,
63861112,1143,1143,1143,1143,,,,,
63863611,1144,1144,1144,1144,,,,,
63866110,1145,1145,1145,1145,,,,,
63868609,1146,1146,1146,1146,,,,,
63871108,1146,1146,1146,1146,,,,,
63873607,1147,1147,1147,1147,,,,,
63876106,1148,1148,1148,1148,,,,,
63878605,1149,1149,1149,1149,,,,,
63881104,1149,1149,1149,1149,,,,,
63883603,1150,1150,1150,1150,,,,,
63886102,1162,1153,1153,1163,,,,,
63888601,1170,1161,1161,1171,,,,,
63891100,1178,1169,1169,1179,,,,,
63893599,1186,1177,1177,1186,,,,,
63896098,1193,1184,1185,1194,,,,,
63898597,1201,1192,1192,1201,,,,,
63901096,1208,1199,1200,1209,,,,,
63903595,1215,1207,1207,1216,,,,,
63906094,1222,1214,1214,1223,,,,,
63908593,1229,1221,1221,1230,,,,,
63911092,1236,1228,1228,1237,,,,,
63913591,1243,1235,1235,1243,,,,,
63916090,1250,1241,1242,1250,,,,,
63918589,1256,1248,1249,1257,,,,,
63921088,1263,1255,1255,1263,,,,,
63923587,1269,1261,1262,1270,,,,,
63926086,1276,1268,1268,1276,,,,,
63928585,1282,1274,1274,1282,,,,,
63931084,1288,1280,1281,1289,,,,,
63933583,1294,1286,1287,1295,,,,,
63936082,1300,1293,1293,1301,,,,,
63938581,1306,1299,1299,1307,,,,,
63941080,1312,1305,1305,1313,,,,,
63943579,1318,1311,1311,1319,,,,,
63946078,1324,1317,1317,1324,,,,,
63948577,1330,1322,1323,1330,,,,,
63951076,1335,1328,1329,1336,,,,,
63953575,1341,1334,1334,1341,,,,,
63956074,1347,1339,1340,1347,,,,,
63958573,1352,1345,1345,1353,,,,,
63961072,1358,1351,1351,1358,,,,,
63963571,1363,1356,1356,1364,,,,,
63966070,1368,1362,1362,1369,,,,,
63968569,1374,1367,1367,1374,,,,,
63971068,1379,1372,1373,1380,,,,,
63973567,1384,1378,1378,1385,,,,,
63976066,1389,1383,1383,1390,,,,,
63978565,1395,1388,1388,1395,,,,,
63981064,1400,1393,1394,1400,,,,,
63983563,1405,1398,1399,1405,,,,,
63986062,1410,1404,1404,1410,,,,,
63988561,1415,1409,1409,1415,,,,,
63991060,1420,1414,1414,1420,,,,,
63993559,1425,1419,1419,1425,,,,,
63996058,1430,1423,1424,1430,,,,,
63998557,1435,1428,1429,1435,,,,,
64001056,1439,1433,1434,1440,,,,,
64003555,1444,1438,1438,1445,,,,,
64006054,1449,1443,1443,1450,,,,,
64008553,1454,1448,1448,1454,,,,,
64011052,1458,1452,1453,1459,,,,,
64013551,1463,1457,1457,1464,,,,,
64016050,1468,1462,1462,1468,,,,,
64018549,1472,1466,1467,1473,,,,,
64021048,1477,1471,1471,1477,,,,,
64023547,1481,1476,1476,1482,,,,,
64026046,1486,1480,1480,1486,,,,,
64028545,1490,1485,1485,1491,,,,,
64031044,1495,1489,1489,1495,,,,,
64033543,1499,1494,1494,1500,,,,,
64036042,1504,1498,1498,1504,,,,,
64038541,1508,1503,1503,1509,,,,,
64041040,1513,1507,1507,1513,,,,,
64043539,1517,1511,1512,1517,,,,,
64046038,1521,1516,1516,1522,,,,,
64048537,1526,1520,1520,1526,,,,,
64051036,1530,1524,1524,1530,,,,,
64053535,1534,1528,1529,1534,,,,,
64056034,1538,1533,1533,1539,,,,,
64058533,1543,1537,1537,1543,,,,,
64061032,1547,1541,1541,1547,,,,,
64063531,1551,1545,1546,1551,,,,,
64066030,1555,1549,1550,1555,,,,,
64068529,1559,1554,1554,1560,,,,,
64071028,1563,1558,1558,1564,,,,,
64073527,1567,1562,1562,1568,,,,,
64076026,1571,1566,1566,1572,,,,,
64078525,1575,1570,1570,1576,,,,,
64081024,1579,1574,1574,1580,,,,,
64083523,1583,1578,1578,1584,,,,,
64086022,1587,1582,1582,1588,,,,,
64088521,1591,1586,1586,1592,,,,,
64091020,1595,1590,1590,1596,,,,,
64093519,1599,1594,1594,1600,,,,,
64096018,1603,1598,1598,1604,,,,,
64098517,1607,1602,1602,1607,,,,,
64101016,1611,1605,1606,1611,,,,,
64103515,1615,1609,1609,1615,,,,,
64106014,1619,1613,1613,1619,,,,,
64108513,1622,1617,1617,1623,,,,,
64111012,1626,1621,1621,1627,,,,,
64113511,1630,1625,1625,1630,,,,,
64116010,1634,1628,1629,1634,,,,,
64118509,1638,1632,1632,1638,,,,,
64121008,1641,1636,1636,1642,,,,,
64123507,1645,1640,1640,1645,,,,,
64126006,1649,1643,1643,1649,,,,,
64128505,1652,1647,1647,1653,,,,,
64131004,1656,1651,1651,1657,,,,,
64133503,1660,1654,1654,1660,,,,,
64136002,1663,1658,1658,1664,,,,,
64138501,1667,1661,1662,1668,,,,,
64141000,1671,1665,1665,1671,,,,,
64143499,1674,1669,1669,1675,,,,,
64145998,1678,1672,1673,1678,,,,,
64148497,1682,1676,1676,1682,,,,,
64150996,1685,1679,1680,1685,,,,,
64153495,1689,1683,1683,1689,,,,,
64155994,1692,1687,1687,1692,,,,,
64158493,1696,1690,1690,1696,,,,,
64160992,1699,1694,1694,1699,,,,,
64163491,1703,1697,1697,1703,,,,,
64165990,1706,1701,1701,1706,,,,,
64168489,1710,1704,1704,1710,,,,,
64170988,1713,1708,1708,1713,,,,,
64173487,1716,1711,1711,1717,,,,,
64175986,1720,1715,1715,1720,,,,,
64178485,1723,1718,1718,1723,,,,,
64180984,1727,1721,1722,1727,,,,,
64183483,1730,1725,1725,1730,,,,,
64185982,1733,1728,1729,1734,,,,,
64188481,1737,1732,1732,1737,,,,,
64190980,1740,1735,1735,1740,,,,,
64193479,1744,1738,1739,1744,,,,,
64195978,1747,1742,1742,1747,,,,,
64198477,1750,1745,1745,1750,,,,,
64200976,1753,1748,1749,1754,,,,,
64203475,1757,1752,1752,1757,,,,,
64205974,1760,1755,1755,1760,,,,,
64208473,1763,1758,1759,1763,,,,,
64210972,1767,1762,1762,1767,,,,,
64213471,1770,1765,1765,1770,,,,,
64215970,1773,1768,1769,1773,,,,,
64218469,1776,1771,1772,1776,,,,,
64220968,1779,1775,1775,1780,,,,,
64223467,1783,1778,1778,1783,,,,,
64225966,1786,1781,1782,1786,,,,,
64228465,1789,1784,1785,1789,,,,,
64230964,1792,1788,1788,1792,,,,,
64233463,1795,1791,1791,1796,,,,,
64235962,1799,1794,1794,1799,,,,,
64238461,1802,1797,1798,1802,,,,,
64240960,1805,1800,1801,1805,,,,,
64243459,1808,1803,1804,1808,,,,,
64245958,1811,1807,1807,1811,,,,,
64248457,1814,1810,1810,1814,,,,,
64250956,1817,1813,1813,1818,,,,,
64253455,1820,1816,1816,1821,,,,,
64255954,1824,1819,1819,1824,,,,,
64258453,1827,1822,1823,1827,,,,,
64260952,1830,1825,1826,1830,,,,,
64263451,1833,1828,1829,1833,,,,,
64265950,1836,1831,1832,1836,,,,,
64268449,1839,1835,1835,1839,,,,,
64270948,1842,1838,1838,1842,,,,,
64273447,1845,1841,1841,1845,,,,,
64275946,1848,1844,1844,1848,,,,,
64278445,1851,1847,1847,1851,,,,,
64280944,1854,1850,1850,1854,,,,,
64283443,1857,1853,1853,1857,,,,,
64285942,1860,1856,1856,1860,,,,,
64288441,1861,1856,1857,1861,,,,,
64290940,1860,1855,1855,1860,,,,,
64293439,1858,1854,1854,1859,,,,,
64295938,1857,1853,1853,1858,,,,,
64298437,1856,1852,1852,1857,,,,,
64300936,1855,1850,1851,1855,,,,,
64303435,1854,1849,1850,1854,,,,,
64305934,1853,1848,1849,1853,,,,,
64308433,1852,1847,1848,1853,,,,,
64310932,1852,1846,1847,1852,,,,,
64313431,1851,1846,1846,1851,,,,,
64315930,1850,1845,1845,1850,,,,,
64318429,1849,1844,1845,1850,,,,,
64320928,1849,1844,1844,1849,,,,,
64323427,1848,1843,1843,1848,,,,,
64325926,1848,1842,1843,1848,,,,,
64328425,1848,1842,1842,1848,,,,,
64330924,1847,1842,1842,1847,,,,,
64333423,1847,1841,1842,1847,,,,,
64335922,1847,1841,1842,1847,,,,,
64338421,1847,1841,1842,1847,,,,,
64340920,1847,1841,1842,1847,,,,,
64343419,1847,1841,1842,1847,,,,,
64345918,1847,1842,1842,1847,,,,,
64348417,1848,1842,1842,1848,,,,,
64350916,1848,1842,1843,1848,,,,,
64353415,1849,1843,1843,1848,,,,,
64355914,1849,1843,1844,1849,,,,,
64358413,1850,1844,1844,1850,,,,,
64360912,1850,1844,1845,1850,,,,,
64363411,1851,1845,1845,1851,,,,,
64365910,1851,1845,1846,1851,,,,,
64368409,1852,1846,1847,1852,,,,,
64370908,1853,1847,1847,1853,,,,,
64373407,1854,1848,1848,1854,,,,,
64375906,1855,1849,1849,1855,,,,,
64378405,1855,1849,1850,1855,,,,,
64380904,1856,1850,1851,1856,,,,,
64383403,1857,1851,1852,1857,,,,,
64385902,1858,1852,1853,1858,,,,,
64388401,1859,1853,1854,1859,,,,,
64390900,1860,1854,1855,1860,,,,,
64393399,1861,1855,1856,1861,,,,,
64395898,1862,1856,1857,1862,,,,,
64398397,1862,1857,1858,1862,,,,,
64400896,1863,1858,1859,1863,,,,,
64403395,1863,1859,1859,1864,,,,,
64405894,1864,1860,1860,1864,,,,,
64408393,1864,1860,1860,1864,,,,,
64410892,1864,1860,1860,1864,,,,,
64413391,1864,1860,1860,1864,,,,,
64415890,1863,1860,1860,1864,,,,,
64418389,1863,1859,1860,1863,,,,,
64420888,1862,1859,1859,1862,,,,,
64423387,1861,1858,1858,1862,,,,,
64425886,1860,1857,1857,1860,,,,,
64428385,1859,1856,1856,1859,,,,,
64430884,1857,1854,1854,1858,,,,,
64433383,1856,1853,1853,1856,,,,,
64435882,1854,1851,1851,1854,,,,,
64438381,1852,1849,1849,1852,,,,,
64440880,1850,1847,1847,1850,,,,,
64443379,1848,1845,1845,1848,,,,,
64445878,1845,1842,1843,1846,,,,,
64448377,1843,1840,1840,1843,,,,,
64450876,1840,1837,1838,1841,,,,,
64453375,1838,1835,1835,1838,,,,,
64455874,1835,1832,1833,1835,,,,,
64458373,1832,1829,1830,1832,,,,,
64460872,1829,1826,1827,1829,,,,,
64463371,1826,1824,1824,1826,,,,,
64465870,1823,1821,1821,1823,,,,,
64468369,1820,1818,1818,1820,,,,,
64470868,1817,1815,1815,1817,,,,,
64473367,1814,1811,1812,1814,,,,,
64475866,1811,1808,1809,1811,,,,,
64478365,1808,1805,1806,1808,,,,,
64480864,1805,1802,1803,1805,,,,,
64483363,1801,1799,1799,1801,,,,,
64485862,1798,1796,1796,1798,,,,,
64488361,1795,1792,1793,1795,,,,,
64490860,1792,1789,1790,1792,,,,,
64493359,1788,1786,1786,1788,,,,,
64495858,1785,1782,1783,1785,,,,,
64498357,1781,1779,1780,1781,,,,,
64500856,1778,1776,1776,1778,,,,,
64503355,1775,1772,1773,1775,,,,,
64505854,1771,1769,1770,1771,,,,,
64508353,1768,1766,1766,1768,,,,,
64510852,1765,1762,1763,1764,,,,,
64513351,1761,1759,1760,1761,,,,,
64515850,1758,1756,1756,1758,,,,,
64518349,1754,1752,1753,1754,,,,,
64520848,1751,1749,1750,1751,,,,,
64523347,1748,1746,1746,1748,,,,,
64525846,1745,1743,1743,1744,,,,,
64528345,1741,1739,1740,1741,,,,,
64530844,1738,1736,1737,1738,,,,,
64533343,1735,1733,1734,1735,,,,,
64535842,1732,1730,1731,1732,,,,,
64538341,1729,1727,1728,1728,,,,,
64540840,1726,1724,1725,1725,,,,,
64543339,1722,1721,1722,1722,,,,,
64545838,1719,1718,1719,1719,,,,,
64548337,1716,1715,1716,1716,,,,,
64550836,1713,1712,1713,1713,,,,,
64553335,1710,1709,1710,1710,,,,,
64555834,1707,1707,1707,1707,,,,,
64558333,1704,1704,1704,1704,,,,,
64560832,1702,1701,1701,1702,,,,,
64563331,1699,1698,1699,1699,,,,,
