TimeUS,M1,M2,M3,M4,TimeUS,C1,C2,C3,C4
46318965,1000,1000,1000,1000,46328961,1000,1000,1000,1000
46321464,1000,1000,1000,1000,46428921,1000,1000,1000,1000
46323963,1000,1000,1000,1000,46528881,1000,1000,1000,1000
46326462,1000,1000,1000,1000,46628841,1000,1000,1000,1000
46328961,1000,1000,1000,1000,46728801,1000,1000,1000,1000
46331460,1000,1000,1000,1000,46828761,1000,1000,1000,1000
46333959,1000,1000,1000,1000,46928721,1000,1000,1000,1000
46336458,1000,1000,1000,1000,47028681,1000,1000,1000,1000
46338957,1000,1000,1000,1000,47128641,1000,1000,1000,1000
46341456,1000,1000,1000,1000,47228601,1000,1000,1000,1000
46343955,1000,1000,1000,1000,47328561,1000,1000,1000,1000
46346454,1000,1000,1000,1000,47428521,1000,1000,1000,1000
46348953,1000,1000,1000,1000,47528481,1000,1000,1000,1000
46351452,1000,1000,1000,1000,47628441,1000,1000,1000,1000
46353951,1000,1000,1000,1000,47728401,1000,1000,1000,1000
46356450,1000,1000,1000,1000,47828361,1000,1000,1000,1000
46358949,1000,1000,1000,1000,47928321,1000,1000,1000,1000
46361448,1000,1000,1000,1000,48028281,1000,1000,1000,1000
46363947,1000,1000,1000,1000,48128241,1000,1000,1000,1000
46366446,1000,1000,1000,1000,48228201,1000,1000,1000,1000
46368945,1000,1000,1000,1000,48328161,1003,1003,1003,1003
46371444,1000,1000,1000,1000,48428954,1033,1033,1033,1033
46373943,1000,1000,1000,1000,48528914,1063,1063,1063,1063
46376442,1000,1000,1000,1000,48628874,1093,1093,1093,1093
46378941,1000,1000,1000,1000,48728834,1122,1122,1122,1122
46381440,1000,1000,1000,1000,48828794,1177,1170,1171,1177
46383939,1000,1000,1000,1000,48928754,1419,1414,1415,1419
46386438,1000,1000,1000,1000,49028714,1595,1591,1591,1595
46388937,1000,1000,1000,1000,49128674,1739,1736,1736,1740
46391436,1000,1000,1000,1000,49228634,1865,1862,1862,1866
46393935,1000,1000,1000,1000,49328594,1891,1889,1888,1892
46396434,1000,1000,1000,1000,49428554,1797,1797,1797,1798
46398933,1000,1000,1000,1000,49528514,1676,1676,1677,1676
46401432,1000,1000,1000,1000,49628474,1623,1624,1624,1622
46403931,1000,1000,1000,1000,49728434,1620,1621,1621,1620
46406430,1000,1000,1000,1000,49828394,1632,1632,1632,1631
46408929,1000,1000,1000,1000,49928354,1633,1633,1633,1633
46411428,1000,1000,1000,1000,50028314,1628,1628,1628,1628
46413927,1000,1000,1000,1000,50128274,1620,1621,1620,1621
46416426,1000,1000,1000,1000,50228234,1615,1614,1614,1615
46418925,1000,1000,1000,1000,50328194,1612,1611,1612,1612
46421424,1000,1000,1000,1000,50428154,1613,1613,1612,1613
46423923,1000,1000,1000,1000,50528947,1614,1614,1614,1615
46426422,1000,1000,1000,1000,50628907,1616,1616,1616,1616
46428921,1000,1000,1000,1000,50728867,1617,1617,1618,1617
46431420,1000,1000,1000,1000,50828827,1619,1619,1619,1618
46433919,1000,1000,1000,1000,50928787,1591,1591,1591,1591
46436418,1000,1000,1000,1000,51028747,1577,1577,1576,1577
46438917,1000,1000,1000,1000,51128707,1565,1565,1564,1566
46441416,1000,1000,1000,1000,51228667,1556,1555,1554,1556
46443915,1000,1000,1000,1000,51328627,1545,1546,1545,1546
46446414,1000,1000,1000,1000,51428587,1536,1537,1536,1537
46448913,1000,1000,1000,1000,51528547,1527,1527,1527,1528
46451412,1000,1000,1000,1000,51628507,1517,1517,1517,1517
46453911,1000,1000,1000,1000,51728467,1512,1512,1512,1513
46456410,1000,1000,1000,1000,51828427,1508,1509,1508,1509
46458909,1000,1000,1000,1000,51928387,1509,1509,1509,1509
46461408,1000,1000,1000,1000,52028347,1508,1507,1507,1508
46463907,1000,1000,1000,1000,52128307,1506,1506,1506,1507
46466406,1000,1000,1000,1000,52228267,1506,1507,1506,1507
46468905,1000,1000,1000,1000,52328227,1507,1507,1506,1507
46471404,1000,1000,1000,1000,52428187,1507,1508,1507,1507
46473903,1000,1000,1000,1000,52528980,1514,1514,1514,1514
46476402,1000,1000,1000,1000,52628940,1539,1538,1545,1532
46478901,1000,1000,1000,1000,52728900,1548,1547,1552,1544
46481400,1000,1000,1000,1000,52828860,1555,1555,1554,1555
46483899,1000,1000,1000,1000,52928820,1560,1559,1556,1563
46486398,1000,1000,1000,1000,53028780,1563,1562,1558,1567
46488897,1000,1000,1000,1000,53128740,1564,1564,1560,1568
46491396,1000,1000,1000,1000,53228700,1567,1568,1565,1570
46493895,1000,1000,1000,1000,53328660,1568,1568,1569,1567
46496394,1000,1000,1000,1000,53428620,1570,1570,1573,1567
46498893,1000,1000,1000,1000,53528580,1571,1571,1574,1568
46501392,1000,1000,1000,1000,53628540,1572,1572,1574,1569
46503891,1000,1000,1000,1000,53728500,1571,1570,1571,1570
46506390,1000,1000,1000,1000,53828460,1570,1569,1569,1570
46508889,1000,1000,1000,1000,53928420,1564,1563,1571,1575
46511388,1000,1000,1000,1000,54028380,1564,1564,1573,1576
46513887,1000,1000,1000,1000,54128340,1563,1564,1570,1573
46516386,1000,1000,1000,1000,54228300,1566,1567,1570,1571
46518885,1000,1000,1000,1000,54328260,1568,1569,1569,1569
46521384,1000,1000,1000,1000,54428220,1570,1570,1568,1567
46523883,1000,1000,1000,1000,54528180,1572,1572,1568,1567
46526382,1000,1000,1000,1000,54628973,1573,1573,1568,1567
46528881,1000,1000,1000,1000,54728933,1573,1573,1567,1567
46531380,1000,1000,1000,1000,54828893,1573,1573,1567,1567
46533879,1000,1000,1000,1000,54928853,1573,1573,1568,1568
46536378,1000,1000,1000,1000,55028813,1574,1574,1570,1570
46538877,1000,1000,1000,1000,55128773,1574,1574,1571,1572
46541376,1000,1000,1000,1000,55228733,1573,1574,1573,1573
46543875,1000,1000,1000,1000,55328693,1573,1573,1574,1572
46546374,1000,1000,1000,1000,55428653,1574,1574,1576,1574
46548873,1000,1000,1000,1000,55528613,1574,1574,1577,1576
46551372,1000,1000,1000,1000,55628573,1575,1575,1578,1577
46553871,1000,1000,1000,1000,55728533,1576,1576,1578,1578
46556370,1000,1000,1000,1000,55828493,1575,1576,1577,1577
46558869,1000,1000,1000,1000,55928453,1577,1576,1578,1578
46561368,1000,1000,1000,1000,56028413,1577,1577,1578,1578
46563867,1000,1000,1000,1000,56128373,1576,1576,1577,1577
46566366,1000,1000,1000,1000,56228333,1577,1577,1577,1577
46568865,1000,1000,1000,1000,56328293,1577,1578,1577,1577
46571364,1000,1000,1000,1000,56428253,1578,1578,1578,1578
46573863,1000,1000,1000,1000,56528213,1578,1578,1577,1577
46576362,1000,1000,1000,1000,56628173,1577,1578,1577,1576
46578861,1000,1000,1000,1000,56728966,1578,1578,1577,1577
46581360,1000,1000,1000,1000,56828926,1579,1579,1578,1578
46583859,1000,1000,1000,1000,56928886,1578,1578,1577,1578
46586358,1000,1000,1000,1000,57028846,1578,1578,1578,1578
46588857,1000,1000,1000,1000,57128806,1578,1578,1577,1578
46591356,1000,1000,1000,1000,57228766,1578,1578,1578,1578
46593855,1000,1000,1000,1000,57328726,1579,1579,1579,1579
46596354,1000,1000,1000,1000,57428686,1578,1578,1579,1579
46598853,1000,1000,1000,1000,57528646,1578,1579,1579,1579
46601352,1000,1000,1000,1000,57628606,1579,1580,1580,1580
46603851,1000,1000,1000,1000,57728566,1579,1579,1580,1580
46606350,1000,1000,1000,1000,57828526,1579,1579,1580,1579
46608849,1000,1000,1000,1000,57928486,1580,1579,1579,1580
46611348,1000,1000,1000,1000,58028446,1579,1579,1579,1579
46613847,1000,1000,1000,1000,58128406,1579,1579,1579,1579
46616346,1000,1000,1000,1000,58228366,1581,1580,1580,1580
46618845,1000,1000,1000,1000,58328326,1580,1580,1580,1580
46621344,1000,1000,1000,1000,58428286,1581,1581,1581,1581
46623843,1000,1000,1000,1000,58528246,1580,1581,1580,1581
46626342,1000,1000,1000,1000,58628206,1580,1581,1581,1581
46628841,1000,1000,1000,1000,58728166,1581,1581,1581,1581
46631340,1000,1000,1000,1000,58828959,1581,1581,1581,1581
46633839,1000,1000,1000,1000,58928919,1581,1581,1582,1581
46636338,1000,1000,1000,1000,59028879,1580,1580,1580,1581
46638837,1000,1000,1000,1000,59128839,1581,1581,1581,1581
46641336,1000,1000,1000,1000,59228799,1580,1580,1580,1580
46643835,1000,1000,1000,1000,59328759,1580,1580,1580,1580
46646334,1000,1000,1000,1000,59428719,1580,1580,1580,1580
46648833,1000,1000,1000,1000,59528679,1580,1580,1580,1580
46651332,1000,1000,1000,1000,59628639,1580,1581,1581,1580
46653831,1000,1000,1000,1000,59728599,1581,1581,1580,1581
46656330,1000,1000,1000,1000,59828559,1581,1581,1581,1581
46658829,1000,1000,1000,1000,59928519,1581,1581,1581,1581
46661328,1000,1000,1000,1000,60028479,1581,1581,1581,1581
46663827,1000,1000,1000,1000,60128439,1581,1581,1583,1579
46666326,1000,1000,1000,1000,60228399,1581,1582,1588,1573
46668825,1000,1000,1000,1000,60328359,1579,1582,1583,1573
46671324,1000,1000,1000,1000,60428319,1578,1581,1574,1573
46673823,1000,1000,1000,1000,60528279,1576,1579,1565,1570
46676322,1000,1000,1000,1000,60628239,1577,1579,1560,1567
46678821,1000,1000,1000,1000,60728199,1578,1578,1557,1563
46681320,1000,1000,1000,1000,60828159,1580,1578,1556,1559
46683819,1000,1000,1000,1000,60928952,1580,1577,1556,1556
46686318,1000,1000,1000,1000,61028912,1579,1578,1557,1554
46688817,1000,1000,1000,1000,61128872,1578,1578,1557,1555
46691316,1000,1000,1000,1000,61228832,1576,1578,1556,1554
46693815,1000,1000,1000,1000,61328792,1575,1577,1556,1554
46696314,1000,1000,1000,1000,61428752,1575,1576,1554,1554
46698813,1000,1000,1000,1000,61528712,1576,1577,1554,1554
46701312,1000,1000,1000,1000,61628672,1575,1577,1552,1552
46703811,1000,1000,1000,1000,61728632,1578,1578,1550,1551
46706310,1000,1000,1000,1000,61828592,1579,1579,1547,1547
46708809,1000,1000,1000,1000,61928552,1581,1582,1545,1545
46711308,1000,1000,1000,1000,62028512,1584,1585,1543,1542
46713807,1000,1000,1000,1000,62128472,1588,1589,1540,1540
46716306,1000,1000,1000,1000,62228432,1591,1591,1538,1537
46718805,1000,1000,1000,1000,62328392,1593,1593,1535,1536
46721304,1000,1000,1000,1000,62428352,1595,1595,1534,1535
46723803,1000,1000,1000,1000,62528312,1596,1596,1536,1537
46726302,1000,1000,1000,1000,62628272,1594,1595,1537,1539
46728801,1000,1000,1000,1000,62728232,1591,1591,1539,1542
46731300,1000,1000,1000,1000,62828192,1588,1586,1545,1548
46733799,1000,1000,1000,1000,62928985,1582,1579,1554,1557
46736298,1000,1000,1000,1000,63028945,1574,1570,1564,1567
46738797,1000,1000,1000,1000,63128905,1563,1559,1576,1578
46741296,1000,1000,1000,1000,63228865,1552,1549,1588,1589
46743795,1000,1000,1000,1000,63328825,1542,1540,1600,1599
46746294,1000,1000,1000,1000,63428785,1535,1534,1609,1608
46748793,1000,1000,1000,1000,63528745,1530,1531,1614,1613
46751292,1000,1000,1000,1000,63628705,1528,1530,1615,1614
46753791,1000,1000,1000,1000,63728665,1532,1533,1614,1612
46756290,1000,1000,1000,1000,63828625,1537,1540,1608,1609
46758789,1000,1000,1000,1000,63928585,1545,1547,1602,1602
46761288,1000,1000,1000,1000,64028545,1553,1555,1594,1595
46763787,1000,1000,1000,1000,64128505,1563,1564,1588,1587
46766286,1000,1000,1000,1000,64228465,1571,1571,1581,1580
46768785,1000,1000,1000,1000,64328425,1578,1577,1574,1574
46771284,1000,1000,1000,1000,64428385,1583,1582,1570,1570
46773783,1000,1000,1000,1000,64528345,1587,1586,1568,1568
46776282,1000,1000,1000,1000,64628305,1589,1588,1567,1567
46778781,1000,1000,1000,1000,64728265,1588,1587,1567,1568
46781280,1000,1000,1000,1000,64828225,1586,1585,1568,1568
46783779,1000,1000,1000,1000,64928185,1583,1583,1571,1571
46786278,1000,1000,1000,1000,65028978,1580,1580,1573,1574
46788777,1000,1000,1000,1000,65128938,1578,1578,1577,1577
46791276,1000,1000,1000,1000,65228898,1574,1575,1579,1579
46793775,1000,1000,1000,1000,65328858,1573,1574,1581,1581
46796274,1000,1000,1000,1000,65428818,1573,1573,1583,1583
46798773,1000,1000,1000,1000,65528778,1573,1573,1584,1584
46801272,1000,1000,1000,1000,65628738,1572,1572,1583,1583
46803771,1000,1000,1000,1000,65728698,1574,1574,1583,1583
46806270,1000,1000,1000,1000,65828658,1574,1574,1581,1581
46808769,1000,1000,1000,1000,65928618,1575,1576,1580,1581
46811268,1000,1000,1000,1000,66028578,1579,1579,1581,1581
46813767,1000,1000,1000,1000,66128538,1245,1245,1593,1594
46816266,1000,1000,1000,1000,66228498,1358,1363,1653,1661
46818765,1000,1000,1000,1000,66328458,1429,1440,1649,1650
46821264,1000,1000,1000,1000,66428418,1494,1504,1637,1630
46823763,1000,1000,1000,1000,66528378,1545,1549,1628,1617
46826262,1000,1000,1000,1000,66628338,1587,1577,1620,1609
46828761,1000,1000,1000,1000,66728298,1600,1581,1564,1563
46831260,1000,1000,1000,1000,66828258,1600,1584,1495,1506
46833759,1000,1000,1000,1000,66928218,1600,1593,1479,1495
46836258,1000,1000,1000,1000,67028178,1596,1600,1497,1506
46838757,1000,1000,1000,1000,67128971,1590,1600,1515,1516
46841256,1000,1000,1000,1000,67228931,1590,1600,1535,1530
46843755,1000,1000,1000,1000,67328891,1594,1600,1552,1547
46846254,1000,1000,1000,1000,67428851,1599,1600,1566,1562
46848753,1000,1000,1000,1000,67528811,1600,1596,1569,1568
46851252,1000,1000,1000,1000,67628771,1600,1595,1571,1574
46853751,1000,1000,1000,1000,67728731,1600,1596,1575,1578
46856250,1000,1000,1000,1000,67828691,1600,1594,1581,1575
46858749,1000,1000,1000,1000,67928651,1600,1593,1584,1580
46861248,1000,1000,1000,1000,68028611,1600,1595,1586,1585
46863747,1000,1000,1000,1000,68128571,1600,1597,1587,1588
46866246,1000,1000,1000,1000,68228531,1600,1596,1586,1588
46868745,1000,1000,1000,1000,68328491,1600,1599,1586,1589
46871244,1000,1000,1000,1000,68428451,1597,1600,1584,1588
46873743,1000,1000,1000,1000,68528411,1593,1600,1582,1585
46876242,1000,1000,1000,1000,68628371,1593,1600,1583,1582
46878741,1000,1000,1000,1000,68728331,1594,1600,1586,1582
46881240,1000,1000,1000,1000,68828291,1597,1600,1587,1583
46883739,1000,1000,1000,1000,68928251,1599,1600,1588,1585
46886238,1000,1000,1000,1000,69028211,1600,1599,1587,1585
46888737,1000,1000,1000,1000,69128171,1600,1599,1585,1585
46891236,1000,1000,1000,1000,69228964,1600,1596,1585,1580
46893735,1000,1000,1000,1000,69328924,1600,1593,1583,1579
46896234,1000,1000,1000,1000,69428884,1600,1593,1582,1581
46898733,1000,1000,1000,1000,69528844,1600,1595,1581,1584
46901232,1000,1000,1000,1000,69628804,1600,1598,1583,1585
46903731,1000,1000,1000,1000,69728764,1596,1597,1580,1581
46906230,1000,1000,1000,1000,69828724,1588,1590,1569,1569
46908729,1000,1000,1000,1000,69928684,1582,1585,1563,1560
46911228,1000,1000,1000,1000,70028644,1579,1580,1558,1555
46913727,1000,1000,1000,1000,70128604,1576,1576,1554,1551
46916226,1000,1000,1000,1000,70228564,1573,1573,1550,1548
46918725,1000,1000,1000,1000,70328524,1571,1570,1547,1547
46921224,1000,1000,1000,1000,70428484,1570,1569,1546,1546
46923723,1000,1000,1000,1000,70528444,1568,1568,1545,1546
46926222,1000,1000,1000,1000,70628404,1567,1568,1545,1546
46928721,1000,1000,1000,1000,70728364,1566,1568,1545,1546
46931220,1000,1000,1000,1000,70828324,1566,1568,1546,1547
46933719,1000,1000,1000,1000,70928284,1566,1569,1547,1548
46936218,1000,1000,1000,1000,71028244,1567,1569,1548,1549
46938717,1000,1000,1000,1000,71128204,1568,1571,1549,1550
46941216,1000,1000,1000,1000,71228164,1569,1571,1550,1550
46943715,1000,1000,1000,1000,71328957,1570,1572,1551,1551
46946214,1000,1000,1000,1000,71428917,1571,1574,1552,1552
46948713,1000,1000,1000,1000,71528877,1573,1574,1553,1553
46951212,1000,1000,1000,1000,71628837,1575,1575,1554,1554
46953711,1000,1000,1000,1000,71728797,1577,1577,1555,1557
46956210,1000,1000,1000,1000,71828757,1578,1579,1555,1557
46958709,1000,1000,1000,1000,71928717,1579,1580,1556,1557
46961208,1000,1000,1000,1000,72028677,1580,1581,1556,1557
46963707,1000,1000,1000,1000,72128637,1583,1583,1559,1559
46966206,1000,1000,1000,1000,72228597,1584,1584,1560,1560
46968705,1000,1000,1000,1000,72328557,1585,1585,1561,1562
46971204,1000,1000,1000,1000,72428517,1586,1586,1561,1562
46973703,1000,1000,1000,1000,72528477,1587,1587,1563,1564
46976202,1000,1000,1000,1000,72628437,1589,1588,1565,1565
46978701,1000,1000,1000,1000,72728397,1589,1588,1567,1567
46981200,1000,1000,1000,1000,72828357,1591,1589,1568,1569
46983699,1000,1000,1000,1000,72928317,1590,1589,1569,1569
46986198,1000,1000,1000,1000,73028277,1590,1589,1570,1570
46988697,1000,1000,1000,1000,73128237,1590,1589,1570,1570
46991196,1000,1000,1000,1000,73228197,1590,1589,1570,1570
46993695,1000,1000,1000,1000,73328157,1589,1589,1571,1570
46996194,1000,1000,1000,1000,73428950,1589,1589,1571,1570
46998693,1000,1000,1000,1000,73528910,1589,1589,1571,1570
47001192,1000,1000,1000,1000,73628870,1589,1589,1571,1570
47003691,1000,1000,1000,1000,73728830,1591,1587,1572,1571
47006190,1000,1000,1000,1000,73828790,1579,1570,1590,1589
47008689,1000,1000,1000,1000,73928750,1561,1554,1609,1609
47011188,1000,1000,1000,1000,74028710,1547,1543,1616,1618
47013687,1000,1000,1000,1000,74128670,1537,1540,1617,1620
47016186,1000,1000,1000,1000,74228630,1533,1540,1616,1618
47018685,1000,1000,1000,1000,74328590,1533,1543,1614,1614
47021184,1000,1000,1000,1000,74428550,1537,1547,1611,1609
47023683,1000,1000,1000,1000,74528510,1543,1551,1606,1603
47026182,1000,1000,1000,1000,74628470,1551,1555,1600,1597
47028681,1000,1000,1000,1000,74728430,1559,1559,1593,1591
47031180,1000,1000,1000,1000,74828390,1567,1565,1588,1587
47033679,1000,1000,1000,1000,74928350,1573,1569,1582,1582
47036178,1000,1000,1000,1000,75028310,1578,1574,1577,1578
47038677,1000,1000,1000,1000,75128270,1580,1577,1573,1574
47041176,1000,1000,1000,1000,75228230,1583,1581,1571,1572
47043675,1000,1000,1000,1000,75328190,1585,1585,1571,1572
47046174,1000,1000,1000,1000,75428983,1587,1587,1571,1571
47048673,1000,1000,1000,1000,75528943,1588,1588,1571,1572
47051172,1000,1000,1000,1000,75628903,1589,1589,1572,1572
47053671,1000,1000,1000,1000,75728863,1589,1588,1572,1572
47056170,1000,1000,1000,1000,75828823,1590,1588,1573,1574
47058669,1000,1000,1000,1000,75928783,1588,1588,1573,1574
47061168,1000,1000,1000,1000,76028743,1588,1587,1574,1575
47063667,1000,1000,1000,1000,76128703,1587,1587,1575,1575
47066166,1000,1000,1000,1000,76228663,1586,1586,1576,1577
47068665,1000,1000,1000,1000,76328623,1585,1584,1576,1576
47071164,1000,1000,1000,1000,76428583,1584,1584,1577,1577
47073663,1000,1000,1000,1000,76528543,1582,1582,1577,1577
47076162,1000,1000,1000,1000,76628503,1581,1582,1578,1578
47078661,1000,1000,1000,1000,76728463,1582,1581,1580,1579
47081160,1000,1000,1000,1000,76828423,1581,1581,1580,1580
47083659,1000,1000,1000,1000,76928383,1581,1581,1581,1581
47086158,1000,1000,1000,1000,77028343,1580,1580,1586,1577
47088657,1000,1000,1000,1000,77128303,1581,1579,1587,1574
47091156,1000,1000,1000,1000,77228263,1579,1578,1579,1574
47093655,1000,1000,1000,1000,77328223,1577,1577,1571,1573
47096154,1000,1000,1000,1000,77428183,1574,1576,1564,1568
47098653,1000,1000,1000,1000,77528976,1572,1575,1559,1565
47101152,1000,1000,1000,1000,77628936,1572,1575,1558,1562
47103651,1000,1000,1000,1000,77728896,1571,1574,1558,1558
47106150,1000,1000,1000,1000,77828856,1572,1574,1559,1557
47108649,1000,1000,1000,1000,77928816,1573,1574,1558,1556
47111148,1000,1000,1000,1000,78028776,1574,1574,1559,1556
47113647,1000,1000,1000,1000,78128736,1574,1574,1556,1555
47116146,1000,1000,1000,1000,78228696,1575,1574,1555,1555
47118645,1000,1000,1000,1000,78328656,1575,1575,1554,1554
47121144,1000,1000,1000,1000,78428616,1575,1575,1552,1552
47123643,1000,1000,1000,1000,78528576,1575,1576,1550,1550
47126142,1000,1000,1000,1000,78628536,1575,1577,1548,1548
47128641,1000,1000,1000,1000,78728496,1577,1579,1547,1546
47131140,1000,1000,1000,1000,78828456,1579,1581,1545,1544
47133639,1000,1000,1000,1000,78928416,1581,1582,1543,1542
47136138,1000,1000,1000,1000,79028376,1583,1583,1541,1540
47138637,1000,1000,1000,1000,79128336,1585,1585,1539,1540
47141136,1000,1000,1000,1000,79228296,1587,1587,1539,1539
47143635,1000,1000,1000,1000,79328256,1589,1588,1539,1540
47146134,1000,1000,1000,1000,79428216,1589,1589,1539,1540
47148633,1000,1000,1000,1000,79528176,1589,1589,1541,1543
47151132,1000,1000,1000,1000,79628969,1588,1586,1543,1546
47153631,1000,1000,1000,1000,79728929,1584,1583,1545,1549
47156130,1000,1000,1000,1000,79828889,1581,1581,1550,1553
47158629,1000,1000,1000,1000,79928849,1577,1577,1556,1560
47161128,1000,1000,1000,1000,80028809,1572,1571,1561,1564
47163627,1000,1000,1000,1000,80128769,1567,1565,1569,1571
47166126,1000,1000,1000,1000,80228729,1561,1559,1577,1579
47168625,1000,1000,1000,1000,80328689,1555,1553,1585,1585
47171124,1000,1000,1000,1000,80428649,1549,1547,1593,1593
47173623,1000,1000,1000,1000,80528609,1542,1541,1600,1598
47176122,1000,1000,1000,1000,80628569,1536,1536,1604,1604
47178621,1000,1000,1000,1000,80728529,1533,1535,1608,1607
47181120,1000,1000,1000,1000,80828489,1534,1535,1608,1607
47183619,1000,1000,1000,1000,80928449,1535,1538,1604,1604
47186118,1000,1000,1000,1000,81028409,1540,1543,1600,1600
47188617,1000,1000,1000,1000,81128369,1547,1549,1594,1594
47191116,1000,1000,1000,1000,81228329,1554,1555,1588,1587
47193615,1000,1000,1000,1000,81328289,1562,1563,1583,1581
47196114,1000,1000,1000,1000,81428249,1570,1570,1577,1576
47198613,1000,1000,1000,1000,81528209,1577,1575,1572,1571
47201112,1000,1000,1000,1000,81628169,1582,1580,1568,1568
47203611,1000,1000,1000,1000,81728962,1585,1583,1567,1567
47206110,1000,1000,1000,1000,81828922,1587,1586,1568,1568
47208609,1000,1000,1000,1000,81928882,1588,1586,1568,1569
47211108,1000,1000,1000,1000,82028842,1588,1587,1570,1571
47213607,1000,1000,1000,1000,82128802,1586,1586,1571,1571
47216106,1000,1000,1000,1000,82228762,1585,1586,1574,1574
47218605,1000,1000,1000,1000,82328722,1584,1584,1575,1575
47221104,1000,1000,1000,1000,82428682,1582,1583,1577,1576
47223603,1000,1000,1000,1000,82528642,1581,1582,1579,1579
47226102,1000,1000,1000,1000,82628602,1580,1580,1580,1580
47228601,1000,1000,1000,1000,82728562,1579,1579,1582,1581
47231100,1000,1000,1000,1000,82828522,1578,1578,1582,1582
47233599,1000,1000,1000,1000,82928482,1577,1577,1583,1583
47236098,1000,1000,1000,1000,83028442,1577,1577,1584,1583
47238597,1000,1000,1000,1000,83128402,1576,1576,1582,1582
47241096,1000,1000,1000,1000,83228362,1576,1577,1583,1583
47243595,1000,1000,1000,1000,83328322,1577,1577,1583,1583
47246094,1000,1000,1000,1000,83428282,1577,1577,1582,1582
47248593,1000,1000,1000,1000,83528242,1578,1578,1581,1581
47251092,1000,1000,1000,1000,83628202,1578,1578,1580,1580
47253591,1000,1000,1000,1000,83728162,1580,1579,1580,1580
47256090,1000,1000,1000,1000,83828955,1580,1580,1580,1580
47258589,1000,1000,1000,1000,83928915,1581,1581,1580,1579
47261088,1000,1000,1000,1000,84028875,1582,1581,1579,1579
47263587,1000,1000,1000,1000,84128835,1582,1581,1579,1579
47266086,1000,1000,1000,1000,84228795,1583,1582,1579,1579
47268585,1000,1000,1000,1000,84328755,1583,1583,1580,1579
47271084,1000,1000,1000,1000,84428715,1583,1583,1580,1580
47273583,1000,1000,1000,1000,84528675,1582,1582,1580,1580
47276082,1000,1000,1000,1000,84628635,1581,1582,1580,1580
47278581,1000,1000,1000,1000,84728595,1582,1582,1580,1581
47281080,1000,1000,1000,1000,84828555,1581,1581,1581,1581
47283579,1000,1000,1000,1000,84928515,1582,1582,1582,1582
47286078,1000,1000,1000,1000,85028475,1582,1582,1582,1582
47288577,1000,1000,1000,1000,85128435,1582,1581,1582,1582
47291076,1000,1000,1000,1000,85228395,1581,1581,1582,1582
47293575,1000,1000,1000,1000,85328355,1581,1581,1584,1580
47296074,1000,1000,1000,1000,85428315,1581,1581,1589,1574
47298573,1000,1000,1000,1000,85528275,1580,1579,1584,1575
47301072,1000,1000,1000,1000,85628235,1578,1576,1575,1575
47303571,1000,1000,1000,1000,85728195,1573,1572,1567,1573
47306070,1000,1000,1000,1000,85828155,1571,1571,1564,1572
47308569,1000,1000,1000,1000,85928948,1568,1569,1563,1568
47311068,1000,1000,1000,1000,86028908,1567,1568,1565,1567
47313567,1000,1000,1000,1000,86128868,1566,1567,1566,1566
47316066,1000,1000,1000,1000,86228828,1566,1567,1568,1565
47318565,1000,1000,1000,1000,86328788,1565,1566,1568,1565
47321064,1000,1000,1000,1000,86428748,1565,1565,1567,1565
47323563,1000,1000,1000,1000,86528708,1564,1564,1566,1566
47326062,1000,1000,1000,1000,86628668,1564,1563,1565,1565
47328561,1000,1000,1000,1000,86728628,1563,1562,1563,1564
47331060,1000,1000,1000,1000,86828588,1562,1562,1563,1564
47333559,1000,1000,1000,1000,86928548,1562,1562,1562,1563
47336058,1000,1000,1000,1000,87028508,1561,1561,1562,1561
47338557,1000,1000,1000,1000,87128468,1560,1561,1561,1560
47341056,1000,1000,1000,1000,87228428,1560,1561,1561,1560
47343555,1000,1000,1000,1000,87328388,1560,1560,1561,1560
47346054,1000,1000,1000,1000,87428348,1560,1560,1561,1559
47348553,1000,1000,1000,1000,87528308,1560,1560,1560,1560
47351052,1000,1000,1000,1000,87628268,1560,1559,1559,1558
47353551,1000,1000,1000,1000,87728228,1559,1558,1558,1557
47356050,1000,1000,1000,1000,87828188,1559,1559,1559,1558
47358549,1000,1000,1000,1000,87928981,1559,1559,1559,1558
47361048,1000,1000,1000,1000,88028941,1558,1558,1559,1557
47363547,1000,1000,1000,1000,88128901,1558,1558,1559,1556
47366046,1000,1000,1000,1000,88228861,1559,1558,1560,1559
47368545,1000,1000,1000,1000,88328821,1559,1559,1557,1562
47371044,1000,1000,1000,1000,88428781,1560,1560,1558,1564
47373543,1000,1000,1000,1000,88528741,1558,1559,1556,1561
47376042,1000,1000,1000,1000,88628701,1557,1559,1557,1559
47378541,1000,1000,1000,1000,88728661,1557,1558,1556,1559
47381040,1000,1000,1000,1000,88828621,1555,1555,1552,1554
47383539,1000,1000,1000,1000,88928581,1551,1551,1548,1549
47386038,1000,1000,1000,1000,89028541,1546,1547,1543,1542
47388537,1000,1000,1000,1000,89128501,1541,1541,1535,1535
47391036,1000,1000,1000,1000,89228461,1534,1534,1528,1527
47393535,1000,1000,1000,1000,89328421,1528,1527,1521,1521
47396034,1000,1000,1000,1000,89428381,1523,1523,1518,1518
47398533,1000,1000,1000,1000,89528341,1521,1521,1518,1519
47401032,1000,1000,1000,1000,89628301,1520,1520,1521,1522
47403531,1000,1000,1000,1000,89728261,1520,1520,1524,1524
47406030,1000,1000,1000,1000,89828221,1522,1522,1529,1529
47408529,1000,1000,1000,1000,89928181,1525,1525,1534,1534
47411028,1000,1000,1000,1000,90028974,1529,1529,1540,1540
47413527,1000,1000,1000,1000,90128934,1533,1532,1543,1543
47416026,1000,1000,1000,1000,90228894,1536,1536,1544,1544
47418525,1000,1000,1000,1000,90328854,1539,1539,1546,1545
47421024,1000,1000,1000,1000,90428814,1541,1542,1546,1545
47423523,1000,1000,1000,1000,90528774,1544,1544,1545,1545
47426022,1000,1000,1000,1000,90628734,1547,1547,1545,1545
47428521,1000,1000,1000,1000,90728694,1548,1548,1545,1544
47431020,1000,1000,1000,1000,90828654,1549,1549,1544,1544
47433519,1000,1000,1000,1000,90928614,1550,1549,1544,1543
47436018,1000,1000,1000,1000,91028574,1550,1550,1544,1543
47438517,1000,1000,1000,1000,91128534,1550,1550,1545,1544
47441016,1000,1000,1000,1000,91228494,1550,1550,1545,1544
47443515,1000,1000,1000,1000,91328454,1549,1550,1545,1545
47446014,1000,1000,1000,1000,91428414,1549,1549,1545,1545
47448513,1000,1000,1000,1000,91528374,1548,1548,1546,1546
47451012,1000,1000,1000,1000,91628334,1546,1547,1546,1546
47453511,1000,1000,1000,1000,91728294,1545,1545,1546,1545
47456010,1000,1000,1000,1000,91828254,1544,1544,1546,1545
47458509,1000,1000,1000,1000,91928214,1544,1544,1546,1546
47461008,1000,1000,1000,1000,92028174,1544,1543,1546,1546
47463507,1000,1000,1000,1000,92128967,1543,1543,1545,1545
47466006,1000,1000,1000,1000,92228927,1543,1543,1545,1545
47468505,1000,1000,1000,1000,92328887,1543,1543,1545,1544
47471004,1000,1000,1000,1000,92428847,1543,1543,1545,1545
47473503,1000,1000,1000,1000,92528807,1543,1543,1544,1544
47476002,1000,1000,1000,1000,92628767,1543,1543,1544,1544
47478501,1000,1000,1000,1000,92728727,1544,1544,1544,1544
47481000,1000,1000,1000,1000,92828687,1543,1543,1543,1543
47483499,1000,1000,1000,1000,92928647,1544,1543,1543,1543
47485998,1000,1000,1000,1000,93028607,1544,1544,1543,1543
47488497,1000,1000,1000,1000,93128567,1544,1544,1543,1543
47490996,1000,1000,1000,1000,93228527,1545,1544,1544,1544
47493495,1000,1000,1000,1000,93328487,1544,1544,1543,1543
47495994,1000,1000,1000,1000,93428447,1545,1545,1544,1544
47498493,1000,1000,1000,1000,93528407,1545,1544,1544,1544
47500992,1000,1000,1000,1000,93628367,1545,1545,1544,1545
47503491,1000,1000,1000,1000,93728327,1544,1544,1544,1543
47505990,1000,1000,1000,1000,93828287,1544,1544,1544,1544
47508489,1000,1000,1000,1000,93928247,1545,1545,1545,1545
47510988,1000,1000,1000,1000,94028207,1544,1544,1545,1544
47513487,1000,1000,1000,1000,94128167,1544,1544,1544,1544
47515986,1000,1000,1000,1000,94228960,1544,1544,1544,1544
47518485,1000,1000,1000,1000,94328920,1544,1544,1544,1544
47520984,1000,1000,1000,1000,94428880,1544,1544,1544,1544
47523483,1000,1000,1000,1000,94528840,1544,1544,1544,1544
47525982,1000,1000,1000,1000,94628800,1544,1544,1545,1544
47528481,1000,1000,1000,1000,94728760,1544,1544,1544,1544
47530980,1000,1000,1000,1000,94828720,1544,1544,1544,1544
47533479,1000,1000,1000,1000,94928680,1544,1545,1545,1545
47535978,1000,1000,1000,1000,95028640,1545,1545,1545,1545
47538477,1000,1000,1000,1000,95128600,1545,1544,1544,1545
47540976,1000,1000,1000,1000,95228560,1545,1545,1545,1546
47543475,1000,1000,1000,1000,95328520,1545,1545,1544,1545
47545974,1000,1000,1000,1000,95428480,1545,1545,1544,1545
47548473,1000,1000,1000,1000,95528440,1544,1545,1544,1544
47550972,1000,1000,1000,1000,95628400,1544,1545,1544,1544
47553471,1000,1000,1000,1000,95728360,1544,1544,1544,1543
47555970,1000,1000,1000,1000,95828320,1545,1545,1544,1544
47558469,1000,1000,1000,1000,95928280,1544,1544,1544,1544
47560968,1000,1000,1000,1000,96028240,1545,1544,1545,1544
47563467,1000,1000,1000,1000,96128200,1544,1544,1544,1544
47565966,1000,1000,1000,1000,96228160,1544,1545,1544,1545
47568465,1000,1000,1000,1000,96328953,1544,1544,1545,1545
47570964,1000,1000,1000,1000,96428913,1545,1545,1545,1545
47573463,1000,1000,1000,1000,96528873,1545,1544,1544,1545
47575962,1000,1000,1000,1000,96628833,1545,1545,1545,1545
47578461,1000,1000,1000,1000,96728793,1545,1545,1545,1545
47580960,1000,1000,1000,1000,96828753,1545,1545,1545,1544
47583459,1000,1000,1000,1000,96928713,1544,1544,1543,1543
47585958,1000,1000,1000,1000,97028673,1544,1544,1544,1544
47588457,1000,1000,1000,1000,97128633,1544,1544,1544,1544
47590956,1000,1000,1000,1000,97228593,1544,1544,1543,1543
47593455,1000,1000,1000,1000,97328553,1544,1543,1543,1543
47595954,1000,1000,1000,1000,97428513,1543,1543,1544,1543
47598453,1000,1000,1000,1000,97528473,1544,1544,1544,1544
47600952,1000,1000,1000,1000,97628433,1544,1543,1543,1543
47603451,1000,1000,1000,1000,97728393,1544,1544,1544,1544
47605950,1000,1000,1000,1000,97828353,1544,1544,1544,1544
47608449,1000,1000,1000,1000,97928313,1544,1544,1544,1545
47610948,1000,1000,1000,1000,98028273,1544,1545,1545,1544
47613447,1000,1000,1000,1000,98128233,1543,1544,1544,1544
47615946,1000,1000,1000,1000,98228193,1543,1544,1544,1543
47618445,1000,1000,1000,1000,98328986,1544,1544,1544,1544
47620944,1000,1000,1000,1000,98428946,1545,1545,1545,1545
47623443,1000,1000,1000,1000,98528906,1545,1544,1545,1545
47625942,1000,1000,1000,1000,98628866,1544,1544,1544,1544
47628441,1000,1000,1000,1000,98728826,1545,1545,1545,1545
47630940,1000,1000,1000,1000,98828786,1545,1545,1545,1545
47633439,1000,1000,1000,1000,98928746,1544,1544,1544,1544
47635938,1000,1000,1000,1000,99028706,1544,1544,1544,1544
47638437,1000,1000,1000,1000,99128666,1441,1439,1385,1384
47640936,1000,1000,1000,1000,99228626,1370,1368,1261,1259
47643435,1000,1000,1000,1000,99328586,1348,1346,1217,1216
47645934,1000,1000,1000,1000,99428546,1339,1337,1199,1197
47648433,1000,1000,1000,1000,99528506,1320,1317,1157,1154
47650932,1000,1000,1000,1000,99628466,1271,1269,1154,1150
47653431,1000,1000,1000,1000,99728426,1172,1169,1153,1150
47655930,1000,1000,1000,1000,99828386,1072,1068,1154,1150
47658429,1000,1000,1000,1000,99928346,975,972,1152,1150
47660928,1000,1000,1000,1000,100028306,974,972,1153,1150
47663427,1000,1000,1000,1000,100128266,975,971,1153,1150
47665926,1000,1000,1000,1000,100228226,975,963,1150,1163
47668425,1000,1000,1000,1000,100328186,975,962,1150,1166
47670924,1000,1000,1000,1000,100428979,975,966,1150,1159
47673423,1000,1000,1000,1000,100528939,975,967,1150,1157
47675922,1000,1000,1000,1000,100628899,975,967,1150,1157
47678421,1000,1000,1000,1000,100728859,976,967,1150,1158
47680920,1000,1000,1000,1000,100828819,975,967,1150,1158
47683419,1000,1000,1000,1000,100928779,975,966,1150,1159
47685918,1000,1000,1000,1000,101028739,972,974,1152,1150
47688417,1000,1000,1000,1000,101128699,975,973,1150,1151
47690916,1000,1000,1000,1000,101228659,975,972,1150,1151
47693415,1000,1000,1000,1000,101328619,975,972,1150,1151
47695914,1000,1000,1000,1000,101428579,975,972,1150,1151
47698413,1000,1000,1000,1000,101528539,1000,1000,1000,1000
47700912,1000,1000,1000,1000,101628499,1000,1000,1000,1000
47703411,1000,1000,1000,1000,101728459,1000,1000,1000,1000
47705910,1000,1000,1000,1000,101828419,1000,1000,1000,1000
47708409,1000,1000,1000,1000,101928379,1000,1000,1000,1000
47710908,1000,1000,1000,1000,102028339,1000,1000,1000,1000
47713407,1000,1000,1000,1000,102128299,1000,1000,1000,1000
47715906,1000,1000,1000,1000,102228259,1000,1000,1000,1000
47718405,1000,1000,1000,1000,102328219,1000,1000,1000,1000
47720904,1000,1000,1000,1000,102428179,1000,1000,1000,1000
47723403,1000,1000,1000,1000,102528972,1000,1000,1000,1000
47725902,1000,1000,1000,1000,102628932,1000,1000,1000,1000
47728401,1000,1000,1000,1000,102728892,1000,1000,1000,1000
47730900,1000,1000,1000,1000,102828852,1000,1000,1000,1000
47733399,1000,1000,1000,1000,102928812,1000,1000,1000,1000
47735898,1000,1000,1000,1000,103028772,1000,1000,1000,1000
47738397,1000,1000,1000,1000,103128732,1000,1000,1000,1000
47740896,1000,1000,1000,1000,103228692,1000,1000,1000,1000
47743395,1000,1000,1000,1000,103328652,1000,1000,1000,1000
47745894,1000,1000,1000,1000,103428612,1000,1000,1000,1000
47748393,1000,1000,1000,1000,103528572,1000,1000,1000,1000
47750892,1000,1000,1000,1000,103628532,1000,1000,1000,1000
47753391,1000,1000,1000,1000,103728492,1000,1000,1000,1000
47755890,1000,1000,1000,1000,103828452,1000,1000,1000,1000
47758389,1000,1000,1000,1000,103928412,1000,1000,1000,1000
47760888,1000,1000,1000,1000,104028372,1000,1000,1000,1000
47763387,1000,1000,1000,1000,104128332,1000,1000,1000,1000
47765886,1000,1000,1000,1000,104228292,1000,1000,1000,1000
47768385,1000,1000,1000,1000,104328252,1000,1000,1000,1000
47770884,1000,1000,1000,1000,104428212,1000,1000,1000,1000
47773383,1000,1000,1000,1000,104528172,1000,1000,1000,1000
47775882,1000,1000,1000,1000,104628965,1000,1000,1000,1000
47778381,1000,1000,1000,1000,104728925,1000,1000,1000,1000
47780880,1000,1000,1000,1000,104828885,1000,1000,1000,1000
47783379,1000,1000,1000,1000,104928845,1000,1000,1000,1000
47785878,1000,1000,1000,1000,105028805,1000,1000,1000,1000
47788377,1000,1000,1000,1000,105128765,1000,1000,1000,1000
47790876,1000,1000,1000,1000,105228725,1000,1000,1000,1000
47793375,1000,1000,1000,1000,105328685,1000,1000,1000,1000
47795874,1000,1000,1000,1000,105428645,1000,1000,1000,1000
47798373,1000,1000,1000,1000,105528605,1000,1000,1000,1000
47800872,1000,1000,1000,1000,105628565,1000,1000,1000,1000
47803371,1000,1000,1000,1000,105728525,1000,1000,1000,1000
47805870,1000,1000,1000,1000,105828485,1000,1000,1000,1000
47808369,1000,1000,1000,1000,105928445,1000,1000,1000,1000
47810868,1000,1000,1000,1000,106028405,1000,1000,1000,1000
47813367,1000,1000,1000,1000,106128365,1000,1000,1000,1000
47815866,1000,1000,1000,1000,106228325,1000,1000,1000,1000
47818365,1000,1000,1000,1000,106328285,1000,1000,1000,1000
47820864,1000,1000,1000,1000,106428245,1000,1000,1000,1000
47823363,1000,1000,1000,1000,106528205,1000,1000,1000,1000
47825862,1000,1000,1000,1000,106628165,1000,1000,1000,1000
47828361,1000,1000,1000,1000,106728958,1000,1000,1000,1000
47830860,1000,1000,1000,1000,106828918,1000,1000,1000,1000
47833359,1000,1000,1000,1000,106928878,1000,1000,1000,1000
47835858,1000,1000,1000,1000,107028838,1000,1000,1000,1000
47838357,1000,1000,1000,1000,107128798,1000,1000,1000,1000
47840856,1000,1000,1000,1000,107228758,1000,1000,1000,1000
47843355,1000,1000,1000,1000,107328718,1000,1000,1000,1000
47845854,1000,1000,1000,1000,107428678,1000,1000,1000,1000
47848353,1000,1000,1000,1000,107528638,1000,1000,1000,1000
47850852,1000,1000,1000,1000,107628598,1000,1000,1000,1000
47853351,1000,1000,1000,1000,107728558,1000,1000,1000,1000
47855850,1000,1000,1000,1000,107828518,1000,1000,1000,1000
47858349,1000,1000,1000,1000,107928478,1000,1000,1000,1000
47860848,1000,1000,1000,1000,108028438,1000,1000,1000,1000
47863347,1000,1000,1000,1000,108128398,1000,1000,1000,1000
47865846,1000,1000,1000,1000,108228358,1000,1000,1000,1000
47868345,1000,1000,1000,1000,108328318,1000,1000,1000,1000
47870844,1000,1000,1000,1000,108428278,1000,1000,1000,1000
47873343,1000,1000,1000,1000,108528238,1000,1000,1000,1000
47875842,1000,1000,1000,1000,108628198,1000,1000,1000,1000
47878341,1000,1000,1000,1000,108728158,1000,1000,1000,1000
47880840,1000,1000,1000,1000,108828951,1000,1000,1000,1000
47883339,1000,1000,1000,1000,108928911,1000,1000,1000,1000
47885838,1000,1000,1000,1000,109028871,1000,1000,1000,1000
47888337,1000,1000,1000,1000,109128831,1000,1000,1000,1000
47890836,1000,1000,1000,1000,,,,,
47893335,1000,1000,1000,1000,,,,,
47895834,1000,1000,1000,1000,,,,,
47898333,1000,1000,1000,1000,,,,,
47900832,1000,1000,1000,1000,,,,,
47903331,1000,1000,1000,1000,,,,,
47905830,1000,1000,1000,1000,,,,,
47908329,1000,1000,1000,1000,,,,,
47910828,1000,1000,1000,1000,,,,,
47913327,1000,1000,1000,1000,,,,,
47915826,1000,1000,1000,1000,,,,,
47918325,1000,1000,1000,1000,,,,,
47920824,1000,1000,1000,1000,,,,,
47923323,1000,1000,1000,1000,,,,,
47925822,1000,1000,1000,1000,,,,,
47928321,1000,1000,1000,1000,,,,,
47930820,1000,1000,1000,1000,,,,,
47933319,1000,1000,1000,1000,,,,,
47935818,1000,1000,1000,1000,,,,,
47938317,1000,1000,1000,1000,,,,,
47940816,1000,1000,1000,1000,,,,,
47943315,1000,1000,1000,1000,,,,,
47945814,1000,1000,1000,1000,,,,,
47948313,1000,1000,1000,1000,,,,,
47950812,1000,1000,1000,1000,,,,,
47953311,1000,1000,1000,1000,,,,,
47955810,1000,1000,1000,1000,,,,,
47958309,1000,1000,1000,1000,,,,,
47960808,1000,1000,1000,1000,,,,,
47963307,1000,1000,1000,1000,,,,,
47965806,1000,1000,1000,1000,,,,,
47968305,1000,1000,1000,1000,,,,,
47970804,1000,1000,1000,1000,,,,,
47973303,1000,1000,1000,1000,,,,,
47975802,1000,1000,1000,1000,,,,,
47978301,1000,1000,1000,1000,,,,,
47980800,1000,1000,1000,1000,,,,,
47983299,1000,1000,1000,1000,,,,,
47985798,1000,1000,1000,1000,,,,,
47988297,1000,1000,1000,1000,,,,,
47990796,1000,1000,1000,1000,,,,,
47993295,1000,1000,1000,1000,,,,,
47995794,1000,1000,1000,1000,,,,,
47998293,1000,1000,1000,1000,,,,,
48000792,1000,1000,1000,1000,,,,,
48003291,1000,1000,1000,1000,,,,,
48005790,1000,1000,1000,1000,,,,,
48008289,1000,1000,1000,1000,,,,,
48010788,1000,1000,1000,1000,,,,,
48013287,1000,1000,1000,1000,,,,,
48015786,1000,1000,1000,1000,,,,,
48018285,1000,1000,1000,1000,,,,,
48020784,1000,1000,1000,1000,,,,,
48023283,1000,1000,1000,1000,,,,,
48025782,1000,1000,1000,1000,,,,,
48028281,1000,1000,1000,1000,,,,,
48030780,1000,1000,1000,1000,,,,,
48033279,1000,1000,1000,1000,,,,,
48035778,1000,1000,1000,1000,,,,,
48038277,1000,1000,1000,1000,,,,,
48040776,1000,1000,1000,1000,,,,,
48043275,1000,1000,1000,1000,,,,,
48045774,1000,1000,1000,1000,,,,,
48048273,1000,1000,1000,1000,,,,,
48050772,1000,1000,1000,1000,,,,,
48053271,1000,1000,1000,1000,,,,,
48055770,1000,1000,1000,1000,,,,,
48058269,1000,1000,1000,1000,,,,,
48060768,1000,1000,1000,1000,,,,,
48063267,1000,1000,1000,1000,,,,,
48065766,1000,1000,1000,1000,,,,,
48068265,1000,1000,1000,1000,,,,,
48070764,1000,1000,1000,1000,,,,,
48073263,1000,1000,1000,1000,,,,,
48075762,1000,1000,1000,1000,,,,,
48078261,1000,1000,1000,1000,,,,,
48080760,1000,1000,1000,1000,,,,,
48083259,1000,1000,1000,1000,,,,,
48085758,1000,1000,1000,1000,,,,,
48088257,1000,1000,1000,1000,,,,,
48090756,1000,1000,1000,1000,,,,,
48093255,1000,1000,1000,1000,,,,,
48095754,1000,1000,1000,1000,,,,,
48098253,1000,1000,1000,1000,,,,,
48100752,1000,1000,1000,1000,,,,,
48103251,1000,1000,1000,1000,,,,,
48105750,1000,1000,1000,1000,,,,,
48108249,1000,1000,1000,1000,,,,,
48110748,1000,1000,1000,1000,,,,,
48113247,1000,1000,1000,1000,,,,,
48115746,1000,1000,1000,1000,,,,,
48118245,1000,1000,1000,1000,,,,,
48120744,1000,1000,1000,1000,,,,,
48123243,1000,1000,1000,1000,,,,,
48125742,1000,1000,1000,1000,,,,,
48128241,1000,1000,1000,1000,,,,,
48130740,1000,1000,1000,1000,,,,,
48133239,1000,1000,1000,1000,,,,,
48135738,1000,1000,1000,1000,,,,,
48138237,1000,1000,1000,1000,,,,,
48140736,1000,1000,1000,1000,,,,,
48143235,1000,1000,1000,1000,,,,,
48145734,1000,1000,1000,1000,,,,,
48148233,1000,1000,1000,1000,,,,,
48150732,1000,1000,1000,1000,,,,,
48153231,1000,1000,1000,1000,,,,,
48155730,1000,1000,1000,1000,,,,,
48158229,1000,1000,1000,1000,,,,,
48160728,1000,1000,1000,1000,,,,,
48163227,1000,1000,1000,1000,,,,,
48165726,1000,1000,1000,1000,,,,,
48168225,1000,1000,1000,1000,,,,,
48170724,1000,1000,1000,1000,,,,,
48173223,1000,1000,1000,1000,,,,,
48175722,1000,1000,1000,1000,,,,,
48178221,1000,1000,1000,1000,,,,,
48180720,1000,1000,1000,1000,,,,,
48183219,1000,1000,1000,1000,,,,,
48185718,1000,1000,1000,1000,,,,,
48188217,1000,1000,1000,1000,,,,,
48190716,1000,1000,1000,1000,,,,,
48193215,1000,1000,1000,1000,,,,,
48195714,1000,1000,1000,1000,,,,,
48198213,1000,1000,1000,1000,,,,,
48200712,1000,1000,1000,1000,,,,,
48203211,1000,1000,1000,1000,,,,,
48205710,1000,1000,1000,1000,,,,,
48208209,1000,1000,1000,1000,,,,,
48210708,1000,1000,1000,1000,,,,,
48213207,1000,1000,1000,1000,,,,,
48215706,1000,1000,1000,1000,,,,,
48218205,1000,1000,1000,1000,,,,,
48220704,1000,1000,1000,1000,,,,,
48223203,1000,1000,1000,1000,,,,,
48225702,1000,1000,1000,1000,,,,,
48228201,1000,1000,1000,1000,,,,,
48230700,1000,1000,1000,1000,,,,,
48233199,1000,1000,1000,1000,,,,,
48235698,1000,1000,1000,1000,,,,,
48238197,1000,1000,1000,1000,,,,,
48240696,1000,1000,1000,1000,,,,,
48243195,1000,1000,1000,1000,,,,,
48245694,1000,1000,1000,1000,,,,,
48248193,1000,1000,1000,1000,,,,,
48250692,1000,1000,1000,1000,,,,,
48253191,1000,1000,1000,1000,,,,,
48255690,1000,1000,1000,1000,,,,,
48258189,1000,1000,1000,1000,,,,,
48260688,1000,1000,1000,1000,,,,,
48263187,1000,1000,1000,1000,,,,,
48265686,1000,1000,1000,1000,,,,,
48268185,1000,1000,1000,1000,,,,,
48270684,1000,1000,1000,1000,,,,,
48273183,1000,1000,1000,1000,,,,,
48275682,1000,1000,1000,1000,,,,,
48278181,1000,1000,1000,1000,,,,,
48280680,1000,1000,1000,1000,,,,,
48283179,1000,1000,1000,1000,,,,,
48285678,1000,1000,1000,1000,,,,,
48288177,1000,1000,1000,1000,,,,,
48290676,1000,1000,1000,1000,,,,,
48293175,1000,1000,1000,1000,,,,,
48295674,1000,1000,1000,1000,,,,,
48298173,1000,1000,1000,1000,,,,,
48300672,1000,1000,1000,1000,,,,,
48303171,1000,1000,1000,1000,,,,,
48305670,1000,1000,1000,1000,,,,,
48308169,1000,1000,1000,1000,,,,,
48310668,1000,1000,1000,1000,,,,,
48313167,1000,1000,1000,1000,,,,,
48315666,1000,1000,1000,1000,,,,,
48318165,1000,1000,1000,1000,,,,,
48320664,1000,1000,1000,1000,,,,,
48323163,1000,1000,1000,1000,,,,,
48325662,1001,1001,1001,1001,,,,,
48328161,1002,1002,1002,1002,,,,,
48330660,1003,1003,1003,1003,,,,,
48333159,1003,1003,1003,1003,,,,,
48335658,1004,1004,1004,1004,,,,,
48338157,1005,1005,1005,1005,,,,,
48340656,1006,1006,1006,1006,,,,,
48343155,1006,1006,1006,1006,,,,,
48345654,1007,1007,1007,1007,,,,,
48348986,1008,1008,1008,1008,,,,,
48351485,1009,1009,1009,1009,,,,,
48353984,1009,1009,1009,1009,,,,,
48356483,1010,1010,1010,1010,,,,,
48358982,1011,1011,1011,1011,,,,,
48361481,1012,1012,1012,1012,,,,,
48363980,1012,1012,1012,1012,,,,,
48366479,1013,1013,1013,1013,,,,,
48368978,1014,1014,1014,1014,,,,,
48371477,1015,1015,1015,1015,,,,,
48373976,1015,1015,1015,1015,,,,,
48376475,1016,1016,1016,1016,,,,,
48378974,1017,1017,1017,1017,,,,,
48381473,1018,1018,1018,1018,,,,,
48383972,1018,1018,1018,1018,,,,,
48386471,1019,1019,1019,1019,,,,,
48388970,1020,1020,1020,1020,,,,,
48391469,1021,1021,1021,1021,,,,,
48393968,1021,1021,1021,1021,,,,,
48396467,1022,1022,1022,1022,,,,,
48398966,1023,1023,1023,1023,,,,,
48401465,1024,1024,1024,1024,,,,,
48403964,1024,1024,1024,1024,,,,,
48406463,1025,1025,1025,1025,,,,,
48408962,1026,1026,1026,1026,,,,,
48411461,1027,1027,1027,1027,,,,,
48413960,1027,1027,1027,1027,,,,,
48416459,1028,1028,1028,1028,,,,,
48418958,1029,1029,1029,1029,,,,,
48421457,1030,1030,1030,1030,,,,,
48423956,1030,1030,1030,1030,,,,,
48426455,1031,1031,1031,1031,,,,,
48428954,1032,1032,1032,1032,,,,,
48431453,1033,1033,1033,1033,,,,,
48433952,1033,1033,1033,1033,,,,,
48436451,1034,1034,1034,1034,,,,,
48438950,1035,1035,1035,1035,,,,,
48441449,1036,1036,1036,1036,,,,,
48443948,1036,1036,1036,1036,,,,,
48446447,1037,1037,1037,1037,,,,,
48448946,1038,1038,1038,1038,,,,,
48451445,1039,1039,1039,1039,,,,,
48453944,1039,1039,1039,1039,,,,,
48456443,1040,1040,1040,1040,,,,,
48458942,1041,1041,1041,1041,,,,,
48461441,1042,1042,1042,1042,,,,,
48463940,1042,1042,1042,1042,,,,,
48466439,1043,1043,1043,1043,,,,,
48468938,1044,1044,1044,1044,,,,,
48471437,1045,1045,1045,1045,,,,,
48473936,1045,1045,1045,1045,,,,,
48476435,1046,1046,1046,1046,,,,,
48478934,1047,1047,1047,1047,,,,,
48481433,1048,1048,1048,1048,,,,,
48483932,1048,1048,1048,1048,,,,,
48486431,1049,1049,1049,1049,,,,,
48488930,1050,1050,1050,1050,,,,,
48491429,1051,1051,1051,1051,,,,,
48493928,1051,1051,1051,1051,,,,,
48496427,1052,1052,1052,1052,,,,,
48498926,1053,1053,1053,1053,,,,,
48501425,1054,1054,1054,1054,,,,,
48503924,1054,1054,1054,1054,,,,,
48506423,1055,1055,1055,1055,,,,,
48508922,1056,1056,1056,1056,,,,,
48511421,1057,1057,1057,1057,,,,,
48513920,1057,1057,1057,1057,,,,,
48516419,1058,1058,1058,1058,,,,,
48518918,1059,1059,1059,1059,,,,,
48521417,1060,1060,1060,1060,,,,,
48523916,1060,1060,1060,1060,,,,,
48526415,1061,1061,1061,1061,,,,,
48528914,1062,1062,1062,1062,,,,,
48531413,1063,1063,1063,1063,,,,,
48533912,1063,1063,1063,1063,,,,,
48536411,1064,1064,1064,1064,,,,,
48538910,1065,1065,1065,1065,,,,,
48541409,1066,1066,1066,1066,,,,,
48543908,1066,1066,1066,1066,,,,,
48546407,1067,1067,1067,1067,,,,,
48548906,1068,1068,1068,1068,,,,,
48551405,1069,1069,1069,1069,,,,,
48553904,1069,1069,1069,1069,,,,,
48556403,1070,1070,1070,1070,,,,,
48558902,1071,1071,1071,1071,,,,,
48561401,1072,1072,1072,1072,,,,,
48563900,1072,1072,1072,1072,,,,,
48566399,1073,1073,1073,1073,,,,,
48568898,1074,1074,1074,1074,,,,,
48571397,1075,1075,1075,1075,,,,,
48573896,1075,1075,1075,1075,,,,,
48576395,1076,1076,1076,1076,,,,,
48578894,1077,1077,1077,1077,,,,,
48581393,1078,1078,1078,1078,,,,,
48583892,1078,1078,1078,1078,,,,,
48586391,1079,1079,1079,1079,,,,,
48588890,1080,1080,1080,1080,,,,,
48591389,1081,1081,1081,1081,,,,,
48593888,1081,1081,1081,1081,,,,,
48596387,1082,1082,1082,1082,,,,,
48598886,1083,1083,1083,1083,,,,,
48601385,1084,1084,1084,1084,,,,,
48603884,1084,1084,1084,1084,,,,,
48606383,1085,1085,1085,1085,,,,,
48608882,1086,1086,1086,1086,,,,,
48611381,1087,1087,1087,1087,,,,,
48613880,1087,1087,1087,1087,,,,,
48616379,1088,1088,1088,1088,,,,,
48618878,1089,1089,1089,1089,,,,,
48621377,1090,1090,1090,1090,,,,,
48623876,1090,1090,1090,1090,,,,,
48626375,1091,1091,1091,1091,,,,,
48628874,1092,1092,1092,1092,,,,,
48631373,1093,1093,1093,1093,,,,,
48633872,1093,1093,1093,1093,,,,,
48636371,1094,1094,1094,1094,,,,,
48638870,1095,1095,1095,1095,,,,,
48641369,1096,1096,1096,1096,,,,,
48643868,1096,1096,1096,1096,,,,,
48646367,1097,1097,1097,1097,,,,,
48648866,1098,1098,1098,1098,,,,,
48651365,1099,1099,1099,1099,,,,,
48653864,1099,1099,1099,1099,,,,,
48656363,1100,1100,1100,1100,,,,,
48658862,1101,1101,1101,1101,,,,,
48661361,1101,1101,1101,1101,,,,,
48663860,1102,1102,1102,1102,,,,,
48666359,1103,1103,1103,1103,,,,,
48668858,1104,1104,1104,1104,,,,,
48671357,1104,1104,1104,1104,,,,,
48673856,1105,1105,1105,1105,,,,,
48676355,1106,1106,1106,1106,,,,,
48678854,1107,1107,1107,1107,,,,,
48681353,1107,1107,1107,1107,,,,,
48683852,1108,1108,1108,1108,,,,,
48686351,1109,1109,1109,1109,,,,,
48688850,1110,1110,1110,1110,,,,,
48691349,1110,1110,1110,1110,,,,,
48693848,1111,1111,1111,1111,,,,,
48696347,1112,1112,1112,1112,,,,,
48698846,1113,1113,1113,1113,,,,,
48701345,1113,1113,1113,1113,,,,,
48703844,1114,1114,1114,1114,,,,,
48706343,1115,1115,1115,1115,,,,,
48708842,1116,1116,1116,1116,,,,,
48711341,1116,1116,1116,1116,,,,,
48713840,1117,1117,1117,1117,,,,,
48716339,1118,1118,1118,1118,,,,,
48718838,1119,1119,1119,1119,,,,,
48721337,1119,1119,1119,1119,,,,,
48723836,1120,1120,1120,1120,,,,,
48726335,1121,1121,1121,1121,,,,,
48728834,1122,1122,1122,1122,,,,,
48731333,1122,1122,1122,1122,,,,,
48733832,1123,1123,1123,1123,,,,,
48736331,1124,1124,1124,1124,,,,,
48738830,1125,1125,1125,1125,,,,,
48741329,1125,1125,1125,1125,,,,,
48743828,1126,1126,1126,1126,,,,,
48746327,1127,1127,1127,1127,,,,,
48748826,1128,1128,1128,1128,,,,,
48751325,1128,1128,1128,1128,,,,,
48753824,1129,1129,1129,1129,,,,,
48756323,1130,1130,1130,1130,,,,,
48758822,1131,1131,1131,1131,,,,,
48761321,1131,1131,1131,1131,,,,,
48763820,1132,1132,1132,1132,,,,,
48766319,1133,1133,1133,1133,,,,,
48768818,1134,1134,1134,1134,,,,,
48771317,1134,1134,1134,1134,,,,,
48773816,1135,1135,1135,1135,,,,,
48776315,1136,1136,1136,1136,,,,,
48778814,1137,1137,1137,1137,,,,,
48781313,1137,1137,1137,1137,,,,,
48783812,1138,1138,1138,1138,,,,,
48786311,1139,1139,1139,1139,,,,,
48788810,1140,1140,1140,1140,,,,,
48791309,1140,1140,1140,1140,,,,,
48793808,1141,1141,1141,1141,,,,,
48796307,1142,1142,1142,1142,,,,,
48798806,1143,1143,1143,1143,,,,,
48801305,1143,1143,1143,1143,,,,,
48803804,1144,1144,1144,1144,,,,,
48806303,1145,1145,1145,1145,,,,,
48808802,1146,1146,1146,1146,,,,,
48811301,1146,1146,1146,1146,,,,,
48813800,1147,1147,1147,1147,,,,,
48816299,1148,1148,1148,1148,,,,,
48818798,1149,1149,1149,1149,,,,,
48821297,1149,1149,1149,1149,,,,,
48823796,1150,1150,1150,1150,,,,,
48826295,1161,1154,1155,1161,,,,,
48828794,1169,1162,1163,1169,,,,,
48831293,1177,1170,1171,1177,,,,,
48833792,1184,1178,1179,1185,,,,,
48836291,1192,1186,1186,1192,,,,,
48838790,1199,1193,1194,1200,,,,,
48841289,1207,1201,1201,1207,,,,,
48843788,1214,1208,1208,1214,,,,,
48846287,1221,1215,1216,1221,,,,,
48848786,1228,1222,1223,1228,,,,,
48851285,1235,1229,1230,1235,,,,,
48853784,1242,1236,1236,1242,,,,,
48856283,1248,1243,1243,1249,,,,,
48858782,1255,1249,1250,1255,,,,,
48861281,1262,1256,1256,1262,,,,,
48863780,1268,1263,1263,1268,,,,,
48866279,1274,1269,1269,1275,,,,,
48868778,1281,1275,1276,1281,,,,,
48871277,1287,1282,1282,1287,,,,,
48873776,1293,1288,1288,1293,,,,,
48876275,1299,1294,1294,1299,,,,,
48878774,1305,1300,1300,1305,,,,,
48881273,1311,1306,1306,1311,,,,,
48883772,1317,1312,1312,1317,,,,,
48886271,1323,1318,1318,1323,,,,,
48888770,1329,1324,1324,1329,,,,,
48891269,1334,1329,1330,1335,,,,,
48893768,1340,1335,1335,1340,,,,,
48896267,1346,1341,1341,1346,,,,,
48898766,1351,1346,1346,1351,,,,,
48901265,1357,1352,1352,1357,,,,,
48903764,1362,1357,1357,1362,,,,,
48906263,1368,1363,1363,1368,,,,,
48908762,1373,1368,1368,1373,,,,,
48911261,1378,1373,1374,1378,,,,,
48913760,1383,1379,1379,1384,,,,,
48916259,1389,1384,1384,1389,,,,,
48918758,1394,1389,1389,1394,,,,,
48921257,1399,1394,1394,1399,,,,,
48923756,1404,1399,1400,1404,,,,,
48926255,1409,1404,1405,1409,,,,,
48928754,1414,1409,1410,1414,,,,,
48931253,1419,1414,1415,1419,,,,,
48933752,1424,1419,1420,1424,,,,,
48936251,1429,1424,1425,1429,,,,,
48938750,1434,1429,1429,1434,,,,,
48941249,1439,1434,1434,1439,,,,,
48943748,1444,1439,1439,1444,,,,,
48946247,1448,1444,1444,1449,,,,,
48948746,1453,1448,1449,1453,,,,,
48951245,1458,1453,1453,1458,,,,,
48953744,1462,1458,1458,1463,,,,,
48956243,1467,1463,1463,1467,,,,,
48958742,1472,1467,1467,1472,,,,,
48961241,1476,1472,1472,1477,,,,,
48963740,1481,1476,1477,1481,,,,,
48966239,1485,1481,1481,1486,,,,,
48968738,1490,1485,1486,1490,,,,,
48971237,1494,1490,1490,1495,,,,,
48973736,1499,1494,1495,1499,,,,,
48976235,1503,1499,1499,1503,,,,,
48978734,1508,1503,1504,1508,,,,,
48981233,1512,1508,1508,1512,,,,,
48983732,1516,1512,1512,1516,,,,,
48986231,1521,1516,1517,1521,,,,,
48988730,1525,1521,1521,1525,,,,,
48991229,1529,1525,1525,1529,,,,,
48993728,1534,1529,1530,1534,,,,,
48996227,1538,1533,1534,1538,,,,,
48998726,1542,1538,1538,1542,,,,,
49001225,1546,1542,1542,1546,,,,,
49003724,1550,1546,1546,1550,,,,,
49006223,1554,1550,1551,1554,,,,,
49008722,1559,1554,1555,1558,,,,,
49011221,1563,1558,1559,1563,,,,,
49013720,1567,1562,1563,1567,,,,,
49016219,1571,1567,1567,1571,,,,,
49018718,1575,1571,1571,1575,,,,,
49021217,1579,1575,1575,1579,,,,,
49023716,1583,1579,1579,1583,,,,,
49026215,1587,1583,1583,1587,,,,,
49028714,1591,1587,1587,1591,,,,,
49031213,1595,1591,1591,1595,,,,,
49033712,1599,1595,1595,1598,,,,,
49036211,1602,1598,1599,1602,,,,,
49038710,1606,1602,1603,1606,,,,,
49041209,1610,1606,1607,1610,,,,,
49043708,1614,1610,1611,1614,,,,,
49046207,1618,1614,1614,1618,,,,,
49048706,1622,1618,1618,1622,,,,,
49051205,1625,1622,1622,1625,,,,,
49053704,1629,1625,1626,1629,,,,,
49056203,1633,1629,1630,1633,,,,,
49058702,1637,1633,1633,1637,,,,,
49061201,1640,1637,1637,1641,,,,,
49063700,1644,1641,1641,1644,,,,,
49066199,1648,1644,1644,1648,,,,,
49068698,1652,1648,1648,1652,,,,,
49071197,1655,1652,1652,1655,,,,,
49073696,1659,1655,1655,1659,,,,,
49076195,1663,1659,1659,1663,,,,,
49078694,1666,1663,1663,1666,,,,,
49081193,1670,1666,1666,1670,,,,,
49083692,1673,1670,1670,1674,,,,,
49086191,1677,1673,1674,1677,,,,,
49088690,1680,1677,1677,1681,,,,,
49091189,1684,1681,1681,1684,,,,,
49093688,1688,1684,1684,1688,,,,,
49096187,1691,1688,1688,1691,,,,,
49098686,1695,1691,1691,1695,,,,,
49101185,1698,1695,1695,1698,,,,,
49103684,1702,1698,1698,1702,,,,,
49106183,1705,1702,1702,1705,,,,,
49108682,1709,1705,1705,1709,,,,,
49111181,1712,1709,1709,1712,,,,,
49113680,1715,1712,1712,1716,,,,,
49116179,1719,1716,1716,1719,,,,,
49118678,1722,1719,1719,1723,,,,,
49121177,1726,1722,1722,1726,,,,,
49123676,1729,1726,1726,1730,,,,,
49126175,1733,1729,1729,1733,,,,,
49128674,1736,1733,1733,1736,,,,,
49131173,1739,1736,1736,1740,,,,,
49133672,1743,1739,1739,1743,,,,,
49136171,1746,1743,1743,1746,,,,,
49138670,1749,1746,1746,1750,,,,,
49141169,1753,1749,1749,1753,,,,,
49143668,1756,1753,1753,1756,,,,,
49146167,1759,1756,1756,1760,,,,,
49148666,1763,1759,1759,1763,,,,,
49151165,1766,1762,1762,1766,,,,,
49153664,1769,1766,1766,1769,,,,,
49156163,1772,1769,1769,1773,,,,,
49158662,1776,1772,1772,1776,,,,,
49161161,1779,1775,1775,1779,,,,,
49163660,1782,1779,1779,1782,,,,,
49166159,1785,1782,1782,1786,,,,,
49168658,1789,1785,1785,1789,,,,,
49171157,1792,1788,1788,1792,,,,,
49173656,1795,1791,1791,1795,,,,,
49176155,1798,1795,1795,1798,,,,,
49178654,1801,1798,1798,1802,,,,,
49181153,1804,1801,1801,1805,,,,,
49183652,1808,1804,1804,1808,,,,,
49186151,1811,1807,1807,1811,,,,,
49188650,1814,1810,1810,1814,,,,,
49191149,1817,1813,1813,1817,,,,,
49193648,1820,1817,1817,1820,,,,,
49196147,1823,1820,1820,1824,,,,,
49198646,1826,1823,1823,1827,,,,,
49201145,1829,1826,1826,1830,,,,,
49203644,1832,1829,1829,1833,,,,,
49206143,1835,1832,1832,1836,,,,,
49208642,1838,1835,1835,1839,,,,,
49211141,1841,1838,1838,1842,,,,,
49213640,1844,1841,1841,1845,,,,,
49216139,1847,1844,1844,1848,,,,,
49218638,1851,1847,1847,1851,,,,,
49221137,1854,1850,1850,1854,,,,,
49223636,1857,1853,1853,1857,,,,,
49226135,1859,1856,1856,1860,,,,,
49228634,1862,1859,1859,1863,,,,,
49231133,1865,1862,1862,1866,,,,,
49233632,1868,1865,1865,1869,,,,,
49236131,1871,1868,1868,1872,,,,,
49238630,1874,1871,1871,1875,,,,,
49241129,1877,1874,1874,1878,,,,,
49243628,1880,1877,1877,1881,,,,,
49246127,1883,1880,1880,1884,,,,,
49248626,1886,1883,1883,1886,,,,,
49251125,1889,1886,1886,1889,,,,,
49253624,1892,1889,1889,1892,,,,,
49256123,1895,1892,1892,1895,,,,,
49258622,1898,1895,1895,1898,,,,,
49261121,1901,1897,1897,1901,,,,,
49263620,1900,1896,1896,1900,,,,,
49266119,1899,1895,1895,1899,,,,,
49268618,1898,1894,1894,1898,,,,,
49271117,1897,1893,1893,1897,,,,,
49273616,1896,1893,1893,1896,,,,,
49276115,1895,1892,1892,1895,,,,,
49278614,1894,1891,1891,1895,,,,,
49281113,1894,1890,1890,1894,,,,,
49283612,1893,1890,1890,1893,,,,,
49286111,1892,1889,1889,1893,,,,,
49288610,1892,1888,1888,1892,,,,,
49291109,1891,1888,1888,1892,,,,,
49293608,1891,1888,1888,1891,,,,,
49296107,1891,1887,1887,1891,,,,,
49298606,1890,1887,1887,1891,,,,,
49301105,1890,1887,1887,1890,,,,,
49303604,1890,1887,1886,1890,,,,,
49306103,1890,1886,1886,1890,,,,,
49308602,1890,1887,1886,1890,,,,,
49311101,1890,1887,1887,1890,,,,,
49313600,1890,1887,1887,1891,,,,,
49316099,1890,1887,1887,1891,,,,,
49318598,1891,1887,1887,1891,,,,,
49321097,1891,1888,1888,1891,,,,,
49323596,1891,1888,1888,1892,,,,,
49326095,1891,1888,1888,1892,,,,,
49328594,1891,1888,1888,1892,,,,,
49331093,1891,1889,1888,1892,,,,,
49333592,1891,1889,1889,1892,,,,,
49336091,1891,1888,1888,1891,,,,,
49338590,1891,1888,1888,1891,,,,,
49341089,1890,1888,1888,1890,,,,,
49343588,1889,1887,1887,1890,,,,,
49346087,1889,1886,1886,1889,,,,,
49348586,1888,1885,1885,1888,,,,,
49351085,1886,1884,1884,1887,,,,,
49353584,1885,1883,1883,1885,,,,,
49356083,1883,1882,1882,1884,,,,,
49358582,1882,1880,1880,1882,,,,,
49361081,1880,1878,1878,1880,,,,,
49363580,1878,1876,1876,1878,,,,,
49366079,1876,1874,1874,1876,,,,,
49368578,1874,1872,1872,1874,,,,,
49371077,1871,1870,1870,1872,,,,,
49373576,1869,1868,1867,1869,,,,,
49376075,1866,1865,1865,1867,,,,,
49378574,1864,1863,1862,1864,,,,,
49381073,1861,1860,1860,1862,,,,,
49383572,1858,1857,1857,1859,,,,,
49386071,1856,1855,1854,1856,,,,,
49388570,1853,1852,1852,1853,,,,,
49391069,1850,1849,1849,1850,,,,,
49393568,1847,1846,1846,1847,,,,,
49396067,1844,1843,1843,1844,,,,,
49398566,1841,1840,1840,1841,,,,,
49401065,1838,1837,1837,1838,,,,,
49403564,1834,1834,1833,1835,,,,,
49406063,1831,1830,1830,1832,,,,,
49408562,1828,1827,1827,1829,,,,,
49411061,1825,1824,1824,1825,,,,,
49413560,1821,1821,1820,1822,,,,,
49416059,1818,1817,1817,1819,,,,,
49418558,1814,1814,1814,1815,,,,,
49421057,1811,1811,1810,1812,,,,,
49423556,1808,1807,1807,1808,,,,,
49426055,1804,1804,1803,1805,,,,,
49428554,1801,1801,1800,1802,,,,,
49431053,1797,1797,1797,1798,,,,,
49433552,1794,1794,1793,1795,,,,,
49436051,1791,1790,1790,1791,,,,,
49438550,1787,1787,1787,1788,,,,,
49441049,1784,1784,1783,1785,,,,,
49443548,1780,1780,1780,1781,,,,,
49446047,1777,1777,1777,1778,,,,,
49448546,1774,1773,1773,1774,,,,,
49451045,1770,1770,1770,1771,,,,,
49453544,1767,1767,1766,1767,,,,,
49456043,1763,1763,1763,1764,,,,,
49458542,1760,1760,1760,1761,,,,,
49461041,1757,1757,1756,1757,,,,,
49463540,1753,1753,1753,1754,,,,,
49466039,1750,1750,1750,1750,,,,,
49468538,1747,1747,1747,1747,,,,,
49471037,1743,1743,1743,1744,,,,,
49473536,1740,1740,1740,1740,,,,,
49476035,1737,1737,1737,1737,,,,,
49478534,1734,1734,1734,1734,,,,,
49481033,1730,1731,1731,1731,,,,,
49483532,1727,1728,1728,1728,,,,,
49486031,1724,1724,1725,1724,,,,,
49488530,1721,1721,1722,1721,,,,,
49491029,1718,1718,1719,1718,,,,,
49493528,1715,1715,1716,1715,,,,,
49496027,1712,1713,1713,1712,,,,,
49498526,1709,1710,1710,1710,,,,,
49501025,1707,1707,1707,1707,,,,,
49503524,1704,1704,1704,1704,,,,,
49506023,1701,1701,1701,1701,,,,,
49508522,1698,1698,1699,1698,,,,,
49511021,1696,1696,1696,1695,,,,,
49513520,1693,1693,1694,1693,,,,,
49516019,1690,1691,1691,1690,,,,,
49518518,1688,1688,1689,1688,,,,,
49521017,1685,1686,1686,1685,,,,,
49523516,1683,1683,1684,1683,,,,,
49526015,1680,1681,1681,1680,,,,,
49528514,1678,1678,1679,1678,,,,,
49531013,1676,1676,1677,1676,,,,,
49533512,1674,1674,1675,1673,,,,,
49536011,1671,1672,1672,1671,,,,,
49538510,1669,1670,1670,1669,,,,,
49541009,1667,1668,1668,1667,,,,,
49543508,1665,1666,1666,1665,,,,,
49546007,1663,1664,1664,1663,,,,,
49548506,1661,1662,1662,1661,,,,,
49551005,1659,1660,1660,1659,,,,,
49553504,1657,1658,1659,1657,,,,,
49556003,1656,1656,1657,1655,,,,,
49558502,1654,1654,1655,1654,,,,,
49561001,1652,1653,1653,1652,,,,,
49563500,1650,1651,1652,1650,,,,,
49565999,1649,1650,1650,1649,,,,,
49568498,1647,1648,1649,1647,,,,,
49570997,1646,1647,1647,1646,,,,,
49573496,1644,1645,1646,1644,,,,,
49575995,1643,1644,1645,1643,,,,,
49578494,1642,1643,1643,1642,,,,,
49580993,1641,1642,1642,1640,,,,,
49583492,1639,1640,1641,1639,,,,,
49585991,1638,1639,1640,1638,,,,,
49588490,1637,1638,1639,1637,,,,,
49590989,1636,1637,1637,1636,,,,,
49593488,1635,1636,1636,1634,,,,,
49595987,1634,1635,1635,1633,,,,,
49598486,1633,1634,1634,1632,,,,,
49600985,1632,1633,1633,1631,,,,,
49603484,1631,1632,1632,1630,,,,,
49605983,1630,1631,1631,1629,,,,,
49608482,1629,1630,1630,1629,,,,,
