TimeUS,M1,M2,M3,M4,TimeUS,C1,C2,C3,C4
42918659,1000,1000,1000,1000,42928655,1000,1000,1000,1000
42921158,1000,1000,1000,1000,43028615,1000,1000,1000,1000
42923657,1000,1000,1000,1000,43128575,1000,1000,1000,1000
42926156,1000,1000,1000,1000,43228535,1000,1000,1000,1000
42928655,1000,1000,1000,1000,43328495,1000,1000,1000,1000
42931154,1000,1000,1000,1000,43428455,1000,1000,1000,1000
42933653,1000,1000,1000,1000,43528415,1000,1000,1000,1000
42936152,1000,1000,1000,1000,43628375,1000,1000,1000,1000
42938651,1000,1000,1000,1000,43728335,1000,1000,1000,1000
42941150,1000,1000,1000,1000,43828295,1000,1000,1000,1000
42943649,1000,1000,1000,1000,43928255,1000,1000,1000,1000
42946148,1000,1000,1000,1000,44028215,1000,1000,1000,1000
42948647,1000,1000,1000,1000,44128175,1000,1000,1000,1000
42951146,1000,1000,1000,1000,44228968,1000,1000,1000,1000
42953645,1000,1000,1000,1000,44328928,1000,1000,1000,1000
42956144,1000,1000,1000,1000,44428888,1000,1000,1000,1000
42958643,1000,1000,1000,1000,44528848,1000,1000,1000,1000
42961142,1000,1000,1000,1000,44628808,1000,1000,1000,1000
42963641,1000,1000,1000,1000,44728768,1000,1000,1000,1000
42966140,1000,1000,1000,1000,44828728,1000,1000,1000,1000
42968639,1000,1000,1000,1000,44928688,1003,1003,1003,1003
42971138,1000,1000,1000,1000,45028648,1033,1033,1033,1033
42973637,1000,1000,1000,1000,45128608,1063,1063,1063,1063
42976136,1000,1000,1000,1000,45228568,1093,1093,1093,1093
42978635,1000,1000,1000,1000,45328528,1122,1122,1122,1122
42981134,1000,1000,1000,1000,45428488,1177,1169,1170,1178
42983633,1000,1000,1000,1000,45528448,1419,1414,1414,1420
42986132,1000,1000,1000,1000,45628408,1595,1590,1591,1595
42988631,1000,1000,1000,1000,45728368,1740,1735,1736,1740
42991130,1000,1000,1000,1000,45828328,1866,1862,1862,1866
42993629,1000,1000,1000,1000,45928288,1917,1914,1914,1918
42996128,1000,1000,1000,1000,46028248,1805,1804,1802,1807
42998627,1000,1000,1000,1000,46128208,1682,1682,1681,1683
43001126,1000,1000,1000,1000,46228168,1624,1624,1624,1624
43003625,1000,1000,1000,1000,46328961,1614,1615,1616,1614
43006124,1000,1000,1000,1000,46428921,1619,1621,1621,1619
43008623,1000,1000,1000,1000,46528881,1620,1621,1621,1620
43011122,1000,1000,1000,1000,46628841,1614,1614,1614,1614
43013621,1000,1000,1000,1000,46728801,1610,1609,1609,1610
43016120,1000,1000,1000,1000,46828761,1608,1607,1606,1608
43018619,1000,1000,1000,1000,46928721,1609,1609,1608,1609
43021118,1000,1000,1000,1000,47028681,1611,1611,1611,1611
43023617,1000,1000,1000,1000,47128641,1613,1614,1615,1612
43026116,1000,1000,1000,1000,47228601,1617,1617,1618,1615
43028615,1000,1000,1000,1000,47328561,1584,1585,1591,1578
43031114,1000,1000,1000,1000,47428521,1570,1571,1576,1565
43033613,1000,1000,1000,1000,47528481,1560,1560,1561,1559
43036112,1000,1000,1000,1000,47628441,1551,1551,1545,1556
43038611,1000,1000,1000,1000,47728401,1543,1543,1535,1552
43041110,1000,1000,1000,1000,47828361,1536,1536,1529,1543
43043609,1000,1000,1000,1000,47928321,1531,1531,1527,1535
43046108,1000,1000,1000,1000,48028281,1527,1527,1526,1528
43048607,1000,1000,1000,1000,48128241,1528,1528,1529,1527
43051106,1000,1000,1000,1000,48228201,1529,1530,1532,1527
43053605,1000,1000,1000,1000,48328161,1534,1533,1537,1531
43056104,1000,1000,1000,1000,48428954,1536,1537,1540,1534
43058603,1000,1000,1000,1000,48528914,1540,1540,1542,1538
43061102,1000,1000,1000,1000,48628874,1543,1543,1544,1543
43063601,1000,1000,1000,1000,48728834,1547,1546,1546,1547
43066100,1000,1000,1000,1000,48828794,1549,1549,1549,1550
43068599,1000,1000,1000,1000,48928754,1553,1552,1552,1553
43071098,1000,1000,1000,1000,49028714,1554,1554,1553,1555
43073597,1000,1000,1000,1000,49128674,1550,1550,1561,1564
43076096,1000,1000,1000,1000,49228634,1552,1553,1564,1566
43078595,1000,1000,1000,1000,49328594,1556,1557,1564,1564
43081094,1000,1000,1000,1000,49428554,1561,1561,1565,1564
43083593,1000,1000,1000,1000,49528514,1563,1563,1563,1562
43086092,1000,1000,1000,1000,49628474,1568,1568,1564,1563
43088591,1000,1000,1000,1000,49728434,1571,1570,1564,1564
43091090,1000,1000,1000,1000,49828394,1572,1572,1565,1565
43093589,1000,1000,1000,1000,49928354,1573,1573,1566,1566
43096088,1000,1000,1000,1000,50028314,1574,1573,1567,1567
43098587,1000,1000,1000,1000,50128274,1574,1574,1569,1569
43101086,1000,1000,1000,1000,50228234,1573,1573,1570,1570
43103585,1000,1000,1000,1000,50328194,1573,1573,1571,1572
43106084,1000,1000,1000,1000,50428154,1572,1573,1573,1573
43108583,1000,1000,1000,1000,50528947,1574,1574,1576,1575
43111082,1000,1000,1000,1000,50628907,1574,1574,1577,1576
43113581,1000,1000,1000,1000,50728867,1573,1573,1576,1575
43116080,1000,1000,1000,1000,50828827,1573,1573,1576,1576
43118579,1000,1000,1000,1000,50928787,1574,1574,1577,1577
43121078,1000,1000,1000,1000,51028747,1574,1575,1577,1577
43123577,1000,1000,1000,1000,51128707,1575,1575,1577,1577
43126076,1000,1000,1000,1000,51228667,1575,1576,1577,1577
43128575,1000,1000,1000,1000,51328627,1577,1576,1577,1577
43131074,1000,1000,1000,1000,51428587,1577,1577,1576,1576
43133573,1000,1000,1000,1000,51528547,1577,1576,1576,1576
43136072,1000,1000,1000,1000,51628507,1577,1577,1576,1575
43138571,1000,1000,1000,1000,51728467,1578,1578,1576,1577
43141070,1000,1000,1000,1000,51828427,1579,1579,1577,1577
43143569,1000,1000,1000,1000,51928387,1579,1579,1578,1578
43146068,1000,1000,1000,1000,52028347,1579,1579,1578,1578
43148567,1000,1000,1000,1000,52128307,1580,1580,1579,1579
43151066,1000,1000,1000,1000,52228267,1579,1579,1579,1579
43153565,1000,1000,1000,1000,52328227,1578,1578,1578,1578
43156064,1000,1000,1000,1000,52428187,1579,1578,1579,1579
43158563,1000,1000,1000,1000,52528980,1578,1577,1578,1578
43161062,1000,1000,1000,1000,52628940,1579,1578,1579,1579
43163561,1000,1000,1000,1000,52728900,1578,1578,1579,1579
43166060,1000,1000,1000,1000,52828860,1579,1579,1580,1580
43168559,1000,1000,1000,1000,52928820,1580,1580,1580,1580
43171058,1000,1000,1000,1000,53028780,1580,1580,1580,1580
43173557,1000,1000,1000,1000,53128740,1580,1580,1580,1580
43176056,1000,1000,1000,1000,53228700,1579,1579,1579,1580
43178555,1000,1000,1000,1000,53328660,1580,1580,1580,1580
43181054,1000,1000,1000,1000,53428620,1580,1580,1580,1580
43183553,1000,1000,1000,1000,53528580,1580,1580,1579,1580
43186052,1000,1000,1000,1000,53628540,1580,1580,1580,1580
43188551,1000,1000,1000,1000,53728500,1580,1580,1580,1579
43191050,1000,1000,1000,1000,53828460,1579,1579,1579,1579
43193549,1000,1000,1000,1000,53928420,1580,1581,1580,1580
43196048,1000,1000,1000,1000,54028380,1580,1581,1580,1580
43198547,1000,1000,1000,1000,54128340,1581,1581,1580,1581
43201046,1000,1000,1000,1000,54228300,1580,1580,1580,1580
43203545,1000,1000,1000,1000,54328260,1580,1580,1580,1580
43206044,1000,1000,1000,1000,54428220,1580,1580,1580,1580
43208543,1000,1000,1000,1000,54528180,1581,1581,1581,1581
43211042,1000,1000,1000,1000,54628973,1581,1581,1581,1581
43213541,1000,1000,1000,1000,54728933,1581,1581,1581,1581
43216040,1000,1000,1000,1000,54828893,1581,1581,1581,1581
43218539,1000,1000,1000,1000,54928853,1582,1582,1581,1582
43221038,1000,1000,1000,1000,55028813,1582,1582,1582,1582
43223537,1000,1000,1000,1000,55128773,1582,1582,1582,1582
43226036,1000,1000,1000,1000,55228733,1581,1582,1582,1581
43228535,1000,1000,1000,1000,55328693,1581,1582,1588,1574
43231034,1000,1000,1000,1000,55428653,1579,1582,1585,1573
43233533,1000,1000,1000,1000,55528613,1579,1582,1577,1574
43236032,1000,1000,1000,1000,55628573,1577,1579,1567,1571
43238531,1000,1000,1000,1000,55728533,1576,1578,1560,1567
43241030,1000,1000,1000,1000,55828493,1577,1577,1556,1562
43243529,1000,1000,1000,1000,55928453,1578,1577,1554,1558
43246028,1000,1000,1000,1000,56028413,1579,1578,1555,1555
43248527,1000,1000,1000,1000,56128373,1578,1576,1554,1553
43251026,1000,1000,1000,1000,56228333,1577,1577,1556,1553
43253525,1000,1000,1000,1000,56328293,1576,1577,1556,1553
43256024,1000,1000,1000,1000,56428253,1575,1577,1555,1554
43258523,1000,1000,1000,1000,56528213,1574,1576,1554,1553
43261022,1000,1000,1000,1000,56628173,1574,1575,1552,1552
43263521,1000,1000,1000,1000,56728966,1575,1576,1551,1552
43266020,1000,1000,1000,1000,56828926,1577,1578,1551,1550
43268519,1000,1000,1000,1000,56928886,1579,1580,1548,1548
43271018,1000,1000,1000,1000,57028846,1581,1582,1546,1545
43273517,1000,1000,1000,1000,57128806,1584,1584,1543,1543
43276016,1000,1000,1000,1000,57228766,1586,1588,1540,1540
43278515,1000,1000,1000,1000,57328726,1590,1591,1538,1538
43281014,1000,1000,1000,1000,57428686,1593,1593,1535,1536
43283513,1000,1000,1000,1000,57528646,1595,1595,1535,1536
43286012,1000,1000,1000,1000,57628606,1594,1595,1535,1536
43288511,1000,1000,1000,1000,57728566,1594,1594,1536,1539
43291010,1000,1000,1000,1000,57828526,1593,1592,1539,1542
43293509,1000,1000,1000,1000,57928486,1589,1587,1544,1548
43296008,1000,1000,1000,1000,58028446,1582,1580,1552,1554
43298507,1000,1000,1000,1000,58128406,1575,1572,1563,1565
43301006,1000,1000,1000,1000,58228366,1565,1561,1575,1576
43303505,1000,1000,1000,1000,58328326,1555,1551,1588,1589
43306004,1000,1000,1000,1000,58428286,1543,1541,1598,1598
43308503,1000,1000,1000,1000,58528246,1536,1535,1608,1607
43311002,1000,1000,1000,1000,58628206,1531,1532,1614,1613
43313501,1000,1000,1000,1000,58728166,1529,1531,1615,1615
43316000,1000,1000,1000,1000,58828959,1531,1533,1613,1612
43318499,1000,1000,1000,1000,58928919,1537,1539,1609,1609
43320998,1000,1000,1000,1000,59028879,1546,1547,1603,1604
43323497,1000,1000,1000,1000,59128839,1553,1554,1596,1596
43325996,1000,1000,1000,1000,59228799,1562,1562,1588,1588
43328495,1000,1000,1000,1000,59328759,1570,1570,1582,1580
43330994,1000,1000,1000,1000,59428719,1578,1577,1576,1574
43333493,1000,1000,1000,1000,59528679,1583,1582,1571,1570
43335992,1000,1000,1000,1000,59628639,1586,1584,1567,1567
43338491,1000,1000,1000,1000,59728599,1587,1585,1566,1566
43340990,1000,1000,1000,1000,59828559,1587,1586,1566,1567
43343489,1000,1000,1000,1000,59928519,1585,1585,1568,1568
43345988,1000,1000,1000,1000,60028479,1584,1583,1571,1571
43348487,1000,1000,1000,1000,60128439,1580,1580,1573,1573
43350986,1000,1000,1000,1000,60228399,1577,1577,1576,1575
43353485,1000,1000,1000,1000,60328359,1574,1575,1579,1578
43355984,1000,1000,1000,1000,60428319,1573,1574,1581,1581
43358483,1000,1000,1000,1000,60528279,1571,1572,1582,1581
43360982,1000,1000,1000,1000,60628239,1572,1572,1583,1583
43363481,1000,1000,1000,1000,60728199,1572,1573,1584,1584
43365980,1000,1000,1000,1000,60828159,1573,1574,1583,1583
43368479,1000,1000,1000,1000,60928952,1264,1266,1623,1629
43370978,1000,1000,1000,1000,61028912,1363,1371,1659,1667
43373477,1000,1000,1000,1000,61128872,1437,1447,1651,1649
43375976,1000,1000,1000,1000,61228832,1501,1510,1638,1629
43378475,1000,1000,1000,1000,61328792,1552,1555,1630,1618
43380974,1000,1000,1000,1000,61428752,1588,1574,1608,1598
43383473,1000,1000,1000,1000,61528712,1588,1569,1532,1535
43385972,1000,1000,1000,1000,61628672,1588,1573,1468,1484
43388471,1000,1000,1000,1000,61728632,1588,1585,1472,1487
43390970,1000,1000,1000,1000,61828592,1581,1588,1489,1495
43393469,1000,1000,1000,1000,61928552,1577,1588,1509,1507
43395968,1000,1000,1000,1000,62028512,1579,1588,1529,1523
43398467,1000,1000,1000,1000,62128472,1584,1588,1545,1540
43400966,1000,1000,1000,1000,62228432,1588,1587,1555,1553
43403465,1000,1000,1000,1000,62328392,1588,1584,1558,1559
43405964,1000,1000,1000,1000,62428352,1588,1584,1561,1563
43408463,1000,1000,1000,1000,62528312,1588,1581,1566,1561
43410962,1000,1000,1000,1000,62628272,1588,1580,1570,1566
43413461,1000,1000,1000,1000,62728232,1588,1582,1572,1572
43415960,1000,1000,1000,1000,62828192,1588,1584,1575,1576
43418459,1000,1000,1000,1000,62928985,1588,1584,1574,1577
43420958,1000,1000,1000,1000,63028945,1588,1587,1575,1578
43423457,1000,1000,1000,1000,63128905,1585,1588,1575,1576
43425956,1000,1000,1000,1000,63228865,1582,1588,1571,1574
43428455,1000,1000,1000,1000,63328825,1580,1588,1572,1572
43430954,1000,1000,1000,1000,63428785,1582,1588,1574,1571
43433453,1000,1000,1000,1000,63528745,1584,1588,1576,1572
43435952,1000,1000,1000,1000,63628705,1586,1588,1577,1574
43438451,1000,1000,1000,1000,63728665,1588,1587,1577,1574
43440950,1000,1000,1000,1000,63828625,1588,1587,1575,1574
43443449,1000,1000,1000,1000,63928585,1588,1587,1575,1574
43445948,1000,1000,1000,1000,64028545,1588,1585,1571,1573
43448447,1000,1000,1000,1000,64128505,1588,1587,1571,1573
43450946,1000,1000,1000,1000,64228465,1587,1588,1572,1573
43453445,1000,1000,1000,1000,64328425,1586,1588,1572,1572
43455944,1000,1000,1000,1000,64428385,1587,1588,1573,1572
43458443,1000,1000,1000,1000,64528345,1587,1588,1573,1572
43460942,1000,1000,1000,1000,64628305,1588,1587,1573,1572
43463441,1000,1000,1000,1000,64728265,1587,1588,1572,1572
43465940,1000,1000,1000,1000,64828225,1588,1587,1572,1572
43468439,1000,1000,1000,1000,64928185,1588,1584,1573,1566
43470938,1000,1000,1000,1000,65028978,1588,1582,1571,1566
43473437,1000,1000,1000,1000,65128938,1588,1581,1568,1567
43475936,1000,1000,1000,1000,65228898,1588,1582,1567,1569
43478435,1000,1000,1000,1000,65328858,1588,1585,1568,1571
43480934,1000,1000,1000,1000,65428818,1587,1588,1570,1571
43483433,1000,1000,1000,1000,65528778,1586,1588,1569,1568
43485932,1000,1000,1000,1000,65628738,1585,1588,1570,1567
43488431,1000,1000,1000,1000,65728698,1586,1588,1571,1567
43490930,1000,1000,1000,1000,65828658,1587,1588,1571,1567
43493429,1000,1000,1000,1000,65928618,1588,1587,1569,1567
43495928,1000,1000,1000,1000,66028578,1588,1587,1568,1568
43498427,1000,1000,1000,1000,66128538,1588,1587,1568,1569
43500926,1000,1000,1000,1000,66228498,1587,1588,1567,1569
43503425,1000,1000,1000,1000,66328458,1586,1588,1566,1569
43505924,1000,1000,1000,1000,66428418,1585,1588,1566,1568
43508423,1000,1000,1000,1000,66528378,1584,1588,1566,1568
43510922,1000,1000,1000,1000,66628338,1584,1588,1566,1567
43513421,1000,1000,1000,1000,66728298,1584,1588,1566,1567
43515920,1000,1000,1000,1000,66828258,1585,1588,1566,1567
43518419,1000,1000,1000,1000,66928218,1586,1588,1566,1567
43520918,1000,1000,1000,1000,67028178,1587,1588,1565,1566
43523417,1000,1000,1000,1000,67128971,1587,1588,1565,1566
43525916,1000,1000,1000,1000,67228931,1587,1588,1564,1565
43528415,1000,1000,1000,1000,67328891,1588,1587,1563,1563
43530914,1000,1000,1000,1000,67428851,1583,1583,1556,1557
43533413,1000,1000,1000,1000,67528811,1579,1580,1550,1551
43535912,1000,1000,1000,1000,67628771,1576,1577,1547,1548
43538411,1000,1000,1000,1000,67728731,1575,1575,1546,1546
43540910,1000,1000,1000,1000,67828691,1575,1575,1546,1546
43543409,1000,1000,1000,1000,67928651,1575,1574,1546,1546
43545908,1000,1000,1000,1000,68028611,1575,1574,1547,1547
43548407,1000,1000,1000,1000,68128571,1576,1575,1549,1550
43550906,1000,1000,1000,1000,68228531,1576,1576,1550,1551
43553405,1000,1000,1000,1000,68328491,1577,1577,1554,1553
43555904,1000,1000,1000,1000,68428451,1578,1577,1555,1556
43558403,1000,1000,1000,1000,68528411,1579,1579,1558,1558
43560902,1000,1000,1000,1000,68628371,1580,1580,1560,1561
43563401,1000,1000,1000,1000,68728331,1582,1582,1562,1562
43565900,1000,1000,1000,1000,68828291,1582,1582,1563,1563
43568399,1000,1000,1000,1000,68928251,1584,1583,1565,1565
43570898,1000,1000,1000,1000,69028211,1586,1585,1568,1567
43573397,1000,1000,1000,1000,69128171,1587,1580,1573,1571
43575896,1000,1000,1000,1000,69228964,1572,1562,1595,1594
43578395,1000,1000,1000,1000,69328924,1554,1546,1611,1612
43580894,1000,1000,1000,1000,69428884,1541,1538,1617,1620
43583393,1000,1000,1000,1000,69528844,1532,1536,1618,1621
43585892,1000,1000,1000,1000,69628804,1529,1537,1617,1618
43588391,1000,1000,1000,1000,69728764,1530,1541,1615,1615
43590890,1000,1000,1000,1000,69828724,1535,1545,1612,1609
43593389,1000,1000,1000,1000,69928684,1543,1550,1607,1604
43595888,1000,1000,1000,1000,70028644,1552,1555,1601,1598
43598387,1000,1000,1000,1000,70128604,1560,1559,1593,1591
43600886,1000,1000,1000,1000,70228564,1568,1565,1586,1586
43603385,1000,1000,1000,1000,70328524,1573,1569,1578,1579
43605884,1000,1000,1000,1000,70428484,1578,1574,1575,1576
43608383,1000,1000,1000,1000,70528444,1581,1579,1572,1573
43610882,1000,1000,1000,1000,70628404,1584,1583,1571,1572
43613381,1000,1000,1000,1000,70728364,1585,1585,1569,1569
43615880,1000,1000,1000,1000,70828324,1587,1587,1570,1570
43618379,1000,1000,1000,1000,70928284,1587,1588,1570,1569
43620878,1000,1000,1000,1000,71028244,1588,1587,1570,1569
43623377,1000,1000,1000,1000,71128204,1588,1587,1570,1570
43625876,1000,1000,1000,1000,71228164,1588,1587,1571,1571
43628375,1000,1000,1000,1000,71328957,1588,1586,1572,1573
43630874,1000,1000,1000,1000,71428917,1588,1587,1574,1575
43633373,1000,1000,1000,1000,71528877,1586,1586,1575,1576
43635872,1000,1000,1000,1000,71628837,1584,1585,1575,1576
43638371,1000,1000,1000,1000,71728797,1583,1584,1575,1576
43640870,1000,1000,1000,1000,71828757,1582,1583,1577,1577
43643369,1000,1000,1000,1000,71928717,1582,1582,1578,1577
43645868,1000,1000,1000,1000,72028677,1582,1581,1579,1578
43648367,1000,1000,1000,1000,72128637,1581,1581,1580,1580
43650866,1000,1000,1000,1000,72228597,1581,1580,1580,1580
43653365,1000,1000,1000,1000,72328557,1580,1580,1580,1580
43655864,1000,1000,1000,1000,72428517,1579,1579,1581,1581
43658363,1000,1000,1000,1000,72528477,1579,1579,1581,1581
43660862,1000,1000,1000,1000,72628437,1578,1579,1581,1581
43663361,1000,1000,1000,1000,72728397,1578,1579,1581,1581
43665860,1000,1000,1000,1000,72828357,1578,1578,1580,1580
43668359,1000,1000,1000,1000,72928317,1578,1578,1580,1581
43670858,1000,1000,1000,1000,73028277,1578,1578,1580,1580
43673357,1000,1000,1000,1000,73128237,1579,1579,1581,1581
43675856,1000,1000,1000,1000,73228197,1580,1580,1587,1576
43678355,1000,1000,1000,1000,73328157,1580,1579,1586,1573
43680854,1000,1000,1000,1000,73428950,1579,1578,1579,1573
43683353,1000,1000,1000,1000,73528910,1578,1577,1570,1572
43685852,1000,1000,1000,1000,73628870,1576,1577,1563,1569
43688351,1000,1000,1000,1000,73728830,1575,1577,1559,1565
43690850,1000,1000,1000,1000,73828790,1574,1576,1557,1561
43693349,1000,1000,1000,1000,73928750,1574,1576,1557,1558
43695848,1000,1000,1000,1000,74028710,1574,1575,1557,1556
43698347,1000,1000,1000,1000,74128670,1575,1575,1557,1555
43700846,1000,1000,1000,1000,74228630,1575,1575,1556,1554
43703345,1000,1000,1000,1000,74328590,1575,1574,1555,1553
43705844,1000,1000,1000,1000,74428550,1575,1575,1554,1553
43708343,1000,1000,1000,1000,74528510,1575,1575,1552,1552
43710842,1000,1000,1000,1000,74628470,1574,1576,1550,1551
43713341,1000,1000,1000,1000,74728430,1575,1576,1549,1549
43715840,1000,1000,1000,1000,74828390,1576,1578,1549,1549
43718339,1000,1000,1000,1000,74928350,1577,1579,1548,1547
43720838,1000,1000,1000,1000,75028310,1579,1579,1545,1544
43723337,1000,1000,1000,1000,75128270,1581,1582,1544,1543
43725836,1000,1000,1000,1000,75228230,1582,1583,1541,1541
43728335,1000,1000,1000,1000,75328190,1585,1585,1541,1541
43730834,1000,1000,1000,1000,75428983,1587,1587,1539,1540
43733333,1000,1000,1000,1000,75528943,1588,1587,1537,1539
43735832,1000,1000,1000,1000,75628903,1587,1588,1538,1539
43738331,1000,1000,1000,1000,75728863,1588,1587,1540,1542
43740830,1000,1000,1000,1000,75828823,1588,1587,1545,1547
43743329,1000,1000,1000,1000,75928783,1587,1587,1550,1552
43745828,1000,1000,1000,1000,76028743,1583,1583,1553,1556
43748327,1000,1000,1000,1000,76128703,1579,1578,1557,1560
43750826,1000,1000,1000,1000,76228663,1575,1573,1564,1567
43753325,1000,1000,1000,1000,76328623,1569,1566,1571,1573
43755824,1000,1000,1000,1000,76428583,1562,1559,1579,1580
43758323,1000,1000,1000,1000,76528543,1556,1553,1588,1588
43760822,1000,1000,1000,1000,76628503,1547,1546,1595,1595
43763321,1000,1000,1000,1000,76728463,1540,1540,1603,1602
43765820,1000,1000,1000,1000,76828423,1535,1535,1607,1606
43768319,1000,1000,1000,1000,76928383,1532,1534,1609,1608
43770818,1000,1000,1000,1000,77028343,1533,1535,1608,1607
43773317,1000,1000,1000,1000,77128303,1536,1538,1604,1604
43775816,1000,1000,1000,1000,77228263,1541,1544,1599,1599
43778315,1000,1000,1000,1000,77328223,1549,1550,1593,1593
43780814,1000,1000,1000,1000,77428183,1557,1558,1587,1586
43783313,1000,1000,1000,1000,77528976,1565,1565,1581,1579
43785812,1000,1000,1000,1000,77628936,1573,1571,1576,1575
43788311,1000,1000,1000,1000,77728896,1579,1577,1571,1570
43790810,1000,1000,1000,1000,77828856,1584,1582,1568,1568
43793309,1000,1000,1000,1000,77928816,1587,1585,1567,1567
43795808,1000,1000,1000,1000,78028776,1588,1587,1567,1566
43798307,1000,1000,1000,1000,78128736,1588,1587,1568,1567
43800806,1000,1000,1000,1000,78228696,1588,1587,1570,1570
43803305,1000,1000,1000,1000,78328656,1586,1586,1571,1572
43805804,1000,1000,1000,1000,78428616,1585,1584,1572,1574
43808303,1000,1000,1000,1000,78528576,1583,1583,1574,1576
43810802,1000,1000,1000,1000,78628536,1581,1581,1576,1577
43813301,1000,1000,1000,1000,78728496,1579,1579,1578,1578
43815800,1000,1000,1000,1000,78828456,1577,1578,1580,1580
43818299,1000,1000,1000,1000,78928416,1576,1577,1581,1581
43820798,1000,1000,1000,1000,79028376,1575,1577,1583,1582
43823297,1000,1000,1000,1000,79128336,1575,1575,1584,1583
43825796,1000,1000,1000,1000,79228296,1574,1575,1583,1583
43828295,1000,1000,1000,1000,79328256,1575,1575,1583,1583
43830794,1000,1000,1000,1000,79428216,1575,1575,1583,1583
43833293,1000,1000,1000,1000,79528176,1576,1576,1582,1582
43835792,1000,1000,1000,1000,79628969,1577,1578,1582,1582
43838291,1000,1000,1000,1000,79728929,1578,1578,1580,1580
43840790,1000,1000,1000,1000,79828889,1579,1579,1579,1579
43843289,1000,1000,1000,1000,79928849,1580,1581,1579,1579
43845788,1000,1000,1000,1000,80028809,1581,1581,1579,1579
43848287,1000,1000,1000,1000,80128769,1582,1582,1578,1579
43850786,1000,1000,1000,1000,80228729,1583,1583,1579,1579
43853285,1000,1000,1000,1000,80328689,1583,1583,1579,1579
43855784,1000,1000,1000,1000,80428649,1582,1582,1579,1578
43858283,1000,1000,1000,1000,80528609,1582,1582,1579,1579
43860782,1000,1000,1000,1000,80628569,1582,1582,1579,1579
43863281,1000,1000,1000,1000,80728529,1581,1581,1579,1579
43865780,1000,1000,1000,1000,80828489,1582,1582,1581,1581
43868279,1000,1000,1000,1000,80928449,1581,1581,1580,1580
43870778,1000,1000,1000,1000,81028409,1580,1581,1581,1581
43873277,1000,1000,1000,1000,81128369,1581,1581,1582,1582
43875776,1000,1000,1000,1000,81228329,1581,1581,1582,1582
43878275,1000,1000,1000,1000,81328289,1581,1581,1582,1583
43880774,1000,1000,1000,1000,81428249,1581,1581,1583,1583
43883273,1000,1000,1000,1000,81528209,1581,1581,1587,1577
43885772,1000,1000,1000,1000,81628169,1581,1580,1588,1574
43888271,1000,1000,1000,1000,81728962,1580,1578,1581,1575
43890770,1000,1000,1000,1000,81828922,1577,1575,1573,1575
43893269,1000,1000,1000,1000,81928882,1573,1572,1566,1573
43895768,1000,1000,1000,1000,82028842,1571,1571,1564,1571
43898267,1000,1000,1000,1000,82128802,1569,1569,1564,1569
43900766,1000,1000,1000,1000,82228762,1567,1568,1565,1566
43903265,1000,1000,1000,1000,82328722,1565,1566,1565,1564
43905764,1000,1000,1000,1000,82428682,1566,1566,1567,1565
43908263,1000,1000,1000,1000,82528642,1565,1565,1567,1564
43910762,1000,1000,1000,1000,82628602,1565,1564,1567,1565
43913261,1000,1000,1000,1000,82728562,1564,1563,1565,1564
43915760,1000,1000,1000,1000,82828522,1563,1563,1565,1564
43918259,1000,1000,1000,1000,82928482,1562,1562,1563,1564
43920758,1000,1000,1000,1000,83028442,1562,1562,1563,1563
43923257,1000,1000,1000,1000,83128402,1561,1561,1562,1563
43925756,1000,1000,1000,1000,83228362,1560,1561,1562,1562
43928255,1000,1000,1000,1000,83328322,1561,1561,1562,1561
43930754,1000,1000,1000,1000,83428282,1560,1560,1561,1560
43933253,1000,1000,1000,1000,83528242,1560,1560,1560,1559
43935752,1000,1000,1000,1000,83628202,1560,1560,1560,1559
43938251,1000,1000,1000,1000,83728162,1560,1560,1560,1559
43940750,1000,1000,1000,1000,83828955,1559,1559,1560,1558
43943249,1000,1000,1000,1000,83928915,1559,1559,1559,1558
43945748,1000,1000,1000,1000,84028875,1560,1559,1560,1559
43948247,1000,1000,1000,1000,84128835,1560,1559,1560,1558
43950746,1000,1000,1000,1000,84228795,1559,1559,1560,1558
43953245,1000,1000,1000,1000,84328755,1560,1559,1561,1558
43955744,1000,1000,1000,1000,84428715,1561,1560,1561,1561
43958243,1000,1000,1000,1000,84528675,1560,1560,1559,1563
43960742,1000,1000,1000,1000,84628635,1561,1561,1558,1565
43963241,1000,1000,1000,1000,84728595,1561,1562,1559,1566
43965740,1000,1000,1000,1000,84828555,1560,1562,1559,1563
43968239,1000,1000,1000,1000,84928515,1561,1562,1561,1562
43970738,1000,1000,1000,1000,85028475,1560,1561,1562,1558
43973237,1000,1000,1000,1000,85128435,1561,1561,1562,1558
43975736,1000,1000,1000,1000,85228395,1561,1560,1561,1559
43978235,1000,1000,1000,1000,85328355,1560,1559,1556,1562
43980734,1000,1000,1000,1000,85428315,1556,1556,1551,1557
43983233,1000,1000,1000,1000,85528275,1552,1552,1548,1551
43985732,1000,1000,1000,1000,85628235,1547,1547,1543,1543
43988231,1000,1000,1000,1000,85728195,1541,1541,1537,1536
43990730,1000,1000,1000,1000,85828155,1535,1535,1531,1528
43993229,1000,1000,1000,1000,85928948,1528,1528,1522,1521
43995728,1000,1000,1000,1000,86028908,1522,1523,1518,1517
43998227,1000,1000,1000,1000,86128868,1520,1520,1518,1518
44000726,1000,1000,1000,1000,86228828,1519,1519,1520,1521
44003225,1000,1000,1000,1000,86328788,1519,1519,1523,1524
44005724,1000,1000,1000,1000,86428748,1521,1520,1527,1527
44008223,1000,1000,1000,1000,86528708,1523,1523,1532,1532
44010722,1000,1000,1000,1000,86628668,1527,1527,1537,1538
44013221,1000,1000,1000,1000,86728628,1531,1531,1542,1541
44015720,1000,1000,1000,1000,86828588,1535,1535,1544,1543
44018219,1000,1000,1000,1000,86928548,1537,1537,1544,1543
44020718,1000,1000,1000,1000,87028508,1541,1541,1545,1545
44023217,1000,1000,1000,1000,87128468,1544,1544,1546,1545
44025716,1000,1000,1000,1000,87228428,1545,1546,1545,1545
44028215,1000,1000,1000,1000,87328388,1548,1548,1545,1545
44030714,1000,1000,1000,1000,87428348,1549,1549,1545,1545
44033213,1000,1000,1000,1000,87528308,1550,1549,1544,1544
44035712,1000,1000,1000,1000,87628268,1550,1550,1544,1544
44038211,1000,1000,1000,1000,87728228,1550,1550,1543,1544
44040710,1000,1000,1000,1000,87828188,1549,1549,1544,1544
44043209,1000,1000,1000,1000,87928981,1549,1548,1544,1544
44045708,1000,1000,1000,1000,88028941,1547,1547,1543,1544
44048207,1000,1000,1000,1000,88128901,1546,1546,1544,1544
44050706,1000,1000,1000,1000,88228861,1545,1546,1545,1544
44053205,1000,1000,1000,1000,88328821,1545,1545,1545,1545
44055704,1000,1000,1000,1000,88428781,1544,1544,1545,1545
44058203,1000,1000,1000,1000,88528741,1544,1543,1546,1546
44060702,1000,1000,1000,1000,88628701,1543,1544,1546,1546
44063201,1000,1000,1000,1000,88728661,1543,1543,1545,1546
44065700,1000,1000,1000,1000,88828621,1542,1543,1545,1545
44068199,1000,1000,1000,1000,88928581,1543,1543,1545,1546
44070698,1000,1000,1000,1000,89028541,1543,1542,1545,1544
44073197,1000,1000,1000,1000,89128501,1543,1543,1544,1544
44075696,1000,1000,1000,1000,89228461,1543,1543,1544,1543
44078195,1000,1000,1000,1000,89328421,1543,1543,1543,1544
44080694,1000,1000,1000,1000,89428381,1543,1544,1543,1543
44083193,1000,1000,1000,1000,89528341,1544,1543,1543,1543
44085692,1000,1000,1000,1000,89628301,1543,1543,1543,1542
44088191,1000,1000,1000,1000,89728261,1543,1543,1542,1542
44090690,1000,1000,1000,1000,89828221,1543,1543,1542,1542
44093189,1000,1000,1000,1000,89928181,1544,1544,1543,1543
44095688,1000,1000,1000,1000,90028974,1544,1544,1544,1543
44098187,1000,1000,1000,1000,90128934,1544,1544,1543,1544
44100686,1000,1000,1000,1000,90228894,1544,1544,1544,1544
44103185,1000,1000,1000,1000,90328854,1544,1544,1545,1544
44105684,1000,1000,1000,1000,90428814,1545,1545,1545,1545
44108183,1000,1000,1000,1000,90528774,1544,1544,1544,1545
44110682,1000,1000,1000,1000,90628734,1544,1545,1545,1545
44113181,1000,1000,1000,1000,90728694,1544,1544,1545,1544
44115680,1000,1000,1000,1000,90828654,1544,1544,1544,1544
44118179,1000,1000,1000,1000,90928614,1544,1543,1543,1544
44120678,1000,1000,1000,1000,91028574,1544,1544,1544,1543
44123177,1000,1000,1000,1000,91128534,1544,1544,1544,1545
44125676,1000,1000,1000,1000,91228494,1544,1544,1544,1544
44128175,1000,1000,1000,1000,91328454,1545,1545,1545,1545
44130674,1000,1000,1000,1000,91428414,1544,1544,1544,1544
44133173,1000,1000,1000,1000,91528374,1544,1544,1544,1544
44135672,1000,1000,1000,1000,91628334,1544,1545,1545,1544
44138171,1000,1000,1000,1000,91728294,1545,1545,1545,1545
44140670,1000,1000,1000,1000,91828254,1544,1545,1545,1545
44143169,1000,1000,1000,1000,91928214,1544,1544,1544,1545
44145668,1000,1000,1000,1000,92028174,1545,1545,1544,1545
44148167,1000,1000,1000,1000,92128967,1545,1544,1544,1544
44150666,1000,1000,1000,1000,92228927,1544,1544,1543,1543
44153165,1000,1000,1000,1000,92328887,1543,1543,1542,1542
44155664,1000,1000,1000,1000,92428847,1543,1544,1543,1543
44158163,1000,1000,1000,1000,92528807,1543,1543,1543,1543
44160662,1000,1000,1000,1000,92628767,1544,1544,1545,1544
44163161,1000,1000,1000,1000,92728727,1544,1544,1545,1544
44165660,1000,1000,1000,1000,92828687,1545,1544,1545,1545
44168159,1000,1000,1000,1000,92928647,1545,1544,1545,1545
44170658,1000,1000,1000,1000,93028607,1544,1545,1545,1545
44173157,1000,1000,1000,1000,93128567,1545,1545,1545,1545
44175656,1000,1000,1000,1000,93228527,1544,1545,1544,1545
44178155,1000,1000,1000,1000,93328487,1545,1545,1545,1545
44180654,1000,1000,1000,1000,93428447,1545,1544,1544,1544
44183986,1000,1000,1000,1000,93528407,1545,1545,1545,1545
44186485,1000,1000,1000,1000,93628367,1544,1544,1544,1544
44188984,1000,1000,1000,1000,93728327,1544,1545,1544,1544
44191483,1000,1000,1000,1000,93828287,1544,1545,1544,1544
44193982,1000,1000,1000,1000,93928247,1545,1544,1544,1544
44196481,1000,1000,1000,1000,94028207,1544,1544,1544,1544
44198980,1000,1000,1000,1000,94128167,1545,1544,1544,1544
44201479,1000,1000,1000,1000,94228960,1544,1544,1543,1544
44203978,1000,1000,1000,1000,94328920,1544,1545,1544,1544
44206477,1000,1000,1000,1000,94428880,1544,1545,1545,1545
44208976,1000,1000,1000,1000,94528840,1545,1545,1545,1546
44211475,1000,1000,1000,1000,94628800,1545,1545,1545,1545
44213974,1000,1000,1000,1000,94728760,1545,1545,1545,1546
44216473,1000,1000,1000,1000,94828720,1545,1545,1545,1545
44218972,1000,1000,1000,1000,94928680,1544,1544,1544,1544
44221471,1000,1000,1000,1000,95028640,1544,1544,1545,1544
44223970,1000,1000,1000,1000,95128600,1544,1544,1544,1544
44226469,1000,1000,1000,1000,95228560,1544,1544,1544,1544
44228968,1000,1000,1000,1000,95328520,1544,1544,1544,1544
44231467,1000,1000,1000,1000,95428480,1544,1544,1544,1544
44233966,1000,1000,1000,1000,95528440,1545,1545,1544,1545
44236465,1000,1000,1000,1000,95628400,1544,1544,1544,1544
44238964,1000,1000,1000,1000,95728360,1441,1440,1383,1384
44241463,1000,1000,1000,1000,95828320,1372,1371,1260,1262
44243962,1000,1000,1000,1000,95928280,1351,1350,1218,1221
44246461,1000,1000,1000,1000,96028240,1342,1341,1200,1201
44248960,1000,1000,1000,1000,96128200,1322,1321,1158,1159
44251459,1000,1000,1000,1000,96228160,1272,1271,1150,1150
44253958,1000,1000,1000,1000,96328953,1184,1182,1150,1151
44256457,1000,1000,1000,1000,96428913,1088,1086,1150,1150
44258956,1000,1000,1000,1000,96528873,978,976,1150,1151
44261455,1000,1000,1000,1000,96628833,971,969,1150,1150
44263954,1000,1000,1000,1000,96728793,971,969,1150,1150
44266453,1000,1000,1000,1000,96828753,971,966,1150,1154
44268952,1000,1000,1000,1000,96928713,970,957,1150,1168
44271451,1000,1000,1000,1000,97028673,970,962,1150,1161
44273950,1000,1000,1000,1000,97128633,970,963,1150,1159
44276449,1000,1000,1000,1000,97228593,970,963,1150,1159
44278948,1000,1000,1000,1000,97328553,970,963,1150,1159
44281447,1000,1000,1000,1000,97428513,970,963,1150,1159
44283946,1000,1000,1000,1000,97528473,970,963,1150,1160
44286445,1000,1000,1000,1000,97628433,964,971,1157,1150
44288944,1000,1000,1000,1000,97728393,970,969,1150,1151
44291443,1000,1000,1000,1000,97828353,970,968,1150,1152
44293942,1000,1000,1000,1000,97928313,970,968,1150,1152
44296441,1000,1000,1000,1000,98028273,970,968,1150,1152
44298940,1000,1000,1000,1000,98128233,785,785,1147,1147
44301439,1000,1000,1000,1000,98228193,1000,1000,1000,1000
44303938,1000,1000,1000,1000,98328986,1000,1000,1000,1000
44306437,1000,1000,1000,1000,98428946,1000,1000,1000,1000
44308936,1000,1000,1000,1000,98528906,1000,1000,1000,1000
44311435,1000,1000,1000,1000,98628866,1000,1000,1000,1000
44313934,1000,1000,1000,1000,98728826,1000,1000,1000,1000
44316433,1000,1000,1000,1000,98828786,1000,1000,1000,1000
44318932,1000,1000,1000,1000,98928746,1000,1000,1000,1000
44321431,1000,1000,1000,1000,99028706,1000,1000,1000,1000
44323930,1000,1000,1000,1000,99128666,1000,1000,1000,1000
44326429,1000,1000,1000,1000,99228626,1000,1000,1000,1000
44328928,1000,1000,1000,1000,99328586,1000,1000,1000,1000
44331427,1000,1000,1000,1000,99428546,1000,1000,1000,1000
44333926,1000,1000,1000,1000,99528506,1000,1000,1000,1000
44336425,1000,1000,1000,1000,99628466,1000,1000,1000,1000
44338924,1000,1000,1000,1000,99728426,1000,1000,1000,1000
44341423,1000,1000,1000,1000,99828386,1000,1000,1000,1000
44343922,1000,1000,1000,1000,99928346,1000,1000,1000,1000
44346421,1000,1000,1000,1000,100028306,1000,1000,1000,1000
44348920,1000,1000,1000,1000,100128266,1000,1000,1000,1000
44351419,1000,1000,1000,1000,100228226,1000,1000,1000,1000
44353918,1000,1000,1000,1000,100328186,1000,1000,1000,1000
44356417,1000,1000,1000,1000,100428979,1000,1000,1000,1000
44358916,1000,1000,1000,1000,100528939,1000,1000,1000,1000
44361415,1000,1000,1000,1000,100628899,1000,1000,1000,1000
44363914,1000,1000,1000,1000,100728859,1000,1000,1000,1000
44366413,1000,1000,1000,1000,100828819,1000,1000,1000,1000
44368912,1000,1000,1000,1000,100928779,1000,1000,1000,1000
44371411,1000,1000,1000,1000,101028739,1000,1000,1000,1000
44373910,1000,1000,1000,1000,101128699,1000,1000,1000,1000
44376409,1000,1000,1000,1000,101228659,1000,1000,1000,1000
44378908,1000,1000,1000,1000,101328619,1000,1000,1000,1000
44381407,1000,1000,1000,1000,101428579,1000,1000,1000,1000
44383906,1000,1000,1000,1000,101528539,1000,1000,1000,1000
44386405,1000,1000,1000,1000,101628499,1000,1000,1000,1000
44388904,1000,1000,1000,1000,101728459,1000,1000,1000,1000
44391403,1000,1000,1000,1000,101828419,1000,1000,1000,1000
44393902,1000,1000,1000,1000,101928379,1000,1000,1000,1000
44396401,1000,1000,1000,1000,102028339,1000,1000,1000,1000
44398900,1000,1000,1000,1000,102128299,1000,1000,1000,1000
44401399,1000,1000,1000,1000,102228259,1000,1000,1000,1000
44403898,1000,1000,1000,1000,102328219,1000,1000,1000,1000
44406397,1000,1000,1000,1000,102428179,1000,1000,1000,1000
44408896,1000,1000,1000,1000,102528972,1000,1000,1000,1000
44411395,1000,1000,1000,1000,102628932,1000,1000,1000,1000
44413894,1000,1000,1000,1000,102728892,1000,1000,1000,1000
44416393,1000,1000,1000,1000,102828852,1000,1000,1000,1000
44418892,1000,1000,1000,1000,102928812,1000,1000,1000,1000
44421391,1000,1000,1000,1000,103028772,1000,1000,1000,1000
44423890,1000,1000,1000,1000,103128732,1000,1000,1000,1000
44426389,1000,1000,1000,1000,103228692,1000,1000,1000,1000
44428888,1000,1000,1000,1000,103328652,1000,1000,1000,1000
44431387,1000,1000,1000,1000,103428612,1000,1000,1000,1000
44433886,1000,1000,1000,1000,103528572,1000,1000,1000,1000
44436385,1000,1000,1000,1000,103628532,1000,1000,1000,1000
44438884,1000,1000,1000,1000,103728492,1000,1000,1000,1000
44441383,1000,1000,1000,1000,103828452,1000,1000,1000,1000
44443882,1000,1000,1000,1000,103928412,1000,1000,1000,1000
44446381,1000,1000,1000,1000,104028372,1000,1000,1000,1000
44448880,1000,1000,1000,1000,104128332,1000,1000,1000,1000
44451379,1000,1000,1000,1000,104228292,1000,1000,1000,1000
44453878,1000,1000,1000,1000,104328252,1000,1000,1000,1000
44456377,1000,1000,1000,1000,104428212,1000,1000,1000,1000
44458876,1000,1000,1000,1000,104528172,1000,1000,1000,1000
44461375,1000,1000,1000,1000,104628965,1000,1000,1000,1000
44463874,1000,1000,1000,1000,104728925,1000,1000,1000,1000
44466373,1000,1000,1000,1000,104828885,1000,1000,1000,1000
44468872,1000,1000,1000,1000,104928845,1000,1000,1000,1000
44471371,1000,1000,1000,1000,105028805,1000,1000,1000,1000
44473870,1000,1000,1000,1000,105128765,1000,1000,1000,1000
44476369,1000,1000,1000,1000,105228725,1000,1000,1000,1000
44478868,1000,1000,1000,1000,105328685,1000,1000,1000,1000
44481367,1000,1000,1000,1000,105428645,1000,1000,1000,1000
44483866,1000,1000,1000,1000,105528605,1000,1000,1000,1000
44486365,1000,1000,1000,1000,105628565,1000,1000,1000,1000
44488864,1000,1000,1000,1000,105728525,1000,1000,1000,1000
44491363,1000,1000,1000,1000,105828485,1000,1000,1000,1000
44493862,1000,1000,1000,1000,105928445,1000,1000,1000,1000
44496361,1000,1000,1000,1000,106028405,1000,1000,1000,1000
44498860,1000,1000,1000,1000,106128365,1000,1000,1000,1000
44501359,1000,1000,1000,1000,106228325,1000,1000,1000,1000
44503858,1000,1000,1000,1000,106328285,1000,1000,1000,1000
44506357,1000,1000,1000,1000,106428245,1000,1000,1000,1000
44508856,1000,1000,1000,1000,106528205,1000,1000,1000,1000
44511355,1000,1000,1000,1000,106628165,1000,1000,1000,1000
44513854,1000,1000,1000,1000,106728958,1000,1000,1000,1000
44516353,1000,1000,1000,1000,106828918,1000,1000,1000,1000
44518852,1000,1000,1000,1000,106928878,1000,1000,1000,1000
44521351,1000,1000,1000,1000,107028838,1000,1000,1000,1000
44523850,1000,1000,1000,1000,107128798,1000,1000,1000,1000
44526349,1000,1000,1000,1000,107228758,1000,1000,1000,1000
44528848,1000,1000,1000,1000,107328718,1000,1000,1000,1000
44531347,1000,1000,1000,1000,107428678,1000,1000,1000,1000
44533846,1000,1000,1000,1000,107528638,1000,1000,1000,1000
44536345,1000,1000,1000,1000,107628598,1000,1000,1000,1000
44538844,1000,1000,1000,1000,107728558,1000,1000,1000,1000
44541343,1000,1000,1000,1000,,,,,
44543842,1000,1000,1000,1000,,,,,
44546341,1000,1000,1000,1000,,,,,
44548840,1000,1000,1000,1000,,,,,
44551339,1000,1000,1000,1000,,,,,
44553838,1000,1000,1000,1000,,,,,
44556337,1000,1000,1000,1000,,,,,
44558836,1000,1000,1000,1000,,,,,
44561335,1000,1000,1000,1000,,,,,
44563834,1000,1000,1000,1000,,,,,
44566333,1000,1000,1000,1000,,,,,
44568832,1000,1000,1000,1000,,,,,
44571331,1000,1000,1000,1000,,,,,
44573830,1000,1000,1000,1000,,,,,
44576329,1000,1000,1000,1000,,,,,
44578828,1000,1000,1000,1000,,,,,
44581327,1000,1000,1000,1000,,,,,
44583826,1000,1000,1000,1000,,,,,
44586325,1000,1000,1000,1000,,,,,
44588824,1000,1000,1000,1000,,,,,
44591323,1000,1000,1000,1000,,,,,
44593822,1000,1000,1000,1000,,,,,
44596321,1000,1000,1000,1000,,,,,
44598820,1000,1000,1000,1000,,,,,
44601319,1000,1000,1000,1000,,,,,
44603818,1000,1000,1000,1000,,,,,
44606317,1000,1000,1000,1000,,,,,
44608816,1000,1000,1000,1000,,,,,
44611315,1000,1000,1000,1000,,,,,
44613814,1000,1000,1000,1000,,,,,
44616313,1000,1000,1000,1000,,,,,
44618812,1000,1000,1000,1000,,,,,
44621311,1000,1000,1000,1000,,,,,
44623810,1000,1000,1000,1000,,,,,
44626309,1000,1000,1000,1000,,,,,
44628808,1000,1000,1000,1000,,,,,
44631307,1000,1000,1000,1000,,,,,
44633806,1000,1000,1000,1000,,,,,
44636305,1000,1000,1000,1000,,,,,
44638804,1000,1000,1000,1000,,,,,
44641303,1000,1000,1000,1000,,,,,
44643802,1000,1000,1000,1000,,,,,
44646301,1000,1000,1000,1000,,,,,
44648800,1000,1000,1000,1000,,,,,
44651299,1000,1000,1000,1000,,,,,
44653798,1000,1000,1000,1000,,,,,
44656297,1000,1000,1000,1000,,,,,
44658796,1000,1000,1000,1000,,,,,
44661295,1000,1000,1000,1000,,,,,
44663794,1000,1000,1000,1000,,,,,
44666293,1000,1000,1000,1000,,,,,
44668792,1000,1000,1000,1000,,,,,
44671291,1000,1000,1000,1000,,,,,
44673790,1000,1000,1000,1000,,,,,
44676289,1000,1000,1000,1000,,,,,
44678788,1000,1000,1000,1000,,,,,
44681287,1000,1000,1000,1000,,,,,
44683786,1000,1000,1000,1000,,,,,
44686285,1000,1000,1000,1000,,,,,
44688784,1000,1000,1000,1000,,,,,
44691283,1000,1000,1000,1000,,,,,
44693782,1000,1000,1000,1000,,,,,
44696281,1000,1000,1000,1000,,,,,
44698780,1000,1000,1000,1000,,,,,
44701279,1000,1000,1000,1000,,,,,
44703778,1000,1000,1000,1000,,,,,
44706277,1000,1000,1000,1000,,,,,
44708776,1000,1000,1000,1000,,,,,
44711275,1000,1000,1000,1000,,,,,
44713774,1000,1000,1000,1000,,,,,
44716273,1000,1000,1000,1000,,,,,
44718772,1000,1000,1000,1000,,,,,
44721271,1000,1000,1000,1000,,,,,
44723770,1000,1000,1000,1000,,,,,
44726269,1000,1000,1000,1000,,,,,
44728768,1000,1000,1000,1000,,,,,
44731267,1000,1000,1000,1000,,,,,
44733766,1000,1000,1000,1000,,,,,
44736265,1000,1000,1000,1000,,,,,
44738764,1000,1000,1000,1000,,,,,
44741263,1000,1000,1000,1000,,,,,
44743762,1000,1000,1000,1000,,,,,
44746261,1000,1000,1000,1000,,,,,
44748760,1000,1000,1000,1000,,,,,
44751259,1000,1000,1000,1000,,,,,
44753758,1000,1000,1000,1000,,,,,
44756257,1000,1000,1000,1000,,,,,
44758756,1000,1000,1000,1000,,,,,
44761255,1000,1000,1000,1000,,,,,
44763754,1000,1000,1000,1000,,,,,
44766253,1000,1000,1000,1000,,,,,
44768752,1000,1000,1000,1000,,,,,
44771251,1000,1000,1000,1000,,,,,
44773750,1000,1000,1000,1000,,,,,
44776249,1000,1000,1000,1000,,,,,
44778748,1000,1000,1000,1000,,,,,
44781247,1000,1000,1000,1000,,,,,
44783746,1000,1000,1000,1000,,,,,
44786245,1000,1000,1000,1000,,,,,
44788744,1000,1000,1000,1000,,,,,
44791243,1000,1000,1000,1000,,,,,
44793742,1000,1000,1000,1000,,,,,
44796241,1000,1000,1000,1000,,,,,
44798740,1000,1000,1000,1000,,,,,
44801239,1000,1000,1000,1000,,,,,
44803738,1000,1000,1000,1000,,,,,
44806237,1000,1000,1000,1000,,,,,
44808736,1000,1000,1000,1000,,,,,
44811235,1000,1000,1000,1000,,,,,
44813734,1000,1000,1000,1000,,,,,
44816233,1000,1000,1000,1000,,,,,
44818732,1000,1000,1000,1000,,,,,
44821231,1000,1000,1000,1000,,,,,
44823730,1000,1000,1000,1000,,,,,
44826229,1000,1000,1000,1000,,,,,
44828728,1000,1000,1000,1000,,,,,
44831227,1000,1000,1000,1000,,,,,
44833726,1000,1000,1000,1000,,,,,
44836225,1000,1000,1000,1000,,,,,
44838724,1000,1000,1000,1000,,,,,
44841223,1000,1000,1000,1000,,,,,
44843722,1000,1000,1000,1000,,,,,
44846221,1000,1000,1000,1000,,,,,
44848720,1000,1000,1000,1000,,,,,
44851219,1000,1000,1000,1000,,,,,
44853718,1000,1000,1000,1000,,,,,
44856217,1000,1000,1000,1000,,,,,
44858716,1000,1000,1000,1000,,,,,
44861215,1000,1000,1000,1000,,,,,
44863714,1000,1000,1000,1000,,,,,
44866213,1000,1000,1000,1000,,,,,
44868712,1000,1000,1000,1000,,,,,
44871211,1000,1000,1000,1000,,,,,
44873710,1000,1000,1000,1000,,,,,
44876209,1000,1000,1000,1000,,,,,
44878708,1000,1000,1000,1000,,,,,
44881207,1000,1000,1000,1000,,,,,
44883706,1000,1000,1000,1000,,,,,
44886205,1000,1000,1000,1000,,,,,
44888704,1000,1000,1000,1000,,,,,
44891203,1000,1000,1000,1000,,,,,
44893702,1000,1000,1000,1000,,,,,
44896201,1000,1000,1000,1000,,,,,
44898700,1000,1000,1000,1000,,,,,
44901199,1000,1000,1000,1000,,,,,
44903698,1000,1000,1000,1000,,,,,
44906197,1000,1000,1000,1000,,,,,
44908696,1000,1000,1000,1000,,,,,
44911195,1000,1000,1000,1000,,,,,
44913694,1000,1000,1000,1000,,,,,
44916193,1000,1000,1000,1000,,,,,
44918692,1000,1000,1000,1000,,,,,
44921191,1000,1000,1000,1000,,,,,
44923690,1000,1000,1000,1000,,,,,
44926189,1001,1001,1001,1001,,,,,
44928688,1002,1002,1002,1002,,,,,
44931187,1003,1003,1003,1003,,,,,
44933686,1003,1003,1003,1003,,,,,
44936185,1004,1004,1004,1004,,,,,
44938684,1005,1005,1005,1005,,,,,
44941183,1006,1006,1006,1006,,,,,
44943682,1006,1006,1006,1006,,,,,
44946181,1007,1007,1007,1007,,,,,
44948680,1008,1008,1008,1008,,,,,
44951179,1009,1009,1009,1009,,,,,
44953678,1009,1009,1009,1009,,,,,
44956177,1010,1010,1010,1010,,,,,
44958676,1011,1011,1011,1011,,,,,
44961175,1012,1012,1012,1012,,,,,
44963674,1012,1012,1012,1012,,,,,
44966173,1013,1013,1013,1013,,,,,
44968672,1014,1014,1014,1014,,,,,
44971171,1015,1015,1015,1015,,,,,
44973670,1015,1015,1015,1015,,,,,
44976169,1016,1016,1016,1016,,,,,
44978668,1017,1017,1017,1017,,,,,
44981167,1018,1018,1018,1018,,,,,
44983666,1018,1018,1018,1018,,,,,
44986165,1019,1019,1019,1019,,,,,
44988664,1020,1020,1020,1020,,,,,
44991163,1021,1021,1021,1021,,,,,
44993662,1021,1021,1021,1021,,,,,
44996161,1022,1022,1022,1022,,,,,
44998660,1023,1023,1023,1023,,,,,
45001159,1024,1024,1024,1024,,,,,
45003658,1024,1024,1024,1024,,,,,
45006157,1025,1025,1025,1025,,,,,
45008656,1026,1026,1026,1026,,,,,
45011155,1027,1027,1027,1027,,,,,
45013654,1027,1027,1027,1027,,,,,
45016153,1028,1028,1028,1028,,,,,
45018652,1029,1029,1029,1029,,,,,
45021151,1030,1030,1030,1030,,,,,
45023650,1030,1030,1030,1030,,,,,
45026149,1031,1031,1031,1031,,,,,
45028648,1032,1032,1032,1032,,,,,
45031147,1033,1033,1033,1033,,,,,
45033646,1033,1033,1033,1033,,,,,
45036145,1034,1034,1034,1034,,,,,
45038644,1035,1035,1035,1035,,,,,
45041143,1036,1036,1036,1036,,,,,
45043642,1036,1036,1036,1036,,,,,
45046141,1037,1037,1037,1037,,,,,
45048640,1038,1038,1038,1038,,,,,
45051139,1039,1039,1039,1039,,,,,
45053638,1039,1039,1039,1039,,,,,
45056137,1040,1040,1040,1040,,,,,
45058636,1041,1041,1041,1041,,,,,
45061135,1042,1042,1042,1042,,,,,
45063634,1042,1042,1042,1042,,,,,
45066133,1043,1043,1043,1043,,,,,
45068632,1044,1044,1044,1044,,,,,
45071131,1045,1045,1045,1045,,,,,
45073630,1045,1045,1045,1045,,,,,
45076129,1046,1046,1046,1046,,,,,
45078628,1047,1047,1047,1047,,,,,
45081127,1048,1048,1048,1048,,,,,
45083626,1048,1048,1048,1048,,,,,
45086125,1049,1049,1049,1049,,,,,
45088624,1050,1050,1050,1050,,,,,
45091123,1051,1051,1051,1051,,,,,
45093622,1051,1051,1051,1051,,,,,
45096121,1052,1052,1052,1052,,,,,
45098620,1053,1053,1053,1053,,,,,
45101119,1054,1054,1054,1054,,,,,
45103618,1054,1054,1054,1054,,,,,
45106117,1055,1055,1055,1055,,,,,
45108616,1056,1056,1056,1056,,,,,
45111115,1057,1057,1057,1057,,,,,
45113614,1057,1057,1057,1057,,,,,
45116113,1058,1058,1058,1058,,,,,
45118612,1059,1059,1059,1059,,,,,
45121111,1060,1060,1060,1060,,,,,
45123610,1060,1060,1060,1060,,,,,
45126109,1061,1061,1061,1061,,,,,
45128608,1062,1062,1062,1062,,,,,
45131107,1063,1063,1063,1063,,,,,
45133606,1063,1063,1063,1063,,,,,
45136105,1064,1064,1064,1064,,,,,
45138604,1065,1065,1065,1065,,,,,
45141103,1066,1066,1066,1066,,,,,
45143602,1066,1066,1066,1066,,,,,
45146101,1067,1067,1067,1067,,,,,
45148600,1068,1068,1068,1068,,,,,
45151099,1069,1069,1069,1069,,,,,
45153598,1069,1069,1069,1069,,,,,
45156097,1070,1070,1070,1070,,,,,
45158596,1071,1071,1071,1071,,,,,
45161095,1072,1072,1072,1072,,,,,
45163594,1072,1072,1072,1072,,,,,
45166093,1073,1073,1073,1073,,,,,
45168592,1074,1074,1074,1074,,,,,
45171091,1075,1075,1075,1075,,,,,
45173590,1075,1075,1075,1075,,,,,
45176089,1076,1076,1076,1076,,,,,
45178588,1077,1077,1077,1077,,,,,
45181087,1078,1078,1078,1078,,,,,
45183586,1078,1078,1078,1078,,,,,
45186085,1079,1079,1079,1079,,,,,
45188584,1080,1080,1080,1080,,,,,
45191083,1081,1081,1081,1081,,,,,
45193582,1081,1081,1081,1081,,,,,
45196081,1082,1082,1082,1082,,,,,
45198580,1083,1083,1083,1083,,,,,
45201079,1084,1084,1084,1084,,,,,
45203578,1084,1084,1084,1084,,,,,
45206077,1085,1085,1085,1085,,,,,
45208576,1086,1086,1086,1086,,,,,
45211075,1087,1087,1087,1087,,,,,
45213574,1087,1087,1087,1087,,,,,
45216073,1088,1088,1088,1088,,,,,
45218572,1089,1089,1089,1089,,,,,
45221071,1090,1090,1090,1090,,,,,
45223570,1090,1090,1090,1090,,,,,
45226069,1091,1091,1091,1091,,,,,
45228568,1092,1092,1092,1092,,,,,
45231067,1093,1093,1093,1093,,,,,
45233566,1093,1093,1093,1093,,,,,
45236065,1094,1094,1094,1094,,,,,
45238564,1095,1095,1095,1095,,,,,
45241063,1096,1096,1096,1096,,,,,
45243562,1096,1096,1096,1096,,,,,
45246061,1097,1097,1097,1097,,,,,
45248560,1098,1098,1098,1098,,,,,
45251059,1099,1099,1099,1099,,,,,
45253558,1099,1099,1099,1099,,,,,
45256057,1100,1100,1100,1100,,,,,
45258556,1101,1101,1101,1101,,,,,
45261055,1101,1101,1101,1101,,,,,
45263554,1102,1102,1102,1102,,,,,
45266053,1103,1103,1103,1103,,,,,
45268552,1104,1104,1104,1104,,,,,
45271051,1104,1104,1104,1104,,,,,
45273550,1105,1105,1105,1105,,,,,
45276049,1106,1106,1106,1106,,,,,
45278548,1107,1107,1107,1107,,,,,
45281047,1107,1107,1107,1107,,,,,
45283546,1108,1108,1108,1108,,,,,
45286045,1109,1109,1109,1109,,,,,
45288544,1110,1110,1110,1110,,,,,
45291043,1110,1110,1110,1110,,,,,
45293542,1111,1111,1111,1111,,,,,
45296041,1112,1112,1112,1112,,,,,
45298540,1113,1113,1113,1113,,,,,
45301039,1113,1113,1113,1113,,,,,
45303538,1114,1114,1114,1114,,,,,
45306037,1115,1115,1115,1115,,,,,
45308536,1116,1116,1116,1116,,,,,
45311035,1116,1116,1116,1116,,,,,
45313534,1117,1117,1117,1117,,,,,
45316033,1118,1118,1118,1118,,,,,
45318532,1119,1119,1119,1119,,,,,
45321031,1119,1119,1119,1119,,,,,
45323530,1120,1120,1120,1120,,,,,
45326029,1121,1121,1121,1121,,,,,
45328528,1122,1122,1122,1122,,,,,
45331027,1122,1122,1122,1122,,,,,
45333526,1123,1123,1123,1123,,,,,
45336025,1124,1124,1124,1124,,,,,
45338524,1125,1125,1125,1125,,,,,
45341023,1125,1125,1125,1125,,,,,
45343522,1126,1126,1126,1126,,,,,
45346021,1127,1127,1127,1127,,,,,
45348520,1128,1128,1128,1128,,,,,
45351019,1128,1128,1128,1128,,,,,
45353518,1129,1129,1129,1129,,,,,
45356017,1130,1130,1130,1130,,,,,
45358516,1131,1131,1131,1131,,,,,
45361015,1131,1131,1131,1131,,,,,
45363514,1132,1132,1132,1132,,,,,
45366013,1133,1133,1133,1133,,,,,
45368512,1134,1134,1134,1134,,,,,
45371011,1134,1134,1134,1134,,,,,
45373510,1135,1135,1135,1135,,,,,
45376009,1136,1136,1136,1136,,,,,
45378508,1137,1137,1137,1137,,,,,
45381007,1137,1137,1137,1137,,,,,
45383506,1138,1138,1138,1138,,,,,
45386005,1139,1139,1139,1139,,,,,
45388504,1140,1140,1140,1140,,,,,
45391003,1140,1140,1140,1140,,,,,
45393502,1141,1141,1141,1141,,,,,
45396001,1142,1142,1142,1142,,,,,
45398500,1143,1143,1143,1143,,,,,
45400999,1143,1143,1143,1143,,,,,
45403498,1144,1144,1144,1144,,,,,
45405997,1145,1145,1145,1145,,,,,
45408496,1146,1146,1146,1146,,,,,
45410995,1146,1146,1146,1146,,,,,
45413494,1147,1147,1147,1147,,,,,
45415993,1148,1148,1148,1148,,,,,
45418492,1149,1149,1149,1149,,,,,
45420991,1149,1149,1149,1149,,,,,
45423490,1150,1150,1150,1150,,,,,
45425989,1161,1153,1154,1162,,,,,
45428488,1169,1161,1162,1170,,,,,
45430987,1177,1169,1170,1178,,,,,
45433486,1185,1177,1178,1185,,,,,
45435985,1192,1185,1186,1193,,,,,
45438484,1200,1193,1193,1200,,,,,
45440983,1207,1200,1201,1208,,,,,
45443482,1214,1207,1208,1215,,,,,
45445981,1221,1214,1215,1222,,,,,
45448480,1228,1222,1222,1229,,,,,
45450979,1235,1228,1229,1236,,,,,
45453478,1242,1235,1236,1243,,,,,
45455977,1249,1242,1243,1249,,,,,
45458476,1255,1249,1249,1256,,,,,
45460975,1262,1255,1256,1262,,,,,
45463474,1268,1262,1263,1269,,,,,
45465973,1275,1268,1269,1275,,,,,
45468472,1281,1275,1275,1282,,,,,
45470971,1287,1281,1282,1288,,,,,
45473470,1293,1287,1288,1294,,,,,
45475969,1299,1293,1294,1300,,,,,
45478468,1305,1299,1300,1306,,,,,
45480967,1311,1305,1306,1312,,,,,
45483466,1317,1311,1312,1318,,,,,
45485965,1323,1317,1318,1324,,,,,
45488464,1329,1323,1323,1329,,,,,
45490963,1335,1329,1329,1335,,,,,
45493462,1340,1334,1335,1341,,,,,
45495961,1346,1340,1341,1346,,,,,
45498460,1351,1346,1346,1352,,,,,
45500959,1357,1351,1352,1357,,,,,
45503458,1362,1357,1357,1363,,,,,
45505957,1368,1362,1363,1368,,,,,
45508456,1373,1367,1368,1374,,,,,
45510955,1379,1373,1373,1379,,,,,
45513454,1384,1378,1379,1384,,,,,
45515953,1389,1383,1384,1389,,,,,
45518452,1394,1389,1389,1395,,,,,
45520951,1399,1394,1394,1400,,,,,
45523450,1404,1399,1399,1405,,,,,
45525949,1409,1404,1404,1410,,,,,
45528448,1415,1409,1409,1415,,,,,
45530947,1419,1414,1414,1420,,,,,
45533446,1424,1419,1419,1425,,,,,
45535945,1429,1424,1424,1430,,,,,
45538444,1434,1429,1429,1435,,,,,
45540943,1439,1434,1434,1439,,,,,
45543442,1444,1438,1439,1444,,,,,
45545941,1449,1443,1444,1449,,,,,
45548440,1453,1448,1449,1454,,,,,
45550939,1458,1453,1453,1458,,,,,
45553438,1463,1457,1458,1463,,,,,
45555937,1467,1462,1463,1468,,,,,
45558436,1472,1467,1467,1472,,,,,
45560935,1477,1471,1472,1477,,,,,
45563434,1481,1476,1476,1481,,,,,
45565933,1486,1480,1481,1486,,,,,
45568432,1490,1485,1486,1490,,,,,
45570931,1495,1489,1490,1495,,,,,
45573430,1499,1494,1495,1499,,,,,
45575929,1504,1498,1499,1504,,,,,
45578428,1508,1503,1503,1508,,,,,
45580927,1512,1507,1508,1512,,,,,
45583426,1517,1512,1512,1517,,,,,
45585925,1521,1516,1517,1521,,,,,
45588424,1525,1520,1521,1525,,,,,
45590923,1529,1525,1525,1530,,,,,
45593422,1534,1529,1529,1534,,,,,
45595921,1538,1533,1534,1538,,,,,
45598420,1542,1537,1538,1542,,,,,
45600919,1546,1541,1542,1547,,,,,
45603418,1550,1546,1546,1551,,,,,
45605917,1555,1550,1550,1555,,,,,
45608416,1559,1554,1554,1559,,,,,
45610915,1563,1558,1559,1563,,,,,
45613414,1567,1562,1563,1567,,,,,
45615913,1571,1566,1567,1571,,,,,
45618412,1575,1570,1571,1575,,,,,
45620911,1579,1574,1575,1579,,,,,
45623410,1583,1578,1579,1583,,,,,
45625909,1587,1582,1583,1587,,,,,
45628408,1591,1586,1587,1591,,,,,
45630907,1595,1590,1591,1595,,,,,
45633406,1599,1594,1595,1599,,,,,
45635905,1603,1598,1599,1603,,,,,
45638404,1607,1602,1603,1607,,,,,
45640903,1610,1606,1606,1611,,,,,
45643402,1614,1610,1610,1614,,,,,
45645901,1618,1613,1614,1618,,,,,
45648400,1622,1617,1618,1622,,,,,
45650899,1626,1621,1622,1626,,,,,
45653398,1630,1625,1626,1630,,,,,
45655897,1633,1629,1629,1633,,,,,
45658396,1637,1632,1633,1637,,,,,
45660895,1641,1636,1637,1641,,,,,
45663394,1645,1640,1641,1645,,,,,
45665893,1648,1644,1644,1648,,,,,
45668392,1652,1647,1648,1652,,,,,
45670891,1656,1651,1652,1656,,,,,
45673390,1659,1655,1655,1659,,,,,
45675889,1663,1658,1659,1663,,,,,
45678388,1667,1662,1663,1667,,,,,
45680887,1670,1666,1666,1670,,,,,
45683386,1674,1669,1670,1674,,,,,
45685885,1677,1673,1673,1677,,,,,
45688384,1681,1676,1677,1681,,,,,
45690883,1684,1680,1681,1685,,,,,
45693382,1688,1684,1684,1688,,,,,
45695881,1692,1687,1688,1692,,,,,
45698380,1695,1691,1691,1695,,,,,
45700879,1699,1694,1695,1699,,,,,
45703378,1702,1698,1698,1702,,,,,
45705877,1706,1701,1702,1706,,,,,
45708376,1709,1705,1705,1709,,,,,
45710875,1713,1708,1709,1713,,,,,
45713374,1716,1711,1712,1716,,,,,
45715873,1719,1715,1715,1720,,,,,
45718372,1723,1718,1719,1723,,,,,
45720871,1726,1722,1722,1727,,,,,
45723370,1730,1725,1726,1730,,,,,
45725869,1733,1728,1729,1733,,,,,
45728368,1736,1732,1732,1737,,,,,
45730867,1740,1735,1736,1740,,,,,
45733366,1743,1739,1739,1743,,,,,
45735865,1747,1742,1742,1747,,,,,
45738364,1750,1745,1746,1750,,,,,
45740863,1753,1749,1749,1754,,,,,
45743362,1757,1752,1752,1757,,,,,
45745861,1760,1755,1756,1760,,,,,
45748360,1763,1759,1759,1763,,,,,
45750859,1766,1762,1762,1767,,,,,
45753358,1770,1765,1765,1770,,,,,
45755857,1773,1768,1769,1773,,,,,
45758356,1776,1772,1772,1777,,,,,
45760855,1779,1775,1775,1780,,,,,
45763354,1783,1778,1778,1783,,,,,
45765853,1786,1781,1781,1786,,,,,
45768352,1789,1784,1785,1789,,,,,
45770851,1792,1788,1788,1793,,,,,
45773350,1795,1791,1791,1796,,,,,
45775849,1799,1794,1794,1799,,,,,
45778348,1802,1797,1797,1802,,,,,
45780847,1805,1800,1801,1805,,,,,
45783346,1808,1804,1804,1808,,,,,
45785845,1811,1807,1807,1811,,,,,
45788344,1814,1810,1810,1815,,,,,
45790843,1817,1813,1813,1818,,,,,
45793342,1820,1816,1816,1821,,,,,
45795841,1823,1819,1819,1824,,,,,
45798340,1827,1822,1823,1827,,,,,
45800839,1830,1825,1826,1830,,,,,
45803338,1833,1828,1829,1833,,,,,
45805837,1836,1832,1832,1836,,,,,
45808336,1839,1835,1835,1839,,,,,
45810835,1842,1838,1838,1842,,,,,
45813334,1845,1841,1841,1845,,,,,
45815833,1848,1844,1844,1848,,,,,
45818332,1851,1847,1847,1851,,,,,
45820831,1854,1850,1850,1854,,,,,
45823330,1857,1853,1853,1857,,,,,
45825829,1860,1856,1856,1860,,,,,
45828328,1863,1859,1859,1863,,,,,
45830827,1866,1862,1862,1866,,,,,
45833326,1869,1865,1865,1869,,,,,
45835825,1872,1868,1868,1872,,,,,
45838324,1875,1871,1871,1875,,,,,
45840823,1878,1874,1874,1878,,,,,
45843322,1881,1876,1877,1881,,,,,
45845821,1884,1879,1880,1884,,,,,
45848320,1887,1882,1883,1887,,,,,
45850819,1890,1885,1886,1890,,,,,
45853318,1893,1888,1889,1893,,,,,
45855817,1895,1891,1892,1895,,,,,
45858316,1898,1895,1895,1898,,,,,
45860815,1901,1898,1898,1901,,,,,
45863314,1903,1900,1901,1904,,,,,
45865813,1906,1903,1904,1907,,,,,
45868312,1909,1906,1907,1909,,,,,
45870811,1912,1909,1909,1912,,,,,
45873310,1915,1912,1912,1915,,,,,
45875809,1918,1915,1915,1918,,,,,
45878308,1921,1918,1918,1921,,,,,
45880807,1924,1920,1921,1924,,,,,
45883306,1926,1923,1923,1927,,,,,
45885805,1929,1926,1926,1930,,,,,
45888304,1930,1927,1927,1930,,,,,
45890803,1929,1926,1926,1929,,,,,
45893302,1928,1925,1925,1929,,,,,
45895801,1927,1924,1924,1928,,,,,
45898300,1926,1923,1923,1927,,,,,
45900799,1925,1922,1922,1926,,,,,
45903298,1925,1921,1921,1925,,,,,
45905797,1924,1920,1920,1925,,,,,
45908296,1923,1920,1920,1924,,,,,
45910795,1923,1919,1919,1923,,,,,
45913294,1922,1918,1918,1923,,,,,
45915793,1921,1918,1918,1922,,,,,
45918292,1921,1917,1917,1921,,,,,
45920791,1920,1917,1917,1921,,,,,
45923290,1919,1916,1916,1920,,,,,
45925789,1918,1916,1915,1920,,,,,
45928288,1918,1915,1915,1919,,,,,
45930787,1917,1914,1914,1918,,,,,
45933286,1916,1913,1913,1917,,,,,
45935785,1914,1912,1912,1916,,,,,
45938284,1913,1911,1910,1915,,,,,
45940783,1912,1910,1909,1913,,,,,
45943282,1910,1908,1907,1912,,,,,
45945781,1909,1907,1906,1910,,,,,
45948280,1907,1905,1904,1908,,,,,
45950779,1905,1903,1902,1907,,,,,
45953278,1903,1901,1900,1905,,,,,
45955777,1901,1899,1898,1902,,,,,
45958276,1898,1897,1896,1900,,,,,
45960775,1896,1895,1893,1898,,,,,
45963274,1893,1892,1891,1896,,,,,
45965773,1891,1890,1888,1893,,,,,
45968272,1888,1887,1885,1890,,,,,
45970771,1885,1884,1883,1888,,,,,
45973270,1883,1881,1880,1885,,,,,
45975769,1880,1879,1877,1882,,,,,
45978268,1877,1876,1874,1879,,,,,
45980767,1874,1873,1871,1876,,,,,
45983266,1871,1870,1868,1873,,,,,
45985765,1867,1867,1865,1870,,,,,
45988264,1864,1863,1861,1867,,,,,
45990763,1861,1860,1858,1864,,,,,
45993262,1858,1857,1855,1860,,,,,
45995761,1854,1854,1852,1857,,,,,
45998260,1851,1850,1848,1854,,,,,
46000759,1848,1847,1845,1850,,,,,
46003258,1844,1843,1841,1847,,,,,
46005757,1841,1840,1838,1843,,,,,
46008256,1837,1836,1834,1840,,,,,
46010755,1834,1833,1831,1836,,,,,
46013254,1830,1829,1827,1833,,,,,
46015753,1826,1826,1824,1829,,,,,
46018252,1823,1822,1820,1826,,,,,
46020751,1819,1819,1817,1822,,,,,
46023250,1815,1815,1813,1818,,,,,
46025749,1812,1811,1809,1815,,,,,
46028248,1808,1808,1806,1811,,,,,
46030747,1805,1804,1802,1807,,,,,
46033246,1801,1801,1798,1804,,,,,
46035745,1797,1797,1795,1800,,,,,
46038244,1794,1793,1791,1797,,,,,
46040743,1790,1790,1788,1793,,,,,
46043242,1787,1786,1784,1790,,,,,
46045741,1783,1783,1781,1786,,,,,
46048240,1780,1780,1778,1783,,,,,
46050739,1776,1776,1774,1779,,,,,
46053238,1773,1773,1771,1776,,,,,
46055737,1769,1769,1767,1772,,,,,
46058236,1766,1766,1764,1769,,,,,
46060735,1763,1763,1761,1765,,,,,
46063234,1759,1759,1757,1762,,,,,
46065733,1756,1756,1754,1759,,,,,
46068232,1753,1752,1751,1755,,,,,
46070731,1749,1749,1747,1752,,,,,
46073230,1746,1746,1744,1749,,,,,
46075729,1743,1743,1741,1745,,,,,
46078228,1740,1740,1738,1742,,,,,
46080727,1736,1736,1735,1739,,,,,
46083226,1733,1733,1732,1736,,,,,
46085725,1730,1730,1729,1733,,,,,
46088224,1727,1727,1726,1730,,,,,
46090723,1724,1724,1723,1727,,,,,
46093222,1721,1721,1720,1724,,,,,
46095721,1718,1718,1717,1721,,,,,
46098220,1716,1716,1714,1718,,,,,
46100719,1713,1713,1711,1715,,,,,
46103218,1710,1710,1708,1712,,,,,
46105717,1707,1707,1706,1709,,,,,
46108216,1704,1704,1703,1707,,,,,
46110715,1702,1702,1700,1704,,,,,
46113214,1699,1699,1698,1701,,,,,
46115713,1696,1696,1695,1698,,,,,
46118212,1694,1694,1693,1696,,,,,
46120711,1691,1691,1690,1693,,,,,
46123210,1689,1689,1688,1691,,,,,
46125709,1686,1686,1685,1688,,,,,
46128208,1684,1684,1683,1686,,,,,
46130707,1682,1682,1681,1683,,,,,
46133206,1679,1679,1678,1681,,,,,
46135705,1677,1677,1676,1679,,,,,
46138204,1675,1675,1674,1676,,,,,
46140703,1673,1673,1672,1674,,,,,
46143202,1670,1670,1670,1672,,,,,
46145701,1668,1668,1668,1670,,,,,
46148200,1666,1666,1665,1668,,,,,
46150699,1664,1664,1664,1666,,,,,
46153198,1662,1662,1662,1664,,,,,
46155697,1660,1661,1660,1662,,,,,
46158196,1658,1659,1658,1660,,,,,
46160695,1657,1657,1656,1658,,,,,
46163194,1655,1655,1655,1656,,,,,
46165693,1653,1653,1653,1654,,,,,
46168192,1652,1652,1651,1653,,,,,
46170691,1650,1650,1650,1651,,,,,
46173190,1648,1649,1648,1649,,,,,
46175689,1647,1647,1647,1648,,,,,
