timestamp,TimeUS,C1,C2,C3,C4,C5,C6,C7,C8,C9,C10,C11,C12,C13,C14
1683188430.90003991,44528848,1000,1000,1000,1000,0,0,0,0,0,0,0,0,0,0
1683188431.00000000,44628808,1000,1000,1000,1000,0,0,0,0,0,0,0,0,0,0
1683188431.09996009,44728768,1000,1000,1000,1000,0,0,0,0,0,0,0,0,0,0
1683188431.19991994,44828728,1000,1000,1000,1000,0,0,0,0,0,0,0,0,0,0
1683188431.29988003,44928688,1000,1000,1000,1000,0,0,0,0,0,0,0,0,0,0
1683188431.39983988,45028648,1000,1000,1000,1000,0,0,0,0,0,0,0,0,0,0
1683188431.49979997,45128608,1000,1000,1000,1000,0,0,0,0,0,0,0,0,0,0
1683188431.59976006,45228568,1000,1000,1000,1000,0,0,0,0,0,0,0,0,0,0
1683188431.69971991,45328528,1000,1000,1000,1000,0,0,0,0,0,0,0,0,0,0
1683188431.79967999,45428488,1000,1000,1000,1000,0,0,0,0,0,0,0,0,0,0
1683188431.89964008,45528448,1000,1000,1000,1000,0,0,0,0,0,0,0,0,0,0
1683188431.99959993,45628408,1000,1000,1000,1000,0,0,0,0,0,0,0,0,0,0
1683188432.09956002,45728368,1000,1000,1000,1000,0,0,0,0,0,0,0,0,0,0
1683188432.19951987,45828328,1000,1000,1000,1000,0,0,0,0,0,0,0,0,0,0
1683188432.29947996,45928288,1000,1000,1000,1000,0,0,0,0,0,0,0,0,0,0
1683188432.39944005,46028248,1000,1000,1000,1000,0,0,0,0,0,0,0,0,0,0
1683188432.49939990,46128208,1000,1000,1000,1000,0,0,0,0,0,0,0,0,0,0
1683188432.59935999,46228168,1000,1000,1000,1000,0,0,0,0,0,0,0,0,0,0
1683188432.70015287,46328961,1000,1000,1000,1000,0,0,0,0,0,0,0,0,0,0
1683188432.80011296,46428921,1000,1000,1000,1000,0,0,0,0,0,0,0,0,0,0
1683188432.90007305,46528881,1023,1023,1023,1023,0,0,0,0,0,0,0,0,0,0
1683188433.00003290,46628841,1053,1053,1053,1053,0,0,0,0,0,0,0,0,0,0
1683188433.09999299,46728801,1083,1083,1083,1083,0,0,0,0,0,0,0,0,0,0
1683188433.19995308,46828761,1113,1113,1113,1113,0,0,0,0,0,0,0,0,0,0
1683188433.29991293,46928721,1143,1143,1143,1143,0,0,0,0,0,0,0,0,0,0
1683188433.39987302,47028681,1351,1346,1347,1351,0,0,0,0,0,0,0,0,0,0
1683188433.49983287,47128641,1542,1538,1538,1542,0,0,0,0,0,0,0,0,0,0
1683188433.59979296,47228601,1695,1691,1692,1695,0,0,0,0,0,0,0,0,0,0
1683188433.69975305,47328561,1826,1822,1823,1826,0,0,0,0,0,0,0,0,0,0
1683188433.79971290,47428521,1857,1853,1853,1857,0,0,0,0,0,0,0,0,0,0
1683188433.89967299,47528481,1832,1831,1831,1833,0,0,0,0,0,0,0,0,0,0
1683188433.99963307,47628441,1705,1705,1705,1705,0,0,0,0,0,0,0,0,0,0
1683188434.09959292,47728401,1630,1630,1631,1630,0,0,0,0,0,0,0,0,0,0
1683188434.19955301,47828361,1618,1619,1619,1618,0,0,0,0,0,0,0,0,0,0
1683188434.29951286,47928321,1632,1633,1633,1632,0,0,0,0,0,0,0,0,0,0
1683188434.39947295,48028281,1642,1642,1642,1642,0,0,0,0,0,0,0,0,0,0
1683188434.49943304,48128241,1635,1634,1632,1637,0,0,0,0,0,0,0,0,0,0
1683188434.59939289,48228201,1620,1620,1613,1627,0,0,0,0,0,0,0,0,0,0
1683188434.69935298,48328161,1612,1612,1606,1617,0,0,0,0,0,0,0,0,0,0
1683188434.80014586,48428954,1610,1610,1609,1611,0,0,0,0,0,0,0,0,0,0
1683188434.90010595,48528914,1612,1612,1614,1610,0,0,0,0,0,0,0,0,0,0
1683188435.00006604,48628874,1615,1615,1619,1612,0,0,0,0,0,0,0,0,0,0
1683188435.10002589,48728834,1619,1619,1623,1615,0,0,0,0,0,0,0,0,0,0
1683188435.19998598,48828794,1599,1600,1609,1590,0,0,0,0,0,0,0,0,0,0
1683188435.29994607,48928754,1581,1582,1595,1569,0,0,0,0,0,0,0,0,0,0
1683188435.39990592,49028714,1569,1569,1574,1564,0,0,0,0,0,0,0,0,0,0
1683188435.49986601,49128674,1559,1558,1556,1561,0,0,0,0,0,0,0,0,0,0
1683188435.59982610,49228634,1550,1549,1540,1560,0,0,0,0,0,0,0,0,0,0
1683188435.69978595,49328594,1544,1542,1531,1555,0,0,0,0,0,0,0,0,0,0
1683188435.79974604,49428554,1537,1536,1527,1545,0,0,0,0,0,0,0,0,0,0
1683188435.89970589,49528514,1531,1530,1526,1534,0,0,0,0,0,0,0,0,0,0
1683188435.99966598,49628474,1527,1527,1527,1527,0,0,0,0,0,0,0,0,0,0
1683188436.09962606,49728434,1527,1528,1529,1525,0,0,0,0,0,0,0,0,0,0
1683188436.19958591,49828394,1530,1530,1533,1527,0,0,0,0,0,0,0,0,0,0
1683188436.29954600,49928354,1533,1533,1536,1530,0,0,0,0,0,0,0,0,0,0
1683188436.39950609,50028314,1536,1536,1539,1533,0,0,0,0,0,0,0,0,0,0
1683188436.49946594,50128274,1540,1540,1542,1538,0,0,0,0,0,0,0,0,0,0
1683188436.59942603,50228234,1544,1544,1545,1544,0,0,0,0,0,0,0,0,0,0
1683188436.69938588,50328194,1547,1546,1546,1547,0,0,0,0,0,0,0,0,0,0
1683188436.79934597,50428154,1549,1549,1548,1550,0,0,0,0,0,0,0,0,0,0
1683188436.90013909,50528947,1552,1552,1551,1553,0,0,0,0,0,0,0,0,0,0
1683188437.00009894,50628907,1552,1552,1555,1558,0,0,0,0,0,0,0,0,0,0
1683188437.10005903,50728867,1553,1553,1560,1562,0,0,0,0,0,0,0,0,0,0
1683188437.20001888,50828827,1555,1555,1562,1563,0,0,0,0,0,0,0,0,0,0
1683188437.29997897,50928787,1558,1558,1564,1564,0,0,0,0,0,0,0,0,0,0
1683188437.39993906,51028747,1561,1561,1565,1564,0,0,0,0,0,0,0,0,0,0
1683188437.49989891,51128707,1564,1564,1565,1564,0,0,0,0,0,0,0,0,0,0
1683188437.59985900,51228667,1566,1567,1565,1565,0,0,0,0,0,0,0,0,0,0
1683188437.69981909,51328627,1569,1569,1565,1565,0,0,0,0,0,0,0,0,0,0
1683188437.79977894,51428587,1571,1570,1566,1566,0,0,0,0,0,0,0,0,0,0
1683188437.89973903,51528547,1572,1572,1567,1567,0,0,0,0,0,0,0,0,0,0
1683188437.99969888,51628507,1572,1572,1567,1567,0,0,0,0,0,0,0,0,0,0
1683188438.09965897,51728467,1573,1573,1568,1569,0,0,0,0,0,0,0,0,0,0
1683188438.19961905,51828427,1573,1574,1570,1570,0,0,0,0,0,0,0,0,0,0
1683188438.29957891,51928387,1573,1574,1571,1571,0,0,0,0,0,0,0,0,0,0
1683188438.39953899,52028347,1574,1575,1573,1572,0,0,0,0,0,0,0,0,0,0
1683188438.49949908,52128307,1574,1574,1574,1573,0,0,0,0,0,0,0,0,0,0
1683188438.59945893,52228267,1574,1574,1576,1574,0,0,0,0,0,0,0,0,0,0
1683188438.69941902,52328227,1574,1574,1575,1575,0,0,0,0,0,0,0,0,0,0
1683188438.79937887,52428187,1574,1574,1575,1574,0,0,0,0,0,0,0,0,0,0
1683188438.90017200,52528980,1575,1575,1577,1577,0,0,0,0,0,0,0,0,0,0
1683188439.00013208,52628940,1575,1575,1577,1577,0,0,0,0,0,0,0,0,0,0
1683188439.10009193,52728900,1576,1576,1577,1577,0,0,0,0,0,0,0,0,0,0
1683188439.20005202,52828860,1575,1575,1576,1577,0,0,0,0,0,0,0,0,0,0
1683188439.30001187,52928820,1575,1575,1576,1576,0,0,0,0,0,0,0,0,0,0
1683188439.39997196,53028780,1576,1576,1576,1576,0,0,0,0,0,0,0,0,0,0
1683188439.49993205,53128740,1577,1577,1576,1577,0,0,0,0,0,0,0,0,0,0
1683188439.59989190,53228700,1577,1577,1577,1577,0,0,0,0,0,0,0,0,0,0
1683188439.69985199,53328660,1578,1577,1577,1577,0,0,0,0,0,0,0,0,0,0
1683188439.79981208,53428620,1578,1578,1577,1577,0,0,0,0,0,0,0,0,0,0
1683188439.89977193,53528580,1579,1578,1578,1578,0,0,0,0,0,0,0,0,0,0
1683188439.99973202,53628540,1579,1579,1579,1579,0,0,0,0,0,0,0,0,0,0
1683188440.09969187,53728500,1579,1579,1579,1579,0,0,0,0,0,0,0,0,0,0
1683188440.19965196,53828460,1579,1579,1579,1579,0,0,0,0,0,0,0,0,0,0
1683188440.29961205,53928420,1579,1579,1578,1579,0,0,0,0,0,0,0,0,0,0
1683188440.39957190,54028380,1579,1580,1580,1579,0,0,0,0,0,0,0,0,0,0
1683188440.49953198,54128340,1579,1580,1580,1580,0,0,0,0,0,0,0,0,0,0
1683188440.59949207,54228300,1579,1579,1580,1579,0,0,0,0,0,0,0,0,0,0
1683188440.69945192,54328260,1580,1579,1579,1580,0,0,0,0,0,0,0,0,0,0
1683188440.79941201,54428220,1579,1579,1580,1579,0,0,0,0,0,0,0,0,0,0
1683188440.89937186,54528180,1579,1579,1580,1580,0,0,0,0,0,0,0,0,0,0
1683188441.00016499,54628973,1579,1580,1580,1580,0,0,0,0,0,0,0,0,0,0
1683188441.10012507,54728933,1579,1579,1580,1579,0,0,0,0,0,0,0,0,0,0
1683188441.20008492,54828893,1579,1579,1580,1579,0,0,0,0,0,0,0,0,0,0
1683188441.30004501,54928853,1580,1580,1580,1580,0,0,0,0,0,0,0,0,0,0
1683188441.40000486,55028813,1579,1579,1578,1579,0,0,0,0,0,0,0,0,0,0
1683188441.49996495,55128773,1579,1579,1578,1579,0,0,0,0,0,0,0,0,0,0
1683188441.59992504,55228733,1579,1579,1578,1579,0,0,0,0,0,0,0,0,0,0
1683188441.69988489,55328693,1579,1579,1579,1579,0,0,0,0,0,0,0,0,0,0
1683188441.79984498,55428653,1578,1579,1579,1578,0,0,0,0,0,0,0,0,0,0
1683188441.89980507,55528613,1579,1579,1579,1579,0,0,0,0,0,0,0,0,0,0
1683188441.99976492,55628573,1579,1579,1579,1579,0,0,0,0,0,0,0,0,0,0
1683188442.09972501,55728533,1580,1580,1580,1580,0,0,0,0,0,0,0,0,0,0
1683188442.19968510,55828493,1580,1580,1580,1580,0,0,0,0,0,0,0,0,0,0
1683188442.29964495,55928453,1581,1580,1581,1580,0,0,0,0,0,0,0,0,0,0
1683188442.39960504,56028413,1581,1581,1581,1581,0,0,0,0,0,0,0,0,0,0
1683188442.49956489,56128373,1581,1581,1581,1581,0,0,0,0,0,0,0,0,0,0
1683188442.59952497,56228333,1580,1581,1581,1581,0,0,0,0,0,0,0,0,0,0
1683188442.69948506,56328293,1581,1581,1581,1581,0,0,0,0,0,0,0,0,0,0
1683188442.79944491,56428253,1580,1580,1580,1580,0,0,0,0,0,0,0,0,0,0
1683188442.89940500,56528213,1581,1581,1581,1581,0,0,0,0,0,0,0,0,0,0
1683188442.99936509,56628173,1580,1580,1580,1580,0,0,0,0,0,0,0,0,0,0
1683188443.10015798,56728966,1581,1581,1581,1581,0,0,0,0,0,0,0,0,0,0
1683188443.20011806,56828926,1581,1580,1584,1577,0,0,0,0,0,0,0,0,0,0
1683188443.30007792,56928886,1580,1581,1587,1573,0,0,0,0,0,0,0,0,0,0
1683188443.40003800,57028846,1579,1581,1581,1573,0,0,0,0,0,0,0,0,0,0
1683188443.49999809,57128806,1577,1581,1573,1573,0,0,0,0,0,0,0,0,0,0
1683188443.59995794,57228766,1576,1580,1564,1570,0,0,0,0,0,0,0,0,0,0
1683188443.69991803,57328726,1577,1579,1559,1566,0,0,0,0,0,0,0,0,0,0
1683188443.79987788,57428686,1577,1577,1555,1560,0,0,0,0,0,0,0,0,0,0
1683188443.89983797,57528646,1580,1578,1556,1558,0,0,0,0,0,0,0,0,0,0
1683188443.99979806,57628606,1580,1578,1556,1556,0,0,0,0,0,0,0,0,0,0
1683188444.09975791,57728566,1580,1578,1557,1555,0,0,0,0,0,0,0,0,0,0
1683188444.19971800,57828526,1577,1578,1556,1554,0,0,0,0,0,0,0,0,0,0
1683188444.29967809,57928486,1576,1577,1555,1553,0,0,0,0,0,0,0,0,0,0
1683188444.39963794,58028446,1575,1576,1555,1553,0,0,0,0,0,0,0,0,0,0
1683188444.49959803,58128406,1575,1577,1554,1554,0,0,0,0,0,0,0,0,0,0
1683188444.59955788,58228366,1575,1576,1552,1553,0,0,0,0,0,0,0,0,0,0
1683188444.69951797,58328326,1576,1577,1551,1552,0,0,0,0,0,0,0,0,0,0
1683188444.79947805,58428286,1577,1579,1550,1549,0,0,0,0,0,0,0,0,0,0
1683188444.89943790,58528246,1579,1580,1547,1547,0,0,0,0,0,0,0,0,0,0
1683188444.99939799,58628206,1582,1583,1545,1544,0,0,0,0,0,0,0,0,0,0
1683188445.09935808,58728166,1585,1586,1542,1542,0,0,0,0,0,0,0,0,0,0
1683188445.20015097,58828959,1587,1588,1539,1538,0,0,0,0,0,0,0,0,0,0
1683188445.30011106,58928919,1590,1591,1536,1536,0,0,0,0,0,0,0,0,0,0
1683188445.40007091,59028879,1592,1592,1534,1534,0,0,0,0,0,0,0,0,0,0
1683188445.50003099,59128839,1594,1594,1534,1535,0,0,0,0,0,0,0,0,0,0
1683188445.59999108,59228799,1594,1594,1534,1536,0,0,0,0,0,0,0,0,0,0
1683188445.69995093,59328759,1593,1593,1536,1539,0,0,0,0,0,0,0,0,0,0
1683188445.79991102,59428719,1590,1590,1541,1543,0,0,0,0,0,0,0,0,0,0
1683188445.89987087,59528679,1586,1584,1547,1550,0,0,0,0,0,0,0,0,0,0
1683188445.99983096,59628639,1580,1577,1556,1559,0,0,0,0,0,0,0,0,0,0
1683188446.09979105,59728599,1572,1567,1567,1570,0,0,0,0,0,0,0,0,0,0
1683188446.19975090,59828559,1561,1557,1580,1581,0,0,0,0,0,0,0,0,0,0
1683188446.29971099,59928519,1550,1546,1592,1593,0,0,0,0,0,0,0,0,0,0
1683188446.39967108,60028479,1539,1538,1602,1602,0,0,0,0,0,0,0,0,0,0
1683188446.49963093,60128439,1533,1533,1610,1609,0,0,0,0,0,0,0,0,0,0
1683188446.59959102,60228399,1529,1530,1614,1613,0,0,0,0,0,0,0,0,0,0
1683188446.69955087,60328359,1529,1531,1615,1614,0,0,0,0,0,0,0,0,0,0
1683188446.79951096,60428319,1532,1535,1611,1611,0,0,0,0,0,0,0,0,0,0
1683188446.89947104,60528279,1538,1541,1606,1606,0,0,0,0,0,0,0,0,0,0
1683188446.99943089,60628239,1547,1548,1599,1599,0,0,0,0,0,0,0,0,0,0
1683188447.09939098,60728199,1556,1556,1591,1591,0,0,0,0,0,0,0,0,0,0
1683188447.19935107,60828159,1565,1565,1585,1584,0,0,0,0,0,0,0,0,0,0
1683188447.30014396,60928952,1574,1573,1579,1578,0,0,0,0,0,0,0,0,0,0
1683188447.40010405,61028912,1581,1579,1574,1572,0,0,0,0,0,0,0,0,0,0
1683188447.50006390,61128872,1584,1583,1569,1568,0,0,0,0,0,0,0,0,0,0
1683188447.60002398,61228832,1586,1585,1566,1566,0,0,0,0,0,0,0,0,0,0
1683188447.69998407,61328792,1588,1587,1566,1567,0,0,0,0,0,0,0,0,0,0
1683188447.79994392,61428752,1586,1586,1567,1567,0,0,0,0,0,0,0,0,0,0
1683188447.89990401,61528712,1585,1584,1569,1569,0,0,0,0,0,0,0,0,0,0
1683188447.99986386,61628672,1582,1582,1572,1572,0,0,0,0,0,0,0,0,0,0
1683188448.09982395,61728632,1580,1579,1575,1575,0,0,0,0,0,0,0,0,0,0
1683188448.19978404,61828592,1578,1578,1579,1579,0,0,0,0,0,0,0,0,0,0
1683188448.29974389,61928552,1229,1230,1584,1585,0,0,0,0,0,0,0,0,0,0
1683188448.39970398,62028512,1344,1350,1655,1664,0,0,0,0,0,0,0,0,0,0
1683188448.49966407,62128472,1416,1426,1656,1657,0,0,0,0,0,0,0,0,0,0
1683188448.59962392,62228432,1481,1491,1643,1636,0,0,0,0,0,0,0,0,0,0
1683188448.69958401,62328392,1534,1539,1631,1620,0,0,0,0,0,0,0,0,0,0
1683188448.79954410,62428352,1576,1571,1623,1613,0,0,0,0,0,0,0,0,0,0
1683188448.89950395,62528312,1600,1583,1584,1581,0,0,0,0,0,0,0,0,0,0
1683188448.99946404,62628272,1600,1584,1513,1522,0,0,0,0,0,0,0,0,0,0
1683188449.09942389,62728232,1600,1591,1478,1494,0,0,0,0,0,0,0,0,0,0
1683188449.19938397,62828192,1597,1600,1494,1504,0,0,0,0,0,0,0,0,0,0
1683188449.30017710,62928985,1592,1600,1511,1514,0,0,0,0,0,0,0,0,0,0
1683188449.40013695,63028945,1590,1600,1531,1527,0,0,0,0,0,0,0,0,0,0
1683188449.50009704,63128905,1593,1600,1549,1543,0,0,0,0,0,0,0,0,0,0
1683188449.60005689,63228865,1598,1600,1563,1559,0,0,0,0,0,0,0,0,0,0
1683188449.70001698,63328825,1600,1597,1569,1568,0,0,0,0,0,0,0,0,0,0
1683188449.79997706,63428785,1600,1596,1571,1573,0,0,0,0,0,0,0,0,0,0
1683188449.89993691,63528745,1600,1596,1574,1577,0,0,0,0,0,0,0,0,0,0
1683188449.99989700,63628705,1600,1598,1578,1581,0,0,0,0,0,0,0,0,0,0
1683188450.09985709,63728665,1600,1598,1585,1578,0,0,0,0,0,0,0,0,0,0
1683188450.19981694,63828625,1600,1596,1588,1581,0,0,0,0,0,0,0,0,0,0
1683188450.29977703,63928585,1600,1596,1587,1586,0,0,0,0,0,0,0,0,0,0
1683188450.39973688,64028545,1600,1599,1586,1590,0,0,0,0,0,0,0,0,0,0
1683188450.49969697,64128505,1598,1600,1584,1589,0,0,0,0,0,0,0,0,0,0
1683188450.59965706,64228465,1595,1600,1583,1585,0,0,0,0,0,0,0,0,0,0
1683188450.69961691,64328425,1594,1600,1583,1583,0,0,0,0,0,0,0,0,0,0
1683188450.79957700,64428385,1595,1600,1584,1583,0,0,0,0,0,0,0,0,0,0
1683188450.89953709,64528345,1596,1600,1585,1582,0,0,0,0,0,0,0,0,0,0
1683188450.99949694,64628305,1597,1600,1585,1583,0,0,0,0,0,0,0,0,0,0
1683188451.09945703,64728265,1598,1600,1584,1584,0,0,0,0,0,0,0,0,0,0
1683188451.19941688,64828225,1600,1599,1583,1584,0,0,0,0,0,0,0,0,0,0
1683188451.29937696,64928185,1600,1589,1580,1571,0,0,0,0,0,0,0,0,0,0
1683188451.40017009,65028978,1600,1587,1578,1574,0,0,0,0,0,0,0,0,0,0
1683188451.50012994,65128938,1600,1590,1580,1582,0,0,0,0,0,0,0,0,0,0
1683188451.60009003,65228898,1600,1596,1583,1588,0,0,0,0,0,0,0,0,0,0
1683188451.70004988,65328858,1598,1600,1585,1588,0,0,0,0,0,0,0,0,0,0
1683188451.80000997,65428818,1596,1600,1585,1585,0,0,0,0,0,0,0,0,0,0
1683188451.89997005,65528778,1593,1598,1582,1581,0,0,0,0,0,0,0,0,0,0
1683188451.99992990,65628738,1592,1595,1580,1577,0,0,0,0,0,0,0,0,0,0
1683188452.09988999,65728698,1593,1595,1580,1576,0,0,0,0,0,0,0,0,0,0
1683188452.19985008,65828658,1594,1593,1579,1576,0,0,0,0,0,0,0,0,0,0
1683188452.29980993,65928618,1593,1591,1575,1574,0,0,0,0,0,0,0,0,0,0
1683188452.39977002,66028578,1590,1589,1571,1570,0,0,0,0,0,0,0,0,0,0
1683188452.49972987,66128538,1587,1587,1566,1567,0,0,0,0,0,0,0,0,0,0
1683188452.59968996,66228498,1584,1584,1562,1562,0,0,0,0,0,0,0,0,0,0
1683188452.69965005,66328458,1580,1581,1558,1557,0,0,0,0,0,0,0,0,0,0
1683188452.79960990,66428418,1577,1578,1555,1553,0,0,0,0,0,0,0,0,0,0
1683188452.89956999,66528378,1574,1576,1552,1551,0,0,0,0,0,0,0,0,0,0
1683188452.99953008,66628338,1573,1574,1551,1549,0,0,0,0,0,0,0,0,0,0
1683188453.09948993,66728298,1571,1572,1548,1547,0,0,0,0,0,0,0,0,0,0
1683188453.19945002,66828258,1570,1570,1548,1546,0,0,0,0,0,0,0,0,0,0
1683188453.29940987,66928218,1569,1569,1546,1545,0,0,0,0,0,0,0,0,0,0
1683188453.39936996,67028178,1569,1569,1546,1546,0,0,0,0,0,0,0,0,0,0
1683188453.50016308,67128971,1568,1569,1546,1546,0,0,0,0,0,0,0,0,0,0
1683188453.60012293,67228931,1569,1569,1546,1547,0,0,0,0,0,0,0,0,0,0
1683188453.70008302,67328891,1568,1569,1547,1548,0,0,0,0,0,0,0,0,0,0
1683188453.80004287,67428851,1568,1569,1546,1547,0,0,0,0,0,0,0,0,0,0
1683188453.90000296,67528811,1569,1570,1547,1549,0,0,0,0,0,0,0,0,0,0
1683188453.99996305,67628771,1570,1572,1549,1550,0,0,0,0,0,0,0,0,0,0
1683188454.09992290,67728731,1571,1572,1548,1550,0,0,0,0,0,0,0,0,0,0
1683188454.19988298,67828691,1572,1573,1549,1552,0,0,0,0,0,0,0,0,0,0
1683188454.29984307,67928651,1574,1574,1550,1552,0,0,0,0,0,0,0,0,0,0
1683188454.39980292,68028611,1574,1576,1551,1553,0,0,0,0,0,0,0,0,0,0
1683188454.49976301,68128571,1575,1577,1552,1553,0,0,0,0,0,0,0,0,0,0
1683188454.59972286,68228531,1576,1578,1553,1554,0,0,0,0,0,0,0,0,0,0
1683188454.69968295,68328491,1578,1579,1554,1555,0,0,0,0,0,0,0,0,0,0
1683188454.79964304,68428451,1579,1579,1554,1555,0,0,0,0,0,0,0,0,0,0
1683188454.89960289,68528411,1580,1579,1555,1556,0,0,0,0,0,0,0,0,0,0
1683188454.99956298,68628371,1581,1580,1556,1557,0,0,0,0,0,0,0,0,0,0
1683188455.09952307,68728331,1582,1581,1557,1558,0,0,0,0,0,0,0,0,0,0
1683188455.19948292,68828291,1582,1582,1558,1559,0,0,0,0,0,0,0,0,0,0
1683188455.29944301,68928251,1583,1582,1559,1560,0,0,0,0,0,0,0,0,0,0
1683188455.39940310,69028211,1583,1583,1561,1561,0,0,0,0,0,0,0,0,0,0
1683188455.49936295,69128171,1583,1583,1562,1562,0,0,0,0,0,0,0,0,0,0
1683188455.60015607,69228964,1584,1583,1562,1563,0,0,0,0,0,0,0,0,0,0
1683188455.70011592,69328924,1584,1584,1564,1564,0,0,0,0,0,0,0,0,0,0
1683188455.80007601,69428884,1584,1584,1565,1565,0,0,0,0,0,0,0,0,0,0
1683188455.90003610,69528844,1585,1579,1571,1571,0,0,0,0,0,0,0,0,0,0
1683188455.99999595,69628804,1570,1561,1594,1594,0,0,0,0,0,0,0,0,0,0
1683188456.09995604,69728764,1553,1546,1610,1611,0,0,0,0,0,0,0,0,0,0
1683188456.19991589,69828724,1542,1539,1618,1619,0,0,0,0,0,0,0,0,0,0
1683188456.29987597,69928684,1534,1537,1619,1620,0,0,0,0,0,0,0,0,0,0
1683188456.39983606,70028644,1532,1539,1618,1618,0,0,0,0,0,0,0,0,0,0
1683188456.49979591,70128604,1533,1543,1616,1614,0,0,0,0,0,0,0,0,0,0
1683188456.59975600,70228564,1538,1547,1611,1609,0,0,0,0,0,0,0,0,0,0
1683188456.69971609,70328524,1545,1552,1606,1604,0,0,0,0,0,0,0,0,0,0
1683188456.79967594,70428484,1553,1555,1599,1596,0,0,0,0,0,0,0,0,0,0
1683188456.89963603,70528444,1561,1561,1593,1591,0,0,0,0,0,0,0,0,0,0
1683188456.99959588,70628404,1568,1566,1587,1586,0,0,0,0,0,0,0,0,0,0
1683188457.09955597,70728364,1574,1571,1581,1582,0,0,0,0,0,0,0,0,0,0
1683188457.19951606,70828324,1578,1575,1576,1577,0,0,0,0,0,0,0,0,0,0
1683188457.29947591,70928284,1583,1580,1575,1576,0,0,0,0,0,0,0,0,0,0
1683188457.39943600,71028244,1585,1583,1573,1574,0,0,0,0,0,0,0,0,0,0
1683188457.49939609,71128204,1586,1586,1572,1572,0,0,0,0,0,0,0,0,0,0
1683188457.59935594,71228164,1587,1588,1571,1571,0,0,0,0,0,0,0,0,0,0
1683188457.70014906,71328957,1588,1588,1571,1571,0,0,0,0,0,0,0,0,0,0
1683188457.80010891,71428917,1589,1589,1572,1571,0,0,0,0,0,0,0,0,0,0
1683188457.90006900,71528877,1589,1588,1572,1572,0,0,0,0,0,0,0,0,0,0
1683188458.00002909,71628837,1589,1588,1572,1572,0,0,0,0,0,0,0,0,0,0
1683188458.09998894,71728797,1589,1588,1573,1574,0,0,0,0,0,0,0,0,0,0
1683188458.19994903,71828757,1588,1587,1574,1575,0,0,0,0,0,0,0,0,0,0
1683188458.29990888,71928717,1587,1587,1576,1576,0,0,0,0,0,0,0,0,0,0
1683188458.39986897,72028677,1585,1586,1576,1576,0,0,0,0,0,0,0,0,0,0
1683188458.49982905,72128637,1584,1585,1577,1576,0,0,0,0,0,0,0,0,0,0
1683188458.59978890,72228597,1584,1584,1578,1578,0,0,0,0,0,0,0,0,0,0
1683188458.69974899,72328557,1583,1582,1578,1578,0,0,0,0,0,0,0,0,0,0
1683188458.79970908,72428517,1582,1582,1579,1578,0,0,0,0,0,0,0,0,0,0
1683188458.89966893,72528477,1582,1582,1580,1579,0,0,0,0,0,0,0,0,0,0
1683188458.99962902,72628437,1581,1581,1580,1580,0,0,0,0,0,0,0,0,0,0
1683188459.09958887,72728397,1580,1580,1579,1580,0,0,0,0,0,0,0,0,0,0
1683188459.19954896,72828357,1580,1580,1580,1580,0,0,0,0,0,0,0,0,0,0
1683188459.29950905,72928317,1579,1579,1580,1581,0,0,0,0,0,0,0,0,0,0
1683188459.39946890,73028277,1579,1579,1580,1581,0,0,0,0,0,0,0,0,0,0
1683188459.49942899,73128237,1579,1579,1581,1581,0,0,0,0,0,0,0,0,0,0
1683188459.59938908,73228197,1579,1580,1582,1582,0,0,0,0,0,0,0,0,0,0
1683188459.69934893,73328157,1580,1580,1582,1582,0,0,0,0,0,0,0,0,0,0
1683188459.80014205,73428950,1580,1580,1582,1582,0,0,0,0,0,0,0,0,0,0
1683188459.90010190,73528910,1580,1580,1582,1582,0,0,0,0,0,0,0,0,0,0
1683188460.00006199,73628870,1579,1579,1581,1580,0,0,0,0,0,0,0,0,0,0
1683188460.10002208,73728830,1579,1580,1581,1581,0,0,0,0,0,0,0,0,0,0
1683188460.19998193,73828790,1580,1580,1581,1581,0,0,0,0,0,0,0,0,0,0
1683188460.29994202,73928750,1580,1579,1585,1575,0,0,0,0,0,0,0,0,0,0
1683188460.39990187,74028710,1581,1579,1585,1572,0,0,0,0,0,0,0,0,0,0
1683188460.49986196,74128670,1579,1578,1577,1572,0,0,0,0,0,0,0,0,0,0
1683188460.59982204,74228630,1578,1577,1569,1571,0,0,0,0,0,0,0,0,0,0
1683188460.69978189,74328590,1576,1578,1563,1568,0,0,0,0,0,0,0,0,0,0
1683188460.79974198,74428550,1574,1576,1558,1564,0,0,0,0,0,0,0,0,0,0
1683188460.89970207,74528510,1574,1576,1558,1561,0,0,0,0,0,0,0,0,0,0
1683188460.99966192,74628470,1574,1577,1558,1559,0,0,0,0,0,0,0,0,0,0
1683188461.09962201,74728430,1574,1576,1558,1557,0,0,0,0,0,0,0,0,0,0
1683188461.19958186,74828390,1574,1575,1557,1555,0,0,0,0,0,0,0,0,0,0
1683188461.29954195,74928350,1575,1574,1557,1554,0,0,0,0,0,0,0,0,0,0
1683188461.39950204,75028310,1574,1574,1555,1553,0,0,0,0,0,0,0,0,0,0
1683188461.49946189,75128270,1574,1574,1553,1553,0,0,0,0,0,0,0,0,0,0
1683188461.59942198,75228230,1574,1574,1552,1552,0,0,0,0,0,0,0,0,0,0
1683188461.69938207,75328190,1575,1575,1551,1552,0,0,0,0,0,0,0,0,0,0
1683188461.80017495,75428983,1575,1577,1550,1551,0,0,0,0,0,0,0,0,0,0
1683188461.90013504,75528943,1576,1578,1549,1549,0,0,0,0,0,0,0,0,0,0
1683188462.00009489,75628903,1577,1578,1546,1545,0,0,0,0,0,0,0,0,0,0
1683188462.10005498,75728863,1578,1580,1545,1544,0,0,0,0,0,0,0,0,0,0
1683188462.20001507,75828823,1581,1582,1544,1542,0,0,0,0,0,0,0,0,0,0
1683188462.29997492,75928783,1583,1584,1541,1541,0,0,0,0,0,0,0,0,0,0
1683188462.39993501,76028743,1586,1586,1540,1540,0,0,0,0,0,0,0,0,0,0
1683188462.49989510,76128703,1588,1587,1539,1539,0,0,0,0,0,0,0,0,0,0
1683188462.59985495,76228663,1589,1588,1538,1539,0,0,0,0,0,0,0,0,0,0
1683188462.69981503,76328623,1590,1589,1539,1540,0,0,0,0,0,0,0,0,0,0
1683188462.79977489,76428583,1589,1588,1540,1542,0,0,0,0,0,0,0,0,0,0
1683188462.89973497,76528543,1589,1587,1544,1546,0,0,0,0,0,0,0,0,0,0
1683188462.99969506,76628503,1585,1584,1545,1549,0,0,0,0,0,0,0,0,0,0
1683188463.09965491,76728463,1583,1582,1551,1555,0,0,0,0,0,0,0,0,0,0
1683188463.19961500,76828423,1578,1578,1556,1559,0,0,0,0,0,0,0,0,0,0
1683188463.29957509,76928383,1573,1571,1562,1565,0,0,0,0,0,0,0,0,0,0
1683188463.39953494,77028343,1567,1565,1571,1573,0,0,0,0,0,0,0,0,0,0
1683188463.49949503,77128303,1561,1559,1580,1581,0,0,0,0,0,0,0,0,0,0
1683188463.59945488,77228263,1553,1551,1588,1588,0,0,0,0,0,0,0,0,0,0
1683188463.69941497,77328223,1546,1544,1597,1597,0,0,0,0,0,0,0,0,0,0
1683188463.79937506,77428183,1539,1538,1604,1604,0,0,0,0,0,0,0,0,0,0
1683188463.90016794,77528976,1533,1534,1609,1608,0,0,0,0,0,0,0,0,0,0
1683188464.00012803,77628936,1531,1533,1610,1609,0,0,0,0,0,0,0,0,0,0
1683188464.10008788,77728896,1532,1534,1608,1608,0,0,0,0,0,0,0,0,0,0
1683188464.20004797,77828856,1535,1538,1605,1604,0,0,0,0,0,0,0,0,0,0
1683188464.30000806,77928816,1541,1543,1599,1599,0,0,0,0,0,0,0,0,0,0
1683188464.39996791,78028776,1548,1550,1592,1593,0,0,0,0,0,0,0,0,0,0
1683188464.49992800,78128736,1557,1557,1586,1585,0,0,0,0,0,0,0,0,0,0
1683188464.59988809,78228696,1564,1565,1579,1578,0,0,0,0,0,0,0,0,0,0
1683188464.69984794,78328656,1572,1572,1574,1573,0,0,0,0,0,0,0,0,0,0
1683188464.79980803,78428616,1579,1578,1570,1569,0,0,0,0,0,0,0,0,0,0
1683188464.89976788,78528576,1584,1583,1567,1567,0,0,0,0,0,0,0,0,0,0
1683188464.99972796,78628536,1588,1586,1567,1567,0,0,0,0,0,0,0,0,0,0
1683188465.09968805,78728496,1589,1588,1567,1568,0,0,0,0,0,0,0,0,0,0
1683188465.19964790,78828456,1590,1588,1569,1569,0,0,0,0,0,0,0,0,0,0
1683188465.29960799,78928416,1589,1588,1570,1570,0,0,0,0,0,0,0,0,0,0
1683188465.39956808,79028376,1587,1587,1572,1573,0,0,0,0,0,0,0,0,0,0
1683188465.49952793,79128336,1586,1586,1575,1575,0,0,0,0,0,0,0,0,0,0
1683188465.59948802,79228296,1584,1584,1577,1577,0,0,0,0,0,0,0,0,0,0
1683188465.69944787,79328256,1582,1582,1578,1578,0,0,0,0,0,0,0,0,0,0
1683188465.79940796,79428216,1580,1581,1580,1580,0,0,0,0,0,0,0,0,0,0
1683188465.89936805,79528176,1579,1579,1582,1582,0,0,0,0,0,0,0,0,0,0
1683188466.00016093,79628969,1578,1578,1583,1583,0,0,0,0,0,0,0,0,0,0
1683188466.10012102,79728929,1576,1577,1583,1583,0,0,0,0,0,0,0,0,0,0
1683188466.20008087,79828889,1575,1576,1584,1584,0,0,0,0,0,0,0,0,0,0
1683188466.30004096,79928849,1575,1575,1583,1583,0,0,0,0,0,0,0,0,0,0
1683188466.40000105,80028809,1575,1575,1583,1583,0,0,0,0,0,0,0,0,0,0
1683188466.49996090,80128769,1575,1575,1582,1582,0,0,0,0,0,0,0,0,0,0
1683188466.59992099,80228729,1575,1576,1581,1581,0,0,0,0,0,0,0,0,0,0
1683188466.69988108,80328689,1576,1577,1580,1580,0,0,0,0,0,0,0,0,0,0
1683188466.79984093,80428649,1578,1578,1580,1579,0,0,0,0,0,0,0,0,0,0
1683188466.89980102,80528609,1580,1579,1580,1580,0,0,0,0,0,0,0,0,0,0
1683188466.99976087,80628569,1580,1580,1579,1579,0,0,0,0,0,0,0,0,0,0
1683188467.09972095,80728529,1581,1581,1578,1579,0,0,0,0,0,0,0,0,0,0
1683188467.19968104,80828489,1582,1582,1579,1579,0,0,0,0,0,0,0,0,0,0
1683188467.29964089,80928449,1582,1582,1579,1579,0,0,0,0,0,0,0,0,0,0
1683188467.39960098,81028409,1583,1583,1579,1579,0,0,0,0,0,0,0,0,0,0
1683188467.49956107,81128369,1583,1583,1580,1580,0,0,0,0,0,0,0,0,0,0
1683188467.59952092,81228329,1583,1583,1580,1580,0,0,0,0,0,0,0,0,0,0
1683188467.69948101,81328289,1582,1582,1579,1579,0,0,0,0,0,0,0,0,0,0
1683188467.79944086,81428249,1582,1582,1579,1579,0,0,0,0,0,0,0,0,0,0
1683188467.89940095,81528209,1582,1582,1581,1581,0,0,0,0,0,0,0,0,0,0
1683188467.99936104,81628169,1581,1581,1580,1580,0,0,0,0,0,0,0,0,0,0
1683188468.10015392,81728962,1581,1581,1581,1581,0,0,0,0,0,0,0,0,0,0
1683188468.20011401,81828922,1581,1581,1582,1582,0,0,0,0,0,0,0,0,0,0
1683188468.30007386,81928882,1581,1581,1582,1582,0,0,0,0,0,0,0,0,0,0
1683188468.40003395,82028842,1580,1580,1582,1582,0,0,0,0,0,0,0,0,0,0
1683188468.49999404,82128802,1581,1581,1582,1583,0,0,0,0,0,0,0,0,0,0
1683188468.59995389,82228762,1581,1581,1586,1578,0,0,0,0,0,0,0,0,0,0
1683188468.69991398,82328722,1581,1580,1589,1574,0,0,0,0,0,0,0,0,0,0
1683188468.79987407,82428682,1579,1578,1582,1574,0,0,0,0,0,0,0,0,0,0
1683188468.89983392,82528642,1577,1576,1575,1576,0,0,0,0,0,0,0,0,0,0
1683188468.99979401,82628602,1573,1573,1567,1573,0,0,0,0,0,0,0,0,0,0
1683188469.09975410,82728562,1570,1570,1563,1571,0,0,0,0,0,0,0,0,0,0
1683188469.19971395,82828522,1568,1569,1563,1568,0,0,0,0,0,0,0,0,0,0
1683188469.29967403,82928482,1566,1568,1564,1566,0,0,0,0,0,0,0,0,0,0
1683188469.39963388,83028442,1565,1567,1565,1564,0,0,0,0,0,0,0,0,0,0
1683188469.49959397,83128402,1566,1567,1567,1565,0,0,0,0,0,0,0,0,0,0
1683188469.59955406,83228362,1565,1565,1568,1565,0,0,0,0,0,0,0,0,0,0
1683188469.69951391,83328322,1564,1564,1566,1564,0,0,0,0,0,0,0,0,0,0
1683188469.79947400,83428282,1564,1563,1566,1564,0,0,0,0,0,0,0,0,0,0
1683188469.89943409,83528242,1563,1563,1565,1565,0,0,0,0,0,0,0,0,0,0
1683188469.99939394,83628202,1563,1562,1564,1564,0,0,0,0,0,0,0,0,0,0
1683188470.09935403,83728162,1562,1562,1564,1564,0,0,0,0,0,0,0,0,0,0
1683188470.20014691,83828955,1562,1562,1563,1564,0,0,0,0,0,0,0,0,0,0
1683188470.30010700,83928915,1562,1562,1563,1563,0,0,0,0,0,0,0,0,0,0
1683188470.40006709,84028875,1561,1561,1562,1561,0,0,0,0,0,0,0,0,0,0
1683188470.50002694,84128835,1561,1561,1562,1561,0,0,0,0,0,0,0,0,0,0
1683188470.59998703,84228795,1561,1561,1562,1561,0,0,0,0,0,0,0,0,0,0
1683188470.69994688,84328755,1561,1561,1561,1561,0,0,0,0,0,0,0,0,0,0
1683188470.79990697,84428715,1561,1561,1561,1560,0,0,0,0,0,0,0,0,0,0
1683188470.89986706,84528675,1561,1560,1560,1559,0,0,0,0,0,0,0,0,0,0
1683188470.99982691,84628635,1561,1561,1561,1560,0,0,0,0,0,0,0,0,0,0
1683188471.09978700,84728595,1560,1560,1560,1559,0,0,0,0,0,0,0,0,0,0
1683188471.19974709,84828555,1560,1560,1561,1558,0,0,0,0,0,0,0,0,0,0
1683188471.29970694,84928515,1560,1560,1561,1558,0,0,0,0,0,0,0,0,0,0
1683188471.39966702,85028475,1561,1560,1562,1559,0,0,0,0,0,0,0,0,0,0
1683188471.49962687,85128435,1561,1560,1560,1561,0,0,0,0,0,0,0,0,0,0
1683188471.59958696,85228395,1560,1560,1558,1562,0,0,0,0,0,0,0,0,0,0
1683188471.69954705,85328355,1560,1560,1557,1563,0,0,0,0,0,0,0,0,0,0
1683188471.79950690,85428315,1560,1561,1558,1563,0,0,0,0,0,0,0,0,0,0
1683188471.89946699,85528275,1560,1560,1558,1562,0,0,0,0,0,0,0,0,0,0
1683188471.99942708,85628235,1559,1560,1559,1560,0,0,0,0,0,0,0,0,0,0
1683188472.09938693,85728195,1558,1559,1559,1556,0,0,0,0,0,0,0,0,0,0
1683188472.19934702,85828155,1558,1558,1559,1555,0,0,0,0,0,0,0,0,0,0
1683188472.30013990,85928948,1558,1558,1557,1559,0,0,0,0,0,0,0,0,0,0
1683188472.40009999,86028908,1556,1556,1553,1558,0,0,0,0,0,0,0,0,0,0
1683188472.50006008,86128868,1553,1553,1548,1553,0,0,0,0,0,0,0,0,0,0
1683188472.60001993,86228828,1548,1548,1544,1545,0,0,0,0,0,0,0,0,0,0
1683188472.69998002,86328788,1542,1542,1537,1537,0,0,0,0,0,0,0,0,0,0
1683188472.79993987,86428748,1536,1536,1531,1530,0,0,0,0,0,0,0,0,0,0
1683188472.89989996,86528708,1529,1529,1524,1522,0,0,0,0,0,0,0,0,0,0
1683188472.99986005,86628668,1524,1523,1519,1518,0,0,0,0,0,0,0,0,0,0
1683188473.09981990,86728628,1521,1520,1517,1518,0,0,0,0,0,0,0,0,0,0
1683188473.19977999,86828588,1519,1519,1519,1519,0,0,0,0,0,0,0,0,0,0
1683188473.29974008,86928548,1519,1519,1522,1523,0,0,0,0,0,0,0,0,0,0
1683188473.39969993,87028508,1520,1520,1526,1527,0,0,0,0,0,0,0,0,0,0
1683188473.49966002,87128468,1523,1523,1531,1532,0,0,0,0,0,0,0,0,0,0
1683188473.59961987,87228428,1526,1527,1536,1537,0,0,0,0,0,0,0,0,0,0
1683188473.69957995,87328388,1530,1530,1541,1540,0,0,0,0,0,0,0,0,0,0
1683188473.79954004,87428348,1534,1534,1543,1542,0,0,0,0,0,0,0,0,0,0
1683188473.89949989,87528308,1537,1537,1545,1544,0,0,0,0,0,0,0,0,0,0
1683188473.99945998,87628268,1540,1540,1544,1545,0,0,0,0,0,0,0,0,0,0
1683188474.09942007,87728228,1543,1543,1544,1545,0,0,0,0,0,0,0,0,0,0
1683188474.19937992,87828188,1545,1545,1545,1545,0,0,0,0,0,0,0,0,0,0
1683188474.30017304,87928981,1548,1548,1545,1545,0,0,0,0,0,0,0,0,0,0
1683188474.40013289,88028941,1549,1549,1544,1544,0,0,0,0,0,0,0,0,0,0
1683188474.50009298,88128901,1550,1550,1544,1543,0,0,0,0,0,0,0,0,0,0
1683188474.60005307,88228861,1550,1550,1544,1543,0,0,0,0,0,0,0,0,0,0
1683188474.70001292,88328821,1549,1550,1543,1543,0,0,0,0,0,0,0,0,0,0
1683188474.79997301,88428781,1549,1549,1544,1544,0,0,0,0,0,0,0,0,0,0
1683188474.89993286,88528741,1550,1550,1546,1546,0,0,0,0,0,0,0,0,0,0
1683188474.99989295,88628701,1549,1549,1546,1545,0,0,0,0,0,0,0,0,0,0
1683188475.09985304,88728661,1548,1548,1545,1546,0,0,0,0,0,0,0,0,0,0
1683188475.19981289,88828621,1547,1547,1546,1546,0,0,0,0,0,0,0,0,0,0
1683188475.29977298,88928581,1546,1546,1546,1546,0,0,0,0,0,0,0,0,0,0
1683188475.39973307,89028541,1544,1545,1545,1545,0,0,0,0,0,0,0,0,0,0
1683188475.49969292,89128501,1544,1544,1546,1546,0,0,0,0,0,0,0,0,0,0
1683188475.59965301,89228461,1543,1544,1546,1546,0,0,0,0,0,0,0,0,0,0
1683188475.69961309,89328421,1543,1543,1546,1546,0,0,0,0,0,0,0,0,0,0
1683188475.79957294,89428381,1543,1543,1545,1545,0,0,0,0,0,0,0,0,0,0
1683188475.89953303,89528341,1543,1544,1546,1546,0,0,0,0,0,0,0,0,0,0
1683188475.99949288,89628301,1544,1543,1545,1545,0,0,0,0,0,0,0,0,0,0
1683188476.09945297,89728261,1544,1543,1544,1544,0,0,0,0,0,0,0,0,0,0
1683188476.19941306,89828221,1543,1543,1543,1543,0,0,0,0,0,0,0,0,0,0
1683188476.29937291,89928181,1543,1543,1542,1543,0,0,0,0,0,0,0,0,0,0
1683188476.40016603,90028974,1544,1544,1544,1544,0,0,0,0,0,0,0,0,0,0
1683188476.50012589,90128934,1544,1544,1543,1543,0,0,0,0,0,0,0,0,0,0
1683188476.60008597,90228894,1544,1544,1544,1544,0,0,0,0,0,0,0,0,0,0
1683188476.70004606,90328854,1544,1544,1543,1543,0,0,0,0,0,0,0,0,0,0
1683188476.80000591,90428814,1543,1544,1543,1543,0,0,0,0,0,0,0,0,0,0
1683188476.89996600,90528774,1544,1544,1543,1543,0,0,0,0,0,0,0,0,0,0
1683188476.99992609,90628734,1544,1544,1543,1543,0,0,0,0,0,0,0,0,0,0
1683188477.09988594,90728694,1544,1544,1544,1544,0,0,0,0,0,0,0,0,0,0
1683188477.19984603,90828654,1544,1543,1544,1544,0,0,0,0,0,0,0,0,0,0
1683188477.29980588,90928614,1544,1543,1543,1543,0,0,0,0,0,0,0,0,0,0
1683188477.39976597,91028574,1544,1544,1545,1545,0,0,0,0,0,0,0,0,0,0
1683188477.49972606,91128534,1544,1544,1544,1544,0,0,0,0,0,0,0,0,0,0
1683188477.59968591,91228494,1544,1544,1544,1544,0,0,0,0,0,0,0,0,0,0
1683188477.69964600,91328454,1545,1544,1544,1545,0,0,0,0,0,0,0,0,0,0
1683188477.79960608,91428414,1544,1544,1544,1544,0,0,0,0,0,0,0,0,0,0
1683188477.89956594,91528374,1544,1544,1544,1544,0,0,0,0,0,0,0,0,0,0
1683188477.99952602,91628334,1545,1545,1545,1544,0,0,0,0,0,0,0,0,0,0
1683188478.09948587,91728294,1544,1545,1545,1544,0,0,0,0,0,0,0,0,0,0
1683188478.19944596,91828254,1544,1544,1544,1544,0,0,0,0,0,0,0,0,0,0
1683188478.29940605,91928214,1545,1544,1544,1545,0,0,0,0,0,0,0,0,0,0
1683188478.39936590,92028174,1544,1544,1544,1544,0,0,0,0,0,0,0,0,0,0
1683188478.50015903,92128967,1545,1545,1545,1545,0,0,0,0,0,0,0,0,0,0
1683188478.60011888,92228927,1544,1545,1544,1544,0,0,0,0,0,0,0,0,0,0
1683188478.70007896,92328887,1544,1544,1544,1544,0,0,0,0,0,0,0,0,0,0
1683188478.80003905,92428847,1544,1544,1544,1544,0,0,0,0,0,0,0,0,0,0
1683188478.89999890,92528807,1543,1544,1543,1543,0,0,0,0,0,0,0,0,0,0
1683188478.99995899,92628767,1543,1544,1544,1543,0,0,0,0,0,0,0,0,0,0
1683188479.09991908,92728727,1544,1544,1543,1544,0,0,0,0,0,0,0,0,0,0
1683188479.19987893,92828687,1543,1544,1543,1544,0,0,0,0,0,0,0,0,0,0
1683188479.29983902,92928647,1544,1543,1544,1544,0,0,0,0,0,0,0,0,0,0
1683188479.39979887,93028607,1545,1544,1545,1545,0,0,0,0,0,0,0,0,0,0
1683188479.49975896,93128567,1544,1543,1544,1544,0,0,0,0,0,0,0,0,0,0
1683188479.59971905,93228527,1545,1544,1545,1544,0,0,0,0,0,0,0,0,0,0
1683188479.69967890,93328487,1544,1544,1544,1544,0,0,0,0,0,0,0,0,0,0
1683188479.79963899,93428447,1544,1544,1544,1544,0,0,0,0,0,0,0,0,0,0
1683188479.89959908,93528407,1544,1544,1544,1544,0,0,0,0,0,0,0,0,0,0
1683188479.99955893,93628367,1544,1545,1544,1544,0,0,0,0,0,0,0,0,0,0
1683188480.09951901,93728327,1544,1544,1544,1544,0,0,0,0,0,0,0,0,0,0
1683188480.19947886,93828287,1545,1545,1545,1545,0,0,0,0,0,0,0,0,0,0
1683188480.29943895,93928247,1545,1544,1545,1545,0,0,0,0,0,0,0,0,0,0
1683188480.39939904,94028207,1544,1544,1544,1544,0,0,0,0,0,0,0,0,0,0
1683188480.49935889,94128167,1544,1543,1544,1544,0,0,0,0,0,0,0,0,0,0
1683188480.60015202,94228960,1544,1544,1544,1544,0,0,0,0,0,0,0,0,0,0
1683188480.70011187,94328920,1544,1544,1544,1544,0,0,0,0,0,0,0,0,0,0
1683188480.80007195,94428880,1544,1544,1544,1544,0,0,0,0,0,0,0,0,0,0
1683188480.90003204,94528840,1544,1544,1544,1544,0,0,0,0,0,0,0,0,0,0
1683188480.99999189,94628800,1543,1544,1543,1543,0,0,0,0,0,0,0,0,0,0
1683188481.09995198,94728760,1544,1544,1544,1544,0,0,0,0,0,0,0,0,0,0
1683188481.19991207,94828720,1544,1545,1545,1544,0,0,0,0,0,0,0,0,0,0
1683188481.29987192,94928680,1544,1544,1544,1545,0,0,0,0,0,0,0,0,0,0
1683188481.39983201,95028640,1544,1545,1544,1544,0,0,0,0,0,0,0,0,0,0
1683188481.49979186,95128600,1545,1544,1545,1545,0,0,0,0,0,0,0,0,0,0
1683188481.59975195,95228560,1545,1545,1545,1545,0,0,0,0,0,0,0,0,0,0
1683188481.69971204,95328520,1545,1544,1545,1545,0,0,0,0,0,0,0,0,0,0
1683188481.79967189,95428480,1544,1544,1544,1544,0,0,0,0,0,0,0,0,0,0
1683188481.89963198,95528440,1544,1544,1544,1544,0,0,0,0,0,0,0,0,0,0
1683188481.99959207,95628400,1544,1545,1544,1544,0,0,0,0,0,0,0,0,0,0
1683188482.09955192,95728360,1544,1544,1544,1544,0,0,0,0,0,0,0,0,0,0
1683188482.19951200,95828320,1544,1544,1544,1544,0,0,0,0,0,0,0,0,0,0
1683188482.29947209,95928280,1544,1544,1543,1544,0,0,0,0,0,0,0,0,0,0
1683188482.39943194,96028240,1544,1544,1544,1544,0,0,0,0,0,0,0,0,0,0
1683188482.49939203,96128200,1544,1544,1544,1544,0,0,0,0,0,0,0,0,0,0
1683188482.59935188,96228160,1544,1544,1544,1544,0,0,0,0,0,0,0,0,0,0
1683188482.70014501,96328953,1528,1527,1520,1519,0,0,0,0,0,0,0,0,0,0
1683188482.80010509,96428913,1408,1407,1330,1331,0,0,0,0,0,0,0,0,0,0
1683188482.90006495,96528873,1358,1356,1235,1238,0,0,0,0,0,0,0,0,0,0
1683188483.00002503,96628833,1343,1342,1206,1208,0,0,0,0,0,0,0,0,0,0
1683188483.09998488,96728793,1331,1329,1181,1182,0,0,0,0,0,0,0,0,0,0
1683188483.19994497,96828753,1301,1300,1150,1150,0,0,0,0,0,0,0,0,0,0
1683188483.29990506,96928713,1217,1215,1150,1151,0,0,0,0,0,0,0,0,0,0
1683188483.39986491,97028673,1117,1115,1150,1150,0,0,0,0,0,0,0,0,0,0
1683188483.49982500,97128633,1007,1005,1150,1151,0,0,0,0,0,0,0,0,0,0
1683188483.59978509,97228593,960,958,1150,1150,0,0,0,0,0,0,0,0,0,0
1683188483.69974494,97328553,960,958,1150,1150,0,0,0,0,0,0,0,0,0,0
1683188483.79970503,97428513,960,958,1150,1150,0,0,0,0,0,0,0,0,0,0
1683188483.89966488,97528473,959,946,1150,1167,0,0,0,0,0,0,0,0,0,0
1683188483.99962497,97628433,959,951,1150,1161,0,0,0,0,0,0,0,0,0,0
1683188484.09958506,97728393,960,953,1150,1158,0,0,0,0,0,0,0,0,0,0
1683188484.19954491,97828353,960,953,1150,1158,0,0,0,0,0,0,0,0,0,0
1683188484.29950500,97928313,960,953,1150,1158,0,0,0,0,0,0,0,0,0,0
1683188484.39946508,98028273,960,953,1150,1158,0,0,0,0,0,0,0,0,0,0
1683188484.49942493,98128233,960,953,1150,1158,0,0,0,0,0,0,0,0,0,0
1683188484.59938502,98228193,960,953,1150,1158,0,0,0,0,0,0,0,0,0,0
1683188484.70017791,98328986,959,959,1150,1150,0,0,0,0,0,0,0,0,0,0
1683188484.80013800,98428946,960,958,1150,1151,0,0,0,0,0,0,0,0,0,0
1683188484.90009809,98528906,960,958,1150,1151,0,0,0,0,0,0,0,0,0,0
1683188485.00005794,98628866,960,958,1150,1151,0,0,0,0,0,0,0,0,0,0
1683188485.10001802,98728826,941,939,1150,1151,0,0,0,0,0,0,0,0,0,0
1683188485.19997787,98828786,1000,1000,1000,1000,0,0,0,0,0,0,0,0,0,0
1683188485.29993796,98928746,1000,1000,1000,1000,0,0,0,0,0,0,0,0,0,0
1683188485.39989805,99028706,1000,1000,1000,1000,0,0,0,0,0,0,0,0,0,0
1683188485.49985790,99128666,1000,1000,1000,1000,0,0,0,0,0,0,0,0,0,0
1683188485.59981799,99228626,1000,1000,1000,1000,0,0,0,0,0,0,0,0,0,0
1683188485.69977808,99328586,1000,1000,1000,1000,0,0,0,0,0,0,0,0,0,0
1683188485.79973793,99428546,1000,1000,1000,1000,0,0,0,0,0,0,0,0,0,0
1683188485.89969802,99528506,1000,1000,1000,1000,0,0,0,0,0,0,0,0,0,0
1683188485.99965787,99628466,1000,1000,1000,1000,0,0,0,0,0,0,0,0,0,0
1683188486.09961796,99728426,1000,1000,1000,1000,0,0,0,0,0,0,0,0,0,0
1683188486.19957805,99828386,1000,1000,1000,1000,0,0,0,0,0,0,0,0,0,0
1683188486.29953790,99928346,1000,1000,1000,1000,0,0,0,0,0,0,0,0,0,0
1683188486.39949799,100028306,1000,1000,1000,1000,0,0,0,0,0,0,0,0,0,0
1683188486.49945807,100128266,1000,1000,1000,1000,0,0,0,0,0,0,0,0,0,0
1683188486.59941792,100228226,1000,1000,1000,1000,0,0,0,0,0,0,0,0,0,0
1683188486.69937801,100328186,1000,1000,1000,1000,0,0,0,0,0,0,0,0,0,0
1683188486.80017090,100428979,1000,1000,1000,1000,0,0,0,0,0,0,0,0,0,0
1683188486.90013099,100528939,1000,1000,1000,1000,0,0,0,0,0,0,0,0,0,0
1683188487.00009108,100628899,1000,1000,1000,1000,0,0,0,0,0,0,0,0,0,0
1683188487.10005093,100728859,1000,1000,1000,1000,0,0,0,0,0,0,0,0,0,0
1683188487.20001101,100828819,1000,1000,1000,1000,0,0,0,0,0,0,0,0,0,0
1683188487.29997087,100928779,1000,1000,1000,1000,0,0,0,0,0,0,0,0,0,0
1683188487.39993095,101028739,1000,1000,1000,1000,0,0,0,0,0,0,0,0,0,0
1683188487.49989104,101128699,1000,1000,1000,1000,0,0,0,0,0,0,0,0,0,0
1683188487.59985089,101228659,1000,1000,1000,1000,0,0,0,0,0,0,0,0,0,0
1683188487.69981098,101328619,1000,1000,1000,1000,0,0,0,0,0,0,0,0,0,0
1683188487.79977107,101428579,1000,1000,1000,1000,0,0,0,0,0,0,0,0,0,0
1683188487.89973092,101528539,1000,1000,1000,1000,0,0,0,0,0,0,0,0,0,0
1683188487.99969101,101628499,1000,1000,1000,1000,0,0,0,0,0,0,0,0,0,0
1683188488.09965086,101728459,1000,1000,1000,1000,0,0,0,0,0,0,0,0,0,0
1683188488.19961095,101828419,1000,1000,1000,1000,0,0,0,0,0,0,0,0,0,0
1683188488.29957104,101928379,1000,1000,1000,1000,0,0,0,0,0,0,0,0,0,0
1683188488.39953089,102028339,1000,1000,1000,1000,0,0,0,0,0,0,0,0,0,0
1683188488.49949098,102128299,1000,1000,1000,1000,0,0,0,0,0,0,0,0,0,0
1683188488.59945107,102228259,1000,1000,1000,1000,0,0,0,0,0,0,0,0,0,0
1683188488.69941092,102328219,1000,1000,1000,1000,0,0,0,0,0,0,0,0,0,0
1683188488.79937100,102428179,1000,1000,1000,1000,0,0,0,0,0,0,0,0,0,0
1683188488.90016389,102528972,1000,1000,1000,1000,0,0,0,0,0,0,0,0,0,0
1683188489.00012398,102628932,1000,1000,1000,1000,0,0,0,0,0,0,0,0,0,0
1683188489.10008407,102728892,1000,1000,1000,1000,0,0,0,0,0,0,0,0,0,0
1683188489.20004392,102828852,1000,1000,1000,1000,0,0,0,0,0,0,0,0,0,0
1683188489.30000401,102928812,1000,1000,1000,1000,0,0,0,0,0,0,0,0,0,0
1683188489.39996409,103028772,1000,1000,1000,1000,0,0,0,0,0,0,0,0,0,0
1683188489.49992394,103128732,1000,1000,1000,1000,0,0,0,0,0,0,0,0,0,0
1683188489.59988403,103228692,1000,1000,1000,1000,0,0,0,0,0,0,0,0,0,0
1683188489.69984388,103328652,1000,1000,1000,1000,0,0,0,0,0,0,0,0,0,0
1683188489.79980397,103428612,1000,1000,1000,1000,0,0,0,0,0,0,0,0,0,0
1683188489.89976406,103528572,1000,1000,1000,1000,0,0,0,0,0,0,0,0,0,0
1683188489.99972391,103628532,1000,1000,1000,1000,0,0,0,0,0,0,0,0,0,0
1683188490.09968400,103728492,1000,1000,1000,1000,0,0,0,0,0,0,0,0,0,0
1683188490.19964409,103828452,1000,1000,1000,1000,0,0,0,0,0,0,0,0,0,0
1683188490.29960394,103928412,1000,1000,1000,1000,0,0,0,0,0,0,0,0,0,0
1683188490.39956403,104028372,1000,1000,1000,1000,0,0,0,0,0,0,0,0,0,0
1683188490.49952388,104128332,1000,1000,1000,1000,0,0,0,0,0,0,0,0,0,0
1683188490.59948397,104228292,1000,1000,1000,1000,0,0,0,0,0,0,0,0,0,0
1683188490.69944406,104328252,1000,1000,1000,1000,0,0,0,0,0,0,0,0,0,0
1683188490.79940391,104428212,1000,1000,1000,1000,0,0,0,0,0,0,0,0,0,0
1683188490.89936399,104528172,1000,1000,1000,1000,0,0,0,0,0,0,0,0,0,0
1683188491.00015688,104628965,1000,1000,1000,1000,0,0,0,0,0,0,0,0,0,0
1683188491.10011697,104728925,1000,1000,1000,1000,0,0,0,0,0,0,0,0,0,0
1683188491.20007706,104828885,1000,1000,1000,1000,0,0,0,0,0,0,0,0,0,0
1683188491.30003691,104928845,1000,1000,1000,1000,0,0,0,0,0,0,0,0,0,0
1683188491.39999700,105028805,1000,1000,1000,1000,0,0,0,0,0,0,0,0,0,0
1683188491.49995708,105128765,1000,1000,1000,1000,0,0,0,0,0,0,0,0,0,0
1683188491.59991693,105228725,1000,1000,1000,1000,0,0,0,0,0,0,0,0,0,0
1683188491.69987702,105328685,1000,1000,1000,1000,0,0,0,0,0,0,0,0,0,0
1683188491.79983687,105428645,1000,1000,1000,1000,0,0,0,0,0,0,0,0,0,0
1683188491.89979696,105528605,1000,1000,1000,1000,0,0,0,0,0,0,0,0,0,0
1683188491.99975705,105628565,1000,1000,1000,1000,0,0,0,0,0,0,0,0,0,0
1683188492.09971690,105728525,1000,1000,1000,1000,0,0,0,0,0,0,0,0,0,0
1683188492.19967699,105828485,1000,1000,1000,1000,0,0,0,0,0,0,0,0,0,0
1683188492.29963708,105928445,1000,1000,1000,1000,0,0,0,0,0,0,0,0,0,0
1683188492.39959693,106028405,1000,1000,1000,1000,0,0,0,0,0,0,0,0,0,0
1683188492.49955702,106128365,1000,1000,1000,1000,0,0,0,0,0,0,0,0,0,0
1683188492.59951687,106228325,1000,1000,1000,1000,0,0,0,0,0,0,0,0,0,0
1683188492.69947696,106328285,1000,1000,1000,1000,0,0,0,0,0,0,0,0,0,0
1683188492.79943705,106428245,1000,1000,1000,1000,0,0,0,0,0,0,0,0,0,0
1683188492.89939690,106528205,1000,1000,1000,1000,0,0,0,0,0,0,0,0,0,0
1683188492.99935699,106628165,1000,1000,1000,1000,0,0,0,0,0,0,0,0,0,0
1683188493.10014987,106728958,1000,1000,1000,1000,0,0,0,0,0,0,0,0,0,0
1683188493.20010996,106828918,1000,1000,1000,1000,0,0,0,0,0,0,0,0,0,0
1683188493.30007005,106928878,1000,1000,1000,1000,0,0,0,0,0,0,0,0,0,0
1683188493.40002990,107028838,1000,1000,1000,1000,0,0,0,0,0,0,0,0,0,0
1683188493.49998999,107128798,1000,1000,1000,1000,0,0,0,0,0,0,0,0,0,0
1683188493.59995008,107228758,1000,1000,1000,1000,0,0,0,0,0,0,0,0,0,0
1683188493.69990993,107328718,1000,1000,1000,1000,0,0,0,0,0,0,0,0,0,0
1683188493.79987001,107428678,1000,1000,1000,1000,0,0,0,0,0,0,0,0,0,0
1683188493.89982986,107528638,1000,1000,1000,1000,0,0,0,0,0,0,0,0,0,0
1683188493.99978995,107628598,1000,1000,1000,1000,0,0,0,0,0,0,0,0,0,0
1683188494.09975004,107728558,1000,1000,1000,1000,0,0,0,0,0,0,0,0,0,0
1683188494.19970989,107828518,1000,1000,1000,1000,0,0,0,0,0,0,0,0,0,0
1683188494.29966998,107928478,1000,1000,1000,1000,0,0,0,0,0,0,0,0,0,0
1683188494.39963007,108028438,1000,1000,1000,1000,0,0,0,0,0,0,0,0,0,0
1683188494.49958992,108128398,1000,1000,1000,1000,0,0,0,0,0,0,0,0,0,0
1683188494.59955001,108228358,1000,1000,1000,1000,0,0,0,0,0,0,0,0,0,0
1683188494.69951010,108328318,1000,1000,1000,1000,0,0,0,0,0,0,0,0,0,0
1683188494.79946995,108428278,1000,1000,1000,1000,0,0,0,0,0,0,0,0,0,0
1683188494.89943004,108528238,1000,1000,1000,1000,0,0,0,0,0,0,0,0,0,0
1683188494.99938989,108628198,1000,1000,1000,1000,0,0,0,0,0,0,0,0,0,0
1683188495.09934998,108728158,1000,1000,1000,1000,0,0,0,0,0,0,0,0,0,0
1683188495.20014286,108828951,1000,1000,1000,1000,0,0,0,0,0,0,0,0,0,0
1683188495.30010295,108928911,1000,1000,1000,1000,0,0,0,0,0,0,0,0,0,0
1683188495.40006304,109028871,1000,1000,1000,1000,0,0,0,0,0,0,0,0,0,0
1683188495.50002289,109128831,1000,1000,1000,1000,0,0,0,0,0,0,0,0,0,0
1683188495.59998298,109228791,1000,1000,1000,1000,0,0,0,0,0,0,0,0,0,0
1683188495.69994307,109328751,1000,1000,1000,1000,0,0,0,0,0,0,0,0,0,0
1683188495.79990292,109428711,1000,1000,1000,1000,0,0,0,0,0,0,0,0,0,0
1683188495.89986300,109528671,1000,1000,1000,1000,0,0,0,0,0,0,0,0,0,0
1683188495.99982309,109628631,1000,1000,1000,1000,0,0,0,0,0,0,0,0,0,0
1683188496.09978294,109728591,1000,1000,1000,1000,0,0,0,0,0,0,0,0,0,0
1683188496.19974303,109828551,1000,1000,1000,1000,0,0,0,0,0,0,0,0,0,0
1683188496.29970288,109928511,1000,1000,1000,1000,0,0,0,0,0,0,0,0,0,0
1683188496.39966297,110028471,1000,1000,1000,1000,0,0,0,0,0,0,0,0,0,0
1683188496.49962306,110128431,1000,1000,1000,1000,0,0,0,0,0,0,0,0,0,0
1683188496.59958291,110228391,1000,1000,1000,1000,0,0,0,0,0,0,0,0,0,0
1683188496.69954300,110328351,1000,1000,1000,1000,0,0,0,0,0,0,0,0,0,0
1683188496.79950309,110428311,1000,1000,1000,1000,0,0,0,0,0,0,0,0,0,0
1683188496.89946294,110528271,1000,1000,1000,1000,0,0,0,0,0,0,0,0,0,0
1683188496.99942303,110628231,1000,1000,1000,1000,0,0,0,0,0,0,0,0,0,0
1683188497.09938288,110728191,1000,1000,1000,1000,0,0,0,0,0,0,0,0,0,0
1683188497.20017600,110828984,1000,1000,1000,1000,0,0,0,0,0,0,0,0,0,0
1683188497.30013609,110928944,1000,1000,1000,1000,0,0,0,0,0,0,0,0,0,0
1683188497.40009594,111028904,1000,1000,1000,1000,0,0,0,0,0,0,0,0,0,0
1683188497.50005603,111128864,1000,1000,1000,1000,0,0,0,0,0,0,0,0,0,0
1683188497.60001588,111228824,1000,1000,1000,1000,0,0,0,0,0,0,0,0,0,0
1683188497.69997597,111328784,1000,1000,1000,1000,0,0,0,0,0,0,0,0,0,0
1683188497.79993606,111428744,1000,1000,1000,1000,0,0,0,0,0,0,0,0,0,0
1683188497.89989591,111528704,1000,1000,1000,1000,0,0,0,0,0,0,0,0,0,0
1683188497.99985600,111628664,1000,1000,1000,1000,0,0,0,0,0,0,0,0,0,0
1683188498.09981608,111728624,1000,1000,1000,1000,0,0,0,0,0,0,0,0,0,0
1683188498.19977593,111828584,1000,1000,1000,1000,0,0,0,0,0,0,0,0,0,0
1683188498.29973602,111928544,1000,1000,1000,1000,0,0,0,0,0,0,0,0,0,0
1683188498.39969587,112028504,1000,1000,1000,1000,0,0,0,0,0,0,0,0,0,0
1683188498.49965596,112128464,1000,1000,1000,1000,0,0,0,0,0,0,0,0,0,0
1683188498.59961605,112228424,1000,1000,1000,1000,0,0,0,0,0,0,0,0,0,0
1683188498.69957590,112328384,1000,1000,1000,1000,0,0,0,0,0,0,0,0,0,0
1683188498.79953599,112428344,1000,1000,1000,1000,0,0,0,0,0,0,0,0,0,0
1683188498.89949608,112528304,1000,1000,1000,1000,0,0,0,0,0,0,0,0,0,0
1683188498.99945593,112628264,1000,1000,1000,1000,0,0,0,0,0,0,0,0,0,0
1683188499.09941602,112728224,1000,1000,1000,1000,0,0,0,0,0,0,0,0,0,0
1683188499.19937587,112828184,1000,1000,1000,1000,0,0,0,0,0,0,0,0,0,0
1683188499.30016899,112928977,1000,1000,1000,1000,0,0,0,0,0,0,0,0,0,0
1683188499.40012908,113028937,1000,1000,1000,1000,0,0,0,0,0,0,0,0,0,0
1683188499.50008893,113128897,1000,1000,1000,1000,0,0,0,0,0,0,0,0,0,0
1683188499.60004902,113228857,1000,1000,1000,1000,0,0,0,0,0,0,0,0,0,0
1683188499.70000887,113328817,1000,1000,1000,1000,0,0,0,0,0,0,0,0,0,0
1683188499.79996896,113428777,1000,1000,1000,1000,0,0,0,0,0,0,0,0,0,0
1683188499.89992905,113528737,1000,1000,1000,1000,0,0,0,0,0,0,0,0,0,0
1683188499.99988890,113628697,1000,1000,1000,1000,0,0,0,0,0,0,0,0,0,0
1683188500.09984899,113728657,1000,1000,1000,1000,0,0,0,0,0,0,0,0,0,0
