TimeUS,M1,M2,M3,M4,TimeUS,C1,C2,C3,C4
48616379,1000,1000,1000,1000,48628874,1000,1000,1000,1000
48618878,1000,1000,1000,1000,48728834,1000,1000,1000,1000
48621377,1000,1000,1000,1000,48828794,1000,1000,1000,1000
48623876,1000,1000,1000,1000,48928754,1000,1000,1000,1000
48626375,1000,1000,1000,1000,49028714,1000,1000,1000,1000
48628874,1000,1000,1000,1000,49128674,1000,1000,1000,1000
48631373,1000,1000,1000,1000,49228634,1000,1000,1000,1000
48633872,1000,1000,1000,1000,49328594,1000,1000,1000,1000
48636371,1000,1000,1000,1000,49428554,1000,1000,1000,1000
48638870,1000,1000,1000,1000,49528514,1000,1000,1000,1000
48641369,1000,1000,1000,1000,49628474,1000,1000,1000,1000
48643868,1000,1000,1000,1000,49728434,1000,1000,1000,1000
48646367,1000,1000,1000,1000,49828394,1000,1000,1000,1000
48648866,1000,1000,1000,1000,49928354,1000,1000,1000,1000
48651365,1000,1000,1000,1000,50028314,1000,1000,1000,1000
48653864,1000,1000,1000,1000,50128274,1000,1000,1000,1000
48656363,1000,1000,1000,1000,50228234,1000,1000,1000,1000
48658862,1000,1000,1000,1000,50328194,1000,1000,1000,1000
48661361,1000,1000,1000,1000,50428154,1000,1000,1000,1000
48663860,1000,1000,1000,1000,50528947,1000,1000,1000,1000
48666359,1000,1000,1000,1000,50628907,1003,1003,1003,1003
48668858,1000,1000,1000,1000,50728867,1033,1033,1033,1033
48671357,1000,1000,1000,1000,50828827,1063,1063,1063,1063
48673856,1000,1000,1000,1000,50928787,1093,1093,1093,1093
48676355,1000,1000,1000,1000,51028747,1123,1123,1123,1123
48678854,1000,1000,1000,1000,51128707,1185,1178,1178,1185
48681353,1000,1000,1000,1000,51228667,1424,1419,1420,1425
48683852,1000,1000,1000,1000,51328627,1599,1594,1594,1599
48686351,1000,1000,1000,1000,51428587,1743,1739,1739,1743
48688850,1000,1000,1000,1000,51528547,1869,1865,1865,1869
48691349,1000,1000,1000,1000,51628507,1890,1886,1887,1890
48693848,1000,1000,1000,1000,51728467,1796,1795,1795,1796
48696347,1000,1000,1000,1000,51828427,1679,1680,1680,1679
48698846,1000,1000,1000,1000,51928387,1629,1631,1631,1629
48701345,1000,1000,1000,1000,52028347,1627,1630,1630,1627
48703844,1000,1000,1000,1000,52128307,1637,1639,1638,1637
48706343,1000,1000,1000,1000,52228267,1639,1640,1640,1639
48708842,1000,1000,1000,1000,52328227,1633,1632,1632,1633
48711341,1000,1000,1000,1000,52428187,1625,1624,1623,1625
48713840,1000,1000,1000,1000,52528980,1618,1617,1617,1619
48716339,1000,1000,1000,1000,52628940,1616,1615,1616,1616
48718838,1000,1000,1000,1000,52728900,1616,1616,1616,1615
48721337,1000,1000,1000,1000,52828860,1616,1616,1616,1616
48723836,1000,1000,1000,1000,52928820,1618,1618,1618,1618
48726335,1000,1000,1000,1000,53028780,1619,1619,1619,1619
48728834,1000,1000,1000,1000,53128740,1620,1620,1620,1620
48731333,1000,1000,1000,1000,53228700,1604,1605,1605,1604
48733832,1000,1000,1000,1000,53328660,1584,1583,1584,1584
48736331,1000,1000,1000,1000,53428620,1574,1574,1574,1574
48738830,1000,1000,1000,1000,53528580,1565,1565,1565,1565
48741329,1000,1000,1000,1000,53628540,1556,1556,1555,1557
48743828,1000,1000,1000,1000,53728500,1548,1548,1547,1549
48746327,1000,1000,1000,1000,53828460,1541,1540,1540,1541
48748826,1000,1000,1000,1000,53928420,1532,1531,1531,1532
48751325,1000,1000,1000,1000,54028380,1521,1522,1521,1522
48753824,1000,1000,1000,1000,54128340,1514,1514,1513,1514
48756323,1000,1000,1000,1000,54228300,1509,1510,1509,1510
48758822,1000,1000,1000,1000,54328260,1506,1506,1505,1507
48761321,1000,1000,1000,1000,54428220,1504,1503,1503,1504
48763820,1000,1000,1000,1000,54528180,1501,1500,1500,1501
48766319,1000,1000,1000,1000,54628973,1498,1498,1497,1498
48768818,1000,1000,1000,1000,54728933,1497,1496,1496,1497
48771317,1000,1000,1000,1000,54828893,1495,1496,1495,1495
48773816,1000,1000,1000,1000,54928853,1494,1495,1494,1495
48776315,1000,1000,1000,1000,55028813,1494,1494,1494,1495
48778814,1000,1000,1000,1000,55128773,1501,1501,1501,1501
48781313,1000,1000,1000,1000,55228733,1537,1537,1543,1530
48783812,1000,1000,1000,1000,55328693,1550,1549,1554,1545
48786311,1000,1000,1000,1000,55428653,1559,1558,1559,1559
48788810,1000,1000,1000,1000,55528613,1565,1565,1562,1569
48791309,1000,1000,1000,1000,55628573,1568,1569,1563,1573
48793808,1000,1000,1000,1000,55728533,1570,1571,1566,1575
48796307,1000,1000,1000,1000,55828493,1572,1572,1569,1575
48798806,1000,1000,1000,1000,55928453,1574,1574,1574,1573
48801305,1000,1000,1000,1000,56028413,1575,1575,1578,1572
48803804,1000,1000,1000,1000,56128373,1576,1576,1579,1572
48806303,1000,1000,1000,1000,56228333,1575,1576,1578,1573
48808802,1000,1000,1000,1000,56328293,1574,1574,1575,1573
48811301,1000,1000,1000,1000,56428253,1573,1573,1572,1575
48813800,1000,1000,1000,1000,56528213,1567,1567,1574,1578
48816299,1000,1000,1000,1000,56628173,1566,1566,1573,1577
48818798,1000,1000,1000,1000,56728966,1567,1567,1573,1575
48821297,1000,1000,1000,1000,56828926,1567,1568,1571,1572
48823796,1000,1000,1000,1000,56928886,1569,1569,1570,1570
48826295,1000,1000,1000,1000,57028846,1570,1571,1569,1568
48828794,1000,1000,1000,1000,57128806,1572,1572,1569,1567
48831293,1000,1000,1000,1000,57228766,1572,1572,1567,1567
48833792,1000,1000,1000,1000,57328726,1573,1573,1567,1567
48836291,1000,1000,1000,1000,57428686,1574,1574,1568,1569
48838790,1000,1000,1000,1000,57528646,1573,1572,1567,1569
48841289,1000,1000,1000,1000,57628606,1573,1573,1570,1570
48843788,1000,1000,1000,1000,57728566,1573,1573,1571,1572
48846287,1000,1000,1000,1000,57828526,1574,1575,1574,1573
48848786,1000,1000,1000,1000,57928486,1574,1574,1575,1574
48851285,1000,1000,1000,1000,58028446,1575,1574,1577,1575
48853784,1000,1000,1000,1000,58128406,1575,1575,1578,1576
48856283,1000,1000,1000,1000,58228366,1575,1576,1578,1577
48858782,1000,1000,1000,1000,58328326,1576,1576,1578,1578
48861281,1000,1000,1000,1000,58428286,1576,1576,1577,1578
48863780,1000,1000,1000,1000,58528246,1577,1577,1578,1578
48866279,1000,1000,1000,1000,58628206,1576,1576,1577,1578
48868778,1000,1000,1000,1000,58728166,1577,1577,1578,1578
48871277,1000,1000,1000,1000,58828959,1577,1578,1578,1577
48873776,1000,1000,1000,1000,58928919,1578,1578,1578,1577
48876275,1000,1000,1000,1000,59028879,1578,1579,1578,1578
48878774,1000,1000,1000,1000,59128839,1579,1578,1578,1577
48881273,1000,1000,1000,1000,59228799,1579,1579,1578,1578
48883772,1000,1000,1000,1000,59328759,1579,1579,1578,1578
48886271,1000,1000,1000,1000,59428719,1579,1579,1578,1578
48888770,1000,1000,1000,1000,59528679,1579,1579,1579,1579
48891269,1000,1000,1000,1000,59628639,1580,1579,1579,1579
48893768,1000,1000,1000,1000,59728599,1579,1580,1580,1579
48896267,1000,1000,1000,1000,59828559,1579,1580,1580,1579
48898766,1000,1000,1000,1000,59928519,1579,1578,1579,1579
48901265,1000,1000,1000,1000,60028479,1580,1580,1580,1580
48903764,1000,1000,1000,1000,60128439,1580,1579,1580,1580
48906263,1000,1000,1000,1000,60228399,1579,1579,1580,1580
48908762,1000,1000,1000,1000,60328359,1579,1579,1579,1579
48911261,1000,1000,1000,1000,60428319,1579,1579,1579,1579
48913760,1000,1000,1000,1000,60528279,1580,1580,1580,1580
48916259,1000,1000,1000,1000,60628239,1580,1580,1580,1580
48918758,1000,1000,1000,1000,60728199,1579,1579,1579,1579
48921257,1000,1000,1000,1000,60828159,1579,1579,1579,1579
48923756,1000,1000,1000,1000,60928952,1580,1580,1580,1580
48926255,1000,1000,1000,1000,61028912,1579,1580,1579,1580
48928754,1000,1000,1000,1000,61128872,1581,1581,1580,1581
48931253,1000,1000,1000,1000,61228832,1580,1580,1580,1580
48933752,1000,1000,1000,1000,61328792,1580,1580,1581,1580
48936251,1000,1000,1000,1000,61428752,1581,1582,1582,1581
48938750,1000,1000,1000,1000,61528712,1581,1581,1581,1581
48941249,1000,1000,1000,1000,61628672,1580,1580,1580,1580
48943748,1000,1000,1000,1000,61728632,1581,1581,1581,1581
48946247,1000,1000,1000,1000,61828592,1580,1580,1580,1580
48948746,1000,1000,1000,1000,61928552,1580,1580,1581,1580
48951245,1000,1000,1000,1000,62028512,1581,1581,1581,1581
48953744,1000,1000,1000,1000,62128472,1581,1582,1582,1582
48956243,1000,1000,1000,1000,62228432,1581,1581,1581,1581
48958742,1000,1000,1000,1000,62328392,1582,1582,1582,1582
48961241,1000,1000,1000,1000,62428352,1582,1581,1582,1581
48963740,1000,1000,1000,1000,62528312,1580,1580,1580,1581
48966239,1000,1000,1000,1000,62628272,1581,1581,1581,1581
48968738,1000,1000,1000,1000,62728232,1581,1582,1585,1578
48971237,1000,1000,1000,1000,62828192,1580,1582,1587,1573
48973736,1000,1000,1000,1000,62928985,1579,1582,1581,1573
48976235,1000,1000,1000,1000,63028945,1578,1581,1573,1573
48978734,1000,1000,1000,1000,63128905,1577,1579,1564,1570
48981233,1000,1000,1000,1000,63228865,1577,1578,1559,1566
48983732,1000,1000,1000,1000,63328825,1579,1578,1556,1562
48986231,1000,1000,1000,1000,63428785,1579,1577,1555,1557
48988730,1000,1000,1000,1000,63528745,1579,1577,1555,1555
48991229,1000,1000,1000,1000,63628705,1579,1578,1556,1554
48993728,1000,1000,1000,1000,63728665,1578,1578,1556,1554
48996227,1000,1000,1000,1000,63828625,1577,1578,1556,1554
48998726,1000,1000,1000,1000,63928585,1576,1577,1556,1555
49001225,1000,1000,1000,1000,64028545,1575,1577,1555,1554
49003724,1000,1000,1000,1000,64128505,1575,1576,1553,1553
49006223,1000,1000,1000,1000,64228465,1576,1578,1552,1552
49008722,1000,1000,1000,1000,64328425,1577,1578,1549,1550
49011221,1000,1000,1000,1000,64428385,1579,1580,1546,1547
49013720,1000,1000,1000,1000,64528345,1582,1582,1544,1544
49016219,1000,1000,1000,1000,64628305,1584,1585,1541,1541
49018718,1000,1000,1000,1000,64728265,1587,1587,1538,1538
49021217,1000,1000,1000,1000,64828225,1591,1591,1537,1536
49023716,1000,1000,1000,1000,64928185,1593,1593,1535,1535
49026215,1000,1000,1000,1000,65028978,1594,1594,1535,1535
49028714,1000,1000,1000,1000,65128938,1595,1594,1536,1537
49031213,1000,1000,1000,1000,65228898,1593,1593,1537,1539
49033712,1000,1000,1000,1000,65328858,1591,1589,1541,1544
49036211,1000,1000,1000,1000,65428818,1587,1585,1547,1551
49038710,1000,1000,1000,1000,65528778,1580,1577,1556,1559
49041209,1000,1000,1000,1000,65628738,1571,1567,1566,1569
49043708,1000,1000,1000,1000,65728698,1561,1557,1579,1581
49046207,1000,1000,1000,1000,65828658,1549,1546,1590,1591
49048706,1000,1000,1000,1000,65928618,1539,1537,1601,1601
49051205,1000,1000,1000,1000,66028578,1533,1532,1609,1608
49053704,1000,1000,1000,1000,66128538,1529,1530,1614,1612
49056203,1000,1000,1000,1000,66228498,1529,1531,1614,1613
49058702,1000,1000,1000,1000,66328458,1533,1535,1612,1612
49061201,1000,1000,1000,1000,66428418,1540,1542,1607,1607
49063700,1000,1000,1000,1000,66528378,1548,1549,1601,1601
49066199,1000,1000,1000,1000,66628338,1375,1377,1621,1623
49068698,1000,1000,1000,1000,66728298,1443,1448,1634,1637
49071197,1000,1000,1000,1000,66828258,1496,1501,1622,1619
49073696,1000,1000,1000,1000,66928218,1544,1548,1603,1597
49076195,1000,1000,1000,1000,67028178,1580,1580,1586,1580
49078694,1000,1000,1000,1000,67128971,1605,1600,1578,1574
49081193,1000,1000,1000,1000,67228931,1619,1612,1572,1572
49083692,1000,1000,1000,1000,67328891,1628,1620,1567,1571
49086191,1000,1000,1000,1000,67428851,1642,1637,1549,1554
49088690,1000,1000,1000,1000,67528811,1654,1652,1534,1539
49091189,1000,1000,1000,1000,67628771,1657,1656,1528,1532
49093688,1000,1000,1000,1000,67728731,1651,1651,1533,1536
49096187,1000,1000,1000,1000,67828691,1640,1642,1542,1544
49098686,1000,1000,1000,1000,67928651,1627,1627,1555,1555
49101185,1000,1000,1000,1000,68028611,1611,1609,1573,1571
49103684,1000,1000,1000,1000,68128571,1592,1589,1591,1589
49106183,1000,1000,1000,1000,68228531,1574,1572,1604,1602
49108682,1000,1000,1000,1000,68328491,1563,1562,1609,1608
49111181,1000,1000,1000,1000,68428451,1557,1558,1608,1607
49113680,1000,1000,1000,1000,68528411,1554,1558,1605,1604
49116179,1000,1000,1000,1000,68628371,1556,1560,1601,1600
49118678,1000,1000,1000,1000,68728331,1559,1563,1597,1596
49121177,1000,1000,1000,1000,68828291,1562,1565,1592,1591
49123676,1000,1000,1000,1000,68928251,1567,1568,1588,1586
49126175,1000,1000,1000,1000,69028211,1571,1571,1584,1583
49128674,1000,1000,1000,1000,69128171,1575,1574,1581,1580
49131173,1000,1000,1000,1000,69228964,1579,1577,1579,1579
49133672,1000,1000,1000,1000,69328924,1581,1580,1576,1577
49136171,1000,1000,1000,1000,69428884,1582,1581,1573,1574
49138670,1000,1000,1000,1000,69528844,1583,1582,1572,1573
49141169,1000,1000,1000,1000,69628804,1584,1584,1572,1572
49143668,1000,1000,1000,1000,69728764,1584,1585,1572,1572
49146167,1000,1000,1000,1000,69828724,1586,1585,1573,1573
49148666,1000,1000,1000,1000,69928684,1586,1586,1573,1573
49151165,1000,1000,1000,1000,70028644,1586,1585,1573,1573
49153664,1000,1000,1000,1000,70128604,1585,1585,1574,1574
49156163,1000,1000,1000,1000,70228564,1585,1584,1574,1574
49158662,1000,1000,1000,1000,70328524,1585,1584,1575,1575
49161161,1000,1000,1000,1000,70428484,1584,1584,1575,1576
49163660,1000,1000,1000,1000,70528444,1584,1584,1577,1577
49166159,1000,1000,1000,1000,70628404,1583,1583,1577,1577
49168658,1000,1000,1000,1000,70728364,1583,1582,1580,1576
49171157,1000,1000,1000,1000,70828324,1584,1581,1585,1572
49173656,1000,1000,1000,1000,70928284,1583,1579,1579,1572
49176155,1000,1000,1000,1000,71028244,1581,1578,1572,1572
49178654,1000,1000,1000,1000,71128204,1578,1579,1566,1571
49181153,1000,1000,1000,1000,71228164,1575,1578,1561,1565
49183652,1000,1000,1000,1000,71328957,1574,1578,1560,1563
49186151,1000,1000,1000,1000,71428917,1573,1577,1558,1559
49188650,1000,1000,1000,1000,71528877,1572,1575,1557,1556
49191149,1000,1000,1000,1000,71628837,1574,1575,1558,1555
49193648,1000,1000,1000,1000,71728797,1573,1573,1555,1553
49196147,1000,1000,1000,1000,71828757,1574,1573,1554,1553
49198646,1000,1000,1000,1000,71928717,1574,1573,1553,1553
49201145,1000,1000,1000,1000,72028677,1574,1574,1551,1551
49203644,1000,1000,1000,1000,72128637,1574,1575,1550,1551
49206143,1000,1000,1000,1000,72228597,1574,1576,1548,1548
49208642,1000,1000,1000,1000,72328557,1575,1577,1545,1546
49211141,1000,1000,1000,1000,72428517,1576,1578,1543,1542
49213640,1000,1000,1000,1000,72528477,1578,1580,1541,1540
49216139,1000,1000,1000,1000,72628437,1581,1582,1540,1540
49218638,1000,1000,1000,1000,72728397,1584,1584,1539,1538
49221137,1000,1000,1000,1000,72828357,1586,1586,1537,1537
49223636,1000,1000,1000,1000,72928317,1588,1588,1537,1537
49226135,1000,1000,1000,1000,73028277,1589,1589,1536,1537
49228634,1000,1000,1000,1000,73128237,1589,1588,1537,1539
49231133,1000,1000,1000,1000,73228197,1589,1588,1540,1542
49233632,1000,1000,1000,1000,73328157,1587,1585,1543,1546
49236131,1000,1000,1000,1000,73428950,1583,1581,1548,1551
49238630,1000,1000,1000,1000,73528910,1578,1577,1553,1557
49241129,1000,1000,1000,1000,73628870,1573,1572,1559,1563
49243628,1000,1000,1000,1000,73728830,1567,1566,1566,1569
49246127,1000,1000,1000,1000,73828790,1561,1560,1574,1575
49248626,1000,1000,1000,1000,73928750,1556,1554,1581,1582
49251125,1000,1000,1000,1000,74028710,1550,1549,1588,1588
49253624,1000,1000,1000,1000,74128670,1545,1543,1594,1594
49256123,1000,1000,1000,1000,74228630,1541,1540,1600,1600
49258622,1000,1000,1000,1000,74328590,1536,1536,1605,1603
49261121,1000,1000,1000,1000,74428550,1534,1535,1607,1606
49263620,1000,1000,1000,1000,74528510,1534,1536,1607,1606
49266119,1000,1000,1000,1000,74628470,1538,1540,1603,1603
49268618,1000,1000,1000,1000,74728430,1543,1545,1598,1598
49271117,1000,1000,1000,1000,74828390,1550,1552,1592,1592
49273616,1000,1000,1000,1000,74928350,1558,1559,1585,1585
49276115,1000,1000,1000,1000,75028310,1566,1566,1579,1579
49278614,1000,1000,1000,1000,75128270,1573,1573,1575,1574
49281113,1000,1000,1000,1000,75228230,1579,1577,1571,1570
49283612,1000,1000,1000,1000,75328190,1583,1581,1569,1569
49286111,1000,1000,1000,1000,75428983,1585,1584,1569,1569
49288610,1000,1000,1000,1000,75528943,1586,1584,1569,1569
49291109,1000,1000,1000,1000,75628903,1587,1585,1570,1570
49293608,1000,1000,1000,1000,75728863,1586,1585,1571,1571
49296107,1000,1000,1000,1000,75828823,1585,1585,1572,1573
49298606,1000,1000,1000,1000,75928783,1583,1584,1574,1574
49301105,1000,1000,1000,1000,76028743,1583,1583,1576,1576
49303604,1000,1000,1000,1000,76128703,1581,1582,1577,1577
49306103,1000,1000,1000,1000,76228663,1581,1581,1579,1578
49308602,1000,1000,1000,1000,76328623,1579,1579,1579,1579
49311101,1000,1000,1000,1000,76428583,1579,1579,1580,1580
49313600,1000,1000,1000,1000,76528543,1578,1578,1580,1581
49316099,1000,1000,1000,1000,76628503,1576,1577,1580,1580
49318598,1000,1000,1000,1000,76728463,1577,1577,1581,1581
49321097,1000,1000,1000,1000,76828423,1576,1576,1580,1581
49323596,1000,1000,1000,1000,76928383,1576,1576,1581,1581
49326095,1000,1000,1000,1000,77028343,1576,1576,1580,1580
49328594,1000,1000,1000,1000,77128303,1577,1578,1581,1581
49331093,1000,1000,1000,1000,77228263,1577,1578,1581,1580
49333592,1000,1000,1000,1000,77328223,1578,1579,1580,1580
49336091,1000,1000,1000,1000,77428183,1579,1578,1579,1579
49338590,1000,1000,1000,1000,77528976,1580,1580,1580,1580
49341089,1000,1000,1000,1000,77628936,1580,1580,1579,1579
49343588,1000,1000,1000,1000,77728896,1580,1580,1578,1578
49346087,1000,1000,1000,1000,77828856,1581,1581,1579,1579
49348586,1000,1000,1000,1000,77928816,1581,1581,1578,1579
49351085,1000,1000,1000,1000,78028776,1581,1581,1578,1578
49353584,1000,1000,1000,1000,78128736,1582,1582,1580,1580
49356083,1000,1000,1000,1000,78228696,1582,1582,1581,1580
49358582,1000,1000,1000,1000,78328656,1582,1582,1581,1580
49361081,1000,1000,1000,1000,78428616,1582,1582,1581,1581
49363580,1000,1000,1000,1000,78528576,1581,1581,1580,1581
49366079,1000,1000,1000,1000,78628536,1581,1581,1580,1581
49368578,1000,1000,1000,1000,78728496,1581,1581,1581,1581
49371077,1000,1000,1000,1000,78828456,1581,1580,1580,1581
49373576,1000,1000,1000,1000,78928416,1580,1580,1581,1580
49376075,1000,1000,1000,1000,79028376,1581,1581,1581,1581
49378574,1000,1000,1000,1000,79128336,1581,1581,1581,1581
49381073,1000,1000,1000,1000,79228296,1581,1581,1581,1581
49383572,1000,1000,1000,1000,79328256,1582,1582,1582,1582
49386071,1000,1000,1000,1000,79428216,1581,1580,1581,1581
49388570,1000,1000,1000,1000,79528176,1581,1581,1587,1574
49391069,1000,1000,1000,1000,79628969,1580,1581,1585,1573
49393568,1000,1000,1000,1000,79728929,1580,1581,1577,1574
49396067,1000,1000,1000,1000,79828889,1578,1580,1568,1572
49398566,1000,1000,1000,1000,79928849,1577,1579,1562,1568
49401065,1000,1000,1000,1000,80028809,1576,1578,1557,1563
49403564,1000,1000,1000,1000,80128769,1577,1578,1555,1559
49406063,1000,1000,1000,1000,80228729,1577,1577,1555,1556
49408562,1000,1000,1000,1000,80328689,1578,1577,1556,1555
49411061,1000,1000,1000,1000,80428649,1578,1577,1556,1553
49413560,1000,1000,1000,1000,80528609,1578,1577,1557,1555
49416059,1000,1000,1000,1000,80628569,1576,1576,1555,1554
49418558,1000,1000,1000,1000,80728529,1575,1576,1554,1554
49421057,1000,1000,1000,1000,80828489,1575,1576,1553,1553
49423556,1000,1000,1000,1000,80928449,1575,1577,1552,1553
49426055,1000,1000,1000,1000,81028409,1576,1578,1551,1551
49428554,1000,1000,1000,1000,81128369,1577,1579,1550,1549
49431053,1000,1000,1000,1000,81228329,1579,1581,1548,1547
49433552,1000,1000,1000,1000,81328289,1581,1582,1545,1545
49436051,1000,1000,1000,1000,81428249,1584,1584,1544,1543
49438550,1000,1000,1000,1000,81528209,1585,1586,1540,1540
49441049,1000,1000,1000,1000,81628169,1587,1588,1539,1538
49443548,1000,1000,1000,1000,81728962,1590,1590,1539,1539
49446047,1000,1000,1000,1000,81828922,1591,1590,1538,1539
49448546,1000,1000,1000,1000,81928882,1591,1591,1539,1540
49451045,1000,1000,1000,1000,82028842,1590,1590,1540,1543
49453544,1000,1000,1000,1000,82128802,1589,1589,1543,1547
49456043,1000,1000,1000,1000,82228762,1586,1585,1548,1551
49458542,1000,1000,1000,1000,82328722,1582,1580,1556,1559
49461041,1000,1000,1000,1000,82428682,1575,1572,1564,1567
49463540,1000,1000,1000,1000,82528642,1567,1563,1575,1577
49466039,1000,1000,1000,1000,82628602,1556,1553,1586,1587
49468538,1000,1000,1000,1000,82728562,1547,1544,1597,1596
49471037,1000,1000,1000,1000,82828522,1539,1538,1605,1604
49473536,1000,1000,1000,1000,82928482,1534,1534,1610,1610
49476035,1000,1000,1000,1000,83028442,1531,1533,1612,1611
49478534,1000,1000,1000,1000,83128402,1533,1534,1611,1610
49481033,1000,1000,1000,1000,83228362,1536,1539,1608,1608
49483532,1000,1000,1000,1000,83328322,1542,1544,1602,1602
49486031,1000,1000,1000,1000,83428282,1549,1551,1596,1595
49488530,1000,1000,1000,1000,83528242,1558,1559,1589,1589
49491029,1000,1000,1000,1000,83628202,1566,1566,1582,1582
49493528,1000,1000,1000,1000,83728162,1574,1573,1577,1576
49496027,1000,1000,1000,1000,83828955,1580,1579,1572,1572
49498526,1000,1000,1000,1000,83928915,1585,1583,1568,1568
49501025,1000,1000,1000,1000,84028875,1588,1586,1567,1567
49503524,1000,1000,1000,1000,84128835,1589,1588,1566,1566
49506023,1000,1000,1000,1000,84228795,1589,1588,1567,1567
49508522,1000,1000,1000,1000,84328755,1588,1588,1570,1569
49511021,1000,1000,1000,1000,84428715,1586,1585,1571,1572
49513520,1000,1000,1000,1000,84528675,1584,1583,1575,1575
49516019,1000,1000,1000,1000,84628635,1581,1582,1578,1578
49518518,1000,1000,1000,1000,84728595,1578,1578,1580,1580
49521017,1000,1000,1000,1000,84828555,1576,1577,1582,1582
49523516,1000,1000,1000,1000,84928515,1574,1575,1584,1583
49526015,1000,1000,1000,1000,85028475,1573,1574,1585,1584
49528514,1000,1000,1000,1000,85128435,1573,1574,1584,1584
49531013,1000,1000,1000,1000,85228395,1574,1574,1584,1584
49533512,1000,1000,1000,1000,85328355,1574,1575,1584,1583
49536011,1000,1000,1000,1000,85428315,1576,1576,1583,1583
49538510,1000,1000,1000,1000,85528275,1577,1577,1582,1581
49541009,1000,1000,1000,1000,85628235,1579,1578,1581,1581
49543508,1000,1000,1000,1000,85728195,1580,1579,1580,1580
49546007,1000,1000,1000,1000,85828155,1581,1580,1579,1579
49548506,1000,1000,1000,1000,85928948,1582,1582,1578,1578
49551005,1000,1000,1000,1000,86028908,1581,1581,1576,1577
49553504,1000,1000,1000,1000,86128868,1581,1581,1576,1577
49556003,1000,1000,1000,1000,86228828,1582,1582,1577,1577
49558502,1000,1000,1000,1000,86328788,1583,1582,1579,1578
49561001,1000,1000,1000,1000,86428748,1582,1582,1579,1578
49563500,1000,1000,1000,1000,86528708,1581,1581,1579,1579
49565999,1000,1000,1000,1000,86628668,1581,1580,1579,1579
49568498,1000,1000,1000,1000,86728628,1580,1581,1580,1580
49570997,1000,1000,1000,1000,86828588,1580,1580,1580,1580
49573496,1000,1000,1000,1000,86928548,1580,1580,1581,1581
49575995,1000,1000,1000,1000,87028508,1580,1580,1581,1581
49578494,1000,1000,1000,1000,87128468,1580,1579,1581,1581
49580993,1000,1000,1000,1000,87228428,1580,1580,1582,1582
49583492,1000,1000,1000,1000,87328388,1580,1580,1581,1581
49585991,1000,1000,1000,1000,87428348,1580,1580,1581,1581
49588490,1000,1000,1000,1000,87528308,1581,1581,1583,1583
49590989,1000,1000,1000,1000,87628268,1582,1582,1589,1576
49593488,1000,1000,1000,1000,87728228,1581,1580,1586,1573
49595987,1000,1000,1000,1000,87828188,1578,1578,1579,1574
49598486,1000,1000,1000,1000,87928981,1576,1575,1571,1574
49600985,1000,1000,1000,1000,88028941,1573,1572,1566,1573
49603484,1000,1000,1000,1000,88128901,1570,1570,1564,1571
49605983,1000,1000,1000,1000,88228861,1569,1569,1565,1569
49608482,1000,1000,1000,1000,88328821,1567,1568,1566,1567
49610981,1000,1000,1000,1000,88428781,1566,1567,1566,1565
49613480,1000,1000,1000,1000,88528741,1566,1566,1567,1565
49615979,1000,1000,1000,1000,88628701,1565,1566,1568,1565
49618478,1000,1000,1000,1000,88728661,1565,1565,1567,1565
49620977,1000,1000,1000,1000,88828621,1564,1564,1566,1565
49623476,1000,1000,1000,1000,88928581,1564,1563,1566,1566
49625975,1000,1000,1000,1000,89028541,1563,1562,1564,1564
49628474,1000,1000,1000,1000,89128501,1561,1561,1562,1563
49630973,1000,1000,1000,1000,89228461,1561,1561,1562,1562
49633472,1000,1000,1000,1000,89328421,1560,1560,1561,1561
49635971,1000,1000,1000,1000,89428381,1560,1560,1561,1560
49638470,1000,1000,1000,1000,89528341,1560,1560,1560,1559
49640969,1000,1000,1000,1000,89628301,1559,1559,1560,1559
49643468,1000,1000,1000,1000,89728261,1559,1559,1559,1558
49645967,1000,1000,1000,1000,89828221,1558,1558,1557,1557
49648466,1000,1000,1000,1000,89928181,1558,1558,1558,1557
49650965,1000,1000,1000,1000,90028974,1559,1558,1559,1557
49653464,1000,1000,1000,1000,90128934,1558,1558,1559,1557
49655963,1000,1000,1000,1000,90228894,1558,1558,1559,1557
49658462,1000,1000,1000,1000,90328854,1559,1558,1560,1557
49660961,1000,1000,1000,1000,90428814,1559,1559,1560,1558
49663460,1000,1000,1000,1000,90528774,1560,1559,1558,1562
49665959,1000,1000,1000,1000,90628734,1560,1560,1557,1564
49668458,1000,1000,1000,1000,90728694,1560,1561,1558,1564
49670957,1000,1000,1000,1000,90828654,1561,1561,1559,1564
49673456,1000,1000,1000,1000,90928614,1560,1560,1560,1561
49675955,1000,1000,1000,1000,91028574,1558,1559,1559,1556
49678454,1000,1000,1000,1000,91128534,1558,1559,1557,1558
49680953,1000,1000,1000,1000,91228494,1557,1557,1555,1557
49683452,1000,1000,1000,1000,91328454,1554,1554,1551,1553
49685951,1000,1000,1000,1000,91428414,1550,1550,1547,1548
49688450,1000,1000,1000,1000,91528374,1543,1544,1540,1540
49690949,1000,1000,1000,1000,91628334,1538,1538,1534,1534
49693448,1000,1000,1000,1000,91728294,1531,1531,1527,1527
49695947,1000,1000,1000,1000,91828254,1525,1525,1522,1521
49698446,1000,1000,1000,1000,91928214,1521,1520,1518,1518
49700945,1000,1000,1000,1000,92028174,1520,1520,1519,1520
49703444,1000,1000,1000,1000,92128967,1519,1519,1521,1521
49705943,1000,1000,1000,1000,92228927,1521,1522,1526,1526
49708442,1000,1000,1000,1000,92328887,1524,1524,1530,1530
49710941,1000,1000,1000,1000,92428847,1527,1528,1534,1534
49713440,1000,1000,1000,1000,92528807,1532,1532,1539,1539
49715939,1000,1000,1000,1000,92628767,1535,1536,1541,1542
49718438,1000,1000,1000,1000,92728727,1539,1538,1543,1543
49720937,1000,1000,1000,1000,92828687,1541,1541,1544,1543
49723436,1000,1000,1000,1000,92928647,1543,1543,1544,1544
49725935,1000,1000,1000,1000,93028607,1545,1546,1545,1545
49728434,1000,1000,1000,1000,93128567,1547,1547,1545,1544
49730933,1000,1000,1000,1000,93228527,1548,1548,1545,1544
49733432,1000,1000,1000,1000,93328487,1547,1547,1543,1543
49735931,1000,1000,1000,1000,93428447,1549,1549,1545,1545
49738430,1000,1000,1000,1000,93528407,1548,1548,1544,1544
49740929,1000,1000,1000,1000,93628367,1548,1548,1544,1545
49743428,1000,1000,1000,1000,93728327,1547,1547,1543,1544
49745927,1000,1000,1000,1000,93828287,1546,1546,1544,1544
49748426,1000,1000,1000,1000,93928247,1546,1546,1545,1545
49750925,1000,1000,1000,1000,94028207,1545,1545,1545,1544
49753424,1000,1000,1000,1000,94128167,1545,1545,1545,1545
49755923,1000,1000,1000,1000,94228960,1544,1544,1546,1545
49758422,1000,1000,1000,1000,94328920,1544,1544,1547,1546
49760921,1000,1000,1000,1000,94428880,1544,1544,1546,1545
49763420,1000,1000,1000,1000,94528840,1544,1543,1545,1545
49765919,1000,1000,1000,1000,94628800,1543,1543,1545,1545
49768418,1000,1000,1000,1000,94728760,1543,1543,1544,1544
49770917,1000,1000,1000,1000,94828720,1543,1544,1545,1544
49773416,1000,1000,1000,1000,94928680,1544,1544,1544,1544
49775915,1000,1000,1000,1000,95028640,1545,1544,1545,1545
49778414,1000,1000,1000,1000,95128600,1544,1544,1543,1544
49780913,1000,1000,1000,1000,95228560,1544,1544,1543,1543
49783412,1000,1000,1000,1000,95328520,1545,1545,1544,1544
49785911,1000,1000,1000,1000,95428480,1544,1545,1544,1543
49788410,1000,1000,1000,1000,95528440,1544,1544,1543,1543
49790909,1000,1000,1000,1000,95628400,1543,1544,1543,1543
49793408,1000,1000,1000,1000,95728360,1544,1543,1543,1543
49795907,1000,1000,1000,1000,95828320,1544,1544,1544,1544
49798406,1000,1000,1000,1000,95928280,1544,1544,1544,1545
49800905,1000,1000,1000,1000,96028240,1544,1544,1545,1544
49803404,1000,1000,1000,1000,96128200,1544,1544,1544,1545
49805903,1000,1000,1000,1000,96228160,1544,1544,1544,1544
49808402,1000,1000,1000,1000,96328953,1545,1544,1545,1545
49810901,1000,1000,1000,1000,96428913,1544,1544,1544,1544
49813400,1000,1000,1000,1000,96528873,1544,1544,1544,1544
49815899,1000,1000,1000,1000,96628833,1543,1544,1543,1543
49818398,1000,1000,1000,1000,96728793,1543,1543,1543,1543
49820897,1000,1000,1000,1000,96828753,1544,1544,1544,1544
49823396,1000,1000,1000,1000,96928713,1544,1544,1544,1544
49825895,1000,1000,1000,1000,97028673,1544,1545,1545,1545
49828394,1000,1000,1000,1000,97128633,1544,1544,1544,1545
49830893,1000,1000,1000,1000,97228593,1544,1544,1545,1544
49833392,1000,1000,1000,1000,97328553,1545,1544,1545,1545
49835891,1000,1000,1000,1000,97428513,1544,1544,1544,1544
49838390,1000,1000,1000,1000,97528473,1544,1544,1543,1544
49840889,1000,1000,1000,1000,97628433,1544,1545,1545,1544
49843388,1000,1000,1000,1000,97728393,1544,1544,1543,1544
49845887,1000,1000,1000,1000,97828353,1545,1544,1544,1544
49848386,1000,1000,1000,1000,97928313,1545,1545,1544,1545
49850885,1000,1000,1000,1000,98028273,1544,1544,1544,1544
49853384,1000,1000,1000,1000,98128233,1545,1544,1544,1544
49855883,1000,1000,1000,1000,98228193,1544,1545,1545,1544
49858382,1000,1000,1000,1000,98328986,1544,1544,1544,1544
49860881,1000,1000,1000,1000,98428946,1543,1544,1543,1544
49863380,1000,1000,1000,1000,98528906,1543,1544,1543,1543
49865879,1000,1000,1000,1000,98628866,1544,1544,1544,1544
49868378,1000,1000,1000,1000,98728826,1544,1543,1543,1544
49870877,1000,1000,1000,1000,98828786,1544,1543,1543,1543
49873376,1000,1000,1000,1000,98928746,1544,1543,1544,1544
49875875,1000,1000,1000,1000,99028706,1544,1545,1545,1545
49878374,1000,1000,1000,1000,99128666,1544,1544,1544,1545
49880873,1000,1000,1000,1000,99228626,1544,1545,1545,1545
49883372,1000,1000,1000,1000,99328586,1545,1545,1544,1545
49885871,1000,1000,1000,1000,99428546,1545,1545,1545,1545
49888370,1000,1000,1000,1000,99528506,1545,1545,1545,1545
49890869,1000,1000,1000,1000,99628466,1545,1545,1545,1544
49893368,1000,1000,1000,1000,99728426,1545,1544,1544,1545
49895867,1000,1000,1000,1000,99828386,1544,1544,1543,1543
49898366,1000,1000,1000,1000,99928346,1545,1544,1544,1544
49900865,1000,1000,1000,1000,100028306,1544,1544,1544,1543
49903364,1000,1000,1000,1000,100128266,1544,1544,1544,1544
49905863,1000,1000,1000,1000,100228226,1544,1544,1544,1543
49908362,1000,1000,1000,1000,100328186,1544,1544,1544,1544
49910861,1000,1000,1000,1000,100428979,1545,1544,1544,1545
49913360,1000,1000,1000,1000,100528939,1545,1545,1545,1546
49915859,1000,1000,1000,1000,100628899,1545,1545,1545,1545
49918358,1000,1000,1000,1000,100728859,1545,1545,1544,1545
49920857,1000,1000,1000,1000,100828819,1544,1545,1545,1544
49923356,1000,1000,1000,1000,100928779,1545,1545,1545,1545
49925855,1000,1000,1000,1000,101028739,1545,1545,1545,1544
49928354,1000,1000,1000,1000,101128699,1545,1545,1545,1545
49930853,1000,1000,1000,1000,101228659,1544,1544,1544,1544
49933352,1000,1000,1000,1000,101328619,1546,1545,1546,1546
49935851,1000,1000,1000,1000,101428579,1544,1544,1544,1544
49938350,1000,1000,1000,1000,101528539,1496,1494,1481,1480
49940849,1000,1000,1000,1000,101628499,1374,1373,1311,1309
49943348,1000,1000,1000,1000,101728459,1326,1324,1235,1234
49945847,1000,1000,1000,1000,101828419,1311,1309,1212,1209
49948346,1000,1000,1000,1000,101928379,1295,1292,1183,1180
49950845,1000,1000,1000,1000,102028339,1269,1266,1154,1150
49953344,1000,1000,1000,1000,102128299,1160,1156,1153,1150
49955843,1000,1000,1000,1000,102228259,1095,1092,1152,1150
49958342,1000,1000,1000,1000,102328219,1095,1092,1152,1150
49960841,1000,1000,1000,1000,102428179,1095,1092,1153,1150
49963340,1000,1000,1000,1000,102528972,1095,1081,1150,1169
49965839,1000,1000,1000,1000,102628932,1095,1085,1150,1161
49968338,1000,1000,1000,1000,102728892,1096,1088,1150,1157
49970837,1000,1000,1000,1000,102828852,1096,1088,1150,1156
49973336,1000,1000,1000,1000,102928812,1096,1088,1150,1157
49975835,1000,1000,1000,1000,103028772,1096,1088,1150,1157
49978334,1000,1000,1000,1000,103128732,1096,1088,1150,1157
49980833,1000,1000,1000,1000,103228692,1096,1088,1150,1158
49983332,1000,1000,1000,1000,103328652,1095,1094,1150,1150
49985831,1000,1000,1000,1000,103428612,1095,1093,1150,1151
49988330,1000,1000,1000,1000,103528572,1095,1093,1150,1151
49990829,1000,1000,1000,1000,103628532,1095,1093,1150,1151
49993328,1000,1000,1000,1000,103728492,1095,1093,1150,1151
49995827,1000,1000,1000,1000,103828452,1000,1000,1000,1000
49998326,1000,1000,1000,1000,103928412,1000,1000,1000,1000
50000825,1000,1000,1000,1000,104028372,1000,1000,1000,1000
50003324,1000,1000,1000,1000,104128332,1000,1000,1000,1000
50005823,1000,1000,1000,1000,104228292,1000,1000,1000,1000
50008322,1000,1000,1000,1000,104328252,1000,1000,1000,1000
50010821,1000,1000,1000,1000,104428212,1000,1000,1000,1000
50013320,1000,1000,1000,1000,104528172,1000,1000,1000,1000
50015819,1000,1000,1000,1000,104628965,1000,1000,1000,1000
50018318,1000,1000,1000,1000,104728925,1000,1000,1000,1000
50020817,1000,1000,1000,1000,104828885,1000,1000,1000,1000
50023316,1000,1000,1000,1000,104928845,1000,1000,1000,1000
50025815,1000,1000,1000,1000,105028805,1000,1000,1000,1000
50028314,1000,1000,1000,1000,105128765,1000,1000,1000,1000
50030813,1000,1000,1000,1000,105228725,1000,1000,1000,1000
50033312,1000,1000,1000,1000,105328685,1000,1000,1000,1000
50035811,1000,1000,1000,1000,105428645,1000,1000,1000,1000
50038310,1000,1000,1000,1000,105528605,1000,1000,1000,1000
50040809,1000,1000,1000,1000,105628565,1000,1000,1000,1000
50043308,1000,1000,1000,1000,105728525,1000,1000,1000,1000
50045807,1000,1000,1000,1000,105828485,1000,1000,1000,1000
50048306,1000,1000,1000,1000,105928445,1000,1000,1000,1000
50050805,1000,1000,1000,1000,106028405,1000,1000,1000,1000
50053304,1000,1000,1000,1000,106128365,1000,1000,1000,1000
50055803,1000,1000,1000,1000,106228325,1000,1000,1000,1000
50058302,1000,1000,1000,1000,106328285,1000,1000,1000,1000
50060801,1000,1000,1000,1000,106428245,1000,1000,1000,1000
50063300,1000,1000,1000,1000,106528205,1000,1000,1000,1000
50065799,1000,1000,1000,1000,106628165,1000,1000,1000,1000
50068298,1000,1000,1000,1000,106728958,1000,1000,1000,1000
50070797,1000,1000,1000,1000,106828918,1000,1000,1000,1000
50073296,1000,1000,1000,1000,106928878,1000,1000,1000,1000
50075795,1000,1000,1000,1000,107028838,1000,1000,1000,1000
50078294,1000,1000,1000,1000,107128798,1000,1000,1000,1000
50080793,1000,1000,1000,1000,107228758,1000,1000,1000,1000
50083292,1000,1000,1000,1000,107328718,1000,1000,1000,1000
50085791,1000,1000,1000,1000,107428678,1000,1000,1000,1000
50088290,1000,1000,1000,1000,107528638,1000,1000,1000,1000
50090789,1000,1000,1000,1000,107628598,1000,1000,1000,1000
50093288,1000,1000,1000,1000,107728558,1000,1000,1000,1000
50095787,1000,1000,1000,1000,107828518,1000,1000,1000,1000
50098286,1000,1000,1000,1000,107928478,1000,1000,1000,1000
50100785,1000,1000,1000,1000,108028438,1000,1000,1000,1000
50103284,1000,1000,1000,1000,108128398,1000,1000,1000,1000
50105783,1000,1000,1000,1000,108228358,1000,1000,1000,1000
50108282,1000,1000,1000,1000,108328318,1000,1000,1000,1000
50110781,1000,1000,1000,1000,108428278,1000,1000,1000,1000
50113280,1000,1000,1000,1000,108528238,1000,1000,1000,1000
50115779,1000,1000,1000,1000,108628198,1000,1000,1000,1000
50118278,1000,1000,1000,1000,108728158,1000,1000,1000,1000
50120777,1000,1000,1000,1000,108828951,1000,1000,1000,1000
50123276,1000,1000,1000,1000,108928911,1000,1000,1000,1000
50125775,1000,1000,1000,1000,109028871,1000,1000,1000,1000
50128274,1000,1000,1000,1000,109128831,1000,1000,1000,1000
50130773,1000,1000,1000,1000,109228791,1000,1000,1000,1000
50133272,1000,1000,1000,1000,109328751,1000,1000,1000,1000
50135771,1000,1000,1000,1000,109428711,1000,1000,1000,1000
50138270,1000,1000,1000,1000,109528671,1000,1000,1000,1000
50140769,1000,1000,1000,1000,109628631,1000,1000,1000,1000
50143268,1000,1000,1000,1000,109728591,1000,1000,1000,1000
50145767,1000,1000,1000,1000,109828551,1000,1000,1000,1000
50148266,1000,1000,1000,1000,109928511,1000,1000,1000,1000
50150765,1000,1000,1000,1000,110028471,1000,1000,1000,1000
50153264,1000,1000,1000,1000,110128431,1000,1000,1000,1000
50155763,1000,1000,1000,1000,110228391,1000,1000,1000,1000
50158262,1000,1000,1000,1000,110328351,1000,1000,1000,1000
50160761,1000,1000,1000,1000,110428311,1000,1000,1000,1000
50163260,1000,1000,1000,1000,110528271,1000,1000,1000,1000
50165759,1000,1000,1000,1000,110628231,1000,1000,1000,1000
50168258,1000,1000,1000,1000,110728191,1000,1000,1000,1000
50170757,1000,1000,1000,1000,110828984,1000,1000,1000,1000
50173256,1000,1000,1000,1000,110928944,1000,1000,1000,1000
50175755,1000,1000,1000,1000,111028904,1000,1000,1000,1000
50178254,1000,1000,1000,1000,111128864,1000,1000,1000,1000
50180753,1000,1000,1000,1000,111228824,1000,1000,1000,1000
50183252,1000,1000,1000,1000,111328784,1000,1000,1000,1000
50185751,1000,1000,1000,1000,111428744,1000,1000,1000,1000
50188250,1000,1000,1000,1000,111528704,1000,1000,1000,1000
50190749,1000,1000,1000,1000,111628664,1000,1000,1000,1000
50193248,1000,1000,1000,1000,111728624,1000,1000,1000,1000
50195747,1000,1000,1000,1000,,,,,
50198246,1000,1000,1000,1000,,,,,
50200745,1000,1000,1000,1000,,,,,
50203244,1000,1000,1000,1000,,,,,
50205743,1000,1000,1000,1000,,,,,
50208242,1000,1000,1000,1000,,,,,
50210741,1000,1000,1000,1000,,,,,
50213240,1000,1000,1000,1000,,,,,
50215739,1000,1000,1000,1000,,,,,
50218238,1000,1000,1000,1000,,,,,
50220737,1000,1000,1000,1000,,,,,
50223236,1000,1000,1000,1000,,,,,
50225735,1000,1000,1000,1000,,,,,
50228234,1000,1000,1000,1000,,,,,
50230733,1000,1000,1000,1000,,,,,
50233232,1000,1000,1000,1000,,,,,
50235731,1000,1000,1000,1000,,,,,
50238230,1000,1000,1000,1000,,,,,
50240729,1000,1000,1000,1000,,,,,
50243228,1000,1000,1000,1000,,,,,
50245727,1000,1000,1000,1000,,,,,
50248226,1000,1000,1000,1000,,,,,
50250725,1000,1000,1000,1000,,,,,
50253224,1000,1000,1000,1000,,,,,
50255723,1000,1000,1000,1000,,,,,
50258222,1000,1000,1000,1000,,,,,
50260721,1000,1000,1000,1000,,,,,
50263220,1000,1000,1000,1000,,,,,
50265719,1000,1000,1000,1000,,,,,
50268218,1000,1000,1000,1000,,,,,
50270717,1000,1000,1000,1000,,,,,
50273216,1000,1000,1000,1000,,,,,
50275715,1000,1000,1000,1000,,,,,
50278214,1000,1000,1000,1000,,,,,
50280713,1000,1000,1000,1000,,,,,
50283212,1000,1000,1000,1000,,,,,
50285711,1000,1000,1000,1000,,,,,
50288210,1000,1000,1000,1000,,,,,
50290709,1000,1000,1000,1000,,,,,
50293208,1000,1000,1000,1000,,,,,
50295707,1000,1000,1000,1000,,,,,
50298206,1000,1000,1000,1000,,,,,
50300705,1000,1000,1000,1000,,,,,
50303204,1000,1000,1000,1000,,,,,
50305703,1000,1000,1000,1000,,,,,
50308202,1000,1000,1000,1000,,,,,
50310701,1000,1000,1000,1000,,,,,
50313200,1000,1000,1000,1000,,,,,
50315699,1000,1000,1000,1000,,,,,
50318198,1000,1000,1000,1000,,,,,
50320697,1000,1000,1000,1000,,,,,
50323196,1000,1000,1000,1000,,,,,
50325695,1000,1000,1000,1000,,,,,
50328194,1000,1000,1000,1000,,,,,
50330693,1000,1000,1000,1000,,,,,
50333192,1000,1000,1000,1000,,,,,
50335691,1000,1000,1000,1000,,,,,
50338190,1000,1000,1000,1000,,,,,
50340689,1000,1000,1000,1000,,,,,
50343188,1000,1000,1000,1000,,,,,
50345687,1000,1000,1000,1000,,,,,
50348186,1000,1000,1000,1000,,,,,
50350685,1000,1000,1000,1000,,,,,
50353184,1000,1000,1000,1000,,,,,
50355683,1000,1000,1000,1000,,,,,
50358182,1000,1000,1000,1000,,,,,
50360681,1000,1000,1000,1000,,,,,
50363180,1000,1000,1000,1000,,,,,
50365679,1000,1000,1000,1000,,,,,
50368178,1000,1000,1000,1000,,,,,
50370677,1000,1000,1000,1000,,,,,
50373176,1000,1000,1000,1000,,,,,
50375675,1000,1000,1000,1000,,,,,
50378174,1000,1000,1000,1000,,,,,
50380673,1000,1000,1000,1000,,,,,
50383172,1000,1000,1000,1000,,,,,
50385671,1000,1000,1000,1000,,,,,
50388170,1000,1000,1000,1000,,,,,
50390669,1000,1000,1000,1000,,,,,
50393168,1000,1000,1000,1000,,,,,
50395667,1000,1000,1000,1000,,,,,
50398166,1000,1000,1000,1000,,,,,
50400665,1000,1000,1000,1000,,,,,
50403164,1000,1000,1000,1000,,,,,
50405663,1000,1000,1000,1000,,,,,
50408162,1000,1000,1000,1000,,,,,
50410661,1000,1000,1000,1000,,,,,
50413160,1000,1000,1000,1000,,,,,
50415659,1000,1000,1000,1000,,,,,
50418158,1000,1000,1000,1000,,,,,
50420657,1000,1000,1000,1000,,,,,
50423156,1000,1000,1000,1000,,,,,
50425655,1000,1000,1000,1000,,,,,
50428154,1000,1000,1000,1000,,,,,
50431486,1000,1000,1000,1000,,,,,
50433985,1000,1000,1000,1000,,,,,
50436484,1000,1000,1000,1000,,,,,
50438983,1000,1000,1000,1000,,,,,
50441482,1000,1000,1000,1000,,,,,
50443981,1000,1000,1000,1000,,,,,
50446480,1000,1000,1000,1000,,,,,
50448979,1000,1000,1000,1000,,,,,
50451478,1000,1000,1000,1000,,,,,
50453977,1000,1000,1000,1000,,,,,
50456476,1000,1000,1000,1000,,,,,
50458975,1000,1000,1000,1000,,,,,
50461474,1000,1000,1000,1000,,,,,
50463973,1000,1000,1000,1000,,,,,
50466472,1000,1000,1000,1000,,,,,
50468971,1000,1000,1000,1000,,,,,
50471470,1000,1000,1000,1000,,,,,
50473969,1000,1000,1000,1000,,,,,
50476468,1000,1000,1000,1000,,,,,
50478967,1000,1000,1000,1000,,,,,
50481466,1000,1000,1000,1000,,,,,
50483965,1000,1000,1000,1000,,,,,
50486464,1000,1000,1000,1000,,,,,
50488963,1000,1000,1000,1000,,,,,
50491462,1000,1000,1000,1000,,,,,
50493961,1000,1000,1000,1000,,,,,
50496460,1000,1000,1000,1000,,,,,
50498959,1000,1000,1000,1000,,,,,
50501458,1000,1000,1000,1000,,,,,
50503957,1000,1000,1000,1000,,,,,
50506456,1000,1000,1000,1000,,,,,
50508955,1000,1000,1000,1000,,,,,
50511454,1000,1000,1000,1000,,,,,
50513953,1000,1000,1000,1000,,,,,
50516452,1000,1000,1000,1000,,,,,
50518951,1000,1000,1000,1000,,,,,
50521450,1000,1000,1000,1000,,,,,
50523949,1000,1000,1000,1000,,,,,
50526448,1000,1000,1000,1000,,,,,
50528947,1000,1000,1000,1000,,,,,
50531446,1000,1000,1000,1000,,,,,
50533945,1000,1000,1000,1000,,,,,
50536444,1000,1000,1000,1000,,,,,
50538943,1000,1000,1000,1000,,,,,
50541442,1000,1000,1000,1000,,,,,
50543941,1000,1000,1000,1000,,,,,
50546440,1000,1000,1000,1000,,,,,
50548939,1000,1000,1000,1000,,,,,
50551438,1000,1000,1000,1000,,,,,
50553937,1000,1000,1000,1000,,,,,
50556436,1000,1000,1000,1000,,,,,
50558935,1000,1000,1000,1000,,,,,
50561434,1000,1000,1000,1000,,,,,
50563933,1000,1000,1000,1000,,,,,
50566432,1000,1000,1000,1000,,,,,
50568931,1000,1000,1000,1000,,,,,
50571430,1000,1000,1000,1000,,,,,
50573929,1000,1000,1000,1000,,,,,
50576428,1000,1000,1000,1000,,,,,
50578927,1000,1000,1000,1000,,,,,
50581426,1000,1000,1000,1000,,,,,
50583925,1000,1000,1000,1000,,,,,
50586424,1000,1000,1000,1000,,,,,
50588923,1000,1000,1000,1000,,,,,
50591422,1000,1000,1000,1000,,,,,
50593921,1000,1000,1000,1000,,,,,
50596420,1000,1000,1000,1000,,,,,
50598919,1000,1000,1000,1000,,,,,
50601418,1000,1000,1000,1000,,,,,
50603917,1000,1000,1000,1000,,,,,
50606416,1000,1000,1000,1000,,,,,
50608915,1000,1000,1000,1000,,,,,
50611414,1000,1000,1000,1000,,,,,
50613913,1000,1000,1000,1000,,,,,
50616412,1000,1000,1000,1000,,,,,
50618911,1000,1000,1000,1000,,,,,
50621410,1000,1000,1000,1000,,,,,
50623909,1001,1001,1001,1001,,,,,
50626408,1002,1002,1002,1002,,,,,
50628907,1003,1003,1003,1003,,,,,
50631406,1003,1003,1003,1003,,,,,
50633905,1004,1004,1004,1004,,,,,
50636404,1005,1005,1005,1005,,,,,
50638903,1006,1006,1006,1006,,,,,
50641402,1006,1006,1006,1006,,,,,
50643901,1007,1007,1007,1007,,,,,
50646400,1008,1008,1008,1008,,,,,
50648899,1009,1009,1009,1009,,,,,
50651398,1009,1009,1009,1009,,,,,
50653897,1010,1010,1010,1010,,,,,
50656396,1011,1011,1011,1011,,,,,
50658895,1012,1012,1012,1012,,,,,
50661394,1012,1012,1012,1012,,,,,
50663893,1013,1013,1013,1013,,,,,
50666392,1014,1014,1014,1014,,,,,
50668891,1015,1015,1015,1015,,,,,
50671390,1015,1015,1015,1015,,,,,
50673889,1016,1016,1016,1016,,,,,
50676388,1017,1017,1017,1017,,,,,
50678887,1018,1018,1018,1018,,,,,
50681386,1018,1018,1018,1018,,,,,
50683885,1019,1019,1019,1019,,,,,
50686384,1020,1020,1020,1020,,,,,
50688883,1021,1021,1021,1021,,,,,
50691382,1021,1021,1021,1021,,,,,
50693881,1022,1022,1022,1022,,,,,
50696380,1023,1023,1023,1023,,,,,
50698879,1024,1024,1024,1024,,,,,
50701378,1024,1024,1024,1024,,,,,
50703877,1025,1025,1025,1025,,,,,
50706376,1026,1026,1026,1026,,,,,
50708875,1027,1027,1027,1027,,,,,
50711374,1027,1027,1027,1027,,,,,
50713873,1028,1028,1028,1028,,,,,
50716372,1029,1029,1029,1029,,,,,
50718871,1030,1030,1030,1030,,,,,
50721370,1030,1030,1030,1030,,,,,
50723869,1031,1031,1031,1031,,,,,
50726368,1032,1032,1032,1032,,,,,
50728867,1033,1033,1033,1033,,,,,
50731366,1033,1033,1033,1033,,,,,
50733865,1034,1034,1034,1034,,,,,
50736364,1035,1035,1035,1035,,,,,
50738863,1036,1036,1036,1036,,,,,
50741362,1036,1036,1036,1036,,,,,
50743861,1037,1037,1037,1037,,,,,
50746360,1038,1038,1038,1038,,,,,
50748859,1039,1039,1039,1039,,,,,
50751358,1039,1039,1039,1039,,,,,
50753857,1040,1040,1040,1040,,,,,
50756356,1041,1041,1041,1041,,,,,
50758855,1042,1042,1042,1042,,,,,
50761354,1042,1042,1042,1042,,,,,
50763853,1043,1043,1043,1043,,,,,
50766352,1044,1044,1044,1044,,,,,
50768851,1045,1045,1045,1045,,,,,
50771350,1045,1045,1045,1045,,,,,
50773849,1046,1046,1046,1046,,,,,
50776348,1047,1047,1047,1047,,,,,
50778847,1048,1048,1048,1048,,,,,
50781346,1048,1048,1048,1048,,,,,
50783845,1049,1049,1049,1049,,,,,
50786344,1050,1050,1050,1050,,,,,
50788843,1051,1051,1051,1051,,,,,
50791342,1051,1051,1051,1051,,,,,
50793841,1052,1052,1052,1052,,,,,
50796340,1053,1053,1053,1053,,,,,
50798839,1054,1054,1054,1054,,,,,
50801338,1054,1054,1054,1054,,,,,
50803837,1055,1055,1055,1055,,,,,
50806336,1056,1056,1056,1056,,,,,
50808835,1057,1057,1057,1057,,,,,
50811334,1057,1057,1057,1057,,,,,
50813833,1058,1058,1058,1058,,,,,
50816332,1059,1059,1059,1059,,,,,
50818831,1060,1060,1060,1060,,,,,
50821330,1060,1060,1060,1060,,,,,
50823829,1061,1061,1061,1061,,,,,
50826328,1062,1062,1062,1062,,,,,
50828827,1063,1063,1063,1063,,,,,
50831326,1063,1063,1063,1063,,,,,
50833825,1064,1064,1064,1064,,,,,
50836324,1065,1065,1065,1065,,,,,
50838823,1066,1066,1066,1066,,,,,
50841322,1066,1066,1066,1066,,,,,
50843821,1067,1067,1067,1067,,,,,
50846320,1068,1068,1068,1068,,,,,
50848819,1069,1069,1069,1069,,,,,
50851318,1069,1069,1069,1069,,,,,
50853817,1070,1070,1070,1070,,,,,
50856316,1071,1071,1071,1071,,,,,
50858815,1072,1072,1072,1072,,,,,
50861314,1072,1072,1072,1072,,,,,
50863813,1073,1073,1073,1073,,,,,
50866312,1074,1074,1074,1074,,,,,
50868811,1075,1075,1075,1075,,,,,
50871310,1075,1075,1075,1075,,,,,
50873809,1076,1076,1076,1076,,,,,
50876308,1077,1077,1077,1077,,,,,
50878807,1078,1078,1078,1078,,,,,
50881306,1078,1078,1078,1078,,,,,
50883805,1079,1079,1079,1079,,,,,
50886304,1080,1080,1080,1080,,,,,
50888803,1081,1081,1081,1081,,,,,
50891302,1081,1081,1081,1081,,,,,
50893801,1082,1082,1082,1082,,,,,
50896300,1083,1083,1083,1083,,,,,
50898799,1084,1084,1084,1084,,,,,
50901298,1084,1084,1084,1084,,,,,
50903797,1085,1085,1085,1085,,,,,
50906296,1086,1086,1086,1086,,,,,
50908795,1087,1087,1087,1087,,,,,
50911294,1087,1087,1087,1087,,,,,
50913793,1088,1088,1088,1088,,,,,
50916292,1089,1089,1089,1089,,,,,
50918791,1090,1090,1090,1090,,,,,
50921290,1090,1090,1090,1090,,,,,
50923789,1091,1091,1091,1091,,,,,
50926288,1092,1092,1092,1092,,,,,
50928787,1093,1093,1093,1093,,,,,
50931286,1093,1093,1093,1093,,,,,
50933785,1094,1094,1094,1094,,,,,
50936284,1095,1095,1095,1095,,,,,
50938783,1096,1096,1096,1096,,,,,
50941282,1096,1096,1096,1096,,,,,
50943781,1097,1097,1097,1097,,,,,
50946280,1098,1098,1098,1098,,,,,
50948779,1099,1099,1099,1099,,,,,
50951278,1099,1099,1099,1099,,,,,
50953777,1100,1100,1100,1100,,,,,
50956276,1101,1101,1101,1101,,,,,
50958775,1101,1101,1101,1101,,,,,
50961274,1102,1102,1102,1102,,,,,
50963773,1103,1103,1103,1103,,,,,
50966272,1104,1104,1104,1104,,,,,
50968771,1104,1104,1104,1104,,,,,
50971270,1105,1105,1105,1105,,,,,
50973769,1106,1106,1106,1106,,,,,
50976268,1107,1107,1107,1107,,,,,
50978767,1107,1107,1107,1107,,,,,
50981266,1108,1108,1108,1108,,,,,
50983765,1109,1109,1109,1109,,,,,
50986264,1110,1110,1110,1110,,,,,
50988763,1110,1110,1110,1110,,,,,
50991262,1111,1111,1111,1111,,,,,
50993761,1112,1112,1112,1112,,,,,
50996260,1113,1113,1113,1113,,,,,
50998759,1113,1113,1113,1113,,,,,
51001258,1114,1114,1114,1114,,,,,
51003757,1115,1115,1115,1115,,,,,
51006256,1116,1116,1116,1116,,,,,
51008755,1116,1116,1116,1116,,,,,
51011254,1117,1117,1117,1117,,,,,
51013753,1118,1118,1118,1118,,,,,
51016252,1119,1119,1119,1119,,,,,
51018751,1119,1119,1119,1119,,,,,
51021250,1120,1120,1120,1120,,,,,
51023749,1121,1121,1121,1121,,,,,
51026248,1122,1122,1122,1122,,,,,
51028747,1122,1122,1122,1122,,,,,
51031246,1123,1123,1123,1123,,,,,
51033745,1124,1124,1124,1124,,,,,
51036244,1125,1125,1125,1125,,,,,
51038743,1125,1125,1125,1125,,,,,
51041242,1126,1126,1126,1126,,,,,
51043741,1127,1127,1127,1127,,,,,
51046240,1128,1128,1128,1128,,,,,
51048739,1128,1128,1128,1128,,,,,
51051238,1129,1129,1129,1129,,,,,
51053737,1130,1130,1130,1130,,,,,
51056236,1131,1131,1131,1131,,,,,
51058735,1131,1131,1131,1131,,,,,
51061234,1132,1132,1132,1132,,,,,
51063733,1133,1133,1133,1133,,,,,
51066232,1134,1134,1134,1134,,,,,
51068731,1134,1134,1134,1134,,,,,
51071230,1135,1135,1135,1135,,,,,
51073729,1136,1136,1136,1136,,,,,
51076228,1137,1137,1137,1137,,,,,
51078727,1137,1137,1137,1137,,,,,
51081226,1138,1138,1138,1138,,,,,
51083725,1139,1139,1139,1139,,,,,
51086224,1140,1140,1140,1140,,,,,
51088723,1140,1140,1140,1140,,,,,
51091222,1141,1141,1141,1141,,,,,
51093721,1142,1142,1142,1142,,,,,
51096220,1143,1143,1143,1143,,,,,
51098719,1143,1143,1143,1143,,,,,
51101218,1144,1144,1144,1144,,,,,
51103717,1145,1145,1145,1145,,,,,
51106216,1146,1146,1146,1146,,,,,
51108715,1146,1146,1146,1146,,,,,
51111214,1147,1147,1147,1147,,,,,
51113713,1148,1148,1148,1148,,,,,
51116212,1149,1149,1149,1149,,,,,
51118711,1149,1149,1149,1149,,,,,
51121210,1150,1150,1150,1150,,,,,
51123709,1161,1154,1154,1162,,,,,
51126208,1169,1162,1162,1170,,,,,
51128707,1177,1170,1170,1178,,,,,
51131206,1185,1178,1178,1185,,,,,
51133705,1192,1185,1186,1193,,,,,
51136204,1200,1193,1193,1200,,,,,
51138703,1207,1200,1201,1208,,,,,
51141202,1214,1207,1208,1215,,,,,
51143701,1221,1215,1215,1222,,,,,
51146200,1228,1222,1222,1229,,,,,
51148699,1235,1229,1229,1236,,,,,
51151198,1242,1236,1236,1242,,,,,
51153697,1249,1242,1243,1249,,,,,
51156196,1255,1249,1249,1256,,,,,
51158695,1262,1256,1256,1262,,,,,
51161194,1268,1262,1263,1269,,,,,
51163693,1275,1269,1269,1275,,,,,
51166192,1281,1275,1275,1281,,,,,
51168691,1287,1281,1282,1288,,,,,
51171190,1293,1287,1288,1294,,,,,
51173689,1299,1294,1294,1300,,,,,
51176188,1305,1300,1300,1306,,,,,
51178687,1311,1306,1306,1312,,,,,
51181186,1317,1312,1312,1318,,,,,
51183685,1323,1317,1318,1323,,,,,
51186184,1329,1323,1324,1329,,,,,
51188683,1335,1329,1329,1335,,,,,
51191182,1340,1335,1335,1341,,,,,
51193681,1346,1340,1341,1346,,,,,
51196180,1351,1346,1346,1352,,,,,
51198679,1357,1351,1352,1357,,,,,
51201178,1362,1357,1357,1363,,,,,
51203677,1368,1362,1363,1368,,,,,
51206176,1373,1368,1368,1373,,,,,
51208675,1378,1373,1373,1379,,,,,
51211174,1384,1378,1379,1384,,,,,
51213673,1389,1384,1384,1389,,,,,
51216172,1394,1389,1389,1394,,,,,
51218671,1399,1394,1394,1399,,,,,
51221170,1404,1399,1399,1405,,,,,
51223669,1409,1404,1404,1410,,,,,
51226168,1414,1409,1410,1415,,,,,
51228667,1419,1414,1415,1420,,,,,
51231166,1424,1419,1420,1425,,,,,
51233665,1429,1424,1424,1429,,,,,
51236164,1434,1429,1429,1434,,,,,
51238663,1439,1434,1434,1439,,,,,
51241162,1444,1439,1439,1444,,,,,
51243661,1448,1444,1444,1449,,,,,
51246160,1453,1448,1449,1453,,,,,
51248659,1458,1453,1453,1458,,,,,
51251158,1463,1458,1458,1463,,,,,
51253657,1467,1462,1463,1468,,,,,
51256156,1472,1467,1467,1472,,,,,
51258655,1476,1472,1472,1477,,,,,
51261154,1481,1476,1476,1481,,,,,
51263653,1485,1481,1481,1486,,,,,
51266152,1490,1485,1485,1490,,,,,
51268651,1494,1490,1490,1495,,,,,
51271150,1499,1494,1494,1499,,,,,
51273649,1503,1499,1499,1504,,,,,
51276148,1508,1503,1503,1508,,,,,
51278647,1512,1508,1508,1512,,,,,
51281146,1516,1512,1512,1517,,,,,
51283645,1521,1516,1516,1521,,,,,
51286144,1525,1521,1521,1525,,,,,
51288643,1529,1525,1525,1530,,,,,
51291142,1534,1529,1529,1534,,,,,
51293641,1538,1533,1533,1538,,,,,
51296140,1542,1538,1538,1542,,,,,
51298639,1546,1542,1542,1547,,,,,
51301138,1550,1546,1546,1551,,,,,
51303637,1554,1550,1550,1555,,,,,
51306136,1559,1554,1554,1559,,,,,
51308635,1563,1558,1558,1563,,,,,
51311134,1567,1562,1562,1567,,,,,
51313633,1571,1566,1567,1571,,,,,
51316132,1575,1570,1571,1575,,,,,
51318631,1579,1574,1575,1579,,,,,
51321130,1583,1578,1579,1583,,,,,
51323629,1587,1582,1583,1587,,,,,
51326128,1591,1586,1587,1591,,,,,
51328627,1595,1590,1591,1595,,,,,
51331126,1599,1594,1594,1599,,,,,
51333625,1603,1598,1598,1603,,,,,
51336124,1607,1602,1602,1607,,,,,
51338623,1610,1606,1606,1611,,,,,
51341122,1614,1610,1610,1615,,,,,
51343621,1618,1614,1614,1618,,,,,
51346120,1622,1618,1618,1622,,,,,
51348619,1626,1621,1622,1626,,,,,
51351118,1630,1625,1625,1630,,,,,
51353617,1633,1629,1629,1634,,,,,
51356116,1637,1633,1633,1637,,,,,
51358615,1641,1636,1637,1641,,,,,
51361114,1645,1640,1640,1645,,,,,
51363613,1648,1644,1644,1648,,,,,
51366112,1652,1648,1648,1652,,,,,
51368611,1656,1651,1652,1656,,,,,
51371110,1659,1655,1655,1659,,,,,
51373609,1663,1659,1659,1663,,,,,
51376108,1667,1662,1662,1667,,,,,
51378607,1670,1666,1666,1670,,,,,
51381106,1674,1669,1670,1674,,,,,
51383605,1677,1673,1673,1678,,,,,
51386104,1681,1677,1677,1681,,,,,
51388603,1685,1680,1680,1685,,,,,
51391102,1688,1684,1684,1688,,,,,
51393601,1692,1687,1688,1692,,,,,
51396100,1695,1691,1691,1695,,,,,
51398599,1699,1694,1695,1699,,,,,
51401098,1702,1698,1698,1702,,,,,
51403597,1706,1701,1702,1706,,,,,
51406096,1709,1705,1705,1709,,,,,
51408595,1713,1708,1709,1713,,,,,
51411094,1716,1712,1712,1716,,,,,
51413593,1719,1715,1715,1719,,,,,
51416092,1723,1718,1719,1723,,,,,
51418591,1726,1722,1722,1726,,,,,
51421090,1730,1725,1726,1730,,,,,
51423589,1733,1729,1729,1733,,,,,
51426088,1736,1732,1733,1736,,,,,
51428587,1740,1735,1736,1740,,,,,
51431086,1743,1739,1739,1743,,,,,
51433585,1746,1742,1743,1746,,,,,
51436084,1750,1745,1746,1750,,,,,
51438583,1753,1749,1749,1753,,,,,
51441082,1756,1752,1753,1756,,,,,
51443581,1760,1755,1756,1760,,,,,
51446080,1763,1759,1759,1763,,,,,
51448579,1766,1762,1762,1766,,,,,
51451078,1770,1765,1766,1770,,,,,
51453577,1773,1769,1769,1773,,,,,
51456076,1776,1772,1772,1776,,,,,
51458575,1779,1775,1775,1779,,,,,
51461074,1782,1778,1779,1782,,,,,
51463573,1786,1782,1782,1786,,,,,
51466072,1789,1785,1785,1789,,,,,
51468571,1792,1788,1788,1792,,,,,
51471070,1795,1791,1791,1795,,,,,
51473569,1798,1794,1795,1798,,,,,
51476068,1802,1797,1798,1802,,,,,
51478567,1805,1801,1801,1805,,,,,
51481066,1808,1804,1804,1808,,,,,
51483565,1811,1807,1807,1811,,,,,
51486064,1814,1810,1810,1814,,,,,
51488563,1817,1813,1813,1817,,,,,
51491062,1820,1816,1817,1820,,,,,
51493561,1823,1819,1820,1824,,,,,
51496060,1826,1823,1823,1827,,,,,
51498559,1830,1826,1826,1830,,,,,
51501058,1833,1829,1829,1833,,,,,
51503557,1836,1832,1832,1836,,,,,
51506056,1839,1835,1835,1839,,,,,
51508555,1842,1838,1838,1842,,,,,
51511054,1845,1841,1841,1845,,,,,
51513553,1848,1844,1844,1848,,,,,
51516052,1851,1847,1847,1851,,,,,
51518551,1854,1850,1850,1854,,,,,
51521050,1857,1853,1853,1857,,,,,
51523549,1860,1856,1856,1860,,,,,
51526048,1863,1859,1859,1863,,,,,
51528547,1866,1862,1862,1866,,,,,
51531046,1869,1865,1865,1869,,,,,
51533545,1872,1868,1868,1872,,,,,
51536044,1875,1871,1871,1875,,,,,
51538543,1878,1874,1874,1878,,,,,
51541042,1881,1877,1877,1881,,,,,
51543541,1884,1880,1880,1884,,,,,
51546040,1887,1882,1883,1887,,,,,
51548539,1890,1885,1886,1890,,,,,
51551038,1893,1888,1889,1893,,,,,
51553537,1895,1891,1891,1896,,,,,
51556036,1898,1894,1894,1898,,,,,
51558535,1898,1894,1894,1899,,,,,
51561034,1897,1893,1893,1897,,,,,
51563533,1896,1892,1892,1896,,,,,
51566032,1895,1891,1891,1895,,,,,
51568531,1895,1890,1890,1895,,,,,
51571030,1894,1889,1889,1894,,,,,
51573529,1893,1888,1888,1893,,,,,
51576028,1892,1887,1888,1892,,,,,
51578527,1891,1886,1887,1891,,,,,
51581026,1890,1886,1886,1890,,,,,
51583525,1890,1885,1886,1890,,,,,
51586024,1889,1885,1885,1889,,,,,
51588523,1889,1884,1885,1889,,,,,
51591022,1889,1884,1884,1889,,,,,
51593521,1888,1884,1884,1888,,,,,
51596020,1888,1883,1884,1888,,,,,
51598519,1888,1883,1884,1888,,,,,
51601018,1888,1883,1884,1888,,,,,
51603517,1888,1883,1884,1888,,,,,
51606016,1888,1883,1884,1888,,,,,
51608515,1889,1884,1884,1888,,,,,
51611014,1889,1884,1884,1889,,,,,
51613513,1889,1884,1885,1889,,,,,
51616012,1889,1885,1885,1889,,,,,
51618511,1890,1885,1886,1889,,,,,
51621010,1890,1885,1886,1890,,,,,
51623509,1890,1886,1886,1890,,,,,
51626008,1890,1886,1886,1890,,,,,
51628507,1890,1886,1887,1890,,,,,
51631006,1890,1886,1887,1890,,,,,
51633505,1890,1886,1887,1890,,,,,
51636004,1890,1886,1886,1890,,,,,
51638503,1889,1886,1886,1889,,,,,
51641002,1888,1885,1885,1889,,,,,
51643501,1888,1885,1885,1888,,,,,
51646000,1887,1884,1884,1887,,,,,
51648499,1886,1883,1883,1886,,,,,
51650998,1884,1882,1882,1885,,,,,
51653497,1883,1880,1880,1883,,,,,
51655996,1881,1879,1879,1882,,,,,
51658495,1880,1877,1877,1880,,,,,
51660994,1878,1875,1875,1878,,,,,
51663493,1876,1873,1874,1876,,,,,
51665992,1874,1871,1872,1874,,,,,
51668491,1872,1869,1869,1872,,,,,
51670990,1869,1867,1867,1870,,,,,
51673489,1867,1865,1865,1867,,,,,
51675988,1865,1862,1862,1865,,,,,
51678487,1862,1860,1860,1862,,,,,
51680986,1859,1857,1857,1860,,,,,
51683485,1857,1854,1855,1857,,,,,
51685984,1854,1852,1852,1854,,,,,
51688483,1851,1849,1849,1851,,,,,
51690982,1848,1846,1846,1848,,,,,
51693481,1845,1843,1843,1845,,,,,
51695980,1842,1840,1840,1842,,,,,
51698479,1839,1837,1837,1839,,,,,
51700978,1836,1834,1834,1836,,,,,
51703477,1833,1831,1831,1833,,,,,
51705976,1830,1827,1828,1830,,,,,
51708475,1826,1824,1825,1826,,,,,
51710974,1823,1821,1822,1823,,,,,
51713473,1820,1818,1818,1820,,,,,
51715972,1817,1814,1815,1817,,,,,
51718471,1813,1811,1812,1813,,,,,
51720970,1810,1808,1808,1810,,,,,
51723469,1807,1805,1805,1807,,,,,
51725968,1803,1801,1802,1803,,,,,
51728467,1800,1798,1798,1800,,,,,
51730966,1796,1795,1795,1796,,,,,
51733465,1793,1791,1792,1793,,,,,
51735964,1790,1788,1788,1789,,,,,
51738463,1786,1784,1785,1786,,,,,
51740962,1783,1781,1782,1783,,,,,
51743461,1779,1778,1778,1779,,,,,
51745960,1776,1775,1775,1776,,,,,
51748459,1773,1771,1772,1773,,,,,
51750958,1769,1768,1769,1769,,,,,
51753457,1766,1765,1765,1766,,,,,
51755956,1763,1762,1762,1763,,,,,
51758455,1759,1758,1759,1759,,,,,
51760954,1756,1755,1756,1756,,,,,
51763453,1753,1752,1753,1753,,,,,
51765952,1750,1749,1750,1750,,,,,
51768451,1747,1746,1747,1747,,,,,
51770950,1744,1743,1744,1744,,,,,
51773449,1741,1740,1741,1741,,,,,
51775948,1738,1737,1738,1737,,,,,
51778447,1734,1734,1735,1734,,,,,
51780946,1732,1731,1732,1731,,,,,
51783445,1729,1728,1729,1728,,,,,
51785944,1726,1726,1726,1726,,,,,
51788443,1723,1723,1723,1723,,,,,
51790942,1720,1720,1720,1720,,,,,
51793441,1717,1717,1718,1717,,,,,
51795940,1714,1714,1715,1714,,,,,
51798439,1711,1712,1712,1711,,,,,
51800938,1709,1709,1709,1709,,,,,
51803437,1706,1706,1707,1706,,,,,
51805936,1703,1704,1704,1703,,,,,
51808435,1701,1701,1702,1700,,,,,
51810934,1698,1698,1699,1698,,,,,
51813433,1695,1696,1696,1695,,,,,
51815932,1693,1693,1694,1693,,,,,
51818431,1690,1691,1691,1690,,,,,
51820930,1688,1689,1689,1688,,,,,
51823429,1685,1686,1687,1685,,,,,
51825928,1683,1684,1684,1683,,,,,
51828427,1681,1682,1682,1681,,,,,
51830926,1679,1680,1680,1679,,,,,
51833425,1676,1677,1678,1676,,,,,
51835924,1674,1675,1676,1674,,,,,
51838423,1672,1673,1674,1672,,,,,
51840922,1670,1671,1672,1670,,,,,
51843421,1668,1669,1670,1668,,,,,
51845920,1667,1668,1668,1667,,,,,
51848419,1665,1666,1666,1665,,,,,
51850918,1663,1664,1664,1663,,,,,
51853417,1661,1662,1662,1661,,,,,
51855916,1659,1661,1661,1660,,,,,
51858415,1658,1659,1659,1658,,,,,
51860914,1656,1657,1657,1656,,,,,
51863413,1654,1656,1656,1655,,,,,
51865912,1653,1654,1654,1653,,,,,
51868411,1651,1653,1653,1652,,,,,
51870910,1650,1651,1651,1650,,,,,
51873409,1648,1650,1650,1649,,,,,
51875908,1647,1649,1649,1647,,,,,
51878407,1646,1647,1647,1646,,,,,
51880906,1645,1646,1646,1645,,,,,
51883405,1643,1645,1645,1644,,,,,
51885904,1642,1644,1644,1643,,,,,
51888403,1641,1643,1643,1642,,,,,
51890902,1640,1642,1642,1641,,,,,
51893401,1639,1641,1641,1640,,,,,
51895900,1638,1640,1640,1639,,,,,
51898399,1637,1640,1639,1638,,,,,
