TimeUS,M1,M2,M3,M4,TimeUS,C1,C2,C3,C4
46818765,1000,1000,1000,1000,46828761,1000,1000,1000,1000
46821264,1000,1000,1000,1000,46928721,1000,1000,1000,1000
46823763,1000,1000,1000,1000,47028681,1000,1000,1000,1000
46826262,1000,1000,1000,1000,47128641,1000,1000,1000,1000
46828761,1000,1000,1000,1000,47228601,1000,1000,1000,1000
46831260,1000,1000,1000,1000,47328561,1000,1000,1000,1000
46833759,1000,1000,1000,1000,47428521,1000,1000,1000,1000
46836258,1000,1000,1000,1000,47528481,1000,1000,1000,1000
46838757,1000,1000,1000,1000,47628441,1000,1000,1000,1000
46841256,1000,1000,1000,1000,47728401,1000,1000,1000,1000
46843755,1000,1000,1000,1000,47828361,1000,1000,1000,1000
46846254,1000,1000,1000,1000,47928321,1000,1000,1000,1000
46848753,1000,1000,1000,1000,48028281,1000,1000,1000,1000
46851252,1000,1000,1000,1000,48128241,1000,1000,1000,1000
46853751,1000,1000,1000,1000,48228201,1000,1000,1000,1000
46856250,1000,1000,1000,1000,48328161,1000,1000,1000,1000
46858749,1000,1000,1000,1000,48428954,1000,1000,1000,1000
46861248,1000,1000,1000,1000,48528914,1000,1000,1000,1000
46863747,1000,1000,1000,1000,48628874,1000,1000,1000,1000
46866246,1000,1000,1000,1000,48728834,1000,1000,1000,1000
46868745,1000,1000,1000,1000,48828794,1003,1003,1003,1003
46871244,1000,1000,1000,1000,48928754,1033,1033,1033,1033
46873743,1000,1000,1000,1000,49028714,1063,1063,1063,1063
46876242,1000,1000,1000,1000,49128674,1093,1093,1093,1093
46878741,1000,1000,1000,1000,49228634,1122,1122,1122,1122
46881240,1000,1000,1000,1000,49328594,1177,1170,1171,1177
46883739,1000,1000,1000,1000,49428554,1419,1414,1415,1419
46886238,1000,1000,1000,1000,49528514,1595,1590,1591,1595
46888737,1000,1000,1000,1000,49628474,1740,1736,1736,1740
46891236,1000,1000,1000,1000,49728434,1866,1862,1862,1866
46893735,1000,1000,1000,1000,49828394,1913,1910,1910,1914
46896234,1000,1000,1000,1000,49928354,1811,1810,1811,1812
46898733,1000,1000,1000,1000,50028314,1695,1695,1696,1694
46901232,1000,1000,1000,1000,50128274,1640,1642,1642,1640
46903731,1000,1000,1000,1000,50228234,1636,1638,1638,1636
46906230,1000,1000,1000,1000,50328194,1642,1643,1643,1642
46908729,1000,1000,1000,1000,50428154,1641,1642,1642,1642
46911228,1000,1000,1000,1000,50528947,1635,1634,1634,1635
46913727,1000,1000,1000,1000,50628907,1623,1622,1622,1623
46916226,1000,1000,1000,1000,50728867,1595,1595,1589,1601
46918725,1000,1000,1000,1000,50828827,1586,1585,1576,1595
46921224,1000,1000,1000,1000,50928787,1583,1582,1576,1588
46923723,1000,1000,1000,1000,51028747,1583,1583,1581,1584
46926222,1000,1000,1000,1000,51128707,1586,1586,1589,1584
46928721,1000,1000,1000,1000,51228667,1588,1588,1593,1583
46931220,1000,1000,1000,1000,51328627,1566,1567,1587,1547
46933719,1000,1000,1000,1000,51428587,1557,1557,1572,1543
46936218,1000,1000,1000,1000,51528547,1548,1548,1549,1548
46938717,1000,1000,1000,1000,51628507,1540,1540,1531,1550
46941216,1000,1000,1000,1000,51728467,1533,1533,1522,1545
46943715,1000,1000,1000,1000,51828427,1529,1528,1519,1538
46946214,1000,1000,1000,1000,51928387,1527,1527,1521,1532
46948713,1000,1000,1000,1000,52028347,1528,1528,1527,1529
46951212,1000,1000,1000,1000,52128307,1531,1531,1533,1529
46953711,1000,1000,1000,1000,52228267,1535,1535,1539,1531
46956210,1000,1000,1000,1000,52328227,1540,1540,1545,1535
46958709,1000,1000,1000,1000,52428187,1543,1544,1547,1540
46961208,1000,1000,1000,1000,52528980,1548,1547,1549,1546
46963707,1000,1000,1000,1000,52628940,1550,1550,1549,1550
46966206,1000,1000,1000,1000,52728900,1551,1551,1549,1553
46968705,1000,1000,1000,1000,52828860,1550,1550,1555,1561
46971204,1000,1000,1000,1000,52928820,1550,1550,1560,1564
46973703,1000,1000,1000,1000,53028780,1554,1554,1563,1564
46976202,1000,1000,1000,1000,53128740,1557,1558,1564,1563
46978701,1000,1000,1000,1000,53228700,1561,1562,1563,1563
46981200,1000,1000,1000,1000,53328660,1565,1566,1564,1563
46983699,1000,1000,1000,1000,53428620,1568,1568,1564,1563
46986198,1000,1000,1000,1000,53528580,1571,1570,1564,1563
46988697,1000,1000,1000,1000,53628540,1573,1572,1565,1565
46991196,1000,1000,1000,1000,53728500,1573,1574,1566,1567
46993695,1000,1000,1000,1000,53828460,1574,1574,1568,1568
46996194,1000,1000,1000,1000,53928420,1574,1573,1569,1569
46998693,1000,1000,1000,1000,54028380,1574,1573,1570,1571
47001192,1000,1000,1000,1000,54128340,1574,1574,1572,1572
47003691,1000,1000,1000,1000,54228300,1573,1574,1574,1573
47006190,1000,1000,1000,1000,54328260,1573,1573,1576,1573
47008689,1000,1000,1000,1000,54428220,1572,1573,1576,1574
47011188,1000,1000,1000,1000,54528180,1573,1574,1577,1576
47013687,1000,1000,1000,1000,54628973,1573,1573,1576,1575
47016186,1000,1000,1000,1000,54728933,1574,1574,1577,1576
47018685,1000,1000,1000,1000,54828893,1575,1575,1577,1577
47021184,1000,1000,1000,1000,54928853,1576,1575,1577,1577
47023683,1000,1000,1000,1000,55028813,1576,1576,1576,1577
47026182,1000,1000,1000,1000,55128773,1576,1577,1577,1576
47028681,1000,1000,1000,1000,55228733,1577,1577,1577,1576
47031180,1000,1000,1000,1000,55328693,1577,1578,1577,1576
47033679,1000,1000,1000,1000,55428653,1579,1579,1578,1578
47036178,1000,1000,1000,1000,55528613,1578,1578,1577,1577
47038677,1000,1000,1000,1000,55628573,1578,1577,1577,1576
47041176,1000,1000,1000,1000,55728533,1578,1578,1577,1578
47043675,1000,1000,1000,1000,55828493,1579,1579,1578,1578
47046174,1000,1000,1000,1000,55928453,1578,1578,1578,1578
47048673,1000,1000,1000,1000,56028413,1578,1578,1578,1578
47051172,1000,1000,1000,1000,56128373,1579,1579,1579,1579
47053671,1000,1000,1000,1000,56228333,1578,1578,1579,1578
47056170,1000,1000,1000,1000,56328293,1578,1578,1578,1578
47058669,1000,1000,1000,1000,56428253,1578,1578,1579,1579
47061168,1000,1000,1000,1000,56528213,1578,1578,1579,1579
47063667,1000,1000,1000,1000,56628173,1578,1578,1579,1579
47066166,1000,1000,1000,1000,56728966,1579,1578,1579,1579
47068665,1000,1000,1000,1000,56828926,1579,1579,1579,1579
47071164,1000,1000,1000,1000,56928886,1578,1578,1578,1578
47073663,1000,1000,1000,1000,57028846,1579,1579,1579,1579
47076162,1000,1000,1000,1000,57128806,1579,1580,1580,1580
47078661,1000,1000,1000,1000,57228766,1579,1580,1579,1579
47081160,1000,1000,1000,1000,57328726,1580,1580,1580,1580
47083659,1000,1000,1000,1000,57428686,1580,1579,1580,1580
47086158,1000,1000,1000,1000,57528646,1580,1580,1580,1580
47088657,1000,1000,1000,1000,57628606,1580,1579,1579,1579
47091156,1000,1000,1000,1000,57728566,1580,1580,1580,1580
47093655,1000,1000,1000,1000,57828526,1580,1581,1581,1581
47096154,1000,1000,1000,1000,57928486,1580,1581,1580,1581
47098653,1000,1000,1000,1000,58028446,1580,1580,1580,1580
47101152,1000,1000,1000,1000,58128406,1581,1580,1581,1580
47103651,1000,1000,1000,1000,58228366,1581,1581,1580,1581
47106150,1000,1000,1000,1000,58328326,1581,1580,1580,1580
47108649,1000,1000,1000,1000,58428286,1581,1581,1581,1581
47111148,1000,1000,1000,1000,58528246,1581,1581,1581,1581
47113647,1000,1000,1000,1000,58628206,1581,1580,1581,1581
47116146,1000,1000,1000,1000,58728166,1580,1581,1581,1581
47118645,1000,1000,1000,1000,58828959,1581,1581,1582,1581
47121144,1000,1000,1000,1000,58928919,1582,1582,1582,1582
47123643,1000,1000,1000,1000,59028879,1582,1582,1583,1582
47126142,1000,1000,1000,1000,59128839,1580,1581,1588,1573
47128641,1000,1000,1000,1000,59228799,1580,1582,1584,1573
47131140,1000,1000,1000,1000,59328759,1578,1581,1576,1573
47133639,1000,1000,1000,1000,59428719,1577,1580,1567,1572
47136138,1000,1000,1000,1000,59528679,1577,1579,1560,1568
47138637,1000,1000,1000,1000,59628639,1577,1578,1557,1563
47141136,1000,1000,1000,1000,59728599,1579,1577,1555,1559
47143635,1000,1000,1000,1000,59828559,1579,1577,1555,1555
47146134,1000,1000,1000,1000,59928519,1579,1578,1556,1554
47148633,1000,1000,1000,1000,60028479,1578,1578,1557,1554
47151132,1000,1000,1000,1000,60128439,1577,1577,1556,1554
47153631,1000,1000,1000,1000,60228399,1576,1577,1556,1554
47156130,1000,1000,1000,1000,60328359,1575,1576,1555,1554
47158629,1000,1000,1000,1000,60428319,1574,1576,1553,1553
47161128,1000,1000,1000,1000,60528279,1575,1577,1552,1553
47163627,1000,1000,1000,1000,60628239,1576,1577,1550,1550
47166126,1000,1000,1000,1000,60728199,1579,1579,1548,1549
47168625,1000,1000,1000,1000,60828159,1581,1582,1546,1546
47171124,1000,1000,1000,1000,60928952,1584,1585,1544,1543
47173623,1000,1000,1000,1000,61028912,1586,1587,1540,1539
47176122,1000,1000,1000,1000,61128872,1590,1590,1538,1537
47178621,1000,1000,1000,1000,61228832,1592,1593,1535,1535
47181120,1000,1000,1000,1000,61328792,1594,1594,1534,1535
47183619,1000,1000,1000,1000,61428752,1594,1594,1534,1535
47186118,1000,1000,1000,1000,61528712,1595,1594,1536,1538
47188617,1000,1000,1000,1000,61628672,1593,1592,1538,1541
47191116,1000,1000,1000,1000,61728632,1590,1588,1544,1547
47193615,1000,1000,1000,1000,61828592,1585,1582,1553,1556
47196114,1000,1000,1000,1000,61928552,1576,1573,1562,1565
47198613,1000,1000,1000,1000,62028512,1565,1561,1573,1575
47201112,1000,1000,1000,1000,62128472,1554,1551,1586,1587
47203611,1000,1000,1000,1000,62228432,1543,1541,1597,1597
47206110,1000,1000,1000,1000,62328392,1535,1534,1607,1606
47208609,1000,1000,1000,1000,62428352,1530,1530,1613,1611
47211108,1000,1000,1000,1000,62528312,1527,1529,1614,1614
47213607,1000,1000,1000,1000,62628272,1531,1534,1614,1614
47216106,1000,1000,1000,1000,62728232,1536,1539,1610,1610
47218605,1000,1000,1000,1000,62828192,1544,1546,1604,1604
47221104,1000,1000,1000,1000,62928985,1552,1554,1597,1597
47223603,1000,1000,1000,1000,63028945,1562,1561,1589,1588
47226102,1000,1000,1000,1000,63128905,1570,1569,1582,1581
47228601,1000,1000,1000,1000,63228865,1578,1577,1577,1576
47231100,1000,1000,1000,1000,63328825,1582,1581,1571,1570
47233599,1000,1000,1000,1000,63428785,1587,1585,1568,1568
47236098,1000,1000,1000,1000,63528745,1588,1587,1567,1567
47238597,1000,1000,1000,1000,63628705,1588,1587,1567,1568
47241096,1000,1000,1000,1000,63728665,1587,1586,1569,1569
47243595,1000,1000,1000,1000,63828625,1584,1584,1571,1571
47246094,1000,1000,1000,1000,63928585,1581,1581,1574,1574
47248593,1000,1000,1000,1000,64028545,1578,1578,1576,1576
47251092,1000,1000,1000,1000,64128505,1576,1576,1579,1579
47253591,1000,1000,1000,1000,64228465,1574,1575,1582,1581
47256090,1000,1000,1000,1000,64328425,1572,1573,1582,1582
47258589,1000,1000,1000,1000,64428385,1572,1573,1584,1584
47261088,1000,1000,1000,1000,64528345,1572,1573,1583,1583
47263587,1000,1000,1000,1000,64628305,1574,1574,1584,1584
47266086,1000,1000,1000,1000,64728265,1575,1575,1583,1583
47268585,1000,1000,1000,1000,64828225,1576,1576,1581,1581
47271084,1000,1000,1000,1000,64928185,1577,1577,1580,1580
47273583,1000,1000,1000,1000,65028978,1578,1578,1579,1579
47276082,1000,1000,1000,1000,65128938,1580,1580,1578,1578
47278581,1000,1000,1000,1000,65228898,1581,1581,1578,1578
47281080,1000,1000,1000,1000,65328858,1581,1581,1577,1577
47283579,1000,1000,1000,1000,65428818,1582,1581,1578,1577
47286078,1000,1000,1000,1000,65528778,1582,1582,1578,1578
47288577,1000,1000,1000,1000,65628738,1582,1582,1579,1579
47291076,1000,1000,1000,1000,65728698,1324,1327,1644,1653
47293575,1000,1000,1000,1000,65828658,1400,1409,1655,1659
47296074,1000,1000,1000,1000,65928618,1468,1479,1645,1640
47298573,1000,1000,1000,1000,66028578,1523,1531,1634,1624
47301072,1000,1000,1000,1000,66128538,1568,1568,1627,1616
47303571,1000,1000,1000,1000,66228498,1600,1583,1601,1593
47306070,1000,1000,1000,1000,66328458,1600,1583,1528,1534
47308569,1000,1000,1000,1000,66428418,1600,1588,1479,1495
47311068,1000,1000,1000,1000,66528378,1599,1600,1491,1505
47313567,1000,1000,1000,1000,66628338,1592,1600,1507,1511
47316066,1000,1000,1000,1000,66728298,1590,1600,1527,1525
47318565,1000,1000,1000,1000,66828258,1593,1600,1545,1540
47321064,1000,1000,1000,1000,66928218,1597,1600,1561,1556
47323563,1000,1000,1000,1000,67028178,1600,1597,1568,1566
47326062,1000,1000,1000,1000,67128971,1600,1591,1571,1565
47328561,1000,1000,1000,1000,67228931,1600,1586,1572,1569
47331060,1000,1000,1000,1000,67328891,1600,1590,1575,1579
47333559,1000,1000,1000,1000,67428851,1600,1596,1580,1586
47336058,1000,1000,1000,1000,67528811,1597,1600,1584,1587
47338557,1000,1000,1000,1000,67628771,1595,1600,1586,1584
47341056,1000,1000,1000,1000,67728731,1596,1600,1590,1585
47343555,1000,1000,1000,1000,67828691,1598,1600,1592,1586
47346054,1000,1000,1000,1000,67928651,1600,1598,1591,1587
47348553,1000,1000,1000,1000,68028611,1600,1597,1588,1586
47351052,1000,1000,1000,1000,68128571,1600,1598,1586,1586
47353551,1000,1000,1000,1000,68228531,1600,1598,1586,1586
47356050,1000,1000,1000,1000,68328491,1600,1599,1586,1587
47358549,1000,1000,1000,1000,68428451,1599,1600,1585,1586
47361048,1000,1000,1000,1000,68528411,1599,1600,1585,1584
47363547,1000,1000,1000,1000,68628371,1599,1600,1586,1584
47366046,1000,1000,1000,1000,68728331,1600,1599,1586,1584
47368545,1000,1000,1000,1000,68828291,1600,1599,1585,1584
47371044,1000,1000,1000,1000,68928251,1600,1599,1584,1584
47373543,1000,1000,1000,1000,69028211,1592,1591,1573,1573
47376042,1000,1000,1000,1000,69128171,1587,1587,1566,1566
47378541,1000,1000,1000,1000,69228964,1582,1582,1559,1560
47381040,1000,1000,1000,1000,69328924,1577,1578,1555,1555
47383539,1000,1000,1000,1000,69428884,1574,1575,1551,1552
47386038,1000,1000,1000,1000,69528844,1571,1573,1549,1550
47388537,1000,1000,1000,1000,69628804,1570,1571,1549,1549
47391036,1000,1000,1000,1000,69728764,1568,1570,1547,1548
47393535,1000,1000,1000,1000,69828724,1568,1570,1549,1548
47396034,1000,1000,1000,1000,69928684,1566,1569,1548,1547
47398533,1000,1000,1000,1000,70028644,1567,1570,1550,1548
47401032,1000,1000,1000,1000,70128604,1568,1570,1550,1550
47403531,1000,1000,1000,1000,70228564,1569,1571,1551,1552
47406030,1000,1000,1000,1000,70328524,1570,1572,1552,1553
47408529,1000,1000,1000,1000,70428484,1572,1573,1554,1554
47411028,1000,1000,1000,1000,70528444,1574,1575,1556,1557
47413527,1000,1000,1000,1000,70628404,1575,1576,1556,1556
47416026,1000,1000,1000,1000,70728364,1577,1578,1557,1558
47418525,1000,1000,1000,1000,70828324,1579,1580,1559,1560
47421024,1000,1000,1000,1000,70928284,1582,1582,1561,1562
47423523,1000,1000,1000,1000,71028244,1583,1584,1562,1563
47426022,1000,1000,1000,1000,71128204,1585,1586,1562,1564
47428521,1000,1000,1000,1000,71228164,1586,1587,1563,1564
47431020,1000,1000,1000,1000,71328957,1589,1588,1566,1566
47433519,1000,1000,1000,1000,71428917,1591,1590,1567,1567
47436018,1000,1000,1000,1000,71528877,1592,1591,1567,1568
47438517,1000,1000,1000,1000,71628837,1593,1591,1567,1568
47441016,1000,1000,1000,1000,71728797,1593,1591,1568,1568
47443515,1000,1000,1000,1000,71828757,1592,1591,1568,1569
47446014,1000,1000,1000,1000,71928717,1592,1592,1569,1569
47448513,1000,1000,1000,1000,72028677,1591,1592,1569,1569
47451012,1000,1000,1000,1000,72128637,1590,1590,1569,1568
47453511,1000,1000,1000,1000,72228597,1591,1591,1570,1570
47456010,1000,1000,1000,1000,72328557,1591,1590,1571,1570
47458509,1000,1000,1000,1000,72428517,1590,1590,1570,1570
47461008,1000,1000,1000,1000,72528477,1590,1590,1571,1570
47463507,1000,1000,1000,1000,72628437,1590,1589,1570,1570
47466006,1000,1000,1000,1000,72728397,1590,1590,1571,1571
47468505,1000,1000,1000,1000,72828357,1589,1589,1570,1570
47471004,1000,1000,1000,1000,72928317,1589,1589,1570,1570
47473503,1000,1000,1000,1000,73028277,1589,1589,1569,1569
47476002,1000,1000,1000,1000,73128237,1589,1589,1569,1568
47478501,1000,1000,1000,1000,73228197,1589,1589,1568,1568
47481000,1000,1000,1000,1000,73328157,1589,1584,1572,1571
47483499,1000,1000,1000,1000,73428950,1574,1566,1593,1592
47485998,1000,1000,1000,1000,73528910,1557,1551,1608,1610
47488497,1000,1000,1000,1000,73628870,1545,1543,1616,1618
47490996,1000,1000,1000,1000,73728830,1537,1541,1617,1620
47493495,1000,1000,1000,1000,73828790,1535,1542,1617,1617
47495994,1000,1000,1000,1000,73928750,1536,1545,1613,1613
47498493,1000,1000,1000,1000,74028710,1540,1549,1610,1608
47500992,1000,1000,1000,1000,74128670,1547,1553,1605,1603
47503491,1000,1000,1000,1000,74228630,1554,1556,1598,1596
47505990,1000,1000,1000,1000,74328590,1562,1561,1592,1591
47508489,1000,1000,1000,1000,74428550,1568,1566,1586,1586
47510988,1000,1000,1000,1000,74528510,1574,1570,1581,1582
47513487,1000,1000,1000,1000,74628470,1578,1575,1577,1578
47515986,1000,1000,1000,1000,74728430,1582,1580,1576,1576
47518485,1000,1000,1000,1000,74828390,1584,1583,1574,1574
47520984,1000,1000,1000,1000,74928350,1586,1585,1572,1573
47523483,1000,1000,1000,1000,75028310,1587,1587,1572,1572
47525982,1000,1000,1000,1000,75128270,1588,1589,1572,1573
47528481,1000,1000,1000,1000,75228230,1588,1588,1572,1572
47530980,1000,1000,1000,1000,75328190,1588,1588,1572,1572
47533479,1000,1000,1000,1000,75428983,1588,1588,1572,1573
47535978,1000,1000,1000,1000,75528943,1588,1587,1573,1574
47538477,1000,1000,1000,1000,75628903,1588,1587,1580,1570
47540976,1000,1000,1000,1000,75728863,1588,1584,1581,1568
47543475,1000,1000,1000,1000,75828823,1587,1583,1575,1571
47545974,1000,1000,1000,1000,75928783,1584,1581,1566,1569
47548473,1000,1000,1000,1000,76028743,1579,1580,1559,1565
47550972,1000,1000,1000,1000,76128703,1576,1580,1558,1563
47553471,1000,1000,1000,1000,76228663,1574,1579,1557,1558
47555970,1000,1000,1000,1000,76328623,1572,1577,1557,1555
47558469,1000,1000,1000,1000,76428583,1573,1576,1558,1555
47560968,1000,1000,1000,1000,76528543,1573,1574,1557,1554
47563467,1000,1000,1000,1000,76628503,1574,1574,1557,1555
47565966,1000,1000,1000,1000,76728463,1573,1572,1555,1554
47568465,1000,1000,1000,1000,76828423,1573,1572,1554,1554
47570964,1000,1000,1000,1000,76928383,1573,1573,1553,1554
47573463,1000,1000,1000,1000,77028343,1573,1573,1552,1552
47575962,1000,1000,1000,1000,77128303,1573,1574,1550,1551
47578461,1000,1000,1000,1000,77228263,1573,1575,1549,1549
47580960,1000,1000,1000,1000,77328223,1573,1576,1546,1546
47583459,1000,1000,1000,1000,77428183,1576,1578,1546,1545
47585958,1000,1000,1000,1000,77528976,1578,1579,1544,1543
47588457,1000,1000,1000,1000,77628936,1581,1581,1543,1542
47590956,1000,1000,1000,1000,77728896,1583,1583,1541,1541
47593455,1000,1000,1000,1000,77828856,1585,1585,1540,1541
47595954,1000,1000,1000,1000,77928816,1587,1586,1540,1541
47598453,1000,1000,1000,1000,78028776,1587,1587,1540,1542
47600952,1000,1000,1000,1000,78128736,1587,1586,1542,1544
47603451,1000,1000,1000,1000,78228696,1586,1585,1544,1547
47605950,1000,1000,1000,1000,78328656,1583,1583,1547,1550
47608449,1000,1000,1000,1000,78428616,1581,1581,1551,1554
47610948,1000,1000,1000,1000,78528576,1577,1576,1555,1559
47613447,1000,1000,1000,1000,78628536,1573,1572,1562,1564
47615946,1000,1000,1000,1000,78728496,1569,1567,1569,1571
47618445,1000,1000,1000,1000,78828456,1563,1561,1575,1576
47620944,1000,1000,1000,1000,78928416,1558,1556,1582,1583
47623443,1000,1000,1000,1000,79028376,1552,1550,1588,1588
47625942,1000,1000,1000,1000,79128336,1547,1546,1595,1595
47628441,1000,1000,1000,1000,79228296,1543,1543,1601,1600
47630940,1000,1000,1000,1000,79328256,1538,1539,1605,1604
47633439,1000,1000,1000,1000,79428216,1536,1538,1605,1605
47635938,1000,1000,1000,1000,79528176,1536,1538,1603,1603
47638437,1000,1000,1000,1000,79628969,1541,1543,1601,1601
47640936,1000,1000,1000,1000,79728929,1546,1548,1597,1597
47643435,1000,1000,1000,1000,79828889,1552,1553,1590,1590
47645934,1000,1000,1000,1000,79928849,1559,1560,1585,1584
47648433,1000,1000,1000,1000,80028809,1567,1567,1581,1580
47650932,1000,1000,1000,1000,80128769,1574,1573,1575,1574
47653431,1000,1000,1000,1000,80228729,1579,1578,1572,1571
47655930,1000,1000,1000,1000,80328689,1583,1582,1570,1570
47658429,1000,1000,1000,1000,80428649,1585,1583,1569,1569
47660928,1000,1000,1000,1000,80528609,1586,1584,1569,1569
47663427,1000,1000,1000,1000,80628569,1587,1586,1570,1570
47665926,1000,1000,1000,1000,80728529,1586,1585,1570,1571
47668425,1000,1000,1000,1000,80828489,1586,1586,1573,1573
47670924,1000,1000,1000,1000,80928449,1584,1585,1574,1574
47673423,1000,1000,1000,1000,81028409,1583,1583,1575,1575
47675922,1000,1000,1000,1000,81128369,1582,1582,1577,1576
47678421,1000,1000,1000,1000,81228329,1581,1581,1578,1578
47680920,1000,1000,1000,1000,81328289,1580,1580,1579,1580
47683419,1000,1000,1000,1000,81428249,1579,1579,1580,1580
47685918,1000,1000,1000,1000,81528209,1578,1578,1581,1581
47688417,1000,1000,1000,1000,81628169,1577,1578,1581,1582
47690916,1000,1000,1000,1000,81728962,1577,1577,1582,1582
47693415,1000,1000,1000,1000,81828922,1576,1577,1581,1581
47695914,1000,1000,1000,1000,81928882,1576,1577,1582,1582
47698413,1000,1000,1000,1000,82028842,1576,1577,1581,1581
47700912,1000,1000,1000,1000,82128802,1577,1577,1581,1581
47703411,1000,1000,1000,1000,82228762,1577,1578,1581,1581
47705910,1000,1000,1000,1000,82328722,1578,1578,1580,1580
47708409,1000,1000,1000,1000,82428682,1579,1579,1581,1581
47710908,1000,1000,1000,1000,82528642,1580,1580,1580,1580
47713407,1000,1000,1000,1000,82628602,1580,1580,1579,1580
47715906,1000,1000,1000,1000,82728562,1581,1581,1579,1579
47718405,1000,1000,1000,1000,82828522,1581,1581,1579,1579
47720904,1000,1000,1000,1000,82928482,1582,1581,1579,1579
47723403,1000,1000,1000,1000,83028442,1582,1582,1580,1580
47725902,1000,1000,1000,1000,83128402,1581,1581,1579,1579
47728401,1000,1000,1000,1000,83228362,1582,1582,1580,1580
47730900,1000,1000,1000,1000,83328322,1582,1582,1581,1581
47733399,1000,1000,1000,1000,83428282,1582,1582,1580,1580
47735898,1000,1000,1000,1000,83528242,1582,1582,1581,1582
47738397,1000,1000,1000,1000,83628202,1581,1581,1580,1580
47740896,1000,1000,1000,1000,83728162,1581,1581,1581,1581
47743395,1000,1000,1000,1000,83828955,1581,1581,1581,1581
47745894,1000,1000,1000,1000,83928915,1581,1581,1583,1580
47748393,1000,1000,1000,1000,84028875,1580,1580,1588,1573
47750892,1000,1000,1000,1000,84128835,1579,1578,1583,1574
47753391,1000,1000,1000,1000,84228795,1577,1575,1575,1574
47755890,1000,1000,1000,1000,84328755,1573,1572,1568,1573
47758389,1000,1000,1000,1000,84428715,1571,1571,1565,1572
47760888,1000,1000,1000,1000,84528675,1568,1569,1563,1569
47763387,1000,1000,1000,1000,84628635,1566,1568,1564,1567
47765886,1000,1000,1000,1000,84728595,1566,1567,1566,1567
47768385,1000,1000,1000,1000,84828555,1566,1567,1569,1566
47770884,1000,1000,1000,1000,84928515,1565,1566,1569,1566
47773383,1000,1000,1000,1000,85028475,1565,1565,1567,1565
47775882,1000,1000,1000,1000,85128435,1565,1564,1567,1565
47778381,1000,1000,1000,1000,85228395,1564,1563,1565,1564
47780880,1000,1000,1000,1000,85328355,1563,1562,1563,1564
47783379,1000,1000,1000,1000,85428315,1562,1561,1561,1562
47785878,1000,1000,1000,1000,85528275,1561,1561,1561,1561
47788377,1000,1000,1000,1000,85628235,1561,1561,1561,1561
47790876,1000,1000,1000,1000,85728195,1560,1561,1561,1561
47793375,1000,1000,1000,1000,85828155,1560,1561,1561,1559
47795874,1000,1000,1000,1000,85928948,1559,1559,1559,1558
47798373,1000,1000,1000,1000,86028908,1560,1560,1560,1559
47800872,1000,1000,1000,1000,86128868,1559,1558,1559,1558
47803371,1000,1000,1000,1000,86228828,1559,1558,1559,1558
47805870,1000,1000,1000,1000,86328788,1559,1559,1559,1558
47808369,1000,1000,1000,1000,86428748,1559,1559,1560,1559
47810868,1000,1000,1000,1000,86528708,1559,1558,1560,1559
47813367,1000,1000,1000,1000,86628668,1559,1558,1560,1558
47815866,1000,1000,1000,1000,86728628,1559,1559,1561,1558
47818365,1000,1000,1000,1000,86828588,1559,1559,1560,1559
47820864,1000,1000,1000,1000,86928548,1560,1559,1558,1562
47823363,1000,1000,1000,1000,87028508,1560,1560,1558,1564
47825862,1000,1000,1000,1000,87128468,1560,1561,1558,1564
47828361,1000,1000,1000,1000,87228428,1560,1561,1559,1563
47830860,1000,1000,1000,1000,87328388,1559,1560,1559,1560
47833359,1000,1000,1000,1000,87428348,1559,1559,1560,1557
47835858,1000,1000,1000,1000,87528308,1560,1559,1558,1559
47838357,1000,1000,1000,1000,87628268,1558,1558,1555,1558
47840856,1000,1000,1000,1000,87728228,1555,1555,1551,1553
47843355,1000,1000,1000,1000,87828188,1551,1551,1547,1549
47845854,1000,1000,1000,1000,87928981,1545,1546,1540,1540
47848353,1000,1000,1000,1000,88028941,1539,1540,1534,1533
47850852,1000,1000,1000,1000,88128901,1532,1532,1526,1525
47853351,1000,1000,1000,1000,88228861,1526,1526,1519,1519
47855850,1000,1000,1000,1000,88328821,1522,1522,1518,1518
47858349,1000,1000,1000,1000,88428781,1520,1520,1519,1519
47860848,1000,1000,1000,1000,88528741,1520,1520,1522,1523
47863347,1000,1000,1000,1000,88628701,1519,1519,1524,1525
47865846,1000,1000,1000,1000,88728661,1522,1522,1530,1530
47868345,1000,1000,1000,1000,88828621,1525,1524,1534,1534
47870844,1000,1000,1000,1000,88928581,1529,1529,1539,1540
47873343,1000,1000,1000,1000,89028541,1532,1533,1542,1542
47875842,1000,1000,1000,1000,89128501,1536,1536,1545,1545
47878341,1000,1000,1000,1000,89228461,1539,1539,1545,1545
47880840,1000,1000,1000,1000,89328421,1542,1542,1545,1545
47883339,1000,1000,1000,1000,89428381,1544,1545,1545,1545
47885838,1000,1000,1000,1000,89528341,1546,1547,1544,1544
47888337,1000,1000,1000,1000,89628301,1548,1548,1544,1544
47890836,1000,1000,1000,1000,89728261,1549,1549,1544,1543
47893335,1000,1000,1000,1000,89828221,1551,1550,1544,1544
47895834,1000,1000,1000,1000,89928181,1550,1550,1544,1543
47898333,1000,1000,1000,1000,90028974,1549,1550,1544,1543
47900832,1000,1000,1000,1000,90128934,1549,1550,1544,1544
47903331,1000,1000,1000,1000,90228894,1548,1549,1544,1545
47905830,1000,1000,1000,1000,90328854,1547,1548,1545,1545
47908329,1000,1000,1000,1000,90428814,1546,1546,1544,1544
47910828,1000,1000,1000,1000,90528774,1546,1545,1545,1545
47913327,1000,1000,1000,1000,90628734,1544,1544,1545,1545
47915826,1000,1000,1000,1000,90728694,1543,1543,1545,1545
47918325,1000,1000,1000,1000,90828654,1543,1543,1546,1545
47920824,1000,1000,1000,1000,90928614,1543,1543,1546,1546
47923323,1000,1000,1000,1000,91028574,1543,1543,1546,1546
47925822,1000,1000,1000,1000,91128534,1542,1543,1545,1545
47928321,1000,1000,1000,1000,91228494,1543,1543,1545,1545
47930820,1000,1000,1000,1000,91328454,1543,1543,1544,1545
47933319,1000,1000,1000,1000,91428414,1543,1543,1544,1544
47935818,1000,1000,1000,1000,91528374,1544,1543,1544,1544
47938317,1000,1000,1000,1000,91628334,1543,1543,1543,1543
47940816,1000,1000,1000,1000,91728294,1544,1544,1544,1544
47943315,1000,1000,1000,1000,91828254,1544,1544,1543,1543
47945814,1000,1000,1000,1000,91928214,1545,1545,1544,1543
47948313,1000,1000,1000,1000,92028174,1544,1544,1542,1543
47950812,1000,1000,1000,1000,92128967,1545,1545,1543,1544
47953311,1000,1000,1000,1000,92228927,1544,1544,1544,1543
47955810,1000,1000,1000,1000,92328887,1545,1545,1544,1544
47958309,1000,1000,1000,1000,92428847,1544,1545,1544,1544
47960808,1000,1000,1000,1000,92528807,1544,1544,1543,1543
47963307,1000,1000,1000,1000,92628767,1544,1544,1544,1544
47965806,1000,1000,1000,1000,92728727,1544,1544,1544,1544
47968305,1000,1000,1000,1000,92828687,1545,1544,1545,1545
47970804,1000,1000,1000,1000,92928647,1544,1544,1544,1545
47973303,1000,1000,1000,1000,93028607,1544,1545,1545,1545
47975802,1000,1000,1000,1000,93128567,1544,1544,1544,1544
47978301,1000,1000,1000,1000,93228527,1544,1545,1545,1544
47980800,1000,1000,1000,1000,93328487,1544,1545,1545,1545
47983299,1000,1000,1000,1000,93428447,1544,1544,1544,1544
47985798,1000,1000,1000,1000,93528407,1544,1544,1544,1545
47988297,1000,1000,1000,1000,93628367,1544,1544,1543,1544
47990796,1000,1000,1000,1000,93728327,1545,1544,1544,1544
47993295,1000,1000,1000,1000,93828287,1544,1544,1544,1544
47995794,1000,1000,1000,1000,93928247,1545,1544,1544,1544
47998293,1000,1000,1000,1000,94028207,1544,1544,1544,1544
48000792,1000,1000,1000,1000,94128167,1544,1544,1544,1544
48003291,1000,1000,1000,1000,94228960,1544,1544,1544,1544
48005790,1000,1000,1000,1000,94328920,1544,1544,1544,1544
48008289,1000,1000,1000,1000,94428880,1543,1544,1543,1543
48010788,1000,1000,1000,1000,94528840,1544,1544,1543,1544
48013287,1000,1000,1000,1000,94628800,1544,1544,1544,1543
48015786,1000,1000,1000,1000,94728760,1544,1544,1544,1544
48018285,1000,1000,1000,1000,94828720,1543,1543,1544,1543
48020784,1000,1000,1000,1000,94928680,1544,1544,1544,1544
48023283,1000,1000,1000,1000,95028640,1544,1544,1544,1544
48025782,1000,1000,1000,1000,95128600,1544,1544,1545,1545
48028281,1000,1000,1000,1000,95228560,1544,1544,1545,1545
48030780,1000,1000,1000,1000,95328520,1543,1544,1544,1544
48033279,1000,1000,1000,1000,95428480,1543,1544,1544,1544
48035778,1000,1000,1000,1000,95528440,1543,1544,1543,1543
48038277,1000,1000,1000,1000,95628400,1544,1544,1544,1543
48040776,1000,1000,1000,1000,95728360,1544,1543,1544,1544
48043275,1000,1000,1000,1000,95828320,1544,1543,1543,1543
48045774,1000,1000,1000,1000,95928280,1544,1544,1543,1544
48048273,1000,1000,1000,1000,96028240,1544,1544,1544,1544
48050772,1000,1000,1000,1000,96128200,1544,1544,1544,1544
48053271,1000,1000,1000,1000,96228160,1544,1544,1544,1544
48055770,1000,1000,1000,1000,96328953,1545,1544,1545,1545
48058269,1000,1000,1000,1000,96428913,1544,1544,1544,1544
48060768,1000,1000,1000,1000,96528873,1544,1544,1545,1545
48063267,1000,1000,1000,1000,96628833,1544,1545,1544,1544
48065766,1000,1000,1000,1000,96728793,1545,1545,1545,1545
48068265,1000,1000,1000,1000,96828753,1544,1545,1544,1544
48070764,1000,1000,1000,1000,96928713,1545,1545,1545,1545
48073263,1000,1000,1000,1000,97028673,1544,1544,1544,1544
48075762,1000,1000,1000,1000,97128633,1544,1544,1544,1544
48078261,1000,1000,1000,1000,97228593,1545,1544,1544,1544
48080760,1000,1000,1000,1000,97328553,1544,1544,1544,1544
48083259,1000,1000,1000,1000,97428513,1544,1544,1543,1543
48085758,1000,1000,1000,1000,97528473,1544,1544,1543,1544
48088257,1000,1000,1000,1000,97628433,1543,1544,1544,1544
48090756,1000,1000,1000,1000,97728393,1544,1544,1545,1545
48093255,1000,1000,1000,1000,97828353,1544,1545,1545,1545
48095754,1000,1000,1000,1000,97928313,1545,1544,1545,1545
48098253,1000,1000,1000,1000,98028273,1438,1437,1381,1381
48100752,1000,1000,1000,1000,98128233,1369,1368,1258,1261
48103251,1000,1000,1000,1000,98228193,1348,1347,1217,1219
48105750,1000,1000,1000,1000,98328986,1338,1337,1197,1199
48108249,1000,1000,1000,1000,98428946,1318,1318,1156,1157
48110748,1000,1000,1000,1000,98528906,1262,1261,1150,1152
48113247,1000,1000,1000,1000,98628866,1172,1172,1150,1151
48115746,1000,1000,1000,1000,98728826,1072,1071,1150,1152
48118245,1000,1000,1000,1000,98828786,976,976,1150,1151
48120744,1000,1000,1000,1000,98928746,976,976,1150,1151
48123243,1000,1000,1000,1000,99028706,976,976,1150,1150
48125742,1000,1000,1000,1000,99128666,977,966,1150,1165
48128241,1000,1000,1000,1000,99228626,976,965,1150,1166
48130740,1000,1000,1000,1000,99328586,976,969,1150,1161
48133239,1000,1000,1000,1000,99428546,976,970,1150,1159
48135738,1000,1000,1000,1000,99528506,976,970,1150,1159
48138237,1000,1000,1000,1000,99628466,976,970,1150,1159
48140736,1000,1000,1000,1000,99728426,976,969,1150,1160
48143235,1000,1000,1000,1000,99828386,977,969,1150,1160
48145734,1000,1000,1000,1000,99928346,974,977,1153,1150
48148233,1000,1000,1000,1000,100028306,977,976,1150,1151
48150732,1000,1000,1000,1000,100128266,977,975,1150,1152
48153231,1000,1000,1000,1000,100228226,977,975,1150,1152
48155730,1000,1000,1000,1000,100328186,977,975,1150,1152
48158229,1000,1000,1000,1000,100428979,1000,1000,1000,1000
48160728,1000,1000,1000,1000,100528939,1000,1000,1000,1000
48163227,1000,1000,1000,1000,100628899,1000,1000,1000,1000
48165726,1000,1000,1000,1000,100728859,1000,1000,1000,1000
48168225,1000,1000,1000,1000,100828819,1000,1000,1000,1000
48170724,1000,1000,1000,1000,100928779,1000,1000,1000,1000
48173223,1000,1000,1000,1000,101028739,1000,1000,1000,1000
48175722,1000,1000,1000,1000,101128699,1000,1000,1000,1000
48178221,1000,1000,1000,1000,101228659,1000,1000,1000,1000
48180720,1000,1000,1000,1000,101328619,1000,1000,1000,1000
48183219,1000,1000,1000,1000,101428579,1000,1000,1000,1000
48185718,1000,1000,1000,1000,101528539,1000,1000,1000,1000
48188217,1000,1000,1000,1000,101628499,1000,1000,1000,1000
48190716,1000,1000,1000,1000,101728459,1000,1000,1000,1000
48193215,1000,1000,1000,1000,101828419,1000,1000,1000,1000
48195714,1000,1000,1000,1000,101928379,1000,1000,1000,1000
48198213,1000,1000,1000,1000,102028339,1000,1000,1000,1000
48200712,1000,1000,1000,1000,102128299,1000,1000,1000,1000
48203211,1000,1000,1000,1000,102228259,1000,1000,1000,1000
48205710,1000,1000,1000,1000,102328219,1000,1000,1000,1000
48208209,1000,1000,1000,1000,102428179,1000,1000,1000,1000
48210708,1000,1000,1000,1000,102528972,1000,1000,1000,1000
48213207,1000,1000,1000,1000,102628932,1000,1000,1000,1000
48215706,1000,1000,1000,1000,102728892,1000,1000,1000,1000
48218205,1000,1000,1000,1000,102828852,1000,1000,1000,1000
48220704,1000,1000,1000,1000,102928812,1000,1000,1000,1000
48223203,1000,1000,1000,1000,103028772,1000,1000,1000,1000
48225702,1000,1000,1000,1000,103128732,1000,1000,1000,1000
48228201,1000,1000,1000,1000,103228692,1000,1000,1000,1000
48230700,1000,1000,1000,1000,103328652,1000,1000,1000,1000
48233199,1000,1000,1000,1000,103428612,1000,1000,1000,1000
48235698,1000,1000,1000,1000,103528572,1000,1000,1000,1000
48238197,1000,1000,1000,1000,103628532,1000,1000,1000,1000
48240696,1000,1000,1000,1000,103728492,1000,1000,1000,1000
48243195,1000,1000,1000,1000,103828452,1000,1000,1000,1000
48245694,1000,1000,1000,1000,103928412,1000,1000,1000,1000
48248193,1000,1000,1000,1000,104028372,1000,1000,1000,1000
48250692,1000,1000,1000,1000,104128332,1000,1000,1000,1000
48253191,1000,1000,1000,1000,104228292,1000,1000,1000,1000
48255690,1000,1000,1000,1000,104328252,1000,1000,1000,1000
48258189,1000,1000,1000,1000,104428212,1000,1000,1000,1000
48260688,1000,1000,1000,1000,104528172,1000,1000,1000,1000
48263187,1000,1000,1000,1000,104628965,1000,1000,1000,1000
48265686,1000,1000,1000,1000,104728925,1000,1000,1000,1000
48268185,1000,1000,1000,1000,104828885,1000,1000,1000,1000
48270684,1000,1000,1000,1000,104928845,1000,1000,1000,1000
48273183,1000,1000,1000,1000,105028805,1000,1000,1000,1000
48275682,1000,1000,1000,1000,105128765,1000,1000,1000,1000
48278181,1000,1000,1000,1000,105228725,1000,1000,1000,1000
48280680,1000,1000,1000,1000,105328685,1000,1000,1000,1000
48283179,1000,1000,1000,1000,105428645,1000,1000,1000,1000
48285678,1000,1000,1000,1000,105528605,1000,1000,1000,1000
48288177,1000,1000,1000,1000,105628565,1000,1000,1000,1000
48290676,1000,1000,1000,1000,105728525,1000,1000,1000,1000
48293175,1000,1000,1000,1000,105828485,1000,1000,1000,1000
48295674,1000,1000,1000,1000,105928445,1000,1000,1000,1000
48298173,1000,1000,1000,1000,106028405,1000,1000,1000,1000
48300672,1000,1000,1000,1000,106128365,1000,1000,1000,1000
48303171,1000,1000,1000,1000,106228325,1000,1000,1000,1000
48305670,1000,1000,1000,1000,106328285,1000,1000,1000,1000
48308169,1000,1000,1000,1000,106428245,1000,1000,1000,1000
48310668,1000,1000,1000,1000,106528205,1000,1000,1000,1000
48313167,1000,1000,1000,1000,106628165,1000,1000,1000,1000
48315666,1000,1000,1000,1000,106728958,1000,1000,1000,1000
48318165,1000,1000,1000,1000,106828918,1000,1000,1000,1000
48320664,1000,1000,1000,1000,106928878,1000,1000,1000,1000
48323163,1000,1000,1000,1000,107028838,1000,1000,1000,1000
48325662,1000,1000,1000,1000,107128798,1000,1000,1000,1000
48328161,1000,1000,1000,1000,107228758,1000,1000,1000,1000
48330660,1000,1000,1000,1000,107328718,1000,1000,1000,1000
48333159,1000,1000,1000,1000,107428678,1000,1000,1000,1000
48335658,1000,1000,1000,1000,107528638,1000,1000,1000,1000
48338157,1000,1000,1000,1000,107628598,1000,1000,1000,1000
48340656,1000,1000,1000,1000,107728558,1000,1000,1000,1000
48343155,1000,1000,1000,1000,107828518,1000,1000,1000,1000
48345654,1000,1000,1000,1000,107928478,1000,1000,1000,1000
48348986,1000,1000,1000,1000,108028438,1000,1000,1000,1000
48351485,1000,1000,1000,1000,108128398,1000,1000,1000,1000
48353984,1000,1000,1000,1000,108228358,1000,1000,1000,1000
48356483,1000,1000,1000,1000,108328318,1000,1000,1000,1000
48358982,1000,1000,1000,1000,108428278,1000,1000,1000,1000
48361481,1000,1000,1000,1000,108528238,1000,1000,1000,1000
48363980,1000,1000,1000,1000,108628198,1000,1000,1000,1000
48366479,1000,1000,1000,1000,108728158,1000,1000,1000,1000
48368978,1000,1000,1000,1000,108828951,1000,1000,1000,1000
48371477,1000,1000,1000,1000,108928911,1000,1000,1000,1000
48373976,1000,1000,1000,1000,109028871,1000,1000,1000,1000
48376475,1000,1000,1000,1000,109128831,1000,1000,1000,1000
48378974,1000,1000,1000,1000,109228791,1000,1000,1000,1000
48381473,1000,1000,1000,1000,109328751,1000,1000,1000,1000
48383972,1000,1000,1000,1000,109428711,1000,1000,1000,1000
48386471,1000,1000,1000,1000,109528671,1000,1000,1000,1000
48388970,1000,1000,1000,1000,109628631,1000,1000,1000,1000
48391469,1000,1000,1000,1000,109728591,1000,1000,1000,1000
48393968,1000,1000,1000,1000,109828551,1000,1000,1000,1000
48396467,1000,1000,1000,1000,109928511,1000,1000,1000,1000
48398966,1000,1000,1000,1000,110028471,1000,1000,1000,1000
48401465,1000,1000,1000,1000,110128431,1000,1000,1000,1000
48403964,1000,1000,1000,1000,110228391,1000,1000,1000,1000
48406463,1000,1000,1000,1000,110328351,1000,1000,1000,1000
48408962,1000,1000,1000,1000,110428311,1000,1000,1000,1000
48411461,1000,1000,1000,1000,110528271,1000,1000,1000,1000
48413960,1000,1000,1000,1000,110628231,1000,1000,1000,1000
48416459,1000,1000,1000,1000,110728191,1000,1000,1000,1000
48418958,1000,1000,1000,1000,110828984,1000,1000,1000,1000
48421457,1000,1000,1000,1000,110928944,1000,1000,1000,1000
48423956,1000,1000,1000,1000,111028904,1000,1000,1000,1000
48426455,1000,1000,1000,1000,111128864,1000,1000,1000,1000
48428954,1000,1000,1000,1000,111228824,1000,1000,1000,1000
48431453,1000,1000,1000,1000,111328784,1000,1000,1000,1000
48433952,1000,1000,1000,1000,111428744,1000,1000,1000,1000
48436451,1000,1000,1000,1000,111528704,1000,1000,1000,1000
48438950,1000,1000,1000,1000,111628664,1000,1000,1000,1000
48441449,1000,1000,1000,1000,111728624,1000,1000,1000,1000
48443948,1000,1000,1000,1000,111828584,1000,1000,1000,1000
48446447,1000,1000,1000,1000,111928544,1000,1000,1000,1000
48448946,1000,1000,1000,1000,112028504,1000,1000,1000,1000
48451445,1000,1000,1000,1000,112128464,1000,1000,1000,1000
48453944,1000,1000,1000,1000,112228424,1000,1000,1000,1000
48456443,1000,1000,1000,1000,112328384,1000,1000,1000,1000
48458942,1000,1000,1000,1000,112428344,1000,1000,1000,1000
48461441,1000,1000,1000,1000,112528304,1000,1000,1000,1000
48463940,1000,1000,1000,1000,112628264,1000,1000,1000,1000
48466439,1000,1000,1000,1000,112728224,1000,1000,1000,1000
48468938,1000,1000,1000,1000,112828184,1000,1000,1000,1000
48471437,1000,1000,1000,1000,112928977,1000,1000,1000,1000
48473936,1000,1000,1000,1000,113028937,1000,1000,1000,1000
48476435,1000,1000,1000,1000,113128897,1000,1000,1000,1000
48478934,1000,1000,1000,1000,113228857,1000,1000,1000,1000
48481433,1000,1000,1000,1000,113328817,1000,1000,1000,1000
48483932,1000,1000,1000,1000,113428777,1000,1000,1000,1000
48486431,1000,1000,1000,1000,113528737,1000,1000,1000,1000
48488930,1000,1000,1000,1000,113628697,1000,1000,1000,1000
48491429,1000,1000,1000,1000,113728657,1000,1000,1000,1000
48493928,1000,1000,1000,1000,113828617,1000,1000,1000,1000
48496427,1000,1000,1000,1000,113928577,1000,1000,1000,1000
48498926,1000,1000,1000,1000,114028537,1000,1000,1000,1000
48501425,1000,1000,1000,1000,114128497,1000,1000,1000,1000
48503924,1000,1000,1000,1000,114228457,1000,1000,1000,1000
48506423,1000,1000,1000,1000,114328417,1000,1000,1000,1000
48508922,1000,1000,1000,1000,114428377,1000,1000,1000,1000
48511421,1000,1000,1000,1000,114528337,1000,1000,1000,1000
48513920,1000,1000,1000,1000,114628297,1000,1000,1000,1000
48516419,1000,1000,1000,1000,114728257,1000,1000,1000,1000
48518918,1000,1000,1000,1000,114828217,1000,1000,1000,1000
48521417,1000,1000,1000,1000,114928177,1000,1000,1000,1000
48523916,1000,1000,1000,1000,115028970,1000,1000,1000,1000
48526415,1000,1000,1000,1000,115128930,1000,1000,1000,1000
48528914,1000,1000,1000,1000,115228890,1000,1000,1000,1000
48531413,1000,1000,1000,1000,115328850,1000,1000,1000,1000
48533912,1000,1000,1000,1000,,,,,
48536411,1000,1000,1000,1000,,,,,
48538910,1000,1000,1000,1000,,,,,
48541409,1000,1000,1000,1000,,,,,
48543908,1000,1000,1000,1000,,,,,
48546407,1000,1000,1000,1000,,,,,
48548906,1000,1000,1000,1000,,,,,
48551405,1000,1000,1000,1000,,,,,
48553904,1000,1000,1000,1000,,,,,
48556403,1000,1000,1000,1000,,,,,
48558902,1000,1000,1000,1000,,,,,
48561401,1000,1000,1000,1000,,,,,
48563900,1000,1000,1000,1000,,,,,
48566399,1000,1000,1000,1000,,,,,
48568898,1000,1000,1000,1000,,,,,
48571397,1000,1000,1000,1000,,,,,
48573896,1000,1000,1000,1000,,,,,
48576395,1000,1000,1000,1000,,,,,
48578894,1000,1000,1000,1000,,,,,
48581393,1000,1000,1000,1000,,,,,
48583892,1000,1000,1000,1000,,,,,
48586391,1000,1000,1000,1000,,,,,
48588890,1000,1000,1000,1000,,,,,
48591389,1000,1000,1000,1000,,,,,
48593888,1000,1000,1000,1000,,,,,
48596387,1000,1000,1000,1000,,,,,
48598886,1000,1000,1000,1000,,,,,
48601385,1000,1000,1000,1000,,,,,
48603884,1000,1000,1000,1000,,,,,
48606383,1000,1000,1000,1000,,,,,
48608882,1000,1000,1000,1000,,,,,
48611381,1000,1000,1000,1000,,,,,
48613880,1000,1000,1000,1000,,,,,
48616379,1000,1000,1000,1000,,,,,
48618878,1000,1000,1000,1000,,,,,
48621377,1000,1000,1000,1000,,,,,
48623876,1000,1000,1000,1000,,,,,
48626375,1000,1000,1000,1000,,,,,
48628874,1000,1000,1000,1000,,,,,
48631373,1000,1000,1000,1000,,,,,
48633872,1000,1000,1000,1000,,,,,
48636371,1000,1000,1000,1000,,,,,
48638870,1000,1000,1000,1000,,,,,
48641369,1000,1000,1000,1000,,,,,
48643868,1000,1000,1000,1000,,,,,
48646367,1000,1000,1000,1000,,,,,
48648866,1000,1000,1000,1000,,,,,
48651365,1000,1000,1000,1000,,,,,
48653864,1000,1000,1000,1000,,,,,
48656363,1000,1000,1000,1000,,,,,
48658862,1000,1000,1000,1000,,,,,
48661361,1000,1000,1000,1000,,,,,
48663860,1000,1000,1000,1000,,,,,
48666359,1000,1000,1000,1000,,,,,
48668858,1000,1000,1000,1000,,,,,
48671357,1000,1000,1000,1000,,,,,
48673856,1000,1000,1000,1000,,,,,
48676355,1000,1000,1000,1000,,,,,
48678854,1000,1000,1000,1000,,,,,
48681353,1000,1000,1000,1000,,,,,
48683852,1000,1000,1000,1000,,,,,
48686351,1000,1000,1000,1000,,,,,
48688850,1000,1000,1000,1000,,,,,
48691349,1000,1000,1000,1000,,,,,
48693848,1000,1000,1000,1000,,,,,
48696347,1000,1000,1000,1000,,,,,
48698846,1000,1000,1000,1000,,,,,
48701345,1000,1000,1000,1000,,,,,
48703844,1000,1000,1000,1000,,,,,
48706343,1000,1000,1000,1000,,,,,
48708842,1000,1000,1000,1000,,,,,
48711341,1000,1000,1000,1000,,,,,
48713840,1000,1000,1000,1000,,,,,
48716339,1000,1000,1000,1000,,,,,
48718838,1000,1000,1000,1000,,,,,
48721337,1000,1000,1000,1000,,,,,
48723836,1000,1000,1000,1000,,,,,
48726335,1000,1000,1000,1000,,,,,
48728834,1000,1000,1000,1000,,,,,
48731333,1000,1000,1000,1000,,,,,
48733832,1000,1000,1000,1000,,,,,
48736331,1000,1000,1000,1000,,,,,
48738830,1000,1000,1000,1000,,,,,
48741329,1000,1000,1000,1000,,,,,
48743828,1000,1000,1000,1000,,,,,
48746327,1000,1000,1000,1000,,,,,
48748826,1000,1000,1000,1000,,,,,
48751325,1000,1000,1000,1000,,,,,
48753824,1000,1000,1000,1000,,,,,
48756323,1000,1000,1000,1000,,,,,
48758822,1000,1000,1000,1000,,,,,
48761321,1000,1000,1000,1000,,,,,
48763820,1000,1000,1000,1000,,,,,
48766319,1000,1000,1000,1000,,,,,
48768818,1000,1000,1000,1000,,,,,
48771317,1000,1000,1000,1000,,,,,
48773816,1000,1000,1000,1000,,,,,
48776315,1000,1000,1000,1000,,,,,
48778814,1000,1000,1000,1000,,,,,
48781313,1000,1000,1000,1000,,,,,
48783812,1000,1000,1000,1000,,,,,
48786311,1000,1000,1000,1000,,,,,
48788810,1000,1000,1000,1000,,,,,
48791309,1000,1000,1000,1000,,,,,
48793808,1000,1000,1000,1000,,,,,
48796307,1000,1000,1000,1000,,,,,
48798806,1000,1000,1000,1000,,,,,
48801305,1000,1000,1000,1000,,,,,
48803804,1000,1000,1000,1000,,,,,
48806303,1000,1000,1000,1000,,,,,
48808802,1000,1000,1000,1000,,,,,
48811301,1000,1000,1000,1000,,,,,
48813800,1000,1000,1000,1000,,,,,
48816299,1000,1000,1000,1000,,,,,
48818798,1000,1000,1000,1000,,,,,
48821297,1000,1000,1000,1000,,,,,
48823796,1000,1000,1000,1000,,,,,
48826295,1001,1001,1001,1001,,,,,
48828794,1002,1002,1002,1002,,,,,
48831293,1003,1003,1003,1003,,,,,
48833792,1003,1003,1003,1003,,,,,
48836291,1004,1004,1004,1004,,,,,
48838790,1005,1005,1005,1005,,,,,
48841289,1006,1006,1006,1006,,,,,
48843788,1006,1006,1006,1006,,,,,
48846287,1007,1007,1007,1007,,,,,
48848786,1008,1008,1008,1008,,,,,
48851285,1009,1009,1009,1009,,,,,
48853784,1009,1009,1009,1009,,,,,
48856283,1010,1010,1010,1010,,,,,
48858782,1011,1011,1011,1011,,,,,
48861281,1012,1012,1012,1012,,,,,
48863780,1012,1012,1012,1012,,,,,
48866279,1013,1013,1013,1013,,,,,
48868778,1014,1014,1014,1014,,,,,
48871277,1015,1015,1015,1015,,,,,
48873776,1015,1015,1015,1015,,,,,
48876275,1016,1016,1016,1016,,,,,
48878774,1017,1017,1017,1017,,,,,
48881273,1018,1018,1018,1018,,,,,
48883772,1018,1018,1018,1018,,,,,
48886271,1019,1019,1019,1019,,,,,
48888770,1020,1020,1020,1020,,,,,
48891269,1021,1021,1021,1021,,,,,
48893768,1021,1021,1021,1021,,,,,
48896267,1022,1022,1022,1022,,,,,
48898766,1023,1023,1023,1023,,,,,
48901265,1024,1024,1024,1024,,,,,
48903764,1024,1024,1024,1024,,,,,
48906263,1025,1025,1025,1025,,,,,
48908762,1026,1026,1026,1026,,,,,
48911261,1027,1027,1027,1027,,,,,
48913760,1027,1027,1027,1027,,,,,
48916259,1028,1028,1028,1028,,,,,
48918758,1029,1029,1029,1029,,,,,
48921257,1030,1030,1030,1030,,,,,
48923756,1030,1030,1030,1030,,,,,
48926255,1031,1031,1031,1031,,,,,
48928754,1032,1032,1032,1032,,,,,
48931253,1033,1033,1033,1033,,,,,
48933752,1033,1033,1033,1033,,,,,
48936251,1034,1034,1034,1034,,,,,
48938750,1035,1035,1035,1035,,,,,
48941249,1036,1036,1036,1036,,,,,
48943748,1036,1036,1036,1036,,,,,
48946247,1037,1037,1037,1037,,,,,
48948746,1038,1038,1038,1038,,,,,
48951245,1039,1039,1039,1039,,,,,
48953744,1039,1039,1039,1039,,,,,
48956243,1040,1040,1040,1040,,,,,
48958742,1041,1041,1041,1041,,,,,
48961241,1042,1042,1042,1042,,,,,
48963740,1042,1042,1042,1042,,,,,
48966239,1043,1043,1043,1043,,,,,
48968738,1044,1044,1044,1044,,,,,
48971237,1045,1045,1045,1045,,,,,
48973736,1045,1045,1045,1045,,,,,
48976235,1046,1046,1046,1046,,,,,
48978734,1047,1047,1047,1047,,,,,
48981233,1048,1048,1048,1048,,,,,
48983732,1048,1048,1048,1048,,,,,
48986231,1049,1049,1049,1049,,,,,
48988730,1050,1050,1050,1050,,,,,
48991229,1051,1051,1051,1051,,,,,
48993728,1051,1051,1051,1051,,,,,
48996227,1052,1052,1052,1052,,,,,
48998726,1053,1053,1053,1053,,,,,
49001225,1054,1054,1054,1054,,,,,
49003724,1054,1054,1054,1054,,,,,
49006223,1055,1055,1055,1055,,,,,
49008722,1056,1056,1056,1056,,,,,
49011221,1057,1057,1057,1057,,,,,
49013720,1057,1057,1057,1057,,,,,
49016219,1058,1058,1058,1058,,,,,
49018718,1059,1059,1059,1059,,,,,
49021217,1060,1060,1060,1060,,,,,
49023716,1060,1060,1060,1060,,,,,
49026215,1061,1061,1061,1061,,,,,
49028714,1062,1062,1062,1062,,,,,
49031213,1063,1063,1063,1063,,,,,
49033712,1063,1063,1063,1063,,,,,
49036211,1064,1064,1064,1064,,,,,
49038710,1065,1065,1065,1065,,,,,
49041209,1066,1066,1066,1066,,,,,
49043708,1066,1066,1066,1066,,,,,
49046207,1067,1067,1067,1067,,,,,
49048706,1068,1068,1068,1068,,,,,
49051205,1069,1069,1069,1069,,,,,
49053704,1069,1069,1069,1069,,,,,
49056203,1070,1070,1070,1070,,,,,
49058702,1071,1071,1071,1071,,,,,
49061201,1072,1072,1072,1072,,,,,
49063700,1072,1072,1072,1072,,,,,
49066199,1073,1073,1073,1073,,,,,
49068698,1074,1074,1074,1074,,,,,
49071197,1075,1075,1075,1075,,,,,
49073696,1075,1075,1075,1075,,,,,
49076195,1076,1076,1076,1076,,,,,
49078694,1077,1077,1077,1077,,,,,
49081193,1078,1078,1078,1078,,,,,
49083692,1078,1078,1078,1078,,,,,
49086191,1079,1079,1079,1079,,,,,
49088690,1080,1080,1080,1080,,,,,
49091189,1081,1081,1081,1081,,,,,
49093688,1081,1081,1081,1081,,,,,
49096187,1082,1082,1082,1082,,,,,
49098686,1083,1083,1083,1083,,,,,
49101185,1084,1084,1084,1084,,,,,
49103684,1084,1084,1084,1084,,,,,
49106183,1085,1085,1085,1085,,,,,
49108682,1086,1086,1086,1086,,,,,
49111181,1087,1087,1087,1087,,,,,
49113680,1087,1087,1087,1087,,,,,
49116179,1088,1088,1088,1088,,,,,
49118678,1089,1089,1089,1089,,,,,
49121177,1090,1090,1090,1090,,,,,
49123676,1090,1090,1090,1090,,,,,
49126175,1091,1091,1091,1091,,,,,
49128674,1092,1092,1092,1092,,,,,
49131173,1093,1093,1093,1093,,,,,
49133672,1093,1093,1093,1093,,,,,
49136171,1094,1094,1094,1094,,,,,
49138670,1095,1095,1095,1095,,,,,
49141169,1096,1096,1096,1096,,,,,
49143668,1096,1096,1096,1096,,,,,
49146167,1097,1097,1097,1097,,,,,
49148666,1098,1098,1098,1098,,,,,
49151165,1099,1099,1099,1099,,,,,
49153664,1099,1099,1099,1099,,,,,
49156163,1100,1100,1100,1100,,,,,
49158662,1101,1101,1101,1101,,,,,
49161161,1101,1101,1101,1101,,,,,
49163660,1102,1102,1102,1102,,,,,
49166159,1103,1103,1103,1103,,,,,
49168658,1104,1104,1104,1104,,,,,
49171157,1104,1104,1104,1104,,,,,
49173656,1105,1105,1105,1105,,,,,
49176155,1106,1106,1106,1106,,,,,
49178654,1107,1107,1107,1107,,,,,
49181153,1107,1107,1107,1107,,,,,
49183652,1108,1108,1108,1108,,,,,
49186151,1109,1109,1109,1109,,,,,
49188650,1110,1110,1110,1110,,,,,
49191149,1110,1110,1110,1110,,,,,
49193648,1111,1111,1111,1111,,,,,
49196147,1112,1112,1112,1112,,,,,
49198646,1113,1113,1113,1113,,,,,
49201145,1113,1113,1113,1113,,,,,
49203644,1114,1114,1114,1114,,,,,
49206143,1115,1115,1115,1115,,,,,
49208642,1116,1116,1116,1116,,,,,
49211141,1116,1116,1116,1116,,,,,
49213640,1117,1117,1117,1117,,,,,
49216139,1118,1118,1118,1118,,,,,
49218638,1119,1119,1119,1119,,,,,
49221137,1119,1119,1119,1119,,,,,
49223636,1120,1120,1120,1120,,,,,
49226135,1121,1121,1121,1121,,,,,
49228634,1122,1122,1122,1122,,,,,
49231133,1122,1122,1122,1122,,,,,
49233632,1123,1123,1123,1123,,,,,
49236131,1124,1124,1124,1124,,,,,
49238630,1125,1125,1125,1125,,,,,
49241129,1125,1125,1125,1125,,,,,
49243628,1126,1126,1126,1126,,,,,
49246127,1127,1127,1127,1127,,,,,
49248626,1128,1128,1128,1128,,,,,
49251125,1128,1128,1128,1128,,,,,
49253624,1129,1129,1129,1129,,,,,
49256123,1130,1130,1130,1130,,,,,
49258622,1131,1131,1131,1131,,,,,
49261121,1131,1131,1131,1131,,,,,
49263620,1132,1132,1132,1132,,,,,
49266119,1133,1133,1133,1133,,,,,
49268618,1134,1134,1134,1134,,,,,
49271117,1134,1134,1134,1134,,,,,
49273616,1135,1135,1135,1135,,,,,
49276115,1136,1136,1136,1136,,,,,
49278614,1137,1137,1137,1137,,,,,
49281113,1137,1137,1137,1137,,,,,
49283612,1138,1138,1138,1138,,,,,
49286111,1139,1139,1139,1139,,,,,
49288610,1140,1140,1140,1140,,,,,
49291109,1140,1140,1140,1140,,,,,
49293608,1141,1141,1141,1141,,,,,
49296107,1142,1142,1142,1142,,,,,
49298606,1143,1143,1143,1143,,,,,
49301105,1143,1143,1143,1143,,,,,
49303604,1144,1144,1144,1144,,,,,
49306103,1145,1145,1145,1145,,,,,
49308602,1146,1146,1146,1146,,,,,
49311101,1146,1146,1146,1146,,,,,
49313600,1147,1147,1147,1147,,,,,
49316099,1148,1148,1148,1148,,,,,
49318598,1149,1149,1149,1149,,,,,
49321097,1149,1149,1149,1149,,,,,
49323596,1150,1150,1150,1150,,,,,
49326095,1161,1154,1155,1161,,,,,
49328594,1169,1162,1163,1169,,,,,
49331093,1177,1170,1171,1177,,,,,
49333592,1185,1178,1178,1185,,,,,
49336091,1192,1185,1186,1193,,,,,
49338590,1200,1193,1194,1200,,,,,
49341089,1207,1200,1201,1207,,,,,
49343588,1214,1208,1208,1215,,,,,
49346087,1221,1215,1215,1222,,,,,
49348586,1228,1222,1222,1229,,,,,
49351085,1235,1229,1229,1235,,,,,
49353584,1242,1236,1236,1242,,,,,
49356083,1249,1242,1243,1249,,,,,
49358582,1255,1249,1250,1256,,,,,
49361081,1262,1256,1256,1262,,,,,
49363580,1268,1262,1263,1268,,,,,
49366079,1275,1269,1269,1275,,,,,
49368578,1281,1275,1276,1281,,,,,
49371077,1287,1281,1282,1287,,,,,
49373576,1293,1287,1288,1293,,,,,
49376075,1299,1294,1294,1300,,,,,
49378574,1305,1300,1300,1306,,,,,
49381073,1311,1306,1306,1312,,,,,
49383572,1317,1312,1312,1317,,,,,
49386071,1323,1317,1318,1323,,,,,
49388570,1329,1323,1324,1329,,,,,
49391069,1334,1329,1330,1335,,,,,
49393568,1340,1335,1335,1340,,,,,
49396067,1346,1340,1341,1346,,,,,
49398566,1351,1346,1347,1351,,,,,
49401065,1357,1352,1352,1357,,,,,
49403564,1362,1357,1358,1362,,,,,
49406063,1368,1362,1363,1368,,,,,
49408562,1373,1368,1368,1373,,,,,
49411061,1378,1373,1374,1378,,,,,
49413560,1383,1378,1379,1384,,,,,
49416059,1389,1384,1384,1389,,,,,
49418558,1394,1389,1389,1394,,,,,
49421057,1399,1394,1395,1399,,,,,
49423556,1404,1399,1400,1404,,,,,
49426055,1409,1404,1405,1409,,,,,
49428554,1414,1409,1410,1414,,,,,
49431053,1419,1414,1415,1419,,,,,
49433552,1424,1419,1420,1424,,,,,
49436051,1429,1424,1425,1429,,,,,
49438550,1434,1429,1430,1434,,,,,
49441049,1439,1434,1434,1439,,,,,
49443548,1444,1439,1439,1444,,,,,
49446047,1448,1444,1444,1449,,,,,
49448546,1453,1448,1449,1453,,,,,
49451045,1458,1453,1454,1458,,,,,
49453544,1462,1458,1458,1463,,,,,
49456043,1467,1462,1463,1467,,,,,
49458542,1472,1467,1468,1472,,,,,
49461041,1476,1472,1472,1477,,,,,
49463540,1481,1476,1477,1481,,,,,
49466039,1485,1481,1481,1486,,,,,
49468538,1490,1485,1486,1490,,,,,
49471037,1494,1490,1490,1495,,,,,
49473536,1499,1494,1495,1499,,,,,
49476035,1503,1499,1499,1504,,,,,
49478534,1508,1503,1503,1508,,,,,
49481033,1512,1507,1508,1512,,,,,
49483532,1517,1512,1512,1517,,,,,
49486031,1521,1516,1517,1521,,,,,
49488530,1525,1520,1521,1525,,,,,
49491029,1529,1525,1525,1530,,,,,
49493528,1534,1529,1529,1534,,,,,
49496027,1538,1533,1534,1538,,,,,
49498526,1542,1537,1538,1542,,,,,
49501025,1546,1542,1542,1546,,,,,
49503524,1550,1546,1546,1551,,,,,
49506023,1555,1550,1550,1555,,,,,
49508522,1559,1554,1554,1559,,,,,
49511021,1563,1558,1558,1563,,,,,
49513520,1567,1562,1563,1567,,,,,
49516019,1571,1566,1567,1571,,,,,
49518518,1575,1570,1571,1575,,,,,
49521017,1579,1574,1575,1579,,,,,
49523516,1583,1578,1579,1583,,,,,
49526015,1587,1582,1583,1587,,,,,
49528514,1591,1586,1587,1591,,,,,
49531013,1595,1590,1591,1595,,,,,
49533512,1599,1594,1594,1599,,,,,
49536011,1603,1598,1598,1603,,,,,
49538510,1607,1602,1602,1607,,,,,
49541009,1610,1606,1606,1611,,,,,
49543508,1614,1610,1610,1615,,,,,
49546007,1618,1614,1614,1618,,,,,
49548506,1622,1617,1618,1622,,,,,
49551005,1626,1621,1622,1626,,,,,
49553504,1630,1625,1625,1630,,,,,
49556003,1633,1629,1629,1634,,,,,
49558502,1637,1633,1633,1637,,,,,
49561001,1641,1636,1637,1641,,,,,
49563500,1644,1640,1640,1645,,,,,
49565999,1648,1644,1644,1648,,,,,
49568498,1652,1648,1648,1652,,,,,
49570997,1656,1651,1652,1656,,,,,
49573496,1659,1655,1655,1659,,,,,
49575995,1663,1659,1659,1663,,,,,
49578494,1666,1662,1663,1667,,,,,
49580993,1670,1666,1666,1670,,,,,
49583492,1674,1669,1670,1674,,,,,
49585991,1677,1673,1673,1677,,,,,
49588490,1681,1677,1677,1681,,,,,
49590989,1684,1680,1681,1684,,,,,
49593488,1688,1684,1684,1688,,,,,
49595987,1692,1687,1688,1691,,,,,
49598486,1695,1691,1691,1695,,,,,
49600985,1699,1694,1695,1698,,,,,
49603484,1702,1698,1698,1702,,,,,
49605983,1706,1701,1702,1705,,,,,
49608482,1709,1705,1705,1709,,,,,
49610981,1712,1708,1709,1712,,,,,
49613480,1716,1712,1712,1716,,,,,
49615979,1719,1715,1716,1719,,,,,
49618478,1723,1719,1719,1723,,,,,
49620977,1726,1722,1723,1726,,,,,
49623476,1730,1725,1726,1730,,,,,
49625975,1733,1729,1729,1733,,,,,
49628474,1736,1732,1733,1736,,,,,
49630973,1740,1736,1736,1740,,,,,
49633472,1743,1739,1739,1743,,,,,
49635971,1746,1742,1743,1746,,,,,
49638470,1750,1746,1746,1750,,,,,
49640969,1753,1749,1749,1753,,,,,
49643468,1756,1752,1753,1756,,,,,
49645967,1760,1756,1756,1760,,,,,
49648466,1763,1759,1759,1763,,,,,
49650965,1766,1762,1763,1766,,,,,
49653464,1769,1765,1766,1769,,,,,
49655963,1773,1769,1769,1773,,,,,
49658462,1776,1772,1772,1776,,,,,
49660961,1779,1775,1776,1779,,,,,
49663460,1783,1778,1779,1782,,,,,
49665959,1786,1781,1782,1786,,,,,
49668458,1789,1785,1785,1789,,,,,
49670957,1792,1788,1788,1792,,,,,
49673456,1795,1791,1791,1795,,,,,
49675955,1799,1794,1795,1798,,,,,
49678454,1802,1797,1798,1802,,,,,
49680953,1805,1800,1801,1805,,,,,
49683452,1808,1804,1804,1808,,,,,
49685951,1811,1807,1807,1811,,,,,
49688450,1814,1810,1810,1814,,,,,
49690949,1817,1813,1813,1817,,,,,
49693448,1821,1816,1817,1820,,,,,
49695947,1824,1819,1820,1824,,,,,
49698446,1827,1822,1823,1827,,,,,
49700945,1830,1825,1826,1830,,,,,
49703444,1833,1828,1829,1833,,,,,
49705943,1836,1831,1832,1836,,,,,
49708442,1839,1834,1835,1839,,,,,
49710941,1842,1838,1838,1842,,,,,
49713440,1845,1841,1841,1845,,,,,
49715939,1848,1844,1844,1848,,,,,
49718438,1851,1847,1847,1851,,,,,
49720937,1854,1850,1850,1854,,,,,
49723436,1857,1853,1853,1857,,,,,
49725935,1860,1856,1856,1860,,,,,
49728434,1863,1859,1859,1863,,,,,
49730933,1866,1862,1862,1866,,,,,
49733432,1869,1865,1865,1869,,,,,
49735931,1872,1868,1868,1872,,,,,
49738430,1875,1871,1871,1875,,,,,
49740929,1878,1873,1874,1878,,,,,
49743428,1881,1876,1877,1881,,,,,
49745927,1884,1879,1880,1884,,,,,
49748426,1887,1882,1883,1887,,,,,
49750925,1890,1885,1885,1890,,,,,
49753424,1893,1888,1888,1893,,,,,
49755923,1896,1891,1891,1896,,,,,
49758422,1898,1894,1894,1899,,,,,
49760921,1901,1897,1897,1902,,,,,
49763420,1904,1900,1900,1904,,,,,
49765919,1907,1903,1903,1907,,,,,
49768418,1910,1906,1906,1910,,,,,
49770917,1913,1908,1909,1913,,,,,
49773416,1916,1911,1911,1916,,,,,
49775915,1918,1914,1914,1919,,,,,
49778414,1921,1917,1917,1922,,,,,
49780913,1922,1917,1918,1922,,,,,
49783412,1921,1917,1917,1921,,,,,
49785911,1920,1916,1916,1921,,,,,
49788410,1920,1915,1916,1920,,,,,
49790909,1919,1915,1915,1920,,,,,
49793408,1919,1914,1914,1919,,,,,
49795907,1918,1914,1914,1918,,,,,
49798406,1918,1913,1913,1918,,,,,
49800905,1917,1913,1913,1917,,,,,
49803404,1917,1912,1912,1917,,,,,
49805903,1916,1912,1912,1917,,,,,
49808402,1916,1912,1912,1916,,,,,
49810901,1916,1912,1911,1916,,,,,
49813400,1915,1911,1911,1916,,,,,
49815899,1915,1911,1911,1916,,,,,
49818398,1915,1911,1911,1915,,,,,
49820897,1915,1911,1911,1915,,,,,
49823396,1914,1911,1911,1915,,,,,
49825895,1914,1911,1911,1915,,,,,
49828394,1914,1911,1910,1914,,,,,
49830893,1913,1910,1910,1914,,,,,
49833392,1913,1910,1910,1913,,,,,
49835891,1912,1909,1909,1912,,,,,
49838390,1911,1908,1908,1912,,,,,
49840889,1910,1908,1908,1911,,,,,
49843388,1909,1907,1906,1909,,,,,
49845887,1908,1905,1905,1908,,,,,
49848386,1906,1904,1904,1907,,,,,
49850885,1905,1903,1902,1905,,,,,
49853384,1903,1901,1901,1903,,,,,
49855883,1901,1899,1899,1902,,,,,
49858382,1899,1897,1897,1900,,,,,
49860881,1897,1895,1895,1898,,,,,
49863380,1895,1893,1893,1895,,,,,
49865879,1893,1891,1891,1893,,,,,
49868378,1890,1888,1888,1891,,,,,
49870877,1888,1886,1886,1888,,,,,
49873376,1885,1883,1883,1885,,,,,
49875875,1882,1881,1881,1883,,,,,
49878374,1879,1878,1878,1880,,,,,
49880873,1877,1875,1875,1877,,,,,
49883372,1874,1872,1872,1874,,,,,
49885871,1871,1869,1869,1871,,,,,
49888370,1868,1866,1866,1868,,,,,
49890869,1865,1863,1863,1865,,,,,
49893368,1861,1860,1860,1862,,,,,
49895867,1858,1857,1857,1859,,,,,
49898366,1855,1854,1854,1855,,,,,
49900865,1852,1851,1851,1852,,,,,
49903364,1849,1847,1847,1849,,,,,
49905863,1845,1844,1844,1846,,,,,
49908362,1842,1841,1841,1842,,,,,
49910861,1839,1837,1837,1839,,,,,
49913360,1835,1834,1834,1836,,,,,
49915859,1832,1831,1831,1832,,,,,
49918358,1828,1827,1827,1829,,,,,
49920857,1825,1824,1824,1825,,,,,
49923356,1822,1820,1821,1822,,,,,
49925855,1818,1817,1817,1819,,,,,
49928354,1815,1814,1814,1815,,,,,
49930853,1811,1810,1811,1812,,,,,
49933352,1808,1807,1807,1808,,,,,
49935851,1805,1804,1804,1805,,,,,
49938350,1801,1800,1800,1802,,,,,
49940849,1798,1797,1797,1798,,,,,
49943348,1795,1793,1794,1795,,,,,
49945847,1791,1790,1790,1791,,,,,
49948346,1788,1787,1787,1788,,,,,
49950845,1785,1784,1784,1785,,,,,
49953344,1781,1780,1781,1781,,,,,
49955843,1778,1777,1777,1778,,,,,
49958342,1775,1774,1774,1775,,,,,
49960841,1771,1771,1771,1772,,,,,
49963340,1768,1768,1768,1768,,,,,
49965839,1765,1764,1765,1765,,,,,
49968338,1762,1761,1762,1762,,,,,
49970837,1759,1758,1759,1759,,,,,
49973336,1756,1755,1755,1756,,,,,
49975835,1752,1752,1752,1752,,,,,
49978334,1749,1749,1749,1749,,,,,
49980833,1746,1746,1746,1746,,,,,
49983332,1743,1743,1743,1743,,,,,
49985831,1740,1740,1740,1740,,,,,
49988330,1737,1737,1738,1737,,,,,
49990829,1735,1734,1735,1734,,,,,
49993328,1732,1731,1732,1731,,,,,
49995827,1729,1729,1729,1729,,,,,
49998326,1726,1726,1727,1726,,,,,
50000825,1724,1723,1724,1723,,,,,
50003324,1721,1721,1721,1721,,,,,
