timestamp,TimeUS,C1,C2,C3,C4,C5,C6,C7,C8,C9,C10,C11,C12,C13,C14
1683205610.90003991,42728735,1000,1000,1000,1000,0,0,0,0,0,0,0,0,0,0
1683205611.00000000,42828695,1000,1000,1000,1000,0,0,0,0,0,0,0,0,0,0
1683205611.09995985,42928655,1000,1000,1000,1000,0,0,0,0,0,0,0,0,0,0
1683205611.19991994,43028615,1000,1000,1000,1000,0,0,0,0,0,0,0,0,0,0
1683205611.29988003,43128575,1000,1000,1000,1000,0,0,0,0,0,0,0,0,0,0
1683205611.39983988,43228535,1000,1000,1000,1000,0,0,0,0,0,0,0,0,0,0
1683205611.49979997,43328495,1000,1000,1000,1000,0,0,0,0,0,0,0,0,0,0
1683205611.59976006,43428455,1000,1000,1000,1000,0,0,0,0,0,0,0,0,0,0
1683205611.69971991,43528415,1000,1000,1000,1000,0,0,0,0,0,0,0,0,0,0
1683205611.79967999,43628375,1000,1000,1000,1000,0,0,0,0,0,0,0,0,0,0
1683205611.89963984,43728335,1000,1000,1000,1000,0,0,0,0,0,0,0,0,0,0
1683205611.99959993,43828295,1000,1000,1000,1000,0,0,0,0,0,0,0,0,0,0
1683205612.09956002,43928255,1000,1000,1000,1000,0,0,0,0,0,0,0,0,0,0
1683205612.19951987,44028215,1000,1000,1000,1000,0,0,0,0,0,0,0,0,0,0
1683205612.29947996,44128175,1000,1000,1000,1000,0,0,0,0,0,0,0,0,0,0
1683205612.40027285,44228968,1000,1000,1000,1000,0,0,0,0,0,0,0,0,0,0
1683205612.50023293,44328928,1000,1000,1000,1000,0,0,0,0,0,0,0,0,0,0
1683205612.60019302,44428888,1000,1000,1000,1000,0,0,0,0,0,0,0,0,0,0
1683205612.70015287,44528848,1000,1000,1000,1000,0,0,0,0,0,0,0,0,0,0
1683205612.80011296,44628808,1000,1000,1000,1000,0,0,0,0,0,0,0,0,0,0
1683205612.90007305,44728768,1012,1012,1012,1012,0,0,0,0,0,0,0,0,0,0
1683205613.00003290,44828728,1042,1042,1042,1042,0,0,0,0,0,0,0,0,0,0
1683205613.09999299,44928688,1072,1072,1072,1072,0,0,0,0,0,0,0,0,0,0
1683205613.19995284,45028648,1102,1102,1102,1102,0,0,0,0,0,0,0,0,0,0
1683205613.29991293,45128608,1132,1132,1132,1132,0,0,0,0,0,0,0,0,0,0
1683205613.39987302,45228568,1268,1262,1263,1269,0,0,0,0,0,0,0,0,0,0
1683205613.49983287,45328528,1481,1476,1476,1482,0,0,0,0,0,0,0,0,0,0
1683205613.59979296,45428488,1644,1640,1641,1645,0,0,0,0,0,0,0,0,0,0
1683205613.69975305,45528448,1782,1778,1778,1783,0,0,0,0,0,0,0,0,0,0
1683205613.79971290,45628408,1904,1900,1900,1904,0,0,0,0,0,0,0,0,0,0
1683205613.89967299,45728368,1898,1896,1896,1898,0,0,0,0,0,0,0,0,0,0
1683205613.99963284,45828328,1768,1768,1768,1769,0,0,0,0,0,0,0,0,0,0
1683205614.09959292,45928288,1667,1668,1668,1667,0,0,0,0,0,0,0,0,0,0
1683205614.19955301,46028248,1633,1635,1635,1633,0,0,0,0,0,0,0,0,0,0
1683205614.29951286,46128208,1634,1635,1635,1633,0,0,0,0,0,0,0,0,0,0
1683205614.39947295,46228168,1639,1639,1639,1639,0,0,0,0,0,0,0,0,0,0
1683205614.50026584,46328961,1635,1635,1635,1635,0,0,0,0,0,0,0,0,0,0
1683205614.60022593,46428921,1627,1627,1627,1627,0,0,0,0,0,0,0,0,0,0
1683205614.70018601,46528881,1619,1619,1619,1619,0,0,0,0,0,0,0,0,0,0
1683205614.80014586,46628841,1614,1613,1613,1614,0,0,0,0,0,0,0,0,0,0
1683205614.90010595,46728801,1613,1612,1612,1612,0,0,0,0,0,0,0,0,0,0
1683205615.00006604,46828761,1613,1612,1612,1612,0,0,0,0,0,0,0,0,0,0
1683205615.10002589,46928721,1613,1614,1614,1613,0,0,0,0,0,0,0,0,0,0
1683205615.19998598,47028681,1615,1615,1615,1615,0,0,0,0,0,0,0,0,0,0
1683205615.29994583,47128641,1613,1615,1615,1613,0,0,0,0,0,0,0,0,0,0
1683205615.39990592,47228601,1584,1584,1584,1584,0,0,0,0,0,0,0,0,0,0
1683205615.49986601,47328561,1573,1572,1573,1573,0,0,0,0,0,0,0,0,0,0
1683205615.59982586,47428521,1562,1563,1562,1563,0,0,0,0,0,0,0,0,0,0
1683205615.69978595,47528481,1554,1553,1553,1555,0,0,0,0,0,0,0,0,0,0
1683205615.79974604,47628441,1545,1544,1544,1545,0,0,0,0,0,0,0,0,0,0
1683205615.89970589,47728401,1537,1537,1536,1538,0,0,0,0,0,0,0,0,0,0
1683205615.99966598,47828361,1527,1527,1526,1528,0,0,0,0,0,0,0,0,0,0
1683205616.09962583,47928321,1518,1519,1518,1519,0,0,0,0,0,0,0,0,0,0
1683205616.19958591,48028281,1511,1511,1511,1511,0,0,0,0,0,0,0,0,0,0
1683205616.29954600,48128241,1509,1508,1508,1509,0,0,0,0,0,0,0,0,0,0
1683205616.39950585,48228201,1506,1506,1506,1507,0,0,0,0,0,0,0,0,0,0
1683205616.49946594,48328161,1506,1506,1505,1506,0,0,0,0,0,0,0,0,0,0
1683205616.60025883,48428954,1503,1503,1503,1503,0,0,0,0,0,0,0,0,0,0
1683205616.70021892,48528914,1502,1502,1502,1502,0,0,0,0,0,0,0,0,0,0
1683205616.80017900,48628874,1501,1501,1500,1501,0,0,0,0,0,0,0,0,0,0
1683205616.90013885,48728834,1501,1500,1500,1501,0,0,0,0,0,0,0,0,0,0
1683205617.00009894,48828794,1502,1502,1501,1502,0,0,0,0,0,0,0,0,0,0
1683205617.10005903,48928754,1524,1525,1528,1521,0,0,0,0,0,0,0,0,0,0
1683205617.20001888,49028714,1543,1543,1549,1536,0,0,0,0,0,0,0,0,0,0
1683205617.29997897,49128674,1552,1552,1555,1550,0,0,0,0,0,0,0,0,0,0
1683205617.39993906,49228634,1559,1559,1558,1561,0,0,0,0,0,0,0,0,0,0
1683205617.49989891,49328594,1565,1564,1560,1568,0,0,0,0,0,0,0,0,0,0
1683205617.59985900,49428554,1566,1566,1561,1571,0,0,0,0,0,0,0,0,0,0
1683205617.69981885,49528514,1567,1568,1564,1571,0,0,0,0,0,0,0,0,0,0
1683205617.79977894,49628474,1570,1570,1569,1571,0,0,0,0,0,0,0,0,0,0
1683205617.89973903,49728434,1572,1572,1573,1570,0,0,0,0,0,0,0,0,0,0
1683205617.99969888,49828394,1572,1573,1575,1569,0,0,0,0,0,0,0,0,0,0
1683205618.09965897,49928354,1574,1574,1577,1571,0,0,0,0,0,0,0,0,0,0
1683205618.19961905,50028314,1574,1574,1575,1572,0,0,0,0,0,0,0,0,0,0
1683205618.29957891,50128274,1572,1573,1572,1573,0,0,0,0,0,0,0,0,0,0
1683205618.39953899,50228234,1570,1569,1573,1576,0,0,0,0,0,0,0,0,0,0
1683205618.49949884,50328194,1564,1563,1574,1578,0,0,0,0,0,0,0,0,0,0
1683205618.59945893,50428154,1564,1565,1574,1577,0,0,0,0,0,0,0,0,0,0
1683205618.70025206,50528947,1566,1566,1572,1573,0,0,0,0,0,0,0,0,0,0
1683205618.80021191,50628907,1568,1569,1570,1570,0,0,0,0,0,0,0,0,0,0
1683205618.90017200,50728867,1570,1570,1569,1568,0,0,0,0,0,0,0,0,0,0
1683205619.00013185,50828827,1572,1571,1567,1566,0,0,0,0,0,0,0,0,0,0
1683205619.10009193,50928787,1573,1573,1566,1566,0,0,0,0,0,0,0,0,0,0
1683205619.20005202,51028747,1573,1573,1566,1566,0,0,0,0,0,0,0,0,0,0
1683205619.30001187,51128707,1575,1574,1567,1567,0,0,0,0,0,0,0,0,0,0
1683205619.39997196,51228667,1573,1573,1567,1568,0,0,0,0,0,0,0,0,0,0
1683205619.49993205,51328627,1574,1573,1569,1569,0,0,0,0,0,0,0,0,0,0
1683205619.59989190,51428587,1572,1572,1570,1570,0,0,0,0,0,0,0,0,0,0
1683205619.69985199,51528547,1573,1573,1572,1572,0,0,0,0,0,0,0,0,0,0
1683205619.79981184,51628507,1574,1574,1574,1574,0,0,0,0,0,0,0,0,0,0
1683205619.89977193,51728467,1574,1573,1576,1574,0,0,0,0,0,0,0,0,0,0
1683205619.99973202,51828427,1574,1574,1577,1576,0,0,0,0,0,0,0,0,0,0
1683205620.09969187,51928387,1575,1575,1578,1577,0,0,0,0,0,0,0,0,0,0
1683205620.19965196,52028347,1575,1576,1578,1578,0,0,0,0,0,0,0,0,0,0
1683205620.29961205,52128307,1574,1574,1577,1577,0,0,0,0,0,0,0,0,0,0
1683205620.39957190,52228267,1576,1577,1578,1578,0,0,0,0,0,0,0,0,0,0
1683205620.49953198,52328227,1576,1576,1577,1578,0,0,0,0,0,0,0,0,0,0
1683205620.59949183,52428187,1577,1577,1578,1578,0,0,0,0,0,0,0,0,0,0
1683205620.70028496,52528980,1578,1578,1578,1578,0,0,0,0,0,0,0,0,0,0
1683205620.80024505,52628940,1578,1578,1577,1577,0,0,0,0,0,0,0,0,0,0
1683205620.90020490,52728900,1579,1579,1578,1578,0,0,0,0,0,0,0,0,0,0
1683205621.00016499,52828860,1579,1578,1578,1577,0,0,0,0,0,0,0,0,0,0
1683205621.10012484,52928820,1578,1579,1577,1577,0,0,0,0,0,0,0,0,0,0
1683205621.20008492,53028780,1578,1579,1577,1577,0,0,0,0,0,0,0,0,0,0
1683205621.30004501,53128740,1578,1578,1578,1577,0,0,0,0,0,0,0,0,0,0
1683205621.40000486,53228700,1578,1578,1578,1578,0,0,0,0,0,0,0,0,0,0
1683205621.49996495,53328660,1578,1578,1578,1579,0,0,0,0,0,0,0,0,0,0
1683205621.59992504,53428620,1578,1578,1578,1578,0,0,0,0,0,0,0,0,0,0
1683205621.69988489,53528580,1578,1578,1578,1578,0,0,0,0,0,0,0,0,0,0
1683205621.79984498,53628540,1578,1578,1579,1578,0,0,0,0,0,0,0,0,0,0
1683205621.89980483,53728500,1579,1578,1579,1579,0,0,0,0,0,0,0,0,0,0
1683205621.99976492,53828460,1579,1579,1580,1580,0,0,0,0,0,0,0,0,0,0
1683205622.09972501,53928420,1579,1579,1580,1579,0,0,0,0,0,0,0,0,0,0
1683205622.19968486,54028380,1578,1579,1579,1579,0,0,0,0,0,0,0,0,0,0
1683205622.29964495,54128340,1579,1580,1580,1580,0,0,0,0,0,0,0,0,0,0
1683205622.39960504,54228300,1580,1580,1580,1580,0,0,0,0,0,0,0,0,0,0
1683205622.49956489,54328260,1580,1580,1580,1580,0,0,0,0,0,0,0,0,0,0
1683205622.59952497,54428220,1579,1579,1579,1579,0,0,0,0,0,0,0,0,0,0
1683205622.69948483,54528180,1580,1579,1579,1580,0,0,0,0,0,0,0,0,0,0
1683205622.80027795,54628973,1580,1580,1580,1580,0,0,0,0,0,0,0,0,0,0
1683205622.90023804,54728933,1579,1580,1579,1579,0,0,0,0,0,0,0,0,0,0
1683205623.00019789,54828893,1580,1580,1579,1580,0,0,0,0,0,0,0,0,0,0
1683205623.10015798,54928853,1580,1581,1580,1580,0,0,0,0,0,0,0,0,0,0
1683205623.20011783,55028813,1580,1580,1580,1580,0,0,0,0,0,0,0,0,0,0
1683205623.30007792,55128773,1580,1580,1580,1580,0,0,0,0,0,0,0,0,0,0
1683205623.40003800,55228733,1580,1581,1581,1581,0,0,0,0,0,0,0,0,0,0
1683205623.49999785,55328693,1579,1580,1579,1580,0,0,0,0,0,0,0,0,0,0
1683205623.59995794,55428653,1580,1580,1580,1580,0,0,0,0,0,0,0,0,0,0
1683205623.69991803,55528613,1580,1581,1581,1581,0,0,0,0,0,0,0,0,0,0
1683205623.79987788,55628573,1580,1581,1581,1581,0,0,0,0,0,0,0,0,0,0
1683205623.89983797,55728533,1581,1581,1580,1581,0,0,0,0,0,0,0,0,0,0
1683205623.99979806,55828493,1581,1580,1580,1581,0,0,0,0,0,0,0,0,0,0
1683205624.09975791,55928453,1581,1580,1580,1581,0,0,0,0,0,0,0,0,0,0
1683205624.19971800,56028413,1580,1580,1580,1580,0,0,0,0,0,0,0,0,0,0
1683205624.29967785,56128373,1580,1580,1580,1580,0,0,0,0,0,0,0,0,0,0
1683205624.39963794,56228333,1581,1581,1581,1581,0,0,0,0,0,0,0,0,0,0
1683205624.49959803,56328293,1580,1580,1580,1580,0,0,0,0,0,0,0,0,0,0
1683205624.59955788,56428253,1581,1582,1582,1582,0,0,0,0,0,0,0,0,0,0
1683205624.69951797,56528213,1581,1582,1587,1576,0,0,0,0,0,0,0,0,0,0
1683205624.79947805,56628173,1581,1582,1587,1573,0,0,0,0,0,0,0,0,0,0
1683205624.90027094,56728966,1579,1582,1580,1574,0,0,0,0,0,0,0,0,0,0
1683205625.00023103,56828926,1577,1580,1570,1573,0,0,0,0,0,0,0,0,0,0
1683205625.10019088,56928886,1576,1579,1563,1569,0,0,0,0,0,0,0,0,0,0
1683205625.20015097,57028846,1577,1578,1558,1565,0,0,0,0,0,0,0,0,0,0
1683205625.30011106,57128806,1578,1577,1555,1560,0,0,0,0,0,0,0,0,0,0
1683205625.40007091,57228766,1579,1578,1555,1557,0,0,0,0,0,0,0,0,0,0
1683205625.50003099,57328726,1578,1577,1555,1554,0,0,0,0,0,0,0,0,0,0
1683205625.59999084,57428686,1578,1578,1557,1554,0,0,0,0,0,0,0,0,0,0
1683205625.69995093,57528646,1577,1578,1557,1554,0,0,0,0,0,0,0,0,0,0
1683205625.79991102,57628606,1575,1576,1555,1553,0,0,0,0,0,0,0,0,0,0
1683205625.89987087,57728566,1575,1576,1555,1554,0,0,0,0,0,0,0,0,0,0
1683205625.99983096,57828526,1575,1576,1554,1554,0,0,0,0,0,0,0,0,0,0
1683205626.09979105,57928486,1574,1575,1551,1552,0,0,0,0,0,0,0,0,0,0
1683205626.19975090,58028446,1575,1577,1550,1551,0,0,0,0,0,0,0,0,0,0
1683205626.29971099,58128406,1576,1577,1548,1548,0,0,0,0,0,0,0,0,0,0
1683205626.39967084,58228366,1579,1580,1546,1546,0,0,0,0,0,0,0,0,0,0
1683205626.49963093,58328326,1581,1582,1543,1542,0,0,0,0,0,0,0,0,0,0
1683205626.59959102,58428286,1585,1586,1541,1540,0,0,0,0,0,0,0,0,0,0
1683205626.69955087,58528246,1588,1589,1538,1538,0,0,0,0,0,0,0,0,0,0
1683205626.79951096,58628206,1591,1592,1536,1536,0,0,0,0,0,0,0,0,0,0
1683205626.89947104,58728166,1593,1594,1535,1535,0,0,0,0,0,0,0,0,0,0
1683205627.00026393,58828959,1595,1595,1534,1535,0,0,0,0,0,0,0,0,0,0
1683205627.10022402,58928919,1594,1594,1534,1537,0,0,0,0,0,0,0,0,0,0
1683205627.20018387,59028879,1593,1593,1537,1540,0,0,0,0,0,0,0,0,0,0
1683205627.30014396,59128839,1591,1590,1541,1544,0,0,0,0,0,0,0,0,0,0
1683205627.40010405,59228799,1586,1584,1548,1551,0,0,0,0,0,0,0,0,0,0
1683205627.50006390,59328759,1578,1575,1556,1559,0,0,0,0,0,0,0,0,0,0
1683205627.60002398,59428719,1570,1566,1568,1571,0,0,0,0,0,0,0,0,0,0
1683205627.69998384,59528679,1559,1556,1581,1582,0,0,0,0,0,0,0,0,0,0
1683205627.79994392,59628639,1548,1545,1593,1593,0,0,0,0,0,0,0,0,0,0
1683205627.89990401,59728599,1539,1537,1604,1603,0,0,0,0,0,0,0,0,0,0
1683205627.99986386,59828559,1532,1531,1611,1610,0,0,0,0,0,0,0,0,0,0
1683205628.09982395,59928519,1528,1529,1615,1613,0,0,0,0,0,0,0,0,0,0
1683205628.19978404,60028479,1529,1531,1615,1614,0,0,0,0,0,0,0,0,0,0
1683205628.29974389,60128439,1533,1536,1612,1611,0,0,0,0,0,0,0,0,0,0
1683205628.39970398,60228399,1541,1543,1607,1607,0,0,0,0,0,0,0,0,0,0
1683205628.49966383,60328359,1549,1550,1600,1600,0,0,0,0,0,0,0,0,0,0
1683205628.59962392,60428319,1558,1558,1592,1592,0,0,0,0,0,0,0,0,0,0
1683205628.69958401,60528279,1567,1567,1586,1585,0,0,0,0,0,0,0,0,0,0
1683205628.79954386,60628239,1574,1575,1579,1578,0,0,0,0,0,0,0,0,0,0
1683205628.89950395,60728199,1581,1580,1573,1573,0,0,0,0,0,0,0,0,0,0
1683205628.99946404,60828159,1284,1284,1609,1613,0,0,0,0,0,0,0,0,0,0
1683205629.10025692,60928952,1381,1386,1643,1649,0,0,0,0,0,0,0,0,0,0
1683205629.20021701,61028912,1451,1460,1636,1633,0,0,0,0,0,0,0,0,0,0
1683205629.30017686,61128872,1509,1516,1625,1616,0,0,0,0,0,0,0,0,0,0
1683205629.40013695,61228832,1555,1556,1618,1608,0,0,0,0,0,0,0,0,0,0
1683205629.50009704,61328792,1596,1583,1608,1601,0,0,0,0,0,0,0,0,0,0
1683205629.60005689,61428752,1600,1584,1541,1545,0,0,0,0,0,0,0,0,0,0
1683205629.70001698,61528712,1600,1588,1484,1498,0,0,0,0,0,0,0,0,0,0
1683205629.79997683,61628672,1600,1598,1491,1505,0,0,0,0,0,0,0,0,0,0
1683205629.89993691,61728632,1594,1600,1507,1513,0,0,0,0,0,0,0,0,0,0
1683205629.99989700,61828592,1591,1600,1526,1525,0,0,0,0,0,0,0,0,0,0
1683205630.09985685,61928552,1592,1600,1545,1540,0,0,0,0,0,0,0,0,0,0
1683205630.19981694,62028512,1597,1600,1560,1555,0,0,0,0,0,0,0,0,0,0
1683205630.29977703,62128472,1600,1598,1569,1566,0,0,0,0,0,0,0,0,0,0
1683205630.39973688,62228432,1600,1596,1571,1571,0,0,0,0,0,0,0,0,0,0
1683205630.49969697,62328392,1600,1596,1574,1576,0,0,0,0,0,0,0,0,0,0
1683205630.59965706,62428352,1600,1597,1577,1580,0,0,0,0,0,0,0,0,0,0
1683205630.69961691,62528312,1600,1598,1583,1579,0,0,0,0,0,0,0,0,0,0
1683205630.79957700,62628272,1600,1596,1587,1581,0,0,0,0,0,0,0,0,0,0
1683205630.89953685,62728232,1600,1595,1588,1584,0,0,0,0,0,0,0,0,0,0
1683205630.99949694,62828192,1600,1596,1588,1587,0,0,0,0,0,0,0,0,0,0
1683205631.10029006,62928985,1600,1598,1588,1589,0,0,0,0,0,0,0,0,0,0
1683205631.20024991,63028945,1600,1599,1588,1589,0,0,0,0,0,0,0,0,0,0
1683205631.30021000,63128905,1598,1600,1585,1590,0,0,0,0,0,0,0,0,0,0
1683205631.40016985,63228865,1595,1600,1583,1586,0,0,0,0,0,0,0,0,0,0
1683205631.50012994,63328825,1595,1600,1583,1584,0,0,0,0,0,0,0,0,0,0
1683205631.60009003,63428785,1596,1600,1585,1583,0,0,0,0,0,0,0,0,0,0
1683205631.70004988,63528745,1597,1600,1586,1583,0,0,0,0,0,0,0,0,0,0
1683205631.80000997,63628705,1599,1600,1587,1584,0,0,0,0,0,0,0,0,0,0
1683205631.89997005,63728665,1599,1600,1586,1585,0,0,0,0,0,0,0,0,0,0
1683205631.99992990,63828625,1596,1600,1579,1584,0,0,0,0,0,0,0,0,0,0
1683205632.09988999,63928585,1594,1600,1578,1581,0,0,0,0,0,0,0,0,0,0
1683205632.19984984,64028545,1594,1600,1578,1578,0,0,0,0,0,0,0,0,0,0
1683205632.29980993,64128505,1595,1600,1579,1577,0,0,0,0,0,0,0,0,0,0
1683205632.39977002,64228465,1597,1600,1580,1578,0,0,0,0,0,0,0,0,0,0
1683205632.49972987,64328425,1598,1600,1580,1579,0,0,0,0,0,0,0,0,0,0
1683205632.59968996,64428385,1600,1599,1579,1579,0,0,0,0,0,0,0,0,0,0
1683205632.69965005,64528345,1600,1598,1576,1578,0,0,0,0,0,0,0,0,0,0
1683205632.79960990,64628305,1600,1590,1575,1565,0,0,0,0,0,0,0,0,0,0
1683205632.89956999,64728265,1600,1584,1577,1568,0,0,0,0,0,0,0,0,0,0
1683205632.99952984,64828225,1600,1586,1580,1578,0,0,0,0,0,0,0,0,0,0
1683205633.09948993,64928185,1600,1590,1582,1585,0,0,0,0,0,0,0,0,0,0
1683205633.20028305,65028978,1598,1595,1582,1588,0,0,0,0,0,0,0,0,0,0
1683205633.30024290,65128938,1585,1589,1568,1573,0,0,0,0,0,0,0,0,0,0
1683205633.40020299,65228898,1577,1584,1560,1562,0,0,0,0,0,0,0,0,0,0
1683205633.50016284,65328858,1572,1580,1556,1554,0,0,0,0,0,0,0,0,0,0
1683205633.60012293,65428818,1570,1576,1555,1549,0,0,0,0,0,0,0,0,0,0
1683205633.70008302,65528778,1570,1573,1553,1547,0,0,0,0,0,0,0,0,0,0
1683205633.80004287,65628738,1572,1571,1552,1548,0,0,0,0,0,0,0,0,0,0
1683205633.90000296,65728698,1572,1570,1549,1548,0,0,0,0,0,0,0,0,0,0
1683205633.99996305,65828658,1571,1569,1548,1547,0,0,0,0,0,0,0,0,0,0
1683205634.09992290,65928618,1571,1569,1546,1548,0,0,0,0,0,0,0,0,0,0
1683205634.19988298,66028578,1569,1569,1545,1546,0,0,0,0,0,0,0,0,0,0
1683205634.29984283,66128538,1568,1570,1546,1546,0,0,0,0,0,0,0,0,0,0
1683205634.39980292,66228498,1568,1570,1546,1546,0,0,0,0,0,0,0,0,0,0
1683205634.49976301,66328458,1568,1571,1548,1546,0,0,0,0,0,0,0,0,0,0
1683205634.59972286,66428418,1568,1570,1547,1545,0,0,0,0,0,0,0,0,0,0
1683205634.69968295,66528378,1569,1570,1548,1546,0,0,0,0,0,0,0,0,0,0
1683205634.79964304,66628338,1569,1570,1548,1547,0,0,0,0,0,0,0,0,0,0
1683205634.89960289,66728298,1570,1571,1548,1548,0,0,0,0,0,0,0,0,0,0
1683205634.99956298,66828258,1570,1571,1548,1548,0,0,0,0,0,0,0,0,0,0
1683205635.09952283,66928218,1571,1572,1549,1550,0,0,0,0,0,0,0,0,0,0
1683205635.19948292,67028178,1572,1572,1550,1550,0,0,0,0,0,0,0,0,0,0
1683205635.30027604,67128971,1573,1574,1551,1551,0,0,0,0,0,0,0,0,0,0
1683205635.40023589,67228931,1573,1574,1551,1552,0,0,0,0,0,0,0,0,0,0
1683205635.50019598,67328891,1574,1575,1551,1552,0,0,0,0,0,0,0,0,0,0
1683205635.60015583,67428851,1575,1576,1552,1553,0,0,0,0,0,0,0,0,0,0
1683205635.70011592,67528811,1575,1576,1551,1553,0,0,0,0,0,0,0,0,0,0
1683205635.80007601,67628771,1577,1576,1552,1554,0,0,0,0,0,0,0,0,0,0
1683205635.90003586,67728731,1577,1577,1552,1554,0,0,0,0,0,0,0,0,0,0
1683205635.99999595,67828691,1578,1577,1553,1555,0,0,0,0,0,0,0,0,0,0
1683205636.09995604,67928651,1578,1578,1552,1554,0,0,0,0,0,0,0,0,0,0
1683205636.19991589,68028611,1576,1575,1555,1559,0,0,0,0,0,0,0,0,0,0
1683205636.29987597,68128571,1569,1567,1566,1569,0,0,0,0,0,0,0,0,0,0
1683205636.39983582,68228531,1561,1559,1578,1581,0,0,0,0,0,0,0,0,0,0
1683205636.49979591,68328491,1554,1553,1586,1588,0,0,0,0,0,0,0,0,0,0
1683205636.59975600,68428451,1549,1548,1589,1590,0,0,0,0,0,0,0,0,0,0
1683205636.69971585,68528411,1546,1546,1592,1591,0,0,0,0,0,0,0,0,0,0
1683205636.79967594,68628371,1545,1545,1593,1592,0,0,0,0,0,0,0,0,0,0
1683205636.89963603,68728331,1545,1545,1594,1592,0,0,0,0,0,0,0,0,0,0
1683205636.99959588,68828291,1546,1546,1593,1592,0,0,0,0,0,0,0,0,0,0
1683205637.09955597,68928251,1548,1548,1591,1591,0,0,0,0,0,0,0,0,0,0
1683205637.19951606,69028211,1550,1551,1589,1589,0,0,0,0,0,0,0,0,0,0
1683205637.29947591,69128171,1553,1554,1588,1587,0,0,0,0,0,0,0,0,0,0
1683205637.40026903,69228964,1557,1557,1586,1585,0,0,0,0,0,0,0,0,0,0
1683205637.50022888,69328924,1560,1561,1583,1583,0,0,0,0,0,0,0,0,0,0
1683205637.60018897,69428884,1564,1564,1582,1582,0,0,0,0,0,0,0,0,0,0
1683205637.70014906,69528844,1567,1567,1581,1580,0,0,0,0,0,0,0,0,0,0
1683205637.80010891,69628804,1571,1570,1580,1578,0,0,0,0,0,0,0,0,0,0
1683205637.90006900,69728764,1574,1573,1579,1578,0,0,0,0,0,0,0,0,0,0
1683205638.00002885,69828724,1578,1576,1579,1579,0,0,0,0,0,0,0,0,0,0
1683205638.09998894,69928684,1579,1578,1577,1577,0,0,0,0,0,0,0,0,0,0
1683205638.19994903,70028644,1580,1579,1576,1577,0,0,0,0,0,0,0,0,0,0
1683205638.29990888,70128604,1581,1581,1575,1576,0,0,0,0,0,0,0,0,0,0
1683205638.39986897,70228564,1581,1581,1574,1575,0,0,0,0,0,0,0,0,0,0
1683205638.49982905,70328524,1582,1582,1574,1574,0,0,0,0,0,0,0,0,0,0
1683205638.59978890,70428484,1583,1583,1576,1576,0,0,0,0,0,0,0,0,0,0
1683205638.69974899,70528444,1584,1583,1576,1575,0,0,0,0,0,0,0,0,0,0
1683205638.79970884,70628404,1584,1583,1576,1575,0,0,0,0,0,0,0,0,0,0
1683205638.89966893,70728364,1583,1583,1576,1576,0,0,0,0,0,0,0,0,0,0
1683205638.99962902,70828324,1583,1583,1577,1576,0,0,0,0,0,0,0,0,0,0
1683205639.09958887,70928284,1583,1583,1577,1576,0,0,0,0,0,0,0,0,0,0
1683205639.19954896,71028244,1583,1582,1577,1577,0,0,0,0,0,0,0,0,0,0
1683205639.29950905,71128204,1583,1583,1578,1578,0,0,0,0,0,0,0,0,0,0
1683205639.39946890,71228164,1582,1582,1578,1579,0,0,0,0,0,0,0,0,0,0
1683205639.50026202,71328957,1582,1582,1579,1579,0,0,0,0,0,0,0,0,0,0
1683205639.60022187,71428917,1581,1582,1579,1579,0,0,0,0,0,0,0,0,0,0
1683205639.70018196,71528877,1581,1582,1579,1579,0,0,0,0,0,0,0,0,0,0
1683205639.80014205,71628837,1580,1581,1579,1579,0,0,0,0,0,0,0,0,0,0
1683205639.90010190,71728797,1580,1581,1579,1579,0,0,0,0,0,0,0,0,0,0
1683205640.00006199,71828757,1580,1580,1580,1579,0,0,0,0,0,0,0,0,0,0
1683205640.10002184,71928717,1581,1581,1580,1580,0,0,0,0,0,0,0,0,0,0
1683205640.19998193,72028677,1580,1580,1579,1580,0,0,0,0,0,0,0,0,0,0
1683205640.29994202,72128637,1580,1579,1578,1579,0,0,0,0,0,0,0,0,0,0
1683205640.39990187,72228597,1580,1579,1579,1579,0,0,0,0,0,0,0,0,0,0
1683205640.49986196,72328557,1579,1580,1579,1579,0,0,0,0,0,0,0,0,0,0
1683205640.59982204,72428517,1579,1579,1579,1579,0,0,0,0,0,0,0,0,0,0
1683205640.69978189,72528477,1580,1580,1580,1580,0,0,0,0,0,0,0,0,0,0
1683205640.79974198,72628437,1579,1579,1580,1579,0,0,0,0,0,0,0,0,0,0
1683205640.89970183,72728397,1580,1580,1580,1580,0,0,0,0,0,0,0,0,0,0
1683205640.99966192,72828357,1580,1580,1580,1580,0,0,0,0,0,0,0,0,0,0
1683205641.09962201,72928317,1580,1580,1581,1580,0,0,0,0,0,0,0,0,0,0
1683205641.19958186,73028277,1581,1580,1581,1581,0,0,0,0,0,0,0,0,0,0
1683205641.29954195,73128237,1580,1580,1580,1580,0,0,0,0,0,0,0,0,0,0
1683205641.39950204,73228197,1580,1580,1580,1580,0,0,0,0,0,0,0,0,0,0
1683205641.49946189,73328157,1580,1580,1579,1580,0,0,0,0,0,0,0,0,0,0
1683205641.60025501,73428950,1580,1581,1580,1580,0,0,0,0,0,0,0,0,0,0
1683205641.70021486,73528910,1580,1581,1580,1580,0,0,0,0,0,0,0,0,0,0
1683205641.80017495,73628870,1580,1580,1580,1580,0,0,0,0,0,0,0,0,0,0
1683205641.90013504,73728830,1582,1581,1585,1578,0,0,0,0,0,0,0,0,0,0
1683205642.00009489,73828790,1582,1580,1587,1573,0,0,0,0,0,0,0,0,0,0
1683205642.10005498,73928750,1580,1579,1580,1572,0,0,0,0,0,0,0,0,0,0
1683205642.20001483,74028710,1579,1579,1572,1572,0,0,0,0,0,0,0,0,0,0
1683205642.29997492,74128670,1577,1578,1564,1569,0,0,0,0,0,0,0,0,0,0
1683205642.39993501,74228630,1576,1578,1560,1566,0,0,0,0,0,0,0,0,0,0
1683205642.49989486,74328590,1575,1577,1558,1562,0,0,0,0,0,0,0,0,0,0
1683205642.59985495,74428550,1575,1577,1558,1560,0,0,0,0,0,0,0,0,0,0
1683205642.69981503,74528510,1576,1577,1558,1558,0,0,0,0,0,0,0,0,0,0
1683205642.79977489,74628470,1575,1576,1557,1555,0,0,0,0,0,0,0,0,0,0
1683205642.89973497,74728430,1576,1575,1557,1554,0,0,0,0,0,0,0,0,0,0
1683205642.99969482,74828390,1576,1575,1556,1554,0,0,0,0,0,0,0,0,0,0
1683205643.09965491,74928350,1575,1575,1555,1553,0,0,0,0,0,0,0,0,0,0
1683205643.19961500,75028310,1575,1575,1553,1553,0,0,0,0,0,0,0,0,0,0
1683205643.29957485,75128270,1576,1576,1551,1552,0,0,0,0,0,0,0,0,0,0
1683205643.39953494,75228230,1576,1577,1550,1551,0,0,0,0,0,0,0,0,0,0
1683205643.49949503,75328190,1576,1577,1548,1548,0,0,0,0,0,0,0,0,0,0
1683205643.60028791,75428983,1576,1578,1546,1545,0,0,0,0,0,0,0,0,0,0
1683205643.70024800,75528943,1579,1581,1545,1545,0,0,0,0,0,0,0,0,0,0
1683205643.80020785,75628903,1581,1583,1544,1542,0,0,0,0,0,0,0,0,0,0
1683205643.90016794,75728863,1584,1584,1542,1542,0,0,0,0,0,0,0,0,0,0
1683205644.00012803,75828823,1585,1586,1540,1540,0,0,0,0,0,0,0,0,0,0
1683205644.10008788,75928783,1588,1587,1538,1539,0,0,0,0,0,0,0,0,0,0
1683205644.20004797,76028743,1590,1589,1539,1539,0,0,0,0,0,0,0,0,0,0
1683205644.30000806,76128703,1590,1588,1538,1539,0,0,0,0,0,0,0,0,0,0
1683205644.39996791,76228663,1589,1589,1540,1542,0,0,0,0,0,0,0,0,0,0
1683205644.49992800,76328623,1588,1587,1543,1545,0,0,0,0,0,0,0,0,0,0
1683205644.59988785,76428583,1586,1585,1546,1549,0,0,0,0,0,0,0,0,0,0
1683205644.69984794,76528543,1582,1582,1550,1553,0,0,0,0,0,0,0,0,0,0
1683205644.79980803,76628503,1578,1577,1556,1559,0,0,0,0,0,0,0,0,0,0
1683205644.89976788,76728463,1574,1572,1564,1567,0,0,0,0,0,0,0,0,0,0
1683205644.99972796,76828423,1567,1564,1571,1573,0,0,0,0,0,0,0,0,0,0
1683205645.09968805,76928383,1560,1557,1581,1582,0,0,0,0,0,0,0,0,0,0
1683205645.19964790,77028343,1552,1549,1590,1591,0,0,0,0,0,0,0,0,0,0
1683205645.29960799,77128303,1544,1543,1601,1600,0,0,0,0,0,0,0,0,0,0
1683205645.39956784,77228263,1537,1537,1607,1606,0,0,0,0,0,0,0,0,0,0
1683205645.49952793,77328223,1533,1534,1611,1610,0,0,0,0,0,0,0,0,0,0
1683205645.59948802,77428183,1531,1533,1611,1610,0,0,0,0,0,0,0,0,0,0
1683205645.70028090,77528976,1532,1536,1608,1609,0,0,0,0,0,0,0,0,0,0
1683205645.80024099,77628936,1537,1540,1605,1605,0,0,0,0,0,0,0,0,0,0
1683205645.90020084,77728896,1544,1546,1598,1599,0,0,0,0,0,0,0,0,0,0
1683205646.00016093,77828856,1551,1553,1592,1591,0,0,0,0,0,0,0,0,0,0
1683205646.10012102,77928816,1559,1560,1585,1584,0,0,0,0,0,0,0,0,0,0
1683205646.20008087,78028776,1568,1567,1578,1577,0,0,0,0,0,0,0,0,0,0
1683205646.30004096,78128736,1575,1573,1573,1571,0,0,0,0,0,0,0,0,0,0
1683205646.40000105,78228696,1581,1579,1568,1567,0,0,0,0,0,0,0,0,0,0
1683205646.49996090,78328656,1586,1584,1567,1567,0,0,0,0,0,0,0,0,0,0
1683205646.59992099,78428616,1588,1586,1566,1565,0,0,0,0,0,0,0,0,0,0
1683205646.69988084,78528576,1589,1587,1566,1566,0,0,0,0,0,0,0,0,0,0
1683205646.79984093,78628536,1588,1587,1567,1567,0,0,0,0,0,0,0,0,0,0
1683205646.89980102,78728496,1587,1587,1569,1570,0,0,0,0,0,0,0,0,0,0
1683205646.99976087,78828456,1586,1586,1572,1572,0,0,0,0,0,0,0,0,0,0
1683205647.09972095,78928416,1584,1584,1574,1575,0,0,0,0,0,0,0,0,0,0
1683205647.19968104,79028376,1582,1583,1577,1577,0,0,0,0,0,0,0,0,0,0
1683205647.29964089,79128336,1580,1580,1579,1578,0,0,0,0,0,0,0,0,0,0
1683205647.39960098,79228296,1579,1580,1582,1582,0,0,0,0,0,0,0,0,0,0
1683205647.49956083,79328256,1577,1578,1583,1583,0,0,0,0,0,0,0,0,0,0
1683205647.59952092,79428216,1576,1577,1584,1584,0,0,0,0,0,0,0,0,0,0
1683205647.69948101,79528176,1575,1575,1584,1584,0,0,0,0,0,0,0,0,0,0
1683205647.80027390,79628969,1575,1575,1585,1585,0,0,0,0,0,0,0,0,0,0
1683205647.90023398,79728929,1574,1575,1583,1583,0,0,0,0,0,0,0,0,0,0
1683205648.00019383,79828889,1574,1575,1582,1583,0,0,0,0,0,0,0,0,0,0
1683205648.10015392,79928849,1576,1576,1582,1582,0,0,0,0,0,0,0,0,0,0
1683205648.20011401,80028809,1577,1577,1582,1581,0,0,0,0,0,0,0,0,0,0
1683205648.30007386,80128769,1577,1577,1580,1579,0,0,0,0,0,0,0,0,0,0
1683205648.40003395,80228729,1579,1579,1580,1580,0,0,0,0,0,0,0,0,0,0
1683205648.49999404,80328689,1580,1580,1578,1578,0,0,0,0,0,0,0,0,0,0
1683205648.59995389,80428649,1582,1582,1579,1579,0,0,0,0,0,0,0,0,0,0
1683205648.69991398,80528609,1582,1582,1579,1579,0,0,0,0,0,0,0,0,0,0
1683205648.79987383,80628569,1583,1582,1579,1579,0,0,0,0,0,0,0,0,0,0
1683205648.89983392,80728529,1584,1583,1579,1579,0,0,0,0,0,0,0,0,0,0
1683205648.99979401,80828489,1583,1582,1579,1579,0,0,0,0,0,0,0,0,0,0
1683205649.09975386,80928449,1582,1582,1578,1578,0,0,0,0,0,0,0,0,0,0
1683205649.19971395,81028409,1583,1582,1580,1579,0,0,0,0,0,0,0,0,0,0
1683205649.29967403,81128369,1582,1582,1580,1580,0,0,0,0,0,0,0,0,0,0
1683205649.39963388,81228329,1582,1582,1581,1581,0,0,0,0,0,0,0,0,0,0
1683205649.49959397,81328289,1580,1581,1580,1580,0,0,0,0,0,0,0,0,0,0
1683205649.59955382,81428249,1581,1582,1582,1581,0,0,0,0,0,0,0,0,0,0
1683205649.69951391,81528209,1580,1581,1582,1581,0,0,0,0,0,0,0,0,0,0
1683205649.79947400,81628169,1580,1580,1581,1582,0,0,0,0,0,0,0,0,0,0
1683205649.90026689,81728962,1581,1581,1582,1582,0,0,0,0,0,0,0,0,0,0
1683205650.00022697,81828922,1580,1580,1581,1581,0,0,0,0,0,0,0,0,0,0
1683205650.10018682,81928882,1580,1580,1581,1581,0,0,0,0,0,0,0,0,0,0
1683205650.20014691,82028842,1580,1580,1587,1574,0,0,0,0,0,0,0,0,0,0
1683205650.30010700,82128802,1581,1579,1587,1574,0,0,0,0,0,0,0,0,0,0
1683205650.40006685,82228762,1579,1578,1580,1576,0,0,0,0,0,0,0,0,0,0
1683205650.50002694,82328722,1575,1575,1571,1575,0,0,0,0,0,0,0,0,0,0
1683205650.59998703,82428682,1572,1572,1565,1573,0,0,0,0,0,0,0,0,0,0
1683205650.69994688,82528642,1570,1570,1563,1570,0,0,0,0,0,0,0,0,0,0
1683205650.79990697,82628602,1568,1569,1564,1568,0,0,0,0,0,0,0,0,0,0
1683205650.89986706,82728562,1567,1568,1566,1566,0,0,0,0,0,0,0,0,0,0
1683205650.99982691,82828522,1566,1567,1567,1565,0,0,0,0,0,0,0,0,0,0
1683205651.09978700,82928482,1565,1566,1567,1564,0,0,0,0,0,0,0,0,0,0
1683205651.19974685,83028442,1565,1565,1568,1565,0,0,0,0,0,0,0,0,0,0
1683205651.29970694,83128402,1564,1564,1566,1565,0,0,0,0,0,0,0,0,0,0
1683205651.39966702,83228362,1563,1564,1565,1565,0,0,0,0,0,0,0,0,0,0
1683205651.49962687,83328322,1563,1563,1565,1565,0,0,0,0,0,0,0,0,0,0
1683205651.59958696,83428282,1562,1562,1563,1564,0,0,0,0,0,0,0,0,0,0
1683205651.69954705,83528242,1561,1561,1563,1563,0,0,0,0,0,0,0,0,0,0
1683205651.79950690,83628202,1561,1561,1562,1562,0,0,0,0,0,0,0,0,0,0
1683205651.89946699,83728162,1560,1561,1561,1561,0,0,0,0,0,0,0,0,0,0
1683205652.00025988,83828955,1560,1561,1561,1561,0,0,0,0,0,0,0,0,0,0
1683205652.10021996,83928915,1560,1560,1560,1560,0,0,0,0,0,0,0,0,0,0
1683205652.20018005,84028875,1560,1560,1560,1559,0,0,0,0,0,0,0,0,0,0
1683205652.30013990,84128835,1559,1559,1559,1559,0,0,0,0,0,0,0,0,0,0
1683205652.40009999,84228795,1560,1560,1560,1559,0,0,0,0,0,0,0,0,0,0
1683205652.50005984,84328755,1559,1559,1560,1559,0,0,0,0,0,0,0,0,0,0
1683205652.60001993,84428715,1559,1559,1560,1558,0,0,0,0,0,0,0,0,0,0
1683205652.69998002,84528675,1559,1559,1559,1558,0,0,0,0,0,0,0,0,0,0
1683205652.79993987,84628635,1559,1558,1559,1557,0,0,0,0,0,0,0,0,0,0
1683205652.89989996,84728595,1559,1559,1560,1558,0,0,0,0,0,0,0,0,0,0
1683205652.99986005,84828555,1559,1559,1560,1558,0,0,0,0,0,0,0,0,0,0
1683205653.09981990,84928515,1559,1559,1557,1561,0,0,0,0,0,0,0,0,0,0
1683205653.19977999,85028475,1559,1560,1557,1563,0,0,0,0,0,0,0,0,0,0
1683205653.29973984,85128435,1560,1561,1558,1564,0,0,0,0,0,0,0,0,0,0
1683205653.39969993,85228395,1561,1561,1559,1564,0,0,0,0,0,0,0,0,0,0
1683205653.49966002,85328355,1560,1561,1560,1562,0,0,0,0,0,0,0,0,0,0
1683205653.59961987,85428315,1561,1561,1562,1560,0,0,0,0,0,0,0,0,0,0
1683205653.69957995,85528275,1560,1560,1561,1558,0,0,0,0,0,0,0,0,0,0
1683205653.79954004,85628235,1559,1559,1561,1556,0,0,0,0,0,0,0,0,0,0
1683205653.89949989,85728195,1559,1559,1556,1560,0,0,0,0,0,0,0,0,0,0
1683205653.99945998,85828155,1557,1557,1552,1558,0,0,0,0,0,0,0,0,0,0
1683205654.10025287,85928948,1554,1554,1549,1553,0,0,0,0,0,0,0,0,0,0
1683205654.20021296,86028908,1549,1550,1545,1546,0,0,0,0,0,0,0,0,0,0
1683205654.30017304,86128868,1543,1543,1538,1538,0,0,0,0,0,0,0,0,0,0
1683205654.40013289,86228828,1537,1537,1532,1530,0,0,0,0,0,0,0,0,0,0
1683205654.50009298,86328788,1530,1530,1525,1523,0,0,0,0,0,0,0,0,0,0
1683205654.60005283,86428748,1524,1524,1519,1518,0,0,0,0,0,0,0,0,0,0
1683205654.70001292,86528708,1521,1520,1518,1518,0,0,0,0,0,0,0,0,0,0
1683205654.79997301,86628668,1519,1519,1519,1519,0,0,0,0,0,0,0,0,0,0
1683205654.89993286,86728628,1519,1519,1523,1523,0,0,0,0,0,0,0,0,0,0
1683205654.99989295,86828588,1521,1521,1527,1528,0,0,0,0,0,0,0,0,0,0
1683205655.09985304,86928548,1523,1522,1531,1531,0,0,0,0,0,0,0,0,0,0
1683205655.19981289,87028508,1527,1527,1537,1537,0,0,0,0,0,0,0,0,0,0
1683205655.29977298,87128468,1531,1531,1542,1541,0,0,0,0,0,0,0,0,0,0
1683205655.39973283,87228428,1534,1535,1544,1544,0,0,0,0,0,0,0,0,0,0
1683205655.49969292,87328388,1537,1537,1544,1544,0,0,0,0,0,0,0,0,0,0
1683205655.59965301,87428348,1540,1540,1545,1545,0,0,0,0,0,0,0,0,0,0
1683205655.69961286,87528308,1543,1543,1545,1545,0,0,0,0,0,0,0,0,0,0
1683205655.79957294,87628268,1545,1546,1545,1545,0,0,0,0,0,0,0,0,0,0
1683205655.89953303,87728228,1548,1548,1545,1544,0,0,0,0,0,0,0,0,0,0
1683205655.99949288,87828188,1548,1549,1544,1543,0,0,0,0,0,0,0,0,0,0
1683205656.10028601,87928981,1550,1550,1544,1544,0,0,0,0,0,0,0,0,0,0
1683205656.20024586,88028941,1550,1550,1544,1544,0,0,0,0,0,0,0,0,0,0
1683205656.30020595,88128901,1550,1550,1544,1544,0,0,0,0,0,0,0,0,0,0
1683205656.40016603,88228861,1550,1550,1545,1545,0,0,0,0,0,0,0,0,0,0
1683205656.50012589,88328821,1549,1549,1544,1544,0,0,0,0,0,0,0,0,0,0
1683205656.60008597,88428781,1549,1549,1545,1545,0,0,0,0,0,0,0,0,0,0
1683205656.70004582,88528741,1547,1547,1544,1544,0,0,0,0,0,0,0,0,0,0
1683205656.80000591,88628701,1546,1546,1544,1545,0,0,0,0,0,0,0,0,0,0
1683205656.89996600,88728661,1545,1545,1545,1545,0,0,0,0,0,0,0,0,0,0
1683205656.99992585,88828621,1544,1545,1546,1545,0,0,0,0,0,0,0,0,0,0
1683205657.09988594,88928581,1543,1543,1545,1545,0,0,0,0,0,0,0,0,0,0
1683205657.19984603,89028541,1543,1543,1545,1545,0,0,0,0,0,0,0,0,0,0
1683205657.29980588,89128501,1543,1543,1546,1546,0,0,0,0,0,0,0,0,0,0
1683205657.39976597,89228461,1543,1543,1546,1545,0,0,0,0,0,0,0,0,0,0
1683205657.49972606,89328421,1542,1542,1545,1545,0,0,0,0,0,0,0,0,0,0
1683205657.59968591,89428381,1542,1542,1545,1544,0,0,0,0,0,0,0,0,0,0
1683205657.69964600,89528341,1543,1542,1544,1544,0,0,0,0,0,0,0,0,0,0
1683205657.79960585,89628301,1543,1543,1544,1544,0,0,0,0,0,0,0,0,0,0
1683205657.89956594,89728261,1544,1543,1544,1544,0,0,0,0,0,0,0,0,0,0
1683205657.99952602,89828221,1544,1543,1544,1543,0,0,0,0,0,0,0,0,0,0
1683205658.09948587,89928181,1544,1544,1543,1543,0,0,0,0,0,0,0,0,0,0
1683205658.20027900,90028974,1544,1544,1543,1544,0,0,0,0,0,0,0,0,0,0
1683205658.30023885,90128934,1544,1545,1544,1544,0,0,0,0,0,0,0,0,0,0
1683205658.40019894,90228894,1545,1545,1545,1544,0,0,0,0,0,0,0,0,0,0
1683205658.50015903,90328854,1545,1545,1545,1544,0,0,0,0,0,0,0,0,0,0
1683205658.60011888,90428814,1545,1545,1544,1544,0,0,0,0,0,0,0,0,0,0
1683205658.70007896,90528774,1545,1545,1544,1544,0,0,0,0,0,0,0,0,0,0
1683205658.80003905,90628734,1545,1545,1544,1544,0,0,0,0,0,0,0,0,0,0
1683205658.89999890,90728694,1545,1545,1544,1545,0,0,0,0,0,0,0,0,0,0
1683205658.99995899,90828654,1545,1545,1544,1545,0,0,0,0,0,0,0,0,0,0
1683205659.09991884,90928614,1544,1544,1544,1544,0,0,0,0,0,0,0,0,0,0
1683205659.19987893,91028574,1545,1545,1545,1545,0,0,0,0,0,0,0,0,0,0
1683205659.29983902,91128534,1544,1544,1545,1545,0,0,0,0,0,0,0,0,0,0
1683205659.39979887,91228494,1544,1544,1544,1545,0,0,0,0,0,0,0,0,0,0
1683205659.49975896,91328454,1545,1544,1545,1545,0,0,0,0,0,0,0,0,0,0
1683205659.59971905,91428414,1544,1544,1544,1544,0,0,0,0,0,0,0,0,0,0
1683205659.69967890,91528374,1544,1544,1545,1545,0,0,0,0,0,0,0,0,0,0
1683205659.79963899,91628334,1544,1545,1544,1545,0,0,0,0,0,0,0,0,0,0
1683205659.89959884,91728294,1544,1544,1544,1544,0,0,0,0,0,0,0,0,0,0
1683205659.99955893,91828254,1544,1544,1544,1544,0,0,0,0,0,0,0,0,0,0
1683205660.09951901,91928214,1544,1544,1544,1545,0,0,0,0,0,0,0,0,0,0
1683205660.19947886,92028174,1545,1544,1545,1544,0,0,0,0,0,0,0,0,0,0
1683205660.30027199,92128967,1545,1544,1544,1545,0,0,0,0,0,0,0,0,0,0
1683205660.40023184,92228927,1544,1544,1544,1544,0,0,0,0,0,0,0,0,0,0
1683205660.50019193,92328887,1545,1545,1545,1545,0,0,0,0,0,0,0,0,0,0
1683205660.60015202,92428847,1544,1544,1544,1544,0,0,0,0,0,0,0,0,0,0
1683205660.70011187,92528807,1545,1545,1545,1545,0,0,0,0,0,0,0,0,0,0
1683205660.80007195,92628767,1544,1544,1544,1544,0,0,0,0,0,0,0,0,0,0
1683205660.90003204,92728727,1544,1544,1544,1544,0,0,0,0,0,0,0,0,0,0
1683205660.99999189,92828687,1544,1544,1544,1544,0,0,0,0,0,0,0,0,0,0
1683205661.09995198,92928647,1544,1544,1544,1544,0,0,0,0,0,0,0,0,0,0
1683205661.19991183,93028607,1545,1544,1545,1544,0,0,0,0,0,0,0,0,0,0
1683205661.29987192,93128567,1544,1544,1544,1544,0,0,0,0,0,0,0,0,0,0
1683205661.39983201,93228527,1544,1544,1544,1544,0,0,0,0,0,0,0,0,0,0
1683205661.49979186,93328487,1544,1544,1543,1543,0,0,0,0,0,0,0,0,0,0
1683205661.59975195,93428447,1543,1544,1544,1543,0,0,0,0,0,0,0,0,0,0
1683205661.69971204,93528407,1544,1544,1544,1544,0,0,0,0,0,0,0,0,0,0
1683205661.79967189,93628367,1544,1544,1545,1545,0,0,0,0,0,0,0,0,0,0
1683205661.89963198,93728327,1544,1544,1544,1545,0,0,0,0,0,0,0,0,0,0
1683205661.99959183,93828287,1544,1544,1545,1544,0,0,0,0,0,0,0,0,0,0
1683205662.09955192,93928247,1545,1545,1545,1545,0,0,0,0,0,0,0,0,0,0
1683205662.19951200,94028207,1545,1545,1545,1545,0,0,0,0,0,0,0,0,0,0
1683205662.29947186,94128167,1544,1544,1543,1544,0,0,0,0,0,0,0,0,0,0
1683205662.40026498,94228960,1544,1544,1543,1544,0,0,0,0,0,0,0,0,0,0
1683205662.50022483,94328920,1544,1544,1544,1544,0,0,0,0,0,0,0,0,0,0
1683205662.60018492,94428880,1545,1545,1545,1544,0,0,0,0,0,0,0,0,0,0
1683205662.70014501,94528840,1545,1544,1544,1544,0,0,0,0,0,0,0,0,0,0
1683205662.80010486,94628800,1544,1544,1543,1543,0,0,0,0,0,0,0,0,0,0
1683205662.90006495,94728760,1544,1544,1544,1544,0,0,0,0,0,0,0,0,0,0
1683205663.00002503,94828720,1544,1544,1544,1544,0,0,0,0,0,0,0,0,0,0
1683205663.09998488,94928680,1544,1544,1544,1544,0,0,0,0,0,0,0,0,0,0
1683205663.19994497,95028640,1544,1544,1545,1545,0,0,0,0,0,0,0,0,0,0
1683205663.29990482,95128600,1544,1544,1544,1544,0,0,0,0,0,0,0,0,0,0
1683205663.39986491,95228560,1544,1544,1544,1544,0,0,0,0,0,0,0,0,0,0
1683205663.49982500,95328520,1544,1544,1544,1545,0,0,0,0,0,0,0,0,0,0
1683205663.59978485,95428480,1543,1544,1544,1544,0,0,0,0,0,0,0,0,0,0
1683205663.69974494,95528440,1543,1544,1543,1544,0,0,0,0,0,0,0,0,0,0
1683205663.79970503,95628400,1543,1544,1544,1543,0,0,0,0,0,0,0,0,0,0
1683205663.89966488,95728360,1544,1543,1544,1543,0,0,0,0,0,0,0,0,0,0
1683205663.99962497,95828320,1544,1544,1544,1544,0,0,0,0,0,0,0,0,0,0
1683205664.09958506,95928280,1545,1544,1545,1545,0,0,0,0,0,0,0,0,0,0
1683205664.19954491,96028240,1544,1544,1544,1544,0,0,0,0,0,0,0,0,0,0
1683205664.29950500,96128200,1501,1500,1480,1481,0,0,0,0,0,0,0,0,0,0
1683205664.39946485,96228160,1395,1393,1308,1306,0,0,0,0,0,0,0,0,0,0
1683205664.50025797,96328953,1354,1352,1230,1229,0,0,0,0,0,0,0,0,0,0
1683205664.60021806,96428913,1342,1340,1206,1204,0,0,0,0,0,0,0,0,0,0
1683205664.70017791,96528873,1328,1325,1176,1175,0,0,0,0,0,0,0,0,0,0
1683205664.80013800,96628833,1298,1297,1151,1150,0,0,0,0,0,0,0,0,0,0
1683205664.90009785,96728793,1211,1208,1150,1150,0,0,0,0,0,0,0,0,0,0
1683205665.00005794,96828753,1114,1111,1151,1150,0,0,0,0,0,0,0,0,0,0
1683205665.10001802,96928713,1004,1001,1150,1150,0,0,0,0,0,0,0,0,0,0
1683205665.19997787,97028673,979,976,1151,1150,0,0,0,0,0,0,0,0,0,0
1683205665.29993796,97128633,979,976,1150,1150,0,0,0,0,0,0,0,0,0,0
1683205665.39989805,97228593,979,976,1151,1150,0,0,0,0,0,0,0,0,0,0
1683205665.49985790,97328553,979,964,1150,1168,0,0,0,0,0,0,0,0,0,0
1683205665.59981799,97428513,979,970,1150,1160,0,0,0,0,0,0,0,0,0,0
1683205665.69977784,97528473,979,971,1150,1158,0,0,0,0,0,0,0,0,0,0
1683205665.79973793,97628433,979,971,1150,1157,0,0,0,0,0,0,0,0,0,0
1683205665.89969802,97728393,979,971,1150,1158,0,0,0,0,0,0,0,0,0,0
1683205665.99965787,97828353,979,971,1150,1158,0,0,0,0,0,0,0,0,0,0
1683205666.09961796,97928313,979,971,1150,1159,0,0,0,0,0,0,0,0,0,0
1683205666.19957805,98028273,979,971,1150,1159,0,0,0,0,0,0,0,0,0,0
1683205666.29953790,98128233,979,977,1150,1150,0,0,0,0,0,0,0,0,0,0
1683205666.39949799,98228193,979,977,1150,1151,0,0,0,0,0,0,0,0,0,0
1683205666.50029087,98328986,979,976,1150,1151,0,0,0,0,0,0,0,0,0,0
1683205666.60025096,98428946,979,976,1150,1151,0,0,0,0,0,0,0,0,0,0
1683205666.70021105,98528906,832,831,1150,1150,0,0,0,0,0,0,0,0,0,0
1683205666.80017090,98628866,1000,1000,1000,1000,0,0,0,0,0,0,0,0,0,0
1683205666.90013099,98728826,1000,1000,1000,1000,0,0,0,0,0,0,0,0,0,0
1683205667.00009084,98828786,1000,1000,1000,1000,0,0,0,0,0,0,0,0,0,0
1683205667.10005093,98928746,1000,1000,1000,1000,0,0,0,0,0,0,0,0,0,0
1683205667.20001101,99028706,1000,1000,1000,1000,0,0,0,0,0,0,0,0,0,0
1683205667.29997087,99128666,1000,1000,1000,1000,0,0,0,0,0,0,0,0,0,0
1683205667.39993095,99228626,1000,1000,1000,1000,0,0,0,0,0,0,0,0,0,0
1683205667.49989104,99328586,1000,1000,1000,1000,0,0,0,0,0,0,0,0,0,0
1683205667.59985089,99428546,1000,1000,1000,1000,0,0,0,0,0,0,0,0,0,0
1683205667.69981098,99528506,1000,1000,1000,1000,0,0,0,0,0,0,0,0,0,0
1683205667.79977083,99628466,1000,1000,1000,1000,0,0,0,0,0,0,0,0,0,0
1683205667.89973092,99728426,1000,1000,1000,1000,0,0,0,0,0,0,0,0,0,0
1683205667.99969101,99828386,1000,1000,1000,1000,0,0,0,0,0,0,0,0,0,0
1683205668.09965086,99928346,1000,1000,1000,1000,0,0,0,0,0,0,0,0,0,0
1683205668.19961095,100028306,1000,1000,1000,1000,0,0,0,0,0,0,0,0,0,0
1683205668.29957104,100128266,1000,1000,1000,1000,0,0,0,0,0,0,0,0,0,0
1683205668.39953089,100228226,1000,1000,1000,1000,0,0,0,0,0,0,0,0,0,0
1683205668.49949098,100328186,1000,1000,1000,1000,0,0,0,0,0,0,0,0,0,0
1683205668.60028386,100428979,1000,1000,1000,1000,0,0,0,0,0,0,0,0,0,0
1683205668.70024395,100528939,1000,1000,1000,1000,0,0,0,0,0,0,0,0,0,0
1683205668.80020404,100628899,1000,1000,1000,1000,0,0,0,0,0,0,0,0,0,0
1683205668.90016389,100728859,1000,1000,1000,1000,0,0,0,0,0,0,0,0,0,0
1683205669.00012398,100828819,1000,1000,1000,1000,0,0,0,0,0,0,0,0,0,0
1683205669.10008383,100928779,1000,1000,1000,1000,0,0,0,0,0,0,0,0,0,0
1683205669.20004392,101028739,1000,1000,1000,1000,0,0,0,0,0,0,0,0,0,0
1683205669.30000401,101128699,1000,1000,1000,1000,0,0,0,0,0,0,0,0,0,0
1683205669.39996386,101228659,1000,1000,1000,1000,0,0,0,0,0,0,0,0,0,0
1683205669.49992394,101328619,1000,1000,1000,1000,0,0,0,0,0,0,0,0,0,0
1683205669.59988403,101428579,1000,1000,1000,1000,0,0,0,0,0,0,0,0,0,0
1683205669.69984388,101528539,1000,1000,1000,1000,0,0,0,0,0,0,0,0,0,0
1683205669.79980397,101628499,1000,1000,1000,1000,0,0,0,0,0,0,0,0,0,0
1683205669.89976382,101728459,1000,1000,1000,1000,0,0,0,0,0,0,0,0,0,0
1683205669.99972391,101828419,1000,1000,1000,1000,0,0,0,0,0,0,0,0,0,0
1683205670.09968400,101928379,1000,1000,1000,1000,0,0,0,0,0,0,0,0,0,0
1683205670.19964385,102028339,1000,1000,1000,1000,0,0,0,0,0,0,0,0,0,0
1683205670.29960394,102128299,1000,1000,1000,1000,0,0,0,0,0,0,0,0,0,0
1683205670.39956403,102228259,1000,1000,1000,1000,0,0,0,0,0,0,0,0,0,0
1683205670.49952388,102328219,1000,1000,1000,1000,0,0,0,0,0,0,0,0,0,0
1683205670.59948397,102428179,1000,1000,1000,1000,0,0,0,0,0,0,0,0,0,0
1683205670.70027685,102528972,1000,1000,1000,1000,0,0,0,0,0,0,0,0,0,0
1683205670.80023694,102628932,1000,1000,1000,1000,0,0,0,0,0,0,0,0,0,0
1683205670.90019703,102728892,1000,1000,1000,1000,0,0,0,0,0,0,0,0,0,0
1683205671.00015688,102828852,1000,1000,1000,1000,0,0,0,0,0,0,0,0,0,0
1683205671.10011697,102928812,1000,1000,1000,1000,0,0,0,0,0,0,0,0,0,0
1683205671.20007706,103028772,1000,1000,1000,1000,0,0,0,0,0,0,0,0,0,0
1683205671.30003691,103128732,1000,1000,1000,1000,0,0,0,0,0,0,0,0,0,0
1683205671.39999700,103228692,1000,1000,1000,1000,0,0,0,0,0,0,0,0,0,0
1683205671.49995685,103328652,1000,1000,1000,1000,0,0,0,0,0,0,0,0,0,0
1683205671.59991693,103428612,1000,1000,1000,1000,0,0,0,0,0,0,0,0,0,0
1683205671.69987702,103528572,1000,1000,1000,1000,0,0,0,0,0,0,0,0,0,0
1683205671.79983687,103628532,1000,1000,1000,1000,0,0,0,0,0,0,0,0,0,0
1683205671.89979696,103728492,1000,1000,1000,1000,0,0,0,0,0,0,0,0,0,0
1683205671.99975705,103828452,1000,1000,1000,1000,0,0,0,0,0,0,0,0,0,0
1683205672.09971690,103928412,1000,1000,1000,1000,0,0,0,0,0,0,0,0,0,0
1683205672.19967699,104028372,1000,1000,1000,1000,0,0,0,0,0,0,0,0,0,0
1683205672.29963684,104128332,1000,1000,1000,1000,0,0,0,0,0,0,0,0,0,0
1683205672.39959693,104228292,1000,1000,1000,1000,0,0,0,0,0,0,0,0,0,0
1683205672.49955702,104328252,1000,1000,1000,1000,0,0,0,0,0,0,0,0,0,0
1683205672.59951687,104428212,1000,1000,1000,1000,0,0,0,0,0,0,0,0,0,0
1683205672.69947696,104528172,1000,1000,1000,1000,0,0,0,0,0,0,0,0,0,0
1683205672.80026984,104628965,1000,1000,1000,1000,0,0,0,0,0,0,0,0,0,0
1683205672.90022993,104728925,1000,1000,1000,1000,0,0,0,0,0,0,0,0,0,0
1683205673.00019002,104828885,1000,1000,1000,1000,0,0,0,0,0,0,0,0,0,0
1683205673.10014987,104928845,1000,1000,1000,1000,0,0,0,0,0,0,0,0,0,0
1683205673.20010996,105028805,1000,1000,1000,1000,0,0,0,0,0,0,0,0,0,0
1683205673.30007005,105128765,1000,1000,1000,1000,0,0,0,0,0,0,0,0,0,0
1683205673.40002990,105228725,1000,1000,1000,1000,0,0,0,0,0,0,0,0,0,0
1683205673.49998999,105328685,1000,1000,1000,1000,0,0,0,0,0,0,0,0,0,0
1683205673.59994984,105428645,1000,1000,1000,1000,0,0,0,0,0,0,0,0,0,0
1683205673.69990993,105528605,1000,1000,1000,1000,0,0,0,0,0,0,0,0,0,0
1683205673.79987001,105628565,1000,1000,1000,1000,0,0,0,0,0,0,0,0,0,0
1683205673.89982986,105728525,1000,1000,1000,1000,0,0,0,0,0,0,0,0,0,0
1683205673.99978995,105828485,1000,1000,1000,1000,0,0,0,0,0,0,0,0,0,0
1683205674.09975004,105928445,1000,1000,1000,1000,0,0,0,0,0,0,0,0,0,0
1683205674.19970989,106028405,1000,1000,1000,1000,0,0,0,0,0,0,0,0,0,0
1683205674.29966998,106128365,1000,1000,1000,1000,0,0,0,0,0,0,0,0,0,0
1683205674.39962983,106228325,1000,1000,1000,1000,0,0,0,0,0,0,0,0,0,0
1683205674.49958992,106328285,1000,1000,1000,1000,0,0,0,0,0,0,0,0,0,0
1683205674.59955001,106428245,1000,1000,1000,1000,0,0,0,0,0,0,0,0,0,0
1683205674.69950986,106528205,1000,1000,1000,1000,0,0,0,0,0,0,0,0,0,0
1683205674.79946995,106628165,1000,1000,1000,1000,0,0,0,0,0,0,0,0,0,0
1683205674.90026283,106728958,1000,1000,1000,1000,0,0,0,0,0,0,0,0,0,0
1683205675.00022292,106828918,1000,1000,1000,1000,0,0,0,0,0,0,0,0,0,0
1683205675.10018301,106928878,1000,1000,1000,1000,0,0,0,0,0,0,0,0,0,0
1683205675.20014286,107028838,1000,1000,1000,1000,0,0,0,0,0,0,0,0,0,0
1683205675.30010295,107128798,1000,1000,1000,1000,0,0,0,0,0,0,0,0,0,0
1683205675.40006304,107228758,1000,1000,1000,1000,0,0,0,0,0,0,0,0,0,0
1683205675.50002289,107328718,1000,1000,1000,1000,0,0,0,0,0,0,0,0,0,0
1683205675.59998298,107428678,1000,1000,1000,1000,0,0,0,0,0,0,0,0,0,0
1683205675.69994283,107528638,1000,1000,1000,1000,0,0,0,0,0,0,0,0,0,0
1683205675.79990292,107628598,1000,1000,1000,1000,0,0,0,0,0,0,0,0,0,0
1683205675.89986300,107728558,1000,1000,1000,1000,0,0,0,0,0,0,0,0,0,0
1683205675.99982285,107828518,1000,1000,1000,1000,0,0,0,0,0,0,0,0,0,0
1683205676.09978294,107928478,1000,1000,1000,1000,0,0,0,0,0,0,0,0,0,0
1683205676.19974303,108028438,1000,1000,1000,1000,0,0,0,0,0,0,0,0,0,0
1683205676.29970288,108128398,1000,1000,1000,1000,0,0,0,0,0,0,0,0,0,0
1683205676.39966297,108228358,1000,1000,1000,1000,0,0,0,0,0,0,0,0,0,0
1683205676.49962306,108328318,1000,1000,1000,1000,0,0,0,0,0,0,0,0,0,0
1683205676.59958291,108428278,1000,1000,1000,1000,0,0,0,0,0,0,0,0,0,0
1683205676.69954300,108528238,1000,1000,1000,1000,0,0,0,0,0,0,0,0,0,0
1683205676.79950285,108628198,1000,1000,1000,1000,0,0,0,0,0,0,0,0,0,0
1683205676.89946294,108728158,1000,1000,1000,1000,0,0,0,0,0,0,0,0,0,0
1683205677.00025582,108828951,1000,1000,1000,1000,0,0,0,0,0,0,0,0,0,0
1683205677.10021591,108928911,1000,1000,1000,1000,0,0,0,0,0,0,0,0,0,0
1683205677.20017600,109028871,1000,1000,1000,1000,0,0,0,0,0,0,0,0,0,0
1683205677.30013585,109128831,1000,1000,1000,1000,0,0,0,0,0,0,0,0,0,0
1683205677.40009594,109228791,1000,1000,1000,1000,0,0,0,0,0,0,0,0,0,0
1683205677.50005603,109328751,1000,1000,1000,1000,0,0,0,0,0,0,0,0,0,0
1683205677.60001588,109428711,1000,1000,1000,1000,0,0,0,0,0,0,0,0,0,0
1683205677.69997597,109528671,1000,1000,1000,1000,0,0,0,0,0,0,0,0,0,0
1683205677.79993606,109628631,1000,1000,1000,1000,0,0,0,0,0,0,0,0,0,0
1683205677.89989591,109728591,1000,1000,1000,1000,0,0,0,0,0,0,0,0,0,0
1683205677.99985600,109828551,1000,1000,1000,1000,0,0,0,0,0,0,0,0,0,0
1683205678.09981585,109928511,1000,1000,1000,1000,0,0,0,0,0,0,0,0,0,0
1683205678.19977593,110028471,1000,1000,1000,1000,0,0,0,0,0,0,0,0,0,0
1683205678.29973602,110128431,1000,1000,1000,1000,0,0,0,0,0,0,0,0,0,0
1683205678.39969587,110228391,1000,1000,1000,1000,0,0,0,0,0,0,0,0,0,0
1683205678.49965596,110328351,1000,1000,1000,1000,0,0,0,0,0,0,0,0,0,0
1683205678.59961605,110428311,1000,1000,1000,1000,0,0,0,0,0,0,0,0,0,0
1683205678.69957590,110528271,1000,1000,1000,1000,0,0,0,0,0,0,0,0,0,0
1683205678.79953599,110628231,1000,1000,1000,1000,0,0,0,0,0,0,0,0,0,0
1683205678.89949584,110728191,1000,1000,1000,1000,0,0,0,0,0,0,0,0,0,0
1683205679.00028896,110828984,1000,1000,1000,1000,0,0,0,0,0,0,0,0,0,0
1683205679.10024905,110928944,1000,1000,1000,1000,0,0,0,0,0,0,0,0,0,0
1683205679.20020890,111028904,1000,1000,1000,1000,0,0,0,0,0,0,0,0,0,0
1683205679.30016899,111128864,1000,1000,1000,1000,0,0,0,0,0,0,0,0,0,0
1683205679.40012884,111228824,1000,1000,1000,1000,0,0,0,0,0,0,0,0,0,0
1683205679.50008893,111328784,1000,1000,1000,1000,0,0,0,0,0,0,0,0,0,0
1683205679.60004902,111428744,1000,1000,1000,1000,0,0,0,0,0,0,0,0,0,0
1683205679.70000887,111528704,1000,1000,1000,1000,0,0,0,0,0,0,0,0,0,0
1683205679.79996896,111628664,1000,1000,1000,1000,0,0,0,0,0,0,0,0,0,0
1683205679.89992905,111728624,1000,1000,1000,1000,0,0,0,0,0,0,0,0,0,0
1683205679.99988890,111828584,1000,1000,1000,1000,0,0,0,0,0,0,0,0,0,0
1683205680.09984899,111928544,1000,1000,1000,1000,0,0,0,0,0,0,0,0,0,0
1683205680.19980884,112028504,1000,1000,1000,1000,0,0,0,0,0,0,0,0,0,0
1683205680.29976892,112128464,1000,1000,1000,1000,0,0,0,0,0,0,0,0,0,0
1683205680.39972901,112228424,1000,1000,1000,1000,0,0,0,0,0,0,0,0,0,0
1683205680.49968886,112328384,1000,1000,1000,1000,0,0,0,0,0,0,0,0,0,0
1683205680.59964895,112428344,1000,1000,1000,1000,0,0,0,0,0,0,0,0,0,0
1683205680.69960904,112528304,1000,1000,1000,1000,0,0,0,0,0,0,0,0,0,0
1683205680.79956889,112628264,1000,1000,1000,1000,0,0,0,0,0,0,0,0,0,0
1683205680.89952898,112728224,1000,1000,1000,1000,0,0,0,0,0,0,0,0,0,0
1683205680.99948883,112828184,1000,1000,1000,1000,0,0,0,0,0,0,0,0,0,0
1683205681.10028195,112928977,1000,1000,1000,1000,0,0,0,0,0,0,0,0,0,0
1683205681.20024204,113028937,1000,1000,1000,1000,0,0,0,0,0,0,0,0,0,0
1683205681.30020189,113128897,1000,1000,1000,1000,0,0,0,0,0,0,0,0,0,0
1683205681.40016198,113228857,1000,1000,1000,1000,0,0,0,0,0,0,0,0,0,0
1683205681.50012183,113328817,1000,1000,1000,1000,0,0,0,0,0,0,0,0,0,0
1683205681.60008192,113428777,1000,1000,1000,1000,0,0,0,0,0,0,0,0,0,0
1683205681.70004201,113528737,1000,1000,1000,1000,0,0,0,0,0,0,0,0,0,0
