TimeUS,M1,M2,M3,M4,TimeUS,C1,C2,C3,C4
47151132,1000,1000,1000,1000,47228601,1000,1000,1000,1000
47153631,1000,1000,1000,1000,47328561,1000,1000,1000,1000
47156130,1000,1000,1000,1000,47428521,1000,1000,1000,1000
47158629,1000,1000,1000,1000,47528481,1000,1000,1000,1000
47161128,1000,1000,1000,1000,47628441,1000,1000,1000,1000
47163627,1000,1000,1000,1000,47728401,1000,1000,1000,1000
47166126,1000,1000,1000,1000,47828361,1000,1000,1000,1000
47168625,1000,1000,1000,1000,47928321,1000,1000,1000,1000
47171124,1000,1000,1000,1000,48028281,1000,1000,1000,1000
47173623,1000,1000,1000,1000,48128241,1000,1000,1000,1000
47176122,1000,1000,1000,1000,48228201,1000,1000,1000,1000
47178621,1000,1000,1000,1000,48328161,1000,1000,1000,1000
47181120,1000,1000,1000,1000,48428954,1000,1000,1000,1000
47183619,1000,1000,1000,1000,48528914,1000,1000,1000,1000
47186118,1000,1000,1000,1000,48628874,1000,1000,1000,1000
47188617,1000,1000,1000,1000,48728834,1000,1000,1000,1000
47191116,1000,1000,1000,1000,48828794,1000,1000,1000,1000
47193615,1000,1000,1000,1000,48928754,1000,1000,1000,1000
47196114,1000,1000,1000,1000,49028714,1000,1000,1000,1000
47198613,1000,1000,1000,1000,49128674,1000,1000,1000,1000
47201112,1000,1000,1000,1000,49228634,1023,1023,1023,1023
47203611,1000,1000,1000,1000,49328594,1053,1053,1053,1053
47206110,1000,1000,1000,1000,49428554,1083,1083,1083,1083
47208609,1000,1000,1000,1000,49528514,1113,1113,1113,1113
47211108,1000,1000,1000,1000,49628474,1143,1143,1143,1143
47213607,1000,1000,1000,1000,49728434,1351,1346,1346,1352
47216106,1000,1000,1000,1000,49828394,1542,1538,1538,1542
47218605,1000,1000,1000,1000,49928354,1695,1691,1691,1695
47221104,1000,1000,1000,1000,50028314,1826,1823,1823,1827
47223603,1000,1000,1000,1000,50128274,1872,1867,1868,1872
47226102,1000,1000,1000,1000,50228234,1833,1831,1831,1833
47228601,1000,1000,1000,1000,50328194,1700,1701,1701,1701
47231100,1000,1000,1000,1000,50428154,1624,1625,1625,1624
47233599,1000,1000,1000,1000,50528947,1612,1613,1613,1612
47236098,1000,1000,1000,1000,50628907,1624,1625,1626,1624
47238597,1000,1000,1000,1000,50728867,1631,1631,1632,1631
47241096,1000,1000,1000,1000,50828827,1631,1627,1626,1632
47243595,1000,1000,1000,1000,50928787,1612,1611,1605,1618
47246094,1000,1000,1000,1000,51028747,1604,1604,1598,1610
47248593,1000,1000,1000,1000,51128707,1602,1602,1600,1604
47251092,1000,1000,1000,1000,51228667,1606,1607,1607,1605
47253591,1000,1000,1000,1000,51328627,1611,1610,1613,1608
47256090,1000,1000,1000,1000,51428587,1616,1615,1619,1611
47258589,1000,1000,1000,1000,51528547,1619,1618,1622,1615
47261088,1000,1000,1000,1000,51628507,1598,1598,1605,1590
47263587,1000,1000,1000,1000,51728467,1578,1578,1588,1568
47266086,1000,1000,1000,1000,51828427,1566,1566,1570,1562
47268585,1000,1000,1000,1000,51928387,1556,1556,1551,1561
47271084,1000,1000,1000,1000,52028347,1548,1547,1537,1558
47273583,1000,1000,1000,1000,52128307,1540,1540,1530,1550
47276082,1000,1000,1000,1000,52228267,1534,1534,1528,1540
47278581,1000,1000,1000,1000,52328227,1529,1529,1527,1531
47281080,1000,1000,1000,1000,52428187,1529,1529,1530,1528
47283579,1000,1000,1000,1000,52528980,1530,1529,1531,1527
47286078,1000,1000,1000,1000,52628940,1533,1533,1536,1530
47288577,1000,1000,1000,1000,52728900,1536,1536,1540,1533
47291076,1000,1000,1000,1000,52828860,1539,1539,1542,1537
47293575,1000,1000,1000,1000,52928820,1542,1543,1544,1541
47296074,1000,1000,1000,1000,53028780,1546,1546,1546,1546
47298573,1000,1000,1000,1000,53128740,1548,1549,1548,1549
47301072,1000,1000,1000,1000,53228700,1551,1551,1549,1553
47303571,1000,1000,1000,1000,53328660,1552,1552,1555,1559
47306070,1000,1000,1000,1000,53428620,1552,1552,1559,1562
47308569,1000,1000,1000,1000,53528580,1555,1555,1562,1563
47311068,1000,1000,1000,1000,53628540,1558,1558,1564,1563
47313567,1000,1000,1000,1000,53728500,1561,1561,1564,1563
47316066,1000,1000,1000,1000,53828460,1563,1564,1564,1563
47318565,1000,1000,1000,1000,53928420,1566,1566,1565,1564
47321064,1000,1000,1000,1000,54028380,1568,1567,1564,1564
47323563,1000,1000,1000,1000,54128340,1570,1570,1565,1565
47326062,1000,1000,1000,1000,54228300,1571,1571,1566,1567
47328561,1000,1000,1000,1000,54328260,1573,1572,1568,1568
47331060,1000,1000,1000,1000,54428220,1573,1573,1569,1569
47333559,1000,1000,1000,1000,54528180,1574,1573,1570,1570
47336058,1000,1000,1000,1000,54628973,1573,1573,1571,1571
47338557,1000,1000,1000,1000,54728933,1573,1573,1572,1572
47341056,1000,1000,1000,1000,54828893,1573,1573,1574,1573
47343555,1000,1000,1000,1000,54928853,1575,1575,1577,1575
47346054,1000,1000,1000,1000,55028813,1575,1575,1578,1576
47348553,1000,1000,1000,1000,55128773,1574,1576,1577,1576
47351052,1000,1000,1000,1000,55228733,1574,1575,1576,1577
47353551,1000,1000,1000,1000,55328693,1575,1576,1577,1577
47356050,1000,1000,1000,1000,55428653,1577,1576,1578,1578
47358549,1000,1000,1000,1000,55528613,1577,1576,1577,1577
47361048,1000,1000,1000,1000,55628573,1576,1576,1576,1577
47363547,1000,1000,1000,1000,55728533,1578,1577,1577,1578
47366046,1000,1000,1000,1000,55828493,1577,1578,1577,1577
47368545,1000,1000,1000,1000,55928453,1577,1577,1577,1576
47371044,1000,1000,1000,1000,56028413,1578,1578,1577,1577
47373543,1000,1000,1000,1000,56128373,1578,1578,1577,1577
47376042,1000,1000,1000,1000,56228333,1577,1577,1576,1576
47378541,1000,1000,1000,1000,56328293,1577,1577,1577,1577
47381040,1000,1000,1000,1000,56428253,1577,1578,1578,1577
47383539,1000,1000,1000,1000,56528213,1578,1578,1578,1578
47386038,1000,1000,1000,1000,56628173,1578,1578,1578,1578
47388537,1000,1000,1000,1000,56728966,1578,1578,1578,1578
47391036,1000,1000,1000,1000,56828926,1579,1578,1579,1579
47393535,1000,1000,1000,1000,56928886,1579,1579,1579,1579
47396034,1000,1000,1000,1000,57028846,1578,1578,1578,1578
47398533,1000,1000,1000,1000,57128806,1578,1579,1578,1579
47401032,1000,1000,1000,1000,57228766,1579,1580,1580,1580
47403531,1000,1000,1000,1000,57328726,1579,1579,1580,1580
47406030,1000,1000,1000,1000,57428686,1579,1579,1579,1579
47408529,1000,1000,1000,1000,57528646,1579,1579,1579,1579
47411028,1000,1000,1000,1000,57628606,1579,1579,1580,1579
47413527,1000,1000,1000,1000,57728566,1579,1579,1579,1579
47416026,1000,1000,1000,1000,57828526,1579,1580,1580,1579
47418525,1000,1000,1000,1000,57928486,1580,1580,1580,1580
47421024,1000,1000,1000,1000,58028446,1580,1580,1580,1580
47423523,1000,1000,1000,1000,58128406,1581,1581,1581,1581
47426022,1000,1000,1000,1000,58228366,1581,1580,1580,1580
47428521,1000,1000,1000,1000,58328326,1580,1580,1580,1580
47431020,1000,1000,1000,1000,58428286,1580,1580,1580,1580
47433519,1000,1000,1000,1000,58528246,1580,1580,1580,1581
47436018,1000,1000,1000,1000,58628206,1580,1580,1580,1580
47438517,1000,1000,1000,1000,58728166,1581,1581,1581,1581
47441016,1000,1000,1000,1000,58828959,1580,1580,1580,1580
47443515,1000,1000,1000,1000,58928919,1581,1581,1581,1582
47446014,1000,1000,1000,1000,59028879,1581,1581,1581,1581
47448513,1000,1000,1000,1000,59128839,1583,1582,1582,1582
47451012,1000,1000,1000,1000,59228799,1582,1582,1582,1582
47453511,1000,1000,1000,1000,59328759,1581,1581,1582,1581
47456010,1000,1000,1000,1000,59428719,1581,1582,1582,1581
47458509,1000,1000,1000,1000,59528679,1581,1581,1583,1579
47461008,1000,1000,1000,1000,59628639,1581,1582,1589,1573
47463507,1000,1000,1000,1000,59728599,1580,1582,1583,1573
47466006,1000,1000,1000,1000,59828559,1578,1580,1574,1573
47468505,1000,1000,1000,1000,59928519,1575,1579,1564,1570
47471004,1000,1000,1000,1000,60028479,1576,1578,1558,1566
47473503,1000,1000,1000,1000,60128439,1578,1577,1556,1562
47476002,1000,1000,1000,1000,60228399,1579,1577,1555,1558
47478501,1000,1000,1000,1000,60328359,1579,1577,1556,1555
47481000,1000,1000,1000,1000,60428319,1579,1578,1557,1554
47483499,1000,1000,1000,1000,60528279,1577,1577,1556,1554
47485998,1000,1000,1000,1000,60628239,1576,1577,1556,1554
47488497,1000,1000,1000,1000,60728199,1575,1576,1555,1553
47490996,1000,1000,1000,1000,60828159,1574,1576,1554,1553
47493495,1000,1000,1000,1000,60928952,1574,1575,1552,1553
47495994,1000,1000,1000,1000,61028912,1575,1576,1550,1552
47498493,1000,1000,1000,1000,61128872,1575,1577,1548,1549
47500992,1000,1000,1000,1000,61228832,1577,1579,1546,1546
47503491,1000,1000,1000,1000,61328792,1580,1581,1544,1544
47505990,1000,1000,1000,1000,61428752,1584,1584,1542,1541
47508489,1000,1000,1000,1000,61528712,1587,1587,1539,1539
47510988,1000,1000,1000,1000,61628672,1589,1590,1536,1535
47513487,1000,1000,1000,1000,61728632,1592,1592,1534,1534
47515986,1000,1000,1000,1000,61828592,1593,1594,1533,1533
47518485,1000,1000,1000,1000,61928552,1594,1594,1534,1535
47520984,1000,1000,1000,1000,62028512,1593,1594,1535,1537
47523483,1000,1000,1000,1000,62128472,1592,1591,1539,1542
47525982,1000,1000,1000,1000,62228432,1589,1586,1544,1548
47528481,1000,1000,1000,1000,62328392,1583,1579,1553,1556
47530980,1000,1000,1000,1000,62428352,1573,1570,1562,1565
47533479,1000,1000,1000,1000,62528312,1564,1560,1576,1578
47535978,1000,1000,1000,1000,62628272,1553,1549,1589,1589
47538477,1000,1000,1000,1000,62728232,1541,1539,1599,1599
47540976,1000,1000,1000,1000,62828192,1534,1533,1609,1608
47543475,1000,1000,1000,1000,62928985,1529,1530,1614,1614
47545974,1000,1000,1000,1000,63028945,1527,1530,1615,1614
47548473,1000,1000,1000,1000,63128905,1531,1534,1614,1613
47550972,1000,1000,1000,1000,63228865,1538,1540,1610,1609
47553471,1000,1000,1000,1000,63328825,1546,1547,1603,1603
47555970,1000,1000,1000,1000,63428785,1554,1555,1595,1595
47558469,1000,1000,1000,1000,63528745,1562,1563,1587,1587
47560968,1000,1000,1000,1000,63628705,1570,1571,1580,1579
47563467,1000,1000,1000,1000,63728665,1578,1577,1575,1574
47565966,1000,1000,1000,1000,63828625,1583,1582,1569,1569
47568465,1000,1000,1000,1000,63928585,1586,1585,1566,1567
47570964,1000,1000,1000,1000,64028545,1588,1587,1566,1567
47573463,1000,1000,1000,1000,64128505,1588,1587,1567,1567
47575962,1000,1000,1000,1000,64228465,1585,1585,1567,1568
47578461,1000,1000,1000,1000,64328425,1584,1583,1571,1571
47580960,1000,1000,1000,1000,64428385,1581,1581,1574,1574
47583459,1000,1000,1000,1000,64528345,1578,1579,1578,1577
47585958,1000,1000,1000,1000,64628305,1575,1576,1579,1580
47588457,1000,1000,1000,1000,64728265,1574,1574,1582,1582
47590956,1000,1000,1000,1000,64828225,1573,1574,1584,1584
47593455,1000,1000,1000,1000,64928185,1572,1574,1584,1584
47595954,1000,1000,1000,1000,65028978,1571,1572,1582,1582
47598453,1000,1000,1000,1000,65128938,1573,1573,1583,1583
47600952,1000,1000,1000,1000,65228898,1574,1574,1582,1582
47603451,1000,1000,1000,1000,65328858,1575,1575,1580,1580
47605950,1000,1000,1000,1000,65428818,1319,1322,1644,1652
47608449,1000,1000,1000,1000,65528778,1398,1407,1654,1657
47610948,1000,1000,1000,1000,65628738,1466,1478,1642,1637
47613447,1000,1000,1000,1000,65728698,1524,1532,1632,1621
47615946,1000,1000,1000,1000,65828658,1568,1568,1622,1612
47618445,1000,1000,1000,1000,65928618,1600,1583,1595,1589
47620944,1000,1000,1000,1000,66028578,1600,1582,1523,1530
47623443,1000,1000,1000,1000,66128538,1600,1588,1476,1493
47625942,1000,1000,1000,1000,66228498,1600,1599,1490,1503
47628441,1000,1000,1000,1000,66328458,1592,1600,1506,1510
47630940,1000,1000,1000,1000,66428418,1590,1600,1526,1523
47633439,1000,1000,1000,1000,66528378,1592,1600,1545,1540
47635938,1000,1000,1000,1000,66628338,1597,1600,1561,1556
47638437,1000,1000,1000,1000,66728298,1600,1597,1567,1566
47640936,1000,1000,1000,1000,66828258,1600,1596,1570,1571
47643435,1000,1000,1000,1000,66928218,1600,1596,1572,1576
47645934,1000,1000,1000,1000,67028178,1600,1596,1579,1575
47648433,1000,1000,1000,1000,67128971,1600,1594,1583,1578
47650932,1000,1000,1000,1000,67228931,1600,1594,1585,1583
47653431,1000,1000,1000,1000,67328891,1600,1596,1587,1587
47655930,1000,1000,1000,1000,67428851,1600,1598,1588,1589
47658429,1000,1000,1000,1000,67528811,1599,1600,1589,1590
47660928,1000,1000,1000,1000,67628771,1600,1598,1587,1589
47663427,1000,1000,1000,1000,67728731,1597,1600,1582,1589
47665926,1000,1000,1000,1000,67828691,1594,1600,1581,1584
47668425,1000,1000,1000,1000,67928651,1593,1600,1583,1581
47670924,1000,1000,1000,1000,68028611,1594,1600,1585,1581
47673423,1000,1000,1000,1000,68128571,1597,1600,1587,1583
47675922,1000,1000,1000,1000,68228531,1599,1600,1588,1585
47678421,1000,1000,1000,1000,68328491,1600,1599,1586,1585
47680920,1000,1000,1000,1000,68428451,1600,1599,1585,1585
47683419,1000,1000,1000,1000,68528411,1599,1600,1582,1587
47685918,1000,1000,1000,1000,68628371,1599,1600,1586,1581
47688417,1000,1000,1000,1000,68728331,1600,1595,1585,1577
47690916,1000,1000,1000,1000,68828291,1600,1592,1583,1578
47693415,1000,1000,1000,1000,68928251,1600,1593,1581,1581
47695914,1000,1000,1000,1000,69028211,1597,1593,1577,1580
47698413,1000,1000,1000,1000,69128171,1588,1587,1566,1569
47700912,1000,1000,1000,1000,69228964,1582,1583,1560,1561
47703411,1000,1000,1000,1000,69328924,1576,1578,1554,1552
47705910,1000,1000,1000,1000,69428884,1676,1678,1529,1526
47708409,1000,1000,1000,1000,69528844,1649,1650,1513,1509
47710908,1000,1000,1000,1000,69628804,1627,1628,1509,1505
47713407,1000,1000,1000,1000,69728764,1609,1611,1507,1505
47715906,1000,1000,1000,1000,69828724,1596,1597,1507,1506
47718405,1000,1000,1000,1000,69928684,1585,1586,1508,1508
47720904,1000,1000,1000,1000,70028644,1576,1578,1512,1513
47723403,1000,1000,1000,1000,70128604,1569,1572,1518,1520
47725902,1000,1000,1000,1000,70228564,1564,1567,1523,1526
47728401,1000,1000,1000,1000,70328524,1561,1564,1529,1533
47730900,1000,1000,1000,1000,70428484,1560,1562,1537,1540
47733399,1000,1000,1000,1000,70528444,1558,1560,1542,1545
47735898,1000,1000,1000,1000,70628404,1559,1558,1547,1550
47738397,1000,1000,1000,1000,70728364,1559,1559,1552,1554
47740896,1000,1000,1000,1000,70828324,1560,1560,1557,1559
47743395,1000,1000,1000,1000,70928284,1561,1559,1560,1561
47745894,1000,1000,1000,1000,71028244,1562,1561,1563,1563
47748393,1000,1000,1000,1000,71128204,1563,1563,1566,1566
47750892,1000,1000,1000,1000,71228164,1566,1564,1569,1568
47753391,1000,1000,1000,1000,71328957,1567,1566,1570,1570
47755890,1000,1000,1000,1000,71428917,1569,1568,1570,1571
47758389,1000,1000,1000,1000,71528877,1572,1571,1570,1571
47760888,1000,1000,1000,1000,71628837,1574,1573,1569,1569
47763387,1000,1000,1000,1000,71728797,1567,1560,1584,1586
47765886,1000,1000,1000,1000,71828757,1544,1536,1610,1610
47768385,1000,1000,1000,1000,71928717,1523,1519,1632,1631
47770884,1000,1000,1000,1000,72028677,1508,1509,1643,1642
47773383,1000,1000,1000,1000,72128637,1503,1510,1647,1646
47775882,1000,1000,1000,1000,72228597,1506,1515,1643,1641
47778381,1000,1000,1000,1000,72328557,1515,1525,1633,1631
47780880,1000,1000,1000,1000,72428517,1531,1538,1618,1617
47783379,1000,1000,1000,1000,72528477,1547,1551,1601,1601
47785878,1000,1000,1000,1000,72628437,1564,1563,1583,1583
47788377,1000,1000,1000,1000,72728397,1580,1577,1569,1570
47790876,1000,1000,1000,1000,72828357,1593,1588,1558,1558
47793375,1000,1000,1000,1000,72928317,1601,1596,1553,1553
47795874,1000,1000,1000,1000,73028277,1605,1600,1552,1552
47798373,1000,1000,1000,1000,73128237,1604,1601,1553,1552
47800872,1000,1000,1000,1000,73228197,1602,1600,1556,1556
47803371,1000,1000,1000,1000,73328157,1599,1598,1559,1561
47805870,1000,1000,1000,1000,73428950,1595,1595,1564,1564
47808369,1000,1000,1000,1000,73528910,1591,1593,1569,1569
47810868,1000,1000,1000,1000,73628870,1588,1589,1573,1573
47813367,1000,1000,1000,1000,73728830,1584,1585,1576,1576
47815866,1000,1000,1000,1000,73828790,1582,1581,1580,1580
47818365,1000,1000,1000,1000,73928750,1578,1578,1583,1583
47820864,1000,1000,1000,1000,74028710,1575,1575,1585,1585
47823363,1000,1000,1000,1000,74128670,1573,1574,1588,1587
47825862,1000,1000,1000,1000,74228630,1571,1571,1588,1588
47828361,1000,1000,1000,1000,74328590,1570,1571,1589,1589
47830860,1000,1000,1000,1000,74428550,1570,1571,1588,1588
47833359,1000,1000,1000,1000,74528510,1571,1573,1587,1587
47835858,1000,1000,1000,1000,74628470,1573,1573,1585,1585
47838357,1000,1000,1000,1000,74728430,1575,1575,1583,1583
47840856,1000,1000,1000,1000,74828390,1577,1577,1581,1581
47843355,1000,1000,1000,1000,74928350,1580,1580,1580,1580
47845854,1000,1000,1000,1000,75028310,1582,1582,1578,1578
47848353,1000,1000,1000,1000,75128270,1583,1583,1578,1577
47850852,1000,1000,1000,1000,75228230,1584,1584,1576,1576
47853351,1000,1000,1000,1000,75328190,1585,1584,1576,1577
47855850,1000,1000,1000,1000,75428983,1585,1585,1577,1577
47858349,1000,1000,1000,1000,75528943,1584,1584,1577,1577
47860848,1000,1000,1000,1000,75628903,1585,1584,1579,1579
47863347,1000,1000,1000,1000,75728863,1583,1583,1578,1578
47865846,1000,1000,1000,1000,75828823,1583,1583,1580,1580
47868345,1000,1000,1000,1000,75928783,1582,1582,1581,1581
47870844,1000,1000,1000,1000,76028743,1580,1581,1581,1581
47873343,1000,1000,1000,1000,76128703,1580,1580,1581,1581
47875842,1000,1000,1000,1000,76228663,1579,1580,1582,1582
47878341,1000,1000,1000,1000,76328623,1579,1580,1583,1583
47880840,1000,1000,1000,1000,76428583,1579,1579,1584,1581
47883339,1000,1000,1000,1000,76528543,1580,1581,1590,1575
47885838,1000,1000,1000,1000,76628503,1580,1581,1585,1575
47888337,1000,1000,1000,1000,76728463,1577,1579,1574,1573
47890836,1000,1000,1000,1000,76828423,1576,1579,1566,1571
47893335,1000,1000,1000,1000,76928383,1576,1579,1560,1566
47895834,1000,1000,1000,1000,77028343,1577,1578,1556,1561
47898333,1000,1000,1000,1000,77128303,1578,1577,1554,1557
47900832,1000,1000,1000,1000,77228263,1579,1577,1555,1554
47903331,1000,1000,1000,1000,77328223,1579,1578,1555,1553
47905830,1000,1000,1000,1000,77428183,1578,1577,1555,1553
47908329,1000,1000,1000,1000,77528976,1577,1577,1555,1553
47910828,1000,1000,1000,1000,77628936,1576,1577,1554,1553
47913327,1000,1000,1000,1000,77728896,1575,1577,1553,1553
47915826,1000,1000,1000,1000,77828856,1574,1576,1552,1552
47918325,1000,1000,1000,1000,77928816,1575,1577,1551,1552
47920824,1000,1000,1000,1000,78028776,1576,1578,1550,1550
47923323,1000,1000,1000,1000,78128736,1577,1579,1549,1548
47925822,1000,1000,1000,1000,78228696,1579,1581,1547,1546
47928321,1000,1000,1000,1000,78328656,1582,1583,1545,1544
47930820,1000,1000,1000,1000,78428616,1585,1586,1543,1543
47933319,1000,1000,1000,1000,78528576,1587,1587,1540,1540
47935818,1000,1000,1000,1000,78628536,1590,1590,1539,1539
47938317,1000,1000,1000,1000,78728496,1591,1591,1538,1538
47940816,1000,1000,1000,1000,78828456,1592,1592,1538,1539
47943315,1000,1000,1000,1000,78928416,1591,1591,1538,1540
47945814,1000,1000,1000,1000,79028376,1591,1590,1541,1543
47948313,1000,1000,1000,1000,79128336,1588,1588,1545,1548
47950812,1000,1000,1000,1000,79228296,1584,1583,1550,1554
47953311,1000,1000,1000,1000,79328256,1579,1576,1559,1562
47955810,1000,1000,1000,1000,79428216,1572,1568,1570,1572
47958309,1000,1000,1000,1000,79528176,1562,1558,1581,1583
47960808,1000,1000,1000,1000,79628969,1552,1548,1592,1593
47963307,1000,1000,1000,1000,79728929,1542,1541,1601,1601
47965806,1000,1000,1000,1000,79828889,1535,1535,1607,1607
47968305,1000,1000,1000,1000,79928849,1531,1532,1611,1610
47970804,1000,1000,1000,1000,80028809,1529,1532,1611,1610
47973303,1000,1000,1000,1000,80128769,1532,1535,1609,1609
47975802,1000,1000,1000,1000,80228729,1538,1540,1605,1605
47978301,1000,1000,1000,1000,80328689,1545,1546,1599,1599
47980800,1000,1000,1000,1000,80428649,1553,1554,1593,1592
47983299,1000,1000,1000,1000,80528609,1561,1561,1586,1585
47985798,1000,1000,1000,1000,80628569,1569,1569,1579,1578
47988297,1000,1000,1000,1000,80728529,1576,1575,1573,1573
47990796,1000,1000,1000,1000,80828489,1581,1580,1568,1569
47993295,1000,1000,1000,1000,80928449,1585,1584,1566,1566
47995794,1000,1000,1000,1000,81028409,1589,1587,1566,1566
47998293,1000,1000,1000,1000,81128369,1590,1588,1567,1567
48000792,1000,1000,1000,1000,81228329,1589,1588,1569,1568
48003291,1000,1000,1000,1000,81328289,1588,1587,1572,1571
48005790,1000,1000,1000,1000,81428249,1585,1585,1574,1574
48008289,1000,1000,1000,1000,81528209,1583,1582,1576,1576
48010788,1000,1000,1000,1000,81628169,1580,1580,1578,1578
48013287,1000,1000,1000,1000,81728962,1577,1577,1580,1580
48015786,1000,1000,1000,1000,81828922,1575,1575,1582,1582
48018285,1000,1000,1000,1000,81928882,1574,1574,1583,1583
48020784,1000,1000,1000,1000,82028842,1573,1574,1584,1584
48023283,1000,1000,1000,1000,82128802,1573,1574,1584,1584
48025782,1000,1000,1000,1000,82228762,1574,1575,1585,1584
48028281,1000,1000,1000,1000,82328722,1575,1576,1584,1583
48030780,1000,1000,1000,1000,82428682,1577,1577,1583,1583
48033279,1000,1000,1000,1000,82528642,1578,1578,1582,1581
48035778,1000,1000,1000,1000,82628602,1579,1579,1580,1581
48038277,1000,1000,1000,1000,82728562,1580,1579,1578,1579
48040776,1000,1000,1000,1000,82828522,1582,1581,1579,1579
48043275,1000,1000,1000,1000,82928482,1582,1581,1578,1578
48045774,1000,1000,1000,1000,83028442,1582,1582,1578,1578
48048273,1000,1000,1000,1000,83128402,1582,1582,1577,1577
48050772,1000,1000,1000,1000,83228362,1582,1582,1577,1577
48053271,1000,1000,1000,1000,83328322,1582,1581,1578,1578
48055770,1000,1000,1000,1000,83428282,1581,1582,1579,1579
48058269,1000,1000,1000,1000,83528242,1580,1581,1579,1578
48060768,1000,1000,1000,1000,83628202,1580,1581,1580,1580
48063267,1000,1000,1000,1000,83728162,1580,1580,1580,1580
48065766,1000,1000,1000,1000,83828955,1580,1580,1581,1581
48068265,1000,1000,1000,1000,83928915,1580,1579,1581,1581
48070764,1000,1000,1000,1000,84028875,1580,1580,1582,1582
48073263,1000,1000,1000,1000,84128835,1579,1580,1581,1581
48075762,1000,1000,1000,1000,84228795,1580,1580,1582,1582
48078261,1000,1000,1000,1000,84328755,1580,1581,1582,1582
48080760,1000,1000,1000,1000,84428715,1581,1581,1582,1582
48083259,1000,1000,1000,1000,84528675,1581,1581,1583,1580
48085758,1000,1000,1000,1000,84628635,1581,1581,1588,1573
48088257,1000,1000,1000,1000,84728595,1580,1579,1582,1573
48090756,1000,1000,1000,1000,84828555,1578,1577,1575,1575
48093255,1000,1000,1000,1000,84928515,1574,1573,1568,1573
48095754,1000,1000,1000,1000,85028475,1572,1571,1565,1572
48098253,1000,1000,1000,1000,85128435,1570,1570,1564,1570
48100752,1000,1000,1000,1000,85228395,1568,1568,1565,1567
48103251,1000,1000,1000,1000,85328355,1567,1567,1566,1566
48105750,1000,1000,1000,1000,85428315,1566,1567,1567,1565
48108249,1000,1000,1000,1000,85528275,1565,1566,1567,1565
48110748,1000,1000,1000,1000,85628235,1564,1564,1567,1565
48113247,1000,1000,1000,1000,85728195,1564,1564,1566,1565
48115746,1000,1000,1000,1000,85828155,1563,1563,1565,1565
48118245,1000,1000,1000,1000,85928948,1562,1562,1564,1564
48120744,1000,1000,1000,1000,86028908,1562,1562,1563,1564
48123243,1000,1000,1000,1000,86128868,1562,1562,1563,1563
48125742,1000,1000,1000,1000,86228828,1561,1561,1563,1562
48128241,1000,1000,1000,1000,86328788,1562,1562,1563,1562
48130740,1000,1000,1000,1000,86428748,1560,1560,1561,1560
48133239,1000,1000,1000,1000,86528708,1560,1560,1560,1560
48135738,1000,1000,1000,1000,86628668,1560,1559,1559,1558
48138237,1000,1000,1000,1000,86728628,1559,1559,1559,1557
48140736,1000,1000,1000,1000,86828588,1559,1559,1559,1557
48143235,1000,1000,1000,1000,86928548,1559,1559,1559,1558
48145734,1000,1000,1000,1000,87028508,1559,1559,1559,1558
48148233,1000,1000,1000,1000,87128468,1559,1559,1559,1558
48150732,1000,1000,1000,1000,87228428,1558,1558,1560,1557
48153231,1000,1000,1000,1000,87328388,1559,1558,1560,1558
48155730,1000,1000,1000,1000,87428348,1559,1559,1559,1560
48158229,1000,1000,1000,1000,87528308,1560,1560,1558,1563
48160728,1000,1000,1000,1000,87628268,1560,1560,1558,1564
48163227,1000,1000,1000,1000,87728228,1558,1558,1556,1560
48165726,1000,1000,1000,1000,87828188,1559,1559,1558,1560
48168225,1000,1000,1000,1000,87928981,1558,1558,1556,1560
48170724,1000,1000,1000,1000,88028941,1555,1555,1553,1555
48173223,1000,1000,1000,1000,88128901,1552,1552,1549,1550
48175722,1000,1000,1000,1000,88228861,1547,1547,1544,1543
48178221,1000,1000,1000,1000,88328821,1541,1540,1537,1537
48180720,1000,1000,1000,1000,88428781,1534,1533,1530,1529
48183219,1000,1000,1000,1000,88528741,1527,1527,1522,1522
48185718,1000,1000,1000,1000,88628701,1522,1522,1519,1519
48188217,1000,1000,1000,1000,88728661,1520,1521,1519,1520
48190716,1000,1000,1000,1000,88828621,1519,1519,1520,1521
48193215,1000,1000,1000,1000,88928581,1520,1521,1523,1524
48195714,1000,1000,1000,1000,89028541,1523,1523,1528,1528
48198213,1000,1000,1000,1000,89128501,1527,1526,1533,1533
48200712,1000,1000,1000,1000,89228461,1530,1530,1538,1537
48203211,1000,1000,1000,1000,89328421,1534,1534,1541,1541
48205710,1000,1000,1000,1000,89428381,1537,1537,1543,1542
48208209,1000,1000,1000,1000,89528341,1540,1540,1544,1544
48210708,1000,1000,1000,1000,89628301,1543,1543,1545,1544
48213207,1000,1000,1000,1000,89728261,1545,1545,1545,1545
48215706,1000,1000,1000,1000,89828221,1546,1547,1545,1545
48218205,1000,1000,1000,1000,89928181,1548,1548,1545,1545
48220704,1000,1000,1000,1000,90028974,1549,1549,1545,1545
48223203,1000,1000,1000,1000,90128934,1549,1549,1545,1544
48225702,1000,1000,1000,1000,90228894,1549,1549,1544,1544
48228201,1000,1000,1000,1000,90328854,1549,1548,1545,1544
48230700,1000,1000,1000,1000,90428814,1548,1548,1546,1545
48233199,1000,1000,1000,1000,90528774,1547,1548,1545,1545
48235698,1000,1000,1000,1000,90628734,1546,1546,1544,1545
48238197,1000,1000,1000,1000,90728694,1546,1546,1545,1545
48240696,1000,1000,1000,1000,90828654,1545,1545,1546,1546
48243195,1000,1000,1000,1000,90928614,1545,1544,1546,1545
48245694,1000,1000,1000,1000,91028574,1543,1544,1545,1544
48248193,1000,1000,1000,1000,91128534,1544,1544,1546,1546
48250692,1000,1000,1000,1000,91228494,1543,1544,1545,1545
48253191,1000,1000,1000,1000,91328454,1543,1543,1544,1545
48255690,1000,1000,1000,1000,91428414,1544,1544,1545,1545
48258189,1000,1000,1000,1000,91528374,1544,1543,1544,1545
48260688,1000,1000,1000,1000,91628334,1543,1543,1544,1544
48263187,1000,1000,1000,1000,91728294,1544,1544,1544,1544
48265686,1000,1000,1000,1000,91828254,1543,1543,1543,1543
48268185,1000,1000,1000,1000,91928214,1543,1543,1543,1543
48270684,1000,1000,1000,1000,92028174,1543,1544,1543,1543
48273183,1000,1000,1000,1000,92128967,1544,1544,1544,1544
48275682,1000,1000,1000,1000,92228927,1544,1544,1543,1544
48278181,1000,1000,1000,1000,92328887,1544,1545,1544,1544
48280680,1000,1000,1000,1000,92428847,1545,1544,1544,1544
48283179,1000,1000,1000,1000,92528807,1545,1545,1545,1545
48285678,1000,1000,1000,1000,92628767,1545,1545,1545,1544
48288177,1000,1000,1000,1000,92728727,1545,1545,1545,1545
48290676,1000,1000,1000,1000,92828687,1545,1545,1545,1545
48293175,1000,1000,1000,1000,92928647,1545,1545,1544,1545
48295674,1000,1000,1000,1000,93028607,1545,1545,1545,1545
48298173,1000,1000,1000,1000,93128567,1544,1544,1544,1544
48300672,1000,1000,1000,1000,93228527,1544,1544,1543,1544
48303171,1000,1000,1000,1000,93328487,1543,1543,1543,1543
48305670,1000,1000,1000,1000,93428447,1543,1544,1544,1543
48308169,1000,1000,1000,1000,93528407,1543,1543,1544,1543
48310668,1000,1000,1000,1000,93628367,1544,1544,1544,1544
48313167,1000,1000,1000,1000,93728327,1545,1544,1545,1545
48315666,1000,1000,1000,1000,93828287,1544,1544,1544,1544
48318165,1000,1000,1000,1000,93928247,1544,1544,1544,1544
48320664,1000,1000,1000,1000,94028207,1543,1543,1543,1544
48323163,1000,1000,1000,1000,94128167,1543,1543,1543,1543
48325662,1000,1000,1000,1000,94228960,1544,1544,1544,1544
48328161,1000,1000,1000,1000,94328920,1544,1543,1544,1544
48330660,1000,1000,1000,1000,94428880,1545,1545,1545,1545
48333159,1000,1000,1000,1000,94528840,1545,1544,1545,1545
48335658,1000,1000,1000,1000,94628800,1545,1545,1545,1544
48338157,1000,1000,1000,1000,94728760,1544,1544,1544,1544
48340656,1000,1000,1000,1000,94828720,1544,1544,1544,1543
48343155,1000,1000,1000,1000,94928680,1544,1544,1544,1544
48345654,1000,1000,1000,1000,95028640,1544,1544,1544,1544
48348986,1000,1000,1000,1000,95128600,1544,1545,1544,1544
48351485,1000,1000,1000,1000,95228560,1544,1544,1544,1544
48353984,1000,1000,1000,1000,95328520,1544,1544,1544,1544
48356483,1000,1000,1000,1000,95428480,1544,1544,1544,1544
48358982,1000,1000,1000,1000,95528440,1544,1544,1544,1544
48361481,1000,1000,1000,1000,95628400,1544,1543,1543,1543
48363980,1000,1000,1000,1000,95728360,1544,1544,1545,1544
48366479,1000,1000,1000,1000,95828320,1544,1543,1544,1544
48368978,1000,1000,1000,1000,95928280,1544,1544,1543,1544
48371477,1000,1000,1000,1000,96028240,1543,1544,1543,1544
48373976,1000,1000,1000,1000,96128200,1544,1544,1544,1544
48376475,1000,1000,1000,1000,96228160,1544,1544,1544,1544
48378974,1000,1000,1000,1000,96328953,1545,1545,1545,1545
48381473,1000,1000,1000,1000,96428913,1545,1545,1545,1545
48383972,1000,1000,1000,1000,96528873,1544,1544,1544,1544
48386471,1000,1000,1000,1000,96628833,1545,1544,1544,1545
48388970,1000,1000,1000,1000,96728793,1544,1544,1544,1544
48391469,1000,1000,1000,1000,96828753,1544,1544,1545,1544
48393968,1000,1000,1000,1000,96928713,1544,1544,1544,1544
48396467,1000,1000,1000,1000,97028673,1544,1545,1544,1545
48398966,1000,1000,1000,1000,97128633,1544,1544,1544,1544
48401465,1000,1000,1000,1000,97228593,1544,1544,1545,1544
48403964,1000,1000,1000,1000,97328553,1545,1544,1544,1545
48406463,1000,1000,1000,1000,97428513,1544,1544,1544,1544
48408962,1000,1000,1000,1000,97528473,1544,1544,1544,1544
48411461,1000,1000,1000,1000,97628433,1544,1544,1544,1544
48413960,1000,1000,1000,1000,97728393,1544,1545,1544,1545
48416459,1000,1000,1000,1000,97828353,1544,1544,1544,1544
48418958,1000,1000,1000,1000,97928313,1544,1544,1544,1544
48421457,1000,1000,1000,1000,98028273,1544,1544,1544,1544
48423956,1000,1000,1000,1000,98128233,1544,1544,1544,1544
48426455,1000,1000,1000,1000,98228193,1545,1544,1545,1544
48428954,1000,1000,1000,1000,98328986,1450,1448,1416,1418
48431453,1000,1000,1000,1000,98428946,1355,1353,1276,1278
48433952,1000,1000,1000,1000,98528906,1323,1320,1223,1226
48436451,1000,1000,1000,1000,98628866,1311,1309,1204,1205
48438950,1000,1000,1000,1000,98728826,1290,1288,1167,1168
48441449,1000,1000,1000,1000,98828786,1249,1246,1150,1150
48443948,1000,1000,1000,1000,98928746,1137,1133,1150,1150
48446447,1000,1000,1000,1000,99028706,1094,1091,1150,1150
48448946,1000,1000,1000,1000,99128666,1094,1091,1150,1150
48451445,1000,1000,1000,1000,99228626,1094,1091,1150,1150
48453944,1000,1000,1000,1000,99328586,1092,1078,1150,1170
48456443,1000,1000,1000,1000,99428546,1093,1084,1150,1162
48458942,1000,1000,1000,1000,99528506,1093,1085,1150,1159
48461441,1000,1000,1000,1000,99628466,1094,1086,1150,1158
48463940,1000,1000,1000,1000,99728426,1094,1086,1150,1159
48466439,1000,1000,1000,1000,99828386,1094,1086,1150,1159
48468938,1000,1000,1000,1000,99928346,1093,1085,1150,1159
48471437,1000,1000,1000,1000,100028306,1093,1086,1150,1159
48473936,1000,1000,1000,1000,100128266,1093,1092,1150,1150
48476435,1000,1000,1000,1000,100228226,1093,1091,1150,1151
48478934,1000,1000,1000,1000,100328186,1094,1091,1150,1151
48481433,1000,1000,1000,1000,100428979,1093,1091,1150,1152
48483932,1000,1000,1000,1000,100528939,1038,1036,1150,1151
48486431,1000,1000,1000,1000,100628899,1000,1000,1000,1000
48488930,1000,1000,1000,1000,100728859,1000,1000,1000,1000
48491429,1000,1000,1000,1000,100828819,1000,1000,1000,1000
48493928,1000,1000,1000,1000,100928779,1000,1000,1000,1000
48496427,1000,1000,1000,1000,101028739,1000,1000,1000,1000
48498926,1000,1000,1000,1000,101128699,1000,1000,1000,1000
48501425,1000,1000,1000,1000,101228659,1000,1000,1000,1000
48503924,1000,1000,1000,1000,101328619,1000,1000,1000,1000
48506423,1000,1000,1000,1000,101428579,1000,1000,1000,1000
48508922,1000,1000,1000,1000,101528539,1000,1000,1000,1000
48511421,1000,1000,1000,1000,101628499,1000,1000,1000,1000
48513920,1000,1000,1000,1000,101728459,1000,1000,1000,1000
48516419,1000,1000,1000,1000,101828419,1000,1000,1000,1000
48518918,1000,1000,1000,1000,101928379,1000,1000,1000,1000
48521417,1000,1000,1000,1000,102028339,1000,1000,1000,1000
48523916,1000,1000,1000,1000,102128299,1000,1000,1000,1000
48526415,1000,1000,1000,1000,102228259,1000,1000,1000,1000
48528914,1000,1000,1000,1000,102328219,1000,1000,1000,1000
48531413,1000,1000,1000,1000,102428179,1000,1000,1000,1000
48533912,1000,1000,1000,1000,102528972,1000,1000,1000,1000
48536411,1000,1000,1000,1000,102628932,1000,1000,1000,1000
48538910,1000,1000,1000,1000,102728892,1000,1000,1000,1000
48541409,1000,1000,1000,1000,102828852,1000,1000,1000,1000
48543908,1000,1000,1000,1000,102928812,1000,1000,1000,1000
48546407,1000,1000,1000,1000,103028772,1000,1000,1000,1000
48548906,1000,1000,1000,1000,103128732,1000,1000,1000,1000
48551405,1000,1000,1000,1000,103228692,1000,1000,1000,1000
48553904,1000,1000,1000,1000,103328652,1000,1000,1000,1000
48556403,1000,1000,1000,1000,103428612,1000,1000,1000,1000
48558902,1000,1000,1000,1000,103528572,1000,1000,1000,1000
48561401,1000,1000,1000,1000,103628532,1000,1000,1000,1000
48563900,1000,1000,1000,1000,103728492,1000,1000,1000,1000
48566399,1000,1000,1000,1000,103828452,1000,1000,1000,1000
48568898,1000,1000,1000,1000,103928412,1000,1000,1000,1000
48571397,1000,1000,1000,1000,104028372,1000,1000,1000,1000
48573896,1000,1000,1000,1000,104128332,1000,1000,1000,1000
48576395,1000,1000,1000,1000,104228292,1000,1000,1000,1000
48578894,1000,1000,1000,1000,104328252,1000,1000,1000,1000
48581393,1000,1000,1000,1000,104428212,1000,1000,1000,1000
48583892,1000,1000,1000,1000,104528172,1000,1000,1000,1000
48586391,1000,1000,1000,1000,104628965,1000,1000,1000,1000
48588890,1000,1000,1000,1000,104728925,1000,1000,1000,1000
48591389,1000,1000,1000,1000,104828885,1000,1000,1000,1000
48593888,1000,1000,1000,1000,104928845,1000,1000,1000,1000
48596387,1000,1000,1000,1000,105028805,1000,1000,1000,1000
48598886,1000,1000,1000,1000,105128765,1000,1000,1000,1000
48601385,1000,1000,1000,1000,105228725,1000,1000,1000,1000
48603884,1000,1000,1000,1000,105328685,1000,1000,1000,1000
48606383,1000,1000,1000,1000,105428645,1000,1000,1000,1000
48608882,1000,1000,1000,1000,105528605,1000,1000,1000,1000
48611381,1000,1000,1000,1000,105628565,1000,1000,1000,1000
48613880,1000,1000,1000,1000,105728525,1000,1000,1000,1000
48616379,1000,1000,1000,1000,105828485,1000,1000,1000,1000
48618878,1000,1000,1000,1000,105928445,1000,1000,1000,1000
48621377,1000,1000,1000,1000,106028405,1000,1000,1000,1000
48623876,1000,1000,1000,1000,106128365,1000,1000,1000,1000
48626375,1000,1000,1000,1000,106228325,1000,1000,1000,1000
48628874,1000,1000,1000,1000,106328285,1000,1000,1000,1000
48631373,1000,1000,1000,1000,106428245,1000,1000,1000,1000
48633872,1000,1000,1000,1000,106528205,1000,1000,1000,1000
48636371,1000,1000,1000,1000,106628165,1000,1000,1000,1000
48638870,1000,1000,1000,1000,106728958,1000,1000,1000,1000
48641369,1000,1000,1000,1000,106828918,1000,1000,1000,1000
48643868,1000,1000,1000,1000,106928878,1000,1000,1000,1000
48646367,1000,1000,1000,1000,107028838,1000,1000,1000,1000
48648866,1000,1000,1000,1000,107128798,1000,1000,1000,1000
48651365,1000,1000,1000,1000,107228758,1000,1000,1000,1000
48653864,1000,1000,1000,1000,107328718,1000,1000,1000,1000
48656363,1000,1000,1000,1000,107428678,1000,1000,1000,1000
48658862,1000,1000,1000,1000,107528638,1000,1000,1000,1000
48661361,1000,1000,1000,1000,107628598,1000,1000,1000,1000
48663860,1000,1000,1000,1000,107728558,1000,1000,1000,1000
48666359,1000,1000,1000,1000,107828518,1000,1000,1000,1000
48668858,1000,1000,1000,1000,107928478,1000,1000,1000,1000
48671357,1000,1000,1000,1000,108028438,1000,1000,1000,1000
48673856,1000,1000,1000,1000,108128398,1000,1000,1000,1000
48676355,1000,1000,1000,1000,108228358,1000,1000,1000,1000
48678854,1000,1000,1000,1000,108328318,1000,1000,1000,1000
48681353,1000,1000,1000,1000,108428278,1000,1000,1000,1000
48683852,1000,1000,1000,1000,108528238,1000,1000,1000,1000
48686351,1000,1000,1000,1000,108628198,1000,1000,1000,1000
48688850,1000,1000,1000,1000,108728158,1000,1000,1000,1000
48691349,1000,1000,1000,1000,108828951,1000,1000,1000,1000
48693848,1000,1000,1000,1000,108928911,1000,1000,1000,1000
48696347,1000,1000,1000,1000,109028871,1000,1000,1000,1000
48698846,1000,1000,1000,1000,109128831,1000,1000,1000,1000
48701345,1000,1000,1000,1000,109228791,1000,1000,1000,1000
48703844,1000,1000,1000,1000,,,,,
48706343,1000,1000,1000,1000,,,,,
48708842,1000,1000,1000,1000,,,,,
48711341,1000,1000,1000,1000,,,,,
48713840,1000,1000,1000,1000,,,,,
48716339,1000,1000,1000,1000,,,,,
48718838,1000,1000,1000,1000,,,,,
48721337,1000,1000,1000,1000,,,,,
48723836,1000,1000,1000,1000,,,,,
48726335,1000,1000,1000,1000,,,,,
48728834,1000,1000,1000,1000,,,,,
48731333,1000,1000,1000,1000,,,,,
48733832,1000,1000,1000,1000,,,,,
48736331,1000,1000,1000,1000,,,,,
48738830,1000,1000,1000,1000,,,,,
48741329,1000,1000,1000,1000,,,,,
48743828,1000,1000,1000,1000,,,,,
48746327,1000,1000,1000,1000,,,,,
48748826,1000,1000,1000,1000,,,,,
48751325,1000,1000,1000,1000,,,,,
48753824,1000,1000,1000,1000,,,,,
48756323,1000,1000,1000,1000,,,,,
48758822,1000,1000,1000,1000,,,,,
48761321,1000,1000,1000,1000,,,,,
48763820,1000,1000,1000,1000,,,,,
48766319,1000,1000,1000,1000,,,,,
48768818,1000,1000,1000,1000,,,,,
48771317,1000,1000,1000,1000,,,,,
48773816,1000,1000,1000,1000,,,,,
48776315,1000,1000,1000,1000,,,,,
48778814,1000,1000,1000,1000,,,,,
48781313,1000,1000,1000,1000,,,,,
48783812,1000,1000,1000,1000,,,,,
48786311,1000,1000,1000,1000,,,,,
48788810,1000,1000,1000,1000,,,,,
48791309,1000,1000,1000,1000,,,,,
48793808,1000,1000,1000,1000,,,,,
48796307,1000,1000,1000,1000,,,,,
48798806,1000,1000,1000,1000,,,,,
48801305,1000,1000,1000,1000,,,,,
48803804,1000,1000,1000,1000,,,,,
48806303,1000,1000,1000,1000,,,,,
48808802,1000,1000,1000,1000,,,,,
48811301,1000,1000,1000,1000,,,,,
48813800,1000,1000,1000,1000,,,,,
48816299,1000,1000,1000,1000,,,,,
48818798,1000,1000,1000,1000,,,,,
48821297,1000,1000,1000,1000,,,,,
48823796,1000,1000,1000,1000,,,,,
48826295,1000,1000,1000,1000,,,,,
48828794,1000,1000,1000,1000,,,,,
48831293,1000,1000,1000,1000,,,,,
48833792,1000,1000,1000,1000,,,,,
48836291,1000,1000,1000,1000,,,,,
48838790,1000,1000,1000,1000,,,,,
48841289,1000,1000,1000,1000,,,,,
48843788,1000,1000,1000,1000,,,,,
48846287,1000,1000,1000,1000,,,,,
48848786,1000,1000,1000,1000,,,,,
48851285,1000,1000,1000,1000,,,,,
48853784,1000,1000,1000,1000,,,,,
48856283,1000,1000,1000,1000,,,,,
48858782,1000,1000,1000,1000,,,,,
48861281,1000,1000,1000,1000,,,,,
48863780,1000,1000,1000,1000,,,,,
48866279,1000,1000,1000,1000,,,,,
48868778,1000,1000,1000,1000,,,,,
48871277,1000,1000,1000,1000,,,,,
48873776,1000,1000,1000,1000,,,,,
48876275,1000,1000,1000,1000,,,,,
48878774,1000,1000,1000,1000,,,,,
48881273,1000,1000,1000,1000,,,,,
48883772,1000,1000,1000,1000,,,,,
48886271,1000,1000,1000,1000,,,,,
48888770,1000,1000,1000,1000,,,,,
48891269,1000,1000,1000,1000,,,,,
48893768,1000,1000,1000,1000,,,,,
48896267,1000,1000,1000,1000,,,,,
48898766,1000,1000,1000,1000,,,,,
48901265,1000,1000,1000,1000,,,,,
48903764,1000,1000,1000,1000,,,,,
48906263,1000,1000,1000,1000,,,,,
48908762,1000,1000,1000,1000,,,,,
48911261,1000,1000,1000,1000,,,,,
48913760,1000,1000,1000,1000,,,,,
48916259,1000,1000,1000,1000,,,,,
48918758,1000,1000,1000,1000,,,,,
48921257,1000,1000,1000,1000,,,,,
48923756,1000,1000,1000,1000,,,,,
48926255,1000,1000,1000,1000,,,,,
48928754,1000,1000,1000,1000,,,,,
48931253,1000,1000,1000,1000,,,,,
48933752,1000,1000,1000,1000,,,,,
48936251,1000,1000,1000,1000,,,,,
48938750,1000,1000,1000,1000,,,,,
48941249,1000,1000,1000,1000,,,,,
48943748,1000,1000,1000,1000,,,,,
48946247,1000,1000,1000,1000,,,,,
48948746,1000,1000,1000,1000,,,,,
48951245,1000,1000,1000,1000,,,,,
48953744,1000,1000,1000,1000,,,,,
48956243,1000,1000,1000,1000,,,,,
48958742,1000,1000,1000,1000,,,,,
48961241,1000,1000,1000,1000,,,,,
48963740,1000,1000,1000,1000,,,,,
48966239,1000,1000,1000,1000,,,,,
48968738,1000,1000,1000,1000,,,,,
48971237,1000,1000,1000,1000,,,,,
48973736,1000,1000,1000,1000,,,,,
48976235,1000,1000,1000,1000,,,,,
48978734,1000,1000,1000,1000,,,,,
48981233,1000,1000,1000,1000,,,,,
48983732,1000,1000,1000,1000,,,,,
48986231,1000,1000,1000,1000,,,,,
48988730,1000,1000,1000,1000,,,,,
48991229,1000,1000,1000,1000,,,,,
48993728,1000,1000,1000,1000,,,,,
48996227,1000,1000,1000,1000,,,,,
48998726,1000,1000,1000,1000,,,,,
49001225,1000,1000,1000,1000,,,,,
49003724,1000,1000,1000,1000,,,,,
49006223,1000,1000,1000,1000,,,,,
49008722,1000,1000,1000,1000,,,,,
49011221,1000,1000,1000,1000,,,,,
49013720,1000,1000,1000,1000,,,,,
49016219,1000,1000,1000,1000,,,,,
49018718,1000,1000,1000,1000,,,,,
49021217,1000,1000,1000,1000,,,,,
49023716,1000,1000,1000,1000,,,,,
49026215,1000,1000,1000,1000,,,,,
49028714,1000,1000,1000,1000,,,,,
49031213,1000,1000,1000,1000,,,,,
49033712,1000,1000,1000,1000,,,,,
49036211,1000,1000,1000,1000,,,,,
49038710,1000,1000,1000,1000,,,,,
49041209,1000,1000,1000,1000,,,,,
49043708,1000,1000,1000,1000,,,,,
49046207,1000,1000,1000,1000,,,,,
49048706,1000,1000,1000,1000,,,,,
49051205,1000,1000,1000,1000,,,,,
49053704,1000,1000,1000,1000,,,,,
49056203,1000,1000,1000,1000,,,,,
49058702,1000,1000,1000,1000,,,,,
49061201,1000,1000,1000,1000,,,,,
49063700,1000,1000,1000,1000,,,,,
49066199,1000,1000,1000,1000,,,,,
49068698,1000,1000,1000,1000,,,,,
49071197,1000,1000,1000,1000,,,,,
49073696,1000,1000,1000,1000,,,,,
49076195,1000,1000,1000,1000,,,,,
49078694,1000,1000,1000,1000,,,,,
49081193,1000,1000,1000,1000,,,,,
49083692,1000,1000,1000,1000,,,,,
49086191,1000,1000,1000,1000,,,,,
49088690,1000,1000,1000,1000,,,,,
49091189,1000,1000,1000,1000,,,,,
49093688,1000,1000,1000,1000,,,,,
49096187,1000,1000,1000,1000,,,,,
49098686,1000,1000,1000,1000,,,,,
49101185,1000,1000,1000,1000,,,,,
49103684,1000,1000,1000,1000,,,,,
49106183,1000,1000,1000,1000,,,,,
49108682,1000,1000,1000,1000,,,,,
49111181,1000,1000,1000,1000,,,,,
49113680,1000,1000,1000,1000,,,,,
49116179,1000,1000,1000,1000,,,,,
49118678,1000,1000,1000,1000,,,,,
49121177,1000,1000,1000,1000,,,,,
49123676,1000,1000,1000,1000,,,,,
49126175,1000,1000,1000,1000,,,,,
49128674,1000,1000,1000,1000,,,,,
49131173,1000,1000,1000,1000,,,,,
49133672,1000,1000,1000,1000,,,,,
49136171,1000,1000,1000,1000,,,,,
49138670,1000,1000,1000,1000,,,,,
49141169,1000,1000,1000,1000,,,,,
49143668,1000,1000,1000,1000,,,,,
49146167,1000,1000,1000,1000,,,,,
49148666,1000,1000,1000,1000,,,,,
49151165,1000,1000,1000,1000,,,,,
49153664,1000,1000,1000,1000,,,,,
49156163,1000,1000,1000,1000,,,,,
49158662,1001,1001,1001,1001,,,,,
49161161,1002,1002,1002,1002,,,,,
49163660,1003,1003,1003,1003,,,,,
49166159,1003,1003,1003,1003,,,,,
49168658,1004,1004,1004,1004,,,,,
49171157,1005,1005,1005,1005,,,,,
49173656,1006,1006,1006,1006,,,,,
49176155,1006,1006,1006,1006,,,,,
49178654,1007,1007,1007,1007,,,,,
49181153,1008,1008,1008,1008,,,,,
49183652,1009,1009,1009,1009,,,,,
49186151,1009,1009,1009,1009,,,,,
49188650,1010,1010,1010,1010,,,,,
49191149,1011,1011,1011,1011,,,,,
49193648,1012,1012,1012,1012,,,,,
49196147,1012,1012,1012,1012,,,,,
49198646,1013,1013,1013,1013,,,,,
49201145,1014,1014,1014,1014,,,,,
49203644,1015,1015,1015,1015,,,,,
49206143,1015,1015,1015,1015,,,,,
49208642,1016,1016,1016,1016,,,,,
49211141,1017,1017,1017,1017,,,,,
49213640,1018,1018,1018,1018,,,,,
49216139,1018,1018,1018,1018,,,,,
49218638,1019,1019,1019,1019,,,,,
49221137,1020,1020,1020,1020,,,,,
49223636,1021,1021,1021,1021,,,,,
49226135,1021,1021,1021,1021,,,,,
49228634,1022,1022,1022,1022,,,,,
49231133,1023,1023,1023,1023,,,,,
49233632,1024,1024,1024,1024,,,,,
49236131,1024,1024,1024,1024,,,,,
49238630,1025,1025,1025,1025,,,,,
49241129,1026,1026,1026,1026,,,,,
49243628,1027,1027,1027,1027,,,,,
49246127,1027,1027,1027,1027,,,,,
49248626,1028,1028,1028,1028,,,,,
49251125,1029,1029,1029,1029,,,,,
49253624,1030,1030,1030,1030,,,,,
49256123,1030,1030,1030,1030,,,,,
49258622,1031,1031,1031,1031,,,,,
49261121,1032,1032,1032,1032,,,,,
49263620,1033,1033,1033,1033,,,,,
49266119,1033,1033,1033,1033,,,,,
49268618,1034,1034,1034,1034,,,,,
49271117,1035,1035,1035,1035,,,,,
49273616,1036,1036,1036,1036,,,,,
49276115,1036,1036,1036,1036,,,,,
49278614,1037,1037,1037,1037,,,,,
49281113,1038,1038,1038,1038,,,,,
49283612,1039,1039,1039,1039,,,,,
49286111,1039,1039,1039,1039,,,,,
49288610,1040,1040,1040,1040,,,,,
49291109,1041,1041,1041,1041,,,,,
49293608,1042,1042,1042,1042,,,,,
49296107,1042,1042,1042,1042,,,,,
49298606,1043,1043,1043,1043,,,,,
49301105,1044,1044,1044,1044,,,,,
49303604,1045,1045,1045,1045,,,,,
49306103,1045,1045,1045,1045,,,,,
49308602,1046,1046,1046,1046,,,,,
49311101,1047,1047,1047,1047,,,,,
49313600,1048,1048,1048,1048,,,,,
49316099,1048,1048,1048,1048,,,,,
49318598,1049,1049,1049,1049,,,,,
49321097,1050,1050,1050,1050,,,,,
49323596,1051,1051,1051,1051,,,,,
49326095,1051,1051,1051,1051,,,,,
49328594,1052,1052,1052,1052,,,,,
49331093,1053,1053,1053,1053,,,,,
49333592,1054,1054,1054,1054,,,,,
49336091,1054,1054,1054,1054,,,,,
49338590,1055,1055,1055,1055,,,,,
49341089,1056,1056,1056,1056,,,,,
49343588,1057,1057,1057,1057,,,,,
49346087,1057,1057,1057,1057,,,,,
49348586,1058,1058,1058,1058,,,,,
49351085,1059,1059,1059,1059,,,,,
49353584,1060,1060,1060,1060,,,,,
49356083,1060,1060,1060,1060,,,,,
49358582,1061,1061,1061,1061,,,,,
49361081,1062,1062,1062,1062,,,,,
49363580,1063,1063,1063,1063,,,,,
49366079,1063,1063,1063,1063,,,,,
49368578,1064,1064,1064,1064,,,,,
49371077,1065,1065,1065,1065,,,,,
49373576,1066,1066,1066,1066,,,,,
49376075,1066,1066,1066,1066,,,,,
49378574,1067,1067,1067,1067,,,,,
49381073,1068,1068,1068,1068,,,,,
49383572,1069,1069,1069,1069,,,,,
49386071,1069,1069,1069,1069,,,,,
49388570,1070,1070,1070,1070,,,,,
49391069,1071,1071,1071,1071,,,,,
49393568,1072,1072,1072,1072,,,,,
49396067,1072,1072,1072,1072,,,,,
49398566,1073,1073,1073,1073,,,,,
49401065,1074,1074,1074,1074,,,,,
49403564,1075,1075,1075,1075,,,,,
49406063,1075,1075,1075,1075,,,,,
49408562,1076,1076,1076,1076,,,,,
49411061,1077,1077,1077,1077,,,,,
49413560,1078,1078,1078,1078,,,,,
49416059,1078,1078,1078,1078,,,,,
49418558,1079,1079,1079,1079,,,,,
49421057,1080,1080,1080,1080,,,,,
49423556,1081,1081,1081,1081,,,,,
49426055,1081,1081,1081,1081,,,,,
49428554,1082,1082,1082,1082,,,,,
49431053,1083,1083,1083,1083,,,,,
49433552,1084,1084,1084,1084,,,,,
49436051,1084,1084,1084,1084,,,,,
49438550,1085,1085,1085,1085,,,,,
49441049,1086,1086,1086,1086,,,,,
49443548,1087,1087,1087,1087,,,,,
49446047,1087,1087,1087,1087,,,,,
49448546,1088,1088,1088,1088,,,,,
49451045,1089,1089,1089,1089,,,,,
49453544,1090,1090,1090,1090,,,,,
49456043,1090,1090,1090,1090,,,,,
49458542,1091,1091,1091,1091,,,,,
49461041,1092,1092,1092,1092,,,,,
49463540,1093,1093,1093,1093,,,,,
49466039,1093,1093,1093,1093,,,,,
49468538,1094,1094,1094,1094,,,,,
49471037,1095,1095,1095,1095,,,,,
49473536,1096,1096,1096,1096,,,,,
49476035,1096,1096,1096,1096,,,,,
49478534,1097,1097,1097,1097,,,,,
49481033,1098,1098,1098,1098,,,,,
49483532,1099,1099,1099,1099,,,,,
49486031,1099,1099,1099,1099,,,,,
49488530,1100,1100,1100,1100,,,,,
49491029,1101,1101,1101,1101,,,,,
49493528,1101,1101,1101,1101,,,,,
49496027,1102,1102,1102,1102,,,,,
49498526,1103,1103,1103,1103,,,,,
49501025,1104,1104,1104,1104,,,,,
49503524,1104,1104,1104,1104,,,,,
49506023,1105,1105,1105,1105,,,,,
49508522,1106,1106,1106,1106,,,,,
49511021,1107,1107,1107,1107,,,,,
49513520,1107,1107,1107,1107,,,,,
49516019,1108,1108,1108,1108,,,,,
49518518,1109,1109,1109,1109,,,,,
49521017,1110,1110,1110,1110,,,,,
49523516,1110,1110,1110,1110,,,,,
49526015,1111,1111,1111,1111,,,,,
49528514,1112,1112,1112,1112,,,,,
49531013,1113,1113,1113,1113,,,,,
49533512,1113,1113,1113,1113,,,,,
49536011,1114,1114,1114,1114,,,,,
49538510,1115,1115,1115,1115,,,,,
49541009,1116,1116,1116,1116,,,,,
49543508,1116,1116,1116,1116,,,,,
49546007,1117,1117,1117,1117,,,,,
49548506,1118,1118,1118,1118,,,,,
49551005,1119,1119,1119,1119,,,,,
49553504,1119,1119,1119,1119,,,,,
49556003,1120,1120,1120,1120,,,,,
49558502,1121,1121,1121,1121,,,,,
49561001,1122,1122,1122,1122,,,,,
49563500,1122,1122,1122,1122,,,,,
49565999,1123,1123,1123,1123,,,,,
49568498,1124,1124,1124,1124,,,,,
49570997,1125,1125,1125,1125,,,,,
49573496,1125,1125,1125,1125,,,,,
49575995,1126,1126,1126,1126,,,,,
49578494,1127,1127,1127,1127,,,,,
49580993,1128,1128,1128,1128,,,,,
49583492,1128,1128,1128,1128,,,,,
49585991,1129,1129,1129,1129,,,,,
49588490,1130,1130,1130,1130,,,,,
49590989,1131,1131,1131,1131,,,,,
49593488,1131,1131,1131,1131,,,,,
49595987,1132,1132,1132,1132,,,,,
49598486,1133,1133,1133,1133,,,,,
49600985,1134,1134,1134,1134,,,,,
49603484,1134,1134,1134,1134,,,,,
49605983,1135,1135,1135,1135,,,,,
49608482,1136,1136,1136,1136,,,,,
49610981,1137,1137,1137,1137,,,,,
49613480,1137,1137,1137,1137,,,,,
49615979,1138,1138,1138,1138,,,,,
49618478,1139,1139,1139,1139,,,,,
49620977,1140,1140,1140,1140,,,,,
49623476,1140,1140,1140,1140,,,,,
49625975,1141,1141,1141,1141,,,,,
49628474,1142,1142,1142,1142,,,,,
49630973,1143,1143,1143,1143,,,,,
49633472,1143,1143,1143,1143,,,,,
49635971,1144,1144,1144,1144,,,,,
49638470,1145,1145,1145,1145,,,,,
49640969,1146,1146,1146,1146,,,,,
49643468,1146,1146,1146,1146,,,,,
49645967,1147,1147,1147,1147,,,,,
49648466,1148,1148,1148,1148,,,,,
49650965,1149,1149,1149,1149,,,,,
49653464,1149,1149,1149,1149,,,,,
49655963,1150,1150,1150,1150,,,,,
49658462,1161,1154,1155,1161,,,,,
49660961,1169,1162,1163,1169,,,,,
49663460,1177,1170,1171,1177,,,,,
49665959,1185,1178,1178,1185,,,,,
49668458,1192,1186,1186,1192,,,,,
49670957,1200,1193,1194,1200,,,,,
49673456,1207,1200,1201,1207,,,,,
49675955,1214,1208,1208,1214,,,,,
49678454,1221,1215,1215,1222,,,,,
49680953,1228,1222,1222,1229,,,,,
49683452,1235,1229,1229,1235,,,,,
49685951,1242,1236,1236,1242,,,,,
49688450,1249,1243,1243,1249,,,,,
49690949,1255,1249,1250,1256,,,,,
49693448,1262,1256,1256,1262,,,,,
49695947,1268,1262,1263,1269,,,,,
49698446,1275,1269,1269,1275,,,,,
49700945,1281,1275,1275,1281,,,,,
49703444,1287,1281,1282,1287,,,,,
49705943,1293,1288,1288,1294,,,,,
49708442,1299,1294,1294,1300,,,,,
49710941,1305,1300,1300,1306,,,,,
49713440,1311,1306,1306,1312,,,,,
49715939,1317,1312,1312,1318,,,,,
49718438,1323,1318,1318,1323,,,,,
49720937,1329,1323,1324,1329,,,,,
49723436,1334,1329,1329,1335,,,,,
49725935,1340,1335,1335,1340,,,,,
49728434,1346,1340,1341,1346,,,,,
49730933,1351,1346,1346,1352,,,,,
49733432,1357,1352,1352,1357,,,,,
49735931,1362,1357,1357,1363,,,,,
49738430,1368,1362,1363,1368,,,,,
49740929,1373,1368,1368,1373,,,,,
49743428,1378,1373,1374,1379,,,,,
49745927,1384,1378,1379,1384,,,,,
49748426,1389,1384,1384,1389,,,,,
49750925,1394,1389,1389,1394,,,,,
49753424,1399,1394,1394,1399,,,,,
49755923,1404,1399,1400,1404,,,,,
49758422,1409,1404,1405,1409,,,,,
49760921,1414,1409,1410,1414,,,,,
49763420,1419,1414,1415,1419,,,,,
49765919,1424,1419,1420,1424,,,,,
49768418,1429,1424,1425,1429,,,,,
49770917,1434,1429,1430,1434,,,,,
49773416,1439,1434,1434,1439,,,,,
49775915,1444,1439,1439,1444,,,,,
49778414,1448,1444,1444,1449,,,,,
49780913,1453,1448,1449,1453,,,,,
49783412,1458,1453,1453,1458,,,,,
49785911,1462,1458,1458,1463,,,,,
49788410,1467,1462,1463,1467,,,,,
49790909,1472,1467,1467,1472,,,,,
49793408,1476,1472,1472,1477,,,,,
49795907,1481,1476,1477,1481,,,,,
49798406,1485,1481,1481,1486,,,,,
49800905,1490,1485,1486,1490,,,,,
49803404,1494,1490,1490,1495,,,,,
49805903,1499,1494,1495,1499,,,,,
49808402,1503,1499,1499,1504,,,,,
49810901,1508,1503,1503,1508,,,,,
49813400,1512,1508,1508,1512,,,,,
49815899,1516,1512,1512,1517,,,,,
49818398,1521,1516,1516,1521,,,,,
49820897,1525,1521,1521,1525,,,,,
49823396,1529,1525,1525,1530,,,,,
49825895,1533,1529,1529,1534,,,,,
49828394,1538,1533,1534,1538,,,,,
49830893,1542,1538,1538,1542,,,,,
49833392,1546,1542,1542,1546,,,,,
49835891,1550,1546,1546,1551,,,,,
49838390,1554,1550,1550,1555,,,,,
49840889,1558,1554,1554,1559,,,,,
49843388,1563,1558,1559,1563,,,,,
49845887,1567,1562,1563,1567,,,,,
49848386,1571,1567,1567,1571,,,,,
49850885,1575,1571,1571,1575,,,,,
49853384,1579,1575,1575,1579,,,,,
49855883,1583,1579,1579,1583,,,,,
49858382,1587,1583,1583,1587,,,,,
49860881,1591,1587,1587,1591,,,,,
49863380,1595,1591,1591,1595,,,,,
49865879,1599,1594,1595,1599,,,,,
49868378,1602,1598,1599,1603,,,,,
49870877,1606,1602,1602,1607,,,,,
49873376,1610,1606,1606,1611,,,,,
49875875,1614,1610,1610,1614,,,,,
49878374,1618,1614,1614,1618,,,,,
49880873,1622,1618,1618,1622,,,,,
49883372,1626,1622,1622,1626,,,,,
49885871,1629,1625,1625,1630,,,,,
49888370,1633,1629,1629,1633,,,,,
49890869,1637,1633,1633,1637,,,,,
49893368,1641,1637,1637,1641,,,,,
49895867,1644,1640,1640,1645,,,,,
49898366,1648,1644,1644,1648,,,,,
49900865,1652,1648,1648,1652,,,,,
49903364,1655,1651,1652,1656,,,,,
49905863,1659,1655,1655,1659,,,,,
49908362,1663,1659,1659,1663,,,,,
49910861,1666,1662,1663,1667,,,,,
49913360,1670,1666,1666,1670,,,,,
49915859,1674,1670,1670,1674,,,,,
49918358,1677,1673,1673,1677,,,,,
49920857,1681,1677,1677,1681,,,,,
49923356,1684,1680,1680,1685,,,,,
49925855,1688,1684,1684,1688,,,,,
49928354,1691,1687,1688,1692,,,,,
49930853,1695,1691,1691,1695,,,,,
49933352,1698,1695,1695,1699,,,,,
49935851,1702,1698,1698,1702,,,,,
49938350,1705,1702,1702,1706,,,,,
49940849,1709,1705,1705,1709,,,,,
49943348,1712,1708,1709,1713,,,,,
49945847,1716,1712,1712,1716,,,,,
49948346,1719,1715,1715,1720,,,,,
49950845,1723,1719,1719,1723,,,,,
49953344,1726,1722,1722,1726,,,,,
49955843,1729,1726,1726,1730,,,,,
49958342,1733,1729,1729,1733,,,,,
49960841,1736,1732,1732,1737,,,,,
49963340,1739,1736,1736,1740,,,,,
49965839,1743,1739,1739,1743,,,,,
49968338,1746,1742,1742,1747,,,,,
49970837,1750,1746,1746,1750,,,,,
49973336,1753,1749,1749,1753,,,,,
49975835,1756,1752,1752,1757,,,,,
49978334,1759,1756,1756,1760,,,,,
49980833,1763,1759,1759,1763,,,,,
49983332,1766,1762,1762,1766,,,,,
49985831,1769,1765,1766,1770,,,,,
49988330,1773,1769,1769,1773,,,,,
49990829,1776,1772,1772,1776,,,,,
49993328,1779,1775,1775,1779,,,,,
49995827,1782,1778,1779,1783,,,,,
49998326,1786,1782,1782,1786,,,,,
50000825,1789,1785,1785,1789,,,,,
50003324,1792,1788,1788,1792,,,,,
50005823,1795,1791,1791,1795,,,,,
50008322,1798,1794,1795,1798,,,,,
50010821,1801,1798,1798,1802,,,,,
50013320,1805,1801,1801,1805,,,,,
50015819,1808,1804,1804,1808,,,,,
50018318,1811,1807,1807,1811,,,,,
50020817,1814,1810,1810,1814,,,,,
50023316,1817,1813,1814,1817,,,,,
50025815,1820,1816,1817,1820,,,,,
50028314,1823,1819,1820,1823,,,,,
50030813,1826,1823,1823,1827,,,,,
50033312,1830,1826,1826,1830,,,,,
50035811,1833,1829,1829,1833,,,,,
50038310,1836,1832,1832,1836,,,,,
50040809,1839,1835,1835,1839,,,,,
50043308,1842,1838,1838,1842,,,,,
50045807,1845,1841,1841,1845,,,,,
50048306,1848,1844,1844,1848,,,,,
50050805,1851,1847,1847,1851,,,,,
50053304,1854,1850,1850,1854,,,,,
50055803,1857,1853,1853,1857,,,,,
50058302,1860,1856,1856,1860,,,,,
50060801,1863,1859,1859,1863,,,,,
50063300,1866,1862,1862,1866,,,,,
50065799,1869,1865,1865,1869,,,,,
50068298,1872,1868,1868,1872,,,,,
50070797,1875,1871,1871,1875,,,,,
50073296,1878,1874,1874,1878,,,,,
50075795,1881,1877,1877,1881,,,,,
50078294,1884,1880,1880,1884,,,,,
50080793,1885,1881,1881,1885,,,,,
50083292,1884,1880,1880,1884,,,,,
50085791,1883,1879,1879,1883,,,,,
50088290,1882,1878,1878,1882,,,,,
50090789,1881,1877,1877,1881,,,,,
50093288,1880,1875,1876,1880,,,,,
50095787,1879,1874,1875,1879,,,,,
50098286,1878,1873,1874,1878,,,,,
50100785,1877,1873,1873,1877,,,,,
50103284,1876,1872,1872,1876,,,,,
50105783,1875,1871,1871,1876,,,,,
50108282,1875,1870,1870,1875,,,,,
50110781,1874,1870,1870,1874,,,,,
50113280,1874,1869,1869,1874,,,,,
50115779,1873,1869,1869,1873,,,,,
50118278,1873,1868,1868,1873,,,,,
50120777,1872,1868,1868,1873,,,,,
50123276,1872,1868,1868,1872,,,,,
50125775,1872,1868,1868,1872,,,,,
50128274,1872,1867,1868,1872,,,,,
50130773,1872,1867,1868,1872,,,,,
50133272,1872,1868,1868,1872,,,,,
50135771,1872,1868,1868,1872,,,,,
50138270,1872,1868,1868,1872,,,,,
50140769,1873,1868,1869,1873,,,,,
50143268,1873,1869,1869,1873,,,,,
50145767,1874,1869,1869,1874,,,,,
50148266,1874,1870,1870,1874,,,,,
50150765,1875,1870,1871,1875,,,,,
50153264,1875,1871,1871,1875,,,,,
50155763,1876,1872,1872,1876,,,,,
50158262,1876,1872,1873,1876,,,,,
50160761,1877,1873,1873,1877,,,,,
50163260,1877,1873,1874,1877,,,,,
50165759,1877,1874,1874,1877,,,,,
50168258,1878,1874,1875,1878,,,,,
50170757,1878,1874,1875,1878,,,,,
50173256,1877,1874,1875,1878,,,,,
50175755,1877,1874,1875,1877,,,,,
50178254,1877,1874,1874,1877,,,,,
50180753,1876,1873,1874,1876,,,,,
50183252,1875,1872,1873,1875,,,,,
50185751,1874,1872,1872,1874,,,,,
50188250,1873,1870,1871,1873,,,,,
50190749,1872,1869,1869,1872,,,,,
50193248,1870,1868,1868,1870,,,,,
50195747,1868,1866,1866,1869,,,,,
50198246,1867,1864,1864,1867,,,,,
50200745,1865,1862,1862,1865,,,,,
50203244,1863,1860,1860,1863,,,,,
50205743,1860,1858,1858,1860,,,,,
50208242,1858,1856,1856,1858,,,,,
50210741,1855,1853,1853,1856,,,,,
50213240,1853,1851,1851,1853,,,,,
50215739,1850,1848,1848,1850,,,,,
50218238,1847,1845,1846,1848,,,,,
50220737,1845,1843,1843,1845,,,,,
50223236,1842,1840,1840,1842,,,,,
50225735,1839,1837,1837,1839,,,,,
50228234,1836,1834,1834,1836,,,,,
50230733,1833,1831,1831,1833,,,,,
50233232,1830,1828,1828,1830,,,,,
50235731,1826,1825,1825,1827,,,,,
50238230,1823,1822,1822,1823,,,,,
50240729,1820,1819,1819,1820,,,,,
50243228,1817,1815,1816,1817,,,,,
50245727,1813,1812,1812,1814,,,,,
50248226,1810,1809,1809,1810,,,,,
50250725,1807,1806,1806,1807,,,,,
50253224,1803,1802,1802,1804,,,,,
50255723,1800,1799,1799,1800,,,,,
50258222,1797,1795,1796,1797,,,,,
50260721,1793,1792,1792,1793,,,,,
50263220,1790,1789,1789,1790,,,,,
50265719,1786,1785,1785,1787,,,,,
50268218,1783,1782,1782,1783,,,,,
50270717,1779,1779,1779,1780,,,,,
50273216,1776,1775,1775,1776,,,,,
50275715,1773,1772,1772,1773,,,,,
50278214,1769,1768,1768,1769,,,,,
50280713,1766,1765,1765,1766,,,,,
50283212,1762,1761,1761,1762,,,,,
50285711,1759,1758,1758,1759,,,,,
50288210,1755,1755,1755,1756,,,,,
50290709,1752,1751,1751,1752,,,,,
50293208,1748,1748,1748,1749,,,,,
50295707,1745,1744,1744,1745,,,,,
50298206,1742,1741,1741,1742,,,,,
50300705,1738,1738,1738,1738,,,,,
50303204,1735,1734,1734,1735,,,,,
50305703,1731,1731,1731,1732,,,,,
50308202,1728,1728,1728,1728,,,,,
50310701,1725,1725,1725,1725,,,,,
50313200,1722,1721,1721,1722,,,,,
50315699,1718,1718,1718,1719,,,,,
50318198,1715,1715,1715,1716,,,,,
50320697,1712,1712,1712,1713,,,,,
50323196,1709,1709,1709,1709,,,,,
50325695,1706,1706,1706,1706,,,,,
50328194,1703,1703,1703,1703,,,,,
50330693,1700,1701,1701,1701,,,,,
50333192,1697,1698,1698,1698,,,,,
50335691,1695,1695,1695,1695,,,,,
50338190,1692,1692,1692,1692,,,,,
50340689,1689,1690,1690,1690,,,,,
50343188,1687,1687,1687,1687,,,,,
50345687,1684,1685,1685,1685,,,,,
50348186,1681,1682,1682,1682,,,,,
50350685,1679,1680,1680,1680,,,,,
50353184,1677,1678,1677,1677,,,,,
50355683,1674,1675,1675,1675,,,,,
50358182,1672,1673,1673,1673,,,,,
50360681,1669,1671,1670,1670,,,,,
50363180,1667,1668,1668,1668,,,,,
50365679,1665,1666,1666,1666,,,,,
50368178,1663,1664,1664,1664,,,,,
50370677,1661,1662,1662,1661,,,,,
50373176,1659,1660,1660,1659,,,,,
50375675,1657,1658,1658,1657,,,,,
50378174,1654,1656,1655,1655,,,,,
50380673,1653,1654,1654,1653,,,,,
50383172,1651,1652,1652,1651,,,,,
50385671,1649,1650,1650,1649,,,,,
50388170,1647,1648,1648,1648,,,,,
50390669,1645,1647,1646,1646,,,,,
50393168,1643,1645,1645,1644,,,,,
50395667,1642,1643,1643,1642,,,,,
50398166,1640,1642,1641,1641,,,,,
50400665,1639,1640,1640,1639,,,,,
50403164,1637,1639,1638,1638,,,,,
50405663,1636,1637,1637,1636,,,,,
50408162,1634,1636,1635,1635,,,,,
50410661,1633,1634,1634,1633,,,,,
50413160,1631,1633,1633,1632,,,,,
50415659,1630,1632,1632,1631,,,,,
50418158,1629,1630,1630,1629,,,,,
50420657,1628,1629,1629,1628,,,,,
50423156,1627,1628,1628,1627,,,,,
50425655,1626,1627,1627,1626,,,,,
50428154,1624,1626,1626,1625,,,,,
50431486,1624,1625,1625,1624,,,,,
50433985,1623,1624,1624,1623,,,,,
50436484,1622,1623,1623,1622,,,,,
50438983,1621,1623,1623,1621,,,,,
50441482,1620,1622,1622,1620,,,,,
50443981,1619,1621,1621,1619,,,,,
50446480,1618,1620,1620,1619,,,,,
50448979,1618,1620,1620,1618,,,,,
50451478,1617,1619,1619,1617,,,,,
50453977,1616,1618,1619,1617,,,,,
