timestamp,TimeUS,C1,C2,C3,C4,C5,C6,C7,C8,C9,C10,C11,C12,C13,C14
1684144225.70003986,52728900,1000,1000,1000,1000,0,0,0,0,0,0,0,0,0,0
1684144225.79999995,52828860,1000,1000,1000,1000,0,0,0,0,0,0,0,0,0,0
1684144225.89995980,52928820,1000,1000,1000,1000,0,0,0,0,0,0,0,0,0,0
1684144225.99991989,53028780,1000,1000,1000,1000,0,0,0,0,0,0,0,0,0,0
1684144226.09987998,53128740,1000,1000,1000,1000,0,0,0,0,0,0,0,0,0,0
1684144226.19983983,53228700,1000,1000,1000,1000,0,0,0,0,0,0,0,0,0,0
1684144226.29979992,53328660,1000,1000,1000,1000,0,0,0,0,0,0,0,0,0,0
1684144226.39976001,53428620,1000,1000,1000,1000,0,0,0,0,0,0,0,0,0,0
1684144226.49971986,53528580,1000,1000,1000,1000,0,0,0,0,0,0,0,0,0,0
1684144226.59967995,53628540,1000,1000,1000,1000,0,0,0,0,0,0,0,0,0,0
1684144226.69963980,53728500,1000,1000,1000,1000,0,0,0,0,0,0,0,0,0,0
1684144226.79959989,53828460,1000,1000,1000,1000,0,0,0,0,0,0,0,0,0,0
1684144226.89955997,53928420,1000,1000,1000,1000,0,0,0,0,0,0,0,0,0,0
1684144226.99951982,54028380,1000,1000,1000,1000,0,0,0,0,0,0,0,0,0,0
1684144227.09947991,54128340,1000,1000,1000,1000,0,0,0,0,0,0,0,0,0,0
1684144227.19944000,54228300,1000,1000,1000,1000,0,0,0,0,0,0,0,0,0,0
1684144227.29939985,54328260,1000,1000,1000,1000,0,0,0,0,0,0,0,0,0,0
1684144227.39935994,54428220,1000,1000,1000,1000,0,0,0,0,0,0,0,0,0,0
1684144227.49931979,54528180,1000,1000,1000,1000,0,0,0,0,0,0,0,0,0,0
1684144227.60011292,54628973,1000,1000,1000,1000,0,0,0,0,0,0,0,0,0,0
1684144227.70007300,54728933,1024,1024,1024,1024,0,0,0,0,0,0,0,0,0,0
1684144227.80003285,54828893,1054,1054,1054,1054,0,0,0,0,0,0,0,0,0,0
1684144227.89999294,54928853,1084,1084,1084,1084,0,0,0,0,0,0,0,0,0,0
1684144227.99995279,55028813,1113,1113,1113,1113,0,0,0,0,0,0,0,0,0,0
1684144228.09991288,55128773,1143,1143,1143,1143,0,0,0,0,0,0,0,0,0,0
1684144228.19987297,55228733,1357,1351,1352,1357,0,0,0,0,0,0,0,0,0,0
1684144228.29983282,55328693,1546,1541,1542,1547,0,0,0,0,0,0,0,0,0,0
1684144228.39979291,55428653,1699,1694,1694,1699,0,0,0,0,0,0,0,0,0,0
1684144228.49975300,55528613,1830,1825,1826,1830,0,0,0,0,0,0,0,0,0,0
1684144228.59971285,55628573,1889,1884,1884,1889,0,0,0,0,0,0,0,0,0,0
1684144228.69967294,55728533,1839,1837,1837,1839,0,0,0,0,0,0,0,0,0,0
1684144228.79963303,55828493,1712,1712,1712,1712,0,0,0,0,0,0,0,0,0,0
1684144228.89959288,55928453,1638,1638,1637,1640,0,0,0,0,0,0,0,0,0,0
1684144228.99955297,56028413,1623,1626,1620,1629,0,0,0,0,0,0,0,0,0,0
1684144229.09951282,56128373,1631,1634,1630,1635,0,0,0,0,0,0,0,0,0,0
1684144229.19947290,56228333,1637,1639,1639,1638,0,0,0,0,0,0,0,0,0,0
1684144229.29943299,56328293,1636,1637,1639,1634,0,0,0,0,0,0,0,0,0,0
1684144229.39939284,56428253,1630,1629,1632,1626,0,0,0,0,0,0,0,0,0,0
1684144229.49935293,56528213,1624,1622,1626,1620,0,0,0,0,0,0,0,0,0,0
1684144229.59931302,56628173,1620,1619,1621,1618,0,0,0,0,0,0,0,0,0,0
1684144229.70010591,56728966,1619,1618,1619,1618,0,0,0,0,0,0,0,0,0,0
1684144229.80006599,56828926,1615,1615,1615,1614,0,0,0,0,0,0,0,0,0,0
1684144229.90002584,56928886,1585,1586,1592,1579,0,0,0,0,0,0,0,0,0,0
1684144229.99998593,57028846,1572,1573,1577,1568,0,0,0,0,0,0,0,0,0,0
1684144230.09994602,57128806,1562,1562,1562,1562,0,0,0,0,0,0,0,0,0,0
1684144230.19990587,57228766,1553,1553,1550,1556,0,0,0,0,0,0,0,0,0,0
1684144230.29986596,57328726,1547,1545,1539,1553,0,0,0,0,0,0,0,0,0,0
1684144230.39982581,57428686,1539,1539,1531,1547,0,0,0,0,0,0,0,0,0,0
1684144230.49978590,57528646,1534,1533,1528,1539,0,0,0,0,0,0,0,0,0,0
1684144230.59974599,57628606,1528,1528,1525,1530,0,0,0,0,0,0,0,0,0,0
1684144230.69970584,57728566,1526,1526,1526,1526,0,0,0,0,0,0,0,0,0,0
1684144230.79966593,57828526,1526,1526,1528,1524,0,0,0,0,0,0,0,0,0,0
1684144230.89962602,57928486,1530,1529,1532,1527,0,0,0,0,0,0,0,0,0,0
1684144230.99958587,58028446,1532,1533,1536,1530,0,0,0,0,0,0,0,0,0,0
1684144231.09954596,58128406,1536,1536,1538,1534,0,0,0,0,0,0,0,0,0,0
1684144231.19950581,58228366,1540,1541,1542,1539,0,0,0,0,0,0,0,0,0,0
1684144231.29946589,58328326,1544,1544,1545,1544,0,0,0,0,0,0,0,0,0,0
1684144231.39942598,58428286,1547,1547,1547,1548,0,0,0,0,0,0,0,0,0,0
1684144231.49938583,58528246,1550,1550,1550,1551,0,0,0,0,0,0,0,0,0,0
1684144231.59934592,58628206,1553,1553,1552,1554,0,0,0,0,0,0,0,0,0,0
1684144231.69930601,58728166,1555,1555,1554,1556,0,0,0,0,0,0,0,0,0,0
1684144231.80009890,58828959,1554,1554,1558,1561,0,0,0,0,0,0,0,0,0,0
1684144231.90005898,58928919,1556,1556,1563,1564,0,0,0,0,0,0,0,0,0,0
1684144232.00001884,59028879,1558,1558,1565,1565,0,0,0,0,0,0,0,0,0,0
1684144232.09997892,59128839,1560,1560,1565,1565,0,0,0,0,0,0,0,0,0,0
1684144232.19993901,59228799,1563,1563,1565,1566,0,0,0,0,0,0,0,0,0,0
1684144232.29989886,59328759,1565,1565,1565,1565,0,0,0,0,0,0,0,0,0,0
1684144232.39985895,59428719,1567,1567,1565,1565,0,0,0,0,0,0,0,0,0,0
1684144232.49981880,59528679,1569,1569,1566,1566,0,0,0,0,0,0,0,0,0,0
1684144232.59977889,59628639,1571,1570,1566,1566,0,0,0,0,0,0,0,0,0,0
1684144232.69973898,59728599,1572,1571,1566,1566,0,0,0,0,0,0,0,0,0,0
1684144232.79969883,59828559,1573,1573,1568,1568,0,0,0,0,0,0,0,0,0,0
1684144232.89965892,59928519,1573,1573,1569,1569,0,0,0,0,0,0,0,0,0,0
1684144232.99961901,60028479,1573,1573,1570,1571,0,0,0,0,0,0,0,0,0,0
1684144233.09957886,60128439,1573,1574,1572,1572,0,0,0,0,0,0,0,0,0,0
1684144233.19953895,60228399,1573,1573,1573,1573,0,0,0,0,0,0,0,0,0,0
1684144233.29949880,60328359,1574,1574,1575,1574,0,0,0,0,0,0,0,0,0,0
1684144233.39945889,60428319,1574,1574,1576,1575,0,0,0,0,0,0,0,0,0,0
1684144233.49941897,60528279,1576,1576,1578,1577,0,0,0,0,0,0,0,0,0,0
1684144233.59937882,60628239,1576,1576,1578,1577,0,0,0,0,0,0,0,0,0,0
1684144233.69933891,60728199,1575,1576,1577,1577,0,0,0,0,0,0,0,0,0,0
1684144233.79929900,60828159,1576,1576,1577,1578,0,0,0,0,0,0,0,0,0,0
1684144233.90009189,60928952,1577,1577,1578,1578,0,0,0,0,0,0,0,0,0,0
1684144234.00005198,61028912,1577,1577,1577,1578,0,0,0,0,0,0,0,0,0,0
1684144234.10001183,61128872,1577,1577,1577,1577,0,0,0,0,0,0,0,0,0,0
1684144234.19997191,61228832,1577,1577,1576,1577,0,0,0,0,0,0,0,0,0,0
1684144234.29993200,61328792,1578,1577,1577,1577,0,0,0,0,0,0,0,0,0,0
1684144234.39989185,61428752,1578,1577,1577,1577,0,0,0,0,0,0,0,0,0,0
1684144234.49985194,61528712,1579,1578,1578,1578,0,0,0,0,0,0,0,0,0,0
1684144234.59981179,61628672,1578,1578,1577,1577,0,0,0,0,0,0,0,0,0,0
1684144234.69977188,61728632,1578,1578,1578,1578,0,0,0,0,0,0,0,0,0,0
1684144234.79973197,61828592,1578,1578,1578,1577,0,0,0,0,0,0,0,0,0,0
1684144234.89969182,61928552,1579,1580,1579,1579,0,0,0,0,0,0,0,0,0,0
1684144234.99965191,62028512,1579,1579,1579,1579,0,0,0,0,0,0,0,0,0,0
1684144235.09961200,62128472,1579,1578,1578,1578,0,0,0,0,0,0,0,0,0,0
1684144235.19957185,62228432,1578,1578,1578,1578,0,0,0,0,0,0,0,0,0,0
1684144235.29953194,62328392,1578,1579,1579,1579,0,0,0,0,0,0,0,0,0,0
1684144235.39949203,62428352,1578,1579,1578,1579,0,0,0,0,0,0,0,0,0,0
1684144235.49945188,62528312,1578,1578,1578,1578,0,0,0,0,0,0,0,0,0,0
1684144235.59941196,62628272,1579,1579,1580,1579,0,0,0,0,0,0,0,0,0,0
1684144235.69937181,62728232,1578,1578,1578,1579,0,0,0,0,0,0,0,0,0,0
1684144235.79933190,62828192,1579,1579,1579,1579,0,0,0,0,0,0,0,0,0,0
1684144235.90012503,62928985,1578,1579,1579,1579,0,0,0,0,0,0,0,0,0,0
1684144236.00008488,63028945,1580,1580,1580,1580,0,0,0,0,0,0,0,0,0,0
1684144236.10004497,63128905,1579,1579,1579,1579,0,0,0,0,0,0,0,0,0,0
1684144236.20000482,63228865,1580,1580,1580,1580,0,0,0,0,0,0,0,0,0,0
1684144236.29996490,63328825,1579,1580,1579,1580,0,0,0,0,0,0,0,0,0,0
1684144236.39992499,63428785,1581,1580,1580,1581,0,0,0,0,0,0,0,0,0,0
1684144236.49988484,63528745,1580,1580,1580,1580,0,0,0,0,0,0,0,0,0,0
1684144236.59984493,63628705,1580,1580,1580,1580,0,0,0,0,0,0,0,0,0,0
1684144236.69980502,63728665,1581,1581,1580,1581,0,0,0,0,0,0,0,0,0,0
1684144236.79976487,63828625,1581,1580,1580,1581,0,0,0,0,0,0,0,0,0,0
1684144236.89972496,63928585,1579,1579,1580,1579,0,0,0,0,0,0,0,0,0,0
1684144236.99968481,64028545,1581,1581,1582,1581,0,0,0,0,0,0,0,0,0,0
1684144237.09964490,64128505,1580,1581,1581,1581,0,0,0,0,0,0,0,0,0,0
1684144237.19960499,64228465,1581,1581,1581,1581,0,0,0,0,0,0,0,0,0,0
1684144237.29956484,64328425,1581,1581,1581,1581,0,0,0,0,0,0,0,0,0,0
1684144237.39952493,64428385,1580,1580,1580,1580,0,0,0,0,0,0,0,0,0,0
1684144237.49948502,64528345,1581,1580,1580,1581,0,0,0,0,0,0,0,0,0,0
1684144237.59944487,64628305,1580,1580,1580,1580,0,0,0,0,0,0,0,0,0,0
1684144237.69940495,64728265,1580,1579,1580,1580,0,0,0,0,0,0,0,0,0,0
1684144237.79936481,64828225,1581,1581,1581,1581,0,0,0,0,0,0,0,0,0,0
1684144237.89932489,64928185,1581,1580,1581,1580,0,0,0,0,0,0,0,0,0,0
1684144238.00011802,65028978,1581,1582,1588,1574,0,0,0,0,0,0,0,0,0,0
1684144238.10007787,65128938,1580,1582,1586,1573,0,0,0,0,0,0,0,0,0,0
1684144238.20003796,65228898,1579,1581,1578,1573,0,0,0,0,0,0,0,0,0,0
1684144238.29999781,65328858,1577,1580,1569,1572,0,0,0,0,0,0,0,0,0,0
1684144238.39995790,65428818,1577,1579,1561,1569,0,0,0,0,0,0,0,0,0,0
1684144238.49991798,65528778,1577,1578,1556,1564,0,0,0,0,0,0,0,0,0,0
1684144238.59987783,65628738,1579,1578,1556,1560,0,0,0,0,0,0,0,0,0,0
1684144238.69983792,65728698,1579,1577,1555,1556,0,0,0,0,0,0,0,0,0,0
1684144238.79979801,65828658,1580,1578,1556,1555,0,0,0,0,0,0,0,0,0,0
1684144238.89975786,65928618,1578,1577,1556,1553,0,0,0,0,0,0,0,0,0,0
1684144238.99971795,66028578,1577,1578,1556,1554,0,0,0,0,0,0,0,0,0,0
1684144239.09967780,66128538,1575,1577,1555,1554,0,0,0,0,0,0,0,0,0,0
1684144239.19963789,66228498,1574,1576,1554,1553,0,0,0,0,0,0,0,0,0,0
1684144239.29959798,66328458,1575,1576,1553,1553,0,0,0,0,0,0,0,0,0,0
1684144239.39955783,66428418,1574,1576,1551,1551,0,0,0,0,0,0,0,0,0,0
1684144239.49951792,66528378,1575,1577,1550,1550,0,0,0,0,0,0,0,0,0,0
1684144239.59947801,66628338,1578,1579,1548,1548,0,0,0,0,0,0,0,0,0,0
1684144239.69943786,66728298,1580,1581,1546,1546,0,0,0,0,0,0,0,0,0,0
1684144239.79939795,66828258,1583,1584,1543,1542,0,0,0,0,0,0,0,0,0,0
1684144239.89935780,66928218,1587,1587,1540,1540,0,0,0,0,0,0,0,0,0,0
1684144239.99931788,67028178,1589,1590,1537,1537,0,0,0,0,0,0,0,0,0,0
1684144240.10011101,67128971,1592,1592,1535,1535,0,0,0,0,0,0,0,0,0,0
1684144240.20007086,67228931,1594,1594,1534,1535,0,0,0,0,0,0,0,0,0,0
1684144240.30003095,67328891,1594,1594,1534,1535,0,0,0,0,0,0,0,0,0,0
1684144240.39999080,67428851,1594,1594,1536,1537,0,0,0,0,0,0,0,0,0,0
1684144240.49995089,67528811,1592,1591,1538,1540,0,0,0,0,0,0,0,0,0,0
1684144240.59991097,67628771,1589,1588,1544,1546,0,0,0,0,0,0,0,0,0,0
1684144240.69987082,67728731,1584,1582,1551,1555,0,0,0,0,0,0,0,0,0,0
1684144240.79983091,67828691,1576,1573,1560,1563,0,0,0,0,0,0,0,0,0,0
1684144240.89979100,67928651,1568,1563,1573,1576,0,0,0,0,0,0,0,0,0,0
1684144240.99975085,68028611,1556,1553,1585,1587,0,0,0,0,0,0,0,0,0,0
1684144241.09971094,68128571,1545,1543,1597,1597,0,0,0,0,0,0,0,0,0,0
1684144241.19967079,68228531,1535,1535,1606,1605,0,0,0,0,0,0,0,0,0,0
1684144241.29963088,68328491,1530,1531,1612,1611,0,0,0,0,0,0,0,0,0,0
1684144241.39959097,68428451,1528,1530,1615,1614,0,0,0,0,0,0,0,0,0,0
1684144241.49955082,68528411,1531,1533,1614,1613,0,0,0,0,0,0,0,0,0,0
1684144241.59951091,68628371,1537,1539,1611,1611,0,0,0,0,0,0,0,0,0,0
1684144241.69947100,68728331,1543,1545,1604,1605,0,0,0,0,0,0,0,0,0,0
1684144241.79943085,68828291,1551,1552,1597,1597,0,0,0,0,0,0,0,0,0,0
1684144241.89939094,68928251,1562,1562,1591,1590,0,0,0,0,0,0,0,0,0,0
1684144241.99935102,69028211,1336,1336,1587,1586,0,0,0,0,0,0,0,0,0,0
1684144242.09931087,69128171,1423,1426,1627,1631,0,0,0,0,0,0,0,0,0,0
1684144242.20010400,69228964,1479,1484,1621,1619,0,0,0,0,0,0,0,0,0,0
1684144242.30006385,69328924,1530,1535,1606,1600,0,0,0,0,0,0,0,0,0,0
1684144242.40002394,69428884,1569,1571,1593,1586,0,0,0,0,0,0,0,0,0,0
1684144242.49998403,69528844,1596,1593,1584,1580,0,0,0,0,0,0,0,0,0,0
1684144242.59994388,69628804,1614,1608,1580,1578,0,0,0,0,0,0,0,0,0,0
1684144242.69990396,69728764,1629,1620,1569,1571,0,0,0,0,0,0,0,0,0,0
1684144242.79986382,69828724,1648,1642,1546,1552,0,0,0,0,0,0,0,0,0,0
1684144242.89982390,69928684,1662,1657,1528,1535,0,0,0,0,0,0,0,0,0,0
1684144242.99978399,70028644,1657,1656,1531,1538,0,0,0,0,0,0,0,0,0,0
1684144243.09974384,70128604,1646,1649,1541,1545,0,0,0,0,0,0,0,0,0,0
1684144243.19970393,70228564,1636,1641,1551,1552,0,0,0,0,0,0,0,0,0,0
1684144243.29966402,70328524,1627,1631,1557,1556,0,0,0,0,0,0,0,0,0,0
1684144243.39962387,70428484,1620,1623,1563,1559,0,0,0,0,0,0,0,0,0,0
1684144243.49958396,70528444,1615,1612,1569,1565,0,0,0,0,0,0,0,0,0,0
1684144243.59954381,70628404,1602,1595,1582,1580,0,0,0,0,0,0,0,0,0,0
1684144243.69950390,70728364,1584,1576,1597,1597,0,0,0,0,0,0,0,0,0,0
1684144243.79946399,70828324,1566,1563,1608,1609,0,0,0,0,0,0,0,0,0,0
1684144243.89942384,70928284,1555,1555,1611,1613,0,0,0,0,0,0,0,0,0,0
1684144243.99938393,71028244,1550,1555,1611,1611,0,0,0,0,0,0,0,0,0,0
1684144244.09934402,71128204,1549,1555,1606,1605,0,0,0,0,0,0,0,0,0,0
1684144244.19930387,71228164,1551,1558,1601,1599,0,0,0,0,0,0,0,0,0,0
1684144244.30009699,71328957,1557,1562,1597,1594,0,0,0,0,0,0,0,0,0,0
1684144244.40005684,71428917,1563,1565,1592,1589,0,0,0,0,0,0,0,0,0,0
1684144244.50001693,71528877,1568,1568,1586,1584,0,0,0,0,0,0,0,0,0,0
1684144244.59997702,71628837,1574,1572,1582,1581,0,0,0,0,0,0,0,0,0,0
1684144244.69993687,71728797,1577,1575,1578,1578,0,0,0,0,0,0,0,0,0,0
1684144244.79989696,71828757,1580,1578,1575,1576,0,0,0,0,0,0,0,0,0,0
1684144244.89985681,71928717,1583,1582,1571,1573,0,0,0,0,0,0,0,0,0,0
1684144244.99981689,72028677,1588,1588,1567,1568,0,0,0,0,0,0,0,0,0,0
1684144245.09977698,72128637,1592,1592,1564,1564,0,0,0,0,0,0,0,0,0,0
1684144245.19973683,72228597,1594,1595,1562,1562,0,0,0,0,0,0,0,0,0,0
1684144245.29969692,72328557,1595,1595,1563,1563,0,0,0,0,0,0,0,0,0,0
1684144245.39965701,72428517,1594,1594,1566,1566,0,0,0,0,0,0,0,0,0,0
1684144245.49961686,72528477,1591,1590,1570,1570,0,0,0,0,0,0,0,0,0,0
1684144245.59957695,72628437,1586,1585,1574,1574,0,0,0,0,0,0,0,0,0,0
1684144245.69953680,72728397,1582,1581,1579,1579,0,0,0,0,0,0,0,0,0,0
1684144245.79949689,72828357,1579,1579,1582,1583,0,0,0,0,0,0,0,0,0,0
1684144245.89945698,72928317,1577,1577,1583,1583,0,0,0,0,0,0,0,0,0,0
1684144245.99941683,73028277,1577,1576,1589,1578,0,0,0,0,0,0,0,0,0,0
1684144246.09937692,73128237,1579,1576,1590,1577,0,0,0,0,0,0,0,0,0,0
1684144246.19933701,73228197,1578,1575,1581,1576,0,0,0,0,0,0,0,0,0,0
1684144246.29929686,73328157,1577,1574,1572,1574,0,0,0,0,0,0,0,0,0,0
1684144246.40008998,73428950,1574,1574,1564,1569,0,0,0,0,0,0,0,0,0,0
1684144246.50004983,73528910,1572,1576,1560,1564,0,0,0,0,0,0,0,0,0,0
1684144246.60000992,73628870,1571,1576,1558,1559,0,0,0,0,0,0,0,0,0,0
1684144246.69997001,73728830,1573,1576,1558,1557,0,0,0,0,0,0,0,0,0,0
1684144246.79992986,73828790,1574,1576,1558,1555,0,0,0,0,0,0,0,0,0,0
1684144246.89988995,73928750,1575,1575,1556,1554,0,0,0,0,0,0,0,0,0,0
1684144246.99984980,74028710,1575,1575,1555,1553,0,0,0,0,0,0,0,0,0,0
1684144247.09980989,74128670,1575,1575,1553,1552,0,0,0,0,0,0,0,0,0,0
1684144247.19976997,74228630,1575,1574,1550,1550,0,0,0,0,0,0,0,0,0,0
1684144247.29972982,74328590,1575,1575,1548,1549,0,0,0,0,0,0,0,0,0,0
1684144247.39968991,74428550,1575,1576,1547,1547,0,0,0,0,0,0,0,0,0,0
1684144247.49965000,74528510,1575,1577,1544,1545,0,0,0,0,0,0,0,0,0,0
1684144247.59960985,74628470,1576,1578,1543,1543,0,0,0,0,0,0,0,0,0,0
1684144247.69956994,74728430,1579,1580,1543,1541,0,0,0,0,0,0,0,0,0,0
1684144247.79952979,74828390,1580,1582,1540,1539,0,0,0,0,0,0,0,0,0,0
1684144247.89948988,74928350,1583,1584,1539,1539,0,0,0,0,0,0,0,0,0,0
1684144247.99944997,75028310,1585,1586,1537,1537,0,0,0,0,0,0,0,0,0,0
1684144248.09940982,75128270,1588,1588,1536,1537,0,0,0,0,0,0,0,0,0,0
1684144248.19936991,75228230,1590,1590,1536,1537,0,0,0,0,0,0,0,0,0,0
1684144248.29933000,75328190,1590,1590,1536,1538,0,0,0,0,0,0,0,0,0,0
1684144248.40012288,75428983,1590,1590,1538,1541,0,0,0,0,0,0,0,0,0,0
1684144248.50008297,75528943,1589,1588,1541,1544,0,0,0,0,0,0,0,0,0,0
1684144248.60004282,75628903,1587,1585,1546,1549,0,0,0,0,0,0,0,0,0,0
1684144248.70000291,75728863,1582,1581,1550,1553,0,0,0,0,0,0,0,0,0,0
1684144248.79996300,75828823,1576,1575,1555,1559,0,0,0,0,0,0,0,0,0,0
1684144248.89992285,75928783,1571,1570,1562,1566,0,0,0,0,0,0,0,0,0,0
1684144248.99988294,76028743,1565,1564,1569,1572,0,0,0,0,0,0,0,0,0,0
1684144249.09984303,76128703,1559,1558,1575,1577,0,0,0,0,0,0,0,0,0,0
1684144249.19980288,76228663,1553,1553,1582,1582,0,0,0,0,0,0,0,0,0,0
1684144249.29976296,76328623,1548,1547,1588,1587,0,0,0,0,0,0,0,0,0,0
1684144249.39972281,76428583,1544,1543,1593,1592,0,0,0,0,0,0,0,0,0,0
1684144249.49968290,76528543,1540,1540,1597,1596,0,0,0,0,0,0,0,0,0,0
1684144249.59964299,76628503,1538,1538,1600,1599,0,0,0,0,0,0,0,0,0,0
1684144249.69960284,76728463,1536,1537,1602,1602,0,0,0,0,0,0,0,0,0,0
1684144249.79956293,76828423,1537,1539,1604,1603,0,0,0,0,0,0,0,0,0,0
1684144249.89952302,76928383,1540,1542,1602,1602,0,0,0,0,0,0,0,0,0,0
1684144249.99948287,77028343,1544,1546,1598,1598,0,0,0,0,0,0,0,0,0,0
1684144250.09944296,77128303,1550,1552,1593,1593,0,0,0,0,0,0,0,0,0,0
1684144250.19940281,77228263,1557,1558,1587,1587,0,0,0,0,0,0,0,0,0,0
1684144250.29936290,77328223,1565,1565,1582,1582,0,0,0,0,0,0,0,0,0,0
1684144250.39932299,77428183,1571,1571,1578,1577,0,0,0,0,0,0,0,0,0,0
1684144250.50011587,77528976,1576,1575,1575,1574,0,0,0,0,0,0,0,0,0,0
1684144250.60007596,77628936,1581,1579,1574,1573,0,0,0,0,0,0,0,0,0,0
1684144250.70003581,77728896,1584,1583,1573,1572,0,0,0,0,0,0,0,0,0,0
1684144250.79999590,77828856,1586,1584,1572,1572,0,0,0,0,0,0,0,0,0,0
1684144250.89995599,77928816,1586,1585,1571,1572,0,0,0,0,0,0,0,0,0,0
1684144250.99991584,78028776,1585,1584,1570,1571,0,0,0,0,0,0,0,0,0,0
1684144251.09987593,78128736,1584,1584,1571,1571,0,0,0,0,0,0,0,0,0,0
1684144251.19983602,78228696,1584,1583,1572,1573,0,0,0,0,0,0,0,0,0,0
1684144251.29979587,78328656,1583,1583,1574,1574,0,0,0,0,0,0,0,0,0,0
1684144251.39975595,78428616,1582,1582,1575,1575,0,0,0,0,0,0,0,0,0,0
1684144251.49971581,78528576,1581,1582,1576,1576,0,0,0,0,0,0,0,0,0,0
1684144251.59967589,78628536,1581,1582,1578,1578,0,0,0,0,0,0,0,0,0,0
1684144251.69963598,78728496,1580,1580,1578,1578,0,0,0,0,0,0,0,0,0,0
1684144251.79959583,78828456,1580,1580,1579,1580,0,0,0,0,0,0,0,0,0,0
1684144251.89955592,78928416,1579,1579,1580,1580,0,0,0,0,0,0,0,0,0,0
1684144251.99951601,79028376,1578,1578,1580,1580,0,0,0,0,0,0,0,0,0,0
1684144252.09947586,79128336,1578,1578,1581,1581,0,0,0,0,0,0,0,0,0,0
1684144252.19943595,79228296,1577,1577,1580,1580,0,0,0,0,0,0,0,0,0,0
1684144252.29939580,79328256,1578,1578,1582,1582,0,0,0,0,0,0,0,0,0,0
1684144252.39935589,79428216,1579,1579,1582,1582,0,0,0,0,0,0,0,0,0,0
1684144252.49931598,79528176,1579,1579,1581,1582,0,0,0,0,0,0,0,0,0,0
1684144252.60010886,79628969,1578,1578,1580,1580,0,0,0,0,0,0,0,0,0,0
1684144252.70006895,79728929,1578,1578,1580,1580,0,0,0,0,0,0,0,0,0,0
1684144252.80002880,79828889,1578,1578,1579,1580,0,0,0,0,0,0,0,0,0,0
1684144252.89998889,79928849,1579,1579,1580,1580,0,0,0,0,0,0,0,0,0,0
1684144252.99994898,80028809,1580,1580,1580,1579,0,0,0,0,0,0,0,0,0,0
1684144253.09990883,80128769,1580,1580,1580,1580,0,0,0,0,0,0,0,0,0,0
1684144253.19986892,80228729,1580,1581,1580,1580,0,0,0,0,0,0,0,0,0,0
1684144253.29982901,80328689,1581,1581,1580,1579,0,0,0,0,0,0,0,0,0,0
1684144253.39978886,80428649,1582,1581,1580,1580,0,0,0,0,0,0,0,0,0,0
1684144253.49974895,80528609,1582,1581,1580,1581,0,0,0,0,0,0,0,0,0,0
1684144253.59970880,80628569,1582,1582,1581,1580,0,0,0,0,0,0,0,0,0,0
1684144253.69966888,80728529,1582,1582,1581,1580,0,0,0,0,0,0,0,0,0,0
1684144253.79962897,80828489,1581,1582,1580,1580,0,0,0,0,0,0,0,0,0,0
1684144253.89958882,80928449,1581,1581,1580,1580,0,0,0,0,0,0,0,0,0,0
1684144253.99954891,81028409,1582,1582,1581,1581,0,0,0,0,0,0,0,0,0,0
1684144254.09950900,81128369,1581,1581,1580,1580,0,0,0,0,0,0,0,0,0,0
1684144254.19946885,81228329,1581,1581,1581,1581,0,0,0,0,0,0,0,0,0,0
1684144254.29942894,81328289,1582,1581,1582,1581,0,0,0,0,0,0,0,0,0,0
1684144254.39938879,81428249,1582,1582,1581,1582,0,0,0,0,0,0,0,0,0,0
1684144254.49934888,81528209,1582,1582,1582,1582,0,0,0,0,0,0,0,0,0,0
1684144254.59930897,81628169,1582,1582,1582,1582,0,0,0,0,0,0,0,0,0,0
1684144254.70010185,81728962,1581,1582,1582,1581,0,0,0,0,0,0,0,0,0,0
1684144254.80006194,81828922,1582,1582,1586,1578,0,0,0,0,0,0,0,0,0,0
1684144254.90002179,81928882,1582,1582,1589,1574,0,0,0,0,0,0,0,0,0,0
1684144254.99998188,82028842,1580,1581,1581,1573,0,0,0,0,0,0,0,0,0,0
1684144255.09994197,82128802,1578,1579,1571,1571,0,0,0,0,0,0,0,0,0,0
1684144255.19990182,82228762,1576,1579,1563,1569,0,0,0,0,0,0,0,0,0,0
1684144255.29986191,82328722,1576,1578,1558,1565,0,0,0,0,0,0,0,0,0,0
1684144255.39982200,82428682,1576,1578,1556,1561,0,0,0,0,0,0,0,0,0,0
1684144255.49978185,82528642,1577,1577,1556,1557,0,0,0,0,0,0,0,0,0,0
1684144255.59974194,82628602,1577,1577,1556,1556,0,0,0,0,0,0,0,0,0,0
1684144255.69970202,82728562,1577,1576,1556,1554,0,0,0,0,0,0,0,0,0,0
1684144255.79966187,82828522,1577,1576,1556,1554,0,0,0,0,0,0,0,0,0,0
1684144255.89962196,82928482,1576,1576,1556,1554,0,0,0,0,0,0,0,0,0,0
1684144255.99958181,83028442,1576,1576,1555,1554,0,0,0,0,0,0,0,0,0,0
1684144256.09954190,83128402,1575,1576,1553,1553,0,0,0,0,0,0,0,0,0,0
1684144256.19950199,83228362,1575,1577,1552,1552,0,0,0,0,0,0,0,0,0,0
1684144256.29946184,83328322,1575,1577,1551,1551,0,0,0,0,0,0,0,0,0,0
1684144256.39942193,83428282,1577,1578,1550,1550,0,0,0,0,0,0,0,0,0,0
1684144256.49938202,83528242,1578,1579,1548,1548,0,0,0,0,0,0,0,0,0,0
1684144256.59934187,83628202,1580,1581,1546,1546,0,0,0,0,0,0,0,0,0,0
1684144256.69930196,83728162,1581,1582,1543,1543,0,0,0,0,0,0,0,0,0,0
1684144256.80009484,83828955,1584,1585,1542,1541,0,0,0,0,0,0,0,0,0,0
1684144256.90005493,83928915,1587,1587,1541,1540,0,0,0,0,0,0,0,0,0,0
1684144257.00001502,84028875,1588,1588,1538,1538,0,0,0,0,0,0,0,0,0,0
1684144257.09997487,84128835,1590,1590,1538,1539,0,0,0,0,0,0,0,0,0,0
1684144257.19993496,84228795,1591,1590,1538,1540,0,0,0,0,0,0,0,0,0,0
1684144257.29989481,84328755,1591,1590,1540,1543,0,0,0,0,0,0,0,0,0,0
1684144257.39985490,84428715,1589,1589,1541,1544,0,0,0,0,0,0,0,0,0,0
1684144257.49981499,84528675,1587,1586,1545,1548,0,0,0,0,0,0,0,0,0,0
1684144257.59977484,84628635,1584,1582,1551,1554,0,0,0,0,0,0,0,0,0,0
1684144257.69973493,84728595,1579,1576,1559,1561,0,0,0,0,0,0,0,0,0,0
1684144257.79969501,84828555,1572,1568,1568,1571,0,0,0,0,0,0,0,0,0,0
1684144257.89965487,84928515,1564,1560,1581,1582,0,0,0,0,0,0,0,0,0,0
1684144257.99961495,85028475,1553,1551,1591,1592,0,0,0,0,0,0,0,0,0,0
1684144258.09957480,85128435,1545,1543,1601,1601,0,0,0,0,0,0,0,0,0,0
1684144258.19953489,85228395,1537,1537,1607,1607,0,0,0,0,0,0,0,0,0,0
1684144258.29949498,85328355,1533,1534,1612,1611,0,0,0,0,0,0,0,0,0,0
1684144258.39945483,85428315,1532,1533,1612,1612,0,0,0,0,0,0,0,0,0,0
1684144258.49941492,85528275,1532,1535,1609,1609,0,0,0,0,0,0,0,0,0,0
1684144258.59937501,85628235,1537,1540,1605,1605,0,0,0,0,0,0,0,0,0,0
1684144258.69933486,85728195,1543,1545,1598,1598,0,0,0,0,0,0,0,0,0,0
1684144258.79929495,85828155,1552,1553,1592,1592,0,0,0,0,0,0,0,0,0,0
1684144258.90008783,85928948,1561,1561,1587,1586,0,0,0,0,0,0,0,0,0,0
1684144259.00004792,86028908,1569,1568,1580,1579,0,0,0,0,0,0,0,0,0,0
1684144259.10000801,86128868,1575,1574,1573,1572,0,0,0,0,0,0,0,0,0,0
1684144259.19996786,86228828,1581,1580,1569,1569,0,0,0,0,0,0,0,0,0,0
1684144259.29992795,86328788,1585,1583,1566,1566,0,0,0,0,0,0,0,0,0,0
1684144259.39988780,86428748,1588,1586,1565,1565,0,0,0,0,0,0,0,0,0,0
1684144259.49984789,86528708,1588,1587,1565,1566,0,0,0,0,0,0,0,0,0,0
1684144259.59980798,86628668,1587,1586,1566,1566,0,0,0,0,0,0,0,0,0,0
1684144259.69976783,86728628,1586,1585,1568,1568,0,0,0,0,0,0,0,0,0,0
1684144259.79972792,86828588,1584,1584,1572,1573,0,0,0,0,0,0,0,0,0,0
1684144259.89968801,86928548,1582,1582,1575,1575,0,0,0,0,0,0,0,0,0,0
1684144259.99964786,87028508,1579,1579,1578,1578,0,0,0,0,0,0,0,0,0,0
1684144260.09960794,87128468,1578,1578,1581,1581,0,0,0,0,0,0,0,0,0,0
1684144260.19956779,87228428,1575,1576,1583,1582,0,0,0,0,0,0,0,0,0,0
1684144260.29952788,87328388,1574,1574,1584,1583,0,0,0,0,0,0,0,0,0,0
1684144260.39948797,87428348,1574,1575,1585,1585,0,0,0,0,0,0,0,0,0,0
1684144260.49944782,87528308,1573,1574,1584,1585,0,0,0,0,0,0,0,0,0,0
1684144260.59940791,87628268,1573,1575,1584,1584,0,0,0,0,0,0,0,0,0,0
1684144260.69936800,87728228,1575,1576,1584,1584,0,0,0,0,0,0,0,0,0,0
1684144260.79932785,87828188,1575,1575,1581,1581,0,0,0,0,0,0,0,0,0,0
1684144260.90012097,87928981,1577,1577,1581,1580,0,0,0,0,0,0,0,0,0,0
1684144261.00008082,88028941,1578,1578,1579,1579,0,0,0,0,0,0,0,0,0,0
1684144261.10004091,88128901,1580,1580,1579,1580,0,0,0,0,0,0,0,0,0,0
1684144261.20000100,88228861,1581,1581,1578,1579,0,0,0,0,0,0,0,0,0,0
1684144261.29996085,88328821,1581,1581,1577,1577,0,0,0,0,0,0,0,0,0,0
1684144261.39992094,88428781,1583,1582,1578,1578,0,0,0,0,0,0,0,0,0,0
1684144261.49988079,88528741,1582,1583,1578,1578,0,0,0,0,0,0,0,0,0,0
1684144261.59984088,88628701,1583,1583,1578,1578,0,0,0,0,0,0,0,0,0,0
1684144261.69980097,88728661,1582,1582,1579,1579,0,0,0,0,0,0,0,0,0,0
1684144261.79976082,88828621,1582,1582,1579,1579,0,0,0,0,0,0,0,0,0,0
1684144261.89972091,88928581,1581,1581,1579,1579,0,0,0,0,0,0,0,0,0,0
1684144261.99968100,89028541,1580,1580,1579,1579,0,0,0,0,0,0,0,0,0,0
1684144262.09964085,89128501,1581,1581,1580,1581,0,0,0,0,0,0,0,0,0,0
1684144262.19960093,89228461,1580,1580,1580,1580,0,0,0,0,0,0,0,0,0,0
1684144262.29956102,89328421,1580,1579,1581,1581,0,0,0,0,0,0,0,0,0,0
1684144262.39952087,89428381,1580,1580,1581,1581,0,0,0,0,0,0,0,0,0,0
1684144262.49948096,89528341,1579,1579,1581,1581,0,0,0,0,0,0,0,0,0,0
1684144262.59944081,89628301,1579,1580,1581,1581,0,0,0,0,0,0,0,0,0,0
1684144262.69940090,89728261,1580,1579,1581,1581,0,0,0,0,0,0,0,0,0,0
1684144262.79936099,89828221,1580,1580,1581,1581,0,0,0,0,0,0,0,0,0,0
1684144262.89932084,89928181,1581,1581,1583,1580,0,0,0,0,0,0,0,0,0,0
1684144263.00011396,90028974,1581,1581,1589,1574,0,0,0,0,0,0,0,0,0,0
1684144263.10007381,90128934,1580,1580,1584,1574,0,0,0,0,0,0,0,0,0,0
1684144263.20003390,90228894,1578,1578,1576,1575,0,0,0,0,0,0,0,0,0,0
1684144263.29999399,90328854,1575,1574,1569,1574,0,0,0,0,0,0,0,0,0,0
1684144263.39995384,90428814,1572,1572,1565,1573,0,0,0,0,0,0,0,0,0,0
1684144263.49991393,90528774,1570,1570,1564,1571,0,0,0,0,0,0,0,0,0,0
1684144263.59987402,90628734,1568,1569,1565,1567,0,0,0,0,0,0,0,0,0,0
1684144263.69983387,90728694,1567,1568,1566,1566,0,0,0,0,0,0,0,0,0,0
1684144263.79979396,90828654,1566,1567,1568,1565,0,0,0,0,0,0,0,0,0,0
1684144263.89975381,90928614,1566,1566,1568,1565,0,0,0,0,0,0,0,0,0,0
1684144263.99971390,91028574,1565,1565,1567,1565,0,0,0,0,0,0,0,0,0,0
1684144264.09967399,91128534,1564,1564,1566,1565,0,0,0,0,0,0,0,0,0,0
1684144264.19963384,91228494,1563,1563,1565,1564,0,0,0,0,0,0,0,0,0,0
1684144264.29959393,91328454,1562,1562,1563,1564,0,0,0,0,0,0,0,0,0,0
1684144264.39955401,91428414,1561,1561,1563,1563,0,0,0,0,0,0,0,0,0,0
1684144264.49951386,91528374,1561,1561,1562,1562,0,0,0,0,0,0,0,0,0,0
1684144264.59947395,91628334,1560,1560,1562,1561,0,0,0,0,0,0,0,0,0,0
1684144264.69943380,91728294,1560,1560,1561,1561,0,0,0,0,0,0,0,0,0,0
1684144264.79939389,91828254,1560,1560,1560,1560,0,0,0,0,0,0,0,0,0,0
1684144264.89935398,91928214,1560,1560,1560,1559,0,0,0,0,0,0,0,0,0,0
1684144264.99931383,92028174,1559,1559,1559,1558,0,0,0,0,0,0,0,0,0,0
1684144265.10010695,92128967,1559,1559,1559,1558,0,0,0,0,0,0,0,0,0,0
1684144265.20006680,92228927,1559,1559,1559,1558,0,0,0,0,0,0,0,0,0,0
1684144265.30002689,92328887,1559,1559,1559,1559,0,0,0,0,0,0,0,0,0,0
1684144265.39998698,92428847,1558,1558,1558,1557,0,0,0,0,0,0,0,0,0,0
1684144265.49994683,92528807,1557,1556,1557,1555,0,0,0,0,0,0,0,0,0,0
1684144265.59990692,92628767,1555,1555,1556,1552,0,0,0,0,0,0,0,0,0,0
1684144265.69986701,92728727,1555,1554,1555,1553,0,0,0,0,0,0,0,0,0,0
1684144265.79982686,92828687,1553,1552,1551,1553,0,0,0,0,0,0,0,0,0,0
1684144265.89978695,92928647,1550,1551,1547,1552,0,0,0,0,0,0,0,0,0,0
1684144265.99974680,93028607,1546,1547,1542,1548,0,0,0,0,0,0,0,0,0,0
1684144266.09970689,93128567,1541,1541,1536,1542,0,0,0,0,0,0,0,0,0,0
1684144266.19966698,93228527,1535,1535,1531,1533,0,0,0,0,0,0,0,0,0,0
1684144266.29962683,93328487,1528,1528,1524,1525,0,0,0,0,0,0,0,0,0,0
1684144266.39958692,93428447,1524,1524,1521,1520,0,0,0,0,0,0,0,0,0,0
1684144266.49954700,93528407,1522,1522,1520,1520,0,0,0,0,0,0,0,0,0,0
1684144266.59950686,93628367,1521,1521,1522,1521,0,0,0,0,0,0,0,0,0,0
1684144266.69946694,93728327,1522,1521,1523,1524,0,0,0,0,0,0,0,0,0,0
1684144266.79942679,93828287,1524,1524,1528,1528,0,0,0,0,0,0,0,0,0,0
1684144266.89938688,93928247,1528,1527,1532,1534,0,0,0,0,0,0,0,0,0,0
1684144266.99934697,94028207,1532,1532,1538,1539,0,0,0,0,0,0,0,0,0,0
1684144267.09930682,94128167,1535,1535,1541,1542,0,0,0,0,0,0,0,0,0,0
1684144267.20009995,94228960,1539,1539,1544,1545,0,0,0,0,0,0,0,0,0,0
1684144267.30005980,94328920,1541,1541,1545,1545,0,0,0,0,0,0,0,0,0,0
1684144267.40001988,94428880,1544,1544,1546,1546,0,0,0,0,0,0,0,0,0,0
1684144267.49997997,94528840,1545,1545,1545,1545,0,0,0,0,0,0,0,0,0,0
1684144267.59993982,94628800,1547,1547,1546,1545,0,0,0,0,0,0,0,0,0,0
1684144267.69989991,94728760,1547,1547,1545,1544,0,0,0,0,0,0,0,0,0,0
1684144267.79986000,94828720,1548,1549,1545,1545,0,0,0,0,0,0,0,0,0,0
1684144267.89981985,94928680,1549,1549,1545,1545,0,0,0,0,0,0,0,0,0,0
1684144267.99977994,95028640,1549,1549,1545,1545,0,0,0,0,0,0,0,0,0,0
1684144268.09973979,95128600,1549,1549,1545,1545,0,0,0,0,0,0,0,0,0,0
1684144268.19969988,95228560,1548,1548,1545,1546,0,0,0,0,0,0,0,0,0,0
1684144268.29965997,95328520,1547,1547,1544,1544,0,0,0,0,0,0,0,0,0,0
1684144268.39961982,95428480,1547,1547,1546,1545,0,0,0,0,0,0,0,0,0,0
1684144268.49957991,95528440,1546,1545,1545,1545,0,0,0,0,0,0,0,0,0,0
1684144268.59954000,95628400,1545,1545,1545,1545,0,0,0,0,0,0,0,0,0,0
1684144268.69949985,95728360,1544,1545,1545,1545,0,0,0,0,0,0,0,0,0,0
1684144268.79945993,95828320,1544,1544,1546,1545,0,0,0,0,0,0,0,0,0,0
1684144268.89942002,95928280,1544,1544,1545,1545,0,0,0,0,0,0,0,0,0,0
1684144268.99937987,96028240,1543,1543,1545,1544,0,0,0,0,0,0,0,0,0,0
1684144269.09933996,96128200,1544,1544,1546,1546,0,0,0,0,0,0,0,0,0,0
1684144269.19929981,96228160,1543,1543,1545,1545,0,0,0,0,0,0,0,0,0,0
1684144269.30009294,96328953,1544,1543,1545,1545,0,0,0,0,0,0,0,0,0,0
1684144269.40005302,96428913,1543,1544,1544,1544,0,0,0,0,0,0,0,0,0,0
1684144269.50001287,96528873,1544,1543,1544,1544,0,0,0,0,0,0,0,0,0,0
1684144269.59997296,96628833,1544,1543,1544,1544,0,0,0,0,0,0,0,0,0,0
1684144269.69993281,96728793,1545,1544,1545,1544,0,0,0,0,0,0,0,0,0,0
1684144269.79989290,96828753,1544,1545,1544,1544,0,0,0,0,0,0,0,0,0,0
1684144269.89985299,96928713,1544,1544,1544,1543,0,0,0,0,0,0,0,0,0,0
1684144269.99981284,97028673,1544,1545,1544,1544,0,0,0,0,0,0,0,0,0,0
1684144270.09977293,97128633,1544,1544,1543,1543,0,0,0,0,0,0,0,0,0,0
1684144270.19973302,97228593,1544,1544,1543,1543,0,0,0,0,0,0,0,0,0,0
1684144270.29969287,97328553,1544,1544,1543,1544,0,0,0,0,0,0,0,0,0,0
1684144270.39965296,97428513,1545,1545,1545,1545,0,0,0,0,0,0,0,0,0,0
1684144270.49961281,97528473,1545,1545,1544,1545,0,0,0,0,0,0,0,0,0,0
1684144270.59957290,97628433,1544,1544,1544,1544,0,0,0,0,0,0,0,0,0,0
1684144270.69953299,97728393,1545,1544,1545,1544,0,0,0,0,0,0,0,0,0,0
1684144270.79949284,97828353,1545,1545,1545,1545,0,0,0,0,0,0,0,0,0,0
1684144270.89945292,97928313,1545,1544,1545,1545,0,0,0,0,0,0,0,0,0,0
1684144270.99941301,98028273,1544,1545,1544,1545,0,0,0,0,0,0,0,0,0,0
1684144271.09937286,98128233,1545,1545,1545,1546,0,0,0,0,0,0,0,0,0,0
1684144271.19933295,98228193,1545,1545,1545,1545,0,0,0,0,0,0,0,0,0,0
1684144271.30012584,98328986,1545,1545,1545,1545,0,0,0,0,0,0,0,0,0,0
1684144271.40008593,98428946,1544,1544,1544,1544,0,0,0,0,0,0,0,0,0,0
1684144271.50004601,98528906,1545,1544,1544,1545,0,0,0,0,0,0,0,0,0,0
1684144271.60000587,98628866,1544,1544,1544,1544,0,0,0,0,0,0,0,0,0,0
1684144271.69996595,98728826,1544,1544,1544,1544,0,0,0,0,0,0,0,0,0,0
1684144271.79992580,98828786,1543,1544,1543,1543,0,0,0,0,0,0,0,0,0,0
1684144271.89988589,98928746,1544,1544,1544,1543,0,0,0,0,0,0,0,0,0,0
1684144271.99984598,99028706,1543,1544,1543,1544,0,0,0,0,0,0,0,0,0,0
1684144272.09980583,99128666,1544,1544,1543,1544,0,0,0,0,0,0,0,0,0,0
1684144272.19976592,99228626,1544,1544,1544,1544,0,0,0,0,0,0,0,0,0,0
1684144272.29972601,99328586,1544,1544,1544,1544,0,0,0,0,0,0,0,0,0,0
1684144272.39968586,99428546,1544,1544,1544,1544,0,0,0,0,0,0,0,0,0,0
1684144272.49964595,99528506,1544,1544,1544,1544,0,0,0,0,0,0,0,0,0,0
1684144272.59960580,99628466,1543,1544,1544,1544,0,0,0,0,0,0,0,0,0,0
1684144272.69956589,99728426,1544,1544,1544,1544,0,0,0,0,0,0,0,0,0,0
1684144272.79952598,99828386,1544,1544,1544,1544,0,0,0,0,0,0,0,0,0,0
1684144272.89948583,99928346,1544,1544,1544,1544,0,0,0,0,0,0,0,0,0,0
1684144272.99944592,100028306,1544,1544,1544,1544,0,0,0,0,0,0,0,0,0,0
1684144273.09940600,100128266,1544,1544,1545,1544,0,0,0,0,0,0,0,0,0,0
1684144273.19936585,100228226,1544,1545,1544,1544,0,0,0,0,0,0,0,0,0,0
1684144273.29932594,100328186,1544,1545,1544,1544,0,0,0,0,0,0,0,0,0,0
1684144273.40011883,100428979,1544,1544,1544,1544,0,0,0,0,0,0,0,0,0,0
1684144273.50007892,100528939,1545,1544,1544,1544,0,0,0,0,0,0,0,0,0,0
1684144273.60003901,100628899,1544,1544,1544,1545,0,0,0,0,0,0,0,0,0,0
1684144273.69999886,100728859,1545,1544,1544,1545,0,0,0,0,0,0,0,0,0,0
1684144273.79995894,100828819,1545,1545,1545,1545,0,0,0,0,0,0,0,0,0,0
1684144273.89991879,100928779,1545,1545,1545,1545,0,0,0,0,0,0,0,0,0,0
1684144273.99987888,101028739,1545,1545,1545,1545,0,0,0,0,0,0,0,0,0,0
1684144274.09983897,101128699,1545,1545,1545,1545,0,0,0,0,0,0,0,0,0,0
1684144274.19979882,101228659,1545,1545,1545,1545,0,0,0,0,0,0,0,0,0,0
1684144274.29975891,101328619,1545,1545,1545,1545,0,0,0,0,0,0,0,0,0,0
1684144274.39971900,101428579,1544,1544,1544,1544,0,0,0,0,0,0,0,0,0,0
1684144274.49967885,101528539,1544,1544,1544,1544,0,0,0,0,0,0,0,0,0,0
1684144274.59963894,101628499,1544,1544,1544,1543,0,0,0,0,0,0,0,0,0,0
1684144274.69959879,101728459,1544,1544,1544,1544,0,0,0,0,0,0,0,0,0,0
1684144274.79955888,101828419,1545,1545,1545,1545,0,0,0,0,0,0,0,0,0,0
1684144274.89951897,101928379,1544,1544,1545,1545,0,0,0,0,0,0,0,0,0,0
1684144274.99947882,102028339,1544,1544,1544,1545,0,0,0,0,0,0,0,0,0,0
1684144275.09943891,102128299,1545,1544,1545,1545,0,0,0,0,0,0,0,0,0,0
1684144275.19939899,102228259,1544,1544,1545,1544,0,0,0,0,0,0,0,0,0,0
1684144275.29935884,102328219,1544,1544,1544,1544,0,0,0,0,0,0,0,0,0,0
1684144275.39931893,102428179,1544,1544,1544,1544,0,0,0,0,0,0,0,0,0,0
1684144275.50011182,102528972,1544,1544,1544,1544,0,0,0,0,0,0,0,0,0,0
1684144275.60007191,102628932,1544,1544,1544,1544,0,0,0,0,0,0,0,0,0,0
1684144275.70003200,102728892,1544,1544,1544,1544,0,0,0,0,0,0,0,0,0,0
1684144275.79999185,102828852,1544,1544,1545,1544,0,0,0,0,0,0,0,0,0,0
1684144275.89995193,102928812,1544,1544,1545,1544,0,0,0,0,0,0,0,0,0,0
1684144275.99991202,103028772,1544,1545,1545,1544,0,0,0,0,0,0,0,0,0,0
1684144276.09987187,103128732,1454,1454,1423,1422,0,0,0,0,0,0,0,0,0,0
1684144276.19983196,103228692,1358,1360,1281,1282,0,0,0,0,0,0,0,0,0,0
1684144276.29979181,103328652,1326,1326,1227,1229,0,0,0,0,0,0,0,0,0,0
1684144276.39975190,103428612,1314,1315,1208,1207,0,0,0,0,0,0,0,0,0,0
1684144276.49971199,103528572,1295,1294,1171,1171,0,0,0,0,0,0,0,0,0,0
1684144276.59967184,103628532,1269,1269,1151,1150,0,0,0,0,0,0,0,0,0,0
1684144276.69963193,103728492,1141,1140,1150,1150,0,0,0,0,0,0,0,0,0,0
1684144276.79959202,103828452,1075,1075,1150,1150,0,0,0,0,0,0,0,0,0,0
1684144276.89955187,103928412,1076,1075,1150,1150,0,0,0,0,0,0,0,0,0,0
1684144276.99951196,104028372,1075,1075,1150,1150,0,0,0,0,0,0,0,0,0,0
1684144277.09947181,104128332,1075,1061,1150,1170,0,0,0,0,0,0,0,0,0,0
1684144277.19943190,104228292,1075,1066,1150,1163,0,0,0,0,0,0,0,0,0,0
1684144277.29939198,104328252,1075,1069,1150,1159,0,0,0,0,0,0,0,0,0,0
1684144277.39935184,104428212,1075,1069,1150,1158,0,0,0,0,0,0,0,0,0,0
1684144277.49931192,104528172,1075,1069,1150,1158,0,0,0,0,0,0,0,0,0,0
1684144277.60010481,104628965,1075,1069,1150,1158,0,0,0,0,0,0,0,0,0,0
1684144277.70006490,104728925,1075,1068,1150,1159,0,0,0,0,0,0,0,0,0,0
1684144277.80002499,104828885,1075,1068,1150,1159,0,0,0,0,0,0,0,0,0,0
1684144277.89998484,104928845,1075,1075,1150,1150,0,0,0,0,0,0,0,0,0,0
1684144277.99994493,105028805,1075,1074,1150,1151,0,0,0,0,0,0,0,0,0,0
1684144278.09990501,105128765,1076,1074,1150,1151,0,0,0,0,0,0,0,0,0,0
1684144278.19986486,105228725,1075,1074,1150,1151,0,0,0,0,0,0,0,0,0,0
1684144278.29982495,105328685,1075,1074,1150,1152,0,0,0,0,0,0,0,0,0,0
1684144278.39978480,105428645,1000,1000,1000,1000,0,0,0,0,0,0,0,0,0,0
1684144278.49974489,105528605,1000,1000,1000,1000,0,0,0,0,0,0,0,0,0,0
1684144278.59970498,105628565,1000,1000,1000,1000,0,0,0,0,0,0,0,0,0,0
1684144278.69966483,105728525,1000,1000,1000,1000,0,0,0,0,0,0,0,0,0,0
1684144278.79962492,105828485,1000,1000,1000,1000,0,0,0,0,0,0,0,0,0,0
1684144278.89958501,105928445,1000,1000,1000,1000,0,0,0,0,0,0,0,0,0,0
1684144278.99954486,106028405,1000,1000,1000,1000,0,0,0,0,0,0,0,0,0,0
1684144279.09950495,106128365,1000,1000,1000,1000,0,0,0,0,0,0,0,0,0,0
1684144279.19946480,106228325,1000,1000,1000,1000,0,0,0,0,0,0,0,0,0,0
1684144279.29942489,106328285,1000,1000,1000,1000,0,0,0,0,0,0,0,0,0,0
1684144279.39938498,106428245,1000,1000,1000,1000,0,0,0,0,0,0,0,0,0,0
1684144279.49934483,106528205,1000,1000,1000,1000,0,0,0,0,0,0,0,0,0,0
1684144279.59930491,106628165,1000,1000,1000,1000,0,0,0,0,0,0,0,0,0,0
1684144279.70009780,106728958,1000,1000,1000,1000,0,0,0,0,0,0,0,0,0,0
1684144279.80005789,106828918,1000,1000,1000,1000,0,0,0,0,0,0,0,0,0,0
1684144279.90001798,106928878,1000,1000,1000,1000,0,0,0,0,0,0,0,0,0,0
1684144279.99997783,107028838,1000,1000,1000,1000,0,0,0,0,0,0,0,0,0,0
1684144280.09993792,107128798,1000,1000,1000,1000,0,0,0,0,0,0,0,0,0,0
1684144280.19989800,107228758,1000,1000,1000,1000,0,0,0,0,0,0,0,0,0,0
1684144280.29985785,107328718,1000,1000,1000,1000,0,0,0,0,0,0,0,0,0,0
1684144280.39981794,107428678,1000,1000,1000,1000,0,0,0,0,0,0,0,0,0,0
1684144280.49977779,107528638,1000,1000,1000,1000,0,0,0,0,0,0,0,0,0,0
1684144280.59973788,107628598,1000,1000,1000,1000,0,0,0,0,0,0,0,0,0,0
1684144280.69969797,107728558,1000,1000,1000,1000,0,0,0,0,0,0,0,0,0,0
1684144280.79965782,107828518,1000,1000,1000,1000,0,0,0,0,0,0,0,0,0,0
1684144280.89961791,107928478,1000,1000,1000,1000,0,0,0,0,0,0,0,0,0,0
1684144280.99957800,108028438,1000,1000,1000,1000,0,0,0,0,0,0,0,0,0,0
1684144281.09953785,108128398,1000,1000,1000,1000,0,0,0,0,0,0,0,0,0,0
1684144281.19949794,108228358,1000,1000,1000,1000,0,0,0,0,0,0,0,0,0,0
1684144281.29945803,108328318,1000,1000,1000,1000,0,0,0,0,0,0,0,0,0,0
1684144281.39941788,108428278,1000,1000,1000,1000,0,0,0,0,0,0,0,0,0,0
1684144281.49937797,108528238,1000,1000,1000,1000,0,0,0,0,0,0,0,0,0,0
1684144281.59933782,108628198,1000,1000,1000,1000,0,0,0,0,0,0,0,0,0,0
1684144281.69929790,108728158,1000,1000,1000,1000,0,0,0,0,0,0,0,0,0,0
1684144281.80009079,108828951,1000,1000,1000,1000,0,0,0,0,0,0,0,0,0,0
1684144281.90005088,108928911,1000,1000,1000,1000,0,0,0,0,0,0,0,0,0,0
1684144282.00001097,109028871,1000,1000,1000,1000,0,0,0,0,0,0,0,0,0,0
1684144282.09997082,109128831,1000,1000,1000,1000,0,0,0,0,0,0,0,0,0,0
1684144282.19993091,109228791,1000,1000,1000,1000,0,0,0,0,0,0,0,0,0,0
1684144282.29989100,109328751,1000,1000,1000,1000,0,0,0,0,0,0,0,0,0,0
1684144282.39985085,109428711,1000,1000,1000,1000,0,0,0,0,0,0,0,0,0,0
1684144282.49981093,109528671,1000,1000,1000,1000,0,0,0,0,0,0,0,0,0,0
1684144282.59977102,109628631,1000,1000,1000,1000,0,0,0,0,0,0,0,0,0,0
1684144282.69973087,109728591,1000,1000,1000,1000,0,0,0,0,0,0,0,0,0,0
1684144282.79969096,109828551,1000,1000,1000,1000,0,0,0,0,0,0,0,0,0,0
1684144282.89965081,109928511,1000,1000,1000,1000,0,0,0,0,0,0,0,0,0,0
1684144282.99961090,110028471,1000,1000,1000,1000,0,0,0,0,0,0,0,0,0,0
1684144283.09957099,110128431,1000,1000,1000,1000,0,0,0,0,0,0,0,0,0,0
1684144283.19953084,110228391,1000,1000,1000,1000,0,0,0,0,0,0,0,0,0,0
1684144283.29949093,110328351,1000,1000,1000,1000,0,0,0,0,0,0,0,0,0,0
1684144283.39945102,110428311,1000,1000,1000,1000,0,0,0,0,0,0,0,0,0,0
1684144283.49941087,110528271,1000,1000,1000,1000,0,0,0,0,0,0,0,0,0,0
1684144283.59937096,110628231,1000,1000,1000,1000,0,0,0,0,0,0,0,0,0,0
1684144283.69933081,110728191,1000,1000,1000,1000,0,0,0,0,0,0,0,0,0,0
1684144283.80012393,110828984,1000,1000,1000,1000,0,0,0,0,0,0,0,0,0,0
1684144283.90008402,110928944,1000,1000,1000,1000,0,0,0,0,0,0,0,0,0,0
1684144284.00004387,111028904,1000,1000,1000,1000,0,0,0,0,0,0,0,0,0,0
1684144284.10000396,111128864,1000,1000,1000,1000,0,0,0,0,0,0,0,0,0,0
1684144284.19996381,111228824,1000,1000,1000,1000,0,0,0,0,0,0,0,0,0,0
1684144284.29992390,111328784,1000,1000,1000,1000,0,0,0,0,0,0,0,0,0,0
1684144284.39988399,111428744,1000,1000,1000,1000,0,0,0,0,0,0,0,0,0,0
1684144284.49984384,111528704,1000,1000,1000,1000,0,0,0,0,0,0,0,0,0,0
1684144284.59980392,111628664,1000,1000,1000,1000,0,0,0,0,0,0,0,0,0,0
1684144284.69976401,111728624,1000,1000,1000,1000,0,0,0,0,0,0,0,0,0,0
1684144284.79972386,111828584,1000,1000,1000,1000,0,0,0,0,0,0,0,0,0,0
1684144284.89968395,111928544,1000,1000,1000,1000,0,0,0,0,0,0,0,0,0,0
1684144284.99964380,112028504,1000,1000,1000,1000,0,0,0,0,0,0,0,0,0,0
1684144285.09960389,112128464,1000,1000,1000,1000,0,0,0,0,0,0,0,0,0,0
1684144285.19956398,112228424,1000,1000,1000,1000,0,0,0,0,0,0,0,0,0,0
1684144285.29952383,112328384,1000,1000,1000,1000,0,0,0,0,0,0,0,0,0,0
1684144285.39948392,112428344,1000,1000,1000,1000,0,0,0,0,0,0,0,0,0,0
1684144285.49944401,112528304,1000,1000,1000,1000,0,0,0,0,0,0,0,0,0,0
1684144285.59940386,112628264,1000,1000,1000,1000,0,0,0,0,0,0,0,0,0,0
1684144285.69936395,112728224,1000,1000,1000,1000,0,0,0,0,0,0,0,0,0,0
1684144285.79932380,112828184,1000,1000,1000,1000,0,0,0,0,0,0,0,0,0,0
1684144285.90011692,112928977,1000,1000,1000,1000,0,0,0,0,0,0,0,0,0,0
1684144286.00007701,113028937,1000,1000,1000,1000,0,0,0,0,0,0,0,0,0,0
1684144286.10003686,113128897,1000,1000,1000,1000,0,0,0,0,0,0,0,0,0,0
1684144286.19999695,113228857,1000,1000,1000,1000,0,0,0,0,0,0,0,0,0,0
1684144286.29995680,113328817,1000,1000,1000,1000,0,0,0,0,0,0,0,0,0,0
1684144286.39991689,113428777,1000,1000,1000,1000,0,0,0,0,0,0,0,0,0,0
1684144286.49987698,113528737,1000,1000,1000,1000,0,0,0,0,0,0,0,0,0,0
1684144286.59983683,113628697,1000,1000,1000,1000,0,0,0,0,0,0,0,0,0,0
1684144286.69979692,113728657,1000,1000,1000,1000,0,0,0,0,0,0,0,0,0,0
1684144286.79975700,113828617,1000,1000,1000,1000,0,0,0,0,0,0,0,0,0,0
1684144286.89971685,113928577,1000,1000,1000,1000,0,0,0,0,0,0,0,0,0,0
1684144286.99967694,114028537,1000,1000,1000,1000,0,0,0,0,0,0,0,0,0,0
1684144287.09963679,114128497,1000,1000,1000,1000,0,0,0,0,0,0,0,0,0,0
1684144287.19959688,114228457,1000,1000,1000,1000,0,0,0,0,0,0,0,0,0,0
