timestamp,TimeUS,C1,C2,C3,C4,C5,C6,C7,C8,C9,C10,C11,C12,C13,C14
1683193770.79999995,66228498,1000,1000,1000,1000,0,0,0,0,0,0,0,0,0,0
1683193770.89996004,66328458,1000,1000,1000,1000,0,0,0,0,0,0,0,0,0,0
1683193770.99991989,66428418,1000,1000,1000,1000,0,0,0,0,0,0,0,0,0,0
1683193771.09987998,66528378,1000,1000,1000,1000,0,0,0,0,0,0,0,0,0,0
1683193771.19984007,66628338,1000,1000,1000,1000,0,0,0,0,0,0,0,0,0,0
1683193771.29979992,66728298,1000,1000,1000,1000,0,0,0,0,0,0,0,0,0,0
1683193771.39976001,66828258,1000,1000,1000,1000,0,0,0,0,0,0,0,0,0,0
1683193771.49971986,66928218,1000,1000,1000,1000,0,0,0,0,0,0,0,0,0,0
1683193771.59967995,67028178,1000,1000,1000,1000,0,0,0,0,0,0,0,0,0,0
1683193771.70047307,67128971,1000,1000,1000,1000,0,0,0,0,0,0,0,0,0,0
1683193771.80043292,67228931,1000,1000,1000,1000,0,0,0,0,0,0,0,0,0,0
1683193771.90039301,67328891,1000,1000,1000,1000,0,0,0,0,0,0,0,0,0,0
1683193772.00035286,67428851,1000,1000,1000,1000,0,0,0,0,0,0,0,0,0,0
1683193772.10031295,67528811,1000,1000,1000,1000,0,0,0,0,0,0,0,0,0,0
1683193772.20027304,67628771,1000,1000,1000,1000,0,0,0,0,0,0,0,0,0,0
1683193772.30023289,67728731,1000,1000,1000,1000,0,0,0,0,0,0,0,0,0,0
1683193772.40019298,67828691,1000,1000,1000,1000,0,0,0,0,0,0,0,0,0,0
1683193772.50015306,67928651,1000,1000,1000,1000,0,0,0,0,0,0,0,0,0,0
1683193772.60011292,68028611,1000,1000,1000,1000,0,0,0,0,0,0,0,0,0,0
1683193772.70007300,68128571,1000,1000,1000,1000,0,0,0,0,0,0,0,0,0,0
1683193772.80003285,68228531,1015,1015,1015,1015,0,0,0,0,0,0,0,0,0,0
1683193772.89999294,68328491,1045,1045,1045,1045,0,0,0,0,0,0,0,0,0,0
1683193772.99995303,68428451,1075,1075,1075,1075,0,0,0,0,0,0,0,0,0,0
1683193773.09991288,68528411,1105,1105,1105,1105,0,0,0,0,0,0,0,0,0,0
1683193773.19987297,68628371,1135,1135,1135,1135,0,0,0,0,0,0,0,0,0,0
1683193773.29983306,68728331,1295,1286,1287,1295,0,0,0,0,0,0,0,0,0,0
1683193773.39979291,68828291,1500,1493,1494,1500,0,0,0,0,0,0,0,0,0,0
1683193773.49975300,68928251,1660,1654,1654,1660,0,0,0,0,0,0,0,0,0,0
1683193773.59971309,69028211,1796,1790,1791,1796,0,0,0,0,0,0,0,0,0,0
1683193773.69967294,69128171,1864,1858,1858,1864,0,0,0,0,0,0,0,0,0,0
1683193773.80046606,69228964,1857,1853,1854,1857,0,0,0,0,0,0,0,0,0,0
1683193773.90042591,69328924,1730,1729,1729,1730,0,0,0,0,0,0,0,0,0,0
1683193774.00038600,69428884,1633,1635,1635,1633,0,0,0,0,0,0,0,0,0,0
1683193774.10034609,69528844,1608,1610,1611,1608,0,0,0,0,0,0,0,0,0,0
1683193774.20030594,69628804,1619,1622,1622,1620,0,0,0,0,0,0,0,0,0,0
1683193774.30026603,69728764,1632,1634,1634,1632,0,0,0,0,0,0,0,0,0,0
1683193774.40022588,69828724,1635,1627,1628,1635,0,0,0,0,0,0,0,0,0,0
1683193774.50018597,69928684,1617,1617,1610,1623,0,0,0,0,0,0,0,0,0,0
1683193774.60014606,70028644,1608,1609,1603,1614,0,0,0,0,0,0,0,0,0,0
1683193774.70010591,70128604,1606,1606,1604,1608,0,0,0,0,0,0,0,0,0,0
1683193774.80006599,70228564,1609,1609,1610,1607,0,0,0,0,0,0,0,0,0,0
1683193774.90002608,70328524,1614,1613,1616,1610,0,0,0,0,0,0,0,0,0,0
1683193774.99998593,70428484,1618,1617,1621,1614,0,0,0,0,0,0,0,0,0,0
1683193775.09994602,70528444,1621,1621,1624,1618,0,0,0,0,0,0,0,0,0,0
1683193775.19990587,70628404,1607,1608,1612,1603,0,0,0,0,0,0,0,0,0,0
1683193775.29986596,70728364,1583,1583,1593,1573,0,0,0,0,0,0,0,0,0,0
1683193775.39982605,70828324,1570,1571,1575,1566,0,0,0,0,0,0,0,0,0,0
1683193775.49978590,70928284,1560,1559,1558,1562,0,0,0,0,0,0,0,0,0,0
1683193775.59974599,71028244,1550,1549,1540,1559,0,0,0,0,0,0,0,0,0,0
1683193775.69970608,71128204,1543,1542,1532,1553,0,0,0,0,0,0,0,0,0,0
1683193775.79966593,71228164,1536,1536,1528,1543,0,0,0,0,0,0,0,0,0,0
1683193775.90045905,71328957,1530,1530,1527,1532,0,0,0,0,0,0,0,0,0,0
1683193776.00041890,71428917,1527,1528,1528,1527,0,0,0,0,0,0,0,0,0,0
1683193776.10037899,71528877,1529,1529,1531,1526,0,0,0,0,0,0,0,0,0,0
1683193776.20033908,71628837,1531,1531,1535,1527,0,0,0,0,0,0,0,0,0,0
1683193776.30029893,71728797,1535,1534,1538,1531,0,0,0,0,0,0,0,0,0,0
1683193776.40025902,71828757,1538,1538,1541,1536,0,0,0,0,0,0,0,0,0,0
1683193776.50021887,71928717,1541,1542,1543,1540,0,0,0,0,0,0,0,0,0,0
1683193776.60017896,72028677,1544,1544,1544,1544,0,0,0,0,0,0,0,0,0,0
1683193776.70013905,72128637,1547,1547,1547,1548,0,0,0,0,0,0,0,0,0,0
1683193776.80009890,72228597,1550,1550,1549,1551,0,0,0,0,0,0,0,0,0,0
1683193776.90005898,72328557,1553,1553,1552,1554,0,0,0,0,0,0,0,0,0,0
1683193777.00001907,72428517,1555,1555,1554,1557,0,0,0,0,0,0,0,0,0,0
1683193777.09997892,72528477,1557,1556,1558,1560,0,0,0,0,0,0,0,0,0,0
1683193777.19993901,72628437,1557,1556,1560,1561,0,0,0,0,0,0,0,0,0,0
1683193777.29989886,72728397,1559,1559,1564,1564,0,0,0,0,0,0,0,0,0,0
1683193777.39985895,72828357,1560,1561,1565,1565,0,0,0,0,0,0,0,0,0,0
1683193777.49981904,72928317,1564,1563,1567,1567,0,0,0,0,0,0,0,0,0,0
1683193777.59977889,73028277,1565,1565,1568,1567,0,0,0,0,0,0,0,0,0,0
1683193777.69973898,73128237,1568,1568,1568,1568,0,0,0,0,0,0,0,0,0,0
1683193777.79969907,73228197,1569,1569,1568,1568,0,0,0,0,0,0,0,0,0,0
1683193777.89965892,73328157,1570,1570,1568,1568,0,0,0,0,0,0,0,0,0,0
1683193778.00045204,73428950,1571,1571,1568,1569,0,0,0,0,0,0,0,0,0,0
1683193778.10041189,73528910,1572,1572,1569,1570,0,0,0,0,0,0,0,0,0,0
1683193778.20037198,73628870,1574,1573,1570,1570,0,0,0,0,0,0,0,0,0,0
1683193778.30033207,73728830,1574,1574,1571,1571,0,0,0,0,0,0,0,0,0,0
1683193778.40029192,73828790,1575,1575,1573,1572,0,0,0,0,0,0,0,0,0,0
1683193778.50025201,73928750,1576,1576,1574,1573,0,0,0,0,0,0,0,0,0,0
1683193778.60021186,74028710,1576,1576,1576,1574,0,0,0,0,0,0,0,0,0,0
1683193778.70017195,74128670,1576,1577,1576,1575,0,0,0,0,0,0,0,0,0,0
1683193778.80013204,74228630,1576,1576,1576,1575,0,0,0,0,0,0,0,0,0,0
1683193778.90009189,74328590,1575,1575,1575,1576,0,0,0,0,0,0,0,0,0,0
1683193779.00005198,74428550,1576,1576,1577,1577,0,0,0,0,0,0,0,0,0,0
1683193779.10001206,74528510,1577,1576,1577,1577,0,0,0,0,0,0,0,0,0,0
1683193779.19997191,74628470,1576,1576,1577,1577,0,0,0,0,0,0,0,0,0,0
1683193779.29993200,74728430,1576,1576,1577,1577,0,0,0,0,0,0,0,0,0,0
1683193779.39989185,74828390,1577,1578,1578,1578,0,0,0,0,0,0,0,0,0,0
1683193779.49985194,74928350,1577,1578,1578,1578,0,0,0,0,0,0,0,0,0,0
1683193779.59981203,75028310,1578,1578,1579,1578,0,0,0,0,0,0,0,0,0,0
1683193779.69977188,75128270,1578,1578,1578,1578,0,0,0,0,0,0,0,0,0,0
1683193779.79973197,75228230,1578,1578,1578,1578,0,0,0,0,0,0,0,0,0,0
1683193779.89969206,75328190,1578,1578,1578,1578,0,0,0,0,0,0,0,0,0,0
1683193780.00048494,75428983,1578,1578,1578,1578,0,0,0,0,0,0,0,0,0,0
1683193780.10044503,75528943,1579,1578,1578,1578,0,0,0,0,0,0,0,0,0,0
1683193780.20040488,75628903,1579,1579,1579,1579,0,0,0,0,0,0,0,0,0,0
1683193780.30036497,75728863,1579,1579,1579,1579,0,0,0,0,0,0,0,0,0,0
1683193780.40032506,75828823,1579,1579,1578,1578,0,0,0,0,0,0,0,0,0,0
1683193780.50028491,75928783,1580,1579,1579,1579,0,0,0,0,0,0,0,0,0,0
1683193780.60024500,76028743,1579,1579,1579,1579,0,0,0,0,0,0,0,0,0,0
1683193780.70020509,76128703,1579,1579,1579,1580,0,0,0,0,0,0,0,0,0,0
1683193780.80016494,76228663,1578,1578,1578,1578,0,0,0,0,0,0,0,0,0,0
1683193780.90012503,76328623,1579,1578,1579,1579,0,0,0,0,0,0,0,0,0,0
1683193781.00008488,76428583,1578,1578,1578,1579,0,0,0,0,0,0,0,0,0,0
1683193781.10004497,76528543,1579,1579,1579,1579,0,0,0,0,0,0,0,0,0,0
1683193781.20000505,76628503,1579,1580,1580,1580,0,0,0,0,0,0,0,0,0,0
1683193781.29996490,76728463,1580,1580,1580,1580,0,0,0,0,0,0,0,0,0,0
1683193781.39992499,76828423,1580,1581,1581,1581,0,0,0,0,0,0,0,0,0,0
1683193781.49988508,76928383,1580,1581,1581,1581,0,0,0,0,0,0,0,0,0,0
1683193781.59984493,77028343,1580,1580,1580,1580,0,0,0,0,0,0,0,0,0,0
1683193781.69980502,77128303,1580,1580,1580,1580,0,0,0,0,0,0,0,0,0,0
1683193781.79976487,77228263,1579,1579,1579,1579,0,0,0,0,0,0,0,0,0,0
1683193781.89972496,77328223,1580,1580,1580,1580,0,0,0,0,0,0,0,0,0,0
1683193781.99968505,77428183,1580,1580,1581,1580,0,0,0,0,0,0,0,0,0,0
1683193782.10047793,77528976,1580,1580,1580,1580,0,0,0,0,0,0,0,0,0,0
1683193782.20043802,77628936,1581,1581,1581,1581,0,0,0,0,0,0,0,0,0,0
1683193782.30039787,77728896,1580,1580,1580,1580,0,0,0,0,0,0,0,0,0,0
1683193782.40035796,77828856,1580,1580,1581,1580,0,0,0,0,0,0,0,0,0,0
1683193782.50031805,77928816,1582,1581,1581,1582,0,0,0,0,0,0,0,0,0,0
1683193782.60027790,78028776,1580,1580,1580,1580,0,0,0,0,0,0,0,0,0,0
1683193782.70023799,78128736,1580,1580,1580,1581,0,0,0,0,0,0,0,0,0,0
1683193782.80019808,78228696,1580,1581,1581,1580,0,0,0,0,0,0,0,0,0,0
1683193782.90015793,78328656,1581,1582,1581,1581,0,0,0,0,0,0,0,0,0,0
1683193783.00011802,78428616,1581,1581,1581,1581,0,0,0,0,0,0,0,0,0,0
1683193783.10007787,78528576,1581,1581,1581,1581,0,0,0,0,0,0,0,0,0,0
1683193783.20003796,78628536,1581,1581,1587,1574,0,0,0,0,0,0,0,0,0,0
1683193783.29999804,78728496,1579,1582,1585,1572,0,0,0,0,0,0,0,0,0,0
1683193783.39995790,78828456,1579,1582,1578,1574,0,0,0,0,0,0,0,0,0,0
1683193783.49991798,78928416,1577,1579,1568,1571,0,0,0,0,0,0,0,0,0,0
1683193783.59987807,79028376,1577,1579,1561,1568,0,0,0,0,0,0,0,0,0,0
1683193783.69983792,79128336,1577,1578,1556,1563,0,0,0,0,0,0,0,0,0,0
1683193783.79979801,79228296,1579,1578,1555,1559,0,0,0,0,0,0,0,0,0,0
1683193783.89975786,79328256,1579,1578,1555,1556,0,0,0,0,0,0,0,0,0,0
1683193783.99971795,79428216,1579,1578,1556,1554,0,0,0,0,0,0,0,0,0,0
1683193784.09967804,79528176,1579,1578,1556,1554,0,0,0,0,0,0,0,0,0,0
1683193784.20047092,79628969,1578,1578,1556,1553,0,0,0,0,0,0,0,0,0,0
1683193784.30043101,79728929,1576,1577,1556,1554,0,0,0,0,0,0,0,0,0,0
1683193784.40039086,79828889,1576,1577,1555,1554,0,0,0,0,0,0,0,0,0,0
1683193784.50035095,79928849,1574,1576,1553,1553,0,0,0,0,0,0,0,0,0,0
1683193784.60031104,80028809,1574,1577,1551,1552,0,0,0,0,0,0,0,0,0,0
1683193784.70027089,80128769,1576,1577,1550,1550,0,0,0,0,0,0,0,0,0,0
1683193784.80023098,80228729,1579,1580,1549,1548,0,0,0,0,0,0,0,0,0,0
1683193784.90019107,80328689,1581,1581,1546,1545,0,0,0,0,0,0,0,0,0,0
1683193785.00015092,80428649,1584,1584,1544,1543,0,0,0,0,0,0,0,0,0,0
1683193785.10011101,80528609,1587,1587,1541,1540,0,0,0,0,0,0,0,0,0,0
1683193785.20007086,80628569,1589,1590,1537,1537,0,0,0,0,0,0,0,0,0,0
1683193785.30003095,80728529,1592,1592,1535,1535,0,0,0,0,0,0,0,0,0,0
1683193785.39999104,80828489,1594,1595,1535,1535,0,0,0,0,0,0,0,0,0,0
1683193785.49995089,80928449,1594,1594,1534,1536,0,0,0,0,0,0,0,0,0,0
1683193785.59991097,81028409,1594,1594,1536,1538,0,0,0,0,0,0,0,0,0,0
1683193785.69987106,81128369,1592,1591,1538,1541,0,0,0,0,0,0,0,0,0,0
1683193785.79983091,81228329,1589,1587,1544,1547,0,0,0,0,0,0,0,0,0,0
1683193785.89979100,81328289,1584,1581,1552,1555,0,0,0,0,0,0,0,0,0,0
1683193785.99975085,81428249,1576,1572,1562,1565,0,0,0,0,0,0,0,0,0,0
1683193786.09971094,81528209,1565,1562,1575,1576,0,0,0,0,0,0,0,0,0,0
1683193786.19967103,81628169,1555,1551,1587,1588,0,0,0,0,0,0,0,0,0,0
1683193786.30046391,81728962,1544,1541,1598,1598,0,0,0,0,0,0,0,0,0,0
1683193786.40042400,81828922,1535,1534,1607,1607,0,0,0,0,0,0,0,0,0,0
1683193786.50038385,81928882,1531,1532,1614,1613,0,0,0,0,0,0,0,0,0,0
1683193786.60034394,82028842,1529,1532,1616,1615,0,0,0,0,0,0,0,0,0,0
1683193786.70030403,82128802,1532,1534,1614,1613,0,0,0,0,0,0,0,0,0,0
1683193786.80026388,82228762,1537,1539,1610,1609,0,0,0,0,0,0,0,0,0,0
1683193786.90022397,82328722,1544,1546,1603,1603,0,0,0,0,0,0,0,0,0,0
1683193787.00018406,82428682,1553,1553,1595,1596,0,0,0,0,0,0,0,0,0,0
1683193787.10014391,82528642,1562,1562,1588,1588,0,0,0,0,0,0,0,0,0,0
1683193787.20010400,82628602,1570,1570,1582,1581,0,0,0,0,0,0,0,0,0,0
1683193787.30006409,82728562,1577,1576,1575,1574,0,0,0,0,0,0,0,0,0,0
1683193787.40002394,82828522,1583,1582,1571,1570,0,0,0,0,0,0,0,0,0,0
1683193787.49998403,82928482,1586,1585,1568,1567,0,0,0,0,0,0,0,0,0,0
1683193787.59994388,83028442,1588,1586,1566,1566,0,0,0,0,0,0,0,0,0,0
1683193787.69990396,83128402,1588,1587,1567,1567,0,0,0,0,0,0,0,0,0,0
1683193787.79986405,83228362,1585,1584,1567,1568,0,0,0,0,0,0,0,0,0,0
1683193787.89982390,83328322,1583,1582,1570,1571,0,0,0,0,0,0,0,0,0,0
1683193787.99978399,83428282,1580,1580,1573,1573,0,0,0,0,0,0,0,0,0,0
1683193788.09974408,83528242,1577,1578,1576,1576,0,0,0,0,0,0,0,0,0,0
1683193788.19970393,83628202,1388,1389,1610,1614,0,0,0,0,0,0,0,0,0,0
1683193788.29966402,83728162,1447,1452,1631,1635,0,0,0,0,0,0,0,0,0,0
1683193788.40045691,83828955,1493,1501,1626,1624,0,0,0,0,0,0,0,0,0,0
1683193788.50041699,83928915,1536,1543,1613,1607,0,0,0,0,0,0,0,0,0,0
1683193788.60037708,84028875,1571,1573,1602,1595,0,0,0,0,0,0,0,0,0,0
1683193788.70033693,84128835,1596,1593,1593,1589,0,0,0,0,0,0,0,0,0,0
1683193788.80029702,84228795,1613,1606,1586,1585,0,0,0,0,0,0,0,0,0,0
1683193788.90025687,84328755,1624,1615,1580,1583,0,0,0,0,0,0,0,0,0,0
1683193789.00021696,84428715,1639,1633,1560,1564,0,0,0,0,0,0,0,0,0,0
1683193789.10017705,84528675,1653,1650,1539,1545,0,0,0,0,0,0,0,0,0,0
1683193789.20013690,84628635,1658,1656,1530,1534,0,0,0,0,0,0,0,0,0,0
1683193789.30009699,84728595,1652,1653,1536,1540,0,0,0,0,0,0,0,0,0,0
1683193789.40005708,84828555,1642,1644,1545,1547,0,0,0,0,0,0,0,0,0,0
1683193789.50001693,84928515,1631,1635,1552,1552,0,0,0,0,0,0,0,0,0,0
1683193789.59997702,85028475,1621,1621,1562,1561,0,0,0,0,0,0,0,0,0,0
1683193789.69993687,85128435,1607,1604,1578,1576,0,0,0,0,0,0,0,0,0,0
1683193789.79989696,85228395,1588,1585,1594,1593,0,0,0,0,0,0,0,0,0,0
1683193789.89985704,85328355,1571,1569,1606,1605,0,0,0,0,0,0,0,0,0,0
1683193789.99981689,85428315,1561,1561,1610,1610,0,0,0,0,0,0,0,0,0,0
1683193790.09977698,85528275,1555,1557,1609,1609,0,0,0,0,0,0,0,0,0,0
1683193790.19973707,85628235,1554,1558,1606,1606,0,0,0,0,0,0,0,0,0,0
1683193790.29969692,85728195,1556,1560,1601,1600,0,0,0,0,0,0,0,0,0,0
1683193790.39965701,85828155,1560,1564,1598,1596,0,0,0,0,0,0,0,0,0,0
1683193790.50044990,85928948,1565,1567,1593,1591,0,0,0,0,0,0,0,0,0,0
1683193790.60040998,86028908,1570,1570,1589,1587,0,0,0,0,0,0,0,0,0,0
1683193790.70037007,86128868,1574,1573,1585,1583,0,0,0,0,0,0,0,0,0,0
1683193790.80032992,86228828,1578,1576,1581,1581,0,0,0,0,0,0,0,0,0,0
1683193790.90029001,86328788,1580,1579,1578,1577,0,0,0,0,0,0,0,0,0,0
1683193791.00024986,86428748,1583,1582,1576,1577,0,0,0,0,0,0,0,0,0,0
1683193791.10020995,86528708,1584,1584,1574,1575,0,0,0,0,0,0,0,0,0,0
1683193791.20017004,86628668,1587,1585,1580,1568,0,0,0,0,0,0,0,0,0,0
1683193791.30012989,86728628,1590,1585,1575,1564,0,0,0,0,0,0,0,0,0,0
1683193791.40008998,86828588,1591,1586,1563,1562,0,0,0,0,0,0,0,0,0,0
1683193791.50005007,86928548,1591,1588,1555,1560,0,0,0,0,0,0,0,0,0,0
1683193791.60000992,87028508,1588,1588,1550,1555,0,0,0,0,0,0,0,0,0,0
1683193791.69997001,87128468,1585,1589,1549,1552,0,0,0,0,0,0,0,0,0,0
1683193791.79992986,87228428,1582,1587,1551,1550,0,0,0,0,0,0,0,0,0,0
1683193791.89988995,87328388,1580,1584,1554,1551,0,0,0,0,0,0,0,0,0,0
1683193791.99985003,87428348,1578,1580,1557,1554,0,0,0,0,0,0,0,0,0,0
1683193792.09980989,87528308,1575,1575,1559,1556,0,0,0,0,0,0,0,0,0,0
1683193792.19976997,87628268,1573,1573,1559,1558,0,0,0,0,0,0,0,0,0,0
1683193792.29973006,87728228,1572,1572,1558,1558,0,0,0,0,0,0,0,0,0,0
1683193792.39968991,87828188,1572,1572,1556,1556,0,0,0,0,0,0,0,0,0,0
1683193792.50048304,87928981,1571,1572,1553,1553,0,0,0,0,0,0,0,0,0,0
1683193792.60044289,88028941,1572,1573,1551,1551,0,0,0,0,0,0,0,0,0,0
1683193792.70040298,88128901,1572,1573,1548,1547,0,0,0,0,0,0,0,0,0,0
1683193792.80036306,88228861,1574,1576,1546,1545,0,0,0,0,0,0,0,0,0,0
1683193792.90032291,88328821,1576,1578,1543,1542,0,0,0,0,0,0,0,0,0,0
1683193793.00028300,88428781,1579,1580,1540,1539,0,0,0,0,0,0,0,0,0,0
1683193793.10024285,88528741,1581,1582,1537,1537,0,0,0,0,0,0,0,0,0,0
1683193793.20020294,88628701,1585,1585,1536,1535,0,0,0,0,0,0,0,0,0,0
1683193793.30016303,88728661,1588,1588,1533,1533,0,0,0,0,0,0,0,0,0,0
1683193793.40012288,88828621,1591,1591,1530,1531,0,0,0,0,0,0,0,0,0,0
1683193793.50008297,88928581,1594,1593,1530,1532,0,0,0,0,0,0,0,0,0,0
1683193793.60004306,89028541,1593,1592,1531,1534,0,0,0,0,0,0,0,0,0,0
1683193793.70000291,89128501,1591,1590,1536,1539,0,0,0,0,0,0,0,0,0,0
1683193793.79996300,89228461,1587,1586,1543,1547,0,0,0,0,0,0,0,0,0,0
1683193793.89992309,89328421,1581,1580,1550,1554,0,0,0,0,0,0,0,0,0,0
1683193793.99988294,89428381,1574,1573,1556,1560,0,0,0,0,0,0,0,0,0,0
1683193794.09984303,89528341,1568,1566,1564,1568,0,0,0,0,0,0,0,0,0,0
1683193794.19980288,89628301,1561,1560,1570,1574,0,0,0,0,0,0,0,0,0,0
1683193794.29976296,89728261,1556,1555,1579,1581,0,0,0,0,0,0,0,0,0,0
1683193794.39972305,89828221,1551,1549,1586,1586,0,0,0,0,0,0,0,0,0,0
1683193794.49968290,89928181,1547,1545,1593,1591,0,0,0,0,0,0,0,0,0,0
1683193794.60047603,90028974,1542,1541,1597,1595,0,0,0,0,0,0,0,0,0,0
1683193794.70043588,90128934,1539,1539,1601,1600,0,0,0,0,0,0,0,0,0,0
1683193794.80039597,90228894,1537,1538,1603,1602,0,0,0,0,0,0,0,0,0,0
1683193794.90035605,90328854,1537,1538,1604,1604,0,0,0,0,0,0,0,0,0,0
1683193795.00031590,90428814,1538,1539,1603,1603,0,0,0,0,0,0,0,0,0,0
1683193795.10027599,90528774,1541,1543,1601,1601,0,0,0,0,0,0,0,0,0,0
1683193795.20023608,90628734,1545,1547,1596,1596,0,0,0,0,0,0,0,0,0,0
1683193795.30019593,90728694,1550,1553,1589,1590,0,0,0,0,0,0,0,0,0,0
1683193795.40015602,90828654,1558,1559,1584,1585,0,0,0,0,0,0,0,0,0,0
1683193795.50011587,90928614,1565,1565,1579,1579,0,0,0,0,0,0,0,0,0,0
1683193795.60007596,91028574,1571,1571,1576,1575,0,0,0,0,0,0,0,0,0,0
1683193795.70003605,91128534,1576,1575,1574,1573,0,0,0,0,0,0,0,0,0,0
1683193795.79999590,91228494,1580,1578,1572,1571,0,0,0,0,0,0,0,0,0,0
1683193795.89995599,91328454,1582,1580,1571,1570,0,0,0,0,0,0,0,0,0,0
1683193795.99991608,91428414,1583,1582,1570,1570,0,0,0,0,0,0,0,0,0,0
1683193796.09987593,91528374,1585,1584,1570,1571,0,0,0,0,0,0,0,0,0,0
1683193796.19983602,91628334,1585,1585,1572,1572,0,0,0,0,0,0,0,0,0,0
1683193796.29979587,91728294,1584,1584,1571,1572,0,0,0,0,0,0,0,0,0,0
1683193796.39975595,91828254,1585,1585,1574,1574,0,0,0,0,0,0,0,0,0,0
1683193796.49971604,91928214,1583,1584,1575,1575,0,0,0,0,0,0,0,0,0,0
1683193796.59967589,92028174,1582,1582,1575,1575,0,0,0,0,0,0,0,0,0,0
1683193796.70046902,92128967,1582,1582,1577,1576,0,0,0,0,0,0,0,0,0,0
1683193796.80042887,92228927,1581,1581,1577,1577,0,0,0,0,0,0,0,0,0,0
1683193796.90038896,92328887,1580,1581,1579,1578,0,0,0,0,0,0,0,0,0,0
1683193797.00034904,92428847,1580,1580,1579,1579,0,0,0,0,0,0,0,0,0,0
1683193797.10030890,92528807,1579,1579,1579,1579,0,0,0,0,0,0,0,0,0,0
1683193797.20026898,92628767,1579,1579,1580,1580,0,0,0,0,0,0,0,0,0,0
1683193797.30022907,92728727,1578,1578,1580,1580,0,0,0,0,0,0,0,0,0,0
1683193797.40018892,92828687,1577,1578,1580,1580,0,0,0,0,0,0,0,0,0,0
1683193797.50014901,92928647,1577,1578,1580,1580,0,0,0,0,0,0,0,0,0,0
1683193797.60010886,93028607,1578,1578,1581,1581,0,0,0,0,0,0,0,0,0,0
1683193797.70006895,93128567,1577,1577,1580,1580,0,0,0,0,0,0,0,0,0,0
1683193797.80002904,93228527,1578,1578,1580,1580,0,0,0,0,0,0,0,0,0,0
1683193797.89998889,93328487,1579,1579,1581,1581,0,0,0,0,0,0,0,0,0,0
1683193797.99994898,93428447,1579,1579,1581,1580,0,0,0,0,0,0,0,0,0,0
1683193798.09990907,93528407,1580,1579,1580,1580,0,0,0,0,0,0,0,0,0,0
1683193798.19986892,93628367,1580,1579,1580,1580,0,0,0,0,0,0,0,0,0,0
1683193798.29982901,93728327,1580,1580,1580,1581,0,0,0,0,0,0,0,0,0,0
1683193798.39978886,93828287,1580,1581,1579,1580,0,0,0,0,0,0,0,0,0,0
1683193798.49974895,93928247,1581,1581,1580,1579,0,0,0,0,0,0,0,0,0,0
1683193798.59970903,94028207,1581,1581,1579,1579,0,0,0,0,0,0,0,0,0,0
1683193798.69966888,94128167,1581,1581,1580,1580,0,0,0,0,0,0,0,0,0,0
1683193798.80046201,94228960,1581,1581,1580,1580,0,0,0,0,0,0,0,0,0,0
1683193798.90042186,94328920,1581,1580,1578,1579,0,0,0,0,0,0,0,0,0,0
1683193799.00038195,94428880,1581,1581,1579,1580,0,0,0,0,0,0,0,0,0,0
1683193799.10034204,94528840,1581,1581,1580,1580,0,0,0,0,0,0,0,0,0,0
1683193799.20030189,94628800,1581,1581,1580,1579,0,0,0,0,0,0,0,0,0,0
1683193799.30026197,94728760,1581,1581,1580,1580,0,0,0,0,0,0,0,0,0,0
1683193799.40022206,94828720,1581,1581,1581,1581,0,0,0,0,0,0,0,0,0,0
1683193799.50018191,94928680,1581,1581,1581,1580,0,0,0,0,0,0,0,0,0,0
1683193799.60014200,95028640,1580,1580,1580,1580,0,0,0,0,0,0,0,0,0,0
1683193799.70010185,95128600,1581,1582,1582,1582,0,0,0,0,0,0,0,0,0,0
1683193799.80006194,95228560,1581,1581,1581,1581,0,0,0,0,0,0,0,0,0,0
1683193799.90002203,95328520,1581,1582,1582,1582,0,0,0,0,0,0,0,0,0,0
1683193799.99998188,95428480,1581,1581,1586,1577,0,0,0,0,0,0,0,0,0,0
1683193800.09994197,95528440,1580,1580,1585,1572,0,0,0,0,0,0,0,0,0,0
1683193800.19990206,95628400,1580,1580,1579,1573,0,0,0,0,0,0,0,0,0,0
1683193800.29986191,95728360,1578,1579,1570,1571,0,0,0,0,0,0,0,0,0,0
1683193800.39982200,95828320,1576,1579,1563,1568,0,0,0,0,0,0,0,0,0,0
1683193800.49978209,95928280,1575,1578,1557,1564,0,0,0,0,0,0,0,0,0,0
1683193800.59974194,96028240,1576,1578,1556,1560,0,0,0,0,0,0,0,0,0,0
1683193800.69970202,96128200,1576,1577,1555,1557,0,0,0,0,0,0,0,0,0,0
1683193800.79966187,96228160,1577,1577,1556,1555,0,0,0,0,0,0,0,0,0,0
1683193800.90045500,96328953,1578,1577,1557,1554,0,0,0,0,0,0,0,0,0,0
1683193801.00041509,96428913,1577,1576,1556,1554,0,0,0,0,0,0,0,0,0,0
1683193801.10037494,96528873,1577,1576,1556,1554,0,0,0,0,0,0,0,0,0,0
1683193801.20033503,96628833,1576,1576,1555,1553,0,0,0,0,0,0,0,0,0,0
1683193801.30029488,96728793,1576,1577,1553,1553,0,0,0,0,0,0,0,0,0,0
1683193801.40025496,96828753,1575,1577,1551,1552,0,0,0,0,0,0,0,0,0,0
1683193801.50021505,96928713,1576,1577,1550,1550,0,0,0,0,0,0,0,0,0,0
1683193801.60017490,97028673,1577,1579,1549,1549,0,0,0,0,0,0,0,0,0,0
1683193801.70013499,97128633,1579,1580,1547,1547,0,0,0,0,0,0,0,0,0,0
1683193801.80009508,97228593,1581,1582,1546,1545,0,0,0,0,0,0,0,0,0,0
1683193801.90005493,97328553,1583,1583,1543,1543,0,0,0,0,0,0,0,0,0,0
1683193802.00001502,97428513,1585,1586,1542,1542,0,0,0,0,0,0,0,0,0,0
1683193802.09997487,97528473,1589,1589,1542,1542,0,0,0,0,0,0,0,0,0,0
1683193802.19993496,97628433,1590,1590,1540,1541,0,0,0,0,0,0,0,0,0,0
1683193802.29989505,97728393,1590,1590,1539,1540,0,0,0,0,0,0,0,0,0,0
1683193802.39985490,97828353,1591,1591,1540,1541,0,0,0,0,0,0,0,0,0,0
1683193802.49981499,97928313,1591,1590,1541,1544,0,0,0,0,0,0,0,0,0,0
1683193802.59977508,98028273,1590,1590,1544,1547,0,0,0,0,0,0,0,0,0,0
1683193802.69973493,98128233,1587,1586,1548,1551,0,0,0,0,0,0,0,0,0,0
1683193802.79969501,98228193,1583,1581,1554,1557,0,0,0,0,0,0,0,0,0,0
1683193802.90048790,98328986,1578,1575,1563,1565,0,0,0,0,0,0,0,0,0,0
1683193803.00044799,98428946,1570,1567,1573,1574,0,0,0,0,0,0,0,0,0,0
1683193803.10040808,98528906,1560,1557,1583,1584,0,0,0,0,0,0,0,0,0,0
1683193803.20036793,98628866,1550,1547,1593,1594,0,0,0,0,0,0,0,0,0,0
1683193803.30032802,98728826,1542,1540,1602,1602,0,0,0,0,0,0,0,0,0,0
1683193803.40028787,98828786,1535,1535,1608,1608,0,0,0,0,0,0,0,0,0,0
1683193803.50024796,98928746,1533,1534,1613,1612,0,0,0,0,0,0,0,0,0,0
1683193803.60020804,99028706,1531,1534,1611,1611,0,0,0,0,0,0,0,0,0,0
1683193803.70016789,99128666,1534,1537,1608,1608,0,0,0,0,0,0,0,0,0,0
1683193803.80012798,99228626,1539,1541,1602,1602,0,0,0,0,0,0,0,0,0,0
1683193803.90008807,99328586,1547,1549,1597,1597,0,0,0,0,0,0,0,0,0,0
1683193804.00004792,99428546,1556,1556,1591,1590,0,0,0,0,0,0,0,0,0,0
1683193804.10000801,99528506,1564,1563,1584,1583,0,0,0,0,0,0,0,0,0,0
1683193804.19996786,99628466,1571,1570,1578,1577,0,0,0,0,0,0,0,0,0,0
1683193804.29992795,99728426,1577,1577,1572,1572,0,0,0,0,0,0,0,0,0,0
1683193804.39988804,99828386,1583,1582,1569,1568,0,0,0,0,0,0,0,0,0,0
1683193804.49984789,99928346,1586,1585,1566,1566,0,0,0,0,0,0,0,0,0,0
1683193804.59980798,100028306,1589,1587,1566,1566,0,0,0,0,0,0,0,0,0,0
1683193804.69976807,100128266,1590,1588,1567,1567,0,0,0,0,0,0,0,0,0,0
1683193804.79972792,100228226,1588,1587,1568,1568,0,0,0,0,0,0,0,0,0,0
1683193804.89968801,100328186,1586,1585,1570,1571,0,0,0,0,0,0,0,0,0,0
1683193805.00048089,100428979,1584,1584,1573,1574,0,0,0,0,0,0,0,0,0,0
1683193805.10044098,100528939,1581,1581,1576,1576,0,0,0,0,0,0,0,0,0,0
1683193805.20040107,100628899,1579,1580,1580,1579,0,0,0,0,0,0,0,0,0,0
1683193805.30036092,100728859,1577,1578,1582,1582,0,0,0,0,0,0,0,0,0,0
1683193805.40032101,100828819,1575,1576,1584,1584,0,0,0,0,0,0,0,0,0,0
1683193805.50028086,100928779,1574,1575,1585,1585,0,0,0,0,0,0,0,0,0,0
1683193805.60024095,101028739,1574,1574,1585,1585,0,0,0,0,0,0,0,0,0,0
1683193805.70020103,101128699,1574,1575,1585,1585,0,0,0,0,0,0,0,0,0,0
1683193805.80016088,101228659,1575,1575,1584,1584,0,0,0,0,0,0,0,0,0,0
1683193805.90012097,101328619,1575,1575,1582,1582,0,0,0,0,0,0,0,0,0,0
1683193806.00008106,101428579,1576,1576,1581,1581,0,0,0,0,0,0,0,0,0,0
1683193806.10004091,101528539,1577,1577,1579,1579,0,0,0,0,0,0,0,0,0,0
1683193806.20000100,101628499,1579,1578,1579,1579,0,0,0,0,0,0,0,0,0,0
1683193806.29996085,101728459,1580,1580,1579,1579,0,0,0,0,0,0,0,0,0,0
1683193806.39992094,101828419,1581,1581,1578,1578,0,0,0,0,0,0,0,0,0,0
1683193806.49988103,101928379,1582,1582,1579,1578,0,0,0,0,0,0,0,0,0,0
1683193806.59984088,102028339,1583,1583,1579,1578,0,0,0,0,0,0,0,0,0,0
1683193806.69980097,102128299,1583,1582,1578,1578,0,0,0,0,0,0,0,0,0,0
1683193806.79976106,102228259,1582,1582,1578,1578,0,0,0,0,0,0,0,0,0,0
1683193806.89972091,102328219,1581,1582,1578,1578,0,0,0,0,0,0,0,0,0,0
1683193806.99968100,102428179,1581,1581,1579,1579,0,0,0,0,0,0,0,0,0,0
1683193807.10047388,102528972,1581,1581,1579,1579,0,0,0,0,0,0,0,0,0,0
1683193807.20043397,102628932,1581,1580,1580,1580,0,0,0,0,0,0,0,0,0,0
1683193807.30039406,102728892,1580,1580,1581,1581,0,0,0,0,0,0,0,0,0,0
1683193807.40035391,102828852,1580,1580,1581,1581,0,0,0,0,0,0,0,0,0,0
1683193807.50031400,102928812,1579,1579,1581,1581,0,0,0,0,0,0,0,0,0,0
1683193807.60027409,103028772,1579,1580,1581,1581,0,0,0,0,0,0,0,0,0,0
1683193807.70023394,103128732,1580,1580,1581,1581,0,0,0,0,0,0,0,0,0,0
1683193807.80019403,103228692,1581,1580,1582,1582,0,0,0,0,0,0,0,0,0,0
1683193807.90015388,103328652,1580,1580,1581,1582,0,0,0,0,0,0,0,0,0,0
1683193808.00011396,103428612,1581,1581,1582,1582,0,0,0,0,0,0,0,0,0,0
1683193808.10007405,103528572,1581,1581,1587,1576,0,0,0,0,0,0,0,0,0,0
1683193808.20003390,103628532,1580,1580,1587,1573,0,0,0,0,0,0,0,0,0,0
1683193808.29999399,103728492,1580,1579,1581,1575,0,0,0,0,0,0,0,0,0,0
1683193808.39995408,103828452,1576,1576,1572,1574,0,0,0,0,0,0,0,0,0,0
1683193808.49991393,103928412,1573,1573,1567,1573,0,0,0,0,0,0,0,0,0,0
1683193808.59987402,104028372,1570,1570,1564,1570,0,0,0,0,0,0,0,0,0,0
1683193808.69983387,104128332,1569,1569,1563,1569,0,0,0,0,0,0,0,0,0,0
1683193808.79979396,104228292,1567,1567,1564,1566,0,0,0,0,0,0,0,0,0,0
1683193808.89975405,104328252,1566,1566,1566,1564,0,0,0,0,0,0,0,0,0,0
1683193808.99971390,104428212,1566,1566,1568,1565,0,0,0,0,0,0,0,0,0,0
1683193809.09967399,104528172,1565,1566,1567,1565,0,0,0,0,0,0,0,0,0,0
1683193809.20046687,104628965,1564,1565,1567,1565,0,0,0,0,0,0,0,0,0,0
1683193809.30042696,104728925,1564,1563,1566,1565,0,0,0,0,0,0,0,0,0,0
1683193809.40038705,104828885,1563,1563,1565,1565,0,0,0,0,0,0,0,0,0,0
1683193809.50034690,104928845,1562,1562,1564,1564,0,0,0,0,0,0,0,0,0,0
1683193809.60030699,105028805,1561,1561,1562,1563,0,0,0,0,0,0,0,0,0,0
1683193809.70026708,105128765,1561,1560,1562,1562,0,0,0,0,0,0,0,0,0,0
1683193809.80022693,105228725,1561,1561,1561,1561,0,0,0,0,0,0,0,0,0,0
1683193809.90018702,105328685,1560,1560,1560,1560,0,0,0,0,0,0,0,0,0,0
1683193810.00014687,105428645,1559,1560,1560,1559,0,0,0,0,0,0,0,0,0,0
1683193810.10010695,105528605,1559,1560,1560,1559,0,0,0,0,0,0,0,0,0,0
1683193810.20006704,105628565,1558,1558,1558,1557,0,0,0,0,0,0,0,0,0,0
1683193810.30002689,105728525,1558,1558,1558,1557,0,0,0,0,0,0,0,0,0,0
1683193810.39998698,105828485,1557,1559,1536,1578,0,0,0,0,0,0,0,0,0,0
1683193810.49994707,105928445,1557,1556,1562,1548,0,0,0,0,0,0,0,0,0,0
1683193810.59990692,106028405,1554,1553,1567,1537,0,0,0,0,0,0,0,0,0,0
1683193810.69986701,106128365,1551,1549,1557,1540,0,0,0,0,0,0,0,0,0,0
1683193810.79982686,106228325,1545,1544,1542,1543,0,0,0,0,0,0,0,0,0,0
1683193810.89978695,106328285,1539,1539,1530,1542,0,0,0,0,0,0,0,0,0,0
1683193810.99974704,106428245,1534,1534,1524,1539,0,0,0,0,0,0,0,0,0,0
1683193811.09970689,106528205,1527,1528,1518,1531,0,0,0,0,0,0,0,0,0,0
1683193811.19966698,106628165,1523,1524,1518,1525,0,0,0,0,0,0,0,0,0,0
1683193811.30045986,106728958,1521,1522,1520,1522,0,0,0,0,0,0,0,0,0,0
1683193811.40041995,106828918,1521,1522,1524,1522,0,0,0,0,0,0,0,0,0,0
1683193811.50038004,106928878,1522,1522,1526,1523,0,0,0,0,0,0,0,0,0,0
1683193811.60033989,107028838,1525,1524,1530,1528,0,0,0,0,0,0,0,0,0,0
1683193811.70029998,107128798,1528,1528,1534,1534,0,0,0,0,0,0,0,0,0,0
1683193811.80026007,107228758,1533,1532,1538,1539,0,0,0,0,0,0,0,0,0,0
1683193811.90021992,107328718,1536,1536,1541,1543,0,0,0,0,0,0,0,0,0,0
1683193812.00018001,107428678,1540,1539,1544,1545,0,0,0,0,0,0,0,0,0,0
1683193812.10013986,107528638,1542,1542,1544,1546,0,0,0,0,0,0,0,0,0,0
1683193812.20009995,107628598,1544,1545,1546,1546,0,0,0,0,0,0,0,0,0,0
1683193812.30006003,107728558,1546,1546,1546,1546,0,0,0,0,0,0,0,0,0,0
1683193812.40001988,107828518,1547,1547,1546,1545,0,0,0,0,0,0,0,0,0,0
1683193812.49997997,107928478,1548,1548,1545,1545,0,0,0,0,0,0,0,0,0,0
1683193812.59994006,108028438,1549,1549,1545,1545,0,0,0,0,0,0,0,0,0,0
1683193812.69989991,108128398,1549,1549,1545,1545,0,0,0,0,0,0,0,0,0,0
1683193812.79986000,108228358,1549,1549,1545,1545,0,0,0,0,0,0,0,0,0,0
1683193812.89982009,108328318,1548,1548,1545,1545,0,0,0,0,0,0,0,0,0,0
1683193812.99977994,108428278,1547,1547,1544,1544,0,0,0,0,0,0,0,0,0,0
1683193813.09974003,108528238,1546,1547,1544,1544,0,0,0,0,0,0,0,0,0,0
1683193813.19969988,108628198,1546,1546,1545,1545,0,0,0,0,0,0,0,0,0,0
1683193813.29965997,108728158,1545,1545,1544,1544,0,0,0,0,0,0,0,0,0,0
1683193813.40045285,108828951,1545,1545,1545,1545,0,0,0,0,0,0,0,0,0,0
1683193813.50041294,108928911,1544,1544,1545,1545,0,0,0,0,0,0,0,0,0,0
1683193813.60037303,109028871,1544,1543,1545,1545,0,0,0,0,0,0,0,0,0,0
1683193813.70033288,109128831,1543,1543,1545,1545,0,0,0,0,0,0,0,0,0,0
1683193813.80029297,109228791,1542,1543,1545,1544,0,0,0,0,0,0,0,0,0,0
1683193813.90025306,109328751,1543,1543,1545,1544,0,0,0,0,0,0,0,0,0,0
1683193814.00021291,109428711,1542,1543,1544,1544,0,0,0,0,0,0,0,0,0,0
1683193814.10017300,109528671,1543,1543,1543,1544,0,0,0,0,0,0,0,0,0,0
1683193814.20013309,109628631,1543,1544,1544,1544,0,0,0,0,0,0,0,0,0,0
1683193814.30009294,109728591,1543,1543,1544,1544,0,0,0,0,0,0,0,0,0,0
1683193814.40005302,109828551,1544,1544,1544,1544,0,0,0,0,0,0,0,0,0,0
1683193814.50001287,109928511,1544,1544,1544,1544,0,0,0,0,0,0,0,0,0,0
1683193814.59997296,110028471,1544,1544,1544,1543,0,0,0,0,0,0,0,0,0,0
1683193814.69993305,110128431,1544,1544,1544,1544,0,0,0,0,0,0,0,0,0,0
1683193814.79989290,110228391,1544,1544,1543,1543,0,0,0,0,0,0,0,0,0,0
1683193814.89985299,110328351,1544,1544,1543,1544,0,0,0,0,0,0,0,0,0,0
1683193814.99981308,110428311,1544,1544,1543,1543,0,0,0,0,0,0,0,0,0,0
1683193815.09977293,110528271,1544,1545,1544,1544,0,0,0,0,0,0,0,0,0,0
1683193815.19973302,110628231,1545,1545,1545,1545,0,0,0,0,0,0,0,0,0,0
1683193815.29969287,110728191,1545,1544,1544,1545,0,0,0,0,0,0,0,0,0,0
1683193815.40048599,110828984,1544,1544,1544,1544,0,0,0,0,0,0,0,0,0,0
1683193815.50044608,110928944,1544,1544,1543,1543,0,0,0,0,0,0,0,0,0,0
1683193815.60040593,111028904,1543,1543,1543,1543,0,0,0,0,0,0,0,0,0,0
1683193815.70036602,111128864,1543,1543,1543,1544,0,0,0,0,0,0,0,0,0,0
1683193815.80032587,111228824,1543,1543,1543,1543,0,0,0,0,0,0,0,0,0,0
1683193815.90028596,111328784,1544,1544,1545,1544,0,0,0,0,0,0,0,0,0,0
1683193816.00024605,111428744,1544,1544,1545,1544,0,0,0,0,0,0,0,0,0,0
1683193816.10020590,111528704,1544,1544,1544,1544,0,0,0,0,0,0,0,0,0,0
1683193816.20016599,111628664,1544,1544,1544,1543,0,0,0,0,0,0,0,0,0,0
1683193816.30012608,111728624,1543,1543,1543,1543,0,0,0,0,0,0,0,0,0,0
1683193816.40008593,111828584,1543,1543,1543,1542,0,0,0,0,0,0,0,0,0,0
1683193816.50004601,111928544,1544,1543,1543,1543,0,0,0,0,0,0,0,0,0,0
1683193816.60000587,112028504,1543,1543,1543,1543,0,0,0,0,0,0,0,0,0,0
1683193816.69996595,112128464,1544,1544,1544,1544,0,0,0,0,0,0,0,0,0,0
1683193816.79992604,112228424,1544,1544,1544,1544,0,0,0,0,0,0,0,0,0,0
1683193816.89988589,112328384,1544,1544,1544,1544,0,0,0,0,0,0,0,0,0,0
1683193816.99984598,112428344,1544,1544,1544,1544,0,0,0,0,0,0,0,0,0,0
1683193817.09980607,112528304,1544,1544,1544,1544,0,0,0,0,0,0,0,0,0,0
1683193817.19976592,112628264,1544,1544,1544,1544,0,0,0,0,0,0,0,0,0,0
1683193817.29972601,112728224,1545,1544,1544,1545,0,0,0,0,0,0,0,0,0,0
1683193817.39968586,112828184,1544,1544,1544,1544,0,0,0,0,0,0,0,0,0,0
1683193817.50047898,112928977,1545,1545,1545,1545,0,0,0,0,0,0,0,0,0,0
1683193817.60043907,113028937,1545,1545,1545,1544,0,0,0,0,0,0,0,0,0,0
1683193817.70039892,113128897,1545,1544,1544,1544,0,0,0,0,0,0,0,0,0,0
1683193817.80035901,113228857,1545,1545,1545,1544,0,0,0,0,0,0,0,0,0,0
1683193817.90031886,113328817,1545,1545,1545,1545,0,0,0,0,0,0,0,0,0,0
1683193818.00027895,113428777,1544,1544,1543,1543,0,0,0,0,0,0,0,0,0,0
1683193818.10023904,113528737,1544,1544,1544,1544,0,0,0,0,0,0,0,0,0,0
1683193818.20019889,113628697,1544,1544,1544,1544,0,0,0,0,0,0,0,0,0,0
1683193818.30015898,113728657,1544,1544,1543,1544,0,0,0,0,0,0,0,0,0,0
1683193818.40011907,113828617,1544,1544,1543,1544,0,0,0,0,0,0,0,0,0,0
1683193818.50007892,113928577,1544,1544,1544,1545,0,0,0,0,0,0,0,0,0,0
1683193818.60003901,114028537,1544,1544,1544,1544,0,0,0,0,0,0,0,0,0,0
1683193818.69999886,114128497,1544,1544,1544,1544,0,0,0,0,0,0,0,0,0,0
1683193818.79995894,114228457,1543,1544,1544,1543,0,0,0,0,0,0,0,0,0,0
1683193818.89991903,114328417,1544,1543,1544,1544,0,0,0,0,0,0,0,0,0,0
1683193818.99987888,114428377,1543,1543,1543,1543,0,0,0,0,0,0,0,0,0,0
1683193819.09983897,114528337,1544,1544,1544,1545,0,0,0,0,0,0,0,0,0,0
1683193819.19979906,114628297,1544,1545,1544,1545,0,0,0,0,0,0,0,0,0,0
1683193819.29975891,114728257,1545,1544,1544,1544,0,0,0,0,0,0,0,0,0,0
1683193819.39971900,114828217,1544,1545,1544,1544,0,0,0,0,0,0,0,0,0,0
1683193819.49967909,114928177,1545,1545,1545,1545,0,0,0,0,0,0,0,0,0,0
1683193819.60047197,115028970,1544,1544,1544,1544,0,0,0,0,0,0,0,0,0,0
1683193819.70043206,115128930,1545,1544,1544,1544,0,0,0,0,0,0,0,0,0,0
1683193819.80039191,115228890,1544,1544,1544,1544,0,0,0,0,0,0,0,0,0,0
1683193819.90035200,115328850,1545,1545,1544,1545,0,0,0,0,0,0,0,0,0,0
1683193820.00031185,115428810,1543,1544,1543,1543,0,0,0,0,0,0,0,0,0,0
1683193820.10027194,115528770,1544,1544,1544,1544,0,0,0,0,0,0,0,0,0,0
1683193820.20023203,115628730,1544,1544,1544,1544,0,0,0,0,0,0,0,0,0,0
1683193820.30019188,115728690,1544,1544,1544,1544,0,0,0,0,0,0,0,0,0,0
1683193820.40015197,115828650,1544,1544,1545,1544,0,0,0,0,0,0,0,0,0,0
1683193820.50011206,115928610,1543,1543,1543,1544,0,0,0,0,0,0,0,0,0,0
1683193820.60007191,116028570,1543,1544,1543,1544,0,0,0,0,0,0,0,0,0,0
1683193820.70003200,116128530,1544,1544,1543,1544,0,0,0,0,0,0,0,0,0,0
1683193820.79999208,116228490,1544,1544,1544,1544,0,0,0,0,0,0,0,0,0,0
1683193820.89995193,116328450,1469,1470,1445,1446,0,0,0,0,0,0,0,0,0,0
1683193820.99991202,116428410,1361,1363,1289,1290,0,0,0,0,0,0,0,0,0,0
1683193821.09987187,116528370,1321,1323,1225,1226,0,0,0,0,0,0,0,0,0,0
1683193821.19983196,116628330,1308,1310,1203,1204,0,0,0,0,0,0,0,0,0,0
1683193821.29979205,116728290,1289,1291,1169,1171,0,0,0,0,0,0,0,0,0,0
1683193821.39975190,116828250,1252,1255,1150,1150,0,0,0,0,0,0,0,0,0,0
1683193821.49971199,116928210,1141,1143,1150,1151,0,0,0,0,0,0,0,0,0,0
1683193821.59967208,117028170,1088,1090,1150,1150,0,0,0,0,0,0,0,0,0,0
1683193821.70046496,117128963,1088,1090,1150,1150,0,0,0,0,0,0,0,0,0,0
1683193821.80042505,117228923,1088,1090,1150,1150,0,0,0,0,0,0,0,0,0,0
1683193821.90038490,117328883,1090,1071,1150,1173,0,0,0,0,0,0,0,0,0,0
1683193822.00034499,117428843,1089,1079,1150,1164,0,0,0,0,0,0,0,0,0,0
1683193822.10030508,117528803,1089,1082,1150,1161,0,0,0,0,0,0,0,0,0,0
1683193822.20026493,117628763,1089,1082,1150,1160,0,0,0,0,0,0,0,0,0,0
1683193822.30022502,117728723,1089,1082,1150,1160,0,0,0,0,0,0,0,0,0,0
1683193822.40018487,117828683,1089,1082,1150,1160,0,0,0,0,0,0,0,0,0,0
1683193822.50014496,117928643,1089,1081,1150,1161,0,0,0,0,0,0,0,0,0,0
1683193822.60010505,118028603,1089,1081,1150,1161,0,0,0,0,0,0,0,0,0,0
1683193822.70006490,118128563,1089,1089,1150,1150,0,0,0,0,0,0,0,0,0,0
1683193822.80002499,118228523,1089,1088,1150,1151,0,0,0,0,0,0,0,0,0,0
1683193822.89998507,118328483,1089,1088,1150,1152,0,0,0,0,0,0,0,0,0,0
1683193822.99994493,118428443,1089,1088,1150,1152,0,0,0,0,0,0,0,0,0,0
1683193823.09990501,118528403,1075,1073,1150,1152,0,0,0,0,0,0,0,0,0,0
1683193823.19986486,118628363,1000,1000,1000,1000,0,0,0,0,0,0,0,0,0,0
1683193823.29982495,118728323,1000,1000,1000,1000,0,0,0,0,0,0,0,0,0,0
1683193823.39978504,118828283,1000,1000,1000,1000,0,0,0,0,0,0,0,0,0,0
1683193823.49974489,118928243,1000,1000,1000,1000,0,0,0,0,0,0,0,0,0,0
1683193823.59970498,119028203,1000,1000,1000,1000,0,0,0,0,0,0,0,0,0,0
1683193823.69966507,119128163,1000,1000,1000,1000,0,0,0,0,0,0,0,0,0,0
1683193823.80045795,119228956,1000,1000,1000,1000,0,0,0,0,0,0,0,0,0,0
1683193823.90041804,119328916,1000,1000,1000,1000,0,0,0,0,0,0,0,0,0,0
1683193824.00037789,119428876,1000,1000,1000,1000,0,0,0,0,0,0,0,0,0,0
1683193824.10033798,119528836,1000,1000,1000,1000,0,0,0,0,0,0,0,0,0,0
1683193824.20029807,119628796,1000,1000,1000,1000,0,0,0,0,0,0,0,0,0,0
1683193824.30025792,119728756,1000,1000,1000,1000,0,0,0,0,0,0,0,0,0,0
1683193824.40021801,119828716,1000,1000,1000,1000,0,0,0,0,0,0,0,0,0,0
1683193824.50017786,119928676,1000,1000,1000,1000,0,0,0,0,0,0,0,0,0,0
1683193824.60013795,120028636,1000,1000,1000,1000,0,0,0,0,0,0,0,0,0,0
1683193824.70009804,120128596,1000,1000,1000,1000,0,0,0,0,0,0,0,0,0,0
1683193824.80005789,120228556,1000,1000,1000,1000,0,0,0,0,0,0,0,0,0,0
1683193824.90001798,120328516,1000,1000,1000,1000,0,0,0,0,0,0,0,0,0,0
1683193824.99997807,120428476,1000,1000,1000,1000,0,0,0,0,0,0,0,0,0,0
1683193825.09993792,120528436,1000,1000,1000,1000,0,0,0,0,0,0,0,0,0,0
1683193825.19989800,120628396,1000,1000,1000,1000,0,0,0,0,0,0,0,0,0,0
1683193825.29985785,120728356,1000,1000,1000,1000,0,0,0,0,0,0,0,0,0,0
1683193825.39981794,120828316,1000,1000,1000,1000,0,0,0,0,0,0,0,0,0,0
1683193825.49977803,120928276,1000,1000,1000,1000,0,0,0,0,0,0,0,0,0,0
1683193825.59973788,121028236,1000,1000,1000,1000,0,0,0,0,0,0,0,0,0,0
1683193825.69969797,121128196,1000,1000,1000,1000,0,0,0,0,0,0,0,0,0,0
1683193825.79965806,121228156,1000,1000,1000,1000,0,0,0,0,0,0,0,0,0,0
1683193825.90045094,121328949,1000,1000,1000,1000,0,0,0,0,0,0,0,0,0,0
1683193826.00041103,121428909,1000,1000,1000,1000,0,0,0,0,0,0,0,0,0,0
1683193826.10037088,121528869,1000,1000,1000,1000,0,0,0,0,0,0,0,0,0,0
1683193826.20033097,121628829,1000,1000,1000,1000,0,0,0,0,0,0,0,0,0,0
1683193826.30029106,121728789,1000,1000,1000,1000,0,0,0,0,0,0,0,0,0,0
1683193826.40025091,121828749,1000,1000,1000,1000,0,0,0,0,0,0,0,0,0,0
1683193826.50021100,121928709,1000,1000,1000,1000,0,0,0,0,0,0,0,0,0,0
1683193826.60017109,122028669,1000,1000,1000,1000,0,0,0,0,0,0,0,0,0,0
1683193826.70013094,122128629,1000,1000,1000,1000,0,0,0,0,0,0,0,0,0,0
1683193826.80009103,122228589,1000,1000,1000,1000,0,0,0,0,0,0,0,0,0,0
1683193826.90005088,122328549,1000,1000,1000,1000,0,0,0,0,0,0,0,0,0,0
1683193827.00001097,122428509,1000,1000,1000,1000,0,0,0,0,0,0,0,0,0,0
1683193827.09997106,122528469,1000,1000,1000,1000,0,0,0,0,0,0,0,0,0,0
1683193827.19993091,122628429,1000,1000,1000,1000,0,0,0,0,0,0,0,0,0,0
1683193827.29989100,122728389,1000,1000,1000,1000,0,0,0,0,0,0,0,0,0,0
1683193827.39985108,122828349,1000,1000,1000,1000,0,0,0,0,0,0,0,0,0,0
1683193827.49981093,122928309,1000,1000,1000,1000,0,0,0,0,0,0,0,0,0,0
1683193827.59977102,123028269,1000,1000,1000,1000,0,0,0,0,0,0,0,0,0,0
1683193827.69973087,123128229,1000,1000,1000,1000,0,0,0,0,0,0,0,0,0,0
1683193827.79969096,123228189,1000,1000,1000,1000,0,0,0,0,0,0,0,0,0,0
1683193827.90048409,123328982,1000,1000,1000,1000,0,0,0,0,0,0,0,0,0,0
1683193828.00044394,123428942,1000,1000,1000,1000,0,0,0,0,0,0,0,0,0,0
1683193828.10040402,123528902,1000,1000,1000,1000,0,0,0,0,0,0,0,0,0,0
1683193828.20036387,123628862,1000,1000,1000,1000,0,0,0,0,0,0,0,0,0,0
1683193828.30032396,123728822,1000,1000,1000,1000,0,0,0,0,0,0,0,0,0,0
1683193828.40028405,123828782,1000,1000,1000,1000,0,0,0,0,0,0,0,0,0,0
1683193828.50024390,123928742,1000,1000,1000,1000,0,0,0,0,0,0,0,0,0,0
1683193828.60020399,124028702,1000,1000,1000,1000,0,0,0,0,0,0,0,0,0,0
1683193828.70016408,124128662,1000,1000,1000,1000,0,0,0,0,0,0,0,0,0,0
1683193828.80012393,124228622,1000,1000,1000,1000,0,0,0,0,0,0,0,0,0,0
1683193828.90008402,124328582,1000,1000,1000,1000,0,0,0,0,0,0,0,0,0,0
1683193829.00004387,124428542,1000,1000,1000,1000,0,0,0,0,0,0,0,0,0,0
1683193829.10000396,124528502,1000,1000,1000,1000,0,0,0,0,0,0,0,0,0,0
1683193829.19996405,124628462,1000,1000,1000,1000,0,0,0,0,0,0,0,0,0,0
1683193829.29992390,124728422,1000,1000,1000,1000,0,0,0,0,0,0,0,0,0,0
1683193829.39988399,124828382,1000,1000,1000,1000,0,0,0,0,0,0,0,0,0,0
1683193829.49984407,124928342,1000,1000,1000,1000,0,0,0,0,0,0,0,0,0,0
1683193829.59980392,125028302,1000,1000,1000,1000,0,0,0,0,0,0,0,0,0,0
1683193829.69976401,125128262,1000,1000,1000,1000,0,0,0,0,0,0,0,0,0,0
1683193829.79972386,125228222,1000,1000,1000,1000,0,0,0,0,0,0,0,0,0,0
1683193829.89968395,125328182,1000,1000,1000,1000,0,0,0,0,0,0,0,0,0,0
1683193830.00047708,125428975,1000,1000,1000,1000,0,0,0,0,0,0,0,0,0,0
1683193830.10043693,125528935,1000,1000,1000,1000,0,0,0,0,0,0,0,0,0,0
1683193830.20039701,125628895,1000,1000,1000,1000,0,0,0,0,0,0,0,0,0,0
1683193830.30035686,125728855,1000,1000,1000,1000,0,0,0,0,0,0,0,0,0,0
1683193830.40031695,125828815,1000,1000,1000,1000,0,0,0,0,0,0,0,0,0,0
1683193830.50027704,125928775,1000,1000,1000,1000,0,0,0,0,0,0,0,0,0,0
1683193830.60023689,126028735,1000,1000,1000,1000,0,0,0,0,0,0,0,0,0,0
1683193830.70019698,126128695,1000,1000,1000,1000,0,0,0,0,0,0,0,0,0,0
1683193830.80015707,126228655,1000,1000,1000,1000,0,0,0,0,0,0,0,0,0,0
1683193830.90011692,126328615,1000,1000,1000,1000,0,0,0,0,0,0,0,0,0,0
1683193831.00007701,126428575,1000,1000,1000,1000,0,0,0,0,0,0,0,0,0,0
1683193831.10003686,126528535,1000,1000,1000,1000,0,0,0,0,0,0,0,0,0,0
1683193831.19999695,126628495,1000,1000,1000,1000,0,0,0,0,0,0,0,0,0,0
1683193831.29995704,126728455,1000,1000,1000,1000,0,0,0,0,0,0,0,0,0,0
1683193831.39991689,126828415,1000,1000,1000,1000,0,0,0,0,0,0,0,0,0,0
1683193831.49987698,126928375,1000,1000,1000,1000,0,0,0,0,0,0,0,0,0,0
1683193831.59983706,127028335,1000,1000,1000,1000,0,0,0,0,0,0,0,0,0,0
1683193831.69979692,127128295,1000,1000,1000,1000,0,0,0,0,0,0,0,0,0,0
1683193831.79975700,127228255,1000,1000,1000,1000,0,0,0,0,0,0,0,0,0,0
1683193831.89971685,127328215,1000,1000,1000,1000,0,0,0,0,0,0,0,0,0,0
1683193831.99967694,127428175,1000,1000,1000,1000,0,0,0,0,0,0,0,0,0,0
1683193832.10047007,127528968,1000,1000,1000,1000,0,0,0,0,0,0,0,0,0,0
1683193832.20042992,127628928,1000,1000,1000,1000,0,0,0,0,0,0,0,0,0,0
1683193832.30039001,127728888,1000,1000,1000,1000,0,0,0,0,0,0,0,0,0,0
1683193832.40034986,127828848,1000,1000,1000,1000,0,0,0,0,0,0,0,0,0,0
1683193832.50030994,127928808,1000,1000,1000,1000,0,0,0,0,0,0,0,0,0,0
1683193832.60027003,128028768,1000,1000,1000,1000,0,0,0,0,0,0,0,0,0,0
