TimeUS,M1,M2,M3,M4,TimeUS,C1,C2,C3,C4
45218572,1000,1000,1000,1000,45228568,1000,1000,1000,1000
45221071,1000,1000,1000,1000,45328528,1000,1000,1000,1000
45223570,1000,1000,1000,1000,45428488,1000,1000,1000,1000
45226069,1000,1000,1000,1000,45528448,1000,1000,1000,1000
45228568,1000,1000,1000,1000,45628408,1000,1000,1000,1000
45231067,1000,1000,1000,1000,45728368,1000,1000,1000,1000
45233566,1000,1000,1000,1000,45828328,1000,1000,1000,1000
45236065,1000,1000,1000,1000,45928288,1000,1000,1000,1000
45238564,1000,1000,1000,1000,46028248,1000,1000,1000,1000
45241063,1000,1000,1000,1000,46128208,1000,1000,1000,1000
45243562,1000,1000,1000,1000,46228168,1000,1000,1000,1000
45246061,1000,1000,1000,1000,46328961,1000,1000,1000,1000
45248560,1000,1000,1000,1000,46428921,1000,1000,1000,1000
45251059,1000,1000,1000,1000,46528881,1000,1000,1000,1000
45253558,1000,1000,1000,1000,46628841,1000,1000,1000,1000
45256057,1000,1000,1000,1000,46728801,1000,1000,1000,1000
45258556,1000,1000,1000,1000,46828761,1000,1000,1000,1000
45261055,1000,1000,1000,1000,46928721,1000,1000,1000,1000
45263554,1000,1000,1000,1000,47028681,1000,1000,1000,1000
45266053,1000,1000,1000,1000,47128641,1000,1000,1000,1000
45268552,1000,1000,1000,1000,47228601,1003,1003,1003,1003
45271051,1000,1000,1000,1000,47328561,1033,1033,1033,1033
45273550,1000,1000,1000,1000,47428521,1063,1063,1063,1063
45276049,1000,1000,1000,1000,47528481,1093,1093,1093,1093
45278548,1000,1000,1000,1000,47628441,1122,1122,1122,1122
45281047,1000,1000,1000,1000,47728401,1177,1170,1171,1177
45283546,1000,1000,1000,1000,47828361,1419,1415,1415,1419
45286045,1000,1000,1000,1000,47928321,1595,1591,1591,1595
45288544,1000,1000,1000,1000,48028281,1739,1736,1736,1740
45291043,1000,1000,1000,1000,48128241,1840,1837,1837,1840
45293542,1000,1000,1000,1000,48228201,1847,1843,1843,1847
45296041,1000,1000,1000,1000,48328161,1788,1786,1787,1788
45298540,1000,1000,1000,1000,48428954,1662,1663,1662,1662
45301039,1000,1000,1000,1000,48528914,1606,1608,1607,1606
45303538,1000,1000,1000,1000,48628874,1610,1611,1611,1610
45306037,1000,1000,1000,1000,48728834,1630,1625,1624,1631
45308536,1000,1000,1000,1000,48828794,1628,1628,1623,1633
45311035,1000,1000,1000,1000,48928754,1624,1625,1620,1629
45313534,1000,1000,1000,1000,49028714,1620,1621,1619,1622
45316033,1000,1000,1000,1000,49128674,1618,1617,1619,1616
45318532,1000,1000,1000,1000,49228634,1617,1617,1620,1615
45321031,1000,1000,1000,1000,49328594,1620,1620,1623,1616
45323530,1000,1000,1000,1000,49428554,1622,1621,1625,1618
45326029,1000,1000,1000,1000,49528514,1624,1623,1625,1622
45328528,1000,1000,1000,1000,49628474,1619,1619,1620,1618
45331027,1000,1000,1000,1000,49728434,1589,1589,1596,1582
45333526,1000,1000,1000,1000,49828394,1576,1576,1580,1572
45336025,1000,1000,1000,1000,49928354,1564,1564,1564,1565
45338524,1000,1000,1000,1000,50028314,1555,1555,1550,1560
45341023,1000,1000,1000,1000,50128274,1547,1547,1538,1557
45343522,1000,1000,1000,1000,50228234,1541,1540,1533,1548
45346021,1000,1000,1000,1000,50328194,1535,1534,1530,1539
45348520,1000,1000,1000,1000,50428154,1529,1529,1528,1530
45351019,1000,1000,1000,1000,50528947,1528,1528,1529,1526
45353518,1000,1000,1000,1000,50628907,1529,1529,1532,1526
45356017,1000,1000,1000,1000,50728867,1532,1532,1535,1529
45358516,1000,1000,1000,1000,50828827,1535,1535,1538,1532
45361015,1000,1000,1000,1000,50928787,1538,1539,1541,1537
45363514,1000,1000,1000,1000,51028747,1543,1542,1544,1542
45366013,1000,1000,1000,1000,51128707,1544,1544,1544,1544
45368512,1000,1000,1000,1000,51228667,1548,1548,1547,1549
45371011,1000,1000,1000,1000,51328627,1550,1550,1549,1552
45373510,1000,1000,1000,1000,51428587,1553,1553,1552,1555
45376009,1000,1000,1000,1000,51528547,1552,1552,1559,1561
45378508,1000,1000,1000,1000,51628507,1553,1554,1562,1563
45381007,1000,1000,1000,1000,51728467,1556,1556,1563,1564
45383506,1000,1000,1000,1000,51828427,1559,1560,1564,1564
45386005,1000,1000,1000,1000,51928387,1562,1563,1565,1564
45388504,1000,1000,1000,1000,52028347,1565,1566,1565,1564
45391003,1000,1000,1000,1000,52128307,1568,1568,1565,1565
45393502,1000,1000,1000,1000,52228267,1571,1570,1566,1566
45396001,1000,1000,1000,1000,52328227,1571,1571,1565,1566
45398500,1000,1000,1000,1000,52428187,1572,1572,1567,1567
45400999,1000,1000,1000,1000,52528980,1573,1572,1568,1568
45403498,1000,1000,1000,1000,52628940,1573,1573,1569,1569
45405997,1000,1000,1000,1000,52728900,1573,1573,1570,1571
45408496,1000,1000,1000,1000,52828860,1573,1573,1572,1572
45410995,1000,1000,1000,1000,52928820,1574,1574,1574,1574
45413494,1000,1000,1000,1000,53028780,1573,1574,1575,1574
45415993,1000,1000,1000,1000,53128740,1574,1574,1576,1575
45418492,1000,1000,1000,1000,53228700,1574,1574,1576,1575
45420991,1000,1000,1000,1000,53328660,1574,1575,1576,1576
45423490,1000,1000,1000,1000,53428620,1575,1575,1576,1576
45425989,1000,1000,1000,1000,53528580,1575,1575,1576,1576
45428488,1000,1000,1000,1000,53628540,1577,1576,1576,1577
45430987,1000,1000,1000,1000,53728500,1577,1577,1577,1578
45433486,1000,1000,1000,1000,53828460,1577,1578,1577,1577
45435985,1000,1000,1000,1000,53928420,1578,1578,1578,1578
45438484,1000,1000,1000,1000,54028380,1579,1578,1578,1578
45440983,1000,1000,1000,1000,54128340,1578,1577,1577,1577
45443482,1000,1000,1000,1000,54228300,1578,1578,1577,1577
45445981,1000,1000,1000,1000,54328260,1578,1578,1578,1577
45448480,1000,1000,1000,1000,54428220,1578,1578,1578,1577
45450979,1000,1000,1000,1000,54528180,1578,1578,1578,1578
45453478,1000,1000,1000,1000,54628973,1578,1578,1578,1578
45455977,1000,1000,1000,1000,54728933,1578,1578,1579,1578
45458476,1000,1000,1000,1000,54828893,1578,1578,1578,1578
45460975,1000,1000,1000,1000,54928853,1579,1578,1579,1579
45463474,1000,1000,1000,1000,55028813,1578,1578,1578,1578
45465973,1000,1000,1000,1000,55128773,1579,1579,1579,1579
45468472,1000,1000,1000,1000,55228733,1578,1579,1579,1579
45470971,1000,1000,1000,1000,55328693,1579,1579,1579,1580
45473470,1000,1000,1000,1000,55428653,1579,1579,1579,1579
45475969,1000,1000,1000,1000,55528613,1581,1580,1581,1580
45478468,1000,1000,1000,1000,55628573,1580,1580,1580,1580
45480967,1000,1000,1000,1000,55728533,1580,1580,1580,1580
45483466,1000,1000,1000,1000,55828493,1580,1580,1580,1580
45485965,1000,1000,1000,1000,55928453,1581,1580,1581,1580
45488464,1000,1000,1000,1000,56028413,1580,1580,1580,1580
45490963,1000,1000,1000,1000,56128373,1579,1579,1579,1580
45493462,1000,1000,1000,1000,56228333,1580,1580,1580,1580
45495961,1000,1000,1000,1000,56328293,1579,1579,1579,1580
45498460,1000,1000,1000,1000,56428253,1580,1580,1580,1580
45500959,1000,1000,1000,1000,56528213,1580,1580,1580,1580
45503458,1000,1000,1000,1000,56628173,1580,1580,1580,1580
45505957,1000,1000,1000,1000,56728966,1579,1580,1580,1580
45508456,1000,1000,1000,1000,56828926,1579,1579,1579,1579
45510955,1000,1000,1000,1000,56928886,1580,1580,1580,1580
45513454,1000,1000,1000,1000,57028846,1580,1580,1580,1580
45515953,1000,1000,1000,1000,57128806,1582,1581,1581,1581
45518452,1000,1000,1000,1000,57228766,1581,1581,1581,1581
45520951,1000,1000,1000,1000,57328726,1581,1581,1580,1581
45523450,1000,1000,1000,1000,57428686,1580,1580,1581,1580
45525949,1000,1000,1000,1000,57528646,1581,1581,1581,1581
45528448,1000,1000,1000,1000,57628606,1582,1582,1582,1582
45530947,1000,1000,1000,1000,57728566,1582,1583,1589,1576
45533446,1000,1000,1000,1000,57828526,1581,1583,1587,1573
45535945,1000,1000,1000,1000,57928486,1579,1582,1578,1574
45538444,1000,1000,1000,1000,58028446,1577,1580,1569,1572
45540943,1000,1000,1000,1000,58128406,1578,1579,1563,1569
45543442,1000,1000,1000,1000,58228366,1578,1579,1558,1565
45545941,1000,1000,1000,1000,58328326,1579,1578,1556,1560
45548440,1000,1000,1000,1000,58428286,1579,1578,1556,1556
45550939,1000,1000,1000,1000,58528246,1579,1578,1556,1555
45553438,1000,1000,1000,1000,58628206,1578,1578,1557,1554
45555937,1000,1000,1000,1000,58728166,1577,1577,1555,1554
45558436,1000,1000,1000,1000,58828959,1576,1577,1556,1554
45560935,1000,1000,1000,1000,58928919,1575,1576,1554,1554
45563434,1000,1000,1000,1000,59028879,1575,1577,1554,1554
45565933,1000,1000,1000,1000,59128839,1575,1577,1552,1553
45568432,1000,1000,1000,1000,59228799,1576,1578,1551,1551
45570931,1000,1000,1000,1000,59328759,1577,1578,1548,1547
45573430,1000,1000,1000,1000,59428719,1579,1581,1546,1545
45575929,1000,1000,1000,1000,59528679,1582,1583,1543,1543
45578428,1000,1000,1000,1000,59628639,1586,1586,1541,1540
45580927,1000,1000,1000,1000,59728599,1589,1589,1538,1538
45583426,1000,1000,1000,1000,59828559,1592,1592,1536,1536
45585925,1000,1000,1000,1000,59928519,1594,1594,1534,1535
45588424,1000,1000,1000,1000,60028479,1594,1595,1533,1535
45590923,1000,1000,1000,1000,60128439,1594,1594,1534,1536
45593422,1000,1000,1000,1000,60228399,1593,1593,1538,1540
45595921,1000,1000,1000,1000,60328359,1591,1589,1543,1546
45598420,1000,1000,1000,1000,60428319,1585,1583,1550,1553
45600919,1000,1000,1000,1000,60528279,1577,1574,1560,1562
45603418,1000,1000,1000,1000,60628239,1567,1564,1571,1573
45605917,1000,1000,1000,1000,60728199,1556,1552,1583,1585
45608416,1000,1000,1000,1000,60828159,1546,1543,1596,1596
45610915,1000,1000,1000,1000,60928952,1537,1535,1605,1605
45613414,1000,1000,1000,1000,61028912,1531,1531,1612,1611
45615913,1000,1000,1000,1000,61128872,1528,1529,1614,1613
45618412,1000,1000,1000,1000,61228832,1530,1533,1614,1613
45620911,1000,1000,1000,1000,61328792,1536,1538,1611,1611
45623410,1000,1000,1000,1000,61428752,1543,1545,1605,1606
45625909,1000,1000,1000,1000,61528712,1551,1552,1598,1598
45628408,1000,1000,1000,1000,61628672,1560,1561,1591,1591
45630907,1000,1000,1000,1000,61728632,1568,1568,1583,1582
45633406,1000,1000,1000,1000,61828592,1576,1575,1577,1576
45635905,1000,1000,1000,1000,61928552,1581,1580,1571,1570
45638404,1000,1000,1000,1000,62028512,1586,1585,1568,1568
45640903,1000,1000,1000,1000,62128472,1588,1587,1567,1567
45643402,1000,1000,1000,1000,62228432,1588,1587,1566,1566
45645901,1000,1000,1000,1000,62328392,1587,1586,1568,1568
45648400,1000,1000,1000,1000,62428352,1584,1583,1569,1569
45650899,1000,1000,1000,1000,62528312,1581,1581,1572,1572
45653398,1000,1000,1000,1000,62628272,1579,1578,1575,1575
45655897,1000,1000,1000,1000,62728232,1456,1459,1608,1612
45658396,1000,1000,1000,1000,62828192,1493,1497,1615,1617
45660895,1000,1000,1000,1000,62928985,1526,1531,1610,1608
45663394,1000,1000,1000,1000,63028945,1557,1561,1599,1595
45665893,1000,1000,1000,1000,63128905,1582,1584,1589,1584
45668392,1000,1000,1000,1000,63228865,1599,1597,1581,1578
45670891,1000,1000,1000,1000,63328825,1611,1606,1576,1576
45673390,1000,1000,1000,1000,63428785,1616,1610,1572,1574
45675889,1000,1000,1000,1000,63528745,1617,1612,1570,1573
45678388,1000,1000,1000,1000,63628705,1616,1613,1569,1572
45680887,1000,1000,1000,1000,63728665,1612,1611,1569,1571
45683386,1000,1000,1000,1000,63828625,1608,1609,1570,1571
45685885,1000,1000,1000,1000,63928585,1605,1606,1571,1572
45688384,1000,1000,1000,1000,64028545,1601,1602,1572,1572
45690883,1000,1000,1000,1000,64128505,1599,1599,1574,1573
45693382,1000,1000,1000,1000,64228465,1595,1594,1574,1574
45695881,1000,1000,1000,1000,64328425,1592,1591,1575,1575
45698380,1000,1000,1000,1000,64428385,1590,1588,1577,1577
45700879,1000,1000,1000,1000,64528345,1587,1586,1578,1578
45703378,1000,1000,1000,1000,64628305,1584,1583,1578,1578
45705877,1000,1000,1000,1000,64728265,1581,1582,1579,1579
45708376,1000,1000,1000,1000,64828225,1580,1581,1581,1580
45710875,1000,1000,1000,1000,64928185,1578,1579,1581,1580
45713374,1000,1000,1000,1000,65028978,1577,1578,1581,1580
45715873,1000,1000,1000,1000,65128938,1577,1578,1582,1581
45718372,1000,1000,1000,1000,65228898,1576,1577,1581,1581
45720871,1000,1000,1000,1000,65328858,1577,1578,1582,1582
45723370,1000,1000,1000,1000,65428818,1577,1577,1582,1581
45725869,1000,1000,1000,1000,65528778,1577,1577,1581,1581
45728368,1000,1000,1000,1000,65628738,1576,1577,1580,1580
45730867,1000,1000,1000,1000,65728698,1578,1577,1584,1577
45733366,1000,1000,1000,1000,65828658,1579,1577,1587,1572
45735865,1000,1000,1000,1000,65928618,1579,1577,1581,1572
45738364,1000,1000,1000,1000,66028578,1577,1576,1570,1571
45740863,1000,1000,1000,1000,66128538,1575,1576,1563,1569
45743362,1000,1000,1000,1000,66228498,1574,1576,1558,1564
45745861,1000,1000,1000,1000,66328458,1573,1576,1556,1560
45748360,1000,1000,1000,1000,66428418,1573,1575,1555,1556
45750859,1000,1000,1000,1000,66528378,1574,1575,1556,1555
45753358,1000,1000,1000,1000,66628338,1575,1575,1556,1553
45755857,1000,1000,1000,1000,66728298,1575,1574,1554,1552
45758356,1000,1000,1000,1000,66828258,1575,1575,1554,1552
45760855,1000,1000,1000,1000,66928218,1575,1575,1552,1551
45763354,1000,1000,1000,1000,67028178,1576,1576,1551,1551
45765853,1000,1000,1000,1000,67128971,1575,1577,1549,1549
45768352,1000,1000,1000,1000,67228931,1576,1578,1548,1548
45770851,1000,1000,1000,1000,67328891,1578,1579,1546,1547
45773350,1000,1000,1000,1000,67428851,1579,1581,1544,1544
45775849,1000,1000,1000,1000,67528811,1581,1583,1543,1542
45778348,1000,1000,1000,1000,67628771,1583,1584,1540,1539
45780847,1000,1000,1000,1000,67728731,1586,1585,1538,1537
45783346,1000,1000,1000,1000,67828691,1588,1588,1537,1537
45785845,1000,1000,1000,1000,67928651,1590,1590,1536,1537
45788344,1000,1000,1000,1000,68028611,1591,1591,1536,1537
45790843,1000,1000,1000,1000,68128571,1592,1590,1538,1540
45793342,1000,1000,1000,1000,68228531,1589,1588,1539,1541
45795841,1000,1000,1000,1000,68328491,1587,1586,1543,1546
45798340,1000,1000,1000,1000,68428451,1583,1582,1547,1551
45800839,1000,1000,1000,1000,68528411,1579,1578,1554,1557
45803338,1000,1000,1000,1000,68628371,1573,1572,1560,1564
45805837,1000,1000,1000,1000,68728331,1567,1564,1569,1571
45808336,1000,1000,1000,1000,68828291,1559,1557,1578,1579
45810835,1000,1000,1000,1000,68928251,1552,1549,1587,1588
45813334,1000,1000,1000,1000,69028211,1544,1542,1596,1596
45815833,1000,1000,1000,1000,69128171,1536,1535,1605,1604
45818332,1000,1000,1000,1000,69228964,1531,1531,1611,1609
45820831,1000,1000,1000,1000,69328924,1528,1531,1613,1612
45823330,1000,1000,1000,1000,69428884,1530,1532,1611,1610
45825829,1000,1000,1000,1000,69528844,1535,1538,1608,1607
45828328,1000,1000,1000,1000,69628804,1543,1544,1601,1601
45830827,1000,1000,1000,1000,69728764,1550,1551,1592,1593
45833326,1000,1000,1000,1000,69828724,1560,1560,1586,1586
45835825,1000,1000,1000,1000,69928684,1568,1568,1579,1578
45838324,1000,1000,1000,1000,70028644,1576,1575,1574,1572
45840823,1000,1000,1000,1000,70128604,1583,1581,1568,1568
45843322,1000,1000,1000,1000,70228564,1586,1584,1566,1566
45845821,1000,1000,1000,1000,70328524,1588,1587,1565,1565
45848320,1000,1000,1000,1000,70428484,1589,1588,1567,1568
45850819,1000,1000,1000,1000,70528444,1588,1587,1569,1569
45853318,1000,1000,1000,1000,70628404,1586,1586,1570,1571
45855817,1000,1000,1000,1000,70728364,1584,1584,1571,1572
45858316,1000,1000,1000,1000,70828324,1582,1582,1574,1574
45860815,1000,1000,1000,1000,70928284,1581,1581,1577,1576
45863314,1000,1000,1000,1000,71028244,1579,1579,1578,1578
45865813,1000,1000,1000,1000,71128204,1577,1578,1580,1580
45868312,1000,1000,1000,1000,71228164,1576,1576,1581,1582
45870811,1000,1000,1000,1000,71328957,1574,1575,1582,1582
45873310,1000,1000,1000,1000,71428917,1574,1575,1583,1583
45875809,1000,1000,1000,1000,71528877,1574,1575,1583,1583
45878308,1000,1000,1000,1000,71628837,1575,1575,1584,1583
45880807,1000,1000,1000,1000,71728797,1576,1576,1583,1583
45883306,1000,1000,1000,1000,71828757,1577,1577,1583,1582
45885805,1000,1000,1000,1000,71928717,1577,1578,1581,1581
45888304,1000,1000,1000,1000,72028677,1579,1579,1580,1580
45890803,1000,1000,1000,1000,72128637,1579,1579,1578,1578
45893302,1000,1000,1000,1000,72228597,1580,1580,1578,1578
45895801,1000,1000,1000,1000,72328557,1581,1581,1578,1578
45898300,1000,1000,1000,1000,72428517,1581,1581,1577,1577
45900799,1000,1000,1000,1000,72528477,1582,1582,1578,1579
45903298,1000,1000,1000,1000,72628437,1582,1582,1578,1578
45905797,1000,1000,1000,1000,72728397,1582,1583,1579,1579
45908296,1000,1000,1000,1000,72828357,1581,1581,1579,1578
45910795,1000,1000,1000,1000,72928317,1582,1582,1580,1580
45913294,1000,1000,1000,1000,73028277,1581,1581,1580,1580
45915793,1000,1000,1000,1000,73128237,1581,1581,1581,1581
45918292,1000,1000,1000,1000,73228197,1580,1580,1581,1581
45920791,1000,1000,1000,1000,73328157,1580,1580,1581,1581
45923290,1000,1000,1000,1000,73428950,1580,1580,1581,1581
45925789,1000,1000,1000,1000,73528910,1580,1580,1581,1582
45928288,1000,1000,1000,1000,73628870,1580,1580,1581,1581
45930787,1000,1000,1000,1000,73728830,1580,1580,1581,1581
45933286,1000,1000,1000,1000,73828790,1580,1580,1581,1580
45935785,1000,1000,1000,1000,73928750,1581,1581,1581,1581
45938284,1000,1000,1000,1000,74028710,1581,1581,1580,1581
45940783,1000,1000,1000,1000,74128670,1580,1580,1580,1580
45943282,1000,1000,1000,1000,74228630,1581,1581,1580,1581
45945781,1000,1000,1000,1000,74328590,1582,1582,1583,1579
45948280,1000,1000,1000,1000,74428550,1581,1582,1588,1572
45950779,1000,1000,1000,1000,74528510,1580,1581,1582,1572
45953278,1000,1000,1000,1000,74628470,1579,1581,1573,1572
45955777,1000,1000,1000,1000,74728430,1577,1579,1564,1570
45958276,1000,1000,1000,1000,74828390,1577,1579,1559,1566
45960775,1000,1000,1000,1000,74928350,1578,1579,1556,1562
45963274,1000,1000,1000,1000,75028310,1578,1578,1555,1557
45965773,1000,1000,1000,1000,75128270,1579,1579,1556,1556
45968272,1000,1000,1000,1000,75228230,1579,1578,1556,1554
45970771,1000,1000,1000,1000,75328190,1578,1577,1555,1553
45973270,1000,1000,1000,1000,75428983,1577,1577,1556,1554
45975769,1000,1000,1000,1000,75528943,1575,1577,1555,1554
45978268,1000,1000,1000,1000,75628903,1575,1576,1554,1554
45980767,1000,1000,1000,1000,75728863,1575,1577,1553,1554
45983266,1000,1000,1000,1000,75828823,1575,1576,1551,1551
45985765,1000,1000,1000,1000,75928783,1576,1577,1550,1550
45988264,1000,1000,1000,1000,76028743,1577,1578,1547,1547
45990763,1000,1000,1000,1000,76128703,1580,1581,1547,1546
45993262,1000,1000,1000,1000,76228663,1582,1583,1544,1543
45995761,1000,1000,1000,1000,76328623,1584,1585,1541,1541
45998260,1000,1000,1000,1000,76428583,1587,1587,1539,1539
46000759,1000,1000,1000,1000,76528543,1589,1589,1538,1539
46003258,1000,1000,1000,1000,76628503,1590,1590,1537,1537
46005757,1000,1000,1000,1000,76728463,1591,1590,1537,1539
46008256,1000,1000,1000,1000,76828423,1591,1592,1539,1542
46010755,1000,1000,1000,1000,76928383,1590,1589,1541,1544
46013254,1000,1000,1000,1000,77028343,1588,1587,1546,1549
46015753,1000,1000,1000,1000,77128303,1583,1581,1552,1555
46018252,1000,1000,1000,1000,77228263,1578,1575,1563,1565
46020751,1000,1000,1000,1000,77328223,1570,1565,1573,1575
46023250,1000,1000,1000,1000,77428183,1560,1556,1584,1585
46025749,1000,1000,1000,1000,77528976,1550,1547,1594,1595
46028248,1000,1000,1000,1000,77628936,1542,1540,1603,1603
46030747,1000,1000,1000,1000,77728896,1534,1535,1608,1607
46033246,1000,1000,1000,1000,77828856,1532,1533,1611,1611
46035745,1000,1000,1000,1000,77928816,1668,1670,1589,1585
46038244,1000,1000,1000,1000,78028776,1628,1627,1571,1568
46040743,1000,1000,1000,1000,78128736,1596,1594,1572,1573
46043242,1000,1000,1000,1000,78228696,1571,1569,1578,1580
46045741,1000,1000,1000,1000,78328656,1552,1550,1582,1583
46048240,1000,1000,1000,1000,78428616,1540,1540,1585,1585
46050739,1000,1000,1000,1000,78528576,1535,1537,1588,1587
46053238,1000,1000,1000,1000,78628536,1534,1536,1589,1587
46055737,1000,1000,1000,1000,78728496,1536,1538,1588,1587
46058236,1000,1000,1000,1000,78828456,1540,1543,1587,1587
46060735,1000,1000,1000,1000,78928416,1546,1548,1586,1586
46063234,1000,1000,1000,1000,79028376,1551,1553,1585,1585
46065733,1000,1000,1000,1000,79128336,1556,1556,1582,1583
46068232,1000,1000,1000,1000,79228296,1562,1561,1581,1582
46070731,1000,1000,1000,1000,79328256,1566,1565,1580,1580
46073230,1000,1000,1000,1000,79428216,1571,1571,1580,1580
46075729,1000,1000,1000,1000,79528176,1575,1574,1579,1579
46078228,1000,1000,1000,1000,79628969,1577,1576,1578,1578
46080727,1000,1000,1000,1000,79728929,1579,1579,1578,1577
46083226,1000,1000,1000,1000,79828889,1582,1581,1578,1577
46085725,1000,1000,1000,1000,79928849,1583,1582,1577,1577
46088224,1000,1000,1000,1000,80028809,1585,1584,1578,1578
46090723,1000,1000,1000,1000,80128769,1585,1585,1578,1578
46093222,1000,1000,1000,1000,80228729,1585,1584,1578,1578
46095721,1000,1000,1000,1000,80328689,1584,1583,1577,1577
46098220,1000,1000,1000,1000,80428649,1583,1582,1577,1578
46100719,1000,1000,1000,1000,80528609,1583,1582,1579,1579
46103218,1000,1000,1000,1000,80628569,1582,1582,1579,1579
46105717,1000,1000,1000,1000,80728529,1581,1581,1580,1580
46108216,1000,1000,1000,1000,80828489,1580,1580,1580,1580
46110715,1000,1000,1000,1000,80928449,1579,1579,1580,1580
46113214,1000,1000,1000,1000,81028409,1579,1580,1581,1581
46115713,1000,1000,1000,1000,81128369,1579,1579,1581,1581
46118212,1000,1000,1000,1000,81228329,1578,1579,1581,1581
46120711,1000,1000,1000,1000,81328289,1579,1579,1582,1582
46123210,1000,1000,1000,1000,81428249,1579,1579,1582,1582
46125709,1000,1000,1000,1000,81528209,1579,1580,1582,1582
46128208,1000,1000,1000,1000,81628169,1579,1580,1582,1582
46130707,1000,1000,1000,1000,81728962,1579,1579,1581,1581
46133206,1000,1000,1000,1000,81828922,1580,1579,1581,1581
46135705,1000,1000,1000,1000,81928882,1580,1580,1581,1581
46138204,1000,1000,1000,1000,82028842,1580,1580,1580,1580
46140703,1000,1000,1000,1000,82128802,1580,1581,1581,1581
46143202,1000,1000,1000,1000,82228762,1581,1581,1581,1581
46145701,1000,1000,1000,1000,82328722,1580,1580,1580,1580
46148200,1000,1000,1000,1000,82428682,1581,1582,1585,1574
46150699,1000,1000,1000,1000,82528642,1581,1584,1586,1572
46153198,1000,1000,1000,1000,82628602,1578,1581,1579,1574
46155697,1000,1000,1000,1000,82728562,1576,1577,1572,1575
46158196,1000,1000,1000,1000,82828522,1573,1573,1567,1574
46160695,1000,1000,1000,1000,82928482,1572,1570,1565,1572
46163194,1000,1000,1000,1000,83028442,1570,1568,1565,1570
46165693,1000,1000,1000,1000,83128402,1569,1567,1566,1568
46168192,1000,1000,1000,1000,83228362,1567,1566,1567,1566
46170691,1000,1000,1000,1000,83328322,1566,1566,1568,1565
46173190,1000,1000,1000,1000,83428282,1565,1566,1567,1564
46175689,1000,1000,1000,1000,83528242,1564,1565,1567,1565
46178188,1000,1000,1000,1000,83628202,1564,1564,1565,1565
46180687,1000,1000,1000,1000,83728162,1563,1563,1565,1564
46183186,1000,1000,1000,1000,83828955,1562,1562,1563,1563
46185685,1000,1000,1000,1000,83928915,1562,1562,1563,1564
46188184,1000,1000,1000,1000,84028875,1562,1562,1562,1562
46190683,1000,1000,1000,1000,84128835,1562,1561,1562,1562
46193182,1000,1000,1000,1000,84228795,1561,1560,1561,1561
46195681,1000,1000,1000,1000,84328755,1560,1560,1560,1560
46198180,1000,1000,1000,1000,84428715,1559,1559,1560,1559
46200679,1000,1000,1000,1000,84528675,1558,1558,1558,1557
46203178,1000,1000,1000,1000,84628635,1557,1558,1558,1557
46205677,1000,1000,1000,1000,84728595,1557,1557,1557,1557
46208176,1000,1000,1000,1000,84828555,1558,1558,1558,1557
46210675,1000,1000,1000,1000,84928515,1558,1558,1558,1557
46213174,1000,1000,1000,1000,85028475,1557,1558,1558,1556
46215673,1000,1000,1000,1000,85128435,1558,1558,1559,1556
46218172,1000,1000,1000,1000,85228395,1558,1559,1559,1558
46220671,1000,1000,1000,1000,85328355,1559,1559,1558,1560
46223170,1000,1000,1000,1000,85428315,1560,1559,1557,1562
46225669,1000,1000,1000,1000,85528275,1561,1561,1558,1564
46228168,1000,1000,1000,1000,85628235,1562,1561,1559,1563
46230667,1000,1000,1000,1000,85728195,1563,1562,1561,1564
46233166,1000,1000,1000,1000,85828155,1562,1561,1563,1561
46235665,1000,1000,1000,1000,85928948,1561,1560,1561,1561
46238164,1000,1000,1000,1000,86028908,1558,1558,1558,1559
46240663,1000,1000,1000,1000,86128868,1554,1554,1554,1555
46243162,1000,1000,1000,1000,86228828,1548,1548,1548,1549
46245661,1000,1000,1000,1000,86328788,1543,1543,1543,1544
46248160,1000,1000,1000,1000,86428748,1537,1537,1537,1537
46250659,1000,1000,1000,1000,86528708,1528,1529,1529,1529
46253158,1000,1000,1000,1000,86628668,1522,1522,1522,1523
46255657,1000,1000,1000,1000,86728628,1520,1520,1520,1520
46258156,1000,1000,1000,1000,86828588,1520,1520,1520,1520
46260655,1000,1000,1000,1000,86928548,1521,1521,1521,1521
46263154,1000,1000,1000,1000,87028508,1523,1524,1524,1524
46266486,1000,1000,1000,1000,87128468,1527,1527,1528,1527
46268985,1000,1000,1000,1000,87228428,1531,1531,1531,1531
46271484,1000,1000,1000,1000,87328388,1536,1536,1536,1537
46273983,1000,1000,1000,1000,87428348,1539,1539,1539,1539
46276482,1000,1000,1000,1000,87528308,1541,1541,1541,1541
46278981,1000,1000,1000,1000,87628268,1542,1543,1542,1542
46281480,1000,1000,1000,1000,87728228,1544,1544,1544,1544
46283979,1000,1000,1000,1000,87828188,1545,1546,1546,1546
46286478,1000,1000,1000,1000,87928981,1546,1547,1546,1546
46288977,1000,1000,1000,1000,88028941,1546,1546,1546,1545
46291476,1000,1000,1000,1000,88128901,1547,1546,1547,1546
46293975,1000,1000,1000,1000,88228861,1546,1546,1546,1547
46296474,1000,1000,1000,1000,88328821,1547,1547,1547,1547
46298973,1000,1000,1000,1000,88428781,1546,1546,1546,1545
46301472,1000,1000,1000,1000,88528741,1546,1546,1546,1546
46303971,1000,1000,1000,1000,88628701,1545,1545,1545,1545
46306470,1000,1000,1000,1000,88728661,1546,1546,1546,1546
46308969,1000,1000,1000,1000,88828621,1545,1545,1545,1545
46311468,1000,1000,1000,1000,88928581,1544,1545,1545,1545
46313967,1000,1000,1000,1000,89028541,1544,1545,1545,1544
46316466,1000,1000,1000,1000,89128501,1545,1544,1545,1544
46318965,1000,1000,1000,1000,89228461,1545,1544,1544,1544
46321464,1000,1000,1000,1000,89328421,1544,1544,1544,1545
46323963,1000,1000,1000,1000,89428381,1544,1544,1544,1544
46326462,1000,1000,1000,1000,89528341,1544,1545,1544,1544
46328961,1000,1000,1000,1000,89628301,1544,1544,1544,1544
46331460,1000,1000,1000,1000,89728261,1544,1544,1544,1544
46333959,1000,1000,1000,1000,89828221,1543,1544,1544,1543
46336458,1000,1000,1000,1000,89928181,1544,1544,1544,1544
46338957,1000,1000,1000,1000,90028974,1544,1544,1544,1544
46341456,1000,1000,1000,1000,90128934,1545,1544,1545,1545
46343955,1000,1000,1000,1000,90228894,1544,1544,1545,1545
46346454,1000,1000,1000,1000,90328854,1544,1543,1543,1544
46348953,1000,1000,1000,1000,90428814,1544,1544,1544,1544
46351452,1000,1000,1000,1000,90528774,1543,1543,1543,1543
46353951,1000,1000,1000,1000,90628734,1544,1544,1544,1544
46356450,1000,1000,1000,1000,90728694,1544,1544,1544,1544
46358949,1000,1000,1000,1000,90828654,1543,1543,1543,1544
46361448,1000,1000,1000,1000,90928614,1545,1544,1544,1545
46363947,1000,1000,1000,1000,91028574,1545,1545,1545,1545
46366446,1000,1000,1000,1000,91128534,1544,1544,1544,1544
46368945,1000,1000,1000,1000,91228494,1543,1544,1544,1544
46371444,1000,1000,1000,1000,91328454,1544,1544,1544,1544
46373943,1000,1000,1000,1000,91428414,1544,1544,1545,1544
46376442,1000,1000,1000,1000,91528374,1545,1544,1544,1544
46378941,1000,1000,1000,1000,91628334,1545,1544,1545,1545
46381440,1000,1000,1000,1000,91728294,1545,1545,1545,1545
46383939,1000,1000,1000,1000,91828254,1545,1546,1546,1546
46386438,1000,1000,1000,1000,91928214,1544,1544,1544,1544
46388937,1000,1000,1000,1000,92028174,1543,1543,1543,1543
46391436,1000,1000,1000,1000,92128967,1544,1544,1544,1544
46393935,1000,1000,1000,1000,92228927,1545,1544,1545,1544
46396434,1000,1000,1000,1000,92328887,1545,1544,1545,1544
46398933,1000,1000,1000,1000,92428847,1544,1544,1544,1544
46401432,1000,1000,1000,1000,92528807,1544,1545,1544,1545
46403931,1000,1000,1000,1000,92628767,1544,1544,1544,1544
46406430,1000,1000,1000,1000,92728727,1544,1544,1544,1544
46408929,1000,1000,1000,1000,92828687,1545,1545,1545,1545
46411428,1000,1000,1000,1000,92928647,1544,1544,1545,1544
46413927,1000,1000,1000,1000,93028607,1544,1544,1544,1544
46416426,1000,1000,1000,1000,93128567,1544,1544,1544,1544
46418925,1000,1000,1000,1000,93228527,1545,1545,1545,1545
46421424,1000,1000,1000,1000,93328487,1544,1544,1544,1545
46423923,1000,1000,1000,1000,93428447,1543,1544,1544,1544
46426422,1000,1000,1000,1000,93528407,1544,1544,1544,1544
46428921,1000,1000,1000,1000,93628367,1543,1544,1544,1544
46431420,1000,1000,1000,1000,93728327,1544,1544,1544,1545
46433919,1000,1000,1000,1000,93828287,1544,1544,1544,1544
46436418,1000,1000,1000,1000,93928247,1545,1544,1544,1544
46438917,1000,1000,1000,1000,94028207,1544,1544,1544,1544
46441416,1000,1000,1000,1000,94128167,1544,1544,1544,1544
46443915,1000,1000,1000,1000,94228960,1544,1544,1544,1544
46446414,1000,1000,1000,1000,94328920,1544,1544,1544,1544
46448913,1000,1000,1000,1000,94428880,1544,1544,1544,1544
46451412,1000,1000,1000,1000,94528840,1543,1543,1543,1544
46453911,1000,1000,1000,1000,94628800,1544,1544,1544,1544
46456410,1000,1000,1000,1000,94728760,1543,1543,1544,1543
46458909,1000,1000,1000,1000,94828720,1543,1544,1544,1544
46461408,1000,1000,1000,1000,94928680,1544,1543,1544,1544
46463907,1000,1000,1000,1000,95028640,1543,1543,1543,1543
46466406,1000,1000,1000,1000,95128600,1543,1543,1543,1543
46468905,1000,1000,1000,1000,95228560,1544,1543,1544,1543
46471404,1000,1000,1000,1000,95328520,1544,1545,1545,1544
46473903,1000,1000,1000,1000,95428480,1544,1544,1544,1544
46476402,1000,1000,1000,1000,95528440,1543,1543,1543,1544
46478901,1000,1000,1000,1000,95628400,1544,1544,1544,1544
46481400,1000,1000,1000,1000,95728360,1545,1545,1544,1545
46483899,1000,1000,1000,1000,95828320,1545,1545,1545,1545
46486398,1000,1000,1000,1000,95928280,1545,1544,1545,1544
46488897,1000,1000,1000,1000,96028240,1545,1545,1545,1545
46491396,1000,1000,1000,1000,96128200,1544,1544,1544,1544
46493895,1000,1000,1000,1000,96228160,1544,1544,1545,1544
46496394,1000,1000,1000,1000,96328953,1545,1545,1545,1545
46498893,1000,1000,1000,1000,96428913,1442,1440,1442,1441
46501392,1000,1000,1000,1000,96528873,1288,1286,1288,1288
46503891,1000,1000,1000,1000,96628833,1226,1223,1227,1226
46506390,1000,1000,1000,1000,96728793,1206,1202,1207,1207
46508889,1000,1000,1000,1000,96828753,1176,1172,1177,1177
46511388,1000,1000,1000,1000,96928713,1155,1150,1155,1156
46513887,1000,1000,1000,1000,97028673,1154,1150,1156,1156
46516386,1000,1000,1000,1000,97128633,1179,1150,1154,1183
46518885,1000,1000,1000,1000,97228593,1176,1150,1157,1179
46521384,1000,1000,1000,1000,97328553,1172,1150,1158,1175
46523883,1000,1000,1000,1000,97428513,1172,1150,1158,1175
46526382,1000,1000,1000,1000,97528473,1174,1150,1159,1177
46528881,1000,1000,1000,1000,97628433,1176,1150,1160,1179
46531380,1000,1000,1000,1000,97728393,1179,1150,1160,1182
46533879,1000,1000,1000,1000,97828353,1180,1150,1161,1184
46536378,1000,1000,1000,1000,97928313,1164,1150,1160,1170
46538877,1000,1000,1000,1000,98028273,1167,1150,1161,1173
46541376,1000,1000,1000,1000,98128233,1168,1150,1161,1174
46543875,1000,1000,1000,1000,98228193,1169,1150,1162,1175
46546374,1000,1000,1000,1000,98328986,1169,1150,1162,1176
46548873,1000,1000,1000,1000,98428946,1000,1000,1000,1000
46551372,1000,1000,1000,1000,98528906,1000,1000,1000,1000
46553871,1000,1000,1000,1000,98628866,1000,1000,1000,1000
46556370,1000,1000,1000,1000,98728826,1000,1000,1000,1000
46558869,1000,1000,1000,1000,98828786,1000,1000,1000,1000
46561368,1000,1000,1000,1000,98928746,1000,1000,1000,1000
46563867,1000,1000,1000,1000,99028706,1000,1000,1000,1000
46566366,1000,1000,1000,1000,99128666,1000,1000,1000,1000
46568865,1000,1000,1000,1000,99228626,1000,1000,1000,1000
46571364,1000,1000,1000,1000,99328586,1000,1000,1000,1000
46573863,1000,1000,1000,1000,99428546,1000,1000,1000,1000
46576362,1000,1000,1000,1000,99528506,1000,1000,1000,1000
46578861,1000,1000,1000,1000,99628466,1000,1000,1000,1000
46581360,1000,1000,1000,1000,99728426,1000,1000,1000,1000
46583859,1000,1000,1000,1000,99828386,1000,1000,1000,1000
46586358,1000,1000,1000,1000,99928346,1000,1000,1000,1000
46588857,1000,1000,1000,1000,100028306,1000,1000,1000,1000
46591356,1000,1000,1000,1000,100128266,1000,1000,1000,1000
46593855,1000,1000,1000,1000,100228226,1000,1000,1000,1000
46596354,1000,1000,1000,1000,100328186,1000,1000,1000,1000
46598853,1000,1000,1000,1000,100428979,1000,1000,1000,1000
46601352,1000,1000,1000,1000,100528939,1000,1000,1000,1000
46603851,1000,1000,1000,1000,100628899,1000,1000,1000,1000
46606350,1000,1000,1000,1000,100728859,1000,1000,1000,1000
46608849,1000,1000,1000,1000,100828819,1000,1000,1000,1000
46611348,1000,1000,1000,1000,100928779,1000,1000,1000,1000
46613847,1000,1000,1000,1000,101028739,1000,1000,1000,1000
46616346,1000,1000,1000,1000,101128699,1000,1000,1000,1000
46618845,1000,1000,1000,1000,101228659,1000,1000,1000,1000
46621344,1000,1000,1000,1000,101328619,1000,1000,1000,1000
46623843,1000,1000,1000,1000,101428579,1000,1000,1000,1000
46626342,1000,1000,1000,1000,101528539,1000,1000,1000,1000
46628841,1000,1000,1000,1000,101628499,1000,1000,1000,1000
46631340,1000,1000,1000,1000,101728459,1000,1000,1000,1000
46633839,1000,1000,1000,1000,101828419,1000,1000,1000,1000
46636338,1000,1000,1000,1000,101928379,1000,1000,1000,1000
46638837,1000,1000,1000,1000,102028339,1000,1000,1000,1000
46641336,1000,1000,1000,1000,102128299,1000,1000,1000,1000
46643835,1000,1000,1000,1000,102228259,1000,1000,1000,1000
46646334,1000,1000,1000,1000,102328219,1000,1000,1000,1000
46648833,1000,1000,1000,1000,102428179,1000,1000,1000,1000
46651332,1000,1000,1000,1000,102528972,1000,1000,1000,1000
46653831,1000,1000,1000,1000,102628932,1000,1000,1000,1000
46656330,1000,1000,1000,1000,102728892,1000,1000,1000,1000
46658829,1000,1000,1000,1000,102828852,1000,1000,1000,1000
46661328,1000,1000,1000,1000,102928812,1000,1000,1000,1000
46663827,1000,1000,1000,1000,103028772,1000,1000,1000,1000
46666326,1000,1000,1000,1000,103128732,1000,1000,1000,1000
46668825,1000,1000,1000,1000,103228692,1000,1000,1000,1000
46671324,1000,1000,1000,1000,103328652,1000,1000,1000,1000
46673823,1000,1000,1000,1000,103428612,1000,1000,1000,1000
46676322,1000,1000,1000,1000,103528572,1000,1000,1000,1000
46678821,1000,1000,1000,1000,103628532,1000,1000,1000,1000
46681320,1000,1000,1000,1000,103728492,1000,1000,1000,1000
46683819,1000,1000,1000,1000,103828452,1000,1000,1000,1000
46686318,1000,1000,1000,1000,103928412,1000,1000,1000,1000
46688817,1000,1000,1000,1000,104028372,1000,1000,1000,1000
46691316,1000,1000,1000,1000,104128332,1000,1000,1000,1000
46693815,1000,1000,1000,1000,104228292,1000,1000,1000,1000
46696314,1000,1000,1000,1000,104328252,1000,1000,1000,1000
46698813,1000,1000,1000,1000,104428212,1000,1000,1000,1000
46701312,1000,1000,1000,1000,104528172,1000,1000,1000,1000
46703811,1000,1000,1000,1000,104628965,1000,1000,1000,1000
46706310,1000,1000,1000,1000,104728925,1000,1000,1000,1000
46708809,1000,1000,1000,1000,104828885,1000,1000,1000,1000
46711308,1000,1000,1000,1000,104928845,1000,1000,1000,1000
46713807,1000,1000,1000,1000,105028805,1000,1000,1000,1000
46716306,1000,1000,1000,1000,105128765,1000,1000,1000,1000
46718805,1000,1000,1000,1000,105228725,1000,1000,1000,1000
46721304,1000,1000,1000,1000,105328685,1000,1000,1000,1000
46723803,1000,1000,1000,1000,105428645,1000,1000,1000,1000
46726302,1000,1000,1000,1000,105528605,1000,1000,1000,1000
46728801,1000,1000,1000,1000,105628565,1000,1000,1000,1000
46731300,1000,1000,1000,1000,105728525,1000,1000,1000,1000
46733799,1000,1000,1000,1000,105828485,1000,1000,1000,1000
46736298,1000,1000,1000,1000,105928445,1000,1000,1000,1000
46738797,1000,1000,1000,1000,106028405,1000,1000,1000,1000
46741296,1000,1000,1000,1000,106128365,1000,1000,1000,1000
46743795,1000,1000,1000,1000,106228325,1000,1000,1000,1000
46746294,1000,1000,1000,1000,106328285,1000,1000,1000,1000
46748793,1000,1000,1000,1000,106428245,1000,1000,1000,1000
46751292,1000,1000,1000,1000,106528205,1000,1000,1000,1000
46753791,1000,1000,1000,1000,106628165,1000,1000,1000,1000
46756290,1000,1000,1000,1000,106728958,1000,1000,1000,1000
46758789,1000,1000,1000,1000,106828918,1000,1000,1000,1000
46761288,1000,1000,1000,1000,106928878,1000,1000,1000,1000
46763787,1000,1000,1000,1000,107028838,1000,1000,1000,1000
46766286,1000,1000,1000,1000,107128798,1000,1000,1000,1000
46768785,1000,1000,1000,1000,107228758,1000,1000,1000,1000
46771284,1000,1000,1000,1000,107328718,1000,1000,1000,1000
46773783,1000,1000,1000,1000,107428678,1000,1000,1000,1000
46776282,1000,1000,1000,1000,107528638,1000,1000,1000,1000
46778781,1000,1000,1000,1000,107628598,1000,1000,1000,1000
46781280,1000,1000,1000,1000,107728558,1000,1000,1000,1000
46783779,1000,1000,1000,1000,107828518,1000,1000,1000,1000
46786278,1000,1000,1000,1000,107928478,1000,1000,1000,1000
46788777,1000,1000,1000,1000,108028438,1000,1000,1000,1000
46791276,1000,1000,1000,1000,108128398,1000,1000,1000,1000
46793775,1000,1000,1000,1000,108228358,1000,1000,1000,1000
46796274,1000,1000,1000,1000,108328318,1000,1000,1000,1000
46798773,1000,1000,1000,1000,108428278,1000,1000,1000,1000
46801272,1000,1000,1000,1000,108528238,1000,1000,1000,1000
46803771,1000,1000,1000,1000,108628198,1000,1000,1000,1000
46806270,1000,1000,1000,1000,108728158,1000,1000,1000,1000
46808769,1000,1000,1000,1000,108828951,1000,1000,1000,1000
46811268,1000,1000,1000,1000,108928911,1000,1000,1000,1000
46813767,1000,1000,1000,1000,109028871,1000,1000,1000,1000
46816266,1000,1000,1000,1000,109128831,1000,1000,1000,1000
46818765,1000,1000,1000,1000,109228791,1000,1000,1000,1000
46821264,1000,1000,1000,1000,109328751,1000,1000,1000,1000
46823763,1000,1000,1000,1000,109428711,1000,1000,1000,1000
46826262,1000,1000,1000,1000,109528671,1000,1000,1000,1000
46828761,1000,1000,1000,1000,109628631,1000,1000,1000,1000
46831260,1000,1000,1000,1000,109728591,1000,1000,1000,1000
46833759,1000,1000,1000,1000,109828551,1000,1000,1000,1000
46836258,1000,1000,1000,1000,109928511,1000,1000,1000,1000
46838757,1000,1000,1000,1000,110028471,1000,1000,1000,1000
46841256,1000,1000,1000,1000,110128431,1000,1000,1000,1000
46843755,1000,1000,1000,1000,110228391,1000,1000,1000,1000
46846254,1000,1000,1000,1000,110328351,1000,1000,1000,1000
46848753,1000,1000,1000,1000,110428311,1000,1000,1000,1000
46851252,1000,1000,1000,1000,110528271,1000,1000,1000,1000
46853751,1000,1000,1000,1000,110628231,1000,1000,1000,1000
46856250,1000,1000,1000,1000,110728191,1000,1000,1000,1000
46858749,1000,1000,1000,1000,110828984,1000,1000,1000,1000
46861248,1000,1000,1000,1000,110928944,1000,1000,1000,1000
46863747,1000,1000,1000,1000,111028904,1000,1000,1000,1000
46866246,1000,1000,1000,1000,111128864,1000,1000,1000,1000
46868745,1000,1000,1000,1000,111228824,1000,1000,1000,1000
46871244,1000,1000,1000,1000,111328784,1000,1000,1000,1000
46873743,1000,1000,1000,1000,111428744,1000,1000,1000,1000
46876242,1000,1000,1000,1000,111528704,1000,1000,1000,1000
46878741,1000,1000,1000,1000,111628664,1000,1000,1000,1000
46881240,1000,1000,1000,1000,111728624,1000,1000,1000,1000
46883739,1000,1000,1000,1000,111828584,1000,1000,1000,1000
46886238,1000,1000,1000,1000,111928544,1000,1000,1000,1000
46888737,1000,1000,1000,1000,112028504,1000,1000,1000,1000
46891236,1000,1000,1000,1000,112128464,1000,1000,1000,1000
46893735,1000,1000,1000,1000,112228424,1000,1000,1000,1000
46896234,1000,1000,1000,1000,112328384,1000,1000,1000,1000
46898733,1000,1000,1000,1000,112428344,1000,1000,1000,1000
46901232,1000,1000,1000,1000,112528304,1000,1000,1000,1000
46903731,1000,1000,1000,1000,112628264,1000,1000,1000,1000
46906230,1000,1000,1000,1000,112728224,1000,1000,1000,1000
46908729,1000,1000,1000,1000,112828184,1000,1000,1000,1000
46911228,1000,1000,1000,1000,112928977,1000,1000,1000,1000
46913727,1000,1000,1000,1000,113028937,1000,1000,1000,1000
46916226,1000,1000,1000,1000,113128897,1000,1000,1000,1000
46918725,1000,1000,1000,1000,113228857,1000,1000,1000,1000
46921224,1000,1000,1000,1000,113328817,1000,1000,1000,1000
46923723,1000,1000,1000,1000,,,,,
46926222,1000,1000,1000,1000,,,,,
46928721,1000,1000,1000,1000,,,,,
46931220,1000,1000,1000,1000,,,,,
46933719,1000,1000,1000,1000,,,,,
46936218,1000,1000,1000,1000,,,,,
46938717,1000,1000,1000,1000,,,,,
46941216,1000,1000,1000,1000,,,,,
46943715,1000,1000,1000,1000,,,,,
46946214,1000,1000,1000,1000,,,,,
46948713,1000,1000,1000,1000,,,,,
46951212,1000,1000,1000,1000,,,,,
46953711,1000,1000,1000,1000,,,,,
46956210,1000,1000,1000,1000,,,,,
46958709,1000,1000,1000,1000,,,,,
46961208,1000,1000,1000,1000,,,,,
46963707,1000,1000,1000,1000,,,,,
46966206,1000,1000,1000,1000,,,,,
46968705,1000,1000,1000,1000,,,,,
46971204,1000,1000,1000,1000,,,,,
46973703,1000,1000,1000,1000,,,,,
46976202,1000,1000,1000,1000,,,,,
46978701,1000,1000,1000,1000,,,,,
46981200,1000,1000,1000,1000,,,,,
46983699,1000,1000,1000,1000,,,,,
46986198,1000,1000,1000,1000,,,,,
46988697,1000,1000,1000,1000,,,,,
46991196,1000,1000,1000,1000,,,,,
46993695,1000,1000,1000,1000,,,,,
46996194,1000,1000,1000,1000,,,,,
46998693,1000,1000,1000,1000,,,,,
47001192,1000,1000,1000,1000,,,,,
47003691,1000,1000,1000,1000,,,,,
47006190,1000,1000,1000,1000,,,,,
47008689,1000,1000,1000,1000,,,,,
47011188,1000,1000,1000,1000,,,,,
47013687,1000,1000,1000,1000,,,,,
47016186,1000,1000,1000,1000,,,,,
47018685,1000,1000,1000,1000,,,,,
47021184,1000,1000,1000,1000,,,,,
47023683,1000,1000,1000,1000,,,,,
47026182,1000,1000,1000,1000,,,,,
47028681,1000,1000,1000,1000,,,,,
47031180,1000,1000,1000,1000,,,,,
47033679,1000,1000,1000,1000,,,,,
47036178,1000,1000,1000,1000,,,,,
47038677,1000,1000,1000,1000,,,,,
47041176,1000,1000,1000,1000,,,,,
47043675,1000,1000,1000,1000,,,,,
47046174,1000,1000,1000,1000,,,,,
47048673,1000,1000,1000,1000,,,,,
47051172,1000,1000,1000,1000,,,,,
47053671,1000,1000,1000,1000,,,,,
47056170,1000,1000,1000,1000,,,,,
47058669,1000,1000,1000,1000,,,,,
47061168,1000,1000,1000,1000,,,,,
47063667,1000,1000,1000,1000,,,,,
47066166,1000,1000,1000,1000,,,,,
47068665,1000,1000,1000,1000,,,,,
47071164,1000,1000,1000,1000,,,,,
47073663,1000,1000,1000,1000,,,,,
47076162,1000,1000,1000,1000,,,,,
47078661,1000,1000,1000,1000,,,,,
47081160,1000,1000,1000,1000,,,,,
47083659,1000,1000,1000,1000,,,,,
47086158,1000,1000,1000,1000,,,,,
47088657,1000,1000,1000,1000,,,,,
47091156,1000,1000,1000,1000,,,,,
47093655,1000,1000,1000,1000,,,,,
47096154,1000,1000,1000,1000,,,,,
47098653,1000,1000,1000,1000,,,,,
47101152,1000,1000,1000,1000,,,,,
47103651,1000,1000,1000,1000,,,,,
47106150,1000,1000,1000,1000,,,,,
47108649,1000,1000,1000,1000,,,,,
47111148,1000,1000,1000,1000,,,,,
47113647,1000,1000,1000,1000,,,,,
47116146,1000,1000,1000,1000,,,,,
47118645,1000,1000,1000,1000,,,,,
47121144,1000,1000,1000,1000,,,,,
47123643,1000,1000,1000,1000,,,,,
47126142,1000,1000,1000,1000,,,,,
47128641,1000,1000,1000,1000,,,,,
47131140,1000,1000,1000,1000,,,,,
47133639,1000,1000,1000,1000,,,,,
47136138,1000,1000,1000,1000,,,,,
47138637,1000,1000,1000,1000,,,,,
47141136,1000,1000,1000,1000,,,,,
47143635,1000,1000,1000,1000,,,,,
47146134,1000,1000,1000,1000,,,,,
47148633,1000,1000,1000,1000,,,,,
47151132,1000,1000,1000,1000,,,,,
47153631,1000,1000,1000,1000,,,,,
47156130,1000,1000,1000,1000,,,,,
47158629,1000,1000,1000,1000,,,,,
47161128,1000,1000,1000,1000,,,,,
47163627,1000,1000,1000,1000,,,,,
47166126,1000,1000,1000,1000,,,,,
47168625,1000,1000,1000,1000,,,,,
47171124,1000,1000,1000,1000,,,,,
47173623,1000,1000,1000,1000,,,,,
47176122,1000,1000,1000,1000,,,,,
47178621,1000,1000,1000,1000,,,,,
47181120,1000,1000,1000,1000,,,,,
47183619,1000,1000,1000,1000,,,,,
47186118,1000,1000,1000,1000,,,,,
47188617,1000,1000,1000,1000,,,,,
47191116,1000,1000,1000,1000,,,,,
47193615,1000,1000,1000,1000,,,,,
47196114,1000,1000,1000,1000,,,,,
47198613,1000,1000,1000,1000,,,,,
47201112,1000,1000,1000,1000,,,,,
47203611,1000,1000,1000,1000,,,,,
47206110,1000,1000,1000,1000,,,,,
47208609,1000,1000,1000,1000,,,,,
47211108,1000,1000,1000,1000,,,,,
47213607,1000,1000,1000,1000,,,,,
47216106,1000,1000,1000,1000,,,,,
47218605,1000,1000,1000,1000,,,,,
47221104,1000,1000,1000,1000,,,,,
47223603,1000,1000,1000,1000,,,,,
47226102,1001,1001,1001,1001,,,,,
47228601,1002,1002,1002,1002,,,,,
47231100,1003,1003,1003,1003,,,,,
47233599,1003,1003,1003,1003,,,,,
47236098,1004,1004,1004,1004,,,,,
47238597,1005,1005,1005,1005,,,,,
47241096,1006,1006,1006,1006,,,,,
47243595,1006,1006,1006,1006,,,,,
47246094,1007,1007,1007,1007,,,,,
47248593,1008,1008,1008,1008,,,,,
47251092,1009,1009,1009,1009,,,,,
47253591,1009,1009,1009,1009,,,,,
47256090,1010,1010,1010,1010,,,,,
47258589,1011,1011,1011,1011,,,,,
47261088,1012,1012,1012,1012,,,,,
47263587,1012,1012,1012,1012,,,,,
47266086,1013,1013,1013,1013,,,,,
47268585,1014,1014,1014,1014,,,,,
47271084,1015,1015,1015,1015,,,,,
47273583,1015,1015,1015,1015,,,,,
47276082,1016,1016,1016,1016,,,,,
47278581,1017,1017,1017,1017,,,,,
47281080,1018,1018,1018,1018,,,,,
47283579,1018,1018,1018,1018,,,,,
47286078,1019,1019,1019,1019,,,,,
47288577,1020,1020,1020,1020,,,,,
47291076,1021,1021,1021,1021,,,,,
47293575,1021,1021,1021,1021,,,,,
47296074,1022,1022,1022,1022,,,,,
47298573,1023,1023,1023,1023,,,,,
47301072,1024,1024,1024,1024,,,,,
47303571,1024,1024,1024,1024,,,,,
47306070,1025,1025,1025,1025,,,,,
47308569,1026,1026,1026,1026,,,,,
47311068,1027,1027,1027,1027,,,,,
47313567,1027,1027,1027,1027,,,,,
47316066,1028,1028,1028,1028,,,,,
47318565,1029,1029,1029,1029,,,,,
47321064,1030,1030,1030,1030,,,,,
47323563,1030,1030,1030,1030,,,,,
47326062,1031,1031,1031,1031,,,,,
47328561,1032,1032,1032,1032,,,,,
47331060,1033,1033,1033,1033,,,,,
47333559,1033,1033,1033,1033,,,,,
47336058,1034,1034,1034,1034,,,,,
47338557,1035,1035,1035,1035,,,,,
47341056,1036,1036,1036,1036,,,,,
47343555,1036,1036,1036,1036,,,,,
47346054,1037,1037,1037,1037,,,,,
47348553,1038,1038,1038,1038,,,,,
47351052,1039,1039,1039,1039,,,,,
47353551,1039,1039,1039,1039,,,,,
47356050,1040,1040,1040,1040,,,,,
47358549,1041,1041,1041,1041,,,,,
47361048,1042,1042,1042,1042,,,,,
47363547,1042,1042,1042,1042,,,,,
47366046,1043,1043,1043,1043,,,,,
47368545,1044,1044,1044,1044,,,,,
47371044,1045,1045,1045,1045,,,,,
47373543,1045,1045,1045,1045,,,,,
47376042,1046,1046,1046,1046,,,,,
47378541,1047,1047,1047,1047,,,,,
47381040,1048,1048,1048,1048,,,,,
47383539,1048,1048,1048,1048,,,,,
47386038,1049,1049,1049,1049,,,,,
47388537,1050,1050,1050,1050,,,,,
47391036,1051,1051,1051,1051,,,,,
47393535,1051,1051,1051,1051,,,,,
47396034,1052,1052,1052,1052,,,,,
47398533,1053,1053,1053,1053,,,,,
47401032,1054,1054,1054,1054,,,,,
47403531,1054,1054,1054,1054,,,,,
47406030,1055,1055,1055,1055,,,,,
47408529,1056,1056,1056,1056,,,,,
47411028,1057,1057,1057,1057,,,,,
47413527,1057,1057,1057,1057,,,,,
47416026,1058,1058,1058,1058,,,,,
47418525,1059,1059,1059,1059,,,,,
47421024,1060,1060,1060,1060,,,,,
47423523,1060,1060,1060,1060,,,,,
47426022,1061,1061,1061,1061,,,,,
47428521,1062,1062,1062,1062,,,,,
47431020,1063,1063,1063,1063,,,,,
47433519,1063,1063,1063,1063,,,,,
47436018,1064,1064,1064,1064,,,,,
47438517,1065,1065,1065,1065,,,,,
47441016,1066,1066,1066,1066,,,,,
47443515,1066,1066,1066,1066,,,,,
47446014,1067,1067,1067,1067,,,,,
47448513,1068,1068,1068,1068,,,,,
47451012,1069,1069,1069,1069,,,,,
47453511,1069,1069,1069,1069,,,,,
47456010,1070,1070,1070,1070,,,,,
47458509,1071,1071,1071,1071,,,,,
47461008,1072,1072,1072,1072,,,,,
47463507,1072,1072,1072,1072,,,,,
47466006,1073,1073,1073,1073,,,,,
47468505,1074,1074,1074,1074,,,,,
47471004,1075,1075,1075,1075,,,,,
47473503,1075,1075,1075,1075,,,,,
47476002,1076,1076,1076,1076,,,,,
47478501,1077,1077,1077,1077,,,,,
47481000,1078,1078,1078,1078,,,,,
47483499,1078,1078,1078,1078,,,,,
47485998,1079,1079,1079,1079,,,,,
47488497,1080,1080,1080,1080,,,,,
47490996,1081,1081,1081,1081,,,,,
47493495,1081,1081,1081,1081,,,,,
47495994,1082,1082,1082,1082,,,,,
47498493,1083,1083,1083,1083,,,,,
47500992,1084,1084,1084,1084,,,,,
47503491,1084,1084,1084,1084,,,,,
47505990,1085,1085,1085,1085,,,,,
47508489,1086,1086,1086,1086,,,,,
47510988,1087,1087,1087,1087,,,,,
47513487,1087,1087,1087,1087,,,,,
47515986,1088,1088,1088,1088,,,,,
47518485,1089,1089,1089,1089,,,,,
47520984,1090,1090,1090,1090,,,,,
47523483,1090,1090,1090,1090,,,,,
47525982,1091,1091,1091,1091,,,,,
47528481,1092,1092,1092,1092,,,,,
47530980,1093,1093,1093,1093,,,,,
47533479,1093,1093,1093,1093,,,,,
47535978,1094,1094,1094,1094,,,,,
47538477,1095,1095,1095,1095,,,,,
47540976,1096,1096,1096,1096,,,,,
47543475,1096,1096,1096,1096,,,,,
47545974,1097,1097,1097,1097,,,,,
47548473,1098,1098,1098,1098,,,,,
47550972,1099,1099,1099,1099,,,,,
47553471,1099,1099,1099,1099,,,,,
47555970,1100,1100,1100,1100,,,,,
47558469,1101,1101,1101,1101,,,,,
47560968,1101,1101,1101,1101,,,,,
47563467,1102,1102,1102,1102,,,,,
47565966,1103,1103,1103,1103,,,,,
47568465,1104,1104,1104,1104,,,,,
47570964,1104,1104,1104,1104,,,,,
47573463,1105,1105,1105,1105,,,,,
47575962,1106,1106,1106,1106,,,,,
47578461,1107,1107,1107,1107,,,,,
47580960,1107,1107,1107,1107,,,,,
47583459,1108,1108,1108,1108,,,,,
47585958,1109,1109,1109,1109,,,,,
47588457,1110,1110,1110,1110,,,,,
47590956,1110,1110,1110,1110,,,,,
47593455,1111,1111,1111,1111,,,,,
47595954,1112,1112,1112,1112,,,,,
47598453,1113,1113,1113,1113,,,,,
47600952,1113,1113,1113,1113,,,,,
47603451,1114,1114,1114,1114,,,,,
47605950,1115,1115,1115,1115,,,,,
47608449,1116,1116,1116,1116,,,,,
47610948,1116,1116,1116,1116,,,,,
47613447,1117,1117,1117,1117,,,,,
47615946,1118,1118,1118,1118,,,,,
47618445,1119,1119,1119,1119,,,,,
47620944,1119,1119,1119,1119,,,,,
47623443,1120,1120,1120,1120,,,,,
47625942,1121,1121,1121,1121,,,,,
47628441,1122,1122,1122,1122,,,,,
47630940,1122,1122,1122,1122,,,,,
47633439,1123,1123,1123,1123,,,,,
47635938,1124,1124,1124,1124,,,,,
47638437,1125,1125,1125,1125,,,,,
47640936,1125,1125,1125,1125,,,,,
47643435,1126,1126,1126,1126,,,,,
47645934,1127,1127,1127,1127,,,,,
47648433,1128,1128,1128,1128,,,,,
47650932,1128,1128,1128,1128,,,,,
47653431,1129,1129,1129,1129,,,,,
47655930,1130,1130,1130,1130,,,,,
47658429,1131,1131,1131,1131,,,,,
47660928,1131,1131,1131,1131,,,,,
47663427,1132,1132,1132,1132,,,,,
47665926,1133,1133,1133,1133,,,,,
47668425,1134,1134,1134,1134,,,,,
47670924,1134,1134,1134,1134,,,,,
47673423,1135,1135,1135,1135,,,,,
47675922,1136,1136,1136,1136,,,,,
47678421,1137,1137,1137,1137,,,,,
47680920,1137,1137,1137,1137,,,,,
47683419,1138,1138,1138,1138,,,,,
47685918,1139,1139,1139,1139,,,,,
47688417,1140,1140,1140,1140,,,,,
47690916,1140,1140,1140,1140,,,,,
47693415,1141,1141,1141,1141,,,,,
47695914,1142,1142,1142,1142,,,,,
47698413,1143,1143,1143,1143,,,,,
47700912,1143,1143,1143,1143,,,,,
47703411,1144,1144,1144,1144,,,,,
47705910,1145,1145,1145,1145,,,,,
47708409,1146,1146,1146,1146,,,,,
47710908,1146,1146,1146,1146,,,,,
47713407,1147,1147,1147,1147,,,,,
47715906,1148,1148,1148,1148,,,,,
47718405,1149,1149,1149,1149,,,,,
47720904,1149,1149,1149,1149,,,,,
47723403,1150,1150,1150,1150,,,,,
47725902,1161,1154,1155,1161,,,,,
47728401,1169,1162,1163,1169,,,,,
47730900,1177,1170,1171,1177,,,,,
47733399,1184,1178,1179,1185,,,,,
47735898,1192,1186,1186,1192,,,,,
47738397,1199,1193,1194,1200,,,,,
47740896,1207,1201,1201,1207,,,,,
47743395,1214,1208,1208,1214,,,,,
47745894,1221,1215,1216,1221,,,,,
47748393,1228,1222,1223,1228,,,,,
47750892,1235,1229,1230,1235,,,,,
47753391,1242,1236,1237,1242,,,,,
47755890,1248,1243,1243,1249,,,,,
47758389,1255,1250,1250,1255,,,,,
47760888,1262,1256,1257,1262,,,,,
47763387,1268,1263,1263,1268,,,,,
47765886,1274,1269,1270,1275,,,,,
47768385,1281,1275,1276,1281,,,,,
47770884,1287,1282,1282,1287,,,,,
47773383,1293,1288,1288,1293,,,,,
47775882,1299,1294,1294,1299,,,,,
47778381,1305,1300,1300,1305,,,,,
47780880,1311,1306,1306,1311,,,,,
47783379,1317,1312,1312,1317,,,,,
47785878,1323,1318,1318,1323,,,,,
47788377,1329,1324,1324,1329,,,,,
47790876,1334,1329,1330,1334,,,,,
47793375,1340,1335,1336,1340,,,,,
47795874,1345,1341,1341,1346,,,,,
47798373,1351,1346,1347,1351,,,,,
47800872,1357,1352,1352,1357,,,,,
47803371,1362,1357,1358,1362,,,,,
47805870,1367,1363,1363,1368,,,,,
47808369,1373,1368,1369,1373,,,,,
47810868,1378,1373,1374,1378,,,,,
47813367,1383,1379,1379,1383,,,,,
47815866,1388,1384,1384,1389,,,,,
47818365,1394,1389,1390,1394,,,,,
47820864,1399,1394,1395,1399,,,,,
47823363,1404,1400,1400,1404,,,,,
47825862,1409,1405,1405,1409,,,,,
47828361,1414,1410,1410,1414,,,,,
47830860,1419,1415,1415,1419,,,,,
47833359,1424,1420,1420,1424,,,,,
47835858,1429,1425,1425,1429,,,,,
47838357,1434,1429,1430,1434,,,,,
47840856,1439,1434,1435,1439,,,,,
47843355,1443,1439,1439,1444,,,,,
47845854,1448,1444,1444,1448,,,,,
47848353,1453,1449,1449,1453,,,,,
47850852,1458,1453,1454,1458,,,,,
47853351,1462,1458,1458,1462,,,,,
47855850,1467,1463,1463,1467,,,,,
47858349,1472,1467,1468,1472,,,,,
47860848,1476,1472,1472,1476,,,,,
47863347,1481,1477,1477,1481,,,,,
47865846,1485,1481,1481,1485,,,,,
47868345,1490,1486,1486,1490,,,,,
47870844,1494,1490,1490,1494,,,,,
47873343,1499,1495,1495,1499,,,,,
47875842,1503,1499,1499,1503,,,,,
47878341,1508,1503,1504,1508,,,,,
47880840,1512,1508,1508,1512,,,,,
47883339,1516,1512,1512,1516,,,,,
47885838,1521,1516,1517,1521,,,,,
47888337,1525,1521,1521,1525,,,,,
47890836,1529,1525,1525,1529,,,,,
47893335,1533,1529,1530,1534,,,,,
47895834,1538,1534,1534,1538,,,,,
47898333,1542,1538,1538,1542,,,,,
47900832,1546,1542,1542,1546,,,,,
47903331,1550,1546,1546,1550,,,,,
47905830,1554,1550,1551,1554,,,,,
47908329,1558,1554,1555,1559,,,,,
47910828,1563,1558,1559,1563,,,,,
47913327,1567,1563,1563,1567,,,,,
47915826,1571,1567,1567,1571,,,,,
47918325,1575,1571,1571,1575,,,,,
47920824,1579,1575,1575,1579,,,,,
47923323,1583,1579,1579,1583,,,,,
47925822,1587,1583,1583,1587,,,,,
47928321,1591,1587,1587,1591,,,,,
47930820,1595,1591,1591,1595,,,,,
47933319,1599,1595,1595,1599,,,,,
47935818,1602,1598,1599,1603,,,,,
47938317,1606,1602,1603,1607,,,,,
47940816,1610,1606,1606,1610,,,,,
47943315,1614,1610,1610,1614,,,,,
47945814,1618,1614,1614,1618,,,,,
47948313,1622,1618,1618,1622,,,,,
47950812,1626,1622,1622,1626,,,,,
47953311,1629,1625,1626,1630,,,,,
47955810,1633,1629,1629,1633,,,,,
47958309,1637,1633,1633,1637,,,,,
47960808,1641,1637,1637,1641,,,,,
47963307,1644,1640,1641,1644,,,,,
47965806,1648,1644,1644,1648,,,,,
47968305,1652,1648,1648,1652,,,,,
47970804,1655,1651,1652,1656,,,,,
47973303,1659,1655,1655,1659,,,,,
47975802,1663,1659,1659,1663,,,,,
47978301,1666,1662,1663,1666,,,,,
47980800,1670,1666,1666,1670,,,,,
47983299,1674,1670,1670,1674,,,,,
47985798,1677,1673,1673,1677,,,,,
47988297,1681,1677,1677,1681,,,,,
47990796,1684,1680,1681,1684,,,,,
47993295,1688,1684,1684,1688,,,,,
47995794,1691,1687,1688,1692,,,,,
47998293,1695,1691,1691,1695,,,,,
48000792,1698,1695,1695,1699,,,,,
48003291,1702,1698,1698,1702,,,,,
48005790,1705,1702,1702,1706,,,,,
48008289,1709,1705,1705,1709,,,,,
48010788,1712,1708,1709,1712,,,,,
48013287,1716,1712,1712,1716,,,,,
48015786,1719,1715,1716,1719,,,,,
48018285,1723,1719,1719,1723,,,,,
48020784,1726,1722,1722,1726,,,,,
48023283,1729,1726,1726,1730,,,,,
48025782,1733,1729,1729,1733,,,,,
48028281,1736,1732,1733,1736,,,,,
48030780,1739,1736,1736,1740,,,,,
48033279,1743,1739,1739,1743,,,,,
48035778,1746,1743,1743,1746,,,,,
48038277,1749,1746,1746,1750,,,,,
48040776,1753,1749,1749,1753,,,,,
48043275,1756,1753,1753,1756,,,,,
48045774,1759,1756,1756,1760,,,,,
48048273,1763,1759,1759,1763,,,,,
48050772,1766,1762,1763,1766,,,,,
48053271,1769,1766,1766,1769,,,,,
48055770,1772,1769,1769,1773,,,,,
48058269,1776,1772,1772,1776,,,,,
48060768,1779,1775,1776,1779,,,,,
48063267,1782,1779,1779,1782,,,,,
48065766,1785,1782,1782,1786,,,,,
48068265,1788,1785,1785,1789,,,,,
48070764,1792,1788,1788,1792,,,,,
48073263,1795,1792,1792,1795,,,,,
48075762,1798,1795,1795,1798,,,,,
48078261,1801,1798,1798,1801,,,,,
48080760,1804,1801,1801,1805,,,,,
48083259,1807,1804,1804,1808,,,,,
48085758,1811,1807,1807,1811,,,,,
48088257,1814,1810,1810,1814,,,,,
48090756,1817,1814,1814,1817,,,,,
48093255,1820,1817,1817,1820,,,,,
48095754,1823,1820,1820,1823,,,,,
48098253,1826,1823,1823,1826,,,,,
48100752,1829,1826,1826,1830,,,,,
48103251,1832,1829,1829,1833,,,,,
48105750,1835,1832,1832,1836,,,,,
48108249,1838,1835,1835,1839,,,,,
48110748,1841,1838,1838,1842,,,,,
48113247,1844,1841,1841,1845,,,,,
48115746,1847,1844,1844,1848,,,,,
48118245,1846,1843,1843,1846,,,,,
48120744,1845,1842,1842,1845,,,,,
48123243,1844,1840,1840,1844,,,,,
48125742,1842,1839,1839,1843,,,,,
48128241,1841,1838,1838,1841,,,,,
48130740,1840,1837,1837,1840,,,,,
48133239,1839,1835,1835,1839,,,,,
48135738,1838,1834,1834,1838,,,,,
48138237,1837,1833,1833,1837,,,,,
48140736,1836,1832,1832,1836,,,,,
48143235,1835,1831,1831,1835,,,,,
48145734,1834,1830,1830,1834,,,,,
48148233,1833,1830,1830,1833,,,,,
48150732,1832,1829,1829,1833,,,,,
48153231,1832,1828,1828,1832,,,,,
48155730,1831,1828,1828,1832,,,,,
48158229,1831,1827,1827,1831,,,,,
48160728,1831,1827,1827,1831,,,,,
48163227,1830,1827,1827,1831,,,,,
48165726,1830,1827,1827,1830,,,,,
48168225,1830,1826,1827,1830,,,,,
48170724,1830,1827,1827,1830,,,,,
48173223,1830,1827,1827,1831,,,,,
48175722,1831,1827,1827,1831,,,,,
48178221,1831,1827,1827,1831,,,,,
48180720,1831,1828,1828,1832,,,,,
48183219,1832,1828,1828,1832,,,,,
48185718,1832,1829,1829,1833,,,,,
48188217,1833,1829,1829,1833,,,,,
48190716,1834,1830,1830,1834,,,,,
48193215,1834,1830,1831,1834,,,,,
48195714,1835,1831,1831,1835,,,,,
48198213,1836,1832,1832,1836,,,,,
48200712,1836,1833,1833,1837,,,,,
48203211,1837,1833,1833,1837,,,,,
48205710,1838,1834,1834,1838,,,,,
48208209,1839,1835,1835,1839,,,,,
48210708,1839,1836,1836,1840,,,,,
48213207,1840,1837,1837,1841,,,,,
48215706,1841,1838,1838,1841,,,,,
48218205,1842,1838,1838,1842,,,,,
48220704,1843,1839,1839,1843,,,,,
48223203,1844,1840,1840,1844,,,,,
48225702,1845,1841,1841,1845,,,,,
48228201,1846,1842,1842,1846,,,,,
48230700,1847,1843,1843,1847,,,,,
48233199,1848,1844,1844,1848,,,,,
48235698,1849,1846,1846,1849,,,,,
48238197,1850,1847,1847,1850,,,,,
48240696,1851,1848,1848,1851,,,,,
48243195,1852,1848,1848,1852,,,,,
48245694,1852,1849,1849,1852,,,,,
48248193,1853,1850,1850,1853,,,,,
48250692,1853,1850,1850,1853,,,,,
48253191,1853,1851,1851,1854,,,,,
48255690,1853,1851,1851,1854,,,,,
48258189,1853,1851,1851,1853,,,,,
48260688,1853,1850,1851,1853,,,,,
48263187,1852,1850,1850,1853,,,,,
48265686,1852,1849,1849,1852,,,,,
48268185,1851,1848,1849,1851,,,,,
48270684,1850,1847,1848,1850,,,,,
48273183,1848,1846,1846,1849,,,,,
48275682,1847,1845,1845,1847,,,,,
48278181,1845,1843,1843,1846,,,,,
48280680,1844,1841,1842,1844,,,,,
48283179,1842,1840,1840,1842,,,,,
48285678,1840,1838,1838,1840,,,,,
48288177,1838,1836,1836,1838,,,,,
48290676,1836,1833,1834,1836,,,,,
48293175,1833,1831,1831,1833,,,,,
48295674,1831,1829,1829,1831,,,,,
48298173,1828,1826,1826,1828,,,,,
48300672,1825,1823,1824,1826,,,,,
48303171,1823,1821,1821,1823,,,,,
48305670,1820,1818,1818,1820,,,,,
48308169,1817,1815,1815,1817,,,,,
48310668,1814,1812,1812,1814,,,,,
48313167,1811,1809,1809,1811,,,,,
48315666,1808,1806,1806,1808,,,,,
48318165,1804,1803,1803,1805,,,,,
48320664,1801,1800,1800,1801,,,,,
48323163,1798,1796,1797,1798,,,,,
48325662,1795,1793,1793,1795,,,,,
48328161,1791,1790,1790,1791,,,,,
48330660,1788,1786,1787,1788,,,,,
48333159,1784,1783,1783,1785,,,,,
48335658,1781,1780,1780,1781,,,,,
48338157,1778,1776,1777,1778,,,,,
48340656,1774,1773,1773,1774,,,,,
48343155,1771,1769,1770,1771,,,,,
48345654,1767,1766,1766,1767,,,,,
48348986,1764,1763,1763,1764,,,,,
48351485,1760,1759,1759,1760,,,,,
48353984,1757,1756,1756,1757,,,,,
48356483,1753,1752,1753,1754,,,,,
48358982,1750,1749,1749,1750,,,,,
48361481,1746,1746,1746,1747,,,,,
48363980,1743,1742,1743,1743,,,,,
48366479,1740,1739,1739,1740,,,,,
48368978,1736,1736,1736,1736,,,,,
48371477,1733,1732,1732,1733,,,,,
48373976,1729,1729,1729,1730,,,,,
48376475,1726,1726,1726,1726,,,,,
48378974,1723,1723,1723,1723,,,,,
48381473,1720,1719,1719,1720,,,,,
48383972,1716,1716,1716,1717,,,,,
48386471,1713,1713,1713,1713,,,,,
48388970,1710,1710,1710,1710,,,,,
48391469,1707,1707,1707,1707,,,,,
48393968,1704,1704,1704,1704,,,,,
48396467,1700,1701,1701,1701,,,,,
48398966,1697,1698,1698,1698,,,,,
48401465,1694,1695,1695,1695,,,,,
48403964,1691,1692,1692,1692,,,,,
48406463,1688,1689,1689,1689,,,,,
48408962,1686,1686,1686,1686,,,,,
48411461,1683,1683,1683,1683,,,,,
