TimeUS,M1,M2,M3,M4,TimeUS,C1,C2,C3,C4
43218539,1000,1000,1000,1000,43228535,1000,1000,1000,1000
43221038,1000,1000,1000,1000,43328495,1000,1000,1000,1000
43223537,1000,1000,1000,1000,43428455,1000,1000,1000,1000
43226036,1000,1000,1000,1000,43528415,1000,1000,1000,1000
43228535,1000,1000,1000,1000,43628375,1000,1000,1000,1000
43231034,1000,1000,1000,1000,43728335,1000,1000,1000,1000
43233533,1000,1000,1000,1000,43828295,1000,1000,1000,1000
43236032,1000,1000,1000,1000,43928255,1000,1000,1000,1000
43238531,1000,1000,1000,1000,44028215,1000,1000,1000,1000
43241030,1000,1000,1000,1000,44128175,1000,1000,1000,1000
43243529,1000,1000,1000,1000,44228968,1000,1000,1000,1000
43246028,1000,1000,1000,1000,44328928,1000,1000,1000,1000
43248527,1000,1000,1000,1000,44428888,1000,1000,1000,1000
43251026,1000,1000,1000,1000,44528848,1000,1000,1000,1000
43253525,1000,1000,1000,1000,44628808,1000,1000,1000,1000
43256024,1000,1000,1000,1000,44728768,1000,1000,1000,1000
43258523,1000,1000,1000,1000,44828728,1000,1000,1000,1000
43261022,1000,1000,1000,1000,44928688,1000,1000,1000,1000
43263521,1000,1000,1000,1000,45028648,1000,1000,1000,1000
43266020,1000,1000,1000,1000,45128608,1000,1000,1000,1000
43268519,1000,1000,1000,1000,45228568,1003,1003,1003,1003
43271018,1000,1000,1000,1000,45328528,1033,1033,1033,1033
43273517,1000,1000,1000,1000,45428488,1063,1063,1063,1063
43276016,1000,1000,1000,1000,45528448,1093,1093,1093,1093
43278515,1000,1000,1000,1000,45628408,1122,1122,1122,1122
43281014,1000,1000,1000,1000,45728368,1177,1170,1170,1177
43283513,1000,1000,1000,1000,45828328,1419,1415,1415,1419
43286012,1000,1000,1000,1000,45928288,1595,1591,1591,1595
43288511,1000,1000,1000,1000,46028248,1739,1736,1736,1740
43291010,1000,1000,1000,1000,46128208,1865,1861,1862,1865
43293509,1000,1000,1000,1000,46228168,1861,1858,1858,1861
43296008,1000,1000,1000,1000,46328961,1786,1785,1785,1786
43298507,1000,1000,1000,1000,46428921,1663,1663,1663,1663
43301006,1000,1000,1000,1000,46528881,1609,1611,1611,1610
43303505,1000,1000,1000,1000,46628841,1612,1614,1613,1612
43306004,1000,1000,1000,1000,46728801,1627,1628,1628,1627
43308503,1000,1000,1000,1000,46828761,1634,1635,1635,1634
43311002,1000,1000,1000,1000,46928721,1622,1621,1617,1626
43313501,1000,1000,1000,1000,47028681,1613,1613,1607,1619
43316000,1000,1000,1000,1000,47128641,1608,1608,1604,1612
43318499,1000,1000,1000,1000,47228601,1608,1608,1608,1608
43320998,1000,1000,1000,1000,47328561,1612,1612,1615,1609
43323497,1000,1000,1000,1000,47428521,1616,1616,1620,1612
43325996,1000,1000,1000,1000,47528481,1620,1620,1623,1616
43328495,1000,1000,1000,1000,47628441,1622,1622,1625,1620
43330994,1000,1000,1000,1000,47728401,1591,1591,1600,1581
43333493,1000,1000,1000,1000,47828361,1575,1575,1582,1568
43335992,1000,1000,1000,1000,47928321,1564,1563,1565,1563
43338491,1000,1000,1000,1000,48028281,1554,1554,1548,1561
43340990,1000,1000,1000,1000,48128241,1546,1545,1535,1556
43343489,1000,1000,1000,1000,48228201,1539,1539,1530,1548
43345988,1000,1000,1000,1000,48328161,1533,1533,1528,1537
43348487,1000,1000,1000,1000,48428954,1528,1528,1527,1529
43350986,1000,1000,1000,1000,48528914,1528,1528,1530,1527
43353485,1000,1000,1000,1000,48628874,1530,1531,1533,1528
43355984,1000,1000,1000,1000,48728834,1533,1533,1536,1530
43358483,1000,1000,1000,1000,48828794,1537,1537,1540,1533
43360982,1000,1000,1000,1000,48928754,1540,1540,1543,1538
43363481,1000,1000,1000,1000,49028714,1543,1544,1545,1543
43365980,1000,1000,1000,1000,49128674,1546,1546,1546,1546
43368479,1000,1000,1000,1000,49228634,1548,1548,1547,1549
43370978,1000,1000,1000,1000,49328594,1550,1550,1549,1552
43373477,1000,1000,1000,1000,49428554,1550,1550,1553,1557
43375976,1000,1000,1000,1000,49528514,1551,1552,1560,1562
43378475,1000,1000,1000,1000,49628474,1553,1554,1562,1562
43380974,1000,1000,1000,1000,49728434,1557,1557,1563,1563
43383473,1000,1000,1000,1000,49828394,1561,1561,1564,1563
43385972,1000,1000,1000,1000,49928354,1563,1563,1563,1563
43388471,1000,1000,1000,1000,50028314,1567,1567,1565,1564
43390970,1000,1000,1000,1000,50128274,1569,1568,1564,1564
43393469,1000,1000,1000,1000,50228234,1571,1570,1565,1565
43395968,1000,1000,1000,1000,50328194,1572,1571,1566,1566
43398467,1000,1000,1000,1000,50428154,1573,1573,1568,1568
43400966,1000,1000,1000,1000,50528947,1573,1573,1568,1569
43403465,1000,1000,1000,1000,50628907,1573,1573,1570,1570
43405964,1000,1000,1000,1000,50728867,1574,1574,1572,1572
43408463,1000,1000,1000,1000,50828827,1574,1574,1573,1573
43410962,1000,1000,1000,1000,50928787,1574,1574,1575,1574
43413461,1000,1000,1000,1000,51028747,1573,1574,1575,1574
43415960,1000,1000,1000,1000,51128707,1575,1575,1577,1576
43418459,1000,1000,1000,1000,51228667,1575,1575,1577,1577
43420958,1000,1000,1000,1000,51328627,1575,1575,1577,1577
43423457,1000,1000,1000,1000,51428587,1575,1575,1576,1577
43425956,1000,1000,1000,1000,51528547,1575,1575,1576,1577
43428455,1000,1000,1000,1000,51628507,1576,1576,1577,1576
43430954,1000,1000,1000,1000,51728467,1576,1577,1577,1577
43433453,1000,1000,1000,1000,51828427,1577,1577,1576,1576
43435952,1000,1000,1000,1000,51928387,1577,1578,1577,1577
43438451,1000,1000,1000,1000,52028347,1579,1579,1578,1578
43440950,1000,1000,1000,1000,52128307,1578,1578,1577,1577
43443449,1000,1000,1000,1000,52228267,1577,1577,1576,1577
43445948,1000,1000,1000,1000,52328227,1578,1577,1577,1577
43448447,1000,1000,1000,1000,52428187,1579,1579,1578,1578
43450946,1000,1000,1000,1000,52528980,1579,1579,1578,1578
43453445,1000,1000,1000,1000,52628940,1579,1578,1578,1578
43455944,1000,1000,1000,1000,52728900,1579,1579,1579,1579
43458443,1000,1000,1000,1000,52828860,1579,1579,1580,1580
43460942,1000,1000,1000,1000,52928820,1579,1579,1579,1579
43463441,1000,1000,1000,1000,53028780,1579,1579,1579,1579
43465940,1000,1000,1000,1000,53128740,1579,1579,1579,1580
43468439,1000,1000,1000,1000,53228700,1579,1579,1579,1579
43470938,1000,1000,1000,1000,53328660,1579,1579,1579,1579
43473437,1000,1000,1000,1000,53428620,1579,1579,1579,1580
43475936,1000,1000,1000,1000,53528580,1579,1580,1580,1580
43478435,1000,1000,1000,1000,53628540,1580,1580,1580,1580
43480934,1000,1000,1000,1000,53728500,1579,1579,1579,1579
43483433,1000,1000,1000,1000,53828460,1580,1580,1580,1580
43485932,1000,1000,1000,1000,53928420,1581,1580,1581,1580
43488431,1000,1000,1000,1000,54028380,1581,1581,1581,1581
43490930,1000,1000,1000,1000,54128340,1581,1580,1580,1581
43493429,1000,1000,1000,1000,54228300,1581,1581,1581,1581
43495928,1000,1000,1000,1000,54328260,1580,1581,1580,1580
43498427,1000,1000,1000,1000,54428220,1581,1580,1580,1581
43500926,1000,1000,1000,1000,54528180,1581,1581,1581,1581
43503425,1000,1000,1000,1000,54628973,1582,1582,1582,1582
43505924,1000,1000,1000,1000,54728933,1581,1581,1581,1582
43508423,1000,1000,1000,1000,54828893,1581,1580,1581,1581
43510922,1000,1000,1000,1000,54928853,1582,1582,1582,1582
43513421,1000,1000,1000,1000,55028813,1580,1580,1580,1580
43515920,1000,1000,1000,1000,55128773,1582,1582,1582,1582
43518419,1000,1000,1000,1000,55228733,1581,1581,1582,1581
43520918,1000,1000,1000,1000,55328693,1582,1582,1583,1582
43523417,1000,1000,1000,1000,55428653,1581,1581,1581,1581
43525916,1000,1000,1000,1000,55528613,1582,1582,1581,1582
43528415,1000,1000,1000,1000,55628573,1582,1582,1583,1580
43530914,1000,1000,1000,1000,55728533,1580,1581,1587,1572
43533413,1000,1000,1000,1000,55828493,1579,1581,1582,1572
43535912,1000,1000,1000,1000,55928453,1578,1581,1574,1573
43538411,1000,1000,1000,1000,56028413,1576,1578,1565,1570
43540910,1000,1000,1000,1000,56128373,1576,1578,1559,1566
43543409,1000,1000,1000,1000,56228333,1577,1577,1556,1561
43545908,1000,1000,1000,1000,56328293,1578,1577,1555,1557
43548407,1000,1000,1000,1000,56428253,1578,1577,1555,1555
43550906,1000,1000,1000,1000,56528213,1578,1577,1556,1554
43553405,1000,1000,1000,1000,56628173,1577,1577,1556,1553
43555904,1000,1000,1000,1000,56728966,1576,1576,1555,1554
43558403,1000,1000,1000,1000,56828926,1574,1576,1554,1554
43560902,1000,1000,1000,1000,56928886,1575,1576,1554,1554
43563401,1000,1000,1000,1000,57028846,1575,1577,1553,1553
43565900,1000,1000,1000,1000,57128806,1575,1577,1551,1552
43568399,1000,1000,1000,1000,57228766,1576,1578,1550,1550
43570898,1000,1000,1000,1000,57328726,1579,1580,1548,1548
43573397,1000,1000,1000,1000,57428686,1581,1582,1545,1545
43575896,1000,1000,1000,1000,57528646,1585,1586,1543,1543
43578395,1000,1000,1000,1000,57628606,1588,1588,1540,1540
43580894,1000,1000,1000,1000,57728566,1591,1591,1537,1537
43583393,1000,1000,1000,1000,57828526,1593,1594,1535,1535
43585892,1000,1000,1000,1000,57928486,1595,1595,1534,1535
43588391,1000,1000,1000,1000,58028446,1595,1595,1535,1536
43590890,1000,1000,1000,1000,58128406,1594,1594,1537,1539
43593389,1000,1000,1000,1000,58228366,1592,1591,1540,1542
43595888,1000,1000,1000,1000,58328326,1589,1587,1546,1549
43598387,1000,1000,1000,1000,58428286,1582,1579,1553,1556
43600886,1000,1000,1000,1000,58528246,1574,1570,1564,1567
43603385,1000,1000,1000,1000,58628206,1564,1560,1576,1578
43605884,1000,1000,1000,1000,58728166,1553,1549,1588,1589
43608383,1000,1000,1000,1000,58828959,1542,1539,1599,1598
43610882,1000,1000,1000,1000,58928919,1534,1533,1607,1606
43613381,1000,1000,1000,1000,59028879,1529,1530,1613,1612
43615880,1000,1000,1000,1000,59128839,1528,1529,1614,1613
43618379,1000,1000,1000,1000,59228799,1531,1534,1613,1612
43620878,1000,1000,1000,1000,59328759,1537,1539,1608,1608
43623377,1000,1000,1000,1000,59428719,1544,1546,1602,1602
43625876,1000,1000,1000,1000,59528679,1553,1554,1594,1594
43628375,1000,1000,1000,1000,59628639,1563,1563,1587,1587
43630874,1000,1000,1000,1000,59728599,1570,1570,1580,1579
43633373,1000,1000,1000,1000,59828559,1578,1577,1575,1574
43635872,1000,1000,1000,1000,59928519,1583,1582,1570,1570
43638371,1000,1000,1000,1000,60028479,1586,1585,1567,1567
43640870,1000,1000,1000,1000,60128439,1589,1587,1567,1567
43643369,1000,1000,1000,1000,60228399,1588,1586,1567,1567
43645868,1000,1000,1000,1000,60328359,1586,1585,1568,1569
43648367,1000,1000,1000,1000,60428319,1584,1583,1571,1571
43650866,1000,1000,1000,1000,60528279,1580,1580,1573,1574
43653365,1000,1000,1000,1000,60628239,1578,1578,1577,1576
43655864,1000,1000,1000,1000,60728199,1575,1575,1579,1579
43658363,1000,1000,1000,1000,60828159,1573,1573,1581,1580
43660862,1000,1000,1000,1000,60928952,1572,1573,1582,1583
43663361,1000,1000,1000,1000,61028912,1572,1573,1584,1584
43665860,1000,1000,1000,1000,61128872,1572,1573,1583,1583
43668359,1000,1000,1000,1000,61228832,1573,1574,1583,1583
43670858,1000,1000,1000,1000,61328792,1575,1575,1582,1582
43673357,1000,1000,1000,1000,61428752,1576,1575,1580,1581
43675856,1000,1000,1000,1000,61528712,1576,1576,1578,1579
43678355,1000,1000,1000,1000,61628672,1577,1577,1577,1577
43680854,1000,1000,1000,1000,61728632,1579,1578,1577,1577
43683353,1000,1000,1000,1000,61828592,1580,1580,1576,1576
43685852,1000,1000,1000,1000,61928552,1581,1581,1576,1577
43688351,1000,1000,1000,1000,62028512,1581,1581,1576,1577
43690850,1000,1000,1000,1000,62128472,1782,1781,1549,1545
43693349,1000,1000,1000,1000,62228432,1706,1701,1524,1519
43695848,1000,1000,1000,1000,62328392,1645,1639,1537,1539
43698347,1000,1000,1000,1000,62428352,1587,1582,1557,1562
43700846,1000,1000,1000,1000,62528312,1548,1547,1576,1579
43703345,1000,1000,1000,1000,62628272,1529,1531,1588,1590
43705844,1000,1000,1000,1000,62728232,1523,1528,1596,1594
43708343,1000,1000,1000,1000,62828192,1527,1532,1600,1597
43710842,1000,1000,1000,1000,62928985,1532,1537,1598,1597
43713341,1000,1000,1000,1000,63028945,1535,1538,1599,1601
43715840,1000,1000,1000,1000,63128905,1536,1539,1603,1605
43718339,1000,1000,1000,1000,63228865,1542,1544,1603,1606
43720838,1000,1000,1000,1000,63328825,1553,1554,1598,1601
43723337,1000,1000,1000,1000,63428785,1565,1565,1589,1591
43725836,1000,1000,1000,1000,63528745,1577,1577,1582,1583
43728335,1000,1000,1000,1000,63628705,1584,1584,1577,1577
43730834,1000,1000,1000,1000,63728665,1586,1591,1581,1568
43733333,1000,1000,1000,1000,63828625,1585,1594,1578,1566
43735832,1000,1000,1000,1000,63928585,1585,1593,1571,1569
43738331,1000,1000,1000,1000,64028545,1584,1588,1564,1569
43740830,1000,1000,1000,1000,64128505,1585,1583,1559,1566
43743329,1000,1000,1000,1000,64228465,1585,1581,1557,1563
43745828,1000,1000,1000,1000,64328425,1585,1580,1557,1559
43748327,1000,1000,1000,1000,64428385,1585,1580,1558,1556
43750826,1000,1000,1000,1000,64528345,1584,1582,1560,1556
43753325,1000,1000,1000,1000,64628305,1582,1583,1560,1556
43755824,1000,1000,1000,1000,64728265,1581,1584,1559,1556
43758323,1000,1000,1000,1000,64828225,1581,1584,1557,1556
43760822,1000,1000,1000,1000,64928185,1581,1584,1555,1556
43763321,1000,1000,1000,1000,65028978,1582,1583,1552,1554
43765820,1000,1000,1000,1000,65128938,1584,1584,1552,1553
43768319,1000,1000,1000,1000,65228898,1585,1586,1550,1551
43770818,1000,1000,1000,1000,65328858,1588,1588,1550,1550
43773317,1000,1000,1000,1000,65428818,1588,1589,1547,1547
43775816,1000,1000,1000,1000,65528778,1590,1591,1545,1545
43778315,1000,1000,1000,1000,65628738,1593,1594,1544,1544
43780814,1000,1000,1000,1000,65728698,1595,1595,1543,1544
43783313,1000,1000,1000,1000,65828658,1595,1594,1543,1544
43785812,1000,1000,1000,1000,65928618,1594,1592,1545,1547
43788311,1000,1000,1000,1000,66028578,1592,1589,1550,1552
43790810,1000,1000,1000,1000,66128538,1587,1583,1556,1558
43793309,1000,1000,1000,1000,66228498,1579,1576,1563,1565
43795808,1000,1000,1000,1000,66328458,1573,1569,1573,1573
43798307,1000,1000,1000,1000,66428418,1566,1565,1583,1582
43800806,1000,1000,1000,1000,66528378,1560,1559,1590,1590
43803305,1000,1000,1000,1000,66628338,1555,1554,1595,1595
43805804,1000,1000,1000,1000,66728298,1552,1552,1600,1599
43808303,1000,1000,1000,1000,66828258,1553,1553,1603,1602
43810802,1000,1000,1000,1000,66928218,1552,1553,1604,1603
43813301,1000,1000,1000,1000,67028178,1553,1554,1603,1602
43815800,1000,1000,1000,1000,67128971,1556,1557,1602,1601
43818299,1000,1000,1000,1000,67228931,1558,1559,1599,1600
43820798,1000,1000,1000,1000,67328891,1561,1561,1596,1597
43823297,1000,1000,1000,1000,67428851,1564,1564,1593,1594
43825796,1000,1000,1000,1000,67528811,1567,1567,1591,1591
43828295,1000,1000,1000,1000,67628771,1569,1569,1587,1588
43830794,1000,1000,1000,1000,67728731,1570,1570,1584,1584
43833293,1000,1000,1000,1000,67828691,1573,1573,1582,1582
43835792,1000,1000,1000,1000,67928651,1575,1575,1580,1580
43838291,1000,1000,1000,1000,68028611,1577,1577,1579,1579
43840790,1000,1000,1000,1000,68128571,1578,1577,1577,1577
43843289,1000,1000,1000,1000,68228531,1580,1579,1577,1577
43845788,1000,1000,1000,1000,68328491,1579,1579,1576,1575
43848287,1000,1000,1000,1000,68428451,1579,1578,1575,1575
43850786,1000,1000,1000,1000,68528411,1580,1579,1575,1575
43853285,1000,1000,1000,1000,68628371,1580,1579,1576,1576
43855784,1000,1000,1000,1000,68728331,1580,1579,1576,1577
43858283,1000,1000,1000,1000,68828291,1578,1578,1576,1576
43860782,1000,1000,1000,1000,68928251,1578,1578,1577,1577
43863281,1000,1000,1000,1000,69028211,1578,1578,1578,1578
43865780,1000,1000,1000,1000,69128171,1577,1577,1578,1577
43868279,1000,1000,1000,1000,69228964,1578,1577,1578,1578
43870778,1000,1000,1000,1000,69328924,1579,1578,1579,1580
43873277,1000,1000,1000,1000,69428884,1578,1578,1580,1579
43875776,1000,1000,1000,1000,69528844,1578,1578,1579,1580
43878275,1000,1000,1000,1000,69628804,1577,1577,1579,1579
43880774,1000,1000,1000,1000,69728764,1578,1578,1579,1580
43883273,1000,1000,1000,1000,69828724,1578,1577,1579,1579
43885772,1000,1000,1000,1000,69928684,1578,1578,1580,1579
43888271,1000,1000,1000,1000,70028644,1578,1579,1579,1580
43890770,1000,1000,1000,1000,70128604,1578,1579,1579,1579
43893269,1000,1000,1000,1000,70228564,1579,1579,1580,1580
43895768,1000,1000,1000,1000,70328524,1579,1579,1579,1580
43898267,1000,1000,1000,1000,70428484,1579,1579,1579,1579
43900766,1000,1000,1000,1000,70528444,1580,1580,1580,1580
43903265,1000,1000,1000,1000,70628404,1579,1579,1579,1579
43905764,1000,1000,1000,1000,70728364,1580,1580,1579,1580
43908263,1000,1000,1000,1000,70828324,1580,1580,1579,1579
43910762,1000,1000,1000,1000,70928284,1580,1579,1579,1579
43913261,1000,1000,1000,1000,71028244,1581,1581,1580,1580
43915760,1000,1000,1000,1000,71128204,1581,1581,1580,1580
43918259,1000,1000,1000,1000,71228164,1580,1581,1580,1580
43920758,1000,1000,1000,1000,71328957,1581,1581,1581,1581
43923257,1000,1000,1000,1000,71428917,1581,1580,1581,1581
43925756,1000,1000,1000,1000,71528877,1580,1580,1580,1580
43928255,1000,1000,1000,1000,71628837,1580,1581,1581,1580
43930754,1000,1000,1000,1000,71728797,1579,1582,1587,1573
43933253,1000,1000,1000,1000,71828757,1578,1584,1584,1572
43935752,1000,1000,1000,1000,71928717,1578,1582,1575,1573
43938251,1000,1000,1000,1000,72028677,1577,1580,1567,1572
43940750,1000,1000,1000,1000,72128637,1577,1579,1560,1567
43943249,1000,1000,1000,1000,72228597,1580,1578,1556,1563
43945748,1000,1000,1000,1000,72328557,1581,1578,1554,1558
43948247,1000,1000,1000,1000,72428517,1582,1579,1554,1554
43950746,1000,1000,1000,1000,72528477,1580,1579,1554,1552
43953245,1000,1000,1000,1000,72628437,1579,1580,1556,1553
43955744,1000,1000,1000,1000,72728397,1578,1579,1555,1553
43958243,1000,1000,1000,1000,72828357,1576,1578,1555,1554
43960742,1000,1000,1000,1000,72928317,1574,1576,1553,1553
43963241,1000,1000,1000,1000,73028277,1576,1577,1553,1553
43965740,1000,1000,1000,1000,73128237,1576,1578,1552,1552
43968239,1000,1000,1000,1000,73228197,1578,1579,1550,1550
43970738,1000,1000,1000,1000,73328157,1580,1581,1547,1548
43973237,1000,1000,1000,1000,73428950,1582,1584,1545,1544
43975736,1000,1000,1000,1000,73528910,1587,1587,1543,1543
43978235,1000,1000,1000,1000,73628870,1589,1589,1540,1540
43980734,1000,1000,1000,1000,73728830,1592,1593,1539,1539
43983233,1000,1000,1000,1000,73828790,1593,1594,1535,1536
43985732,1000,1000,1000,1000,73928750,1596,1597,1535,1536
43988231,1000,1000,1000,1000,74028710,1596,1596,1534,1536
43990730,1000,1000,1000,1000,74128670,1594,1593,1536,1538
43993229,1000,1000,1000,1000,74228630,1592,1589,1542,1545
43995728,1000,1000,1000,1000,74328590,1585,1580,1550,1553
43998227,1000,1000,1000,1000,74428550,1575,1571,1561,1563
44000726,1000,1000,1000,1000,74528510,1563,1559,1573,1575
44003225,1000,1000,1000,1000,74628470,1550,1547,1586,1587
44005724,1000,1000,1000,1000,74728430,1541,1539,1598,1598
44008223,1000,1000,1000,1000,74828390,1537,1537,1608,1606
44010722,1000,1000,1000,1000,74928350,1536,1536,1612,1610
44013221,1000,1000,1000,1000,75028310,1537,1539,1612,1611
44015720,1000,1000,1000,1000,75128270,1541,1542,1611,1610
44018219,1000,1000,1000,1000,75228230,1545,1547,1606,1607
44020718,1000,1000,1000,1000,75328190,1551,1553,1602,1603
44023217,1000,1000,1000,1000,75428983,1556,1557,1596,1596
44025716,1000,1000,1000,1000,75528943,1563,1563,1592,1591
44028215,1000,1000,1000,1000,75628903,1569,1569,1587,1586
44030714,1000,1000,1000,1000,75728863,1573,1573,1581,1581
44033213,1000,1000,1000,1000,75828823,1579,1578,1577,1577
44035712,1000,1000,1000,1000,75928783,1582,1582,1573,1573
44038211,1000,1000,1000,1000,76028743,1584,1584,1570,1570
44040710,1000,1000,1000,1000,76128703,1584,1583,1568,1569
44043209,1000,1000,1000,1000,76228663,1585,1583,1569,1570
44045708,1000,1000,1000,1000,76328623,1583,1582,1571,1571
44048207,1000,1000,1000,1000,76428583,1580,1579,1573,1572
44050706,1000,1000,1000,1000,76528543,1577,1576,1575,1574
44053205,1000,1000,1000,1000,76628503,1575,1576,1577,1577
44055704,1000,1000,1000,1000,76728463,1572,1573,1578,1578
44058203,1000,1000,1000,1000,76828423,1573,1573,1581,1581
44060702,1000,1000,1000,1000,76928383,1572,1573,1581,1582
44063201,1000,1000,1000,1000,77028343,1574,1574,1582,1582
44065700,1000,1000,1000,1000,77128303,1575,1575,1582,1582
44068199,1000,1000,1000,1000,77228263,1575,1575,1581,1581
44070698,1000,1000,1000,1000,77328223,1576,1576,1580,1580
44073197,1000,1000,1000,1000,77428183,1578,1578,1580,1580
44075696,1000,1000,1000,1000,77528976,1579,1579,1579,1579
44078195,1000,1000,1000,1000,77628936,1579,1579,1578,1579
44080694,1000,1000,1000,1000,77728896,1580,1581,1578,1579
44083193,1000,1000,1000,1000,77828856,1581,1581,1578,1578
44085692,1000,1000,1000,1000,77928816,1580,1580,1577,1578
44088191,1000,1000,1000,1000,78028776,1580,1580,1578,1578
44090690,1000,1000,1000,1000,78128736,1580,1579,1578,1577
44093189,1000,1000,1000,1000,78228696,1579,1579,1578,1578
44095688,1000,1000,1000,1000,78328656,1579,1580,1579,1579
44098187,1000,1000,1000,1000,78428616,1578,1578,1578,1579
44100686,1000,1000,1000,1000,78528576,1578,1578,1579,1579
44103185,1000,1000,1000,1000,78628536,1579,1579,1580,1580
44105684,1000,1000,1000,1000,78728496,1580,1580,1581,1580
44108183,1000,1000,1000,1000,78828456,1579,1580,1581,1580
44110682,1000,1000,1000,1000,78928416,1581,1581,1581,1581
44113181,1000,1000,1000,1000,79028376,1579,1579,1580,1580
44115680,1000,1000,1000,1000,79128336,1579,1579,1580,1580
44118179,1000,1000,1000,1000,79228296,1579,1579,1579,1580
44120678,1000,1000,1000,1000,79328256,1581,1581,1580,1581
44123177,1000,1000,1000,1000,79428216,1581,1581,1580,1581
44125676,1000,1000,1000,1000,79528176,1582,1583,1584,1577
44128175,1000,1000,1000,1000,79628969,1581,1582,1587,1571
44130674,1000,1000,1000,1000,79728929,1579,1580,1582,1574
44133173,1000,1000,1000,1000,79828889,1576,1577,1576,1576
44135672,1000,1000,1000,1000,79928849,1573,1572,1570,1577
44138171,1000,1000,1000,1000,80028809,1569,1569,1567,1574
44140670,1000,1000,1000,1000,80128769,1567,1567,1566,1572
44143169,1000,1000,1000,1000,80228729,1566,1567,1566,1569
44145668,1000,1000,1000,1000,80328689,1566,1565,1567,1566
44148167,1000,1000,1000,1000,80428649,1567,1567,1568,1565
44150666,1000,1000,1000,1000,80528609,1565,1565,1566,1564
44153165,1000,1000,1000,1000,80628569,1565,1565,1565,1563
44155664,1000,1000,1000,1000,80728529,1565,1565,1565,1564
44158163,1000,1000,1000,1000,80828489,1564,1564,1563,1563
44160662,1000,1000,1000,1000,80928449,1563,1563,1562,1563
44163161,1000,1000,1000,1000,81028409,1563,1563,1562,1562
44165660,1000,1000,1000,1000,81128369,1563,1563,1562,1562
44168159,1000,1000,1000,1000,81228329,1562,1562,1562,1561
44170658,1000,1000,1000,1000,81328289,1560,1561,1561,1561
44173157,1000,1000,1000,1000,81428249,1558,1559,1560,1559
44175656,1000,1000,1000,1000,81528209,1558,1557,1558,1558
44178155,1000,1000,1000,1000,81628169,1557,1557,1558,1557
44180654,1000,1000,1000,1000,81728962,1556,1556,1557,1557
44183986,1000,1000,1000,1000,81828922,1556,1556,1557,1556
44186485,1000,1000,1000,1000,81928882,1556,1556,1557,1555
44188984,1000,1000,1000,1000,82028842,1558,1558,1558,1556
44191483,1000,1000,1000,1000,82128802,1559,1558,1558,1556
44193982,1000,1000,1000,1000,82228762,1559,1559,1559,1556
44196481,1000,1000,1000,1000,82328722,1560,1560,1559,1559
44198980,1000,1000,1000,1000,82428682,1560,1560,1557,1561
44201479,1000,1000,1000,1000,82528642,1560,1560,1556,1563
44203978,1000,1000,1000,1000,82628602,1561,1561,1557,1563
44206477,1000,1000,1000,1000,82728562,1563,1563,1560,1564
44208976,1000,1000,1000,1000,82828522,1563,1563,1562,1563
44211475,1000,1000,1000,1000,82928482,1562,1562,1563,1561
44213974,1000,1000,1000,1000,83028442,1561,1561,1563,1562
44216473,1000,1000,1000,1000,83128402,1557,1557,1558,1561
44218972,1000,1000,1000,1000,83228362,1553,1553,1555,1557
44221471,1000,1000,1000,1000,83328322,1547,1547,1550,1552
44223970,1000,1000,1000,1000,83428282,1541,1541,1546,1546
44226469,1000,1000,1000,1000,83528242,1534,1534,1539,1539
44228968,1000,1000,1000,1000,83628202,1527,1527,1532,1532
44231467,1000,1000,1000,1000,83728162,1519,1520,1524,1523
44233966,1000,1000,1000,1000,83828955,1520,1520,1521,1521
44236465,1000,1000,1000,1000,83928915,1522,1522,1519,1520
44238964,1000,1000,1000,1000,84028875,1525,1525,1519,1520
44241463,1000,1000,1000,1000,84128835,1530,1530,1522,1522
44243962,1000,1000,1000,1000,84228795,1533,1533,1524,1524
44246461,1000,1000,1000,1000,84328755,1537,1537,1529,1529
44248960,1000,1000,1000,1000,84428715,1541,1542,1534,1534
44251459,1000,1000,1000,1000,84528675,1542,1542,1537,1537
44253958,1000,1000,1000,1000,84628635,1543,1544,1541,1541
44256457,1000,1000,1000,1000,84728595,1543,1543,1544,1543
44258956,1000,1000,1000,1000,84828555,1542,1542,1545,1545
44261455,1000,1000,1000,1000,84928515,1544,1544,1548,1547
44263954,1000,1000,1000,1000,85028475,1542,1543,1548,1548
44266453,1000,1000,1000,1000,85128435,1543,1544,1549,1548
44268952,1000,1000,1000,1000,85228395,1543,1543,1548,1548
44271451,1000,1000,1000,1000,85328355,1545,1544,1548,1548
44273950,1000,1000,1000,1000,85428315,1545,1545,1547,1547
44276449,1000,1000,1000,1000,85528275,1544,1544,1546,1545
44278948,1000,1000,1000,1000,85628235,1545,1545,1545,1545
44281447,1000,1000,1000,1000,85728195,1544,1544,1544,1543
44283946,1000,1000,1000,1000,85828155,1545,1545,1543,1543
44286445,1000,1000,1000,1000,85928948,1545,1545,1544,1543
44288944,1000,1000,1000,1000,86028908,1547,1547,1545,1544
44291443,1000,1000,1000,1000,86128868,1544,1545,1543,1543
44293942,1000,1000,1000,1000,86228828,1544,1544,1543,1543
44296441,1000,1000,1000,1000,86328788,1545,1545,1544,1544
44298940,1000,1000,1000,1000,86428748,1544,1544,1544,1543
44301439,1000,1000,1000,1000,86528708,1545,1544,1544,1544
44303938,1000,1000,1000,1000,86628668,1544,1543,1544,1544
44306437,1000,1000,1000,1000,86728628,1544,1543,1544,1545
44308936,1000,1000,1000,1000,86828588,1543,1544,1544,1544
44311435,1000,1000,1000,1000,86928548,1544,1544,1545,1544
44313934,1000,1000,1000,1000,87028508,1543,1544,1544,1544
44316433,1000,1000,1000,1000,87128468,1544,1544,1545,1544
44318932,1000,1000,1000,1000,87228428,1544,1544,1544,1544
44321431,1000,1000,1000,1000,87328388,1544,1544,1544,1544
44323930,1000,1000,1000,1000,87428348,1545,1545,1544,1545
44326429,1000,1000,1000,1000,87528308,1545,1544,1544,1544
44328928,1000,1000,1000,1000,87628268,1544,1545,1544,1544
44331427,1000,1000,1000,1000,87728228,1546,1546,1545,1545
44333926,1000,1000,1000,1000,87828188,1544,1545,1545,1544
44336425,1000,1000,1000,1000,87928981,1544,1544,1544,1544
44338924,1000,1000,1000,1000,88028941,1545,1545,1545,1545
44341423,1000,1000,1000,1000,88128901,1544,1543,1544,1544
44343922,1000,1000,1000,1000,88228861,1544,1544,1545,1544
44346421,1000,1000,1000,1000,88328821,1544,1544,1544,1544
44348920,1000,1000,1000,1000,88428781,1544,1544,1544,1544
44351419,1000,1000,1000,1000,88528741,1544,1543,1543,1544
44353918,1000,1000,1000,1000,88628701,1544,1545,1544,1545
44356417,1000,1000,1000,1000,88728661,1545,1545,1545,1545
44358916,1000,1000,1000,1000,88828621,1545,1544,1544,1544
44361415,1000,1000,1000,1000,88928581,1544,1544,1544,1544
44363914,1000,1000,1000,1000,89028541,1545,1545,1545,1545
44366413,1000,1000,1000,1000,89128501,1545,1544,1544,1544
44368912,1000,1000,1000,1000,89228461,1543,1544,1544,1544
44371411,1000,1000,1000,1000,89328421,1545,1546,1545,1545
44373910,1000,1000,1000,1000,89428381,1545,1545,1545,1545
44376409,1000,1000,1000,1000,89528341,1545,1544,1544,1545
44378908,1000,1000,1000,1000,89628301,1544,1544,1544,1545
44381407,1000,1000,1000,1000,89728261,1544,1544,1544,1544
44383906,1000,1000,1000,1000,89828221,1544,1544,1545,1545
44386405,1000,1000,1000,1000,89928181,1543,1544,1544,1543
44388904,1000,1000,1000,1000,90028974,1544,1544,1544,1544
44391403,1000,1000,1000,1000,90128934,1543,1543,1543,1544
44393902,1000,1000,1000,1000,90228894,1543,1542,1543,1543
44396401,1000,1000,1000,1000,90328854,1545,1545,1544,1545
44398900,1000,1000,1000,1000,90428814,1545,1545,1544,1544
44401399,1000,1000,1000,1000,90528774,1545,1545,1544,1544
44403898,1000,1000,1000,1000,90628734,1544,1544,1544,1544
44406397,1000,1000,1000,1000,90728694,1544,1544,1544,1544
44408896,1000,1000,1000,1000,90828654,1544,1545,1545,1545
44411395,1000,1000,1000,1000,90928614,1544,1543,1544,1544
44413894,1000,1000,1000,1000,91028574,1543,1543,1544,1544
44416393,1000,1000,1000,1000,91128534,1543,1543,1544,1544
44418892,1000,1000,1000,1000,91228494,1542,1543,1544,1543
44421391,1000,1000,1000,1000,91328454,1544,1544,1544,1544
44423890,1000,1000,1000,1000,91428414,1544,1544,1544,1544
44426389,1000,1000,1000,1000,91528374,1544,1544,1543,1544
44428888,1000,1000,1000,1000,91628334,1544,1544,1544,1544
44431387,1000,1000,1000,1000,91728294,1544,1544,1544,1544
44433886,1000,1000,1000,1000,91828254,1545,1545,1544,1545
44436385,1000,1000,1000,1000,91928214,1544,1544,1544,1544
44438884,1000,1000,1000,1000,92028174,1545,1545,1544,1544
44441383,1000,1000,1000,1000,92128967,1545,1545,1545,1545
44443882,1000,1000,1000,1000,92228927,1544,1544,1544,1544
44446381,1000,1000,1000,1000,92328887,1545,1544,1544,1545
44448880,1000,1000,1000,1000,92428847,1544,1544,1544,1544
44451379,1000,1000,1000,1000,92528807,1544,1544,1544,1544
44453878,1000,1000,1000,1000,92628767,1546,1546,1545,1546
44456377,1000,1000,1000,1000,92728727,1545,1545,1545,1545
44458876,1000,1000,1000,1000,92828687,1545,1545,1545,1545
44461375,1000,1000,1000,1000,92928647,1544,1544,1544,1545
44463874,1000,1000,1000,1000,93028607,1544,1544,1544,1544
44466373,1000,1000,1000,1000,93128567,1545,1543,1544,1544
44468872,1000,1000,1000,1000,93228527,1544,1544,1545,1544
44471371,1000,1000,1000,1000,93328487,1544,1544,1544,1545
44473870,1000,1000,1000,1000,93428447,1545,1545,1545,1544
44476369,1000,1000,1000,1000,93528407,1395,1394,1448,1448
44478868,1000,1000,1000,1000,93628367,1386,1387,1443,1442
44481367,1000,1000,1000,1000,93728327,1386,1386,1443,1442
44483866,1000,1000,1000,1000,93828287,1386,1386,1402,1401
44486365,1000,1000,1000,1000,93928247,1386,1386,1343,1343
44488864,1000,1000,1000,1000,94028207,1386,1386,1303,1303
44491363,1000,1000,1000,1000,94128167,1386,1386,1303,1303
44493862,1000,1000,1000,1000,94228960,1401,1386,1292,1303
44496361,1000,1000,1000,1000,94328920,1395,1386,1297,1303
44498860,1000,1000,1000,1000,94428880,1393,1386,1298,1303
44501359,1000,1000,1000,1000,94528840,1392,1386,1298,1303
44503858,1000,1000,1000,1000,94628800,1392,1386,1298,1303
44506357,1000,1000,1000,1000,94728760,1393,1386,1298,1303
44508856,1000,1000,1000,1000,94828720,1393,1386,1298,1303
44511355,1000,1000,1000,1000,94928680,1393,1386,1298,1303
44513854,1000,1000,1000,1000,95028640,1386,1386,1303,1303
44516353,1000,1000,1000,1000,95128600,1387,1386,1303,1303
44518852,1000,1000,1000,1000,95228560,1387,1386,1302,1303
44521351,1000,1000,1000,1000,95328520,1387,1386,1302,1303
44523850,1000,1000,1000,1000,95428480,1387,1386,1252,1252
44526349,1000,1000,1000,1000,95528440,1000,1000,1000,1000
44528848,1000,1000,1000,1000,95628400,1000,1000,1000,1000
44531347,1000,1000,1000,1000,95728360,1000,1000,1000,1000
44533846,1000,1000,1000,1000,95828320,1000,1000,1000,1000
44536345,1000,1000,1000,1000,95928280,1000,1000,1000,1000
44538844,1000,1000,1000,1000,96028240,1000,1000,1000,1000
44541343,1000,1000,1000,1000,96128200,1000,1000,1000,1000
44543842,1000,1000,1000,1000,96228160,1000,1000,1000,1000
44546341,1000,1000,1000,1000,96328953,1000,1000,1000,1000
44548840,1000,1000,1000,1000,96428913,1000,1000,1000,1000
44551339,1000,1000,1000,1000,96528873,1000,1000,1000,1000
44553838,1000,1000,1000,1000,96628833,1000,1000,1000,1000
44556337,1000,1000,1000,1000,96728793,1000,1000,1000,1000
44558836,1000,1000,1000,1000,96828753,1000,1000,1000,1000
44561335,1000,1000,1000,1000,96928713,1000,1000,1000,1000
44563834,1000,1000,1000,1000,97028673,1000,1000,1000,1000
44566333,1000,1000,1000,1000,97128633,1000,1000,1000,1000
44568832,1000,1000,1000,1000,97228593,1000,1000,1000,1000
44571331,1000,1000,1000,1000,97328553,1000,1000,1000,1000
44573830,1000,1000,1000,1000,97428513,1000,1000,1000,1000
44576329,1000,1000,1000,1000,97528473,1000,1000,1000,1000
44578828,1000,1000,1000,1000,97628433,1000,1000,1000,1000
44581327,1000,1000,1000,1000,97728393,1000,1000,1000,1000
44583826,1000,1000,1000,1000,97828353,1000,1000,1000,1000
44586325,1000,1000,1000,1000,97928313,1000,1000,1000,1000
44588824,1000,1000,1000,1000,98028273,1000,1000,1000,1000
44591323,1000,1000,1000,1000,98128233,1000,1000,1000,1000
44593822,1000,1000,1000,1000,98228193,1000,1000,1000,1000
44596321,1000,1000,1000,1000,98328986,1000,1000,1000,1000
44598820,1000,1000,1000,1000,98428946,1000,1000,1000,1000
44601319,1000,1000,1000,1000,98528906,1000,1000,1000,1000
44603818,1000,1000,1000,1000,98628866,1000,1000,1000,1000
44606317,1000,1000,1000,1000,98728826,1000,1000,1000,1000
44608816,1000,1000,1000,1000,98828786,1000,1000,1000,1000
44611315,1000,1000,1000,1000,98928746,1000,1000,1000,1000
44613814,1000,1000,1000,1000,99028706,1000,1000,1000,1000
44616313,1000,1000,1000,1000,99128666,1000,1000,1000,1000
44618812,1000,1000,1000,1000,99228626,1000,1000,1000,1000
44621311,1000,1000,1000,1000,99328586,1000,1000,1000,1000
44623810,1000,1000,1000,1000,99428546,1000,1000,1000,1000
44626309,1000,1000,1000,1000,99528506,1000,1000,1000,1000
44628808,1000,1000,1000,1000,99628466,1000,1000,1000,1000
44631307,1000,1000,1000,1000,99728426,1000,1000,1000,1000
44633806,1000,1000,1000,1000,99828386,1000,1000,1000,1000
44636305,1000,1000,1000,1000,99928346,1000,1000,1000,1000
44638804,1000,1000,1000,1000,100028306,1000,1000,1000,1000
44641303,1000,1000,1000,1000,100128266,1000,1000,1000,1000
44643802,1000,1000,1000,1000,100228226,1000,1000,1000,1000
44646301,1000,1000,1000,1000,100328186,1000,1000,1000,1000
44648800,1000,1000,1000,1000,100428979,1000,1000,1000,1000
44651299,1000,1000,1000,1000,100528939,1000,1000,1000,1000
44653798,1000,1000,1000,1000,100628899,1000,1000,1000,1000
44656297,1000,1000,1000,1000,100728859,1000,1000,1000,1000
44658796,1000,1000,1000,1000,100828819,1000,1000,1000,1000
44661295,1000,1000,1000,1000,100928779,1000,1000,1000,1000
44663794,1000,1000,1000,1000,101028739,1000,1000,1000,1000
44666293,1000,1000,1000,1000,101128699,1000,1000,1000,1000
44668792,1000,1000,1000,1000,101228659,1000,1000,1000,1000
44671291,1000,1000,1000,1000,101328619,1000,1000,1000,1000
44673790,1000,1000,1000,1000,101428579,1000,1000,1000,1000
44676289,1000,1000,1000,1000,101528539,1000,1000,1000,1000
44678788,1000,1000,1000,1000,101628499,1000,1000,1000,1000
44681287,1000,1000,1000,1000,101728459,1000,1000,1000,1000
44683786,1000,1000,1000,1000,101828419,1000,1000,1000,1000
44686285,1000,1000,1000,1000,101928379,1000,1000,1000,1000
44688784,1000,1000,1000,1000,102028339,1000,1000,1000,1000
44691283,1000,1000,1000,1000,102128299,1000,1000,1000,1000
44693782,1000,1000,1000,1000,102228259,1000,1000,1000,1000
44696281,1000,1000,1000,1000,102328219,1000,1000,1000,1000
44698780,1000,1000,1000,1000,102428179,1000,1000,1000,1000
44701279,1000,1000,1000,1000,102528972,1000,1000,1000,1000
44703778,1000,1000,1000,1000,102628932,1000,1000,1000,1000
44706277,1000,1000,1000,1000,102728892,1000,1000,1000,1000
44708776,1000,1000,1000,1000,102828852,1000,1000,1000,1000
44711275,1000,1000,1000,1000,102928812,1000,1000,1000,1000
44713774,1000,1000,1000,1000,103028772,1000,1000,1000,1000
44716273,1000,1000,1000,1000,103128732,1000,1000,1000,1000
44718772,1000,1000,1000,1000,103228692,1000,1000,1000,1000
44721271,1000,1000,1000,1000,103328652,1000,1000,1000,1000
44723770,1000,1000,1000,1000,103428612,1000,1000,1000,1000
44726269,1000,1000,1000,1000,103528572,1000,1000,1000,1000
44728768,1000,1000,1000,1000,103628532,1000,1000,1000,1000
44731267,1000,1000,1000,1000,103728492,1000,1000,1000,1000
44733766,1000,1000,1000,1000,103828452,1000,1000,1000,1000
44736265,1000,1000,1000,1000,103928412,1000,1000,1000,1000
44738764,1000,1000,1000,1000,104028372,1000,1000,1000,1000
44741263,1000,1000,1000,1000,104128332,1000,1000,1000,1000
44743762,1000,1000,1000,1000,104228292,1000,1000,1000,1000
44746261,1000,1000,1000,1000,104328252,1000,1000,1000,1000
44748760,1000,1000,1000,1000,104428212,1000,1000,1000,1000
44751259,1000,1000,1000,1000,104528172,1000,1000,1000,1000
44753758,1000,1000,1000,1000,104628965,1000,1000,1000,1000
44756257,1000,1000,1000,1000,104728925,1000,1000,1000,1000
44758756,1000,1000,1000,1000,104828885,1000,1000,1000,1000
44761255,1000,1000,1000,1000,104928845,1000,1000,1000,1000
44763754,1000,1000,1000,1000,105028805,1000,1000,1000,1000
44766253,1000,1000,1000,1000,105128765,1000,1000,1000,1000
44768752,1000,1000,1000,1000,105228725,1000,1000,1000,1000
44771251,1000,1000,1000,1000,105328685,1000,1000,1000,1000
44773750,1000,1000,1000,1000,105428645,1000,1000,1000,1000
44776249,1000,1000,1000,1000,105528605,1000,1000,1000,1000
44778748,1000,1000,1000,1000,105628565,1000,1000,1000,1000
44781247,1000,1000,1000,1000,105728525,1000,1000,1000,1000
44783746,1000,1000,1000,1000,105828485,1000,1000,1000,1000
44786245,1000,1000,1000,1000,105928445,1000,1000,1000,1000
44788744,1000,1000,1000,1000,106028405,1000,1000,1000,1000
44791243,1000,1000,1000,1000,106128365,1000,1000,1000,1000
44793742,1000,1000,1000,1000,106228325,1000,1000,1000,1000
44796241,1000,1000,1000,1000,,,,,
44798740,1000,1000,1000,1000,,,,,
44801239,1000,1000,1000,1000,,,,,
44803738,1000,1000,1000,1000,,,,,
44806237,1000,1000,1000,1000,,,,,
44808736,1000,1000,1000,1000,,,,,
44811235,1000,1000,1000,1000,,,,,
44813734,1000,1000,1000,1000,,,,,
44816233,1000,1000,1000,1000,,,,,
44818732,1000,1000,1000,1000,,,,,
44821231,1000,1000,1000,1000,,,,,
44823730,1000,1000,1000,1000,,,,,
44826229,1000,1000,1000,1000,,,,,
44828728,1000,1000,1000,1000,,,,,
44831227,1000,1000,1000,1000,,,,,
44833726,1000,1000,1000,1000,,,,,
44836225,1000,1000,1000,1000,,,,,
44838724,1000,1000,1000,1000,,,,,
44841223,1000,1000,1000,1000,,,,,
44843722,1000,1000,1000,1000,,,,,
44846221,1000,1000,1000,1000,,,,,
44848720,1000,1000,1000,1000,,,,,
44851219,1000,1000,1000,1000,,,,,
44853718,1000,1000,1000,1000,,,,,
44856217,1000,1000,1000,1000,,,,,
44858716,1000,1000,1000,1000,,,,,
44861215,1000,1000,1000,1000,,,,,
44863714,1000,1000,1000,1000,,,,,
44866213,1000,1000,1000,1000,,,,,
44868712,1000,1000,1000,1000,,,,,
44871211,1000,1000,1000,1000,,,,,
44873710,1000,1000,1000,1000,,,,,
44876209,1000,1000,1000,1000,,,,,
44878708,1000,1000,1000,1000,,,,,
44881207,1000,1000,1000,1000,,,,,
44883706,1000,1000,1000,1000,,,,,
44886205,1000,1000,1000,1000,,,,,
44888704,1000,1000,1000,1000,,,,,
44891203,1000,1000,1000,1000,,,,,
44893702,1000,1000,1000,1000,,,,,
44896201,1000,1000,1000,1000,,,,,
44898700,1000,1000,1000,1000,,,,,
44901199,1000,1000,1000,1000,,,,,
44903698,1000,1000,1000,1000,,,,,
44906197,1000,1000,1000,1000,,,,,
44908696,1000,1000,1000,1000,,,,,
44911195,1000,1000,1000,1000,,,,,
44913694,1000,1000,1000,1000,,,,,
44916193,1000,1000,1000,1000,,,,,
44918692,1000,1000,1000,1000,,,,,
44921191,1000,1000,1000,1000,,,,,
44923690,1000,1000,1000,1000,,,,,
44926189,1000,1000,1000,1000,,,,,
44928688,1000,1000,1000,1000,,,,,
44931187,1000,1000,1000,1000,,,,,
44933686,1000,1000,1000,1000,,,,,
44936185,1000,1000,1000,1000,,,,,
44938684,1000,1000,1000,1000,,,,,
44941183,1000,1000,1000,1000,,,,,
44943682,1000,1000,1000,1000,,,,,
44946181,1000,1000,1000,1000,,,,,
44948680,1000,1000,1000,1000,,,,,
44951179,1000,1000,1000,1000,,,,,
44953678,1000,1000,1000,1000,,,,,
44956177,1000,1000,1000,1000,,,,,
44958676,1000,1000,1000,1000,,,,,
44961175,1000,1000,1000,1000,,,,,
44963674,1000,1000,1000,1000,,,,,
44966173,1000,1000,1000,1000,,,,,
44968672,1000,1000,1000,1000,,,,,
44971171,1000,1000,1000,1000,,,,,
44973670,1000,1000,1000,1000,,,,,
44976169,1000,1000,1000,1000,,,,,
44978668,1000,1000,1000,1000,,,,,
44981167,1000,1000,1000,1000,,,,,
44983666,1000,1000,1000,1000,,,,,
44986165,1000,1000,1000,1000,,,,,
44988664,1000,1000,1000,1000,,,,,
44991163,1000,1000,1000,1000,,,,,
44993662,1000,1000,1000,1000,,,,,
44996161,1000,1000,1000,1000,,,,,
44998660,1000,1000,1000,1000,,,,,
45001159,1000,1000,1000,1000,,,,,
45003658,1000,1000,1000,1000,,,,,
45006157,1000,1000,1000,1000,,,,,
45008656,1000,1000,1000,1000,,,,,
45011155,1000,1000,1000,1000,,,,,
45013654,1000,1000,1000,1000,,,,,
45016153,1000,1000,1000,1000,,,,,
45018652,1000,1000,1000,1000,,,,,
45021151,1000,1000,1000,1000,,,,,
45023650,1000,1000,1000,1000,,,,,
45026149,1000,1000,1000,1000,,,,,
45028648,1000,1000,1000,1000,,,,,
45031147,1000,1000,1000,1000,,,,,
45033646,1000,1000,1000,1000,,,,,
45036145,1000,1000,1000,1000,,,,,
45038644,1000,1000,1000,1000,,,,,
45041143,1000,1000,1000,1000,,,,,
45043642,1000,1000,1000,1000,,,,,
45046141,1000,1000,1000,1000,,,,,
45048640,1000,1000,1000,1000,,,,,
45051139,1000,1000,1000,1000,,,,,
45053638,1000,1000,1000,1000,,,,,
45056137,1000,1000,1000,1000,,,,,
45058636,1000,1000,1000,1000,,,,,
45061135,1000,1000,1000,1000,,,,,
45063634,1000,1000,1000,1000,,,,,
45066133,1000,1000,1000,1000,,,,,
45068632,1000,1000,1000,1000,,,,,
45071131,1000,1000,1000,1000,,,,,
45073630,1000,1000,1000,1000,,,,,
45076129,1000,1000,1000,1000,,,,,
45078628,1000,1000,1000,1000,,,,,
45081127,1000,1000,1000,1000,,,,,
45083626,1000,1000,1000,1000,,,,,
45086125,1000,1000,1000,1000,,,,,
45088624,1000,1000,1000,1000,,,,,
45091123,1000,1000,1000,1000,,,,,
45093622,1000,1000,1000,1000,,,,,
45096121,1000,1000,1000,1000,,,,,
45098620,1000,1000,1000,1000,,,,,
45101119,1000,1000,1000,1000,,,,,
45103618,1000,1000,1000,1000,,,,,
45106117,1000,1000,1000,1000,,,,,
45108616,1000,1000,1000,1000,,,,,
45111115,1000,1000,1000,1000,,,,,
45113614,1000,1000,1000,1000,,,,,
45116113,1000,1000,1000,1000,,,,,
45118612,1000,1000,1000,1000,,,,,
45121111,1000,1000,1000,1000,,,,,
45123610,1000,1000,1000,1000,,,,,
45126109,1000,1000,1000,1000,,,,,
45128608,1000,1000,1000,1000,,,,,
45131107,1000,1000,1000,1000,,,,,
45133606,1000,1000,1000,1000,,,,,
45136105,1000,1000,1000,1000,,,,,
45138604,1000,1000,1000,1000,,,,,
45141103,1000,1000,1000,1000,,,,,
45143602,1000,1000,1000,1000,,,,,
45146101,1000,1000,1000,1000,,,,,
45148600,1000,1000,1000,1000,,,,,
45151099,1000,1000,1000,1000,,,,,
45153598,1000,1000,1000,1000,,,,,
45156097,1000,1000,1000,1000,,,,,
45158596,1000,1000,1000,1000,,,,,
45161095,1000,1000,1000,1000,,,,,
45163594,1000,1000,1000,1000,,,,,
45166093,1000,1000,1000,1000,,,,,
45168592,1000,1000,1000,1000,,,,,
45171091,1000,1000,1000,1000,,,,,
45173590,1000,1000,1000,1000,,,,,
45176089,1000,1000,1000,1000,,,,,
45178588,1000,1000,1000,1000,,,,,
45181087,1000,1000,1000,1000,,,,,
45183586,1000,1000,1000,1000,,,,,
45186085,1000,1000,1000,1000,,,,,
45188584,1000,1000,1000,1000,,,,,
45191083,1000,1000,1000,1000,,,,,
45193582,1000,1000,1000,1000,,,,,
45196081,1000,1000,1000,1000,,,,,
45198580,1000,1000,1000,1000,,,,,
45201079,1000,1000,1000,1000,,,,,
45203578,1000,1000,1000,1000,,,,,
45206077,1000,1000,1000,1000,,,,,
45208576,1000,1000,1000,1000,,,,,
45211075,1000,1000,1000,1000,,,,,
45213574,1000,1000,1000,1000,,,,,
45216073,1000,1000,1000,1000,,,,,
45218572,1000,1000,1000,1000,,,,,
45221071,1000,1000,1000,1000,,,,,
45223570,1000,1000,1000,1000,,,,,
45226069,1001,1001,1001,1001,,,,,
45228568,1002,1002,1002,1002,,,,,
45231067,1003,1003,1003,1003,,,,,
45233566,1003,1003,1003,1003,,,,,
45236065,1004,1004,1004,1004,,,,,
45238564,1005,1005,1005,1005,,,,,
45241063,1006,1006,1006,1006,,,,,
45243562,1006,1006,1006,1006,,,,,
45246061,1007,1007,1007,1007,,,,,
45248560,1008,1008,1008,1008,,,,,
45251059,1009,1009,1009,1009,,,,,
45253558,1009,1009,1009,1009,,,,,
45256057,1010,1010,1010,1010,,,,,
45258556,1011,1011,1011,1011,,,,,
45261055,1012,1012,1012,1012,,,,,
45263554,1012,1012,1012,1012,,,,,
45266053,1013,1013,1013,1013,,,,,
45268552,1014,1014,1014,1014,,,,,
45271051,1015,1015,1015,1015,,,,,
45273550,1015,1015,1015,1015,,,,,
45276049,1016,1016,1016,1016,,,,,
45278548,1017,1017,1017,1017,,,,,
45281047,1018,1018,1018,1018,,,,,
45283546,1018,1018,1018,1018,,,,,
45286045,1019,1019,1019,1019,,,,,
45288544,1020,1020,1020,1020,,,,,
45291043,1021,1021,1021,1021,,,,,
45293542,1021,1021,1021,1021,,,,,
45296041,1022,1022,1022,1022,,,,,
45298540,1023,1023,1023,1023,,,,,
45301039,1024,1024,1024,1024,,,,,
45303538,1024,1024,1024,1024,,,,,
45306037,1025,1025,1025,1025,,,,,
45308536,1026,1026,1026,1026,,,,,
45311035,1027,1027,1027,1027,,,,,
45313534,1027,1027,1027,1027,,,,,
45316033,1028,1028,1028,1028,,,,,
45318532,1029,1029,1029,1029,,,,,
45321031,1030,1030,1030,1030,,,,,
45323530,1030,1030,1030,1030,,,,,
45326029,1031,1031,1031,1031,,,,,
45328528,1032,1032,1032,1032,,,,,
45331027,1033,1033,1033,1033,,,,,
45333526,1033,1033,1033,1033,,,,,
45336025,1034,1034,1034,1034,,,,,
45338524,1035,1035,1035,1035,,,,,
45341023,1036,1036,1036,1036,,,,,
45343522,1036,1036,1036,1036,,,,,
45346021,1037,1037,1037,1037,,,,,
45348520,1038,1038,1038,1038,,,,,
45351019,1039,1039,1039,1039,,,,,
45353518,1039,1039,1039,1039,,,,,
45356017,1040,1040,1040,1040,,,,,
45358516,1041,1041,1041,1041,,,,,
45361015,1042,1042,1042,1042,,,,,
45363514,1042,1042,1042,1042,,,,,
45366013,1043,1043,1043,1043,,,,,
45368512,1044,1044,1044,1044,,,,,
45371011,1045,1045,1045,1045,,,,,
45373510,1045,1045,1045,1045,,,,,
45376009,1046,1046,1046,1046,,,,,
45378508,1047,1047,1047,1047,,,,,
45381007,1048,1048,1048,1048,,,,,
45383506,1048,1048,1048,1048,,,,,
45386005,1049,1049,1049,1049,,,,,
45388504,1050,1050,1050,1050,,,,,
45391003,1051,1051,1051,1051,,,,,
45393502,1051,1051,1051,1051,,,,,
45396001,1052,1052,1052,1052,,,,,
45398500,1053,1053,1053,1053,,,,,
45400999,1054,1054,1054,1054,,,,,
45403498,1054,1054,1054,1054,,,,,
45405997,1055,1055,1055,1055,,,,,
45408496,1056,1056,1056,1056,,,,,
45410995,1057,1057,1057,1057,,,,,
45413494,1057,1057,1057,1057,,,,,
45415993,1058,1058,1058,1058,,,,,
45418492,1059,1059,1059,1059,,,,,
45420991,1060,1060,1060,1060,,,,,
45423490,1060,1060,1060,1060,,,,,
45425989,1061,1061,1061,1061,,,,,
45428488,1062,1062,1062,1062,,,,,
45430987,1063,1063,1063,1063,,,,,
45433486,1063,1063,1063,1063,,,,,
45435985,1064,1064,1064,1064,,,,,
45438484,1065,1065,1065,1065,,,,,
45440983,1066,1066,1066,1066,,,,,
45443482,1066,1066,1066,1066,,,,,
45445981,1067,1067,1067,1067,,,,,
45448480,1068,1068,1068,1068,,,,,
45450979,1069,1069,1069,1069,,,,,
45453478,1069,1069,1069,1069,,,,,
45455977,1070,1070,1070,1070,,,,,
45458476,1071,1071,1071,1071,,,,,
45460975,1072,1072,1072,1072,,,,,
45463474,1072,1072,1072,1072,,,,,
45465973,1073,1073,1073,1073,,,,,
45468472,1074,1074,1074,1074,,,,,
45470971,1075,1075,1075,1075,,,,,
45473470,1075,1075,1075,1075,,,,,
45475969,1076,1076,1076,1076,,,,,
45478468,1077,1077,1077,1077,,,,,
45480967,1078,1078,1078,1078,,,,,
45483466,1078,1078,1078,1078,,,,,
45485965,1079,1079,1079,1079,,,,,
45488464,1080,1080,1080,1080,,,,,
45490963,1081,1081,1081,1081,,,,,
45493462,1081,1081,1081,1081,,,,,
45495961,1082,1082,1082,1082,,,,,
45498460,1083,1083,1083,1083,,,,,
45500959,1084,1084,1084,1084,,,,,
45503458,1084,1084,1084,1084,,,,,
45505957,1085,1085,1085,1085,,,,,
45508456,1086,1086,1086,1086,,,,,
45510955,1087,1087,1087,1087,,,,,
45513454,1087,1087,1087,1087,,,,,
45515953,1088,1088,1088,1088,,,,,
45518452,1089,1089,1089,1089,,,,,
45520951,1090,1090,1090,1090,,,,,
45523450,1090,1090,1090,1090,,,,,
45525949,1091,1091,1091,1091,,,,,
45528448,1092,1092,1092,1092,,,,,
45530947,1093,1093,1093,1093,,,,,
45533446,1093,1093,1093,1093,,,,,
45535945,1094,1094,1094,1094,,,,,
45538444,1095,1095,1095,1095,,,,,
45540943,1096,1096,1096,1096,,,,,
45543442,1096,1096,1096,1096,,,,,
45545941,1097,1097,1097,1097,,,,,
45548440,1098,1098,1098,1098,,,,,
45550939,1099,1099,1099,1099,,,,,
45553438,1099,1099,1099,1099,,,,,
45555937,1100,1100,1100,1100,,,,,
45558436,1101,1101,1101,1101,,,,,
45560935,1101,1101,1101,1101,,,,,
45563434,1102,1102,1102,1102,,,,,
45565933,1103,1103,1103,1103,,,,,
45568432,1104,1104,1104,1104,,,,,
45570931,1104,1104,1104,1104,,,,,
45573430,1105,1105,1105,1105,,,,,
45575929,1106,1106,1106,1106,,,,,
45578428,1107,1107,1107,1107,,,,,
45580927,1107,1107,1107,1107,,,,,
45583426,1108,1108,1108,1108,,,,,
45585925,1109,1109,1109,1109,,,,,
45588424,1110,1110,1110,1110,,,,,
45590923,1110,1110,1110,1110,,,,,
45593422,1111,1111,1111,1111,,,,,
45595921,1112,1112,1112,1112,,,,,
45598420,1113,1113,1113,1113,,,,,
45600919,1113,1113,1113,1113,,,,,
45603418,1114,1114,1114,1114,,,,,
45605917,1115,1115,1115,1115,,,,,
45608416,1116,1116,1116,1116,,,,,
45610915,1116,1116,1116,1116,,,,,
45613414,1117,1117,1117,1117,,,,,
45615913,1118,1118,1118,1118,,,,,
45618412,1119,1119,1119,1119,,,,,
45620911,1119,1119,1119,1119,,,,,
45623410,1120,1120,1120,1120,,,,,
45625909,1121,1121,1121,1121,,,,,
45628408,1122,1122,1122,1122,,,,,
45630907,1122,1122,1122,1122,,,,,
45633406,1123,1123,1123,1123,,,,,
45635905,1124,1124,1124,1124,,,,,
45638404,1125,1125,1125,1125,,,,,
45640903,1125,1125,1125,1125,,,,,
45643402,1126,1126,1126,1126,,,,,
45645901,1127,1127,1127,1127,,,,,
45648400,1128,1128,1128,1128,,,,,
45650899,1128,1128,1128,1128,,,,,
45653398,1129,1129,1129,1129,,,,,
45655897,1130,1130,1130,1130,,,,,
45658396,1131,1131,1131,1131,,,,,
45660895,1131,1131,1131,1131,,,,,
45663394,1132,1132,1132,1132,,,,,
45665893,1133,1133,1133,1133,,,,,
45668392,1134,1134,1134,1134,,,,,
45670891,1134,1134,1134,1134,,,,,
45673390,1135,1135,1135,1135,,,,,
45675889,1136,1136,1136,1136,,,,,
45678388,1137,1137,1137,1137,,,,,
45680887,1137,1137,1137,1137,,,,,
45683386,1138,1138,1138,1138,,,,,
45685885,1139,1139,1139,1139,,,,,
45688384,1140,1140,1140,1140,,,,,
45690883,1140,1140,1140,1140,,,,,
45693382,1141,1141,1141,1141,,,,,
45695881,1142,1142,1142,1142,,,,,
45698380,1143,1143,1143,1143,,,,,
45700879,1143,1143,1143,1143,,,,,
45703378,1144,1144,1144,1144,,,,,
45705877,1145,1145,1145,1145,,,,,
45708376,1146,1146,1146,1146,,,,,
45710875,1146,1146,1146,1146,,,,,
45713374,1147,1147,1147,1147,,,,,
45715873,1148,1148,1148,1148,,,,,
45718372,1149,1149,1149,1149,,,,,
45720871,1149,1149,1149,1149,,,,,
45723370,1150,1150,1150,1150,,,,,
45725869,1161,1154,1154,1161,,,,,
45728368,1169,1162,1163,1169,,,,,
45730867,1177,1170,1170,1177,,,,,
45733366,1184,1178,1178,1185,,,,,
45735865,1192,1186,1186,1193,,,,,
45738364,1199,1193,1193,1200,,,,,
45740863,1207,1201,1201,1207,,,,,
45743362,1214,1208,1208,1214,,,,,
45745861,1221,1215,1215,1222,,,,,
45748360,1228,1222,1222,1229,,,,,
45750859,1235,1229,1229,1235,,,,,
45753358,1242,1236,1236,1242,,,,,
45755857,1248,1243,1243,1249,,,,,
45758356,1255,1249,1250,1256,,,,,
45760855,1262,1256,1256,1262,,,,,
45763354,1268,1262,1263,1269,,,,,
45765853,1274,1269,1269,1275,,,,,
45768352,1281,1275,1276,1281,,,,,
45770851,1287,1282,1282,1287,,,,,
45773350,1293,1288,1288,1293,,,,,
45775849,1299,1294,1294,1300,,,,,
45778348,1305,1300,1300,1306,,,,,
45780847,1311,1306,1306,1311,,,,,
45783346,1317,1312,1312,1317,,,,,
45785845,1323,1318,1318,1323,,,,,
45788344,1329,1324,1324,1329,,,,,
45790843,1334,1329,1330,1335,,,,,
45793342,1340,1335,1335,1340,,,,,
45795841,1346,1341,1341,1346,,,,,
45798340,1351,1346,1346,1351,,,,,
45800839,1357,1352,1352,1357,,,,,
45803338,1362,1357,1358,1362,,,,,
45805837,1367,1363,1363,1368,,,,,
45808336,1373,1368,1368,1373,,,,,
45810835,1378,1373,1374,1378,,,,,
45813334,1383,1379,1379,1384,,,,,
45815833,1389,1384,1384,1389,,,,,
45818332,1394,1389,1389,1394,,,,,
45820831,1399,1394,1395,1399,,,,,
45823330,1404,1399,1400,1404,,,,,
45825829,1409,1404,1405,1409,,,,,
45828328,1414,1410,1410,1414,,,,,
45830827,1419,1415,1415,1419,,,,,
45833326,1424,1420,1420,1424,,,,,
45835825,1429,1425,1425,1429,,,,,
45838324,1434,1429,1430,1434,,,,,
45840823,1438,1434,1434,1439,,,,,
45843322,1443,1439,1439,1444,,,,,
45845821,1448,1444,1444,1449,,,,,
45848320,1453,1449,1449,1453,,,,,
45850819,1458,1453,1454,1458,,,,,
45853318,1462,1458,1458,1463,,,,,
45855817,1467,1463,1463,1467,,,,,
45858316,1471,1467,1468,1472,,,,,
45860815,1476,1472,1472,1476,,,,,
45863314,1481,1477,1477,1481,,,,,
45865813,1485,1481,1481,1486,,,,,
45868312,1490,1486,1486,1490,,,,,
45870811,1494,1490,1490,1495,,,,,
45873310,1499,1495,1495,1499,,,,,
45875809,1503,1499,1499,1503,,,,,
45878308,1507,1503,1504,1508,,,,,
45880807,1512,1508,1508,1512,,,,,
45883306,1516,1512,1512,1517,,,,,
45885805,1521,1516,1517,1521,,,,,
45888304,1525,1521,1521,1525,,,,,
45890803,1529,1525,1525,1529,,,,,
45893302,1533,1529,1529,1534,,,,,
45895801,1538,1534,1534,1538,,,,,
45898300,1542,1538,1538,1542,,,,,
45900799,1546,1542,1542,1546,,,,,
45903298,1550,1546,1546,1550,,,,,
45905797,1554,1550,1550,1555,,,,,
45908296,1558,1554,1555,1559,,,,,
45910795,1562,1559,1559,1563,,,,,
45913294,1567,1563,1563,1567,,,,,
45915793,1571,1567,1567,1571,,,,,
45918292,1575,1571,1571,1575,,,,,
45920791,1579,1575,1575,1579,,,,,
45923290,1583,1579,1579,1583,,,,,
45925789,1587,1583,1583,1587,,,,,
45928288,1591,1587,1587,1591,,,,,
45930787,1595,1591,1591,1595,,,,,
45933286,1598,1595,1595,1599,,,,,
45935785,1602,1598,1599,1603,,,,,
45938284,1606,1602,1603,1606,,,,,
45940783,1610,1606,1607,1610,,,,,
45943282,1614,1610,1610,1614,,,,,
45945781,1618,1614,1614,1618,,,,,
45948280,1622,1618,1618,1622,,,,,
45950779,1625,1622,1622,1626,,,,,
45953278,1629,1625,1626,1629,,,,,
45955777,1633,1629,1629,1633,,,,,
45958276,1637,1633,1633,1637,,,,,
45960775,1641,1637,1637,1641,,,,,
45963274,1644,1640,1641,1644,,,,,
45965773,1648,1644,1644,1648,,,,,
45968272,1652,1648,1648,1652,,,,,
45970771,1655,1651,1652,1655,,,,,
45973270,1659,1655,1655,1659,,,,,
45975769,1663,1659,1659,1663,,,,,
45978268,1666,1662,1663,1666,,,,,
45980767,1670,1666,1666,1670,,,,,
45983266,1674,1670,1670,1674,,,,,
45985765,1677,1673,1674,1677,,,,,
45988264,1681,1677,1677,1681,,,,,
45990763,1684,1680,1681,1684,,,,,
45993262,1688,1684,1684,1688,,,,,
45995761,1691,1687,1688,1691,,,,,
45998260,1695,1691,1691,1695,,,,,
46000759,1698,1694,1695,1699,,,,,
46003258,1702,1698,1698,1702,,,,,
46005757,1705,1701,1702,1705,,,,,
46008256,1709,1705,1705,1709,,,,,
46010755,1712,1708,1709,1712,,,,,
46013254,1716,1712,1712,1716,,,,,
46015753,1719,1715,1716,1719,,,,,
46018252,1723,1719,1719,1723,,,,,
46020751,1726,1722,1722,1726,,,,,
46023250,1729,1726,1726,1730,,,,,
46025749,1733,1729,1729,1733,,,,,
46028248,1736,1732,1733,1736,,,,,
46030747,1739,1736,1736,1740,,,,,
46033246,1743,1739,1739,1743,,,,,
46035745,1746,1742,1743,1746,,,,,
46038244,1749,1746,1746,1750,,,,,
46040743,1753,1749,1749,1753,,,,,
46043242,1756,1752,1753,1756,,,,,
46045741,1759,1756,1756,1760,,,,,
46048240,1763,1759,1759,1763,,,,,
46050739,1766,1762,1763,1766,,,,,
46053238,1769,1766,1766,1769,,,,,
46055737,1772,1769,1769,1773,,,,,
46058236,1776,1772,1772,1776,,,,,
46060735,1779,1775,1776,1779,,,,,
46063234,1782,1779,1779,1782,,,,,
46065733,1785,1782,1782,1785,,,,,
46068232,1789,1785,1785,1789,,,,,
46070731,1792,1788,1788,1792,,,,,
46073230,1795,1791,1792,1795,,,,,
46075729,1798,1794,1795,1798,,,,,
46078228,1801,1798,1798,1801,,,,,
46080727,1805,1801,1801,1805,,,,,
46083226,1808,1804,1804,1808,,,,,
46085725,1811,1807,1808,1811,,,,,
46088224,1814,1810,1811,1814,,,,,
46090723,1817,1813,1814,1817,,,,,
46093222,1820,1816,1817,1820,,,,,
46095721,1823,1819,1820,1823,,,,,
46098220,1826,1822,1823,1826,,,,,
46100719,1830,1826,1826,1829,,,,,
46103218,1833,1829,1829,1833,,,,,
46105717,1836,1832,1832,1836,,,,,
46108216,1839,1835,1835,1839,,,,,
46110715,1842,1838,1838,1842,,,,,
46113214,1845,1841,1841,1845,,,,,
46115713,1848,1844,1844,1848,,,,,
46118212,1851,1847,1847,1851,,,,,
46120711,1854,1850,1850,1854,,,,,
46123210,1857,1853,1853,1857,,,,,
46125709,1860,1856,1856,1860,,,,,
46128208,1863,1859,1859,1863,,,,,
46130707,1865,1861,1862,1865,,,,,
46133206,1864,1860,1860,1864,,,,,
46135705,1863,1859,1859,1863,,,,,
46138204,1862,1857,1858,1861,,,,,
46140703,1860,1856,1857,1860,,,,,
46143202,1859,1855,1855,1859,,,,,
46145701,1858,1854,1854,1858,,,,,
46148200,1857,1853,1853,1857,,,,,
46150699,1856,1852,1852,1856,,,,,
46153198,1855,1851,1851,1855,,,,,
46155697,1854,1850,1851,1854,,,,,
46158196,1853,1849,1850,1853,,,,,
46160695,1853,1849,1849,1853,,,,,
46163194,1852,1848,1849,1852,,,,,
46165693,1852,1848,1848,1852,,,,,
46168192,1851,1847,1848,1851,,,,,
46170691,1851,1847,1847,1851,,,,,
46173190,1851,1846,1847,1851,,,,,
46175689,1850,1846,1847,1850,,,,,
46178188,1850,1846,1847,1850,,,,,
46180687,1850,1846,1847,1850,,,,,
46183186,1850,1846,1847,1850,,,,,
46185685,1850,1846,1847,1850,,,,,
46188184,1850,1847,1847,1851,,,,,
46190683,1851,1847,1847,1851,,,,,
46193182,1851,1847,1847,1851,,,,,
46195681,1851,1848,1848,1852,,,,,
46198180,1852,1848,1848,1852,,,,,
46200679,1852,1848,1849,1853,,,,,
46203178,1853,1849,1849,1853,,,,,
46205677,1854,1850,1850,1854,,,,,
46208176,1854,1850,1851,1854,,,,,
46210675,1855,1851,1851,1855,,,,,
46213174,1856,1852,1852,1856,,,,,
46215673,1856,1853,1853,1857,,,,,
46218172,1857,1853,1854,1857,,,,,
46220671,1858,1854,1854,1858,,,,,
46223170,1859,1855,1855,1859,,,,,
46225669,1860,1856,1856,1860,,,,,
46228168,1860,1857,1857,1861,,,,,
46230667,1861,1858,1858,1861,,,,,
46233166,1862,1859,1859,1862,,,,,
46235665,1862,1859,1859,1863,,,,,
46238164,1863,1860,1860,1863,,,,,
46240663,1863,1860,1860,1863,,,,,
46243162,1863,1861,1861,1864,,,,,
46245661,1864,1861,1861,1864,,,,,
46248160,1863,1861,1861,1864,,,,,
46250659,1863,1860,1861,1863,,,,,
46253158,1863,1860,1860,1863,,,,,
46255657,1862,1859,1860,1862,,,,,
46258156,1861,1859,1859,1861,,,,,
46260655,1860,1858,1858,1860,,,,,
46263154,1859,1857,1857,1859,,,,,
46266486,1858,1855,1856,1858,,,,,
46268985,1856,1854,1854,1856,,,,,
46271484,1854,1852,1852,1855,,,,,
46273983,1853,1850,1851,1853,,,,,
46276482,1851,1848,1849,1851,,,,,
46278981,1849,1846,1847,1849,,,,,
46281480,1846,1844,1844,1846,,,,,
46283979,1844,1842,1842,1844,,,,,
46286478,1841,1839,1840,1842,,,,,
46288977,1839,1837,1837,1839,,,,,
46291476,1836,1834,1835,1836,,,,,
46293975,1834,1832,1832,1834,,,,,
46296474,1831,1829,1829,1831,,,,,
46298973,1828,1826,1827,1828,,,,,
46301472,1825,1823,1824,1825,,,,,
46303971,1822,1820,1821,1822,,,,,
46306470,1819,1817,1818,1819,,,,,
46308969,1816,1814,1815,1816,,,,,
46311468,1813,1811,1812,1813,,,,,
46313967,1809,1808,1809,1810,,,,,
46316466,1806,1805,1805,1806,,,,,
46318965,1803,1802,1802,1803,,,,,
46321464,1800,1798,1799,1800,,,,,
46323963,1796,1795,1796,1796,,,,,
46326462,1793,1792,1792,1793,,,,,
46328961,1790,1789,1789,1790,,,,,
46331460,1786,1785,1785,1786,,,,,
46333959,1783,1782,1782,1783,,,,,
46336458,1779,1778,1779,1779,,,,,
46338957,1776,1775,1775,1776,,,,,
46341456,1772,1771,1772,1772,,,,,
46343955,1769,1768,1768,1769,,,,,
46346454,1765,1765,1765,1765,,,,,
46348953,1762,1761,1761,1762,,,,,
46351452,1758,1758,1758,1758,,,,,
46353951,1755,1754,1755,1755,,,,,
46356450,1751,1751,1751,1751,,,,,
46358949,1748,1747,1748,1748,,,,,
46361448,1745,1744,1744,1745,,,,,
46363947,1741,1741,1741,1741,,,,,
46366446,1738,1737,1737,1738,,,,,
46368945,1734,1734,1734,1734,,,,,
46371444,1731,1730,1731,1731,,,,,
46373943,1728,1727,1728,1728,,,,,
46376442,1724,1724,1724,1724,,,,,
46378941,1721,1721,1721,1721,,,,,
46381440,1718,1718,1718,1718,,,,,
46383939,1715,1715,1715,1715,,,,,
46386438,1712,1711,1712,1712,,,,,
46388937,1709,1708,1709,1709,,,,,
46391436,1706,1705,1706,1706,,,,,
46393935,1703,1702,1703,1703,,,,,
46396434,1700,1699,1700,1700,,,,,
46398933,1697,1696,1697,1697,,,,,
46401432,1694,1694,1694,1694,,,,,
46403931,1691,1691,1691,1691,,,,,
46406430,1688,1688,1688,1688,,,,,
46408929,1685,1685,1686,1685,,,,,
46411428,1683,1683,1683,1683,,,,,
46413927,1680,1680,1680,1680,,,,,
46416426,1677,1677,1678,1678,,,,,
46418925,1675,1675,1675,1675,,,,,
46421424,1672,1673,1673,1673,,,,,
46423923,1670,1670,1670,1670,,,,,
46426422,1668,1668,1668,1668,,,,,
46428921,1665,1666,1666,1666,,,,,
46431420,1663,1663,1663,1663,,,,,
46433919,1661,1661,1661,1661,,,,,
46436418,1659,1659,1659,1659,,,,,
46438917,1657,1657,1657,1657,,,,,
46441416,1654,1655,1655,1655,,,,,
46443915,1652,1653,1653,1653,,,,,
46446414,1650,1651,1651,1650,,,,,
46448913,1648,1649,1649,1649,,,,,
46451412,1646,1647,1647,1647,,,,,
46453911,1645,1645,1645,1645,,,,,
46456410,1643,1643,1643,1643,,,,,
46458909,1641,1641,1642,1641,,,,,
46461408,1639,1640,1640,1639,,,,,
46463907,1638,1638,1638,1638,,,,,
46466406,1636,1636,1637,1636,,,,,
46468905,1634,1635,1635,1634,,,,,
46471404,1633,1633,1633,1633,,,,,
46473903,1631,1632,1632,1631,,,,,
46476402,1630,1631,1631,1630,,,,,
46478901,1628,1629,1629,1628,,,,,
46481400,1627,1628,1628,1627,,,,,
46483899,1625,1627,1627,1626,,,,,
46486398,1624,1625,1625,1624,,,,,
46488897,1623,1624,1624,1623,,,,,
46491396,1622,1623,1623,1622,,,,,
46493895,1621,1622,1622,1621,,,,,
46496394,1619,1621,1621,1620,,,,,
46498893,1618,1620,1620,1619,,,,,
46501392,1617,1619,1619,1618,,,,,
46503891,1617,1618,1618,1617,,,,,
46506390,1616,1617,1617,1616,,,,,
