TimeUS,M1,M2,M3,M4,TimeUS,C1,C2,C3,C4
48983732,1000,1000,1000,1000,49028714,1000,1000,1000,1000
48986231,1000,1000,1000,1000,49128674,1000,1000,1000,1000
48988730,1000,1000,1000,1000,49228634,1000,1000,1000,1000
48991229,1000,1000,1000,1000,49328594,1000,1000,1000,1000
48993728,1000,1000,1000,1000,49428554,1000,1000,1000,1000
48996227,1000,1000,1000,1000,49528514,1000,1000,1000,1000
48998726,1000,1000,1000,1000,49628474,1000,1000,1000,1000
49001225,1000,1000,1000,1000,49728434,1000,1000,1000,1000
49003724,1000,1000,1000,1000,49828394,1000,1000,1000,1000
49006223,1000,1000,1000,1000,49928354,1000,1000,1000,1000
49008722,1000,1000,1000,1000,50028314,1000,1000,1000,1000
49011221,1000,1000,1000,1000,50128274,1000,1000,1000,1000
49013720,1000,1000,1000,1000,50228234,1000,1000,1000,1000
49016219,1000,1000,1000,1000,50328194,1000,1000,1000,1000
49018718,1000,1000,1000,1000,50428154,1000,1000,1000,1000
49021217,1000,1000,1000,1000,50528947,1000,1000,1000,1000
49023716,1000,1000,1000,1000,50628907,1000,1000,1000,1000
49026215,1000,1000,1000,1000,50728867,1000,1000,1000,1000
49028714,1000,1000,1000,1000,50828827,1000,1000,1000,1000
49031213,1000,1000,1000,1000,50928787,1000,1000,1000,1000
49033712,1000,1000,1000,1000,51028747,1013,1013,1013,1013
49036211,1000,1000,1000,1000,51128707,1043,1043,1043,1043
49038710,1000,1000,1000,1000,51228667,1073,1073,1073,1073
49041209,1000,1000,1000,1000,51328627,1103,1103,1103,1103
49043708,1000,1000,1000,1000,51428587,1133,1133,1133,1133
49046207,1000,1000,1000,1000,51528547,1275,1268,1269,1275
49048706,1000,1000,1000,1000,51628507,1485,1481,1481,1486
49051205,1000,1000,1000,1000,51728467,1648,1644,1644,1648
49053704,1000,1000,1000,1000,51828427,1786,1781,1782,1785
49056203,1000,1000,1000,1000,51928387,1907,1902,1903,1907
49058702,1000,1000,1000,1000,52028347,1900,1898,1898,1900
49061201,1000,1000,1000,1000,52128307,1771,1771,1771,1772
49063700,1000,1000,1000,1000,52228267,1674,1676,1676,1674
49066199,1000,1000,1000,1000,52328227,1643,1645,1645,1643
49068698,1000,1000,1000,1000,52428187,1645,1646,1646,1645
49071197,1000,1000,1000,1000,52528980,1649,1649,1649,1649
49073696,1000,1000,1000,1000,52628940,1644,1644,1644,1645
49076195,1000,1000,1000,1000,52728900,1635,1634,1634,1635
49078694,1000,1000,1000,1000,52828860,1626,1625,1625,1626
49081193,1000,1000,1000,1000,52928820,1593,1593,1593,1593
49083692,1000,1000,1000,1000,53028780,1575,1574,1574,1574
49086191,1000,1000,1000,1000,53128740,1562,1562,1562,1562
49088690,1000,1000,1000,1000,53228700,1552,1552,1552,1552
49091189,1000,1000,1000,1000,53328660,1549,1549,1544,1554
49093688,1000,1000,1000,1000,53428620,1545,1545,1538,1552
49096187,1000,1000,1000,1000,53528580,1545,1545,1541,1549
49098686,1000,1000,1000,1000,53628540,1546,1546,1545,1547
49101185,1000,1000,1000,1000,53728500,1547,1547,1549,1545
49103684,1000,1000,1000,1000,53828460,1549,1549,1552,1546
49106183,1000,1000,1000,1000,53928420,1553,1553,1557,1550
49108682,1000,1000,1000,1000,54028380,1541,1541,1551,1531
49111181,1000,1000,1000,1000,54128340,1539,1539,1547,1532
49113680,1000,1000,1000,1000,54228300,1538,1537,1538,1538
49116179,1000,1000,1000,1000,54328260,1538,1537,1532,1543
49118678,1000,1000,1000,1000,54428220,1538,1539,1531,1546
49121177,1000,1000,1000,1000,54528180,1538,1539,1532,1545
49123676,1000,1000,1000,1000,54628973,1540,1541,1537,1544
49126175,1000,1000,1000,1000,54728933,1545,1544,1544,1545
49128674,1000,1000,1000,1000,54828893,1548,1548,1551,1545
49131173,1000,1000,1000,1000,54928853,1552,1552,1556,1548
49133672,1000,1000,1000,1000,55028813,1553,1554,1557,1551
49136171,1000,1000,1000,1000,55128773,1557,1557,1558,1556
49138670,1000,1000,1000,1000,55228733,1559,1558,1558,1560
49141169,1000,1000,1000,1000,55328693,1553,1553,1565,1569
49143668,1000,1000,1000,1000,55428653,1555,1555,1566,1570
49146167,1000,1000,1000,1000,55528613,1558,1558,1565,1568
49148666,1000,1000,1000,1000,55628573,1561,1562,1565,1566
49151165,1000,1000,1000,1000,55728533,1565,1566,1565,1564
49153664,1000,1000,1000,1000,55828493,1567,1568,1563,1562
49156163,1000,1000,1000,1000,55928453,1571,1571,1565,1564
49158662,1000,1000,1000,1000,56028413,1572,1572,1564,1563
49161161,1000,1000,1000,1000,56128373,1573,1573,1565,1564
49163660,1000,1000,1000,1000,56228333,1574,1574,1567,1566
49166159,1000,1000,1000,1000,56328293,1574,1574,1568,1568
49168658,1000,1000,1000,1000,56428253,1575,1574,1570,1570
49171157,1000,1000,1000,1000,56528213,1573,1573,1571,1571
49173656,1000,1000,1000,1000,56628173,1573,1573,1573,1572
49176155,1000,1000,1000,1000,56728966,1572,1572,1574,1573
49178654,1000,1000,1000,1000,56828926,1573,1573,1576,1575
49181153,1000,1000,1000,1000,56928886,1572,1573,1576,1575
49183652,1000,1000,1000,1000,57028846,1573,1574,1577,1576
49186151,1000,1000,1000,1000,57128806,1574,1574,1577,1577
49188650,1000,1000,1000,1000,57228766,1575,1575,1577,1578
49191149,1000,1000,1000,1000,57328726,1575,1575,1577,1577
49193648,1000,1000,1000,1000,57428686,1575,1575,1576,1576
49196147,1000,1000,1000,1000,57528646,1577,1576,1577,1577
49198646,1000,1000,1000,1000,57628606,1577,1577,1576,1577
49201145,1000,1000,1000,1000,57728566,1578,1578,1577,1577
49203644,1000,1000,1000,1000,57828526,1578,1578,1577,1577
49206143,1000,1000,1000,1000,57928486,1579,1578,1577,1577
49208642,1000,1000,1000,1000,58028446,1579,1579,1577,1577
49211141,1000,1000,1000,1000,58128406,1578,1578,1577,1577
49213640,1000,1000,1000,1000,58228366,1578,1578,1578,1577
49216139,1000,1000,1000,1000,58328326,1578,1578,1578,1578
49218638,1000,1000,1000,1000,58428286,1577,1578,1577,1577
49221137,1000,1000,1000,1000,58528246,1579,1578,1579,1579
49223636,1000,1000,1000,1000,58628206,1578,1578,1579,1579
49226135,1000,1000,1000,1000,58728166,1578,1578,1579,1579
49228634,1000,1000,1000,1000,58828959,1579,1578,1580,1579
49231133,1000,1000,1000,1000,58928919,1579,1579,1579,1580
49233632,1000,1000,1000,1000,59028879,1578,1578,1579,1579
49236131,1000,1000,1000,1000,59128839,1579,1579,1580,1580
49238630,1000,1000,1000,1000,59228799,1579,1578,1579,1579
49241129,1000,1000,1000,1000,59328759,1579,1579,1579,1579
49243628,1000,1000,1000,1000,59428719,1580,1580,1580,1580
49246127,1000,1000,1000,1000,59528679,1579,1580,1580,1580
49248626,1000,1000,1000,1000,59628639,1581,1581,1581,1581
49251125,1000,1000,1000,1000,59728599,1581,1580,1580,1581
49253624,1000,1000,1000,1000,59828559,1581,1581,1580,1580
49256123,1000,1000,1000,1000,59928519,1580,1580,1580,1580
49258622,1000,1000,1000,1000,60028479,1580,1580,1580,1580
49261121,1000,1000,1000,1000,60128439,1580,1580,1580,1580
49263620,1000,1000,1000,1000,60228399,1580,1580,1580,1580
49266119,1000,1000,1000,1000,60328359,1580,1580,1580,1580
49268618,1000,1000,1000,1000,60428319,1580,1580,1580,1580
49271117,1000,1000,1000,1000,60528279,1581,1581,1581,1581
49273616,1000,1000,1000,1000,60628239,1581,1581,1581,1581
49276115,1000,1000,1000,1000,60728199,1581,1580,1581,1581
49278614,1000,1000,1000,1000,60828159,1581,1581,1581,1581
49281113,1000,1000,1000,1000,60928952,1579,1580,1580,1580
49283612,1000,1000,1000,1000,61028912,1581,1581,1581,1581
49286111,1000,1000,1000,1000,61128872,1581,1581,1581,1581
49288610,1000,1000,1000,1000,61228832,1582,1581,1582,1582
49291109,1000,1000,1000,1000,61328792,1582,1582,1582,1582
49293608,1000,1000,1000,1000,61428752,1581,1582,1582,1582
49296107,1000,1000,1000,1000,61528712,1581,1581,1582,1580
49298606,1000,1000,1000,1000,61628672,1581,1582,1588,1574
49301105,1000,1000,1000,1000,61728632,1579,1581,1584,1572
49303604,1000,1000,1000,1000,61828592,1578,1581,1576,1574
49306103,1000,1000,1000,1000,61928552,1577,1579,1567,1571
49308602,1000,1000,1000,1000,62028512,1576,1579,1561,1568
49311101,1000,1000,1000,1000,62128472,1577,1578,1557,1563
49313600,1000,1000,1000,1000,62228432,1579,1578,1556,1559
49316099,1000,1000,1000,1000,62328392,1580,1578,1556,1556
49318598,1000,1000,1000,1000,62428352,1579,1578,1556,1555
49321097,1000,1000,1000,1000,62528312,1579,1578,1557,1554
49323596,1000,1000,1000,1000,62628272,1576,1577,1556,1553
49326095,1000,1000,1000,1000,62728232,1575,1576,1555,1554
49328594,1000,1000,1000,1000,62828192,1574,1576,1553,1553
49331093,1000,1000,1000,1000,62928985,1574,1575,1552,1553
49333592,1000,1000,1000,1000,63028945,1575,1577,1552,1552
49336091,1000,1000,1000,1000,63128905,1575,1576,1549,1549
49338590,1000,1000,1000,1000,63228865,1578,1579,1548,1548
49341089,1000,1000,1000,1000,63328825,1581,1582,1545,1546
49343588,1000,1000,1000,1000,63428785,1583,1584,1542,1542
49346087,1000,1000,1000,1000,63528745,1587,1588,1540,1540
49348586,1000,1000,1000,1000,63628705,1589,1590,1537,1537
49351085,1000,1000,1000,1000,63728665,1592,1592,1535,1535
49353584,1000,1000,1000,1000,63828625,1595,1595,1535,1535
49356083,1000,1000,1000,1000,63928585,1597,1596,1536,1537
49358582,1000,1000,1000,1000,64028545,1595,1595,1537,1539
49361081,1000,1000,1000,1000,64128505,1592,1592,1539,1542
49363580,1000,1000,1000,1000,64228465,1588,1587,1544,1547
49366079,1000,1000,1000,1000,64328425,1583,1580,1551,1555
49368578,1000,1000,1000,1000,64428385,1575,1572,1561,1565
49371077,1000,1000,1000,1000,64528345,1566,1562,1574,1576
49373576,1000,1000,1000,1000,64628305,1555,1552,1587,1587
49376075,1000,1000,1000,1000,64728265,1544,1541,1598,1598
49378574,1000,1000,1000,1000,64828225,1536,1535,1607,1606
49381073,1000,1000,1000,1000,64928185,1530,1531,1613,1611
49383572,1000,1000,1000,1000,65028978,1528,1530,1615,1614
49386071,1000,1000,1000,1000,65128938,1530,1533,1613,1613
49388570,1000,1000,1000,1000,65228898,1537,1540,1610,1610
49391069,1000,1000,1000,1000,65328858,1544,1546,1603,1605
49393568,1000,1000,1000,1000,65428818,1553,1553,1596,1597
49396067,1000,1000,1000,1000,65528778,1561,1561,1589,1587
49398566,1000,1000,1000,1000,65628738,1569,1569,1581,1580
49401065,1000,1000,1000,1000,65728698,1577,1576,1575,1575
49403564,1000,1000,1000,1000,65828658,1583,1582,1571,1570
49406063,1000,1000,1000,1000,65928618,1587,1585,1568,1568
49408562,1000,1000,1000,1000,66028578,1588,1587,1567,1567
49411061,1000,1000,1000,1000,66128538,1587,1586,1566,1566
49413560,1000,1000,1000,1000,66228498,1586,1585,1568,1568
49416059,1000,1000,1000,1000,66328458,1585,1584,1571,1572
49418558,1000,1000,1000,1000,66428418,1581,1581,1574,1573
49421057,1000,1000,1000,1000,66528378,1579,1579,1577,1577
49423556,1000,1000,1000,1000,66628338,1575,1575,1578,1578
49426055,1000,1000,1000,1000,66728298,1574,1574,1581,1581
49428554,1000,1000,1000,1000,66828258,1573,1574,1583,1583
49431053,1000,1000,1000,1000,66928218,1573,1574,1585,1584
49433552,1000,1000,1000,1000,67028178,1572,1573,1584,1584
49436051,1000,1000,1000,1000,67128971,1573,1574,1583,1584
49438550,1000,1000,1000,1000,67228931,1321,1323,1619,1624
49441049,1000,1000,1000,1000,67328891,1402,1408,1646,1652
49443548,1000,1000,1000,1000,67428851,1466,1475,1639,1637
49446047,1000,1000,1000,1000,67528811,1520,1528,1624,1616
49448546,1000,1000,1000,1000,67628771,1563,1565,1612,1603
49451045,1000,1000,1000,1000,67728731,1595,1591,1605,1598
49453544,1000,1000,1000,1000,67828691,1626,1611,1591,1589
49456043,1000,1000,1000,1000,67928651,1650,1636,1564,1571
49458542,1000,1000,1000,1000,68028611,1650,1639,1525,1538
49461041,1000,1000,1000,1000,68128571,1650,1649,1540,1551
49463540,1000,1000,1000,1000,68228531,1643,1650,1556,1561
49466039,1000,1000,1000,1000,68328491,1641,1650,1575,1574
49468538,1000,1000,1000,1000,68428451,1637,1644,1585,1581
49471037,1000,1000,1000,1000,68528411,1629,1633,1583,1579
49473536,1000,1000,1000,1000,68628371,1623,1623,1581,1578
49476035,1000,1000,1000,1000,68728331,1618,1615,1579,1578
49478534,1000,1000,1000,1000,68828291,1613,1609,1576,1577
49481033,1000,1000,1000,1000,68928251,1607,1604,1572,1574
49483532,1000,1000,1000,1000,69028211,1601,1600,1570,1571
49486031,1000,1000,1000,1000,69128171,1597,1597,1569,1570
49488530,1000,1000,1000,1000,69228964,1593,1594,1569,1567
49491029,1000,1000,1000,1000,69328924,1590,1591,1568,1567
49493528,1000,1000,1000,1000,69428884,1588,1590,1567,1566
49496027,1000,1000,1000,1000,69528844,1588,1588,1568,1567
49498526,1000,1000,1000,1000,69628804,1590,1586,1574,1563
49501025,1000,1000,1000,1000,69728764,1591,1583,1574,1564
49503524,1000,1000,1000,1000,69828724,1589,1581,1567,1565
49506023,1000,1000,1000,1000,69928684,1584,1580,1559,1563
49508522,1000,1000,1000,1000,70028644,1874,1875,1548,1553
49511021,1000,1000,1000,1000,70128604,1789,1791,1476,1470
49513520,1000,1000,1000,1000,70228564,1733,1733,1468,1462
49516019,1000,1000,1000,1000,70328524,1665,1664,1492,1488
49518518,1000,1000,1000,1000,70428484,1598,1599,1522,1522
49521017,1000,1000,1000,1000,70528444,1537,1542,1551,1555
49523516,1000,1000,1000,1000,70628404,1478,1486,1588,1595
49526015,1000,1000,1000,1000,70728364,1435,1444,1617,1624
49528514,1000,1000,1000,1000,70828324,1427,1435,1626,1632
49531013,1000,1000,1000,1000,70928284,1439,1443,1619,1625
49533512,1000,1000,1000,1000,71028244,1458,1460,1607,1610
49536011,1000,1000,1000,1000,71128204,1481,1482,1595,1596
49538510,1000,1000,1000,1000,71228164,1502,1503,1582,1581
49541009,1000,1000,1000,1000,71328957,1522,1523,1569,1567
49543508,1000,1000,1000,1000,71428917,1540,1542,1558,1554
49546007,1000,1000,1000,1000,71528877,1559,1561,1549,1545
49548506,1000,1000,1000,1000,71628837,1576,1578,1539,1535
49551005,1000,1000,1000,1000,71728797,1593,1593,1528,1525
49553504,1000,1000,1000,1000,71828757,1610,1608,1516,1513
49556003,1000,1000,1000,1000,71928717,1624,1621,1505,1503
49558502,1000,1000,1000,1000,72028677,1633,1629,1500,1501
49561001,1000,1000,1000,1000,72128637,1635,1631,1502,1504
49563500,1000,1000,1000,1000,72228597,1630,1625,1510,1513
49565999,1000,1000,1000,1000,72328557,1618,1614,1523,1526
49568498,1000,1000,1000,1000,72428517,1601,1597,1540,1543
49570997,1000,1000,1000,1000,72528477,1582,1580,1560,1563
49573496,1000,1000,1000,1000,72628437,1562,1561,1578,1581
49575995,1000,1000,1000,1000,72728397,1544,1543,1596,1597
49578494,1000,1000,1000,1000,72828357,1531,1532,1608,1607
49580993,1000,1000,1000,1000,72928317,1525,1525,1613,1612
49583492,1000,1000,1000,1000,73028277,1525,1526,1616,1615
49585991,1000,1000,1000,1000,73128237,1527,1529,1615,1614
49588490,1000,1000,1000,1000,73228197,1531,1532,1612,1611
49590989,1000,1000,1000,1000,73328157,1535,1536,1606,1606
49593488,1000,1000,1000,1000,73428950,1541,1542,1601,1602
49595987,1000,1000,1000,1000,73528910,1547,1547,1596,1597
49598486,1000,1000,1000,1000,73628870,1553,1553,1591,1592
49600985,1000,1000,1000,1000,73728830,1559,1559,1586,1587
49603484,1000,1000,1000,1000,73828790,1565,1565,1583,1583
49605983,1000,1000,1000,1000,73928750,1570,1570,1578,1578
49608482,1000,1000,1000,1000,74028710,1575,1575,1575,1574
49610981,1000,1000,1000,1000,74128670,1579,1579,1572,1570
49613480,1000,1000,1000,1000,74228630,1583,1583,1569,1568
49615979,1000,1000,1000,1000,74328590,1587,1586,1568,1567
49618478,1000,1000,1000,1000,74428550,1587,1586,1565,1565
49620977,1000,1000,1000,1000,74528510,1588,1587,1567,1567
49623476,1000,1000,1000,1000,74628470,1586,1586,1568,1569
49625975,1000,1000,1000,1000,74728430,1583,1583,1570,1570
49628474,1000,1000,1000,1000,74828390,1581,1580,1573,1573
49630973,1000,1000,1000,1000,74928350,1577,1577,1576,1575
49633472,1000,1000,1000,1000,75028310,1576,1576,1579,1579
49635971,1000,1000,1000,1000,75128270,1574,1575,1581,1581
49638470,1000,1000,1000,1000,75228230,1572,1573,1582,1582
49640969,1000,1000,1000,1000,75328190,1572,1573,1583,1583
49643468,1000,1000,1000,1000,75428983,1573,1573,1583,1583
49645967,1000,1000,1000,1000,75528943,1574,1574,1583,1583
49648466,1000,1000,1000,1000,75628903,1575,1575,1582,1582
49650965,1000,1000,1000,1000,75728863,1575,1576,1580,1580
49653464,1000,1000,1000,1000,75828823,1576,1576,1578,1579
49655963,1000,1000,1000,1000,75928783,1578,1578,1578,1578
49658462,1000,1000,1000,1000,76028743,1579,1579,1577,1577
49660961,1000,1000,1000,1000,76128703,1580,1579,1576,1576
49663460,1000,1000,1000,1000,76228663,1581,1581,1577,1577
49665959,1000,1000,1000,1000,76328623,1581,1581,1578,1577
49668458,1000,1000,1000,1000,76428583,1580,1581,1577,1577
49670957,1000,1000,1000,1000,76528543,1581,1581,1578,1577
49673456,1000,1000,1000,1000,76628503,1582,1582,1579,1580
49675955,1000,1000,1000,1000,76728463,1581,1580,1579,1579
49678454,1000,1000,1000,1000,76828423,1581,1581,1580,1580
49680953,1000,1000,1000,1000,76928383,1581,1581,1581,1581
49683452,1000,1000,1000,1000,77028343,1579,1580,1581,1581
49685951,1000,1000,1000,1000,77128303,1580,1581,1582,1582
49688450,1000,1000,1000,1000,77228263,1579,1580,1582,1582
49690949,1000,1000,1000,1000,77328223,1580,1580,1582,1582
49693448,1000,1000,1000,1000,77428183,1581,1581,1583,1582
49695947,1000,1000,1000,1000,77528976,1580,1580,1581,1581
49698446,1000,1000,1000,1000,77628936,1581,1581,1581,1581
49700945,1000,1000,1000,1000,77728896,1581,1581,1581,1581
49703444,1000,1000,1000,1000,77828856,1581,1581,1581,1580
49705943,1000,1000,1000,1000,77928816,1582,1582,1582,1581
49708442,1000,1000,1000,1000,78028776,1582,1581,1581,1581
49710941,1000,1000,1000,1000,78128736,1581,1581,1581,1581
49713440,1000,1000,1000,1000,78228696,1582,1582,1581,1581
49715939,1000,1000,1000,1000,78328656,1582,1582,1581,1581
49718438,1000,1000,1000,1000,78428616,1581,1581,1580,1581
49720937,1000,1000,1000,1000,78528576,1581,1582,1586,1574
49723436,1000,1000,1000,1000,78628536,1580,1583,1586,1573
49725935,1000,1000,1000,1000,78728496,1579,1583,1578,1574
49728434,1000,1000,1000,1000,78828456,1577,1581,1569,1572
49730933,1000,1000,1000,1000,78928416,1577,1579,1561,1568
49733432,1000,1000,1000,1000,79028376,1578,1579,1557,1564
49735931,1000,1000,1000,1000,79128336,1581,1579,1556,1560
49738430,1000,1000,1000,1000,79228296,1581,1579,1556,1557
49740929,1000,1000,1000,1000,79328256,1582,1579,1556,1555
49743428,1000,1000,1000,1000,79428216,1580,1579,1557,1554
49745927,1000,1000,1000,1000,79528176,1578,1579,1557,1554
49748426,1000,1000,1000,1000,79628969,1577,1579,1556,1554
49750925,1000,1000,1000,1000,79728929,1576,1578,1555,1554
49753424,1000,1000,1000,1000,79828889,1575,1577,1554,1554
49755923,1000,1000,1000,1000,79928849,1575,1577,1552,1553
49758422,1000,1000,1000,1000,80028809,1577,1578,1551,1551
49760921,1000,1000,1000,1000,80128769,1579,1579,1549,1549
49763420,1000,1000,1000,1000,80228729,1581,1581,1547,1546
49765919,1000,1000,1000,1000,80328689,1584,1584,1545,1544
49768418,1000,1000,1000,1000,80428649,1586,1588,1543,1542
49770917,1000,1000,1000,1000,80528609,1589,1590,1540,1540
49773416,1000,1000,1000,1000,80628569,1592,1592,1538,1539
49775915,1000,1000,1000,1000,80728529,1594,1594,1537,1539
49778414,1000,1000,1000,1000,80828489,1595,1595,1535,1537
49780913,1000,1000,1000,1000,80928449,1595,1595,1537,1539
49783412,1000,1000,1000,1000,81028409,1594,1593,1540,1542
49785911,1000,1000,1000,1000,81128369,1591,1588,1546,1549
49788410,1000,1000,1000,1000,81228329,1584,1580,1553,1556
49790909,1000,1000,1000,1000,81328289,1575,1570,1563,1566
49793408,1000,1000,1000,1000,81428249,1565,1561,1576,1577
49795907,1000,1000,1000,1000,81528209,1554,1551,1588,1589
49798406,1000,1000,1000,1000,81628169,1543,1541,1598,1598
49800905,1000,1000,1000,1000,81728962,1536,1536,1607,1606
49803404,1000,1000,1000,1000,81828922,1533,1535,1612,1611
49805903,1000,1000,1000,1000,81928882,1533,1535,1612,1611
49808402,1000,1000,1000,1000,82028842,1538,1540,1612,1611
49810901,1000,1000,1000,1000,82128802,1541,1543,1607,1607
49813400,1000,1000,1000,1000,82228762,1548,1550,1603,1603
49815899,1000,1000,1000,1000,82328722,1555,1556,1597,1597
49818398,1000,1000,1000,1000,82428682,1563,1563,1592,1591
49820897,1000,1000,1000,1000,82528642,1570,1569,1585,1584
49823396,1000,1000,1000,1000,82628602,1576,1575,1578,1578
49825895,1000,1000,1000,1000,82728562,1581,1580,1572,1573
49828394,1000,1000,1000,1000,82828522,1585,1584,1569,1570
49830893,1000,1000,1000,1000,82928482,1587,1585,1567,1567
49833392,1000,1000,1000,1000,83028442,1588,1587,1568,1568
49835891,1000,1000,1000,1000,83128402,1587,1586,1569,1569
49838390,1000,1000,1000,1000,83228362,1585,1584,1571,1571
49840889,1000,1000,1000,1000,83328322,1582,1582,1573,1573
49843388,1000,1000,1000,1000,83428282,1580,1579,1576,1576
49845887,1000,1000,1000,1000,83528242,1577,1577,1579,1579
49848386,1000,1000,1000,1000,83628202,1575,1575,1580,1580
49850885,1000,1000,1000,1000,83728162,1573,1573,1582,1582
49853384,1000,1000,1000,1000,83828955,1572,1573,1583,1583
49855883,1000,1000,1000,1000,83928915,1573,1574,1584,1584
49858382,1000,1000,1000,1000,84028875,1573,1574,1583,1584
49860881,1000,1000,1000,1000,84128835,1573,1574,1582,1582
49863380,1000,1000,1000,1000,84228795,1575,1575,1582,1582
49865879,1000,1000,1000,1000,84328755,1577,1577,1581,1581
49868378,1000,1000,1000,1000,84428715,1578,1578,1579,1579
49870877,1000,1000,1000,1000,84528675,1580,1579,1579,1579
49873376,1000,1000,1000,1000,84628635,1580,1580,1577,1577
49875875,1000,1000,1000,1000,84728595,1581,1581,1578,1577
49878374,1000,1000,1000,1000,84828555,1581,1581,1577,1577
49880873,1000,1000,1000,1000,84928515,1581,1581,1577,1577
49883372,1000,1000,1000,1000,85028475,1580,1581,1577,1577
49885871,1000,1000,1000,1000,85128435,1581,1582,1579,1579
49888370,1000,1000,1000,1000,85228395,1582,1581,1580,1580
49890869,1000,1000,1000,1000,85328355,1580,1581,1579,1580
49893368,1000,1000,1000,1000,85428315,1580,1580,1580,1580
49895867,1000,1000,1000,1000,85528275,1579,1579,1580,1580
49898366,1000,1000,1000,1000,85628235,1578,1579,1580,1580
49900865,1000,1000,1000,1000,85728195,1578,1579,1580,1580
49903364,1000,1000,1000,1000,85828155,1578,1579,1580,1580
49905863,1000,1000,1000,1000,85928948,1579,1579,1580,1581
49908362,1000,1000,1000,1000,86028908,1579,1579,1580,1580
49910861,1000,1000,1000,1000,86128868,1579,1579,1580,1580
49913360,1000,1000,1000,1000,86228828,1579,1579,1580,1580
49915859,1000,1000,1000,1000,86328788,1580,1580,1580,1580
49918358,1000,1000,1000,1000,86428748,1581,1581,1585,1574
49920857,1000,1000,1000,1000,86528708,1580,1580,1586,1571
49923356,1000,1000,1000,1000,86628668,1579,1580,1580,1574
49925855,1000,1000,1000,1000,86728628,1576,1576,1573,1575
49928354,1000,1000,1000,1000,86828588,1573,1572,1568,1574
49930853,1000,1000,1000,1000,86928548,1570,1569,1564,1572
49933352,1000,1000,1000,1000,87028508,1568,1567,1564,1569
49935851,1000,1000,1000,1000,87128468,1567,1566,1565,1567
49938350,1000,1000,1000,1000,87228428,1566,1566,1566,1565
49940849,1000,1000,1000,1000,87328388,1565,1566,1567,1565
49943348,1000,1000,1000,1000,87428348,1564,1564,1566,1563
49945847,1000,1000,1000,1000,87528308,1563,1563,1565,1563
49948346,1000,1000,1000,1000,87628268,1563,1563,1565,1564
49950845,1000,1000,1000,1000,87728228,1563,1563,1564,1564
49953344,1000,1000,1000,1000,87828188,1563,1562,1563,1564
49955843,1000,1000,1000,1000,87928981,1562,1562,1562,1563
49958342,1000,1000,1000,1000,88028941,1561,1561,1561,1561
49960841,1000,1000,1000,1000,88128901,1560,1560,1560,1560
49963340,1000,1000,1000,1000,88228861,1560,1560,1560,1559
49965839,1000,1000,1000,1000,88328821,1559,1560,1559,1559
49968338,1000,1000,1000,1000,88428781,1558,1557,1558,1557
49970837,1000,1000,1000,1000,88528741,1558,1558,1558,1557
49973336,1000,1000,1000,1000,88628701,1558,1557,1558,1557
49975835,1000,1000,1000,1000,88728661,1557,1556,1557,1556
49978334,1000,1000,1000,1000,88828621,1557,1557,1558,1556
49980833,1000,1000,1000,1000,88928581,1557,1558,1558,1557
49983332,1000,1000,1000,1000,89028541,1557,1557,1558,1556
49985831,1000,1000,1000,1000,89128501,1558,1557,1559,1556
49988330,1000,1000,1000,1000,89228461,1559,1559,1559,1559
49990829,1000,1000,1000,1000,89328421,1558,1559,1557,1561
49993328,1000,1000,1000,1000,89428381,1560,1560,1557,1563
49995827,1000,1000,1000,1000,89528341,1561,1561,1558,1564
49998326,1000,1000,1000,1000,89628301,1559,1558,1557,1561
50000825,1000,1000,1000,1000,89728261,1555,1555,1554,1556
50003324,1000,1000,1000,1000,89828221,1550,1550,1550,1550
50005823,1000,1000,1000,1000,89928181,1545,1544,1545,1544
50008322,1000,1000,1000,1000,90028974,1537,1538,1538,1537
50010821,1000,1000,1000,1000,90128934,1530,1530,1530,1530
50013320,1000,1000,1000,1000,90228894,1523,1523,1523,1523
50015819,1000,1000,1000,1000,90328854,1521,1520,1520,1521
50018318,1000,1000,1000,1000,90428814,1520,1520,1520,1520
50020817,1000,1000,1000,1000,90528774,1522,1522,1521,1523
50023316,1000,1000,1000,1000,90628734,1525,1525,1524,1525
50025815,1000,1000,1000,1000,90728694,1528,1529,1528,1529
50028314,1000,1000,1000,1000,90828654,1533,1533,1533,1533
50030813,1000,1000,1000,1000,90928614,1538,1538,1538,1538
50033312,1000,1000,1000,1000,91028574,1540,1540,1541,1540
50035811,1000,1000,1000,1000,91128534,1543,1543,1543,1543
50038310,1000,1000,1000,1000,91228494,1544,1544,1544,1544
50040809,1000,1000,1000,1000,91328454,1545,1545,1545,1545
50043308,1000,1000,1000,1000,91428414,1546,1546,1546,1546
50045807,1000,1000,1000,1000,91528374,1546,1546,1546,1546
50048306,1000,1000,1000,1000,91628334,1545,1546,1546,1545
50050805,1000,1000,1000,1000,91728294,1546,1546,1546,1546
50053304,1000,1000,1000,1000,91828254,1546,1546,1546,1546
50055803,1000,1000,1000,1000,91928214,1546,1546,1546,1546
50058302,1000,1000,1000,1000,92028174,1546,1546,1546,1546
50060801,1000,1000,1000,1000,92128967,1546,1546,1546,1546
50063300,1000,1000,1000,1000,92228927,1545,1545,1545,1545
50065799,1000,1000,1000,1000,92328887,1545,1545,1545,1545
50068298,1000,1000,1000,1000,92428847,1544,1544,1545,1544
50070797,1000,1000,1000,1000,92528807,1544,1544,1544,1544
50073296,1000,1000,1000,1000,92628767,1544,1544,1544,1543
50075795,1000,1000,1000,1000,92728727,1545,1544,1544,1544
50078294,1000,1000,1000,1000,92828687,1545,1545,1545,1545
50080793,1000,1000,1000,1000,92928647,1545,1545,1545,1545
50083292,1000,1000,1000,1000,93028607,1544,1544,1544,1544
50085791,1000,1000,1000,1000,93128567,1545,1545,1545,1545
50088290,1000,1000,1000,1000,93228527,1544,1545,1544,1544
50090789,1000,1000,1000,1000,93328487,1544,1544,1545,1544
50093288,1000,1000,1000,1000,93428447,1543,1544,1544,1544
50095787,1000,1000,1000,1000,93528407,1544,1544,1544,1544
50098286,1000,1000,1000,1000,93628367,1544,1544,1544,1544
50100785,1000,1000,1000,1000,93728327,1544,1544,1544,1544
50103284,1000,1000,1000,1000,93828287,1545,1545,1545,1545
50105783,1000,1000,1000,1000,93928247,1545,1545,1545,1545
50108282,1000,1000,1000,1000,94028207,1543,1544,1544,1544
50110781,1000,1000,1000,1000,94128167,1544,1544,1544,1544
50113280,1000,1000,1000,1000,94228960,1544,1545,1545,1544
50115779,1000,1000,1000,1000,94328920,1545,1545,1545,1545
50118278,1000,1000,1000,1000,94428880,1544,1544,1544,1544
50120777,1000,1000,1000,1000,94528840,1544,1544,1544,1544
50123276,1000,1000,1000,1000,94628800,1545,1545,1545,1545
50125775,1000,1000,1000,1000,94728760,1544,1544,1544,1544
50128274,1000,1000,1000,1000,94828720,1544,1545,1544,1545
50130773,1000,1000,1000,1000,94928680,1545,1545,1545,1545
50133272,1000,1000,1000,1000,95028640,1545,1544,1545,1544
50135771,1000,1000,1000,1000,95128600,1544,1544,1544,1544
50138270,1000,1000,1000,1000,95228560,1543,1544,1544,1543
50140769,1000,1000,1000,1000,95328520,1544,1543,1544,1544
50143268,1000,1000,1000,1000,95428480,1544,1544,1544,1544
50145767,1000,1000,1000,1000,95528440,1544,1544,1544,1544
50148266,1000,1000,1000,1000,95628400,1545,1545,1545,1545
50150765,1000,1000,1000,1000,95728360,1544,1544,1544,1544
50153264,1000,1000,1000,1000,95828320,1544,1544,1544,1544
50155763,1000,1000,1000,1000,95928280,1543,1543,1543,1543
50158262,1000,1000,1000,1000,96028240,1544,1544,1544,1544
50160761,1000,1000,1000,1000,96128200,1544,1544,1544,1544
50163260,1000,1000,1000,1000,96228160,1544,1545,1544,1544
50165759,1000,1000,1000,1000,96328953,1545,1545,1544,1545
50168258,1000,1000,1000,1000,96428913,1544,1544,1544,1544
50170757,1000,1000,1000,1000,96528873,1545,1545,1545,1545
50173256,1000,1000,1000,1000,96628833,1544,1545,1544,1544
50175755,1000,1000,1000,1000,96728793,1544,1544,1544,1544
50178254,1000,1000,1000,1000,96828753,1544,1544,1545,1544
50180753,1000,1000,1000,1000,96928713,1545,1544,1545,1545
50183252,1000,1000,1000,1000,97028673,1544,1545,1545,1545
50185751,1000,1000,1000,1000,97128633,1545,1545,1544,1545
50188250,1000,1000,1000,1000,97228593,1544,1544,1544,1544
50190749,1000,1000,1000,1000,97328553,1544,1544,1544,1545
50193248,1000,1000,1000,1000,97428513,1544,1544,1544,1544
50195747,1000,1000,1000,1000,97528473,1544,1544,1544,1544
50198246,1000,1000,1000,1000,97628433,1545,1546,1545,1545
50200745,1000,1000,1000,1000,97728393,1545,1545,1545,1545
50203244,1000,1000,1000,1000,97828353,1545,1545,1545,1545
50205743,1000,1000,1000,1000,97928313,1545,1545,1545,1545
50208242,1000,1000,1000,1000,98028273,1545,1545,1545,1545
50210741,1000,1000,1000,1000,98128233,1545,1545,1545,1545
50213240,1000,1000,1000,1000,98228193,1544,1544,1544,1544
50215739,1000,1000,1000,1000,98328986,1545,1544,1544,1544
50218238,1000,1000,1000,1000,98428946,1545,1544,1545,1545
50220737,1000,1000,1000,1000,98528906,1544,1544,1544,1544
50223236,1000,1000,1000,1000,98628866,1544,1545,1545,1545
50225735,1000,1000,1000,1000,98728826,1545,1544,1544,1545
50228234,1000,1000,1000,1000,98828786,1544,1545,1545,1545
50230733,1000,1000,1000,1000,98928746,1545,1544,1545,1544
50233232,1000,1000,1000,1000,99028706,1544,1545,1544,1545
50235731,1000,1000,1000,1000,99128666,1545,1545,1545,1545
50238230,1000,1000,1000,1000,99228626,1544,1545,1544,1545
50240729,1000,1000,1000,1000,99328586,1544,1544,1544,1544
50243228,1000,1000,1000,1000,99428546,1544,1545,1544,1544
50245727,1000,1000,1000,1000,99528506,1544,1544,1544,1544
50248226,1000,1000,1000,1000,99628466,1543,1544,1543,1543
50250725,1000,1000,1000,1000,99728426,1544,1544,1544,1544
50253224,1000,1000,1000,1000,99828386,1545,1544,1544,1545
50255723,1000,1000,1000,1000,99928346,1544,1544,1544,1544
50258222,1000,1000,1000,1000,100028306,1437,1437,1438,1437
50260721,1000,1000,1000,1000,100128266,1289,1285,1288,1287
50263220,1000,1000,1000,1000,100228226,1229,1226,1229,1227
50265719,1000,1000,1000,1000,100328186,1209,1205,1208,1207
50268218,1000,1000,1000,1000,100428979,1177,1174,1177,1175
50270717,1000,1000,1000,1000,100528939,1153,1150,1153,1151
50273216,1000,1000,1000,1000,100628899,1153,1150,1153,1151
50275715,1000,1000,1000,1000,100728859,1183,1150,1151,1183
50278214,1000,1000,1000,1000,100828819,1178,1150,1153,1178
50280713,1000,1000,1000,1000,100928779,1173,1150,1154,1172
50283212,1000,1000,1000,1000,101028739,1173,1150,1154,1172
50285711,1000,1000,1000,1000,101128699,1175,1150,1154,1174
50288210,1000,1000,1000,1000,101228659,1177,1150,1154,1175
50290709,1000,1000,1000,1000,101328619,1179,1150,1154,1178
50293208,1000,1000,1000,1000,101428579,1181,1150,1155,1179
50295707,1000,1000,1000,1000,101528539,1164,1150,1154,1164
50298206,1000,1000,1000,1000,101628499,1168,1150,1154,1167
50300705,1000,1000,1000,1000,101728459,1169,1150,1154,1168
50303204,1000,1000,1000,1000,101828419,1169,1150,1154,1169
50305703,1000,1000,1000,1000,101928379,1170,1150,1154,1169
50308202,1000,1000,1000,1000,102028339,1000,1000,1000,1000
50310701,1000,1000,1000,1000,102128299,1000,1000,1000,1000
50313200,1000,1000,1000,1000,102228259,1000,1000,1000,1000
50315699,1000,1000,1000,1000,102328219,1000,1000,1000,1000
50318198,1000,1000,1000,1000,102428179,1000,1000,1000,1000
50320697,1000,1000,1000,1000,102528972,1000,1000,1000,1000
50323196,1000,1000,1000,1000,102628932,1000,1000,1000,1000
50325695,1000,1000,1000,1000,102728892,1000,1000,1000,1000
50328194,1000,1000,1000,1000,102828852,1000,1000,1000,1000
50330693,1000,1000,1000,1000,102928812,1000,1000,1000,1000
50333192,1000,1000,1000,1000,103028772,1000,1000,1000,1000
50335691,1000,1000,1000,1000,103128732,1000,1000,1000,1000
50338190,1000,1000,1000,1000,103228692,1000,1000,1000,1000
50340689,1000,1000,1000,1000,103328652,1000,1000,1000,1000
50343188,1000,1000,1000,1000,103428612,1000,1000,1000,1000
50345687,1000,1000,1000,1000,103528572,1000,1000,1000,1000
50348186,1000,1000,1000,1000,103628532,1000,1000,1000,1000
50350685,1000,1000,1000,1000,103728492,1000,1000,1000,1000
50353184,1000,1000,1000,1000,103828452,1000,1000,1000,1000
50355683,1000,1000,1000,1000,103928412,1000,1000,1000,1000
50358182,1000,1000,1000,1000,104028372,1000,1000,1000,1000
50360681,1000,1000,1000,1000,104128332,1000,1000,1000,1000
50363180,1000,1000,1000,1000,104228292,1000,1000,1000,1000
50365679,1000,1000,1000,1000,104328252,1000,1000,1000,1000
50368178,1000,1000,1000,1000,104428212,1000,1000,1000,1000
50370677,1000,1000,1000,1000,104528172,1000,1000,1000,1000
50373176,1000,1000,1000,1000,104628965,1000,1000,1000,1000
50375675,1000,1000,1000,1000,104728925,1000,1000,1000,1000
50378174,1000,1000,1000,1000,104828885,1000,1000,1000,1000
50380673,1000,1000,1000,1000,104928845,1000,1000,1000,1000
50383172,1000,1000,1000,1000,105028805,1000,1000,1000,1000
50385671,1000,1000,1000,1000,105128765,1000,1000,1000,1000
50388170,1000,1000,1000,1000,105228725,1000,1000,1000,1000
50390669,1000,1000,1000,1000,105328685,1000,1000,1000,1000
50393168,1000,1000,1000,1000,105428645,1000,1000,1000,1000
50395667,1000,1000,1000,1000,105528605,1000,1000,1000,1000
50398166,1000,1000,1000,1000,105628565,1000,1000,1000,1000
50400665,1000,1000,1000,1000,105728525,1000,1000,1000,1000
50403164,1000,1000,1000,1000,105828485,1000,1000,1000,1000
50405663,1000,1000,1000,1000,105928445,1000,1000,1000,1000
50408162,1000,1000,1000,1000,106028405,1000,1000,1000,1000
50410661,1000,1000,1000,1000,106128365,1000,1000,1000,1000
50413160,1000,1000,1000,1000,106228325,1000,1000,1000,1000
50415659,1000,1000,1000,1000,106328285,1000,1000,1000,1000
50418158,1000,1000,1000,1000,106428245,1000,1000,1000,1000
50420657,1000,1000,1000,1000,106528205,1000,1000,1000,1000
50423156,1000,1000,1000,1000,106628165,1000,1000,1000,1000
50425655,1000,1000,1000,1000,106728958,1000,1000,1000,1000
50428154,1000,1000,1000,1000,106828918,1000,1000,1000,1000
50431486,1000,1000,1000,1000,106928878,1000,1000,1000,1000
50433985,1000,1000,1000,1000,107028838,1000,1000,1000,1000
50436484,1000,1000,1000,1000,107128798,1000,1000,1000,1000
50438983,1000,1000,1000,1000,107228758,1000,1000,1000,1000
50441482,1000,1000,1000,1000,107328718,1000,1000,1000,1000
50443981,1000,1000,1000,1000,107428678,1000,1000,1000,1000
50446480,1000,1000,1000,1000,107528638,1000,1000,1000,1000
50448979,1000,1000,1000,1000,107628598,1000,1000,1000,1000
50451478,1000,1000,1000,1000,107728558,1000,1000,1000,1000
50453977,1000,1000,1000,1000,107828518,1000,1000,1000,1000
50456476,1000,1000,1000,1000,107928478,1000,1000,1000,1000
50458975,1000,1000,1000,1000,108028438,1000,1000,1000,1000
50461474,1000,1000,1000,1000,108128398,1000,1000,1000,1000
50463973,1000,1000,1000,1000,108228358,1000,1000,1000,1000
50466472,1000,1000,1000,1000,108328318,1000,1000,1000,1000
50468971,1000,1000,1000,1000,108428278,1000,1000,1000,1000
50471470,1000,1000,1000,1000,108528238,1000,1000,1000,1000
50473969,1000,1000,1000,1000,108628198,1000,1000,1000,1000
50476468,1000,1000,1000,1000,108728158,1000,1000,1000,1000
50478967,1000,1000,1000,1000,108828951,1000,1000,1000,1000
50481466,1000,1000,1000,1000,108928911,1000,1000,1000,1000
50483965,1000,1000,1000,1000,109028871,1000,1000,1000,1000
50486464,1000,1000,1000,1000,109128831,1000,1000,1000,1000
50488963,1000,1000,1000,1000,109228791,1000,1000,1000,1000
50491462,1000,1000,1000,1000,109328751,1000,1000,1000,1000
50493961,1000,1000,1000,1000,109428711,1000,1000,1000,1000
50496460,1000,1000,1000,1000,109528671,1000,1000,1000,1000
50498959,1000,1000,1000,1000,109628631,1000,1000,1000,1000
50501458,1000,1000,1000,1000,109728591,1000,1000,1000,1000
50503957,1000,1000,1000,1000,109828551,1000,1000,1000,1000
50506456,1000,1000,1000,1000,109928511,1000,1000,1000,1000
50508955,1000,1000,1000,1000,110028471,1000,1000,1000,1000
50511454,1000,1000,1000,1000,110128431,1000,1000,1000,1000
50513953,1000,1000,1000,1000,110228391,1000,1000,1000,1000
50516452,1000,1000,1000,1000,110328351,1000,1000,1000,1000
50518951,1000,1000,1000,1000,110428311,1000,1000,1000,1000
50521450,1000,1000,1000,1000,110528271,1000,1000,1000,1000
50523949,1000,1000,1000,1000,110628231,1000,1000,1000,1000
50526448,1000,1000,1000,1000,110728191,1000,1000,1000,1000
50528947,1000,1000,1000,1000,110828984,1000,1000,1000,1000
50531446,1000,1000,1000,1000,110928944,1000,1000,1000,1000
50533945,1000,1000,1000,1000,111028904,1000,1000,1000,1000
50536444,1000,1000,1000,1000,111128864,1000,1000,1000,1000
50538943,1000,1000,1000,1000,111228824,1000,1000,1000,1000
50541442,1000,1000,1000,1000,111328784,1000,1000,1000,1000
50543941,1000,1000,1000,1000,111428744,1000,1000,1000,1000
50546440,1000,1000,1000,1000,111528704,1000,1000,1000,1000
50548939,1000,1000,1000,1000,111628664,1000,1000,1000,1000
50551438,1000,1000,1000,1000,111728624,1000,1000,1000,1000
50553937,1000,1000,1000,1000,111828584,1000,1000,1000,1000
50556436,1000,1000,1000,1000,111928544,1000,1000,1000,1000
50558935,1000,1000,1000,1000,112028504,1000,1000,1000,1000
50561434,1000,1000,1000,1000,112128464,1000,1000,1000,1000
50563933,1000,1000,1000,1000,112228424,1000,1000,1000,1000
50566432,1000,1000,1000,1000,112328384,1000,1000,1000,1000
50568931,1000,1000,1000,1000,112428344,1000,1000,1000,1000
50571430,1000,1000,1000,1000,112528304,1000,1000,1000,1000
50573929,1000,1000,1000,1000,112628264,1000,1000,1000,1000
50576428,1000,1000,1000,1000,112728224,1000,1000,1000,1000
50578927,1000,1000,1000,1000,112828184,1000,1000,1000,1000
50581426,1000,1000,1000,1000,112928977,1000,1000,1000,1000
50583925,1000,1000,1000,1000,113028937,1000,1000,1000,1000
50586424,1000,1000,1000,1000,113128897,1000,1000,1000,1000
50588923,1000,1000,1000,1000,113228857,1000,1000,1000,1000
50591422,1000,1000,1000,1000,,,,,
50593921,1000,1000,1000,1000,,,,,
50596420,1000,1000,1000,1000,,,,,
50598919,1000,1000,1000,1000,,,,,
50601418,1000,1000,1000,1000,,,,,
50603917,1000,1000,1000,1000,,,,,
50606416,1000,1000,1000,1000,,,,,
50608915,1000,1000,1000,1000,,,,,
50611414,1000,1000,1000,1000,,,,,
50613913,1000,1000,1000,1000,,,,,
50616412,1000,1000,1000,1000,,,,,
50618911,1000,1000,1000,1000,,,,,
50621410,1000,1000,1000,1000,,,,,
50623909,1000,1000,1000,1000,,,,,
50626408,1000,1000,1000,1000,,,,,
50628907,1000,1000,1000,1000,,,,,
50631406,1000,1000,1000,1000,,,,,
50633905,1000,1000,1000,1000,,,,,
50636404,1000,1000,1000,1000,,,,,
50638903,1000,1000,1000,1000,,,,,
50641402,1000,1000,1000,1000,,,,,
50643901,1000,1000,1000,1000,,,,,
50646400,1000,1000,1000,1000,,,,,
50648899,1000,1000,1000,1000,,,,,
50651398,1000,1000,1000,1000,,,,,
50653897,1000,1000,1000,1000,,,,,
50656396,1000,1000,1000,1000,,,,,
50658895,1000,1000,1000,1000,,,,,
50661394,1000,1000,1000,1000,,,,,
50663893,1000,1000,1000,1000,,,,,
50666392,1000,1000,1000,1000,,,,,
50668891,1000,1000,1000,1000,,,,,
50671390,1000,1000,1000,1000,,,,,
50673889,1000,1000,1000,1000,,,,,
50676388,1000,1000,1000,1000,,,,,
50678887,1000,1000,1000,1000,,,,,
50681386,1000,1000,1000,1000,,,,,
50683885,1000,1000,1000,1000,,,,,
50686384,1000,1000,1000,1000,,,,,
50688883,1000,1000,1000,1000,,,,,
50691382,1000,1000,1000,1000,,,,,
50693881,1000,1000,1000,1000,,,,,
50696380,1000,1000,1000,1000,,,,,
50698879,1000,1000,1000,1000,,,,,
50701378,1000,1000,1000,1000,,,,,
50703877,1000,1000,1000,1000,,,,,
50706376,1000,1000,1000,1000,,,,,
50708875,1000,1000,1000,1000,,,,,
50711374,1000,1000,1000,1000,,,,,
50713873,1000,1000,1000,1000,,,,,
50716372,1000,1000,1000,1000,,,,,
50718871,1000,1000,1000,1000,,,,,
50721370,1000,1000,1000,1000,,,,,
50723869,1000,1000,1000,1000,,,,,
50726368,1000,1000,1000,1000,,,,,
50728867,1000,1000,1000,1000,,,,,
50731366,1000,1000,1000,1000,,,,,
50733865,1000,1000,1000,1000,,,,,
50736364,1000,1000,1000,1000,,,,,
50738863,1000,1000,1000,1000,,,,,
50741362,1000,1000,1000,1000,,,,,
50743861,1000,1000,1000,1000,,,,,
50746360,1000,1000,1000,1000,,,,,
50748859,1000,1000,1000,1000,,,,,
50751358,1000,1000,1000,1000,,,,,
50753857,1000,1000,1000,1000,,,,,
50756356,1000,1000,1000,1000,,,,,
50758855,1000,1000,1000,1000,,,,,
50761354,1000,1000,1000,1000,,,,,
50763853,1000,1000,1000,1000,,,,,
50766352,1000,1000,1000,1000,,,,,
50768851,1000,1000,1000,1000,,,,,
50771350,1000,1000,1000,1000,,,,,
50773849,1000,1000,1000,1000,,,,,
50776348,1000,1000,1000,1000,,,,,
50778847,1000,1000,1000,1000,,,,,
50781346,1000,1000,1000,1000,,,,,
50783845,1000,1000,1000,1000,,,,,
50786344,1000,1000,1000,1000,,,,,
50788843,1000,1000,1000,1000,,,,,
50791342,1000,1000,1000,1000,,,,,
50793841,1000,1000,1000,1000,,,,,
50796340,1000,1000,1000,1000,,,,,
50798839,1000,1000,1000,1000,,,,,
50801338,1000,1000,1000,1000,,,,,
50803837,1000,1000,1000,1000,,,,,
50806336,1000,1000,1000,1000,,,,,
50808835,1000,1000,1000,1000,,,,,
50811334,1000,1000,1000,1000,,,,,
50813833,1000,1000,1000,1000,,,,,
50816332,1000,1000,1000,1000,,,,,
50818831,1000,1000,1000,1000,,,,,
50821330,1000,1000,1000,1000,,,,,
50823829,1000,1000,1000,1000,,,,,
50826328,1000,1000,1000,1000,,,,,
50828827,1000,1000,1000,1000,,,,,
50831326,1000,1000,1000,1000,,,,,
50833825,1000,1000,1000,1000,,,,,
50836324,1000,1000,1000,1000,,,,,
50838823,1000,1000,1000,1000,,,,,
50841322,1000,1000,1000,1000,,,,,
50843821,1000,1000,1000,1000,,,,,
50846320,1000,1000,1000,1000,,,,,
50848819,1000,1000,1000,1000,,,,,
50851318,1000,1000,1000,1000,,,,,
50853817,1000,1000,1000,1000,,,,,
50856316,1000,1000,1000,1000,,,,,
50858815,1000,1000,1000,1000,,,,,
50861314,1000,1000,1000,1000,,,,,
50863813,1000,1000,1000,1000,,,,,
50866312,1000,1000,1000,1000,,,,,
50868811,1000,1000,1000,1000,,,,,
50871310,1000,1000,1000,1000,,,,,
50873809,1000,1000,1000,1000,,,,,
50876308,1000,1000,1000,1000,,,,,
50878807,1000,1000,1000,1000,,,,,
50881306,1000,1000,1000,1000,,,,,
50883805,1000,1000,1000,1000,,,,,
50886304,1000,1000,1000,1000,,,,,
50888803,1000,1000,1000,1000,,,,,
50891302,1000,1000,1000,1000,,,,,
50893801,1000,1000,1000,1000,,,,,
50896300,1000,1000,1000,1000,,,,,
50898799,1000,1000,1000,1000,,,,,
50901298,1000,1000,1000,1000,,,,,
50903797,1000,1000,1000,1000,,,,,
50906296,1000,1000,1000,1000,,,,,
50908795,1000,1000,1000,1000,,,,,
50911294,1000,1000,1000,1000,,,,,
50913793,1000,1000,1000,1000,,,,,
50916292,1000,1000,1000,1000,,,,,
50918791,1000,1000,1000,1000,,,,,
50921290,1000,1000,1000,1000,,,,,
50923789,1000,1000,1000,1000,,,,,
50926288,1000,1000,1000,1000,,,,,
50928787,1000,1000,1000,1000,,,,,
50931286,1000,1000,1000,1000,,,,,
50933785,1000,1000,1000,1000,,,,,
50936284,1000,1000,1000,1000,,,,,
50938783,1000,1000,1000,1000,,,,,
50941282,1000,1000,1000,1000,,,,,
50943781,1000,1000,1000,1000,,,,,
50946280,1000,1000,1000,1000,,,,,
50948779,1000,1000,1000,1000,,,,,
50951278,1000,1000,1000,1000,,,,,
50953777,1000,1000,1000,1000,,,,,
50956276,1000,1000,1000,1000,,,,,
50958775,1000,1000,1000,1000,,,,,
50961274,1000,1000,1000,1000,,,,,
50963773,1000,1000,1000,1000,,,,,
50966272,1000,1000,1000,1000,,,,,
50968771,1000,1000,1000,1000,,,,,
50971270,1000,1000,1000,1000,,,,,
50973769,1000,1000,1000,1000,,,,,
50976268,1000,1000,1000,1000,,,,,
50978767,1000,1000,1000,1000,,,,,
50981266,1000,1000,1000,1000,,,,,
50983765,1000,1000,1000,1000,,,,,
50986264,1000,1000,1000,1000,,,,,
50988763,1000,1000,1000,1000,,,,,
50991262,1001,1001,1001,1001,,,,,
50993761,1002,1002,1002,1002,,,,,
50996260,1003,1003,1003,1003,,,,,
50998759,1003,1003,1003,1003,,,,,
51001258,1004,1004,1004,1004,,,,,
51003757,1005,1005,1005,1005,,,,,
51006256,1006,1006,1006,1006,,,,,
51008755,1006,1006,1006,1006,,,,,
51011254,1007,1007,1007,1007,,,,,
51013753,1008,1008,1008,1008,,,,,
51016252,1009,1009,1009,1009,,,,,
51018751,1009,1009,1009,1009,,,,,
51021250,1010,1010,1010,1010,,,,,
51023749,1011,1011,1011,1011,,,,,
51026248,1012,1012,1012,1012,,,,,
51028747,1012,1012,1012,1012,,,,,
51031246,1013,1013,1013,1013,,,,,
51033745,1014,1014,1014,1014,,,,,
51036244,1015,1015,1015,1015,,,,,
51038743,1015,1015,1015,1015,,,,,
51041242,1016,1016,1016,1016,,,,,
51043741,1017,1017,1017,1017,,,,,
51046240,1018,1018,1018,1018,,,,,
51048739,1018,1018,1018,1018,,,,,
51051238,1019,1019,1019,1019,,,,,
51053737,1020,1020,1020,1020,,,,,
51056236,1021,1021,1021,1021,,,,,
51058735,1021,1021,1021,1021,,,,,
51061234,1022,1022,1022,1022,,,,,
51063733,1023,1023,1023,1023,,,,,
51066232,1024,1024,1024,1024,,,,,
51068731,1024,1024,1024,1024,,,,,
51071230,1025,1025,1025,1025,,,,,
51073729,1026,1026,1026,1026,,,,,
51076228,1027,1027,1027,1027,,,,,
51078727,1027,1027,1027,1027,,,,,
51081226,1028,1028,1028,1028,,,,,
51083725,1029,1029,1029,1029,,,,,
51086224,1030,1030,1030,1030,,,,,
51088723,1030,1030,1030,1030,,,,,
51091222,1031,1031,1031,1031,,,,,
51093721,1032,1032,1032,1032,,,,,
51096220,1033,1033,1033,1033,,,,,
51098719,1033,1033,1033,1033,,,,,
51101218,1034,1034,1034,1034,,,,,
51103717,1035,1035,1035,1035,,,,,
51106216,1036,1036,1036,1036,,,,,
51108715,1036,1036,1036,1036,,,,,
51111214,1037,1037,1037,1037,,,,,
51113713,1038,1038,1038,1038,,,,,
51116212,1039,1039,1039,1039,,,,,
51118711,1039,1039,1039,1039,,,,,
51121210,1040,1040,1040,1040,,,,,
51123709,1041,1041,1041,1041,,,,,
51126208,1042,1042,1042,1042,,,,,
51128707,1042,1042,1042,1042,,,,,
51131206,1043,1043,1043,1043,,,,,
51133705,1044,1044,1044,1044,,,,,
51136204,1045,1045,1045,1045,,,,,
51138703,1045,1045,1045,1045,,,,,
51141202,1046,1046,1046,1046,,,,,
51143701,1047,1047,1047,1047,,,,,
51146200,1048,1048,1048,1048,,,,,
51148699,1048,1048,1048,1048,,,,,
51151198,1049,1049,1049,1049,,,,,
51153697,1050,1050,1050,1050,,,,,
51156196,1051,1051,1051,1051,,,,,
51158695,1051,1051,1051,1051,,,,,
51161194,1052,1052,1052,1052,,,,,
51163693,1053,1053,1053,1053,,,,,
51166192,1054,1054,1054,1054,,,,,
51168691,1054,1054,1054,1054,,,,,
51171190,1055,1055,1055,1055,,,,,
51173689,1056,1056,1056,1056,,,,,
51176188,1057,1057,1057,1057,,,,,
51178687,1057,1057,1057,1057,,,,,
51181186,1058,1058,1058,1058,,,,,
51183685,1059,1059,1059,1059,,,,,
51186184,1060,1060,1060,1060,,,,,
51188683,1060,1060,1060,1060,,,,,
51191182,1061,1061,1061,1061,,,,,
51193681,1062,1062,1062,1062,,,,,
51196180,1063,1063,1063,1063,,,,,
51198679,1063,1063,1063,1063,,,,,
51201178,1064,1064,1064,1064,,,,,
51203677,1065,1065,1065,1065,,,,,
51206176,1066,1066,1066,1066,,,,,
51208675,1066,1066,1066,1066,,,,,
51211174,1067,1067,1067,1067,,,,,
51213673,1068,1068,1068,1068,,,,,
51216172,1069,1069,1069,1069,,,,,
51218671,1069,1069,1069,1069,,,,,
51221170,1070,1070,1070,1070,,,,,
51223669,1071,1071,1071,1071,,,,,
51226168,1072,1072,1072,1072,,,,,
51228667,1072,1072,1072,1072,,,,,
51231166,1073,1073,1073,1073,,,,,
51233665,1074,1074,1074,1074,,,,,
51236164,1075,1075,1075,1075,,,,,
51238663,1075,1075,1075,1075,,,,,
51241162,1076,1076,1076,1076,,,,,
51243661,1077,1077,1077,1077,,,,,
51246160,1078,1078,1078,1078,,,,,
51248659,1078,1078,1078,1078,,,,,
51251158,1079,1079,1079,1079,,,,,
51253657,1080,1080,1080,1080,,,,,
51256156,1081,1081,1081,1081,,,,,
51258655,1081,1081,1081,1081,,,,,
51261154,1082,1082,1082,1082,,,,,
51263653,1083,1083,1083,1083,,,,,
51266152,1084,1084,1084,1084,,,,,
51268651,1084,1084,1084,1084,,,,,
51271150,1085,1085,1085,1085,,,,,
51273649,1086,1086,1086,1086,,,,,
51276148,1087,1087,1087,1087,,,,,
51278647,1087,1087,1087,1087,,,,,
51281146,1088,1088,1088,1088,,,,,
51283645,1089,1089,1089,1089,,,,,
51286144,1090,1090,1090,1090,,,,,
51288643,1090,1090,1090,1090,,,,,
51291142,1091,1091,1091,1091,,,,,
51293641,1092,1092,1092,1092,,,,,
51296140,1093,1093,1093,1093,,,,,
51298639,1093,1093,1093,1093,,,,,
51301138,1094,1094,1094,1094,,,,,
51303637,1095,1095,1095,1095,,,,,
51306136,1096,1096,1096,1096,,,,,
51308635,1096,1096,1096,1096,,,,,
51311134,1097,1097,1097,1097,,,,,
51313633,1098,1098,1098,1098,,,,,
51316132,1099,1099,1099,1099,,,,,
51318631,1099,1099,1099,1099,,,,,
51321130,1100,1100,1100,1100,,,,,
51323629,1101,1101,1101,1101,,,,,
51326128,1101,1101,1101,1101,,,,,
51328627,1102,1102,1102,1102,,,,,
51331126,1103,1103,1103,1103,,,,,
51333625,1104,1104,1104,1104,,,,,
51336124,1104,1104,1104,1104,,,,,
51338623,1105,1105,1105,1105,,,,,
51341122,1106,1106,1106,1106,,,,,
51343621,1107,1107,1107,1107,,,,,
51346120,1107,1107,1107,1107,,,,,
51348619,1108,1108,1108,1108,,,,,
51351118,1109,1109,1109,1109,,,,,
51353617,1110,1110,1110,1110,,,,,
51356116,1110,1110,1110,1110,,,,,
51358615,1111,1111,1111,1111,,,,,
51361114,1112,1112,1112,1112,,,,,
51363613,1113,1113,1113,1113,,,,,
51366112,1113,1113,1113,1113,,,,,
51368611,1114,1114,1114,1114,,,,,
51371110,1115,1115,1115,1115,,,,,
51373609,1116,1116,1116,1116,,,,,
51376108,1116,1116,1116,1116,,,,,
51378607,1117,1117,1117,1117,,,,,
51381106,1118,1118,1118,1118,,,,,
51383605,1119,1119,1119,1119,,,,,
51386104,1119,1119,1119,1119,,,,,
51388603,1120,1120,1120,1120,,,,,
51391102,1121,1121,1121,1121,,,,,
51393601,1122,1122,1122,1122,,,,,
51396100,1122,1122,1122,1122,,,,,
51398599,1123,1123,1123,1123,,,,,
51401098,1124,1124,1124,1124,,,,,
51403597,1125,1125,1125,1125,,,,,
51406096,1125,1125,1125,1125,,,,,
51408595,1126,1126,1126,1126,,,,,
51411094,1127,1127,1127,1127,,,,,
51413593,1128,1128,1128,1128,,,,,
51416092,1128,1128,1128,1128,,,,,
51418591,1129,1129,1129,1129,,,,,
51421090,1130,1130,1130,1130,,,,,
51423589,1131,1131,1131,1131,,,,,
51426088,1131,1131,1131,1131,,,,,
51428587,1132,1132,1132,1132,,,,,
51431086,1133,1133,1133,1133,,,,,
51433585,1134,1134,1134,1134,,,,,
51436084,1134,1134,1134,1134,,,,,
51438583,1135,1135,1135,1135,,,,,
51441082,1136,1136,1136,1136,,,,,
51443581,1137,1137,1137,1137,,,,,
51446080,1137,1137,1137,1137,,,,,
51448579,1138,1138,1138,1138,,,,,
51451078,1139,1139,1139,1139,,,,,
51453577,1140,1140,1140,1140,,,,,
51456076,1140,1140,1140,1140,,,,,
51458575,1141,1141,1141,1141,,,,,
51461074,1142,1142,1142,1142,,,,,
51463573,1143,1143,1143,1143,,,,,
51466072,1143,1143,1143,1143,,,,,
51468571,1144,1144,1144,1144,,,,,
51471070,1145,1145,1145,1145,,,,,
51473569,1146,1146,1146,1146,,,,,
51476068,1146,1146,1146,1146,,,,,
51478567,1147,1147,1147,1147,,,,,
51481066,1148,1148,1148,1148,,,,,
51483565,1149,1149,1149,1149,,,,,
51486064,1149,1149,1149,1149,,,,,
51488563,1150,1150,1150,1150,,,,,
51491062,1161,1153,1154,1162,,,,,
51493561,1169,1162,1162,1170,,,,,
51496060,1177,1170,1170,1177,,,,,
51498559,1185,1177,1178,1185,,,,,
51501058,1193,1185,1186,1193,,,,,
51503557,1200,1193,1193,1200,,,,,
51506056,1207,1200,1201,1208,,,,,
51508555,1215,1207,1208,1215,,,,,
51511054,1222,1214,1215,1222,,,,,
51513553,1229,1221,1222,1229,,,,,
51516052,1236,1228,1229,1236,,,,,
51518551,1242,1235,1236,1242,,,,,
51521050,1249,1242,1243,1249,,,,,
51523549,1256,1249,1249,1256,,,,,
51526048,1262,1255,1256,1262,,,,,
51528547,1269,1262,1263,1269,,,,,
51531046,1275,1268,1269,1275,,,,,
51533545,1281,1275,1275,1281,,,,,
51536044,1287,1281,1282,1288,,,,,
51538543,1294,1287,1288,1294,,,,,
51541042,1300,1293,1294,1300,,,,,
51543541,1306,1299,1300,1306,,,,,
51546040,1312,1305,1306,1312,,,,,
51548539,1317,1311,1312,1318,,,,,
51551038,1323,1317,1318,1324,,,,,
51553537,1329,1323,1324,1329,,,,,
51556036,1335,1329,1329,1335,,,,,
51558535,1340,1334,1335,1341,,,,,
51561034,1346,1340,1341,1346,,,,,
51563533,1352,1346,1346,1352,,,,,
51566032,1357,1351,1352,1357,,,,,
51568531,1362,1357,1357,1363,,,,,
51571030,1368,1362,1363,1368,,,,,
51573529,1373,1368,1368,1373,,,,,
51576028,1379,1373,1373,1379,,,,,
51578527,1384,1378,1379,1384,,,,,
51581026,1389,1383,1384,1389,,,,,
51583525,1394,1389,1389,1394,,,,,
51586024,1399,1394,1394,1399,,,,,
51588523,1404,1399,1400,1405,,,,,
51591022,1409,1404,1405,1410,,,,,
51593521,1414,1409,1410,1415,,,,,
51596020,1419,1414,1415,1420,,,,,
51598519,1424,1419,1420,1424,,,,,
51601018,1429,1424,1425,1429,,,,,
51603517,1434,1429,1429,1434,,,,,
51606016,1439,1434,1434,1439,,,,,
51608515,1444,1439,1439,1444,,,,,
51611014,1448,1444,1444,1449,,,,,
51613513,1453,1448,1449,1453,,,,,
51616012,1458,1453,1453,1458,,,,,
51618511,1463,1458,1458,1463,,,,,
51621010,1467,1462,1463,1467,,,,,
51623509,1472,1467,1467,1472,,,,,
51626008,1476,1472,1472,1477,,,,,
51628507,1481,1476,1477,1481,,,,,
51631006,1485,1481,1481,1486,,,,,
51633505,1490,1485,1486,1490,,,,,
51636004,1494,1490,1490,1495,,,,,
51638503,1499,1494,1495,1499,,,,,
51641002,1503,1499,1499,1504,,,,,
51643501,1508,1503,1503,1508,,,,,
51646000,1512,1507,1508,1512,,,,,
51648499,1516,1512,1512,1517,,,,,
51650998,1521,1516,1517,1521,,,,,
51653497,1525,1520,1521,1525,,,,,
51655996,1529,1525,1525,1530,,,,,
51658495,1534,1529,1529,1534,,,,,
51660994,1538,1533,1534,1538,,,,,
51663493,1542,1537,1538,1542,,,,,
51665992,1546,1542,1542,1546,,,,,
51668491,1550,1546,1546,1551,,,,,
51670990,1555,1550,1550,1555,,,,,
51673489,1559,1554,1554,1559,,,,,
51675988,1563,1558,1559,1563,,,,,
51678487,1567,1562,1563,1567,,,,,
51680986,1571,1566,1567,1571,,,,,
51683485,1575,1570,1571,1575,,,,,
51685984,1579,1574,1575,1579,,,,,
51688483,1583,1578,1579,1583,,,,,
51690982,1587,1582,1583,1587,,,,,
51693481,1591,1586,1587,1591,,,,,
51695980,1595,1590,1591,1595,,,,,
51698479,1599,1594,1595,1599,,,,,
51700978,1603,1598,1599,1603,,,,,
51703477,1607,1602,1603,1607,,,,,
51705976,1611,1606,1606,1610,,,,,
51708475,1614,1610,1610,1614,,,,,
51710974,1618,1613,1614,1618,,,,,
51713473,1622,1617,1618,1622,,,,,
51715972,1626,1621,1622,1626,,,,,
51718471,1630,1625,1626,1629,,,,,
51720970,1633,1629,1629,1633,,,,,
51723469,1637,1632,1633,1637,,,,,
51725968,1641,1636,1637,1641,,,,,
51728467,1645,1640,1641,1644,,,,,
51730966,1648,1644,1644,1648,,,,,
51733465,1652,1647,1648,1652,,,,,
51735964,1656,1651,1652,1656,,,,,
51738463,1659,1655,1655,1659,,,,,
51740962,1663,1658,1659,1663,,,,,
51743461,1667,1662,1663,1666,,,,,
51745960,1670,1666,1666,1670,,,,,
51748459,1674,1669,1670,1674,,,,,
51750958,1677,1673,1674,1677,,,,,
51753457,1681,1677,1677,1681,,,,,
51755956,1685,1680,1681,1684,,,,,
51758455,1688,1684,1684,1688,,,,,
51760954,1692,1687,1688,1691,,,,,
51763453,1695,1691,1691,1695,,,,,
51765952,1699,1694,1695,1698,,,,,
51768451,1702,1698,1698,1702,,,,,
51770950,1706,1701,1702,1705,,,,,
51773449,1709,1705,1705,1709,,,,,
51775948,1713,1708,1709,1712,,,,,
51778447,1716,1712,1712,1716,,,,,
51780946,1720,1715,1716,1719,,,,,
51783445,1723,1718,1719,1723,,,,,
51785944,1726,1722,1723,1726,,,,,
51788443,1730,1725,1726,1729,,,,,
51790942,1733,1728,1729,1733,,,,,
51793441,1737,1732,1733,1736,,,,,
51795940,1740,1735,1736,1740,,,,,
51798439,1743,1739,1739,1743,,,,,
51800938,1747,1742,1743,1746,,,,,
51803437,1750,1745,1746,1750,,,,,
51805936,1753,1749,1749,1753,,,,,
51808435,1757,1752,1753,1756,,,,,
51810934,1760,1755,1756,1760,,,,,
51813433,1763,1758,1759,1763,,,,,
51815932,1766,1762,1763,1766,,,,,
51818431,1770,1765,1766,1769,,,,,
51820930,1773,1768,1769,1773,,,,,
51823429,1776,1772,1772,1776,,,,,
51825928,1779,1775,1776,1779,,,,,
51828427,1783,1778,1779,1782,,,,,
51830926,1786,1781,1782,1785,,,,,
51833425,1789,1784,1785,1789,,,,,
51835924,1792,1788,1789,1792,,,,,
51838423,1796,1791,1792,1795,,,,,
51840922,1799,1794,1795,1798,,,,,
51843421,1802,1797,1798,1801,,,,,
51845920,1805,1800,1801,1805,,,,,
51848419,1808,1803,1804,1808,,,,,
51850918,1811,1807,1807,1811,,,,,
51853417,1814,1810,1811,1814,,,,,
51855916,1817,1813,1814,1817,,,,,
51858415,1821,1816,1817,1820,,,,,
51860914,1824,1819,1820,1823,,,,,
51863413,1827,1822,1823,1826,,,,,
51865912,1830,1825,1826,1829,,,,,
51868411,1833,1828,1829,1833,,,,,
51870910,1836,1831,1832,1836,,,,,
51873409,1839,1834,1835,1839,,,,,
51875908,1842,1838,1838,1842,,,,,
51878407,1845,1841,1841,1845,,,,,
51880906,1848,1844,1844,1848,,,,,
51883405,1851,1847,1847,1851,,,,,
51885904,1854,1850,1850,1854,,,,,
51888403,1857,1853,1853,1857,,,,,
51890902,1860,1856,1856,1860,,,,,
51893401,1863,1859,1859,1863,,,,,
51895900,1866,1862,1862,1866,,,,,
51898399,1869,1865,1865,1869,,,,,
51900898,1872,1868,1868,1872,,,,,
51903397,1875,1870,1871,1875,,,,,
51905896,1878,1873,1874,1878,,,,,
51908395,1881,1876,1877,1881,,,,,
51910894,1884,1879,1880,1884,,,,,
51913393,1887,1882,1883,1887,,,,,
51915892,1890,1885,1886,1890,,,,,
51918391,1893,1888,1889,1892,,,,,
51920890,1896,1891,1892,1895,,,,,
51923389,1899,1894,1895,1898,,,,,
51925888,1901,1897,1897,1901,,,,,
51928387,1904,1900,1900,1904,,,,,
51930886,1907,1902,1903,1907,,,,,
51933385,1910,1905,1906,1910,,,,,
51935884,1913,1908,1909,1913,,,,,
51938383,1916,1911,1912,1916,,,,,
51940882,1919,1914,1915,1918,,,,,
51943381,1922,1917,1917,1921,,,,,
51945880,1924,1920,1920,1924,,,,,
51948379,1927,1922,1923,1927,,,,,
51950878,1930,1925,1926,1930,,,,,
51953377,1932,1927,1928,1932,,,,,
51955876,1931,1926,1927,1931,,,,,
51958375,1930,1926,1926,1930,,,,,
51960874,1930,1925,1926,1930,,,,,
51963373,1929,1924,1925,1929,,,,,
51965872,1929,1924,1924,1928,,,,,
51968371,1928,1923,1924,1928,,,,,
51970870,1928,1923,1923,1927,,,,,
51973369,1927,1922,1923,1927,,,,,
51975868,1927,1922,1922,1926,,,,,
51978367,1926,1921,1922,1926,,,,,
51980866,1926,1921,1922,1926,,,,,
51983365,1925,1921,1921,1925,,,,,
51985864,1925,1921,1921,1925,,,,,
51988363,1924,1920,1921,1924,,,,,
51990862,1924,1920,1920,1924,,,,,
51993361,1923,1919,1920,1923,,,,,
51995860,1923,1919,1919,1923,,,,,
51998359,1922,1918,1919,1922,,,,,
52000858,1921,1917,1918,1921,,,,,
52003357,1920,1916,1917,1920,,,,,
52005856,1919,1915,1916,1919,,,,,
52008355,1917,1914,1915,1917,,,,,
52010854,1916,1913,1913,1916,,,,,
52013353,1914,1911,1912,1914,,,,,
52015852,1913,1910,1910,1913,,,,,
52018351,1911,1908,1908,1911,,,,,
52020850,1909,1906,1907,1909,,,,,
52023349,1907,1904,1905,1907,,,,,
52025848,1905,1902,1902,1905,,,,,
52028347,1902,1900,1900,1903,,,,,
52030846,1900,1898,1898,1900,,,,,
52033345,1898,1895,1896,1898,,,,,
52035844,1895,1893,1893,1895,,,,,
52038343,1892,1890,1891,1893,,,,,
52040842,1890,1888,1888,1890,,,,,
52043341,1887,1885,1885,1887,,,,,
52045840,1884,1882,1882,1885,,,,,
52048339,1881,1880,1880,1882,,,,,
52050838,1878,1877,1877,1879,,,,,
52053337,1875,1874,1874,1876,,,,,
52055836,1872,1871,1871,1873,,,,,
52058335,1869,1868,1868,1870,,,,,
52060834,1866,1865,1865,1866,,,,,
52063333,1863,1861,1861,1863,,,,,
52065832,1860,1858,1858,1860,,,,,
52068331,1856,1855,1855,1857,,,,,
52070830,1853,1852,1852,1853,,,,,
52073329,1850,1848,1848,1850,,,,,
52075828,1846,1845,1845,1847,,,,,
52078327,1843,1842,1842,1843,,,,,
52080826,1839,1838,1838,1840,,,,,
52083325,1836,1835,1835,1836,,,,,
52085824,1832,1832,1832,1833,,,,,
52088323,1829,1828,1828,1830,,,,,
52090822,1826,1825,1825,1826,,,,,
52093321,1822,1821,1821,1823,,,,,
52095820,1819,1818,1818,1819,,,,,
52098319,1815,1815,1815,1816,,,,,
52100818,1812,1811,1811,1812,,,,,
52103317,1808,1808,1808,1809,,,,,
52105816,1805,1804,1804,1805,,,,,
52108315,1801,1801,1801,1802,,,,,
52110814,1798,1798,1798,1799,,,,,
52113313,1795,1794,1794,1795,,,,,
52115812,1791,1791,1791,1792,,,,,
52118311,1788,1788,1788,1788,,,,,
52120810,1784,1784,1784,1785,,,,,
52123309,1781,1781,1781,1782,,,,,
52125808,1778,1778,1778,1778,,,,,
52128307,1774,1774,1774,1775,,,,,
52130806,1771,1771,1771,1772,,,,,
52133305,1768,1768,1768,1769,,,,,
52135804,1765,1765,1765,1765,,,,,
52138303,1762,1762,1762,1762,,,,,
52140802,1759,1759,1759,1759,,,,,
52143301,1756,1756,1756,1756,,,,,
52145800,1753,1753,1753,1753,,,,,
52148299,1750,1750,1750,1750,,,,,
52150798,1747,1747,1747,1747,,,,,
52153297,1744,1744,1744,1744,,,,,
52155796,1741,1742,1742,1741,,,,,
52158295,1738,1739,1739,1739,,,,,
52160794,1735,1736,1736,1736,,,,,
52163293,1733,1733,1733,1733,,,,,
52165792,1730,1731,1731,1731,,,,,
52168291,1727,1728,1728,1728,,,,,
52170790,1725,1726,1726,1725,,,,,
52173289,1722,1723,1723,1723,,,,,
52175788,1720,1721,1721,1720,,,,,
52178287,1717,1718,1718,1718,,,,,
52180786,1715,1716,1716,1715,,,,,
52183285,1712,1713,1713,1713,,,,,
52185784,1710,1711,1711,1710,,,,,
52188283,1707,1709,1709,1708,,,,,
52190782,1705,1707,1707,1706,,,,,
52193281,1703,1704,1704,1703,,,,,
52195780,1701,1702,1702,1701,,,,,
52198279,1698,1700,1700,1699,,,,,
52200778,1696,1698,1698,1697,,,,,
52203277,1694,1696,1696,1695,,,,,
52205776,1692,1694,1694,1693,,,,,
52208275,1690,1692,1692,1691,,,,,
52210774,1688,1690,1690,1689,,,,,
52213273,1686,1688,1688,1687,,,,,
52215772,1684,1686,1686,1685,,,,,
52218271,1683,1684,1684,1683,,,,,
52220770,1681,1683,1683,1681,,,,,
52223269,1679,1681,1681,1679,,,,,
52225768,1677,1679,1679,1678,,,,,
52228267,1676,1677,1678,1676,,,,,
52230766,1674,1676,1676,1674,,,,,
52233265,1673,1674,1674,1673,,,,,
52235764,1671,1673,1673,1671,,,,,
52238263,1670,1671,1672,1670,,,,,
52240762,1668,1670,1670,1669,,,,,
52243261,1667,1669,1669,1667,,,,,
