timestamp,TimeUS,C1,C2,C3,C4,C5,C6,C7,C8,C9,C10,C11,C12,C13,C14
1684065176.59999990,43228535,1000,1000,1000,1000,0,0,0,0,0,0,0,0,0,0
1684065176.69995999,43328495,1000,1000,1000,1000,0,0,0,0,0,0,0,0,0,0
1684065176.79992008,43428455,1000,1000,1000,1000,0,0,0,0,0,0,0,0,0,0
1684065176.89987993,43528415,1000,1000,1000,1000,0,0,0,0,0,0,0,0,0,0
1684065176.99984002,43628375,1000,1000,1000,1000,0,0,0,0,0,0,0,0,0,0
1684065177.09979987,43728335,1000,1000,1000,1000,0,0,0,0,0,0,0,0,0,0
1684065177.19975996,43828295,1000,1000,1000,1000,0,0,0,0,0,0,0,0,0,0
1684065177.29972005,43928255,1000,1000,1000,1000,0,0,0,0,0,0,0,0,0,0
1684065177.39967990,44028215,1000,1000,1000,1000,0,0,0,0,0,0,0,0,0,0
1684065177.49963999,44128175,1000,1000,1000,1000,0,0,0,0,0,0,0,0,0,0
1684065177.60043287,44228968,1000,1000,1000,1000,0,0,0,0,0,0,0,0,0,0
1684065177.70039296,44328928,1000,1000,1000,1000,0,0,0,0,0,0,0,0,0,0
1684065177.80035305,44428888,1000,1000,1000,1000,0,0,0,0,0,0,0,0,0,0
1684065177.90031290,44528848,1000,1000,1000,1000,0,0,0,0,0,0,0,0,0,0
1684065178.00027299,44628808,1000,1000,1000,1000,0,0,0,0,0,0,0,0,0,0
1684065178.10023308,44728768,1000,1000,1000,1000,0,0,0,0,0,0,0,0,0,0
1684065178.20019293,44828728,1000,1000,1000,1000,0,0,0,0,0,0,0,0,0,0
1684065178.30015302,44928688,1000,1000,1000,1000,0,0,0,0,0,0,0,0,0,0
1684065178.40011287,45028648,1000,1000,1000,1000,0,0,0,0,0,0,0,0,0,0
1684065178.50007296,45128608,1000,1000,1000,1000,0,0,0,0,0,0,0,0,0,0
1684065178.60003304,45228568,1003,1003,1003,1003,0,0,0,0,0,0,0,0,0,0
1684065178.69999290,45328528,1033,1033,1033,1033,0,0,0,0,0,0,0,0,0,0
1684065178.79995298,45428488,1063,1063,1063,1063,0,0,0,0,0,0,0,0,0,0
1684065178.89991307,45528448,1093,1093,1093,1093,0,0,0,0,0,0,0,0,0,0
1684065178.99987292,45628408,1122,1122,1122,1122,0,0,0,0,0,0,0,0,0,0
1684065179.09983301,45728368,1177,1170,1170,1177,0,0,0,0,0,0,0,0,0,0
1684065179.19979286,45828328,1419,1415,1415,1419,0,0,0,0,0,0,0,0,0,0
1684065179.29975295,45928288,1595,1591,1591,1595,0,0,0,0,0,0,0,0,0,0
1684065179.39971304,46028248,1739,1736,1736,1740,0,0,0,0,0,0,0,0,0,0
1684065179.49967289,46128208,1865,1861,1862,1865,0,0,0,0,0,0,0,0,0,0
1684065179.59963298,46228168,1861,1858,1858,1861,0,0,0,0,0,0,0,0,0,0
1684065179.70042586,46328961,1786,1785,1785,1786,0,0,0,0,0,0,0,0,0,0
1684065179.80038595,46428921,1663,1663,1663,1663,0,0,0,0,0,0,0,0,0,0
1684065179.90034604,46528881,1609,1611,1611,1610,0,0,0,0,0,0,0,0,0,0
1684065180.00030589,46628841,1612,1614,1613,1612,0,0,0,0,0,0,0,0,0,0
1684065180.10026598,46728801,1627,1628,1628,1627,0,0,0,0,0,0,0,0,0,0
1684065180.20022607,46828761,1634,1635,1635,1634,0,0,0,0,0,0,0,0,0,0
1684065180.30018592,46928721,1622,1621,1617,1626,0,0,0,0,0,0,0,0,0,0
1684065180.40014601,47028681,1613,1613,1607,1619,0,0,0,0,0,0,0,0,0,0
1684065180.50010586,47128641,1608,1608,1604,1612,0,0,0,0,0,0,0,0,0,0
1684065180.60006595,47228601,1608,1608,1608,1608,0,0,0,0,0,0,0,0,0,0
1684065180.70002604,47328561,1612,1612,1615,1609,0,0,0,0,0,0,0,0,0,0
1684065180.79998589,47428521,1616,1616,1620,1612,0,0,0,0,0,0,0,0,0,0
1684065180.89994597,47528481,1620,1620,1623,1616,0,0,0,0,0,0,0,0,0,0
1684065180.99990606,47628441,1622,1622,1625,1620,0,0,0,0,0,0,0,0,0,0
1684065181.09986591,47728401,1591,1591,1600,1581,0,0,0,0,0,0,0,0,0,0
1684065181.19982600,47828361,1575,1575,1582,1568,0,0,0,0,0,0,0,0,0,0
1684065181.29978585,47928321,1564,1563,1565,1563,0,0,0,0,0,0,0,0,0,0
1684065181.39974594,48028281,1554,1554,1548,1561,0,0,0,0,0,0,0,0,0,0
1684065181.49970603,48128241,1546,1545,1535,1556,0,0,0,0,0,0,0,0,0,0
1684065181.59966588,48228201,1539,1539,1530,1548,0,0,0,0,0,0,0,0,0,0
1684065181.69962597,48328161,1533,1533,1528,1537,0,0,0,0,0,0,0,0,0,0
1684065181.80041885,48428954,1528,1528,1527,1529,0,0,0,0,0,0,0,0,0,0
1684065181.90037894,48528914,1528,1528,1530,1527,0,0,0,0,0,0,0,0,0,0
1684065182.00033903,48628874,1530,1531,1533,1528,0,0,0,0,0,0,0,0,0,0
1684065182.10029888,48728834,1533,1533,1536,1530,0,0,0,0,0,0,0,0,0,0
1684065182.20025897,48828794,1537,1537,1540,1533,0,0,0,0,0,0,0,0,0,0
1684065182.30021906,48928754,1540,1540,1543,1538,0,0,0,0,0,0,0,0,0,0
1684065182.40017891,49028714,1543,1544,1545,1543,0,0,0,0,0,0,0,0,0,0
1684065182.50013900,49128674,1546,1546,1546,1546,0,0,0,0,0,0,0,0,0,0
1684065182.60009909,49228634,1548,1548,1547,1549,0,0,0,0,0,0,0,0,0,0
1684065182.70005894,49328594,1550,1550,1549,1552,0,0,0,0,0,0,0,0,0,0
1684065182.80001903,49428554,1550,1550,1553,1557,0,0,0,0,0,0,0,0,0,0
1684065182.89997888,49528514,1551,1552,1560,1562,0,0,0,0,0,0,0,0,0,0
1684065182.99993896,49628474,1553,1554,1562,1562,0,0,0,0,0,0,0,0,0,0
1684065183.09989905,49728434,1557,1557,1563,1563,0,0,0,0,0,0,0,0,0,0
1684065183.19985890,49828394,1561,1561,1564,1563,0,0,0,0,0,0,0,0,0,0
1684065183.29981899,49928354,1563,1563,1563,1563,0,0,0,0,0,0,0,0,0,0
1684065183.39977908,50028314,1567,1567,1565,1564,0,0,0,0,0,0,0,0,0,0
1684065183.49973893,50128274,1569,1568,1564,1564,0,0,0,0,0,0,0,0,0,0
1684065183.59969902,50228234,1571,1570,1565,1565,0,0,0,0,0,0,0,0,0,0
1684065183.69965887,50328194,1572,1571,1566,1566,0,0,0,0,0,0,0,0,0,0
1684065183.79961896,50428154,1573,1573,1568,1568,0,0,0,0,0,0,0,0,0,0
1684065183.90041208,50528947,1573,1573,1568,1569,0,0,0,0,0,0,0,0,0,0
1684065184.00037193,50628907,1573,1573,1570,1570,0,0,0,0,0,0,0,0,0,0
1684065184.10033202,50728867,1574,1574,1572,1572,0,0,0,0,0,0,0,0,0,0
1684065184.20029187,50828827,1574,1574,1573,1573,0,0,0,0,0,0,0,0,0,0
1684065184.30025196,50928787,1574,1574,1575,1574,0,0,0,0,0,0,0,0,0,0
1684065184.40021205,51028747,1573,1574,1575,1574,0,0,0,0,0,0,0,0,0,0
1684065184.50017190,51128707,1575,1575,1577,1576,0,0,0,0,0,0,0,0,0,0
1684065184.60013199,51228667,1575,1575,1577,1577,0,0,0,0,0,0,0,0,0,0
1684065184.70009208,51328627,1575,1575,1577,1577,0,0,0,0,0,0,0,0,0,0
1684065184.80005193,51428587,1575,1575,1576,1577,0,0,0,0,0,0,0,0,0,0
1684065184.90001202,51528547,1575,1575,1576,1577,0,0,0,0,0,0,0,0,0,0
1684065184.99997187,51628507,1576,1576,1577,1576,0,0,0,0,0,0,0,0,0,0
1684065185.09993196,51728467,1576,1577,1577,1577,0,0,0,0,0,0,0,0,0,0
1684065185.19989204,51828427,1577,1577,1576,1576,0,0,0,0,0,0,0,0,0,0
1684065185.29985189,51928387,1577,1578,1577,1577,0,0,0,0,0,0,0,0,0,0
1684065185.39981198,52028347,1579,1579,1578,1578,0,0,0,0,0,0,0,0,0,0
1684065185.49977207,52128307,1578,1578,1577,1577,0,0,0,0,0,0,0,0,0,0
1684065185.59973192,52228267,1577,1577,1576,1577,0,0,0,0,0,0,0,0,0,0
1684065185.69969201,52328227,1578,1577,1577,1577,0,0,0,0,0,0,0,0,0,0
1684065185.79965186,52428187,1579,1579,1578,1578,0,0,0,0,0,0,0,0,0,0
1684065185.90044498,52528980,1579,1579,1578,1578,0,0,0,0,0,0,0,0,0,0
1684065186.00040507,52628940,1579,1578,1578,1578,0,0,0,0,0,0,0,0,0,0
1684065186.10036492,52728900,1579,1579,1579,1579,0,0,0,0,0,0,0,0,0,0
1684065186.20032501,52828860,1579,1579,1580,1580,0,0,0,0,0,0,0,0,0,0
1684065186.30028486,52928820,1579,1579,1579,1579,0,0,0,0,0,0,0,0,0,0
1684065186.40024495,53028780,1579,1579,1579,1579,0,0,0,0,0,0,0,0,0,0
1684065186.50020504,53128740,1579,1579,1579,1580,0,0,0,0,0,0,0,0,0,0
1684065186.60016489,53228700,1579,1579,1579,1579,0,0,0,0,0,0,0,0,0,0
1684065186.70012498,53328660,1579,1579,1579,1579,0,0,0,0,0,0,0,0,0,0
1684065186.80008507,53428620,1579,1579,1579,1580,0,0,0,0,0,0,0,0,0,0
1684065186.90004492,53528580,1579,1580,1580,1580,0,0,0,0,0,0,0,0,0,0
1684065187.00000501,53628540,1580,1580,1580,1580,0,0,0,0,0,0,0,0,0,0
1684065187.09996486,53728500,1579,1579,1579,1579,0,0,0,0,0,0,0,0,0,0
1684065187.19992495,53828460,1580,1580,1580,1580,0,0,0,0,0,0,0,0,0,0
1684065187.29988503,53928420,1581,1580,1581,1580,0,0,0,0,0,0,0,0,0,0
1684065187.39984488,54028380,1581,1581,1581,1581,0,0,0,0,0,0,0,0,0,0
1684065187.49980497,54128340,1581,1580,1580,1581,0,0,0,0,0,0,0,0,0,0
1684065187.59976506,54228300,1581,1581,1581,1581,0,0,0,0,0,0,0,0,0,0
1684065187.69972491,54328260,1580,1581,1580,1580,0,0,0,0,0,0,0,0,0,0
1684065187.79968500,54428220,1581,1580,1580,1581,0,0,0,0,0,0,0,0,0,0
1684065187.89964485,54528180,1581,1581,1581,1581,0,0,0,0,0,0,0,0,0,0
1684065188.00043797,54628973,1582,1582,1582,1582,0,0,0,0,0,0,0,0,0,0
1684065188.10039806,54728933,1581,1581,1581,1582,0,0,0,0,0,0,0,0,0,0
1684065188.20035791,54828893,1581,1580,1581,1581,0,0,0,0,0,0,0,0,0,0
1684065188.30031800,54928853,1582,1582,1582,1582,0,0,0,0,0,0,0,0,0,0
1684065188.40027785,55028813,1580,1580,1580,1580,0,0,0,0,0,0,0,0,0,0
1684065188.50023794,55128773,1582,1582,1582,1582,0,0,0,0,0,0,0,0,0,0
1684065188.60019803,55228733,1581,1581,1582,1581,0,0,0,0,0,0,0,0,0,0
1684065188.70015788,55328693,1582,1582,1583,1582,0,0,0,0,0,0,0,0,0,0
1684065188.80011797,55428653,1581,1581,1581,1581,0,0,0,0,0,0,0,0,0,0
1684065188.90007806,55528613,1582,1582,1581,1582,0,0,0,0,0,0,0,0,0,0
1684065189.00003791,55628573,1582,1582,1583,1580,0,0,0,0,0,0,0,0,0,0
1684065189.09999800,55728533,1580,1581,1587,1572,0,0,0,0,0,0,0,0,0,0
1684065189.19995809,55828493,1579,1581,1582,1572,0,0,0,0,0,0,0,0,0,0
1684065189.29991794,55928453,1578,1581,1574,1573,0,0,0,0,0,0,0,0,0,0
1684065189.39987803,56028413,1576,1578,1565,1570,0,0,0,0,0,0,0,0,0,0
1684065189.49983788,56128373,1576,1578,1559,1566,0,0,0,0,0,0,0,0,0,0
1684065189.59979796,56228333,1577,1577,1556,1561,0,0,0,0,0,0,0,0,0,0
1684065189.69975805,56328293,1578,1577,1555,1557,0,0,0,0,0,0,0,0,0,0
1684065189.79971790,56428253,1578,1577,1555,1555,0,0,0,0,0,0,0,0,0,0
1684065189.89967799,56528213,1578,1577,1556,1554,0,0,0,0,0,0,0,0,0,0
1684065189.99963808,56628173,1577,1577,1556,1553,0,0,0,0,0,0,0,0,0,0
1684065190.10043097,56728966,1576,1576,1555,1554,0,0,0,0,0,0,0,0,0,0
1684065190.20039105,56828926,1574,1576,1554,1554,0,0,0,0,0,0,0,0,0,0
1684065190.30035090,56928886,1575,1576,1554,1554,0,0,0,0,0,0,0,0,0,0
1684065190.40031099,57028846,1575,1577,1553,1553,0,0,0,0,0,0,0,0,0,0
1684065190.50027108,57128806,1575,1577,1551,1552,0,0,0,0,0,0,0,0,0,0
1684065190.60023093,57228766,1576,1578,1550,1550,0,0,0,0,0,0,0,0,0,0
1684065190.70019102,57328726,1579,1580,1548,1548,0,0,0,0,0,0,0,0,0,0
1684065190.80015087,57428686,1581,1582,1545,1545,0,0,0,0,0,0,0,0,0,0
1684065190.90011096,57528646,1585,1586,1543,1543,0,0,0,0,0,0,0,0,0,0
1684065191.00007105,57628606,1588,1588,1540,1540,0,0,0,0,0,0,0,0,0,0
1684065191.10003090,57728566,1591,1591,1537,1537,0,0,0,0,0,0,0,0,0,0
1684065191.19999099,57828526,1593,1594,1535,1535,0,0,0,0,0,0,0,0,0,0
1684065191.29995108,57928486,1595,1595,1534,1535,0,0,0,0,0,0,0,0,0,0
1684065191.39991093,58028446,1595,1595,1535,1536,0,0,0,0,0,0,0,0,0,0
1684065191.49987102,58128406,1594,1594,1537,1539,0,0,0,0,0,0,0,0,0,0
1684065191.59983087,58228366,1592,1591,1540,1542,0,0,0,0,0,0,0,0,0,0
1684065191.69979095,58328326,1589,1587,1546,1549,0,0,0,0,0,0,0,0,0,0
1684065191.79975104,58428286,1582,1579,1553,1556,0,0,0,0,0,0,0,0,0,0
1684065191.89971089,58528246,1574,1570,1564,1567,0,0,0,0,0,0,0,0,0,0
1684065191.99967098,58628206,1564,1560,1576,1578,0,0,0,0,0,0,0,0,0,0
1684065192.09963107,58728166,1553,1549,1588,1589,0,0,0,0,0,0,0,0,0,0
1684065192.20042396,58828959,1542,1539,1599,1598,0,0,0,0,0,0,0,0,0,0
1684065192.30038404,58928919,1534,1533,1607,1606,0,0,0,0,0,0,0,0,0,0
1684065192.40034389,59028879,1529,1530,1613,1612,0,0,0,0,0,0,0,0,0,0
1684065192.50030398,59128839,1528,1529,1614,1613,0,0,0,0,0,0,0,0,0,0
1684065192.60026407,59228799,1531,1534,1613,1612,0,0,0,0,0,0,0,0,0,0
1684065192.70022392,59328759,1537,1539,1608,1608,0,0,0,0,0,0,0,0,0,0
1684065192.80018401,59428719,1544,1546,1602,1602,0,0,0,0,0,0,0,0,0,0
1684065192.90014386,59528679,1553,1554,1594,1594,0,0,0,0,0,0,0,0,0,0
1684065193.00010395,59628639,1563,1563,1587,1587,0,0,0,0,0,0,0,0,0,0
1684065193.10006404,59728599,1570,1570,1580,1579,0,0,0,0,0,0,0,0,0,0
1684065193.20002389,59828559,1578,1577,1575,1574,0,0,0,0,0,0,0,0,0,0
1684065193.29998398,59928519,1583,1582,1570,1570,0,0,0,0,0,0,0,0,0,0
1684065193.39994407,60028479,1586,1585,1567,1567,0,0,0,0,0,0,0,0,0,0
1684065193.49990392,60128439,1589,1587,1567,1567,0,0,0,0,0,0,0,0,0,0
1684065193.59986401,60228399,1588,1586,1567,1567,0,0,0,0,0,0,0,0,0,0
1684065193.69982386,60328359,1586,1585,1568,1569,0,0,0,0,0,0,0,0,0,0
1684065193.79978395,60428319,1584,1583,1571,1571,0,0,0,0,0,0,0,0,0,0
1684065193.89974403,60528279,1580,1580,1573,1574,0,0,0,0,0,0,0,0,0,0
1684065193.99970388,60628239,1578,1578,1577,1576,0,0,0,0,0,0,0,0,0,0
1684065194.09966397,60728199,1575,1575,1579,1579,0,0,0,0,0,0,0,0,0,0
1684065194.19962406,60828159,1573,1573,1581,1580,0,0,0,0,0,0,0,0,0,0
1684065194.30041695,60928952,1572,1573,1582,1583,0,0,0,0,0,0,0,0,0,0
1684065194.40037704,61028912,1572,1573,1584,1584,0,0,0,0,0,0,0,0,0,0
1684065194.50033689,61128872,1572,1573,1583,1583,0,0,0,0,0,0,0,0,0,0
1684065194.60029697,61228832,1573,1574,1583,1583,0,0,0,0,0,0,0,0,0,0
1684065194.70025706,61328792,1575,1575,1582,1582,0,0,0,0,0,0,0,0,0,0
1684065194.80021691,61428752,1576,1575,1580,1581,0,0,0,0,0,0,0,0,0,0
1684065194.90017700,61528712,1576,1576,1578,1579,0,0,0,0,0,0,0,0,0,0
1684065195.00013685,61628672,1577,1577,1577,1577,0,0,0,0,0,0,0,0,0,0
1684065195.10009694,61728632,1579,1578,1577,1577,0,0,0,0,0,0,0,0,0,0
1684065195.20005703,61828592,1580,1580,1576,1576,0,0,0,0,0,0,0,0,0,0
1684065195.30001688,61928552,1581,1581,1576,1577,0,0,0,0,0,0,0,0,0,0
1684065195.39997697,62028512,1581,1581,1576,1577,0,0,0,0,0,0,0,0,0,0
1684065195.49993706,62128472,1782,1781,1549,1545,0,0,0,0,0,0,0,0,0,0
1684065195.59989691,62228432,1706,1701,1524,1519,0,0,0,0,0,0,0,0,0,0
1684065195.69985700,62328392,1645,1639,1537,1539,0,0,0,0,0,0,0,0,0,0
1684065195.79981709,62428352,1587,1582,1557,1562,0,0,0,0,0,0,0,0,0,0
1684065195.89977694,62528312,1548,1547,1576,1579,0,0,0,0,0,0,0,0,0,0
1684065195.99973702,62628272,1529,1531,1588,1590,0,0,0,0,0,0,0,0,0,0
1684065196.09969687,62728232,1523,1528,1596,1594,0,0,0,0,0,0,0,0,0,0
1684065196.19965696,62828192,1527,1532,1600,1597,0,0,0,0,0,0,0,0,0,0
1684065196.30045009,62928985,1532,1537,1598,1597,0,0,0,0,0,0,0,0,0,0
1684065196.40040994,63028945,1535,1538,1599,1601,0,0,0,0,0,0,0,0,0,0
1684065196.50037003,63128905,1536,1539,1603,1605,0,0,0,0,0,0,0,0,0,0
1684065196.60032988,63228865,1542,1544,1603,1606,0,0,0,0,0,0,0,0,0,0
1684065196.70028996,63328825,1553,1554,1598,1601,0,0,0,0,0,0,0,0,0,0
1684065196.80025005,63428785,1565,1565,1589,1591,0,0,0,0,0,0,0,0,0,0
1684065196.90020990,63528745,1577,1577,1582,1583,0,0,0,0,0,0,0,0,0,0
1684065197.00016999,63628705,1584,1584,1577,1577,0,0,0,0,0,0,0,0,0,0
1684065197.10013008,63728665,1586,1591,1581,1568,0,0,0,0,0,0,0,0,0,0
1684065197.20008993,63828625,1585,1594,1578,1566,0,0,0,0,0,0,0,0,0,0
1684065197.30005002,63928585,1585,1593,1571,1569,0,0,0,0,0,0,0,0,0,0
1684065197.40000987,64028545,1584,1588,1564,1569,0,0,0,0,0,0,0,0,0,0
1684065197.49996996,64128505,1585,1583,1559,1566,0,0,0,0,0,0,0,0,0,0
1684065197.59993005,64228465,1585,1581,1557,1563,0,0,0,0,0,0,0,0,0,0
1684065197.69988990,64328425,1585,1580,1557,1559,0,0,0,0,0,0,0,0,0,0
1684065197.79984999,64428385,1585,1580,1558,1556,0,0,0,0,0,0,0,0,0,0
1684065197.89981008,64528345,1584,1582,1560,1556,0,0,0,0,0,0,0,0,0,0
1684065197.99976993,64628305,1582,1583,1560,1556,0,0,0,0,0,0,0,0,0,0
1684065198.09973001,64728265,1581,1584,1559,1556,0,0,0,0,0,0,0,0,0,0
1684065198.19968987,64828225,1581,1584,1557,1556,0,0,0,0,0,0,0,0,0,0
1684065198.29964995,64928185,1581,1584,1555,1556,0,0,0,0,0,0,0,0,0,0
1684065198.40044308,65028978,1582,1583,1552,1554,0,0,0,0,0,0,0,0,0,0
1684065198.50040293,65128938,1584,1584,1552,1553,0,0,0,0,0,0,0,0,0,0
1684065198.60036302,65228898,1585,1586,1550,1551,0,0,0,0,0,0,0,0,0,0
1684065198.70032287,65328858,1588,1588,1550,1550,0,0,0,0,0,0,0,0,0,0
1684065198.80028296,65428818,1588,1589,1547,1547,0,0,0,0,0,0,0,0,0,0
1684065198.90024304,65528778,1590,1591,1545,1545,0,0,0,0,0,0,0,0,0,0
1684065199.00020289,65628738,1593,1594,1544,1544,0,0,0,0,0,0,0,0,0,0
1684065199.10016298,65728698,1595,1595,1543,1544,0,0,0,0,0,0,0,0,0,0
1684065199.20012307,65828658,1595,1594,1543,1544,0,0,0,0,0,0,0,0,0,0
1684065199.30008292,65928618,1594,1592,1545,1547,0,0,0,0,0,0,0,0,0,0
1684065199.40004301,66028578,1592,1589,1550,1552,0,0,0,0,0,0,0,0,0,0
1684065199.50000286,66128538,1587,1583,1556,1558,0,0,0,0,0,0,0,0,0,0
1684065199.59996295,66228498,1579,1576,1563,1565,0,0,0,0,0,0,0,0,0,0
1684065199.69992304,66328458,1573,1569,1573,1573,0,0,0,0,0,0,0,0,0,0
1684065199.79988289,66428418,1566,1565,1583,1582,0,0,0,0,0,0,0,0,0,0
1684065199.89984298,66528378,1560,1559,1590,1590,0,0,0,0,0,0,0,0,0,0
1684065199.99980307,66628338,1555,1554,1595,1595,0,0,0,0,0,0,0,0,0,0
1684065200.09976292,66728298,1552,1552,1600,1599,0,0,0,0,0,0,0,0,0,0
1684065200.19972301,66828258,1553,1553,1603,1602,0,0,0,0,0,0,0,0,0,0
1684065200.29968286,66928218,1552,1553,1604,1603,0,0,0,0,0,0,0,0,0,0
1684065200.39964294,67028178,1553,1554,1603,1602,0,0,0,0,0,0,0,0,0,0
1684065200.50043607,67128971,1556,1557,1602,1601,0,0,0,0,0,0,0,0,0,0
1684065200.60039592,67228931,1558,1559,1599,1600,0,0,0,0,0,0,0,0,0,0
1684065200.70035601,67328891,1561,1561,1596,1597,0,0,0,0,0,0,0,0,0,0
1684065200.80031586,67428851,1564,1564,1593,1594,0,0,0,0,0,0,0,0,0,0
1684065200.90027595,67528811,1567,1567,1591,1591,0,0,0,0,0,0,0,0,0,0
1684065201.00023603,67628771,1569,1569,1587,1588,0,0,0,0,0,0,0,0,0,0
1684065201.10019588,67728731,1570,1570,1584,1584,0,0,0,0,0,0,0,0,0,0
1684065201.20015597,67828691,1573,1573,1582,1582,0,0,0,0,0,0,0,0,0,0
1684065201.30011606,67928651,1575,1575,1580,1580,0,0,0,0,0,0,0,0,0,0
1684065201.40007591,68028611,1577,1577,1579,1579,0,0,0,0,0,0,0,0,0,0
1684065201.50003600,68128571,1578,1577,1577,1577,0,0,0,0,0,0,0,0,0,0
1684065201.59999585,68228531,1580,1579,1577,1577,0,0,0,0,0,0,0,0,0,0
1684065201.69995594,68328491,1579,1579,1576,1575,0,0,0,0,0,0,0,0,0,0
1684065201.79991603,68428451,1579,1578,1575,1575,0,0,0,0,0,0,0,0,0,0
1684065201.89987588,68528411,1580,1579,1575,1575,0,0,0,0,0,0,0,0,0,0
1684065201.99983597,68628371,1580,1579,1576,1576,0,0,0,0,0,0,0,0,0,0
1684065202.09979606,68728331,1580,1579,1576,1577,0,0,0,0,0,0,0,0,0,0
1684065202.19975591,68828291,1578,1578,1576,1576,0,0,0,0,0,0,0,0,0,0
1684065202.29971600,68928251,1578,1578,1577,1577,0,0,0,0,0,0,0,0,0,0
1684065202.39967608,69028211,1578,1578,1578,1578,0,0,0,0,0,0,0,0,0,0
1684065202.49963593,69128171,1577,1577,1578,1577,0,0,0,0,0,0,0,0,0,0
1684065202.60042906,69228964,1578,1577,1578,1578,0,0,0,0,0,0,0,0,0,0
1684065202.70038891,69328924,1579,1578,1579,1580,0,0,0,0,0,0,0,0,0,0
1684065202.80034900,69428884,1578,1578,1580,1579,0,0,0,0,0,0,0,0,0,0
1684065202.90030909,69528844,1578,1578,1579,1580,0,0,0,0,0,0,0,0,0,0
1684065203.00026894,69628804,1577,1577,1579,1579,0,0,0,0,0,0,0,0,0,0
1684065203.10022902,69728764,1578,1578,1579,1580,0,0,0,0,0,0,0,0,0,0
1684065203.20018888,69828724,1578,1577,1579,1579,0,0,0,0,0,0,0,0,0,0
1684065203.30014896,69928684,1578,1578,1580,1579,0,0,0,0,0,0,0,0,0,0
1684065203.40010905,70028644,1578,1579,1579,1580,0,0,0,0,0,0,0,0,0,0
1684065203.50006890,70128604,1578,1579,1579,1579,0,0,0,0,0,0,0,0,0,0
1684065203.60002899,70228564,1579,1579,1580,1580,0,0,0,0,0,0,0,0,0,0
1684065203.69998908,70328524,1579,1579,1579,1580,0,0,0,0,0,0,0,0,0,0
1684065203.79994893,70428484,1579,1579,1579,1579,0,0,0,0,0,0,0,0,0,0
1684065203.89990902,70528444,1580,1580,1580,1580,0,0,0,0,0,0,0,0,0,0
1684065203.99986887,70628404,1579,1579,1579,1579,0,0,0,0,0,0,0,0,0,0
1684065204.09982896,70728364,1580,1580,1579,1580,0,0,0,0,0,0,0,0,0,0
1684065204.19978905,70828324,1580,1580,1579,1579,0,0,0,0,0,0,0,0,0,0
1684065204.29974890,70928284,1580,1579,1579,1579,0,0,0,0,0,0,0,0,0,0
1684065204.39970899,71028244,1581,1581,1580,1580,0,0,0,0,0,0,0,0,0,0
1684065204.49966908,71128204,1581,1581,1580,1580,0,0,0,0,0,0,0,0,0,0
1684065204.59962893,71228164,1580,1581,1580,1580,0,0,0,0,0,0,0,0,0,0
1684065204.70042205,71328957,1581,1581,1581,1581,0,0,0,0,0,0,0,0,0,0
1684065204.80038190,71428917,1581,1580,1581,1581,0,0,0,0,0,0,0,0,0,0
1684065204.90034199,71528877,1580,1580,1580,1580,0,0,0,0,0,0,0,0,0,0
1684065205.00030208,71628837,1580,1581,1581,1580,0,0,0,0,0,0,0,0,0,0
1684065205.10026193,71728797,1579,1582,1587,1573,0,0,0,0,0,0,0,0,0,0
1684065205.20022202,71828757,1578,1584,1584,1572,0,0,0,0,0,0,0,0,0,0
1684065205.30018187,71928717,1578,1582,1575,1573,0,0,0,0,0,0,0,0,0,0
1684065205.40014195,72028677,1577,1580,1567,1572,0,0,0,0,0,0,0,0,0,0
1684065205.50010204,72128637,1577,1579,1560,1567,0,0,0,0,0,0,0,0,0,0
1684065205.60006189,72228597,1580,1578,1556,1563,0,0,0,0,0,0,0,0,0,0
1684065205.70002198,72328557,1581,1578,1554,1558,0,0,0,0,0,0,0,0,0,0
1684065205.79998207,72428517,1582,1579,1554,1554,0,0,0,0,0,0,0,0,0,0
1684065205.89994192,72528477,1580,1579,1554,1552,0,0,0,0,0,0,0,0,0,0
1684065205.99990201,72628437,1579,1580,1556,1553,0,0,0,0,0,0,0,0,0,0
1684065206.09986186,72728397,1578,1579,1555,1553,0,0,0,0,0,0,0,0,0,0
1684065206.19982195,72828357,1576,1578,1555,1554,0,0,0,0,0,0,0,0,0,0
1684065206.29978204,72928317,1574,1576,1553,1553,0,0,0,0,0,0,0,0,0,0
1684065206.39974189,73028277,1576,1577,1553,1553,0,0,0,0,0,0,0,0,0,0
1684065206.49970198,73128237,1576,1578,1552,1552,0,0,0,0,0,0,0,0,0,0
1684065206.59966207,73228197,1578,1579,1550,1550,0,0,0,0,0,0,0,0,0,0
1684065206.69962192,73328157,1580,1581,1547,1548,0,0,0,0,0,0,0,0,0,0
1684065206.80041504,73428950,1582,1584,1545,1544,0,0,0,0,0,0,0,0,0,0
1684065206.90037489,73528910,1587,1587,1543,1543,0,0,0,0,0,0,0,0,0,0
1684065207.00033498,73628870,1589,1589,1540,1540,0,0,0,0,0,0,0,0,0,0
1684065207.10029507,73728830,1592,1593,1539,1539,0,0,0,0,0,0,0,0,0,0
1684065207.20025492,73828790,1593,1594,1535,1536,0,0,0,0,0,0,0,0,0,0
1684065207.30021501,73928750,1596,1597,1535,1536,0,0,0,0,0,0,0,0,0,0
1684065207.40017486,74028710,1596,1596,1534,1536,0,0,0,0,0,0,0,0,0,0
1684065207.50013494,74128670,1594,1593,1536,1538,0,0,0,0,0,0,0,0,0,0
1684065207.60009503,74228630,1592,1589,1542,1545,0,0,0,0,0,0,0,0,0,0
1684065207.70005488,74328590,1585,1580,1550,1553,0,0,0,0,0,0,0,0,0,0
1684065207.80001497,74428550,1575,1571,1561,1563,0,0,0,0,0,0,0,0,0,0
1684065207.89997506,74528510,1563,1559,1573,1575,0,0,0,0,0,0,0,0,0,0
1684065207.99993491,74628470,1550,1547,1586,1587,0,0,0,0,0,0,0,0,0,0
1684065208.09989500,74728430,1541,1539,1598,1598,0,0,0,0,0,0,0,0,0,0
1684065208.19985485,74828390,1537,1537,1608,1606,0,0,0,0,0,0,0,0,0,0
1684065208.29981494,74928350,1536,1536,1612,1610,0,0,0,0,0,0,0,0,0,0
1684065208.39977503,75028310,1537,1539,1612,1611,0,0,0,0,0,0,0,0,0,0
1684065208.49973488,75128270,1541,1542,1611,1610,0,0,0,0,0,0,0,0,0,0
1684065208.59969497,75228230,1545,1547,1606,1607,0,0,0,0,0,0,0,0,0,0
1684065208.69965506,75328190,1551,1553,1602,1603,0,0,0,0,0,0,0,0,0,0
1684065208.80044794,75428983,1556,1557,1596,1596,0,0,0,0,0,0,0,0,0,0
1684065208.90040803,75528943,1563,1563,1592,1591,0,0,0,0,0,0,0,0,0,0
1684065209.00036788,75628903,1569,1569,1587,1586,0,0,0,0,0,0,0,0,0,0
1684065209.10032797,75728863,1573,1573,1581,1581,0,0,0,0,0,0,0,0,0,0
1684065209.20028806,75828823,1579,1578,1577,1577,0,0,0,0,0,0,0,0,0,0
1684065209.30024791,75928783,1582,1582,1573,1573,0,0,0,0,0,0,0,0,0,0
1684065209.40020800,76028743,1584,1584,1570,1570,0,0,0,0,0,0,0,0,0,0
1684065209.50016809,76128703,1584,1583,1568,1569,0,0,0,0,0,0,0,0,0,0
1684065209.60012794,76228663,1585,1583,1569,1570,0,0,0,0,0,0,0,0,0,0
1684065209.70008802,76328623,1583,1582,1571,1571,0,0,0,0,0,0,0,0,0,0
1684065209.80004787,76428583,1580,1579,1573,1572,0,0,0,0,0,0,0,0,0,0
1684065209.90000796,76528543,1577,1576,1575,1574,0,0,0,0,0,0,0,0,0,0
1684065209.99996805,76628503,1575,1576,1577,1577,0,0,0,0,0,0,0,0,0,0
1684065210.09992790,76728463,1572,1573,1578,1578,0,0,0,0,0,0,0,0,0,0
1684065210.19988799,76828423,1573,1573,1581,1581,0,0,0,0,0,0,0,0,0,0
1684065210.29984808,76928383,1572,1573,1581,1582,0,0,0,0,0,0,0,0,0,0
1684065210.39980793,77028343,1574,1574,1582,1582,0,0,0,0,0,0,0,0,0,0
1684065210.49976802,77128303,1575,1575,1582,1582,0,0,0,0,0,0,0,0,0,0
1684065210.59972787,77228263,1575,1575,1581,1581,0,0,0,0,0,0,0,0,0,0
1684065210.69968796,77328223,1576,1576,1580,1580,0,0,0,0,0,0,0,0,0,0
1684065210.79964805,77428183,1578,1578,1580,1580,0,0,0,0,0,0,0,0,0,0
1684065210.90044093,77528976,1579,1579,1579,1579,0,0,0,0,0,0,0,0,0,0
1684065211.00040102,77628936,1579,1579,1578,1579,0,0,0,0,0,0,0,0,0,0
1684065211.10036087,77728896,1580,1581,1578,1579,0,0,0,0,0,0,0,0,0,0
1684065211.20032096,77828856,1581,1581,1578,1578,0,0,0,0,0,0,0,0,0,0
1684065211.30028105,77928816,1580,1580,1577,1578,0,0,0,0,0,0,0,0,0,0
1684065211.40024090,78028776,1580,1580,1578,1578,0,0,0,0,0,0,0,0,0,0
1684065211.50020099,78128736,1580,1579,1578,1577,0,0,0,0,0,0,0,0,0,0
1684065211.60016108,78228696,1579,1579,1578,1578,0,0,0,0,0,0,0,0,0,0
1684065211.70012093,78328656,1579,1580,1579,1579,0,0,0,0,0,0,0,0,0,0
1684065211.80008101,78428616,1578,1578,1578,1579,0,0,0,0,0,0,0,0,0,0
1684065211.90004086,78528576,1578,1578,1579,1579,0,0,0,0,0,0,0,0,0,0
1684065212.00000095,78628536,1579,1579,1580,1580,0,0,0,0,0,0,0,0,0,0
1684065212.09996104,78728496,1580,1580,1581,1580,0,0,0,0,0,0,0,0,0,0
1684065212.19992089,78828456,1579,1580,1581,1580,0,0,0,0,0,0,0,0,0,0
1684065212.29988098,78928416,1581,1581,1581,1581,0,0,0,0,0,0,0,0,0,0
1684065212.39984107,79028376,1579,1579,1580,1580,0,0,0,0,0,0,0,0,0,0
1684065212.49980092,79128336,1579,1579,1580,1580,0,0,0,0,0,0,0,0,0,0
1684065212.59976101,79228296,1579,1579,1579,1580,0,0,0,0,0,0,0,0,0,0
1684065212.69972086,79328256,1581,1581,1580,1581,0,0,0,0,0,0,0,0,0,0
1684065212.79968095,79428216,1581,1581,1580,1581,0,0,0,0,0,0,0,0,0,0
1684065212.89964104,79528176,1582,1583,1584,1577,0,0,0,0,0,0,0,0,0,0
1684065213.00043392,79628969,1581,1582,1587,1571,0,0,0,0,0,0,0,0,0,0
1684065213.10039401,79728929,1579,1580,1582,1574,0,0,0,0,0,0,0,0,0,0
1684065213.20035386,79828889,1576,1577,1576,1576,0,0,0,0,0,0,0,0,0,0
1684065213.30031395,79928849,1573,1572,1570,1577,0,0,0,0,0,0,0,0,0,0
1684065213.40027404,80028809,1569,1569,1567,1574,0,0,0,0,0,0,0,0,0,0
1684065213.50023389,80128769,1567,1567,1566,1572,0,0,0,0,0,0,0,0,0,0
1684065213.60019398,80228729,1566,1567,1566,1569,0,0,0,0,0,0,0,0,0,0
1684065213.70015407,80328689,1566,1565,1567,1566,0,0,0,0,0,0,0,0,0,0
1684065213.80011392,80428649,1567,1567,1568,1565,0,0,0,0,0,0,0,0,0,0
1684065213.90007401,80528609,1565,1565,1566,1564,0,0,0,0,0,0,0,0,0,0
1684065214.00003386,80628569,1565,1565,1565,1563,0,0,0,0,0,0,0,0,0,0
1684065214.09999394,80728529,1565,1565,1565,1564,0,0,0,0,0,0,0,0,0,0
1684065214.19995403,80828489,1564,1564,1563,1563,0,0,0,0,0,0,0,0,0,0
1684065214.29991388,80928449,1563,1563,1562,1563,0,0,0,0,0,0,0,0,0,0
1684065214.39987397,81028409,1563,1563,1562,1562,0,0,0,0,0,0,0,0,0,0
1684065214.49983406,81128369,1563,1563,1562,1562,0,0,0,0,0,0,0,0,0,0
1684065214.59979391,81228329,1562,1562,1562,1561,0,0,0,0,0,0,0,0,0,0
1684065214.69975400,81328289,1560,1561,1561,1561,0,0,0,0,0,0,0,0,0,0
1684065214.79971385,81428249,1558,1559,1560,1559,0,0,0,0,0,0,0,0,0,0
1684065214.89967394,81528209,1558,1557,1558,1558,0,0,0,0,0,0,0,0,0,0
1684065214.99963403,81628169,1557,1557,1558,1557,0,0,0,0,0,0,0,0,0,0
1684065215.10042691,81728962,1556,1556,1557,1557,0,0,0,0,0,0,0,0,0,0
1684065215.20038700,81828922,1556,1556,1557,1556,0,0,0,0,0,0,0,0,0,0
1684065215.30034685,81928882,1556,1556,1557,1555,0,0,0,0,0,0,0,0,0,0
1684065215.40030694,82028842,1558,1558,1558,1556,0,0,0,0,0,0,0,0,0,0
1684065215.50026703,82128802,1559,1558,1558,1556,0,0,0,0,0,0,0,0,0,0
1684065215.60022688,82228762,1559,1559,1559,1556,0,0,0,0,0,0,0,0,0,0
1684065215.70018697,82328722,1560,1560,1559,1559,0,0,0,0,0,0,0,0,0,0
1684065215.80014706,82428682,1560,1560,1557,1561,0,0,0,0,0,0,0,0,0,0
1684065215.90010691,82528642,1560,1560,1556,1563,0,0,0,0,0,0,0,0,0,0
1684065216.00006700,82628602,1561,1561,1557,1563,0,0,0,0,0,0,0,0,0,0
1684065216.10002708,82728562,1563,1563,1560,1564,0,0,0,0,0,0,0,0,0,0
1684065216.19998693,82828522,1563,1563,1562,1563,0,0,0,0,0,0,0,0,0,0
1684065216.29994702,82928482,1562,1562,1563,1561,0,0,0,0,0,0,0,0,0,0
1684065216.39990687,83028442,1561,1561,1563,1562,0,0,0,0,0,0,0,0,0,0
1684065216.49986696,83128402,1557,1557,1558,1561,0,0,0,0,0,0,0,0,0,0
1684065216.59982705,83228362,1553,1553,1555,1557,0,0,0,0,0,0,0,0,0,0
1684065216.69978690,83328322,1547,1547,1550,1552,0,0,0,0,0,0,0,0,0,0
1684065216.79974699,83428282,1541,1541,1546,1546,0,0,0,0,0,0,0,0,0,0
1684065216.89970708,83528242,1534,1534,1539,1539,0,0,0,0,0,0,0,0,0,0
1684065216.99966693,83628202,1527,1527,1532,1532,0,0,0,0,0,0,0,0,0,0
1684065217.09962702,83728162,1519,1520,1524,1523,0,0,0,0,0,0,0,0,0,0
1684065217.20041990,83828955,1520,1520,1521,1521,0,0,0,0,0,0,0,0,0,0
1684065217.30037999,83928915,1522,1522,1519,1520,0,0,0,0,0,0,0,0,0,0
1684065217.40034008,84028875,1525,1525,1519,1520,0,0,0,0,0,0,0,0,0,0
1684065217.50029993,84128835,1530,1530,1522,1522,0,0,0,0,0,0,0,0,0,0
1684065217.60026002,84228795,1533,1533,1524,1524,0,0,0,0,0,0,0,0,0,0
1684065217.70021987,84328755,1537,1537,1529,1529,0,0,0,0,0,0,0,0,0,0
1684065217.80017996,84428715,1541,1542,1534,1534,0,0,0,0,0,0,0,0,0,0
1684065217.90014005,84528675,1542,1542,1537,1537,0,0,0,0,0,0,0,0,0,0
1684065218.00009990,84628635,1543,1544,1541,1541,0,0,0,0,0,0,0,0,0,0
1684065218.10005999,84728595,1543,1543,1544,1543,0,0,0,0,0,0,0,0,0,0
1684065218.20002007,84828555,1542,1542,1545,1545,0,0,0,0,0,0,0,0,0,0
1684065218.29997993,84928515,1544,1544,1548,1547,0,0,0,0,0,0,0,0,0,0
1684065218.39994001,85028475,1542,1543,1548,1548,0,0,0,0,0,0,0,0,0,0
1684065218.49989986,85128435,1543,1544,1549,1548,0,0,0,0,0,0,0,0,0,0
1684065218.59985995,85228395,1543,1543,1548,1548,0,0,0,0,0,0,0,0,0,0
1684065218.69982004,85328355,1545,1544,1548,1548,0,0,0,0,0,0,0,0,0,0
1684065218.79977989,85428315,1545,1545,1547,1547,0,0,0,0,0,0,0,0,0,0
1684065218.89973998,85528275,1544,1544,1546,1545,0,0,0,0,0,0,0,0,0,0
1684065218.99970007,85628235,1545,1545,1545,1545,0,0,0,0,0,0,0,0,0,0
1684065219.09965992,85728195,1544,1544,1544,1543,0,0,0,0,0,0,0,0,0,0
1684065219.19962001,85828155,1545,1545,1543,1543,0,0,0,0,0,0,0,0,0,0
1684065219.30041289,85928948,1545,1545,1544,1543,0,0,0,0,0,0,0,0,0,0
1684065219.40037298,86028908,1547,1547,1545,1544,0,0,0,0,0,0,0,0,0,0
1684065219.50033307,86128868,1544,1545,1543,1543,0,0,0,0,0,0,0,0,0,0
1684065219.60029292,86228828,1544,1544,1543,1543,0,0,0,0,0,0,0,0,0,0
1684065219.70025301,86328788,1545,1545,1544,1544,0,0,0,0,0,0,0,0,0,0
1684065219.80021286,86428748,1544,1544,1544,1543,0,0,0,0,0,0,0,0,0,0
1684065219.90017295,86528708,1545,1544,1544,1544,0,0,0,0,0,0,0,0,0,0
1684065220.00013304,86628668,1544,1543,1544,1544,0,0,0,0,0,0,0,0,0,0
1684065220.10009289,86728628,1544,1543,1544,1545,0,0,0,0,0,0,0,0,0,0
1684065220.20005298,86828588,1543,1544,1544,1544,0,0,0,0,0,0,0,0,0,0
1684065220.30001307,86928548,1544,1544,1545,1544,0,0,0,0,0,0,0,0,0,0
1684065220.39997292,87028508,1543,1544,1544,1544,0,0,0,0,0,0,0,0,0,0
1684065220.49993300,87128468,1544,1544,1545,1544,0,0,0,0,0,0,0,0,0,0
1684065220.59989285,87228428,1544,1544,1544,1544,0,0,0,0,0,0,0,0,0,0
1684065220.69985294,87328388,1544,1544,1544,1544,0,0,0,0,0,0,0,0,0,0
1684065220.79981303,87428348,1545,1545,1544,1545,0,0,0,0,0,0,0,0,0,0
1684065220.89977288,87528308,1545,1544,1544,1544,0,0,0,0,0,0,0,0,0,0
1684065220.99973297,87628268,1544,1545,1544,1544,0,0,0,0,0,0,0,0,0,0
1684065221.09969306,87728228,1546,1546,1545,1545,0,0,0,0,0,0,0,0,0,0
1684065221.19965291,87828188,1544,1545,1545,1544,0,0,0,0,0,0,0,0,0,0
1684065221.30044603,87928981,1544,1544,1544,1544,0,0,0,0,0,0,0,0,0,0
1684065221.40040588,88028941,1545,1545,1545,1545,0,0,0,0,0,0,0,0,0,0
1684065221.50036597,88128901,1544,1543,1544,1544,0,0,0,0,0,0,0,0,0,0
1684065221.60032606,88228861,1544,1544,1545,1544,0,0,0,0,0,0,0,0,0,0
1684065221.70028591,88328821,1544,1544,1544,1544,0,0,0,0,0,0,0,0,0,0
1684065221.80024600,88428781,1544,1544,1544,1544,0,0,0,0,0,0,0,0,0,0
1684065221.90020585,88528741,1544,1543,1543,1544,0,0,0,0,0,0,0,0,0,0
1684065222.00016594,88628701,1544,1545,1544,1545,0,0,0,0,0,0,0,0,0,0
1684065222.10012603,88728661,1545,1545,1545,1545,0,0,0,0,0,0,0,0,0,0
1684065222.20008588,88828621,1545,1544,1544,1544,0,0,0,0,0,0,0,0,0,0
1684065222.30004597,88928581,1544,1544,1544,1544,0,0,0,0,0,0,0,0,0,0
1684065222.40000606,89028541,1545,1545,1545,1545,0,0,0,0,0,0,0,0,0,0
1684065222.49996591,89128501,1545,1544,1544,1544,0,0,0,0,0,0,0,0,0,0
1684065222.59992599,89228461,1543,1544,1544,1544,0,0,0,0,0,0,0,0,0,0
1684065222.69988608,89328421,1545,1546,1545,1545,0,0,0,0,0,0,0,0,0,0
1684065222.79984593,89428381,1545,1545,1545,1545,0,0,0,0,0,0,0,0,0,0
1684065222.89980602,89528341,1545,1544,1544,1545,0,0,0,0,0,0,0,0,0,0
1684065222.99976587,89628301,1544,1544,1544,1545,0,0,0,0,0,0,0,0,0,0
1684065223.09972596,89728261,1544,1544,1544,1544,0,0,0,0,0,0,0,0,0,0
1684065223.19968605,89828221,1544,1544,1545,1545,0,0,0,0,0,0,0,0,0,0
1684065223.29964590,89928181,1543,1544,1544,1543,0,0,0,0,0,0,0,0,0,0
1684065223.40043902,90028974,1544,1544,1544,1544,0,0,0,0,0,0,0,0,0,0
1684065223.50039887,90128934,1543,1543,1543,1544,0,0,0,0,0,0,0,0,0,0
1684065223.60035896,90228894,1543,1542,1543,1543,0,0,0,0,0,0,0,0,0,0
1684065223.70031905,90328854,1545,1545,1544,1545,0,0,0,0,0,0,0,0,0,0
1684065223.80027890,90428814,1545,1545,1544,1544,0,0,0,0,0,0,0,0,0,0
1684065223.90023899,90528774,1545,1545,1544,1544,0,0,0,0,0,0,0,0,0,0
1684065224.00019908,90628734,1544,1544,1544,1544,0,0,0,0,0,0,0,0,0,0
1684065224.10015893,90728694,1544,1544,1544,1544,0,0,0,0,0,0,0,0,0,0
1684065224.20011902,90828654,1544,1545,1545,1545,0,0,0,0,0,0,0,0,0,0
1684065224.30007887,90928614,1544,1543,1544,1544,0,0,0,0,0,0,0,0,0,0
1684065224.40003896,91028574,1543,1543,1544,1544,0,0,0,0,0,0,0,0,0,0
1684065224.49999905,91128534,1543,1543,1544,1544,0,0,0,0,0,0,0,0,0,0
1684065224.59995890,91228494,1542,1543,1544,1543,0,0,0,0,0,0,0,0,0,0
1684065224.69991899,91328454,1544,1544,1544,1544,0,0,0,0,0,0,0,0,0,0
1684065224.79987907,91428414,1544,1544,1544,1544,0,0,0,0,0,0,0,0,0,0
1684065224.89983892,91528374,1544,1544,1543,1544,0,0,0,0,0,0,0,0,0,0
1684065224.99979901,91628334,1544,1544,1544,1544,0,0,0,0,0,0,0,0,0,0
1684065225.09975886,91728294,1544,1544,1544,1544,0,0,0,0,0,0,0,0,0,0
1684065225.19971895,91828254,1545,1545,1544,1545,0,0,0,0,0,0,0,0,0,0
1684065225.29967904,91928214,1544,1544,1544,1544,0,0,0,0,0,0,0,0,0,0
1684065225.39963889,92028174,1545,1545,1544,1544,0,0,0,0,0,0,0,0,0,0
1684065225.50043201,92128967,1545,1545,1545,1545,0,0,0,0,0,0,0,0,0,0
1684065225.60039186,92228927,1544,1544,1544,1544,0,0,0,0,0,0,0,0,0,0
1684065225.70035195,92328887,1545,1544,1544,1545,0,0,0,0,0,0,0,0,0,0
1684065225.80031204,92428847,1544,1544,1544,1544,0,0,0,0,0,0,0,0,0,0
1684065225.90027189,92528807,1544,1544,1544,1544,0,0,0,0,0,0,0,0,0,0
1684065226.00023198,92628767,1546,1546,1545,1546,0,0,0,0,0,0,0,0,0,0
1684065226.10019207,92728727,1545,1545,1545,1545,0,0,0,0,0,0,0,0,0,0
1684065226.20015192,92828687,1545,1545,1545,1545,0,0,0,0,0,0,0,0,0,0
1684065226.30011201,92928647,1544,1544,1544,1545,0,0,0,0,0,0,0,0,0,0
1684065226.40007186,93028607,1544,1544,1544,1544,0,0,0,0,0,0,0,0,0,0
1684065226.50003195,93128567,1545,1543,1544,1544,0,0,0,0,0,0,0,0,0,0
1684065226.59999204,93228527,1544,1544,1545,1544,0,0,0,0,0,0,0,0,0,0
1684065226.69995189,93328487,1544,1544,1544,1545,0,0,0,0,0,0,0,0,0,0
1684065226.79991198,93428447,1545,1545,1545,1544,0,0,0,0,0,0,0,0,0,0
1684065226.89987206,93528407,1395,1394,1448,1448,0,0,0,0,0,0,0,0,0,0
1684065226.99983191,93628367,1386,1387,1443,1442,0,0,0,0,0,0,0,0,0,0
1684065227.09979200,93728327,1386,1386,1443,1442,0,0,0,0,0,0,0,0,0,0
1684065227.19975185,93828287,1386,1386,1402,1401,0,0,0,0,0,0,0,0,0,0
1684065227.29971194,93928247,1386,1386,1343,1343,0,0,0,0,0,0,0,0,0,0
1684065227.39967203,94028207,1386,1386,1303,1303,0,0,0,0,0,0,0,0,0,0
1684065227.49963188,94128167,1386,1386,1303,1303,0,0,0,0,0,0,0,0,0,0
1684065227.60042500,94228960,1401,1386,1292,1303,0,0,0,0,0,0,0,0,0,0
1684065227.70038486,94328920,1395,1386,1297,1303,0,0,0,0,0,0,0,0,0,0
1684065227.80034494,94428880,1393,1386,1298,1303,0,0,0,0,0,0,0,0,0,0
1684065227.90030503,94528840,1392,1386,1298,1303,0,0,0,0,0,0,0,0,0,0
1684065228.00026488,94628800,1392,1386,1298,1303,0,0,0,0,0,0,0,0,0,0
1684065228.10022497,94728760,1393,1386,1298,1303,0,0,0,0,0,0,0,0,0,0
1684065228.20018506,94828720,1393,1386,1298,1303,0,0,0,0,0,0,0,0,0,0
1684065228.30014491,94928680,1393,1386,1298,1303,0,0,0,0,0,0,0,0,0,0
1684065228.40010500,95028640,1386,1386,1303,1303,0,0,0,0,0,0,0,0,0,0
1684065228.50006485,95128600,1387,1386,1303,1303,0,0,0,0,0,0,0,0,0,0
1684065228.60002494,95228560,1387,1386,1302,1303,0,0,0,0,0,0,0,0,0,0
1684065228.69998503,95328520,1387,1386,1302,1303,0,0,0,0,0,0,0,0,0,0
1684065228.79994488,95428480,1387,1386,1252,1252,0,0,0,0,0,0,0,0,0,0
1684065228.89990497,95528440,1000,1000,1000,1000,0,0,0,0,0,0,0,0,0,0
1684065228.99986506,95628400,1000,1000,1000,1000,0,0,0,0,0,0,0,0,0,0
1684065229.09982491,95728360,1000,1000,1000,1000,0,0,0,0,0,0,0,0,0,0
1684065229.19978499,95828320,1000,1000,1000,1000,0,0,0,0,0,0,0,0,0,0
1684065229.29974508,95928280,1000,1000,1000,1000,0,0,0,0,0,0,0,0,0,0
1684065229.39970493,96028240,1000,1000,1000,1000,0,0,0,0,0,0,0,0,0,0
1684065229.49966502,96128200,1000,1000,1000,1000,0,0,0,0,0,0,0,0,0,0
1684065229.59962487,96228160,1000,1000,1000,1000,0,0,0,0,0,0,0,0,0,0
1684065229.70041800,96328953,1000,1000,1000,1000,0,0,0,0,0,0,0,0,0,0
1684065229.80037808,96428913,1000,1000,1000,1000,0,0,0,0,0,0,0,0,0,0
1684065229.90033793,96528873,1000,1000,1000,1000,0,0,0,0,0,0,0,0,0,0
1684065230.00029802,96628833,1000,1000,1000,1000,0,0,0,0,0,0,0,0,0,0
1684065230.10025787,96728793,1000,1000,1000,1000,0,0,0,0,0,0,0,0,0,0
1684065230.20021796,96828753,1000,1000,1000,1000,0,0,0,0,0,0,0,0,0,0
1684065230.30017805,96928713,1000,1000,1000,1000,0,0,0,0,0,0,0,0,0,0
1684065230.40013790,97028673,1000,1000,1000,1000,0,0,0,0,0,0,0,0,0,0
1684065230.50009799,97128633,1000,1000,1000,1000,0,0,0,0,0,0,0,0,0,0
1684065230.60005808,97228593,1000,1000,1000,1000,0,0,0,0,0,0,0,0,0,0
1684065230.70001793,97328553,1000,1000,1000,1000,0,0,0,0,0,0,0,0,0,0
1684065230.79997802,97428513,1000,1000,1000,1000,0,0,0,0,0,0,0,0,0,0
1684065230.89993787,97528473,1000,1000,1000,1000,0,0,0,0,0,0,0,0,0,0
1684065230.99989796,97628433,1000,1000,1000,1000,0,0,0,0,0,0,0,0,0,0
1684065231.09985805,97728393,1000,1000,1000,1000,0,0,0,0,0,0,0,0,0,0
1684065231.19981790,97828353,1000,1000,1000,1000,0,0,0,0,0,0,0,0,0,0
1684065231.29977798,97928313,1000,1000,1000,1000,0,0,0,0,0,0,0,0,0,0
1684065231.39973807,98028273,1000,1000,1000,1000,0,0,0,0,0,0,0,0,0,0
1684065231.49969792,98128233,1000,1000,1000,1000,0,0,0,0,0,0,0,0,0,0
1684065231.59965801,98228193,1000,1000,1000,1000,0,0,0,0,0,0,0,0,0,0
1684065231.70045090,98328986,1000,1000,1000,1000,0,0,0,0,0,0,0,0,0,0
1684065231.80041099,98428946,1000,1000,1000,1000,0,0,0,0,0,0,0,0,0,0
1684065231.90037107,98528906,1000,1000,1000,1000,0,0,0,0,0,0,0,0,0,0
1684065232.00033092,98628866,1000,1000,1000,1000,0,0,0,0,0,0,0,0,0,0
1684065232.10029101,98728826,1000,1000,1000,1000,0,0,0,0,0,0,0,0,0,0
1684065232.20025086,98828786,1000,1000,1000,1000,0,0,0,0,0,0,0,0,0,0
1684065232.30021095,98928746,1000,1000,1000,1000,0,0,0,0,0,0,0,0,0,0
1684065232.40017104,99028706,1000,1000,1000,1000,0,0,0,0,0,0,0,0,0,0
1684065232.50013089,99128666,1000,1000,1000,1000,0,0,0,0,0,0,0,0,0,0
1684065232.60009098,99228626,1000,1000,1000,1000,0,0,0,0,0,0,0,0,0,0
1684065232.70005107,99328586,1000,1000,1000,1000,0,0,0,0,0,0,0,0,0,0
1684065232.80001092,99428546,1000,1000,1000,1000,0,0,0,0,0,0,0,0,0,0
1684065232.89997101,99528506,1000,1000,1000,1000,0,0,0,0,0,0,0,0,0,0
1684065232.99993086,99628466,1000,1000,1000,1000,0,0,0,0,0,0,0,0,0,0
1684065233.09989095,99728426,1000,1000,1000,1000,0,0,0,0,0,0,0,0,0,0
1684065233.19985104,99828386,1000,1000,1000,1000,0,0,0,0,0,0,0,0,0,0
1684065233.29981089,99928346,1000,1000,1000,1000,0,0,0,0,0,0,0,0,0,0
1684065233.39977098,100028306,1000,1000,1000,1000,0,0,0,0,0,0,0,0,0,0
1684065233.49973106,100128266,1000,1000,1000,1000,0,0,0,0,0,0,0,0,0,0
1684065233.59969091,100228226,1000,1000,1000,1000,0,0,0,0,0,0,0,0,0,0
1684065233.69965100,100328186,1000,1000,1000,1000,0,0,0,0,0,0,0,0,0,0
1684065233.80044389,100428979,1000,1000,1000,1000,0,0,0,0,0,0,0,0,0,0
1684065233.90040398,100528939,1000,1000,1000,1000,0,0,0,0,0,0,0,0,0,0
1684065234.00036407,100628899,1000,1000,1000,1000,0,0,0,0,0,0,0,0,0,0
1684065234.10032392,100728859,1000,1000,1000,1000,0,0,0,0,0,0,0,0,0,0
1684065234.20028400,100828819,1000,1000,1000,1000,0,0,0,0,0,0,0,0,0,0
1684065234.30024385,100928779,1000,1000,1000,1000,0,0,0,0,0,0,0,0,0,0
1684065234.40020394,101028739,1000,1000,1000,1000,0,0,0,0,0,0,0,0,0,0
1684065234.50016403,101128699,1000,1000,1000,1000,0,0,0,0,0,0,0,0,0,0
1684065234.60012388,101228659,1000,1000,1000,1000,0,0,0,0,0,0,0,0,0,0
1684065234.70008397,101328619,1000,1000,1000,1000,0,0,0,0,0,0,0,0,0,0
1684065234.80004406,101428579,1000,1000,1000,1000,0,0,0,0,0,0,0,0,0,0
1684065234.90000391,101528539,1000,1000,1000,1000,0,0,0,0,0,0,0,0,0,0
1684065234.99996400,101628499,1000,1000,1000,1000,0,0,0,0,0,0,0,0,0,0
1684065235.09992385,101728459,1000,1000,1000,1000,0,0,0,0,0,0,0,0,0,0
1684065235.19988394,101828419,1000,1000,1000,1000,0,0,0,0,0,0,0,0,0,0
1684065235.29984403,101928379,1000,1000,1000,1000,0,0,0,0,0,0,0,0,0,0
1684065235.39980388,102028339,1000,1000,1000,1000,0,0,0,0,0,0,0,0,0,0
1684065235.49976397,102128299,1000,1000,1000,1000,0,0,0,0,0,0,0,0,0,0
1684065235.59972405,102228259,1000,1000,1000,1000,0,0,0,0,0,0,0,0,0,0
1684065235.69968390,102328219,1000,1000,1000,1000,0,0,0,0,0,0,0,0,0,0
1684065235.79964399,102428179,1000,1000,1000,1000,0,0,0,0,0,0,0,0,0,0
1684065235.90043688,102528972,1000,1000,1000,1000,0,0,0,0,0,0,0,0,0,0
1684065236.00039697,102628932,1000,1000,1000,1000,0,0,0,0,0,0,0,0,0,0
1684065236.10035706,102728892,1000,1000,1000,1000,0,0,0,0,0,0,0,0,0,0
1684065236.20031691,102828852,1000,1000,1000,1000,0,0,0,0,0,0,0,0,0,0
1684065236.30027699,102928812,1000,1000,1000,1000,0,0,0,0,0,0,0,0,0,0
1684065236.40023708,103028772,1000,1000,1000,1000,0,0,0,0,0,0,0,0,0,0
1684065236.50019693,103128732,1000,1000,1000,1000,0,0,0,0,0,0,0,0,0,0
1684065236.60015702,103228692,1000,1000,1000,1000,0,0,0,0,0,0,0,0,0,0
1684065236.70011687,103328652,1000,1000,1000,1000,0,0,0,0,0,0,0,0,0,0
1684065236.80007696,103428612,1000,1000,1000,1000,0,0,0,0,0,0,0,0,0,0
1684065236.90003705,103528572,1000,1000,1000,1000,0,0,0,0,0,0,0,0,0,0
1684065236.99999690,103628532,1000,1000,1000,1000,0,0,0,0,0,0,0,0,0,0
1684065237.09995699,103728492,1000,1000,1000,1000,0,0,0,0,0,0,0,0,0,0
1684065237.19991708,103828452,1000,1000,1000,1000,0,0,0,0,0,0,0,0,0,0
1684065237.29987693,103928412,1000,1000,1000,1000,0,0,0,0,0,0,0,0,0,0
1684065237.39983702,104028372,1000,1000,1000,1000,0,0,0,0,0,0,0,0,0,0
1684065237.49979687,104128332,1000,1000,1000,1000,0,0,0,0,0,0,0,0,0,0
1684065237.59975696,104228292,1000,1000,1000,1000,0,0,0,0,0,0,0,0,0,0
1684065237.69971704,104328252,1000,1000,1000,1000,0,0,0,0,0,0,0,0,0,0
1684065237.79967690,104428212,1000,1000,1000,1000,0,0,0,0,0,0,0,0,0,0
1684065237.89963698,104528172,1000,1000,1000,1000,0,0,0,0,0,0,0,0,0,0
1684065238.00042987,104628965,1000,1000,1000,1000,0,0,0,0,0,0,0,0,0,0
1684065238.10038996,104728925,1000,1000,1000,1000,0,0,0,0,0,0,0,0,0,0
1684065238.20035005,104828885,1000,1000,1000,1000,0,0,0,0,0,0,0,0,0,0
1684065238.30030990,104928845,1000,1000,1000,1000,0,0,0,0,0,0,0,0,0,0
1684065238.40026999,105028805,1000,1000,1000,1000,0,0,0,0,0,0,0,0,0,0
1684065238.50023007,105128765,1000,1000,1000,1000,0,0,0,0,0,0,0,0,0,0
1684065238.60018992,105228725,1000,1000,1000,1000,0,0,0,0,0,0,0,0,0,0
1684065238.70015001,105328685,1000,1000,1000,1000,0,0,0,0,0,0,0,0,0,0
1684065238.80010986,105428645,1000,1000,1000,1000,0,0,0,0,0,0,0,0,0,0
1684065238.90006995,105528605,1000,1000,1000,1000,0,0,0,0,0,0,0,0,0,0
1684065239.00003004,105628565,1000,1000,1000,1000,0,0,0,0,0,0,0,0,0,0
1684065239.09998989,105728525,1000,1000,1000,1000,0,0,0,0,0,0,0,0,0,0
1684065239.19994998,105828485,1000,1000,1000,1000,0,0,0,0,0,0,0,0,0,0
1684065239.29991007,105928445,1000,1000,1000,1000,0,0,0,0,0,0,0,0,0,0
1684065239.39986992,106028405,1000,1000,1000,1000,0,0,0,0,0,0,0,0,0,0
1684065239.49983001,106128365,1000,1000,1000,1000,0,0,0,0,0,0,0,0,0,0
1684065239.59978986,106228325,1000,1000,1000,1000,0,0,0,0,0,0,0,0,0,0
