TimeUS,M1,M2,M3,M4,TimeUS,C1,C2,C3,C4
73941245,1000,1000,1000,1000,74028710,1000,1000,1000,1000
73943744,1000,1000,1000,1000,74128670,1000,1000,1000,1000
73946243,1000,1000,1000,1000,74228630,1000,1000,1000,1000
73948742,1000,1000,1000,1000,74328590,1000,1000,1000,1000
73951241,1000,1000,1000,1000,74428550,1000,1000,1000,1000
73953740,1000,1000,1000,1000,74528510,1000,1000,1000,1000
73956239,1000,1000,1000,1000,74628470,1000,1000,1000,1000
73958738,1000,1000,1000,1000,74728430,1000,1000,1000,1000
73961237,1000,1000,1000,1000,74828390,1000,1000,1000,1000
73963736,1000,1000,1000,1000,74928350,1000,1000,1000,1000
73966235,1000,1000,1000,1000,75028310,1000,1000,1000,1000
73968734,1000,1000,1000,1000,75128270,1000,1000,1000,1000
73971233,1000,1000,1000,1000,75228230,1000,1000,1000,1000
73973732,1000,1000,1000,1000,75328190,1000,1000,1000,1000
73976231,1000,1000,1000,1000,75428983,1000,1000,1000,1000
73978730,1000,1000,1000,1000,75528943,1000,1000,1000,1000
73981229,1000,1000,1000,1000,75628903,1000,1000,1000,1000
73983728,1000,1000,1000,1000,75728863,1000,1000,1000,1000
73986227,1000,1000,1000,1000,75828823,1000,1000,1000,1000
73988726,1000,1000,1000,1000,75928783,1000,1000,1000,1000
73991225,1000,1000,1000,1000,76028743,1026,1026,1026,1026
73993724,1000,1000,1000,1000,76128703,1056,1056,1056,1056
73996223,1000,1000,1000,1000,76228663,1086,1086,1086,1086
73998722,1000,1000,1000,1000,76328623,1116,1116,1116,1116
74001221,1000,1000,1000,1000,76428583,1146,1146,1146,1146
74003720,1000,1000,1000,1000,76528543,1375,1365,1366,1375
74006219,1000,1000,1000,1000,76628503,1560,1552,1553,1561
74008718,1000,1000,1000,1000,76728463,1710,1703,1704,1711
74011217,1000,1000,1000,1000,76828423,1840,1833,1834,1840
74013716,1000,1000,1000,1000,76928383,1884,1876,1877,1884
74016215,1000,1000,1000,1000,77028343,1824,1821,1821,1825
74018714,1000,1000,1000,1000,77128303,1694,1695,1693,1697
74021213,1000,1000,1000,1000,77228263,1625,1627,1625,1628
74023712,1000,1000,1000,1000,77328223,1615,1617,1616,1617
74026211,1000,1000,1000,1000,77428183,1625,1626,1627,1624
74028710,1000,1000,1000,1000,77528976,1630,1631,1632,1629
74031209,1000,1000,1000,1000,77628936,1628,1628,1629,1626
74033708,1000,1000,1000,1000,77728896,1622,1620,1621,1621
74036207,1000,1000,1000,1000,77828856,1619,1617,1617,1618
74038706,1000,1000,1000,1000,77928816,1618,1617,1617,1618
74041205,1000,1000,1000,1000,78028776,1620,1619,1619,1619
74043704,1000,1000,1000,1000,78128736,1620,1620,1621,1620
74046203,1000,1000,1000,1000,78228696,1607,1608,1610,1604
74048702,1000,1000,1000,1000,78328656,1585,1586,1594,1577
74051201,1000,1000,1000,1000,78428616,1573,1574,1578,1569
74053700,1000,1000,1000,1000,78528576,1563,1563,1563,1563
74056199,1000,1000,1000,1000,78628536,1555,1554,1551,1558
74058698,1000,1000,1000,1000,78728496,1547,1546,1539,1555
74061197,1000,1000,1000,1000,78828456,1541,1540,1533,1548
74063696,1000,1000,1000,1000,78928416,1534,1534,1529,1539
74066195,1000,1000,1000,1000,79028376,1530,1530,1528,1531
74068694,1000,1000,1000,1000,79128336,1528,1527,1528,1527
74071193,1000,1000,1000,1000,79228296,1529,1529,1531,1526
74073692,1000,1000,1000,1000,79328256,1531,1531,1534,1528
74076191,1000,1000,1000,1000,79428216,1534,1534,1537,1532
74078690,1000,1000,1000,1000,79528176,1538,1538,1540,1537
74081189,1000,1000,1000,1000,79628969,1541,1542,1543,1540
74083688,1000,1000,1000,1000,79728929,1545,1544,1545,1544
74086187,1000,1000,1000,1000,79828889,1547,1547,1547,1547
74088686,1000,1000,1000,1000,79928849,1550,1551,1550,1551
74091185,1000,1000,1000,1000,80028809,1553,1553,1553,1554
74093684,1000,1000,1000,1000,80128769,1555,1554,1553,1556
74096183,1000,1000,1000,1000,80228729,1555,1555,1559,1561
74098682,1000,1000,1000,1000,80328689,1557,1556,1562,1563
74101181,1000,1000,1000,1000,80428649,1559,1559,1564,1564
74103680,1000,1000,1000,1000,80528609,1560,1561,1565,1565
74106179,1000,1000,1000,1000,80628569,1563,1564,1566,1566
74108678,1000,1000,1000,1000,80728529,1565,1565,1566,1565
74111177,1000,1000,1000,1000,80828489,1567,1567,1566,1566
74113676,1000,1000,1000,1000,80928449,1568,1568,1566,1566
74116175,1000,1000,1000,1000,81028409,1571,1571,1567,1567
74118674,1000,1000,1000,1000,81128369,1571,1571,1568,1568
74121173,1000,1000,1000,1000,81228329,1573,1573,1569,1569
74123672,1000,1000,1000,1000,81328289,1573,1573,1569,1570
74126171,1000,1000,1000,1000,81428249,1573,1573,1570,1570
74128670,1000,1000,1000,1000,81528209,1573,1573,1571,1571
74131169,1000,1000,1000,1000,81628169,1575,1574,1574,1573
74133668,1000,1000,1000,1000,81728962,1574,1574,1575,1573
74136167,1000,1000,1000,1000,81828922,1574,1575,1575,1574
74138666,1000,1000,1000,1000,81928882,1575,1576,1577,1576
74141165,1000,1000,1000,1000,82028842,1576,1576,1577,1577
74143664,1000,1000,1000,1000,82128802,1576,1576,1577,1577
74146163,1000,1000,1000,1000,82228762,1576,1576,1577,1577
74148662,1000,1000,1000,1000,82328722,1576,1576,1577,1577
74151161,1000,1000,1000,1000,82428682,1576,1577,1577,1577
74153660,1000,1000,1000,1000,82528642,1577,1577,1577,1577
74156159,1000,1000,1000,1000,82628602,1577,1576,1577,1577
74158658,1000,1000,1000,1000,82728562,1578,1577,1577,1578
74161157,1000,1000,1000,1000,82828522,1578,1578,1577,1577
74163656,1000,1000,1000,1000,82928482,1578,1578,1577,1577
74166155,1000,1000,1000,1000,83028442,1577,1577,1577,1576
74168654,1000,1000,1000,1000,83128402,1578,1578,1578,1578
74171153,1000,1000,1000,1000,83228362,1578,1577,1577,1577
74173652,1000,1000,1000,1000,83328322,1578,1578,1578,1578
74176151,1000,1000,1000,1000,83428282,1579,1578,1578,1579
74178650,1000,1000,1000,1000,83528242,1578,1578,1578,1578
74181149,1000,1000,1000,1000,83628202,1578,1579,1579,1578
74183648,1000,1000,1000,1000,83728162,1579,1578,1578,1578
74186147,1000,1000,1000,1000,83828955,1578,1578,1578,1579
74188646,1000,1000,1000,1000,83928915,1579,1579,1580,1580
74191145,1000,1000,1000,1000,84028875,1578,1578,1579,1578
74193644,1000,1000,1000,1000,84128835,1578,1578,1578,1578
74196143,1000,1000,1000,1000,84228795,1578,1578,1578,1579
74198642,1000,1000,1000,1000,84328755,1579,1579,1579,1579
74201141,1000,1000,1000,1000,84428715,1579,1579,1580,1579
74203640,1000,1000,1000,1000,84528675,1580,1580,1580,1580
74206139,1000,1000,1000,1000,84628635,1581,1580,1581,1581
74208638,1000,1000,1000,1000,84728595,1580,1580,1580,1580
74211137,1000,1000,1000,1000,84828555,1579,1579,1579,1580
74213636,1000,1000,1000,1000,84928515,1579,1579,1578,1579
74216135,1000,1000,1000,1000,85028475,1580,1580,1579,1580
74218634,1000,1000,1000,1000,85128435,1581,1581,1581,1580
74221133,1000,1000,1000,1000,85228395,1581,1581,1581,1581
74223632,1000,1000,1000,1000,85328355,1580,1580,1580,1579
74226131,1000,1000,1000,1000,85428315,1580,1580,1580,1580
74228630,1000,1000,1000,1000,85528275,1581,1581,1581,1580
74231129,1000,1000,1000,1000,85628235,1580,1581,1581,1581
74233628,1000,1000,1000,1000,85728195,1581,1581,1581,1581
74236127,1000,1000,1000,1000,85828155,1581,1581,1581,1581
74238626,1000,1000,1000,1000,85928948,1582,1581,1581,1582
74241125,1000,1000,1000,1000,86028908,1582,1581,1582,1581
74243624,1000,1000,1000,1000,86128868,1581,1581,1581,1581
74246123,1000,1000,1000,1000,86228828,1581,1581,1581,1581
74248622,1000,1000,1000,1000,86328788,1581,1581,1581,1581
74251121,1000,1000,1000,1000,86428748,1580,1582,1588,1574
74253620,1000,1000,1000,1000,86528708,1580,1583,1585,1573
74256119,1000,1000,1000,1000,86628668,1578,1582,1576,1573
74258618,1000,1000,1000,1000,86728628,1577,1580,1567,1571
74261117,1000,1000,1000,1000,86828588,1577,1579,1561,1568
74263616,1000,1000,1000,1000,86928548,1578,1578,1556,1563
74266115,1000,1000,1000,1000,87028508,1579,1578,1555,1559
74268614,1000,1000,1000,1000,87128468,1580,1578,1556,1556
74271113,1000,1000,1000,1000,87228428,1579,1578,1556,1554
74273612,1000,1000,1000,1000,87328388,1578,1578,1556,1553
74276111,1000,1000,1000,1000,87428348,1577,1578,1556,1554
74278610,1000,1000,1000,1000,87528308,1576,1578,1555,1554
74281109,1000,1000,1000,1000,87628268,1576,1577,1555,1554
74283608,1000,1000,1000,1000,87728228,1575,1577,1553,1553
74286107,1000,1000,1000,1000,87828188,1575,1577,1551,1551
74288606,1000,1000,1000,1000,87928981,1577,1578,1549,1550
74291105,1000,1000,1000,1000,88028941,1579,1580,1547,1547
74293604,1000,1000,1000,1000,88128901,1581,1582,1544,1544
74296103,1000,1000,1000,1000,88228861,1584,1585,1542,1541
74298602,1000,1000,1000,1000,88328821,1587,1587,1539,1539
74301101,1000,1000,1000,1000,88428781,1590,1591,1537,1536
74303600,1000,1000,1000,1000,88528741,1593,1593,1535,1536
74306099,1000,1000,1000,1000,88628701,1595,1595,1534,1535
74308598,1000,1000,1000,1000,88728661,1595,1595,1535,1537
74311097,1000,1000,1000,1000,88828621,1594,1594,1536,1538
74313596,1000,1000,1000,1000,88928581,1592,1591,1540,1543
74316095,1000,1000,1000,1000,89028541,1587,1586,1546,1549
74318594,1000,1000,1000,1000,89128501,1581,1578,1554,1557
74321093,1000,1000,1000,1000,89228461,1573,1570,1565,1568
74323592,1000,1000,1000,1000,89328421,1314,1317,1647,1653
74326091,1000,1000,1000,1000,89428381,1383,1388,1663,1664
74328590,1000,1000,1000,1000,89528341,1445,1449,1658,1652
74331089,1000,1000,1000,1000,89628301,1497,1499,1647,1638
74333588,1000,1000,1000,1000,89728261,1536,1535,1636,1629
74336087,1000,1000,1000,1000,89828221,1565,1561,1626,1623
74338586,1000,1000,1000,1000,89928181,1595,1586,1605,1607
74341085,1000,1000,1000,1000,90028974,1600,1590,1545,1554
74343584,1000,1000,1000,1000,90128934,1600,1597,1533,1545
74346083,1000,1000,1000,1000,90228894,1595,1600,1539,1545
74348582,1000,1000,1000,1000,90328854,1593,1600,1549,1549
74351081,1000,1000,1000,1000,90428814,1594,1600,1561,1557
74353580,1000,1000,1000,1000,90528774,1598,1600,1571,1567
74356079,1000,1000,1000,1000,90628734,1600,1598,1576,1573
74358578,1000,1000,1000,1000,90728694,1600,1596,1577,1577
74361077,1000,1000,1000,1000,90828654,1600,1597,1579,1581
74363576,1000,1000,1000,1000,90928614,1600,1598,1581,1583
74366075,1000,1000,1000,1000,91028574,1600,1599,1584,1585
74368574,1000,1000,1000,1000,91128534,1599,1599,1585,1585
74371073,1000,1000,1000,1000,91228494,1597,1599,1585,1585
74373572,1000,1000,1000,1000,91328454,1597,1599,1586,1584
74376071,1000,1000,1000,1000,91428414,1598,1599,1587,1586
74378570,1000,1000,1000,1000,91528374,1599,1599,1588,1585
74381069,1000,1000,1000,1000,91628334,1599,1598,1586,1585
74383568,1000,1000,1000,1000,91728294,1599,1598,1586,1586
74386067,1000,1000,1000,1000,91828254,1597,1597,1583,1584
74388566,1000,1000,1000,1000,91928214,1597,1597,1583,1583
74391065,1000,1000,1000,1000,92028174,1595,1595,1580,1580
74393564,1000,1000,1000,1000,92128967,1594,1594,1578,1578
74396063,1000,1000,1000,1000,92228927,1592,1592,1576,1576
74398562,1000,1000,1000,1000,92328887,1590,1591,1574,1574
74401061,1000,1000,1000,1000,92428847,1589,1590,1573,1572
74403560,1000,1000,1000,1000,92528807,1589,1589,1572,1572
74406059,1000,1000,1000,1000,92628767,1588,1588,1571,1571
74408558,1000,1000,1000,1000,92728727,1586,1586,1569,1569
74411057,1000,1000,1000,1000,92828687,1586,1586,1569,1569
74413556,1000,1000,1000,1000,92928647,1585,1585,1568,1568
74416055,1000,1000,1000,1000,93028607,1585,1585,1568,1567
74418554,1000,1000,1000,1000,93128567,1585,1585,1568,1568
74421053,1000,1000,1000,1000,93228527,1585,1585,1568,1569
74423552,1000,1000,1000,1000,93328487,1585,1586,1569,1569
74426051,1000,1000,1000,1000,93428447,1586,1586,1568,1569
74428550,1000,1000,1000,1000,93528407,1585,1585,1568,1568
74431049,1000,1000,1000,1000,93628367,1586,1586,1569,1569
74433548,1000,1000,1000,1000,93728327,1587,1587,1570,1570
74436047,1000,1000,1000,1000,93828287,1586,1586,1570,1569
74438546,1000,1000,1000,1000,93928247,1588,1587,1571,1571
74441045,1000,1000,1000,1000,94028207,1588,1587,1571,1571
74443544,1000,1000,1000,1000,94128167,1587,1587,1570,1570
74446043,1000,1000,1000,1000,94228960,1588,1588,1571,1571
74448542,1000,1000,1000,1000,94328920,1589,1588,1572,1571
74451041,1000,1000,1000,1000,94428880,1591,1586,1578,1566
74453540,1000,1000,1000,1000,94528840,1592,1584,1575,1568
74456039,1000,1000,1000,1000,94628800,1584,1576,1576,1575
74458538,1000,1000,1000,1000,94728760,1568,1564,1583,1586
74461037,1000,1000,1000,1000,94828720,1552,1554,1589,1593
74463536,1000,1000,1000,1000,94928680,1543,1550,1591,1595
74466035,1000,1000,1000,1000,95028640,1539,1548,1589,1590
74468534,1000,1000,1000,1000,95128600,1541,1550,1587,1584
74471033,1000,1000,1000,1000,95228560,1546,1551,1582,1577
74473532,1000,1000,1000,1000,95328520,1552,1554,1576,1571
74476031,1000,1000,1000,1000,95428480,1558,1557,1569,1566
74478530,1000,1000,1000,1000,95528440,1565,1562,1560,1558
74481029,1000,1000,1000,1000,95628400,1573,1569,1548,1548
74483528,1000,1000,1000,1000,95728360,1581,1578,1538,1540
74486027,1000,1000,1000,1000,95828320,1586,1585,1530,1532
74488526,1000,1000,1000,1000,95928280,1590,1591,1527,1529
74491025,1000,1000,1000,1000,96028240,1591,1594,1527,1528
74493524,1000,1000,1000,1000,96128200,1592,1595,1530,1529
74496023,1000,1000,1000,1000,96228160,1591,1594,1533,1532
74498522,1000,1000,1000,1000,96328953,1589,1590,1536,1535
74501021,1000,1000,1000,1000,96428913,1586,1587,1539,1538
74503520,1000,1000,1000,1000,96528873,1585,1585,1542,1542
74506019,1000,1000,1000,1000,96628833,1583,1583,1543,1545
74508518,1000,1000,1000,1000,96728793,1582,1582,1545,1546
74511017,1000,1000,1000,1000,96828753,1581,1581,1546,1548
74513516,1000,1000,1000,1000,96928713,1581,1580,1548,1550
74516015,1000,1000,1000,1000,97028673,1580,1579,1548,1551
74518514,1000,1000,1000,1000,97128633,1576,1575,1553,1556
74521013,1000,1000,1000,1000,97228593,1571,1570,1560,1563
74523512,1000,1000,1000,1000,97328553,1565,1563,1566,1569
74526011,1000,1000,1000,1000,97428513,1560,1559,1572,1575
74528510,1000,1000,1000,1000,97528473,1556,1556,1576,1578
74531009,1000,1000,1000,1000,97628433,1553,1552,1579,1580
74533508,1000,1000,1000,1000,97728393,1551,1550,1582,1582
74536007,1000,1000,1000,1000,97828353,1549,1549,1584,1584
74538506,1000,1000,1000,1000,97928313,1547,1547,1585,1585
74541005,1000,1000,1000,1000,98028273,1548,1548,1588,1587
74543504,1000,1000,1000,1000,98128233,1548,1548,1588,1588
74546003,1000,1000,1000,1000,98228193,1550,1550,1589,1588
74548502,1000,1000,1000,1000,98328986,1552,1552,1589,1589
74551001,1000,1000,1000,1000,98428946,1554,1554,1587,1588
74553500,1000,1000,1000,1000,98528906,1556,1557,1586,1587
74555999,1000,1000,1000,1000,98628866,1559,1560,1586,1585
74558498,1000,1000,1000,1000,98728826,1562,1563,1584,1583
74560997,1000,1000,1000,1000,98828786,1565,1566,1583,1582
74563496,1000,1000,1000,1000,98928746,1568,1569,1582,1580
74565995,1000,1000,1000,1000,99028706,1571,1571,1580,1579
74568494,1000,1000,1000,1000,99128666,1575,1574,1580,1579
74570993,1000,1000,1000,1000,99228626,1577,1575,1579,1578
74573492,1000,1000,1000,1000,99328586,1578,1577,1577,1577
74575991,1000,1000,1000,1000,99428546,1579,1579,1576,1576
74578490,1000,1000,1000,1000,99528506,1580,1579,1575,1575
74580989,1000,1000,1000,1000,99628466,1581,1580,1575,1576
74583488,1000,1000,1000,1000,99728426,1581,1581,1575,1575
74585987,1000,1000,1000,1000,99828386,1580,1582,1574,1574
74588486,1000,1000,1000,1000,99928346,1581,1582,1575,1574
74590985,1000,1000,1000,1000,100028306,1582,1583,1577,1576
74593484,1000,1000,1000,1000,100128266,1583,1583,1577,1577
74595983,1000,1000,1000,1000,100228226,1584,1583,1578,1578
74598482,1000,1000,1000,1000,100328186,1583,1582,1577,1578
74600981,1000,1000,1000,1000,100428979,1582,1581,1577,1578
74603480,1000,1000,1000,1000,100528939,1581,1582,1577,1578
74605979,1000,1000,1000,1000,100628899,1581,1581,1578,1578
74608478,1000,1000,1000,1000,100728859,1580,1581,1578,1578
74610977,1000,1000,1000,1000,100828819,1580,1581,1578,1578
74613476,1000,1000,1000,1000,100928779,1581,1581,1580,1579
74615975,1000,1000,1000,1000,101028739,1581,1581,1581,1580
74618474,1000,1000,1000,1000,101128699,1581,1581,1580,1580
74620973,1000,1000,1000,1000,101228659,1580,1580,1580,1580
74623472,1000,1000,1000,1000,101328619,1581,1581,1581,1581
74625971,1000,1000,1000,1000,101428579,1580,1580,1579,1580
74628470,1000,1000,1000,1000,101528539,1579,1580,1579,1580
74630969,1000,1000,1000,1000,101628499,1580,1580,1580,1580
74633468,1000,1000,1000,1000,101728459,1579,1580,1580,1580
74635967,1000,1000,1000,1000,101828419,1580,1580,1581,1580
74638466,1000,1000,1000,1000,101928379,1580,1580,1581,1581
74640965,1000,1000,1000,1000,102028339,1580,1581,1581,1581
74643464,1000,1000,1000,1000,102128299,1580,1580,1581,1580
74645963,1000,1000,1000,1000,102228259,1580,1580,1581,1580
74648462,1000,1000,1000,1000,102328219,1581,1581,1581,1581
74650961,1000,1000,1000,1000,102428179,1581,1581,1581,1581
74653460,1000,1000,1000,1000,102528972,1582,1581,1581,1581
74655959,1000,1000,1000,1000,102628932,1581,1581,1580,1581
74658458,1000,1000,1000,1000,102728892,1582,1582,1581,1582
74660957,1000,1000,1000,1000,102828852,1581,1582,1581,1581
74663456,1000,1000,1000,1000,102928812,1582,1582,1582,1581
74665955,1000,1000,1000,1000,103028772,1581,1582,1581,1580
74668454,1000,1000,1000,1000,103128732,1582,1582,1581,1581
74670953,1000,1000,1000,1000,103228692,1582,1582,1581,1581
74673452,1000,1000,1000,1000,103328652,1582,1582,1587,1576
74675951,1000,1000,1000,1000,103428612,1582,1581,1587,1573
74678450,1000,1000,1000,1000,103528572,1581,1580,1579,1573
74680949,1000,1000,1000,1000,103628532,1578,1579,1569,1571
74683448,1000,1000,1000,1000,103728492,1576,1577,1561,1568
74685947,1000,1000,1000,1000,103828452,1574,1577,1557,1564
74688446,1000,1000,1000,1000,103928412,1575,1577,1557,1560
74690945,1000,1000,1000,1000,104028372,1576,1578,1559,1558
74693444,1000,1000,1000,1000,104128332,1576,1577,1558,1556
74695943,1000,1000,1000,1000,104228292,1577,1577,1558,1556
74698442,1000,1000,1000,1000,104328252,1577,1576,1558,1556
74700941,1000,1000,1000,1000,104428212,1577,1576,1557,1556
74703440,1000,1000,1000,1000,104528172,1576,1576,1554,1554
74705939,1000,1000,1000,1000,104628965,1575,1575,1553,1552
74708438,1000,1000,1000,1000,104728925,1575,1576,1550,1551
74710937,1000,1000,1000,1000,104828885,1576,1578,1550,1550
74713436,1000,1000,1000,1000,104928845,1576,1578,1549,1549
74715935,1000,1000,1000,1000,105028805,1578,1580,1547,1547
74718434,1000,1000,1000,1000,105128765,1580,1581,1546,1545
74720933,1000,1000,1000,1000,105228725,1581,1582,1544,1542
74723432,1000,1000,1000,1000,105328685,1584,1585,1543,1542
74725931,1000,1000,1000,1000,105428645,1586,1587,1541,1541
74728430,1000,1000,1000,1000,105528605,1588,1588,1540,1541
74730929,1000,1000,1000,1000,105628565,1590,1589,1539,1541
74733428,1000,1000,1000,1000,105728525,1591,1590,1541,1542
74735927,1000,1000,1000,1000,105828485,1590,1589,1541,1544
74738426,1000,1000,1000,1000,105928445,1588,1587,1543,1546
74740925,1000,1000,1000,1000,106028405,1586,1586,1547,1550
74743424,1000,1000,1000,1000,106128365,1582,1581,1551,1555
74745923,1000,1000,1000,1000,106228325,1578,1576,1558,1561
74748422,1000,1000,1000,1000,106328285,1572,1570,1566,1569
74750921,1000,1000,1000,1000,106428245,1566,1563,1576,1578
74753420,1000,1000,1000,1000,106528205,1557,1554,1585,1586
74755919,1000,1000,1000,1000,106628165,1549,1547,1596,1596
74758418,1000,1000,1000,1000,106728958,1540,1539,1603,1602
74760917,1000,1000,1000,1000,106828918,1535,1535,1609,1608
74763416,1000,1000,1000,1000,106928878,1532,1533,1611,1610
74765915,1000,1000,1000,1000,107028838,1531,1534,1610,1610
74768414,1000,1000,1000,1000,107128798,1535,1537,1606,1607
74770913,1000,1000,1000,1000,107228758,1540,1543,1602,1602
74773412,1000,1000,1000,1000,107328718,1547,1549,1595,1595
74775911,1000,1000,1000,1000,107428678,1849,1848,1530,1521
74778410,1000,1000,1000,1000,107528638,1778,1770,1495,1489
74780909,1000,1000,1000,1000,107628598,1708,1697,1503,1505
74783408,1000,1000,1000,1000,107728558,1638,1629,1524,1529
74785907,1000,1000,1000,1000,107828518,1583,1578,1544,1547
74788406,1000,1000,1000,1000,107928478,1544,1547,1562,1559
74790905,1000,1000,1000,1000,108028438,1509,1518,1584,1578
74793404,1000,1000,1000,1000,108128398,1480,1488,1607,1604
74795903,1000,1000,1000,1000,108228358,1470,1479,1615,1619
74798402,1000,1000,1000,1000,108328318,1484,1486,1607,1614
74800901,1000,1000,1000,1000,108428278,1502,1498,1598,1605
74803400,1000,1000,1000,1000,108528238,1517,1512,1593,1597
74805899,1000,1000,1000,1000,108628198,1530,1526,1591,1591
74808398,1000,1000,1000,1000,108728158,1540,1539,1590,1587
74810897,1000,1000,1000,1000,108828951,1548,1550,1590,1586
74813396,1000,1000,1000,1000,108928911,1557,1560,1590,1588
74815895,1000,1000,1000,1000,109028871,1562,1566,1590,1589
74818394,1000,1000,1000,1000,109128831,1568,1571,1592,1592
74820893,1000,1000,1000,1000,109228791,1572,1573,1592,1593
74823392,1000,1000,1000,1000,109328751,1575,1575,1593,1593
74825891,1000,1000,1000,1000,109428711,1577,1576,1594,1594
74828390,1000,1000,1000,1000,109528671,1578,1576,1594,1593
74830889,1000,1000,1000,1000,109628631,1579,1578,1595,1593
74833388,1000,1000,1000,1000,109728591,1579,1579,1595,1594
74835887,1000,1000,1000,1000,109828551,1579,1579,1595,1594
74838386,1000,1000,1000,1000,109928511,1579,1579,1595,1595
74840885,1000,1000,1000,1000,110028471,1578,1578,1595,1595
74843384,1000,1000,1000,1000,110128431,1577,1578,1594,1595
74845883,1000,1000,1000,1000,110228391,1576,1578,1593,1593
74848382,1000,1000,1000,1000,110328351,1584,1586,1584,1584
74850881,1000,1000,1000,1000,110428311,1595,1597,1570,1571
74853380,1000,1000,1000,1000,110528271,1604,1605,1557,1557
74855879,1000,1000,1000,1000,110628231,1613,1610,1550,1551
74858378,1000,1000,1000,1000,110728191,1615,1611,1550,1550
74860877,1000,1000,1000,1000,110828984,1611,1606,1554,1553
74863376,1000,1000,1000,1000,110928944,1604,1600,1563,1562
74865875,1000,1000,1000,1000,111028904,1592,1591,1573,1571
74868374,1000,1000,1000,1000,111128864,1581,1581,1583,1582
74870873,1000,1000,1000,1000,111228824,1571,1572,1592,1591
74873372,1000,1000,1000,1000,111328784,1564,1566,1598,1598
74875871,1000,1000,1000,1000,111428744,1559,1562,1601,1602
74878370,1000,1000,1000,1000,111528704,1568,1582,1593,1582
74880869,1000,1000,1000,1000,111628664,1590,1599,1566,1562
74883368,1000,1000,1000,1000,111728624,1593,1595,1555,1561
74885867,1000,1000,1000,1000,111828584,1588,1585,1554,1562
74888366,1000,1000,1000,1000,111928544,1584,1578,1557,1563
74890865,1000,1000,1000,1000,112028504,1579,1572,1561,1561
74893364,1000,1000,1000,1000,112128464,1577,1572,1566,1563
74895863,1000,1000,1000,1000,112228424,1572,1570,1568,1563
74898362,1000,1000,1000,1000,112328384,1568,1570,1568,1564
74900861,1000,1000,1000,1000,112428344,1566,1569,1569,1566
74903360,1000,1000,1000,1000,112528304,1564,1567,1568,1567
74905859,1000,1000,1000,1000,112628264,1562,1565,1566,1567
74908358,1000,1000,1000,1000,112728224,1563,1563,1565,1567
74910857,1000,1000,1000,1000,112828184,1562,1561,1565,1566
74913356,1000,1000,1000,1000,112928977,1561,1559,1565,1565
74915855,1000,1000,1000,1000,113028937,1560,1559,1565,1564
74918354,1000,1000,1000,1000,113128897,1559,1558,1565,1564
74920853,1000,1000,1000,1000,113228857,1557,1557,1564,1563
74923352,1000,1000,1000,1000,113328817,1556,1557,1563,1563
74925851,1000,1000,1000,1000,113428777,1556,1557,1564,1563
74928350,1000,1000,1000,1000,113528737,1555,1556,1562,1562
74930849,1000,1000,1000,1000,113628697,1555,1555,1562,1562
74933348,1000,1000,1000,1000,113728657,1554,1554,1561,1562
74935847,1000,1000,1000,1000,113828617,1554,1555,1562,1562
74938346,1000,1000,1000,1000,113928577,1554,1555,1563,1563
74940845,1000,1000,1000,1000,114028537,1554,1555,1563,1562
74943344,1000,1000,1000,1000,114128497,1554,1556,1563,1563
74945843,1000,1000,1000,1000,114228457,1556,1557,1564,1565
74948342,1000,1000,1000,1000,114328417,1557,1555,1561,1565
74950841,1000,1000,1000,1000,114428377,1560,1556,1563,1566
74953340,1000,1000,1000,1000,114528337,1561,1556,1563,1566
74955839,1000,1000,1000,1000,114628297,1561,1556,1563,1563
74958338,1000,1000,1000,1000,114728257,1560,1557,1564,1562
74960837,1000,1000,1000,1000,114828217,1558,1559,1563,1561
74963336,1000,1000,1000,1000,114928177,1558,1558,1560,1562
74965835,1000,1000,1000,1000,115028970,1555,1555,1556,1558
74968334,1000,1000,1000,1000,115128930,1551,1550,1551,1553
74970833,1000,1000,1000,1000,115228890,1545,1544,1545,1546
74973332,1000,1000,1000,1000,115328850,1538,1539,1539,1540
74975831,1000,1000,1000,1000,115428810,1531,1531,1531,1532
74978330,1000,1000,1000,1000,115528770,1524,1524,1524,1524
74980829,1000,1000,1000,1000,115628730,1521,1521,1521,1521
74983328,1000,1000,1000,1000,115728690,1519,1520,1520,1520
74985827,1000,1000,1000,1000,115828650,1520,1520,1520,1520
74988326,1000,1000,1000,1000,115928610,1523,1524,1523,1524
74990825,1000,1000,1000,1000,116028570,1526,1526,1526,1527
74993324,1000,1000,1000,1000,116128530,1530,1531,1530,1531
74995823,1000,1000,1000,1000,116228490,1535,1535,1535,1535
74998322,1000,1000,1000,1000,116328450,1538,1539,1539,1539
75000821,1000,1000,1000,1000,116428410,1541,1542,1542,1541
75003320,1000,1000,1000,1000,116528370,1543,1543,1543,1543
75005819,1000,1000,1000,1000,116628330,1544,1545,1544,1544
75008318,1000,1000,1000,1000,116728290,1545,1546,1545,1545
75010817,1000,1000,1000,1000,116828250,1547,1547,1547,1546
75013316,1000,1000,1000,1000,116928210,1546,1546,1546,1546
75015815,1000,1000,1000,1000,117028170,1546,1546,1546,1545
75018314,1000,1000,1000,1000,117128963,1546,1546,1546,1546
75020813,1000,1000,1000,1000,117228923,1546,1546,1546,1546
75023312,1000,1000,1000,1000,117328883,1545,1545,1545,1545
75025811,1000,1000,1000,1000,117428843,1544,1544,1545,1544
75028310,1000,1000,1000,1000,117528803,1544,1544,1544,1544
75030809,1000,1000,1000,1000,117628763,1545,1545,1545,1545
75033308,1000,1000,1000,1000,117728723,1543,1544,1544,1544
75035807,1000,1000,1000,1000,117828683,1544,1544,1544,1544
75038306,1000,1000,1000,1000,117928643,1545,1544,1545,1545
75040805,1000,1000,1000,1000,118028603,1545,1545,1545,1545
75043304,1000,1000,1000,1000,118128563,1545,1545,1545,1545
75045803,1000,1000,1000,1000,118228523,1545,1545,1545,1545
75048302,1000,1000,1000,1000,118328483,1544,1544,1544,1545
75050801,1000,1000,1000,1000,118428443,1544,1544,1544,1544
75053300,1000,1000,1000,1000,118528403,1545,1545,1545,1545
75055799,1000,1000,1000,1000,118628363,1544,1544,1545,1544
75058298,1000,1000,1000,1000,118728323,1544,1544,1544,1544
75060797,1000,1000,1000,1000,118828283,1544,1544,1544,1544
75063296,1000,1000,1000,1000,118928243,1544,1545,1545,1545
75065795,1000,1000,1000,1000,119028203,1545,1545,1545,1545
75068294,1000,1000,1000,1000,119128163,1544,1544,1544,1544
75070793,1000,1000,1000,1000,119228956,1545,1544,1545,1545
75073292,1000,1000,1000,1000,119328916,1545,1545,1545,1545
75075791,1000,1000,1000,1000,119428876,1544,1544,1544,1544
75078290,1000,1000,1000,1000,119528836,1544,1544,1545,1545
75080789,1000,1000,1000,1000,119628796,1544,1544,1544,1544
75083288,1000,1000,1000,1000,119728756,1545,1544,1544,1545
75085787,1000,1000,1000,1000,119828716,1543,1543,1543,1543
75088286,1000,1000,1000,1000,119928676,1545,1544,1544,1545
75090785,1000,1000,1000,1000,120028636,1544,1545,1545,1544
75093284,1000,1000,1000,1000,120128596,1544,1544,1544,1544
75095783,1000,1000,1000,1000,120228556,1544,1544,1544,1544
75098282,1000,1000,1000,1000,120328516,1545,1545,1545,1545
75100781,1000,1000,1000,1000,120428476,1544,1544,1544,1544
75103280,1000,1000,1000,1000,120528436,1544,1544,1544,1545
75105779,1000,1000,1000,1000,120628396,1544,1544,1544,1544
75108278,1000,1000,1000,1000,120728356,1544,1543,1543,1544
75110777,1000,1000,1000,1000,120828316,1544,1543,1544,1543
75113276,1000,1000,1000,1000,120928276,1545,1544,1544,1545
75115775,1000,1000,1000,1000,121028236,1544,1544,1544,1544
75118274,1000,1000,1000,1000,121128196,1543,1543,1543,1544
75120773,1000,1000,1000,1000,121228156,1544,1544,1544,1544
75123272,1000,1000,1000,1000,121328949,1544,1545,1544,1545
75125771,1000,1000,1000,1000,121428909,1544,1545,1545,1544
75128270,1000,1000,1000,1000,121528869,1544,1544,1544,1545
75130769,1000,1000,1000,1000,121628829,1544,1544,1544,1544
75133268,1000,1000,1000,1000,121728789,1545,1544,1544,1545
75135767,1000,1000,1000,1000,121828749,1544,1544,1544,1544
75138266,1000,1000,1000,1000,121928709,1543,1543,1543,1543
75140765,1000,1000,1000,1000,122028669,1543,1544,1544,1543
75143264,1000,1000,1000,1000,122128629,1543,1543,1543,1544
75145763,1000,1000,1000,1000,122228589,1544,1544,1545,1544
75148262,1000,1000,1000,1000,122328549,1544,1543,1543,1544
75150761,1000,1000,1000,1000,122428509,1545,1545,1544,1545
75153260,1000,1000,1000,1000,122528469,1545,1545,1545,1545
75155759,1000,1000,1000,1000,122628429,1544,1545,1545,1545
75158258,1000,1000,1000,1000,122728389,1544,1544,1544,1544
75160757,1000,1000,1000,1000,122828349,1545,1545,1545,1544
75163256,1000,1000,1000,1000,122928309,1546,1545,1545,1546
75165755,1000,1000,1000,1000,123028269,1545,1545,1545,1545
75168254,1000,1000,1000,1000,123128229,1546,1545,1545,1545
75170753,1000,1000,1000,1000,123228189,1545,1544,1545,1544
75173252,1000,1000,1000,1000,123328982,1544,1545,1544,1545
75175751,1000,1000,1000,1000,123428942,1544,1545,1545,1545
75178250,1000,1000,1000,1000,123528902,1545,1545,1544,1545
75180749,1000,1000,1000,1000,123628862,1544,1544,1544,1544
75183248,1000,1000,1000,1000,123728822,1545,1544,1544,1544
75185747,1000,1000,1000,1000,123828782,1544,1544,1545,1544
75188246,1000,1000,1000,1000,123928742,1545,1544,1545,1545
75190745,1000,1000,1000,1000,124028702,1544,1545,1545,1544
75193244,1000,1000,1000,1000,124128662,1544,1544,1544,1545
75195743,1000,1000,1000,1000,124228622,1545,1545,1545,1544
75198242,1000,1000,1000,1000,124328582,1544,1544,1544,1544
75200741,1000,1000,1000,1000,124428542,1544,1544,1544,1544
75203240,1000,1000,1000,1000,124528502,1544,1544,1543,1544
75205739,1000,1000,1000,1000,124628462,1544,1544,1544,1544
75208238,1000,1000,1000,1000,124728422,1544,1544,1544,1544
75210737,1000,1000,1000,1000,124828382,1544,1544,1544,1544
75213236,1000,1000,1000,1000,124928342,1544,1543,1544,1544
75215735,1000,1000,1000,1000,125028302,1544,1544,1544,1544
75218234,1000,1000,1000,1000,125128262,1544,1544,1544,1545
75220733,1000,1000,1000,1000,125228222,1544,1545,1545,1544
75223232,1000,1000,1000,1000,125328182,1546,1546,1545,1546
75225731,1000,1000,1000,1000,125428975,1398,1398,1401,1398
75228230,1000,1000,1000,1000,125528935,1267,1266,1272,1267
75230729,1000,1000,1000,1000,125628895,1219,1219,1226,1221
75233228,1000,1000,1000,1000,125728855,1199,1198,1207,1203
75235727,1000,1000,1000,1000,125828815,1160,1160,1171,1166
75238226,1000,1000,1000,1000,125928775,1150,1150,1161,1157
75240725,1000,1000,1000,1000,126028735,1150,1150,1164,1158
75243224,1000,1000,1000,1000,126128695,1191,1150,1159,1205
75245723,1000,1000,1000,1000,126228655,1181,1150,1165,1192
75248222,1000,1000,1000,1000,126328615,1177,1150,1168,1187
75250721,1000,1000,1000,1000,126428575,1177,1150,1169,1188
75253220,1000,1000,1000,1000,126528535,1180,1150,1170,1192
75255719,1000,1000,1000,1000,126628495,1182,1150,1172,1195
75258218,1000,1000,1000,1000,126728455,1185,1150,1173,1199
75260717,1000,1000,1000,1000,126828415,1188,1150,1175,1202
75263216,1000,1000,1000,1000,126928375,1170,1150,1175,1186
75265715,1000,1000,1000,1000,127028335,1171,1150,1176,1189
75268214,1000,1000,1000,1000,127128295,1172,1150,1177,1192
75270713,1000,1000,1000,1000,127228255,1173,1150,1178,1193
75273212,1000,1000,1000,1000,127328215,1173,1150,1179,1195
75275711,1000,1000,1000,1000,127428175,1000,1000,1000,1000
75278210,1000,1000,1000,1000,127528968,1000,1000,1000,1000
75280709,1000,1000,1000,1000,127628928,1000,1000,1000,1000
75283208,1000,1000,1000,1000,127728888,1000,1000,1000,1000
75285707,1000,1000,1000,1000,127828848,1000,1000,1000,1000
75288206,1000,1000,1000,1000,127928808,1000,1000,1000,1000
75290705,1000,1000,1000,1000,128028768,1000,1000,1000,1000
75293204,1000,1000,1000,1000,128128728,1000,1000,1000,1000
75295703,1000,1000,1000,1000,128228688,1000,1000,1000,1000
75298202,1000,1000,1000,1000,128328648,1000,1000,1000,1000
75300701,1000,1000,1000,1000,128428608,1000,1000,1000,1000
75303200,1000,1000,1000,1000,128528568,1000,1000,1000,1000
75305699,1000,1000,1000,1000,128628528,1000,1000,1000,1000
75308198,1000,1000,1000,1000,128728488,1000,1000,1000,1000
75310697,1000,1000,1000,1000,128828448,1000,1000,1000,1000
75313196,1000,1000,1000,1000,128928408,1000,1000,1000,1000
75315695,1000,1000,1000,1000,129028368,1000,1000,1000,1000
75318194,1000,1000,1000,1000,129128328,1000,1000,1000,1000
75320693,1000,1000,1000,1000,129228288,1000,1000,1000,1000
75323192,1000,1000,1000,1000,129328248,1000,1000,1000,1000
75325691,1000,1000,1000,1000,129428208,1000,1000,1000,1000
75328190,1000,1000,1000,1000,129528168,1000,1000,1000,1000
75330689,1000,1000,1000,1000,129628961,1000,1000,1000,1000
75333188,1000,1000,1000,1000,129728921,1000,1000,1000,1000
75335687,1000,1000,1000,1000,129828881,1000,1000,1000,1000
75338186,1000,1000,1000,1000,129928841,1000,1000,1000,1000
75340685,1000,1000,1000,1000,130028801,1000,1000,1000,1000
75343184,1000,1000,1000,1000,130128761,1000,1000,1000,1000
75345683,1000,1000,1000,1000,130228721,1000,1000,1000,1000
75348182,1000,1000,1000,1000,130328681,1000,1000,1000,1000
75350681,1000,1000,1000,1000,130428641,1000,1000,1000,1000
75353180,1000,1000,1000,1000,130528601,1000,1000,1000,1000
75355679,1000,1000,1000,1000,130628561,1000,1000,1000,1000
75358178,1000,1000,1000,1000,130728521,1000,1000,1000,1000
75360677,1000,1000,1000,1000,130828481,1000,1000,1000,1000
75363176,1000,1000,1000,1000,130928441,1000,1000,1000,1000
75365675,1000,1000,1000,1000,131028401,1000,1000,1000,1000
75368174,1000,1000,1000,1000,131128361,1000,1000,1000,1000
75370673,1000,1000,1000,1000,131228321,1000,1000,1000,1000
75373172,1000,1000,1000,1000,131328281,1000,1000,1000,1000
75375671,1000,1000,1000,1000,131428241,1000,1000,1000,1000
75378170,1000,1000,1000,1000,131528201,1000,1000,1000,1000
75380669,1000,1000,1000,1000,131628161,1000,1000,1000,1000
75383168,1000,1000,1000,1000,131728954,1000,1000,1000,1000
75385667,1000,1000,1000,1000,131828914,1000,1000,1000,1000
75388166,1000,1000,1000,1000,131928874,1000,1000,1000,1000
75390665,1000,1000,1000,1000,132028834,1000,1000,1000,1000
75393164,1000,1000,1000,1000,132128794,1000,1000,1000,1000
75395663,1000,1000,1000,1000,132228754,1000,1000,1000,1000
75398162,1000,1000,1000,1000,132328714,1000,1000,1000,1000
75400661,1000,1000,1000,1000,132428674,1000,1000,1000,1000
75403160,1000,1000,1000,1000,132528634,1000,1000,1000,1000
75405659,1000,1000,1000,1000,132628594,1000,1000,1000,1000
75408158,1000,1000,1000,1000,132728554,1000,1000,1000,1000
75410657,1000,1000,1000,1000,132828514,1000,1000,1000,1000
75413156,1000,1000,1000,1000,132928474,1000,1000,1000,1000
75415655,1000,1000,1000,1000,133028434,1000,1000,1000,1000
75418154,1000,1000,1000,1000,133128394,1000,1000,1000,1000
75421486,1000,1000,1000,1000,133228354,1000,1000,1000,1000
75423985,1000,1000,1000,1000,133328314,1000,1000,1000,1000
75426484,1000,1000,1000,1000,133428274,1000,1000,1000,1000
75428983,1000,1000,1000,1000,133528234,1000,1000,1000,1000
75431482,1000,1000,1000,1000,133628194,1000,1000,1000,1000
75433981,1000,1000,1000,1000,133728154,1000,1000,1000,1000
75436480,1000,1000,1000,1000,133828947,1000,1000,1000,1000
75438979,1000,1000,1000,1000,133928907,1000,1000,1000,1000
75441478,1000,1000,1000,1000,134028867,1000,1000,1000,1000
75443977,1000,1000,1000,1000,134128827,1000,1000,1000,1000
75446476,1000,1000,1000,1000,134228787,1000,1000,1000,1000
75448975,1000,1000,1000,1000,134328747,1000,1000,1000,1000
75451474,1000,1000,1000,1000,134428707,1000,1000,1000,1000
75453973,1000,1000,1000,1000,134528667,1000,1000,1000,1000
75456472,1000,1000,1000,1000,134628627,1000,1000,1000,1000
75458971,1000,1000,1000,1000,134728587,1000,1000,1000,1000
75461470,1000,1000,1000,1000,134828547,1000,1000,1000,1000
75463969,1000,1000,1000,1000,134928507,1000,1000,1000,1000
75466468,1000,1000,1000,1000,135028467,1000,1000,1000,1000
75468967,1000,1000,1000,1000,135128427,1000,1000,1000,1000
75471466,1000,1000,1000,1000,135228387,1000,1000,1000,1000
75473965,1000,1000,1000,1000,135328347,1000,1000,1000,1000
75476464,1000,1000,1000,1000,135428307,1000,1000,1000,1000
75478963,1000,1000,1000,1000,135528267,1000,1000,1000,1000
75481462,1000,1000,1000,1000,135628227,1000,1000,1000,1000
75483961,1000,1000,1000,1000,135728187,1000,1000,1000,1000
75486460,1000,1000,1000,1000,135828980,1000,1000,1000,1000
75488959,1000,1000,1000,1000,135928940,1000,1000,1000,1000
75491458,1000,1000,1000,1000,136028900,1000,1000,1000,1000
75493957,1000,1000,1000,1000,136128860,1000,1000,1000,1000
75496456,1000,1000,1000,1000,136228820,1000,1000,1000,1000
75498955,1000,1000,1000,1000,136328780,1000,1000,1000,1000
75501454,1000,1000,1000,1000,136428740,1000,1000,1000,1000
75503953,1000,1000,1000,1000,136528700,1000,1000,1000,1000
75506452,1000,1000,1000,1000,136628660,1000,1000,1000,1000
75508951,1000,1000,1000,1000,136728620,1000,1000,1000,1000
75511450,1000,1000,1000,1000,136828580,1000,1000,1000,1000
75513949,1000,1000,1000,1000,136928540,1000,1000,1000,1000
75516448,1000,1000,1000,1000,137028500,1000,1000,1000,1000
75518947,1000,1000,1000,1000,137128460,1000,1000,1000,1000
75521446,1000,1000,1000,1000,137228420,1000,1000,1000,1000
75523945,1000,1000,1000,1000,137328380,1000,1000,1000,1000
75526444,1000,1000,1000,1000,137428340,1000,1000,1000,1000
75528943,1000,1000,1000,1000,137528300,1000,1000,1000,1000
75531442,1000,1000,1000,1000,137628260,1000,1000,1000,1000
75533941,1000,1000,1000,1000,137728220,1000,1000,1000,1000
75536440,1000,1000,1000,1000,137828180,1000,1000,1000,1000
75538939,1000,1000,1000,1000,137928973,1000,1000,1000,1000
75541438,1000,1000,1000,1000,138028933,1000,1000,1000,1000
75543937,1000,1000,1000,1000,138128893,1000,1000,1000,1000
75546436,1000,1000,1000,1000,138228853,1000,1000,1000,1000
75548935,1000,1000,1000,1000,138328813,1000,1000,1000,1000
75551434,1000,1000,1000,1000,138428773,1000,1000,1000,1000
75553933,1000,1000,1000,1000,138528733,1000,1000,1000,1000
75556432,1000,1000,1000,1000,138628693,1000,1000,1000,1000
75558931,1000,1000,1000,1000,138728653,1000,1000,1000,1000
75561430,1000,1000,1000,1000,138828613,1000,1000,1000,1000
75563929,1000,1000,1000,1000,138928573,1000,1000,1000,1000
75566428,1000,1000,1000,1000,139028533,1000,1000,1000,1000
75568927,1000,1000,1000,1000,139128493,1000,1000,1000,1000
75571426,1000,1000,1000,1000,,,,,
75573925,1000,1000,1000,1000,,,,,
75576424,1000,1000,1000,1000,,,,,
75578923,1000,1000,1000,1000,,,,,
75581422,1000,1000,1000,1000,,,,,
75583921,1000,1000,1000,1000,,,,,
75586420,1000,1000,1000,1000,,,,,
75588919,1000,1000,1000,1000,,,,,
75591418,1000,1000,1000,1000,,,,,
75593917,1000,1000,1000,1000,,,,,
75596416,1000,1000,1000,1000,,,,,
75598915,1000,1000,1000,1000,,,,,
75601414,1000,1000,1000,1000,,,,,
75603913,1000,1000,1000,1000,,,,,
75606412,1000,1000,1000,1000,,,,,
75608911,1000,1000,1000,1000,,,,,
75611410,1000,1000,1000,1000,,,,,
75613909,1000,1000,1000,1000,,,,,
75616408,1000,1000,1000,1000,,,,,
75618907,1000,1000,1000,1000,,,,,
75621406,1000,1000,1000,1000,,,,,
75623905,1000,1000,1000,1000,,,,,
75626404,1000,1000,1000,1000,,,,,
75628903,1000,1000,1000,1000,,,,,
75631402,1000,1000,1000,1000,,,,,
75633901,1000,1000,1000,1000,,,,,
75636400,1000,1000,1000,1000,,,,,
75638899,1000,1000,1000,1000,,,,,
75641398,1000,1000,1000,1000,,,,,
75643897,1000,1000,1000,1000,,,,,
75646396,1000,1000,1000,1000,,,,,
75648895,1000,1000,1000,1000,,,,,
75651394,1000,1000,1000,1000,,,,,
75653893,1000,1000,1000,1000,,,,,
75656392,1000,1000,1000,1000,,,,,
75658891,1000,1000,1000,1000,,,,,
75661390,1000,1000,1000,1000,,,,,
75663889,1000,1000,1000,1000,,,,,
75666388,1000,1000,1000,1000,,,,,
75668887,1000,1000,1000,1000,,,,,
75671386,1000,1000,1000,1000,,,,,
75673885,1000,1000,1000,1000,,,,,
75676384,1000,1000,1000,1000,,,,,
75678883,1000,1000,1000,1000,,,,,
75681382,1000,1000,1000,1000,,,,,
75683881,1000,1000,1000,1000,,,,,
75686380,1000,1000,1000,1000,,,,,
75688879,1000,1000,1000,1000,,,,,
75691378,1000,1000,1000,1000,,,,,
75693877,1000,1000,1000,1000,,,,,
75696376,1000,1000,1000,1000,,,,,
75698875,1000,1000,1000,1000,,,,,
75701374,1000,1000,1000,1000,,,,,
75703873,1000,1000,1000,1000,,,,,
75706372,1000,1000,1000,1000,,,,,
75708871,1000,1000,1000,1000,,,,,
75711370,1000,1000,1000,1000,,,,,
75713869,1000,1000,1000,1000,,,,,
75716368,1000,1000,1000,1000,,,,,
75718867,1000,1000,1000,1000,,,,,
75721366,1000,1000,1000,1000,,,,,
75723865,1000,1000,1000,1000,,,,,
75726364,1000,1000,1000,1000,,,,,
75728863,1000,1000,1000,1000,,,,,
75731362,1000,1000,1000,1000,,,,,
75733861,1000,1000,1000,1000,,,,,
75736360,1000,1000,1000,1000,,,,,
75738859,1000,1000,1000,1000,,,,,
75741358,1000,1000,1000,1000,,,,,
75743857,1000,1000,1000,1000,,,,,
75746356,1000,1000,1000,1000,,,,,
75748855,1000,1000,1000,1000,,,,,
75751354,1000,1000,1000,1000,,,,,
75753853,1000,1000,1000,1000,,,,,
75756352,1000,1000,1000,1000,,,,,
75758851,1000,1000,1000,1000,,,,,
75761350,1000,1000,1000,1000,,,,,
75763849,1000,1000,1000,1000,,,,,
75766348,1000,1000,1000,1000,,,,,
75768847,1000,1000,1000,1000,,,,,
75771346,1000,1000,1000,1000,,,,,
75773845,1000,1000,1000,1000,,,,,
75776344,1000,1000,1000,1000,,,,,
75778843,1000,1000,1000,1000,,,,,
75781342,1000,1000,1000,1000,,,,,
75783841,1000,1000,1000,1000,,,,,
75786340,1000,1000,1000,1000,,,,,
75788839,1000,1000,1000,1000,,,,,
75791338,1000,1000,1000,1000,,,,,
75793837,1000,1000,1000,1000,,,,,
75796336,1000,1000,1000,1000,,,,,
75798835,1000,1000,1000,1000,,,,,
75801334,1000,1000,1000,1000,,,,,
75803833,1000,1000,1000,1000,,,,,
75806332,1000,1000,1000,1000,,,,,
75808831,1000,1000,1000,1000,,,,,
75811330,1000,1000,1000,1000,,,,,
75813829,1000,1000,1000,1000,,,,,
75816328,1000,1000,1000,1000,,,,,
75818827,1000,1000,1000,1000,,,,,
75821326,1000,1000,1000,1000,,,,,
75823825,1000,1000,1000,1000,,,,,
75826324,1000,1000,1000,1000,,,,,
75828823,1000,1000,1000,1000,,,,,
75831322,1000,1000,1000,1000,,,,,
75833821,1000,1000,1000,1000,,,,,
75836320,1000,1000,1000,1000,,,,,
75838819,1000,1000,1000,1000,,,,,
75841318,1000,1000,1000,1000,,,,,
75843817,1000,1000,1000,1000,,,,,
75846316,1000,1000,1000,1000,,,,,
75848815,1000,1000,1000,1000,,,,,
75851314,1000,1000,1000,1000,,,,,
75853813,1000,1000,1000,1000,,,,,
75856312,1000,1000,1000,1000,,,,,
75858811,1000,1000,1000,1000,,,,,
75861310,1000,1000,1000,1000,,,,,
75863809,1000,1000,1000,1000,,,,,
75866308,1000,1000,1000,1000,,,,,
75868807,1000,1000,1000,1000,,,,,
75871306,1000,1000,1000,1000,,,,,
75873805,1000,1000,1000,1000,,,,,
75876304,1000,1000,1000,1000,,,,,
75878803,1000,1000,1000,1000,,,,,
75881302,1000,1000,1000,1000,,,,,
75883801,1000,1000,1000,1000,,,,,
75886300,1000,1000,1000,1000,,,,,
75888799,1000,1000,1000,1000,,,,,
75891298,1000,1000,1000,1000,,,,,
75893797,1000,1000,1000,1000,,,,,
75896296,1000,1000,1000,1000,,,,,
75898795,1000,1000,1000,1000,,,,,
75901294,1000,1000,1000,1000,,,,,
75903793,1000,1000,1000,1000,,,,,
75906292,1000,1000,1000,1000,,,,,
75908791,1000,1000,1000,1000,,,,,
75911290,1000,1000,1000,1000,,,,,
75913789,1000,1000,1000,1000,,,,,
75916288,1000,1000,1000,1000,,,,,
75918787,1000,1000,1000,1000,,,,,
75921286,1000,1000,1000,1000,,,,,
75923785,1000,1000,1000,1000,,,,,
75926284,1000,1000,1000,1000,,,,,
75928783,1000,1000,1000,1000,,,,,
75931282,1000,1000,1000,1000,,,,,
75933781,1000,1000,1000,1000,,,,,
75936280,1000,1000,1000,1000,,,,,
75938779,1000,1000,1000,1000,,,,,
75941278,1000,1000,1000,1000,,,,,
75943777,1000,1000,1000,1000,,,,,
75946276,1000,1000,1000,1000,,,,,
75948775,1001,1001,1001,1001,,,,,
75951274,1002,1002,1002,1002,,,,,
75953773,1003,1003,1003,1003,,,,,
75956272,1003,1003,1003,1003,,,,,
75958771,1004,1004,1004,1004,,,,,
75961270,1005,1005,1005,1005,,,,,
75963769,1006,1006,1006,1006,,,,,
75966268,1006,1006,1006,1006,,,,,
75968767,1007,1007,1007,1007,,,,,
75971266,1008,1008,1008,1008,,,,,
75973765,1009,1009,1009,1009,,,,,
75976264,1009,1009,1009,1009,,,,,
75978763,1010,1010,1010,1010,,,,,
75981262,1011,1011,1011,1011,,,,,
75983761,1012,1012,1012,1012,,,,,
75986260,1012,1012,1012,1012,,,,,
75988759,1013,1013,1013,1013,,,,,
75991258,1014,1014,1014,1014,,,,,
75993757,1015,1015,1015,1015,,,,,
75996256,1015,1015,1015,1015,,,,,
75998755,1016,1016,1016,1016,,,,,
76001254,1017,1017,1017,1017,,,,,
76003753,1018,1018,1018,1018,,,,,
76006252,1018,1018,1018,1018,,,,,
76008751,1019,1019,1019,1019,,,,,
76011250,1020,1020,1020,1020,,,,,
76013749,1021,1021,1021,1021,,,,,
76016248,1021,1021,1021,1021,,,,,
76018747,1022,1022,1022,1022,,,,,
76021246,1023,1023,1023,1023,,,,,
76023745,1024,1024,1024,1024,,,,,
76026244,1024,1024,1024,1024,,,,,
76028743,1025,1025,1025,1025,,,,,
76031242,1026,1026,1026,1026,,,,,
76033741,1027,1027,1027,1027,,,,,
76036240,1027,1027,1027,1027,,,,,
76038739,1028,1028,1028,1028,,,,,
76041238,1029,1029,1029,1029,,,,,
76043737,1030,1030,1030,1030,,,,,
76046236,1030,1030,1030,1030,,,,,
76048735,1031,1031,1031,1031,,,,,
76051234,1032,1032,1032,1032,,,,,
76053733,1033,1033,1033,1033,,,,,
76056232,1033,1033,1033,1033,,,,,
76058731,1034,1034,1034,1034,,,,,
76061230,1035,1035,1035,1035,,,,,
76063729,1036,1036,1036,1036,,,,,
76066228,1036,1036,1036,1036,,,,,
76068727,1037,1037,1037,1037,,,,,
76071226,1038,1038,1038,1038,,,,,
76073725,1039,1039,1039,1039,,,,,
76076224,1039,1039,1039,1039,,,,,
76078723,1040,1040,1040,1040,,,,,
76081222,1041,1041,1041,1041,,,,,
76083721,1042,1042,1042,1042,,,,,
76086220,1042,1042,1042,1042,,,,,
76088719,1043,1043,1043,1043,,,,,
76091218,1044,1044,1044,1044,,,,,
76093717,1045,1045,1045,1045,,,,,
76096216,1045,1045,1045,1045,,,,,
76098715,1046,1046,1046,1046,,,,,
76101214,1047,1047,1047,1047,,,,,
76103713,1048,1048,1048,1048,,,,,
76106212,1048,1048,1048,1048,,,,,
76108711,1049,1049,1049,1049,,,,,
76111210,1050,1050,1050,1050,,,,,
76113709,1051,1051,1051,1051,,,,,
76116208,1051,1051,1051,1051,,,,,
76118707,1052,1052,1052,1052,,,,,
76121206,1053,1053,1053,1053,,,,,
76123705,1054,1054,1054,1054,,,,,
76126204,1054,1054,1054,1054,,,,,
76128703,1055,1055,1055,1055,,,,,
76131202,1056,1056,1056,1056,,,,,
76133701,1057,1057,1057,1057,,,,,
76136200,1057,1057,1057,1057,,,,,
76138699,1058,1058,1058,1058,,,,,
76141198,1059,1059,1059,1059,,,,,
76143697,1060,1060,1060,1060,,,,,
76146196,1060,1060,1060,1060,,,,,
76148695,1061,1061,1061,1061,,,,,
76151194,1062,1062,1062,1062,,,,,
76153693,1063,1063,1063,1063,,,,,
76156192,1063,1063,1063,1063,,,,,
76158691,1064,1064,1064,1064,,,,,
76161190,1065,1065,1065,1065,,,,,
76163689,1066,1066,1066,1066,,,,,
76166188,1066,1066,1066,1066,,,,,
76168687,1067,1067,1067,1067,,,,,
76171186,1068,1068,1068,1068,,,,,
76173685,1069,1069,1069,1069,,,,,
76176184,1069,1069,1069,1069,,,,,
76178683,1070,1070,1070,1070,,,,,
76181182,1071,1071,1071,1071,,,,,
76183681,1072,1072,1072,1072,,,,,
76186180,1072,1072,1072,1072,,,,,
76188679,1073,1073,1073,1073,,,,,
76191178,1074,1074,1074,1074,,,,,
76193677,1075,1075,1075,1075,,,,,
76196176,1075,1075,1075,1075,,,,,
76198675,1076,1076,1076,1076,,,,,
76201174,1077,1077,1077,1077,,,,,
76203673,1078,1078,1078,1078,,,,,
76206172,1078,1078,1078,1078,,,,,
76208671,1079,1079,1079,1079,,,,,
76211170,1080,1080,1080,1080,,,,,
76213669,1081,1081,1081,1081,,,,,
76216168,1081,1081,1081,1081,,,,,
76218667,1082,1082,1082,1082,,,,,
76221166,1083,1083,1083,1083,,,,,
76223665,1084,1084,1084,1084,,,,,
76226164,1084,1084,1084,1084,,,,,
76228663,1085,1085,1085,1085,,,,,
76231162,1086,1086,1086,1086,,,,,
76233661,1087,1087,1087,1087,,,,,
76236160,1087,1087,1087,1087,,,,,
76238659,1088,1088,1088,1088,,,,,
76241158,1089,1089,1089,1089,,,,,
76243657,1090,1090,1090,1090,,,,,
76246156,1090,1090,1090,1090,,,,,
76248655,1091,1091,1091,1091,,,,,
76251154,1092,1092,1092,1092,,,,,
76253653,1093,1093,1093,1093,,,,,
76256152,1093,1093,1093,1093,,,,,
76258651,1094,1094,1094,1094,,,,,
76261150,1095,1095,1095,1095,,,,,
76263649,1096,1096,1096,1096,,,,,
76266148,1096,1096,1096,1096,,,,,
76268647,1097,1097,1097,1097,,,,,
76271146,1098,1098,1098,1098,,,,,
76273645,1099,1099,1099,1099,,,,,
76276144,1099,1099,1099,1099,,,,,
76278643,1100,1100,1100,1100,,,,,
76281142,1101,1101,1101,1101,,,,,
76283641,1101,1101,1101,1101,,,,,
76286140,1102,1102,1102,1102,,,,,
76288639,1103,1103,1103,1103,,,,,
76291138,1104,1104,1104,1104,,,,,
76293637,1104,1104,1104,1104,,,,,
76296136,1105,1105,1105,1105,,,,,
76298635,1106,1106,1106,1106,,,,,
76301134,1107,1107,1107,1107,,,,,
76303633,1107,1107,1107,1107,,,,,
76306132,1108,1108,1108,1108,,,,,
76308631,1109,1109,1109,1109,,,,,
76311130,1110,1110,1110,1110,,,,,
76313629,1110,1110,1110,1110,,,,,
76316128,1111,1111,1111,1111,,,,,
76318627,1112,1112,1112,1112,,,,,
76321126,1113,1113,1113,1113,,,,,
76323625,1113,1113,1113,1113,,,,,
76326124,1114,1114,1114,1114,,,,,
76328623,1115,1115,1115,1115,,,,,
76331122,1116,1116,1116,1116,,,,,
76333621,1116,1116,1116,1116,,,,,
76336120,1117,1117,1117,1117,,,,,
76338619,1118,1118,1118,1118,,,,,
76341118,1119,1119,1119,1119,,,,,
76343617,1119,1119,1119,1119,,,,,
76346116,1120,1120,1120,1120,,,,,
76348615,1121,1121,1121,1121,,,,,
76351114,1122,1122,1122,1122,,,,,
76353613,1122,1122,1122,1122,,,,,
76356112,1123,1123,1123,1123,,,,,
76358611,1124,1124,1124,1124,,,,,
76361110,1125,1125,1125,1125,,,,,
76363609,1125,1125,1125,1125,,,,,
76366108,1126,1126,1126,1126,,,,,
76368607,1127,1127,1127,1127,,,,,
76371106,1128,1128,1128,1128,,,,,
76373605,1128,1128,1128,1128,,,,,
76376104,1129,1129,1129,1129,,,,,
76378603,1130,1130,1130,1130,,,,,
76381102,1131,1131,1131,1131,,,,,
76383601,1131,1131,1131,1131,,,,,
76386100,1132,1132,1132,1132,,,,,
76388599,1133,1133,1133,1133,,,,,
76391098,1134,1134,1134,1134,,,,,
76393597,1134,1134,1134,1134,,,,,
76396096,1135,1135,1135,1135,,,,,
76398595,1136,1136,1136,1136,,,,,
76401094,1137,1137,1137,1137,,,,,
76403593,1137,1137,1137,1137,,,,,
76406092,1138,1138,1138,1138,,,,,
76408591,1139,1139,1139,1139,,,,,
76411090,1140,1140,1140,1140,,,,,
76413589,1140,1140,1140,1140,,,,,
76416088,1141,1141,1141,1141,,,,,
76418587,1142,1142,1142,1142,,,,,
76421086,1143,1143,1143,1143,,,,,
76423585,1143,1143,1143,1143,,,,,
76426084,1144,1144,1144,1144,,,,,
76428583,1145,1145,1145,1145,,,,,
76431082,1146,1146,1146,1146,,,,,
76433581,1146,1146,1146,1146,,,,,
76436080,1147,1147,1147,1147,,,,,
76438579,1148,1148,1148,1148,,,,,
76441078,1149,1149,1149,1149,,,,,
76443577,1149,1149,1149,1149,,,,,
76446076,1150,1150,1150,1150,,,,,
76448575,1164,1151,1152,1164,,,,,
76451074,1172,1159,1160,1172,,,,,
76453573,1179,1167,1168,1180,,,,,
76456072,1187,1175,1176,1188,,,,,
76458571,1195,1183,1184,1195,,,,,
76461070,1202,1190,1191,1203,,,,,
76463569,1209,1198,1199,1210,,,,,
76466068,1216,1205,1206,1217,,,,,
76468567,1224,1212,1213,1224,,,,,
76471066,1231,1219,1220,1231,,,,,
76473565,1237,1226,1227,1238,,,,,
76476064,1244,1233,1234,1245,,,,,
76478563,1251,1240,1241,1251,,,,,
76481062,1257,1247,1248,1258,,,,,
76483561,1264,1253,1254,1265,,,,,
76486060,1270,1260,1261,1271,,,,,
76488559,1277,1266,1267,1277,,,,,
76491058,1283,1273,1273,1284,,,,,
76493557,1289,1279,1280,1290,,,,,
76496056,1295,1285,1286,1296,,,,,
76498555,1301,1291,1292,1302,,,,,
76501054,1307,1297,1298,1308,,,,,
76503553,1313,1303,1304,1314,,,,,
76506052,1319,1309,1310,1320,,,,,
76508551,1325,1315,1316,1326,,,,,
76511050,1331,1321,1322,1331,,,,,
76513549,1337,1327,1328,1337,,,,,
76516048,1342,1332,1333,1343,,,,,
76518547,1348,1338,1339,1348,,,,,
76521046,1353,1344,1344,1354,,,,,
76523545,1359,1349,1350,1359,,,,,
76526044,1364,1355,1355,1365,,,,,
76528543,1370,1360,1361,1370,,,,,
76531042,1375,1365,1366,1375,,,,,
76533541,1380,1371,1372,1381,,,,,
76536040,1386,1376,1377,1386,,,,,
76538539,1391,1381,1382,1391,,,,,
76541038,1396,1387,1387,1396,,,,,
76543537,1401,1392,1393,1401,,,,,
76546036,1406,1397,1398,1407,,,,,
76548535,1411,1402,1403,1412,,,,,
76551034,1416,1407,1408,1417,,,,,
76553533,1421,1412,1413,1422,,,,,
76556032,1426,1417,1418,1426,,,,,
76558531,1431,1422,1423,1431,,,,,
76561030,1436,1427,1428,1436,,,,,
76563529,1441,1432,1433,1441,,,,,
76566028,1445,1437,1438,1446,,,,,
76568527,1450,1441,1442,1451,,,,,
76571026,1455,1446,1447,1455,,,,,
76573525,1460,1451,1452,1460,,,,,
76576024,1464,1456,1457,1465,,,,,
76578523,1469,1460,1461,1469,,,,,
76581022,1474,1465,1466,1474,,,,,
76583521,1478,1470,1470,1478,,,,,
76586020,1483,1474,1475,1483,,,,,
76588519,1487,1479,1480,1487,,,,,
76591018,1492,1483,1484,1492,,,,,
76593517,1496,1488,1489,1496,,,,,
76596016,1501,1492,1493,1501,,,,,
76598515,1505,1497,1498,1505,,,,,
76601014,1509,1501,1502,1510,,,,,
76603513,1514,1506,1506,1514,,,,,
76606012,1518,1510,1511,1518,,,,,
76608511,1522,1514,1515,1523,,,,,
76611010,1527,1519,1519,1527,,,,,
76613509,1531,1523,1524,1531,,,,,
76616008,1535,1527,1528,1536,,,,,
76618507,1539,1532,1532,1540,,,,,
76621006,1543,1536,1536,1544,,,,,
76623505,1548,1540,1541,1548,,,,,
76626004,1552,1544,1545,1552,,,,,
76628503,1556,1548,1549,1556,,,,,
76631002,1560,1552,1553,1561,,,,,
76633501,1564,1557,1557,1565,,,,,
76636000,1568,1561,1561,1569,,,,,
76638499,1572,1565,1565,1573,,,,,
76640998,1576,1569,1569,1577,,,,,
76643497,1580,1573,1573,1581,,,,,
76645996,1584,1577,1577,1585,,,,,
76648495,1588,1581,1581,1589,,,,,
76650994,1592,1585,1585,1593,,,,,
76653493,1596,1589,1589,1597,,,,,
76655992,1600,1593,1593,1601,,,,,
76658491,1604,1597,1597,1605,,,,,
76660990,1608,1600,1601,1608,,,,,
76663489,1612,1604,1605,1612,,,,,
76665988,1616,1608,1609,1616,,,,,
76668487,1619,1612,1613,1620,,,,,
76670986,1623,1616,1616,1624,,,,,
76673485,1627,1620,1620,1628,,,,,
76675984,1631,1624,1624,1631,,,,,
76678483,1635,1627,1628,1635,,,,,
76680982,1638,1631,1632,1639,,,,,
76683481,1642,1635,1635,1643,,,,,
76685980,1646,1639,1639,1646,,,,,
76688479,1650,1642,1643,1650,,,,,
76690978,1653,1646,1646,1654,,,,,
76693477,1657,1650,1650,1657,,,,,
76695976,1661,1653,1654,1661,,,,,
76698475,1664,1657,1657,1665,,,,,
76700974,1668,1661,1661,1668,,,,,
76703473,1672,1664,1665,1672,,,,,
76705972,1675,1668,1668,1675,,,,,
76708471,1679,1671,1672,1679,,,,,
76710970,1682,1675,1676,1683,,,,,
76713469,1686,1679,1679,1686,,,,,
76715968,1689,1682,1683,1690,,,,,
76718467,1693,1686,1686,1693,,,,,
76720966,1696,1689,1690,1697,,,,,
76723465,1700,1693,1693,1700,,,,,
76725964,1703,1696,1697,1704,,,,,
76728463,1707,1700,1700,1707,,,,,
76730962,1710,1703,1704,1711,,,,,
76733461,1714,1707,1707,1714,,,,,
76735960,1717,1710,1711,1718,,,,,
76738459,1721,1714,1714,1721,,,,,
76740958,1724,1717,1718,1724,,,,,
76743457,1728,1720,1721,1728,,,,,
76745956,1731,1724,1724,1731,,,,,
76748455,1734,1727,1728,1735,,,,,
76750954,1738,1731,1731,1738,,,,,
76753453,1741,1734,1735,1741,,,,,
76755952,1744,1737,1738,1745,,,,,
76758451,1748,1741,1741,1748,,,,,
76760950,1751,1744,1745,1751,,,,,
76763449,1754,1747,1748,1755,,,,,
76765948,1758,1751,1751,1758,,,,,
76768447,1761,1754,1755,1761,,,,,
76770946,1764,1757,1758,1764,,,,,
76773445,1767,1761,1761,1768,,,,,
76775944,1771,1764,1764,1771,,,,,
76778443,1774,1767,1768,1774,,,,,
76780942,1777,1770,1771,1777,,,,,
76783441,1780,1774,1774,1781,,,,,
76785940,1784,1777,1777,1784,,,,,
76788439,1787,1780,1781,1787,,,,,
76790938,1790,1783,1784,1790,,,,,
76793437,1793,1786,1787,1794,,,,,
76795936,1796,1790,1790,1797,,,,,
76798435,1800,1793,1793,1800,,,,,
76800934,1803,1796,1797,1803,,,,,
76803433,1806,1799,1800,1806,,,,,
76805932,1809,1802,1803,1809,,,,,
76808431,1812,1806,1806,1813,,,,,
76810930,1815,1809,1809,1816,,,,,
76813429,1818,1812,1812,1819,,,,,
76815928,1821,1815,1815,1822,,,,,
76818427,1825,1818,1818,1825,,,,,
76820926,1828,1821,1822,1828,,,,,
76823425,1831,1824,1825,1831,,,,,
76825924,1834,1827,1828,1834,,,,,
76828423,1837,1830,1831,1837,,,,,
76830922,1840,1833,1834,1840,,,,,
76833421,1843,1836,1837,1843,,,,,
76835920,1846,1839,1840,1846,,,,,
76838419,1849,1843,1843,1849,,,,,
76840918,1852,1846,1846,1852,,,,,
76843417,1855,1849,1849,1856,,,,,
76845916,1858,1852,1852,1859,,,,,
76848415,1861,1855,1855,1862,,,,,
76850914,1864,1858,1858,1865,,,,,
76853413,1867,1861,1861,1868,,,,,
76855912,1870,1863,1864,1871,,,,,
76858411,1873,1866,1867,1873,,,,,
76860910,1876,1869,1870,1876,,,,,
76863409,1879,1872,1873,1879,,,,,
76865908,1882,1875,1876,1882,,,,,
76868407,1885,1878,1879,1885,,,,,
76870906,1888,1881,1881,1888,,,,,
76873405,1891,1884,1884,1891,,,,,
76875904,1894,1887,1887,1894,,,,,
76878403,1894,1887,1888,1894,,,,,
76880902,1893,1886,1886,1893,,,,,
76883401,1892,1885,1885,1892,,,,,
76885900,1891,1884,1884,1891,,,,,
76888399,1890,1883,1883,1890,,,,,
76890898,1889,1882,1882,1890,,,,,
76893397,1888,1881,1881,1889,,,,,
76895896,1887,1880,1881,1888,,,,,
76898395,1887,1879,1880,1887,,,,,
76900894,1886,1879,1879,1886,,,,,
76903393,1885,1878,1878,1886,,,,,
76905892,1885,1877,1878,1885,,,,,
76908391,1884,1877,1877,1885,,,,,
76910890,1884,1876,1877,1884,,,,,
76913389,1884,1876,1877,1884,,,,,
76915888,1883,1876,1876,1884,,,,,
76918387,1883,1876,1876,1884,,,,,
76920886,1883,1876,1876,1884,,,,,
76923385,1883,1876,1876,1884,,,,,
76925884,1884,1876,1876,1884,,,,,
76928383,1884,1876,1877,1884,,,,,
76930882,1884,1876,1877,1884,,,,,
76933381,1884,1877,1877,1885,,,,,
76935880,1885,1877,1878,1885,,,,,
76938379,1885,1878,1878,1886,,,,,
76940878,1886,1878,1879,1886,,,,,
76943377,1886,1879,1880,1886,,,,,
76945876,1887,1880,1880,1887,,,,,
76948375,1887,1880,1881,1887,,,,,
76950874,1887,1881,1882,1888,,,,,
76953373,1888,1882,1882,1888,,,,,
76955872,1888,1882,1883,1888,,,,,
76958371,1888,1882,1883,1888,,,,,
76960870,1888,1882,1883,1888,,,,,
76963369,1887,1882,1883,1887,,,,,
76965868,1887,1882,1882,1887,,,,,
76968367,1886,1881,1882,1886,,,,,
76970866,1885,1880,1881,1885,,,,,
76973365,1884,1879,1880,1884,,,,,
76975864,1883,1878,1879,1883,,,,,
76978363,1881,1878,1879,1881,,,,,
76980862,1879,1877,1878,1880,,,,,
76983361,1877,1875,1876,1878,,,,,
76985860,1875,1874,1874,1876,,,,,
76988359,1873,1872,1872,1874,,,,,
76990858,1871,1869,1870,1871,,,,,
76993357,1869,1867,1867,1869,,,,,
76995856,1866,1864,1865,1867,,,,,
76998355,1864,1862,1862,1864,,,,,
77000854,1861,1859,1859,1862,,,,,
77003353,1858,1856,1857,1859,,,,,
77005852,1856,1853,1854,1856,,,,,
77008351,1853,1850,1850,1853,,,,,
77010850,1850,1847,1847,1850,,,,,
77013349,1846,1844,1844,1847,,,,,
77015848,1843,1841,1841,1844,,,,,
77018347,1840,1838,1838,1841,,,,,
77020846,1837,1835,1834,1838,,,,,
77023345,1834,1831,1831,1835,,,,,
77025844,1830,1828,1828,1831,,,,,
77028343,1827,1825,1824,1828,,,,,
77030842,1824,1821,1821,1825,,,,,
77033341,1820,1818,1818,1821,,,,,
77035840,1817,1815,1814,1818,,,,,
77038339,1813,1811,1811,1815,,,,,
77040838,1810,1808,1807,1811,,,,,
77043337,1807,1805,1804,1808,,,,,
77045836,1803,1801,1800,1805,,,,,
77048335,1800,1798,1797,1801,,,,,
77050834,1796,1794,1794,1798,,,,,
77053333,1793,1791,1790,1795,,,,,
77055832,1789,1788,1787,1791,,,,,
77058331,1786,1784,1783,1788,,,,,
77060830,1782,1781,1780,1784,,,,,
77063329,1779,1777,1776,1781,,,,,
77065828,1775,1774,1773,1777,,,,,
77068327,1772,1771,1769,1774,,,,,
77070826,1768,1767,1766,1771,,,,,
77073325,1765,1764,1762,1767,,,,,
77075824,1762,1761,1759,1764,,,,,
77078323,1758,1757,1756,1761,,,,,
77080822,1755,1754,1752,1757,,,,,
77083321,1752,1751,1749,1754,,,,,
77085820,1748,1748,1746,1751,,,,,
77088319,1745,1744,1743,1748,,,,,
77090818,1742,1741,1739,1744,,,,,
77093317,1738,1738,1736,1741,,,,,
77095816,1735,1735,1733,1738,,,,,
77098315,1732,1732,1730,1735,,,,,
77100814,1729,1729,1727,1732,,,,,
77103313,1726,1726,1724,1728,,,,,
77105812,1723,1723,1721,1725,,,,,
77108311,1720,1720,1718,1722,,,,,
77110810,1717,1717,1715,1719,,,,,
77113309,1714,1714,1712,1716,,,,,
77115808,1711,1711,1709,1714,,,,,
77118307,1708,1708,1706,1711,,,,,
77120806,1705,1705,1703,1708,,,,,
77123305,1702,1702,1700,1705,,,,,
77125804,1700,1700,1698,1702,,,,,
77128303,1697,1697,1695,1700,,,,,
77130802,1694,1695,1693,1697,,,,,
77133301,1692,1692,1690,1695,,,,,
77135800,1689,1690,1688,1692,,,,,
77138299,1687,1687,1685,1690,,,,,
77140798,1684,1685,1683,1687,,,,,
77143297,1682,1683,1680,1685,,,,,
77145796,1679,1680,1678,1682,,,,,
77148295,1677,1678,1676,1680,,,,,
77150794,1675,1676,1674,1678,,,,,
77153293,1672,1674,1671,1676,,,,,
77155792,1670,1672,1669,1673,,,,,
77158291,1668,1669,1667,1671,,,,,
77160790,1666,1667,1665,1669,,,,,
77163289,1664,1665,1663,1667,,,,,
77165788,1662,1663,1661,1665,,,,,
