timestamp,TimeUS,C1,C2,C3,C4,C5,C6,C7,C8,C9,C10,C11,C12,C13,C14
1683202916.59999990,45828328,1000,1000,1000,1000,0,0,0,0,0,0,0,0,0,0
1683202916.69995999,45928288,1000,1000,1000,1000,0,0,0,0,0,0,0,0,0,0
1683202916.79992008,46028248,1000,1000,1000,1000,0,0,0,0,0,0,0,0,0,0
1683202916.89987993,46128208,1000,1000,1000,1000,0,0,0,0,0,0,0,0,0,0
1683202916.99984002,46228168,1000,1000,1000,1000,0,0,0,0,0,0,0,0,0,0
1683202917.10063291,46328961,1000,1000,1000,1000,0,0,0,0,0,0,0,0,0,0
1683202917.20059299,46428921,1000,1000,1000,1000,0,0,0,0,0,0,0,0,0,0
1683202917.30055308,46528881,1000,1000,1000,1000,0,0,0,0,0,0,0,0,0,0
1683202917.40051293,46628841,1000,1000,1000,1000,0,0,0,0,0,0,0,0,0,0
1683202917.50047302,46728801,1000,1000,1000,1000,0,0,0,0,0,0,0,0,0,0
1683202917.60043311,46828761,1000,1000,1000,1000,0,0,0,0,0,0,0,0,0,0
1683202917.70039296,46928721,1000,1000,1000,1000,0,0,0,0,0,0,0,0,0,0
1683202917.80035305,47028681,1000,1000,1000,1000,0,0,0,0,0,0,0,0,0,0
1683202917.90031290,47128641,1000,1000,1000,1000,0,0,0,0,0,0,0,0,0,0
1683202918.00027299,47228601,1000,1000,1000,1000,0,0,0,0,0,0,0,0,0,0
1683202918.10023308,47328561,1000,1000,1000,1000,0,0,0,0,0,0,0,0,0,0
1683202918.20019293,47428521,1000,1000,1000,1000,0,0,0,0,0,0,0,0,0,0
1683202918.30015302,47528481,1000,1000,1000,1000,0,0,0,0,0,0,0,0,0,0
1683202918.40011311,47628441,1000,1000,1000,1000,0,0,0,0,0,0,0,0,0,0
1683202918.50007296,47728401,1000,1000,1000,1000,0,0,0,0,0,0,0,0,0,0
1683202918.60003304,47828361,1023,1023,1023,1023,0,0,0,0,0,0,0,0,0,0
1683202918.69999290,47928321,1053,1053,1053,1053,0,0,0,0,0,0,0,0,0,0
1683202918.79995298,48028281,1083,1083,1083,1083,0,0,0,0,0,0,0,0,0,0
1683202918.89991307,48128241,1113,1113,1113,1113,0,0,0,0,0,0,0,0,0,0
1683202918.99987292,48228201,1143,1143,1143,1143,0,0,0,0,0,0,0,0,0,0
1683202919.09983301,48328161,1351,1346,1347,1351,0,0,0,0,0,0,0,0,0,0
1683202919.20062590,48428954,1542,1538,1538,1542,0,0,0,0,0,0,0,0,0,0
1683202919.30058599,48528914,1695,1691,1691,1695,0,0,0,0,0,0,0,0,0,0
1683202919.40054607,48628874,1827,1822,1823,1826,0,0,0,0,0,0,0,0,0,0
1683202919.50050592,48728834,1912,1908,1909,1911,0,0,0,0,0,0,0,0,0,0
1683202919.60046601,48828794,1853,1851,1851,1853,0,0,0,0,0,0,0,0,0,0
1683202919.70042610,48928754,1724,1724,1724,1725,0,0,0,0,0,0,0,0,0,0
1683202919.80038595,49028714,1649,1651,1651,1650,0,0,0,0,0,0,0,0,0,0
1683202919.90034604,49128674,1632,1634,1634,1632,0,0,0,0,0,0,0,0,0,0
1683202920.00030613,49228634,1639,1641,1640,1639,0,0,0,0,0,0,0,0,0,0
1683202920.10026598,49328594,1643,1644,1643,1643,0,0,0,0,0,0,0,0,0,0
1683202920.20022607,49428554,1638,1638,1638,1638,0,0,0,0,0,0,0,0,0,0
1683202920.30018592,49528514,1616,1616,1609,1622,0,0,0,0,0,0,0,0,0,0
1683202920.40014601,49628474,1604,1603,1594,1612,0,0,0,0,0,0,0,0,0,0
1683202920.50010610,49728434,1598,1597,1592,1603,0,0,0,0,0,0,0,0,0,0
1683202920.60006595,49828394,1599,1599,1598,1599,0,0,0,0,0,0,0,0,0,0
1683202920.70002604,49928354,1602,1602,1605,1599,0,0,0,0,0,0,0,0,0,0
1683202920.79998612,50028314,1603,1603,1608,1599,0,0,0,0,0,0,0,0,0,0
1683202920.89994597,50128274,1578,1579,1597,1559,0,0,0,0,0,0,0,0,0,0
1683202920.99990606,50228234,1567,1568,1582,1553,0,0,0,0,0,0,0,0,0,0
1683202921.09986591,50328194,1557,1557,1561,1554,0,0,0,0,0,0,0,0,0,0
1683202921.19982600,50428154,1547,1547,1540,1555,0,0,0,0,0,0,0,0,0,0
1683202921.30061913,50528947,1540,1539,1527,1553,0,0,0,0,0,0,0,0,0,0
1683202921.40057898,50628907,1534,1534,1522,1546,0,0,0,0,0,0,0,0,0,0
1683202921.50053906,50728867,1529,1528,1521,1536,0,0,0,0,0,0,0,0,0,0
1683202921.60049891,50828827,1525,1526,1523,1528,0,0,0,0,0,0,0,0,0,0
1683202921.70045900,50928787,1527,1527,1528,1526,0,0,0,0,0,0,0,0,0,0
1683202921.80041909,51028747,1530,1529,1532,1527,0,0,0,0,0,0,0,0,0,0
1683202921.90037894,51128707,1533,1533,1537,1529,0,0,0,0,0,0,0,0,0,0
1683202922.00033903,51228667,1536,1537,1540,1533,0,0,0,0,0,0,0,0,0,0
1683202922.10029912,51328627,1541,1541,1543,1538,0,0,0,0,0,0,0,0,0,0
1683202922.20025897,51428587,1545,1545,1546,1543,0,0,0,0,0,0,0,0,0,0
1683202922.30021906,51528547,1547,1547,1547,1547,0,0,0,0,0,0,0,0,0,0
1683202922.40017891,51628507,1549,1549,1548,1551,0,0,0,0,0,0,0,0,0,0
1683202922.50013900,51728467,1552,1552,1550,1554,0,0,0,0,0,0,0,0,0,0
1683202922.60009909,51828427,1552,1552,1557,1560,0,0,0,0,0,0,0,0,0,0
1683202922.70005894,51928387,1552,1552,1560,1563,0,0,0,0,0,0,0,0,0,0
1683202922.80001903,52028347,1554,1555,1563,1563,0,0,0,0,0,0,0,0,0,0
1683202922.89997911,52128307,1558,1558,1564,1563,0,0,0,0,0,0,0,0,0,0
1683202922.99993896,52228267,1561,1563,1565,1564,0,0,0,0,0,0,0,0,0,0
1683202923.09989905,52328227,1564,1565,1565,1564,0,0,0,0,0,0,0,0,0,0
1683202923.19985890,52428187,1568,1568,1565,1565,0,0,0,0,0,0,0,0,0,0
1683202923.30065203,52528980,1571,1570,1566,1565,0,0,0,0,0,0,0,0,0,0
1683202923.40061212,52628940,1572,1571,1566,1566,0,0,0,0,0,0,0,0,0,0
1683202923.50057197,52728900,1573,1572,1567,1567,0,0,0,0,0,0,0,0,0,0
1683202923.60053205,52828860,1573,1573,1567,1568,0,0,0,0,0,0,0,0,0,0
1683202923.70049191,52928820,1573,1573,1568,1569,0,0,0,0,0,0,0,0,0,0
1683202923.80045199,53028780,1574,1574,1570,1571,0,0,0,0,0,0,0,0,0,0
1683202923.90041208,53128740,1574,1573,1572,1572,0,0,0,0,0,0,0,0,0,0
1683202924.00037193,53228700,1574,1574,1574,1572,0,0,0,0,0,0,0,0,0,0
1683202924.10033202,53328660,1573,1574,1575,1573,0,0,0,0,0,0,0,0,0,0
1683202924.20029211,53428620,1573,1574,1576,1574,0,0,0,0,0,0,0,0,0,0
1683202924.30025196,53528580,1574,1574,1576,1576,0,0,0,0,0,0,0,0,0,0
1683202924.40021205,53628540,1574,1574,1576,1576,0,0,0,0,0,0,0,0,0,0
1683202924.50017190,53728500,1575,1574,1576,1576,0,0,0,0,0,0,0,0,0,0
1683202924.60013199,53828460,1575,1575,1577,1577,0,0,0,0,0,0,0,0,0,0
1683202924.70009208,53928420,1575,1576,1577,1577,0,0,0,0,0,0,0,0,0,0
1683202924.80005193,54028380,1575,1576,1576,1577,0,0,0,0,0,0,0,0,0,0
1683202924.90001202,54128340,1576,1576,1577,1577,0,0,0,0,0,0,0,0,0,0
1683202924.99997211,54228300,1577,1577,1577,1577,0,0,0,0,0,0,0,0,0,0
1683202925.09993196,54328260,1578,1578,1578,1577,0,0,0,0,0,0,0,0,0,0
1683202925.19989204,54428220,1579,1579,1578,1578,0,0,0,0,0,0,0,0,0,0
1683202925.29985189,54528180,1578,1577,1577,1577,0,0,0,0,0,0,0,0,0,0
1683202925.40064502,54628973,1578,1578,1578,1577,0,0,0,0,0,0,0,0,0,0
1683202925.50060511,54728933,1577,1577,1577,1577,0,0,0,0,0,0,0,0,0,0
1683202925.60056496,54828893,1578,1578,1578,1578,0,0,0,0,0,0,0,0,0,0
1683202925.70052505,54928853,1578,1578,1577,1578,0,0,0,0,0,0,0,0,0,0
1683202925.80048490,55028813,1578,1579,1578,1578,0,0,0,0,0,0,0,0,0,0
1683202925.90044498,55128773,1578,1578,1577,1578,0,0,0,0,0,0,0,0,0,0
1683202926.00040507,55228733,1578,1578,1578,1578,0,0,0,0,0,0,0,0,0,0
1683202926.10036492,55328693,1578,1578,1579,1579,0,0,0,0,0,0,0,0,0,0
1683202926.20032501,55428653,1579,1579,1580,1579,0,0,0,0,0,0,0,0,0,0
1683202926.30028510,55528613,1579,1579,1579,1579,0,0,0,0,0,0,0,0,0,0
1683202926.40024495,55628573,1580,1579,1580,1580,0,0,0,0,0,0,0,0,0,0
1683202926.50020504,55728533,1578,1578,1578,1579,0,0,0,0,0,0,0,0,0,0
1683202926.60016513,55828493,1579,1579,1579,1579,0,0,0,0,0,0,0,0,0,0
1683202926.70012498,55928453,1579,1579,1579,1579,0,0,0,0,0,0,0,0,0,0
1683202926.80008507,56028413,1579,1579,1579,1579,0,0,0,0,0,0,0,0,0,0
1683202926.90004492,56128373,1581,1580,1581,1581,0,0,0,0,0,0,0,0,0,0
1683202927.00000501,56228333,1580,1580,1580,1580,0,0,0,0,0,0,0,0,0,0
1683202927.09996510,56328293,1580,1580,1580,1580,0,0,0,0,0,0,0,0,0,0
1683202927.19992495,56428253,1579,1579,1579,1579,0,0,0,0,0,0,0,0,0,0
1683202927.29988503,56528213,1580,1580,1580,1580,0,0,0,0,0,0,0,0,0,0
1683202927.39984512,56628173,1580,1580,1579,1580,0,0,0,0,0,0,0,0,0,0
1683202927.50063801,56728966,1579,1579,1580,1579,0,0,0,0,0,0,0,0,0,0
1683202927.60059810,56828926,1580,1579,1580,1579,0,0,0,0,0,0,0,0,0,0
1683202927.70055795,56928886,1580,1580,1580,1580,0,0,0,0,0,0,0,0,0,0
1683202927.80051804,57028846,1580,1579,1580,1580,0,0,0,0,0,0,0,0,0,0
1683202927.90047812,57128806,1580,1580,1580,1580,0,0,0,0,0,0,0,0,0,0
1683202928.00043797,57228766,1580,1581,1581,1581,0,0,0,0,0,0,0,0,0,0
1683202928.10039806,57328726,1580,1580,1580,1580,0,0,0,0,0,0,0,0,0,0
1683202928.20035791,57428686,1580,1580,1580,1580,0,0,0,0,0,0,0,0,0,0
1683202928.30031800,57528646,1581,1581,1581,1581,0,0,0,0,0,0,0,0,0,0
1683202928.40027809,57628606,1581,1581,1581,1580,0,0,0,0,0,0,0,0,0,0
1683202928.50023794,57728566,1581,1581,1581,1581,0,0,0,0,0,0,0,0,0,0
1683202928.60019803,57828526,1581,1581,1581,1581,0,0,0,0,0,0,0,0,0,0
1683202928.70015812,57928486,1582,1582,1582,1582,0,0,0,0,0,0,0,0,0,0
1683202928.80011797,58028446,1581,1582,1585,1578,0,0,0,0,0,0,0,0,0,0
1683202928.90007806,58128406,1581,1583,1588,1574,0,0,0,0,0,0,0,0,0,0
1683202929.00003791,58228366,1580,1582,1582,1574,0,0,0,0,0,0,0,0,0,0
1683202929.09999800,58328326,1577,1580,1572,1572,0,0,0,0,0,0,0,0,0,0
1683202929.19995809,58428286,1577,1579,1565,1570,0,0,0,0,0,0,0,0,0,0
1683202929.29991794,58528246,1576,1577,1557,1565,0,0,0,0,0,0,0,0,0,0
1683202929.39987803,58628206,1578,1578,1556,1561,0,0,0,0,0,0,0,0,0,0
1683202929.49983811,58728166,1579,1577,1555,1558,0,0,0,0,0,0,0,0,0,0
1683202929.60063100,58828959,1579,1578,1556,1555,0,0,0,0,0,0,0,0,0,0
1683202929.70059109,58928919,1578,1577,1555,1554,0,0,0,0,0,0,0,0,0,0
1683202929.80055094,59028879,1578,1577,1556,1553,0,0,0,0,0,0,0,0,0,0
1683202929.90051103,59128839,1576,1577,1555,1553,0,0,0,0,0,0,0,0,0,0
1683202930.00047112,59228799,1575,1577,1556,1554,0,0,0,0,0,0,0,0,0,0
1683202930.10043097,59328759,1575,1577,1554,1554,0,0,0,0,0,0,0,0,0,0
1683202930.20039105,59428719,1574,1576,1552,1553,0,0,0,0,0,0,0,0,0,0
1683202930.30035090,59528679,1575,1577,1551,1551,0,0,0,0,0,0,0,0,0,0
1683202930.40031099,59628639,1578,1579,1550,1550,0,0,0,0,0,0,0,0,0,0
1683202930.50027108,59728599,1579,1580,1547,1547,0,0,0,0,0,0,0,0,0,0
1683202930.60023093,59828559,1583,1583,1545,1545,0,0,0,0,0,0,0,0,0,0
1683202930.70019102,59928519,1585,1585,1542,1542,0,0,0,0,0,0,0,0,0,0
1683202930.80015111,60028479,1590,1590,1541,1540,0,0,0,0,0,0,0,0,0,0
1683202930.90011096,60128439,1591,1592,1537,1537,0,0,0,0,0,0,0,0,0,0
1683202931.00007105,60228399,1594,1594,1536,1536,0,0,0,0,0,0,0,0,0,0
1683202931.10003090,60328359,1594,1594,1534,1535,0,0,0,0,0,0,0,0,0,0
1683202931.19999099,60428319,1595,1595,1535,1537,0,0,0,0,0,0,0,0,0,0
1683202931.29995108,60528279,1594,1593,1536,1539,0,0,0,0,0,0,0,0,0,0
1683202931.39991093,60628239,1592,1591,1541,1543,0,0,0,0,0,0,0,0,0,0
1683202931.49987102,60728199,1587,1585,1546,1549,0,0,0,0,0,0,0,0,0,0
1683202931.59983110,60828159,1581,1578,1556,1558,0,0,0,0,0,0,0,0,0,0
1683202931.70062399,60928952,1571,1568,1566,1568,0,0,0,0,0,0,0,0,0,0
1683202931.80058408,61028912,1561,1557,1579,1580,0,0,0,0,0,0,0,0,0,0
1683202931.90054393,61128872,1550,1546,1591,1592,0,0,0,0,0,0,0,0,0,0
1683202932.00050402,61228832,1540,1538,1602,1602,0,0,0,0,0,0,0,0,0,0
1683202932.10046411,61328792,1533,1533,1610,1609,0,0,0,0,0,0,0,0,0,0
1683202932.20042396,61428752,1529,1530,1615,1613,0,0,0,0,0,0,0,0,0,0
1683202932.30038404,61528712,1529,1531,1616,1614,0,0,0,0,0,0,0,0,0,0
1683202932.40034389,61628672,1533,1535,1613,1612,0,0,0,0,0,0,0,0,0,0
1683202932.50030398,61728632,1539,1542,1608,1608,0,0,0,0,0,0,0,0,0,0
1683202932.60026407,61828592,1547,1549,1601,1601,0,0,0,0,0,0,0,0,0,0
1683202932.70022392,61928552,1557,1557,1594,1594,0,0,0,0,0,0,0,0,0,0
1683202932.80018401,62028512,1566,1565,1586,1586,0,0,0,0,0,0,0,0,0,0
1683202932.90014410,62128472,1573,1573,1579,1578,0,0,0,0,0,0,0,0,0,0
1683202933.00010395,62228432,1579,1578,1573,1572,0,0,0,0,0,0,0,0,0,0
1683202933.10006404,62328392,1584,1583,1569,1569,0,0,0,0,0,0,0,0,0,0
1683202933.20002413,62428352,1587,1585,1566,1566,0,0,0,0,0,0,0,0,0,0
1683202933.29998398,62528312,1326,1329,1631,1639,0,0,0,0,0,0,0,0,0,0
1683202933.39994407,62628272,1404,1412,1644,1648,0,0,0,0,0,0,0,0,0,0
1683202933.49990392,62728232,1470,1479,1636,1631,0,0,0,0,0,0,0,0,0,0
1683202933.59986401,62828192,1523,1529,1627,1617,0,0,0,0,0,0,0,0,0,0
1683202933.70065713,62928985,1564,1564,1620,1611,0,0,0,0,0,0,0,0,0,0
1683202933.80061698,63028945,1600,1586,1599,1595,0,0,0,0,0,0,0,0,0,0
1683202933.90057707,63128905,1600,1585,1527,1533,0,0,0,0,0,0,0,0,0,0
1683202934.00053692,63228865,1600,1590,1483,1499,0,0,0,0,0,0,0,0,0,0
1683202934.10049701,63328825,1599,1600,1497,1509,0,0,0,0,0,0,0,0,0,0
1683202934.20045710,63428785,1592,1600,1512,1516,0,0,0,0,0,0,0,0,0,0
1683202934.30041695,63528745,1590,1600,1531,1529,0,0,0,0,0,0,0,0,0,0
1683202934.40037704,63628705,1593,1600,1549,1544,0,0,0,0,0,0,0,0,0,0
1683202934.50033712,63728665,1598,1600,1563,1559,0,0,0,0,0,0,0,0,0,0
1683202934.60029697,63828625,1600,1597,1570,1567,0,0,0,0,0,0,0,0,0,0
1683202934.70025706,63928585,1600,1595,1572,1573,0,0,0,0,0,0,0,0,0,0
1683202934.80021691,64028545,1600,1596,1574,1577,0,0,0,0,0,0,0,0,0,0
1683202934.90017700,64128505,1600,1598,1578,1581,0,0,0,0,0,0,0,0,0,0
1683202935.00013709,64228465,1600,1597,1585,1578,0,0,0,0,0,0,0,0,0,0
1683202935.10009694,64328425,1600,1595,1587,1582,0,0,0,0,0,0,0,0,0,0
1683202935.20005703,64428385,1600,1595,1588,1586,0,0,0,0,0,0,0,0,0,0
1683202935.30001712,64528345,1600,1597,1588,1588,0,0,0,0,0,0,0,0,0,0
1683202935.39997697,64628305,1600,1598,1588,1589,0,0,0,0,0,0,0,0,0,0
1683202935.49993706,64728265,1599,1600,1588,1589,0,0,0,0,0,0,0,0,0,0
1683202935.59989691,64828225,1597,1600,1584,1589,0,0,0,0,0,0,0,0,0,0
1683202935.69985700,64928185,1595,1600,1583,1586,0,0,0,0,0,0,0,0,0,0
1683202935.80065012,65028978,1595,1600,1584,1583,0,0,0,0,0,0,0,0,0,0
1683202935.90060997,65128938,1596,1600,1585,1583,0,0,0,0,0,0,0,0,0,0
1683202936.00057006,65228898,1598,1600,1586,1584,0,0,0,0,0,0,0,0,0,0
1683202936.10052991,65328858,1595,1600,1581,1584,0,0,0,0,0,0,0,0,0,0
1683202936.20049000,65428818,1594,1600,1580,1581,0,0,0,0,0,0,0,0,0,0
1683202936.30045009,65528778,1595,1600,1580,1580,0,0,0,0,0,0,0,0,0,0
1683202936.40040994,65628738,1595,1600,1580,1578,0,0,0,0,0,0,0,0,0,0
1683202936.50037003,65728698,1596,1600,1580,1579,0,0,0,0,0,0,0,0,0,0
1683202936.60033011,65828658,1598,1600,1580,1579,0,0,0,0,0,0,0,0,0,0
1683202936.70028996,65928618,1600,1599,1580,1580,0,0,0,0,0,0,0,0,0,0
1683202936.80025005,66028578,1600,1598,1577,1579,0,0,0,0,0,0,0,0,0,0
1683202936.90020990,66128538,1600,1592,1573,1570,0,0,0,0,0,0,0,0,0,0
1683202937.00016999,66228498,1600,1585,1577,1567,0,0,0,0,0,0,0,0,0,0
1683202937.10013008,66328458,1600,1586,1580,1577,0,0,0,0,0,0,0,0,0,0
1683202937.20008993,66428418,1600,1589,1581,1585,0,0,0,0,0,0,0,0,0,0
1683202937.30005002,66528378,1599,1595,1583,1588,0,0,0,0,0,0,0,0,0,0
1683202937.40001011,66628338,1587,1589,1570,1575,0,0,0,0,0,0,0,0,0,0
1683202937.49996996,66728298,1580,1586,1564,1566,0,0,0,0,0,0,0,0,0,0
1683202937.59993005,66828258,1575,1582,1560,1558,0,0,0,0,0,0,0,0,0,0
1683202937.69988990,66928218,1573,1579,1558,1553,0,0,0,0,0,0,0,0,0,0
1683202937.79984999,67028178,1573,1576,1556,1550,0,0,0,0,0,0,0,0,0,0
1683202937.90064311,67128971,1573,1573,1554,1549,0,0,0,0,0,0,0,0,0,0
1683202938.00060296,67228931,1573,1571,1552,1549,0,0,0,0,0,0,0,0,0,0
1683202938.10056305,67328891,1573,1570,1549,1549,0,0,0,0,0,0,0,0,0,0
1683202938.20052290,67428851,1572,1569,1547,1548,0,0,0,0,0,0,0,0,0,0
1683202938.30048299,67528811,1570,1570,1547,1548,0,0,0,0,0,0,0,0,0,0
1683202938.40044308,67628771,1569,1570,1546,1547,0,0,0,0,0,0,0,0,0,0
1683202938.50040293,67728731,1568,1571,1546,1546,0,0,0,0,0,0,0,0,0,0
1683202938.60036302,67828691,1567,1570,1546,1545,0,0,0,0,0,0,0,0,0,0
1683202938.70032310,67928651,1567,1570,1546,1544,0,0,0,0,0,0,0,0,0,0
1683202938.80028296,68028611,1568,1570,1548,1546,0,0,0,0,0,0,0,0,0,0
1683202938.90024304,68128571,1569,1570,1548,1546,0,0,0,0,0,0,0,0,0,0
1683202939.00020289,68228531,1570,1571,1549,1548,0,0,0,0,0,0,0,0,0,0
1683202939.10016298,68328491,1570,1571,1548,1548,0,0,0,0,0,0,0,0,0,0
1683202939.20012307,68428451,1571,1572,1550,1550,0,0,0,0,0,0,0,0,0,0
1683202939.30008292,68528411,1571,1571,1549,1550,0,0,0,0,0,0,0,0,0,0
1683202939.40004301,68628371,1572,1573,1550,1551,0,0,0,0,0,0,0,0,0,0
1683202939.50000310,68728331,1572,1574,1550,1552,0,0,0,0,0,0,0,0,0,0
1683202939.59996295,68828291,1573,1574,1551,1552,0,0,0,0,0,0,0,0,0,0
1683202939.69992304,68928251,1574,1575,1551,1552,0,0,0,0,0,0,0,0,0,0
1683202939.79988313,69028211,1575,1575,1552,1553,0,0,0,0,0,0,0,0,0,0
1683202939.89984298,69128171,1577,1576,1552,1554,0,0,0,0,0,0,0,0,0,0
1683202940.00063610,69228964,1577,1575,1551,1553,0,0,0,0,0,0,0,0,0,0
1683202940.10059595,69328924,1578,1577,1552,1555,0,0,0,0,0,0,0,0,0,0
1683202940.20055604,69428884,1578,1578,1553,1556,0,0,0,0,0,0,0,0,0,0
1683202940.30051613,69528844,1578,1579,1553,1555,0,0,0,0,0,0,0,0,0,0
1683202940.40047598,69628804,1578,1579,1553,1554,0,0,0,0,0,0,0,0,0,0
1683202940.50043607,69728764,1578,1579,1554,1555,0,0,0,0,0,0,0,0,0,0
1683202940.60039592,69828724,1580,1579,1556,1556,0,0,0,0,0,0,0,0,0,0
1683202940.70035601,69928684,1573,1569,1567,1569,0,0,0,0,0,0,0,0,0,0
1683202940.80031610,70028644,1561,1555,1585,1587,0,0,0,0,0,0,0,0,0,0
1683202940.90027595,70128604,1550,1545,1596,1599,0,0,0,0,0,0,0,0,0,0
1683202941.00023603,70228564,1542,1540,1602,1604,0,0,0,0,0,0,0,0,0,0
1683202941.10019612,70328524,1538,1538,1605,1605,0,0,0,0,0,0,0,0,0,0
1683202941.20015597,70428484,1537,1539,1606,1604,0,0,0,0,0,0,0,0,0,0
1683202941.30011606,70528444,1538,1542,1605,1603,0,0,0,0,0,0,0,0,0,0
1683202941.40007591,70628404,1541,1545,1603,1600,0,0,0,0,0,0,0,0,0,0
1683202941.50003600,70728364,1546,1549,1599,1597,0,0,0,0,0,0,0,0,0,0
1683202941.59999609,70828324,1551,1553,1595,1593,0,0,0,0,0,0,0,0,0,0
1683202941.69995594,70928284,1557,1557,1591,1590,0,0,0,0,0,0,0,0,0,0
1683202941.79991603,71028244,1562,1561,1586,1585,0,0,0,0,0,0,0,0,0,0
1683202941.89987612,71128204,1567,1566,1583,1582,0,0,0,0,0,0,0,0,0,0
1683202941.99983597,71228164,1572,1570,1580,1580,0,0,0,0,0,0,0,0,0,0
1683202942.10062909,71328957,1575,1574,1578,1578,0,0,0,0,0,0,0,0,0,0
1683202942.20058894,71428917,1578,1577,1575,1576,0,0,0,0,0,0,0,0,0,0
1683202942.30054903,71528877,1579,1579,1573,1574,0,0,0,0,0,0,0,0,0,0
1683202942.40050912,71628837,1581,1582,1573,1574,0,0,0,0,0,0,0,0,0,0
1683202942.50046897,71728797,1584,1584,1574,1574,0,0,0,0,0,0,0,0,0,0
1683202942.60042906,71828757,1584,1584,1573,1573,0,0,0,0,0,0,0,0,0,0
1683202942.70038891,71928717,1585,1585,1573,1573,0,0,0,0,0,0,0,0,0,0
1683202942.80034900,72028677,1586,1586,1574,1574,0,0,0,0,0,0,0,0,0,0
1683202942.90030909,72128637,1586,1585,1574,1574,0,0,0,0,0,0,0,0,0,0
1683202943.00026894,72228597,1586,1585,1574,1574,0,0,0,0,0,0,0,0,0,0
1683202943.10022902,72328557,1585,1584,1575,1575,0,0,0,0,0,0,0,0,0,0
1683202943.20018911,72428517,1585,1584,1575,1575,0,0,0,0,0,0,0,0,0,0
1683202943.30014896,72528477,1584,1583,1576,1576,0,0,0,0,0,0,0,0,0,0
1683202943.40010905,72628437,1583,1583,1575,1575,0,0,0,0,0,0,0,0,0,0
1683202943.50006890,72728397,1583,1583,1577,1577,0,0,0,0,0,0,0,0,0,0
1683202943.60002899,72828357,1582,1583,1578,1577,0,0,0,0,0,0,0,0,0,0
1683202943.69998908,72928317,1581,1582,1578,1578,0,0,0,0,0,0,0,0,0,0
1683202943.79994893,73028277,1581,1581,1578,1578,0,0,0,0,0,0,0,0,0,0
1683202943.89990902,73128237,1581,1581,1580,1579,0,0,0,0,0,0,0,0,0,0
1683202943.99986911,73228197,1580,1580,1579,1579,0,0,0,0,0,0,0,0,0,0
1683202944.09982896,73328157,1580,1580,1579,1579,0,0,0,0,0,0,0,0,0,0
1683202944.20062208,73428950,1580,1579,1579,1579,0,0,0,0,0,0,0,0,0,0
1683202944.30058193,73528910,1580,1580,1580,1580,0,0,0,0,0,0,0,0,0,0
1683202944.40054202,73628870,1580,1580,1580,1581,0,0,0,0,0,0,0,0,0,0
1683202944.50050211,73728830,1580,1580,1581,1581,0,0,0,0,0,0,0,0,0,0
1683202944.60046196,73828790,1579,1580,1580,1580,0,0,0,0,0,0,0,0,0,0
1683202944.70042205,73928750,1579,1580,1580,1580,0,0,0,0,0,0,0,0,0,0
1683202944.80038190,74028710,1580,1580,1581,1581,0,0,0,0,0,0,0,0,0,0
1683202944.90034199,74128670,1580,1580,1580,1580,0,0,0,0,0,0,0,0,0,0
1683202945.00030208,74228630,1580,1579,1580,1580,0,0,0,0,0,0,0,0,0,0
1683202945.10026193,74328590,1580,1581,1581,1581,0,0,0,0,0,0,0,0,0,0
1683202945.20022202,74428550,1580,1580,1581,1581,0,0,0,0,0,0,0,0,0,0
1683202945.30018210,74528510,1580,1580,1580,1580,0,0,0,0,0,0,0,0,0,0
1683202945.40014195,74628470,1581,1581,1580,1581,0,0,0,0,0,0,0,0,0,0
1683202945.50010204,74728430,1580,1580,1580,1580,0,0,0,0,0,0,0,0,0,0
1683202945.60006189,74828390,1581,1581,1580,1580,0,0,0,0,0,0,0,0,0,0
1683202945.70002198,74928350,1581,1581,1581,1581,0,0,0,0,0,0,0,0,0,0
1683202945.79998207,75028310,1582,1581,1581,1581,0,0,0,0,0,0,0,0,0,0
1683202945.89994192,75128270,1582,1581,1581,1581,0,0,0,0,0,0,0,0,0,0
1683202945.99990201,75228230,1581,1581,1585,1575,0,0,0,0,0,0,0,0,0,0
1683202946.09986210,75328190,1581,1580,1586,1572,0,0,0,0,0,0,0,0,0,0
1683202946.20065498,75428983,1581,1580,1580,1574,0,0,0,0,0,0,0,0,0,0
1683202946.30061507,75528943,1578,1579,1569,1572,0,0,0,0,0,0,0,0,0,0
1683202946.40057492,75628903,1576,1578,1562,1568,0,0,0,0,0,0,0,0,0,0
1683202946.50053501,75728863,1575,1577,1558,1564,0,0,0,0,0,0,0,0,0,0
1683202946.60049510,75828823,1575,1577,1557,1561,0,0,0,0,0,0,0,0,0,0
1683202946.70045495,75928783,1575,1576,1558,1558,0,0,0,0,0,0,0,0,0,0
1683202946.80041504,76028743,1574,1575,1557,1555,0,0,0,0,0,0,0,0,0,0
1683202946.90037513,76128703,1575,1575,1557,1555,0,0,0,0,0,0,0,0,0,0
1683202947.00033498,76228663,1574,1574,1556,1554,0,0,0,0,0,0,0,0,0,0
1683202947.10029507,76328623,1574,1574,1555,1554,0,0,0,0,0,0,0,0,0,0
1683202947.20025492,76428583,1575,1575,1555,1555,0,0,0,0,0,0,0,0,0,0
1683202947.30021501,76528543,1575,1575,1553,1553,0,0,0,0,0,0,0,0,0,0
1683202947.40017509,76628503,1575,1576,1552,1552,0,0,0,0,0,0,0,0,0,0
1683202947.50013494,76728463,1575,1576,1550,1550,0,0,0,0,0,0,0,0,0,0
1683202947.60009503,76828423,1576,1578,1549,1548,0,0,0,0,0,0,0,0,0,0
1683202947.70005512,76928383,1578,1579,1547,1547,0,0,0,0,0,0,0,0,0,0
1683202947.80001497,77028343,1579,1581,1545,1545,0,0,0,0,0,0,0,0,0,0
1683202947.89997506,77128303,1581,1583,1543,1543,0,0,0,0,0,0,0,0,0,0
1683202947.99993491,77228263,1584,1585,1542,1541,0,0,0,0,0,0,0,0,0,0
1683202948.09989500,77328223,1586,1586,1540,1540,0,0,0,0,0,0,0,0,0,0
1683202948.19985509,77428183,1587,1588,1538,1537,0,0,0,0,0,0,0,0,0,0
1683202948.30064797,77528976,1589,1589,1537,1538,0,0,0,0,0,0,0,0,0,0
1683202948.40060806,77628936,1590,1590,1539,1540,0,0,0,0,0,0,0,0,0,0
1683202948.50056791,77728896,1591,1589,1541,1543,0,0,0,0,0,0,0,0,0,0
1683202948.60052800,77828856,1588,1587,1542,1545,0,0,0,0,0,0,0,0,0,0
1683202948.70048809,77928816,1586,1585,1546,1549,0,0,0,0,0,0,0,0,0,0
1683202948.80044794,78028776,1583,1582,1550,1554,0,0,0,0,0,0,0,0,0,0
1683202948.90040803,78128736,1578,1577,1556,1560,0,0,0,0,0,0,0,0,0,0
1683202949.00036812,78228696,1573,1571,1564,1567,0,0,0,0,0,0,0,0,0,0
1683202949.10032797,78328656,1567,1564,1573,1575,0,0,0,0,0,0,0,0,0,0
1683202949.20028806,78428616,1559,1557,1582,1583,0,0,0,0,0,0,0,0,0,0
1683202949.30024791,78528576,1551,1549,1591,1591,0,0,0,0,0,0,0,0,0,0
1683202949.40020800,78628536,1543,1541,1600,1599,0,0,0,0,0,0,0,0,0,0
1683202949.50016809,78728496,1536,1536,1607,1606,0,0,0,0,0,0,0,0,0,0
1683202949.60012794,78828456,1532,1533,1611,1610,0,0,0,0,0,0,0,0,0,0
1683202949.70008802,78928416,1531,1533,1611,1611,0,0,0,0,0,0,0,0,0,0
1683202949.80004811,79028376,1533,1535,1609,1609,0,0,0,0,0,0,0,0,0,0
1683202949.90000796,79128336,1537,1540,1604,1605,0,0,0,0,0,0,0,0,0,0
1683202949.99996805,79228296,1543,1545,1597,1598,0,0,0,0,0,0,0,0,0,0
1683202950.09992790,79328256,1551,1552,1591,1591,0,0,0,0,0,0,0,0,0,0
1683202950.19988799,79428216,1559,1559,1584,1583,0,0,0,0,0,0,0,0,0,0
1683202950.29984808,79528176,1568,1568,1579,1578,0,0,0,0,0,0,0,0,0,0
1683202950.40064096,79628969,1575,1574,1573,1571,0,0,0,0,0,0,0,0,0,0
1683202950.50060105,79728929,1581,1580,1568,1568,0,0,0,0,0,0,0,0,0,0
1683202950.60056090,79828889,1586,1584,1566,1566,0,0,0,0,0,0,0,0,0,0
1683202950.70052099,79928849,1589,1587,1566,1566,0,0,0,0,0,0,0,0,0,0
1683202950.80048108,80028809,1590,1588,1566,1567,0,0,0,0,0,0,0,0,0,0
1683202950.90044093,80128769,1590,1588,1568,1568,0,0,0,0,0,0,0,0,0,0
1683202951.00040102,80228729,1588,1588,1570,1571,0,0,0,0,0,0,0,0,0,0
1683202951.10036111,80328689,1587,1587,1572,1573,0,0,0,0,0,0,0,0,0,0
1683202951.20032096,80428649,1584,1585,1575,1575,0,0,0,0,0,0,0,0,0,0
1683202951.30028105,80528609,1583,1583,1577,1577,0,0,0,0,0,0,0,0,0,0
1683202951.40024090,80628569,1581,1581,1579,1579,0,0,0,0,0,0,0,0,0,0
1683202951.50020099,80728529,1579,1579,1581,1581,0,0,0,0,0,0,0,0,0,0
1683202951.60016108,80828489,1577,1578,1583,1583,0,0,0,0,0,0,0,0,0,0
1683202951.70012093,80928449,1576,1576,1584,1583,0,0,0,0,0,0,0,0,0,0
1683202951.80008101,81028409,1575,1575,1584,1584,0,0,0,0,0,0,0,0,0,0
1683202951.90004110,81128369,1574,1574,1583,1583,0,0,0,0,0,0,0,0,0,0
1683202952.00000095,81228329,1574,1575,1583,1583,0,0,0,0,0,0,0,0,0,0
1683202952.09996104,81328289,1574,1574,1582,1582,0,0,0,0,0,0,0,0,0,0
1683202952.19992089,81428249,1575,1575,1581,1581,0,0,0,0,0,0,0,0,0,0
1683202952.29988098,81528209,1577,1577,1581,1582,0,0,0,0,0,0,0,0,0,0
1683202952.39984107,81628169,1578,1578,1581,1580,0,0,0,0,0,0,0,0,0,0
1683202952.50063396,81728962,1578,1578,1579,1579,0,0,0,0,0,0,0,0,0,0
1683202952.60059404,81828922,1581,1580,1580,1580,0,0,0,0,0,0,0,0,0,0
1683202952.70055389,81928882,1581,1581,1579,1578,0,0,0,0,0,0,0,0,0,0
1683202952.80051398,82028842,1582,1582,1579,1579,0,0,0,0,0,0,0,0,0,0
1683202952.90047407,82128802,1583,1583,1579,1579,0,0,0,0,0,0,0,0,0,0
1683202953.00043392,82228762,1582,1582,1577,1577,0,0,0,0,0,0,0,0,0,0
1683202953.10039401,82328722,1583,1583,1579,1579,0,0,0,0,0,0,0,0,0,0
1683202953.20035410,82428682,1582,1582,1578,1578,0,0,0,0,0,0,0,0,0,0
1683202953.30031395,82528642,1582,1582,1579,1579,0,0,0,0,0,0,0,0,0,0
1683202953.40027404,82628602,1581,1581,1579,1579,0,0,0,0,0,0,0,0,0,0
1683202953.50023413,82728562,1581,1581,1580,1580,0,0,0,0,0,0,0,0,0,0
1683202953.60019398,82828522,1581,1581,1580,1580,0,0,0,0,0,0,0,0,0,0
1683202953.70015407,82928482,1580,1580,1580,1580,0,0,0,0,0,0,0,0,0,0
1683202953.80011392,83028442,1580,1580,1581,1581,0,0,0,0,0,0,0,0,0,0
1683202953.90007401,83128402,1580,1580,1581,1581,0,0,0,0,0,0,0,0,0,0
1683202954.00003409,83228362,1579,1579,1581,1581,0,0,0,0,0,0,0,0,0,0
1683202954.09999394,83328322,1580,1580,1581,1581,0,0,0,0,0,0,0,0,0,0
1683202954.19995403,83428282,1580,1580,1582,1582,0,0,0,0,0,0,0,0,0,0
1683202954.29991412,83528242,1580,1580,1588,1575,0,0,0,0,0,0,0,0,0,0
1683202954.39987397,83628202,1580,1579,1586,1574,0,0,0,0,0,0,0,0,0,0
1683202954.49983406,83728162,1578,1577,1578,1574,0,0,0,0,0,0,0,0,0,0
1683202954.60062695,83828955,1575,1575,1571,1575,0,0,0,0,0,0,0,0,0,0
1683202954.70058703,83928915,1572,1572,1565,1573,0,0,0,0,0,0,0,0,0,0
1683202954.80054712,84028875,1569,1570,1563,1569,0,0,0,0,0,0,0,0,0,0
1683202954.90050697,84128835,1568,1568,1563,1568,0,0,0,0,0,0,0,0,0,0
1683202955.00046706,84228795,1567,1568,1565,1566,0,0,0,0,0,0,0,0,0,0
1683202955.10042691,84328755,1566,1567,1566,1565,0,0,0,0,0,0,0,0,0,0
1683202955.20038700,84428715,1565,1565,1567,1564,0,0,0,0,0,0,0,0,0,0
1683202955.30034709,84528675,1565,1565,1567,1564,0,0,0,0,0,0,0,0,0,0
1683202955.40030694,84628635,1565,1565,1567,1565,0,0,0,0,0,0,0,0,0,0
1683202955.50026703,84728595,1564,1564,1566,1566,0,0,0,0,0,0,0,0,0,0
1683202955.60022712,84828555,1563,1563,1565,1565,0,0,0,0,0,0,0,0,0,0
1683202955.70018697,84928515,1562,1562,1563,1564,0,0,0,0,0,0,0,0,0,0
1683202955.80014706,85028475,1561,1561,1562,1562,0,0,0,0,0,0,0,0,0,0
1683202955.90010691,85128435,1561,1561,1562,1562,0,0,0,0,0,0,0,0,0,0
1683202956.00006700,85228395,1561,1561,1561,1560,0,0,0,0,0,0,0,0,0,0
1683202956.10002708,85328355,1561,1561,1561,1561,0,0,0,0,0,0,0,0,0,0
1683202956.19998693,85428315,1560,1560,1561,1560,0,0,0,0,0,0,0,0,0,0
1683202956.29994702,85528275,1560,1560,1560,1560,0,0,0,0,0,0,0,0,0,0
1683202956.39990711,85628235,1560,1560,1560,1560,0,0,0,0,0,0,0,0,0,0
1683202956.49986696,85728195,1560,1559,1560,1559,0,0,0,0,0,0,0,0,0,0
1683202956.59982705,85828155,1559,1559,1560,1559,0,0,0,0,0,0,0,0,0,0
1683202956.70061994,85928948,1559,1559,1560,1559,0,0,0,0,0,0,0,0,0,0
1683202956.80058002,86028908,1558,1558,1559,1557,0,0,0,0,0,0,0,0,0,0
1683202956.90054011,86128868,1559,1559,1560,1558,0,0,0,0,0,0,0,0,0,0
1683202957.00049996,86228828,1559,1559,1560,1557,0,0,0,0,0,0,0,0,0,0
1683202957.10046005,86328788,1560,1559,1561,1559,0,0,0,0,0,0,0,0,0,0
1683202957.20041990,86428748,1560,1559,1559,1562,0,0,0,0,0,0,0,0,0,0
1683202957.30037999,86528708,1560,1560,1557,1564,0,0,0,0,0,0,0,0,0,0
1683202957.40034008,86628668,1560,1561,1558,1564,0,0,0,0,0,0,0,0,0,0
1683202957.50029993,86728628,1560,1562,1558,1565,0,0,0,0,0,0,0,0,0,0
1683202957.60026002,86828588,1560,1561,1559,1561,0,0,0,0,0,0,0,0,0,0
1683202957.70022011,86928548,1559,1559,1559,1557,0,0,0,0,0,0,0,0,0,0
1683202957.80017996,87028508,1559,1559,1558,1558,0,0,0,0,0,0,0,0,0,0
1683202957.90014005,87128468,1557,1557,1555,1557,0,0,0,0,0,0,0,0,0,0
1683202958.00009990,87228428,1554,1554,1550,1553,0,0,0,0,0,0,0,0,0,0
1683202958.10005999,87328388,1550,1549,1545,1546,0,0,0,0,0,0,0,0,0,0
1683202958.20002007,87428348,1545,1544,1540,1540,0,0,0,0,0,0,0,0,0,0
1683202958.29997993,87528308,1539,1538,1533,1532,0,0,0,0,0,0,0,0,0,0
1683202958.39994001,87628268,1532,1531,1526,1525,0,0,0,0,0,0,0,0,0,0
1683202958.49990010,87728228,1525,1526,1520,1520,0,0,0,0,0,0,0,0,0,0
1683202958.59985995,87828188,1522,1522,1519,1518,0,0,0,0,0,0,0,0,0,0
1683202958.70065308,87928981,1519,1519,1518,1519,0,0,0,0,0,0,0,0,0,0
1683202958.80061293,88028941,1518,1519,1521,1522,0,0,0,0,0,0,0,0,0,0
1683202958.90057302,88128901,1520,1520,1525,1526,0,0,0,0,0,0,0,0,0,0
1683202959.00053310,88228861,1522,1521,1529,1530,0,0,0,0,0,0,0,0,0,0
1683202959.10049295,88328821,1525,1525,1535,1535,0,0,0,0,0,0,0,0,0,0
1683202959.20045304,88428781,1530,1530,1540,1540,0,0,0,0,0,0,0,0,0,0
1683202959.30041289,88528741,1533,1533,1543,1543,0,0,0,0,0,0,0,0,0,0
1683202959.40037298,88628701,1536,1537,1545,1545,0,0,0,0,0,0,0,0,0,0
1683202959.50033307,88728661,1539,1540,1545,1545,0,0,0,0,0,0,0,0,0,0
1683202959.60029292,88828621,1543,1543,1546,1546,0,0,0,0,0,0,0,0,0,0
1683202959.70025301,88928581,1545,1546,1546,1545,0,0,0,0,0,0,0,0,0,0
1683202959.80021310,89028541,1547,1547,1545,1544,0,0,0,0,0,0,0,0,0,0
1683202959.90017295,89128501,1549,1549,1545,1544,0,0,0,0,0,0,0,0,0,0
1683202960.00013304,89228461,1550,1550,1544,1544,0,0,0,0,0,0,0,0,0,0
1683202960.10009313,89328421,1551,1550,1544,1544,0,0,0,0,0,0,0,0,0,0
1683202960.20005298,89428381,1550,1550,1543,1543,0,0,0,0,0,0,0,0,0,0
1683202960.30001307,89528341,1551,1550,1544,1544,0,0,0,0,0,0,0,0,0,0
1683202960.39997292,89628301,1549,1549,1543,1543,0,0,0,0,0,0,0,0,0,0
1683202960.49993300,89728261,1548,1549,1544,1544,0,0,0,0,0,0,0,0,0,0
1683202960.59989309,89828221,1548,1548,1545,1545,0,0,0,0,0,0,0,0,0,0
1683202960.69985294,89928181,1546,1546,1545,1544,0,0,0,0,0,0,0,0,0,0
1683202960.80064607,90028974,1546,1546,1546,1546,0,0,0,0,0,0,0,0,0,0
1683202960.90060592,90128934,1545,1544,1546,1545,0,0,0,0,0,0,0,0,0,0
1683202961.00056601,90228894,1543,1544,1545,1545,0,0,0,0,0,0,0,0,0,0
1683202961.10052609,90328854,1543,1543,1545,1546,0,0,0,0,0,0,0,0,0,0
1683202961.20048594,90428814,1543,1543,1545,1546,0,0,0,0,0,0,0,0,0,0
1683202961.30044603,90528774,1542,1542,1545,1545,0,0,0,0,0,0,0,0,0,0
1683202961.40040612,90628734,1543,1543,1545,1545,0,0,0,0,0,0,0,0,0,0
1683202961.50036597,90728694,1543,1543,1546,1545,0,0,0,0,0,0,0,0,0,0
1683202961.60032606,90828654,1543,1543,1545,1544,0,0,0,0,0,0,0,0,0,0
1683202961.70028591,90928614,1543,1543,1544,1545,0,0,0,0,0,0,0,0,0,0
1683202961.80024600,91028574,1543,1544,1544,1544,0,0,0,0,0,0,0,0,0,0
1683202961.90020609,91128534,1544,1544,1544,1544,0,0,0,0,0,0,0,0,0,0
1683202962.00016594,91228494,1544,1544,1543,1543,0,0,0,0,0,0,0,0,0,0
1683202962.10012603,91328454,1544,1544,1542,1542,0,0,0,0,0,0,0,0,0,0
1683202962.20008612,91428414,1544,1544,1542,1542,0,0,0,0,0,0,0,0,0,0
1683202962.30004597,91528374,1544,1543,1542,1542,0,0,0,0,0,0,0,0,0,0
1683202962.40000606,91628334,1544,1543,1543,1542,0,0,0,0,0,0,0,0,0,0
1683202962.49996591,91728294,1544,1544,1543,1543,0,0,0,0,0,0,0,0,0,0
1683202962.59992599,91828254,1543,1544,1544,1543,0,0,0,0,0,0,0,0,0,0
1683202962.69988608,91928214,1544,1544,1543,1544,0,0,0,0,0,0,0,0,0,0
1683202962.79984593,92028174,1544,1544,1544,1544,0,0,0,0,0,0,0,0,0,0
1683202962.90063906,92128967,1544,1543,1544,1543,0,0,0,0,0,0,0,0,0,0
1683202963.00059891,92228927,1544,1544,1544,1544,0,0,0,0,0,0,0,0,0,0
1683202963.10055900,92328887,1543,1543,1543,1544,0,0,0,0,0,0,0,0,0,0
1683202963.20051908,92428847,1543,1543,1544,1544,0,0,0,0,0,0,0,0,0,0
1683202963.30047894,92528807,1544,1544,1544,1544,0,0,0,0,0,0,0,0,0,0
1683202963.40043902,92628767,1544,1544,1544,1544,0,0,0,0,0,0,0,0,0,0
1683202963.50039911,92728727,1545,1544,1545,1545,0,0,0,0,0,0,0,0,0,0
1683202963.60035896,92828687,1544,1544,1544,1545,0,0,0,0,0,0,0,0,0,0
1683202963.70031905,92928647,1545,1545,1545,1545,0,0,0,0,0,0,0,0,0,0
1683202963.80027890,93028607,1544,1544,1545,1544,0,0,0,0,0,0,0,0,0,0
1683202963.90023899,93128567,1544,1544,1544,1544,0,0,0,0,0,0,0,0,0,0
1683202964.00019908,93228527,1545,1545,1545,1545,0,0,0,0,0,0,0,0,0,0
1683202964.10015893,93328487,1545,1545,1544,1544,0,0,0,0,0,0,0,0,0,0
1683202964.20011902,93428447,1545,1546,1545,1545,0,0,0,0,0,0,0,0,0,0
1683202964.30007911,93528407,1545,1545,1545,1545,0,0,0,0,0,0,0,0,0,0
1683202964.40003896,93628367,1545,1544,1544,1544,0,0,0,0,0,0,0,0,0,0
1683202964.49999905,93728327,1545,1544,1544,1544,0,0,0,0,0,0,0,0,0,0
1683202964.59995890,93828287,1544,1544,1543,1543,0,0,0,0,0,0,0,0,0,0
1683202964.69991899,93928247,1544,1544,1543,1544,0,0,0,0,0,0,0,0,0,0
1683202964.79987907,94028207,1544,1544,1543,1544,0,0,0,0,0,0,0,0,0,0
1683202964.89983892,94128167,1545,1545,1545,1545,0,0,0,0,0,0,0,0,0,0
1683202965.00063205,94228960,1544,1544,1544,1543,0,0,0,0,0,0,0,0,0,0
1683202965.10059190,94328920,1544,1544,1544,1544,0,0,0,0,0,0,0,0,0,0
1683202965.20055199,94428880,1544,1545,1545,1544,0,0,0,0,0,0,0,0,0,0
1683202965.30051208,94528840,1544,1544,1545,1545,0,0,0,0,0,0,0,0,0,0
1683202965.40047193,94628800,1545,1544,1544,1545,0,0,0,0,0,0,0,0,0,0
1683202965.50043201,94728760,1544,1544,1544,1544,0,0,0,0,0,0,0,0,0,0
1683202965.60039210,94828720,1545,1545,1545,1545,0,0,0,0,0,0,0,0,0,0
1683202965.70035195,94928680,1545,1545,1545,1545,0,0,0,0,0,0,0,0,0,0
1683202965.80031204,95028640,1545,1545,1545,1544,0,0,0,0,0,0,0,0,0,0
1683202965.90027189,95128600,1544,1544,1543,1544,0,0,0,0,0,0,0,0,0,0
1683202966.00023198,95228560,1544,1544,1544,1544,0,0,0,0,0,0,0,0,0,0
1683202966.10019207,95328520,1545,1545,1544,1545,0,0,0,0,0,0,0,0,0,0
1683202966.20015192,95428480,1545,1545,1544,1545,0,0,0,0,0,0,0,0,0,0
1683202966.30011201,95528440,1545,1545,1545,1545,0,0,0,0,0,0,0,0,0,0
1683202966.40007210,95628400,1545,1545,1546,1545,0,0,0,0,0,0,0,0,0,0
1683202966.50003195,95728360,1545,1545,1545,1544,0,0,0,0,0,0,0,0,0,0
1683202966.59999204,95828320,1544,1544,1544,1544,0,0,0,0,0,0,0,0,0,0
1683202966.69995213,95928280,1545,1545,1545,1545,0,0,0,0,0,0,0,0,0,0
1683202966.79991198,96028240,1545,1544,1544,1544,0,0,0,0,0,0,0,0,0,0
1683202966.89987206,96128200,1544,1544,1544,1544,0,0,0,0,0,0,0,0,0,0
1683202966.99983191,96228160,1544,1543,1543,1544,0,0,0,0,0,0,0,0,0,0
1683202967.10062504,96328953,1544,1544,1543,1544,0,0,0,0,0,0,0,0,0,0
1683202967.20058513,96428913,1543,1544,1543,1544,0,0,0,0,0,0,0,0,0,0
1683202967.30054498,96528873,1544,1545,1545,1545,0,0,0,0,0,0,0,0,0,0
1683202967.40050507,96628833,1544,1544,1545,1544,0,0,0,0,0,0,0,0,0,0
1683202967.50046492,96728793,1545,1544,1545,1544,0,0,0,0,0,0,0,0,0,0
1683202967.60042500,96828753,1544,1544,1544,1543,0,0,0,0,0,0,0,0,0,0
1683202967.70038509,96928713,1545,1544,1545,1545,0,0,0,0,0,0,0,0,0,0
1683202967.80034494,97028673,1545,1545,1545,1545,0,0,0,0,0,0,0,0,0,0
1683202967.90030503,97128633,1544,1544,1544,1545,0,0,0,0,0,0,0,0,0,0
1683202968.00026512,97228593,1544,1545,1545,1545,0,0,0,0,0,0,0,0,0,0
1683202968.10022497,97328553,1544,1544,1544,1544,0,0,0,0,0,0,0,0,0,0
1683202968.20018506,97428513,1531,1531,1525,1525,0,0,0,0,0,0,0,0,0,0
1683202968.30014491,97528473,1412,1410,1335,1338,0,0,0,0,0,0,0,0,0,0
1683202968.40010500,97628433,1360,1358,1241,1243,0,0,0,0,0,0,0,0,0,0
1683202968.50006509,97728393,1345,1344,1212,1215,0,0,0,0,0,0,0,0,0,0
1683202968.60002494,97828353,1335,1334,1192,1194,0,0,0,0,0,0,0,0,0,0
1683202968.69998503,97928313,1316,1315,1150,1153,0,0,0,0,0,0,0,0,0,0
1683202968.79994512,98028273,1244,1243,1150,1152,0,0,0,0,0,0,0,0,0,0
1683202968.89990497,98128233,1152,1150,1150,1153,0,0,0,0,0,0,0,0,0,0
1683202968.99986506,98228193,1052,1050,1150,1152,0,0,0,0,0,0,0,0,0,0
1683202969.10065794,98328986,975,973,1150,1152,0,0,0,0,0,0,0,0,0,0
1683202969.20061803,98428946,975,973,1150,1152,0,0,0,0,0,0,0,0,0,0
1683202969.30057812,98528906,975,973,1150,1152,0,0,0,0,0,0,0,0,0,0
1683202969.40053797,98628866,975,961,1150,1169,0,0,0,0,0,0,0,0,0,0
1683202969.50049806,98728826,975,964,1150,1165,0,0,0,0,0,0,0,0,0,0
1683202969.60045791,98828786,975,967,1150,1161,0,0,0,0,0,0,0,0,0,0
1683202969.70041800,98928746,975,967,1150,1160,0,0,0,0,0,0,0,0,0,0
1683202969.80037808,99028706,975,968,1150,1160,0,0,0,0,0,0,0,0,0,0
1683202969.90033793,99128666,975,967,1150,1160,0,0,0,0,0,0,0,0,0,0
1683202970.00029802,99228626,975,967,1150,1160,0,0,0,0,0,0,0,0,0,0
1683202970.10025811,99328586,975,967,1150,1160,0,0,0,0,0,0,0,0,0,0
1683202970.20021796,99428546,975,975,1150,1150,0,0,0,0,0,0,0,0,0,0
1683202970.30017805,99528506,975,973,1150,1152,0,0,0,0,0,0,0,0,0,0
1683202970.40013790,99628466,975,973,1150,1152,0,0,0,0,0,0,0,0,0,0
1683202970.50009799,99728426,975,973,1150,1152,0,0,0,0,0,0,0,0,0,0
1683202970.60005808,99828386,975,973,1150,1153,0,0,0,0,0,0,0,0,0,0
1683202970.70001793,99928346,1000,1000,1000,1000,0,0,0,0,0,0,0,0,0,0
1683202970.79997802,100028306,1000,1000,1000,1000,0,0,0,0,0,0,0,0,0,0
1683202970.89993811,100128266,1000,1000,1000,1000,0,0,0,0,0,0,0,0,0,0
1683202970.99989796,100228226,1000,1000,1000,1000,0,0,0,0,0,0,0,0,0,0
1683202971.09985805,100328186,1000,1000,1000,1000,0,0,0,0,0,0,0,0,0,0
1683202971.20065093,100428979,1000,1000,1000,1000,0,0,0,0,0,0,0,0,0,0
1683202971.30061102,100528939,1000,1000,1000,1000,0,0,0,0,0,0,0,0,0,0
1683202971.40057111,100628899,1000,1000,1000,1000,0,0,0,0,0,0,0,0,0,0
1683202971.50053096,100728859,1000,1000,1000,1000,0,0,0,0,0,0,0,0,0,0
1683202971.60049105,100828819,1000,1000,1000,1000,0,0,0,0,0,0,0,0,0,0
1683202971.70045090,100928779,1000,1000,1000,1000,0,0,0,0,0,0,0,0,0,0
1683202971.80041099,101028739,1000,1000,1000,1000,0,0,0,0,0,0,0,0,0,0
1683202971.90037107,101128699,1000,1000,1000,1000,0,0,0,0,0,0,0,0,0,0
1683202972.00033092,101228659,1000,1000,1000,1000,0,0,0,0,0,0,0,0,0,0
1683202972.10029101,101328619,1000,1000,1000,1000,0,0,0,0,0,0,0,0,0,0
1683202972.20025110,101428579,1000,1000,1000,1000,0,0,0,0,0,0,0,0,0,0
1683202972.30021095,101528539,1000,1000,1000,1000,0,0,0,0,0,0,0,0,0,0
1683202972.40017104,101628499,1000,1000,1000,1000,0,0,0,0,0,0,0,0,0,0
1683202972.50013089,101728459,1000,1000,1000,1000,0,0,0,0,0,0,0,0,0,0
1683202972.60009098,101828419,1000,1000,1000,1000,0,0,0,0,0,0,0,0,0,0
1683202972.70005107,101928379,1000,1000,1000,1000,0,0,0,0,0,0,0,0,0,0
1683202972.80001092,102028339,1000,1000,1000,1000,0,0,0,0,0,0,0,0,0,0
1683202972.89997101,102128299,1000,1000,1000,1000,0,0,0,0,0,0,0,0,0,0
1683202972.99993110,102228259,1000,1000,1000,1000,0,0,0,0,0,0,0,0,0,0
1683202973.09989095,102328219,1000,1000,1000,1000,0,0,0,0,0,0,0,0,0,0
1683202973.19985104,102428179,1000,1000,1000,1000,0,0,0,0,0,0,0,0,0,0
1683202973.30064392,102528972,1000,1000,1000,1000,0,0,0,0,0,0,0,0,0,0
1683202973.40060401,102628932,1000,1000,1000,1000,0,0,0,0,0,0,0,0,0,0
1683202973.50056410,102728892,1000,1000,1000,1000,0,0,0,0,0,0,0,0,0,0
1683202973.60052395,102828852,1000,1000,1000,1000,0,0,0,0,0,0,0,0,0,0
1683202973.70048404,102928812,1000,1000,1000,1000,0,0,0,0,0,0,0,0,0,0
1683202973.80044413,103028772,1000,1000,1000,1000,0,0,0,0,0,0,0,0,0,0
1683202973.90040398,103128732,1000,1000,1000,1000,0,0,0,0,0,0,0,0,0,0
1683202974.00036407,103228692,1000,1000,1000,1000,0,0,0,0,0,0,0,0,0,0
1683202974.10032392,103328652,1000,1000,1000,1000,0,0,0,0,0,0,0,0,0,0
1683202974.20028400,103428612,1000,1000,1000,1000,0,0,0,0,0,0,0,0,0,0
1683202974.30024409,103528572,1000,1000,1000,1000,0,0,0,0,0,0,0,0,0,0
1683202974.40020394,103628532,1000,1000,1000,1000,0,0,0,0,0,0,0,0,0,0
1683202974.50016403,103728492,1000,1000,1000,1000,0,0,0,0,0,0,0,0,0,0
1683202974.60012412,103828452,1000,1000,1000,1000,0,0,0,0,0,0,0,0,0,0
1683202974.70008397,103928412,1000,1000,1000,1000,0,0,0,0,0,0,0,0,0,0
1683202974.80004406,104028372,1000,1000,1000,1000,0,0,0,0,0,0,0,0,0,0
1683202974.90000391,104128332,1000,1000,1000,1000,0,0,0,0,0,0,0,0,0,0
1683202974.99996400,104228292,1000,1000,1000,1000,0,0,0,0,0,0,0,0,0,0
1683202975.09992409,104328252,1000,1000,1000,1000,0,0,0,0,0,0,0,0,0,0
1683202975.19988394,104428212,1000,1000,1000,1000,0,0,0,0,0,0,0,0,0,0
1683202975.29984403,104528172,1000,1000,1000,1000,0,0,0,0,0,0,0,0,0,0
1683202975.40063691,104628965,1000,1000,1000,1000,0,0,0,0,0,0,0,0,0,0
1683202975.50059700,104728925,1000,1000,1000,1000,0,0,0,0,0,0,0,0,0,0
1683202975.60055709,104828885,1000,1000,1000,1000,0,0,0,0,0,0,0,0,0,0
1683202975.70051694,104928845,1000,1000,1000,1000,0,0,0,0,0,0,0,0,0,0
1683202975.80047703,105028805,1000,1000,1000,1000,0,0,0,0,0,0,0,0,0,0
1683202975.90043712,105128765,1000,1000,1000,1000,0,0,0,0,0,0,0,0,0,0
1683202976.00039697,105228725,1000,1000,1000,1000,0,0,0,0,0,0,0,0,0,0
1683202976.10035706,105328685,1000,1000,1000,1000,0,0,0,0,0,0,0,0,0,0
1683202976.20031691,105428645,1000,1000,1000,1000,0,0,0,0,0,0,0,0,0,0
1683202976.30027699,105528605,1000,1000,1000,1000,0,0,0,0,0,0,0,0,0,0
1683202976.40023708,105628565,1000,1000,1000,1000,0,0,0,0,0,0,0,0,0,0
1683202976.50019693,105728525,1000,1000,1000,1000,0,0,0,0,0,0,0,0,0,0
1683202976.60015702,105828485,1000,1000,1000,1000,0,0,0,0,0,0,0,0,0,0
1683202976.70011711,105928445,1000,1000,1000,1000,0,0,0,0,0,0,0,0,0,0
1683202976.80007696,106028405,1000,1000,1000,1000,0,0,0,0,0,0,0,0,0,0
1683202976.90003705,106128365,1000,1000,1000,1000,0,0,0,0,0,0,0,0,0,0
1683202976.99999690,106228325,1000,1000,1000,1000,0,0,0,0,0,0,0,0,0,0
1683202977.09995699,106328285,1000,1000,1000,1000,0,0,0,0,0,0,0,0,0,0
1683202977.19991708,106428245,1000,1000,1000,1000,0,0,0,0,0,0,0,0,0,0
1683202977.29987693,106528205,1000,1000,1000,1000,0,0,0,0,0,0,0,0,0,0
1683202977.39983702,106628165,1000,1000,1000,1000,0,0,0,0,0,0,0,0,0,0
1683202977.50062990,106728958,1000,1000,1000,1000,0,0,0,0,0,0,0,0,0,0
1683202977.60058999,106828918,1000,1000,1000,1000,0,0,0,0,0,0,0,0,0,0
1683202977.70055008,106928878,1000,1000,1000,1000,0,0,0,0,0,0,0,0,0,0
1683202977.80050993,107028838,1000,1000,1000,1000,0,0,0,0,0,0,0,0,0,0
1683202977.90047002,107128798,1000,1000,1000,1000,0,0,0,0,0,0,0,0,0,0
1683202978.00043011,107228758,1000,1000,1000,1000,0,0,0,0,0,0,0,0,0,0
1683202978.10038996,107328718,1000,1000,1000,1000,0,0,0,0,0,0,0,0,0,0
1683202978.20035005,107428678,1000,1000,1000,1000,0,0,0,0,0,0,0,0,0,0
1683202978.30030990,107528638,1000,1000,1000,1000,0,0,0,0,0,0,0,0,0,0
1683202978.40026999,107628598,1000,1000,1000,1000,0,0,0,0,0,0,0,0,0,0
1683202978.50023007,107728558,1000,1000,1000,1000,0,0,0,0,0,0,0,0,0,0
1683202978.60018992,107828518,1000,1000,1000,1000,0,0,0,0,0,0,0,0,0,0
1683202978.70015001,107928478,1000,1000,1000,1000,0,0,0,0,0,0,0,0,0,0
1683202978.80011010,108028438,1000,1000,1000,1000,0,0,0,0,0,0,0,0,0,0
1683202978.90006995,108128398,1000,1000,1000,1000,0,0,0,0,0,0,0,0,0,0
1683202979.00003004,108228358,1000,1000,1000,1000,0,0,0,0,0,0,0,0,0,0
1683202979.09999013,108328318,1000,1000,1000,1000,0,0,0,0,0,0,0,0,0,0
1683202979.19994998,108428278,1000,1000,1000,1000,0,0,0,0,0,0,0,0,0,0
1683202979.29991007,108528238,1000,1000,1000,1000,0,0,0,0,0,0,0,0,0,0
1683202979.39986992,108628198,1000,1000,1000,1000,0,0,0,0,0,0,0,0,0,0
1683202979.49983001,108728158,1000,1000,1000,1000,0,0,0,0,0,0,0,0,0,0
1683202979.60062289,108828951,1000,1000,1000,1000,0,0,0,0,0,0,0,0,0,0
1683202979.70058298,108928911,1000,1000,1000,1000,0,0,0,0,0,0,0,0,0,0
1683202979.80054307,109028871,1000,1000,1000,1000,0,0,0,0,0,0,0,0,0,0
1683202979.90050292,109128831,1000,1000,1000,1000,0,0,0,0,0,0,0,0,0,0
1683202980.00046301,109228791,1000,1000,1000,1000,0,0,0,0,0,0,0,0,0,0
1683202980.10042310,109328751,1000,1000,1000,1000,0,0,0,0,0,0,0,0,0,0
1683202980.20038295,109428711,1000,1000,1000,1000,0,0,0,0,0,0,0,0,0,0
1683202980.30034304,109528671,1000,1000,1000,1000,0,0,0,0,0,0,0,0,0,0
1683202980.40030313,109628631,1000,1000,1000,1000,0,0,0,0,0,0,0,0,0,0
1683202980.50026298,109728591,1000,1000,1000,1000,0,0,0,0,0,0,0,0,0,0
1683202980.60022306,109828551,1000,1000,1000,1000,0,0,0,0,0,0,0,0,0,0
1683202980.70018291,109928511,1000,1000,1000,1000,0,0,0,0,0,0,0,0,0,0
1683202980.80014300,110028471,1000,1000,1000,1000,0,0,0,0,0,0,0,0,0,0
1683202980.90010309,110128431,1000,1000,1000,1000,0,0,0,0,0,0,0,0,0,0
1683202981.00006294,110228391,1000,1000,1000,1000,0,0,0,0,0,0,0,0,0,0
1683202981.10002303,110328351,1000,1000,1000,1000,0,0,0,0,0,0,0,0,0,0
1683202981.19998312,110428311,1000,1000,1000,1000,0,0,0,0,0,0,0,0,0,0
1683202981.29994297,110528271,1000,1000,1000,1000,0,0,0,0,0,0,0,0,0,0
1683202981.39990306,110628231,1000,1000,1000,1000,0,0,0,0,0,0,0,0,0,0
1683202981.49986291,110728191,1000,1000,1000,1000,0,0,0,0,0,0,0,0,0,0
1683202981.60065603,110828984,1000,1000,1000,1000,0,0,0,0,0,0,0,0,0,0
1683202981.70061612,110928944,1000,1000,1000,1000,0,0,0,0,0,0,0,0,0,0
1683202981.80057597,111028904,1000,1000,1000,1000,0,0,0,0,0,0,0,0,0,0
1683202981.90053606,111128864,1000,1000,1000,1000,0,0,0,0,0,0,0,0,0,0
1683202982.00049591,111228824,1000,1000,1000,1000,0,0,0,0,0,0,0,0,0,0
1683202982.10045600,111328784,1000,1000,1000,1000,0,0,0,0,0,0,0,0,0,0
1683202982.20041609,111428744,1000,1000,1000,1000,0,0,0,0,0,0,0,0,0,0
1683202982.30037594,111528704,1000,1000,1000,1000,0,0,0,0,0,0,0,0,0,0
1683202982.40033603,111628664,1000,1000,1000,1000,0,0,0,0,0,0,0,0,0,0
1683202982.50029612,111728624,1000,1000,1000,1000,0,0,0,0,0,0,0,0,0,0
1683202982.60025597,111828584,1000,1000,1000,1000,0,0,0,0,0,0,0,0,0,0
1683202982.70021605,111928544,1000,1000,1000,1000,0,0,0,0,0,0,0,0,0,0
1683202982.80017591,112028504,1000,1000,1000,1000,0,0,0,0,0,0,0,0,0,0
1683202982.90013599,112128464,1000,1000,1000,1000,0,0,0,0,0,0,0,0,0,0
1683202983.00009608,112228424,1000,1000,1000,1000,0,0,0,0,0,0,0,0,0,0
1683202983.10005593,112328384,1000,1000,1000,1000,0,0,0,0,0,0,0,0,0,0
1683202983.20001602,112428344,1000,1000,1000,1000,0,0,0,0,0,0,0,0,0,0
1683202983.29997611,112528304,1000,1000,1000,1000,0,0,0,0,0,0,0,0,0,0
1683202983.39993596,112628264,1000,1000,1000,1000,0,0,0,0,0,0,0,0,0,0
1683202983.49989605,112728224,1000,1000,1000,1000,0,0,0,0,0,0,0,0,0,0
1683202983.59985590,112828184,1000,1000,1000,1000,0,0,0,0,0,0,0,0,0,0
1683202983.70064902,112928977,1000,1000,1000,1000,0,0,0,0,0,0,0,0,0,0
1683202983.80060911,113028937,1000,1000,1000,1000,0,0,0,0,0,0,0,0,0,0
1683202983.90056896,113128897,1000,1000,1000,1000,0,0,0,0,0,0,0,0,0,0
1683202984.00052905,113228857,1000,1000,1000,1000,0,0,0,0,0,0,0,0,0,0
1683202984.10048890,113328817,1000,1000,1000,1000,0,0,0,0,0,0,0,0,0,0
1683202984.20044899,113428777,1000,1000,1000,1000,0,0,0,0,0,0,0,0,0,0
1683202984.30040908,113528737,1000,1000,1000,1000,0,0,0,0,0,0,0,0,0,0
1683202984.40036893,113628697,1000,1000,1000,1000,0,0,0,0,0,0,0,0,0,0
1683202984.50032902,113728657,1000,1000,1000,1000,0,0,0,0,0,0,0,0,0,0
1683202984.60028911,113828617,1000,1000,1000,1000,0,0,0,0,0,0,0,0,0,0
1683202984.70024896,113928577,1000,1000,1000,1000,0,0,0,0,0,0,0,0,0,0
1683202984.80020905,114028537,1000,1000,1000,1000,0,0,0,0,0,0,0,0,0,0
1683202984.90016890,114128497,1000,1000,1000,1000,0,0,0,0,0,0,0,0,0,0
1683202985.00012898,114228457,1000,1000,1000,1000,0,0,0,0,0,0,0,0,0,0
1683202985.10008907,114328417,1000,1000,1000,1000,0,0,0,0,0,0,0,0,0,0
1683202985.20004892,114428377,1000,1000,1000,1000,0,0,0,0,0,0,0,0,0,0
1683202985.30000901,114528337,1000,1000,1000,1000,0,0,0,0,0,0,0,0,0,0
1683202985.39996910,114628297,1000,1000,1000,1000,0,0,0,0,0,0,0,0,0,0
1683202985.49992895,114728257,1000,1000,1000,1000,0,0,0,0,0,0,0,0,0,0
1683202985.59988904,114828217,1000,1000,1000,1000,0,0,0,0,0,0,0,0,0,0
