timestamp,TimeUS,C1,C2,C3,C4,C5,C6,C7,C8,C9,C10,C11,C12,C13,C14
1683103063.30004025,50728867,1000,1000,1000,1000,0,0,0,0,0,0,0,0,0,0
1683103063.40000010,50828827,1000,1000,1000,1000,0,0,0,0,0,0,0,0,0,0
1683103063.49996018,50928787,1000,1000,1000,1000,0,0,0,0,0,0,0,0,0,0
1683103063.59992027,51028747,1000,1000,1000,1000,0,0,0,0,0,0,0,0,0,0
1683103063.69988012,51128707,1000,1000,1000,1000,0,0,0,0,0,0,0,0,0,0
1683103063.79984021,51228667,1000,1000,1000,1000,0,0,0,0,0,0,0,0,0,0
1683103063.89980030,51328627,1000,1000,1000,1000,0,0,0,0,0,0,0,0,0,0
1683103063.99976015,51428587,1000,1000,1000,1000,0,0,0,0,0,0,0,0,0,0
1683103064.09972024,51528547,1000,1000,1000,1000,0,0,0,0,0,0,0,0,0,0
1683103064.19968009,51628507,1000,1000,1000,1000,0,0,0,0,0,0,0,0,0,0
1683103064.29964018,51728467,1000,1000,1000,1000,0,0,0,0,0,0,0,0,0,0
1683103064.39960027,51828427,1000,1000,1000,1000,0,0,0,0,0,0,0,0,0,0
1683103064.49956012,51928387,1000,1000,1000,1000,0,0,0,0,0,0,0,0,0,0
1683103064.59952021,52028347,1000,1000,1000,1000,0,0,0,0,0,0,0,0,0,0
1683103064.69948030,52128307,1000,1000,1000,1000,0,0,0,0,0,0,0,0,0,0
1683103064.79944015,52228267,1000,1000,1000,1000,0,0,0,0,0,0,0,0,0,0
1683103064.89940023,52328227,1000,1000,1000,1000,0,0,0,0,0,0,0,0,0,0
1683103064.99936008,52428187,1000,1000,1000,1000,0,0,0,0,0,0,0,0,0,0
1683103065.10015321,52528980,1000,1000,1000,1000,0,0,0,0,0,0,0,0,0,0
1683103065.20011330,52628940,1000,1000,1000,1000,0,0,0,0,0,0,0,0,0,0
1683103065.30007315,52728900,1024,1024,1024,1024,0,0,0,0,0,0,0,0,0,0
1683103065.40003324,52828860,1054,1054,1054,1054,0,0,0,0,0,0,0,0,0,0
1683103065.49999309,52928820,1084,1084,1084,1084,0,0,0,0,0,0,0,0,0,0
1683103065.59995317,53028780,1113,1113,1113,1113,0,0,0,0,0,0,0,0,0,0
1683103065.69991326,53128740,1143,1143,1143,1143,0,0,0,0,0,0,0,0,0,0
1683103065.79987311,53228700,1357,1351,1352,1357,0,0,0,0,0,0,0,0,0,0
1683103065.89983320,53328660,1546,1541,1542,1547,0,0,0,0,0,0,0,0,0,0
1683103065.99979329,53428620,1699,1694,1694,1699,0,0,0,0,0,0,0,0,0,0
1683103066.09975314,53528580,1830,1825,1826,1830,0,0,0,0,0,0,0,0,0,0
1683103066.19971323,53628540,1900,1896,1897,1900,0,0,0,0,0,0,0,0,0,0
1683103066.29967308,53728500,1843,1841,1841,1843,0,0,0,0,0,0,0,0,0,0
1683103066.39963317,53828460,1715,1715,1715,1715,0,0,0,0,0,0,0,0,0,0
1683103066.49959326,53928420,1643,1645,1645,1643,0,0,0,0,0,0,0,0,0,0
1683103066.59955311,54028380,1630,1631,1632,1630,0,0,0,0,0,0,0,0,0,0
1683103066.69951320,54128340,1638,1639,1639,1637,0,0,0,0,0,0,0,0,0,0
1683103066.79947329,54228300,1640,1642,1642,1641,0,0,0,0,0,0,0,0,0,0
1683103066.89943314,54328260,1636,1636,1636,1636,0,0,0,0,0,0,0,0,0,0
1683103066.99939322,54428220,1627,1624,1622,1628,0,0,0,0,0,0,0,0,0,0
1683103067.09935308,54528180,1604,1603,1594,1612,0,0,0,0,0,0,0,0,0,0
1683103067.20014620,54628973,1596,1596,1587,1604,0,0,0,0,0,0,0,0,0,0
1683103067.30010629,54728933,1595,1595,1591,1598,0,0,0,0,0,0,0,0,0,0
1683103067.40006614,54828893,1597,1597,1597,1596,0,0,0,0,0,0,0,0,0,0
1683103067.50002623,54928853,1602,1602,1605,1599,0,0,0,0,0,0,0,0,0,0
1683103067.59998608,55028813,1587,1587,1599,1575,0,0,0,0,0,0,0,0,0,0
1683103067.69994617,55128773,1572,1572,1592,1553,0,0,0,0,0,0,0,0,0,0
1683103067.79990625,55228733,1561,1562,1572,1551,0,0,0,0,0,0,0,0,0,0
1683103067.89986610,55328693,1551,1551,1550,1554,0,0,0,0,0,0,0,0,0,0
1683103067.99982619,55428653,1543,1543,1532,1555,0,0,0,0,0,0,0,0,0,0
1683103068.09978628,55528613,1536,1535,1523,1549,0,0,0,0,0,0,0,0,0,0
1683103068.19974613,55628573,1530,1530,1521,1540,0,0,0,0,0,0,0,0,0,0
1683103068.29970622,55728533,1527,1526,1521,1531,0,0,0,0,0,0,0,0,0,0
1683103068.39966631,55828493,1527,1527,1526,1527,0,0,0,0,0,0,0,0,0,0
1683103068.49962616,55928453,1529,1529,1531,1527,0,0,0,0,0,0,0,0,0,0
1683103068.59958625,56028413,1532,1533,1536,1529,0,0,0,0,0,0,0,0,0,0
1683103068.69954610,56128373,1536,1536,1540,1532,0,0,0,0,0,0,0,0,0,0
1683103068.79950619,56228333,1540,1540,1544,1536,0,0,0,0,0,0,0,0,0,0
1683103068.89946628,56328293,1544,1544,1546,1542,0,0,0,0,0,0,0,0,0,0
1683103068.99942613,56428253,1546,1546,1546,1546,0,0,0,0,0,0,0,0,0,0
1683103069.09938622,56528213,1550,1550,1549,1551,0,0,0,0,0,0,0,0,0,0
1683103069.19934630,56628173,1552,1552,1550,1554,0,0,0,0,0,0,0,0,0,0
1683103069.30013919,56728966,1551,1551,1556,1560,0,0,0,0,0,0,0,0,0,0
1683103069.40009928,56828926,1551,1551,1560,1564,0,0,0,0,0,0,0,0,0,0
1683103069.50005913,56928886,1555,1555,1564,1565,0,0,0,0,0,0,0,0,0,0
1683103069.60001922,57028846,1558,1558,1564,1564,0,0,0,0,0,0,0,0,0,0
1683103069.69997931,57128806,1561,1561,1564,1563,0,0,0,0,0,0,0,0,0,0
1683103069.79993916,57228766,1564,1564,1565,1563,0,0,0,0,0,0,0,0,0,0
1683103069.89989924,57328726,1568,1568,1565,1564,0,0,0,0,0,0,0,0,0,0
1683103069.99985909,57428686,1570,1570,1565,1565,0,0,0,0,0,0,0,0,0,0
1683103070.09981918,57528646,1572,1572,1566,1566,0,0,0,0,0,0,0,0,0,0
1683103070.19977927,57628606,1573,1573,1566,1567,0,0,0,0,0,0,0,0,0,0
1683103070.29973912,57728566,1573,1572,1566,1567,0,0,0,0,0,0,0,0,0,0
1683103070.39969921,57828526,1573,1573,1568,1568,0,0,0,0,0,0,0,0,0,0
1683103070.49965930,57928486,1574,1573,1570,1570,0,0,0,0,0,0,0,0,0,0
1683103070.59961915,58028446,1574,1574,1572,1571,0,0,0,0,0,0,0,0,0,0
1683103070.69957924,58128406,1574,1574,1574,1573,0,0,0,0,0,0,0,0,0,0
1683103070.79953909,58228366,1574,1574,1575,1574,0,0,0,0,0,0,0,0,0,0
1683103070.89949918,58328326,1574,1574,1576,1575,0,0,0,0,0,0,0,0,0,0
1683103070.99945927,58428286,1574,1574,1577,1576,0,0,0,0,0,0,0,0,0,0
1683103071.09941912,58528246,1574,1573,1576,1576,0,0,0,0,0,0,0,0,0,0
1683103071.19937921,58628206,1574,1574,1576,1577,0,0,0,0,0,0,0,0,0,0
1683103071.29933929,58728166,1574,1573,1575,1576,0,0,0,0,0,0,0,0,0,0
1683103071.40013218,58828959,1575,1575,1577,1576,0,0,0,0,0,0,0,0,0,0
1683103071.50009227,58928919,1576,1576,1577,1577,0,0,0,0,0,0,0,0,0,0
1683103071.60005212,59028879,1576,1576,1577,1576,0,0,0,0,0,0,0,0,0,0
1683103071.70001221,59128839,1577,1577,1577,1577,0,0,0,0,0,0,0,0,0,0
1683103071.79997230,59228799,1577,1577,1577,1576,0,0,0,0,0,0,0,0,0,0
1683103071.89993215,59328759,1577,1577,1576,1576,0,0,0,0,0,0,0,0,0,0
1683103071.99989223,59428719,1577,1578,1577,1577,0,0,0,0,0,0,0,0,0,0
1683103072.09985209,59528679,1578,1577,1577,1577,0,0,0,0,0,0,0,0,0,0
1683103072.19981217,59628639,1578,1578,1577,1577,0,0,0,0,0,0,0,0,0,0
1683103072.29977226,59728599,1578,1578,1578,1577,0,0,0,0,0,0,0,0,0,0
1683103072.39973211,59828559,1579,1579,1579,1578,0,0,0,0,0,0,0,0,0,0
1683103072.49969220,59928519,1579,1578,1578,1579,0,0,0,0,0,0,0,0,0,0
1683103072.59965229,60028479,1579,1579,1579,1579,0,0,0,0,0,0,0,0,0,0
1683103072.69961214,60128439,1579,1579,1580,1580,0,0,0,0,0,0,0,0,0,0
1683103072.79957223,60228399,1578,1579,1579,1579,0,0,0,0,0,0,0,0,0,0
1683103072.89953208,60328359,1580,1579,1580,1580,0,0,0,0,0,0,0,0,0,0
1683103072.99949217,60428319,1579,1579,1580,1580,0,0,0,0,0,0,0,0,0,0
1683103073.09945226,60528279,1579,1579,1579,1579,0,0,0,0,0,0,0,0,0,0
1683103073.19941211,60628239,1580,1580,1580,1580,0,0,0,0,0,0,0,0,0,0
1683103073.29937220,60728199,1579,1579,1579,1580,0,0,0,0,0,0,0,0,0,0
1683103073.39933228,60828159,1580,1580,1580,1580,0,0,0,0,0,0,0,0,0,0
1683103073.50012517,60928952,1580,1580,1581,1580,0,0,0,0,0,0,0,0,0,0
1683103073.60008526,61028912,1581,1581,1581,1581,0,0,0,0,0,0,0,0,0,0
1683103073.70004511,61128872,1580,1580,1580,1581,0,0,0,0,0,0,0,0,0,0
1683103073.80000520,61228832,1580,1580,1580,1580,0,0,0,0,0,0,0,0,0,0
1683103073.89996529,61328792,1581,1580,1581,1580,0,0,0,0,0,0,0,0,0,0
1683103073.99992514,61428752,1580,1580,1580,1580,0,0,0,0,0,0,0,0,0,0
1683103074.09988523,61528712,1580,1580,1580,1581,0,0,0,0,0,0,0,0,0,0
1683103074.19984508,61628672,1580,1580,1580,1580,0,0,0,0,0,0,0,0,0,0
1683103074.29980516,61728632,1581,1581,1581,1580,0,0,0,0,0,0,0,0,0,0
1683103074.39976525,61828592,1581,1581,1581,1581,0,0,0,0,0,0,0,0,0,0
1683103074.49972510,61928552,1581,1580,1581,1581,0,0,0,0,0,0,0,0,0,0
1683103074.59968519,62028512,1580,1580,1580,1580,0,0,0,0,0,0,0,0,0,0
1683103074.69964528,62128472,1581,1581,1581,1581,0,0,0,0,0,0,0,0,0,0
1683103074.79960513,62228432,1580,1580,1580,1580,0,0,0,0,0,0,0,0,0,0
1683103074.89956522,62328392,1581,1581,1581,1581,0,0,0,0,0,0,0,0,0,0
1683103074.99952531,62428352,1581,1581,1581,1582,0,0,0,0,0,0,0,0,0,0
1683103075.09948516,62528312,1582,1582,1582,1582,0,0,0,0,0,0,0,0,0,0
1683103075.19944525,62628272,1582,1582,1582,1582,0,0,0,0,0,0,0,0,0,0
1683103075.29940510,62728232,1581,1581,1581,1581,0,0,0,0,0,0,0,0,0,0
1683103075.39936519,62828192,1581,1581,1581,1581,0,0,0,0,0,0,0,0,0,0
1683103075.50015831,62928985,1580,1580,1582,1578,0,0,0,0,0,0,0,0,0,0
1683103075.60011816,63028945,1580,1582,1587,1573,0,0,0,0,0,0,0,0,0,0
1683103075.70007825,63128905,1579,1581,1582,1573,0,0,0,0,0,0,0,0,0,0
1683103075.80003810,63228865,1578,1581,1574,1573,0,0,0,0,0,0,0,0,0,0
1683103075.89999819,63328825,1577,1580,1566,1571,0,0,0,0,0,0,0,0,0,0
1683103075.99995828,63428785,1577,1579,1560,1567,0,0,0,0,0,0,0,0,0,0
1683103076.09991813,63528745,1578,1579,1557,1563,0,0,0,0,0,0,0,0,0,0
1683103076.19987822,63628705,1579,1578,1556,1559,0,0,0,0,0,0,0,0,0,0
1683103076.29983830,63728665,1580,1578,1556,1557,0,0,0,0,0,0,0,0,0,0
1683103076.39979815,63828625,1580,1578,1557,1555,0,0,0,0,0,0,0,0,0,0
1683103076.49975824,63928585,1578,1578,1556,1554,0,0,0,0,0,0,0,0,0,0
1683103076.59971809,64028545,1577,1577,1557,1554,0,0,0,0,0,0,0,0,0,0
1683103076.69967818,64128505,1576,1577,1556,1554,0,0,0,0,0,0,0,0,0,0
1683103076.79963827,64228465,1574,1576,1554,1554,0,0,0,0,0,0,0,0,0,0
1683103076.89959812,64328425,1574,1576,1552,1553,0,0,0,0,0,0,0,0,0,0
1683103076.99955821,64428385,1576,1577,1552,1552,0,0,0,0,0,0,0,0,0,0
1683103077.09951830,64528345,1577,1578,1549,1550,0,0,0,0,0,0,0,0,0,0
1683103077.19947815,64628305,1578,1580,1547,1547,0,0,0,0,0,0,0,0,0,0
1683103077.29943824,64728265,1581,1582,1545,1544,0,0,0,0,0,0,0,0,0,0
1683103077.39939809,64828225,1583,1584,1542,1541,0,0,0,0,0,0,0,0,0,0
1683103077.49935818,64928185,1587,1587,1539,1539,0,0,0,0,0,0,0,0,0,0
1683103077.60015130,65028978,1590,1591,1537,1537,0,0,0,0,0,0,0,0,0,0
1683103077.70011115,65128938,1593,1592,1535,1535,0,0,0,0,0,0,0,0,0,0
1683103077.80007124,65228898,1594,1593,1534,1534,0,0,0,0,0,0,0,0,0,0
1683103077.90003109,65328858,1595,1594,1535,1536,0,0,0,0,0,0,0,0,0,0
1683103077.99999118,65428818,1594,1594,1537,1539,0,0,0,0,0,0,0,0,0,0
1683103078.09995127,65528778,1592,1591,1540,1543,0,0,0,0,0,0,0,0,0,0
1683103078.19991112,65628738,1587,1586,1545,1548,0,0,0,0,0,0,0,0,0,0
1683103078.29987121,65728698,1581,1579,1553,1557,0,0,0,0,0,0,0,0,0,0
1683103078.39983130,65828658,1573,1570,1564,1567,0,0,0,0,0,0,0,0,0,0
1683103078.49979115,65928618,1563,1559,1576,1578,0,0,0,0,0,0,0,0,0,0
1683103078.59975123,66028578,1552,1548,1587,1588,0,0,0,0,0,0,0,0,0,0
1683103078.69971108,66128538,1542,1539,1599,1599,0,0,0,0,0,0,0,0,0,0
1683103078.79967117,66228498,1533,1533,1607,1606,0,0,0,0,0,0,0,0,0,0
1683103078.89963126,66328458,1530,1531,1614,1612,0,0,0,0,0,0,0,0,0,0
1683103078.99959111,66428418,1528,1530,1614,1613,0,0,0,0,0,0,0,0,0,0
1683103079.09955120,66528378,1532,1534,1614,1613,0,0,0,0,0,0,0,0,0,0
1683103079.19951129,66628338,1538,1540,1609,1609,0,0,0,0,0,0,0,0,0,0
1683103079.29947114,66728298,1546,1547,1603,1603,0,0,0,0,0,0,0,0,0,0
1683103079.39943123,66828258,1555,1556,1596,1596,0,0,0,0,0,0,0,0,0,0
1683103079.49939108,66928218,1564,1564,1589,1588,0,0,0,0,0,0,0,0,0,0
1683103079.59935117,67028178,1571,1571,1581,1580,0,0,0,0,0,0,0,0,0,0
1683103079.70014429,67128971,1578,1578,1575,1574,0,0,0,0,0,0,0,0,0,0
1683103079.80010414,67228931,1583,1582,1570,1570,0,0,0,0,0,0,0,0,0,0
1683103079.90006423,67328891,1587,1585,1567,1567,0,0,0,0,0,0,0,0,0,0
1683103080.00002408,67428851,1588,1586,1565,1566,0,0,0,0,0,0,0,0,0,0
1683103080.09998417,67528811,1587,1585,1565,1566,0,0,0,0,0,0,0,0,0,0
1683103080.19994426,67628771,1585,1584,1568,1568,0,0,0,0,0,0,0,0,0,0
1683103080.29990411,67728731,1583,1582,1570,1570,0,0,0,0,0,0,0,0,0,0
1683103080.39986420,67828691,1580,1581,1574,1574,0,0,0,0,0,0,0,0,0,0
1683103080.49982429,67928651,1577,1578,1577,1576,0,0,0,0,0,0,0,0,0,0
1683103080.59978414,68028611,1575,1576,1580,1579,0,0,0,0,0,0,0,0,0,0
1683103080.69974422,68128571,1572,1572,1580,1580,0,0,0,0,0,0,0,0,0,0
1683103080.79970407,68228531,1572,1572,1582,1582,0,0,0,0,0,0,0,0,0,0
1683103080.89966416,68328491,1572,1572,1583,1583,0,0,0,0,0,0,0,0,0,0
1683103080.99962425,68428451,1573,1573,1583,1584,0,0,0,0,0,0,0,0,0,0
1683103081.09958410,68528411,1573,1573,1583,1583,0,0,0,0,0,0,0,0,0,0
1683103081.19954419,68628371,1573,1574,1581,1581,0,0,0,0,0,0,0,0,0,0
1683103081.29950428,68728331,1576,1577,1582,1581,0,0,0,0,0,0,0,0,0,0
1683103081.39946413,68828291,1578,1578,1580,1580,0,0,0,0,0,0,0,0,0,0
1683103081.49942422,68928251,1578,1579,1579,1578,0,0,0,0,0,0,0,0,0,0
1683103081.59938431,69028211,1581,1580,1578,1578,0,0,0,0,0,0,0,0,0,0
1683103081.69934416,69128171,1580,1580,1576,1576,0,0,0,0,0,0,0,0,0,0
1683103081.80013728,69228964,1581,1581,1577,1576,0,0,0,0,0,0,0,0,0,0
1683103081.90009713,69328924,1582,1581,1577,1577,0,0,0,0,0,0,0,0,0,0
1683103082.00005722,69428884,1581,1581,1577,1577,0,0,0,0,0,0,0,0,0,0
1683103082.10001731,69528844,1288,1288,1584,1584,0,0,0,0,0,0,0,0,0,0
1683103082.19997716,69628804,1387,1391,1643,1650,0,0,0,0,0,0,0,0,0,0
1683103082.29993725,69728764,1448,1457,1641,1642,0,0,0,0,0,0,0,0,0,0
1683103082.39989710,69828724,1505,1514,1630,1623,0,0,0,0,0,0,0,0,0,0
1683103082.49985719,69928684,1551,1556,1619,1610,0,0,0,0,0,0,0,0,0,0
1683103082.59981728,70028644,1586,1584,1612,1604,0,0,0,0,0,0,0,0,0,0
1683103082.69977713,70128604,1616,1603,1601,1597,0,0,0,0,0,0,0,0,0,0
1683103082.79973722,70228564,1643,1629,1577,1582,0,0,0,0,0,0,0,0,0,0
1683103082.89969730,70328524,1650,1636,1532,1543,0,0,0,0,0,0,0,0,0,0
1683103082.99965715,70428484,1650,1645,1534,1547,0,0,0,0,0,0,0,0,0,0
1683103083.09961724,70528444,1645,1650,1552,1560,0,0,0,0,0,0,0,0,0,0
1683103083.19957709,70628404,1641,1650,1570,1571,0,0,0,0,0,0,0,0,0,0
1683103083.29953718,70728364,1641,1650,1588,1585,0,0,0,0,0,0,0,0,0,0
1683103083.39949727,70828324,1634,1639,1590,1584,0,0,0,0,0,0,0,0,0,0
1683103083.49945712,70928284,1627,1628,1586,1582,0,0,0,0,0,0,0,0,0,0
1683103083.59941721,71028244,1623,1616,1587,1575,0,0,0,0,0,0,0,0,0,0
1683103083.69937730,71128204,1618,1606,1581,1575,0,0,0,0,0,0,0,0,0,0
1683103083.79933715,71228164,1609,1599,1572,1574,0,0,0,0,0,0,0,0,0,0
1683103083.90013027,71328957,1598,1594,1562,1568,0,0,0,0,0,0,0,0,0,0
1683103084.00009012,71428917,1589,1591,1557,1560,0,0,0,0,0,0,0,0,0,0
1683103084.10005021,71528877,1581,1586,1554,1553,0,0,0,0,0,0,0,0,0,0
1683103084.20001030,71628837,1576,1582,1552,1549,0,0,0,0,0,0,0,0,0,0
1683103084.29997015,71728797,1574,1578,1551,1546,0,0,0,0,0,0,0,0,0,0
1683103084.39993024,71828757,1573,1575,1550,1545,0,0,0,0,0,0,0,0,0,0
1683103084.49989009,71928717,1820,1818,1490,1483,0,0,0,0,0,0,0,0,0,0
1683103084.59985018,72028677,1757,1754,1460,1455,0,0,0,0,0,0,0,0,0,0
1683103084.69981027,72128637,1705,1704,1457,1458,0,0,0,0,0,0,0,0,0,0
1683103084.79977012,72228597,1657,1658,1464,1467,0,0,0,0,0,0,0,0,0,0
1683103084.89973021,72328557,1613,1618,1475,1479,0,0,0,0,0,0,0,0,0,0
1683103084.99969029,72428517,1574,1582,1492,1496,0,0,0,0,0,0,0,0,0,0
1683103085.09965014,72528477,1540,1546,1516,1521,0,0,0,0,0,0,0,0,0,0
1683103085.19961023,72628437,1491,1494,1558,1562,0,0,0,0,0,0,0,0,0,0
1683103085.29957008,72728397,1447,1448,1598,1602,0,0,0,0,0,0,0,0,0,0
1683103085.39953017,72828357,1433,1434,1619,1622,0,0,0,0,0,0,0,0,0,0
1683103085.49949026,72928317,1443,1443,1621,1622,0,0,0,0,0,0,0,0,0,0
1683103085.59945011,73028277,1466,1466,1615,1615,0,0,0,0,0,0,0,0,0,0
1683103085.69941020,73128237,1488,1489,1602,1601,0,0,0,0,0,0,0,0,0,0
1683103085.79937029,73228197,1511,1513,1590,1589,0,0,0,0,0,0,0,0,0,0
1683103085.89933014,73328157,1531,1533,1578,1577,0,0,0,0,0,0,0,0,0,0
1683103086.00012326,73428950,1549,1551,1569,1568,0,0,0,0,0,0,0,0,0,0
1683103086.10008311,73528910,1565,1564,1561,1560,0,0,0,0,0,0,0,0,0,0
1683103086.20004320,73628870,1577,1575,1555,1555,0,0,0,0,0,0,0,0,0,0
1683103086.30000329,73728830,1586,1583,1550,1550,0,0,0,0,0,0,0,0,0,0
1683103086.39996314,73828790,1592,1588,1545,1546,0,0,0,0,0,0,0,0,0,0
1683103086.49992323,73928750,1596,1591,1546,1547,0,0,0,0,0,0,0,0,0,0
1683103086.59988308,74028710,1595,1591,1550,1552,0,0,0,0,0,0,0,0,0,0
1683103086.69984317,74128670,1588,1584,1557,1559,0,0,0,0,0,0,0,0,0,0
1683103086.79980326,74228630,1578,1576,1568,1568,0,0,0,0,0,0,0,0,0,0
1683103086.89976311,74328590,1568,1567,1579,1579,0,0,0,0,0,0,0,0,0,0
1683103086.99972320,74428550,1557,1557,1588,1587,0,0,0,0,0,0,0,0,0,0
1683103087.09968328,74528510,1550,1550,1595,1595,0,0,0,0,0,0,0,0,0,0
1683103087.19964314,74628470,1546,1547,1600,1600,0,0,0,0,0,0,0,0,0,0
1683103087.29960322,74728430,1545,1546,1602,1601,0,0,0,0,0,0,0,0,0,0
1683103087.39956307,74828390,1547,1549,1602,1601,0,0,0,0,0,0,0,0,0,0
1683103087.49952316,74928350,1549,1551,1599,1599,0,0,0,0,0,0,0,0,0,0
1683103087.59948325,75028310,1553,1554,1595,1596,0,0,0,0,0,0,0,0,0,0
1683103087.69944310,75128270,1558,1558,1591,1591,0,0,0,0,0,0,0,0,0,0
1683103087.79940319,75228230,1563,1563,1588,1587,0,0,0,0,0,0,0,0,0,0
1683103087.89936328,75328190,1567,1568,1584,1583,0,0,0,0,0,0,0,0,0,0
1683103088.00015616,75428983,1572,1572,1580,1578,0,0,0,0,0,0,0,0,0,0
1683103088.10011625,75528943,1577,1577,1576,1575,0,0,0,0,0,0,0,0,0,0
1683103088.20007610,75628903,1581,1581,1572,1572,0,0,0,0,0,0,0,0,0,0
1683103088.30003619,75728863,1584,1583,1570,1570,0,0,0,0,0,0,0,0,0,0
1683103088.39999628,75828823,1587,1586,1570,1570,0,0,0,0,0,0,0,0,0,0
1683103088.49995613,75928783,1587,1586,1569,1569,0,0,0,0,0,0,0,0,0,0
1683103088.59991622,76028743,1586,1585,1570,1570,0,0,0,0,0,0,0,0,0,0
1683103088.69987631,76128703,1585,1584,1572,1572,0,0,0,0,0,0,0,0,0,0
1683103088.79983616,76228663,1583,1582,1574,1574,0,0,0,0,0,0,0,0,0,0
1683103088.89979625,76328623,1581,1580,1577,1577,0,0,0,0,0,0,0,0,0,0
1683103088.99975610,76428583,1578,1578,1578,1579,0,0,0,0,0,0,0,0,0,0
1683103089.09971619,76528543,1576,1577,1581,1581,0,0,0,0,0,0,0,0,0,0
1683103089.19967628,76628503,1575,1576,1583,1582,0,0,0,0,0,0,0,0,0,0
1683103089.29963613,76728463,1575,1575,1583,1583,0,0,0,0,0,0,0,0,0,0
1683103089.39959621,76828423,1574,1575,1582,1583,0,0,0,0,0,0,0,0,0,0
1683103089.49955630,76928383,1574,1575,1582,1583,0,0,0,0,0,0,0,0,0,0
1683103089.59951615,77028343,1575,1576,1582,1582,0,0,0,0,0,0,0,0,0,0
1683103089.69947624,77128303,1576,1577,1581,1581,0,0,0,0,0,0,0,0,0,0
1683103089.79943609,77228263,1578,1578,1581,1581,0,0,0,0,0,0,0,0,0,0
1683103089.89939618,77328223,1579,1579,1580,1580,0,0,0,0,0,0,0,0,0,0
1683103089.99935627,77428183,1581,1580,1580,1580,0,0,0,0,0,0,0,0,0,0
1683103090.10014915,77528976,1581,1581,1579,1578,0,0,0,0,0,0,0,0,0,0
1683103090.20010924,77628936,1582,1582,1579,1579,0,0,0,0,0,0,0,0,0,0
1683103090.30006909,77728896,1582,1582,1579,1579,0,0,0,0,0,0,0,0,0,0
1683103090.40002918,77828856,1583,1582,1579,1579,0,0,0,0,0,0,0,0,0,0
1683103090.49998927,77928816,1582,1582,1578,1579,0,0,0,0,0,0,0,0,0,0
1683103090.59994912,78028776,1581,1581,1579,1579,0,0,0,0,0,0,0,0,0,0
1683103090.69990921,78128736,1581,1581,1580,1579,0,0,0,0,0,0,0,0,0,0
1683103090.79986930,78228696,1580,1580,1580,1580,0,0,0,0,0,0,0,0,0,0
1683103090.89982915,78328656,1580,1581,1581,1580,0,0,0,0,0,0,0,0,0,0
1683103090.99978924,78428616,1580,1581,1581,1581,0,0,0,0,0,0,0,0,0,0
1683103091.09974909,78528576,1580,1580,1581,1581,0,0,0,0,0,0,0,0,0,0
1683103091.19970918,78628536,1580,1580,1581,1581,0,0,0,0,0,0,0,0,0,0
1683103091.29966927,78728496,1580,1579,1581,1581,0,0,0,0,0,0,0,0,0,0
1683103091.39962912,78828456,1580,1581,1581,1582,0,0,0,0,0,0,0,0,0,0
1683103091.49958920,78928416,1580,1580,1581,1581,0,0,0,0,0,0,0,0,0,0
1683103091.59954929,79028376,1580,1580,1581,1581,0,0,0,0,0,0,0,0,0,0
1683103091.69950914,79128336,1580,1581,1581,1581,0,0,0,0,0,0,0,0,0,0
1683103091.79946923,79228296,1579,1580,1580,1580,0,0,0,0,0,0,0,0,0,0
1683103091.89942908,79328256,1581,1580,1580,1581,0,0,0,0,0,0,0,0,0,0
1683103091.99938917,79428216,1581,1581,1581,1581,0,0,0,0,0,0,0,0,0,0
1683103092.09934926,79528176,1580,1581,1585,1574,0,0,0,0,0,0,0,0,0,0
1683103092.20014215,79628969,1581,1584,1588,1573,0,0,0,0,0,0,0,0,0,0
1683103092.30010223,79728929,1579,1583,1579,1573,0,0,0,0,0,0,0,0,0,0
1683103092.40006208,79828889,1578,1582,1571,1573,0,0,0,0,0,0,0,0,0,0
1683103092.50002217,79928849,1577,1580,1563,1570,0,0,0,0,0,0,0,0,0,0
1683103092.59998226,80028809,1577,1578,1557,1564,0,0,0,0,0,0,0,0,0,0
1683103092.69994211,80128769,1579,1578,1555,1560,0,0,0,0,0,0,0,0,0,0
1683103092.79990220,80228729,1581,1578,1555,1557,0,0,0,0,0,0,0,0,0,0
1683103092.89986229,80328689,1581,1579,1556,1555,0,0,0,0,0,0,0,0,0,0
1683103092.99982214,80428649,1580,1579,1557,1554,0,0,0,0,0,0,0,0,0,0
1683103093.09978223,80528609,1579,1579,1557,1554,0,0,0,0,0,0,0,0,0,0
1683103093.19974208,80628569,1577,1579,1557,1554,0,0,0,0,0,0,0,0,0,0
1683103093.29970217,80728529,1576,1578,1556,1555,0,0,0,0,0,0,0,0,0,0
1683103093.39966226,80828489,1575,1577,1554,1555,0,0,0,0,0,0,0,0,0,0
1683103093.49962211,80928449,1575,1576,1552,1553,0,0,0,0,0,0,0,0,0,0
1683103093.59958220,81028409,1576,1577,1551,1551,0,0,0,0,0,0,0,0,0,0
1683103093.69954228,81128369,1578,1579,1550,1550,0,0,0,0,0,0,0,0,0,0
1683103093.79950213,81228329,1580,1581,1548,1547,0,0,0,0,0,0,0,0,0,0
1683103093.89946222,81328289,1583,1583,1545,1545,0,0,0,0,0,0,0,0,0,0
1683103093.99942207,81428249,1586,1587,1543,1543,0,0,0,0,0,0,0,0,0,0
1683103094.09938216,81528209,1587,1588,1540,1539,0,0,0,0,0,0,0,0,0,0
1683103094.19934225,81628169,1590,1591,1538,1538,0,0,0,0,0,0,0,0,0,0
1683103094.30013514,81728962,1592,1593,1537,1537,0,0,0,0,0,0,0,0,0,0
1683103094.40009522,81828922,1594,1595,1536,1538,0,0,0,0,0,0,0,0,0,0
1683103094.50005507,81928882,1596,1595,1537,1539,0,0,0,0,0,0,0,0,0,0
1683103094.60001516,82028842,1594,1594,1539,1541,0,0,0,0,0,0,0,0,0,0
1683103094.69997525,82128802,1592,1590,1544,1547,0,0,0,0,0,0,0,0,0,0
1683103094.79993510,82228762,1586,1583,1551,1554,0,0,0,0,0,0,0,0,0,0
1683103094.89989519,82328722,1579,1575,1561,1564,0,0,0,0,0,0,0,0,0,0
1683103094.99985528,82428682,1569,1565,1573,1575,0,0,0,0,0,0,0,0,0,0
1683103095.09981513,82528642,1557,1553,1586,1586,0,0,0,0,0,0,0,0,0,0
1683103095.19977522,82628602,1546,1544,1597,1597,0,0,0,0,0,0,0,0,0,0
1683103095.29973531,82728562,1538,1538,1606,1606,0,0,0,0,0,0,0,0,0,0
1683103095.39969516,82828522,1533,1534,1611,1610,0,0,0,0,0,0,0,0,0,0
1683103095.49965525,82928482,1532,1534,1613,1612,0,0,0,0,0,0,0,0,0,0
1683103095.59961510,83028442,1534,1536,1611,1610,0,0,0,0,0,0,0,0,0,0
1683103095.69957519,83128402,1538,1540,1607,1607,0,0,0,0,0,0,0,0,0,0
1683103095.79953527,83228362,1545,1546,1603,1603,0,0,0,0,0,0,0,0,0,0
1683103095.89949512,83328322,1553,1553,1598,1598,0,0,0,0,0,0,0,0,0,0
1683103095.99945521,83428282,1560,1560,1592,1592,0,0,0,0,0,0,0,0,0,0
1683103096.09941530,83528242,1567,1568,1586,1586,0,0,0,0,0,0,0,0,0,0
1683103096.19937515,83628202,1573,1573,1579,1578,0,0,0,0,0,0,0,0,0,0
1683103096.29933524,83728162,1581,1580,1575,1574,0,0,0,0,0,0,0,0,0,0
1683103096.40012813,83828955,1584,1583,1570,1570,0,0,0,0,0,0,0,0,0,0
1683103096.50008821,83928915,1586,1585,1566,1567,0,0,0,0,0,0,0,0,0,0
1683103096.60004830,84028875,1587,1586,1567,1567,0,0,0,0,0,0,0,0,0,0
1683103096.70000815,84128835,1586,1586,1567,1567,0,0,0,0,0,0,0,0,0,0
1683103096.79996824,84228795,1585,1584,1570,1569,0,0,0,0,0,0,0,0,0,0
1683103096.89992809,84328755,1583,1582,1572,1572,0,0,0,0,0,0,0,0,0,0
1683103096.99988818,84428715,1580,1579,1575,1575,0,0,0,0,0,0,0,0,0,0
1683103097.09984827,84528675,1578,1577,1578,1578,0,0,0,0,0,0,0,0,0,0
1683103097.19980812,84628635,1575,1576,1580,1580,0,0,0,0,0,0,0,0,0,0
1683103097.29976821,84728595,1574,1574,1582,1582,0,0,0,0,0,0,0,0,0,0
1683103097.39972830,84828555,1572,1573,1583,1582,0,0,0,0,0,0,0,0,0,0
1683103097.49968815,84928515,1573,1574,1584,1584,0,0,0,0,0,0,0,0,0,0
1683103097.59964824,85028475,1573,1574,1584,1584,0,0,0,0,0,0,0,0,0,0
1683103097.69960809,85128435,1573,1574,1582,1583,0,0,0,0,0,0,0,0,0,0
1683103097.79956818,85228395,1575,1574,1581,1581,0,0,0,0,0,0,0,0,0,0
1683103097.89952826,85328355,1577,1576,1581,1581,0,0,0,0,0,0,0,0,0,0
1683103097.99948812,85428315,1578,1578,1580,1580,0,0,0,0,0,0,0,0,0,0
1683103098.09944820,85528275,1578,1578,1578,1578,0,0,0,0,0,0,0,0,0,0
1683103098.19940829,85628235,1579,1579,1577,1578,0,0,0,0,0,0,0,0,0,0
1683103098.29936814,85728195,1581,1581,1577,1578,0,0,0,0,0,0,0,0,0,0
1683103098.39932823,85828155,1581,1581,1577,1577,0,0,0,0,0,0,0,0,0,0
1683103098.50012112,85928948,1580,1581,1577,1577,0,0,0,0,0,0,0,0,0,0
1683103098.60008121,86028908,1581,1581,1577,1577,0,0,0,0,0,0,0,0,0,0
1683103098.70004129,86128868,1581,1581,1578,1578,0,0,0,0,0,0,0,0,0,0
1683103098.80000114,86228828,1582,1581,1580,1579,0,0,0,0,0,0,0,0,0,0
1683103098.89996123,86328788,1581,1580,1579,1580,0,0,0,0,0,0,0,0,0,0
1683103098.99992108,86428748,1581,1580,1581,1580,0,0,0,0,0,0,0,0,0,0
1683103099.09988117,86528708,1580,1580,1581,1581,0,0,0,0,0,0,0,0,0,0
1683103099.19984126,86628668,1579,1580,1581,1581,0,0,0,0,0,0,0,0,0,0
1683103099.29980111,86728628,1579,1579,1581,1581,0,0,0,0,0,0,0,0,0,0
1683103099.39976120,86828588,1579,1580,1581,1581,0,0,0,0,0,0,0,0,0,0
1683103099.49972129,86928548,1580,1579,1581,1582,0,0,0,0,0,0,0,0,0,0
1683103099.59968114,87028508,1580,1580,1581,1581,0,0,0,0,0,0,0,0,0,0
1683103099.69964123,87128468,1580,1581,1582,1582,0,0,0,0,0,0,0,0,0,0
1683103099.79960108,87228428,1579,1579,1580,1580,0,0,0,0,0,0,0,0,0,0
1683103099.89956117,87328388,1580,1580,1580,1580,0,0,0,0,0,0,0,0,0,0
1683103099.99952126,87428348,1580,1581,1582,1578,0,0,0,0,0,0,0,0,0,0
1683103100.09948111,87528308,1580,1581,1586,1572,0,0,0,0,0,0,0,0,0,0
1683103100.19944119,87628268,1580,1580,1583,1573,0,0,0,0,0,0,0,0,0,0
1683103100.29940128,87728228,1577,1577,1575,1575,0,0,0,0,0,0,0,0,0,0
1683103100.39936113,87828188,1574,1574,1569,1575,0,0,0,0,0,0,0,0,0,0
1683103100.50015426,87928981,1571,1570,1565,1573,0,0,0,0,0,0,0,0,0,0
1683103100.60011411,88028941,1569,1569,1565,1571,0,0,0,0,0,0,0,0,0,0
1683103100.70007420,88128901,1567,1567,1565,1568,0,0,0,0,0,0,0,0,0,0
1683103100.80003428,88228861,1566,1566,1566,1565,0,0,0,0,0,0,0,0,0,0
1683103100.89999413,88328821,1565,1565,1567,1565,0,0,0,0,0,0,0,0,0,0
1683103100.99995422,88428781,1565,1565,1567,1564,0,0,0,0,0,0,0,0,0,0
1683103101.09991407,88528741,1564,1565,1567,1564,0,0,0,0,0,0,0,0,0,0
1683103101.19987416,88628701,1563,1563,1565,1564,0,0,0,0,0,0,0,0,0,0
1683103101.29983425,88728661,1563,1563,1564,1564,0,0,0,0,0,0,0,0,0,0
1683103101.39979410,88828621,1562,1562,1563,1563,0,0,0,0,0,0,0,0,0,0
1683103101.49975419,88928581,1562,1561,1562,1562,0,0,0,0,0,0,0,0,0,0
1683103101.59971428,89028541,1562,1562,1562,1563,0,0,0,0,0,0,0,0,0,0
1683103101.69967413,89128501,1561,1561,1561,1561,0,0,0,0,0,0,0,0,0,0
1683103101.79963422,89228461,1561,1561,1562,1561,0,0,0,0,0,0,0,0,0,0
1683103101.89959431,89328421,1560,1560,1560,1559,0,0,0,0,0,0,0,0,0,0
1683103101.99955416,89428381,1558,1558,1558,1557,0,0,0,0,0,0,0,0,0,0
1683103102.09951425,89528341,1558,1557,1557,1557,0,0,0,0,0,0,0,0,0,0
1683103102.19947410,89628301,1557,1557,1557,1556,0,0,0,0,0,0,0,0,0,0
1683103102.29943419,89728261,1559,1559,1559,1558,0,0,0,0,0,0,0,0,0,0
1683103102.39939427,89828221,1558,1558,1558,1557,0,0,0,0,0,0,0,0,0,0
1683103102.49935412,89928181,1558,1558,1558,1557,0,0,0,0,0,0,0,0,0,0
1683103102.60014725,90028974,1558,1557,1559,1557,0,0,0,0,0,0,0,0,0,0
1683103102.70010710,90128934,1559,1558,1560,1557,0,0,0,0,0,0,0,0,0,0
1683103102.80006719,90228894,1558,1559,1560,1558,0,0,0,0,0,0,0,0,0,0
1683103102.90002728,90328854,1560,1560,1558,1561,0,0,0,0,0,0,0,0,0,0
1683103102.99998713,90428814,1560,1560,1557,1563,0,0,0,0,0,0,0,0,0,0
1683103103.09994721,90528774,1560,1560,1557,1564,0,0,0,0,0,0,0,0,0,0
1683103103.19990730,90628734,1562,1562,1559,1564,0,0,0,0,0,0,0,0,0,0
1683103103.29986715,90728694,1562,1562,1561,1564,0,0,0,0,0,0,0,0,0,0
1683103103.39982724,90828654,1562,1562,1563,1562,0,0,0,0,0,0,0,0,0,0
1683103103.49978709,90928614,1561,1561,1562,1559,0,0,0,0,0,0,0,0,0,0
1683103103.59974718,91028574,1560,1560,1559,1560,0,0,0,0,0,0,0,0,0,0
1683103103.69970727,91128534,1557,1557,1556,1559,0,0,0,0,0,0,0,0,0,0
1683103103.79966712,91228494,1554,1553,1552,1555,0,0,0,0,0,0,0,0,0,0
1683103103.89962721,91328454,1550,1549,1549,1550,0,0,0,0,0,0,0,0,0,0
1683103103.99958730,91428414,1543,1542,1542,1543,0,0,0,0,0,0,0,0,0,0
1683103104.09954715,91528374,1535,1536,1536,1536,0,0,0,0,0,0,0,0,0,0
1683103104.19950724,91628334,1528,1528,1529,1528,0,0,0,0,0,0,0,0,0,0
1683103104.29946709,91728294,1521,1522,1522,1521,0,0,0,0,0,0,0,0,0,0
1683103104.39942718,91828254,1520,1520,1521,1520,0,0,0,0,0,0,0,0,0,0
1683103104.49938726,91928214,1519,1520,1520,1520,0,0,0,0,0,0,0,0,0,0
1683103104.59934711,92028174,1520,1521,1520,1521,0,0,0,0,0,0,0,0,0,0
1683103104.70014024,92128967,1524,1524,1523,1525,0,0,0,0,0,0,0,0,0,0
1683103104.80010009,92228927,1527,1528,1528,1528,0,0,0,0,0,0,0,0,0,0
1683103104.90006018,92328887,1533,1533,1533,1533,0,0,0,0,0,0,0,0,0,0
1683103105.00002027,92428847,1537,1537,1537,1537,0,0,0,0,0,0,0,0,0,0
1683103105.09998012,92528807,1539,1540,1539,1540,0,0,0,0,0,0,0,0,0,0
1683103105.19994020,92628767,1542,1542,1542,1542,0,0,0,0,0,0,0,0,0,0
1683103105.29990029,92728727,1544,1544,1544,1544,0,0,0,0,0,0,0,0,0,0
1683103105.39986014,92828687,1544,1544,1545,1544,0,0,0,0,0,0,0,0,0,0
1683103105.49982023,92928647,1545,1545,1545,1545,0,0,0,0,0,0,0,0,0,0
1683103105.59978008,93028607,1546,1546,1547,1546,0,0,0,0,0,0,0,0,0,0
1683103105.69974017,93128567,1547,1547,1547,1547,0,0,0,0,0,0,0,0,0,0
1683103105.79970026,93228527,1547,1547,1546,1546,0,0,0,0,0,0,0,0,0,0
1683103105.89966011,93328487,1547,1546,1546,1547,0,0,0,0,0,0,0,0,0,0
1683103105.99962020,93428447,1546,1546,1546,1546,0,0,0,0,0,0,0,0,0,0
1683103106.09958029,93528407,1546,1546,1546,1546,0,0,0,0,0,0,0,0,0,0
1683103106.19954014,93628367,1545,1545,1545,1545,0,0,0,0,0,0,0,0,0,0
1683103106.29950023,93728327,1545,1545,1545,1545,0,0,0,0,0,0,0,0,0,0
1683103106.39946008,93828287,1545,1545,1545,1545,0,0,0,0,0,0,0,0,0,0
1683103106.49942017,93928247,1545,1545,1545,1545,0,0,0,0,0,0,0,0,0,0
1683103106.59938025,94028207,1544,1544,1545,1544,0,0,0,0,0,0,0,0,0,0
1683103106.69934011,94128167,1545,1545,1545,1545,0,0,0,0,0,0,0,0,0,0
1683103106.80013323,94228960,1544,1544,1543,1544,0,0,0,0,0,0,0,0,0,0
1683103106.90009308,94328920,1543,1544,1544,1544,0,0,0,0,0,0,0,0,0,0
1683103107.00005317,94428880,1543,1544,1543,1543,0,0,0,0,0,0,0,0,0,0
1683103107.10001326,94528840,1543,1543,1543,1543,0,0,0,0,0,0,0,0,0,0
1683103107.19997311,94628800,1544,1543,1544,1544,0,0,0,0,0,0,0,0,0,0
1683103107.29993320,94728760,1544,1543,1543,1543,0,0,0,0,0,0,0,0,0,0
1683103107.39989328,94828720,1544,1544,1544,1543,0,0,0,0,0,0,0,0,0,0
1683103107.49985313,94928680,1544,1544,1545,1544,0,0,0,0,0,0,0,0,0,0
1683103107.59981322,95028640,1544,1544,1544,1544,0,0,0,0,0,0,0,0,0,0
1683103107.69977307,95128600,1545,1545,1544,1545,0,0,0,0,0,0,0,0,0,0
1683103107.79973316,95228560,1545,1545,1544,1545,0,0,0,0,0,0,0,0,0,0
1683103107.89969325,95328520,1545,1545,1544,1545,0,0,0,0,0,0,0,0,0,0
1683103107.99965310,95428480,1545,1545,1544,1545,0,0,0,0,0,0,0,0,0,0
1683103108.09961319,95528440,1545,1545,1545,1545,0,0,0,0,0,0,0,0,0,0
1683103108.19957328,95628400,1544,1544,1544,1544,0,0,0,0,0,0,0,0,0,0
1683103108.29953313,95728360,1544,1544,1544,1544,0,0,0,0,0,0,0,0,0,0
1683103108.39949322,95828320,1545,1544,1545,1545,0,0,0,0,0,0,0,0,0,0
1683103108.49945331,95928280,1544,1544,1544,1544,0,0,0,0,0,0,0,0,0,0
1683103108.59941316,96028240,1544,1544,1545,1544,0,0,0,0,0,0,0,0,0,0
1683103108.69937325,96128200,1545,1544,1544,1545,0,0,0,0,0,0,0,0,0,0
1683103108.79933310,96228160,1544,1545,1544,1545,0,0,0,0,0,0,0,0,0,0
1683103108.90012622,96328953,1545,1545,1544,1545,0,0,0,0,0,0,0,0,0,0
1683103109.00008631,96428913,1544,1543,1543,1543,0,0,0,0,0,0,0,0,0,0
1683103109.10004616,96528873,1545,1544,1544,1544,0,0,0,0,0,0,0,0,0,0
1683103109.20000625,96628833,1543,1544,1544,1544,0,0,0,0,0,0,0,0,0,0
1683103109.29996610,96728793,1544,1544,1543,1544,0,0,0,0,0,0,0,0,0,0
1683103109.39992619,96828753,1543,1544,1543,1543,0,0,0,0,0,0,0,0,0,0
1683103109.49988627,96928713,1544,1544,1544,1544,0,0,0,0,0,0,0,0,0,0
1683103109.59984612,97028673,1544,1545,1545,1544,0,0,0,0,0,0,0,0,0,0
1683103109.69980621,97128633,1544,1543,1544,1544,0,0,0,0,0,0,0,0,0,0
1683103109.79976630,97228593,1544,1544,1544,1544,0,0,0,0,0,0,0,0,0,0
1683103109.89972615,97328553,1544,1543,1544,1544,0,0,0,0,0,0,0,0,0,0
1683103109.99968624,97428513,1543,1544,1544,1544,0,0,0,0,0,0,0,0,0,0
1683103110.09964609,97528473,1544,1544,1544,1544,0,0,0,0,0,0,0,0,0,0
1683103110.19960618,97628433,1544,1544,1544,1544,0,0,0,0,0,0,0,0,0,0
1683103110.29956627,97728393,1545,1545,1545,1545,0,0,0,0,0,0,0,0,0,0
1683103110.39952612,97828353,1544,1544,1544,1544,0,0,0,0,0,0,0,0,0,0
1683103110.49948621,97928313,1544,1544,1544,1544,0,0,0,0,0,0,0,0,0,0
1683103110.59944630,98028273,1544,1545,1544,1544,0,0,0,0,0,0,0,0,0,0
1683103110.69940615,98128233,1545,1545,1544,1544,0,0,0,0,0,0,0,0,0,0
1683103110.79936624,98228193,1543,1544,1544,1543,0,0,0,0,0,0,0,0,0,0
1683103110.90015912,98328986,1544,1544,1544,1544,0,0,0,0,0,0,0,0,0,0
1683103111.00011921,98428946,1544,1544,1544,1544,0,0,0,0,0,0,0,0,0,0
1683103111.10007930,98528906,1545,1544,1545,1544,0,0,0,0,0,0,0,0,0,0
1683103111.20003915,98628866,1544,1544,1544,1544,0,0,0,0,0,0,0,0,0,0
1683103111.29999924,98728826,1545,1545,1545,1545,0,0,0,0,0,0,0,0,0,0
1683103111.39995909,98828786,1544,1545,1545,1545,0,0,0,0,0,0,0,0,0,0
1683103111.49991918,98928746,1544,1543,1544,1544,0,0,0,0,0,0,0,0,0,0
1683103111.59987926,99028706,1544,1544,1544,1543,0,0,0,0,0,0,0,0,0,0
1683103111.69983912,99128666,1544,1543,1544,1544,0,0,0,0,0,0,0,0,0,0
1683103111.79979920,99228626,1544,1543,1544,1543,0,0,0,0,0,0,0,0,0,0
1683103111.89975929,99328586,1544,1544,1544,1544,0,0,0,0,0,0,0,0,0,0
1683103111.99971914,99428546,1543,1543,1543,1543,0,0,0,0,0,0,0,0,0,0
1683103112.09967923,99528506,1544,1544,1544,1544,0,0,0,0,0,0,0,0,0,0
1683103112.19963908,99628466,1544,1544,1544,1544,0,0,0,0,0,0,0,0,0,0
1683103112.29959917,99728426,1544,1544,1544,1545,0,0,0,0,0,0,0,0,0,0
1683103112.39955926,99828386,1545,1545,1545,1544,0,0,0,0,0,0,0,0,0,0
1683103112.49951911,99928346,1545,1545,1545,1545,0,0,0,0,0,0,0,0,0,0
1683103112.59947920,100028306,1545,1545,1545,1545,0,0,0,0,0,0,0,0,0,0
1683103112.69943929,100128266,1544,1545,1545,1545,0,0,0,0,0,0,0,0,0,0
1683103112.79939914,100228226,1544,1544,1544,1544,0,0,0,0,0,0,0,0,0,0
1683103112.89935923,100328186,1543,1543,1543,1543,0,0,0,0,0,0,0,0,0,0
1683103113.00015211,100428979,1544,1544,1544,1544,0,0,0,0,0,0,0,0,0,0
1683103113.10011220,100528939,1545,1545,1545,1545,0,0,0,0,0,0,0,0,0,0
1683103113.20007229,100628899,1544,1544,1544,1544,0,0,0,0,0,0,0,0,0,0
1683103113.30003214,100728859,1544,1545,1545,1545,0,0,0,0,0,0,0,0,0,0
1683103113.39999223,100828819,1544,1545,1545,1544,0,0,0,0,0,0,0,0,0,0
1683103113.49995208,100928779,1544,1544,1544,1544,0,0,0,0,0,0,0,0,0,0
1683103113.59991217,101028739,1545,1545,1545,1545,0,0,0,0,0,0,0,0,0,0
1683103113.69987226,101128699,1544,1543,1543,1544,0,0,0,0,0,0,0,0,0,0
1683103113.79983211,101228659,1544,1544,1543,1544,0,0,0,0,0,0,0,0,0,0
1683103113.89979219,101328619,1544,1543,1543,1543,0,0,0,0,0,0,0,0,0,0
1683103113.99975228,101428579,1544,1544,1544,1543,0,0,0,0,0,0,0,0,0,0
1683103114.09971213,101528539,1389,1388,1389,1388,0,0,0,0,0,0,0,0,0,0
1683103114.19967222,101628499,1263,1263,1265,1262,0,0,0,0,0,0,0,0,0,0
1683103114.29963207,101728459,1220,1219,1220,1219,0,0,0,0,0,0,0,0,0,0
1683103114.39959216,101828419,1200,1200,1202,1200,0,0,0,0,0,0,0,0,0,0
1683103114.49955225,101928379,1160,1158,1161,1158,0,0,0,0,0,0,0,0,0,0
1683103114.59951210,102028339,1151,1150,1153,1150,0,0,0,0,0,0,0,0,0,0
1683103114.69947219,102128299,1151,1150,1153,1150,0,0,0,0,0,0,0,0,0,0
1683103114.79943228,102228259,1184,1150,1150,1186,0,0,0,0,0,0,0,0,0,0
1683103114.89939213,102328219,1174,1150,1151,1174,0,0,0,0,0,0,0,0,0,0
1683103114.99935222,102428179,1170,1150,1152,1170,0,0,0,0,0,0,0,0,0,0
1683103115.10014510,102528972,1171,1150,1152,1171,0,0,0,0,0,0,0,0,0,0
1683103115.20010519,102628932,1173,1150,1153,1173,0,0,0,0,0,0,0,0,0,0
1683103115.30006528,102728892,1175,1150,1153,1175,0,0,0,0,0,0,0,0,0,0
1683103115.40002513,102828852,1177,1150,1153,1177,0,0,0,0,0,0,0,0,0,0
1683103115.49998522,102928812,1179,1150,1153,1179,0,0,0,0,0,0,0,0,0,0
1683103115.59994531,103028772,1165,1150,1153,1165,0,0,0,0,0,0,0,0,0,0
1683103115.69990516,103128732,1166,1150,1153,1167,0,0,0,0,0,0,0,0,0,0
1683103115.79986525,103228692,1167,1150,1153,1168,0,0,0,0,0,0,0,0,0,0
1683103115.89982510,103328652,1168,1150,1153,1168,0,0,0,0,0,0,0,0,0,0
1683103115.99978518,103428612,1168,1150,1153,1169,0,0,0,0,0,0,0,0,0,0
1683103116.09974527,103528572,1000,1000,1000,1000,0,0,0,0,0,0,0,0,0,0
1683103116.19970512,103628532,1000,1000,1000,1000,0,0,0,0,0,0,0,0,0,0
1683103116.29966521,103728492,1000,1000,1000,1000,0,0,0,0,0,0,0,0,0,0
1683103116.39962530,103828452,1000,1000,1000,1000,0,0,0,0,0,0,0,0,0,0
1683103116.49958515,103928412,1000,1000,1000,1000,0,0,0,0,0,0,0,0,0,0
1683103116.59954524,104028372,1000,1000,1000,1000,0,0,0,0,0,0,0,0,0,0
1683103116.69950509,104128332,1000,1000,1000,1000,0,0,0,0,0,0,0,0,0,0
1683103116.79946518,104228292,1000,1000,1000,1000,0,0,0,0,0,0,0,0,0,0
1683103116.89942527,104328252,1000,1000,1000,1000,0,0,0,0,0,0,0,0,0,0
1683103116.99938512,104428212,1000,1000,1000,1000,0,0,0,0,0,0,0,0,0,0
1683103117.09934521,104528172,1000,1000,1000,1000,0,0,0,0,0,0,0,0,0,0
1683103117.20013809,104628965,1000,1000,1000,1000,0,0,0,0,0,0,0,0,0,0
1683103117.30009818,104728925,1000,1000,1000,1000,0,0,0,0,0,0,0,0,0,0
1683103117.40005827,104828885,1000,1000,1000,1000,0,0,0,0,0,0,0,0,0,0
1683103117.50001812,104928845,1000,1000,1000,1000,0,0,0,0,0,0,0,0,0,0
1683103117.59997821,105028805,1000,1000,1000,1000,0,0,0,0,0,0,0,0,0,0
1683103117.69993830,105128765,1000,1000,1000,1000,0,0,0,0,0,0,0,0,0,0
1683103117.79989815,105228725,1000,1000,1000,1000,0,0,0,0,0,0,0,0,0,0
1683103117.89985824,105328685,1000,1000,1000,1000,0,0,0,0,0,0,0,0,0,0
1683103117.99981809,105428645,1000,1000,1000,1000,0,0,0,0,0,0,0,0,0,0
1683103118.09977818,105528605,1000,1000,1000,1000,0,0,0,0,0,0,0,0,0,0
1683103118.19973826,105628565,1000,1000,1000,1000,0,0,0,0,0,0,0,0,0,0
1683103118.29969811,105728525,1000,1000,1000,1000,0,0,0,0,0,0,0,0,0,0
1683103118.39965820,105828485,1000,1000,1000,1000,0,0,0,0,0,0,0,0,0,0
1683103118.49961829,105928445,1000,1000,1000,1000,0,0,0,0,0,0,0,0,0,0
1683103118.59957814,106028405,1000,1000,1000,1000,0,0,0,0,0,0,0,0,0,0
1683103118.69953823,106128365,1000,1000,1000,1000,0,0,0,0,0,0,0,0,0,0
1683103118.79949808,106228325,1000,1000,1000,1000,0,0,0,0,0,0,0,0,0,0
1683103118.89945817,106328285,1000,1000,1000,1000,0,0,0,0,0,0,0,0,0,0
1683103118.99941826,106428245,1000,1000,1000,1000,0,0,0,0,0,0,0,0,0,0
1683103119.09937811,106528205,1000,1000,1000,1000,0,0,0,0,0,0,0,0,0,0
1683103119.19933820,106628165,1000,1000,1000,1000,0,0,0,0,0,0,0,0,0,0
1683103119.30013108,106728958,1000,1000,1000,1000,0,0,0,0,0,0,0,0,0,0
1683103119.40009117,106828918,1000,1000,1000,1000,0,0,0,0,0,0,0,0,0,0
1683103119.50005126,106928878,1000,1000,1000,1000,0,0,0,0,0,0,0,0,0,0
1683103119.60001111,107028838,1000,1000,1000,1000,0,0,0,0,0,0,0,0,0,0
1683103119.69997120,107128798,1000,1000,1000,1000,0,0,0,0,0,0,0,0,0,0
1683103119.79993129,107228758,1000,1000,1000,1000,0,0,0,0,0,0,0,0,0,0
1683103119.89989114,107328718,1000,1000,1000,1000,0,0,0,0,0,0,0,0,0,0
1683103119.99985123,107428678,1000,1000,1000,1000,0,0,0,0,0,0,0,0,0,0
1683103120.09981108,107528638,1000,1000,1000,1000,0,0,0,0,0,0,0,0,0,0
1683103120.19977117,107628598,1000,1000,1000,1000,0,0,0,0,0,0,0,0,0,0
1683103120.29973125,107728558,1000,1000,1000,1000,0,0,0,0,0,0,0,0,0,0
1683103120.39969110,107828518,1000,1000,1000,1000,0,0,0,0,0,0,0,0,0,0
1683103120.49965119,107928478,1000,1000,1000,1000,0,0,0,0,0,0,0,0,0,0
1683103120.59961128,108028438,1000,1000,1000,1000,0,0,0,0,0,0,0,0,0,0
1683103120.69957113,108128398,1000,1000,1000,1000,0,0,0,0,0,0,0,0,0,0
1683103120.79953122,108228358,1000,1000,1000,1000,0,0,0,0,0,0,0,0,0,0
1683103120.89949131,108328318,1000,1000,1000,1000,0,0,0,0,0,0,0,0,0,0
1683103120.99945116,108428278,1000,1000,1000,1000,0,0,0,0,0,0,0,0,0,0
1683103121.09941125,108528238,1000,1000,1000,1000,0,0,0,0,0,0,0,0,0,0
1683103121.19937110,108628198,1000,1000,1000,1000,0,0,0,0,0,0,0,0,0,0
1683103121.29933119,108728158,1000,1000,1000,1000,0,0,0,0,0,0,0,0,0,0
1683103121.40012407,108828951,1000,1000,1000,1000,0,0,0,0,0,0,0,0,0,0
1683103121.50008416,108928911,1000,1000,1000,1000,0,0,0,0,0,0,0,0,0,0
1683103121.60004425,109028871,1000,1000,1000,1000,0,0,0,0,0,0,0,0,0,0
1683103121.70000410,109128831,1000,1000,1000,1000,0,0,0,0,0,0,0,0,0,0
1683103121.79996419,109228791,1000,1000,1000,1000,0,0,0,0,0,0,0,0,0,0
1683103121.89992428,109328751,1000,1000,1000,1000,0,0,0,0,0,0,0,0,0,0
1683103121.99988413,109428711,1000,1000,1000,1000,0,0,0,0,0,0,0,0,0,0
1683103122.09984422,109528671,1000,1000,1000,1000,0,0,0,0,0,0,0,0,0,0
1683103122.19980431,109628631,1000,1000,1000,1000,0,0,0,0,0,0,0,0,0,0
1683103122.29976416,109728591,1000,1000,1000,1000,0,0,0,0,0,0,0,0,0,0
1683103122.39972425,109828551,1000,1000,1000,1000,0,0,0,0,0,0,0,0,0,0
1683103122.49968410,109928511,1000,1000,1000,1000,0,0,0,0,0,0,0,0,0,0
1683103122.59964418,110028471,1000,1000,1000,1000,0,0,0,0,0,0,0,0,0,0
1683103122.69960427,110128431,1000,1000,1000,1000,0,0,0,0,0,0,0,0,0,0
1683103122.79956412,110228391,1000,1000,1000,1000,0,0,0,0,0,0,0,0,0,0
1683103122.89952421,110328351,1000,1000,1000,1000,0,0,0,0,0,0,0,0,0,0
1683103122.99948430,110428311,1000,1000,1000,1000,0,0,0,0,0,0,0,0,0,0
1683103123.09944415,110528271,1000,1000,1000,1000,0,0,0,0,0,0,0,0,0,0
1683103123.19940424,110628231,1000,1000,1000,1000,0,0,0,0,0,0,0,0,0,0
1683103123.29936409,110728191,1000,1000,1000,1000,0,0,0,0,0,0,0,0,0,0
1683103123.40015721,110828984,1000,1000,1000,1000,0,0,0,0,0,0,0,0,0,0
1683103123.50011730,110928944,1000,1000,1000,1000,0,0,0,0,0,0,0,0,0,0
1683103123.60007715,111028904,1000,1000,1000,1000,0,0,0,0,0,0,0,0,0,0
1683103123.70003724,111128864,1000,1000,1000,1000,0,0,0,0,0,0,0,0,0,0
1683103123.79999709,111228824,1000,1000,1000,1000,0,0,0,0,0,0,0,0,0,0
1683103123.89995718,111328784,1000,1000,1000,1000,0,0,0,0,0,0,0,0,0,0
1683103123.99991727,111428744,1000,1000,1000,1000,0,0,0,0,0,0,0,0,0,0
1683103124.09987712,111528704,1000,1000,1000,1000,0,0,0,0,0,0,0,0,0,0
1683103124.19983721,111628664,1000,1000,1000,1000,0,0,0,0,0,0,0,0,0,0
1683103124.29979730,111728624,1000,1000,1000,1000,0,0,0,0,0,0,0,0,0,0
1683103124.39975715,111828584,1000,1000,1000,1000,0,0,0,0,0,0,0,0,0,0
1683103124.49971724,111928544,1000,1000,1000,1000,0,0,0,0,0,0,0,0,0,0
1683103124.59967709,112028504,1000,1000,1000,1000,0,0,0,0,0,0,0,0,0,0
1683103124.69963717,112128464,1000,1000,1000,1000,0,0,0,0,0,0,0,0,0,0
1683103124.79959726,112228424,1000,1000,1000,1000,0,0,0,0,0,0,0,0,0,0
1683103124.89955711,112328384,1000,1000,1000,1000,0,0,0,0,0,0,0,0,0,0
1683103124.99951720,112428344,1000,1000,1000,1000,0,0,0,0,0,0,0,0,0,0
1683103125.09947729,112528304,1000,1000,1000,1000,0,0,0,0,0,0,0,0,0,0
1683103125.19943714,112628264,1000,1000,1000,1000,0,0,0,0,0,0,0,0,0,0
1683103125.29939723,112728224,1000,1000,1000,1000,0,0,0,0,0,0,0,0,0,0
1683103125.39935708,112828184,1000,1000,1000,1000,0,0,0,0,0,0,0,0,0,0
1683103125.50015020,112928977,1000,1000,1000,1000,0,0,0,0,0,0,0,0,0,0
1683103125.60011029,113028937,1000,1000,1000,1000,0,0,0,0,0,0,0,0,0,0
1683103125.70007014,113128897,1000,1000,1000,1000,0,0,0,0,0,0,0,0,0,0
