TimeUS,M1,M2,M3,M4,TimeUS,C1,C2,C3,C4
46250659,1000,1000,1000,1000,46328961,1000,1000,1000,1000
46253158,1000,1000,1000,1000,46428921,1000,1000,1000,1000
46255657,1000,1000,1000,1000,46528881,1000,1000,1000,1000
46258156,1000,1000,1000,1000,46628841,1000,1000,1000,1000
46260655,1000,1000,1000,1000,46728801,1000,1000,1000,1000
46263154,1000,1000,1000,1000,46828761,1000,1000,1000,1000
46266486,1000,1000,1000,1000,46928721,1000,1000,1000,1000
46268985,1000,1000,1000,1000,47028681,1000,1000,1000,1000
46271484,1000,1000,1000,1000,47128641,1000,1000,1000,1000
46273983,1000,1000,1000,1000,47228601,1000,1000,1000,1000
46276482,1000,1000,1000,1000,47328561,1000,1000,1000,1000
46278981,1000,1000,1000,1000,47428521,1000,1000,1000,1000
46281480,1000,1000,1000,1000,47528481,1000,1000,1000,1000
46283979,1000,1000,1000,1000,47628441,1000,1000,1000,1000
46286478,1000,1000,1000,1000,47728401,1000,1000,1000,1000
46288977,1000,1000,1000,1000,47828361,1000,1000,1000,1000
46291476,1000,1000,1000,1000,47928321,1000,1000,1000,1000
46293975,1000,1000,1000,1000,48028281,1000,1000,1000,1000
46296474,1000,1000,1000,1000,48128241,1000,1000,1000,1000
46298973,1000,1000,1000,1000,48228201,1000,1000,1000,1000
46301472,1000,1000,1000,1000,48328161,1023,1023,1023,1023
46303971,1000,1000,1000,1000,48428954,1053,1053,1053,1053
46306470,1000,1000,1000,1000,48528914,1083,1083,1083,1083
46308969,1000,1000,1000,1000,48628874,1113,1113,1113,1113
46311468,1000,1000,1000,1000,48728834,1143,1143,1143,1143
46313967,1000,1000,1000,1000,48828794,1351,1346,1347,1351
46316466,1000,1000,1000,1000,48928754,1542,1538,1538,1542
46318965,1000,1000,1000,1000,49028714,1695,1691,1691,1695
46321464,1000,1000,1000,1000,49128674,1827,1822,1823,1827
46323963,1000,1000,1000,1000,49228634,1860,1856,1856,1860
46326462,1000,1000,1000,1000,49328594,1830,1828,1828,1830
46328961,1000,1000,1000,1000,49428554,1701,1701,1701,1701
46331460,1000,1000,1000,1000,49528514,1625,1626,1626,1625
46333959,1000,1000,1000,1000,49628474,1613,1615,1615,1613
46336458,1000,1000,1000,1000,49728434,1626,1628,1628,1626
46338957,1000,1000,1000,1000,49828394,1635,1636,1636,1635
46341456,1000,1000,1000,1000,49928354,1635,1635,1635,1635
46343955,1000,1000,1000,1000,50028314,1628,1625,1626,1627
46346454,1000,1000,1000,1000,50128274,1608,1606,1599,1614
46348953,1000,1000,1000,1000,50228234,1603,1602,1595,1609
46351452,1000,1000,1000,1000,50328194,1602,1601,1598,1604
46353951,1000,1000,1000,1000,50428154,1605,1605,1605,1603
46356450,1000,1000,1000,1000,50528947,1610,1610,1613,1607
46358949,1000,1000,1000,1000,50628907,1617,1617,1621,1613
46361448,1000,1000,1000,1000,50728867,1591,1592,1605,1579
46363947,1000,1000,1000,1000,50828827,1576,1577,1591,1562
46366446,1000,1000,1000,1000,50928787,1565,1565,1571,1560
46368945,1000,1000,1000,1000,51028747,1555,1554,1549,1561
46371444,1000,1000,1000,1000,51128707,1546,1545,1534,1557
46373943,1000,1000,1000,1000,51228667,1539,1538,1527,1550
46376442,1000,1000,1000,1000,51328627,1533,1532,1525,1540
46378941,1000,1000,1000,1000,51428587,1528,1528,1525,1531
46381440,1000,1000,1000,1000,51528547,1527,1527,1528,1527
46383939,1000,1000,1000,1000,51628507,1529,1530,1532,1527
46386438,1000,1000,1000,1000,51728467,1532,1533,1536,1529
46388937,1000,1000,1000,1000,51828427,1536,1536,1540,1532
46391436,1000,1000,1000,1000,51928387,1540,1539,1543,1537
46393935,1000,1000,1000,1000,52028347,1543,1543,1545,1542
46396434,1000,1000,1000,1000,52128307,1547,1547,1547,1547
46398933,1000,1000,1000,1000,52228267,1549,1550,1548,1550
46401432,1000,1000,1000,1000,52328227,1552,1551,1550,1553
46403931,1000,1000,1000,1000,52428187,1551,1551,1556,1559
46406430,1000,1000,1000,1000,52528980,1551,1551,1560,1563
46408929,1000,1000,1000,1000,52628940,1553,1554,1562,1563
46411428,1000,1000,1000,1000,52728900,1557,1558,1564,1564
46413927,1000,1000,1000,1000,52828860,1561,1562,1564,1563
46416426,1000,1000,1000,1000,52928820,1565,1564,1564,1563
46418925,1000,1000,1000,1000,53028780,1567,1567,1564,1563
46421424,1000,1000,1000,1000,53128740,1570,1569,1565,1564
46423923,1000,1000,1000,1000,53228700,1572,1571,1565,1566
46426422,1000,1000,1000,1000,53328660,1573,1573,1566,1566
46428921,1000,1000,1000,1000,53428620,1573,1573,1568,1568
46431420,1000,1000,1000,1000,53528580,1574,1572,1568,1569
46433919,1000,1000,1000,1000,53628540,1573,1573,1570,1570
46436418,1000,1000,1000,1000,53728500,1573,1574,1572,1572
46438917,1000,1000,1000,1000,53828460,1573,1574,1574,1573
46441416,1000,1000,1000,1000,53928420,1574,1574,1576,1574
46443915,1000,1000,1000,1000,54028380,1574,1574,1577,1575
46446414,1000,1000,1000,1000,54128340,1574,1574,1576,1576
46448913,1000,1000,1000,1000,54228300,1574,1574,1576,1576
46451412,1000,1000,1000,1000,54328260,1574,1575,1576,1576
46453911,1000,1000,1000,1000,54428220,1575,1575,1577,1577
46456410,1000,1000,1000,1000,54528180,1576,1575,1576,1577
46458909,1000,1000,1000,1000,54628973,1576,1576,1576,1576
46461408,1000,1000,1000,1000,54728933,1576,1576,1576,1577
46463907,1000,1000,1000,1000,54828893,1577,1577,1577,1577
46466406,1000,1000,1000,1000,54928853,1577,1578,1577,1577
46468905,1000,1000,1000,1000,55028813,1579,1579,1578,1578
46471404,1000,1000,1000,1000,55128773,1578,1578,1578,1577
46473903,1000,1000,1000,1000,55228733,1578,1578,1577,1578
46476402,1000,1000,1000,1000,55328693,1578,1578,1577,1578
46478901,1000,1000,1000,1000,55428653,1578,1578,1578,1578
46481400,1000,1000,1000,1000,55528613,1578,1578,1578,1578
46483899,1000,1000,1000,1000,55628573,1578,1578,1578,1578
46486398,1000,1000,1000,1000,55728533,1578,1578,1578,1579
46488897,1000,1000,1000,1000,55828493,1579,1578,1578,1578
46491396,1000,1000,1000,1000,55928453,1579,1579,1579,1579
46493895,1000,1000,1000,1000,56028413,1580,1580,1580,1580
46496394,1000,1000,1000,1000,56128373,1579,1579,1579,1579
46498893,1000,1000,1000,1000,56228333,1578,1579,1579,1579
46501392,1000,1000,1000,1000,56328293,1579,1580,1580,1580
46503891,1000,1000,1000,1000,56428253,1580,1580,1580,1580
46506390,1000,1000,1000,1000,56528213,1579,1579,1579,1579
46508889,1000,1000,1000,1000,56628173,1580,1581,1580,1580
46511388,1000,1000,1000,1000,56728966,1580,1580,1580,1580
46513887,1000,1000,1000,1000,56828926,1580,1580,1579,1580
46516386,1000,1000,1000,1000,56928886,1581,1581,1581,1581
46518885,1000,1000,1000,1000,57028846,1580,1580,1580,1580
46521384,1000,1000,1000,1000,57128806,1580,1580,1580,1579
46523883,1000,1000,1000,1000,57228766,1580,1579,1580,1580
46526382,1000,1000,1000,1000,57328726,1580,1580,1580,1580
46528881,1000,1000,1000,1000,57428686,1581,1581,1581,1581
46531380,1000,1000,1000,1000,57528646,1581,1580,1581,1580
46533879,1000,1000,1000,1000,57628606,1581,1581,1581,1581
46536378,1000,1000,1000,1000,57728566,1581,1580,1581,1581
46538877,1000,1000,1000,1000,57828526,1581,1580,1581,1580
46541376,1000,1000,1000,1000,57928486,1581,1581,1582,1582
46543875,1000,1000,1000,1000,58028446,1581,1582,1581,1582
46546374,1000,1000,1000,1000,58128406,1581,1581,1581,1581
46548873,1000,1000,1000,1000,58228366,1580,1580,1580,1581
46551372,1000,1000,1000,1000,58328326,1582,1581,1582,1582
46553871,1000,1000,1000,1000,58428286,1581,1581,1581,1581
46556370,1000,1000,1000,1000,58528246,1581,1581,1581,1581
46558869,1000,1000,1000,1000,58628206,1581,1582,1583,1580
46561368,1000,1000,1000,1000,58728166,1580,1582,1588,1573
46563867,1000,1000,1000,1000,58828959,1580,1582,1583,1573
46566366,1000,1000,1000,1000,58928919,1578,1581,1574,1573
46568865,1000,1000,1000,1000,59028879,1577,1579,1565,1571
46571364,1000,1000,1000,1000,59128839,1577,1579,1560,1567
46573863,1000,1000,1000,1000,59228799,1577,1577,1555,1561
46576362,1000,1000,1000,1000,59328759,1579,1578,1555,1558
46578861,1000,1000,1000,1000,59428719,1579,1577,1556,1555
46581360,1000,1000,1000,1000,59528679,1579,1578,1556,1554
46583859,1000,1000,1000,1000,59628639,1577,1578,1557,1554
46586358,1000,1000,1000,1000,59728599,1576,1577,1556,1554
46588857,1000,1000,1000,1000,59828559,1575,1576,1555,1554
46591356,1000,1000,1000,1000,59928519,1574,1576,1554,1554
46593855,1000,1000,1000,1000,60028479,1575,1577,1553,1553
46596354,1000,1000,1000,1000,60128439,1575,1577,1551,1552
46598853,1000,1000,1000,1000,60228399,1576,1577,1549,1549
46601352,1000,1000,1000,1000,60328359,1578,1580,1547,1547
46603851,1000,1000,1000,1000,60428319,1581,1581,1545,1544
46606350,1000,1000,1000,1000,60528279,1584,1585,1542,1542
46608849,1000,1000,1000,1000,60628239,1587,1587,1539,1539
46611348,1000,1000,1000,1000,60728199,1589,1590,1537,1536
46613847,1000,1000,1000,1000,60828159,1592,1593,1535,1535
46616346,1000,1000,1000,1000,60928952,1595,1594,1535,1535
46618845,1000,1000,1000,1000,61028912,1594,1594,1534,1536
46621344,1000,1000,1000,1000,61128872,1593,1593,1535,1538
46623843,1000,1000,1000,1000,61228832,1591,1591,1539,1542
46626342,1000,1000,1000,1000,61328792,1588,1587,1545,1549
46628841,1000,1000,1000,1000,61428752,1582,1580,1554,1557
46631340,1000,1000,1000,1000,61528712,1574,1570,1565,1567
46633839,1000,1000,1000,1000,61628672,1564,1559,1576,1578
46636338,1000,1000,1000,1000,61728632,1552,1548,1588,1589
46638837,1000,1000,1000,1000,61828592,1543,1540,1600,1600
46641336,1000,1000,1000,1000,61928552,1534,1533,1608,1608
46643835,1000,1000,1000,1000,62028512,1530,1531,1614,1613
46646334,1000,1000,1000,1000,62128472,1529,1531,1615,1614
46648833,1000,1000,1000,1000,62228432,1532,1535,1613,1613
46651332,1000,1000,1000,1000,62328392,1538,1541,1610,1609
46653831,1000,1000,1000,1000,62428352,1546,1548,1603,1603
46656330,1000,1000,1000,1000,62528312,1555,1555,1595,1595
46658829,1000,1000,1000,1000,62628272,1565,1565,1589,1589
46661328,1000,1000,1000,1000,62728232,1572,1571,1581,1580
46663827,1000,1000,1000,1000,62828192,1579,1578,1575,1574
46666326,1000,1000,1000,1000,62928985,1420,1421,1611,1616
46668825,1000,1000,1000,1000,63028945,1474,1479,1616,1618
46671324,1000,1000,1000,1000,63128905,1522,1527,1607,1603
46673823,1000,1000,1000,1000,63228865,1560,1563,1594,1589
46676322,1000,1000,1000,1000,63328825,1588,1587,1587,1582
46678821,1000,1000,1000,1000,63428785,1606,1602,1582,1579
46681320,1000,1000,1000,1000,63528745,1617,1611,1578,1579
46683819,1000,1000,1000,1000,63628705,1630,1624,1567,1570
46686318,1000,1000,1000,1000,63728665,1646,1642,1548,1553
46688817,1000,1000,1000,1000,63828625,1654,1653,1535,1541
46691316,1000,1000,1000,1000,63928585,1654,1654,1533,1537
46693815,1000,1000,1000,1000,64028545,1646,1647,1538,1540
46696314,1000,1000,1000,1000,64128505,1635,1637,1548,1550
46698813,1000,1000,1000,1000,64228465,1622,1622,1563,1562
46701312,1000,1000,1000,1000,64328425,1606,1603,1579,1578
46703811,1000,1000,1000,1000,64428385,1586,1583,1595,1593
46706310,1000,1000,1000,1000,64528345,1570,1568,1605,1604
46708809,1000,1000,1000,1000,64628305,1561,1561,1608,1608
46711308,1000,1000,1000,1000,64728265,1556,1559,1607,1606
46713807,1000,1000,1000,1000,64828225,1555,1559,1603,1603
46716306,1000,1000,1000,1000,64928185,1557,1562,1600,1599
46718805,1000,1000,1000,1000,65028978,1561,1564,1595,1594
46721304,1000,1000,1000,1000,65128938,1565,1567,1591,1589
46723803,1000,1000,1000,1000,65228898,1570,1570,1588,1585
46726302,1000,1000,1000,1000,65328858,1574,1574,1584,1583
46728801,1000,1000,1000,1000,65428818,1577,1576,1579,1580
46731300,1000,1000,1000,1000,65528778,1579,1578,1576,1577
46733799,1000,1000,1000,1000,65628738,1581,1580,1574,1575
46736298,1000,1000,1000,1000,65728698,1583,1582,1573,1574
46738797,1000,1000,1000,1000,65828658,1584,1585,1574,1574
46741296,1000,1000,1000,1000,65928618,1585,1585,1573,1573
46743795,1000,1000,1000,1000,66028578,1586,1586,1573,1573
46746294,1000,1000,1000,1000,66128538,1586,1586,1573,1573
46748793,1000,1000,1000,1000,66228498,1586,1586,1573,1573
46751292,1000,1000,1000,1000,66328458,1587,1587,1574,1575
46753791,1000,1000,1000,1000,66428418,1587,1586,1575,1575
46756290,1000,1000,1000,1000,66528378,1586,1585,1575,1575
46758789,1000,1000,1000,1000,66628338,1585,1584,1576,1576
46761288,1000,1000,1000,1000,66728298,1585,1583,1583,1570
46763787,1000,1000,1000,1000,66828258,1585,1581,1581,1570
46766286,1000,1000,1000,1000,66928218,1584,1580,1574,1572
46768785,1000,1000,1000,1000,67028178,1580,1578,1565,1569
46771284,1000,1000,1000,1000,67128971,1577,1579,1561,1566
46773783,1000,1000,1000,1000,67228931,1574,1579,1559,1563
46776282,1000,1000,1000,1000,67328891,1573,1578,1558,1559
46778781,1000,1000,1000,1000,67428851,1572,1576,1558,1556
46781280,1000,1000,1000,1000,67528811,1573,1575,1558,1555
46783779,1000,1000,1000,1000,67628771,1573,1573,1556,1553
46786278,1000,1000,1000,1000,67728731,1573,1572,1555,1553
46788777,1000,1000,1000,1000,67828691,1573,1572,1553,1553
46791276,1000,1000,1000,1000,67928651,1573,1573,1551,1552
46793775,1000,1000,1000,1000,68028611,1573,1573,1550,1551
46796274,1000,1000,1000,1000,68128571,1573,1574,1548,1549
46798773,1000,1000,1000,1000,68228531,1573,1575,1546,1546
46801272,1000,1000,1000,1000,68328491,1574,1577,1545,1544
46803771,1000,1000,1000,1000,68428451,1577,1579,1543,1542
46806270,1000,1000,1000,1000,68528411,1579,1580,1540,1540
46808769,1000,1000,1000,1000,68628371,1582,1583,1539,1538
46811268,1000,1000,1000,1000,68728331,1585,1585,1538,1537
46813767,1000,1000,1000,1000,68828291,1587,1587,1536,1536
46816266,1000,1000,1000,1000,68928251,1590,1589,1535,1537
46818765,1000,1000,1000,1000,69028211,1591,1591,1537,1538
46821264,1000,1000,1000,1000,69128171,1591,1590,1538,1541
46823763,1000,1000,1000,1000,69228964,1590,1589,1542,1544
46826262,1000,1000,1000,1000,69328924,1586,1585,1545,1548
46828761,1000,1000,1000,1000,69428884,1582,1581,1550,1554
46831260,1000,1000,1000,1000,69528844,1577,1575,1556,1560
46833759,1000,1000,1000,1000,69628804,1571,1569,1563,1566
46836258,1000,1000,1000,1000,69728764,1563,1562,1569,1571
46838757,1000,1000,1000,1000,69828724,1558,1557,1577,1578
46841256,1000,1000,1000,1000,69928684,1553,1551,1584,1584
46843755,1000,1000,1000,1000,70028644,1548,1546,1591,1591
46846254,1000,1000,1000,1000,70128604,1543,1542,1597,1596
46848753,1000,1000,1000,1000,70228564,1539,1538,1601,1600
46851252,1000,1000,1000,1000,70328524,1535,1536,1604,1603
46853751,1000,1000,1000,1000,70428484,1534,1536,1606,1605
46856250,1000,1000,1000,1000,70528444,1535,1537,1605,1604
46858749,1000,1000,1000,1000,70628404,1539,1541,1601,1601
46861248,1000,1000,1000,1000,70728364,1545,1547,1596,1596
46863747,1000,1000,1000,1000,70828324,1553,1554,1590,1590
46866246,1000,1000,1000,1000,70928284,1560,1561,1583,1584
46868745,1000,1000,1000,1000,71028244,1569,1569,1579,1579
46871244,1000,1000,1000,1000,71128204,1574,1574,1574,1573
46873743,1000,1000,1000,1000,71228164,1579,1578,1572,1570
46876242,1000,1000,1000,1000,71328957,1583,1581,1571,1570
46878741,1000,1000,1000,1000,71428917,1585,1584,1570,1570
46881240,1000,1000,1000,1000,71528877,1585,1584,1569,1569
46883739,1000,1000,1000,1000,71628837,1585,1584,1568,1570
46886238,1000,1000,1000,1000,71728797,1584,1584,1570,1571
46888737,1000,1000,1000,1000,71828757,1583,1583,1571,1572
46891236,1000,1000,1000,1000,71928717,1582,1583,1573,1573
46893735,1000,1000,1000,1000,72028677,1582,1582,1575,1575
46896234,1000,1000,1000,1000,72128637,1580,1580,1576,1575
46898733,1000,1000,1000,1000,72228597,1580,1580,1578,1577
46901232,1000,1000,1000,1000,72328557,1580,1580,1580,1579
46903731,1000,1000,1000,1000,72428517,1579,1579,1580,1580
46906230,1000,1000,1000,1000,72528477,1578,1578,1580,1581
46908729,1000,1000,1000,1000,72628437,1578,1579,1582,1581
46911228,1000,1000,1000,1000,72728397,1577,1577,1581,1581
46913727,1000,1000,1000,1000,72828357,1577,1578,1582,1582
46916226,1000,1000,1000,1000,72928317,1577,1577,1581,1581
46918725,1000,1000,1000,1000,73028277,1577,1577,1581,1581
46921224,1000,1000,1000,1000,73128237,1577,1577,1580,1580
46923723,1000,1000,1000,1000,73228197,1577,1577,1579,1579
46926222,1000,1000,1000,1000,73328157,1578,1578,1579,1579
46928721,1000,1000,1000,1000,73428950,1578,1578,1579,1579
46931220,1000,1000,1000,1000,73528910,1579,1578,1579,1578
46933719,1000,1000,1000,1000,73628870,1580,1579,1579,1579
46936218,1000,1000,1000,1000,73728830,1580,1580,1579,1579
46938717,1000,1000,1000,1000,73828790,1580,1580,1579,1579
46941216,1000,1000,1000,1000,73928750,1581,1581,1579,1579
46943715,1000,1000,1000,1000,74028710,1581,1581,1580,1580
46946214,1000,1000,1000,1000,74128670,1581,1581,1579,1580
46948713,1000,1000,1000,1000,74228630,1581,1582,1580,1580
46951212,1000,1000,1000,1000,74328590,1581,1581,1580,1580
46953711,1000,1000,1000,1000,74428550,1582,1582,1581,1581
46956210,1000,1000,1000,1000,74528510,1582,1582,1582,1581
46958709,1000,1000,1000,1000,74628470,1581,1582,1581,1581
46961208,1000,1000,1000,1000,74728430,1581,1581,1581,1581
46963707,1000,1000,1000,1000,74828390,1581,1581,1580,1581
46966206,1000,1000,1000,1000,74928350,1582,1582,1581,1582
46968705,1000,1000,1000,1000,75028310,1582,1582,1582,1582
46971204,1000,1000,1000,1000,75128270,1581,1581,1581,1581
46973703,1000,1000,1000,1000,75228230,1581,1581,1581,1581
46976202,1000,1000,1000,1000,75328190,1581,1581,1581,1582
46978701,1000,1000,1000,1000,75428983,1581,1581,1582,1581
46981200,1000,1000,1000,1000,75528943,1582,1582,1587,1577
46983699,1000,1000,1000,1000,75628903,1581,1582,1587,1573
46986198,1000,1000,1000,1000,75728863,1580,1581,1579,1573
46988697,1000,1000,1000,1000,75828823,1578,1580,1570,1572
46991196,1000,1000,1000,1000,75928783,1576,1578,1561,1568
46993695,1000,1000,1000,1000,76028743,1576,1578,1558,1564
46996194,1000,1000,1000,1000,76128703,1576,1577,1555,1559
46998693,1000,1000,1000,1000,76228663,1577,1577,1555,1556
47001192,1000,1000,1000,1000,76328623,1578,1577,1556,1555
47003691,1000,1000,1000,1000,76428583,1578,1577,1556,1554
47006190,1000,1000,1000,1000,76528543,1577,1576,1555,1554
47008689,1000,1000,1000,1000,76628503,1576,1577,1556,1554
47011188,1000,1000,1000,1000,76728463,1575,1576,1554,1553
47013687,1000,1000,1000,1000,76828423,1575,1576,1554,1553
47016186,1000,1000,1000,1000,76928383,1575,1576,1552,1552
47018685,1000,1000,1000,1000,77028343,1575,1577,1550,1550
47021184,1000,1000,1000,1000,77128303,1576,1577,1548,1548
47023683,1000,1000,1000,1000,77228263,1577,1579,1546,1546
47026182,1000,1000,1000,1000,77328223,1579,1581,1544,1545
47028681,1000,1000,1000,1000,77428183,1582,1583,1543,1543
47031180,1000,1000,1000,1000,77528976,1585,1585,1542,1541
47033679,1000,1000,1000,1000,77628936,1587,1587,1540,1540
47036178,1000,1000,1000,1000,77728896,1589,1589,1539,1539
47038677,1000,1000,1000,1000,77828856,1591,1590,1539,1539
47041176,1000,1000,1000,1000,77928816,1590,1590,1539,1540
47043675,1000,1000,1000,1000,78028776,1589,1590,1539,1542
47046174,1000,1000,1000,1000,78128736,1589,1589,1542,1546
47048673,1000,1000,1000,1000,78228696,1586,1586,1546,1550
47051172,1000,1000,1000,1000,78328656,1583,1581,1553,1557
47053671,1000,1000,1000,1000,78428616,1577,1574,1562,1564
47056170,1000,1000,1000,1000,78528576,1569,1565,1573,1575
47058669,1000,1000,1000,1000,78628536,1727,1720,1538,1535
47061168,1000,1000,1000,1000,78728496,1664,1656,1543,1543
47063667,1000,1000,1000,1000,78828456,1601,1596,1566,1568
47066166,1000,1000,1000,1000,78928416,1550,1548,1589,1590
47068665,1000,1000,1000,1000,79028376,1517,1519,1602,1602
47071164,1000,1000,1000,1000,79128336,1501,1504,1608,1606
47073663,1000,1000,1000,1000,79228296,1494,1498,1613,1610
47076162,1000,1000,1000,1000,79328256,1477,1480,1627,1624
47078661,1000,1000,1000,1000,79428216,1467,1470,1639,1638
47081160,1000,1000,1000,1000,79528176,1473,1476,1640,1641
47083659,1000,1000,1000,1000,79628969,1490,1494,1629,1633
47086158,1000,1000,1000,1000,79728929,1513,1517,1610,1615
47088657,1000,1000,1000,1000,79828889,1542,1545,1587,1591
47091156,1000,1000,1000,1000,79928849,1569,1571,1568,1570
47093655,1000,1000,1000,1000,80028809,1585,1584,1555,1556
47096154,1000,1000,1000,1000,80128769,1596,1593,1553,1552
47098653,1000,1000,1000,1000,80228729,1601,1597,1555,1552
47101152,1000,1000,1000,1000,80328689,1601,1598,1558,1554
47103651,1000,1000,1000,1000,80428649,1599,1596,1562,1559
47106150,1000,1000,1000,1000,80528609,1597,1595,1566,1564
47108649,1000,1000,1000,1000,80628569,1594,1593,1571,1569
47111148,1000,1000,1000,1000,80728529,1589,1590,1573,1573
47113647,1000,1000,1000,1000,80828489,1586,1586,1577,1577
47116146,1000,1000,1000,1000,80928449,1584,1584,1580,1580
47118645,1000,1000,1000,1000,81028409,1582,1582,1583,1584
47121144,1000,1000,1000,1000,81128369,1580,1580,1586,1586
47123643,1000,1000,1000,1000,81228329,1577,1578,1585,1585
47126142,1000,1000,1000,1000,81328289,1576,1576,1586,1586
47128641,1000,1000,1000,1000,81428249,1575,1575,1586,1586
47131140,1000,1000,1000,1000,81528209,1575,1575,1586,1586
47133639,1000,1000,1000,1000,81628169,1575,1575,1586,1586
47136138,1000,1000,1000,1000,81728962,1576,1576,1586,1586
47138637,1000,1000,1000,1000,81828922,1575,1575,1585,1585
47141136,1000,1000,1000,1000,81928882,1575,1576,1584,1584
47143635,1000,1000,1000,1000,82028842,1576,1576,1583,1583
47146134,1000,1000,1000,1000,82128802,1577,1577,1583,1583
47148633,1000,1000,1000,1000,82228762,1578,1578,1583,1582
47151132,1000,1000,1000,1000,82328722,1578,1578,1582,1581
47153631,1000,1000,1000,1000,82428682,1578,1578,1581,1581
47156130,1000,1000,1000,1000,82528642,1579,1578,1580,1580
47158629,1000,1000,1000,1000,82628602,1579,1579,1580,1580
47161128,1000,1000,1000,1000,82728562,1580,1579,1580,1580
47163627,1000,1000,1000,1000,82828522,1581,1581,1581,1580
47166126,1000,1000,1000,1000,82928482,1581,1581,1581,1580
47168625,1000,1000,1000,1000,83028442,1581,1582,1580,1581
47171124,1000,1000,1000,1000,83128402,1580,1580,1579,1579
47173623,1000,1000,1000,1000,83228362,1581,1580,1579,1580
47176122,1000,1000,1000,1000,83328322,1581,1580,1579,1580
47178621,1000,1000,1000,1000,83428282,1581,1581,1580,1580
47181120,1000,1000,1000,1000,83528242,1580,1580,1580,1579
47183619,1000,1000,1000,1000,83628202,1581,1583,1584,1574
47186118,1000,1000,1000,1000,83728162,1579,1584,1585,1571
47188617,1000,1000,1000,1000,83828955,1577,1581,1578,1573
47191116,1000,1000,1000,1000,83928915,1574,1576,1571,1575
47193615,1000,1000,1000,1000,84028875,1573,1572,1567,1574
47196114,1000,1000,1000,1000,84128835,1571,1569,1565,1571
47198613,1000,1000,1000,1000,84228795,1570,1567,1565,1569
47201112,1000,1000,1000,1000,84328755,1569,1567,1567,1567
47203611,1000,1000,1000,1000,84428715,1568,1566,1567,1565
47206110,1000,1000,1000,1000,84528675,1566,1566,1567,1564
47208609,1000,1000,1000,1000,84628635,1565,1566,1567,1565
47211108,1000,1000,1000,1000,84728595,1564,1565,1566,1565
47213607,1000,1000,1000,1000,84828555,1563,1564,1565,1564
47216106,1000,1000,1000,1000,84928515,1562,1562,1563,1564
47218605,1000,1000,1000,1000,85028475,1561,1561,1562,1563
47221104,1000,1000,1000,1000,85128435,1563,1562,1563,1564
47223603,1000,1000,1000,1000,85228395,1561,1561,1562,1562
47226102,1000,1000,1000,1000,85328355,1561,1561,1562,1562
47228601,1000,1000,1000,1000,85428315,1561,1560,1562,1561
47231100,1000,1000,1000,1000,85528275,1560,1559,1560,1560
47233599,1000,1000,1000,1000,85628235,1559,1558,1559,1558
47236098,1000,1000,1000,1000,85728195,1558,1558,1558,1558
47238597,1000,1000,1000,1000,85828155,1558,1559,1559,1557
47241096,1000,1000,1000,1000,85928948,1557,1558,1558,1556
47243595,1000,1000,1000,1000,86028908,1557,1557,1557,1556
47246094,1000,1000,1000,1000,86128868,1559,1559,1559,1558
47248593,1000,1000,1000,1000,86228828,1558,1558,1558,1557
47251092,1000,1000,1000,1000,86328788,1558,1558,1559,1557
47253591,1000,1000,1000,1000,86428748,1558,1559,1559,1557
47256090,1000,1000,1000,1000,86528708,1559,1560,1558,1561
47258589,1000,1000,1000,1000,86628668,1561,1560,1558,1563
47261088,1000,1000,1000,1000,86728628,1562,1561,1557,1564
47263587,1000,1000,1000,1000,86828588,1562,1560,1559,1563
47266086,1000,1000,1000,1000,86928548,1562,1560,1560,1562
47268585,1000,1000,1000,1000,87028508,1561,1561,1562,1560
47271084,1000,1000,1000,1000,87128468,1560,1560,1562,1558
47273583,1000,1000,1000,1000,87228428,1559,1560,1560,1559
47276082,1000,1000,1000,1000,87328388,1558,1558,1556,1561
47278581,1000,1000,1000,1000,87428348,1555,1554,1552,1557
47281080,1000,1000,1000,1000,87528308,1550,1550,1549,1552
47283579,1000,1000,1000,1000,87628268,1545,1544,1545,1545
47286078,1000,1000,1000,1000,87728228,1538,1538,1539,1538
47288577,1000,1000,1000,1000,87828188,1530,1530,1531,1530
47291076,1000,1000,1000,1000,87928981,1522,1522,1523,1521
47293575,1000,1000,1000,1000,88028941,1520,1520,1521,1520
47296074,1000,1000,1000,1000,88128901,1519,1519,1519,1520
47298573,1000,1000,1000,1000,88228861,1520,1520,1520,1521
47301072,1000,1000,1000,1000,88328821,1522,1522,1522,1523
47303571,1000,1000,1000,1000,88428781,1526,1526,1525,1526
47306070,1000,1000,1000,1000,88528741,1530,1530,1530,1530
47308569,1000,1000,1000,1000,88628701,1535,1535,1535,1535
47311068,1000,1000,1000,1000,88728661,1539,1538,1539,1538
47313567,1000,1000,1000,1000,88828621,1541,1541,1541,1541
47316066,1000,1000,1000,1000,88928581,1543,1543,1543,1543
47318565,1000,1000,1000,1000,89028541,1544,1544,1544,1544
47321064,1000,1000,1000,1000,89128501,1546,1546,1546,1545
47323563,1000,1000,1000,1000,89228461,1546,1546,1547,1546
47326062,1000,1000,1000,1000,89328421,1546,1547,1546,1547
47328561,1000,1000,1000,1000,89428381,1546,1546,1546,1546
47331060,1000,1000,1000,1000,89528341,1547,1546,1546,1547
47333559,1000,1000,1000,1000,89628301,1546,1546,1546,1546
47336058,1000,1000,1000,1000,89728261,1547,1547,1547,1547
47338557,1000,1000,1000,1000,89828221,1545,1546,1546,1545
47341056,1000,1000,1000,1000,89928181,1545,1545,1546,1545
47343555,1000,1000,1000,1000,90028974,1545,1545,1545,1545
47346054,1000,1000,1000,1000,90128934,1545,1545,1545,1545
47348553,1000,1000,1000,1000,90228894,1545,1545,1545,1545
47351052,1000,1000,1000,1000,90328854,1545,1544,1545,1544
47353551,1000,1000,1000,1000,90428814,1544,1544,1545,1544
47356050,1000,1000,1000,1000,90528774,1545,1544,1544,1544
47358549,1000,1000,1000,1000,90628734,1544,1544,1544,1544
47361048,1000,1000,1000,1000,90728694,1544,1544,1544,1544
47363547,1000,1000,1000,1000,90828654,1544,1544,1544,1544
47366046,1000,1000,1000,1000,90928614,1544,1543,1543,1544
47368545,1000,1000,1000,1000,91028574,1545,1545,1545,1545
47371044,1000,1000,1000,1000,91128534,1545,1545,1545,1545
47373543,1000,1000,1000,1000,91228494,1545,1544,1545,1545
47376042,1000,1000,1000,1000,91328454,1544,1544,1544,1544
47378541,1000,1000,1000,1000,91428414,1544,1544,1544,1544
47381040,1000,1000,1000,1000,91528374,1544,1544,1545,1544
47383539,1000,1000,1000,1000,91628334,1543,1544,1543,1544
47386038,1000,1000,1000,1000,91728294,1545,1544,1544,1545
47388537,1000,1000,1000,1000,91828254,1544,1544,1544,1545
47391036,1000,1000,1000,1000,91928214,1544,1544,1543,1544
47393535,1000,1000,1000,1000,92028174,1544,1543,1544,1544
47396034,1000,1000,1000,1000,92128967,1544,1544,1544,1544
47398533,1000,1000,1000,1000,92228927,1544,1544,1544,1544
47401032,1000,1000,1000,1000,92328887,1543,1543,1543,1543
47403531,1000,1000,1000,1000,92428847,1544,1544,1544,1544
47406030,1000,1000,1000,1000,92528807,1544,1543,1544,1544
47408529,1000,1000,1000,1000,92628767,1544,1543,1544,1543
47411028,1000,1000,1000,1000,92728727,1543,1543,1544,1543
47413527,1000,1000,1000,1000,92828687,1544,1543,1544,1544
47416026,1000,1000,1000,1000,92928647,1544,1544,1544,1544
47418525,1000,1000,1000,1000,93028607,1544,1545,1544,1544
47421024,1000,1000,1000,1000,93128567,1545,1545,1545,1545
47423523,1000,1000,1000,1000,93228527,1544,1544,1544,1544
47426022,1000,1000,1000,1000,93328487,1544,1544,1544,1544
47428521,1000,1000,1000,1000,93428447,1544,1544,1544,1544
47431020,1000,1000,1000,1000,93528407,1544,1544,1544,1544
47433519,1000,1000,1000,1000,93628367,1544,1544,1544,1544
47436018,1000,1000,1000,1000,93728327,1544,1544,1544,1544
47438517,1000,1000,1000,1000,93828287,1543,1544,1544,1544
47441016,1000,1000,1000,1000,93928247,1545,1545,1545,1545
47443515,1000,1000,1000,1000,94028207,1544,1545,1544,1545
47446014,1000,1000,1000,1000,94128167,1545,1545,1544,1545
47448513,1000,1000,1000,1000,94228960,1545,1546,1545,1545
47451012,1000,1000,1000,1000,94328920,1544,1544,1544,1544
47453511,1000,1000,1000,1000,94428880,1545,1545,1545,1545
47456010,1000,1000,1000,1000,94528840,1544,1544,1544,1544
47458509,1000,1000,1000,1000,94628800,1545,1545,1545,1545
47461008,1000,1000,1000,1000,94728760,1544,1543,1544,1544
47463507,1000,1000,1000,1000,94828720,1544,1544,1544,1544
47466006,1000,1000,1000,1000,94928680,1544,1544,1544,1544
47468505,1000,1000,1000,1000,95028640,1543,1544,1544,1544
47471004,1000,1000,1000,1000,95128600,1544,1544,1544,1545
47473503,1000,1000,1000,1000,95228560,1544,1544,1545,1544
47476002,1000,1000,1000,1000,95328520,1545,1545,1545,1545
47478501,1000,1000,1000,1000,95428480,1545,1545,1545,1545
47481000,1000,1000,1000,1000,95528440,1544,1544,1544,1544
47483499,1000,1000,1000,1000,95628400,1545,1545,1545,1545
47485998,1000,1000,1000,1000,95728360,1544,1543,1544,1544
47488497,1000,1000,1000,1000,95828320,1544,1544,1544,1544
47490996,1000,1000,1000,1000,95928280,1544,1544,1544,1544
47493495,1000,1000,1000,1000,96028240,1544,1545,1545,1544
47495994,1000,1000,1000,1000,96128200,1545,1545,1545,1544
47498493,1000,1000,1000,1000,96228160,1544,1544,1544,1544
47500992,1000,1000,1000,1000,96328953,1545,1545,1545,1545
47503491,1000,1000,1000,1000,96428913,1544,1544,1544,1544
47505990,1000,1000,1000,1000,96528873,1545,1544,1544,1545
47508489,1000,1000,1000,1000,96628833,1545,1545,1545,1545
47510988,1000,1000,1000,1000,96728793,1545,1544,1545,1544
47513487,1000,1000,1000,1000,96828753,1544,1544,1544,1544
47515986,1000,1000,1000,1000,96928713,1545,1545,1545,1546
47518485,1000,1000,1000,1000,97028673,1545,1545,1545,1546
47520984,1000,1000,1000,1000,97128633,1544,1544,1544,1544
47523483,1000,1000,1000,1000,97228593,1544,1544,1545,1544
47525982,1000,1000,1000,1000,97328553,1544,1543,1543,1544
47528481,1000,1000,1000,1000,97428513,1544,1544,1544,1544
47530980,1000,1000,1000,1000,97528473,1545,1544,1544,1544
47533479,1000,1000,1000,1000,97628433,1544,1544,1545,1544
47535978,1000,1000,1000,1000,97728393,1489,1487,1488,1488
47538477,1000,1000,1000,1000,97828353,1315,1312,1314,1314
47540976,1000,1000,1000,1000,97928313,1237,1232,1236,1237
47543475,1000,1000,1000,1000,98028273,1211,1207,1212,1211
47545974,1000,1000,1000,1000,98128233,1182,1177,1183,1183
47548473,1000,1000,1000,1000,98228193,1155,1150,1156,1156
47550972,1000,1000,1000,1000,98328986,1156,1150,1157,1158
47553471,1000,1000,1000,1000,98428946,1175,1150,1155,1180
47555970,1000,1000,1000,1000,98528906,1179,1150,1157,1184
47558469,1000,1000,1000,1000,98628866,1174,1150,1159,1178
47560968,1000,1000,1000,1000,98728826,1174,1150,1160,1178
47563467,1000,1000,1000,1000,98828786,1175,1150,1161,1180
47565966,1000,1000,1000,1000,98928746,1177,1150,1161,1182
47568465,1000,1000,1000,1000,99028706,1179,1150,1162,1185
47570964,1000,1000,1000,1000,99128666,1181,1150,1163,1187
47573463,1000,1000,1000,1000,99228626,1162,1150,1163,1169
47575962,1000,1000,1000,1000,99328586,1168,1150,1163,1176
47578461,1000,1000,1000,1000,99428546,1169,1150,1163,1178
47580960,1000,1000,1000,1000,99528506,1170,1150,1164,1179
47583459,1000,1000,1000,1000,99628466,1170,1150,1165,1180
47585958,1000,1000,1000,1000,99728426,1000,1000,1000,1000
47588457,1000,1000,1000,1000,99828386,1000,1000,1000,1000
47590956,1000,1000,1000,1000,99928346,1000,1000,1000,1000
47593455,1000,1000,1000,1000,100028306,1000,1000,1000,1000
47595954,1000,1000,1000,1000,100128266,1000,1000,1000,1000
47598453,1000,1000,1000,1000,100228226,1000,1000,1000,1000
47600952,1000,1000,1000,1000,100328186,1000,1000,1000,1000
47603451,1000,1000,1000,1000,100428979,1000,1000,1000,1000
47605950,1000,1000,1000,1000,100528939,1000,1000,1000,1000
47608449,1000,1000,1000,1000,100628899,1000,1000,1000,1000
47610948,1000,1000,1000,1000,100728859,1000,1000,1000,1000
47613447,1000,1000,1000,1000,100828819,1000,1000,1000,1000
47615946,1000,1000,1000,1000,100928779,1000,1000,1000,1000
47618445,1000,1000,1000,1000,101028739,1000,1000,1000,1000
47620944,1000,1000,1000,1000,101128699,1000,1000,1000,1000
47623443,1000,1000,1000,1000,101228659,1000,1000,1000,1000
47625942,1000,1000,1000,1000,101328619,1000,1000,1000,1000
47628441,1000,1000,1000,1000,101428579,1000,1000,1000,1000
47630940,1000,1000,1000,1000,101528539,1000,1000,1000,1000
47633439,1000,1000,1000,1000,101628499,1000,1000,1000,1000
47635938,1000,1000,1000,1000,101728459,1000,1000,1000,1000
47638437,1000,1000,1000,1000,101828419,1000,1000,1000,1000
47640936,1000,1000,1000,1000,101928379,1000,1000,1000,1000
47643435,1000,1000,1000,1000,102028339,1000,1000,1000,1000
47645934,1000,1000,1000,1000,102128299,1000,1000,1000,1000
47648433,1000,1000,1000,1000,102228259,1000,1000,1000,1000
47650932,1000,1000,1000,1000,102328219,1000,1000,1000,1000
47653431,1000,1000,1000,1000,102428179,1000,1000,1000,1000
47655930,1000,1000,1000,1000,102528972,1000,1000,1000,1000
47658429,1000,1000,1000,1000,102628932,1000,1000,1000,1000
47660928,1000,1000,1000,1000,102728892,1000,1000,1000,1000
47663427,1000,1000,1000,1000,102828852,1000,1000,1000,1000
47665926,1000,1000,1000,1000,102928812,1000,1000,1000,1000
47668425,1000,1000,1000,1000,103028772,1000,1000,1000,1000
47670924,1000,1000,1000,1000,103128732,1000,1000,1000,1000
47673423,1000,1000,1000,1000,103228692,1000,1000,1000,1000
47675922,1000,1000,1000,1000,103328652,1000,1000,1000,1000
47678421,1000,1000,1000,1000,103428612,1000,1000,1000,1000
47680920,1000,1000,1000,1000,103528572,1000,1000,1000,1000
47683419,1000,1000,1000,1000,103628532,1000,1000,1000,1000
47685918,1000,1000,1000,1000,103728492,1000,1000,1000,1000
47688417,1000,1000,1000,1000,103828452,1000,1000,1000,1000
47690916,1000,1000,1000,1000,103928412,1000,1000,1000,1000
47693415,1000,1000,1000,1000,104028372,1000,1000,1000,1000
47695914,1000,1000,1000,1000,104128332,1000,1000,1000,1000
47698413,1000,1000,1000,1000,104228292,1000,1000,1000,1000
47700912,1000,1000,1000,1000,104328252,1000,1000,1000,1000
47703411,1000,1000,1000,1000,104428212,1000,1000,1000,1000
47705910,1000,1000,1000,1000,104528172,1000,1000,1000,1000
47708409,1000,1000,1000,1000,104628965,1000,1000,1000,1000
47710908,1000,1000,1000,1000,104728925,1000,1000,1000,1000
47713407,1000,1000,1000,1000,104828885,1000,1000,1000,1000
47715906,1000,1000,1000,1000,104928845,1000,1000,1000,1000
47718405,1000,1000,1000,1000,105028805,1000,1000,1000,1000
47720904,1000,1000,1000,1000,105128765,1000,1000,1000,1000
47723403,1000,1000,1000,1000,105228725,1000,1000,1000,1000
47725902,1000,1000,1000,1000,105328685,1000,1000,1000,1000
47728401,1000,1000,1000,1000,105428645,1000,1000,1000,1000
47730900,1000,1000,1000,1000,105528605,1000,1000,1000,1000
47733399,1000,1000,1000,1000,105628565,1000,1000,1000,1000
47735898,1000,1000,1000,1000,105728525,1000,1000,1000,1000
47738397,1000,1000,1000,1000,105828485,1000,1000,1000,1000
47740896,1000,1000,1000,1000,105928445,1000,1000,1000,1000
47743395,1000,1000,1000,1000,106028405,1000,1000,1000,1000
47745894,1000,1000,1000,1000,106128365,1000,1000,1000,1000
47748393,1000,1000,1000,1000,106228325,1000,1000,1000,1000
47750892,1000,1000,1000,1000,106328285,1000,1000,1000,1000
47753391,1000,1000,1000,1000,106428245,1000,1000,1000,1000
47755890,1000,1000,1000,1000,106528205,1000,1000,1000,1000
47758389,1000,1000,1000,1000,106628165,1000,1000,1000,1000
47760888,1000,1000,1000,1000,106728958,1000,1000,1000,1000
47763387,1000,1000,1000,1000,106828918,1000,1000,1000,1000
47765886,1000,1000,1000,1000,106928878,1000,1000,1000,1000
47768385,1000,1000,1000,1000,107028838,1000,1000,1000,1000
47770884,1000,1000,1000,1000,107128798,1000,1000,1000,1000
47773383,1000,1000,1000,1000,107228758,1000,1000,1000,1000
47775882,1000,1000,1000,1000,107328718,1000,1000,1000,1000
47778381,1000,1000,1000,1000,107428678,1000,1000,1000,1000
47780880,1000,1000,1000,1000,107528638,1000,1000,1000,1000
47783379,1000,1000,1000,1000,107628598,1000,1000,1000,1000
47785878,1000,1000,1000,1000,107728558,1000,1000,1000,1000
47788377,1000,1000,1000,1000,107828518,1000,1000,1000,1000
47790876,1000,1000,1000,1000,107928478,1000,1000,1000,1000
47793375,1000,1000,1000,1000,108028438,1000,1000,1000,1000
47795874,1000,1000,1000,1000,108128398,1000,1000,1000,1000
47798373,1000,1000,1000,1000,108228358,1000,1000,1000,1000
47800872,1000,1000,1000,1000,108328318,1000,1000,1000,1000
47803371,1000,1000,1000,1000,108428278,1000,1000,1000,1000
47805870,1000,1000,1000,1000,108528238,1000,1000,1000,1000
47808369,1000,1000,1000,1000,108628198,1000,1000,1000,1000
47810868,1000,1000,1000,1000,108728158,1000,1000,1000,1000
47813367,1000,1000,1000,1000,108828951,1000,1000,1000,1000
47815866,1000,1000,1000,1000,108928911,1000,1000,1000,1000
47818365,1000,1000,1000,1000,109028871,1000,1000,1000,1000
47820864,1000,1000,1000,1000,109128831,1000,1000,1000,1000
47823363,1000,1000,1000,1000,109228791,1000,1000,1000,1000
47825862,1000,1000,1000,1000,109328751,1000,1000,1000,1000
47828361,1000,1000,1000,1000,109428711,1000,1000,1000,1000
47830860,1000,1000,1000,1000,109528671,1000,1000,1000,1000
47833359,1000,1000,1000,1000,109628631,1000,1000,1000,1000
47835858,1000,1000,1000,1000,109728591,1000,1000,1000,1000
47838357,1000,1000,1000,1000,109828551,1000,1000,1000,1000
47840856,1000,1000,1000,1000,109928511,1000,1000,1000,1000
47843355,1000,1000,1000,1000,110028471,1000,1000,1000,1000
47845854,1000,1000,1000,1000,110128431,1000,1000,1000,1000
47848353,1000,1000,1000,1000,110228391,1000,1000,1000,1000
47850852,1000,1000,1000,1000,110328351,1000,1000,1000,1000
47853351,1000,1000,1000,1000,110428311,1000,1000,1000,1000
47855850,1000,1000,1000,1000,110528271,1000,1000,1000,1000
47858349,1000,1000,1000,1000,110628231,1000,1000,1000,1000
47860848,1000,1000,1000,1000,110728191,1000,1000,1000,1000
47863347,1000,1000,1000,1000,110828984,1000,1000,1000,1000
47865846,1000,1000,1000,1000,110928944,1000,1000,1000,1000
47868345,1000,1000,1000,1000,111028904,1000,1000,1000,1000
47870844,1000,1000,1000,1000,111128864,1000,1000,1000,1000
47873343,1000,1000,1000,1000,111228824,1000,1000,1000,1000
47875842,1000,1000,1000,1000,111328784,1000,1000,1000,1000
47878341,1000,1000,1000,1000,111428744,1000,1000,1000,1000
47880840,1000,1000,1000,1000,111528704,1000,1000,1000,1000
47883339,1000,1000,1000,1000,111628664,1000,1000,1000,1000
47885838,1000,1000,1000,1000,111728624,1000,1000,1000,1000
47888337,1000,1000,1000,1000,111828584,1000,1000,1000,1000
47890836,1000,1000,1000,1000,111928544,1000,1000,1000,1000
47893335,1000,1000,1000,1000,,,,,
47895834,1000,1000,1000,1000,,,,,
47898333,1000,1000,1000,1000,,,,,
47900832,1000,1000,1000,1000,,,,,
47903331,1000,1000,1000,1000,,,,,
47905830,1000,1000,1000,1000,,,,,
47908329,1000,1000,1000,1000,,,,,
47910828,1000,1000,1000,1000,,,,,
47913327,1000,1000,1000,1000,,,,,
47915826,1000,1000,1000,1000,,,,,
47918325,1000,1000,1000,1000,,,,,
47920824,1000,1000,1000,1000,,,,,
47923323,1000,1000,1000,1000,,,,,
47925822,1000,1000,1000,1000,,,,,
47928321,1000,1000,1000,1000,,,,,
47930820,1000,1000,1000,1000,,,,,
47933319,1000,1000,1000,1000,,,,,
47935818,1000,1000,1000,1000,,,,,
47938317,1000,1000,1000,1000,,,,,
47940816,1000,1000,1000,1000,,,,,
47943315,1000,1000,1000,1000,,,,,
47945814,1000,1000,1000,1000,,,,,
47948313,1000,1000,1000,1000,,,,,
47950812,1000,1000,1000,1000,,,,,
47953311,1000,1000,1000,1000,,,,,
47955810,1000,1000,1000,1000,,,,,
47958309,1000,1000,1000,1000,,,,,
47960808,1000,1000,1000,1000,,,,,
47963307,1000,1000,1000,1000,,,,,
47965806,1000,1000,1000,1000,,,,,
47968305,1000,1000,1000,1000,,,,,
47970804,1000,1000,1000,1000,,,,,
47973303,1000,1000,1000,1000,,,,,
47975802,1000,1000,1000,1000,,,,,
47978301,1000,1000,1000,1000,,,,,
47980800,1000,1000,1000,1000,,,,,
47983299,1000,1000,1000,1000,,,,,
47985798,1000,1000,1000,1000,,,,,
47988297,1000,1000,1000,1000,,,,,
47990796,1000,1000,1000,1000,,,,,
47993295,1000,1000,1000,1000,,,,,
47995794,1000,1000,1000,1000,,,,,
47998293,1000,1000,1000,1000,,,,,
48000792,1000,1000,1000,1000,,,,,
48003291,1000,1000,1000,1000,,,,,
48005790,1000,1000,1000,1000,,,,,
48008289,1000,1000,1000,1000,,,,,
48010788,1000,1000,1000,1000,,,,,
48013287,1000,1000,1000,1000,,,,,
48015786,1000,1000,1000,1000,,,,,
48018285,1000,1000,1000,1000,,,,,
48020784,1000,1000,1000,1000,,,,,
48023283,1000,1000,1000,1000,,,,,
48025782,1000,1000,1000,1000,,,,,
48028281,1000,1000,1000,1000,,,,,
48030780,1000,1000,1000,1000,,,,,
48033279,1000,1000,1000,1000,,,,,
48035778,1000,1000,1000,1000,,,,,
48038277,1000,1000,1000,1000,,,,,
48040776,1000,1000,1000,1000,,,,,
48043275,1000,1000,1000,1000,,,,,
48045774,1000,1000,1000,1000,,,,,
48048273,1000,1000,1000,1000,,,,,
48050772,1000,1000,1000,1000,,,,,
48053271,1000,1000,1000,1000,,,,,
48055770,1000,1000,1000,1000,,,,,
48058269,1000,1000,1000,1000,,,,,
48060768,1000,1000,1000,1000,,,,,
48063267,1000,1000,1000,1000,,,,,
48065766,1000,1000,1000,1000,,,,,
48068265,1000,1000,1000,1000,,,,,
48070764,1000,1000,1000,1000,,,,,
48073263,1000,1000,1000,1000,,,,,
48075762,1000,1000,1000,1000,,,,,
48078261,1000,1000,1000,1000,,,,,
48080760,1000,1000,1000,1000,,,,,
48083259,1000,1000,1000,1000,,,,,
48085758,1000,1000,1000,1000,,,,,
48088257,1000,1000,1000,1000,,,,,
48090756,1000,1000,1000,1000,,,,,
48093255,1000,1000,1000,1000,,,,,
48095754,1000,1000,1000,1000,,,,,
48098253,1000,1000,1000,1000,,,,,
48100752,1000,1000,1000,1000,,,,,
48103251,1000,1000,1000,1000,,,,,
48105750,1000,1000,1000,1000,,,,,
48108249,1000,1000,1000,1000,,,,,
48110748,1000,1000,1000,1000,,,,,
48113247,1000,1000,1000,1000,,,,,
48115746,1000,1000,1000,1000,,,,,
48118245,1000,1000,1000,1000,,,,,
48120744,1000,1000,1000,1000,,,,,
48123243,1000,1000,1000,1000,,,,,
48125742,1000,1000,1000,1000,,,,,
48128241,1000,1000,1000,1000,,,,,
48130740,1000,1000,1000,1000,,,,,
48133239,1000,1000,1000,1000,,,,,
48135738,1000,1000,1000,1000,,,,,
48138237,1000,1000,1000,1000,,,,,
48140736,1000,1000,1000,1000,,,,,
48143235,1000,1000,1000,1000,,,,,
48145734,1000,1000,1000,1000,,,,,
48148233,1000,1000,1000,1000,,,,,
48150732,1000,1000,1000,1000,,,,,
48153231,1000,1000,1000,1000,,,,,
48155730,1000,1000,1000,1000,,,,,
48158229,1000,1000,1000,1000,,,,,
48160728,1000,1000,1000,1000,,,,,
48163227,1000,1000,1000,1000,,,,,
48165726,1000,1000,1000,1000,,,,,
48168225,1000,1000,1000,1000,,,,,
48170724,1000,1000,1000,1000,,,,,
48173223,1000,1000,1000,1000,,,,,
48175722,1000,1000,1000,1000,,,,,
48178221,1000,1000,1000,1000,,,,,
48180720,1000,1000,1000,1000,,,,,
48183219,1000,1000,1000,1000,,,,,
48185718,1000,1000,1000,1000,,,,,
48188217,1000,1000,1000,1000,,,,,
48190716,1000,1000,1000,1000,,,,,
48193215,1000,1000,1000,1000,,,,,
48195714,1000,1000,1000,1000,,,,,
48198213,1000,1000,1000,1000,,,,,
48200712,1000,1000,1000,1000,,,,,
48203211,1000,1000,1000,1000,,,,,
48205710,1000,1000,1000,1000,,,,,
48208209,1000,1000,1000,1000,,,,,
48210708,1000,1000,1000,1000,,,,,
48213207,1000,1000,1000,1000,,,,,
48215706,1000,1000,1000,1000,,,,,
48218205,1000,1000,1000,1000,,,,,
48220704,1000,1000,1000,1000,,,,,
48223203,1000,1000,1000,1000,,,,,
48225702,1000,1000,1000,1000,,,,,
48228201,1000,1000,1000,1000,,,,,
48230700,1000,1000,1000,1000,,,,,
48233199,1000,1000,1000,1000,,,,,
48235698,1000,1000,1000,1000,,,,,
48238197,1000,1000,1000,1000,,,,,
48240696,1000,1000,1000,1000,,,,,
48243195,1000,1000,1000,1000,,,,,
48245694,1000,1000,1000,1000,,,,,
48248193,1000,1000,1000,1000,,,,,
48250692,1000,1000,1000,1000,,,,,
48253191,1000,1000,1000,1000,,,,,
48255690,1000,1000,1000,1000,,,,,
48258189,1001,1001,1001,1001,,,,,
48260688,1002,1002,1002,1002,,,,,
48263187,1003,1003,1003,1003,,,,,
48265686,1003,1003,1003,1003,,,,,
48268185,1004,1004,1004,1004,,,,,
48270684,1005,1005,1005,1005,,,,,
48273183,1006,1006,1006,1006,,,,,
48275682,1006,1006,1006,1006,,,,,
48278181,1007,1007,1007,1007,,,,,
48280680,1008,1008,1008,1008,,,,,
48283179,1009,1009,1009,1009,,,,,
48285678,1009,1009,1009,1009,,,,,
48288177,1010,1010,1010,1010,,,,,
48290676,1011,1011,1011,1011,,,,,
48293175,1012,1012,1012,1012,,,,,
48295674,1012,1012,1012,1012,,,,,
48298173,1013,1013,1013,1013,,,,,
48300672,1014,1014,1014,1014,,,,,
48303171,1015,1015,1015,1015,,,,,
48305670,1015,1015,1015,1015,,,,,
48308169,1016,1016,1016,1016,,,,,
48310668,1017,1017,1017,1017,,,,,
48313167,1018,1018,1018,1018,,,,,
48315666,1018,1018,1018,1018,,,,,
48318165,1019,1019,1019,1019,,,,,
48320664,1020,1020,1020,1020,,,,,
48323163,1021,1021,1021,1021,,,,,
48325662,1021,1021,1021,1021,,,,,
48328161,1022,1022,1022,1022,,,,,
48330660,1023,1023,1023,1023,,,,,
48333159,1024,1024,1024,1024,,,,,
48335658,1024,1024,1024,1024,,,,,
48338157,1025,1025,1025,1025,,,,,
48340656,1026,1026,1026,1026,,,,,
48343155,1027,1027,1027,1027,,,,,
48345654,1027,1027,1027,1027,,,,,
48348986,1028,1028,1028,1028,,,,,
48351485,1029,1029,1029,1029,,,,,
48353984,1030,1030,1030,1030,,,,,
48356483,1030,1030,1030,1030,,,,,
48358982,1031,1031,1031,1031,,,,,
48361481,1032,1032,1032,1032,,,,,
48363980,1033,1033,1033,1033,,,,,
48366479,1033,1033,1033,1033,,,,,
48368978,1034,1034,1034,1034,,,,,
48371477,1035,1035,1035,1035,,,,,
48373976,1036,1036,1036,1036,,,,,
48376475,1036,1036,1036,1036,,,,,
48378974,1037,1037,1037,1037,,,,,
48381473,1038,1038,1038,1038,,,,,
48383972,1039,1039,1039,1039,,,,,
48386471,1039,1039,1039,1039,,,,,
48388970,1040,1040,1040,1040,,,,,
48391469,1041,1041,1041,1041,,,,,
48393968,1042,1042,1042,1042,,,,,
48396467,1042,1042,1042,1042,,,,,
48398966,1043,1043,1043,1043,,,,,
48401465,1044,1044,1044,1044,,,,,
48403964,1045,1045,1045,1045,,,,,
48406463,1045,1045,1045,1045,,,,,
48408962,1046,1046,1046,1046,,,,,
48411461,1047,1047,1047,1047,,,,,
48413960,1048,1048,1048,1048,,,,,
48416459,1048,1048,1048,1048,,,,,
48418958,1049,1049,1049,1049,,,,,
48421457,1050,1050,1050,1050,,,,,
48423956,1051,1051,1051,1051,,,,,
48426455,1051,1051,1051,1051,,,,,
48428954,1052,1052,1052,1052,,,,,
48431453,1053,1053,1053,1053,,,,,
48433952,1054,1054,1054,1054,,,,,
48436451,1054,1054,1054,1054,,,,,
48438950,1055,1055,1055,1055,,,,,
48441449,1056,1056,1056,1056,,,,,
48443948,1057,1057,1057,1057,,,,,
48446447,1057,1057,1057,1057,,,,,
48448946,1058,1058,1058,1058,,,,,
48451445,1059,1059,1059,1059,,,,,
48453944,1060,1060,1060,1060,,,,,
48456443,1060,1060,1060,1060,,,,,
48458942,1061,1061,1061,1061,,,,,
48461441,1062,1062,1062,1062,,,,,
48463940,1063,1063,1063,1063,,,,,
48466439,1063,1063,1063,1063,,,,,
48468938,1064,1064,1064,1064,,,,,
48471437,1065,1065,1065,1065,,,,,
48473936,1066,1066,1066,1066,,,,,
48476435,1066,1066,1066,1066,,,,,
48478934,1067,1067,1067,1067,,,,,
48481433,1068,1068,1068,1068,,,,,
48483932,1069,1069,1069,1069,,,,,
48486431,1069,1069,1069,1069,,,,,
48488930,1070,1070,1070,1070,,,,,
48491429,1071,1071,1071,1071,,,,,
48493928,1072,1072,1072,1072,,,,,
48496427,1072,1072,1072,1072,,,,,
48498926,1073,1073,1073,1073,,,,,
48501425,1074,1074,1074,1074,,,,,
48503924,1075,1075,1075,1075,,,,,
48506423,1075,1075,1075,1075,,,,,
48508922,1076,1076,1076,1076,,,,,
48511421,1077,1077,1077,1077,,,,,
48513920,1078,1078,1078,1078,,,,,
48516419,1078,1078,1078,1078,,,,,
48518918,1079,1079,1079,1079,,,,,
48521417,1080,1080,1080,1080,,,,,
48523916,1081,1081,1081,1081,,,,,
48526415,1081,1081,1081,1081,,,,,
48528914,1082,1082,1082,1082,,,,,
48531413,1083,1083,1083,1083,,,,,
48533912,1084,1084,1084,1084,,,,,
48536411,1084,1084,1084,1084,,,,,
48538910,1085,1085,1085,1085,,,,,
48541409,1086,1086,1086,1086,,,,,
48543908,1087,1087,1087,1087,,,,,
48546407,1087,1087,1087,1087,,,,,
48548906,1088,1088,1088,1088,,,,,
48551405,1089,1089,1089,1089,,,,,
48553904,1090,1090,1090,1090,,,,,
48556403,1090,1090,1090,1090,,,,,
48558902,1091,1091,1091,1091,,,,,
48561401,1092,1092,1092,1092,,,,,
48563900,1093,1093,1093,1093,,,,,
48566399,1093,1093,1093,1093,,,,,
48568898,1094,1094,1094,1094,,,,,
48571397,1095,1095,1095,1095,,,,,
48573896,1096,1096,1096,1096,,,,,
48576395,1096,1096,1096,1096,,,,,
48578894,1097,1097,1097,1097,,,,,
48581393,1098,1098,1098,1098,,,,,
48583892,1099,1099,1099,1099,,,,,
48586391,1099,1099,1099,1099,,,,,
48588890,1100,1100,1100,1100,,,,,
48591389,1101,1101,1101,1101,,,,,
48593888,1101,1101,1101,1101,,,,,
48596387,1102,1102,1102,1102,,,,,
48598886,1103,1103,1103,1103,,,,,
48601385,1104,1104,1104,1104,,,,,
48603884,1104,1104,1104,1104,,,,,
48606383,1105,1105,1105,1105,,,,,
48608882,1106,1106,1106,1106,,,,,
48611381,1107,1107,1107,1107,,,,,
48613880,1107,1107,1107,1107,,,,,
48616379,1108,1108,1108,1108,,,,,
48618878,1109,1109,1109,1109,,,,,
48621377,1110,1110,1110,1110,,,,,
48623876,1110,1110,1110,1110,,,,,
48626375,1111,1111,1111,1111,,,,,
48628874,1112,1112,1112,1112,,,,,
48631373,1113,1113,1113,1113,,,,,
48633872,1113,1113,1113,1113,,,,,
48636371,1114,1114,1114,1114,,,,,
48638870,1115,1115,1115,1115,,,,,
48641369,1116,1116,1116,1116,,,,,
48643868,1116,1116,1116,1116,,,,,
48646367,1117,1117,1117,1117,,,,,
48648866,1118,1118,1118,1118,,,,,
48651365,1119,1119,1119,1119,,,,,
48653864,1119,1119,1119,1119,,,,,
48656363,1120,1120,1120,1120,,,,,
48658862,1121,1121,1121,1121,,,,,
48661361,1122,1122,1122,1122,,,,,
48663860,1122,1122,1122,1122,,,,,
48666359,1123,1123,1123,1123,,,,,
48668858,1124,1124,1124,1124,,,,,
48671357,1125,1125,1125,1125,,,,,
48673856,1125,1125,1125,1125,,,,,
48676355,1126,1126,1126,1126,,,,,
48678854,1127,1127,1127,1127,,,,,
48681353,1128,1128,1128,1128,,,,,
48683852,1128,1128,1128,1128,,,,,
48686351,1129,1129,1129,1129,,,,,
48688850,1130,1130,1130,1130,,,,,
48691349,1131,1131,1131,1131,,,,,
48693848,1131,1131,1131,1131,,,,,
48696347,1132,1132,1132,1132,,,,,
48698846,1133,1133,1133,1133,,,,,
48701345,1134,1134,1134,1134,,,,,
48703844,1134,1134,1134,1134,,,,,
48706343,1135,1135,1135,1135,,,,,
48708842,1136,1136,1136,1136,,,,,
48711341,1137,1137,1137,1137,,,,,
48713840,1137,1137,1137,1137,,,,,
48716339,1138,1138,1138,1138,,,,,
48718838,1139,1139,1139,1139,,,,,
48721337,1140,1140,1140,1140,,,,,
48723836,1140,1140,1140,1140,,,,,
48726335,1141,1141,1141,1141,,,,,
48728834,1142,1142,1142,1142,,,,,
48731333,1143,1143,1143,1143,,,,,
48733832,1143,1143,1143,1143,,,,,
48736331,1144,1144,1144,1144,,,,,
48738830,1145,1145,1145,1145,,,,,
48741329,1146,1146,1146,1146,,,,,
48743828,1146,1146,1146,1146,,,,,
48746327,1147,1147,1147,1147,,,,,
48748826,1148,1148,1148,1148,,,,,
48751325,1149,1149,1149,1149,,,,,
48753824,1149,1149,1149,1149,,,,,
48756323,1150,1150,1150,1150,,,,,
48758822,1161,1154,1154,1161,,,,,
48761321,1169,1162,1163,1169,,,,,
48763820,1177,1170,1171,1177,,,,,
48766319,1184,1178,1178,1185,,,,,
48768818,1192,1186,1186,1192,,,,,
48771317,1199,1193,1194,1200,,,,,
48773816,1207,1201,1201,1207,,,,,
48776315,1214,1208,1208,1214,,,,,
48778814,1221,1215,1215,1221,,,,,
48781313,1228,1222,1222,1228,,,,,
48783812,1235,1229,1229,1235,,,,,
48786311,1242,1236,1236,1242,,,,,
48788810,1248,1243,1243,1249,,,,,
48791309,1255,1249,1250,1255,,,,,
48793808,1262,1256,1256,1262,,,,,
48796307,1268,1263,1263,1268,,,,,
48798806,1274,1269,1269,1275,,,,,
48801305,1281,1275,1276,1281,,,,,
48803804,1287,1282,1282,1287,,,,,
48806303,1293,1288,1288,1293,,,,,
48808802,1299,1294,1294,1299,,,,,
48811301,1305,1300,1300,1306,,,,,
48813800,1311,1306,1306,1311,,,,,
48816299,1317,1312,1312,1317,,,,,
48818798,1323,1318,1318,1323,,,,,
48821297,1329,1324,1324,1329,,,,,
48823796,1334,1329,1330,1335,,,,,
48826295,1340,1335,1335,1340,,,,,
48828794,1346,1341,1341,1346,,,,,
48831293,1351,1346,1347,1351,,,,,
48833792,1357,1352,1352,1357,,,,,
48836291,1362,1357,1357,1362,,,,,
48838790,1367,1363,1363,1368,,,,,
48841289,1373,1368,1368,1373,,,,,
48843788,1378,1373,1374,1378,,,,,
48846287,1383,1379,1379,1384,,,,,
48848786,1389,1384,1384,1389,,,,,
48851285,1394,1389,1389,1394,,,,,
48853784,1399,1394,1395,1399,,,,,
48856283,1404,1399,1400,1404,,,,,
48858782,1409,1405,1405,1409,,,,,
48861281,1414,1410,1410,1414,,,,,
48863780,1419,1415,1415,1419,,,,,
48866279,1424,1420,1420,1424,,,,,
48868778,1429,1424,1425,1429,,,,,
48871277,1434,1429,1430,1434,,,,,
48873776,1439,1434,1434,1439,,,,,
48876275,1443,1439,1439,1444,,,,,
48878774,1448,1444,1444,1449,,,,,
48881273,1453,1449,1449,1453,,,,,
48883772,1458,1453,1453,1458,,,,,
48886271,1462,1458,1458,1463,,,,,
48888770,1467,1463,1463,1467,,,,,
48891269,1472,1467,1467,1472,,,,,
48893768,1476,1472,1472,1477,,,,,
48896267,1481,1476,1477,1481,,,,,
48898766,1485,1481,1481,1486,,,,,
48901265,1490,1485,1486,1490,,,,,
48903764,1494,1490,1490,1495,,,,,
48906263,1499,1494,1495,1499,,,,,
48908762,1503,1499,1499,1504,,,,,
48911261,1508,1503,1503,1508,,,,,
48913760,1512,1508,1508,1512,,,,,
48916259,1516,1512,1512,1517,,,,,
48918758,1521,1516,1516,1521,,,,,
48921257,1525,1521,1521,1525,,,,,
48923756,1529,1525,1525,1530,,,,,
48926255,1534,1529,1529,1534,,,,,
48928754,1538,1533,1534,1538,,,,,
48931253,1542,1538,1538,1542,,,,,
48933752,1546,1542,1542,1546,,,,,
48936251,1550,1546,1546,1551,,,,,
48938750,1554,1550,1550,1555,,,,,
48941249,1559,1554,1554,1559,,,,,
48943748,1563,1558,1558,1563,,,,,
48946247,1567,1562,1563,1567,,,,,
48948746,1571,1567,1567,1571,,,,,
48951245,1575,1571,1571,1575,,,,,
48953744,1579,1575,1575,1579,,,,,
48956243,1583,1579,1579,1583,,,,,
48958742,1587,1583,1583,1587,,,,,
48961241,1591,1587,1587,1591,,,,,
48963740,1595,1591,1591,1595,,,,,
48966239,1599,1594,1595,1599,,,,,
48968738,1602,1598,1598,1603,,,,,
48971237,1606,1602,1602,1607,,,,,
48973736,1610,1606,1606,1611,,,,,
48976235,1614,1610,1610,1614,,,,,
48978734,1618,1614,1614,1618,,,,,
48981233,1622,1618,1618,1622,,,,,
48983732,1626,1622,1622,1626,,,,,
48986231,1629,1625,1625,1630,,,,,
48988730,1633,1629,1629,1633,,,,,
48991229,1637,1633,1633,1637,,,,,
48993728,1641,1637,1637,1641,,,,,
48996227,1644,1640,1640,1645,,,,,
48998726,1648,1644,1644,1648,,,,,
49001225,1652,1648,1648,1652,,,,,
49003724,1655,1651,1652,1656,,,,,
49006223,1659,1655,1655,1659,,,,,
49008722,1663,1659,1659,1663,,,,,
49011221,1666,1662,1663,1667,,,,,
49013720,1670,1666,1666,1670,,,,,
49016219,1674,1669,1670,1674,,,,,
49018718,1677,1673,1673,1677,,,,,
49021217,1681,1677,1677,1681,,,,,
49023716,1684,1680,1680,1685,,,,,
49026215,1688,1684,1684,1688,,,,,
49028714,1692,1687,1688,1692,,,,,
49031213,1695,1691,1691,1695,,,,,
49033712,1699,1694,1695,1699,,,,,
49036211,1702,1698,1698,1702,,,,,
49038710,1706,1701,1702,1706,,,,,
49041209,1709,1705,1705,1709,,,,,
49043708,1712,1708,1708,1713,,,,,
49046207,1716,1712,1712,1716,,,,,
49048706,1719,1715,1715,1720,,,,,
49051205,1723,1719,1719,1723,,,,,
49053704,1726,1722,1722,1726,,,,,
49056203,1730,1725,1726,1730,,,,,
49058702,1733,1729,1729,1733,,,,,
49061201,1736,1732,1732,1737,,,,,
49063700,1740,1735,1736,1740,,,,,
49066199,1743,1739,1739,1743,,,,,
49068698,1746,1742,1742,1747,,,,,
49071197,1750,1746,1746,1750,,,,,
49073696,1753,1749,1749,1753,,,,,
49076195,1756,1752,1752,1757,,,,,
49078694,1760,1755,1756,1760,,,,,
49081193,1763,1759,1759,1763,,,,,
49083692,1766,1762,1762,1766,,,,,
49086191,1770,1765,1765,1770,,,,,
49088690,1773,1769,1769,1773,,,,,
49091189,1776,1772,1772,1776,,,,,
49093688,1779,1775,1775,1780,,,,,
49096187,1782,1778,1778,1783,,,,,
49098686,1786,1781,1782,1786,,,,,
49101185,1789,1785,1785,1789,,,,,
49103684,1792,1788,1788,1792,,,,,
49106183,1795,1791,1791,1796,,,,,
49108682,1798,1794,1794,1799,,,,,
49111181,1802,1797,1798,1802,,,,,
49113680,1805,1801,1801,1805,,,,,
49116179,1808,1804,1804,1808,,,,,
49118678,1811,1807,1807,1811,,,,,
49121177,1814,1810,1810,1814,,,,,
49123676,1817,1813,1813,1818,,,,,
49126175,1820,1816,1816,1821,,,,,
49128674,1823,1819,1819,1824,,,,,
49131173,1827,1822,1823,1827,,,,,
49133672,1830,1826,1826,1830,,,,,
49136171,1833,1829,1829,1833,,,,,
49138670,1836,1832,1832,1836,,,,,
49141169,1839,1835,1835,1839,,,,,
49143668,1842,1838,1838,1842,,,,,
49146167,1845,1841,1841,1845,,,,,
49148666,1848,1844,1844,1848,,,,,
49151165,1851,1847,1847,1851,,,,,
49153664,1854,1850,1850,1854,,,,,
49156163,1857,1853,1853,1857,,,,,
49158662,1860,1856,1856,1860,,,,,
49161161,1863,1859,1859,1863,,,,,
49163660,1866,1862,1862,1866,,,,,
49166159,1869,1865,1865,1869,,,,,
49168658,1872,1868,1868,1872,,,,,
49171157,1873,1869,1870,1874,,,,,
49173656,1872,1868,1869,1872,,,,,
49176155,1871,1867,1867,1871,,,,,
49178654,1870,1866,1866,1870,,,,,
49181153,1869,1865,1865,1869,,,,,
49183652,1868,1864,1864,1868,,,,,
49186151,1867,1863,1863,1867,,,,,
49188650,1866,1862,1862,1866,,,,,
49191149,1865,1861,1861,1865,,,,,
49193648,1864,1860,1860,1864,,,,,
49196147,1863,1859,1859,1863,,,,,
49198646,1862,1858,1859,1862,,,,,
49201145,1862,1858,1858,1862,,,,,
49203644,1861,1857,1857,1861,,,,,
49206143,1860,1857,1857,1861,,,,,
49208642,1860,1856,1856,1860,,,,,
49211141,1860,1856,1856,1860,,,,,
49213640,1859,1856,1856,1860,,,,,
49216139,1859,1855,1856,1859,,,,,
49218638,1859,1855,1856,1859,,,,,
49221137,1859,1855,1856,1859,,,,,
49223636,1859,1856,1856,1860,,,,,
49226135,1860,1856,1856,1860,,,,,
49228634,1860,1856,1856,1860,,,,,
49231133,1860,1856,1856,1860,,,,,
49233632,1860,1857,1857,1861,,,,,
49236131,1861,1857,1857,1861,,,,,
49238630,1861,1858,1858,1862,,,,,
49241129,1862,1858,1858,1862,,,,,
49243628,1863,1859,1859,1863,,,,,
49246127,1863,1859,1860,1864,,,,,
49248626,1864,1860,1860,1864,,,,,
49251125,1865,1861,1861,1865,,,,,
49253624,1865,1862,1862,1866,,,,,
49256123,1866,1863,1863,1866,,,,,
49258622,1867,1863,1863,1867,,,,,
49261121,1867,1864,1864,1868,,,,,
49263620,1868,1865,1865,1868,,,,,
49266119,1868,1865,1866,1869,,,,,
49268618,1869,1866,1866,1869,,,,,
49271117,1869,1866,1866,1869,,,,,
49273616,1869,1867,1867,1869,,,,,
49276115,1869,1867,1867,1869,,,,,
49278614,1869,1866,1867,1869,,,,,
49281113,1869,1866,1866,1869,,,,,
49283612,1868,1866,1866,1868,,,,,
49286111,1867,1865,1865,1867,,,,,
49288610,1866,1864,1864,1867,,,,,
49291109,1865,1863,1863,1865,,,,,
49293608,1864,1862,1862,1864,,,,,
49296107,1862,1860,1860,1863,,,,,
49298606,1861,1858,1859,1861,,,,,
49301105,1859,1857,1857,1859,,,,,
49303604,1857,1855,1855,1857,,,,,
49306103,1855,1853,1853,1855,,,,,
49308602,1853,1851,1851,1853,,,,,
49311101,1851,1849,1849,1851,,,,,
49313600,1848,1846,1846,1849,,,,,
49316099,1846,1844,1844,1846,,,,,
49318598,1843,1841,1841,1844,,,,,
49321097,1841,1839,1839,1841,,,,,
49323596,1838,1836,1836,1839,,,,,
49326095,1835,1833,1833,1836,,,,,
49328594,1832,1831,1831,1833,,,,,
49331093,1830,1828,1828,1830,,,,,
49333592,1827,1825,1825,1827,,,,,
49336091,1824,1822,1822,1824,,,,,
49338590,1820,1819,1819,1821,,,,,
49341089,1817,1816,1816,1818,,,,,
49343588,1814,1813,1813,1815,,,,,
49346087,1811,1809,1810,1811,,,,,
49348586,1808,1806,1806,1808,,,,,
49351085,1804,1803,1803,1805,,,,,
49353584,1801,1800,1800,1801,,,,,
49356083,1798,1796,1796,1798,,,,,
49358582,1794,1793,1793,1795,,,,,
49361081,1791,1790,1790,1791,,,,,
49363580,1788,1786,1786,1788,,,,,
49366079,1784,1783,1783,1784,,,,,
49368578,1781,1780,1780,1781,,,,,
49371077,1778,1776,1777,1778,,,,,
49373576,1774,1773,1773,1774,,,,,
49376075,1771,1770,1770,1771,,,,,
49378574,1767,1767,1767,1768,,,,,
49381073,1764,1763,1763,1764,,,,,
49383572,1761,1760,1760,1761,,,,,
49386071,1757,1757,1757,1758,,,,,
49388570,1754,1753,1753,1754,,,,,
49391069,1751,1750,1750,1751,,,,,
49393568,1748,1747,1747,1748,,,,,
49396067,1744,1744,1744,1745,,,,,
49398566,1741,1740,1740,1741,,,,,
49401065,1738,1737,1737,1738,,,,,
49403564,1735,1734,1734,1735,,,,,
49406063,1731,1731,1731,1731,,,,,
49408562,1728,1728,1728,1728,,,,,
49411061,1725,1724,1725,1725,,,,,
49413560,1722,1721,1722,1722,,,,,
49416059,1719,1718,1719,1719,,,,,
49418558,1716,1715,1716,1716,,,,,
49421057,1713,1712,1713,1713,,,,,
49423556,1710,1709,1710,1710,,,,,
49426055,1707,1706,1707,1707,,,,,
49428554,1704,1704,1704,1704,,,,,
49431053,1701,1701,1701,1701,,,,,
49433552,1698,1698,1698,1698,,,,,
49436051,1695,1695,1696,1695,,,,,
49438550,1692,1692,1693,1692,,,,,
49441049,1690,1690,1690,1690,,,,,
49443548,1687,1687,1688,1687,,,,,
49446047,1684,1685,1685,1684,,,,,
49448546,1682,1682,1682,1682,,,,,
49451045,1679,1680,1680,1679,,,,,
49453544,1677,1677,1678,1677,,,,,
49456043,1674,1675,1675,1674,,,,,
49458542,1672,1672,1673,1672,,,,,
49461041,1670,1670,1671,1670,,,,,
49463540,1668,1668,1668,1668,,,,,
49466039,1665,1666,1666,1665,,,,,
49468538,1663,1664,1664,1663,,,,,
49471037,1661,1661,1662,1661,,,,,
49473536,1659,1659,1660,1659,,,,,
49476035,1657,1657,1658,1657,,,,,
49478534,1655,1656,1656,1655,,,,,
49481033,1653,1654,1654,1653,,,,,
49483532,1651,1652,1652,1651,,,,,
49486031,1650,1650,1651,1649,,,,,
49488530,1648,1648,1649,1648,,,,,
