timestamp,TimeUS,C1,C2,C3,C4,C5,C6,C7,C8,C9,C10,C11,C12,C13,C14
1684155365.00000000,48628874,1000,1000,1000,1000,0,0,0,0,0,0,0,0,0,0
1684155365.09995985,48728834,1000,1000,1000,1000,0,0,0,0,0,0,0,0,0,0
1684155365.19991994,48828794,1000,1000,1000,1000,0,0,0,0,0,0,0,0,0,0
1684155365.29988003,48928754,1000,1000,1000,1000,0,0,0,0,0,0,0,0,0,0
1684155365.39983988,49028714,1000,1000,1000,1000,0,0,0,0,0,0,0,0,0,0
1684155365.49979997,49128674,1000,1000,1000,1000,0,0,0,0,0,0,0,0,0,0
1684155365.59976006,49228634,1000,1000,1000,1000,0,0,0,0,0,0,0,0,0,0
1684155365.69971991,49328594,1000,1000,1000,1000,0,0,0,0,0,0,0,0,0,0
1684155365.79967999,49428554,1000,1000,1000,1000,0,0,0,0,0,0,0,0,0,0
1684155365.89963984,49528514,1000,1000,1000,1000,0,0,0,0,0,0,0,0,0,0
1684155365.99959993,49628474,1000,1000,1000,1000,0,0,0,0,0,0,0,0,0,0
1684155366.09956002,49728434,1000,1000,1000,1000,0,0,0,0,0,0,0,0,0,0
1684155366.19951987,49828394,1000,1000,1000,1000,0,0,0,0,0,0,0,0,0,0
1684155366.29947996,49928354,1000,1000,1000,1000,0,0,0,0,0,0,0,0,0,0
1684155366.39944005,50028314,1000,1000,1000,1000,0,0,0,0,0,0,0,0,0,0
1684155366.49939990,50128274,1000,1000,1000,1000,0,0,0,0,0,0,0,0,0,0
1684155366.59935999,50228234,1000,1000,1000,1000,0,0,0,0,0,0,0,0,0,0
1684155366.69931984,50328194,1000,1000,1000,1000,0,0,0,0,0,0,0,0,0,0
1684155366.79927993,50428154,1000,1000,1000,1000,0,0,0,0,0,0,0,0,0,0
1684155366.90007305,50528947,1000,1000,1000,1000,0,0,0,0,0,0,0,0,0,0
1684155367.00003290,50628907,1003,1003,1003,1003,0,0,0,0,0,0,0,0,0,0
1684155367.09999299,50728867,1033,1033,1033,1033,0,0,0,0,0,0,0,0,0,0
1684155367.19995284,50828827,1063,1063,1063,1063,0,0,0,0,0,0,0,0,0,0
1684155367.29991293,50928787,1093,1093,1093,1093,0,0,0,0,0,0,0,0,0,0
1684155367.39987302,51028747,1123,1123,1123,1123,0,0,0,0,0,0,0,0,0,0
1684155367.49983287,51128707,1185,1178,1178,1185,0,0,0,0,0,0,0,0,0,0
1684155367.59979296,51228667,1424,1419,1420,1425,0,0,0,0,0,0,0,0,0,0
1684155367.69975305,51328627,1599,1594,1594,1599,0,0,0,0,0,0,0,0,0,0
1684155367.79971290,51428587,1743,1739,1739,1743,0,0,0,0,0,0,0,0,0,0
1684155367.89967299,51528547,1869,1865,1865,1869,0,0,0,0,0,0,0,0,0,0
1684155367.99963284,51628507,1890,1886,1887,1890,0,0,0,0,0,0,0,0,0,0
1684155368.09959292,51728467,1796,1795,1795,1796,0,0,0,0,0,0,0,0,0,0
1684155368.19955301,51828427,1679,1680,1680,1679,0,0,0,0,0,0,0,0,0,0
1684155368.29951286,51928387,1629,1631,1631,1629,0,0,0,0,0,0,0,0,0,0
1684155368.39947295,52028347,1627,1630,1630,1627,0,0,0,0,0,0,0,0,0,0
1684155368.49943304,52128307,1637,1639,1638,1637,0,0,0,0,0,0,0,0,0,0
1684155368.59939289,52228267,1639,1640,1640,1639,0,0,0,0,0,0,0,0,0,0
1684155368.69935298,52328227,1633,1632,1632,1633,0,0,0,0,0,0,0,0,0,0
1684155368.79931283,52428187,1625,1624,1623,1625,0,0,0,0,0,0,0,0,0,0
1684155368.90010595,52528980,1618,1617,1617,1619,0,0,0,0,0,0,0,0,0,0
1684155369.00006604,52628940,1616,1615,1616,1616,0,0,0,0,0,0,0,0,0,0
1684155369.10002589,52728900,1616,1616,1616,1615,0,0,0,0,0,0,0,0,0,0
1684155369.19998598,52828860,1616,1616,1616,1616,0,0,0,0,0,0,0,0,0,0
1684155369.29994583,52928820,1618,1618,1618,1618,0,0,0,0,0,0,0,0,0,0
1684155369.39990592,53028780,1619,1619,1619,1619,0,0,0,0,0,0,0,0,0,0
1684155369.49986601,53128740,1620,1620,1620,1620,0,0,0,0,0,0,0,0,0,0
1684155369.59982586,53228700,1604,1605,1605,1604,0,0,0,0,0,0,0,0,0,0
1684155369.69978595,53328660,1584,1583,1584,1584,0,0,0,0,0,0,0,0,0,0
1684155369.79974604,53428620,1574,1574,1574,1574,0,0,0,0,0,0,0,0,0,0
1684155369.89970589,53528580,1565,1565,1565,1565,0,0,0,0,0,0,0,0,0,0
1684155369.99966598,53628540,1556,1556,1555,1557,0,0,0,0,0,0,0,0,0,0
1684155370.09962583,53728500,1548,1548,1547,1549,0,0,0,0,0,0,0,0,0,0
1684155370.19958591,53828460,1541,1540,1540,1541,0,0,0,0,0,0,0,0,0,0
1684155370.29954600,53928420,1532,1531,1531,1532,0,0,0,0,0,0,0,0,0,0
1684155370.39950585,54028380,1521,1522,1521,1522,0,0,0,0,0,0,0,0,0,0
1684155370.49946594,54128340,1514,1514,1513,1514,0,0,0,0,0,0,0,0,0,0
1684155370.59942603,54228300,1509,1510,1509,1510,0,0,0,0,0,0,0,0,0,0
1684155370.69938588,54328260,1506,1506,1505,1507,0,0,0,0,0,0,0,0,0,0
1684155370.79934597,54428220,1504,1503,1503,1504,0,0,0,0,0,0,0,0,0,0
1684155370.89930582,54528180,1501,1500,1500,1501,0,0,0,0,0,0,0,0,0,0
1684155371.00009894,54628973,1498,1498,1497,1498,0,0,0,0,0,0,0,0,0,0
1684155371.10005903,54728933,1497,1496,1496,1497,0,0,0,0,0,0,0,0,0,0
1684155371.20001888,54828893,1495,1496,1495,1495,0,0,0,0,0,0,0,0,0,0
1684155371.29997897,54928853,1494,1495,1494,1495,0,0,0,0,0,0,0,0,0,0
1684155371.39993882,55028813,1494,1494,1494,1495,0,0,0,0,0,0,0,0,0,0
1684155371.49989891,55128773,1501,1501,1501,1501,0,0,0,0,0,0,0,0,0,0
1684155371.59985900,55228733,1537,1537,1543,1530,0,0,0,0,0,0,0,0,0,0
1684155371.69981885,55328693,1550,1549,1554,1545,0,0,0,0,0,0,0,0,0,0
1684155371.79977894,55428653,1559,1558,1559,1559,0,0,0,0,0,0,0,0,0,0
1684155371.89973903,55528613,1565,1565,1562,1569,0,0,0,0,0,0,0,0,0,0
1684155371.99969888,55628573,1568,1569,1563,1573,0,0,0,0,0,0,0,0,0,0
1684155372.09965897,55728533,1570,1571,1566,1575,0,0,0,0,0,0,0,0,0,0
1684155372.19961905,55828493,1572,1572,1569,1575,0,0,0,0,0,0,0,0,0,0
1684155372.29957891,55928453,1574,1574,1574,1573,0,0,0,0,0,0,0,0,0,0
1684155372.39953899,56028413,1575,1575,1578,1572,0,0,0,0,0,0,0,0,0,0
1684155372.49949884,56128373,1576,1576,1579,1572,0,0,0,0,0,0,0,0,0,0
1684155372.59945893,56228333,1575,1576,1578,1573,0,0,0,0,0,0,0,0,0,0
1684155372.69941902,56328293,1574,1574,1575,1573,0,0,0,0,0,0,0,0,0,0
1684155372.79937887,56428253,1573,1573,1572,1575,0,0,0,0,0,0,0,0,0,0
1684155372.89933896,56528213,1567,1567,1574,1578,0,0,0,0,0,0,0,0,0,0
1684155372.99929905,56628173,1566,1566,1573,1577,0,0,0,0,0,0,0,0,0,0
1684155373.10009193,56728966,1567,1567,1573,1575,0,0,0,0,0,0,0,0,0,0
1684155373.20005202,56828926,1567,1568,1571,1572,0,0,0,0,0,0,0,0,0,0
1684155373.30001187,56928886,1569,1569,1570,1570,0,0,0,0,0,0,0,0,0,0
1684155373.39997196,57028846,1570,1571,1569,1568,0,0,0,0,0,0,0,0,0,0
1684155373.49993205,57128806,1572,1572,1569,1567,0,0,0,0,0,0,0,0,0,0
1684155373.59989190,57228766,1572,1572,1567,1567,0,0,0,0,0,0,0,0,0,0
1684155373.69985199,57328726,1573,1573,1567,1567,0,0,0,0,0,0,0,0,0,0
1684155373.79981184,57428686,1574,1574,1568,1569,0,0,0,0,0,0,0,0,0,0
1684155373.89977193,57528646,1573,1572,1567,1569,0,0,0,0,0,0,0,0,0,0
1684155373.99973202,57628606,1573,1573,1570,1570,0,0,0,0,0,0,0,0,0,0
1684155374.09969187,57728566,1573,1573,1571,1572,0,0,0,0,0,0,0,0,0,0
1684155374.19965196,57828526,1574,1575,1574,1573,0,0,0,0,0,0,0,0,0,0
1684155374.29961205,57928486,1574,1574,1575,1574,0,0,0,0,0,0,0,0,0,0
1684155374.39957190,58028446,1575,1574,1577,1575,0,0,0,0,0,0,0,0,0,0
1684155374.49953198,58128406,1575,1575,1578,1576,0,0,0,0,0,0,0,0,0,0
1684155374.59949183,58228366,1575,1576,1578,1577,0,0,0,0,0,0,0,0,0,0
1684155374.69945192,58328326,1576,1576,1578,1578,0,0,0,0,0,0,0,0,0,0
1684155374.79941201,58428286,1576,1576,1577,1578,0,0,0,0,0,0,0,0,0,0
1684155374.89937186,58528246,1577,1577,1578,1578,0,0,0,0,0,0,0,0,0,0
1684155374.99933195,58628206,1576,1576,1577,1578,0,0,0,0,0,0,0,0,0,0
1684155375.09929204,58728166,1577,1577,1578,1578,0,0,0,0,0,0,0,0,0,0
1684155375.20008492,58828959,1577,1578,1578,1577,0,0,0,0,0,0,0,0,0,0
1684155375.30004501,58928919,1578,1578,1578,1577,0,0,0,0,0,0,0,0,0,0
1684155375.40000486,59028879,1578,1579,1578,1578,0,0,0,0,0,0,0,0,0,0
1684155375.49996495,59128839,1579,1578,1578,1577,0,0,0,0,0,0,0,0,0,0
1684155375.59992504,59228799,1579,1579,1578,1578,0,0,0,0,0,0,0,0,0,0
1684155375.69988489,59328759,1579,1579,1578,1578,0,0,0,0,0,0,0,0,0,0
1684155375.79984498,59428719,1579,1579,1578,1578,0,0,0,0,0,0,0,0,0,0
1684155375.89980483,59528679,1579,1579,1579,1579,0,0,0,0,0,0,0,0,0,0
1684155375.99976492,59628639,1580,1579,1579,1579,0,0,0,0,0,0,0,0,0,0
1684155376.09972501,59728599,1579,1580,1580,1579,0,0,0,0,0,0,0,0,0,0
1684155376.19968486,59828559,1579,1580,1580,1579,0,0,0,0,0,0,0,0,0,0
1684155376.29964495,59928519,1579,1578,1579,1579,0,0,0,0,0,0,0,0,0,0
1684155376.39960504,60028479,1580,1580,1580,1580,0,0,0,0,0,0,0,0,0,0
1684155376.49956489,60128439,1580,1579,1580,1580,0,0,0,0,0,0,0,0,0,0
1684155376.59952497,60228399,1579,1579,1580,1580,0,0,0,0,0,0,0,0,0,0
1684155376.69948483,60328359,1579,1579,1579,1579,0,0,0,0,0,0,0,0,0,0
1684155376.79944491,60428319,1579,1579,1579,1579,0,0,0,0,0,0,0,0,0,0
1684155376.89940500,60528279,1580,1580,1580,1580,0,0,0,0,0,0,0,0,0,0
1684155376.99936485,60628239,1580,1580,1580,1580,0,0,0,0,0,0,0,0,0,0
1684155377.09932494,60728199,1579,1579,1579,1579,0,0,0,0,0,0,0,0,0,0
1684155377.19928503,60828159,1579,1579,1579,1579,0,0,0,0,0,0,0,0,0,0
1684155377.30007792,60928952,1580,1580,1580,1580,0,0,0,0,0,0,0,0,0,0
1684155377.40003800,61028912,1579,1580,1579,1580,0,0,0,0,0,0,0,0,0,0
1684155377.49999785,61128872,1581,1581,1580,1581,0,0,0,0,0,0,0,0,0,0
1684155377.59995794,61228832,1580,1580,1580,1580,0,0,0,0,0,0,0,0,0,0
1684155377.69991803,61328792,1580,1580,1581,1580,0,0,0,0,0,0,0,0,0,0
1684155377.79987788,61428752,1581,1582,1582,1581,0,0,0,0,0,0,0,0,0,0
1684155377.89983797,61528712,1581,1581,1581,1581,0,0,0,0,0,0,0,0,0,0
1684155377.99979782,61628672,1580,1580,1580,1580,0,0,0,0,0,0,0,0,0,0
1684155378.09975791,61728632,1581,1581,1581,1581,0,0,0,0,0,0,0,0,0,0
1684155378.19971800,61828592,1580,1580,1580,1580,0,0,0,0,0,0,0,0,0,0
1684155378.29967785,61928552,1580,1580,1581,1580,0,0,0,0,0,0,0,0,0,0
1684155378.39963794,62028512,1581,1581,1581,1581,0,0,0,0,0,0,0,0,0,0
1684155378.49959803,62128472,1581,1582,1582,1582,0,0,0,0,0,0,0,0,0,0
1684155378.59955788,62228432,1581,1581,1581,1581,0,0,0,0,0,0,0,0,0,0
1684155378.69951797,62328392,1582,1582,1582,1582,0,0,0,0,0,0,0,0,0,0
1684155378.79947805,62428352,1582,1581,1582,1581,0,0,0,0,0,0,0,0,0,0
1684155378.89943790,62528312,1580,1580,1580,1581,0,0,0,0,0,0,0,0,0,0
1684155378.99939799,62628272,1581,1581,1581,1581,0,0,0,0,0,0,0,0,0,0
1684155379.09935784,62728232,1581,1582,1585,1578,0,0,0,0,0,0,0,0,0,0
1684155379.19931793,62828192,1580,1582,1587,1573,0,0,0,0,0,0,0,0,0,0
1684155379.30011106,62928985,1579,1582,1581,1573,0,0,0,0,0,0,0,0,0,0
1684155379.40007091,63028945,1578,1581,1573,1573,0,0,0,0,0,0,0,0,0,0
1684155379.50003099,63128905,1577,1579,1564,1570,0,0,0,0,0,0,0,0,0,0
1684155379.59999084,63228865,1577,1578,1559,1566,0,0,0,0,0,0,0,0,0,0
1684155379.69995093,63328825,1579,1578,1556,1562,0,0,0,0,0,0,0,0,0,0
1684155379.79991102,63428785,1579,1577,1555,1557,0,0,0,0,0,0,0,0,0,0
1684155379.89987087,63528745,1579,1577,1555,1555,0,0,0,0,0,0,0,0,0,0
1684155379.99983096,63628705,1579,1578,1556,1554,0,0,0,0,0,0,0,0,0,0
1684155380.09979105,63728665,1578,1578,1556,1554,0,0,0,0,0,0,0,0,0,0
1684155380.19975090,63828625,1577,1578,1556,1554,0,0,0,0,0,0,0,0,0,0
1684155380.29971099,63928585,1576,1577,1556,1555,0,0,0,0,0,0,0,0,0,0
1684155380.39967084,64028545,1575,1577,1555,1554,0,0,0,0,0,0,0,0,0,0
1684155380.49963093,64128505,1575,1576,1553,1553,0,0,0,0,0,0,0,0,0,0
1684155380.59959102,64228465,1576,1578,1552,1552,0,0,0,0,0,0,0,0,0,0
1684155380.69955087,64328425,1577,1578,1549,1550,0,0,0,0,0,0,0,0,0,0
1684155380.79951096,64428385,1579,1580,1546,1547,0,0,0,0,0,0,0,0,0,0
1684155380.89947104,64528345,1582,1582,1544,1544,0,0,0,0,0,0,0,0,0,0
1684155380.99943089,64628305,1584,1585,1541,1541,0,0,0,0,0,0,0,0,0,0
1684155381.09939098,64728265,1587,1587,1538,1538,0,0,0,0,0,0,0,0,0,0
1684155381.19935083,64828225,1591,1591,1537,1536,0,0,0,0,0,0,0,0,0,0
1684155381.29931092,64928185,1593,1593,1535,1535,0,0,0,0,0,0,0,0,0,0
1684155381.40010405,65028978,1594,1594,1535,1535,0,0,0,0,0,0,0,0,0,0
1684155381.50006390,65128938,1595,1594,1536,1537,0,0,0,0,0,0,0,0,0,0
1684155381.60002398,65228898,1593,1593,1537,1539,0,0,0,0,0,0,0,0,0,0
1684155381.69998384,65328858,1591,1589,1541,1544,0,0,0,0,0,0,0,0,0,0
1684155381.79994392,65428818,1587,1585,1547,1551,0,0,0,0,0,0,0,0,0,0
1684155381.89990401,65528778,1580,1577,1556,1559,0,0,0,0,0,0,0,0,0,0
1684155381.99986386,65628738,1571,1567,1566,1569,0,0,0,0,0,0,0,0,0,0
1684155382.09982395,65728698,1561,1557,1579,1581,0,0,0,0,0,0,0,0,0,0
1684155382.19978404,65828658,1549,1546,1590,1591,0,0,0,0,0,0,0,0,0,0
1684155382.29974389,65928618,1539,1537,1601,1601,0,0,0,0,0,0,0,0,0,0
1684155382.39970398,66028578,1533,1532,1609,1608,0,0,0,0,0,0,0,0,0,0
1684155382.49966383,66128538,1529,1530,1614,1612,0,0,0,0,0,0,0,0,0,0
1684155382.59962392,66228498,1529,1531,1614,1613,0,0,0,0,0,0,0,0,0,0
1684155382.69958401,66328458,1533,1535,1612,1612,0,0,0,0,0,0,0,0,0,0
1684155382.79954386,66428418,1540,1542,1607,1607,0,0,0,0,0,0,0,0,0,0
1684155382.89950395,66528378,1548,1549,1601,1601,0,0,0,0,0,0,0,0,0,0
1684155382.99946404,66628338,1375,1377,1621,1623,0,0,0,0,0,0,0,0,0,0
1684155383.09942389,66728298,1443,1448,1634,1637,0,0,0,0,0,0,0,0,0,0
1684155383.19938397,66828258,1496,1501,1622,1619,0,0,0,0,0,0,0,0,0,0
1684155383.29934382,66928218,1544,1548,1603,1597,0,0,0,0,0,0,0,0,0,0
1684155383.39930391,67028178,1580,1580,1586,1580,0,0,0,0,0,0,0,0,0,0
1684155383.50009704,67128971,1605,1600,1578,1574,0,0,0,0,0,0,0,0,0,0
1684155383.60005689,67228931,1619,1612,1572,1572,0,0,0,0,0,0,0,0,0,0
1684155383.70001698,67328891,1628,1620,1567,1571,0,0,0,0,0,0,0,0,0,0
1684155383.79997683,67428851,1642,1637,1549,1554,0,0,0,0,0,0,0,0,0,0
1684155383.89993691,67528811,1654,1652,1534,1539,0,0,0,0,0,0,0,0,0,0
1684155383.99989700,67628771,1657,1656,1528,1532,0,0,0,0,0,0,0,0,0,0
1684155384.09985685,67728731,1651,1651,1533,1536,0,0,0,0,0,0,0,0,0,0
1684155384.19981694,67828691,1640,1642,1542,1544,0,0,0,0,0,0,0,0,0,0
1684155384.29977703,67928651,1627,1627,1555,1555,0,0,0,0,0,0,0,0,0,0
1684155384.39973688,68028611,1611,1609,1573,1571,0,0,0,0,0,0,0,0,0,0
1684155384.49969697,68128571,1592,1589,1591,1589,0,0,0,0,0,0,0,0,0,0
1684155384.59965682,68228531,1574,1572,1604,1602,0,0,0,0,0,0,0,0,0,0
1684155384.69961691,68328491,1563,1562,1609,1608,0,0,0,0,0,0,0,0,0,0
1684155384.79957700,68428451,1557,1558,1608,1607,0,0,0,0,0,0,0,0,0,0
1684155384.89953685,68528411,1554,1558,1605,1604,0,0,0,0,0,0,0,0,0,0
1684155384.99949694,68628371,1556,1560,1601,1600,0,0,0,0,0,0,0,0,0,0
1684155385.09945703,68728331,1559,1563,1597,1596,0,0,0,0,0,0,0,0,0,0
1684155385.19941688,68828291,1562,1565,1592,1591,0,0,0,0,0,0,0,0,0,0
1684155385.29937696,68928251,1567,1568,1588,1586,0,0,0,0,0,0,0,0,0,0
1684155385.39933705,69028211,1571,1571,1584,1583,0,0,0,0,0,0,0,0,0,0
1684155385.49929690,69128171,1575,1574,1581,1580,0,0,0,0,0,0,0,0,0,0
1684155385.60009003,69228964,1579,1577,1579,1579,0,0,0,0,0,0,0,0,0,0
1684155385.70004988,69328924,1581,1580,1576,1577,0,0,0,0,0,0,0,0,0,0
1684155385.80000997,69428884,1582,1581,1573,1574,0,0,0,0,0,0,0,0,0,0
1684155385.89997005,69528844,1583,1582,1572,1573,0,0,0,0,0,0,0,0,0,0
1684155385.99992990,69628804,1584,1584,1572,1572,0,0,0,0,0,0,0,0,0,0
1684155386.09988999,69728764,1584,1585,1572,1572,0,0,0,0,0,0,0,0,0,0
1684155386.19984984,69828724,1586,1585,1573,1573,0,0,0,0,0,0,0,0,0,0
1684155386.29980993,69928684,1586,1586,1573,1573,0,0,0,0,0,0,0,0,0,0
1684155386.39977002,70028644,1586,1585,1573,1573,0,0,0,0,0,0,0,0,0,0
1684155386.49972987,70128604,1585,1585,1574,1574,0,0,0,0,0,0,0,0,0,0
1684155386.59968996,70228564,1585,1584,1574,1574,0,0,0,0,0,0,0,0,0,0
1684155386.69965005,70328524,1585,1584,1575,1575,0,0,0,0,0,0,0,0,0,0
1684155386.79960990,70428484,1584,1584,1575,1576,0,0,0,0,0,0,0,0,0,0
1684155386.89956999,70528444,1584,1584,1577,1577,0,0,0,0,0,0,0,0,0,0
1684155386.99952984,70628404,1583,1583,1577,1577,0,0,0,0,0,0,0,0,0,0
1684155387.09948993,70728364,1583,1582,1580,1576,0,0,0,0,0,0,0,0,0,0
1684155387.19945002,70828324,1584,1581,1585,1572,0,0,0,0,0,0,0,0,0,0
1684155387.29940987,70928284,1583,1579,1579,1572,0,0,0,0,0,0,0,0,0,0
1684155387.39936996,71028244,1581,1578,1572,1572,0,0,0,0,0,0,0,0,0,0
1684155387.49933004,71128204,1578,1579,1566,1571,0,0,0,0,0,0,0,0,0,0
1684155387.59928989,71228164,1575,1578,1561,1565,0,0,0,0,0,0,0,0,0,0
1684155387.70008302,71328957,1574,1578,1560,1563,0,0,0,0,0,0,0,0,0,0
1684155387.80004287,71428917,1573,1577,1558,1559,0,0,0,0,0,0,0,0,0,0
1684155387.90000296,71528877,1572,1575,1557,1556,0,0,0,0,0,0,0,0,0,0
1684155387.99996305,71628837,1574,1575,1558,1555,0,0,0,0,0,0,0,0,0,0
1684155388.09992290,71728797,1573,1573,1555,1553,0,0,0,0,0,0,0,0,0,0
1684155388.19988298,71828757,1574,1573,1554,1553,0,0,0,0,0,0,0,0,0,0
1684155388.29984283,71928717,1574,1573,1553,1553,0,0,0,0,0,0,0,0,0,0
1684155388.39980292,72028677,1574,1574,1551,1551,0,0,0,0,0,0,0,0,0,0
1684155388.49976301,72128637,1574,1575,1550,1551,0,0,0,0,0,0,0,0,0,0
1684155388.59972286,72228597,1574,1576,1548,1548,0,0,0,0,0,0,0,0,0,0
1684155388.69968295,72328557,1575,1577,1545,1546,0,0,0,0,0,0,0,0,0,0
1684155388.79964304,72428517,1576,1578,1543,1542,0,0,0,0,0,0,0,0,0,0
1684155388.89960289,72528477,1578,1580,1541,1540,0,0,0,0,0,0,0,0,0,0
1684155388.99956298,72628437,1581,1582,1540,1540,0,0,0,0,0,0,0,0,0,0
1684155389.09952283,72728397,1584,1584,1539,1538,0,0,0,0,0,0,0,0,0,0
1684155389.19948292,72828357,1586,1586,1537,1537,0,0,0,0,0,0,0,0,0,0
1684155389.29944301,72928317,1588,1588,1537,1537,0,0,0,0,0,0,0,0,0,0
1684155389.39940286,73028277,1589,1589,1536,1537,0,0,0,0,0,0,0,0,0,0
1684155389.49936295,73128237,1589,1588,1537,1539,0,0,0,0,0,0,0,0,0,0
1684155389.59932303,73228197,1589,1588,1540,1542,0,0,0,0,0,0,0,0,0,0
1684155389.69928288,73328157,1587,1585,1543,1546,0,0,0,0,0,0,0,0,0,0
1684155389.80007601,73428950,1583,1581,1548,1551,0,0,0,0,0,0,0,0,0,0
1684155389.90003586,73528910,1578,1577,1553,1557,0,0,0,0,0,0,0,0,0,0
1684155389.99999595,73628870,1573,1572,1559,1563,0,0,0,0,0,0,0,0,0,0
1684155390.09995604,73728830,1567,1566,1566,1569,0,0,0,0,0,0,0,0,0,0
1684155390.19991589,73828790,1561,1560,1574,1575,0,0,0,0,0,0,0,0,0,0
1684155390.29987597,73928750,1556,1554,1581,1582,0,0,0,0,0,0,0,0,0,0
1684155390.39983582,74028710,1550,1549,1588,1588,0,0,0,0,0,0,0,0,0,0
1684155390.49979591,74128670,1545,1543,1594,1594,0,0,0,0,0,0,0,0,0,0
1684155390.59975600,74228630,1541,1540,1600,1600,0,0,0,0,0,0,0,0,0,0
1684155390.69971585,74328590,1536,1536,1605,1603,0,0,0,0,0,0,0,0,0,0
1684155390.79967594,74428550,1534,1535,1607,1606,0,0,0,0,0,0,0,0,0,0
1684155390.89963603,74528510,1534,1536,1607,1606,0,0,0,0,0,0,0,0,0,0
1684155390.99959588,74628470,1538,1540,1603,1603,0,0,0,0,0,0,0,0,0,0
1684155391.09955597,74728430,1543,1545,1598,1598,0,0,0,0,0,0,0,0,0,0
1684155391.19951582,74828390,1550,1552,1592,1592,0,0,0,0,0,0,0,0,0,0
1684155391.29947591,74928350,1558,1559,1585,1585,0,0,0,0,0,0,0,0,0,0
1684155391.39943600,75028310,1566,1566,1579,1579,0,0,0,0,0,0,0,0,0,0
1684155391.49939585,75128270,1573,1573,1575,1574,0,0,0,0,0,0,0,0,0,0
1684155391.59935594,75228230,1579,1577,1571,1570,0,0,0,0,0,0,0,0,0,0
1684155391.69931602,75328190,1583,1581,1569,1569,0,0,0,0,0,0,0,0,0,0
1684155391.80010891,75428983,1585,1584,1569,1569,0,0,0,0,0,0,0,0,0,0
1684155391.90006900,75528943,1586,1584,1569,1569,0,0,0,0,0,0,0,0,0,0
1684155392.00002885,75628903,1587,1585,1570,1570,0,0,0,0,0,0,0,0,0,0
1684155392.09998894,75728863,1586,1585,1571,1571,0,0,0,0,0,0,0,0,0,0
1684155392.19994903,75828823,1585,1585,1572,1573,0,0,0,0,0,0,0,0,0,0
1684155392.29990888,75928783,1583,1584,1574,1574,0,0,0,0,0,0,0,0,0,0
1684155392.39986897,76028743,1583,1583,1576,1576,0,0,0,0,0,0,0,0,0,0
1684155392.49982905,76128703,1581,1582,1577,1577,0,0,0,0,0,0,0,0,0,0
1684155392.59978890,76228663,1581,1581,1579,1578,0,0,0,0,0,0,0,0,0,0
1684155392.69974899,76328623,1579,1579,1579,1579,0,0,0,0,0,0,0,0,0,0
1684155392.79970884,76428583,1579,1579,1580,1580,0,0,0,0,0,0,0,0,0,0
1684155392.89966893,76528543,1578,1578,1580,1581,0,0,0,0,0,0,0,0,0,0
1684155392.99962902,76628503,1576,1577,1580,1580,0,0,0,0,0,0,0,0,0,0
1684155393.09958887,76728463,1577,1577,1581,1581,0,0,0,0,0,0,0,0,0,0
1684155393.19954896,76828423,1576,1576,1580,1581,0,0,0,0,0,0,0,0,0,0
1684155393.29950905,76928383,1576,1576,1581,1581,0,0,0,0,0,0,0,0,0,0
1684155393.39946890,77028343,1576,1576,1580,1580,0,0,0,0,0,0,0,0,0,0
1684155393.49942899,77128303,1577,1578,1581,1581,0,0,0,0,0,0,0,0,0,0
1684155393.59938884,77228263,1577,1578,1581,1580,0,0,0,0,0,0,0,0,0,0
1684155393.69934893,77328223,1578,1579,1580,1580,0,0,0,0,0,0,0,0,0,0
1684155393.79930902,77428183,1579,1578,1579,1579,0,0,0,0,0,0,0,0,0,0
1684155393.90010190,77528976,1580,1580,1580,1580,0,0,0,0,0,0,0,0,0,0
1684155394.00006199,77628936,1580,1580,1579,1579,0,0,0,0,0,0,0,0,0,0
1684155394.10002184,77728896,1580,1580,1578,1578,0,0,0,0,0,0,0,0,0,0
1684155394.19998193,77828856,1581,1581,1579,1579,0,0,0,0,0,0,0,0,0,0
1684155394.29994202,77928816,1581,1581,1578,1579,0,0,0,0,0,0,0,0,0,0
1684155394.39990187,78028776,1581,1581,1578,1578,0,0,0,0,0,0,0,0,0,0
1684155394.49986196,78128736,1582,1582,1580,1580,0,0,0,0,0,0,0,0,0,0
1684155394.59982204,78228696,1582,1582,1581,1580,0,0,0,0,0,0,0,0,0,0
1684155394.69978189,78328656,1582,1582,1581,1580,0,0,0,0,0,0,0,0,0,0
1684155394.79974198,78428616,1582,1582,1581,1581,0,0,0,0,0,0,0,0,0,0
1684155394.89970183,78528576,1581,1581,1580,1581,0,0,0,0,0,0,0,0,0,0
1684155394.99966192,78628536,1581,1581,1580,1581,0,0,0,0,0,0,0,0,0,0
1684155395.09962201,78728496,1581,1581,1581,1581,0,0,0,0,0,0,0,0,0,0
1684155395.19958186,78828456,1581,1580,1580,1581,0,0,0,0,0,0,0,0,0,0
1684155395.29954195,78928416,1580,1580,1581,1580,0,0,0,0,0,0,0,0,0,0
1684155395.39950204,79028376,1581,1581,1581,1581,0,0,0,0,0,0,0,0,0,0
1684155395.49946189,79128336,1581,1581,1581,1581,0,0,0,0,0,0,0,0,0,0
1684155395.59942198,79228296,1581,1581,1581,1581,0,0,0,0,0,0,0,0,0,0
1684155395.69938183,79328256,1582,1582,1582,1582,0,0,0,0,0,0,0,0,0,0
1684155395.79934192,79428216,1581,1580,1581,1581,0,0,0,0,0,0,0,0,0,0
1684155395.89930201,79528176,1581,1581,1587,1574,0,0,0,0,0,0,0,0,0,0
1684155396.00009489,79628969,1580,1581,1585,1573,0,0,0,0,0,0,0,0,0,0
1684155396.10005498,79728929,1580,1581,1577,1574,0,0,0,0,0,0,0,0,0,0
1684155396.20001483,79828889,1578,1580,1568,1572,0,0,0,0,0,0,0,0,0,0
1684155396.29997492,79928849,1577,1579,1562,1568,0,0,0,0,0,0,0,0,0,0
1684155396.39993501,80028809,1576,1578,1557,1563,0,0,0,0,0,0,0,0,0,0
1684155396.49989486,80128769,1577,1578,1555,1559,0,0,0,0,0,0,0,0,0,0
1684155396.59985495,80228729,1577,1577,1555,1556,0,0,0,0,0,0,0,0,0,0
1684155396.69981503,80328689,1578,1577,1556,1555,0,0,0,0,0,0,0,0,0,0
1684155396.79977489,80428649,1578,1577,1556,1553,0,0,0,0,0,0,0,0,0,0
1684155396.89973497,80528609,1578,1577,1557,1555,0,0,0,0,0,0,0,0,0,0
1684155396.99969482,80628569,1576,1576,1555,1554,0,0,0,0,0,0,0,0,0,0
1684155397.09965491,80728529,1575,1576,1554,1554,0,0,0,0,0,0,0,0,0,0
1684155397.19961500,80828489,1575,1576,1553,1553,0,0,0,0,0,0,0,0,0,0
1684155397.29957485,80928449,1575,1577,1552,1553,0,0,0,0,0,0,0,0,0,0
1684155397.39953494,81028409,1576,1578,1551,1551,0,0,0,0,0,0,0,0,0,0
1684155397.49949503,81128369,1577,1579,1550,1549,0,0,0,0,0,0,0,0,0,0
1684155397.59945488,81228329,1579,1581,1548,1547,0,0,0,0,0,0,0,0,0,0
1684155397.69941497,81328289,1581,1582,1545,1545,0,0,0,0,0,0,0,0,0,0
1684155397.79937482,81428249,1584,1584,1544,1543,0,0,0,0,0,0,0,0,0,0
1684155397.89933491,81528209,1585,1586,1540,1540,0,0,0,0,0,0,0,0,0,0
1684155397.99929500,81628169,1587,1588,1539,1538,0,0,0,0,0,0,0,0,0,0
1684155398.10008788,81728962,1590,1590,1539,1539,0,0,0,0,0,0,0,0,0,0
1684155398.20004797,81828922,1591,1590,1538,1539,0,0,0,0,0,0,0,0,0,0
1684155398.30000782,81928882,1591,1591,1539,1540,0,0,0,0,0,0,0,0,0,0
1684155398.39996791,82028842,1590,1590,1540,1543,0,0,0,0,0,0,0,0,0,0
1684155398.49992800,82128802,1589,1589,1543,1547,0,0,0,0,0,0,0,0,0,0
1684155398.59988785,82228762,1586,1585,1548,1551,0,0,0,0,0,0,0,0,0,0
1684155398.69984794,82328722,1582,1580,1556,1559,0,0,0,0,0,0,0,0,0,0
1684155398.79980803,82428682,1575,1572,1564,1567,0,0,0,0,0,0,0,0,0,0
1684155398.89976788,82528642,1567,1563,1575,1577,0,0,0,0,0,0,0,0,0,0
1684155398.99972796,82628602,1556,1553,1586,1587,0,0,0,0,0,0,0,0,0,0
1684155399.09968805,82728562,1547,1544,1597,1596,0,0,0,0,0,0,0,0,0,0
1684155399.19964790,82828522,1539,1538,1605,1604,0,0,0,0,0,0,0,0,0,0
1684155399.29960799,82928482,1534,1534,1610,1610,0,0,0,0,0,0,0,0,0,0
1684155399.39956784,83028442,1531,1533,1612,1611,0,0,0,0,0,0,0,0,0,0
1684155399.49952793,83128402,1533,1534,1611,1610,0,0,0,0,0,0,0,0,0,0
1684155399.59948802,83228362,1536,1539,1608,1608,0,0,0,0,0,0,0,0,0,0
1684155399.69944787,83328322,1542,1544,1602,1602,0,0,0,0,0,0,0,0,0,0
1684155399.79940796,83428282,1549,1551,1596,1595,0,0,0,0,0,0,0,0,0,0
1684155399.89936805,83528242,1558,1559,1589,1589,0,0,0,0,0,0,0,0,0,0
1684155399.99932790,83628202,1566,1566,1582,1582,0,0,0,0,0,0,0,0,0,0
1684155400.09928799,83728162,1574,1573,1577,1576,0,0,0,0,0,0,0,0,0,0
1684155400.20008087,83828955,1580,1579,1572,1572,0,0,0,0,0,0,0,0,0,0
1684155400.30004096,83928915,1585,1583,1568,1568,0,0,0,0,0,0,0,0,0,0
1684155400.40000105,84028875,1588,1586,1567,1567,0,0,0,0,0,0,0,0,0,0
1684155400.49996090,84128835,1589,1588,1566,1566,0,0,0,0,0,0,0,0,0,0
1684155400.59992099,84228795,1589,1588,1567,1567,0,0,0,0,0,0,0,0,0,0
1684155400.69988084,84328755,1588,1588,1570,1569,0,0,0,0,0,0,0,0,0,0
1684155400.79984093,84428715,1586,1585,1571,1572,0,0,0,0,0,0,0,0,0,0
1684155400.89980102,84528675,1584,1583,1575,1575,0,0,0,0,0,0,0,0,0,0
1684155400.99976087,84628635,1581,1582,1578,1578,0,0,0,0,0,0,0,0,0,0
1684155401.09972095,84728595,1578,1578,1580,1580,0,0,0,0,0,0,0,0,0,0
1684155401.19968104,84828555,1576,1577,1582,1582,0,0,0,0,0,0,0,0,0,0
1684155401.29964089,84928515,1574,1575,1584,1583,0,0,0,0,0,0,0,0,0,0
1684155401.39960098,85028475,1573,1574,1585,1584,0,0,0,0,0,0,0,0,0,0
1684155401.49956083,85128435,1573,1574,1584,1584,0,0,0,0,0,0,0,0,0,0
1684155401.59952092,85228395,1574,1574,1584,1584,0,0,0,0,0,0,0,0,0,0
1684155401.69948101,85328355,1574,1575,1584,1583,0,0,0,0,0,0,0,0,0,0
1684155401.79944086,85428315,1576,1576,1583,1583,0,0,0,0,0,0,0,0,0,0
1684155401.89940095,85528275,1577,1577,1582,1581,0,0,0,0,0,0,0,0,0,0
1684155401.99936104,85628235,1579,1578,1581,1581,0,0,0,0,0,0,0,0,0,0
1684155402.09932089,85728195,1580,1579,1580,1580,0,0,0,0,0,0,0,0,0,0
1684155402.19928098,85828155,1581,1580,1579,1579,0,0,0,0,0,0,0,0,0,0
1684155402.30007386,85928948,1582,1582,1578,1578,0,0,0,0,0,0,0,0,0,0
1684155402.40003395,86028908,1581,1581,1576,1577,0,0,0,0,0,0,0,0,0,0
1684155402.49999404,86128868,1581,1581,1576,1577,0,0,0,0,0,0,0,0,0,0
1684155402.59995389,86228828,1582,1582,1577,1577,0,0,0,0,0,0,0,0,0,0
1684155402.69991398,86328788,1583,1582,1579,1578,0,0,0,0,0,0,0,0,0,0
1684155402.79987383,86428748,1582,1582,1579,1578,0,0,0,0,0,0,0,0,0,0
1684155402.89983392,86528708,1581,1581,1579,1579,0,0,0,0,0,0,0,0,0,0
1684155402.99979401,86628668,1581,1580,1579,1579,0,0,0,0,0,0,0,0,0,0
1684155403.09975386,86728628,1580,1581,1580,1580,0,0,0,0,0,0,0,0,0,0
1684155403.19971395,86828588,1580,1580,1580,1580,0,0,0,0,0,0,0,0,0,0
1684155403.29967403,86928548,1580,1580,1581,1581,0,0,0,0,0,0,0,0,0,0
1684155403.39963388,87028508,1580,1580,1581,1581,0,0,0,0,0,0,0,0,0,0
1684155403.49959397,87128468,1580,1579,1581,1581,0,0,0,0,0,0,0,0,0,0
1684155403.59955382,87228428,1580,1580,1582,1582,0,0,0,0,0,0,0,0,0,0
1684155403.69951391,87328388,1580,1580,1581,1581,0,0,0,0,0,0,0,0,0,0
1684155403.79947400,87428348,1580,1580,1581,1581,0,0,0,0,0,0,0,0,0,0
1684155403.89943385,87528308,1581,1581,1583,1583,0,0,0,0,0,0,0,0,0,0
1684155403.99939394,87628268,1582,1582,1589,1576,0,0,0,0,0,0,0,0,0,0
1684155404.09935403,87728228,1581,1580,1586,1573,0,0,0,0,0,0,0,0,0,0
1684155404.19931388,87828188,1578,1578,1579,1574,0,0,0,0,0,0,0,0,0,0
1684155404.30010700,87928981,1576,1575,1571,1574,0,0,0,0,0,0,0,0,0,0
1684155404.40006685,88028941,1573,1572,1566,1573,0,0,0,0,0,0,0,0,0,0
1684155404.50002694,88128901,1570,1570,1564,1571,0,0,0,0,0,0,0,0,0,0
1684155404.59998703,88228861,1569,1569,1565,1569,0,0,0,0,0,0,0,0,0,0
1684155404.69994688,88328821,1567,1568,1566,1567,0,0,0,0,0,0,0,0,0,0
1684155404.79990697,88428781,1566,1567,1566,1565,0,0,0,0,0,0,0,0,0,0
1684155404.89986682,88528741,1566,1566,1567,1565,0,0,0,0,0,0,0,0,0,0
1684155404.99982691,88628701,1565,1566,1568,1565,0,0,0,0,0,0,0,0,0,0
1684155405.09978700,88728661,1565,1565,1567,1565,0,0,0,0,0,0,0,0,0,0
1684155405.19974685,88828621,1564,1564,1566,1565,0,0,0,0,0,0,0,0,0,0
1684155405.29970694,88928581,1564,1563,1566,1566,0,0,0,0,0,0,0,0,0,0
1684155405.39966702,89028541,1563,1562,1564,1564,0,0,0,0,0,0,0,0,0,0
1684155405.49962687,89128501,1561,1561,1562,1563,0,0,0,0,0,0,0,0,0,0
1684155405.59958696,89228461,1561,1561,1562,1562,0,0,0,0,0,0,0,0,0,0
1684155405.69954705,89328421,1560,1560,1561,1561,0,0,0,0,0,0,0,0,0,0
1684155405.79950690,89428381,1560,1560,1561,1560,0,0,0,0,0,0,0,0,0,0
1684155405.89946699,89528341,1560,1560,1560,1559,0,0,0,0,0,0,0,0,0,0
1684155405.99942684,89628301,1559,1559,1560,1559,0,0,0,0,0,0,0,0,0,0
1684155406.09938693,89728261,1559,1559,1559,1558,0,0,0,0,0,0,0,0,0,0
1684155406.19934702,89828221,1558,1558,1557,1557,0,0,0,0,0,0,0,0,0,0
1684155406.29930687,89928181,1558,1558,1558,1557,0,0,0,0,0,0,0,0,0,0
1684155406.40009999,90028974,1559,1558,1559,1557,0,0,0,0,0,0,0,0,0,0
1684155406.50005984,90128934,1558,1558,1559,1557,0,0,0,0,0,0,0,0,0,0
1684155406.60001993,90228894,1558,1558,1559,1557,0,0,0,0,0,0,0,0,0,0
1684155406.69998002,90328854,1559,1558,1560,1557,0,0,0,0,0,0,0,0,0,0
1684155406.79993987,90428814,1559,1559,1560,1558,0,0,0,0,0,0,0,0,0,0
1684155406.89989996,90528774,1560,1559,1558,1562,0,0,0,0,0,0,0,0,0,0
1684155406.99986005,90628734,1560,1560,1557,1564,0,0,0,0,0,0,0,0,0,0
1684155407.09981990,90728694,1560,1561,1558,1564,0,0,0,0,0,0,0,0,0,0
1684155407.19977999,90828654,1561,1561,1559,1564,0,0,0,0,0,0,0,0,0,0
1684155407.29973984,90928614,1560,1560,1560,1561,0,0,0,0,0,0,0,0,0,0
1684155407.39969993,91028574,1558,1559,1559,1556,0,0,0,0,0,0,0,0,0,0
1684155407.49966002,91128534,1558,1559,1557,1558,0,0,0,0,0,0,0,0,0,0
1684155407.59961987,91228494,1557,1557,1555,1557,0,0,0,0,0,0,0,0,0,0
1684155407.69957995,91328454,1554,1554,1551,1553,0,0,0,0,0,0,0,0,0,0
1684155407.79954004,91428414,1550,1550,1547,1548,0,0,0,0,0,0,0,0,0,0
1684155407.89949989,91528374,1543,1544,1540,1540,0,0,0,0,0,0,0,0,0,0
1684155407.99945998,91628334,1538,1538,1534,1534,0,0,0,0,0,0,0,0,0,0
1684155408.09941983,91728294,1531,1531,1527,1527,0,0,0,0,0,0,0,0,0,0
1684155408.19937992,91828254,1525,1525,1522,1521,0,0,0,0,0,0,0,0,0,0
1684155408.29934001,91928214,1521,1520,1518,1518,0,0,0,0,0,0,0,0,0,0
1684155408.39929986,92028174,1520,1520,1519,1520,0,0,0,0,0,0,0,0,0,0
1684155408.50009298,92128967,1519,1519,1521,1521,0,0,0,0,0,0,0,0,0,0
1684155408.60005283,92228927,1521,1522,1526,1526,0,0,0,0,0,0,0,0,0,0
1684155408.70001292,92328887,1524,1524,1530,1530,0,0,0,0,0,0,0,0,0,0
1684155408.79997301,92428847,1527,1528,1534,1534,0,0,0,0,0,0,0,0,0,0
1684155408.89993286,92528807,1532,1532,1539,1539,0,0,0,0,0,0,0,0,0,0
1684155408.99989295,92628767,1535,1536,1541,1542,0,0,0,0,0,0,0,0,0,0
1684155409.09985304,92728727,1539,1538,1543,1543,0,0,0,0,0,0,0,0,0,0
1684155409.19981289,92828687,1541,1541,1544,1543,0,0,0,0,0,0,0,0,0,0
1684155409.29977298,92928647,1543,1543,1544,1544,0,0,0,0,0,0,0,0,0,0
1684155409.39973283,93028607,1545,1546,1545,1545,0,0,0,0,0,0,0,0,0,0
1684155409.49969292,93128567,1547,1547,1545,1544,0,0,0,0,0,0,0,0,0,0
1684155409.59965301,93228527,1548,1548,1545,1544,0,0,0,0,0,0,0,0,0,0
1684155409.69961286,93328487,1547,1547,1543,1543,0,0,0,0,0,0,0,0,0,0
1684155409.79957294,93428447,1549,1549,1545,1545,0,0,0,0,0,0,0,0,0,0
1684155409.89953303,93528407,1548,1548,1544,1544,0,0,0,0,0,0,0,0,0,0
1684155409.99949288,93628367,1548,1548,1544,1545,0,0,0,0,0,0,0,0,0,0
1684155410.09945297,93728327,1547,1547,1543,1544,0,0,0,0,0,0,0,0,0,0
1684155410.19941282,93828287,1546,1546,1544,1544,0,0,0,0,0,0,0,0,0,0
1684155410.29937291,93928247,1546,1546,1545,1545,0,0,0,0,0,0,0,0,0,0
1684155410.39933300,94028207,1545,1545,1545,1544,0,0,0,0,0,0,0,0,0,0
1684155410.49929285,94128167,1545,1545,1545,1545,0,0,0,0,0,0,0,0,0,0
1684155410.60008597,94228960,1544,1544,1546,1545,0,0,0,0,0,0,0,0,0,0
1684155410.70004582,94328920,1544,1544,1547,1546,0,0,0,0,0,0,0,0,0,0
1684155410.80000591,94428880,1544,1544,1546,1545,0,0,0,0,0,0,0,0,0,0
1684155410.89996600,94528840,1544,1543,1545,1545,0,0,0,0,0,0,0,0,0,0
1684155410.99992585,94628800,1543,1543,1545,1545,0,0,0,0,0,0,0,0,0,0
1684155411.09988594,94728760,1543,1543,1544,1544,0,0,0,0,0,0,0,0,0,0
1684155411.19984603,94828720,1543,1544,1545,1544,0,0,0,0,0,0,0,0,0,0
1684155411.29980588,94928680,1544,1544,1544,1544,0,0,0,0,0,0,0,0,0,0
1684155411.39976597,95028640,1545,1544,1545,1545,0,0,0,0,0,0,0,0,0,0
1684155411.49972582,95128600,1544,1544,1543,1544,0,0,0,0,0,0,0,0,0,0
1684155411.59968591,95228560,1544,1544,1543,1543,0,0,0,0,0,0,0,0,0,0
1684155411.69964600,95328520,1545,1545,1544,1544,0,0,0,0,0,0,0,0,0,0
1684155411.79960585,95428480,1544,1545,1544,1543,0,0,0,0,0,0,0,0,0,0
1684155411.89956594,95528440,1544,1544,1543,1543,0,0,0,0,0,0,0,0,0,0
1684155411.99952602,95628400,1543,1544,1543,1543,0,0,0,0,0,0,0,0,0,0
1684155412.09948587,95728360,1544,1543,1543,1543,0,0,0,0,0,0,0,0,0,0
1684155412.19944596,95828320,1544,1544,1544,1544,0,0,0,0,0,0,0,0,0,0
1684155412.29940605,95928280,1544,1544,1544,1545,0,0,0,0,0,0,0,0,0,0
1684155412.39936590,96028240,1544,1544,1545,1544,0,0,0,0,0,0,0,0,0,0
1684155412.49932599,96128200,1544,1544,1544,1545,0,0,0,0,0,0,0,0,0,0
1684155412.59928584,96228160,1544,1544,1544,1544,0,0,0,0,0,0,0,0,0,0
1684155412.70007896,96328953,1545,1544,1545,1545,0,0,0,0,0,0,0,0,0,0
1684155412.80003905,96428913,1544,1544,1544,1544,0,0,0,0,0,0,0,0,0,0
1684155412.89999890,96528873,1544,1544,1544,1544,0,0,0,0,0,0,0,0,0,0
1684155412.99995899,96628833,1543,1544,1543,1543,0,0,0,0,0,0,0,0,0,0
1684155413.09991884,96728793,1543,1543,1543,1543,0,0,0,0,0,0,0,0,0,0
1684155413.19987893,96828753,1544,1544,1544,1544,0,0,0,0,0,0,0,0,0,0
1684155413.29983902,96928713,1544,1544,1544,1544,0,0,0,0,0,0,0,0,0,0
1684155413.39979887,97028673,1544,1545,1545,1545,0,0,0,0,0,0,0,0,0,0
1684155413.49975896,97128633,1544,1544,1544,1545,0,0,0,0,0,0,0,0,0,0
1684155413.59971905,97228593,1544,1544,1545,1544,0,0,0,0,0,0,0,0,0,0
1684155413.69967890,97328553,1545,1544,1545,1545,0,0,0,0,0,0,0,0,0,0
1684155413.79963899,97428513,1544,1544,1544,1544,0,0,0,0,0,0,0,0,0,0
1684155413.89959884,97528473,1544,1544,1543,1544,0,0,0,0,0,0,0,0,0,0
1684155413.99955893,97628433,1544,1545,1545,1544,0,0,0,0,0,0,0,0,0,0
1684155414.09951901,97728393,1544,1544,1543,1544,0,0,0,0,0,0,0,0,0,0
1684155414.19947886,97828353,1545,1544,1544,1544,0,0,0,0,0,0,0,0,0,0
1684155414.29943895,97928313,1545,1545,1544,1545,0,0,0,0,0,0,0,0,0,0
1684155414.39939904,98028273,1544,1544,1544,1544,0,0,0,0,0,0,0,0,0,0
1684155414.49935889,98128233,1545,1544,1544,1544,0,0,0,0,0,0,0,0,0,0
1684155414.59931898,98228193,1544,1545,1545,1544,0,0,0,0,0,0,0,0,0,0
1684155414.70011187,98328986,1544,1544,1544,1544,0,0,0,0,0,0,0,0,0,0
1684155414.80007195,98428946,1543,1544,1543,1544,0,0,0,0,0,0,0,0,0,0
1684155414.90003204,98528906,1543,1544,1543,1543,0,0,0,0,0,0,0,0,0,0
1684155414.99999189,98628866,1544,1544,1544,1544,0,0,0,0,0,0,0,0,0,0
1684155415.09995198,98728826,1544,1543,1543,1544,0,0,0,0,0,0,0,0,0,0
1684155415.19991183,98828786,1544,1543,1543,1543,0,0,0,0,0,0,0,0,0,0
1684155415.29987192,98928746,1544,1543,1544,1544,0,0,0,0,0,0,0,0,0,0
1684155415.39983201,99028706,1544,1545,1545,1545,0,0,0,0,0,0,0,0,0,0
1684155415.49979186,99128666,1544,1544,1544,1545,0,0,0,0,0,0,0,0,0,0
1684155415.59975195,99228626,1544,1545,1545,1545,0,0,0,0,0,0,0,0,0,0
1684155415.69971204,99328586,1545,1545,1544,1545,0,0,0,0,0,0,0,0,0,0
1684155415.79967189,99428546,1545,1545,1545,1545,0,0,0,0,0,0,0,0,0,0
1684155415.89963198,99528506,1545,1545,1545,1545,0,0,0,0,0,0,0,0,0,0
1684155415.99959183,99628466,1545,1545,1545,1544,0,0,0,0,0,0,0,0,0,0
1684155416.09955192,99728426,1545,1544,1544,1545,0,0,0,0,0,0,0,0,0,0
1684155416.19951200,99828386,1544,1544,1543,1543,0,0,0,0,0,0,0,0,0,0
1684155416.29947186,99928346,1545,1544,1544,1544,0,0,0,0,0,0,0,0,0,0
1684155416.39943194,100028306,1544,1544,1544,1543,0,0,0,0,0,0,0,0,0,0
1684155416.49939203,100128266,1544,1544,1544,1544,0,0,0,0,0,0,0,0,0,0
1684155416.59935188,100228226,1544,1544,1544,1543,0,0,0,0,0,0,0,0,0,0
1684155416.69931197,100328186,1544,1544,1544,1544,0,0,0,0,0,0,0,0,0,0
1684155416.80010486,100428979,1545,1544,1544,1545,0,0,0,0,0,0,0,0,0,0
1684155416.90006495,100528939,1545,1545,1545,1546,0,0,0,0,0,0,0,0,0,0
1684155417.00002503,100628899,1545,1545,1545,1545,0,0,0,0,0,0,0,0,0,0
1684155417.09998488,100728859,1545,1545,1544,1545,0,0,0,0,0,0,0,0,0,0
1684155417.19994497,100828819,1544,1545,1545,1544,0,0,0,0,0,0,0,0,0,0
1684155417.29990482,100928779,1545,1545,1545,1545,0,0,0,0,0,0,0,0,0,0
1684155417.39986491,101028739,1545,1545,1545,1544,0,0,0,0,0,0,0,0,0,0
1684155417.49982500,101128699,1545,1545,1545,1545,0,0,0,0,0,0,0,0,0,0
1684155417.59978485,101228659,1544,1544,1544,1544,0,0,0,0,0,0,0,0,0,0
1684155417.69974494,101328619,1546,1545,1546,1546,0,0,0,0,0,0,0,0,0,0
1684155417.79970503,101428579,1544,1544,1544,1544,0,0,0,0,0,0,0,0,0,0
1684155417.89966488,101528539,1496,1494,1481,1480,0,0,0,0,0,0,0,0,0,0
1684155417.99962497,101628499,1374,1373,1311,1309,0,0,0,0,0,0,0,0,0,0
1684155418.09958482,101728459,1326,1324,1235,1234,0,0,0,0,0,0,0,0,0,0
1684155418.19954491,101828419,1311,1309,1212,1209,0,0,0,0,0,0,0,0,0,0
1684155418.29950500,101928379,1295,1292,1183,1180,0,0,0,0,0,0,0,0,0,0
1684155418.39946485,102028339,1269,1266,1154,1150,0,0,0,0,0,0,0,0,0,0
1684155418.49942493,102128299,1160,1156,1153,1150,0,0,0,0,0,0,0,0,0,0
1684155418.59938502,102228259,1095,1092,1152,1150,0,0,0,0,0,0,0,0,0,0
1684155418.69934487,102328219,1095,1092,1152,1150,0,0,0,0,0,0,0,0,0,0
1684155418.79930496,102428179,1095,1092,1153,1150,0,0,0,0,0,0,0,0,0,0
1684155418.90009785,102528972,1095,1081,1150,1169,0,0,0,0,0,0,0,0,0,0
1684155419.00005794,102628932,1095,1085,1150,1161,0,0,0,0,0,0,0,0,0,0
1684155419.10001802,102728892,1096,1088,1150,1157,0,0,0,0,0,0,0,0,0,0
1684155419.19997787,102828852,1096,1088,1150,1156,0,0,0,0,0,0,0,0,0,0
1684155419.29993796,102928812,1096,1088,1150,1157,0,0,0,0,0,0,0,0,0,0
1684155419.39989805,103028772,1096,1088,1150,1157,0,0,0,0,0,0,0,0,0,0
1684155419.49985790,103128732,1096,1088,1150,1157,0,0,0,0,0,0,0,0,0,0
1684155419.59981799,103228692,1096,1088,1150,1158,0,0,0,0,0,0,0,0,0,0
1684155419.69977784,103328652,1095,1094,1150,1150,0,0,0,0,0,0,0,0,0,0
1684155419.79973793,103428612,1095,1093,1150,1151,0,0,0,0,0,0,0,0,0,0
1684155419.89969802,103528572,1095,1093,1150,1151,0,0,0,0,0,0,0,0,0,0
1684155419.99965787,103628532,1095,1093,1150,1151,0,0,0,0,0,0,0,0,0,0
1684155420.09961796,103728492,1095,1093,1150,1151,0,0,0,0,0,0,0,0,0,0
1684155420.19957805,103828452,1000,1000,1000,1000,0,0,0,0,0,0,0,0,0,0
1684155420.29953790,103928412,1000,1000,1000,1000,0,0,0,0,0,0,0,0,0,0
1684155420.39949799,104028372,1000,1000,1000,1000,0,0,0,0,0,0,0,0,0,0
1684155420.49945784,104128332,1000,1000,1000,1000,0,0,0,0,0,0,0,0,0,0
1684155420.59941792,104228292,1000,1000,1000,1000,0,0,0,0,0,0,0,0,0,0
1684155420.69937801,104328252,1000,1000,1000,1000,0,0,0,0,0,0,0,0,0,0
1684155420.79933786,104428212,1000,1000,1000,1000,0,0,0,0,0,0,0,0,0,0
1684155420.89929795,104528172,1000,1000,1000,1000,0,0,0,0,0,0,0,0,0,0
1684155421.00009084,104628965,1000,1000,1000,1000,0,0,0,0,0,0,0,0,0,0
1684155421.10005093,104728925,1000,1000,1000,1000,0,0,0,0,0,0,0,0,0,0
1684155421.20001101,104828885,1000,1000,1000,1000,0,0,0,0,0,0,0,0,0,0
1684155421.29997087,104928845,1000,1000,1000,1000,0,0,0,0,0,0,0,0,0,0
1684155421.39993095,105028805,1000,1000,1000,1000,0,0,0,0,0,0,0,0,0,0
1684155421.49989104,105128765,1000,1000,1000,1000,0,0,0,0,0,0,0,0,0,0
1684155421.59985089,105228725,1000,1000,1000,1000,0,0,0,0,0,0,0,0,0,0
1684155421.69981098,105328685,1000,1000,1000,1000,0,0,0,0,0,0,0,0,0,0
1684155421.79977083,105428645,1000,1000,1000,1000,0,0,0,0,0,0,0,0,0,0
1684155421.89973092,105528605,1000,1000,1000,1000,0,0,0,0,0,0,0,0,0,0
1684155421.99969101,105628565,1000,1000,1000,1000,0,0,0,0,0,0,0,0,0,0
1684155422.09965086,105728525,1000,1000,1000,1000,0,0,0,0,0,0,0,0,0,0
1684155422.19961095,105828485,1000,1000,1000,1000,0,0,0,0,0,0,0,0,0,0
1684155422.29957104,105928445,1000,1000,1000,1000,0,0,0,0,0,0,0,0,0,0
1684155422.39953089,106028405,1000,1000,1000,1000,0,0,0,0,0,0,0,0,0,0
1684155422.49949098,106128365,1000,1000,1000,1000,0,0,0,0,0,0,0,0,0,0
1684155422.59945083,106228325,1000,1000,1000,1000,0,0,0,0,0,0,0,0,0,0
1684155422.69941092,106328285,1000,1000,1000,1000,0,0,0,0,0,0,0,0,0,0
1684155422.79937100,106428245,1000,1000,1000,1000,0,0,0,0,0,0,0,0,0,0
1684155422.89933085,106528205,1000,1000,1000,1000,0,0,0,0,0,0,0,0,0,0
1684155422.99929094,106628165,1000,1000,1000,1000,0,0,0,0,0,0,0,0,0,0
1684155423.10008383,106728958,1000,1000,1000,1000,0,0,0,0,0,0,0,0,0,0
1684155423.20004392,106828918,1000,1000,1000,1000,0,0,0,0,0,0,0,0,0,0
1684155423.30000401,106928878,1000,1000,1000,1000,0,0,0,0,0,0,0,0,0,0
1684155423.39996386,107028838,1000,1000,1000,1000,0,0,0,0,0,0,0,0,0,0
1684155423.49992394,107128798,1000,1000,1000,1000,0,0,0,0,0,0,0,0,0,0
1684155423.59988403,107228758,1000,1000,1000,1000,0,0,0,0,0,0,0,0,0,0
1684155423.69984388,107328718,1000,1000,1000,1000,0,0,0,0,0,0,0,0,0,0
1684155423.79980397,107428678,1000,1000,1000,1000,0,0,0,0,0,0,0,0,0,0
1684155423.89976382,107528638,1000,1000,1000,1000,0,0,0,0,0,0,0,0,0,0
1684155423.99972391,107628598,1000,1000,1000,1000,0,0,0,0,0,0,0,0,0,0
1684155424.09968400,107728558,1000,1000,1000,1000,0,0,0,0,0,0,0,0,0,0
1684155424.19964385,107828518,1000,1000,1000,1000,0,0,0,0,0,0,0,0,0,0
1684155424.29960394,107928478,1000,1000,1000,1000,0,0,0,0,0,0,0,0,0,0
1684155424.39956403,108028438,1000,1000,1000,1000,0,0,0,0,0,0,0,0,0,0
1684155424.49952388,108128398,1000,1000,1000,1000,0,0,0,0,0,0,0,0,0,0
1684155424.59948397,108228358,1000,1000,1000,1000,0,0,0,0,0,0,0,0,0,0
1684155424.69944406,108328318,1000,1000,1000,1000,0,0,0,0,0,0,0,0,0,0
1684155424.79940391,108428278,1000,1000,1000,1000,0,0,0,0,0,0,0,0,0,0
1684155424.89936399,108528238,1000,1000,1000,1000,0,0,0,0,0,0,0,0,0,0
1684155424.99932384,108628198,1000,1000,1000,1000,0,0,0,0,0,0,0,0,0,0
1684155425.09928393,108728158,1000,1000,1000,1000,0,0,0,0,0,0,0,0,0,0
1684155425.20007682,108828951,1000,1000,1000,1000,0,0,0,0,0,0,0,0,0,0
1684155425.30003691,108928911,1000,1000,1000,1000,0,0,0,0,0,0,0,0,0,0
1684155425.39999700,109028871,1000,1000,1000,1000,0,0,0,0,0,0,0,0,0,0
1684155425.49995685,109128831,1000,1000,1000,1000,0,0,0,0,0,0,0,0,0,0
1684155425.59991693,109228791,1000,1000,1000,1000,0,0,0,0,0,0,0,0,0,0
1684155425.69987702,109328751,1000,1000,1000,1000,0,0,0,0,0,0,0,0,0,0
1684155425.79983687,109428711,1000,1000,1000,1000,0,0,0,0,0,0,0,0,0,0
1684155425.89979696,109528671,1000,1000,1000,1000,0,0,0,0,0,0,0,0,0,0
1684155425.99975705,109628631,1000,1000,1000,1000,0,0,0,0,0,0,0,0,0,0
1684155426.09971690,109728591,1000,1000,1000,1000,0,0,0,0,0,0,0,0,0,0
1684155426.19967699,109828551,1000,1000,1000,1000,0,0,0,0,0,0,0,0,0,0
1684155426.29963684,109928511,1000,1000,1000,1000,0,0,0,0,0,0,0,0,0,0
1684155426.39959693,110028471,1000,1000,1000,1000,0,0,0,0,0,0,0,0,0,0
1684155426.49955702,110128431,1000,1000,1000,1000,0,0,0,0,0,0,0,0,0,0
1684155426.59951687,110228391,1000,1000,1000,1000,0,0,0,0,0,0,0,0,0,0
1684155426.69947696,110328351,1000,1000,1000,1000,0,0,0,0,0,0,0,0,0,0
1684155426.79943705,110428311,1000,1000,1000,1000,0,0,0,0,0,0,0,0,0,0
1684155426.89939690,110528271,1000,1000,1000,1000,0,0,0,0,0,0,0,0,0,0
1684155426.99935699,110628231,1000,1000,1000,1000,0,0,0,0,0,0,0,0,0,0
1684155427.09931684,110728191,1000,1000,1000,1000,0,0,0,0,0,0,0,0,0,0
1684155427.20010996,110828984,1000,1000,1000,1000,0,0,0,0,0,0,0,0,0,0
1684155427.30007005,110928944,1000,1000,1000,1000,0,0,0,0,0,0,0,0,0,0
1684155427.40002990,111028904,1000,1000,1000,1000,0,0,0,0,0,0,0,0,0,0
1684155427.49998999,111128864,1000,1000,1000,1000,0,0,0,0,0,0,0,0,0,0
1684155427.59994984,111228824,1000,1000,1000,1000,0,0,0,0,0,0,0,0,0,0
1684155427.69990993,111328784,1000,1000,1000,1000,0,0,0,0,0,0,0,0,0,0
1684155427.79987001,111428744,1000,1000,1000,1000,0,0,0,0,0,0,0,0,0,0
1684155427.89982986,111528704,1000,1000,1000,1000,0,0,0,0,0,0,0,0,0,0
1684155427.99978995,111628664,1000,1000,1000,1000,0,0,0,0,0,0,0,0,0,0
1684155428.09975004,111728624,1000,1000,1000,1000,0,0,0,0,0,0,0,0,0,0
