timestamp,TimeUS,C1,C2,C3,C4,C5,C6,C7,C8,C9,C10,C11,C12,C13,C14
1683126809.50003982,46328961,1000,1000,1000,1000,0,0,0,0,0,0,0,0,0,0
1683126809.59999990,46428921,1000,1000,1000,1000,0,0,0,0,0,0,0,0,0,0
1683126809.69995999,46528881,1000,1000,1000,1000,0,0,0,0,0,0,0,0,0,0
1683126809.79991984,46628841,1000,1000,1000,1000,0,0,0,0,0,0,0,0,0,0
1683126809.89987993,46728801,1000,1000,1000,1000,0,0,0,0,0,0,0,0,0,0
1683126809.99984002,46828761,1000,1000,1000,1000,0,0,0,0,0,0,0,0,0,0
1683126810.09979987,46928721,1000,1000,1000,1000,0,0,0,0,0,0,0,0,0,0
1683126810.19975996,47028681,1000,1000,1000,1000,0,0,0,0,0,0,0,0,0,0
1683126810.29971981,47128641,1000,1000,1000,1000,0,0,0,0,0,0,0,0,0,0
1683126810.39967990,47228601,1000,1000,1000,1000,0,0,0,0,0,0,0,0,0,0
1683126810.49963999,47328561,1000,1000,1000,1000,0,0,0,0,0,0,0,0,0,0
1683126810.59959984,47428521,1000,1000,1000,1000,0,0,0,0,0,0,0,0,0,0
1683126810.69955993,47528481,1000,1000,1000,1000,0,0,0,0,0,0,0,0,0,0
1683126810.79952002,47628441,1000,1000,1000,1000,0,0,0,0,0,0,0,0,0,0
1683126810.89947987,47728401,1000,1000,1000,1000,0,0,0,0,0,0,0,0,0,0
1683126810.99943995,47828361,1000,1000,1000,1000,0,0,0,0,0,0,0,0,0,0
1683126811.09939981,47928321,1000,1000,1000,1000,0,0,0,0,0,0,0,0,0,0
1683126811.19935989,48028281,1000,1000,1000,1000,0,0,0,0,0,0,0,0,0,0
1683126811.29931998,48128241,1000,1000,1000,1000,0,0,0,0,0,0,0,0,0,0
1683126811.39927983,48228201,1000,1000,1000,1000,0,0,0,0,0,0,0,0,0,0
1683126811.49923992,48328161,1023,1023,1023,1023,0,0,0,0,0,0,0,0,0,0
1683126811.60003281,48428954,1053,1053,1053,1053,0,0,0,0,0,0,0,0,0,0
1683126811.69999290,48528914,1083,1083,1083,1083,0,0,0,0,0,0,0,0,0,0
1683126811.79995298,48628874,1113,1113,1113,1113,0,0,0,0,0,0,0,0,0,0
1683126811.89991283,48728834,1143,1143,1143,1143,0,0,0,0,0,0,0,0,0,0
1683126811.99987292,48828794,1351,1346,1347,1351,0,0,0,0,0,0,0,0,0,0
1683126812.09983301,48928754,1542,1538,1538,1542,0,0,0,0,0,0,0,0,0,0
1683126812.19979286,49028714,1695,1691,1691,1695,0,0,0,0,0,0,0,0,0,0
1683126812.29975295,49128674,1826,1823,1823,1827,0,0,0,0,0,0,0,0,0,0
1683126812.39971304,49228634,1877,1873,1873,1877,0,0,0,0,0,0,0,0,0,0
1683126812.49967289,49328594,1836,1834,1834,1836,0,0,0,0,0,0,0,0,0,0
1683126812.59963298,49428554,1705,1704,1705,1705,0,0,0,0,0,0,0,0,0,0
1683126812.69959283,49528514,1628,1630,1630,1629,0,0,0,0,0,0,0,0,0,0
1683126812.79955292,49628474,1614,1615,1616,1614,0,0,0,0,0,0,0,0,0,0
1683126812.89951301,49728434,1626,1627,1627,1625,0,0,0,0,0,0,0,0,0,0
1683126812.99947286,49828394,1634,1635,1634,1634,0,0,0,0,0,0,0,0,0,0
1683126813.09943295,49928354,1631,1630,1630,1631,0,0,0,0,0,0,0,0,0,0
1683126813.19939303,50028314,1626,1625,1625,1625,0,0,0,0,0,0,0,0,0,0
1683126813.29935288,50128274,1620,1619,1619,1619,0,0,0,0,0,0,0,0,0,0
1683126813.39931297,50228234,1615,1615,1614,1616,0,0,0,0,0,0,0,0,0,0
1683126813.49927282,50328194,1614,1614,1614,1614,0,0,0,0,0,0,0,0,0,0
1683126813.59923291,50428154,1586,1586,1586,1586,0,0,0,0,0,0,0,0,0,0
1683126813.70002604,50528947,1575,1575,1571,1579,0,0,0,0,0,0,0,0,0,0
1683126813.79998589,50628907,1570,1570,1563,1578,0,0,0,0,0,0,0,0,0,0
1683126813.89994597,50728867,1568,1567,1562,1573,0,0,0,0,0,0,0,0,0,0
1683126813.99990582,50828827,1566,1566,1564,1568,0,0,0,0,0,0,0,0,0,0
1683126814.09986591,50928787,1568,1568,1569,1567,0,0,0,0,0,0,0,0,0,0
1683126814.19982600,51028747,1569,1569,1572,1566,0,0,0,0,0,0,0,0,0,0
1683126814.29978585,51128707,1569,1569,1574,1565,0,0,0,0,0,0,0,0,0,0
1683126814.39974594,51228667,1553,1553,1567,1540,0,0,0,0,0,0,0,0,0,0
1683126814.49970603,51328627,1544,1544,1552,1537,0,0,0,0,0,0,0,0,0,0
1683126814.59966588,51428587,1537,1537,1536,1539,0,0,0,0,0,0,0,0,0,0
1683126814.69962597,51528547,1534,1534,1528,1541,0,0,0,0,0,0,0,0,0,0
1683126814.79958582,51628507,1534,1533,1525,1542,0,0,0,0,0,0,0,0,0,0
1683126814.89954591,51728467,1535,1534,1528,1541,0,0,0,0,0,0,0,0,0,0
1683126814.99950600,51828427,1536,1536,1533,1539,0,0,0,0,0,0,0,0,0,0
1683126815.09946585,51928387,1540,1540,1540,1540,0,0,0,0,0,0,0,0,0,0
1683126815.19942594,52028347,1542,1542,1545,1539,0,0,0,0,0,0,0,0,0,0
1683126815.29938602,52128307,1545,1545,1549,1542,0,0,0,0,0,0,0,0,0,0
1683126815.39934587,52228267,1549,1549,1552,1546,0,0,0,0,0,0,0,0,0,0
1683126815.49930596,52328227,1553,1552,1554,1551,0,0,0,0,0,0,0,0,0,0
1683126815.59926581,52428187,1554,1552,1555,1557,0,0,0,0,0,0,0,0,0,0
1683126815.70005894,52528980,1551,1551,1560,1563,0,0,0,0,0,0,0,0,0,0
1683126815.80001903,52628940,1553,1553,1561,1564,0,0,0,0,0,0,0,0,0,0
1683126815.89997888,52728900,1556,1557,1562,1564,0,0,0,0,0,0,0,0,0,0
1683126815.99993896,52828860,1560,1561,1563,1564,0,0,0,0,0,0,0,0,0,0
1683126816.09989882,52928820,1564,1564,1564,1564,0,0,0,0,0,0,0,0,0,0
1683126816.19985890,53028780,1567,1567,1565,1564,0,0,0,0,0,0,0,0,0,0
1683126816.29981899,53128740,1568,1569,1564,1563,0,0,0,0,0,0,0,0,0,0
1683126816.39977884,53228700,1571,1570,1565,1564,0,0,0,0,0,0,0,0,0,0
1683126816.49973893,53328660,1572,1571,1566,1565,0,0,0,0,0,0,0,0,0,0
1683126816.59969902,53428620,1573,1573,1567,1567,0,0,0,0,0,0,0,0,0,0
1683126816.69965887,53528580,1573,1573,1568,1569,0,0,0,0,0,0,0,0,0,0
1683126816.79961896,53628540,1573,1573,1569,1570,0,0,0,0,0,0,0,0,0,0
1683126816.89957881,53728500,1574,1574,1572,1572,0,0,0,0,0,0,0,0,0,0
1683126816.99953890,53828460,1573,1574,1573,1572,0,0,0,0,0,0,0,0,0,0
1683126817.09949899,53928420,1573,1573,1574,1573,0,0,0,0,0,0,0,0,0,0
1683126817.19945884,54028380,1573,1573,1575,1574,0,0,0,0,0,0,0,0,0,0
1683126817.29941893,54128340,1574,1574,1577,1575,0,0,0,0,0,0,0,0,0,0
1683126817.39937901,54228300,1574,1574,1577,1576,0,0,0,0,0,0,0,0,0,0
1683126817.49933887,54328260,1574,1575,1577,1576,0,0,0,0,0,0,0,0,0,0
1683126817.59929895,54428220,1576,1576,1577,1577,0,0,0,0,0,0,0,0,0,0
1683126817.69925880,54528180,1576,1576,1577,1577,0,0,0,0,0,0,0,0,0,0
1683126817.80005193,54628973,1577,1577,1577,1577,0,0,0,0,0,0,0,0,0,0
1683126817.90001202,54728933,1577,1576,1576,1577,0,0,0,0,0,0,0,0,0,0
1683126817.99997187,54828893,1578,1577,1577,1577,0,0,0,0,0,0,0,0,0,0
1683126818.09993196,54928853,1577,1578,1577,1577,0,0,0,0,0,0,0,0,0,0
1683126818.19989181,55028813,1578,1578,1578,1578,0,0,0,0,0,0,0,0,0,0
1683126818.29985189,55128773,1579,1578,1577,1577,0,0,0,0,0,0,0,0,0,0
1683126818.39981198,55228733,1579,1579,1578,1578,0,0,0,0,0,0,0,0,0,0
1683126818.49977183,55328693,1578,1578,1577,1577,0,0,0,0,0,0,0,0,0,0
1683126818.59973192,55428653,1579,1579,1578,1578,0,0,0,0,0,0,0,0,0,0
1683126818.69969201,55528613,1579,1579,1579,1578,0,0,0,0,0,0,0,0,0,0
1683126818.79965186,55628573,1578,1579,1579,1578,0,0,0,0,0,0,0,0,0,0
1683126818.89961195,55728533,1579,1579,1579,1579,0,0,0,0,0,0,0,0,0,0
1683126818.99957204,55828493,1578,1577,1578,1578,0,0,0,0,0,0,0,0,0,0
1683126819.09953189,55928453,1579,1579,1579,1580,0,0,0,0,0,0,0,0,0,0
1683126819.19949198,56028413,1577,1578,1578,1578,0,0,0,0,0,0,0,0,0,0
1683126819.29945183,56128373,1577,1578,1578,1578,0,0,0,0,0,0,0,0,0,0
1683126819.39941192,56228333,1578,1578,1578,1578,0,0,0,0,0,0,0,0,0,0
1683126819.49937201,56328293,1579,1579,1579,1579,0,0,0,0,0,0,0,0,0,0
1683126819.59933186,56428253,1578,1578,1579,1579,0,0,0,0,0,0,0,0,0,0
1683126819.69929194,56528213,1579,1578,1579,1579,0,0,0,0,0,0,0,0,0,0
1683126819.79925203,56628173,1580,1580,1580,1580,0,0,0,0,0,0,0,0,0,0
1683126819.90004492,56728966,1579,1580,1579,1580,0,0,0,0,0,0,0,0,0,0
1683126820.00000501,56828926,1579,1579,1579,1579,0,0,0,0,0,0,0,0,0,0
1683126820.09996486,56928886,1579,1579,1579,1579,0,0,0,0,0,0,0,0,0,0
1683126820.19992495,57028846,1580,1580,1580,1579,0,0,0,0,0,0,0,0,0,0
1683126820.29988503,57128806,1579,1580,1579,1579,0,0,0,0,0,0,0,0,0,0
1683126820.39984488,57228766,1580,1579,1579,1579,0,0,0,0,0,0,0,0,0,0
1683126820.49980497,57328726,1579,1579,1578,1579,0,0,0,0,0,0,0,0,0,0
1683126820.59976482,57428686,1579,1579,1578,1579,0,0,0,0,0,0,0,0,0,0
1683126820.69972491,57528646,1580,1580,1580,1579,0,0,0,0,0,0,0,0,0,0
1683126820.79968500,57628606,1579,1580,1580,1579,0,0,0,0,0,0,0,0,0,0
1683126820.89964485,57728566,1580,1580,1580,1580,0,0,0,0,0,0,0,0,0,0
1683126820.99960494,57828526,1580,1580,1580,1580,0,0,0,0,0,0,0,0,0,0
1683126821.09956503,57928486,1581,1581,1581,1581,0,0,0,0,0,0,0,0,0,0
1683126821.19952488,58028446,1580,1580,1580,1581,0,0,0,0,0,0,0,0,0,0
1683126821.29948497,58128406,1581,1581,1581,1581,0,0,0,0,0,0,0,0,0,0
1683126821.39944482,58228366,1580,1580,1580,1581,0,0,0,0,0,0,0,0,0,0
1683126821.49940491,58328326,1581,1581,1581,1581,0,0,0,0,0,0,0,0,0,0
1683126821.59936500,58428286,1581,1580,1581,1580,0,0,0,0,0,0,0,0,0,0
1683126821.69932485,58528246,1580,1580,1580,1580,0,0,0,0,0,0,0,0,0,0
1683126821.79928493,58628206,1580,1580,1580,1580,0,0,0,0,0,0,0,0,0,0
1683126821.89924502,58728166,1580,1580,1582,1578,0,0,0,0,0,0,0,0,0,0
1683126822.00003791,58828959,1580,1582,1588,1573,0,0,0,0,0,0,0,0,0,0
1683126822.09999800,58928919,1580,1582,1583,1573,0,0,0,0,0,0,0,0,0,0
1683126822.19995785,59028879,1578,1581,1574,1573,0,0,0,0,0,0,0,0,0,0
1683126822.29991794,59128839,1577,1580,1566,1571,0,0,0,0,0,0,0,0,0,0
1683126822.39987803,59228799,1577,1579,1560,1567,0,0,0,0,0,0,0,0,0,0
1683126822.49983788,59328759,1577,1578,1556,1562,0,0,0,0,0,0,0,0,0,0
1683126822.59979796,59428719,1579,1578,1556,1558,0,0,0,0,0,0,0,0,0,0
1683126822.69975781,59528679,1579,1577,1555,1555,0,0,0,0,0,0,0,0,0,0
1683126822.79971790,59628639,1579,1577,1556,1554,0,0,0,0,0,0,0,0,0,0
1683126822.89967799,59728599,1578,1578,1557,1554,0,0,0,0,0,0,0,0,0,0
1683126822.99963784,59828559,1577,1578,1557,1554,0,0,0,0,0,0,0,0,0,0
1683126823.09959793,59928519,1576,1577,1555,1555,0,0,0,0,0,0,0,0,0,0
1683126823.19955802,60028479,1575,1577,1554,1554,0,0,0,0,0,0,0,0,0,0
1683126823.29951787,60128439,1574,1576,1553,1553,0,0,0,0,0,0,0,0,0,0
1683126823.39947796,60228399,1576,1577,1552,1552,0,0,0,0,0,0,0,0,0,0
1683126823.49943781,60328359,1577,1578,1550,1550,0,0,0,0,0,0,0,0,0,0
1683126823.59939790,60428319,1579,1580,1548,1548,0,0,0,0,0,0,0,0,0,0
1683126823.69935799,60528279,1581,1582,1545,1545,0,0,0,0,0,0,0,0,0,0
1683126823.79931784,60628239,1584,1586,1543,1543,0,0,0,0,0,0,0,0,0,0
1683126823.89927793,60728199,1587,1587,1540,1539,0,0,0,0,0,0,0,0,0,0
1683126823.99923801,60828159,1591,1591,1538,1538,0,0,0,0,0,0,0,0,0,0
1683126824.10003090,60928952,1594,1593,1536,1536,0,0,0,0,0,0,0,0,0,0
1683126824.19999099,61028912,1594,1594,1535,1535,0,0,0,0,0,0,0,0,0,0
1683126824.29995084,61128872,1594,1594,1535,1536,0,0,0,0,0,0,0,0,0,0
1683126824.39991093,61228832,1594,1594,1537,1539,0,0,0,0,0,0,0,0,0,0
1683126824.49987102,61328792,1592,1591,1540,1543,0,0,0,0,0,0,0,0,0,0
1683126824.59983087,61428752,1589,1587,1546,1549,0,0,0,0,0,0,0,0,0,0
1683126824.69979095,61528712,1582,1579,1553,1556,0,0,0,0,0,0,0,0,0,0
1683126824.79975080,61628672,1574,1570,1564,1567,0,0,0,0,0,0,0,0,0,0
1683126824.89971089,61728632,1564,1560,1576,1578,0,0,0,0,0,0,0,0,0,0
1683126824.99967098,61828592,1552,1549,1588,1589,0,0,0,0,0,0,0,0,0,0
1683126825.09963083,61928552,1541,1539,1598,1598,0,0,0,0,0,0,0,0,0,0
1683126825.19959092,62028512,1533,1533,1607,1606,0,0,0,0,0,0,0,0,0,0
1683126825.29955101,62128472,1529,1529,1612,1611,0,0,0,0,0,0,0,0,0,0
1683126825.39951086,62228432,1528,1530,1614,1613,0,0,0,0,0,0,0,0,0,0
1683126825.49947095,62328392,1531,1533,1612,1611,0,0,0,0,0,0,0,0,0,0
1683126825.59943104,62428352,1537,1539,1607,1607,0,0,0,0,0,0,0,0,0,0
1683126825.69939089,62528312,1545,1546,1601,1602,0,0,0,0,0,0,0,0,0,0
1683126825.79935098,62628272,1554,1554,1594,1594,0,0,0,0,0,0,0,0,0,0
1683126825.89931083,62728232,1564,1563,1588,1587,0,0,0,0,0,0,0,0,0,0
1683126825.99927092,62828192,1572,1572,1581,1580,0,0,0,0,0,0,0,0,0,0
1683126826.10006404,62928985,1578,1578,1575,1574,0,0,0,0,0,0,0,0,0,0
1683126826.20002389,63028945,1583,1582,1570,1569,0,0,0,0,0,0,0,0,0,0
1683126826.29998398,63128905,1587,1585,1568,1568,0,0,0,0,0,0,0,0,0,0
1683126826.39994383,63228865,1588,1587,1567,1567,0,0,0,0,0,0,0,0,0,0
1683126826.49990392,63328825,1587,1586,1567,1567,0,0,0,0,0,0,0,0,0,0
1683126826.59986401,63428785,1586,1586,1569,1569,0,0,0,0,0,0,0,0,0,0
1683126826.69982386,63528745,1583,1583,1571,1571,0,0,0,0,0,0,0,0,0,0
1683126826.79978395,63628705,1581,1581,1574,1574,0,0,0,0,0,0,0,0,0,0
1683126826.89974403,63728665,1577,1578,1576,1576,0,0,0,0,0,0,0,0,0,0
1683126826.99970388,63828625,1576,1576,1580,1580,0,0,0,0,0,0,0,0,0,0
1683126827.09966397,63928585,1574,1575,1582,1582,0,0,0,0,0,0,0,0,0,0
1683126827.19962382,64028545,1573,1573,1583,1583,0,0,0,0,0,0,0,0,0,0
1683126827.29958391,64128505,1573,1573,1584,1584,0,0,0,0,0,0,0,0,0,0
1683126827.39954400,64228465,1573,1574,1584,1585,0,0,0,0,0,0,0,0,0,0
1683126827.49950385,64328425,1574,1574,1584,1584,0,0,0,0,0,0,0,0,0,0
1683126827.59946394,64428385,1575,1576,1583,1583,0,0,0,0,0,0,0,0,0,0
1683126827.69942403,64528345,1577,1578,1583,1582,0,0,0,0,0,0,0,0,0,0
1683126827.79938388,64628305,1578,1578,1581,1581,0,0,0,0,0,0,0,0,0,0
1683126827.89934397,64728265,1579,1579,1579,1580,0,0,0,0,0,0,0,0,0,0
1683126827.99930382,64828225,1580,1580,1578,1578,0,0,0,0,0,0,0,0,0,0
1683126828.09926391,64928185,1581,1581,1577,1578,0,0,0,0,0,0,0,0,0,0
1683126828.20005703,65028978,1581,1581,1577,1577,0,0,0,0,0,0,0,0,0,0
1683126828.30001688,65128938,1581,1581,1577,1577,0,0,0,0,0,0,0,0,0,0
1683126828.39997697,65228898,1581,1582,1577,1577,0,0,0,0,0,0,0,0,0,0
1683126828.49993682,65328858,1581,1581,1577,1577,0,0,0,0,0,0,0,0,0,0
1683126828.59989691,65428818,1581,1582,1579,1579,0,0,0,0,0,0,0,0,0,0
1683126828.69985700,65528778,1581,1580,1579,1579,0,0,0,0,0,0,0,0,0,0
1683126828.79981685,65628738,1580,1580,1579,1579,0,0,0,0,0,0,0,0,0,0
1683126828.89977694,65728698,1579,1579,1579,1580,0,0,0,0,0,0,0,0,0,0
1683126828.99973702,65828658,1580,1580,1581,1581,0,0,0,0,0,0,0,0,0,0
1683126829.09969687,65928618,1579,1580,1581,1581,0,0,0,0,0,0,0,0,0,0
1683126829.19965696,66028578,1578,1579,1581,1580,0,0,0,0,0,0,0,0,0,0
1683126829.29961681,66128538,1579,1579,1581,1581,0,0,0,0,0,0,0,0,0,0
1683126829.39957690,66228498,1580,1579,1581,1581,0,0,0,0,0,0,0,0,0,0
1683126829.49953699,66328458,1581,1580,1581,1581,0,0,0,0,0,0,0,0,0,0
1683126829.59949684,66428418,1580,1580,1581,1581,0,0,0,0,0,0,0,0,0,0
1683126829.69945693,66528378,1322,1325,1645,1654,0,0,0,0,0,0,0,0,0,0
1683126829.79941702,66628338,1400,1409,1656,1661,0,0,0,0,0,0,0,0,0,0
1683126829.89937687,66728298,1468,1480,1646,1641,0,0,0,0,0,0,0,0,0,0
1683126829.99933696,66828258,1525,1533,1641,1617,0,0,0,0,0,0,0,0,0,0
1683126830.09929681,66928218,1571,1567,1629,1609,0,0,0,0,0,0,0,0,0,0
1683126830.19925690,67028178,1600,1575,1588,1583,0,0,0,0,0,0,0,0,0,0
1683126830.30005002,67128971,1600,1576,1510,1527,0,0,0,0,0,0,0,0,0,0
1683126830.40000987,67228931,1600,1587,1475,1498,0,0,0,0,0,0,0,0,0,0
1683126830.49996996,67328891,1597,1600,1496,1509,0,0,0,0,0,0,0,0,0,0
1683126830.59992981,67428851,1589,1600,1515,1514,0,0,0,0,0,0,0,0,0,0
1683126830.69988990,67528811,1588,1600,1536,1528,0,0,0,0,0,0,0,0,0,0
1683126830.79984999,67628771,1592,1600,1555,1545,0,0,0,0,0,0,0,0,0,0
1683126830.89980984,67728731,1599,1600,1568,1562,0,0,0,0,0,0,0,0,0,0
1683126830.99976993,67828691,1600,1596,1571,1569,0,0,0,0,0,0,0,0,0,0
1683126831.09973001,67928651,1600,1594,1571,1574,0,0,0,0,0,0,0,0,0,0
1683126831.19968987,68028611,1600,1595,1574,1578,0,0,0,0,0,0,0,0,0,0
1683126831.29964995,68128571,1600,1598,1578,1582,0,0,0,0,0,0,0,0,0,0
1683126831.39960980,68228531,1599,1600,1582,1583,0,0,0,0,0,0,0,0,0,0
1683126831.49956989,68328491,1599,1600,1584,1583,0,0,0,0,0,0,0,0,0,0
1683126831.59952998,68428451,1599,1600,1586,1584,0,0,0,0,0,0,0,0,0,0
1683126831.69948983,68528411,1600,1599,1587,1585,0,0,0,0,0,0,0,0,0,0
1683126831.79944992,68628371,1600,1599,1587,1585,0,0,0,0,0,0,0,0,0,0
1683126831.89941001,68728331,1600,1599,1587,1585,0,0,0,0,0,0,0,0,0,0
1683126831.99936986,68828291,1600,1598,1586,1585,0,0,0,0,0,0,0,0,0,0
1683126832.09932995,68928251,1597,1595,1582,1581,0,0,0,0,0,0,0,0,0,0
1683126832.19929004,69028211,1591,1590,1573,1574,0,0,0,0,0,0,0,0,0,0
1683126832.29924989,69128171,1588,1588,1569,1571,0,0,0,0,0,0,0,0,0,0
1683126832.40004301,69228964,1584,1585,1566,1567,0,0,0,0,0,0,0,0,0,0
1683126832.50000286,69328924,1581,1584,1564,1564,0,0,0,0,0,0,0,0,0,0
1683126832.59996295,69428884,1578,1581,1562,1561,0,0,0,0,0,0,0,0,0,0
1683126832.69992304,69528844,1576,1580,1561,1559,0,0,0,0,0,0,0,0,0,0
1683126832.79988289,69628804,1576,1579,1561,1560,0,0,0,0,0,0,0,0,0,0
1683126832.89984298,69728764,1575,1578,1560,1559,0,0,0,0,0,0,0,0,0,0
1683126832.99980283,69828724,1575,1576,1560,1558,0,0,0,0,0,0,0,0,0,0
1683126833.09976292,69928684,1576,1577,1561,1561,0,0,0,0,0,0,0,0,0,0
1683126833.19972301,70028644,1576,1577,1561,1562,0,0,0,0,0,0,0,0,0,0
1683126833.29968286,70128604,1578,1579,1563,1565,0,0,0,0,0,0,0,0,0,0
1683126833.39964294,70228564,1579,1579,1564,1565,0,0,0,0,0,0,0,0,0,0
1683126833.49960303,70328524,1580,1581,1564,1567,0,0,0,0,0,0,0,0,0,0
1683126833.59956288,70428484,1581,1582,1565,1567,0,0,0,0,0,0,0,0,0,0
1683126833.69952297,70528444,1582,1584,1566,1567,0,0,0,0,0,0,0,0,0,0
1683126833.79948282,70628404,1584,1585,1567,1567,0,0,0,0,0,0,0,0,0,0
1683126833.89944291,70728364,1586,1586,1567,1568,0,0,0,0,0,0,0,0,0,0
1683126833.99940300,70828324,1588,1588,1569,1570,0,0,0,0,0,0,0,0,0,0
1683126834.09936285,70928284,1589,1589,1569,1570,0,0,0,0,0,0,0,0,0,0
1683126834.19932294,71028244,1589,1589,1569,1569,0,0,0,0,0,0,0,0,0,0
1683126834.29928303,71128204,1591,1590,1569,1570,0,0,0,0,0,0,0,0,0,0
1683126834.39924288,71228164,1592,1591,1570,1571,0,0,0,0,0,0,0,0,0,0
1683126834.50003600,71328957,1594,1593,1571,1572,0,0,0,0,0,0,0,0,0,0
1683126834.59999585,71428917,1645,1643,1558,1560,0,0,0,0,0,0,0,0,0,0
1683126834.69995594,71528877,1633,1633,1553,1554,0,0,0,0,0,0,0,0,0,0
1683126834.79991603,71628837,1624,1624,1553,1552,0,0,0,0,0,0,0,0,0,0
1683126834.89987588,71728797,1616,1616,1552,1551,0,0,0,0,0,0,0,0,0,0
1683126834.99983597,71828757,1610,1610,1553,1552,0,0,0,0,0,0,0,0,0,0
1683126835.09979582,71928717,1604,1604,1554,1551,0,0,0,0,0,0,0,0,0,0
1683126835.19975591,72028677,1601,1600,1555,1554,0,0,0,0,0,0,0,0,0,0
1683126835.29971600,72128637,1599,1597,1556,1555,0,0,0,0,0,0,0,0,0,0
1683126835.39967585,72228597,1597,1596,1558,1558,0,0,0,0,0,0,0,0,0,0
1683126835.49963593,72328557,1594,1594,1558,1558,0,0,0,0,0,0,0,0,0,0
1683126835.59959602,72428517,1593,1593,1559,1559,0,0,0,0,0,0,0,0,0,0
1683126835.69955587,72528477,1591,1591,1561,1561,0,0,0,0,0,0,0,0,0,0
1683126835.79951596,72628437,1591,1591,1564,1564,0,0,0,0,0,0,0,0,0,0
1683126835.89947581,72728397,1588,1588,1564,1564,0,0,0,0,0,0,0,0,0,0
1683126835.99943590,72828357,1587,1587,1566,1566,0,0,0,0,0,0,0,0,0,0
1683126836.09939599,72928317,1587,1587,1568,1568,0,0,0,0,0,0,0,0,0,0
1683126836.19935584,73028277,1585,1585,1569,1568,0,0,0,0,0,0,0,0,0,0
1683126836.29931593,73128237,1585,1585,1570,1570,0,0,0,0,0,0,0,0,0,0
1683126836.39927602,73228197,1584,1584,1571,1571,0,0,0,0,0,0,0,0,0,0
1683126836.49923587,73328157,1584,1585,1572,1572,0,0,0,0,0,0,0,0,0,0
1683126836.60002899,73428950,1584,1578,1577,1576,0,0,0,0,0,0,0,0,0,0
1683126836.69998884,73528910,1567,1557,1599,1598,0,0,0,0,0,0,0,0,0,0
1683126836.79994893,73628870,1547,1539,1618,1619,0,0,0,0,0,0,0,0,0,0
1683126836.89990902,73728830,1530,1529,1629,1631,0,0,0,0,0,0,0,0,0,0
1683126836.99986887,73828790,1518,1523,1636,1637,0,0,0,0,0,0,0,0,0,0
1683126837.09982896,73928750,1510,1521,1641,1642,0,0,0,0,0,0,0,0,0,0
1683126837.19978881,74028710,1510,1522,1639,1640,0,0,0,0,0,0,0,0,0,0
1683126837.29974890,74128670,1517,1527,1633,1633,0,0,0,0,0,0,0,0,0,0
1683126837.39970899,74228630,1529,1536,1622,1623,0,0,0,0,0,0,0,0,0,0
1683126837.49966884,74328590,1543,1547,1608,1608,0,0,0,0,0,0,0,0,0,0
1683126837.59962893,74428550,1560,1558,1594,1593,0,0,0,0,0,0,0,0,0,0
1683126837.69958901,74528510,1574,1570,1580,1578,0,0,0,0,0,0,0,0,0,0
1683126837.79954886,74628470,1587,1582,1571,1570,0,0,0,0,0,0,0,0,0,0
1683126837.89950895,74728430,1594,1589,1567,1562,0,0,0,0,0,0,0,0,0,0
1683126837.99946880,74828390,1599,1594,1569,1554,0,0,0,0,0,0,0,0,0,0
1683126838.09942889,74928350,1601,1596,1564,1555,0,0,0,0,0,0,0,0,0,0
1683126838.19938898,75028310,1599,1596,1555,1555,0,0,0,0,0,0,0,0,0,0
1683126838.29934883,75128270,1596,1595,1549,1555,0,0,0,0,0,0,0,0,0,0
1683126838.39930892,75228230,1592,1593,1547,1553,0,0,0,0,0,0,0,0,0,0
1683126838.49926901,75328190,1589,1591,1547,1551,0,0,0,0,0,0,0,0,0,0
1683126838.60006189,75428983,1586,1589,1549,1551,0,0,0,0,0,0,0,0,0,0
1683126838.70002198,75528943,1584,1587,1552,1551,0,0,0,0,0,0,0,0,0,0
1683126838.79998183,75628903,1582,1584,1555,1552,0,0,0,0,0,0,0,0,0,0
1683126838.89994192,75728863,1580,1582,1556,1553,0,0,0,0,0,0,0,0,0,0
1683126838.99990201,75828823,1580,1580,1557,1555,0,0,0,0,0,0,0,0,0,0
1683126839.09986186,75928783,1578,1577,1556,1556,0,0,0,0,0,0,0,0,0,0
1683126839.19982195,76028743,1576,1575,1555,1555,0,0,0,0,0,0,0,0,0,0
1683126839.29978204,76128703,1574,1574,1554,1555,0,0,0,0,0,0,0,0,0,0
1683126839.39974189,76228663,1572,1574,1553,1553,0,0,0,0,0,0,0,0,0,0
1683126839.49970198,76328623,1572,1574,1553,1552,0,0,0,0,0,0,0,0,0,0
1683126839.59966183,76428583,1572,1575,1552,1551,0,0,0,0,0,0,0,0,0,0
1683126839.69962192,76528543,1574,1575,1551,1550,0,0,0,0,0,0,0,0,0,0
1683126839.79958200,76628503,1575,1577,1549,1549,0,0,0,0,0,0,0,0,0,0
1683126839.89954185,76728463,1576,1577,1546,1546,0,0,0,0,0,0,0,0,0,0
1683126839.99950194,76828423,1579,1580,1546,1545,0,0,0,0,0,0,0,0,0,0
1683126840.09946203,76928383,1582,1582,1545,1545,0,0,0,0,0,0,0,0,0,0
1683126840.19942188,77028343,1584,1584,1544,1545,0,0,0,0,0,0,0,0,0,0
1683126840.29938197,77128303,1585,1584,1544,1544,0,0,0,0,0,0,0,0,0,0
1683126840.39934182,77228263,1585,1584,1543,1545,0,0,0,0,0,0,0,0,0,0
1683126840.49930191,77328223,1584,1584,1545,1547,0,0,0,0,0,0,0,0,0,0
1683126840.59926200,77428183,1583,1583,1547,1549,0,0,0,0,0,0,0,0,0,0
1683126840.70005488,77528976,1581,1581,1549,1552,0,0,0,0,0,0,0,0,0,0
1683126840.80001497,77628936,1579,1578,1554,1556,0,0,0,0,0,0,0,0,0,0
1683126840.89997482,77728896,1575,1574,1559,1561,0,0,0,0,0,0,0,0,0,0
1683126840.99993491,77828856,1571,1569,1566,1568,0,0,0,0,0,0,0,0,0,0
1683126841.09989500,77928816,1566,1563,1573,1575,0,0,0,0,0,0,0,0,0,0
1683126841.19985485,78028776,1560,1557,1581,1582,0,0,0,0,0,0,0,0,0,0
1683126841.29981494,78128736,1554,1552,1589,1589,0,0,0,0,0,0,0,0,0,0
1683126841.39977503,78228696,1547,1545,1596,1596,0,0,0,0,0,0,0,0,0,0
1683126841.49973488,78328656,1542,1542,1602,1601,0,0,0,0,0,0,0,0,0,0
1683126841.59969497,78428616,1539,1540,1605,1605,0,0,0,0,0,0,0,0,0,0
1683126841.69965482,78528576,1538,1540,1606,1605,0,0,0,0,0,0,0,0,0,0
1683126841.79961491,78628536,1540,1542,1604,1603,0,0,0,0,0,0,0,0,0,0
1683126841.89957500,78728496,1544,1546,1600,1600,0,0,0,0,0,0,0,0,0,0
1683126841.99953485,78828456,1550,1551,1595,1595,0,0,0,0,0,0,0,0,0,0
1683126842.09949493,78928416,1557,1558,1590,1589,0,0,0,0,0,0,0,0,0,0
1683126842.19945502,79028376,1564,1564,1585,1584,0,0,0,0,0,0,0,0,0,0
1683126842.29941487,79128336,1570,1570,1579,1578,0,0,0,0,0,0,0,0,0,0
1683126842.39937496,79228296,1577,1576,1575,1574,0,0,0,0,0,0,0,0,0,0
1683126842.49933481,79328256,1582,1581,1572,1572,0,0,0,0,0,0,0,0,0,0
1683126842.59929490,79428216,1585,1583,1569,1569,0,0,0,0,0,0,0,0,0,0
1683126842.69925499,79528176,1586,1585,1568,1568,0,0,0,0,0,0,0,0,0,0
1683126842.80004787,79628969,1587,1586,1569,1569,0,0,0,0,0,0,0,0,0,0
1683126842.90000796,79728929,1587,1586,1571,1571,0,0,0,0,0,0,0,0,0,0
1683126842.99996781,79828889,1585,1585,1571,1572,0,0,0,0,0,0,0,0,0,0
1683126843.09992790,79928849,1584,1584,1573,1574,0,0,0,0,0,0,0,0,0,0
1683126843.19988799,80028809,1584,1584,1577,1577,0,0,0,0,0,0,0,0,0,0
1683126843.29984784,80128769,1581,1581,1578,1577,0,0,0,0,0,0,0,0,0,0
1683126843.39980793,80228729,1580,1581,1580,1580,0,0,0,0,0,0,0,0,0,0
1683126843.49976802,80328689,1578,1579,1582,1581,0,0,0,0,0,0,0,0,0,0
1683126843.59972787,80428649,1577,1578,1583,1582,0,0,0,0,0,0,0,0,0,0
1683126843.69968796,80528609,1577,1577,1583,1584,0,0,0,0,0,0,0,0,0,0
1683126843.79964781,80628569,1576,1577,1584,1585,0,0,0,0,0,0,0,0,0,0
1683126843.89960790,80728529,1577,1577,1584,1585,0,0,0,0,0,0,0,0,0,0
1683126843.99956799,80828489,1576,1577,1584,1584,0,0,0,0,0,0,0,0,0,0
1683126844.09952784,80928449,1577,1578,1584,1584,0,0,0,0,0,0,0,0,0,0
1683126844.19948792,81028409,1578,1578,1583,1582,0,0,0,0,0,0,0,0,0,0
1683126844.29944801,81128369,1578,1578,1581,1581,0,0,0,0,0,0,0,0,0,0
1683126844.39940786,81228329,1579,1579,1580,1580,0,0,0,0,0,0,0,0,0,0
1683126844.49936795,81328289,1579,1579,1578,1579,0,0,0,0,0,0,0,0,0,0
1683126844.59932780,81428249,1581,1581,1580,1580,0,0,0,0,0,0,0,0,0,0
1683126844.69928789,81528209,1582,1582,1579,1579,0,0,0,0,0,0,0,0,0,0
1683126844.79924798,81628169,1582,1582,1578,1579,0,0,0,0,0,0,0,0,0,0
1683126844.90004086,81728962,1581,1581,1577,1577,0,0,0,0,0,0,0,0,0,0
1683126845.00000095,81828922,1582,1582,1578,1578,0,0,0,0,0,0,0,0,0,0
1683126845.09996080,81928882,1581,1581,1578,1578,0,0,0,0,0,0,0,0,0,0
1683126845.19992089,82028842,1581,1581,1578,1578,0,0,0,0,0,0,0,0,0,0
1683126845.29988098,82128802,1581,1581,1579,1579,0,0,0,0,0,0,0,0,0,0
1683126845.39984083,82228762,1580,1580,1579,1579,0,0,0,0,0,0,0,0,0,0
1683126845.49980092,82328722,1580,1580,1579,1579,0,0,0,0,0,0,0,0,0,0
1683126845.59976101,82428682,1580,1580,1580,1580,0,0,0,0,0,0,0,0,0,0
1683126845.69972086,82528642,1580,1580,1581,1581,0,0,0,0,0,0,0,0,0,0
1683126845.79968095,82628602,1580,1580,1581,1581,0,0,0,0,0,0,0,0,0,0
1683126845.89964104,82728562,1580,1579,1581,1581,0,0,0,0,0,0,0,0,0,0
1683126845.99960089,82828522,1580,1580,1581,1581,0,0,0,0,0,0,0,0,0,0
1683126846.09956098,82928482,1580,1580,1581,1582,0,0,0,0,0,0,0,0,0,0
1683126846.19952083,83028442,1580,1581,1585,1578,0,0,0,0,0,0,0,0,0,0
1683126846.29948092,83128402,1580,1579,1588,1573,0,0,0,0,0,0,0,0,0,0
1683126846.39944100,83228362,1580,1579,1583,1575,0,0,0,0,0,0,0,0,0,0
1683126846.49940085,83328322,1577,1577,1575,1576,0,0,0,0,0,0,0,0,0,0
1683126846.59936094,83428282,1575,1574,1569,1575,0,0,0,0,0,0,0,0,0,0
1683126846.69932103,83528242,1572,1572,1566,1572,0,0,0,0,0,0,0,0,0,0
1683126846.79928088,83628202,1569,1570,1564,1569,0,0,0,0,0,0,0,0,0,0
1683126846.89924097,83728162,1568,1569,1565,1568,0,0,0,0,0,0,0,0,0,0
1683126847.00003386,83828955,1567,1568,1566,1565,0,0,0,0,0,0,0,0,0,0
1683126847.09999394,83928915,1566,1567,1567,1565,0,0,0,0,0,0,0,0,0,0
1683126847.19995403,84028875,1566,1565,1567,1564,0,0,0,0,0,0,0,0,0,0
1683126847.29991388,84128835,1565,1565,1566,1565,0,0,0,0,0,0,0,0,0,0
1683126847.39987397,84228795,1564,1564,1566,1564,0,0,0,0,0,0,0,0,0,0
1683126847.49983382,84328755,1563,1563,1565,1564,0,0,0,0,0,0,0,0,0,0
1683126847.59979391,84428715,1563,1563,1564,1564,0,0,0,0,0,0,0,0,0,0
1683126847.69975400,84528675,1562,1562,1563,1564,0,0,0,0,0,0,0,0,0,0
1683126847.79971385,84628635,1562,1561,1563,1563,0,0,0,0,0,0,0,0,0,0
1683126847.89967394,84728595,1561,1561,1562,1562,0,0,0,0,0,0,0,0,0,0
1683126847.99963403,84828555,1560,1561,1562,1561,0,0,0,0,0,0,0,0,0,0
1683126848.09959388,84928515,1560,1561,1561,1561,0,0,0,0,0,0,0,0,0,0
1683126848.19955397,85028475,1561,1560,1562,1560,0,0,0,0,0,0,0,0,0,0
1683126848.29951382,85128435,1561,1560,1561,1560,0,0,0,0,0,0,0,0,0,0
1683126848.39947391,85228395,1560,1560,1560,1560,0,0,0,0,0,0,0,0,0,0
1683126848.49943399,85328355,1560,1560,1560,1559,0,0,0,0,0,0,0,0,0,0
1683126848.59939384,85428315,1560,1560,1560,1559,0,0,0,0,0,0,0,0,0,0
1683126848.69935393,85528275,1560,1560,1560,1559,0,0,0,0,0,0,0,0,0,0
1683126848.79931402,85628235,1560,1560,1560,1558,0,0,0,0,0,0,0,0,0,0
1683126848.89927387,85728195,1560,1559,1560,1557,0,0,0,0,0,0,0,0,0,0
1683126848.99923396,85828155,1560,1559,1561,1558,0,0,0,0,0,0,0,0,0,0
1683126849.10002685,85928948,1560,1559,1559,1560,0,0,0,0,0,0,0,0,0,0
1683126849.19998693,86028908,1561,1560,1559,1563,0,0,0,0,0,0,0,0,0,0
1683126849.29994702,86128868,1560,1561,1557,1564,0,0,0,0,0,0,0,0,0,0
1683126849.39990687,86228828,1560,1561,1558,1564,0,0,0,0,0,0,0,0,0,0
1683126849.49986696,86328788,1561,1562,1560,1564,0,0,0,0,0,0,0,0,0,0
1683126849.59982681,86428748,1560,1561,1561,1561,0,0,0,0,0,0,0,0,0,0
1683126849.69978690,86528708,1560,1560,1561,1558,0,0,0,0,0,0,0,0,0,0
1683126849.79974699,86628668,1560,1560,1562,1557,0,0,0,0,0,0,0,0,0,0
1683126849.89970684,86728628,1561,1560,1561,1558,0,0,0,0,0,0,0,0,0,0
1683126849.99966693,86828588,1560,1559,1556,1562,0,0,0,0,0,0,0,0,0,0
1683126850.09962702,86928548,1556,1556,1551,1558,0,0,0,0,0,0,0,0,0,0
1683126850.19958687,87028508,1553,1553,1549,1552,0,0,0,0,0,0,0,0,0,0
1683126850.29954696,87128468,1547,1548,1543,1544,0,0,0,0,0,0,0,0,0,0
1683126850.39950681,87228428,1542,1542,1538,1537,0,0,0,0,0,0,0,0,0,0
1683126850.49946690,87328388,1535,1535,1530,1529,0,0,0,0,0,0,0,0,0,0
1683126850.59942698,87428348,1527,1528,1523,1521,0,0,0,0,0,0,0,0,0,0
1683126850.69938684,87528308,1523,1523,1519,1518,0,0,0,0,0,0,0,0,0,0
1683126850.79934692,87628268,1521,1520,1519,1519,0,0,0,0,0,0,0,0,0,0
1683126850.89930701,87728228,1520,1519,1520,1521,0,0,0,0,0,0,0,0,0,0
1683126850.99926686,87828188,1520,1519,1523,1524,0,0,0,0,0,0,0,0,0,0
1683126851.10005999,87928981,1522,1521,1527,1528,0,0,0,0,0,0,0,0,0,0
1683126851.20001984,88028941,1524,1524,1532,1532,0,0,0,0,0,0,0,0,0,0
1683126851.29997993,88128901,1528,1528,1537,1537,0,0,0,0,0,0,0,0,0,0
1683126851.39994001,88228861,1532,1532,1540,1540,0,0,0,0,0,0,0,0,0,0
1683126851.49989986,88328821,1535,1536,1543,1543,0,0,0,0,0,0,0,0,0,0
1683126851.59985995,88428781,1539,1539,1544,1544,0,0,0,0,0,0,0,0,0,0
1683126851.69981980,88528741,1542,1542,1545,1545,0,0,0,0,0,0,0,0,0,0
1683126851.79977989,88628701,1544,1544,1545,1545,0,0,0,0,0,0,0,0,0,0
1683126851.89973998,88728661,1546,1546,1545,1544,0,0,0,0,0,0,0,0,0,0
1683126851.99969983,88828621,1547,1547,1545,1544,0,0,0,0,0,0,0,0,0,0
1683126852.09965992,88928581,1548,1548,1543,1543,0,0,0,0,0,0,0,0,0,0
1683126852.19962001,89028541,1550,1550,1545,1545,0,0,0,0,0,0,0,0,0,0
1683126852.29957986,89128501,1550,1550,1544,1544,0,0,0,0,0,0,0,0,0,0
1683126852.39953995,89228461,1549,1549,1543,1543,0,0,0,0,0,0,0,0,0,0
1683126852.49950004,89328421,1549,1548,1545,1544,0,0,0,0,0,0,0,0,0,0
1683126852.59945989,89428381,1548,1548,1545,1545,0,0,0,0,0,0,0,0,0,0
1683126852.69941998,89528341,1548,1547,1545,1545,0,0,0,0,0,0,0,0,0,0
1683126852.79937983,89628301,1547,1547,1545,1545,0,0,0,0,0,0,0,0,0,0
1683126852.89933991,89728261,1545,1545,1545,1544,0,0,0,0,0,0,0,0,0,0
1683126852.99930000,89828221,1545,1545,1546,1546,0,0,0,0,0,0,0,0,0,0
1683126853.09925985,89928181,1544,1545,1546,1546,0,0,0,0,0,0,0,0,0,0
1683126853.20005298,90028974,1543,1543,1544,1545,0,0,0,0,0,0,0,0,0,0
1683126853.30001283,90128934,1543,1543,1545,1545,0,0,0,0,0,0,0,0,0,0
1683126853.39997292,90228894,1543,1543,1545,1545,0,0,0,0,0,0,0,0,0,0
1683126853.49993300,90328854,1543,1543,1545,1545,0,0,0,0,0,0,0,0,0,0
1683126853.59989285,90428814,1543,1543,1545,1545,0,0,0,0,0,0,0,0,0,0
1683126853.69985294,90528774,1543,1543,1545,1545,0,0,0,0,0,0,0,0,0,0
1683126853.79981303,90628734,1543,1543,1544,1544,0,0,0,0,0,0,0,0,0,0
1683126853.89977288,90728694,1544,1543,1544,1543,0,0,0,0,0,0,0,0,0,0
1683126853.99973297,90828654,1543,1543,1543,1543,0,0,0,0,0,0,0,0,0,0
1683126854.09969282,90928614,1544,1544,1544,1544,0,0,0,0,0,0,0,0,0,0
1683126854.19965291,91028574,1544,1545,1543,1544,0,0,0,0,0,0,0,0,0,0
1683126854.29961300,91128534,1544,1545,1543,1543,0,0,0,0,0,0,0,0,0,0
1683126854.39957285,91228494,1544,1544,1543,1543,0,0,0,0,0,0,0,0,0,0
1683126854.49953294,91328454,1544,1544,1543,1544,0,0,0,0,0,0,0,0,0,0
1683126854.59949303,91428414,1544,1544,1544,1544,0,0,0,0,0,0,0,0,0,0
1683126854.69945288,91528374,1545,1544,1544,1544,0,0,0,0,0,0,0,0,0,0
1683126854.79941297,91628334,1544,1544,1543,1543,0,0,0,0,0,0,0,0,0,0
1683126854.89937282,91728294,1545,1544,1544,1544,0,0,0,0,0,0,0,0,0,0
1683126854.99933290,91828254,1544,1543,1544,1544,0,0,0,0,0,0,0,0,0,0
1683126855.09929299,91928214,1544,1543,1544,1543,0,0,0,0,0,0,0,0,0,0
1683126855.19925284,92028174,1543,1544,1544,1544,0,0,0,0,0,0,0,0,0,0
1683126855.30004597,92128967,1543,1544,1544,1544,0,0,0,0,0,0,0,0,0,0
1683126855.40000582,92228927,1544,1545,1544,1544,0,0,0,0,0,0,0,0,0,0
1683126855.49996591,92328887,1544,1544,1544,1545,0,0,0,0,0,0,0,0,0,0
1683126855.59992599,92428847,1544,1544,1544,1544,0,0,0,0,0,0,0,0,0,0
1683126855.69988585,92528807,1543,1543,1543,1543,0,0,0,0,0,0,0,0,0,0
1683126855.79984593,92628767,1544,1544,1544,1544,0,0,0,0,0,0,0,0,0,0
1683126855.89980602,92728727,1544,1543,1543,1543,0,0,0,0,0,0,0,0,0,0
1683126855.99976587,92828687,1544,1544,1544,1544,0,0,0,0,0,0,0,0,0,0
1683126856.09972596,92928647,1544,1544,1545,1544,0,0,0,0,0,0,0,0,0,0
1683126856.19968581,93028607,1544,1544,1544,1544,0,0,0,0,0,0,0,0,0,0
1683126856.29964590,93128567,1544,1544,1544,1544,0,0,0,0,0,0,0,0,0,0
1683126856.39960599,93228527,1545,1545,1545,1545,0,0,0,0,0,0,0,0,0,0
1683126856.49956584,93328487,1545,1544,1544,1544,0,0,0,0,0,0,0,0,0,0
1683126856.59952593,93428447,1544,1544,1544,1543,0,0,0,0,0,0,0,0,0,0
1683126856.69948602,93528407,1544,1544,1544,1544,0,0,0,0,0,0,0,0,0,0
1683126856.79944587,93628367,1544,1545,1544,1544,0,0,0,0,0,0,0,0,0,0
1683126856.89940596,93728327,1543,1544,1543,1543,0,0,0,0,0,0,0,0,0,0
1683126856.99936581,93828287,1544,1544,1544,1544,0,0,0,0,0,0,0,0,0,0
1683126857.09932590,93928247,1544,1544,1544,1544,0,0,0,0,0,0,0,0,0,0
1683126857.19928598,94028207,1544,1543,1543,1543,0,0,0,0,0,0,0,0,0,0
1683126857.29924583,94128167,1544,1543,1543,1543,0,0,0,0,0,0,0,0,0,0
1683126857.40003896,94228960,1544,1544,1544,1544,0,0,0,0,0,0,0,0,0,0
1683126857.49999881,94328920,1544,1544,1544,1544,0,0,0,0,0,0,0,0,0,0
1683126857.59995890,94428880,1544,1545,1545,1544,0,0,0,0,0,0,0,0,0,0
1683126857.69991899,94528840,1544,1544,1544,1544,0,0,0,0,0,0,0,0,0,0
1683126857.79987884,94628800,1544,1544,1544,1544,0,0,0,0,0,0,0,0,0,0
1683126857.89983892,94728760,1544,1544,1545,1545,0,0,0,0,0,0,0,0,0,0
1683126857.99979901,94828720,1544,1544,1544,1544,0,0,0,0,0,0,0,0,0,0
1683126858.09975886,94928680,1544,1544,1543,1544,0,0,0,0,0,0,0,0,0,0
1683126858.19971895,95028640,1543,1543,1543,1543,0,0,0,0,0,0,0,0,0,0
1683126858.29967880,95128600,1544,1544,1544,1544,0,0,0,0,0,0,0,0,0,0
1683126858.39963889,95228560,1544,1544,1544,1545,0,0,0,0,0,0,0,0,0,0
1683126858.49959898,95328520,1544,1544,1544,1544,0,0,0,0,0,0,0,0,0,0
1683126858.59955883,95428480,1544,1544,1544,1544,0,0,0,0,0,0,0,0,0,0
1683126858.69951892,95528440,1545,1545,1545,1544,0,0,0,0,0,0,0,0,0,0
1683126858.79947901,95628400,1544,1545,1545,1545,0,0,0,0,0,0,0,0,0,0
1683126858.89943886,95728360,1545,1545,1545,1544,0,0,0,0,0,0,0,0,0,0
1683126858.99939895,95828320,1544,1544,1544,1544,0,0,0,0,0,0,0,0,0,0
1683126859.09935904,95928280,1544,1544,1544,1544,0,0,0,0,0,0,0,0,0,0
1683126859.19931889,96028240,1544,1544,1544,1544,0,0,0,0,0,0,0,0,0,0
1683126859.29927897,96128200,1544,1544,1544,1545,0,0,0,0,0,0,0,0,0,0
1683126859.39923882,96228160,1544,1544,1544,1544,0,0,0,0,0,0,0,0,0,0
1683126859.50003195,96328953,1544,1544,1544,1544,0,0,0,0,0,0,0,0,0,0
1683126859.59999204,96428913,1544,1544,1544,1544,0,0,0,0,0,0,0,0,0,0
1683126859.69995189,96528873,1544,1544,1544,1544,0,0,0,0,0,0,0,0,0,0
1683126859.79991198,96628833,1545,1545,1545,1544,0,0,0,0,0,0,0,0,0,0
1683126859.89987183,96728793,1544,1544,1544,1544,0,0,0,0,0,0,0,0,0,0
1683126859.99983191,96828753,1544,1544,1544,1544,0,0,0,0,0,0,0,0,0,0
1683126860.09979200,96928713,1544,1544,1544,1544,0,0,0,0,0,0,0,0,0,0
1683126860.19975185,97028673,1544,1544,1544,1544,0,0,0,0,0,0,0,0,0,0
1683126860.29971194,97128633,1544,1543,1543,1544,0,0,0,0,0,0,0,0,0,0
1683126860.39967203,97228593,1528,1528,1521,1522,0,0,0,0,0,0,0,0,0,0
1683126860.49963188,97328553,1402,1401,1334,1335,0,0,0,0,0,0,0,0,0,0
1683126860.59959197,97428513,1347,1346,1240,1241,0,0,0,0,0,0,0,0,0,0
1683126860.69955182,97528473,1331,1330,1212,1213,0,0,0,0,0,0,0,0,0,0
1683126860.79951191,97628433,1320,1320,1191,1192,0,0,0,0,0,0,0,0,0,0
1683126860.89947200,97728393,1300,1299,1150,1152,0,0,0,0,0,0,0,0,0,0
1683126860.99943185,97828353,1225,1224,1150,1151,0,0,0,0,0,0,0,0,0,0
1683126861.09939194,97928313,1121,1120,1150,1152,0,0,0,0,0,0,0,0,0,0
1683126861.19935203,98028273,1033,1032,1150,1151,0,0,0,0,0,0,0,0,0,0
1683126861.29931188,98128233,1033,1031,1150,1151,0,0,0,0,0,0,0,0,0,0
1683126861.39927197,98228193,1033,1032,1150,1151,0,0,0,0,0,0,0,0,0,0
1683126861.50006485,98328986,1033,1020,1150,1166,0,0,0,0,0,0,0,0,0,0
1683126861.60002494,98428946,1033,1022,1150,1165,0,0,0,0,0,0,0,0,0,0
1683126861.69998503,98528906,1033,1025,1150,1160,0,0,0,0,0,0,0,0,0,0
1683126861.79994488,98628866,1033,1026,1150,1159,0,0,0,0,0,0,0,0,0,0
1683126861.89990497,98728826,1033,1026,1150,1159,0,0,0,0,0,0,0,0,0,0
1683126861.99986482,98828786,1033,1026,1150,1159,0,0,0,0,0,0,0,0,0,0
1683126862.09982491,98928746,1033,1025,1150,1160,0,0,0,0,0,0,0,0,0,0
1683126862.19978499,99028706,1033,1025,1150,1160,0,0,0,0,0,0,0,0,0,0
1683126862.29974484,99128666,1032,1033,1151,1150,0,0,0,0,0,0,0,0,0,0
1683126862.39970493,99228626,1033,1032,1150,1151,0,0,0,0,0,0,0,0,0,0
1683126862.49966502,99328586,1033,1031,1150,1152,0,0,0,0,0,0,0,0,0,0
1683126862.59962487,99428546,1033,1031,1150,1152,0,0,0,0,0,0,0,0,0,0
1683126862.69958496,99528506,1033,1031,1150,1152,0,0,0,0,0,0,0,0,0,0
1683126862.79954481,99628466,1000,1000,1000,1000,0,0,0,0,0,0,0,0,0,0
1683126862.89950490,99728426,1000,1000,1000,1000,0,0,0,0,0,0,0,0,0,0
1683126862.99946499,99828386,1000,1000,1000,1000,0,0,0,0,0,0,0,0,0,0
1683126863.09942484,99928346,1000,1000,1000,1000,0,0,0,0,0,0,0,0,0,0
1683126863.19938493,100028306,1000,1000,1000,1000,0,0,0,0,0,0,0,0,0,0
1683126863.29934502,100128266,1000,1000,1000,1000,0,0,0,0,0,0,0,0,0,0
1683126863.39930487,100228226,1000,1000,1000,1000,0,0,0,0,0,0,0,0,0,0
1683126863.49926496,100328186,1000,1000,1000,1000,0,0,0,0,0,0,0,0,0,0
1683126863.60005784,100428979,1000,1000,1000,1000,0,0,0,0,0,0,0,0,0,0
1683126863.70001793,100528939,1000,1000,1000,1000,0,0,0,0,0,0,0,0,0,0
1683126863.79997802,100628899,1000,1000,1000,1000,0,0,0,0,0,0,0,0,0,0
1683126863.89993787,100728859,1000,1000,1000,1000,0,0,0,0,0,0,0,0,0,0
1683126863.99989796,100828819,1000,1000,1000,1000,0,0,0,0,0,0,0,0,0,0
1683126864.09985781,100928779,1000,1000,1000,1000,0,0,0,0,0,0,0,0,0,0
1683126864.19981790,101028739,1000,1000,1000,1000,0,0,0,0,0,0,0,0,0,0
1683126864.29977798,101128699,1000,1000,1000,1000,0,0,0,0,0,0,0,0,0,0
1683126864.39973783,101228659,1000,1000,1000,1000,0,0,0,0,0,0,0,0,0,0
1683126864.49969792,101328619,1000,1000,1000,1000,0,0,0,0,0,0,0,0,0,0
1683126864.59965801,101428579,1000,1000,1000,1000,0,0,0,0,0,0,0,0,0,0
1683126864.69961786,101528539,1000,1000,1000,1000,0,0,0,0,0,0,0,0,0,0
1683126864.79957795,101628499,1000,1000,1000,1000,0,0,0,0,0,0,0,0,0,0
1683126864.89953780,101728459,1000,1000,1000,1000,0,0,0,0,0,0,0,0,0,0
1683126864.99949789,101828419,1000,1000,1000,1000,0,0,0,0,0,0,0,0,0,0
1683126865.09945798,101928379,1000,1000,1000,1000,0,0,0,0,0,0,0,0,0,0
1683126865.19941783,102028339,1000,1000,1000,1000,0,0,0,0,0,0,0,0,0,0
1683126865.29937792,102128299,1000,1000,1000,1000,0,0,0,0,0,0,0,0,0,0
1683126865.39933801,102228259,1000,1000,1000,1000,0,0,0,0,0,0,0,0,0,0
1683126865.49929786,102328219,1000,1000,1000,1000,0,0,0,0,0,0,0,0,0,0
1683126865.59925795,102428179,1000,1000,1000,1000,0,0,0,0,0,0,0,0,0,0
1683126865.70005083,102528972,1000,1000,1000,1000,0,0,0,0,0,0,0,0,0,0
1683126865.80001092,102628932,1000,1000,1000,1000,0,0,0,0,0,0,0,0,0,0
1683126865.89997101,102728892,1000,1000,1000,1000,0,0,0,0,0,0,0,0,0,0
1683126865.99993086,102828852,1000,1000,1000,1000,0,0,0,0,0,0,0,0,0,0
1683126866.09989095,102928812,1000,1000,1000,1000,0,0,0,0,0,0,0,0,0,0
1683126866.19985104,103028772,1000,1000,1000,1000,0,0,0,0,0,0,0,0,0,0
1683126866.29981089,103128732,1000,1000,1000,1000,0,0,0,0,0,0,0,0,0,0
1683126866.39977098,103228692,1000,1000,1000,1000,0,0,0,0,0,0,0,0,0,0
1683126866.49973083,103328652,1000,1000,1000,1000,0,0,0,0,0,0,0,0,0,0
1683126866.59969091,103428612,1000,1000,1000,1000,0,0,0,0,0,0,0,0,0,0
1683126866.69965100,103528572,1000,1000,1000,1000,0,0,0,0,0,0,0,0,0,0
1683126866.79961085,103628532,1000,1000,1000,1000,0,0,0,0,0,0,0,0,0,0
1683126866.89957094,103728492,1000,1000,1000,1000,0,0,0,0,0,0,0,0,0,0
1683126866.99953103,103828452,1000,1000,1000,1000,0,0,0,0,0,0,0,0,0,0
1683126867.09949088,103928412,1000,1000,1000,1000,0,0,0,0,0,0,0,0,0,0
1683126867.19945097,104028372,1000,1000,1000,1000,0,0,0,0,0,0,0,0,0,0
1683126867.29941082,104128332,1000,1000,1000,1000,0,0,0,0,0,0,0,0,0,0
1683126867.39937091,104228292,1000,1000,1000,1000,0,0,0,0,0,0,0,0,0,0
1683126867.49933100,104328252,1000,1000,1000,1000,0,0,0,0,0,0,0,0,0,0
1683126867.59929085,104428212,1000,1000,1000,1000,0,0,0,0,0,0,0,0,0,0
1683126867.69925094,104528172,1000,1000,1000,1000,0,0,0,0,0,0,0,0,0,0
1683126867.80004382,104628965,1000,1000,1000,1000,0,0,0,0,0,0,0,0,0,0
1683126867.90000391,104728925,1000,1000,1000,1000,0,0,0,0,0,0,0,0,0,0
1683126867.99996400,104828885,1000,1000,1000,1000,0,0,0,0,0,0,0,0,0,0
1683126868.09992385,104928845,1000,1000,1000,1000,0,0,0,0,0,0,0,0,0,0
1683126868.19988394,105028805,1000,1000,1000,1000,0,0,0,0,0,0,0,0,0,0
1683126868.29984403,105128765,1000,1000,1000,1000,0,0,0,0,0,0,0,0,0,0
1683126868.39980388,105228725,1000,1000,1000,1000,0,0,0,0,0,0,0,0,0,0
1683126868.49976397,105328685,1000,1000,1000,1000,0,0,0,0,0,0,0,0,0,0
1683126868.59972382,105428645,1000,1000,1000,1000,0,0,0,0,0,0,0,0,0,0
1683126868.69968390,105528605,1000,1000,1000,1000,0,0,0,0,0,0,0,0,0,0
1683126868.79964399,105628565,1000,1000,1000,1000,0,0,0,0,0,0,0,0,0,0
1683126868.89960384,105728525,1000,1000,1000,1000,0,0,0,0,0,0,0,0,0,0
1683126868.99956393,105828485,1000,1000,1000,1000,0,0,0,0,0,0,0,0,0,0
1683126869.09952402,105928445,1000,1000,1000,1000,0,0,0,0,0,0,0,0,0,0
1683126869.19948387,106028405,1000,1000,1000,1000,0,0,0,0,0,0,0,0,0,0
1683126869.29944396,106128365,1000,1000,1000,1000,0,0,0,0,0,0,0,0,0,0
1683126869.39940381,106228325,1000,1000,1000,1000,0,0,0,0,0,0,0,0,0,0
1683126869.49936390,106328285,1000,1000,1000,1000,0,0,0,0,0,0,0,0,0,0
1683126869.59932399,106428245,1000,1000,1000,1000,0,0,0,0,0,0,0,0,0,0
1683126869.69928384,106528205,1000,1000,1000,1000,0,0,0,0,0,0,0,0,0,0
1683126869.79924393,106628165,1000,1000,1000,1000,0,0,0,0,0,0,0,0,0,0
1683126869.90003681,106728958,1000,1000,1000,1000,0,0,0,0,0,0,0,0,0,0
1683126869.99999690,106828918,1000,1000,1000,1000,0,0,0,0,0,0,0,0,0,0
1683126870.09995699,106928878,1000,1000,1000,1000,0,0,0,0,0,0,0,0,0,0
1683126870.19991684,107028838,1000,1000,1000,1000,0,0,0,0,0,0,0,0,0,0
1683126870.29987693,107128798,1000,1000,1000,1000,0,0,0,0,0,0,0,0,0,0
1683126870.39983702,107228758,1000,1000,1000,1000,0,0,0,0,0,0,0,0,0,0
1683126870.49979687,107328718,1000,1000,1000,1000,0,0,0,0,0,0,0,0,0,0
1683126870.59975696,107428678,1000,1000,1000,1000,0,0,0,0,0,0,0,0,0,0
1683126870.69971681,107528638,1000,1000,1000,1000,0,0,0,0,0,0,0,0,0,0
1683126870.79967690,107628598,1000,1000,1000,1000,0,0,0,0,0,0,0,0,0,0
1683126870.89963698,107728558,1000,1000,1000,1000,0,0,0,0,0,0,0,0,0,0
1683126870.99959683,107828518,1000,1000,1000,1000,0,0,0,0,0,0,0,0,0,0
1683126871.09955692,107928478,1000,1000,1000,1000,0,0,0,0,0,0,0,0,0,0
1683126871.19951701,108028438,1000,1000,1000,1000,0,0,0,0,0,0,0,0,0,0
1683126871.29947686,108128398,1000,1000,1000,1000,0,0,0,0,0,0,0,0,0,0
1683126871.39943695,108228358,1000,1000,1000,1000,0,0,0,0,0,0,0,0,0,0
1683126871.49939704,108328318,1000,1000,1000,1000,0,0,0,0,0,0,0,0,0,0
1683126871.59935689,108428278,1000,1000,1000,1000,0,0,0,0,0,0,0,0,0,0
1683126871.69931698,108528238,1000,1000,1000,1000,0,0,0,0,0,0,0,0,0,0
1683126871.79927683,108628198,1000,1000,1000,1000,0,0,0,0,0,0,0,0,0,0
1683126871.89923692,108728158,1000,1000,1000,1000,0,0,0,0,0,0,0,0,0,0
1683126872.00002980,108828951,1000,1000,1000,1000,0,0,0,0,0,0,0,0,0,0
1683126872.09998989,108928911,1000,1000,1000,1000,0,0,0,0,0,0,0,0,0,0
1683126872.19994998,109028871,1000,1000,1000,1000,0,0,0,0,0,0,0,0,0,0
1683126872.29990983,109128831,1000,1000,1000,1000,0,0,0,0,0,0,0,0,0,0
1683126872.39986992,109228791,1000,1000,1000,1000,0,0,0,0,0,0,0,0,0,0
1683126872.49983001,109328751,1000,1000,1000,1000,0,0,0,0,0,0,0,0,0,0
1683126872.59978986,109428711,1000,1000,1000,1000,0,0,0,0,0,0,0,0,0,0
1683126872.69974995,109528671,1000,1000,1000,1000,0,0,0,0,0,0,0,0,0,0
1683126872.79971004,109628631,1000,1000,1000,1000,0,0,0,0,0,0,0,0,0,0
1683126872.89966989,109728591,1000,1000,1000,1000,0,0,0,0,0,0,0,0,0,0
1683126872.99962997,109828551,1000,1000,1000,1000,0,0,0,0,0,0,0,0,0,0
1683126873.09958982,109928511,1000,1000,1000,1000,0,0,0,0,0,0,0,0,0,0
1683126873.19954991,110028471,1000,1000,1000,1000,0,0,0,0,0,0,0,0,0,0
1683126873.29951000,110128431,1000,1000,1000,1000,0,0,0,0,0,0,0,0,0,0
1683126873.39946985,110228391,1000,1000,1000,1000,0,0,0,0,0,0,0,0,0,0
1683126873.49942994,110328351,1000,1000,1000,1000,0,0,0,0,0,0,0,0,0,0
1683126873.59939003,110428311,1000,1000,1000,1000,0,0,0,0,0,0,0,0,0,0
1683126873.69934988,110528271,1000,1000,1000,1000,0,0,0,0,0,0,0,0,0,0
1683126873.79930997,110628231,1000,1000,1000,1000,0,0,0,0,0,0,0,0,0,0
1683126873.89926982,110728191,1000,1000,1000,1000,0,0,0,0,0,0,0,0,0,0
1683126874.00006294,110828984,1000,1000,1000,1000,0,0,0,0,0,0,0,0,0,0
1683126874.10002303,110928944,1000,1000,1000,1000,0,0,0,0,0,0,0,0,0,0
1683126874.19998288,111028904,1000,1000,1000,1000,0,0,0,0,0,0,0,0,0,0
1683126874.29994297,111128864,1000,1000,1000,1000,0,0,0,0,0,0,0,0,0,0
