TimeUS,M1,M2,M3,M4,TimeUS,C1,C2,C3,C4
59813565,1000,1000,1000,1000,59828559,1000,1000,1000,1000
59816064,1000,1000,1000,1000,59928519,1000,1000,1000,1000
59818563,1000,1000,1000,1000,60028479,1000,1000,1000,1000
59821062,1000,1000,1000,1000,60128439,1000,1000,1000,1000
59823561,1000,1000,1000,1000,60228399,1000,1000,1000,1000
59826060,1000,1000,1000,1000,60328359,1000,1000,1000,1000
59828559,1000,1000,1000,1000,60428319,1000,1000,1000,1000
59831058,1000,1000,1000,1000,60528279,1000,1000,1000,1000
59833557,1000,1000,1000,1000,60628239,1000,1000,1000,1000
59836056,1000,1000,1000,1000,60728199,1000,1000,1000,1000
59838555,1000,1000,1000,1000,60828159,1000,1000,1000,1000
59841054,1000,1000,1000,1000,60928952,1000,1000,1000,1000
59843553,1000,1000,1000,1000,61028912,1000,1000,1000,1000
59846052,1000,1000,1000,1000,61128872,1000,1000,1000,1000
59848551,1000,1000,1000,1000,61228832,1000,1000,1000,1000
59851050,1000,1000,1000,1000,61328792,1000,1000,1000,1000
59853549,1000,1000,1000,1000,61428752,1000,1000,1000,1000
59856048,1000,1000,1000,1000,61528712,1000,1000,1000,1000
59858547,1000,1000,1000,1000,61628672,1000,1000,1000,1000
59861046,1000,1000,1000,1000,61728632,1000,1000,1000,1000
59863545,1000,1000,1000,1000,61828592,1004,1004,1004,1004
59866044,1000,1000,1000,1000,61928552,1034,1034,1034,1034
59868543,1000,1000,1000,1000,62028512,1064,1064,1064,1064
59871042,1000,1000,1000,1000,62128472,1094,1094,1094,1094
59873541,1000,1000,1000,1000,62228432,1124,1124,1124,1124
59876040,1000,1000,1000,1000,62328392,1193,1184,1185,1194
59878539,1000,1000,1000,1000,62428352,1430,1424,1424,1430
59881038,1000,1000,1000,1000,62528312,1603,1597,1598,1603
59883537,1000,1000,1000,1000,62628272,1747,1742,1742,1747
59886036,1000,1000,1000,1000,62728232,1872,1867,1867,1873
59888535,1000,1000,1000,1000,62828192,1897,1893,1893,1897
59891034,1000,1000,1000,1000,62928985,1793,1792,1791,1794
59893533,1000,1000,1000,1000,63028945,1671,1672,1669,1674
59896032,1000,1000,1000,1000,63128905,1620,1621,1619,1622
59898531,1000,1000,1000,1000,63228865,1617,1619,1618,1618
59901030,1000,1000,1000,1000,63328825,1624,1626,1626,1624
59903529,1000,1000,1000,1000,63428785,1627,1628,1629,1626
59906028,1000,1000,1000,1000,63528745,1622,1622,1623,1621
59908527,1000,1000,1000,1000,63628705,1618,1618,1618,1618
59911026,1000,1000,1000,1000,63728665,1616,1615,1615,1615
59913525,1000,1000,1000,1000,63828625,1615,1614,1614,1614
59916024,1000,1000,1000,1000,63928585,1616,1615,1616,1615
59918523,1000,1000,1000,1000,64028545,1618,1618,1618,1617
59921022,1000,1000,1000,1000,64128505,1598,1598,1602,1594
59923521,1000,1000,1000,1000,64228465,1578,1579,1586,1571
59926020,1000,1000,1000,1000,64328425,1565,1566,1569,1563
59928519,1000,1000,1000,1000,64428385,1557,1557,1556,1558
59931018,1000,1000,1000,1000,64528345,1550,1549,1543,1556
59933517,1000,1000,1000,1000,64628305,1543,1542,1533,1551
59936016,1000,1000,1000,1000,64728265,1536,1536,1529,1543
59938515,1000,1000,1000,1000,64828225,1531,1530,1527,1533
59941014,1000,1000,1000,1000,64928185,1528,1528,1527,1528
59943513,1000,1000,1000,1000,65028978,1528,1529,1530,1527
59946012,1000,1000,1000,1000,65128938,1530,1530,1533,1528
59948511,1000,1000,1000,1000,65228898,1533,1533,1536,1530
59951010,1000,1000,1000,1000,65328858,1537,1536,1539,1534
59953509,1000,1000,1000,1000,65428818,1540,1540,1542,1538
59956008,1000,1000,1000,1000,65528778,1543,1543,1544,1543
59958507,1000,1000,1000,1000,65628738,1546,1546,1546,1546
59961006,1000,1000,1000,1000,65728698,1550,1550,1549,1550
59963505,1000,1000,1000,1000,65828658,1553,1553,1552,1554
59966004,1000,1000,1000,1000,65928618,1555,1554,1553,1556
59968503,1000,1000,1000,1000,66028578,1552,1552,1559,1562
59971002,1000,1000,1000,1000,66128538,1553,1554,1564,1566
59973501,1000,1000,1000,1000,66228498,1555,1556,1564,1565
59976000,1000,1000,1000,1000,66328458,1559,1559,1565,1564
59978499,1000,1000,1000,1000,66428418,1563,1563,1565,1564
59980998,1000,1000,1000,1000,66528378,1566,1566,1565,1564
59983497,1000,1000,1000,1000,66628338,1568,1569,1564,1564
59985996,1000,1000,1000,1000,66728298,1570,1570,1565,1564
59988495,1000,1000,1000,1000,66828258,1572,1572,1565,1565
59990994,1000,1000,1000,1000,66928218,1573,1573,1566,1567
59993493,1000,1000,1000,1000,67028178,1575,1574,1568,1568
59995992,1000,1000,1000,1000,67128971,1574,1573,1568,1569
59998491,1000,1000,1000,1000,67228931,1574,1573,1570,1571
60000990,1000,1000,1000,1000,67328891,1574,1574,1573,1573
60003489,1000,1000,1000,1000,67428851,1574,1574,1575,1573
60005988,1000,1000,1000,1000,67528811,1574,1574,1576,1575
60008487,1000,1000,1000,1000,67628771,1574,1575,1578,1576
60010986,1000,1000,1000,1000,67728731,1575,1575,1578,1577
60013485,1000,1000,1000,1000,67828691,1575,1575,1578,1578
60015984,1000,1000,1000,1000,67928651,1575,1575,1577,1578
60018483,1000,1000,1000,1000,68028611,1575,1576,1578,1577
60020982,1000,1000,1000,1000,68128571,1577,1577,1578,1578
60023481,1000,1000,1000,1000,68228531,1577,1576,1577,1578
60025980,1000,1000,1000,1000,68328491,1577,1577,1577,1577
60028479,1000,1000,1000,1000,68428451,1577,1577,1576,1576
60030978,1000,1000,1000,1000,68528411,1579,1578,1578,1578
60033477,1000,1000,1000,1000,68628371,1578,1578,1578,1577
60035976,1000,1000,1000,1000,68728331,1579,1578,1578,1578
60038475,1000,1000,1000,1000,68828291,1578,1578,1577,1577
60040974,1000,1000,1000,1000,68928251,1578,1578,1577,1577
60043473,1000,1000,1000,1000,69028211,1578,1578,1578,1578
60045972,1000,1000,1000,1000,69128171,1578,1578,1578,1578
60048471,1000,1000,1000,1000,69228964,1577,1578,1578,1578
60050970,1000,1000,1000,1000,69328924,1578,1578,1578,1579
60053469,1000,1000,1000,1000,69428884,1578,1578,1579,1578
60055968,1000,1000,1000,1000,69528844,1579,1579,1579,1579
60058467,1000,1000,1000,1000,69628804,1579,1579,1579,1579
60060966,1000,1000,1000,1000,69728764,1578,1578,1578,1579
60063465,1000,1000,1000,1000,69828724,1579,1579,1579,1579
60065964,1000,1000,1000,1000,69928684,1578,1578,1579,1579
60068463,1000,1000,1000,1000,70028644,1580,1580,1580,1580
60070962,1000,1000,1000,1000,70128604,1580,1580,1580,1580
60073461,1000,1000,1000,1000,70228564,1580,1580,1580,1580
60075960,1000,1000,1000,1000,70328524,1580,1580,1580,1580
60078459,1000,1000,1000,1000,70428484,1580,1580,1580,1581
60080958,1000,1000,1000,1000,70528444,1580,1581,1580,1581
60083457,1000,1000,1000,1000,70628404,1580,1581,1581,1580
60085956,1000,1000,1000,1000,70728364,1580,1580,1580,1580
60088455,1000,1000,1000,1000,70828324,1581,1580,1580,1580
60090954,1000,1000,1000,1000,70928284,1580,1580,1580,1580
60093453,1000,1000,1000,1000,71028244,1581,1581,1581,1581
60095952,1000,1000,1000,1000,71128204,1580,1580,1580,1580
60098451,1000,1000,1000,1000,71228164,1580,1580,1580,1580
60100950,1000,1000,1000,1000,71328957,1580,1580,1580,1580
60103449,1000,1000,1000,1000,71428917,1579,1579,1579,1579
60105948,1000,1000,1000,1000,71528877,1580,1580,1580,1580
60108447,1000,1000,1000,1000,71628837,1580,1580,1580,1580
60110946,1000,1000,1000,1000,71728797,1580,1580,1580,1580
60113445,1000,1000,1000,1000,71828757,1581,1581,1580,1581
60115944,1000,1000,1000,1000,71928717,1580,1579,1580,1580
60118443,1000,1000,1000,1000,72028677,1580,1579,1580,1580
60120942,1000,1000,1000,1000,72128637,1581,1580,1580,1581
60123441,1000,1000,1000,1000,72228597,1580,1582,1587,1574
60125940,1000,1000,1000,1000,72328557,1580,1583,1586,1573
60128439,1000,1000,1000,1000,72428517,1579,1582,1578,1573
60130938,1000,1000,1000,1000,72528477,1577,1580,1569,1572
60133437,1000,1000,1000,1000,72628437,1577,1579,1562,1569
60135936,1000,1000,1000,1000,72728397,1578,1578,1557,1564
60138435,1000,1000,1000,1000,72828357,1579,1579,1556,1560
60140934,1000,1000,1000,1000,72928317,1580,1578,1556,1556
60143433,1000,1000,1000,1000,73028277,1579,1578,1555,1554
60145932,1000,1000,1000,1000,73128237,1578,1578,1556,1554
60148431,1000,1000,1000,1000,73228197,1577,1577,1555,1553
60150930,1000,1000,1000,1000,73328157,1576,1577,1555,1554
60153429,1000,1000,1000,1000,73428950,1575,1576,1554,1553
60155928,1000,1000,1000,1000,73528910,1575,1576,1553,1553
60158427,1000,1000,1000,1000,73628870,1575,1577,1552,1552
60160926,1000,1000,1000,1000,73728830,1576,1578,1550,1551
60163425,1000,1000,1000,1000,73828790,1578,1579,1548,1548
60165924,1000,1000,1000,1000,73928750,1582,1582,1547,1547
60168423,1000,1000,1000,1000,74028710,1584,1585,1544,1544
60170922,1000,1000,1000,1000,74128670,1587,1588,1541,1540
60173421,1000,1000,1000,1000,74228630,1590,1591,1538,1538
60175920,1000,1000,1000,1000,74328590,1593,1593,1536,1537
60178419,1000,1000,1000,1000,74428550,1594,1594,1535,1535
60180918,1000,1000,1000,1000,74528510,1596,1596,1536,1536
60183417,1000,1000,1000,1000,74628470,1596,1596,1537,1539
60185916,1000,1000,1000,1000,74728430,1593,1593,1539,1542
60188415,1000,1000,1000,1000,74828390,1590,1589,1544,1548
60190914,1000,1000,1000,1000,74928350,1585,1582,1552,1555
60193413,1000,1000,1000,1000,75028310,1575,1572,1561,1563
60195912,1000,1000,1000,1000,75128270,1566,1561,1573,1575
60198411,1000,1000,1000,1000,75228230,1554,1550,1585,1586
60200910,1000,1000,1000,1000,75328190,1543,1541,1597,1597
60203409,1000,1000,1000,1000,75428983,1534,1534,1607,1606
60205908,1000,1000,1000,1000,75528943,1529,1530,1613,1612
60208407,1000,1000,1000,1000,75628903,1528,1530,1615,1614
60210906,1000,1000,1000,1000,75728863,1530,1533,1614,1613
60213405,1000,1000,1000,1000,75828823,1536,1538,1609,1609
60215904,1000,1000,1000,1000,75928783,1543,1545,1603,1604
60218403,1000,1000,1000,1000,76028743,1553,1554,1596,1597
60220902,1000,1000,1000,1000,76128703,1562,1562,1589,1588
60223401,1000,1000,1000,1000,76228663,1570,1570,1582,1581
60225900,1000,1000,1000,1000,76328623,1578,1577,1576,1575
60228399,1000,1000,1000,1000,76428583,1583,1582,1571,1571
60230898,1000,1000,1000,1000,76528543,1587,1586,1568,1568
60233397,1000,1000,1000,1000,76628503,1588,1587,1566,1566
60235896,1000,1000,1000,1000,76728463,1588,1587,1567,1567
60238395,1000,1000,1000,1000,76828423,1585,1584,1567,1567
60240894,1000,1000,1000,1000,76928383,1584,1584,1571,1571
60243393,1000,1000,1000,1000,77028343,1581,1581,1574,1574
60245892,1000,1000,1000,1000,77128303,1578,1579,1577,1577
60248391,1000,1000,1000,1000,77228263,1575,1576,1579,1579
60250890,1000,1000,1000,1000,77328223,1574,1574,1582,1581
60253389,1000,1000,1000,1000,77428183,1573,1573,1583,1583
60255888,1000,1000,1000,1000,77528976,1572,1572,1584,1583
60258387,1000,1000,1000,1000,77628936,1572,1573,1584,1584
60260886,1000,1000,1000,1000,77728896,1573,1574,1583,1583
60263385,1000,1000,1000,1000,77828856,1575,1575,1582,1583
60265884,1000,1000,1000,1000,77928816,1576,1576,1581,1581
60268383,1000,1000,1000,1000,78028776,1578,1578,1580,1580
60270882,1000,1000,1000,1000,78128736,1579,1579,1580,1579
60273381,1000,1000,1000,1000,78228696,1579,1579,1578,1578
60275880,1000,1000,1000,1000,78328656,1581,1580,1577,1578
60278379,1000,1000,1000,1000,78428616,1582,1581,1578,1577
60280878,1000,1000,1000,1000,78528576,1582,1581,1577,1577
60283377,1000,1000,1000,1000,78628536,1582,1581,1577,1577
60285876,1000,1000,1000,1000,78728496,1581,1581,1578,1578
60288375,1000,1000,1000,1000,78828456,1580,1580,1578,1578
60290874,1000,1000,1000,1000,78928416,1580,1580,1579,1578
60293373,1000,1000,1000,1000,79028376,1580,1580,1579,1580
60295872,1000,1000,1000,1000,79128336,1580,1580,1580,1580
60298371,1000,1000,1000,1000,79228296,1579,1579,1580,1580
60300870,1000,1000,1000,1000,79328256,1579,1580,1581,1581
60303369,1000,1000,1000,1000,79428216,1579,1580,1581,1581
60305868,1000,1000,1000,1000,79528176,1579,1579,1581,1581
60308367,1000,1000,1000,1000,79628969,1580,1580,1581,1582
60310866,1000,1000,1000,1000,79728929,1580,1579,1581,1581
60313365,1000,1000,1000,1000,79828889,1363,1367,1638,1646
60315864,1000,1000,1000,1000,79928849,1430,1438,1645,1649
60318363,1000,1000,1000,1000,80028809,1489,1500,1634,1630
60320862,1000,1000,1000,1000,80128769,1540,1546,1623,1614
60323361,1000,1000,1000,1000,80228729,1578,1578,1618,1599
60325860,1000,1000,1000,1000,80328689,1611,1596,1611,1592
60328359,1000,1000,1000,1000,80428649,1641,1617,1582,1583
60330858,1000,1000,1000,1000,80528609,1650,1628,1530,1548
60333357,1000,1000,1000,1000,80628569,1650,1641,1526,1546
60335856,1000,1000,1000,1000,80728529,1645,1650,1548,1559
60338355,1000,1000,1000,1000,80828489,1636,1649,1566,1565
60340854,1000,1000,1000,1000,80928449,1622,1636,1567,1557
60343353,1000,1000,1000,1000,81028409,1614,1623,1568,1556
60345852,1000,1000,1000,1000,81128369,1610,1611,1565,1558
60348351,1000,1000,1000,1000,81228329,1605,1601,1561,1558
60350850,1000,1000,1000,1000,81328289,1600,1593,1556,1558
60353349,1000,1000,1000,1000,81428249,1594,1588,1552,1556
60355848,1000,1000,1000,1000,81528209,1587,1585,1550,1553
60358347,1000,1000,1000,1000,81628169,1581,1582,1549,1550
60360846,1000,1000,1000,1000,81728962,1576,1579,1548,1546
60363345,1000,1000,1000,1000,81828922,1572,1575,1547,1544
60365844,1000,1000,1000,1000,81928882,1570,1572,1546,1544
60368343,1000,1000,1000,1000,82028842,1570,1571,1547,1544
60370842,1000,1000,1000,1000,82128802,1569,1569,1546,1545
60373341,1000,1000,1000,1000,82228762,1569,1568,1547,1546
60375840,1000,1000,1000,1000,82328722,1570,1569,1548,1548
60378339,1000,1000,1000,1000,82428682,1569,1570,1549,1548
60380838,1000,1000,1000,1000,82528642,1569,1570,1550,1550
60383337,1000,1000,1000,1000,82628602,1570,1572,1552,1552
60385836,1000,1000,1000,1000,82728562,1571,1573,1552,1554
60388335,1000,1000,1000,1000,82828522,1573,1575,1554,1556
60390834,1000,1000,1000,1000,82928482,1575,1577,1555,1558
60393333,1000,1000,1000,1000,83028442,1575,1578,1555,1557
60395832,1000,1000,1000,1000,83128402,1577,1579,1556,1558
60398331,1000,1000,1000,1000,83228362,1579,1581,1557,1559
60400830,1000,1000,1000,1000,83328322,1581,1582,1558,1560
60403329,1000,1000,1000,1000,83428282,1583,1584,1559,1561
60405828,1000,1000,1000,1000,83528242,1584,1585,1560,1561
60408327,1000,1000,1000,1000,83628202,1586,1586,1560,1562
60410826,1000,1000,1000,1000,83728162,1588,1587,1562,1563
60413325,1000,1000,1000,1000,83828955,1589,1588,1563,1564
60415824,1000,1000,1000,1000,83928915,1590,1588,1564,1565
60418323,1000,1000,1000,1000,84028875,1591,1589,1567,1567
60420822,1000,1000,1000,1000,84128835,1592,1589,1568,1569
60423321,1000,1000,1000,1000,84228795,1592,1590,1570,1570
60425820,1000,1000,1000,1000,84328755,1591,1590,1570,1570
60428319,1000,1000,1000,1000,84428715,1591,1590,1572,1572
60430818,1000,1000,1000,1000,84528675,1590,1590,1573,1572
60433317,1000,1000,1000,1000,84628635,1590,1590,1573,1573
60435816,1000,1000,1000,1000,84728595,1589,1590,1573,1572
60438315,1000,1000,1000,1000,84828555,1590,1589,1573,1572
60440814,1000,1000,1000,1000,84928515,1590,1589,1573,1572
60443313,1000,1000,1000,1000,85028475,1590,1590,1573,1572
60445812,1000,1000,1000,1000,85128435,1589,1582,1578,1577
60448311,1000,1000,1000,1000,85228395,1572,1563,1598,1598
60450810,1000,1000,1000,1000,85328355,1555,1549,1613,1614
60453309,1000,1000,1000,1000,85428315,1543,1543,1617,1620
60455808,1000,1000,1000,1000,85528275,1537,1542,1618,1620
60458307,1000,1000,1000,1000,85628235,1535,1544,1616,1616
60460806,1000,1000,1000,1000,85728195,1538,1548,1613,1611
60463305,1000,1000,1000,1000,85828155,1545,1552,1609,1606
60465804,1000,1000,1000,1000,85928948,1552,1557,1603,1600
60468303,1000,1000,1000,1000,86028908,1560,1561,1596,1594
60470802,1000,1000,1000,1000,86128868,1568,1565,1590,1589
60473301,1000,1000,1000,1000,86228828,1573,1570,1584,1585
60475800,1000,1000,1000,1000,86328788,1578,1574,1579,1581
60478299,1000,1000,1000,1000,86428748,1581,1578,1576,1577
60480798,1000,1000,1000,1000,86528708,1584,1582,1574,1575
60483297,1000,1000,1000,1000,86628668,1585,1585,1573,1573
60485796,1000,1000,1000,1000,86728628,1586,1586,1571,1571
60488295,1000,1000,1000,1000,86828588,1587,1588,1571,1571
60490794,1000,1000,1000,1000,86928548,1588,1588,1572,1571
60493293,1000,1000,1000,1000,87028508,1588,1588,1571,1572
60495792,1000,1000,1000,1000,87128468,1589,1588,1573,1573
60498291,1000,1000,1000,1000,87228428,1588,1587,1573,1573
60500790,1000,1000,1000,1000,87328388,1588,1586,1573,1574
60503289,1000,1000,1000,1000,87428348,1586,1585,1573,1574
60505788,1000,1000,1000,1000,87528308,1585,1585,1574,1575
60508287,1000,1000,1000,1000,87628268,1584,1584,1575,1575
60510786,1000,1000,1000,1000,87728228,1584,1584,1577,1577
60513285,1000,1000,1000,1000,87828188,1583,1583,1579,1578
60515784,1000,1000,1000,1000,87928981,1582,1582,1578,1578
60518283,1000,1000,1000,1000,88028941,1582,1582,1579,1579
60520782,1000,1000,1000,1000,88128901,1581,1581,1580,1580
60523281,1000,1000,1000,1000,88228861,1581,1581,1580,1580
60525780,1000,1000,1000,1000,88328821,1581,1580,1584,1577
60528279,1000,1000,1000,1000,88428781,1581,1579,1587,1573
60530778,1000,1000,1000,1000,88528741,1581,1578,1582,1574
60533277,1000,1000,1000,1000,88628701,1578,1577,1572,1573
60535776,1000,1000,1000,1000,88728661,1575,1576,1565,1570
60538275,1000,1000,1000,1000,88828621,1573,1577,1562,1567
60540774,1000,1000,1000,1000,88928581,1573,1576,1560,1563
60543273,1000,1000,1000,1000,89028541,1572,1575,1558,1559
60545772,1000,1000,1000,1000,89128501,1573,1575,1559,1558
60548271,1000,1000,1000,1000,89228461,1573,1574,1559,1557
60550770,1000,1000,1000,1000,89328421,1574,1575,1559,1557
60553269,1000,1000,1000,1000,89428381,1575,1574,1557,1556
60555768,1000,1000,1000,1000,89528341,1574,1574,1555,1555
60558267,1000,1000,1000,1000,89628301,1574,1573,1553,1553
60560766,1000,1000,1000,1000,89728261,1574,1574,1551,1552
60563265,1000,1000,1000,1000,89828221,1574,1575,1549,1550
60565764,1000,1000,1000,1000,89928181,1575,1577,1548,1548
60568263,1000,1000,1000,1000,90028974,1576,1578,1547,1546
60570762,1000,1000,1000,1000,90128934,1577,1579,1545,1544
60573261,1000,1000,1000,1000,90228894,1579,1581,1543,1543
60575760,1000,1000,1000,1000,90328854,1581,1582,1541,1541
60578259,1000,1000,1000,1000,90428814,1584,1585,1541,1540
60580758,1000,1000,1000,1000,90528774,1586,1586,1540,1540
60583257,1000,1000,1000,1000,90628734,1588,1587,1540,1540
60585756,1000,1000,1000,1000,90728694,1588,1587,1539,1540
60588255,1000,1000,1000,1000,90828654,1588,1587,1540,1542
60590754,1000,1000,1000,1000,90928614,1587,1586,1542,1545
60593253,1000,1000,1000,1000,91028574,1585,1584,1546,1548
60595752,1000,1000,1000,1000,91128534,1582,1581,1550,1554
60598251,1000,1000,1000,1000,91228494,1578,1577,1554,1558
60600750,1000,1000,1000,1000,91328454,1574,1573,1560,1564
60603249,1000,1000,1000,1000,91428414,1568,1567,1566,1569
60605748,1000,1000,1000,1000,91528374,1563,1561,1573,1575
60608247,1000,1000,1000,1000,91628334,1557,1555,1582,1582
60610746,1000,1000,1000,1000,91728294,1551,1549,1589,1588
60613245,1000,1000,1000,1000,91828254,1546,1545,1595,1595
60615744,1000,1000,1000,1000,91928214,1540,1540,1601,1600
60618243,1000,1000,1000,1000,92028174,1536,1536,1605,1604
60620742,1000,1000,1000,1000,92128967,1534,1535,1606,1606
60623241,1000,1000,1000,1000,92228927,1536,1538,1606,1605
60625740,1000,1000,1000,1000,92328887,1540,1542,1602,1603
60628239,1000,1000,1000,1000,92428847,1545,1548,1597,1598
60630738,1000,1000,1000,1000,92528807,1553,1554,1591,1591
60633237,1000,1000,1000,1000,92628767,1560,1561,1585,1584
60635736,1000,1000,1000,1000,92728727,1569,1568,1580,1579
60638235,1000,1000,1000,1000,92828687,1576,1574,1575,1574
60640734,1000,1000,1000,1000,92928647,1580,1578,1571,1570
60643233,1000,1000,1000,1000,93028607,1583,1582,1568,1568
60645732,1000,1000,1000,1000,93128567,1586,1584,1568,1568
60648231,1000,1000,1000,1000,93228527,1586,1585,1568,1569
60650730,1000,1000,1000,1000,93328487,1587,1586,1569,1570
60653229,1000,1000,1000,1000,93428447,1585,1585,1570,1570
60655728,1000,1000,1000,1000,93528407,1584,1585,1572,1572
60658227,1000,1000,1000,1000,93628367,1583,1583,1573,1574
60660726,1000,1000,1000,1000,93728327,1582,1582,1576,1576
60663225,1000,1000,1000,1000,93828287,1582,1582,1578,1578
60665724,1000,1000,1000,1000,93928247,1580,1580,1579,1579
60668223,1000,1000,1000,1000,94028207,1579,1579,1580,1580
60670722,1000,1000,1000,1000,94128167,1578,1578,1580,1581
60673221,1000,1000,1000,1000,94228960,1577,1577,1582,1582
60675720,1000,1000,1000,1000,94328920,1577,1577,1583,1583
60678219,1000,1000,1000,1000,94428880,1576,1577,1582,1582
60680718,1000,1000,1000,1000,94528840,1576,1577,1583,1583
60683217,1000,1000,1000,1000,94628800,1577,1577,1582,1582
60685716,1000,1000,1000,1000,94728760,1576,1577,1581,1581
60688215,1000,1000,1000,1000,94828720,1578,1578,1581,1581
60690714,1000,1000,1000,1000,94928680,1578,1578,1580,1580
60693213,1000,1000,1000,1000,95028640,1579,1580,1581,1581
60695712,1000,1000,1000,1000,95128600,1580,1580,1580,1580
60698211,1000,1000,1000,1000,95228560,1581,1580,1580,1579
60700710,1000,1000,1000,1000,95328520,1582,1581,1580,1580
60703209,1000,1000,1000,1000,95428480,1582,1582,1580,1580
60705708,1000,1000,1000,1000,95528440,1583,1582,1580,1580
60708207,1000,1000,1000,1000,95628400,1582,1582,1579,1579
60710706,1000,1000,1000,1000,95728360,1582,1582,1579,1580
60713205,1000,1000,1000,1000,95828320,1583,1583,1580,1580
60715704,1000,1000,1000,1000,95928280,1583,1583,1581,1581
60718203,1000,1000,1000,1000,96028240,1583,1582,1581,1581
60720702,1000,1000,1000,1000,96128200,1581,1582,1580,1580
60723201,1000,1000,1000,1000,96228160,1581,1581,1581,1580
60725700,1000,1000,1000,1000,96328953,1582,1581,1582,1582
60728199,1000,1000,1000,1000,96428913,1581,1581,1582,1582
60730698,1000,1000,1000,1000,96528873,1581,1581,1581,1581
60733197,1000,1000,1000,1000,96628833,1581,1581,1581,1582
60735696,1000,1000,1000,1000,96728793,1581,1580,1588,1575
60738195,1000,1000,1000,1000,96828753,1580,1579,1586,1574
60740694,1000,1000,1000,1000,96928713,1578,1576,1579,1574
60743193,1000,1000,1000,1000,97028673,1575,1574,1572,1575
60745692,1000,1000,1000,1000,97128633,1571,1571,1566,1573
60748191,1000,1000,1000,1000,97228593,1569,1570,1564,1571
60750690,1000,1000,1000,1000,97328553,1568,1569,1565,1569
60753189,1000,1000,1000,1000,97428513,1566,1568,1566,1567
60755688,1000,1000,1000,1000,97528473,1566,1567,1567,1566
60758187,1000,1000,1000,1000,97628433,1566,1566,1568,1566
60760686,1000,1000,1000,1000,97728393,1566,1566,1568,1566
60763185,1000,1000,1000,1000,97828353,1565,1564,1567,1565
60765684,1000,1000,1000,1000,97928313,1564,1564,1566,1564
60768183,1000,1000,1000,1000,98028273,1563,1563,1564,1564
60770682,1000,1000,1000,1000,98128233,1563,1562,1563,1564
60773181,1000,1000,1000,1000,98228193,1561,1562,1562,1562
60775680,1000,1000,1000,1000,98328986,1562,1562,1562,1562
60778179,1000,1000,1000,1000,98428946,1561,1562,1562,1561
60780678,1000,1000,1000,1000,98528906,1561,1561,1562,1561
60783177,1000,1000,1000,1000,98628866,1560,1561,1561,1560
60785676,1000,1000,1000,1000,98728826,1561,1561,1561,1561
60788175,1000,1000,1000,1000,98828786,1561,1560,1561,1560
60790674,1000,1000,1000,1000,98928746,1560,1559,1560,1559
60793173,1000,1000,1000,1000,99028706,1559,1559,1559,1558
60795672,1000,1000,1000,1000,99128666,1559,1559,1559,1559
60798171,1000,1000,1000,1000,99228626,1558,1558,1558,1556
60800670,1000,1000,1000,1000,99328586,1556,1556,1556,1554
60803169,1000,1000,1000,1000,99428546,1557,1556,1558,1554
60805668,1000,1000,1000,1000,99528506,1555,1554,1554,1553
60808167,1000,1000,1000,1000,99628466,1552,1552,1549,1552
60810666,1000,1000,1000,1000,99728426,1548,1548,1543,1549
60813165,1000,1000,1000,1000,99828386,1543,1544,1537,1543
60815664,1000,1000,1000,1000,99928346,1537,1539,1532,1537
60818163,1000,1000,1000,1000,100028306,1531,1532,1526,1529
60820662,1000,1000,1000,1000,100128266,1526,1526,1522,1522
60823161,1000,1000,1000,1000,100228226,1522,1522,1520,1519
60825660,1000,1000,1000,1000,100328186,1520,1520,1519,1519
60828159,1000,1000,1000,1000,100428979,1520,1519,1522,1521
60830658,1000,1000,1000,1000,100528939,1522,1521,1526,1526
60833157,1000,1000,1000,1000,100628899,1525,1524,1531,1532
60835656,1000,1000,1000,1000,100728859,1528,1528,1535,1537
60838155,1000,1000,1000,1000,100828819,1532,1532,1540,1541
60840654,1000,1000,1000,1000,100928779,1536,1536,1544,1544
60843986,1000,1000,1000,1000,101028739,1539,1539,1545,1544
60846485,1000,1000,1000,1000,101128699,1542,1541,1545,1546
60848984,1000,1000,1000,1000,101228659,1544,1544,1545,1546
60851483,1000,1000,1000,1000,101328619,1546,1546,1545,1545
60853982,1000,1000,1000,1000,101428579,1547,1548,1545,1545
60856481,1000,1000,1000,1000,101528539,1548,1548,1544,1544
60858980,1000,1000,1000,1000,101628499,1548,1548,1543,1543
60861479,1000,1000,1000,1000,101728459,1549,1549,1544,1544
60863978,1000,1000,1000,1000,101828419,1549,1549,1544,1544
60866477,1000,1000,1000,1000,101928379,1549,1549,1545,1544
60868976,1000,1000,1000,1000,102028339,1548,1548,1545,1545
60871475,1000,1000,1000,1000,102128299,1547,1548,1545,1544
60873974,1000,1000,1000,1000,102228259,1546,1547,1545,1545
60876473,1000,1000,1000,1000,102328219,1546,1546,1546,1546
60878972,1000,1000,1000,1000,102428179,1545,1545,1545,1545
60881471,1000,1000,1000,1000,102528972,1545,1544,1546,1546
60883970,1000,1000,1000,1000,102628932,1543,1544,1545,1545
60886469,1000,1000,1000,1000,102728892,1543,1543,1545,1545
60888968,1000,1000,1000,1000,102828852,1543,1543,1545,1546
60891467,1000,1000,1000,1000,102928812,1543,1543,1545,1545
60893966,1000,1000,1000,1000,103028772,1543,1543,1545,1544
60896465,1000,1000,1000,1000,103128732,1543,1543,1544,1544
60898964,1000,1000,1000,1000,103228692,1543,1543,1544,1544
60901463,1000,1000,1000,1000,103328652,1543,1543,1544,1543
60903962,1000,1000,1000,1000,103428612,1543,1543,1543,1543
60906461,1000,1000,1000,1000,103528572,1544,1544,1544,1544
60908960,1000,1000,1000,1000,103628532,1545,1544,1544,1544
60911459,1000,1000,1000,1000,103728492,1544,1544,1543,1544
60913958,1000,1000,1000,1000,103828452,1544,1544,1543,1543
60916457,1000,1000,1000,1000,103928412,1544,1544,1543,1543
60918956,1000,1000,1000,1000,104028372,1545,1545,1544,1544
60921455,1000,1000,1000,1000,104128332,1545,1545,1544,1544
60923954,1000,1000,1000,1000,104228292,1545,1544,1544,1544
60926453,1000,1000,1000,1000,104328252,1544,1544,1544,1543
60928952,1000,1000,1000,1000,104428212,1544,1544,1543,1543
60931451,1000,1000,1000,1000,104528172,1544,1544,1544,1544
60933950,1000,1000,1000,1000,104628965,1544,1545,1545,1544
60936449,1000,1000,1000,1000,104728925,1545,1544,1544,1544
60938948,1000,1000,1000,1000,104828885,1545,1545,1545,1545
60941447,1000,1000,1000,1000,104928845,1544,1544,1544,1544
60943946,1000,1000,1000,1000,105028805,1545,1545,1545,1545
60946445,1000,1000,1000,1000,105128765,1544,1543,1543,1543
60948944,1000,1000,1000,1000,105228725,1544,1544,1544,1544
60951443,1000,1000,1000,1000,105328685,1544,1544,1544,1544
60953942,1000,1000,1000,1000,105428645,1544,1544,1544,1544
60956441,1000,1000,1000,1000,105528605,1545,1544,1544,1545
60958940,1000,1000,1000,1000,105628565,1543,1543,1543,1543
60961439,1000,1000,1000,1000,105728525,1545,1544,1544,1545
60963938,1000,1000,1000,1000,105828485,1544,1544,1544,1544
60966437,1000,1000,1000,1000,105928445,1544,1544,1544,1544
60968936,1000,1000,1000,1000,106028405,1545,1545,1545,1545
60971435,1000,1000,1000,1000,106128365,1545,1545,1545,1545
60973934,1000,1000,1000,1000,106228325,1545,1545,1545,1545
60976433,1000,1000,1000,1000,106328285,1545,1544,1544,1545
60978932,1000,1000,1000,1000,106428245,1544,1544,1544,1544
60981431,1000,1000,1000,1000,106528205,1545,1544,1544,1544
60983930,1000,1000,1000,1000,106628165,1544,1545,1544,1544
60986429,1000,1000,1000,1000,106728958,1545,1545,1545,1545
60988928,1000,1000,1000,1000,106828918,1545,1545,1545,1545
60991427,1000,1000,1000,1000,106928878,1544,1544,1545,1544
60993926,1000,1000,1000,1000,107028838,1544,1545,1544,1544
60996425,1000,1000,1000,1000,107128798,1545,1545,1545,1545
60998924,1000,1000,1000,1000,107228758,1544,1544,1544,1544
61001423,1000,1000,1000,1000,107328718,1544,1543,1544,1544
61003922,1000,1000,1000,1000,107428678,1544,1544,1544,1544
61006421,1000,1000,1000,1000,107528638,1544,1544,1544,1544
61008920,1000,1000,1000,1000,107628598,1544,1544,1544,1544
61011419,1000,1000,1000,1000,107728558,1544,1544,1544,1544
61013918,1000,1000,1000,1000,107828518,1543,1544,1544,1544
61016417,1000,1000,1000,1000,107928478,1544,1544,1544,1544
61018916,1000,1000,1000,1000,108028438,1544,1544,1544,1544
61021415,1000,1000,1000,1000,108128398,1545,1545,1545,1545
61023914,1000,1000,1000,1000,108228358,1544,1544,1544,1544
61026413,1000,1000,1000,1000,108328318,1544,1544,1544,1544
61028912,1000,1000,1000,1000,108428278,1544,1544,1544,1544
61031411,1000,1000,1000,1000,108528238,1545,1544,1544,1544
61033910,1000,1000,1000,1000,108628198,1544,1544,1545,1544
61036409,1000,1000,1000,1000,108728158,1545,1545,1545,1546
61038908,1000,1000,1000,1000,108828951,1544,1545,1544,1544
61041407,1000,1000,1000,1000,108928911,1545,1544,1544,1544
61043906,1000,1000,1000,1000,109028871,1545,1545,1545,1545
61046405,1000,1000,1000,1000,109128831,1545,1545,1545,1545
61048904,1000,1000,1000,1000,109228791,1544,1545,1545,1544
61051403,1000,1000,1000,1000,109328751,1545,1544,1544,1544
61053902,1000,1000,1000,1000,109428711,1544,1544,1544,1544
61056401,1000,1000,1000,1000,109528671,1544,1544,1544,1544
61058900,1000,1000,1000,1000,109628631,1545,1544,1544,1544
61061399,1000,1000,1000,1000,109728591,1544,1544,1544,1544
61063898,1000,1000,1000,1000,109828551,1545,1545,1545,1545
61066397,1000,1000,1000,1000,109928511,1434,1435,1384,1385
61068896,1000,1000,1000,1000,110028471,1360,1362,1263,1261
61071395,1000,1000,1000,1000,110128431,1338,1338,1221,1220
61073894,1000,1000,1000,1000,110228391,1328,1329,1203,1201
61076393,1000,1000,1000,1000,110328351,1308,1308,1161,1160
61078892,1000,1000,1000,1000,110428311,1260,1261,1151,1150
61081391,1000,1000,1000,1000,110528271,1153,1153,1151,1150
61083890,1000,1000,1000,1000,110628231,1042,1043,1152,1150
61086389,1000,1000,1000,1000,110728191,1016,1017,1151,1150
61088888,1000,1000,1000,1000,110828984,1015,1017,1152,1150
61091387,1000,1000,1000,1000,110928944,1016,1017,1151,1150
61093886,1000,1000,1000,1000,111028904,1017,1001,1150,1171
61096385,1000,1000,1000,1000,111128864,1017,1008,1150,1162
61098884,1000,1000,1000,1000,111228824,1017,1010,1150,1159
61101383,1000,1000,1000,1000,111328784,1017,1010,1150,1159
61103882,1000,1000,1000,1000,111428744,1017,1010,1150,1159
61106381,1000,1000,1000,1000,111528704,1017,1010,1150,1159
61108880,1000,1000,1000,1000,111628664,1017,1010,1150,1159
61111379,1000,1000,1000,1000,111728624,1017,1009,1150,1160
61113878,1000,1000,1000,1000,111828584,1017,1016,1150,1150
61116377,1000,1000,1000,1000,111928544,1017,1016,1150,1151
61118876,1000,1000,1000,1000,112028504,1017,1015,1150,1151
61121375,1000,1000,1000,1000,112128464,1017,1015,1150,1152
61123874,1000,1000,1000,1000,112228424,897,896,1150,1150
61126373,1000,1000,1000,1000,112328384,1000,1000,1000,1000
61128872,1000,1000,1000,1000,112428344,1000,1000,1000,1000
61131371,1000,1000,1000,1000,112528304,1000,1000,1000,1000
61133870,1000,1000,1000,1000,112628264,1000,1000,1000,1000
61136369,1000,1000,1000,1000,112728224,1000,1000,1000,1000
61138868,1000,1000,1000,1000,112828184,1000,1000,1000,1000
61141367,1000,1000,1000,1000,112928977,1000,1000,1000,1000
61143866,1000,1000,1000,1000,113028937,1000,1000,1000,1000
61146365,1000,1000,1000,1000,113128897,1000,1000,1000,1000
61148864,1000,1000,1000,1000,113228857,1000,1000,1000,1000
61151363,1000,1000,1000,1000,113328817,1000,1000,1000,1000
61153862,1000,1000,1000,1000,113428777,1000,1000,1000,1000
61156361,1000,1000,1000,1000,113528737,1000,1000,1000,1000
61158860,1000,1000,1000,1000,113628697,1000,1000,1000,1000
61161359,1000,1000,1000,1000,113728657,1000,1000,1000,1000
61163858,1000,1000,1000,1000,113828617,1000,1000,1000,1000
61166357,1000,1000,1000,1000,113928577,1000,1000,1000,1000
61168856,1000,1000,1000,1000,114028537,1000,1000,1000,1000
61171355,1000,1000,1000,1000,114128497,1000,1000,1000,1000
61173854,1000,1000,1000,1000,114228457,1000,1000,1000,1000
61176353,1000,1000,1000,1000,114328417,1000,1000,1000,1000
61178852,1000,1000,1000,1000,114428377,1000,1000,1000,1000
61181351,1000,1000,1000,1000,114528337,1000,1000,1000,1000
61183850,1000,1000,1000,1000,114628297,1000,1000,1000,1000
61186349,1000,1000,1000,1000,114728257,1000,1000,1000,1000
61188848,1000,1000,1000,1000,114828217,1000,1000,1000,1000
61191347,1000,1000,1000,1000,114928177,1000,1000,1000,1000
61193846,1000,1000,1000,1000,115028970,1000,1000,1000,1000
61196345,1000,1000,1000,1000,115128930,1000,1000,1000,1000
61198844,1000,1000,1000,1000,115228890,1000,1000,1000,1000
61201343,1000,1000,1000,1000,115328850,1000,1000,1000,1000
61203842,1000,1000,1000,1000,115428810,1000,1000,1000,1000
61206341,1000,1000,1000,1000,115528770,1000,1000,1000,1000
61208840,1000,1000,1000,1000,115628730,1000,1000,1000,1000
61211339,1000,1000,1000,1000,115728690,1000,1000,1000,1000
61213838,1000,1000,1000,1000,115828650,1000,1000,1000,1000
61216337,1000,1000,1000,1000,115928610,1000,1000,1000,1000
61218836,1000,1000,1000,1000,116028570,1000,1000,1000,1000
61221335,1000,1000,1000,1000,116128530,1000,1000,1000,1000
61223834,1000,1000,1000,1000,116228490,1000,1000,1000,1000
61226333,1000,1000,1000,1000,116328450,1000,1000,1000,1000
61228832,1000,1000,1000,1000,116428410,1000,1000,1000,1000
61231331,1000,1000,1000,1000,116528370,1000,1000,1000,1000
61233830,1000,1000,1000,1000,116628330,1000,1000,1000,1000
61236329,1000,1000,1000,1000,116728290,1000,1000,1000,1000
61238828,1000,1000,1000,1000,116828250,1000,1000,1000,1000
61241327,1000,1000,1000,1000,116928210,1000,1000,1000,1000
61243826,1000,1000,1000,1000,117028170,1000,1000,1000,1000
61246325,1000,1000,1000,1000,117128963,1000,1000,1000,1000
61248824,1000,1000,1000,1000,117228923,1000,1000,1000,1000
61251323,1000,1000,1000,1000,117328883,1000,1000,1000,1000
61253822,1000,1000,1000,1000,117428843,1000,1000,1000,1000
61256321,1000,1000,1000,1000,117528803,1000,1000,1000,1000
61258820,1000,1000,1000,1000,117628763,1000,1000,1000,1000
61261319,1000,1000,1000,1000,117728723,1000,1000,1000,1000
61263818,1000,1000,1000,1000,117828683,1000,1000,1000,1000
61266317,1000,1000,1000,1000,117928643,1000,1000,1000,1000
61268816,1000,1000,1000,1000,118028603,1000,1000,1000,1000
61271315,1000,1000,1000,1000,118128563,1000,1000,1000,1000
61273814,1000,1000,1000,1000,118228523,1000,1000,1000,1000
61276313,1000,1000,1000,1000,118328483,1000,1000,1000,1000
61278812,1000,1000,1000,1000,118428443,1000,1000,1000,1000
61281311,1000,1000,1000,1000,118528403,1000,1000,1000,1000
61283810,1000,1000,1000,1000,118628363,1000,1000,1000,1000
61286309,1000,1000,1000,1000,118728323,1000,1000,1000,1000
61288808,1000,1000,1000,1000,118828283,1000,1000,1000,1000
61291307,1000,1000,1000,1000,118928243,1000,1000,1000,1000
61293806,1000,1000,1000,1000,119028203,1000,1000,1000,1000
61296305,1000,1000,1000,1000,119128163,1000,1000,1000,1000
61298804,1000,1000,1000,1000,119228956,1000,1000,1000,1000
61301303,1000,1000,1000,1000,119328916,1000,1000,1000,1000
61303802,1000,1000,1000,1000,119428876,1000,1000,1000,1000
61306301,1000,1000,1000,1000,119528836,1000,1000,1000,1000
61308800,1000,1000,1000,1000,119628796,1000,1000,1000,1000
61311299,1000,1000,1000,1000,119728756,1000,1000,1000,1000
61313798,1000,1000,1000,1000,119828716,1000,1000,1000,1000
61316297,1000,1000,1000,1000,119928676,1000,1000,1000,1000
61318796,1000,1000,1000,1000,120028636,1000,1000,1000,1000
61321295,1000,1000,1000,1000,120128596,1000,1000,1000,1000
61323794,1000,1000,1000,1000,120228556,1000,1000,1000,1000
61326293,1000,1000,1000,1000,120328516,1000,1000,1000,1000
61328792,1000,1000,1000,1000,120428476,1000,1000,1000,1000
61331291,1000,1000,1000,1000,120528436,1000,1000,1000,1000
61333790,1000,1000,1000,1000,120628396,1000,1000,1000,1000
61336289,1000,1000,1000,1000,120728356,1000,1000,1000,1000
61338788,1000,1000,1000,1000,120828316,1000,1000,1000,1000
61341287,1000,1000,1000,1000,120928276,1000,1000,1000,1000
61343786,1000,1000,1000,1000,121028236,1000,1000,1000,1000
61346285,1000,1000,1000,1000,121128196,1000,1000,1000,1000
61348784,1000,1000,1000,1000,121228156,1000,1000,1000,1000
61351283,1000,1000,1000,1000,121328949,1000,1000,1000,1000
61353782,1000,1000,1000,1000,121428909,1000,1000,1000,1000
61356281,1000,1000,1000,1000,121528869,1000,1000,1000,1000
61358780,1000,1000,1000,1000,121628829,1000,1000,1000,1000
61361279,1000,1000,1000,1000,121728789,1000,1000,1000,1000
61363778,1000,1000,1000,1000,121828749,1000,1000,1000,1000
61366277,1000,1000,1000,1000,121928709,1000,1000,1000,1000
61368776,1000,1000,1000,1000,122028669,1000,1000,1000,1000
61371275,1000,1000,1000,1000,122128629,1000,1000,1000,1000
61373774,1000,1000,1000,1000,122228589,1000,1000,1000,1000
61376273,1000,1000,1000,1000,122328549,1000,1000,1000,1000
61378772,1000,1000,1000,1000,122428509,1000,1000,1000,1000
61381271,1000,1000,1000,1000,122528469,1000,1000,1000,1000
61383770,1000,1000,1000,1000,122628429,1000,1000,1000,1000
61386269,1000,1000,1000,1000,122728389,1000,1000,1000,1000
61388768,1000,1000,1000,1000,122828349,1000,1000,1000,1000
61391267,1000,1000,1000,1000,122928309,1000,1000,1000,1000
61393766,1000,1000,1000,1000,123028269,1000,1000,1000,1000
61396265,1000,1000,1000,1000,123128229,1000,1000,1000,1000
61398764,1000,1000,1000,1000,123228189,1000,1000,1000,1000
61401263,1000,1000,1000,1000,123328982,1000,1000,1000,1000
61403762,1000,1000,1000,1000,123428942,1000,1000,1000,1000
61406261,1000,1000,1000,1000,123528902,1000,1000,1000,1000
61408760,1000,1000,1000,1000,123628862,1000,1000,1000,1000
61411259,1000,1000,1000,1000,123728822,1000,1000,1000,1000
61413758,1000,1000,1000,1000,123828782,1000,1000,1000,1000
61416257,1000,1000,1000,1000,123928742,1000,1000,1000,1000
61418756,1000,1000,1000,1000,124028702,1000,1000,1000,1000
61421255,1000,1000,1000,1000,124128662,1000,1000,1000,1000
61423754,1000,1000,1000,1000,124228622,1000,1000,1000,1000
61426253,1000,1000,1000,1000,124328582,1000,1000,1000,1000
61428752,1000,1000,1000,1000,124428542,1000,1000,1000,1000
61431251,1000,1000,1000,1000,124528502,1000,1000,1000,1000
61433750,1000,1000,1000,1000,124628462,1000,1000,1000,1000
61436249,1000,1000,1000,1000,124728422,1000,1000,1000,1000
61438748,1000,1000,1000,1000,124828382,1000,1000,1000,1000
61441247,1000,1000,1000,1000,124928342,1000,1000,1000,1000
61443746,1000,1000,1000,1000,125028302,1000,1000,1000,1000
61446245,1000,1000,1000,1000,125128262,1000,1000,1000,1000
61448744,1000,1000,1000,1000,125228222,1000,1000,1000,1000
61451243,1000,1000,1000,1000,125328182,1000,1000,1000,1000
61453742,1000,1000,1000,1000,125428975,1000,1000,1000,1000
61456241,1000,1000,1000,1000,125528935,1000,1000,1000,1000
61458740,1000,1000,1000,1000,125628895,1000,1000,1000,1000
61461239,1000,1000,1000,1000,125728855,1000,1000,1000,1000
61463738,1000,1000,1000,1000,125828815,1000,1000,1000,1000
61466237,1000,1000,1000,1000,125928775,1000,1000,1000,1000
61468736,1000,1000,1000,1000,126028735,1000,1000,1000,1000
61471235,1000,1000,1000,1000,126128695,1000,1000,1000,1000
61473734,1000,1000,1000,1000,126228655,1000,1000,1000,1000
61476233,1000,1000,1000,1000,126328615,1000,1000,1000,1000
61478732,1000,1000,1000,1000,126428575,1000,1000,1000,1000
61481231,1000,1000,1000,1000,126528535,1000,1000,1000,1000
61483730,1000,1000,1000,1000,126628495,1000,1000,1000,1000
61486229,1000,1000,1000,1000,126728455,1000,1000,1000,1000
61488728,1000,1000,1000,1000,126828415,1000,1000,1000,1000
61491227,1000,1000,1000,1000,126928375,1000,1000,1000,1000
61493726,1000,1000,1000,1000,127028335,1000,1000,1000,1000
61496225,1000,1000,1000,1000,127128295,1000,1000,1000,1000
61498724,1000,1000,1000,1000,127228255,1000,1000,1000,1000
61501223,1000,1000,1000,1000,,,,,
61503722,1000,1000,1000,1000,,,,,
61506221,1000,1000,1000,1000,,,,,
61508720,1000,1000,1000,1000,,,,,
61511219,1000,1000,1000,1000,,,,,
61513718,1000,1000,1000,1000,,,,,
61516217,1000,1000,1000,1000,,,,,
61518716,1000,1000,1000,1000,,,,,
61521215,1000,1000,1000,1000,,,,,
61523714,1000,1000,1000,1000,,,,,
61526213,1000,1000,1000,1000,,,,,
61528712,1000,1000,1000,1000,,,,,
61531211,1000,1000,1000,1000,,,,,
61533710,1000,1000,1000,1000,,,,,
61536209,1000,1000,1000,1000,,,,,
61538708,1000,1000,1000,1000,,,,,
61541207,1000,1000,1000,1000,,,,,
61543706,1000,1000,1000,1000,,,,,
61546205,1000,1000,1000,1000,,,,,
61548704,1000,1000,1000,1000,,,,,
61551203,1000,1000,1000,1000,,,,,
61553702,1000,1000,1000,1000,,,,,
61556201,1000,1000,1000,1000,,,,,
61558700,1000,1000,1000,1000,,,,,
61561199,1000,1000,1000,1000,,,,,
61563698,1000,1000,1000,1000,,,,,
61566197,1000,1000,1000,1000,,,,,
61568696,1000,1000,1000,1000,,,,,
61571195,1000,1000,1000,1000,,,,,
61573694,1000,1000,1000,1000,,,,,
61576193,1000,1000,1000,1000,,,,,
61578692,1000,1000,1000,1000,,,,,
61581191,1000,1000,1000,1000,,,,,
61583690,1000,1000,1000,1000,,,,,
61586189,1000,1000,1000,1000,,,,,
61588688,1000,1000,1000,1000,,,,,
61591187,1000,1000,1000,1000,,,,,
61593686,1000,1000,1000,1000,,,,,
61596185,1000,1000,1000,1000,,,,,
61598684,1000,1000,1000,1000,,,,,
61601183,1000,1000,1000,1000,,,,,
61603682,1000,1000,1000,1000,,,,,
61606181,1000,1000,1000,1000,,,,,
61608680,1000,1000,1000,1000,,,,,
61611179,1000,1000,1000,1000,,,,,
61613678,1000,1000,1000,1000,,,,,
61616177,1000,1000,1000,1000,,,,,
61618676,1000,1000,1000,1000,,,,,
61621175,1000,1000,1000,1000,,,,,
61623674,1000,1000,1000,1000,,,,,
61626173,1000,1000,1000,1000,,,,,
61628672,1000,1000,1000,1000,,,,,
61631171,1000,1000,1000,1000,,,,,
61633670,1000,1000,1000,1000,,,,,
61636169,1000,1000,1000,1000,,,,,
61638668,1000,1000,1000,1000,,,,,
61641167,1000,1000,1000,1000,,,,,
61643666,1000,1000,1000,1000,,,,,
61646165,1000,1000,1000,1000,,,,,
61648664,1000,1000,1000,1000,,,,,
61651163,1000,1000,1000,1000,,,,,
61653662,1000,1000,1000,1000,,,,,
61656161,1000,1000,1000,1000,,,,,
61658660,1000,1000,1000,1000,,,,,
61661159,1000,1000,1000,1000,,,,,
61663658,1000,1000,1000,1000,,,,,
61666157,1000,1000,1000,1000,,,,,
61668656,1000,1000,1000,1000,,,,,
61671155,1000,1000,1000,1000,,,,,
61673654,1000,1000,1000,1000,,,,,
61676153,1000,1000,1000,1000,,,,,
61678652,1000,1000,1000,1000,,,,,
61681151,1000,1000,1000,1000,,,,,
61683650,1000,1000,1000,1000,,,,,
61686149,1000,1000,1000,1000,,,,,
61688648,1000,1000,1000,1000,,,,,
61691147,1000,1000,1000,1000,,,,,
61693646,1000,1000,1000,1000,,,,,
61696145,1000,1000,1000,1000,,,,,
61698644,1000,1000,1000,1000,,,,,
61701143,1000,1000,1000,1000,,,,,
61703642,1000,1000,1000,1000,,,,,
61706141,1000,1000,1000,1000,,,,,
61708640,1000,1000,1000,1000,,,,,
61711139,1000,1000,1000,1000,,,,,
61713638,1000,1000,1000,1000,,,,,
61716137,1000,1000,1000,1000,,,,,
61718636,1000,1000,1000,1000,,,,,
61721135,1000,1000,1000,1000,,,,,
61723634,1000,1000,1000,1000,,,,,
61726133,1000,1000,1000,1000,,,,,
61728632,1000,1000,1000,1000,,,,,
61731131,1000,1000,1000,1000,,,,,
61733630,1000,1000,1000,1000,,,,,
61736129,1000,1000,1000,1000,,,,,
61738628,1000,1000,1000,1000,,,,,
61741127,1000,1000,1000,1000,,,,,
61743626,1000,1000,1000,1000,,,,,
61746125,1000,1000,1000,1000,,,,,
61748624,1000,1000,1000,1000,,,,,
61751123,1000,1000,1000,1000,,,,,
61753622,1000,1000,1000,1000,,,,,
61756121,1000,1000,1000,1000,,,,,
61758620,1000,1000,1000,1000,,,,,
61761119,1000,1000,1000,1000,,,,,
61763618,1000,1000,1000,1000,,,,,
61766117,1000,1000,1000,1000,,,,,
61768616,1000,1000,1000,1000,,,,,
61771115,1000,1000,1000,1000,,,,,
61773614,1000,1000,1000,1000,,,,,
61776113,1000,1000,1000,1000,,,,,
61778612,1000,1000,1000,1000,,,,,
61781111,1000,1000,1000,1000,,,,,
61783610,1000,1000,1000,1000,,,,,
61786109,1000,1000,1000,1000,,,,,
61788608,1000,1000,1000,1000,,,,,
61791107,1000,1000,1000,1000,,,,,
61793606,1000,1000,1000,1000,,,,,
61796105,1000,1000,1000,1000,,,,,
61798604,1000,1000,1000,1000,,,,,
61801103,1000,1000,1000,1000,,,,,
61803602,1000,1000,1000,1000,,,,,
61806101,1000,1000,1000,1000,,,,,
61808600,1000,1000,1000,1000,,,,,
61811099,1000,1000,1000,1000,,,,,
61813598,1000,1000,1000,1000,,,,,
61816097,1000,1000,1000,1000,,,,,
61818596,1000,1000,1000,1000,,,,,
61821095,1001,1001,1001,1001,,,,,
61823594,1002,1002,1002,1002,,,,,
61826093,1003,1003,1003,1003,,,,,
61828592,1003,1003,1003,1003,,,,,
61831091,1004,1004,1004,1004,,,,,
61833590,1005,1005,1005,1005,,,,,
61836089,1006,1006,1006,1006,,,,,
61838588,1006,1006,1006,1006,,,,,
61841087,1007,1007,1007,1007,,,,,
61843586,1008,1008,1008,1008,,,,,
61846085,1009,1009,1009,1009,,,,,
61848584,1009,1009,1009,1009,,,,,
61851083,1010,1010,1010,1010,,,,,
61853582,1011,1011,1011,1011,,,,,
61856081,1012,1012,1012,1012,,,,,
61858580,1012,1012,1012,1012,,,,,
61861079,1013,1013,1013,1013,,,,,
61863578,1014,1014,1014,1014,,,,,
61866077,1015,1015,1015,1015,,,,,
61868576,1015,1015,1015,1015,,,,,
61871075,1016,1016,1016,1016,,,,,
61873574,1017,1017,1017,1017,,,,,
61876073,1018,1018,1018,1018,,,,,
61878572,1018,1018,1018,1018,,,,,
61881071,1019,1019,1019,1019,,,,,
61883570,1020,1020,1020,1020,,,,,
61886069,1021,1021,1021,1021,,,,,
61888568,1021,1021,1021,1021,,,,,
61891067,1022,1022,1022,1022,,,,,
61893566,1023,1023,1023,1023,,,,,
61896065,1024,1024,1024,1024,,,,,
61898564,1024,1024,1024,1024,,,,,
61901063,1025,1025,1025,1025,,,,,
61903562,1026,1026,1026,1026,,,,,
61906061,1027,1027,1027,1027,,,,,
61908560,1027,1027,1027,1027,,,,,
61911059,1028,1028,1028,1028,,,,,
61913558,1029,1029,1029,1029,,,,,
61916057,1030,1030,1030,1030,,,,,
61918556,1030,1030,1030,1030,,,,,
61921055,1031,1031,1031,1031,,,,,
61923554,1032,1032,1032,1032,,,,,
61926053,1033,1033,1033,1033,,,,,
61928552,1033,1033,1033,1033,,,,,
61931051,1034,1034,1034,1034,,,,,
61933550,1035,1035,1035,1035,,,,,
61936049,1036,1036,1036,1036,,,,,
61938548,1036,1036,1036,1036,,,,,
61941047,1037,1037,1037,1037,,,,,
61943546,1038,1038,1038,1038,,,,,
61946045,1039,1039,1039,1039,,,,,
61948544,1039,1039,1039,1039,,,,,
61951043,1040,1040,1040,1040,,,,,
61953542,1041,1041,1041,1041,,,,,
61956041,1042,1042,1042,1042,,,,,
61958540,1042,1042,1042,1042,,,,,
61961039,1043,1043,1043,1043,,,,,
61963538,1044,1044,1044,1044,,,,,
61966037,1045,1045,1045,1045,,,,,
61968536,1045,1045,1045,1045,,,,,
61971035,1046,1046,1046,1046,,,,,
61973534,1047,1047,1047,1047,,,,,
61976033,1048,1048,1048,1048,,,,,
61978532,1048,1048,1048,1048,,,,,
61981031,1049,1049,1049,1049,,,,,
61983530,1050,1050,1050,1050,,,,,
61986029,1051,1051,1051,1051,,,,,
61988528,1051,1051,1051,1051,,,,,
61991027,1052,1052,1052,1052,,,,,
61993526,1053,1053,1053,1053,,,,,
61996025,1054,1054,1054,1054,,,,,
61998524,1054,1054,1054,1054,,,,,
62001023,1055,1055,1055,1055,,,,,
62003522,1056,1056,1056,1056,,,,,
62006021,1057,1057,1057,1057,,,,,
62008520,1057,1057,1057,1057,,,,,
62011019,1058,1058,1058,1058,,,,,
62013518,1059,1059,1059,1059,,,,,
62016017,1060,1060,1060,1060,,,,,
62018516,1060,1060,1060,1060,,,,,
62021015,1061,1061,1061,1061,,,,,
62023514,1062,1062,1062,1062,,,,,
62026013,1063,1063,1063,1063,,,,,
62028512,1063,1063,1063,1063,,,,,
62031011,1064,1064,1064,1064,,,,,
62033510,1065,1065,1065,1065,,,,,
62036009,1066,1066,1066,1066,,,,,
62038508,1066,1066,1066,1066,,,,,
62041007,1067,1067,1067,1067,,,,,
62043506,1068,1068,1068,1068,,,,,
62046005,1069,1069,1069,1069,,,,,
62048504,1069,1069,1069,1069,,,,,
62051003,1070,1070,1070,1070,,,,,
62053502,1071,1071,1071,1071,,,,,
62056001,1072,1072,1072,1072,,,,,
62058500,1072,1072,1072,1072,,,,,
62060999,1073,1073,1073,1073,,,,,
62063498,1074,1074,1074,1074,,,,,
62065997,1075,1075,1075,1075,,,,,
62068496,1075,1075,1075,1075,,,,,
62070995,1076,1076,1076,1076,,,,,
62073494,1077,1077,1077,1077,,,,,
62075993,1078,1078,1078,1078,,,,,
62078492,1078,1078,1078,1078,,,,,
62080991,1079,1079,1079,1079,,,,,
62083490,1080,1080,1080,1080,,,,,
62085989,1081,1081,1081,1081,,,,,
62088488,1081,1081,1081,1081,,,,,
62090987,1082,1082,1082,1082,,,,,
62093486,1083,1083,1083,1083,,,,,
62095985,1084,1084,1084,1084,,,,,
62098484,1084,1084,1084,1084,,,,,
62100983,1085,1085,1085,1085,,,,,
62103482,1086,1086,1086,1086,,,,,
62105981,1087,1087,1087,1087,,,,,
62108480,1087,1087,1087,1087,,,,,
62110979,1088,1088,1088,1088,,,,,
62113478,1089,1089,1089,1089,,,,,
62115977,1090,1090,1090,1090,,,,,
62118476,1090,1090,1090,1090,,,,,
62120975,1091,1091,1091,1091,,,,,
62123474,1092,1092,1092,1092,,,,,
62125973,1093,1093,1093,1093,,,,,
62128472,1093,1093,1093,1093,,,,,
62130971,1094,1094,1094,1094,,,,,
62133470,1095,1095,1095,1095,,,,,
62135969,1096,1096,1096,1096,,,,,
62138468,1096,1096,1096,1096,,,,,
62140967,1097,1097,1097,1097,,,,,
62143466,1098,1098,1098,1098,,,,,
62145965,1099,1099,1099,1099,,,,,
62148464,1099,1099,1099,1099,,,,,
62150963,1100,1100,1100,1100,,,,,
62153462,1101,1101,1101,1101,,,,,
62155961,1101,1101,1101,1101,,,,,
62158460,1102,1102,1102,1102,,,,,
62160959,1103,1103,1103,1103,,,,,
62163458,1104,1104,1104,1104,,,,,
62165957,1104,1104,1104,1104,,,,,
62168456,1105,1105,1105,1105,,,,,
62170955,1106,1106,1106,1106,,,,,
62173454,1107,1107,1107,1107,,,,,
62175953,1107,1107,1107,1107,,,,,
62178452,1108,1108,1108,1108,,,,,
62180951,1109,1109,1109,1109,,,,,
62183450,1110,1110,1110,1110,,,,,
62185949,1110,1110,1110,1110,,,,,
62188448,1111,1111,1111,1111,,,,,
62190947,1112,1112,1112,1112,,,,,
62193446,1113,1113,1113,1113,,,,,
62195945,1113,1113,1113,1113,,,,,
62198444,1114,1114,1114,1114,,,,,
62200943,1115,1115,1115,1115,,,,,
62203442,1116,1116,1116,1116,,,,,
62205941,1116,1116,1116,1116,,,,,
62208440,1117,1117,1117,1117,,,,,
62210939,1118,1118,1118,1118,,,,,
62213438,1119,1119,1119,1119,,,,,
62215937,1119,1119,1119,1119,,,,,
62218436,1120,1120,1120,1120,,,,,
62220935,1121,1121,1121,1121,,,,,
62223434,1122,1122,1122,1122,,,,,
62225933,1122,1122,1122,1122,,,,,
62228432,1123,1123,1123,1123,,,,,
62230931,1124,1124,1124,1124,,,,,
62233430,1125,1125,1125,1125,,,,,
62235929,1125,1125,1125,1125,,,,,
62238428,1126,1126,1126,1126,,,,,
62240927,1127,1127,1127,1127,,,,,
62243426,1128,1128,1128,1128,,,,,
62245925,1128,1128,1128,1128,,,,,
62248424,1129,1129,1129,1129,,,,,
62250923,1130,1130,1130,1130,,,,,
62253422,1131,1131,1131,1131,,,,,
62255921,1131,1131,1131,1131,,,,,
62258420,1132,1132,1132,1132,,,,,
62260919,1133,1133,1133,1133,,,,,
62263418,1134,1134,1134,1134,,,,,
62265917,1134,1134,1134,1134,,,,,
62268416,1135,1135,1135,1135,,,,,
62270915,1136,1136,1136,1136,,,,,
62273414,1137,1137,1137,1137,,,,,
62275913,1137,1137,1137,1137,,,,,
62278412,1138,1138,1138,1138,,,,,
62280911,1139,1139,1139,1139,,,,,
62283410,1140,1140,1140,1140,,,,,
62285909,1140,1140,1140,1140,,,,,
62288408,1141,1141,1141,1141,,,,,
62290907,1142,1142,1142,1142,,,,,
62293406,1143,1143,1143,1143,,,,,
62295905,1143,1143,1143,1143,,,,,
62298404,1144,1144,1144,1144,,,,,
62300903,1145,1145,1145,1145,,,,,
62303402,1146,1146,1146,1146,,,,,
62305901,1146,1146,1146,1146,,,,,
62308400,1147,1147,1147,1147,,,,,
62310899,1148,1148,1148,1148,,,,,
62313398,1149,1149,1149,1149,,,,,
62315897,1149,1149,1149,1149,,,,,
62318396,1150,1150,1150,1150,,,,,
62320895,1162,1152,1153,1163,,,,,
62323394,1170,1161,1161,1171,,,,,
62325893,1178,1169,1169,1179,,,,,
62328392,1186,1176,1177,1186,,,,,
62330891,1193,1184,1185,1194,,,,,
62333390,1201,1192,1192,1201,,,,,
62335889,1208,1199,1200,1209,,,,,
62338388,1215,1206,1207,1216,,,,,
62340887,1222,1214,1214,1223,,,,,
62343386,1229,1221,1221,1230,,,,,
62345885,1236,1228,1228,1237,,,,,
62348384,1243,1235,1235,1243,,,,,
62350883,1250,1241,1242,1250,,,,,
62353382,1256,1248,1249,1257,,,,,
62355881,1263,1255,1255,1263,,,,,
62358380,1269,1261,1262,1270,,,,,
62360879,1275,1268,1268,1276,,,,,
62363378,1282,1274,1275,1282,,,,,
62365877,1288,1280,1281,1288,,,,,
62368376,1294,1287,1287,1295,,,,,
62370875,1300,1293,1293,1301,,,,,
62373374,1306,1299,1299,1307,,,,,
62375873,1312,1305,1305,1313,,,,,
62378372,1318,1311,1311,1318,,,,,
62380871,1324,1317,1317,1324,,,,,
62383370,1330,1322,1323,1330,,,,,
62385869,1335,1328,1329,1336,,,,,
62388368,1341,1334,1334,1341,,,,,
62390867,1346,1340,1340,1347,,,,,
62393366,1352,1345,1346,1352,,,,,
62395865,1357,1351,1351,1358,,,,,
62398364,1363,1356,1357,1363,,,,,
62400863,1368,1362,1362,1369,,,,,
62403362,1374,1367,1367,1374,,,,,
62405861,1379,1372,1373,1379,,,,,
62408360,1384,1378,1378,1385,,,,,
62410859,1389,1383,1383,1390,,,,,
62413358,1395,1388,1389,1395,,,,,
62415857,1400,1393,1394,1400,,,,,
62418356,1405,1398,1399,1405,,,,,
62420855,1410,1404,1404,1410,,,,,
62423354,1415,1409,1409,1415,,,,,
62425853,1420,1414,1414,1420,,,,,
62428352,1425,1419,1419,1425,,,,,
62430851,1430,1424,1424,1430,,,,,
62433350,1435,1428,1429,1435,,,,,
62435849,1439,1433,1433,1440,,,,,
62438348,1444,1438,1438,1445,,,,,
62440847,1449,1443,1443,1450,,,,,
62443346,1454,1448,1448,1454,,,,,
62445845,1458,1452,1453,1459,,,,,
62448344,1463,1457,1457,1464,,,,,
62450843,1468,1462,1462,1468,,,,,
62453342,1472,1466,1466,1473,,,,,
62455841,1477,1471,1471,1478,,,,,
62458340,1481,1476,1476,1482,,,,,
62460839,1486,1480,1480,1487,,,,,
62463338,1491,1485,1485,1491,,,,,
62465837,1495,1489,1489,1496,,,,,
62468336,1499,1494,1494,1500,,,,,
62470835,1504,1498,1498,1505,,,,,
62473334,1508,1502,1503,1509,,,,,
62475833,1513,1507,1507,1513,,,,,
62478332,1517,1511,1511,1518,,,,,
62480831,1521,1515,1516,1522,,,,,
62483330,1526,1520,1520,1526,,,,,
62485829,1530,1524,1524,1530,,,,,
62488328,1534,1528,1529,1535,,,,,
62490827,1538,1533,1533,1539,,,,,
62493326,1543,1537,1537,1543,,,,,
62495825,1547,1541,1541,1547,,,,,
62498324,1551,1545,1545,1551,,,,,
62500823,1555,1549,1550,1556,,,,,
62503322,1559,1553,1554,1560,,,,,
62505821,1563,1557,1558,1564,,,,,
62508320,1568,1562,1562,1568,,,,,
62510819,1572,1566,1566,1572,,,,,
62513318,1576,1570,1570,1576,,,,,
62515817,1580,1574,1574,1580,,,,,
62518316,1584,1578,1578,1584,,,,,
62520815,1588,1582,1582,1588,,,,,
62523314,1592,1586,1586,1592,,,,,
62525813,1596,1589,1590,1596,,,,,
62528312,1600,1593,1594,1600,,,,,
62530811,1603,1597,1598,1603,,,,,
62533310,1607,1601,1602,1607,,,,,
62535809,1611,1605,1606,1611,,,,,
62538308,1615,1609,1610,1615,,,,,
62540807,1619,1613,1614,1619,,,,,
62543306,1623,1617,1617,1623,,,,,
62545805,1626,1621,1621,1626,,,,,
62548304,1630,1624,1625,1630,,,,,
62550803,1634,1628,1629,1634,,,,,
62553302,1638,1632,1633,1638,,,,,
62555801,1641,1636,1636,1641,,,,,
62558300,1645,1639,1640,1645,,,,,
62560799,1649,1643,1644,1649,,,,,
62563298,1653,1647,1647,1653,,,,,
62565797,1656,1650,1651,1656,,,,,
62568296,1660,1654,1655,1660,,,,,
62570795,1664,1658,1658,1664,,,,,
62573294,1667,1661,1662,1667,,,,,
62575793,1671,1665,1666,1671,,,,,
62578292,1674,1669,1669,1674,,,,,
62580791,1678,1672,1673,1678,,,,,
62583290,1682,1676,1676,1682,,,,,
62585789,1685,1679,1680,1685,,,,,
62588288,1689,1683,1684,1689,,,,,
62590787,1692,1687,1687,1692,,,,,
62593286,1696,1690,1691,1696,,,,,
62595785,1699,1694,1694,1699,,,,,
62598284,1703,1697,1698,1703,,,,,
62600783,1706,1701,1701,1706,,,,,
62603282,1710,1704,1705,1710,,,,,
62605781,1713,1708,1708,1713,,,,,
62608280,1717,1711,1712,1717,,,,,
62610779,1720,1714,1715,1720,,,,,
62613278,1723,1718,1718,1723,,,,,
62615777,1727,1721,1722,1727,,,,,
62618276,1730,1725,1725,1730,,,,,
62620775,1734,1728,1729,1734,,,,,
62623274,1737,1731,1732,1737,,,,,
62625773,1740,1735,1735,1740,,,,,
62628272,1744,1738,1739,1744,,,,,
62630771,1747,1742,1742,1747,,,,,
62633270,1750,1745,1745,1750,,,,,
62635769,1754,1748,1749,1754,,,,,
62638268,1757,1752,1752,1757,,,,,
62640767,1760,1755,1755,1760,,,,,
62643266,1763,1758,1759,1764,,,,,
62645765,1767,1761,1762,1767,,,,,
62648264,1770,1765,1765,1770,,,,,
62650763,1773,1768,1768,1773,,,,,
62653262,1776,1771,1772,1777,,,,,
62655761,1780,1774,1775,1780,,,,,
62658260,1783,1778,1778,1783,,,,,
62660759,1786,1781,1781,1786,,,,,
62663258,1789,1784,1785,1790,,,,,
62665757,1793,1787,1788,1793,,,,,
62668256,1796,1790,1791,1796,,,,,
62670755,1799,1794,1794,1799,,,,,
62673254,1802,1797,1797,1802,,,,,
62675753,1805,1800,1800,1805,,,,,
62678252,1808,1803,1804,1809,,,,,
62680751,1811,1806,1807,1812,,,,,
62683250,1815,1809,1810,1815,,,,,
62685749,1818,1813,1813,1818,,,,,
62688248,1821,1816,1816,1821,,,,,
62690747,1824,1819,1819,1824,,,,,
62693246,1827,1822,1822,1827,,,,,
62695745,1830,1825,1825,1830,,,,,
62698244,1833,1828,1828,1834,,,,,
62700743,1836,1831,1831,1837,,,,,
62703242,1839,1834,1834,1840,,,,,
62705741,1842,1837,1837,1843,,,,,
62708240,1845,1840,1840,1846,,,,,
62710739,1848,1843,1843,1849,,,,,
62713238,1851,1846,1846,1852,,,,,
62715737,1854,1849,1849,1855,,,,,
62718236,1857,1852,1852,1858,,,,,
62720735,1860,1855,1855,1861,,,,,
62723234,1863,1858,1858,1864,,,,,
62725733,1866,1861,1861,1867,,,,,
62728232,1869,1864,1864,1870,,,,,
62730731,1872,1867,1867,1873,,,,,
62733230,1875,1870,1870,1876,,,,,
62735729,1878,1873,1873,1879,,,,,
62738228,1881,1876,1876,1882,,,,,
62740727,1884,1879,1879,1885,,,,,
62743226,1887,1882,1882,1888,,,,,
62745725,1890,1885,1885,1891,,,,,
62748224,1893,1888,1888,1894,,,,,
62750723,1896,1891,1891,1896,,,,,
62753222,1899,1894,1894,1899,,,,,
62755721,1902,1897,1896,1902,,,,,
62758220,1904,1899,1899,1905,,,,,
62760719,1907,1902,1902,1908,,,,,
62763218,1906,1901,1901,1907,,,,,
62765717,1905,1900,1900,1906,,,,,
62768216,1904,1899,1899,1905,,,,,
62770715,1903,1898,1898,1904,,,,,
62773214,1903,1897,1897,1903,,,,,
62775713,1902,1896,1897,1902,,,,,
62778212,1901,1896,1896,1901,,,,,
62780711,1900,1895,1895,1901,,,,,
62783210,1899,1894,1894,1900,,,,,
62785709,1899,1893,1894,1899,,,,,
62788208,1898,1893,1893,1899,,,,,
62790707,1898,1892,1893,1898,,,,,
62793206,1897,1892,1892,1898,,,,,
62795705,1897,1892,1892,1897,,,,,
62798204,1897,1891,1892,1897,,,,,
62800703,1897,1891,1892,1897,,,,,
62803202,1897,1891,1892,1897,,,,,
62805701,1897,1891,1892,1897,,,,,
62808200,1897,1891,1892,1897,,,,,
62810699,1897,1892,1892,1897,,,,,
62813198,1897,1892,1892,1897,,,,,
62815697,1897,1892,1893,1898,,,,,
62818196,1897,1893,1893,1898,,,,,
62820695,1897,1893,1893,1898,,,,,
62823194,1897,1893,1893,1898,,,,,
62825693,1897,1893,1893,1898,,,,,
62828192,1897,1893,1893,1897,,,,,
62830691,1897,1893,1893,1897,,,,,
62833190,1896,1893,1893,1897,,,,,
62835689,1895,1892,1892,1896,,,,,
62838188,1895,1891,1891,1895,,,,,
62840687,1894,1891,1891,1894,,,,,
62843186,1893,1890,1890,1893,,,,,
62845685,1891,1889,1889,1892,,,,,
62848184,1890,1887,1887,1891,,,,,
62850683,1889,1886,1886,1889,,,,,
62853182,1887,1884,1884,1888,,,,,
62855681,1885,1882,1882,1886,,,,,
62858180,1883,1881,1880,1884,,,,,
62860679,1881,1879,1878,1882,,,,,
62863178,1879,1876,1876,1880,,,,,
62865677,1877,1874,1874,1877,,,,,
62868176,1874,1872,1872,1875,,,,,
62870675,1872,1869,1869,1872,,,,,
62873174,1869,1867,1867,1870,,,,,
62875673,1867,1864,1864,1867,,,,,
62878172,1864,1862,1862,1865,,,,,
62880671,1861,1859,1859,1862,,,,,
62883170,1858,1856,1857,1859,,,,,
62885669,1855,1853,1854,1856,,,,,
62888168,1852,1851,1851,1852,,,,,
62890667,1849,1847,1848,1849,,,,,
62893166,1846,1844,1845,1846,,,,,
62895665,1843,1841,1842,1843,,,,,
62898164,1839,1838,1838,1839,,,,,
62900663,1836,1834,1835,1836,,,,,
62903162,1833,1831,1831,1833,,,,,
62905661,1829,1827,1828,1829,,,,,
62908160,1825,1824,1824,1826,,,,,
62910659,1822,1820,1821,1822,,,,,
62913158,1818,1817,1817,1819,,,,,
62915657,1815,1813,1813,1815,,,,,
62918156,1811,1810,1810,1812,,,,,
62920655,1808,1806,1806,1808,,,,,
62923154,1804,1803,1802,1805,,,,,
62926486,1800,1799,1799,1801,,,,,
62928985,1797,1795,1795,1798,,,,,
62931484,1793,1792,1791,1794,,,,,
62933983,1789,1788,1787,1791,,,,,
62936482,1786,1785,1784,1787,,,,,
62938981,1782,1781,1780,1784,,,,,
62941480,1779,1778,1776,1780,,,,,
62943979,1775,1774,1773,1777,,,,,
62946478,1771,1770,1769,1773,,,,,
62948977,1768,1767,1766,1770,,,,,
62951476,1764,1763,1762,1766,,,,,
62953975,1761,1760,1759,1763,,,,,
62956474,1757,1757,1755,1759,,,,,
62958973,1754,1753,1752,1756,,,,,
62961472,1750,1750,1748,1752,,,,,
62963971,1747,1746,1745,1749,,,,,
62966470,1743,1743,1741,1746,,,,,
62968969,1740,1740,1738,1742,,,,,
62971468,1737,1736,1735,1739,,,,,
62973967,1733,1733,1731,1736,,,,,
62976466,1730,1730,1728,1733,,,,,
62978965,1727,1727,1725,1729,,,,,
62981464,1724,1724,1722,1726,,,,,
62983963,1721,1721,1718,1723,,,,,
62986462,1718,1718,1715,1720,,,,,
62988961,1715,1715,1712,1717,,,,,
62991460,1712,1712,1709,1714,,,,,
62993959,1709,1709,1707,1712,,,,,
62996458,1706,1706,1704,1709,,,,,
62998957,1703,1703,1701,1706,,,,,
63001456,1700,1701,1698,1703,,,,,
63003955,1698,1698,1696,1701,,,,,
63006454,1695,1695,1693,1698,,,,,
63008953,1693,1693,1690,1696,,,,,
