TimeUS,M1,M2,M3,M4,TimeUS,C1,C2,C3,C4
51148699,1000,1000,1000,1000,51228667,1000,1000,1000,1000
51151198,1000,1000,1000,1000,51328627,1000,1000,1000,1000
51153697,1000,1000,1000,1000,51428587,1000,1000,1000,1000
51156196,1000,1000,1000,1000,51528547,1000,1000,1000,1000
51158695,1000,1000,1000,1000,51628507,1000,1000,1000,1000
51161194,1000,1000,1000,1000,51728467,1000,1000,1000,1000
51163693,1000,1000,1000,1000,51828427,1000,1000,1000,1000
51166192,1000,1000,1000,1000,51928387,1000,1000,1000,1000
51168691,1000,1000,1000,1000,52028347,1000,1000,1000,1000
51171190,1000,1000,1000,1000,52128307,1000,1000,1000,1000
51173689,1000,1000,1000,1000,52228267,1000,1000,1000,1000
51176188,1000,1000,1000,1000,52328227,1000,1000,1000,1000
51178687,1000,1000,1000,1000,52428187,1000,1000,1000,1000
51181186,1000,1000,1000,1000,52528980,1000,1000,1000,1000
51183685,1000,1000,1000,1000,52628940,1000,1000,1000,1000
51186184,1000,1000,1000,1000,52728900,1000,1000,1000,1000
51188683,1000,1000,1000,1000,52828860,1000,1000,1000,1000
51191182,1000,1000,1000,1000,52928820,1000,1000,1000,1000
51193681,1000,1000,1000,1000,53028780,1000,1000,1000,1000
51196180,1000,1000,1000,1000,53128740,1000,1000,1000,1000
51198679,1000,1000,1000,1000,53228700,1024,1024,1024,1024
51201178,1000,1000,1000,1000,53328660,1054,1054,1054,1054
51203677,1000,1000,1000,1000,53428620,1084,1084,1084,1084
51206176,1000,1000,1000,1000,53528580,1113,1113,1113,1113
51208675,1000,1000,1000,1000,53628540,1143,1143,1143,1143
51211174,1000,1000,1000,1000,53728500,1357,1351,1352,1357
51213673,1000,1000,1000,1000,53828460,1546,1542,1542,1546
51216172,1000,1000,1000,1000,53928420,1699,1694,1694,1699
51218671,1000,1000,1000,1000,54028380,1830,1825,1826,1830
51221170,1000,1000,1000,1000,54128340,1834,1829,1829,1834
51223669,1000,1000,1000,1000,54228300,1826,1823,1824,1826
51226168,1000,1000,1000,1000,54328260,1694,1694,1694,1695
51228667,1000,1000,1000,1000,54428220,1614,1616,1616,1614
51231166,1000,1000,1000,1000,54528180,1606,1608,1608,1606
51233665,1000,1000,1000,1000,54628973,1624,1626,1626,1624
51236164,1000,1000,1000,1000,54728933,1638,1638,1639,1637
51238663,1000,1000,1000,1000,54828893,1639,1638,1638,1639
51241162,1000,1000,1000,1000,54928853,1633,1632,1632,1633
51243661,1000,1000,1000,1000,55028813,1627,1626,1626,1626
51246160,1000,1000,1000,1000,55128773,1624,1623,1623,1624
51248659,1000,1000,1000,1000,55228733,1621,1621,1621,1622
51251158,1000,1000,1000,1000,55328693,1593,1594,1593,1594
51253657,1000,1000,1000,1000,55428653,1588,1588,1580,1595
51256156,1000,1000,1000,1000,55528613,1582,1582,1575,1590
51258655,1000,1000,1000,1000,55628573,1581,1580,1577,1584
51261154,1000,1000,1000,1000,55728533,1580,1580,1580,1580
51263653,1000,1000,1000,1000,55828493,1582,1582,1584,1580
51266152,1000,1000,1000,1000,55928453,1584,1584,1588,1580
51268651,1000,1000,1000,1000,56028413,1565,1566,1579,1552
51271150,1000,1000,1000,1000,56128373,1556,1557,1567,1546
51273649,1000,1000,1000,1000,56228333,1548,1548,1550,1547
51276148,1000,1000,1000,1000,56328293,1539,1539,1533,1546
51278647,1000,1000,1000,1000,56428253,1533,1532,1524,1542
51281146,1000,1000,1000,1000,56528213,1531,1531,1524,1539
51283645,1000,1000,1000,1000,56628173,1532,1532,1528,1537
51286144,1000,1000,1000,1000,56728966,1535,1535,1534,1535
51288643,1000,1000,1000,1000,56828926,1538,1538,1541,1535
51291142,1000,1000,1000,1000,56928886,1541,1541,1545,1537
51293641,1000,1000,1000,1000,57028846,1545,1545,1548,1541
51296140,1000,1000,1000,1000,57128806,1547,1548,1549,1546
51298639,1000,1000,1000,1000,57228766,1550,1549,1550,1550
51301138,1000,1000,1000,1000,57328726,1547,1547,1555,1558
51303637,1000,1000,1000,1000,57428686,1549,1549,1556,1561
51306136,1000,1000,1000,1000,57528646,1552,1553,1558,1561
51308635,1000,1000,1000,1000,57628606,1556,1557,1560,1561
51311134,1000,1000,1000,1000,57728566,1561,1561,1562,1562
51313633,1000,1000,1000,1000,57828526,1564,1564,1563,1561
51316132,1000,1000,1000,1000,57928486,1567,1567,1564,1563
51318631,1000,1000,1000,1000,58028446,1569,1568,1563,1563
51321130,1000,1000,1000,1000,58128406,1571,1571,1565,1565
51323629,1000,1000,1000,1000,58228366,1571,1571,1565,1565
51326128,1000,1000,1000,1000,58328326,1571,1571,1565,1566
51328627,1000,1000,1000,1000,58428286,1572,1571,1567,1568
51331126,1000,1000,1000,1000,58528246,1572,1572,1569,1570
51333625,1000,1000,1000,1000,58628206,1573,1573,1572,1572
51336124,1000,1000,1000,1000,58728166,1572,1572,1573,1572
51338623,1000,1000,1000,1000,58828959,1573,1573,1575,1573
51341122,1000,1000,1000,1000,58928919,1573,1574,1576,1575
51343621,1000,1000,1000,1000,59028879,1573,1574,1576,1575
51346120,1000,1000,1000,1000,59128839,1575,1574,1577,1576
51348619,1000,1000,1000,1000,59228799,1574,1574,1576,1576
51351118,1000,1000,1000,1000,59328759,1575,1575,1576,1576
51353617,1000,1000,1000,1000,59428719,1576,1576,1576,1577
51356116,1000,1000,1000,1000,59528679,1576,1576,1577,1576
51358615,1000,1000,1000,1000,59628639,1576,1576,1576,1576
51361114,1000,1000,1000,1000,59728599,1577,1577,1576,1577
51363613,1000,1000,1000,1000,59828559,1578,1578,1577,1577
51366112,1000,1000,1000,1000,59928519,1578,1578,1577,1577
51368611,1000,1000,1000,1000,60028479,1578,1578,1577,1577
51371110,1000,1000,1000,1000,60128439,1578,1578,1578,1577
51373609,1000,1000,1000,1000,60228399,1579,1580,1579,1579
51376108,1000,1000,1000,1000,60328359,1578,1578,1578,1578
51378607,1000,1000,1000,1000,60428319,1578,1578,1578,1578
51381106,1000,1000,1000,1000,60528279,1578,1578,1578,1578
51383605,1000,1000,1000,1000,60628239,1579,1579,1579,1579
51386104,1000,1000,1000,1000,60728199,1578,1578,1578,1578
51388603,1000,1000,1000,1000,60828159,1578,1578,1578,1578
51391102,1000,1000,1000,1000,60928952,1578,1579,1579,1579
51393601,1000,1000,1000,1000,61028912,1579,1579,1579,1579
51396100,1000,1000,1000,1000,61128872,1578,1578,1579,1578
51398599,1000,1000,1000,1000,61228832,1579,1579,1580,1579
51401098,1000,1000,1000,1000,61328792,1578,1578,1579,1579
51403597,1000,1000,1000,1000,61428752,1579,1579,1579,1579
51406096,1000,1000,1000,1000,61528712,1579,1580,1579,1580
51408595,1000,1000,1000,1000,61628672,1579,1579,1579,1579
51411094,1000,1000,1000,1000,61728632,1579,1578,1579,1579
51413593,1000,1000,1000,1000,61828592,1579,1579,1578,1579
51416092,1000,1000,1000,1000,61928552,1579,1579,1579,1579
51418591,1000,1000,1000,1000,62028512,1580,1580,1580,1580
51421090,1000,1000,1000,1000,62128472,1580,1580,1580,1580
51423589,1000,1000,1000,1000,62228432,1580,1579,1580,1579
51426088,1000,1000,1000,1000,62328392,1580,1580,1580,1580
51428587,1000,1000,1000,1000,62428352,1580,1580,1580,1581
51431086,1000,1000,1000,1000,62528312,1580,1580,1581,1580
51433585,1000,1000,1000,1000,62628272,1579,1580,1580,1579
51436084,1000,1000,1000,1000,62728232,1580,1580,1581,1580
51438583,1000,1000,1000,1000,62828192,1582,1581,1582,1582
51441082,1000,1000,1000,1000,62928985,1581,1581,1581,1581
51443581,1000,1000,1000,1000,63028945,1581,1581,1581,1581
51446080,1000,1000,1000,1000,63128905,1582,1581,1581,1582
51448579,1000,1000,1000,1000,63228865,1581,1582,1582,1582
51451078,1000,1000,1000,1000,63328825,1580,1580,1580,1580
51453577,1000,1000,1000,1000,63428785,1581,1581,1581,1582
51456076,1000,1000,1000,1000,63528745,1582,1582,1582,1581
51458575,1000,1000,1000,1000,63628705,1581,1582,1588,1574
51461074,1000,1000,1000,1000,63728665,1580,1582,1584,1573
51463573,1000,1000,1000,1000,63828625,1578,1581,1576,1572
51466072,1000,1000,1000,1000,63928585,1577,1580,1567,1571
51468571,1000,1000,1000,1000,64028545,1576,1578,1560,1567
51471070,1000,1000,1000,1000,64128505,1577,1577,1556,1562
51473569,1000,1000,1000,1000,64228465,1578,1577,1555,1558
51476068,1000,1000,1000,1000,64328425,1579,1577,1555,1555
51478567,1000,1000,1000,1000,64428385,1579,1578,1556,1554
51481066,1000,1000,1000,1000,64528345,1577,1577,1556,1553
51483565,1000,1000,1000,1000,64628305,1576,1577,1556,1553
51486064,1000,1000,1000,1000,64728265,1575,1576,1555,1554
51488563,1000,1000,1000,1000,64828225,1574,1577,1554,1554
51491062,1000,1000,1000,1000,64928185,1575,1576,1553,1553
51493561,1000,1000,1000,1000,65028978,1575,1577,1552,1552
51496060,1000,1000,1000,1000,65128938,1576,1577,1550,1550
51498559,1000,1000,1000,1000,65228898,1578,1579,1548,1548
51501058,1000,1000,1000,1000,65328858,1581,1581,1545,1546
51503557,1000,1000,1000,1000,65428818,1584,1585,1543,1542
51506056,1000,1000,1000,1000,65528778,1587,1588,1541,1540
51508555,1000,1000,1000,1000,65628738,1590,1590,1538,1537
51511054,1000,1000,1000,1000,65728698,1593,1593,1536,1536
51513553,1000,1000,1000,1000,65828658,1594,1594,1535,1535
51516052,1000,1000,1000,1000,65928618,1595,1595,1535,1536
51518551,1000,1000,1000,1000,66028578,1594,1594,1536,1538
51521050,1000,1000,1000,1000,66128538,1592,1592,1539,1542
51523549,1000,1000,1000,1000,66228498,1589,1588,1544,1548
51526048,1000,1000,1000,1000,66328458,1584,1581,1552,1556
51528547,1000,1000,1000,1000,66428418,1575,1572,1562,1565
51531046,1000,1000,1000,1000,66528378,1565,1561,1574,1576
51533545,1000,1000,1000,1000,66628338,1554,1551,1587,1588
51536044,1000,1000,1000,1000,66728298,1544,1542,1599,1598
51538543,1000,1000,1000,1000,66828258,1535,1535,1607,1606
51541042,1000,1000,1000,1000,66928218,1531,1531,1613,1612
51543541,1000,1000,1000,1000,67028178,1529,1531,1615,1614
51546040,1000,1000,1000,1000,67128971,1532,1534,1614,1613
51548539,1000,1000,1000,1000,67228931,1538,1540,1610,1609
51551038,1000,1000,1000,1000,67328891,1545,1547,1603,1604
51553537,1000,1000,1000,1000,67428851,1554,1555,1596,1597
51556036,1000,1000,1000,1000,67528811,1562,1563,1589,1588
51558535,1000,1000,1000,1000,67628771,1569,1569,1581,1579
51561034,1000,1000,1000,1000,67728731,1578,1577,1576,1575
51563533,1000,1000,1000,1000,67828691,1583,1582,1572,1571
51566032,1000,1000,1000,1000,67928651,1587,1585,1568,1568
51568531,1000,1000,1000,1000,68028611,1588,1587,1567,1568
51571030,1000,1000,1000,1000,68128571,1588,1587,1567,1567
51573529,1000,1000,1000,1000,68228531,1380,1380,1599,1603
51576028,1000,1000,1000,1000,68328491,1443,1448,1624,1629
51578527,1000,1000,1000,1000,68428451,1492,1498,1620,1619
51581026,1000,1000,1000,1000,68528411,1535,1540,1610,1605
51583525,1000,1000,1000,1000,68628371,1568,1571,1602,1595
51586024,1000,1000,1000,1000,68728331,1592,1590,1594,1589
51588523,1000,1000,1000,1000,68828291,1610,1604,1589,1588
51591022,1000,1000,1000,1000,68928251,1626,1618,1575,1578
51593521,1000,1000,1000,1000,69028211,1646,1641,1551,1557
51596020,1000,1000,1000,1000,69128171,1662,1656,1535,1541
51598519,1000,1000,1000,1000,69228964,1657,1655,1537,1543
51601018,1000,1000,1000,1000,69328924,1646,1648,1545,1549
51603517,1000,1000,1000,1000,69428884,1635,1639,1552,1554
51606016,1000,1000,1000,1000,69528844,1626,1630,1559,1557
51608515,1000,1000,1000,1000,69628804,1619,1622,1564,1561
51611014,1000,1000,1000,1000,69728764,1615,1614,1568,1565
51613513,1000,1000,1000,1000,69828724,1605,1599,1577,1576
51616012,1000,1000,1000,1000,69928684,1589,1582,1591,1591
51618511,1000,1000,1000,1000,70028644,1571,1566,1604,1605
51621010,1000,1000,1000,1000,70128604,1557,1557,1609,1611
51623509,1000,1000,1000,1000,70228564,1550,1553,1608,1610
51626008,1000,1000,1000,1000,70328524,1548,1555,1606,1606
51628507,1000,1000,1000,1000,70428484,1551,1558,1603,1601
51631006,1000,1000,1000,1000,70528444,1556,1561,1598,1596
51633505,1000,1000,1000,1000,70628404,1562,1564,1593,1590
51636004,1000,1000,1000,1000,70728364,1568,1568,1589,1586
51638503,1000,1000,1000,1000,70828324,1574,1572,1584,1583
51641002,1000,1000,1000,1000,70928284,1578,1575,1580,1580
51643501,1000,1000,1000,1000,71028244,1581,1579,1575,1576
51646000,1000,1000,1000,1000,71128204,1587,1586,1569,1571
51648499,1000,1000,1000,1000,71228164,1592,1592,1564,1565
51650998,1000,1000,1000,1000,71328957,1595,1596,1561,1561
51653497,1000,1000,1000,1000,71428917,1597,1597,1561,1561
51655996,1000,1000,1000,1000,71528877,1596,1596,1563,1563
51658495,1000,1000,1000,1000,71628837,1595,1591,1574,1562
51660994,1000,1000,1000,1000,71728797,1592,1586,1577,1567
51663493,1000,1000,1000,1000,71828757,1586,1581,1574,1573
51665992,1000,1000,1000,1000,71928717,1577,1575,1569,1574
51668491,1000,1000,1000,1000,72028677,1571,1573,1567,1573
51670990,1000,1000,1000,1000,72128637,1567,1573,1565,1569
51673489,1000,1000,1000,1000,72228597,1567,1573,1565,1565
51675988,1000,1000,1000,1000,72328557,1568,1572,1564,1562
51678487,1000,1000,1000,1000,72428517,1569,1572,1562,1558
51680986,1000,1000,1000,1000,72528477,1570,1571,1559,1556
51683485,1000,1000,1000,1000,72628437,1572,1571,1557,1554
51685984,1000,1000,1000,1000,72728397,1573,1571,1553,1553
51688483,1000,1000,1000,1000,72828357,1573,1572,1551,1551
51690982,1000,1000,1000,1000,72928317,1574,1573,1549,1550
51693481,1000,1000,1000,1000,73028277,1574,1575,1546,1547
51695980,1000,1000,1000,1000,73128237,1575,1577,1543,1543
51698479,1000,1000,1000,1000,73228197,1578,1580,1540,1539
51700978,1000,1000,1000,1000,73328157,1582,1584,1538,1536
51703477,1000,1000,1000,1000,73428950,1585,1587,1534,1533
51705976,1000,1000,1000,1000,73528910,1588,1589,1530,1530
51708475,1000,1000,1000,1000,73628870,1591,1592,1529,1529
51710974,1000,1000,1000,1000,73728830,1593,1593,1528,1529
51713473,1000,1000,1000,1000,73828790,1594,1594,1530,1531
51715972,1000,1000,1000,1000,73928750,1593,1593,1532,1534
51718471,1000,1000,1000,1000,74028710,1592,1592,1537,1540
51720970,1000,1000,1000,1000,74128670,1589,1588,1541,1546
51723469,1000,1000,1000,1000,74228630,1584,1583,1547,1552
51725968,1000,1000,1000,1000,74328590,1578,1577,1554,1558
51728467,1000,1000,1000,1000,74428550,1572,1571,1561,1564
51730966,1000,1000,1000,1000,74528510,1566,1564,1568,1571
51733465,1000,1000,1000,1000,74628470,1559,1558,1574,1577
51735964,1000,1000,1000,1000,74728430,1553,1552,1580,1582
51738463,1000,1000,1000,1000,74828390,1549,1548,1587,1588
51740962,1000,1000,1000,1000,74928350,1545,1544,1592,1592
51743461,1000,1000,1000,1000,75028310,1541,1541,1596,1595
51745960,1000,1000,1000,1000,75128270,1538,1538,1599,1597
51748459,1000,1000,1000,1000,75228230,1537,1537,1601,1600
51750958,1000,1000,1000,1000,75328190,1538,1539,1602,1600
51753457,1000,1000,1000,1000,75428983,1539,1540,1600,1600
51755956,1000,1000,1000,1000,75528943,1542,1544,1598,1598
51758455,1000,1000,1000,1000,75628903,1547,1549,1594,1595
51760954,1000,1000,1000,1000,75728863,1553,1554,1590,1590
51763453,1000,1000,1000,1000,75828823,1559,1560,1585,1585
51765952,1000,1000,1000,1000,75928783,1566,1566,1581,1581
51768451,1000,1000,1000,1000,76028743,1571,1570,1577,1576
51770950,1000,1000,1000,1000,76128703,1575,1574,1575,1574
51773449,1000,1000,1000,1000,76228663,1579,1578,1573,1572
51775948,1000,1000,1000,1000,76328623,1581,1580,1572,1571
51778447,1000,1000,1000,1000,76428583,1583,1582,1572,1571
51780946,1000,1000,1000,1000,76528543,1584,1584,1572,1572
51783445,1000,1000,1000,1000,76628503,1585,1584,1572,1573
51785944,1000,1000,1000,1000,76728463,1584,1583,1571,1572
51788443,1000,1000,1000,1000,76828423,1583,1584,1572,1573
51790942,1000,1000,1000,1000,76928383,1583,1583,1574,1574
51793441,1000,1000,1000,1000,77028343,1583,1583,1575,1575
51795940,1000,1000,1000,1000,77128303,1581,1581,1575,1575
51798439,1000,1000,1000,1000,77228263,1580,1580,1576,1575
51800938,1000,1000,1000,1000,77328223,1580,1580,1577,1577
51803437,1000,1000,1000,1000,77428183,1579,1580,1578,1578
51805936,1000,1000,1000,1000,77528976,1579,1579,1578,1578
51808435,1000,1000,1000,1000,77628936,1579,1579,1579,1579
51810934,1000,1000,1000,1000,77728896,1579,1578,1580,1580
51813433,1000,1000,1000,1000,77828856,1578,1579,1580,1581
51815932,1000,1000,1000,1000,77928816,1578,1578,1581,1581
51818431,1000,1000,1000,1000,78028776,1578,1578,1581,1580
51820930,1000,1000,1000,1000,78128736,1578,1578,1580,1580
51823429,1000,1000,1000,1000,78228696,1579,1579,1581,1581
51825928,1000,1000,1000,1000,78328656,1579,1579,1582,1581
51828427,1000,1000,1000,1000,78428616,1579,1579,1580,1580
51830926,1000,1000,1000,1000,78528576,1579,1579,1579,1580
51833425,1000,1000,1000,1000,78628536,1579,1579,1579,1580
51835924,1000,1000,1000,1000,78728496,1580,1580,1580,1580
51838423,1000,1000,1000,1000,78828456,1581,1580,1580,1579
51840922,1000,1000,1000,1000,78928416,1580,1580,1579,1579
51843421,1000,1000,1000,1000,79028376,1580,1581,1579,1579
51845920,1000,1000,1000,1000,79128336,1580,1581,1579,1579
51848419,1000,1000,1000,1000,79228296,1581,1581,1580,1580
51850918,1000,1000,1000,1000,79328256,1581,1580,1579,1579
51853417,1000,1000,1000,1000,79428216,1581,1581,1580,1580
51855916,1000,1000,1000,1000,79528176,1581,1581,1580,1580
51858415,1000,1000,1000,1000,79628969,1581,1582,1580,1581
51860914,1000,1000,1000,1000,79728929,1582,1582,1581,1581
51863413,1000,1000,1000,1000,79828889,1582,1582,1582,1582
51865912,1000,1000,1000,1000,79928849,1581,1581,1581,1580
51868411,1000,1000,1000,1000,80028809,1581,1581,1581,1580
51870910,1000,1000,1000,1000,80128769,1581,1581,1581,1582
51873409,1000,1000,1000,1000,80228729,1581,1582,1581,1581
51875908,1000,1000,1000,1000,80328689,1581,1581,1580,1581
51878407,1000,1000,1000,1000,80428649,1582,1582,1582,1582
51880906,1000,1000,1000,1000,80528609,1582,1581,1588,1575
51883405,1000,1000,1000,1000,80628569,1581,1581,1586,1573
51885904,1000,1000,1000,1000,80728529,1580,1581,1578,1574
51888403,1000,1000,1000,1000,80828489,1578,1580,1569,1572
51890902,1000,1000,1000,1000,80928449,1577,1579,1563,1570
51893401,1000,1000,1000,1000,81028409,1576,1579,1558,1564
51895900,1000,1000,1000,1000,81128369,1577,1579,1557,1561
51898399,1000,1000,1000,1000,81228329,1578,1579,1558,1558
51900898,1000,1000,1000,1000,81328289,1578,1578,1558,1556
51903397,1000,1000,1000,1000,81428249,1579,1578,1558,1556
51905896,1000,1000,1000,1000,81528209,1578,1577,1557,1555
51908395,1000,1000,1000,1000,81628169,1577,1577,1555,1555
51910894,1000,1000,1000,1000,81728962,1576,1577,1554,1554
51913393,1000,1000,1000,1000,81828922,1575,1576,1552,1552
51915892,1000,1000,1000,1000,81928882,1575,1577,1551,1551
51918391,1000,1000,1000,1000,82028842,1576,1578,1550,1550
51920890,1000,1000,1000,1000,82128802,1578,1579,1549,1549
51923389,1000,1000,1000,1000,82228762,1579,1580,1547,1546
51925888,1000,1000,1000,1000,82328722,1581,1582,1545,1544
51928387,1000,1000,1000,1000,82428682,1583,1584,1543,1542
51930886,1000,1000,1000,1000,82528642,1585,1585,1540,1540
51933385,1000,1000,1000,1000,82628602,1587,1587,1539,1539
51935884,1000,1000,1000,1000,82728562,1589,1589,1538,1539
51938383,1000,1000,1000,1000,82828522,1591,1590,1538,1540
51940882,1000,1000,1000,1000,82928482,1590,1590,1539,1540
51943381,1000,1000,1000,1000,83028442,1590,1590,1541,1543
51945880,1000,1000,1000,1000,83128402,1588,1587,1543,1546
51948379,1000,1000,1000,1000,83228362,1586,1585,1549,1551
51950878,1000,1000,1000,1000,83328322,1582,1580,1555,1558
51953377,1000,1000,1000,1000,83428282,1576,1572,1562,1565
51955876,1000,1000,1000,1000,83528242,1568,1564,1573,1575
51958375,1000,1000,1000,1000,83628202,1558,1555,1584,1585
51960874,1000,1000,1000,1000,83728162,1548,1546,1594,1595
51963373,1000,1000,1000,1000,83828955,1539,1539,1603,1603
51965872,1000,1000,1000,1000,83928915,1533,1534,1609,1608
51968371,1000,1000,1000,1000,84028875,1531,1533,1612,1611
51970870,1000,1000,1000,1000,84128835,1531,1533,1611,1610
51973369,1000,1000,1000,1000,84228795,1535,1538,1609,1609
51975868,1000,1000,1000,1000,84328755,1541,1542,1603,1603
51978367,1000,1000,1000,1000,84428715,1548,1550,1597,1597
51980866,1000,1000,1000,1000,84528675,1556,1557,1590,1589
51983365,1000,1000,1000,1000,84628635,1564,1565,1583,1582
51985864,1000,1000,1000,1000,84728595,1572,1572,1577,1576
51988363,1000,1000,1000,1000,84828555,1579,1578,1572,1571
51990862,1000,1000,1000,1000,84928515,1585,1583,1569,1569
51993361,1000,1000,1000,1000,85028475,1588,1586,1566,1566
51995860,1000,1000,1000,1000,85128435,1590,1588,1566,1566
51998359,1000,1000,1000,1000,85228395,1591,1589,1567,1568
52000858,1000,1000,1000,1000,85328355,1589,1588,1568,1569
52003357,1000,1000,1000,1000,85428315,1586,1586,1570,1571
52005856,1000,1000,1000,1000,85528275,1584,1584,1574,1574
52008355,1000,1000,1000,1000,85628235,1582,1582,1578,1577
52010854,1000,1000,1000,1000,85728195,1579,1580,1580,1580
52013353,1000,1000,1000,1000,85828155,1576,1577,1581,1581
52015852,1000,1000,1000,1000,85928948,1575,1576,1584,1584
52018351,1000,1000,1000,1000,86028908,1574,1574,1585,1585
52020850,1000,1000,1000,1000,86128868,1573,1574,1584,1584
52023349,1000,1000,1000,1000,86228828,1573,1574,1585,1585
52025848,1000,1000,1000,1000,86328788,1574,1574,1583,1583
52028347,1000,1000,1000,1000,86428748,1574,1575,1582,1582
52030846,1000,1000,1000,1000,86528708,1576,1576,1582,1582
52033345,1000,1000,1000,1000,86628668,1577,1577,1580,1580
52035844,1000,1000,1000,1000,86728628,1579,1579,1579,1579
52038343,1000,1000,1000,1000,86828588,1580,1580,1578,1578
52040842,1000,1000,1000,1000,86928548,1581,1581,1578,1578
52043341,1000,1000,1000,1000,87028508,1582,1582,1578,1578
52045840,1000,1000,1000,1000,87128468,1582,1581,1576,1577
52048339,1000,1000,1000,1000,87228428,1583,1582,1578,1578
52050838,1000,1000,1000,1000,87328388,1583,1582,1578,1578
52053337,1000,1000,1000,1000,87428348,1581,1581,1577,1577
52055836,1000,1000,1000,1000,87528308,1582,1582,1579,1579
52058335,1000,1000,1000,1000,87628268,1580,1581,1579,1579
52060834,1000,1000,1000,1000,87728228,1581,1581,1580,1580
52063333,1000,1000,1000,1000,87828188,1581,1581,1581,1581
52065832,1000,1000,1000,1000,87928981,1580,1579,1580,1580
52068331,1000,1000,1000,1000,88028941,1580,1579,1581,1581
52070830,1000,1000,1000,1000,88128901,1580,1580,1582,1582
52073329,1000,1000,1000,1000,88228861,1579,1579,1581,1581
52075828,1000,1000,1000,1000,88328821,1580,1580,1582,1582
52078327,1000,1000,1000,1000,88428781,1580,1581,1582,1582
52080826,1000,1000,1000,1000,88528741,1580,1580,1581,1581
52083325,1000,1000,1000,1000,88628701,1580,1580,1586,1575
52085824,1000,1000,1000,1000,88728661,1581,1581,1588,1574
52088323,1000,1000,1000,1000,88828621,1580,1579,1581,1575
52090822,1000,1000,1000,1000,88928581,1577,1576,1572,1574
52093321,1000,1000,1000,1000,89028541,1574,1573,1567,1574
52095820,1000,1000,1000,1000,89128501,1572,1572,1565,1572
52098319,1000,1000,1000,1000,89228461,1569,1570,1564,1569
52100818,1000,1000,1000,1000,89328421,1568,1568,1565,1567
52103317,1000,1000,1000,1000,89428381,1567,1568,1567,1566
52105816,1000,1000,1000,1000,89528341,1566,1567,1568,1566
52108315,1000,1000,1000,1000,89628301,1566,1567,1568,1566
52110814,1000,1000,1000,1000,89728261,1565,1565,1568,1565
52113313,1000,1000,1000,1000,89828221,1564,1564,1566,1565
52115812,1000,1000,1000,1000,89928181,1563,1563,1565,1565
52118311,1000,1000,1000,1000,90028974,1563,1562,1564,1564
52120810,1000,1000,1000,1000,90128934,1562,1562,1562,1563
52123309,1000,1000,1000,1000,90228894,1561,1561,1562,1562
52125808,1000,1000,1000,1000,90328854,1561,1560,1561,1562
52128307,1000,1000,1000,1000,90428814,1560,1560,1561,1560
52130806,1000,1000,1000,1000,90528774,1560,1560,1561,1560
52133305,1000,1000,1000,1000,90628734,1559,1560,1560,1559
52135804,1000,1000,1000,1000,90728694,1559,1559,1559,1559
52138303,1000,1000,1000,1000,90828654,1559,1559,1559,1558
52140802,1000,1000,1000,1000,90928614,1560,1559,1560,1559
52143301,1000,1000,1000,1000,91028574,1559,1559,1560,1558
52145800,1000,1000,1000,1000,91128534,1560,1560,1560,1559
52148299,1000,1000,1000,1000,91228494,1559,1559,1560,1558
52150798,1000,1000,1000,1000,91328454,1559,1559,1561,1558
52153297,1000,1000,1000,1000,91428414,1560,1560,1561,1558
52155796,1000,1000,1000,1000,91528374,1561,1560,1560,1562
52158295,1000,1000,1000,1000,91628334,1560,1561,1558,1564
52160794,1000,1000,1000,1000,91728294,1560,1560,1557,1564
52163293,1000,1000,1000,1000,91828254,1560,1560,1558,1562
52165792,1000,1000,1000,1000,91928214,1558,1558,1557,1557
52168291,1000,1000,1000,1000,92028174,1558,1558,1556,1558
52170790,1000,1000,1000,1000,92128967,1555,1555,1553,1555
52173289,1000,1000,1000,1000,92228927,1552,1552,1550,1550
52175788,1000,1000,1000,1000,92328887,1547,1547,1544,1544
52178287,1000,1000,1000,1000,92428847,1541,1541,1538,1537
52180786,1000,1000,1000,1000,92528807,1534,1534,1530,1530
52183285,1000,1000,1000,1000,92628767,1528,1527,1523,1523
52185784,1000,1000,1000,1000,92728727,1523,1522,1519,1519
52188283,1000,1000,1000,1000,92828687,1520,1520,1519,1519
52190782,1000,1000,1000,1000,92928647,1520,1520,1520,1521
52193281,1000,1000,1000,1000,93028607,1520,1520,1523,1524
52195780,1000,1000,1000,1000,93128567,1522,1523,1528,1528
52198279,1000,1000,1000,1000,93228527,1525,1526,1532,1532
52200778,1000,1000,1000,1000,93328487,1529,1529,1537,1537
52203277,1000,1000,1000,1000,93428447,1533,1533,1540,1540
52205776,1000,1000,1000,1000,93528407,1536,1536,1542,1542
52208275,1000,1000,1000,1000,93628367,1540,1539,1544,1544
52210774,1000,1000,1000,1000,93728327,1542,1542,1545,1545
52213273,1000,1000,1000,1000,93828287,1544,1544,1545,1545
52215772,1000,1000,1000,1000,93928247,1546,1546,1545,1545
52218271,1000,1000,1000,1000,94028207,1548,1548,1544,1545
52220770,1000,1000,1000,1000,94128167,1548,1549,1545,1545
52223269,1000,1000,1000,1000,94228960,1549,1549,1545,1545
52225768,1000,1000,1000,1000,94328920,1549,1549,1544,1544
52228267,1000,1000,1000,1000,94428880,1549,1549,1545,1544
52230766,1000,1000,1000,1000,94528840,1548,1548,1545,1545
52233265,1000,1000,1000,1000,94628800,1547,1547,1544,1544
52235764,1000,1000,1000,1000,94728760,1546,1546,1544,1544
52238263,1000,1000,1000,1000,94828720,1546,1546,1546,1545
52240762,1000,1000,1000,1000,94928680,1546,1545,1546,1546
52243261,1000,1000,1000,1000,95028640,1544,1544,1546,1545
52245760,1000,1000,1000,1000,95128600,1544,1544,1545,1545
52248259,1000,1000,1000,1000,95228560,1543,1543,1545,1545
52250758,1000,1000,1000,1000,95328520,1544,1543,1545,1545
52253257,1000,1000,1000,1000,95428480,1543,1543,1545,1545
52255756,1000,1000,1000,1000,95528440,1543,1543,1544,1545
52258255,1000,1000,1000,1000,95628400,1543,1543,1544,1544
52260754,1000,1000,1000,1000,95728360,1543,1543,1545,1544
52263253,1000,1000,1000,1000,95828320,1543,1544,1544,1544
52265752,1000,1000,1000,1000,95928280,1544,1544,1544,1544
52268251,1000,1000,1000,1000,96028240,1544,1544,1544,1544
52270750,1000,1000,1000,1000,96128200,1545,1544,1544,1544
52273249,1000,1000,1000,1000,96228160,1544,1544,1543,1544
52275748,1000,1000,1000,1000,96328953,1544,1544,1543,1543
52278247,1000,1000,1000,1000,96428913,1544,1544,1544,1543
52280746,1000,1000,1000,1000,96528873,1544,1544,1543,1544
52283245,1000,1000,1000,1000,96628833,1544,1544,1543,1543
52285744,1000,1000,1000,1000,96728793,1544,1544,1544,1543
52288243,1000,1000,1000,1000,96828753,1544,1544,1543,1544
52290742,1000,1000,1000,1000,96928713,1545,1544,1544,1544
52293241,1000,1000,1000,1000,97028673,1545,1545,1544,1545
52295740,1000,1000,1000,1000,97128633,1544,1544,1544,1544
52298239,1000,1000,1000,1000,97228593,1543,1544,1544,1543
52300738,1000,1000,1000,1000,97328553,1544,1544,1544,1545
52303237,1000,1000,1000,1000,97428513,1545,1544,1545,1545
52305736,1000,1000,1000,1000,97528473,1544,1544,1544,1544
52308235,1000,1000,1000,1000,97628433,1544,1544,1544,1544
52310734,1000,1000,1000,1000,97728393,1544,1543,1544,1544
52313233,1000,1000,1000,1000,97828353,1544,1544,1544,1544
52315732,1000,1000,1000,1000,97928313,1544,1544,1544,1544
52318231,1000,1000,1000,1000,98028273,1543,1544,1544,1544
52320730,1000,1000,1000,1000,98128233,1543,1543,1543,1543
52323229,1000,1000,1000,1000,98228193,1544,1544,1544,1544
52325728,1000,1000,1000,1000,98328986,1544,1544,1544,1544
52328227,1000,1000,1000,1000,98428946,1544,1544,1544,1544
52330726,1000,1000,1000,1000,98528906,1544,1544,1544,1544
52333225,1000,1000,1000,1000,98628866,1544,1544,1544,1544
52335724,1000,1000,1000,1000,98728826,1544,1544,1544,1544
52338223,1000,1000,1000,1000,98828786,1544,1544,1544,1544
52340722,1000,1000,1000,1000,98928746,1545,1545,1544,1545
52343221,1000,1000,1000,1000,99028706,1544,1545,1544,1545
52345720,1000,1000,1000,1000,99128666,1544,1544,1544,1544
52348219,1000,1000,1000,1000,99228626,1543,1544,1543,1544
52350718,1000,1000,1000,1000,99328586,1544,1544,1544,1544
52353217,1000,1000,1000,1000,99428546,1544,1544,1544,1543
52355716,1000,1000,1000,1000,99528506,1544,1544,1544,1544
52358215,1000,1000,1000,1000,99628466,1544,1544,1544,1544
52360714,1000,1000,1000,1000,99728426,1544,1544,1544,1544
52363213,1000,1000,1000,1000,99828386,1544,1544,1545,1545
52365712,1000,1000,1000,1000,99928346,1544,1544,1544,1544
52368211,1000,1000,1000,1000,100028306,1544,1544,1544,1544
52370710,1000,1000,1000,1000,100128266,1544,1544,1544,1544
52373209,1000,1000,1000,1000,100228226,1544,1544,1544,1544
52375708,1000,1000,1000,1000,100328186,1545,1544,1544,1545
52378207,1000,1000,1000,1000,100428979,1544,1544,1544,1544
52380706,1000,1000,1000,1000,100528939,1544,1545,1544,1545
52383205,1000,1000,1000,1000,100628899,1544,1545,1545,1544
52385704,1000,1000,1000,1000,100728859,1545,1545,1545,1545
52388203,1000,1000,1000,1000,100828819,1545,1545,1545,1545
52390702,1000,1000,1000,1000,100928779,1545,1544,1545,1544
52393201,1000,1000,1000,1000,101028739,1545,1544,1544,1545
52395700,1000,1000,1000,1000,101128699,1544,1544,1544,1544
52398199,1000,1000,1000,1000,101228659,1544,1544,1544,1544
52400698,1000,1000,1000,1000,101328619,1545,1545,1544,1545
52403197,1000,1000,1000,1000,101428579,1545,1545,1545,1545
52405696,1000,1000,1000,1000,101528539,1544,1544,1544,1544
52408195,1000,1000,1000,1000,101628499,1544,1544,1544,1544
52410694,1000,1000,1000,1000,101728459,1543,1544,1544,1543
52413193,1000,1000,1000,1000,101828419,1544,1544,1544,1544
52415692,1000,1000,1000,1000,101928379,1544,1544,1544,1544
52418191,1000,1000,1000,1000,102028339,1543,1544,1543,1544
52420690,1000,1000,1000,1000,102128299,1543,1543,1543,1543
52423189,1000,1000,1000,1000,102228259,1543,1544,1544,1543
52425688,1000,1000,1000,1000,102328219,1543,1543,1543,1543
52428187,1000,1000,1000,1000,102428179,1491,1491,1474,1472
52430686,1000,1000,1000,1000,102528972,1373,1372,1302,1300
52433185,1000,1000,1000,1000,102628932,1327,1326,1227,1225
52435684,1000,1000,1000,1000,102728892,1314,1313,1204,1202
52438183,1000,1000,1000,1000,102828852,1299,1298,1178,1175
52440682,1000,1000,1000,1000,102928812,1261,1260,1153,1150
52443181,1000,1000,1000,1000,103028772,1157,1156,1155,1150
52445680,1000,1000,1000,1000,103128732,1057,1056,1152,1150
52448179,1000,1000,1000,1000,103228692,1057,1056,1153,1150
52450678,1000,1000,1000,1000,103328652,1057,1056,1152,1150
52453177,1000,1000,1000,1000,103428612,1058,1048,1150,1162
52455676,1000,1000,1000,1000,103528572,1057,1047,1150,1164
52458175,1000,1000,1000,1000,103628532,1058,1051,1150,1158
52460674,1000,1000,1000,1000,103728492,1058,1052,1150,1156
52463173,1000,1000,1000,1000,103828452,1058,1052,1150,1156
52465672,1000,1000,1000,1000,103928412,1058,1051,1150,1157
52468171,1000,1000,1000,1000,104028372,1058,1051,1150,1157
52470670,1000,1000,1000,1000,104128332,1058,1051,1150,1157
52473169,1000,1000,1000,1000,104228292,1056,1058,1152,1150
52475668,1000,1000,1000,1000,104328252,1058,1057,1150,1150
52478167,1000,1000,1000,1000,104428212,1058,1056,1150,1151
52480666,1000,1000,1000,1000,104528172,1058,1056,1150,1151
52483165,1000,1000,1000,1000,104628965,1058,1056,1150,1151
52485664,1000,1000,1000,1000,104728925,1000,1000,1000,1000
52488163,1000,1000,1000,1000,104828885,1000,1000,1000,1000
52490662,1000,1000,1000,1000,104928845,1000,1000,1000,1000
52493161,1000,1000,1000,1000,105028805,1000,1000,1000,1000
52495660,1000,1000,1000,1000,105128765,1000,1000,1000,1000
52498159,1000,1000,1000,1000,105228725,1000,1000,1000,1000
52500658,1000,1000,1000,1000,105328685,1000,1000,1000,1000
52503157,1000,1000,1000,1000,105428645,1000,1000,1000,1000
52505656,1000,1000,1000,1000,105528605,1000,1000,1000,1000
52508155,1000,1000,1000,1000,105628565,1000,1000,1000,1000
52510654,1000,1000,1000,1000,105728525,1000,1000,1000,1000
52513986,1000,1000,1000,1000,105828485,1000,1000,1000,1000
52516485,1000,1000,1000,1000,105928445,1000,1000,1000,1000
52518984,1000,1000,1000,1000,106028405,1000,1000,1000,1000
52521483,1000,1000,1000,1000,106128365,1000,1000,1000,1000
52523982,1000,1000,1000,1000,106228325,1000,1000,1000,1000
52526481,1000,1000,1000,1000,106328285,1000,1000,1000,1000
52528980,1000,1000,1000,1000,106428245,1000,1000,1000,1000
52531479,1000,1000,1000,1000,106528205,1000,1000,1000,1000
52533978,1000,1000,1000,1000,106628165,1000,1000,1000,1000
52536477,1000,1000,1000,1000,106728958,1000,1000,1000,1000
52538976,1000,1000,1000,1000,106828918,1000,1000,1000,1000
52541475,1000,1000,1000,1000,106928878,1000,1000,1000,1000
52543974,1000,1000,1000,1000,107028838,1000,1000,1000,1000
52546473,1000,1000,1000,1000,107128798,1000,1000,1000,1000
52548972,1000,1000,1000,1000,107228758,1000,1000,1000,1000
52551471,1000,1000,1000,1000,107328718,1000,1000,1000,1000
52553970,1000,1000,1000,1000,107428678,1000,1000,1000,1000
52556469,1000,1000,1000,1000,107528638,1000,1000,1000,1000
52558968,1000,1000,1000,1000,107628598,1000,1000,1000,1000
52561467,1000,1000,1000,1000,107728558,1000,1000,1000,1000
52563966,1000,1000,1000,1000,107828518,1000,1000,1000,1000
52566465,1000,1000,1000,1000,107928478,1000,1000,1000,1000
52568964,1000,1000,1000,1000,108028438,1000,1000,1000,1000
52571463,1000,1000,1000,1000,108128398,1000,1000,1000,1000
52573962,1000,1000,1000,1000,108228358,1000,1000,1000,1000
52576461,1000,1000,1000,1000,108328318,1000,1000,1000,1000
52578960,1000,1000,1000,1000,108428278,1000,1000,1000,1000
52581459,1000,1000,1000,1000,108528238,1000,1000,1000,1000
52583958,1000,1000,1000,1000,108628198,1000,1000,1000,1000
52586457,1000,1000,1000,1000,108728158,1000,1000,1000,1000
52588956,1000,1000,1000,1000,108828951,1000,1000,1000,1000
52591455,1000,1000,1000,1000,108928911,1000,1000,1000,1000
52593954,1000,1000,1000,1000,109028871,1000,1000,1000,1000
52596453,1000,1000,1000,1000,109128831,1000,1000,1000,1000
52598952,1000,1000,1000,1000,109228791,1000,1000,1000,1000
52601451,1000,1000,1000,1000,109328751,1000,1000,1000,1000
52603950,1000,1000,1000,1000,109428711,1000,1000,1000,1000
52606449,1000,1000,1000,1000,109528671,1000,1000,1000,1000
52608948,1000,1000,1000,1000,109628631,1000,1000,1000,1000
52611447,1000,1000,1000,1000,109728591,1000,1000,1000,1000
52613946,1000,1000,1000,1000,109828551,1000,1000,1000,1000
52616445,1000,1000,1000,1000,109928511,1000,1000,1000,1000
52618944,1000,1000,1000,1000,110028471,1000,1000,1000,1000
52621443,1000,1000,1000,1000,110128431,1000,1000,1000,1000
52623942,1000,1000,1000,1000,110228391,1000,1000,1000,1000
52626441,1000,1000,1000,1000,110328351,1000,1000,1000,1000
52628940,1000,1000,1000,1000,110428311,1000,1000,1000,1000
52631439,1000,1000,1000,1000,110528271,1000,1000,1000,1000
52633938,1000,1000,1000,1000,110628231,1000,1000,1000,1000
52636437,1000,1000,1000,1000,110728191,1000,1000,1000,1000
52638936,1000,1000,1000,1000,110828984,1000,1000,1000,1000
52641435,1000,1000,1000,1000,110928944,1000,1000,1000,1000
52643934,1000,1000,1000,1000,111028904,1000,1000,1000,1000
52646433,1000,1000,1000,1000,111128864,1000,1000,1000,1000
52648932,1000,1000,1000,1000,111228824,1000,1000,1000,1000
52651431,1000,1000,1000,1000,111328784,1000,1000,1000,1000
52653930,1000,1000,1000,1000,111428744,1000,1000,1000,1000
52656429,1000,1000,1000,1000,111528704,1000,1000,1000,1000
52658928,1000,1000,1000,1000,111628664,1000,1000,1000,1000
52661427,1000,1000,1000,1000,111728624,1000,1000,1000,1000
52663926,1000,1000,1000,1000,111828584,1000,1000,1000,1000
52666425,1000,1000,1000,1000,111928544,1000,1000,1000,1000
52668924,1000,1000,1000,1000,112028504,1000,1000,1000,1000
52671423,1000,1000,1000,1000,112128464,1000,1000,1000,1000
52673922,1000,1000,1000,1000,112228424,1000,1000,1000,1000
52676421,1000,1000,1000,1000,112328384,1000,1000,1000,1000
52678920,1000,1000,1000,1000,112428344,1000,1000,1000,1000
52681419,1000,1000,1000,1000,112528304,1000,1000,1000,1000
52683918,1000,1000,1000,1000,112628264,1000,1000,1000,1000
52686417,1000,1000,1000,1000,112728224,1000,1000,1000,1000
52688916,1000,1000,1000,1000,112828184,1000,1000,1000,1000
52691415,1000,1000,1000,1000,112928977,1000,1000,1000,1000
52693914,1000,1000,1000,1000,113028937,1000,1000,1000,1000
52696413,1000,1000,1000,1000,113128897,1000,1000,1000,1000
52698912,1000,1000,1000,1000,113228857,1000,1000,1000,1000
52701411,1000,1000,1000,1000,113328817,1000,1000,1000,1000
52703910,1000,1000,1000,1000,113428777,1000,1000,1000,1000
52706409,1000,1000,1000,1000,113528737,1000,1000,1000,1000
52708908,1000,1000,1000,1000,113628697,1000,1000,1000,1000
52711407,1000,1000,1000,1000,113728657,1000,1000,1000,1000
52713906,1000,1000,1000,1000,113828617,1000,1000,1000,1000
52716405,1000,1000,1000,1000,113928577,1000,1000,1000,1000
52718904,1000,1000,1000,1000,114028537,1000,1000,1000,1000
52721403,1000,1000,1000,1000,114128497,1000,1000,1000,1000
52723902,1000,1000,1000,1000,114228457,1000,1000,1000,1000
52726401,1000,1000,1000,1000,114328417,1000,1000,1000,1000
52728900,1000,1000,1000,1000,114428377,1000,1000,1000,1000
52731399,1000,1000,1000,1000,114528337,1000,1000,1000,1000
52733898,1000,1000,1000,1000,114628297,1000,1000,1000,1000
52736397,1000,1000,1000,1000,114728257,1000,1000,1000,1000
52738896,1000,1000,1000,1000,114828217,1000,1000,1000,1000
52741395,1000,1000,1000,1000,114928177,1000,1000,1000,1000
52743894,1000,1000,1000,1000,115028970,1000,1000,1000,1000
52746393,1000,1000,1000,1000,115128930,1000,1000,1000,1000
52748892,1000,1000,1000,1000,115228890,1000,1000,1000,1000
52751391,1000,1000,1000,1000,115328850,1000,1000,1000,1000
52753890,1000,1000,1000,1000,115428810,1000,1000,1000,1000
52756389,1000,1000,1000,1000,115528770,1000,1000,1000,1000
52758888,1000,1000,1000,1000,115628730,1000,1000,1000,1000
52761387,1000,1000,1000,1000,115728690,1000,1000,1000,1000
52763886,1000,1000,1000,1000,115828650,1000,1000,1000,1000
52766385,1000,1000,1000,1000,115928610,1000,1000,1000,1000
52768884,1000,1000,1000,1000,116028570,1000,1000,1000,1000
52771383,1000,1000,1000,1000,116128530,1000,1000,1000,1000
52773882,1000,1000,1000,1000,116228490,1000,1000,1000,1000
52776381,1000,1000,1000,1000,116328450,1000,1000,1000,1000
52778880,1000,1000,1000,1000,116428410,1000,1000,1000,1000
52781379,1000,1000,1000,1000,116528370,1000,1000,1000,1000
52783878,1000,1000,1000,1000,116628330,1000,1000,1000,1000
52786377,1000,1000,1000,1000,116728290,1000,1000,1000,1000
52788876,1000,1000,1000,1000,116828250,1000,1000,1000,1000
52791375,1000,1000,1000,1000,116928210,1000,1000,1000,1000
52793874,1000,1000,1000,1000,117028170,1000,1000,1000,1000
52796373,1000,1000,1000,1000,117128963,1000,1000,1000,1000
52798872,1000,1000,1000,1000,117228923,1000,1000,1000,1000
52801371,1000,1000,1000,1000,117328883,1000,1000,1000,1000
52803870,1000,1000,1000,1000,117428843,1000,1000,1000,1000
52806369,1000,1000,1000,1000,117528803,1000,1000,1000,1000
52808868,1000,1000,1000,1000,117628763,1000,1000,1000,1000
52811367,1000,1000,1000,1000,117728723,1000,1000,1000,1000
52813866,1000,1000,1000,1000,117828683,1000,1000,1000,1000
52816365,1000,1000,1000,1000,117928643,1000,1000,1000,1000
52818864,1000,1000,1000,1000,118028603,1000,1000,1000,1000
52821363,1000,1000,1000,1000,118128563,1000,1000,1000,1000
52823862,1000,1000,1000,1000,118228523,1000,1000,1000,1000
52826361,1000,1000,1000,1000,118328483,1000,1000,1000,1000
52828860,1000,1000,1000,1000,118428443,1000,1000,1000,1000
52831359,1000,1000,1000,1000,118528403,1000,1000,1000,1000
52833858,1000,1000,1000,1000,118628363,1000,1000,1000,1000
52836357,1000,1000,1000,1000,118728323,1000,1000,1000,1000
52838856,1000,1000,1000,1000,118828283,1000,1000,1000,1000
52841355,1000,1000,1000,1000,118928243,1000,1000,1000,1000
52843854,1000,1000,1000,1000,119028203,1000,1000,1000,1000
52846353,1000,1000,1000,1000,119128163,1000,1000,1000,1000
52848852,1000,1000,1000,1000,119228956,1000,1000,1000,1000
52851351,1000,1000,1000,1000,119328916,1000,1000,1000,1000
52853850,1000,1000,1000,1000,119428876,1000,1000,1000,1000
52856349,1000,1000,1000,1000,119528836,1000,1000,1000,1000
52858848,1000,1000,1000,1000,119628796,1000,1000,1000,1000
52861347,1000,1000,1000,1000,,,,,
52863846,1000,1000,1000,1000,,,,,
52866345,1000,1000,1000,1000,,,,,
52868844,1000,1000,1000,1000,,,,,
52871343,1000,1000,1000,1000,,,,,
52873842,1000,1000,1000,1000,,,,,
52876341,1000,1000,1000,1000,,,,,
52878840,1000,1000,1000,1000,,,,,
52881339,1000,1000,1000,1000,,,,,
52883838,1000,1000,1000,1000,,,,,
52886337,1000,1000,1000,1000,,,,,
52888836,1000,1000,1000,1000,,,,,
52891335,1000,1000,1000,1000,,,,,
52893834,1000,1000,1000,1000,,,,,
52896333,1000,1000,1000,1000,,,,,
52898832,1000,1000,1000,1000,,,,,
52901331,1000,1000,1000,1000,,,,,
52903830,1000,1000,1000,1000,,,,,
52906329,1000,1000,1000,1000,,,,,
52908828,1000,1000,1000,1000,,,,,
52911327,1000,1000,1000,1000,,,,,
52913826,1000,1000,1000,1000,,,,,
52916325,1000,1000,1000,1000,,,,,
52918824,1000,1000,1000,1000,,,,,
52921323,1000,1000,1000,1000,,,,,
52923822,1000,1000,1000,1000,,,,,
52926321,1000,1000,1000,1000,,,,,
52928820,1000,1000,1000,1000,,,,,
52931319,1000,1000,1000,1000,,,,,
52933818,1000,1000,1000,1000,,,,,
52936317,1000,1000,1000,1000,,,,,
52938816,1000,1000,1000,1000,,,,,
52941315,1000,1000,1000,1000,,,,,
52943814,1000,1000,1000,1000,,,,,
52946313,1000,1000,1000,1000,,,,,
52948812,1000,1000,1000,1000,,,,,
52951311,1000,1000,1000,1000,,,,,
52953810,1000,1000,1000,1000,,,,,
52956309,1000,1000,1000,1000,,,,,
52958808,1000,1000,1000,1000,,,,,
52961307,1000,1000,1000,1000,,,,,
52963806,1000,1000,1000,1000,,,,,
52966305,1000,1000,1000,1000,,,,,
52968804,1000,1000,1000,1000,,,,,
52971303,1000,1000,1000,1000,,,,,
52973802,1000,1000,1000,1000,,,,,
52976301,1000,1000,1000,1000,,,,,
52978800,1000,1000,1000,1000,,,,,
52981299,1000,1000,1000,1000,,,,,
52983798,1000,1000,1000,1000,,,,,
52986297,1000,1000,1000,1000,,,,,
52988796,1000,1000,1000,1000,,,,,
52991295,1000,1000,1000,1000,,,,,
52993794,1000,1000,1000,1000,,,,,
52996293,1000,1000,1000,1000,,,,,
52998792,1000,1000,1000,1000,,,,,
53001291,1000,1000,1000,1000,,,,,
53003790,1000,1000,1000,1000,,,,,
53006289,1000,1000,1000,1000,,,,,
53008788,1000,1000,1000,1000,,,,,
53011287,1000,1000,1000,1000,,,,,
53013786,1000,1000,1000,1000,,,,,
53016285,1000,1000,1000,1000,,,,,
53018784,1000,1000,1000,1000,,,,,
53021283,1000,1000,1000,1000,,,,,
53023782,1000,1000,1000,1000,,,,,
53026281,1000,1000,1000,1000,,,,,
53028780,1000,1000,1000,1000,,,,,
53031279,1000,1000,1000,1000,,,,,
53033778,1000,1000,1000,1000,,,,,
53036277,1000,1000,1000,1000,,,,,
53038776,1000,1000,1000,1000,,,,,
53041275,1000,1000,1000,1000,,,,,
53043774,1000,1000,1000,1000,,,,,
53046273,1000,1000,1000,1000,,,,,
53048772,1000,1000,1000,1000,,,,,
53051271,1000,1000,1000,1000,,,,,
53053770,1000,1000,1000,1000,,,,,
53056269,1000,1000,1000,1000,,,,,
53058768,1000,1000,1000,1000,,,,,
53061267,1000,1000,1000,1000,,,,,
53063766,1000,1000,1000,1000,,,,,
53066265,1000,1000,1000,1000,,,,,
53068764,1000,1000,1000,1000,,,,,
53071263,1000,1000,1000,1000,,,,,
53073762,1000,1000,1000,1000,,,,,
53076261,1000,1000,1000,1000,,,,,
53078760,1000,1000,1000,1000,,,,,
53081259,1000,1000,1000,1000,,,,,
53083758,1000,1000,1000,1000,,,,,
53086257,1000,1000,1000,1000,,,,,
53088756,1000,1000,1000,1000,,,,,
53091255,1000,1000,1000,1000,,,,,
53093754,1000,1000,1000,1000,,,,,
53096253,1000,1000,1000,1000,,,,,
53098752,1000,1000,1000,1000,,,,,
53101251,1000,1000,1000,1000,,,,,
53103750,1000,1000,1000,1000,,,,,
53106249,1000,1000,1000,1000,,,,,
53108748,1000,1000,1000,1000,,,,,
53111247,1000,1000,1000,1000,,,,,
53113746,1000,1000,1000,1000,,,,,
53116245,1000,1000,1000,1000,,,,,
53118744,1000,1000,1000,1000,,,,,
53121243,1000,1000,1000,1000,,,,,
53123742,1000,1000,1000,1000,,,,,
53126241,1000,1000,1000,1000,,,,,
53128740,1000,1000,1000,1000,,,,,
53131239,1000,1000,1000,1000,,,,,
53133738,1000,1000,1000,1000,,,,,
53136237,1000,1000,1000,1000,,,,,
53138736,1000,1000,1000,1000,,,,,
53141235,1000,1000,1000,1000,,,,,
53143734,1000,1000,1000,1000,,,,,
53146233,1000,1000,1000,1000,,,,,
53148732,1000,1000,1000,1000,,,,,
53151231,1000,1000,1000,1000,,,,,
53153730,1000,1000,1000,1000,,,,,
53156229,1001,1001,1001,1001,,,,,
53158728,1002,1002,1002,1002,,,,,
53161227,1003,1003,1003,1003,,,,,
53163726,1003,1003,1003,1003,,,,,
53166225,1004,1004,1004,1004,,,,,
53168724,1005,1005,1005,1005,,,,,
53171223,1006,1006,1006,1006,,,,,
53173722,1006,1006,1006,1006,,,,,
53176221,1007,1007,1007,1007,,,,,
53178720,1008,1008,1008,1008,,,,,
53181219,1009,1009,1009,1009,,,,,
53183718,1009,1009,1009,1009,,,,,
53186217,1010,1010,1010,1010,,,,,
53188716,1011,1011,1011,1011,,,,,
53191215,1012,1012,1012,1012,,,,,
53193714,1012,1012,1012,1012,,,,,
53196213,1013,1013,1013,1013,,,,,
53198712,1014,1014,1014,1014,,,,,
53201211,1015,1015,1015,1015,,,,,
53203710,1015,1015,1015,1015,,,,,
53206209,1016,1016,1016,1016,,,,,
53208708,1017,1017,1017,1017,,,,,
53211207,1018,1018,1018,1018,,,,,
53213706,1018,1018,1018,1018,,,,,
53216205,1019,1019,1019,1019,,,,,
53218704,1020,1020,1020,1020,,,,,
53221203,1021,1021,1021,1021,,,,,
53223702,1021,1021,1021,1021,,,,,
53226201,1022,1022,1022,1022,,,,,
53228700,1023,1023,1023,1023,,,,,
53231199,1024,1024,1024,1024,,,,,
53233698,1024,1024,1024,1024,,,,,
53236197,1025,1025,1025,1025,,,,,
53238696,1026,1026,1026,1026,,,,,
53241195,1027,1027,1027,1027,,,,,
53243694,1027,1027,1027,1027,,,,,
53246193,1028,1028,1028,1028,,,,,
53248692,1029,1029,1029,1029,,,,,
53251191,1030,1030,1030,1030,,,,,
53253690,1030,1030,1030,1030,,,,,
53256189,1031,1031,1031,1031,,,,,
53258688,1032,1032,1032,1032,,,,,
53261187,1033,1033,1033,1033,,,,,
53263686,1033,1033,1033,1033,,,,,
53266185,1034,1034,1034,1034,,,,,
53268684,1035,1035,1035,1035,,,,,
53271183,1036,1036,1036,1036,,,,,
53273682,1036,1036,1036,1036,,,,,
53276181,1037,1037,1037,1037,,,,,
53278680,1038,1038,1038,1038,,,,,
53281179,1039,1039,1039,1039,,,,,
53283678,1039,1039,1039,1039,,,,,
53286177,1040,1040,1040,1040,,,,,
53288676,1041,1041,1041,1041,,,,,
53291175,1042,1042,1042,1042,,,,,
53293674,1042,1042,1042,1042,,,,,
53296173,1043,1043,1043,1043,,,,,
53298672,1044,1044,1044,1044,,,,,
53301171,1045,1045,1045,1045,,,,,
53303670,1045,1045,1045,1045,,,,,
53306169,1046,1046,1046,1046,,,,,
53308668,1047,1047,1047,1047,,,,,
53311167,1048,1048,1048,1048,,,,,
53313666,1048,1048,1048,1048,,,,,
53316165,1049,1049,1049,1049,,,,,
53318664,1050,1050,1050,1050,,,,,
53321163,1051,1051,1051,1051,,,,,
53323662,1051,1051,1051,1051,,,,,
53326161,1052,1052,1052,1052,,,,,
53328660,1053,1053,1053,1053,,,,,
53331159,1054,1054,1054,1054,,,,,
53333658,1054,1054,1054,1054,,,,,
53336157,1055,1055,1055,1055,,,,,
53338656,1056,1056,1056,1056,,,,,
53341155,1057,1057,1057,1057,,,,,
53343654,1057,1057,1057,1057,,,,,
53346153,1058,1058,1058,1058,,,,,
53348652,1059,1059,1059,1059,,,,,
53351151,1060,1060,1060,1060,,,,,
53353650,1060,1060,1060,1060,,,,,
53356149,1061,1061,1061,1061,,,,,
53358648,1062,1062,1062,1062,,,,,
53361147,1063,1063,1063,1063,,,,,
53363646,1063,1063,1063,1063,,,,,
53366145,1064,1064,1064,1064,,,,,
53368644,1065,1065,1065,1065,,,,,
53371143,1066,1066,1066,1066,,,,,
53373642,1066,1066,1066,1066,,,,,
53376141,1067,1067,1067,1067,,,,,
53378640,1068,1068,1068,1068,,,,,
53381139,1069,1069,1069,1069,,,,,
53383638,1069,1069,1069,1069,,,,,
53386137,1070,1070,1070,1070,,,,,
53388636,1071,1071,1071,1071,,,,,
53391135,1072,1072,1072,1072,,,,,
53393634,1072,1072,1072,1072,,,,,
53396133,1073,1073,1073,1073,,,,,
53398632,1074,1074,1074,1074,,,,,
53401131,1075,1075,1075,1075,,,,,
53403630,1075,1075,1075,1075,,,,,
53406129,1076,1076,1076,1076,,,,,
53408628,1077,1077,1077,1077,,,,,
53411127,1078,1078,1078,1078,,,,,
53413626,1078,1078,1078,1078,,,,,
53416125,1079,1079,1079,1079,,,,,
53418624,1080,1080,1080,1080,,,,,
53421123,1081,1081,1081,1081,,,,,
53423622,1081,1081,1081,1081,,,,,
53426121,1082,1082,1082,1082,,,,,
53428620,1083,1083,1083,1083,,,,,
53431119,1084,1084,1084,1084,,,,,
53433618,1084,1084,1084,1084,,,,,
53436117,1085,1085,1085,1085,,,,,
53438616,1086,1086,1086,1086,,,,,
53441115,1087,1087,1087,1087,,,,,
53443614,1087,1087,1087,1087,,,,,
53446113,1088,1088,1088,1088,,,,,
53448612,1089,1089,1089,1089,,,,,
53451111,1090,1090,1090,1090,,,,,
53453610,1090,1090,1090,1090,,,,,
53456109,1091,1091,1091,1091,,,,,
53458608,1092,1092,1092,1092,,,,,
53461107,1093,1093,1093,1093,,,,,
53463606,1093,1093,1093,1093,,,,,
53466105,1094,1094,1094,1094,,,,,
53468604,1095,1095,1095,1095,,,,,
53471103,1096,1096,1096,1096,,,,,
53473602,1096,1096,1096,1096,,,,,
53476101,1097,1097,1097,1097,,,,,
53478600,1098,1098,1098,1098,,,,,
53481099,1099,1099,1099,1099,,,,,
53483598,1099,1099,1099,1099,,,,,
53486097,1100,1100,1100,1100,,,,,
53488596,1101,1101,1101,1101,,,,,
53491095,1101,1101,1101,1101,,,,,
53493594,1102,1102,1102,1102,,,,,
53496093,1103,1103,1103,1103,,,,,
53498592,1104,1104,1104,1104,,,,,
53501091,1104,1104,1104,1104,,,,,
53503590,1105,1105,1105,1105,,,,,
53506089,1106,1106,1106,1106,,,,,
53508588,1107,1107,1107,1107,,,,,
53511087,1107,1107,1107,1107,,,,,
53513586,1108,1108,1108,1108,,,,,
53516085,1109,1109,1109,1109,,,,,
53518584,1110,1110,1110,1110,,,,,
53521083,1110,1110,1110,1110,,,,,
53523582,1111,1111,1111,1111,,,,,
53526081,1112,1112,1112,1112,,,,,
53528580,1113,1113,1113,1113,,,,,
53531079,1113,1113,1113,1113,,,,,
53533578,1114,1114,1114,1114,,,,,
53536077,1115,1115,1115,1115,,,,,
53538576,1116,1116,1116,1116,,,,,
53541075,1116,1116,1116,1116,,,,,
53543574,1117,1117,1117,1117,,,,,
53546073,1118,1118,1118,1118,,,,,
53548572,1119,1119,1119,1119,,,,,
53551071,1119,1119,1119,1119,,,,,
53553570,1120,1120,1120,1120,,,,,
53556069,1121,1121,1121,1121,,,,,
53558568,1122,1122,1122,1122,,,,,
53561067,1122,1122,1122,1122,,,,,
53563566,1123,1123,1123,1123,,,,,
53566065,1124,1124,1124,1124,,,,,
53568564,1125,1125,1125,1125,,,,,
53571063,1125,1125,1125,1125,,,,,
53573562,1126,1126,1126,1126,,,,,
53576061,1127,1127,1127,1127,,,,,
53578560,1128,1128,1128,1128,,,,,
53581059,1128,1128,1128,1128,,,,,
53583558,1129,1129,1129,1129,,,,,
53586057,1130,1130,1130,1130,,,,,
53588556,1131,1131,1131,1131,,,,,
53591055,1131,1131,1131,1131,,,,,
53593554,1132,1132,1132,1132,,,,,
53596053,1133,1133,1133,1133,,,,,
53598552,1134,1134,1134,1134,,,,,
53601051,1134,1134,1134,1134,,,,,
53603550,1135,1135,1135,1135,,,,,
53606049,1136,1136,1136,1136,,,,,
53608548,1137,1137,1137,1137,,,,,
53611047,1137,1137,1137,1137,,,,,
53613546,1138,1138,1138,1138,,,,,
53616045,1139,1139,1139,1139,,,,,
53618544,1140,1140,1140,1140,,,,,
53621043,1140,1140,1140,1140,,,,,
53623542,1141,1141,1141,1141,,,,,
53626041,1142,1142,1142,1142,,,,,
53628540,1143,1143,1143,1143,,,,,
53631039,1143,1143,1143,1143,,,,,
53633538,1144,1144,1144,1144,,,,,
53636037,1145,1145,1145,1145,,,,,
53638536,1146,1146,1146,1146,,,,,
53641035,1146,1146,1146,1146,,,,,
53643534,1147,1147,1147,1147,,,,,
53646033,1148,1148,1148,1148,,,,,
53648532,1149,1149,1149,1149,,,,,
53651031,1149,1149,1149,1149,,,,,
53653530,1150,1150,1150,1150,,,,,
53656029,1161,1154,1154,1162,,,,,
53658528,1169,1162,1162,1170,,,,,
53661027,1177,1170,1170,1178,,,,,
53663526,1185,1178,1178,1185,,,,,
53666025,1192,1185,1186,1193,,,,,
53668524,1200,1193,1193,1200,,,,,
53671023,1207,1200,1201,1208,,,,,
53673522,1214,1207,1208,1215,,,,,
53676021,1222,1215,1215,1222,,,,,
53678520,1229,1222,1222,1229,,,,,
53681019,1235,1229,1229,1236,,,,,
53683518,1242,1236,1236,1243,,,,,
53686017,1249,1242,1243,1249,,,,,
53688516,1256,1249,1249,1256,,,,,
53691015,1262,1256,1256,1262,,,,,
53693514,1269,1262,1262,1269,,,,,
53696013,1275,1268,1269,1275,,,,,
53698512,1281,1275,1275,1282,,,,,
53701011,1287,1281,1281,1288,,,,,
53703510,1294,1287,1288,1294,,,,,
53706009,1300,1293,1294,1300,,,,,
53708508,1306,1299,1300,1306,,,,,
53711007,1312,1305,1306,1312,,,,,
53713506,1317,1311,1312,1318,,,,,
53716005,1323,1317,1318,1324,,,,,
53718504,1329,1323,1323,1329,,,,,
53721003,1335,1329,1329,1335,,,,,
53723502,1340,1334,1335,1341,,,,,
53726001,1346,1340,1340,1346,,,,,
53728500,1352,1346,1346,1352,,,,,
53730999,1357,1351,1352,1357,,,,,
53733498,1363,1357,1357,1363,,,,,
53735997,1368,1362,1362,1368,,,,,
53738496,1373,1368,1368,1374,,,,,
53740995,1379,1373,1373,1379,,,,,
53743494,1384,1378,1378,1384,,,,,
53745993,1389,1383,1384,1389,,,,,
53748492,1394,1389,1389,1395,,,,,
53750991,1399,1394,1394,1400,,,,,
53753490,1404,1399,1399,1405,,,,,
53755989,1410,1404,1404,1410,,,,,
53758488,1415,1409,1409,1415,,,,,
53760987,1420,1414,1414,1420,,,,,
53763486,1424,1419,1419,1425,,,,,
53765985,1429,1424,1424,1430,,,,,
53768484,1434,1429,1429,1434,,,,,
53770983,1439,1434,1434,1439,,,,,
53773482,1444,1439,1439,1444,,,,,
53775981,1449,1443,1444,1449,,,,,
53778480,1453,1448,1449,1453,,,,,
53780979,1458,1453,1453,1458,,,,,
53783478,1463,1458,1458,1463,,,,,
53785977,1467,1462,1463,1467,,,,,
53788476,1472,1467,1467,1472,,,,,
53790975,1477,1471,1472,1477,,,,,
53793474,1481,1476,1477,1481,,,,,
53795973,1486,1481,1481,1486,,,,,
53798472,1490,1485,1486,1490,,,,,
53800971,1495,1490,1490,1495,,,,,
53803470,1499,1494,1495,1499,,,,,
53805969,1504,1499,1499,1504,,,,,
53808468,1508,1503,1503,1508,,,,,
53810967,1512,1507,1508,1512,,,,,
53813466,1517,1512,1512,1517,,,,,
53815965,1521,1516,1516,1521,,,,,
53818464,1525,1520,1521,1525,,,,,
53820963,1529,1525,1525,1530,,,,,
53823462,1534,1529,1529,1534,,,,,
53825961,1538,1533,1534,1538,,,,,
53828460,1542,1537,1538,1542,,,,,
53830959,1546,1542,1542,1546,,,,,
53833458,1550,1546,1546,1551,,,,,
53835957,1555,1550,1550,1555,,,,,
53838456,1559,1554,1554,1559,,,,,
53840955,1563,1558,1559,1563,,,,,
53843454,1567,1562,1563,1567,,,,,
53845953,1571,1566,1567,1571,,,,,
53848452,1575,1570,1571,1575,,,,,
53850951,1579,1574,1575,1579,,,,,
53853450,1583,1579,1579,1583,,,,,
53855949,1587,1583,1583,1587,,,,,
53858448,1591,1586,1587,1591,,,,,
53860947,1595,1590,1591,1595,,,,,
53863446,1599,1594,1595,1599,,,,,
53865945,1603,1598,1599,1603,,,,,
53868444,1607,1602,1602,1607,,,,,
53870943,1610,1606,1606,1611,,,,,
53873442,1614,1610,1610,1614,,,,,
53875941,1618,1614,1614,1618,,,,,
53878440,1622,1618,1618,1622,,,,,
53880939,1626,1621,1622,1626,,,,,
53883438,1630,1625,1625,1630,,,,,
53885937,1633,1629,1629,1633,,,,,
53888436,1637,1633,1633,1637,,,,,
53890935,1641,1636,1637,1641,,,,,
53893434,1645,1640,1640,1645,,,,,
53895933,1648,1644,1644,1648,,,,,
53898432,1652,1648,1648,1652,,,,,
53900931,1656,1651,1651,1656,,,,,
53903430,1659,1655,1655,1659,,,,,
53905929,1663,1658,1659,1663,,,,,
53908428,1667,1662,1662,1667,,,,,
53910927,1670,1666,1666,1670,,,,,
53913426,1674,1669,1670,1674,,,,,
53915925,1677,1673,1673,1678,,,,,
53918424,1681,1677,1677,1681,,,,,
53920923,1685,1680,1680,1685,,,,,
53923422,1688,1684,1684,1688,,,,,
53925921,1692,1687,1687,1692,,,,,
53928420,1695,1691,1691,1695,,,,,
53930919,1699,1694,1694,1699,,,,,
53933418,1702,1698,1698,1702,,,,,
53935917,1706,1701,1701,1706,,,,,
53938416,1709,1705,1705,1709,,,,,
53940915,1713,1708,1708,1713,,,,,
53943414,1716,1712,1712,1716,,,,,
53945913,1720,1715,1715,1720,,,,,
53948412,1723,1718,1719,1723,,,,,
53950911,1726,1722,1722,1726,,,,,
53953410,1730,1725,1725,1730,,,,,
53955909,1733,1729,1729,1733,,,,,
53958408,1737,1732,1732,1737,,,,,
53960907,1740,1735,1736,1740,,,,,
53963406,1743,1739,1739,1743,,,,,
53965905,1747,1742,1742,1747,,,,,
53968404,1750,1745,1746,1750,,,,,
53970903,1753,1749,1749,1753,,,,,
53973402,1757,1752,1752,1757,,,,,
53975901,1760,1755,1756,1760,,,,,
53978400,1763,1758,1759,1763,,,,,
53980899,1767,1762,1762,1766,,,,,
53983398,1770,1765,1765,1770,,,,,
53985897,1773,1768,1769,1773,,,,,
53988396,1776,1771,1772,1776,,,,,
53990895,1780,1775,1775,1779,,,,,
53993394,1783,1778,1778,1783,,,,,
53995893,1786,1781,1782,1786,,,,,
53998392,1789,1784,1785,1789,,,,,
54000891,1792,1787,1788,1792,,,,,
54003390,1796,1791,1791,1795,,,,,
54005889,1799,1794,1794,1799,,,,,
54008388,1802,1797,1798,1802,,,,,
54010887,1805,1800,1801,1805,,,,,
54013386,1808,1803,1804,1808,,,,,
54015885,1812,1806,1807,1811,,,,,
54018384,1815,1810,1810,1814,,,,,
54020883,1818,1813,1813,1817,,,,,
54023382,1821,1816,1816,1821,,,,,
54025881,1824,1819,1819,1824,,,,,
54028380,1827,1822,1823,1827,,,,,
54030879,1830,1825,1826,1830,,,,,
54033378,1833,1828,1829,1833,,,,,
54035877,1836,1831,1832,1836,,,,,
54038376,1839,1834,1835,1839,,,,,
54040875,1842,1837,1838,1842,,,,,
54043374,1843,1838,1839,1843,,,,,
54045873,1842,1837,1837,1842,,,,,
54048372,1840,1836,1836,1840,,,,,
54050871,1839,1834,1835,1839,,,,,
54053370,1838,1833,1833,1838,,,,,
54055869,1836,1832,1832,1836,,,,,
54058368,1835,1830,1831,1835,,,,,
54060867,1834,1829,1829,1834,,,,,
54063366,1833,1828,1828,1833,,,,,
54065865,1832,1827,1827,1832,,,,,
54068364,1831,1826,1826,1831,,,,,
54070863,1830,1825,1826,1830,,,,,
54073362,1829,1825,1825,1829,,,,,
54075861,1828,1824,1824,1829,,,,,
54078360,1828,1823,1824,1828,,,,,
54080859,1828,1823,1823,1828,,,,,
54083358,1827,1823,1823,1827,,,,,
54085857,1827,1823,1823,1827,,,,,
54088356,1827,1822,1823,1827,,,,,
54090855,1827,1822,1823,1827,,,,,
54093354,1827,1822,1823,1827,,,,,
54095853,1827,1822,1823,1827,,,,,
54098352,1827,1823,1823,1827,,,,,
54100851,1827,1823,1823,1827,,,,,
54103350,1827,1823,1823,1827,,,,,
54105849,1828,1823,1823,1828,,,,,
54108348,1828,1824,1824,1828,,,,,
54110847,1828,1824,1824,1829,,,,,
54113346,1829,1824,1825,1829,,,,,
54115845,1829,1825,1825,1830,,,,,
54118344,1830,1826,1826,1830,,,,,
54120843,1831,1826,1826,1831,,,,,
54123342,1831,1827,1827,1832,,,,,
54125841,1832,1828,1828,1832,,,,,
54128340,1833,1828,1829,1833,,,,,
54130839,1834,1829,1829,1834,,,,,
54133338,1835,1830,1830,1835,,,,,
54135837,1836,1831,1831,1836,,,,,
54138336,1837,1832,1832,1837,,,,,
54140835,1838,1833,1833,1838,,,,,
54143334,1839,1834,1834,1839,,,,,
54145833,1840,1835,1835,1840,,,,,
54148332,1841,1836,1836,1841,,,,,
54150831,1842,1837,1837,1842,,,,,
54153330,1843,1838,1838,1843,,,,,
54155829,1844,1839,1839,1844,,,,,
54158328,1844,1840,1840,1845,,,,,
54160827,1845,1841,1841,1846,,,,,
54163326,1846,1842,1842,1847,,,,,
54165825,1847,1843,1843,1847,,,,,
54168324,1848,1844,1844,1848,,,,,
54170823,1849,1845,1845,1849,,,,,
54173322,1850,1846,1846,1850,,,,,
54175821,1851,1846,1847,1851,,,,,
54178320,1851,1847,1848,1851,,,,,
54180819,1852,1848,1848,1851,,,,,
54183318,1852,1848,1849,1852,,,,,
54185817,1852,1848,1849,1852,,,,,
54188316,1852,1848,1849,1852,,,,,
54190815,1852,1848,1849,1852,,,,,
54193314,1851,1848,1848,1851,,,,,
54195813,1851,1847,1848,1850,,,,,
54198312,1850,1846,1847,1850,,,,,
54200811,1849,1846,1846,1849,,,,,
54203310,1848,1845,1845,1848,,,,,
54205809,1847,1843,1844,1846,,,,,
54208308,1845,1842,1842,1845,,,,,
54210807,1844,1840,1841,1843,,,,,
54213306,1842,1839,1839,1842,,,,,
54215805,1840,1837,1837,1840,,,,,
54218304,1838,1835,1835,1838,,,,,
54220803,1836,1833,1833,1835,,,,,
54223302,1833,1830,1831,1833,,,,,
54225801,1831,1828,1829,1831,,,,,
54228300,1828,1826,1826,1828,,,,,
54230799,1826,1823,1824,1826,,,,,
54233298,1823,1820,1821,1823,,,,,
54235797,1820,1818,1818,1820,,,,,
54238296,1817,1815,1815,1817,,,,,
54240795,1814,1812,1812,1814,,,,,
54243294,1811,1809,1809,1811,,,,,
54245793,1808,1806,1806,1808,,,,,
54248292,1805,1803,1803,1805,,,,,
54250791,1802,1800,1800,1802,,,,,
54253290,1799,1796,1797,1799,,,,,
54255789,1795,1793,1793,1796,,,,,
54258288,1792,1790,1790,1792,,,,,
54260787,1789,1787,1787,1789,,,,,
54263286,1785,1783,1783,1786,,,,,
54265785,1782,1780,1780,1782,,,,,
54268284,1779,1777,1777,1779,,,,,
54270783,1775,1773,1773,1775,,,,,
54273282,1772,1770,1770,1772,,,,,
54275781,1768,1767,1767,1769,,,,,
54278280,1765,1763,1763,1765,,,,,
54280779,1761,1760,1760,1762,,,,,
54283278,1758,1756,1756,1758,,,,,
54285777,1754,1753,1753,1755,,,,,
54288276,1750,1749,1749,1751,,,,,
54290775,1747,1746,1746,1747,,,,,
54293274,1743,1742,1742,1744,,,,,
54295773,1740,1739,1739,1740,,,,,
54298272,1736,1735,1735,1737,,,,,
54300771,1733,1732,1732,1733,,,,,
54303270,1729,1729,1728,1730,,,,,
54305769,1726,1725,1725,1727,,,,,
54308268,1722,1722,1722,1723,,,,,
54310767,1719,1719,1718,1720,,,,,
54313266,1716,1715,1715,1717,,,,,
54315765,1713,1712,1712,1713,,,,,
54318264,1709,1709,1709,1710,,,,,
54320763,1706,1706,1706,1707,,,,,
54323262,1703,1703,1703,1704,,,,,
54325761,1700,1700,1700,1701,,,,,
54328260,1697,1697,1697,1698,,,,,
54330759,1694,1694,1694,1695,,,,,
