TimeUS,M1,M2,M3,M4,TimeUS,C1,C2,C3,C4
44053205,1000,1000,1000,1000,44128175,1000,1000,1000,1000
44055704,1000,1000,1000,1000,44228968,1000,1000,1000,1000
44058203,1000,1000,1000,1000,44328928,1000,1000,1000,1000
44060702,1000,1000,1000,1000,44428888,1000,1000,1000,1000
44063201,1000,1000,1000,1000,44528848,1000,1000,1000,1000
44065700,1000,1000,1000,1000,44628808,1000,1000,1000,1000
44068199,1000,1000,1000,1000,44728768,1000,1000,1000,1000
44070698,1000,1000,1000,1000,44828728,1000,1000,1000,1000
44073197,1000,1000,1000,1000,44928688,1000,1000,1000,1000
44075696,1000,1000,1000,1000,45028648,1000,1000,1000,1000
44078195,1000,1000,1000,1000,45128608,1000,1000,1000,1000
44080694,1000,1000,1000,1000,45228568,1000,1000,1000,1000
44083193,1000,1000,1000,1000,45328528,1000,1000,1000,1000
44085692,1000,1000,1000,1000,45428488,1000,1000,1000,1000
44088191,1000,1000,1000,1000,45528448,1000,1000,1000,1000
44090690,1000,1000,1000,1000,45628408,1000,1000,1000,1000
44093189,1000,1000,1000,1000,45728368,1000,1000,1000,1000
44095688,1000,1000,1000,1000,45828328,1000,1000,1000,1000
44098187,1000,1000,1000,1000,45928288,1000,1000,1000,1000
44100686,1000,1000,1000,1000,46028248,1000,1000,1000,1000
44103185,1000,1000,1000,1000,46128208,1022,1022,1022,1022
44105684,1000,1000,1000,1000,46228168,1052,1052,1052,1052
44108183,1000,1000,1000,1000,46328961,1082,1082,1082,1082
44110682,1000,1000,1000,1000,46428921,1100,1100,1100,1100
44113181,1000,1000,1000,1000,46528881,1100,1100,1100,1100
44115680,1000,1000,1000,1000,46628841,1100,1100,1100,1100
44118179,1000,1000,1000,1000,46728801,1100,1100,1100,1100
44120678,1000,1000,1000,1000,46828761,1100,1100,1100,1100
44123177,1000,1000,1000,1000,46928721,1100,1100,1100,1100
44125676,1000,1000,1000,1000,47028681,1100,1100,1100,1100
44128175,1000,1000,1000,1000,47128641,1100,1100,1100,1100
44130674,1000,1000,1000,1000,47228601,1100,1100,1100,1100
44133173,1000,1000,1000,1000,47328561,1100,1100,1100,1100
44135672,1000,1000,1000,1000,47428521,1100,1100,1100,1100
44138171,1000,1000,1000,1000,47528481,1100,1100,1100,1100
44140670,1000,1000,1000,1000,47628441,1100,1100,1100,1100
44143169,1000,1000,1000,1000,47728401,1100,1100,1100,1100
44145668,1000,1000,1000,1000,47828361,1100,1100,1100,1100
44148167,1000,1000,1000,1000,47928321,1100,1100,1100,1100
44150666,1000,1000,1000,1000,48028281,1100,1100,1100,1100
44153165,1000,1000,1000,1000,48128241,1100,1100,1100,1100
44155664,1000,1000,1000,1000,48228201,1100,1100,1100,1100
44158163,1000,1000,1000,1000,48328161,1113,1113,1113,1113
44160662,1000,1000,1000,1000,48428954,1143,1143,1143,1143
44163161,1000,1000,1000,1000,48528914,1190,1185,1185,1190
44165660,1000,1000,1000,1000,48628874,1220,1215,1215,1220
44168159,1000,1000,1000,1000,48728834,1259,1254,1254,1259
44170658,1000,1000,1000,1000,48828794,1307,1302,1302,1307
44173157,1000,1000,1000,1000,48928754,1356,1350,1350,1356
44175656,1000,1000,1000,1000,49028714,1406,1400,1400,1406
44178155,1000,1000,1000,1000,49128674,1457,1452,1451,1458
44180654,1000,1000,1000,1000,49228634,1510,1504,1504,1510
44183986,1000,1000,1000,1000,49328594,1564,1558,1558,1564
44186485,1000,1000,1000,1000,49428554,1606,1600,1600,1606
44188984,1000,1000,1000,1000,49528514,1637,1630,1630,1638
44191483,1000,1000,1000,1000,49628474,1671,1664,1664,1672
44193982,1000,1000,1000,1000,49728434,1706,1699,1699,1707
44196481,1000,1000,1000,1000,49828394,1744,1736,1736,1745
44198980,1000,1000,1000,1000,49928354,1778,1771,1771,1779
44201479,1000,1000,1000,1000,50028314,1693,1691,1692,1694
44203978,1000,1000,1000,1000,50128274,1576,1578,1578,1576
44206477,1000,1000,1000,1000,50228234,1556,1559,1559,1557
44208976,1000,1000,1000,1000,50328194,1591,1593,1594,1591
44211475,1000,1000,1000,1000,50428154,1626,1629,1629,1627
44213974,1000,1000,1000,1000,50528947,1644,1645,1645,1643
44216473,1000,1000,1000,1000,50628907,1645,1646,1646,1645
44218972,1000,1000,1000,1000,50728867,1642,1640,1640,1642
44221471,1000,1000,1000,1000,50828827,1638,1636,1636,1637
44223970,1000,1000,1000,1000,50928787,1635,1634,1634,1635
44226469,1000,1000,1000,1000,51028747,1634,1634,1633,1634
44228968,1000,1000,1000,1000,51128707,1634,1634,1634,1634
44231467,1000,1000,1000,1000,51228667,1633,1634,1634,1633
44233966,1000,1000,1000,1000,51328627,1633,1633,1633,1633
44236465,1000,1000,1000,1000,51428587,1604,1604,1605,1603
44238964,1000,1000,1000,1000,51528547,1587,1587,1587,1587
44241463,1000,1000,1000,1000,51628507,1575,1574,1574,1575
44243962,1000,1000,1000,1000,51728467,1566,1565,1564,1566
44246461,1000,1000,1000,1000,51828427,1559,1558,1554,1563
44248960,1000,1000,1000,1000,51928387,1553,1553,1548,1557
44251459,1000,1000,1000,1000,52028347,1550,1549,1546,1552
44253958,1000,1000,1000,1000,52128307,1547,1547,1546,1548
44256457,1000,1000,1000,1000,52228267,1546,1546,1547,1545
44258956,1000,1000,1000,1000,52328227,1546,1546,1548,1544
44261455,1000,1000,1000,1000,52428187,1548,1548,1551,1545
44263954,1000,1000,1000,1000,52528980,1549,1549,1552,1546
44266453,1000,1000,1000,1000,52628940,1542,1542,1551,1534
44268952,1000,1000,1000,1000,52728900,1541,1541,1546,1537
44271451,1000,1000,1000,1000,52828860,1540,1541,1539,1543
44273950,1000,1000,1000,1000,52928820,1541,1541,1536,1547
44276449,1000,1000,1000,1000,53028780,1543,1542,1536,1549
44278948,1000,1000,1000,1000,53128740,1544,1544,1539,1549
44281447,1000,1000,1000,1000,53228700,1547,1547,1544,1549
44283946,1000,1000,1000,1000,53328660,1550,1550,1551,1549
44286445,1000,1000,1000,1000,53428620,1553,1553,1556,1550
44288944,1000,1000,1000,1000,53528580,1557,1557,1560,1553
44291443,1000,1000,1000,1000,53628540,1559,1558,1561,1556
44293942,1000,1000,1000,1000,53728500,1560,1560,1561,1560
44296441,1000,1000,1000,1000,53828460,1561,1559,1562,1564
44298940,1000,1000,1000,1000,53928420,1555,1555,1568,1571
44301439,1000,1000,1000,1000,54028380,1555,1556,1567,1570
44303938,1000,1000,1000,1000,54128340,1559,1560,1567,1569
44306437,1000,1000,1000,1000,54228300,1563,1563,1566,1567
44308936,1000,1000,1000,1000,54328260,1565,1566,1565,1565
44311435,1000,1000,1000,1000,54428220,1569,1569,1564,1564
44313934,1000,1000,1000,1000,54528180,1571,1571,1565,1563
44316433,1000,1000,1000,1000,54628973,1573,1573,1565,1564
44318932,1000,1000,1000,1000,54728933,1574,1574,1565,1565
44321431,1000,1000,1000,1000,54828893,1574,1573,1565,1566
44323930,1000,1000,1000,1000,54928853,1573,1572,1566,1567
44326429,1000,1000,1000,1000,55028813,1573,1573,1568,1568
44328928,1000,1000,1000,1000,55128773,1572,1573,1570,1571
44331427,1000,1000,1000,1000,55228733,1572,1572,1572,1572
44333926,1000,1000,1000,1000,55328693,1573,1573,1575,1574
44336425,1000,1000,1000,1000,55428653,1572,1573,1576,1574
44338924,1000,1000,1000,1000,55528613,1573,1573,1577,1575
44341423,1000,1000,1000,1000,55628573,1573,1574,1577,1576
44343922,1000,1000,1000,1000,55728533,1574,1574,1577,1577
44346421,1000,1000,1000,1000,55828493,1575,1575,1577,1577
44348920,1000,1000,1000,1000,55928453,1576,1575,1577,1577
44351419,1000,1000,1000,1000,56028413,1577,1577,1578,1578
44353918,1000,1000,1000,1000,56128373,1577,1577,1577,1577
44356417,1000,1000,1000,1000,56228333,1578,1577,1577,1577
44358916,1000,1000,1000,1000,56328293,1577,1577,1576,1576
44361415,1000,1000,1000,1000,56428253,1577,1577,1576,1576
44363914,1000,1000,1000,1000,56528213,1577,1578,1576,1576
44366413,1000,1000,1000,1000,56628173,1577,1577,1576,1576
44368912,1000,1000,1000,1000,56728966,1578,1577,1577,1576
44371411,1000,1000,1000,1000,56828926,1578,1578,1577,1577
44373910,1000,1000,1000,1000,56928886,1577,1577,1577,1577
44376409,1000,1000,1000,1000,57028846,1577,1577,1577,1577
44378908,1000,1000,1000,1000,57128806,1578,1578,1578,1578
44381407,1000,1000,1000,1000,57228766,1578,1578,1579,1578
44383906,1000,1000,1000,1000,57328726,1579,1578,1579,1579
44386405,1000,1000,1000,1000,57428686,1579,1579,1579,1579
44388904,1000,1000,1000,1000,57528646,1579,1579,1580,1580
44391403,1000,1000,1000,1000,57628606,1579,1579,1580,1580
44393902,1000,1000,1000,1000,57728566,1579,1579,1579,1579
44396401,1000,1000,1000,1000,57828526,1579,1579,1579,1579
44398900,1000,1000,1000,1000,57928486,1579,1579,1579,1580
44401399,1000,1000,1000,1000,58028446,1579,1579,1579,1579
44403898,1000,1000,1000,1000,58128406,1579,1579,1579,1579
44406397,1000,1000,1000,1000,58228366,1580,1580,1579,1579
44408896,1000,1000,1000,1000,58328326,1580,1580,1580,1580
44411395,1000,1000,1000,1000,58428286,1581,1580,1581,1580
44413894,1000,1000,1000,1000,58528246,1580,1580,1580,1580
44416393,1000,1000,1000,1000,58628206,1580,1581,1581,1580
44418892,1000,1000,1000,1000,58728166,1581,1581,1581,1581
44421391,1000,1000,1000,1000,58828959,1580,1580,1580,1580
44423890,1000,1000,1000,1000,58928919,1579,1579,1579,1580
44426389,1000,1000,1000,1000,59028879,1580,1580,1580,1580
44428888,1000,1000,1000,1000,59128839,1580,1580,1580,1580
44431387,1000,1000,1000,1000,59228799,1581,1581,1581,1581
44433886,1000,1000,1000,1000,59328759,1581,1580,1581,1581
44436385,1000,1000,1000,1000,59428719,1580,1580,1580,1581
44438884,1000,1000,1000,1000,59528679,1581,1581,1581,1581
44441383,1000,1000,1000,1000,59628639,1580,1580,1580,1580
44443882,1000,1000,1000,1000,59728599,1581,1581,1581,1581
44446381,1000,1000,1000,1000,59828559,1581,1581,1581,1581
44448880,1000,1000,1000,1000,59928519,1581,1580,1580,1580
44451379,1000,1000,1000,1000,60028479,1581,1580,1581,1581
44453878,1000,1000,1000,1000,60128439,1581,1581,1583,1579
44456377,1000,1000,1000,1000,60228399,1580,1582,1588,1573
44458876,1000,1000,1000,1000,60328359,1580,1583,1583,1574
44461375,1000,1000,1000,1000,60428319,1578,1581,1574,1573
44463874,1000,1000,1000,1000,60528279,1577,1580,1566,1571
44466373,1000,1000,1000,1000,60628239,1578,1580,1561,1568
44468872,1000,1000,1000,1000,60728199,1578,1578,1557,1562
44471371,1000,1000,1000,1000,60828159,1580,1578,1556,1559
44473870,1000,1000,1000,1000,60928952,1580,1578,1556,1556
44476369,1000,1000,1000,1000,61028912,1580,1579,1557,1555
44478868,1000,1000,1000,1000,61128872,1578,1578,1556,1554
44481367,1000,1000,1000,1000,61228832,1575,1577,1555,1553
44483866,1000,1000,1000,1000,61328792,1574,1576,1554,1553
44486365,1000,1000,1000,1000,61428752,1574,1576,1554,1553
44488864,1000,1000,1000,1000,61528712,1575,1576,1553,1553
44491363,1000,1000,1000,1000,61628672,1575,1577,1551,1552
44493862,1000,1000,1000,1000,61728632,1577,1578,1550,1550
44496361,1000,1000,1000,1000,61828592,1578,1579,1547,1547
44498860,1000,1000,1000,1000,61928552,1581,1582,1544,1544
44501359,1000,1000,1000,1000,62028512,1584,1585,1542,1541
44503858,1000,1000,1000,1000,62128472,1587,1588,1539,1539
44506357,1000,1000,1000,1000,62228432,1590,1590,1537,1537
44508856,1000,1000,1000,1000,62328392,1593,1593,1535,1536
44511355,1000,1000,1000,1000,62428352,1594,1594,1534,1535
44513854,1000,1000,1000,1000,62528312,1594,1594,1534,1536
44516353,1000,1000,1000,1000,62628272,1594,1594,1537,1539
44518852,1000,1000,1000,1000,62728232,1592,1591,1540,1543
44521351,1000,1000,1000,1000,62828192,1587,1585,1546,1548
44523850,1000,1000,1000,1000,62928985,1581,1578,1554,1557
44526349,1000,1000,1000,1000,63028945,1573,1569,1565,1568
44528848,1000,1000,1000,1000,63128905,1563,1558,1577,1578
44531347,1000,1000,1000,1000,63228865,1551,1548,1588,1589
44533846,1000,1000,1000,1000,63328825,1541,1539,1600,1600
44536345,1000,1000,1000,1000,63428785,1533,1534,1608,1607
44538844,1000,1000,1000,1000,63528745,1529,1530,1613,1612
44541343,1000,1000,1000,1000,63628705,1529,1531,1614,1613
44543842,1000,1000,1000,1000,63728665,1532,1534,1612,1612
44546341,1000,1000,1000,1000,63828625,1538,1540,1607,1607
44548840,1000,1000,1000,1000,63928585,1545,1546,1600,1600
44551339,1000,1000,1000,1000,64028545,1556,1557,1595,1595
44553838,1000,1000,1000,1000,64128505,1564,1564,1587,1586
44556337,1000,1000,1000,1000,64228465,1573,1573,1581,1581
44558836,1000,1000,1000,1000,64328425,1579,1578,1575,1574
44561335,1000,1000,1000,1000,64428385,1583,1582,1570,1569
44563834,1000,1000,1000,1000,64528345,1587,1585,1568,1568
44566333,1000,1000,1000,1000,64628305,1587,1586,1566,1566
44568832,1000,1000,1000,1000,64728265,1586,1586,1567,1567
44571331,1000,1000,1000,1000,64828225,1585,1585,1569,1570
44573830,1000,1000,1000,1000,64928185,1582,1582,1571,1571
44576329,1000,1000,1000,1000,65028978,1582,1581,1576,1575
44578828,1000,1000,1000,1000,65128938,1578,1578,1578,1577
44581327,1000,1000,1000,1000,65228898,1576,1576,1580,1580
44583826,1000,1000,1000,1000,65328858,1491,1492,1594,1596
44586325,1000,1000,1000,1000,65428818,1518,1520,1604,1606
44588824,1000,1000,1000,1000,65528778,1540,1543,1602,1602
44591323,1000,1000,1000,1000,65628738,1561,1564,1597,1594
44593822,1000,1000,1000,1000,65728698,1578,1579,1586,1583
44596321,1000,1000,1000,1000,65828658,1593,1593,1577,1576
44598820,1000,1000,1000,1000,65928618,1603,1601,1571,1571
44601319,1000,1000,1000,1000,66028578,1608,1605,1568,1568
44603818,1000,1000,1000,1000,66128538,1610,1606,1567,1569
44606317,1000,1000,1000,1000,66228498,1608,1605,1567,1569
44608816,1000,1000,1000,1000,66328458,1605,1603,1568,1570
44611315,1000,1000,1000,1000,66428418,1600,1600,1571,1571
44613814,1000,1000,1000,1000,66528378,1596,1596,1573,1573
44616313,1000,1000,1000,1000,66628338,1593,1593,1575,1575
44618812,1000,1000,1000,1000,66728298,1588,1588,1576,1576
44621311,1000,1000,1000,1000,66828258,1585,1585,1580,1579
44623810,1000,1000,1000,1000,66928218,1581,1582,1580,1580
44626309,1000,1000,1000,1000,67028178,1579,1579,1583,1582
44628808,1000,1000,1000,1000,67128971,1577,1577,1584,1584
44631307,1000,1000,1000,1000,67228931,1574,1575,1584,1584
44633806,1000,1000,1000,1000,67328891,1575,1575,1586,1586
44636305,1000,1000,1000,1000,67428851,1573,1574,1585,1585
44638804,1000,1000,1000,1000,67528811,1574,1575,1586,1585
44641303,1000,1000,1000,1000,67628771,1574,1575,1585,1584
44643802,1000,1000,1000,1000,67728731,1576,1576,1584,1584
44646301,1000,1000,1000,1000,67828691,1576,1576,1582,1582
44648800,1000,1000,1000,1000,67928651,1578,1578,1581,1581
44651299,1000,1000,1000,1000,68028611,1581,1580,1580,1581
44653798,1000,1000,1000,1000,68128571,1581,1581,1580,1579
44656297,1000,1000,1000,1000,68228531,1583,1583,1586,1571
44658796,1000,1000,1000,1000,68328491,1583,1584,1581,1570
44661295,1000,1000,1000,1000,68428451,1582,1583,1572,1568
44663794,1000,1000,1000,1000,68528411,1580,1582,1563,1567
44666293,1000,1000,1000,1000,68628371,1578,1581,1556,1563
44668792,1000,1000,1000,1000,68728331,1578,1579,1552,1558
44671291,1000,1000,1000,1000,68828291,1579,1579,1552,1556
44673790,1000,1000,1000,1000,68928251,1579,1578,1553,1553
44676289,1000,1000,1000,1000,69028211,1580,1579,1555,1553
44678788,1000,1000,1000,1000,69128171,1579,1578,1555,1553
44681287,1000,1000,1000,1000,69228964,1578,1578,1555,1553
44683786,1000,1000,1000,1000,69328924,1577,1577,1554,1553
44686285,1000,1000,1000,1000,69428884,1576,1577,1553,1552
44688784,1000,1000,1000,1000,69528844,1576,1577,1551,1552
44691283,1000,1000,1000,1000,69628804,1576,1578,1550,1551
44693782,1000,1000,1000,1000,69728764,1577,1578,1548,1549
44696281,1000,1000,1000,1000,69828724,1578,1580,1547,1547
44698780,1000,1000,1000,1000,69928684,1580,1581,1544,1544
44701279,1000,1000,1000,1000,70028644,1582,1583,1543,1542
44703778,1000,1000,1000,1000,70128604,1584,1585,1541,1541
44706277,1000,1000,1000,1000,70228564,1587,1587,1540,1540
44708776,1000,1000,1000,1000,70328524,1588,1588,1539,1539
44711275,1000,1000,1000,1000,70428484,1590,1590,1540,1541
44713774,1000,1000,1000,1000,70528444,1590,1590,1540,1542
44716273,1000,1000,1000,1000,70628404,1590,1590,1542,1545
44718772,1000,1000,1000,1000,70728364,1588,1587,1545,1548
44721271,1000,1000,1000,1000,70828324,1584,1582,1550,1553
44723770,1000,1000,1000,1000,70928284,1579,1577,1558,1561
44726269,1000,1000,1000,1000,71028244,1572,1569,1567,1569
44728768,1000,1000,1000,1000,71128204,1564,1560,1579,1580
44731267,1000,1000,1000,1000,71228164,1553,1550,1589,1590
44733766,1000,1000,1000,1000,71328957,1544,1542,1599,1599
44736265,1000,1000,1000,1000,71428917,1537,1538,1607,1607
44738764,1000,1000,1000,1000,71528877,1533,1534,1610,1610
44741263,1000,1000,1000,1000,71628837,1532,1535,1611,1611
44743762,1000,1000,1000,1000,71728797,1535,1537,1609,1609
44746261,1000,1000,1000,1000,71828757,1540,1543,1605,1605
44748760,1000,1000,1000,1000,71928717,1548,1550,1600,1599
44751259,1000,1000,1000,1000,72028677,1556,1556,1592,1591
44753758,1000,1000,1000,1000,72128637,1564,1564,1585,1585
44756257,1000,1000,1000,1000,72228597,1572,1572,1580,1579
44758756,1000,1000,1000,1000,72328557,1578,1577,1574,1574
44761255,1000,1000,1000,1000,72428517,1583,1581,1569,1570
44763754,1000,1000,1000,1000,72528477,1586,1585,1567,1568
44766253,1000,1000,1000,1000,72628437,1587,1586,1566,1567
44768752,1000,1000,1000,1000,72728397,1587,1586,1566,1567
44771251,1000,1000,1000,1000,72828357,1586,1585,1568,1568
44773750,1000,1000,1000,1000,72928317,1585,1585,1573,1572
44776249,1000,1000,1000,1000,73028277,1582,1582,1575,1574
44778748,1000,1000,1000,1000,73128237,1579,1580,1577,1577
44781247,1000,1000,1000,1000,73228197,1577,1578,1579,1579
44783746,1000,1000,1000,1000,73328157,1576,1576,1582,1582
44786245,1000,1000,1000,1000,73428950,1574,1575,1583,1583
44788744,1000,1000,1000,1000,73528910,1574,1574,1584,1584
44791243,1000,1000,1000,1000,73628870,1573,1573,1583,1584
44793742,1000,1000,1000,1000,73728830,1574,1574,1584,1584
44796241,1000,1000,1000,1000,73828790,1574,1575,1583,1582
44798740,1000,1000,1000,1000,73928750,1575,1576,1581,1581
44801239,1000,1000,1000,1000,74028710,1576,1577,1580,1580
44803738,1000,1000,1000,1000,74128670,1578,1578,1579,1579
44806237,1000,1000,1000,1000,74228630,1580,1579,1578,1578
44808736,1000,1000,1000,1000,74328590,1581,1580,1578,1578
44811235,1000,1000,1000,1000,74428550,1582,1581,1578,1578
44813734,1000,1000,1000,1000,74528510,1582,1582,1577,1577
44816233,1000,1000,1000,1000,74628470,1582,1582,1578,1578
44818732,1000,1000,1000,1000,74728430,1582,1582,1578,1578
44821231,1000,1000,1000,1000,74828390,1582,1582,1578,1578
44823730,1000,1000,1000,1000,74928350,1582,1582,1580,1580
44826229,1000,1000,1000,1000,75028310,1581,1581,1580,1580
44828728,1000,1000,1000,1000,75128270,1581,1581,1580,1581
44831227,1000,1000,1000,1000,75228230,1580,1580,1581,1581
44833726,1000,1000,1000,1000,75328190,1580,1580,1581,1581
44836225,1000,1000,1000,1000,75428983,1579,1579,1581,1580
44838724,1000,1000,1000,1000,75528943,1580,1580,1581,1581
44841223,1000,1000,1000,1000,75628903,1580,1581,1582,1582
44843722,1000,1000,1000,1000,75728863,1580,1580,1582,1582
44846221,1000,1000,1000,1000,75828823,1580,1580,1581,1581
44848720,1000,1000,1000,1000,75928783,1579,1580,1580,1580
44851219,1000,1000,1000,1000,76028743,1581,1581,1581,1581
44853718,1000,1000,1000,1000,76128703,1580,1580,1579,1580
44856217,1000,1000,1000,1000,76228663,1582,1581,1581,1581
44858716,1000,1000,1000,1000,76328623,1581,1581,1581,1580
44861215,1000,1000,1000,1000,76428583,1581,1581,1581,1580
44863714,1000,1000,1000,1000,76528543,1581,1581,1585,1575
44866213,1000,1000,1000,1000,76628503,1581,1582,1586,1572
44868712,1000,1000,1000,1000,76728463,1580,1582,1579,1573
44871211,1000,1000,1000,1000,76828423,1579,1581,1570,1572
44873710,1000,1000,1000,1000,76928383,1577,1579,1562,1568
44876209,1000,1000,1000,1000,77028343,1576,1578,1557,1564
44878708,1000,1000,1000,1000,77128303,1578,1579,1556,1560
44881207,1000,1000,1000,1000,77228263,1579,1578,1555,1557
44883706,1000,1000,1000,1000,77328223,1579,1578,1555,1554
44886205,1000,1000,1000,1000,77428183,1579,1577,1556,1553
44888704,1000,1000,1000,1000,77528976,1576,1576,1555,1552
44891203,1000,1000,1000,1000,77628936,1575,1576,1555,1553
44893702,1000,1000,1000,1000,77728896,1575,1576,1555,1554
44896201,1000,1000,1000,1000,77828856,1574,1576,1553,1554
44898700,1000,1000,1000,1000,77928816,1574,1576,1552,1553
44901199,1000,1000,1000,1000,78028776,1574,1575,1549,1550
44903698,1000,1000,1000,1000,78128736,1577,1578,1549,1549
44906197,1000,1000,1000,1000,78228696,1661,1661,1532,1531
44908696,1000,1000,1000,1000,78328656,1637,1636,1521,1520
44911195,1000,1000,1000,1000,78428616,1616,1616,1522,1524
44913694,1000,1000,1000,1000,78528576,1598,1599,1529,1532
44916193,1000,1000,1000,1000,78628536,1582,1583,1537,1539
44918692,1000,1000,1000,1000,78728496,1569,1571,1544,1546
44921191,1000,1000,1000,1000,78828456,1560,1561,1549,1551
44923690,1000,1000,1000,1000,78928416,1556,1557,1555,1556
44926189,1000,1000,1000,1000,79028376,1554,1555,1558,1559
44928688,1000,1000,1000,1000,79128336,1555,1554,1560,1561
44931187,1000,1000,1000,1000,79228296,1557,1556,1563,1564
44933686,1000,1000,1000,1000,79328256,1559,1556,1567,1568
44936185,1000,1000,1000,1000,79428216,1558,1555,1571,1572
44938684,1000,1000,1000,1000,79528176,1556,1552,1577,1577
44941183,1000,1000,1000,1000,79628969,1554,1550,1584,1584
44943682,1000,1000,1000,1000,79728929,1551,1548,1590,1590
44946181,1000,1000,1000,1000,79828889,1548,1547,1595,1594
44948680,1000,1000,1000,1000,79928849,1547,1547,1599,1598
44951179,1000,1000,1000,1000,80028809,1546,1548,1599,1599
44953678,1000,1000,1000,1000,80128769,1549,1550,1600,1600
44956177,1000,1000,1000,1000,80228729,1550,1552,1599,1599
44958676,1000,1000,1000,1000,80328689,1554,1555,1597,1596
44961175,1000,1000,1000,1000,80428649,1558,1558,1594,1594
44963674,1000,1000,1000,1000,80528609,1562,1561,1591,1590
44966173,1000,1000,1000,1000,80628569,1565,1565,1587,1587
44968672,1000,1000,1000,1000,80728529,1570,1570,1585,1584
44971171,1000,1000,1000,1000,80828489,1573,1574,1581,1581
44973670,1000,1000,1000,1000,80928449,1577,1578,1579,1578
44976169,1000,1000,1000,1000,81028409,1580,1580,1575,1576
44978668,1000,1000,1000,1000,81128369,1583,1582,1572,1573
44981167,1000,1000,1000,1000,81228329,1584,1583,1571,1571
44983666,1000,1000,1000,1000,81328289,1584,1583,1571,1570
44986165,1000,1000,1000,1000,81428249,1583,1582,1571,1570
44988664,1000,1000,1000,1000,81528209,1582,1581,1573,1572
44991163,1000,1000,1000,1000,81628169,1580,1581,1575,1574
44993662,1000,1000,1000,1000,81728962,1578,1578,1576,1576
44996161,1000,1000,1000,1000,81828922,1577,1577,1577,1578
44998660,1000,1000,1000,1000,81928882,1576,1576,1580,1580
45001159,1000,1000,1000,1000,82028842,1575,1575,1581,1581
45003658,1000,1000,1000,1000,82128802,1575,1576,1582,1582
45006157,1000,1000,1000,1000,82228762,1575,1576,1583,1583
45008656,1000,1000,1000,1000,82328722,1575,1576,1582,1582
45011155,1000,1000,1000,1000,82428682,1575,1576,1581,1582
45013654,1000,1000,1000,1000,82528642,1576,1576,1580,1581
45016153,1000,1000,1000,1000,82628602,1578,1578,1581,1581
45018652,1000,1000,1000,1000,82728562,1579,1579,1580,1580
45021151,1000,1000,1000,1000,82828522,1579,1578,1579,1578
45023650,1000,1000,1000,1000,82928482,1581,1581,1579,1579
45026149,1000,1000,1000,1000,83028442,1581,1581,1579,1579
45028648,1000,1000,1000,1000,83128402,1582,1582,1579,1579
45031147,1000,1000,1000,1000,83228362,1580,1580,1577,1577
45033646,1000,1000,1000,1000,83328322,1581,1581,1578,1578
45036145,1000,1000,1000,1000,83428282,1581,1580,1579,1578
45038644,1000,1000,1000,1000,83528242,1581,1581,1579,1579
45041143,1000,1000,1000,1000,83628202,1580,1580,1579,1579
45043642,1000,1000,1000,1000,83728162,1580,1580,1580,1580
45046141,1000,1000,1000,1000,83828955,1579,1579,1580,1579
45048640,1000,1000,1000,1000,83928915,1580,1580,1581,1581
45051139,1000,1000,1000,1000,84028875,1580,1580,1581,1581
45053638,1000,1000,1000,1000,84128835,1580,1580,1581,1581
45056137,1000,1000,1000,1000,84228795,1579,1579,1580,1581
45058636,1000,1000,1000,1000,84328755,1580,1580,1581,1581
45061135,1000,1000,1000,1000,84428715,1581,1581,1582,1581
45063634,1000,1000,1000,1000,84528675,1580,1580,1582,1578
45066133,1000,1000,1000,1000,84628635,1580,1582,1588,1573
45068632,1000,1000,1000,1000,84728595,1579,1580,1583,1573
45071131,1000,1000,1000,1000,84828555,1577,1578,1577,1576
45073630,1000,1000,1000,1000,84928515,1575,1575,1571,1576
45076129,1000,1000,1000,1000,85028475,1571,1570,1566,1573
45078628,1000,1000,1000,1000,85128435,1570,1569,1565,1572
45081127,1000,1000,1000,1000,85228395,1568,1567,1565,1568
45083626,1000,1000,1000,1000,85328355,1568,1567,1567,1567
45086125,1000,1000,1000,1000,85428315,1566,1566,1567,1565
45088624,1000,1000,1000,1000,85528275,1566,1566,1567,1565
45091123,1000,1000,1000,1000,85628235,1564,1565,1566,1564
45093622,1000,1000,1000,1000,85728195,1564,1564,1566,1565
45096121,1000,1000,1000,1000,85828155,1563,1563,1564,1564
45098620,1000,1000,1000,1000,85928948,1563,1563,1564,1564
45101119,1000,1000,1000,1000,86028908,1562,1562,1563,1563
45103618,1000,1000,1000,1000,86128868,1561,1561,1561,1562
45106117,1000,1000,1000,1000,86228828,1560,1560,1560,1560
45108616,1000,1000,1000,1000,86328788,1561,1561,1561,1561
45111115,1000,1000,1000,1000,86428748,1560,1560,1560,1559
45113614,1000,1000,1000,1000,86528708,1560,1559,1560,1559
45116113,1000,1000,1000,1000,86628668,1559,1559,1559,1558
45118612,1000,1000,1000,1000,86728628,1558,1558,1558,1557
45121111,1000,1000,1000,1000,86828588,1557,1558,1558,1557
45123610,1000,1000,1000,1000,86928548,1558,1558,1558,1557
45126109,1000,1000,1000,1000,87028508,1558,1558,1559,1558
45128608,1000,1000,1000,1000,87128468,1558,1558,1558,1557
45131107,1000,1000,1000,1000,87228428,1559,1559,1561,1558
45133606,1000,1000,1000,1000,87328388,1559,1560,1561,1558
45136105,1000,1000,1000,1000,87428348,1559,1560,1559,1560
45138604,1000,1000,1000,1000,87528308,1560,1560,1557,1563
45141103,1000,1000,1000,1000,87628268,1561,1561,1558,1564
45143602,1000,1000,1000,1000,87728228,1562,1561,1559,1564
45146101,1000,1000,1000,1000,87828188,1561,1560,1559,1561
45148600,1000,1000,1000,1000,87928981,1561,1561,1561,1561
45151099,1000,1000,1000,1000,88028941,1559,1558,1558,1559
45153598,1000,1000,1000,1000,88128901,1556,1555,1555,1556
45156097,1000,1000,1000,1000,88228861,1550,1550,1550,1550
45158596,1000,1000,1000,1000,88328821,1544,1544,1544,1544
45161095,1000,1000,1000,1000,88428781,1537,1538,1538,1537
45163594,1000,1000,1000,1000,88528741,1529,1530,1529,1530
45166093,1000,1000,1000,1000,88628701,1522,1522,1522,1523
45168592,1000,1000,1000,1000,88728661,1520,1520,1520,1521
45171091,1000,1000,1000,1000,88828621,1518,1519,1519,1519
45173590,1000,1000,1000,1000,88928581,1520,1520,1520,1520
45176089,1000,1000,1000,1000,89028541,1523,1523,1523,1523
45178588,1000,1000,1000,1000,89128501,1526,1526,1526,1526
45181087,1000,1000,1000,1000,89228461,1531,1531,1531,1531
45183586,1000,1000,1000,1000,89328421,1535,1535,1535,1536
45186085,1000,1000,1000,1000,89428381,1539,1539,1539,1539
45188584,1000,1000,1000,1000,89528341,1542,1542,1542,1542
45191083,1000,1000,1000,1000,89628301,1544,1544,1544,1544
45193582,1000,1000,1000,1000,89728261,1545,1545,1545,1545
45196081,1000,1000,1000,1000,89828221,1546,1546,1546,1546
45198580,1000,1000,1000,1000,89928181,1546,1546,1546,1546
45201079,1000,1000,1000,1000,90028974,1546,1547,1547,1546
45203578,1000,1000,1000,1000,90128934,1547,1547,1548,1547
45206077,1000,1000,1000,1000,90228894,1547,1547,1547,1547
45208576,1000,1000,1000,1000,90328854,1547,1546,1547,1546
45211075,1000,1000,1000,1000,90428814,1545,1546,1546,1546
45213574,1000,1000,1000,1000,90528774,1545,1545,1545,1545
45216073,1000,1000,1000,1000,90628734,1545,1545,1545,1545
45218572,1000,1000,1000,1000,90728694,1544,1544,1544,1544
45221071,1000,1000,1000,1000,90828654,1544,1544,1544,1544
45223570,1000,1000,1000,1000,90928614,1545,1544,1545,1544
45226069,1000,1000,1000,1000,91028574,1545,1545,1545,1545
45228568,1000,1000,1000,1000,91128534,1544,1545,1545,1544
45231067,1000,1000,1000,1000,91228494,1544,1544,1544,1544
45233566,1000,1000,1000,1000,91328454,1544,1544,1544,1544
45236065,1000,1000,1000,1000,91428414,1543,1544,1543,1544
45238564,1000,1000,1000,1000,91528374,1544,1543,1543,1544
45241063,1000,1000,1000,1000,91628334,1544,1544,1544,1544
45243562,1000,1000,1000,1000,91728294,1544,1545,1544,1545
45246061,1000,1000,1000,1000,91828254,1544,1544,1544,1544
45248560,1000,1000,1000,1000,91928214,1544,1544,1544,1544
45251059,1000,1000,1000,1000,92028174,1545,1545,1545,1545
45253558,1000,1000,1000,1000,92128967,1544,1544,1544,1544
45256057,1000,1000,1000,1000,92228927,1544,1544,1544,1544
45258556,1000,1000,1000,1000,92328887,1544,1544,1545,1544
45261055,1000,1000,1000,1000,92428847,1544,1544,1544,1544
45263554,1000,1000,1000,1000,92528807,1544,1544,1544,1544
45266053,1000,1000,1000,1000,92628767,1544,1544,1544,1544
45268552,1000,1000,1000,1000,92728727,1545,1545,1545,1545
45271051,1000,1000,1000,1000,92828687,1544,1544,1544,1544
45273550,1000,1000,1000,1000,92928647,1544,1544,1544,1544
45276049,1000,1000,1000,1000,93028607,1544,1544,1544,1544
45278548,1000,1000,1000,1000,93128567,1544,1543,1543,1544
45281047,1000,1000,1000,1000,93228527,1544,1544,1545,1544
45283546,1000,1000,1000,1000,93328487,1544,1544,1544,1545
45286045,1000,1000,1000,1000,93428447,1544,1545,1545,1544
45288544,1000,1000,1000,1000,93528407,1545,1544,1544,1545
45291043,1000,1000,1000,1000,93628367,1544,1544,1545,1544
45293542,1000,1000,1000,1000,93728327,1544,1544,1544,1544
45296041,1000,1000,1000,1000,93828287,1544,1544,1544,1544
45298540,1000,1000,1000,1000,93928247,1545,1545,1545,1545
45301039,1000,1000,1000,1000,94028207,1545,1545,1545,1545
45303538,1000,1000,1000,1000,94128167,1545,1545,1545,1545
45306037,1000,1000,1000,1000,94228960,1545,1545,1546,1545
45308536,1000,1000,1000,1000,94328920,1545,1545,1544,1545
45311035,1000,1000,1000,1000,94428880,1544,1544,1543,1544
45313534,1000,1000,1000,1000,94528840,1545,1545,1544,1545
45316033,1000,1000,1000,1000,94628800,1544,1544,1544,1544
45318532,1000,1000,1000,1000,94728760,1543,1543,1544,1544
45321031,1000,1000,1000,1000,94828720,1543,1543,1544,1543
45323530,1000,1000,1000,1000,94928680,1544,1544,1544,1544
45326029,1000,1000,1000,1000,95028640,1544,1544,1544,1544
45328528,1000,1000,1000,1000,95128600,1544,1543,1544,1544
45331027,1000,1000,1000,1000,95228560,1544,1544,1544,1544
45333526,1000,1000,1000,1000,95328520,1544,1543,1544,1544
45336025,1000,1000,1000,1000,95428480,1544,1544,1544,1544
45338524,1000,1000,1000,1000,95528440,1544,1544,1544,1543
45341023,1000,1000,1000,1000,95628400,1544,1544,1544,1544
45343522,1000,1000,1000,1000,95728360,1544,1544,1544,1544
45346021,1000,1000,1000,1000,95828320,1544,1544,1544,1544
45348520,1000,1000,1000,1000,95928280,1545,1544,1544,1545
45351019,1000,1000,1000,1000,96028240,1545,1545,1545,1545
45353518,1000,1000,1000,1000,96128200,1545,1545,1545,1545
45356017,1000,1000,1000,1000,96228160,1545,1545,1545,1545
45358516,1000,1000,1000,1000,96328953,1545,1545,1545,1545
45361015,1000,1000,1000,1000,96428913,1544,1545,1545,1544
45363514,1000,1000,1000,1000,96528873,1545,1544,1545,1545
45366013,1000,1000,1000,1000,96628833,1544,1545,1544,1545
45368512,1000,1000,1000,1000,96728793,1545,1544,1544,1545
45371011,1000,1000,1000,1000,96828753,1544,1544,1544,1544
45373510,1000,1000,1000,1000,96928713,1545,1545,1544,1545
45376009,1000,1000,1000,1000,97028673,1544,1545,1544,1544
45378508,1000,1000,1000,1000,97128633,1543,1544,1543,1544
45381007,1000,1000,1000,1000,97228593,1544,1544,1544,1544
45383506,1000,1000,1000,1000,97328553,1544,1543,1544,1544
45386005,1000,1000,1000,1000,97428513,1545,1545,1545,1545
45388504,1000,1000,1000,1000,97528473,1544,1544,1544,1544
45391003,1000,1000,1000,1000,97628433,1545,1545,1545,1544
45393502,1000,1000,1000,1000,97728393,1544,1544,1543,1544
45396001,1000,1000,1000,1000,97828353,1545,1545,1544,1545
45398500,1000,1000,1000,1000,97928313,1545,1545,1544,1545
45400999,1000,1000,1000,1000,98028273,1544,1544,1544,1544
45403498,1000,1000,1000,1000,98128233,1545,1545,1545,1545
45405997,1000,1000,1000,1000,98228193,1545,1544,1545,1544
45408496,1000,1000,1000,1000,98328986,1545,1545,1544,1545
45410995,1000,1000,1000,1000,98428946,1489,1489,1489,1489
45413494,1000,1000,1000,1000,98528906,1315,1312,1312,1315
45415993,1000,1000,1000,1000,98628866,1235,1232,1233,1235
45418492,1000,1000,1000,1000,98728826,1211,1207,1209,1211
45420991,1000,1000,1000,1000,98828786,1187,1184,1186,1187
45423490,1000,1000,1000,1000,98928746,1154,1150,1152,1154
45425989,1000,1000,1000,1000,99028706,1153,1150,1153,1154
45428488,1000,1000,1000,1000,99128666,1171,1150,1152,1173
45430987,1000,1000,1000,1000,99228626,1179,1150,1152,1181
45433486,1000,1000,1000,1000,99328586,1173,1150,1153,1175
45435985,1000,1000,1000,1000,99428546,1173,1150,1154,1174
45438484,1000,1000,1000,1000,99528506,1174,1150,1154,1176
45440983,1000,1000,1000,1000,99628466,1176,1150,1154,1177
45443482,1000,1000,1000,1000,99728426,1178,1150,1155,1179
45445981,1000,1000,1000,1000,99828386,1179,1150,1155,1180
45448480,1000,1000,1000,1000,99928346,1158,1150,1155,1160
45450979,1000,1000,1000,1000,100028306,1167,1150,1155,1169
45453478,1000,1000,1000,1000,100128266,1168,1150,1155,1171
45455977,1000,1000,1000,1000,100228226,1169,1150,1155,1171
45458476,1000,1000,1000,1000,100328186,1169,1150,1156,1172
45460975,1000,1000,1000,1000,100428979,1000,1000,1000,1000
45463474,1000,1000,1000,1000,100528939,1000,1000,1000,1000
45465973,1000,1000,1000,1000,100628899,1000,1000,1000,1000
45468472,1000,1000,1000,1000,100728859,1000,1000,1000,1000
45470971,1000,1000,1000,1000,100828819,1000,1000,1000,1000
45473470,1000,1000,1000,1000,100928779,1000,1000,1000,1000
45475969,1000,1000,1000,1000,101028739,1000,1000,1000,1000
45478468,1000,1000,1000,1000,101128699,1000,1000,1000,1000
45480967,1000,1000,1000,1000,101228659,1000,1000,1000,1000
45483466,1000,1000,1000,1000,101328619,1000,1000,1000,1000
45485965,1000,1000,1000,1000,101428579,1000,1000,1000,1000
45488464,1000,1000,1000,1000,101528539,1000,1000,1000,1000
45490963,1000,1000,1000,1000,101628499,1000,1000,1000,1000
45493462,1000,1000,1000,1000,101728459,1000,1000,1000,1000
45495961,1000,1000,1000,1000,101828419,1000,1000,1000,1000
45498460,1000,1000,1000,1000,101928379,1000,1000,1000,1000
45500959,1000,1000,1000,1000,102028339,1000,1000,1000,1000
45503458,1000,1000,1000,1000,102128299,1000,1000,1000,1000
45505957,1000,1000,1000,1000,102228259,1000,1000,1000,1000
45508456,1000,1000,1000,1000,102328219,1000,1000,1000,1000
45510955,1000,1000,1000,1000,102428179,1000,1000,1000,1000
45513454,1000,1000,1000,1000,102528972,1000,1000,1000,1000
45515953,1000,1000,1000,1000,102628932,1000,1000,1000,1000
45518452,1000,1000,1000,1000,102728892,1000,1000,1000,1000
45520951,1000,1000,1000,1000,102828852,1000,1000,1000,1000
45523450,1000,1000,1000,1000,102928812,1000,1000,1000,1000
45525949,1000,1000,1000,1000,103028772,1000,1000,1000,1000
45528448,1000,1000,1000,1000,103128732,1000,1000,1000,1000
45530947,1000,1000,1000,1000,103228692,1000,1000,1000,1000
45533446,1000,1000,1000,1000,103328652,1000,1000,1000,1000
45535945,1000,1000,1000,1000,103428612,1000,1000,1000,1000
45538444,1000,1000,1000,1000,103528572,1000,1000,1000,1000
45540943,1000,1000,1000,1000,103628532,1000,1000,1000,1000
45543442,1000,1000,1000,1000,103728492,1000,1000,1000,1000
45545941,1000,1000,1000,1000,103828452,1000,1000,1000,1000
45548440,1000,1000,1000,1000,103928412,1000,1000,1000,1000
45550939,1000,1000,1000,1000,104028372,1000,1000,1000,1000
45553438,1000,1000,1000,1000,104128332,1000,1000,1000,1000
45555937,1000,1000,1000,1000,104228292,1000,1000,1000,1000
45558436,1000,1000,1000,1000,104328252,1000,1000,1000,1000
45560935,1000,1000,1000,1000,104428212,1000,1000,1000,1000
45563434,1000,1000,1000,1000,104528172,1000,1000,1000,1000
45565933,1000,1000,1000,1000,104628965,1000,1000,1000,1000
45568432,1000,1000,1000,1000,104728925,1000,1000,1000,1000
45570931,1000,1000,1000,1000,104828885,1000,1000,1000,1000
45573430,1000,1000,1000,1000,104928845,1000,1000,1000,1000
45575929,1000,1000,1000,1000,105028805,1000,1000,1000,1000
45578428,1000,1000,1000,1000,105128765,1000,1000,1000,1000
45580927,1000,1000,1000,1000,105228725,1000,1000,1000,1000
45583426,1000,1000,1000,1000,105328685,1000,1000,1000,1000
45585925,1000,1000,1000,1000,105428645,1000,1000,1000,1000
45588424,1000,1000,1000,1000,105528605,1000,1000,1000,1000
45590923,1000,1000,1000,1000,105628565,1000,1000,1000,1000
45593422,1000,1000,1000,1000,105728525,1000,1000,1000,1000
45595921,1000,1000,1000,1000,105828485,1000,1000,1000,1000
45598420,1000,1000,1000,1000,105928445,1000,1000,1000,1000
45600919,1000,1000,1000,1000,106028405,1000,1000,1000,1000
45603418,1000,1000,1000,1000,106128365,1000,1000,1000,1000
45605917,1000,1000,1000,1000,106228325,1000,1000,1000,1000
45608416,1000,1000,1000,1000,106328285,1000,1000,1000,1000
45610915,1000,1000,1000,1000,106428245,1000,1000,1000,1000
45613414,1000,1000,1000,1000,106528205,1000,1000,1000,1000
45615913,1000,1000,1000,1000,106628165,1000,1000,1000,1000
45618412,1000,1000,1000,1000,106728958,1000,1000,1000,1000
45620911,1000,1000,1000,1000,106828918,1000,1000,1000,1000
45623410,1000,1000,1000,1000,106928878,1000,1000,1000,1000
45625909,1000,1000,1000,1000,107028838,1000,1000,1000,1000
45628408,1000,1000,1000,1000,107128798,1000,1000,1000,1000
45630907,1000,1000,1000,1000,107228758,1000,1000,1000,1000
45633406,1000,1000,1000,1000,107328718,1000,1000,1000,1000
45635905,1000,1000,1000,1000,107428678,1000,1000,1000,1000
45638404,1000,1000,1000,1000,107528638,1000,1000,1000,1000
45640903,1000,1000,1000,1000,107628598,1000,1000,1000,1000
45643402,1000,1000,1000,1000,107728558,1000,1000,1000,1000
45645901,1000,1000,1000,1000,107828518,1000,1000,1000,1000
45648400,1000,1000,1000,1000,107928478,1000,1000,1000,1000
45650899,1000,1000,1000,1000,108028438,1000,1000,1000,1000
45653398,1000,1000,1000,1000,108128398,1000,1000,1000,1000
45655897,1000,1000,1000,1000,108228358,1000,1000,1000,1000
45658396,1000,1000,1000,1000,108328318,1000,1000,1000,1000
45660895,1000,1000,1000,1000,108428278,1000,1000,1000,1000
45663394,1000,1000,1000,1000,108528238,1000,1000,1000,1000
45665893,1000,1000,1000,1000,108628198,1000,1000,1000,1000
45668392,1000,1000,1000,1000,108728158,1000,1000,1000,1000
45670891,1000,1000,1000,1000,108828951,1000,1000,1000,1000
45673390,1000,1000,1000,1000,108928911,1000,1000,1000,1000
45675889,1000,1000,1000,1000,109028871,1000,1000,1000,1000
45678388,1000,1000,1000,1000,109128831,1000,1000,1000,1000
45680887,1000,1000,1000,1000,109228791,1000,1000,1000,1000
45683386,1000,1000,1000,1000,109328751,1000,1000,1000,1000
45685885,1000,1000,1000,1000,109428711,1000,1000,1000,1000
45688384,1000,1000,1000,1000,109528671,1000,1000,1000,1000
45690883,1000,1000,1000,1000,109628631,1000,1000,1000,1000
45693382,1000,1000,1000,1000,109728591,1000,1000,1000,1000
45695881,1000,1000,1000,1000,109828551,1000,1000,1000,1000
45698380,1000,1000,1000,1000,109928511,1000,1000,1000,1000
45700879,1000,1000,1000,1000,110028471,1000,1000,1000,1000
45703378,1000,1000,1000,1000,110128431,1000,1000,1000,1000
45705877,1000,1000,1000,1000,110228391,1000,1000,1000,1000
45708376,1000,1000,1000,1000,110328351,1000,1000,1000,1000
45710875,1000,1000,1000,1000,110428311,1000,1000,1000,1000
45713374,1000,1000,1000,1000,110528271,1000,1000,1000,1000
45715873,1000,1000,1000,1000,110628231,1000,1000,1000,1000
45718372,1000,1000,1000,1000,110728191,1000,1000,1000,1000
45720871,1000,1000,1000,1000,110828984,1000,1000,1000,1000
45723370,1000,1000,1000,1000,110928944,1000,1000,1000,1000
45725869,1000,1000,1000,1000,111028904,1000,1000,1000,1000
45728368,1000,1000,1000,1000,111128864,1000,1000,1000,1000
45730867,1000,1000,1000,1000,111228824,1000,1000,1000,1000
45733366,1000,1000,1000,1000,111328784,1000,1000,1000,1000
45735865,1000,1000,1000,1000,111428744,1000,1000,1000,1000
45738364,1000,1000,1000,1000,111528704,1000,1000,1000,1000
45740863,1000,1000,1000,1000,111628664,1000,1000,1000,1000
45743362,1000,1000,1000,1000,111728624,1000,1000,1000,1000
45745861,1000,1000,1000,1000,111828584,1000,1000,1000,1000
45748360,1000,1000,1000,1000,111928544,1000,1000,1000,1000
45750859,1000,1000,1000,1000,112028504,1000,1000,1000,1000
45753358,1000,1000,1000,1000,112128464,1000,1000,1000,1000
45755857,1000,1000,1000,1000,112228424,1000,1000,1000,1000
45758356,1000,1000,1000,1000,112328384,1000,1000,1000,1000
45760855,1000,1000,1000,1000,112428344,1000,1000,1000,1000
45763354,1000,1000,1000,1000,112528304,1000,1000,1000,1000
45765853,1000,1000,1000,1000,112628264,1000,1000,1000,1000
45768352,1000,1000,1000,1000,112728224,1000,1000,1000,1000
45770851,1000,1000,1000,1000,112828184,1000,1000,1000,1000
45773350,1000,1000,1000,1000,112928977,1000,1000,1000,1000
45775849,1000,1000,1000,1000,113028937,1000,1000,1000,1000
45778348,1000,1000,1000,1000,113128897,1000,1000,1000,1000
45780847,1000,1000,1000,1000,113228857,1000,1000,1000,1000
45783346,1000,1000,1000,1000,113328817,1000,1000,1000,1000
45785845,1000,1000,1000,1000,113428777,1000,1000,1000,1000
45788344,1000,1000,1000,1000,113528737,1000,1000,1000,1000
45790843,1000,1000,1000,1000,113628697,1000,1000,1000,1000
45793342,1000,1000,1000,1000,113728657,1000,1000,1000,1000
45795841,1000,1000,1000,1000,113828617,1000,1000,1000,1000
45798340,1000,1000,1000,1000,113928577,1000,1000,1000,1000
45800839,1000,1000,1000,1000,114028537,1000,1000,1000,1000
45803338,1000,1000,1000,1000,114128497,1000,1000,1000,1000
45805837,1000,1000,1000,1000,114228457,1000,1000,1000,1000
45808336,1000,1000,1000,1000,114328417,1000,1000,1000,1000
45810835,1000,1000,1000,1000,114428377,1000,1000,1000,1000
45813334,1000,1000,1000,1000,114528337,1000,1000,1000,1000
45815833,1000,1000,1000,1000,114628297,1000,1000,1000,1000
45818332,1000,1000,1000,1000,114728257,1000,1000,1000,1000
45820831,1000,1000,1000,1000,114828217,1000,1000,1000,1000
45823330,1000,1000,1000,1000,114928177,1000,1000,1000,1000
45825829,1000,1000,1000,1000,115028970,1000,1000,1000,1000
45828328,1000,1000,1000,1000,115128930,1000,1000,1000,1000
45830827,1000,1000,1000,1000,115228890,1000,1000,1000,1000
45833326,1000,1000,1000,1000,115328850,1000,1000,1000,1000
45835825,1000,1000,1000,1000,,,,,
45838324,1000,1000,1000,1000,,,,,
45840823,1000,1000,1000,1000,,,,,
45843322,1000,1000,1000,1000,,,,,
45845821,1000,1000,1000,1000,,,,,
45848320,1000,1000,1000,1000,,,,,
45850819,1000,1000,1000,1000,,,,,
45853318,1000,1000,1000,1000,,,,,
45855817,1000,1000,1000,1000,,,,,
45858316,1000,1000,1000,1000,,,,,
45860815,1000,1000,1000,1000,,,,,
45863314,1000,1000,1000,1000,,,,,
45865813,1000,1000,1000,1000,,,,,
45868312,1000,1000,1000,1000,,,,,
45870811,1000,1000,1000,1000,,,,,
45873310,1000,1000,1000,1000,,,,,
45875809,1000,1000,1000,1000,,,,,
45878308,1000,1000,1000,1000,,,,,
45880807,1000,1000,1000,1000,,,,,
45883306,1000,1000,1000,1000,,,,,
45885805,1000,1000,1000,1000,,,,,
45888304,1000,1000,1000,1000,,,,,
45890803,1000,1000,1000,1000,,,,,
45893302,1000,1000,1000,1000,,,,,
45895801,1000,1000,1000,1000,,,,,
45898300,1000,1000,1000,1000,,,,,
45900799,1000,1000,1000,1000,,,,,
45903298,1000,1000,1000,1000,,,,,
45905797,1000,1000,1000,1000,,,,,
45908296,1000,1000,1000,1000,,,,,
45910795,1000,1000,1000,1000,,,,,
45913294,1000,1000,1000,1000,,,,,
45915793,1000,1000,1000,1000,,,,,
45918292,1000,1000,1000,1000,,,,,
45920791,1000,1000,1000,1000,,,,,
45923290,1000,1000,1000,1000,,,,,
45925789,1000,1000,1000,1000,,,,,
45928288,1000,1000,1000,1000,,,,,
45930787,1000,1000,1000,1000,,,,,
45933286,1000,1000,1000,1000,,,,,
45935785,1000,1000,1000,1000,,,,,
45938284,1000,1000,1000,1000,,,,,
45940783,1000,1000,1000,1000,,,,,
45943282,1000,1000,1000,1000,,,,,
45945781,1000,1000,1000,1000,,,,,
45948280,1000,1000,1000,1000,,,,,
45950779,1000,1000,1000,1000,,,,,
45953278,1000,1000,1000,1000,,,,,
45955777,1000,1000,1000,1000,,,,,
45958276,1000,1000,1000,1000,,,,,
45960775,1000,1000,1000,1000,,,,,
45963274,1000,1000,1000,1000,,,,,
45965773,1000,1000,1000,1000,,,,,
45968272,1000,1000,1000,1000,,,,,
45970771,1000,1000,1000,1000,,,,,
45973270,1000,1000,1000,1000,,,,,
45975769,1000,1000,1000,1000,,,,,
45978268,1000,1000,1000,1000,,,,,
45980767,1000,1000,1000,1000,,,,,
45983266,1000,1000,1000,1000,,,,,
45985765,1000,1000,1000,1000,,,,,
45988264,1000,1000,1000,1000,,,,,
45990763,1000,1000,1000,1000,,,,,
45993262,1000,1000,1000,1000,,,,,
45995761,1000,1000,1000,1000,,,,,
45998260,1000,1000,1000,1000,,,,,
46000759,1000,1000,1000,1000,,,,,
46003258,1000,1000,1000,1000,,,,,
46005757,1000,1000,1000,1000,,,,,
46008256,1000,1000,1000,1000,,,,,
46010755,1000,1000,1000,1000,,,,,
46013254,1000,1000,1000,1000,,,,,
46015753,1000,1000,1000,1000,,,,,
46018252,1000,1000,1000,1000,,,,,
46020751,1000,1000,1000,1000,,,,,
46023250,1000,1000,1000,1000,,,,,
46025749,1000,1000,1000,1000,,,,,
46028248,1000,1000,1000,1000,,,,,
46030747,1000,1000,1000,1000,,,,,
46033246,1000,1000,1000,1000,,,,,
46035745,1000,1000,1000,1000,,,,,
46038244,1000,1000,1000,1000,,,,,
46040743,1000,1000,1000,1000,,,,,
46043242,1000,1000,1000,1000,,,,,
46045741,1000,1000,1000,1000,,,,,
46048240,1000,1000,1000,1000,,,,,
46050739,1000,1000,1000,1000,,,,,
46053238,1000,1000,1000,1000,,,,,
46055737,1000,1000,1000,1000,,,,,
46058236,1000,1000,1000,1000,,,,,
46060735,1001,1001,1001,1001,,,,,
46063234,1002,1002,1002,1002,,,,,
46065733,1003,1003,1003,1003,,,,,
46068232,1003,1003,1003,1003,,,,,
46070731,1004,1004,1004,1004,,,,,
46073230,1005,1005,1005,1005,,,,,
46075729,1006,1006,1006,1006,,,,,
46078228,1006,1006,1006,1006,,,,,
46080727,1007,1007,1007,1007,,,,,
46083226,1008,1008,1008,1008,,,,,
46085725,1009,1009,1009,1009,,,,,
46088224,1009,1009,1009,1009,,,,,
46090723,1010,1010,1010,1010,,,,,
46093222,1011,1011,1011,1011,,,,,
46095721,1012,1012,1012,1012,,,,,
46098220,1012,1012,1012,1012,,,,,
46100719,1013,1013,1013,1013,,,,,
46103218,1014,1014,1014,1014,,,,,
46105717,1015,1015,1015,1015,,,,,
46108216,1015,1015,1015,1015,,,,,
46110715,1016,1016,1016,1016,,,,,
46113214,1017,1017,1017,1017,,,,,
46115713,1018,1018,1018,1018,,,,,
46118212,1018,1018,1018,1018,,,,,
46120711,1019,1019,1019,1019,,,,,
46123210,1020,1020,1020,1020,,,,,
46125709,1021,1021,1021,1021,,,,,
46128208,1021,1021,1021,1021,,,,,
46130707,1022,1022,1022,1022,,,,,
46133206,1023,1023,1023,1023,,,,,
46135705,1024,1024,1024,1024,,,,,
46138204,1024,1024,1024,1024,,,,,
46140703,1025,1025,1025,1025,,,,,
46143202,1026,1026,1026,1026,,,,,
46145701,1027,1027,1027,1027,,,,,
46148200,1027,1027,1027,1027,,,,,
46150699,1028,1028,1028,1028,,,,,
46153198,1029,1029,1029,1029,,,,,
46155697,1030,1030,1030,1030,,,,,
46158196,1030,1030,1030,1030,,,,,
46160695,1031,1031,1031,1031,,,,,
46163194,1032,1032,1032,1032,,,,,
46165693,1033,1033,1033,1033,,,,,
46168192,1033,1033,1033,1033,,,,,
46170691,1034,1034,1034,1034,,,,,
46173190,1035,1035,1035,1035,,,,,
46175689,1036,1036,1036,1036,,,,,
46178188,1036,1036,1036,1036,,,,,
46180687,1037,1037,1037,1037,,,,,
46183186,1038,1038,1038,1038,,,,,
46185685,1039,1039,1039,1039,,,,,
46188184,1039,1039,1039,1039,,,,,
46190683,1040,1040,1040,1040,,,,,
46193182,1041,1041,1041,1041,,,,,
46195681,1042,1042,1042,1042,,,,,
46198180,1042,1042,1042,1042,,,,,
46200679,1043,1043,1043,1043,,,,,
46203178,1044,1044,1044,1044,,,,,
46205677,1045,1045,1045,1045,,,,,
46208176,1045,1045,1045,1045,,,,,
46210675,1046,1046,1046,1046,,,,,
46213174,1047,1047,1047,1047,,,,,
46215673,1048,1048,1048,1048,,,,,
46218172,1048,1048,1048,1048,,,,,
46220671,1049,1049,1049,1049,,,,,
46223170,1050,1050,1050,1050,,,,,
46225669,1051,1051,1051,1051,,,,,
46228168,1051,1051,1051,1051,,,,,
46230667,1052,1052,1052,1052,,,,,
46233166,1053,1053,1053,1053,,,,,
46235665,1054,1054,1054,1054,,,,,
46238164,1054,1054,1054,1054,,,,,
46240663,1055,1055,1055,1055,,,,,
46243162,1056,1056,1056,1056,,,,,
46245661,1057,1057,1057,1057,,,,,
46248160,1057,1057,1057,1057,,,,,
46250659,1058,1058,1058,1058,,,,,
46253158,1059,1059,1059,1059,,,,,
46255657,1060,1060,1060,1060,,,,,
46258156,1060,1060,1060,1060,,,,,
46260655,1061,1061,1061,1061,,,,,
46263154,1062,1062,1062,1062,,,,,
46266486,1063,1063,1063,1063,,,,,
46268985,1063,1063,1063,1063,,,,,
46271484,1064,1064,1064,1064,,,,,
46273983,1065,1065,1065,1065,,,,,
46276482,1066,1066,1066,1066,,,,,
46278981,1066,1066,1066,1066,,,,,
46281480,1067,1067,1067,1067,,,,,
46283979,1068,1068,1068,1068,,,,,
46286478,1069,1069,1069,1069,,,,,
46288977,1069,1069,1069,1069,,,,,
46291476,1070,1070,1070,1070,,,,,
46293975,1071,1071,1071,1071,,,,,
46296474,1072,1072,1072,1072,,,,,
46298973,1072,1072,1072,1072,,,,,
46301472,1073,1073,1073,1073,,,,,
46303971,1074,1074,1074,1074,,,,,
46306470,1075,1075,1075,1075,,,,,
46308969,1075,1075,1075,1075,,,,,
46311468,1076,1076,1076,1076,,,,,
46313967,1077,1077,1077,1077,,,,,
46316466,1078,1078,1078,1078,,,,,
46318965,1078,1078,1078,1078,,,,,
46321464,1079,1079,1079,1079,,,,,
46323963,1080,1080,1080,1080,,,,,
46326462,1081,1081,1081,1081,,,,,
46328961,1081,1081,1081,1081,,,,,
46331460,1082,1082,1082,1082,,,,,
46333959,1083,1083,1083,1083,,,,,
46336458,1084,1084,1084,1084,,,,,
46338957,1084,1084,1084,1084,,,,,
46341456,1085,1085,1085,1085,,,,,
46343955,1086,1086,1086,1086,,,,,
46346454,1087,1087,1087,1087,,,,,
46348953,1087,1087,1087,1087,,,,,
46351452,1088,1088,1088,1088,,,,,
46353951,1089,1089,1089,1089,,,,,
46356450,1090,1090,1090,1090,,,,,
46358949,1090,1090,1090,1090,,,,,
46361448,1091,1091,1091,1091,,,,,
46363947,1092,1092,1092,1092,,,,,
46366446,1093,1093,1093,1093,,,,,
46368945,1093,1093,1093,1093,,,,,
46371444,1094,1094,1094,1094,,,,,
46373943,1095,1095,1095,1095,,,,,
46376442,1096,1096,1096,1096,,,,,
46378941,1096,1096,1096,1096,,,,,
46381440,1097,1097,1097,1097,,,,,
46383939,1098,1098,1098,1098,,,,,
46386438,1099,1099,1099,1099,,,,,
46388937,1099,1099,1099,1099,,,,,
46391436,1100,1100,1100,1100,,,,,
46393935,1100,1100,1100,1100,,,,,
46396434,1100,1100,1100,1100,,,,,
46398933,1100,1100,1100,1100,,,,,
46401432,1100,1100,1100,1100,,,,,
46403931,1100,1100,1100,1100,,,,,
46406430,1100,1100,1100,1100,,,,,
46408929,1100,1100,1100,1100,,,,,
46411428,1100,1100,1100,1100,,,,,
46413927,1100,1100,1100,1100,,,,,
46416426,1100,1100,1100,1100,,,,,
46418925,1100,1100,1100,1100,,,,,
46421424,1100,1100,1100,1100,,,,,
46423923,1100,1100,1100,1100,,,,,
46426422,1100,1100,1100,1100,,,,,
46428921,1100,1100,1100,1100,,,,,
46431420,1100,1100,1100,1100,,,,,
46433919,1100,1100,1100,1100,,,,,
46436418,1100,1100,1100,1100,,,,,
46438917,1100,1100,1100,1100,,,,,
46441416,1100,1100,1100,1100,,,,,
46443915,1100,1100,1100,1100,,,,,
46446414,1100,1100,1100,1100,,,,,
46448913,1100,1100,1100,1100,,,,,
46451412,1100,1100,1100,1100,,,,,
46453911,1100,1100,1100,1100,,,,,
46456410,1100,1100,1100,1100,,,,,
46458909,1100,1100,1100,1100,,,,,
46461408,1100,1100,1100,1100,,,,,
46463907,1100,1100,1100,1100,,,,,
46466406,1100,1100,1100,1100,,,,,
46468905,1100,1100,1100,1100,,,,,
46471404,1100,1100,1100,1100,,,,,
46473903,1100,1100,1100,1100,,,,,
46476402,1100,1100,1100,1100,,,,,
46478901,1100,1100,1100,1100,,,,,
46481400,1100,1100,1100,1100,,,,,
46483899,1100,1100,1100,1100,,,,,
46486398,1100,1100,1100,1100,,,,,
46488897,1100,1100,1100,1100,,,,,
46491396,1100,1100,1100,1100,,,,,
46493895,1100,1100,1100,1100,,,,,
46496394,1100,1100,1100,1100,,,,,
46498893,1100,1100,1100,1100,,,,,
46501392,1100,1100,1100,1100,,,,,
46503891,1100,1100,1100,1100,,,,,
46506390,1100,1100,1100,1100,,,,,
46508889,1100,1100,1100,1100,,,,,
46511388,1100,1100,1100,1100,,,,,
46513887,1100,1100,1100,1100,,,,,
46516386,1100,1100,1100,1100,,,,,
46518885,1100,1100,1100,1100,,,,,
46521384,1100,1100,1100,1100,,,,,
46523883,1100,1100,1100,1100,,,,,
46526382,1100,1100,1100,1100,,,,,
46528881,1100,1100,1100,1100,,,,,
46531380,1100,1100,1100,1100,,,,,
46533879,1100,1100,1100,1100,,,,,
46536378,1100,1100,1100,1100,,,,,
46538877,1100,1100,1100,1100,,,,,
46541376,1100,1100,1100,1100,,,,,
46543875,1100,1100,1100,1100,,,,,
46546374,1100,1100,1100,1100,,,,,
46548873,1100,1100,1100,1100,,,,,
46551372,1100,1100,1100,1100,,,,,
46553871,1100,1100,1100,1100,,,,,
46556370,1100,1100,1100,1100,,,,,
46558869,1100,1100,1100,1100,,,,,
46561368,1100,1100,1100,1100,,,,,
46563867,1100,1100,1100,1100,,,,,
46566366,1100,1100,1100,1100,,,,,
46568865,1100,1100,1100,1100,,,,,
46571364,1100,1100,1100,1100,,,,,
46573863,1100,1100,1100,1100,,,,,
46576362,1100,1100,1100,1100,,,,,
46578861,1100,1100,1100,1100,,,,,
46581360,1100,1100,1100,1100,,,,,
46583859,1100,1100,1100,1100,,,,,
46586358,1100,1100,1100,1100,,,,,
46588857,1100,1100,1100,1100,,,,,
46591356,1100,1100,1100,1100,,,,,
46593855,1100,1100,1100,1100,,,,,
46596354,1100,1100,1100,1100,,,,,
46598853,1100,1100,1100,1100,,,,,
46601352,1100,1100,1100,1100,,,,,
46603851,1100,1100,1100,1100,,,,,
46606350,1100,1100,1100,1100,,,,,
46608849,1100,1100,1100,1100,,,,,
46611348,1100,1100,1100,1100,,,,,
46613847,1100,1100,1100,1100,,,,,
46616346,1100,1100,1100,1100,,,,,
46618845,1100,1100,1100,1100,,,,,
46621344,1100,1100,1100,1100,,,,,
46623843,1100,1100,1100,1100,,,,,
46626342,1100,1100,1100,1100,,,,,
46628841,1100,1100,1100,1100,,,,,
46631340,1100,1100,1100,1100,,,,,
46633839,1100,1100,1100,1100,,,,,
46636338,1100,1100,1100,1100,,,,,
46638837,1100,1100,1100,1100,,,,,
46641336,1100,1100,1100,1100,,,,,
46643835,1100,1100,1100,1100,,,,,
46646334,1100,1100,1100,1100,,,,,
46648833,1100,1100,1100,1100,,,,,
46651332,1100,1100,1100,1100,,,,,
46653831,1100,1100,1100,1100,,,,,
46656330,1100,1100,1100,1100,,,,,
46658829,1100,1100,1100,1100,,,,,
46661328,1100,1100,1100,1100,,,,,
46663827,1100,1100,1100,1100,,,,,
46666326,1100,1100,1100,1100,,,,,
46668825,1100,1100,1100,1100,,,,,
46671324,1100,1100,1100,1100,,,,,
46673823,1100,1100,1100,1100,,,,,
46676322,1100,1100,1100,1100,,,,,
46678821,1100,1100,1100,1100,,,,,
46681320,1100,1100,1100,1100,,,,,
46683819,1100,1100,1100,1100,,,,,
46686318,1100,1100,1100,1100,,,,,
46688817,1100,1100,1100,1100,,,,,
46691316,1100,1100,1100,1100,,,,,
46693815,1100,1100,1100,1100,,,,,
46696314,1100,1100,1100,1100,,,,,
46698813,1100,1100,1100,1100,,,,,
46701312,1100,1100,1100,1100,,,,,
46703811,1100,1100,1100,1100,,,,,
46706310,1100,1100,1100,1100,,,,,
46708809,1100,1100,1100,1100,,,,,
46711308,1100,1100,1100,1100,,,,,
46713807,1100,1100,1100,1100,,,,,
46716306,1100,1100,1100,1100,,,,,
46718805,1100,1100,1100,1100,,,,,
46721304,1100,1100,1100,1100,,,,,
46723803,1100,1100,1100,1100,,,,,
46726302,1100,1100,1100,1100,,,,,
46728801,1100,1100,1100,1100,,,,,
46731300,1100,1100,1100,1100,,,,,
46733799,1100,1100,1100,1100,,,,,
46736298,1100,1100,1100,1100,,,,,
46738797,1100,1100,1100,1100,,,,,
46741296,1100,1100,1100,1100,,,,,
46743795,1100,1100,1100,1100,,,,,
46746294,1100,1100,1100,1100,,,,,
46748793,1100,1100,1100,1100,,,,,
46751292,1100,1100,1100,1100,,,,,
46753791,1100,1100,1100,1100,,,,,
46756290,1100,1100,1100,1100,,,,,
46758789,1100,1100,1100,1100,,,,,
46761288,1100,1100,1100,1100,,,,,
46763787,1100,1100,1100,1100,,,,,
46766286,1100,1100,1100,1100,,,,,
46768785,1100,1100,1100,1100,,,,,
46771284,1100,1100,1100,1100,,,,,
46773783,1100,1100,1100,1100,,,,,
46776282,1100,1100,1100,1100,,,,,
46778781,1100,1100,1100,1100,,,,,
46781280,1100,1100,1100,1100,,,,,
46783779,1100,1100,1100,1100,,,,,
46786278,1100,1100,1100,1100,,,,,
46788777,1100,1100,1100,1100,,,,,
46791276,1100,1100,1100,1100,,,,,
46793775,1100,1100,1100,1100,,,,,
46796274,1100,1100,1100,1100,,,,,
46798773,1100,1100,1100,1100,,,,,
46801272,1100,1100,1100,1100,,,,,
46803771,1100,1100,1100,1100,,,,,
46806270,1100,1100,1100,1100,,,,,
46808769,1100,1100,1100,1100,,,,,
46811268,1100,1100,1100,1100,,,,,
46813767,1100,1100,1100,1100,,,,,
46816266,1100,1100,1100,1100,,,,,
46818765,1100,1100,1100,1100,,,,,
46821264,1100,1100,1100,1100,,,,,
46823763,1100,1100,1100,1100,,,,,
46826262,1100,1100,1100,1100,,,,,
46828761,1100,1100,1100,1100,,,,,
46831260,1100,1100,1100,1100,,,,,
46833759,1100,1100,1100,1100,,,,,
46836258,1100,1100,1100,1100,,,,,
46838757,1100,1100,1100,1100,,,,,
46841256,1100,1100,1100,1100,,,,,
46843755,1100,1100,1100,1100,,,,,
46846254,1100,1100,1100,1100,,,,,
46848753,1100,1100,1100,1100,,,,,
46851252,1100,1100,1100,1100,,,,,
46853751,1100,1100,1100,1100,,,,,
46856250,1100,1100,1100,1100,,,,,
46858749,1100,1100,1100,1100,,,,,
46861248,1100,1100,1100,1100,,,,,
46863747,1100,1100,1100,1100,,,,,
46866246,1100,1100,1100,1100,,,,,
46868745,1100,1100,1100,1100,,,,,
46871244,1100,1100,1100,1100,,,,,
46873743,1100,1100,1100,1100,,,,,
46876242,1100,1100,1100,1100,,,,,
46878741,1100,1100,1100,1100,,,,,
46881240,1100,1100,1100,1100,,,,,
46883739,1100,1100,1100,1100,,,,,
46886238,1100,1100,1100,1100,,,,,
46888737,1100,1100,1100,1100,,,,,
46891236,1100,1100,1100,1100,,,,,
46893735,1100,1100,1100,1100,,,,,
46896234,1100,1100,1100,1100,,,,,
46898733,1100,1100,1100,1100,,,,,
46901232,1100,1100,1100,1100,,,,,
46903731,1100,1100,1100,1100,,,,,
46906230,1100,1100,1100,1100,,,,,
46908729,1100,1100,1100,1100,,,,,
46911228,1100,1100,1100,1100,,,,,
46913727,1100,1100,1100,1100,,,,,
46916226,1100,1100,1100,1100,,,,,
46918725,1100,1100,1100,1100,,,,,
46921224,1100,1100,1100,1100,,,,,
46923723,1100,1100,1100,1100,,,,,
46926222,1100,1100,1100,1100,,,,,
46928721,1100,1100,1100,1100,,,,,
46931220,1100,1100,1100,1100,,,,,
46933719,1100,1100,1100,1100,,,,,
46936218,1100,1100,1100,1100,,,,,
46938717,1100,1100,1100,1100,,,,,
46941216,1100,1100,1100,1100,,,,,
46943715,1100,1100,1100,1100,,,,,
46946214,1100,1100,1100,1100,,,,,
46948713,1100,1100,1100,1100,,,,,
46951212,1100,1100,1100,1100,,,,,
46953711,1100,1100,1100,1100,,,,,
46956210,1100,1100,1100,1100,,,,,
46958709,1100,1100,1100,1100,,,,,
46961208,1100,1100,1100,1100,,,,,
46963707,1100,1100,1100,1100,,,,,
46966206,1100,1100,1100,1100,,,,,
46968705,1100,1100,1100,1100,,,,,
46971204,1100,1100,1100,1100,,,,,
46973703,1100,1100,1100,1100,,,,,
46976202,1100,1100,1100,1100,,,,,
46978701,1100,1100,1100,1100,,,,,
46981200,1100,1100,1100,1100,,,,,
46983699,1100,1100,1100,1100,,,,,
46986198,1100,1100,1100,1100,,,,,
46988697,1100,1100,1100,1100,,,,,
46991196,1100,1100,1100,1100,,,,,
46993695,1100,1100,1100,1100,,,,,
46996194,1100,1100,1100,1100,,,,,
46998693,1100,1100,1100,1100,,,,,
47001192,1100,1100,1100,1100,,,,,
47003691,1100,1100,1100,1100,,,,,
47006190,1100,1100,1100,1100,,,,,
47008689,1100,1100,1100,1100,,,,,
47011188,1100,1100,1100,1100,,,,,
47013687,1100,1100,1100,1100,,,,,
47016186,1100,1100,1100,1100,,,,,
47018685,1100,1100,1100,1100,,,,,
47021184,1100,1100,1100,1100,,,,,
47023683,1100,1100,1100,1100,,,,,
47026182,1100,1100,1100,1100,,,,,
47028681,1100,1100,1100,1100,,,,,
47031180,1100,1100,1100,1100,,,,,
47033679,1100,1100,1100,1100,,,,,
47036178,1100,1100,1100,1100,,,,,
47038677,1100,1100,1100,1100,,,,,
47041176,1100,1100,1100,1100,,,,,
47043675,1100,1100,1100,1100,,,,,
47046174,1100,1100,1100,1100,,,,,
47048673,1100,1100,1100,1100,,,,,
47051172,1100,1100,1100,1100,,,,,
47053671,1100,1100,1100,1100,,,,,
47056170,1100,1100,1100,1100,,,,,
47058669,1100,1100,1100,1100,,,,,
47061168,1100,1100,1100,1100,,,,,
47063667,1100,1100,1100,1100,,,,,
47066166,1100,1100,1100,1100,,,,,
47068665,1100,1100,1100,1100,,,,,
47071164,1100,1100,1100,1100,,,,,
47073663,1100,1100,1100,1100,,,,,
47076162,1100,1100,1100,1100,,,,,
47078661,1100,1100,1100,1100,,,,,
47081160,1100,1100,1100,1100,,,,,
47083659,1100,1100,1100,1100,,,,,
47086158,1100,1100,1100,1100,,,,,
47088657,1100,1100,1100,1100,,,,,
47091156,1100,1100,1100,1100,,,,,
47093655,1100,1100,1100,1100,,,,,
47096154,1100,1100,1100,1100,,,,,
47098653,1100,1100,1100,1100,,,,,
47101152,1100,1100,1100,1100,,,,,
47103651,1100,1100,1100,1100,,,,,
47106150,1100,1100,1100,1100,,,,,
47108649,1100,1100,1100,1100,,,,,
47111148,1100,1100,1100,1100,,,,,
47113647,1100,1100,1100,1100,,,,,
47116146,1100,1100,1100,1100,,,,,
47118645,1100,1100,1100,1100,,,,,
47121144,1100,1100,1100,1100,,,,,
47123643,1100,1100,1100,1100,,,,,
47126142,1100,1100,1100,1100,,,,,
47128641,1100,1100,1100,1100,,,,,
47131140,1100,1100,1100,1100,,,,,
47133639,1100,1100,1100,1100,,,,,
47136138,1100,1100,1100,1100,,,,,
47138637,1100,1100,1100,1100,,,,,
47141136,1100,1100,1100,1100,,,,,
47143635,1100,1100,1100,1100,,,,,
47146134,1100,1100,1100,1100,,,,,
47148633,1100,1100,1100,1100,,,,,
47151132,1100,1100,1100,1100,,,,,
47153631,1100,1100,1100,1100,,,,,
47156130,1100,1100,1100,1100,,,,,
47158629,1100,1100,1100,1100,,,,,
47161128,1100,1100,1100,1100,,,,,
47163627,1100,1100,1100,1100,,,,,
47166126,1100,1100,1100,1100,,,,,
47168625,1100,1100,1100,1100,,,,,
47171124,1100,1100,1100,1100,,,,,
47173623,1100,1100,1100,1100,,,,,
47176122,1100,1100,1100,1100,,,,,
47178621,1100,1100,1100,1100,,,,,
47181120,1100,1100,1100,1100,,,,,
47183619,1100,1100,1100,1100,,,,,
47186118,1100,1100,1100,1100,,,,,
47188617,1100,1100,1100,1100,,,,,
