TimeUS,M1,M2,M3,M4,TimeUS,C1,C2,C3,C4
45450979,1000,1000,1000,1000,45528448,1000,1000,1000,1000
45453478,1000,1000,1000,1000,45628408,1000,1000,1000,1000
45455977,1000,1000,1000,1000,45728368,1000,1000,1000,1000
45458476,1000,1000,1000,1000,45828328,1000,1000,1000,1000
45460975,1000,1000,1000,1000,45928288,1000,1000,1000,1000
45463474,1000,1000,1000,1000,46028248,1000,1000,1000,1000
45465973,1000,1000,1000,1000,46128208,1000,1000,1000,1000
45468472,1000,1000,1000,1000,46228168,1000,1000,1000,1000
45470971,1000,1000,1000,1000,46328961,1000,1000,1000,1000
45473470,1000,1000,1000,1000,46428921,1000,1000,1000,1000
45475969,1000,1000,1000,1000,46528881,1000,1000,1000,1000
45478468,1000,1000,1000,1000,46628841,1000,1000,1000,1000
45480967,1000,1000,1000,1000,46728801,1000,1000,1000,1000
45483466,1000,1000,1000,1000,46828761,1000,1000,1000,1000
45485965,1000,1000,1000,1000,46928721,1000,1000,1000,1000
45488464,1000,1000,1000,1000,47028681,1000,1000,1000,1000
45490963,1000,1000,1000,1000,47128641,1000,1000,1000,1000
45493462,1000,1000,1000,1000,47228601,1000,1000,1000,1000
45495961,1000,1000,1000,1000,47328561,1000,1000,1000,1000
45498460,1000,1000,1000,1000,47428521,1000,1000,1000,1000
45500959,1000,1000,1000,1000,47528481,1023,1023,1023,1023
45503458,1000,1000,1000,1000,47628441,1053,1053,1053,1053
45505957,1000,1000,1000,1000,47728401,1083,1083,1083,1083
45508456,1000,1000,1000,1000,47828361,1113,1113,1113,1113
45510955,1000,1000,1000,1000,47928321,1143,1143,1143,1143
45513454,1000,1000,1000,1000,48028281,1351,1346,1347,1351
45515953,1000,1000,1000,1000,48128241,1542,1538,1538,1542
45518452,1000,1000,1000,1000,48228201,1695,1691,1691,1695
45520951,1000,1000,1000,1000,48328161,1826,1823,1823,1827
45523450,1000,1000,1000,1000,48428954,1876,1873,1873,1876
45525949,1000,1000,1000,1000,48528914,1835,1833,1834,1835
45528448,1000,1000,1000,1000,48628874,1707,1706,1706,1707
45530947,1000,1000,1000,1000,48728834,1632,1632,1633,1632
45533446,1000,1000,1000,1000,48828794,1620,1622,1622,1620
45535945,1000,1000,1000,1000,48928754,1631,1633,1633,1631
45538444,1000,1000,1000,1000,49028714,1639,1640,1640,1639
45540943,1000,1000,1000,1000,49128674,1636,1636,1636,1636
45543442,1000,1000,1000,1000,49228634,1628,1628,1628,1628
45545941,1000,1000,1000,1000,49328594,1620,1620,1620,1620
45548440,1000,1000,1000,1000,49428554,1600,1599,1591,1608
45550939,1000,1000,1000,1000,49528514,1595,1593,1585,1602
45553438,1000,1000,1000,1000,49628474,1593,1593,1589,1597
45555937,1000,1000,1000,1000,49728434,1596,1596,1596,1595
45558436,1000,1000,1000,1000,49828394,1600,1601,1604,1597
45560935,1000,1000,1000,1000,49928354,1592,1593,1600,1585
45563434,1000,1000,1000,1000,50028314,1574,1574,1594,1554
45565933,1000,1000,1000,1000,50128274,1563,1564,1576,1552
45568432,1000,1000,1000,1000,50228234,1553,1552,1552,1554
45570931,1000,1000,1000,1000,50328194,1544,1544,1534,1555
45573430,1000,1000,1000,1000,50428154,1536,1536,1524,1549
45575929,1000,1000,1000,1000,50528947,1531,1530,1521,1541
45578428,1000,1000,1000,1000,50628907,1528,1527,1522,1533
45580927,1000,1000,1000,1000,50728867,1528,1528,1528,1529
45583426,1000,1000,1000,1000,50828827,1530,1531,1532,1528
45585925,1000,1000,1000,1000,50928787,1534,1534,1538,1530
45588424,1000,1000,1000,1000,51028747,1537,1538,1542,1532
45590923,1000,1000,1000,1000,51128707,1541,1541,1545,1538
45593422,1000,1000,1000,1000,51228667,1545,1544,1546,1543
45595921,1000,1000,1000,1000,51328627,1547,1547,1547,1547
45598420,1000,1000,1000,1000,51428587,1551,1550,1549,1552
45600919,1000,1000,1000,1000,51528547,1554,1551,1551,1555
45603418,1000,1000,1000,1000,51628507,1548,1548,1560,1564
45605917,1000,1000,1000,1000,51728467,1550,1551,1562,1565
45608416,1000,1000,1000,1000,51828427,1554,1555,1563,1563
45610915,1000,1000,1000,1000,51928387,1560,1561,1564,1564
45613414,1000,1000,1000,1000,52028347,1563,1564,1563,1562
45615913,1000,1000,1000,1000,52128307,1568,1567,1563,1562
45618412,1000,1000,1000,1000,52228267,1571,1570,1564,1563
45620911,1000,1000,1000,1000,52328227,1572,1571,1563,1564
45623410,1000,1000,1000,1000,52428187,1572,1572,1564,1564
45625909,1000,1000,1000,1000,52528980,1573,1573,1566,1567
45628408,1000,1000,1000,1000,52628940,1573,1573,1567,1568
45630907,1000,1000,1000,1000,52728900,1573,1573,1569,1569
45633406,1000,1000,1000,1000,52828860,1573,1573,1570,1571
45635905,1000,1000,1000,1000,52928820,1573,1573,1573,1573
45638404,1000,1000,1000,1000,53028780,1574,1573,1575,1573
45640903,1000,1000,1000,1000,53128740,1573,1573,1576,1574
45643402,1000,1000,1000,1000,53228700,1573,1574,1577,1576
45645901,1000,1000,1000,1000,53328660,1574,1574,1577,1577
45648400,1000,1000,1000,1000,53428620,1574,1574,1577,1577
45650899,1000,1000,1000,1000,53528580,1576,1576,1578,1578
45653398,1000,1000,1000,1000,53628540,1575,1575,1577,1577
45655897,1000,1000,1000,1000,53728500,1575,1576,1577,1576
45658396,1000,1000,1000,1000,53828460,1576,1576,1576,1577
45660895,1000,1000,1000,1000,53928420,1577,1576,1576,1576
45663394,1000,1000,1000,1000,54028380,1577,1576,1576,1576
45665893,1000,1000,1000,1000,54128340,1578,1578,1577,1577
45668392,1000,1000,1000,1000,54228300,1578,1579,1577,1577
45670891,1000,1000,1000,1000,54328260,1579,1578,1578,1577
45673390,1000,1000,1000,1000,54428220,1578,1578,1577,1577
45675889,1000,1000,1000,1000,54528180,1578,1578,1577,1577
45678388,1000,1000,1000,1000,54628973,1579,1579,1578,1578
45680887,1000,1000,1000,1000,54728933,1579,1579,1579,1579
45683386,1000,1000,1000,1000,54828893,1578,1578,1578,1578
45685885,1000,1000,1000,1000,54928853,1578,1578,1578,1579
45688384,1000,1000,1000,1000,55028813,1578,1578,1579,1579
45690883,1000,1000,1000,1000,55128773,1579,1579,1579,1580
45693382,1000,1000,1000,1000,55228733,1578,1578,1578,1578
45695881,1000,1000,1000,1000,55328693,1578,1578,1579,1579
45698380,1000,1000,1000,1000,55428653,1578,1578,1579,1579
45700879,1000,1000,1000,1000,55528613,1578,1579,1579,1579
45703378,1000,1000,1000,1000,55628573,1579,1579,1579,1579
45705877,1000,1000,1000,1000,55728533,1578,1578,1578,1578
45708376,1000,1000,1000,1000,55828493,1580,1580,1579,1579
45710875,1000,1000,1000,1000,55928453,1580,1579,1579,1579
45713374,1000,1000,1000,1000,56028413,1579,1579,1579,1579
45715873,1000,1000,1000,1000,56128373,1580,1580,1579,1580
45718372,1000,1000,1000,1000,56228333,1580,1580,1580,1580
45720871,1000,1000,1000,1000,56328293,1580,1579,1579,1579
45723370,1000,1000,1000,1000,56428253,1581,1580,1580,1580
45725869,1000,1000,1000,1000,56528213,1579,1579,1579,1579
45728368,1000,1000,1000,1000,56628173,1580,1580,1580,1580
45730867,1000,1000,1000,1000,56728966,1580,1581,1581,1581
45733366,1000,1000,1000,1000,56828926,1579,1580,1580,1580
45735865,1000,1000,1000,1000,56928886,1580,1580,1580,1580
45738364,1000,1000,1000,1000,57028846,1580,1579,1580,1580
45740863,1000,1000,1000,1000,57128806,1580,1580,1580,1580
45743362,1000,1000,1000,1000,57228766,1580,1580,1580,1580
45745861,1000,1000,1000,1000,57328726,1580,1580,1580,1580
45748360,1000,1000,1000,1000,57428686,1581,1580,1581,1581
45750859,1000,1000,1000,1000,57528646,1580,1580,1580,1580
45753358,1000,1000,1000,1000,57628606,1580,1580,1580,1581
45755857,1000,1000,1000,1000,57728566,1580,1580,1580,1580
45758356,1000,1000,1000,1000,57828526,1580,1581,1586,1575
45760855,1000,1000,1000,1000,57928486,1580,1582,1587,1573
45763354,1000,1000,1000,1000,58028446,1580,1583,1580,1574
45765853,1000,1000,1000,1000,58128406,1577,1580,1571,1572
45768352,1000,1000,1000,1000,58228366,1577,1579,1563,1569
45770851,1000,1000,1000,1000,58328326,1578,1578,1558,1565
45773350,1000,1000,1000,1000,58428286,1578,1578,1555,1560
45775849,1000,1000,1000,1000,58528246,1580,1578,1556,1557
45778348,1000,1000,1000,1000,58628206,1579,1578,1556,1555
45780847,1000,1000,1000,1000,58728166,1578,1578,1556,1554
45783346,1000,1000,1000,1000,58828959,1577,1577,1556,1553
45785845,1000,1000,1000,1000,58928919,1576,1577,1557,1554
45788344,1000,1000,1000,1000,59028879,1575,1576,1555,1554
45790843,1000,1000,1000,1000,59128839,1574,1575,1553,1553
45793342,1000,1000,1000,1000,59228799,1575,1576,1552,1553
45795841,1000,1000,1000,1000,59328759,1575,1577,1550,1551
45798340,1000,1000,1000,1000,59428719,1576,1578,1548,1548
45800839,1000,1000,1000,1000,59528679,1580,1580,1547,1546
45803338,1000,1000,1000,1000,59628639,1582,1583,1544,1543
45805837,1000,1000,1000,1000,59728599,1586,1587,1542,1541
45808336,1000,1000,1000,1000,59828559,1589,1590,1540,1539
45810835,1000,1000,1000,1000,59928519,1592,1592,1537,1537
45813334,1000,1000,1000,1000,60028479,1595,1595,1535,1535
45815833,1000,1000,1000,1000,60128439,1596,1595,1535,1536
45818332,1000,1000,1000,1000,60228399,1595,1595,1535,1536
45820831,1000,1000,1000,1000,60328359,1595,1594,1538,1540
45823330,1000,1000,1000,1000,60428319,1592,1590,1542,1545
45825829,1000,1000,1000,1000,60528279,1587,1584,1548,1552
45828328,1000,1000,1000,1000,60628239,1579,1576,1557,1560
45830827,1000,1000,1000,1000,60728199,1570,1567,1569,1571
45833326,1000,1000,1000,1000,60828159,1559,1555,1581,1582
45835825,1000,1000,1000,1000,60928952,1547,1544,1592,1593
45838324,1000,1000,1000,1000,61028912,1538,1536,1603,1603
45840823,1000,1000,1000,1000,61128872,1532,1531,1611,1610
45843322,1000,1000,1000,1000,61228832,1528,1529,1615,1614
45845821,1000,1000,1000,1000,61328792,1529,1531,1616,1614
45848320,1000,1000,1000,1000,61428752,1533,1536,1612,1612
45850819,1000,1000,1000,1000,61528712,1540,1543,1607,1607
45853318,1000,1000,1000,1000,61628672,1548,1550,1600,1600
45855817,1000,1000,1000,1000,61728632,1558,1558,1592,1592
45858316,1000,1000,1000,1000,61828592,1566,1566,1584,1584
45860815,1000,1000,1000,1000,61928552,1573,1573,1577,1576
45863314,1000,1000,1000,1000,62028512,1580,1579,1572,1571
45865813,1000,1000,1000,1000,62128472,1585,1584,1568,1568
45868312,1000,1000,1000,1000,62228432,1586,1585,1565,1565
45870811,1000,1000,1000,1000,62328392,1587,1585,1564,1565
45873310,1000,1000,1000,1000,62428352,1586,1585,1566,1566
45875809,1000,1000,1000,1000,62528312,1584,1584,1569,1569
45878308,1000,1000,1000,1000,62628272,1581,1581,1571,1572
45880807,1000,1000,1000,1000,62728232,1579,1579,1575,1575
45883306,1000,1000,1000,1000,62828192,1576,1576,1577,1577
45885805,1000,1000,1000,1000,62928985,1574,1574,1580,1580
45888304,1000,1000,1000,1000,63028945,1572,1573,1582,1581
45890803,1000,1000,1000,1000,63128905,1572,1573,1583,1583
45893302,1000,1000,1000,1000,63228865,1572,1573,1584,1583
45895801,1000,1000,1000,1000,63328825,1573,1574,1583,1584
45898300,1000,1000,1000,1000,63428785,1573,1574,1582,1582
45900799,1000,1000,1000,1000,63528745,1575,1575,1582,1582
45903298,1000,1000,1000,1000,63628705,1575,1575,1579,1579
45905797,1000,1000,1000,1000,63728665,1577,1577,1578,1578
45908296,1000,1000,1000,1000,63828625,1578,1577,1577,1577
45910795,1000,1000,1000,1000,63928585,1579,1578,1576,1575
45913294,1000,1000,1000,1000,64028545,1581,1581,1577,1577
45915793,1000,1000,1000,1000,64128505,1581,1581,1577,1577
45918292,1000,1000,1000,1000,64228465,1581,1581,1577,1577
45920791,1000,1000,1000,1000,64328425,1582,1581,1578,1578
45923290,1000,1000,1000,1000,64428385,1581,1581,1578,1578
45925789,1000,1000,1000,1000,64528345,1581,1581,1579,1579
45928288,1000,1000,1000,1000,64628305,1580,1580,1579,1579
45930787,1000,1000,1000,1000,64728265,1579,1579,1578,1579
45933286,1000,1000,1000,1000,64828225,1579,1579,1579,1580
45935785,1000,1000,1000,1000,64928185,1579,1579,1580,1580
45938284,1000,1000,1000,1000,65028978,1578,1578,1580,1580
45940783,1000,1000,1000,1000,65128938,1580,1580,1582,1581
45943282,1000,1000,1000,1000,65228898,1580,1580,1581,1581
45945781,1000,1000,1000,1000,65328858,1580,1580,1581,1581
45948280,1000,1000,1000,1000,65428818,1580,1580,1581,1581
45950779,1000,1000,1000,1000,65528778,1580,1580,1581,1581
45953278,1000,1000,1000,1000,65628738,1580,1580,1580,1580
45955777,1000,1000,1000,1000,65728698,1360,1363,1636,1644
45958276,1000,1000,1000,1000,65828658,1428,1436,1647,1648
45960775,1000,1000,1000,1000,65928618,1488,1498,1641,1623
45963274,1000,1000,1000,1000,66028578,1539,1544,1625,1606
45965773,1000,1000,1000,1000,66128538,1578,1574,1607,1598
45968272,1000,1000,1000,1000,66228498,1608,1591,1589,1590
45970771,1000,1000,1000,1000,66328458,1634,1615,1564,1574
45973270,1000,1000,1000,1000,66428418,1650,1635,1534,1548
45975769,1000,1000,1000,1000,66528378,1650,1646,1538,1549
45978268,1000,1000,1000,1000,66628338,1638,1643,1548,1551
45980767,1000,1000,1000,1000,66728298,1626,1636,1555,1552
45983266,1000,1000,1000,1000,66828258,1616,1625,1558,1552
45985765,1000,1000,1000,1000,66928218,1609,1614,1560,1553
45988264,1000,1000,1000,1000,67028178,1605,1605,1559,1555
45990763,1000,1000,1000,1000,67128971,1600,1597,1557,1556
45993262,1000,1000,1000,1000,67228931,1595,1591,1554,1555
45995761,1000,1000,1000,1000,67328891,1590,1586,1552,1554
45998260,1000,1000,1000,1000,67428851,1585,1583,1551,1553
46000759,1000,1000,1000,1000,67528811,1580,1580,1550,1550
46003258,1000,1000,1000,1000,67628771,1577,1579,1551,1550
46005757,1000,1000,1000,1000,67728731,1574,1576,1550,1547
46008256,1000,1000,1000,1000,67828691,1572,1574,1551,1547
46010755,1000,1000,1000,1000,67928651,1571,1572,1549,1547
46013254,1000,1000,1000,1000,68028611,1572,1572,1551,1549
46015753,1000,1000,1000,1000,68128571,1572,1571,1551,1552
46018252,1000,1000,1000,1000,68228531,1573,1573,1553,1554
46020751,1000,1000,1000,1000,68328491,1574,1574,1553,1556
46023250,1000,1000,1000,1000,68428451,1575,1576,1555,1557
46025749,1000,1000,1000,1000,68528411,1575,1578,1556,1559
46028248,1000,1000,1000,1000,68628371,1576,1580,1557,1559
46030747,1000,1000,1000,1000,68728331,1578,1582,1558,1560
46033246,1000,1000,1000,1000,68828291,1579,1582,1559,1560
46035745,1000,1000,1000,1000,68928251,1582,1584,1560,1561
46038244,1000,1000,1000,1000,69028211,1583,1585,1560,1561
46040743,1000,1000,1000,1000,69128171,1586,1586,1562,1563
46043242,1000,1000,1000,1000,69228964,1589,1587,1563,1564
46045741,1000,1000,1000,1000,69328924,1590,1588,1563,1565
46048240,1000,1000,1000,1000,69428884,1592,1590,1565,1567
46050739,1000,1000,1000,1000,69528844,1591,1590,1565,1567
46053238,1000,1000,1000,1000,69628804,1592,1591,1567,1568
46055737,1000,1000,1000,1000,69728764,1591,1591,1568,1569
46058236,1000,1000,1000,1000,69828724,1591,1591,1569,1569
46060735,1000,1000,1000,1000,69928684,1591,1591,1571,1570
46063234,1000,1000,1000,1000,70028644,1592,1591,1572,1572
46065733,1000,1000,1000,1000,70128604,1591,1590,1573,1572
46068232,1000,1000,1000,1000,70228564,1592,1590,1574,1573
46070731,1000,1000,1000,1000,70328524,1591,1590,1573,1573
46073230,1000,1000,1000,1000,70428484,1590,1590,1573,1573
46075729,1000,1000,1000,1000,70528444,1590,1590,1573,1573
46078228,1000,1000,1000,1000,70628404,1590,1590,1573,1572
46080727,1000,1000,1000,1000,70728364,1590,1590,1573,1573
46083226,1000,1000,1000,1000,70828324,1590,1590,1573,1572
46085725,1000,1000,1000,1000,70928284,1592,1590,1573,1572
46088224,1000,1000,1000,1000,71028244,1582,1575,1587,1586
46090723,1000,1000,1000,1000,71128204,1564,1557,1606,1606
46093222,1000,1000,1000,1000,71228164,1549,1547,1615,1617
46095721,1000,1000,1000,1000,71328957,1540,1542,1617,1619
46098220,1000,1000,1000,1000,71428917,1536,1542,1615,1616
46100719,1000,1000,1000,1000,71528877,1537,1547,1613,1613
46103218,1000,1000,1000,1000,71628837,1542,1551,1610,1609
46105717,1000,1000,1000,1000,71728797,1548,1555,1605,1602
46108216,1000,1000,1000,1000,71828757,1556,1559,1600,1597
46110715,1000,1000,1000,1000,71928717,1564,1564,1595,1592
46113214,1000,1000,1000,1000,72028677,1570,1568,1588,1586
46115713,1000,1000,1000,1000,72128637,1575,1571,1581,1582
46118212,1000,1000,1000,1000,72228597,1579,1576,1577,1579
46120711,1000,1000,1000,1000,72328557,1582,1580,1576,1577
46123210,1000,1000,1000,1000,72428517,1584,1583,1573,1574
46125709,1000,1000,1000,1000,72528477,1586,1585,1572,1573
46128208,1000,1000,1000,1000,72628437,1587,1588,1573,1573
46130707,1000,1000,1000,1000,72728397,1588,1588,1573,1572
46133206,1000,1000,1000,1000,72828357,1589,1589,1574,1573
46135705,1000,1000,1000,1000,72928317,1589,1588,1573,1573
46138204,1000,1000,1000,1000,73028277,1589,1588,1574,1574
46140703,1000,1000,1000,1000,73128237,1588,1587,1574,1575
46143202,1000,1000,1000,1000,73228197,1588,1587,1574,1575
46145701,1000,1000,1000,1000,73328157,1587,1586,1575,1576
46148200,1000,1000,1000,1000,73428950,1584,1585,1575,1575
46150699,1000,1000,1000,1000,73528910,1585,1585,1578,1577
46153198,1000,1000,1000,1000,73628870,1585,1585,1579,1579
46155697,1000,1000,1000,1000,73728830,1584,1584,1580,1579
46158196,1000,1000,1000,1000,73828790,1584,1582,1585,1574
46160695,1000,1000,1000,1000,73928750,1584,1581,1586,1572
46163194,1000,1000,1000,1000,74028710,1582,1579,1578,1573
46165693,1000,1000,1000,1000,74128670,1580,1578,1570,1572
46168192,1000,1000,1000,1000,74228630,1576,1577,1563,1569
46170691,1000,1000,1000,1000,74328590,1572,1577,1559,1564
46173190,1000,1000,1000,1000,74428550,1571,1576,1559,1561
46175689,1000,1000,1000,1000,74528510,1571,1575,1559,1558
46178188,1000,1000,1000,1000,74628470,1572,1574,1560,1557
46180687,1000,1000,1000,1000,74728430,1573,1573,1559,1556
46183186,1000,1000,1000,1000,74828390,1573,1572,1558,1556
46185685,1000,1000,1000,1000,74928350,1574,1572,1556,1556
46188184,1000,1000,1000,1000,75028310,1573,1572,1554,1554
46190683,1000,1000,1000,1000,75128270,1572,1573,1552,1553
46193182,1000,1000,1000,1000,75228230,1572,1574,1551,1551
46195681,1000,1000,1000,1000,75328190,1572,1575,1550,1550
46198180,1000,1000,1000,1000,75428983,1574,1576,1549,1548
46200679,1000,1000,1000,1000,75528943,1575,1577,1547,1546
46203178,1000,1000,1000,1000,75628903,1577,1578,1545,1545
46205677,1000,1000,1000,1000,75728863,1580,1580,1544,1544
46208176,1000,1000,1000,1000,75828823,1582,1582,1542,1542
46210675,1000,1000,1000,1000,75928783,1584,1584,1541,1541
46213174,1000,1000,1000,1000,76028743,1586,1586,1539,1539
46215673,1000,1000,1000,1000,76128703,1587,1587,1538,1539
46218172,1000,1000,1000,1000,76228663,1588,1588,1540,1540
46220671,1000,1000,1000,1000,76328623,1588,1586,1540,1541
46223170,1000,1000,1000,1000,76428583,1587,1585,1542,1544
46225669,1000,1000,1000,1000,76528543,1585,1584,1546,1549
46228168,1000,1000,1000,1000,76628503,1582,1581,1550,1554
46230667,1000,1000,1000,1000,76728463,1577,1577,1554,1558
46233166,1000,1000,1000,1000,76828423,1572,1572,1559,1562
46235665,1000,1000,1000,1000,76928383,1567,1566,1566,1569
46238164,1000,1000,1000,1000,77028343,1562,1561,1574,1575
46240663,1000,1000,1000,1000,77128303,1557,1555,1581,1581
46243162,1000,1000,1000,1000,77228263,1552,1550,1588,1588
46245661,1000,1000,1000,1000,77328223,1546,1544,1594,1593
46248160,1000,1000,1000,1000,77428183,1541,1540,1599,1599
46250659,1000,1000,1000,1000,77528976,1537,1538,1605,1604
46253158,1000,1000,1000,1000,77628936,1536,1537,1607,1606
46255657,1000,1000,1000,1000,77728896,1536,1537,1605,1604
46258156,1000,1000,1000,1000,77828856,1539,1542,1602,1602
46260655,1000,1000,1000,1000,77928816,1545,1547,1597,1597
46263154,1000,1000,1000,1000,78028776,1551,1553,1591,1591
46266486,1000,1000,1000,1000,78128736,1559,1560,1586,1585
46268985,1000,1000,1000,1000,78228696,1568,1567,1581,1579
46271484,1000,1000,1000,1000,78328656,1574,1573,1575,1574
46273983,1000,1000,1000,1000,78428616,1580,1578,1572,1571
46276482,1000,1000,1000,1000,78528576,1584,1582,1570,1569
46278981,1000,1000,1000,1000,78628536,1587,1585,1570,1570
46281480,1000,1000,1000,1000,78728496,1587,1585,1568,1569
46283979,1000,1000,1000,1000,78828456,1587,1585,1569,1570
46286478,1000,1000,1000,1000,78928416,1586,1586,1571,1571
46288977,1000,1000,1000,1000,79028376,1584,1585,1572,1572
46291476,1000,1000,1000,1000,79128336,1584,1584,1574,1574
46293975,1000,1000,1000,1000,79228296,1583,1583,1575,1575
46296474,1000,1000,1000,1000,79328256,1581,1582,1577,1577
46298973,1000,1000,1000,1000,79428216,1580,1580,1578,1577
46301472,1000,1000,1000,1000,79528176,1579,1580,1580,1580
46303971,1000,1000,1000,1000,79628969,1578,1579,1580,1580
46306470,1000,1000,1000,1000,79728929,1578,1578,1581,1581
46308969,1000,1000,1000,1000,79828889,1577,1577,1582,1582
46311468,1000,1000,1000,1000,79928849,1577,1577,1582,1582
46313967,1000,1000,1000,1000,80028809,1577,1577,1582,1582
46316466,1000,1000,1000,1000,80128769,1576,1577,1581,1582
46318965,1000,1000,1000,1000,80228729,1577,1577,1582,1582
46321464,1000,1000,1000,1000,80328689,1578,1578,1582,1582
46323963,1000,1000,1000,1000,80428649,1578,1578,1581,1581
46326462,1000,1000,1000,1000,80528609,1578,1579,1580,1580
46328961,1000,1000,1000,1000,80628569,1579,1580,1580,1580
46331460,1000,1000,1000,1000,80728529,1581,1580,1580,1580
46333959,1000,1000,1000,1000,80828489,1581,1581,1579,1579
46336458,1000,1000,1000,1000,80928449,1581,1582,1580,1580
46338957,1000,1000,1000,1000,81028409,1582,1582,1580,1580
46341456,1000,1000,1000,1000,81128369,1582,1582,1580,1580
46343955,1000,1000,1000,1000,81228329,1583,1582,1580,1580
46346454,1000,1000,1000,1000,81328289,1583,1582,1580,1580
46348953,1000,1000,1000,1000,81428249,1582,1582,1579,1579
46351452,1000,1000,1000,1000,81528209,1581,1581,1579,1580
46353951,1000,1000,1000,1000,81628169,1581,1581,1580,1580
46356450,1000,1000,1000,1000,81728962,1581,1582,1581,1581
46358949,1000,1000,1000,1000,81828922,1582,1582,1582,1581
46361448,1000,1000,1000,1000,81928882,1582,1581,1582,1582
46363947,1000,1000,1000,1000,82028842,1582,1581,1582,1582
46366446,1000,1000,1000,1000,82128802,1582,1582,1583,1583
46368945,1000,1000,1000,1000,82228762,1581,1581,1588,1576
46371444,1000,1000,1000,1000,82328722,1581,1581,1588,1576
46373943,1000,1000,1000,1000,82428682,1579,1578,1580,1576
46376442,1000,1000,1000,1000,82528642,1576,1575,1572,1576
46378941,1000,1000,1000,1000,82628602,1573,1572,1567,1574
46381440,1000,1000,1000,1000,82728562,1570,1571,1565,1572
46383939,1000,1000,1000,1000,82828522,1568,1569,1565,1569
46386438,1000,1000,1000,1000,82928482,1567,1568,1567,1567
46388937,1000,1000,1000,1000,83028442,1567,1568,1568,1566
46391436,1000,1000,1000,1000,83128402,1566,1566,1567,1565
46393935,1000,1000,1000,1000,83228362,1565,1565,1567,1565
46396434,1000,1000,1000,1000,83328322,1564,1564,1566,1564
46398933,1000,1000,1000,1000,83428282,1564,1563,1565,1564
46401432,1000,1000,1000,1000,83528242,1563,1562,1563,1563
46403931,1000,1000,1000,1000,83628202,1562,1562,1563,1563
46406430,1000,1000,1000,1000,83728162,1562,1562,1562,1563
46408929,1000,1000,1000,1000,83828955,1561,1561,1562,1562
46411428,1000,1000,1000,1000,83928915,1561,1561,1561,1561
46413927,1000,1000,1000,1000,84028875,1561,1561,1562,1561
46416426,1000,1000,1000,1000,84128835,1561,1561,1561,1561
46418925,1000,1000,1000,1000,84228795,1560,1560,1560,1560
46421424,1000,1000,1000,1000,84328755,1560,1560,1560,1559
46423923,1000,1000,1000,1000,84428715,1559,1558,1558,1558
46426422,1000,1000,1000,1000,84528675,1560,1559,1559,1559
46428921,1000,1000,1000,1000,84628635,1559,1558,1558,1558
46431420,1000,1000,1000,1000,84728595,1559,1559,1559,1558
46433919,1000,1000,1000,1000,84828555,1558,1558,1559,1556
46436418,1000,1000,1000,1000,84928515,1557,1556,1558,1554
46438917,1000,1000,1000,1000,85028475,1557,1556,1557,1556
46441416,1000,1000,1000,1000,85128435,1555,1554,1552,1555
46443915,1000,1000,1000,1000,85228395,1551,1552,1547,1552
46446414,1000,1000,1000,1000,85328355,1547,1548,1542,1549
46448913,1000,1000,1000,1000,85428315,1543,1543,1538,1542
46451412,1000,1000,1000,1000,85528275,1537,1537,1532,1535
46453911,1000,1000,1000,1000,85628235,1530,1531,1525,1526
46456410,1000,1000,1000,1000,85728195,1525,1525,1521,1521
46458909,1000,1000,1000,1000,85828155,1522,1522,1520,1519
46461408,1000,1000,1000,1000,85928948,1520,1520,1520,1519
46463907,1000,1000,1000,1000,86028908,1521,1521,1524,1524
46466406,1000,1000,1000,1000,86128868,1523,1523,1527,1529
46468905,1000,1000,1000,1000,86228828,1525,1525,1531,1532
46471404,1000,1000,1000,1000,86328788,1529,1528,1536,1537
46473903,1000,1000,1000,1000,86428748,1533,1533,1541,1541
46476402,1000,1000,1000,1000,86528708,1536,1536,1543,1543
46478901,1000,1000,1000,1000,86628668,1539,1539,1545,1545
46481400,1000,1000,1000,1000,86728628,1542,1542,1546,1546
46483899,1000,1000,1000,1000,86828588,1544,1545,1546,1546
46486398,1000,1000,1000,1000,86928548,1546,1546,1545,1545
46488897,1000,1000,1000,1000,87028508,1548,1548,1546,1545
46491396,1000,1000,1000,1000,87128468,1549,1549,1545,1545
46493895,1000,1000,1000,1000,87228428,1549,1549,1544,1544
46496394,1000,1000,1000,1000,87328388,1550,1550,1545,1545
46498893,1000,1000,1000,1000,87428348,1549,1549,1544,1543
46501392,1000,1000,1000,1000,87528308,1549,1549,1544,1544
46503891,1000,1000,1000,1000,87628268,1548,1548,1544,1544
46506390,1000,1000,1000,1000,87728228,1548,1548,1545,1545
46508889,1000,1000,1000,1000,87828188,1547,1546,1545,1545
46511388,1000,1000,1000,1000,87928981,1546,1545,1545,1545
46513887,1000,1000,1000,1000,88028941,1545,1546,1546,1546
46516386,1000,1000,1000,1000,88128901,1544,1544,1545,1545
46518885,1000,1000,1000,1000,88228861,1544,1544,1546,1546
46521384,1000,1000,1000,1000,88328821,1544,1544,1546,1546
46523883,1000,1000,1000,1000,88428781,1543,1544,1545,1546
46526382,1000,1000,1000,1000,88528741,1543,1544,1546,1545
46528881,1000,1000,1000,1000,88628701,1543,1543,1545,1545
46531380,1000,1000,1000,1000,88728661,1544,1544,1545,1545
46533879,1000,1000,1000,1000,88828621,1544,1544,1545,1544
46536378,1000,1000,1000,1000,88928581,1544,1544,1544,1544
46538877,1000,1000,1000,1000,89028541,1544,1545,1544,1544
46541376,1000,1000,1000,1000,89128501,1544,1544,1544,1544
46543875,1000,1000,1000,1000,89228461,1545,1545,1544,1545
46546374,1000,1000,1000,1000,89328421,1546,1545,1545,1544
46548873,1000,1000,1000,1000,89428381,1545,1544,1544,1543
46551372,1000,1000,1000,1000,89528341,1545,1544,1543,1543
46553871,1000,1000,1000,1000,89628301,1545,1545,1544,1544
46556370,1000,1000,1000,1000,89728261,1545,1545,1544,1544
46558869,1000,1000,1000,1000,89828221,1545,1545,1544,1544
46561368,1000,1000,1000,1000,89928181,1545,1545,1545,1545
46563867,1000,1000,1000,1000,90028974,1545,1544,1544,1544
46566366,1000,1000,1000,1000,90128934,1545,1545,1545,1545
46568865,1000,1000,1000,1000,90228894,1544,1544,1544,1544
46571364,1000,1000,1000,1000,90328854,1544,1544,1544,1545
46573863,1000,1000,1000,1000,90428814,1544,1544,1544,1544
46576362,1000,1000,1000,1000,90528774,1543,1543,1543,1543
46578861,1000,1000,1000,1000,90628734,1544,1544,1544,1544
46581360,1000,1000,1000,1000,90728694,1544,1544,1544,1544
46583859,1000,1000,1000,1000,90828654,1544,1544,1544,1545
46586358,1000,1000,1000,1000,90928614,1545,1544,1545,1545
46588857,1000,1000,1000,1000,91028574,1545,1545,1545,1546
46591356,1000,1000,1000,1000,91128534,1545,1544,1545,1545
46593855,1000,1000,1000,1000,91228494,1544,1545,1544,1544
46596354,1000,1000,1000,1000,91328454,1544,1544,1544,1544
46598853,1000,1000,1000,1000,91428414,1545,1545,1544,1545
46601352,1000,1000,1000,1000,91528374,1545,1545,1544,1545
46603851,1000,1000,1000,1000,91628334,1545,1545,1545,1544
46606350,1000,1000,1000,1000,91728294,1545,1545,1545,1545
46608849,1000,1000,1000,1000,91828254,1545,1545,1545,1545
46611348,1000,1000,1000,1000,91928214,1545,1545,1545,1545
46613847,1000,1000,1000,1000,92028174,1545,1545,1545,1544
46616346,1000,1000,1000,1000,92128967,1545,1545,1544,1544
46618845,1000,1000,1000,1000,92228927,1544,1544,1544,1544
46621344,1000,1000,1000,1000,92328887,1544,1544,1543,1544
46623843,1000,1000,1000,1000,92428847,1544,1544,1544,1544
46626342,1000,1000,1000,1000,92528807,1545,1544,1545,1545
46628841,1000,1000,1000,1000,92628767,1544,1545,1545,1545
46631340,1000,1000,1000,1000,92728727,1545,1545,1545,1545
46633839,1000,1000,1000,1000,92828687,1544,1545,1545,1544
46636338,1000,1000,1000,1000,92928647,1545,1544,1545,1544
46638837,1000,1000,1000,1000,93028607,1545,1544,1545,1544
46641336,1000,1000,1000,1000,93128567,1544,1544,1544,1544
46643835,1000,1000,1000,1000,93228527,1544,1544,1544,1544
46646334,1000,1000,1000,1000,93328487,1544,1544,1544,1545
46648833,1000,1000,1000,1000,93428447,1544,1544,1543,1544
46651332,1000,1000,1000,1000,93528407,1544,1544,1544,1544
46653831,1000,1000,1000,1000,93628367,1543,1544,1544,1543
46656330,1000,1000,1000,1000,93728327,1544,1544,1544,1544
46658829,1000,1000,1000,1000,93828287,1543,1544,1544,1543
46661328,1000,1000,1000,1000,93928247,1544,1544,1543,1544
46663827,1000,1000,1000,1000,94028207,1544,1544,1544,1543
46666326,1000,1000,1000,1000,94128167,1544,1543,1543,1544
46668825,1000,1000,1000,1000,94228960,1544,1544,1544,1544
46671324,1000,1000,1000,1000,94328920,1544,1544,1544,1544
46673823,1000,1000,1000,1000,94428880,1545,1545,1545,1545
46676322,1000,1000,1000,1000,94528840,1544,1544,1545,1545
46678821,1000,1000,1000,1000,94628800,1544,1544,1544,1544
46681320,1000,1000,1000,1000,94728760,1545,1545,1546,1546
46683819,1000,1000,1000,1000,94828720,1545,1545,1545,1546
46686318,1000,1000,1000,1000,94928680,1545,1545,1545,1545
46688817,1000,1000,1000,1000,95028640,1545,1545,1545,1545
46691316,1000,1000,1000,1000,95128600,1545,1544,1544,1544
46693815,1000,1000,1000,1000,95228560,1545,1545,1544,1545
46696314,1000,1000,1000,1000,95328520,1545,1545,1545,1544
46698813,1000,1000,1000,1000,95428480,1545,1544,1544,1545
46701312,1000,1000,1000,1000,95528440,1427,1425,1369,1373
46703811,1000,1000,1000,1000,95628400,1359,1357,1254,1260
46706310,1000,1000,1000,1000,95728360,1339,1337,1216,1223
46708809,1000,1000,1000,1000,95828320,1329,1327,1198,1203
46711308,1000,1000,1000,1000,95928280,1308,1305,1154,1160
46713807,1000,1000,1000,1000,96028240,1246,1244,1150,1155
46716306,1000,1000,1000,1000,96128200,1147,1143,1150,1156
46718805,1000,1000,1000,1000,96228160,1036,1033,1150,1154
46721304,1000,1000,1000,1000,96328953,1016,1013,1150,1154
46723803,1000,1000,1000,1000,96428913,1016,1013,1150,1153
46726302,1000,1000,1000,1000,96528873,1017,1013,1150,1154
46728801,1000,1000,1000,1000,96628833,1016,1003,1150,1168
46731300,1000,1000,1000,1000,96728793,1016,1007,1150,1163
46733799,1000,1000,1000,1000,96828753,1016,1008,1150,1161
46736298,1000,1000,1000,1000,96928713,1016,1008,1150,1161
46738797,1000,1000,1000,1000,97028673,1016,1009,1150,1160
46741296,1000,1000,1000,1000,97128633,1016,1008,1150,1160
46743795,1000,1000,1000,1000,97228593,1016,1009,1150,1160
46746294,1000,1000,1000,1000,97328553,1016,1008,1150,1160
46748793,1000,1000,1000,1000,97428513,1016,1015,1150,1152
46751292,1000,1000,1000,1000,97528473,1016,1014,1150,1153
46753791,1000,1000,1000,1000,97628433,1017,1014,1150,1153
46756290,1000,1000,1000,1000,97728393,1016,1014,1150,1153
46758789,1000,1000,1000,1000,97828353,866,865,1150,1150
46761288,1000,1000,1000,1000,97928313,1000,1000,1000,1000
46763787,1000,1000,1000,1000,98028273,1000,1000,1000,1000
46766286,1000,1000,1000,1000,98128233,1000,1000,1000,1000
46768785,1000,1000,1000,1000,98228193,1000,1000,1000,1000
46771284,1000,1000,1000,1000,98328986,1000,1000,1000,1000
46773783,1000,1000,1000,1000,98428946,1000,1000,1000,1000
46776282,1000,1000,1000,1000,98528906,1000,1000,1000,1000
46778781,1000,1000,1000,1000,98628866,1000,1000,1000,1000
46781280,1000,1000,1000,1000,98728826,1000,1000,1000,1000
46783779,1000,1000,1000,1000,98828786,1000,1000,1000,1000
46786278,1000,1000,1000,1000,98928746,1000,1000,1000,1000
46788777,1000,1000,1000,1000,99028706,1000,1000,1000,1000
46791276,1000,1000,1000,1000,99128666,1000,1000,1000,1000
46793775,1000,1000,1000,1000,99228626,1000,1000,1000,1000
46796274,1000,1000,1000,1000,99328586,1000,1000,1000,1000
46798773,1000,1000,1000,1000,99428546,1000,1000,1000,1000
46801272,1000,1000,1000,1000,99528506,1000,1000,1000,1000
46803771,1000,1000,1000,1000,99628466,1000,1000,1000,1000
46806270,1000,1000,1000,1000,99728426,1000,1000,1000,1000
46808769,1000,1000,1000,1000,99828386,1000,1000,1000,1000
46811268,1000,1000,1000,1000,99928346,1000,1000,1000,1000
46813767,1000,1000,1000,1000,100028306,1000,1000,1000,1000
46816266,1000,1000,1000,1000,100128266,1000,1000,1000,1000
46818765,1000,1000,1000,1000,100228226,1000,1000,1000,1000
46821264,1000,1000,1000,1000,100328186,1000,1000,1000,1000
46823763,1000,1000,1000,1000,100428979,1000,1000,1000,1000
46826262,1000,1000,1000,1000,100528939,1000,1000,1000,1000
46828761,1000,1000,1000,1000,100628899,1000,1000,1000,1000
46831260,1000,1000,1000,1000,100728859,1000,1000,1000,1000
46833759,1000,1000,1000,1000,100828819,1000,1000,1000,1000
46836258,1000,1000,1000,1000,100928779,1000,1000,1000,1000
46838757,1000,1000,1000,1000,101028739,1000,1000,1000,1000
46841256,1000,1000,1000,1000,101128699,1000,1000,1000,1000
46843755,1000,1000,1000,1000,101228659,1000,1000,1000,1000
46846254,1000,1000,1000,1000,101328619,1000,1000,1000,1000
46848753,1000,1000,1000,1000,101428579,1000,1000,1000,1000
46851252,1000,1000,1000,1000,101528539,1000,1000,1000,1000
46853751,1000,1000,1000,1000,101628499,1000,1000,1000,1000
46856250,1000,1000,1000,1000,101728459,1000,1000,1000,1000
46858749,1000,1000,1000,1000,101828419,1000,1000,1000,1000
46861248,1000,1000,1000,1000,101928379,1000,1000,1000,1000
46863747,1000,1000,1000,1000,102028339,1000,1000,1000,1000
46866246,1000,1000,1000,1000,102128299,1000,1000,1000,1000
46868745,1000,1000,1000,1000,102228259,1000,1000,1000,1000
46871244,1000,1000,1000,1000,102328219,1000,1000,1000,1000
46873743,1000,1000,1000,1000,102428179,1000,1000,1000,1000
46876242,1000,1000,1000,1000,102528972,1000,1000,1000,1000
46878741,1000,1000,1000,1000,102628932,1000,1000,1000,1000
46881240,1000,1000,1000,1000,102728892,1000,1000,1000,1000
46883739,1000,1000,1000,1000,102828852,1000,1000,1000,1000
46886238,1000,1000,1000,1000,102928812,1000,1000,1000,1000
46888737,1000,1000,1000,1000,103028772,1000,1000,1000,1000
46891236,1000,1000,1000,1000,103128732,1000,1000,1000,1000
46893735,1000,1000,1000,1000,103228692,1000,1000,1000,1000
46896234,1000,1000,1000,1000,103328652,1000,1000,1000,1000
46898733,1000,1000,1000,1000,103428612,1000,1000,1000,1000
46901232,1000,1000,1000,1000,103528572,1000,1000,1000,1000
46903731,1000,1000,1000,1000,103628532,1000,1000,1000,1000
46906230,1000,1000,1000,1000,103728492,1000,1000,1000,1000
46908729,1000,1000,1000,1000,103828452,1000,1000,1000,1000
46911228,1000,1000,1000,1000,103928412,1000,1000,1000,1000
46913727,1000,1000,1000,1000,104028372,1000,1000,1000,1000
46916226,1000,1000,1000,1000,104128332,1000,1000,1000,1000
46918725,1000,1000,1000,1000,104228292,1000,1000,1000,1000
46921224,1000,1000,1000,1000,104328252,1000,1000,1000,1000
46923723,1000,1000,1000,1000,104428212,1000,1000,1000,1000
46926222,1000,1000,1000,1000,104528172,1000,1000,1000,1000
46928721,1000,1000,1000,1000,104628965,1000,1000,1000,1000
46931220,1000,1000,1000,1000,104728925,1000,1000,1000,1000
46933719,1000,1000,1000,1000,104828885,1000,1000,1000,1000
46936218,1000,1000,1000,1000,104928845,1000,1000,1000,1000
46938717,1000,1000,1000,1000,105028805,1000,1000,1000,1000
46941216,1000,1000,1000,1000,105128765,1000,1000,1000,1000
46943715,1000,1000,1000,1000,105228725,1000,1000,1000,1000
46946214,1000,1000,1000,1000,105328685,1000,1000,1000,1000
46948713,1000,1000,1000,1000,105428645,1000,1000,1000,1000
46951212,1000,1000,1000,1000,105528605,1000,1000,1000,1000
46953711,1000,1000,1000,1000,105628565,1000,1000,1000,1000
46956210,1000,1000,1000,1000,105728525,1000,1000,1000,1000
46958709,1000,1000,1000,1000,105828485,1000,1000,1000,1000
46961208,1000,1000,1000,1000,105928445,1000,1000,1000,1000
46963707,1000,1000,1000,1000,106028405,1000,1000,1000,1000
46966206,1000,1000,1000,1000,106128365,1000,1000,1000,1000
46968705,1000,1000,1000,1000,106228325,1000,1000,1000,1000
46971204,1000,1000,1000,1000,106328285,1000,1000,1000,1000
46973703,1000,1000,1000,1000,106428245,1000,1000,1000,1000
46976202,1000,1000,1000,1000,106528205,1000,1000,1000,1000
46978701,1000,1000,1000,1000,106628165,1000,1000,1000,1000
46981200,1000,1000,1000,1000,106728958,1000,1000,1000,1000
46983699,1000,1000,1000,1000,106828918,1000,1000,1000,1000
46986198,1000,1000,1000,1000,106928878,1000,1000,1000,1000
46988697,1000,1000,1000,1000,107028838,1000,1000,1000,1000
46991196,1000,1000,1000,1000,107128798,1000,1000,1000,1000
46993695,1000,1000,1000,1000,107228758,1000,1000,1000,1000
46996194,1000,1000,1000,1000,107328718,1000,1000,1000,1000
46998693,1000,1000,1000,1000,107428678,1000,1000,1000,1000
47001192,1000,1000,1000,1000,107528638,1000,1000,1000,1000
47003691,1000,1000,1000,1000,107628598,1000,1000,1000,1000
47006190,1000,1000,1000,1000,107728558,1000,1000,1000,1000
47008689,1000,1000,1000,1000,107828518,1000,1000,1000,1000
47011188,1000,1000,1000,1000,107928478,1000,1000,1000,1000
47013687,1000,1000,1000,1000,108028438,1000,1000,1000,1000
47016186,1000,1000,1000,1000,108128398,1000,1000,1000,1000
47018685,1000,1000,1000,1000,108228358,1000,1000,1000,1000
47021184,1000,1000,1000,1000,108328318,1000,1000,1000,1000
47023683,1000,1000,1000,1000,108428278,1000,1000,1000,1000
47026182,1000,1000,1000,1000,108528238,1000,1000,1000,1000
47028681,1000,1000,1000,1000,108628198,1000,1000,1000,1000
47031180,1000,1000,1000,1000,108728158,1000,1000,1000,1000
47033679,1000,1000,1000,1000,108828951,1000,1000,1000,1000
47036178,1000,1000,1000,1000,108928911,1000,1000,1000,1000
47038677,1000,1000,1000,1000,109028871,1000,1000,1000,1000
47041176,1000,1000,1000,1000,,,,,
47043675,1000,1000,1000,1000,,,,,
47046174,1000,1000,1000,1000,,,,,
47048673,1000,1000,1000,1000,,,,,
47051172,1000,1000,1000,1000,,,,,
47053671,1000,1000,1000,1000,,,,,
47056170,1000,1000,1000,1000,,,,,
47058669,1000,1000,1000,1000,,,,,
47061168,1000,1000,1000,1000,,,,,
47063667,1000,1000,1000,1000,,,,,
47066166,1000,1000,1000,1000,,,,,
47068665,1000,1000,1000,1000,,,,,
47071164,1000,1000,1000,1000,,,,,
47073663,1000,1000,1000,1000,,,,,
47076162,1000,1000,1000,1000,,,,,
47078661,1000,1000,1000,1000,,,,,
47081160,1000,1000,1000,1000,,,,,
47083659,1000,1000,1000,1000,,,,,
47086158,1000,1000,1000,1000,,,,,
47088657,1000,1000,1000,1000,,,,,
47091156,1000,1000,1000,1000,,,,,
47093655,1000,1000,1000,1000,,,,,
47096154,1000,1000,1000,1000,,,,,
47098653,1000,1000,1000,1000,,,,,
47101152,1000,1000,1000,1000,,,,,
47103651,1000,1000,1000,1000,,,,,
47106150,1000,1000,1000,1000,,,,,
47108649,1000,1000,1000,1000,,,,,
47111148,1000,1000,1000,1000,,,,,
47113647,1000,1000,1000,1000,,,,,
47116146,1000,1000,1000,1000,,,,,
47118645,1000,1000,1000,1000,,,,,
47121144,1000,1000,1000,1000,,,,,
47123643,1000,1000,1000,1000,,,,,
47126142,1000,1000,1000,1000,,,,,
47128641,1000,1000,1000,1000,,,,,
47131140,1000,1000,1000,1000,,,,,
47133639,1000,1000,1000,1000,,,,,
47136138,1000,1000,1000,1000,,,,,
47138637,1000,1000,1000,1000,,,,,
47141136,1000,1000,1000,1000,,,,,
47143635,1000,1000,1000,1000,,,,,
47146134,1000,1000,1000,1000,,,,,
47148633,1000,1000,1000,1000,,,,,
47151132,1000,1000,1000,1000,,,,,
47153631,1000,1000,1000,1000,,,,,
47156130,1000,1000,1000,1000,,,,,
47158629,1000,1000,1000,1000,,,,,
47161128,1000,1000,1000,1000,,,,,
47163627,1000,1000,1000,1000,,,,,
47166126,1000,1000,1000,1000,,,,,
47168625,1000,1000,1000,1000,,,,,
47171124,1000,1000,1000,1000,,,,,
47173623,1000,1000,1000,1000,,,,,
47176122,1000,1000,1000,1000,,,,,
47178621,1000,1000,1000,1000,,,,,
47181120,1000,1000,1000,1000,,,,,
47183619,1000,1000,1000,1000,,,,,
47186118,1000,1000,1000,1000,,,,,
47188617,1000,1000,1000,1000,,,,,
47191116,1000,1000,1000,1000,,,,,
47193615,1000,1000,1000,1000,,,,,
47196114,1000,1000,1000,1000,,,,,
47198613,1000,1000,1000,1000,,,,,
47201112,1000,1000,1000,1000,,,,,
47203611,1000,1000,1000,1000,,,,,
47206110,1000,1000,1000,1000,,,,,
47208609,1000,1000,1000,1000,,,,,
47211108,1000,1000,1000,1000,,,,,
47213607,1000,1000,1000,1000,,,,,
47216106,1000,1000,1000,1000,,,,,
47218605,1000,1000,1000,1000,,,,,
47221104,1000,1000,1000,1000,,,,,
47223603,1000,1000,1000,1000,,,,,
47226102,1000,1000,1000,1000,,,,,
47228601,1000,1000,1000,1000,,,,,
47231100,1000,1000,1000,1000,,,,,
47233599,1000,1000,1000,1000,,,,,
47236098,1000,1000,1000,1000,,,,,
47238597,1000,1000,1000,1000,,,,,
47241096,1000,1000,1000,1000,,,,,
47243595,1000,1000,1000,1000,,,,,
47246094,1000,1000,1000,1000,,,,,
47248593,1000,1000,1000,1000,,,,,
47251092,1000,1000,1000,1000,,,,,
47253591,1000,1000,1000,1000,,,,,
47256090,1000,1000,1000,1000,,,,,
47258589,1000,1000,1000,1000,,,,,
47261088,1000,1000,1000,1000,,,,,
47263587,1000,1000,1000,1000,,,,,
47266086,1000,1000,1000,1000,,,,,
47268585,1000,1000,1000,1000,,,,,
47271084,1000,1000,1000,1000,,,,,
47273583,1000,1000,1000,1000,,,,,
47276082,1000,1000,1000,1000,,,,,
47278581,1000,1000,1000,1000,,,,,
47281080,1000,1000,1000,1000,,,,,
47283579,1000,1000,1000,1000,,,,,
47286078,1000,1000,1000,1000,,,,,
47288577,1000,1000,1000,1000,,,,,
47291076,1000,1000,1000,1000,,,,,
47293575,1000,1000,1000,1000,,,,,
47296074,1000,1000,1000,1000,,,,,
47298573,1000,1000,1000,1000,,,,,
47301072,1000,1000,1000,1000,,,,,
47303571,1000,1000,1000,1000,,,,,
47306070,1000,1000,1000,1000,,,,,
47308569,1000,1000,1000,1000,,,,,
47311068,1000,1000,1000,1000,,,,,
47313567,1000,1000,1000,1000,,,,,
47316066,1000,1000,1000,1000,,,,,
47318565,1000,1000,1000,1000,,,,,
47321064,1000,1000,1000,1000,,,,,
47323563,1000,1000,1000,1000,,,,,
47326062,1000,1000,1000,1000,,,,,
47328561,1000,1000,1000,1000,,,,,
47331060,1000,1000,1000,1000,,,,,
47333559,1000,1000,1000,1000,,,,,
47336058,1000,1000,1000,1000,,,,,
47338557,1000,1000,1000,1000,,,,,
47341056,1000,1000,1000,1000,,,,,
47343555,1000,1000,1000,1000,,,,,
47346054,1000,1000,1000,1000,,,,,
47348553,1000,1000,1000,1000,,,,,
47351052,1000,1000,1000,1000,,,,,
47353551,1000,1000,1000,1000,,,,,
47356050,1000,1000,1000,1000,,,,,
47358549,1000,1000,1000,1000,,,,,
47361048,1000,1000,1000,1000,,,,,
47363547,1000,1000,1000,1000,,,,,
47366046,1000,1000,1000,1000,,,,,
47368545,1000,1000,1000,1000,,,,,
47371044,1000,1000,1000,1000,,,,,
47373543,1000,1000,1000,1000,,,,,
47376042,1000,1000,1000,1000,,,,,
47378541,1000,1000,1000,1000,,,,,
47381040,1000,1000,1000,1000,,,,,
47383539,1000,1000,1000,1000,,,,,
47386038,1000,1000,1000,1000,,,,,
47388537,1000,1000,1000,1000,,,,,
47391036,1000,1000,1000,1000,,,,,
47393535,1000,1000,1000,1000,,,,,
47396034,1000,1000,1000,1000,,,,,
47398533,1000,1000,1000,1000,,,,,
47401032,1000,1000,1000,1000,,,,,
47403531,1000,1000,1000,1000,,,,,
47406030,1000,1000,1000,1000,,,,,
47408529,1000,1000,1000,1000,,,,,
47411028,1000,1000,1000,1000,,,,,
47413527,1000,1000,1000,1000,,,,,
47416026,1000,1000,1000,1000,,,,,
47418525,1000,1000,1000,1000,,,,,
47421024,1000,1000,1000,1000,,,,,
47423523,1000,1000,1000,1000,,,,,
47426022,1000,1000,1000,1000,,,,,
47428521,1000,1000,1000,1000,,,,,
47431020,1000,1000,1000,1000,,,,,
47433519,1000,1000,1000,1000,,,,,
47436018,1000,1000,1000,1000,,,,,
47438517,1000,1000,1000,1000,,,,,
47441016,1000,1000,1000,1000,,,,,
47443515,1000,1000,1000,1000,,,,,
47446014,1000,1000,1000,1000,,,,,
47448513,1000,1000,1000,1000,,,,,
47451012,1000,1000,1000,1000,,,,,
47453511,1000,1000,1000,1000,,,,,
47456010,1000,1000,1000,1000,,,,,
47458509,1001,1001,1001,1001,,,,,
47461008,1002,1002,1002,1002,,,,,
47463507,1003,1003,1003,1003,,,,,
47466006,1003,1003,1003,1003,,,,,
47468505,1004,1004,1004,1004,,,,,
47471004,1005,1005,1005,1005,,,,,
47473503,1006,1006,1006,1006,,,,,
47476002,1006,1006,1006,1006,,,,,
47478501,1007,1007,1007,1007,,,,,
47481000,1008,1008,1008,1008,,,,,
47483499,1009,1009,1009,1009,,,,,
47485998,1009,1009,1009,1009,,,,,
47488497,1010,1010,1010,1010,,,,,
47490996,1011,1011,1011,1011,,,,,
47493495,1012,1012,1012,1012,,,,,
47495994,1012,1012,1012,1012,,,,,
47498493,1013,1013,1013,1013,,,,,
47500992,1014,1014,1014,1014,,,,,
47503491,1015,1015,1015,1015,,,,,
47505990,1015,1015,1015,1015,,,,,
47508489,1016,1016,1016,1016,,,,,
47510988,1017,1017,1017,1017,,,,,
47513487,1018,1018,1018,1018,,,,,
47515986,1018,1018,1018,1018,,,,,
47518485,1019,1019,1019,1019,,,,,
47520984,1020,1020,1020,1020,,,,,
47523483,1021,1021,1021,1021,,,,,
47525982,1021,1021,1021,1021,,,,,
47528481,1022,1022,1022,1022,,,,,
47530980,1023,1023,1023,1023,,,,,
47533479,1024,1024,1024,1024,,,,,
47535978,1024,1024,1024,1024,,,,,
47538477,1025,1025,1025,1025,,,,,
47540976,1026,1026,1026,1026,,,,,
47543475,1027,1027,1027,1027,,,,,
47545974,1027,1027,1027,1027,,,,,
47548473,1028,1028,1028,1028,,,,,
47550972,1029,1029,1029,1029,,,,,
47553471,1030,1030,1030,1030,,,,,
47555970,1030,1030,1030,1030,,,,,
47558469,1031,1031,1031,1031,,,,,
47560968,1032,1032,1032,1032,,,,,
47563467,1033,1033,1033,1033,,,,,
47565966,1033,1033,1033,1033,,,,,
47568465,1034,1034,1034,1034,,,,,
47570964,1035,1035,1035,1035,,,,,
47573463,1036,1036,1036,1036,,,,,
47575962,1036,1036,1036,1036,,,,,
47578461,1037,1037,1037,1037,,,,,
47580960,1038,1038,1038,1038,,,,,
47583459,1039,1039,1039,1039,,,,,
47585958,1039,1039,1039,1039,,,,,
47588457,1040,1040,1040,1040,,,,,
47590956,1041,1041,1041,1041,,,,,
47593455,1042,1042,1042,1042,,,,,
47595954,1042,1042,1042,1042,,,,,
47598453,1043,1043,1043,1043,,,,,
47600952,1044,1044,1044,1044,,,,,
47603451,1045,1045,1045,1045,,,,,
47605950,1045,1045,1045,1045,,,,,
47608449,1046,1046,1046,1046,,,,,
47610948,1047,1047,1047,1047,,,,,
47613447,1048,1048,1048,1048,,,,,
47615946,1048,1048,1048,1048,,,,,
47618445,1049,1049,1049,1049,,,,,
47620944,1050,1050,1050,1050,,,,,
47623443,1051,1051,1051,1051,,,,,
47625942,1051,1051,1051,1051,,,,,
47628441,1052,1052,1052,1052,,,,,
47630940,1053,1053,1053,1053,,,,,
47633439,1054,1054,1054,1054,,,,,
47635938,1054,1054,1054,1054,,,,,
47638437,1055,1055,1055,1055,,,,,
47640936,1056,1056,1056,1056,,,,,
47643435,1057,1057,1057,1057,,,,,
47645934,1057,1057,1057,1057,,,,,
47648433,1058,1058,1058,1058,,,,,
47650932,1059,1059,1059,1059,,,,,
47653431,1060,1060,1060,1060,,,,,
47655930,1060,1060,1060,1060,,,,,
47658429,1061,1061,1061,1061,,,,,
47660928,1062,1062,1062,1062,,,,,
47663427,1063,1063,1063,1063,,,,,
47665926,1063,1063,1063,1063,,,,,
47668425,1064,1064,1064,1064,,,,,
47670924,1065,1065,1065,1065,,,,,
47673423,1066,1066,1066,1066,,,,,
47675922,1066,1066,1066,1066,,,,,
47678421,1067,1067,1067,1067,,,,,
47680920,1068,1068,1068,1068,,,,,
47683419,1069,1069,1069,1069,,,,,
47685918,1069,1069,1069,1069,,,,,
47688417,1070,1070,1070,1070,,,,,
47690916,1071,1071,1071,1071,,,,,
47693415,1072,1072,1072,1072,,,,,
47695914,1072,1072,1072,1072,,,,,
47698413,1073,1073,1073,1073,,,,,
47700912,1074,1074,1074,1074,,,,,
47703411,1075,1075,1075,1075,,,,,
47705910,1075,1075,1075,1075,,,,,
47708409,1076,1076,1076,1076,,,,,
47710908,1077,1077,1077,1077,,,,,
47713407,1078,1078,1078,1078,,,,,
47715906,1078,1078,1078,1078,,,,,
47718405,1079,1079,1079,1079,,,,,
47720904,1080,1080,1080,1080,,,,,
47723403,1081,1081,1081,1081,,,,,
47725902,1081,1081,1081,1081,,,,,
47728401,1082,1082,1082,1082,,,,,
47730900,1083,1083,1083,1083,,,,,
47733399,1084,1084,1084,1084,,,,,
47735898,1084,1084,1084,1084,,,,,
47738397,1085,1085,1085,1085,,,,,
47740896,1086,1086,1086,1086,,,,,
47743395,1087,1087,1087,1087,,,,,
47745894,1087,1087,1087,1087,,,,,
47748393,1088,1088,1088,1088,,,,,
47750892,1089,1089,1089,1089,,,,,
47753391,1090,1090,1090,1090,,,,,
47755890,1090,1090,1090,1090,,,,,
47758389,1091,1091,1091,1091,,,,,
47760888,1092,1092,1092,1092,,,,,
47763387,1093,1093,1093,1093,,,,,
47765886,1093,1093,1093,1093,,,,,
47768385,1094,1094,1094,1094,,,,,
47770884,1095,1095,1095,1095,,,,,
47773383,1096,1096,1096,1096,,,,,
47775882,1096,1096,1096,1096,,,,,
47778381,1097,1097,1097,1097,,,,,
47780880,1098,1098,1098,1098,,,,,
47783379,1099,1099,1099,1099,,,,,
47785878,1099,1099,1099,1099,,,,,
47788377,1100,1100,1100,1100,,,,,
47790876,1101,1101,1101,1101,,,,,
47793375,1101,1101,1101,1101,,,,,
47795874,1102,1102,1102,1102,,,,,
47798373,1103,1103,1103,1103,,,,,
47800872,1104,1104,1104,1104,,,,,
47803371,1104,1104,1104,1104,,,,,
47805870,1105,1105,1105,1105,,,,,
47808369,1106,1106,1106,1106,,,,,
47810868,1107,1107,1107,1107,,,,,
47813367,1107,1107,1107,1107,,,,,
47815866,1108,1108,1108,1108,,,,,
47818365,1109,1109,1109,1109,,,,,
47820864,1110,1110,1110,1110,,,,,
47823363,1110,1110,1110,1110,,,,,
47825862,1111,1111,1111,1111,,,,,
47828361,1112,1112,1112,1112,,,,,
47830860,1113,1113,1113,1113,,,,,
47833359,1113,1113,1113,1113,,,,,
47835858,1114,1114,1114,1114,,,,,
47838357,1115,1115,1115,1115,,,,,
47840856,1116,1116,1116,1116,,,,,
47843355,1116,1116,1116,1116,,,,,
47845854,1117,1117,1117,1117,,,,,
47848353,1118,1118,1118,1118,,,,,
47850852,1119,1119,1119,1119,,,,,
47853351,1119,1119,1119,1119,,,,,
47855850,1120,1120,1120,1120,,,,,
47858349,1121,1121,1121,1121,,,,,
47860848,1122,1122,1122,1122,,,,,
47863347,1122,1122,1122,1122,,,,,
47865846,1123,1123,1123,1123,,,,,
47868345,1124,1124,1124,1124,,,,,
47870844,1125,1125,1125,1125,,,,,
47873343,1125,1125,1125,1125,,,,,
47875842,1126,1126,1126,1126,,,,,
47878341,1127,1127,1127,1127,,,,,
47880840,1128,1128,1128,1128,,,,,
47883339,1128,1128,1128,1128,,,,,
47885838,1129,1129,1129,1129,,,,,
47888337,1130,1130,1130,1130,,,,,
47890836,1131,1131,1131,1131,,,,,
47893335,1131,1131,1131,1131,,,,,
47895834,1132,1132,1132,1132,,,,,
47898333,1133,1133,1133,1133,,,,,
47900832,1134,1134,1134,1134,,,,,
47903331,1134,1134,1134,1134,,,,,
47905830,1135,1135,1135,1135,,,,,
47908329,1136,1136,1136,1136,,,,,
47910828,1137,1137,1137,1137,,,,,
47913327,1137,1137,1137,1137,,,,,
47915826,1138,1138,1138,1138,,,,,
47918325,1139,1139,1139,1139,,,,,
47920824,1140,1140,1140,1140,,,,,
47923323,1140,1140,1140,1140,,,,,
47925822,1141,1141,1141,1141,,,,,
47928321,1142,1142,1142,1142,,,,,
47930820,1143,1143,1143,1143,,,,,
47933319,1143,1143,1143,1143,,,,,
47935818,1144,1144,1144,1144,,,,,
47938317,1145,1145,1145,1145,,,,,
47940816,1146,1146,1146,1146,,,,,
47943315,1146,1146,1146,1146,,,,,
47945814,1147,1147,1147,1147,,,,,
47948313,1148,1148,1148,1148,,,,,
47950812,1149,1149,1149,1149,,,,,
47953311,1149,1149,1149,1149,,,,,
47955810,1150,1150,1150,1150,,,,,
47958309,1161,1154,1154,1161,,,,,
47960808,1169,1162,1163,1169,,,,,
47963307,1177,1170,1171,1177,,,,,
47965806,1184,1178,1178,1185,,,,,
47968305,1192,1186,1186,1192,,,,,
47970804,1199,1193,1194,1200,,,,,
47973303,1207,1201,1201,1207,,,,,
47975802,1214,1208,1208,1214,,,,,
47978301,1221,1215,1215,1221,,,,,
47980800,1228,1222,1223,1228,,,,,
47983299,1235,1229,1229,1235,,,,,
47985798,1242,1236,1236,1242,,,,,
47988297,1248,1243,1243,1249,,,,,
47990796,1255,1250,1250,1255,,,,,
47993295,1261,1256,1256,1262,,,,,
47995794,1268,1263,1263,1268,,,,,
47998293,1274,1269,1269,1275,,,,,
48000792,1280,1276,1276,1281,,,,,
48003291,1287,1282,1282,1287,,,,,
48005790,1293,1288,1288,1293,,,,,
48008289,1299,1294,1294,1299,,,,,
48010788,1305,1300,1300,1305,,,,,
48013287,1311,1306,1306,1311,,,,,
48015786,1317,1312,1312,1317,,,,,
48018285,1323,1318,1318,1323,,,,,
48020784,1328,1324,1324,1329,,,,,
48023283,1334,1330,1330,1334,,,,,
48025782,1340,1335,1335,1340,,,,,
48028281,1345,1341,1341,1346,,,,,
48030780,1351,1346,1347,1351,,,,,
48033279,1356,1352,1352,1357,,,,,
48035778,1362,1357,1358,1362,,,,,
48038277,1367,1363,1363,1368,,,,,
48040776,1373,1368,1368,1373,,,,,
48043275,1378,1374,1374,1378,,,,,
48045774,1383,1379,1379,1384,,,,,
48048273,1388,1384,1384,1389,,,,,
48050772,1394,1389,1389,1394,,,,,
48053271,1399,1394,1395,1399,,,,,
48055770,1404,1400,1400,1404,,,,,
48058269,1409,1405,1405,1409,,,,,
48060768,1414,1410,1410,1414,,,,,
48063267,1419,1415,1415,1419,,,,,
48065766,1424,1420,1420,1424,,,,,
48068265,1429,1425,1425,1429,,,,,
48070764,1434,1429,1430,1434,,,,,
48073263,1439,1434,1434,1439,,,,,
48075762,1443,1439,1439,1444,,,,,
48078261,1448,1444,1444,1448,,,,,
48080760,1453,1449,1449,1453,,,,,
48083259,1458,1453,1453,1458,,,,,
48085758,1462,1458,1458,1463,,,,,
48088257,1467,1463,1463,1467,,,,,
48090756,1472,1467,1467,1472,,,,,
48093255,1476,1472,1472,1477,,,,,
48095754,1481,1477,1477,1481,,,,,
48098253,1485,1481,1481,1486,,,,,
48100752,1490,1486,1486,1490,,,,,
48103251,1494,1490,1490,1495,,,,,
48105750,1499,1494,1495,1499,,,,,
48108249,1503,1499,1499,1504,,,,,
48110748,1508,1503,1503,1508,,,,,
48113247,1512,1508,1508,1512,,,,,
48115746,1516,1512,1512,1517,,,,,
48118245,1521,1516,1516,1521,,,,,
48120744,1525,1521,1521,1525,,,,,
48123243,1529,1525,1525,1530,,,,,
48125742,1533,1529,1529,1534,,,,,
48128241,1538,1533,1534,1538,,,,,
48130740,1542,1538,1538,1542,,,,,
48133239,1546,1542,1542,1546,,,,,
48135738,1550,1546,1546,1551,,,,,
48138237,1554,1550,1550,1555,,,,,
48140736,1559,1554,1554,1559,,,,,
48143235,1563,1558,1558,1563,,,,,
48145734,1567,1563,1563,1567,,,,,
48148233,1571,1567,1567,1571,,,,,
48150732,1575,1571,1571,1575,,,,,
48153231,1579,1575,1575,1579,,,,,
48155730,1583,1579,1579,1583,,,,,
48158229,1587,1583,1583,1587,,,,,
48160728,1591,1587,1587,1591,,,,,
48163227,1595,1591,1591,1595,,,,,
48165726,1598,1595,1595,1599,,,,,
48168225,1602,1599,1599,1603,,,,,
48170724,1606,1602,1602,1607,,,,,
48173223,1610,1606,1606,1611,,,,,
48175722,1614,1610,1610,1614,,,,,
48178221,1618,1614,1614,1618,,,,,
48180720,1622,1618,1618,1622,,,,,
48183219,1625,1622,1622,1626,,,,,
48185718,1629,1625,1625,1630,,,,,
48188217,1633,1629,1629,1633,,,,,
48190716,1637,1633,1633,1637,,,,,
48193215,1640,1637,1637,1641,,,,,
48195714,1644,1640,1640,1645,,,,,
48198213,1648,1644,1644,1648,,,,,
48200712,1652,1648,1648,1652,,,,,
48203211,1655,1652,1652,1656,,,,,
48205710,1659,1655,1655,1659,,,,,
48208209,1663,1659,1659,1663,,,,,
48210708,1666,1663,1663,1667,,,,,
48213207,1670,1666,1666,1670,,,,,
48215706,1673,1670,1670,1674,,,,,
48218205,1677,1673,1673,1677,,,,,
48220704,1681,1677,1677,1681,,,,,
48223203,1684,1680,1681,1684,,,,,
48225702,1688,1684,1684,1688,,,,,
48228201,1691,1688,1688,1692,,,,,
48230700,1695,1691,1691,1695,,,,,
48233199,1698,1695,1695,1699,,,,,
48235698,1702,1698,1698,1702,,,,,
48238197,1705,1702,1702,1706,,,,,
48240696,1709,1705,1705,1709,,,,,
48243195,1712,1708,1709,1712,,,,,
48245694,1716,1712,1712,1716,,,,,
48248193,1719,1715,1716,1719,,,,,
48250692,1723,1719,1719,1723,,,,,
48253191,1726,1722,1722,1726,,,,,
48255690,1729,1726,1726,1730,,,,,
48258189,1733,1729,1729,1733,,,,,
48260688,1736,1732,1733,1736,,,,,
48263187,1740,1736,1736,1740,,,,,
48265686,1743,1739,1739,1743,,,,,
48268185,1746,1742,1743,1746,,,,,
48270684,1750,1746,1746,1750,,,,,
48273183,1753,1749,1749,1753,,,,,
48275682,1756,1752,1753,1756,,,,,
48278181,1759,1756,1756,1760,,,,,
48280680,1763,1759,1759,1763,,,,,
48283179,1766,1762,1763,1766,,,,,
48285678,1769,1766,1766,1769,,,,,
48288177,1772,1769,1769,1773,,,,,
48290676,1776,1772,1772,1776,,,,,
48293175,1779,1775,1775,1779,,,,,
48295674,1782,1779,1779,1782,,,,,
48298173,1785,1782,1782,1786,,,,,
48300672,1788,1785,1785,1789,,,,,
48303171,1792,1788,1788,1792,,,,,
48305670,1795,1792,1792,1795,,,,,
48308169,1798,1795,1795,1798,,,,,
48310668,1801,1798,1798,1802,,,,,
48313167,1804,1801,1801,1805,,,,,
48315666,1807,1804,1804,1808,,,,,
48318165,1811,1807,1807,1811,,,,,
48320664,1814,1811,1810,1814,,,,,
48323163,1817,1814,1814,1817,,,,,
48325662,1820,1817,1817,1820,,,,,
48328161,1823,1820,1820,1823,,,,,
48330660,1826,1823,1823,1827,,,,,
48333159,1829,1826,1826,1830,,,,,
48335658,1832,1829,1829,1833,,,,,
48338157,1835,1832,1832,1836,,,,,
48340656,1838,1835,1835,1839,,,,,
48343155,1841,1838,1838,1842,,,,,
48345654,1844,1841,1841,1845,,,,,
48348986,1847,1844,1844,1848,,,,,
48351485,1851,1847,1847,1851,,,,,
48353984,1854,1850,1850,1854,,,,,
48356483,1857,1853,1853,1857,,,,,
48358982,1860,1856,1856,1860,,,,,
48361481,1863,1859,1859,1863,,,,,
48363980,1866,1862,1862,1866,,,,,
48366479,1869,1865,1865,1869,,,,,
48368978,1872,1868,1868,1872,,,,,
48371477,1875,1871,1871,1875,,,,,
48373976,1878,1874,1874,1878,,,,,
48376475,1880,1877,1877,1881,,,,,
48378974,1883,1880,1880,1884,,,,,
48381473,1886,1883,1883,1887,,,,,
48383972,1889,1886,1886,1890,,,,,
48386471,1888,1885,1885,1889,,,,,
48388970,1887,1884,1884,1888,,,,,
48391469,1886,1883,1883,1887,,,,,
48393968,1885,1882,1882,1886,,,,,
48396467,1884,1881,1881,1884,,,,,
48398966,1883,1880,1880,1883,,,,,
48401465,1882,1879,1879,1883,,,,,
48403964,1881,1878,1878,1882,,,,,
48406463,1880,1877,1877,1881,,,,,
48408962,1880,1876,1876,1880,,,,,
48411461,1879,1875,1875,1879,,,,,
48413960,1878,1875,1875,1879,,,,,
48416459,1878,1874,1874,1878,,,,,
48418958,1877,1874,1874,1877,,,,,
48421457,1877,1873,1873,1877,,,,,
48423956,1876,1873,1873,1877,,,,,
48426455,1876,1873,1873,1876,,,,,
48428954,1876,1873,1873,1876,,,,,
48431453,1876,1873,1873,1876,,,,,
48433952,1876,1873,1873,1876,,,,,
48436451,1876,1873,1873,1876,,,,,
48438950,1876,1873,1873,1877,,,,,
48441449,1876,1873,1873,1877,,,,,
48443948,1877,1874,1874,1877,,,,,
48446447,1877,1874,1874,1878,,,,,
48448946,1878,1874,1874,1878,,,,,
48451445,1878,1875,1875,1878,,,,,
48453944,1879,1876,1876,1879,,,,,
48456443,1879,1876,1876,1879,,,,,
48458942,1879,1877,1877,1880,,,,,
48461441,1880,1877,1877,1880,,,,,
48463940,1880,1877,1878,1880,,,,,
48466439,1880,1878,1878,1881,,,,,
48468938,1880,1878,1878,1881,,,,,
48471437,1880,1878,1878,1880,,,,,
48473936,1880,1878,1878,1880,,,,,
48476435,1880,1877,1877,1880,,,,,
48478934,1879,1877,1877,1879,,,,,
48481433,1878,1876,1876,1878,,,,,
48483932,1877,1875,1875,1878,,,,,
48486431,1876,1874,1874,1876,,,,,
48488930,1875,1873,1873,1875,,,,,
48491429,1874,1872,1872,1874,,,,,
48493928,1872,1870,1870,1872,,,,,
48496427,1870,1868,1869,1871,,,,,
48498926,1869,1867,1867,1869,,,,,
48501425,1867,1865,1865,1867,,,,,
48503924,1864,1863,1863,1865,,,,,
48506423,1862,1860,1860,1862,,,,,
48508922,1860,1858,1858,1860,,,,,
48511421,1857,1856,1856,1858,,,,,
48513920,1855,1853,1853,1855,,,,,
48516419,1852,1851,1851,1852,,,,,
48518918,1849,1848,1848,1850,,,,,
48521417,1847,1845,1845,1847,,,,,
48523916,1844,1842,1842,1844,,,,,
48526415,1841,1839,1839,1841,,,,,
48528914,1838,1837,1837,1838,,,,,
48531413,1835,1833,1834,1835,,,,,
48533912,1832,1830,1831,1832,,,,,
48536411,1829,1827,1827,1829,,,,,
48538910,1825,1824,1824,1826,,,,,
48541409,1822,1821,1821,1823,,,,,
48543908,1819,1818,1818,1819,,,,,
48546407,1816,1815,1815,1816,,,,,
48548906,1812,1811,1811,1813,,,,,
48551405,1809,1808,1808,1810,,,,,
48553904,1806,1805,1805,1806,,,,,
48556403,1802,1802,1802,1803,,,,,
48558902,1799,1798,1798,1800,,,,,
48561401,1796,1795,1795,1796,,,,,
48563900,1792,1792,1792,1793,,,,,
48566399,1789,1788,1788,1789,,,,,
48568898,1786,1785,1785,1786,,,,,
48571397,1782,1781,1781,1783,,,,,
48573896,1779,1778,1778,1779,,,,,
48576395,1776,1775,1775,1776,,,,,
48578894,1772,1771,1772,1773,,,,,
48581393,1769,1768,1768,1769,,,,,
48583892,1766,1765,1765,1766,,,,,
48586391,1763,1762,1762,1763,,,,,
48588890,1759,1758,1759,1759,,,,,
48591389,1756,1755,1755,1756,,,,,
48593888,1753,1752,1752,1753,,,,,
48596387,1749,1748,1749,1750,,,,,
48598886,1746,1745,1746,1746,,,,,
48601385,1743,1742,1742,1743,,,,,
48603884,1740,1739,1739,1740,,,,,
48606383,1737,1736,1736,1737,,,,,
48608882,1734,1733,1733,1734,,,,,
48611381,1730,1730,1730,1730,,,,,
48613880,1727,1727,1727,1727,,,,,
48616379,1724,1724,1724,1724,,,,,
48618878,1721,1721,1721,1721,,,,,
48621377,1718,1718,1718,1718,,,,,
48623876,1715,1715,1715,1715,,,,,
48626375,1712,1712,1712,1712,,,,,
48628874,1710,1709,1709,1709,,,,,
48631373,1707,1706,1706,1707,,,,,
48633872,1704,1703,1704,1704,,,,,
48636371,1701,1700,1701,1701,,,,,
48638870,1698,1698,1698,1698,,,,,
48641369,1696,1695,1696,1696,,,,,
48643868,1693,1693,1693,1693,,,,,
48646367,1691,1690,1690,1691,,,,,
48648866,1688,1688,1688,1688,,,,,
48651365,1686,1685,1686,1686,,,,,
48653864,1683,1683,1683,1683,,,,,
48656363,1681,1681,1681,1681,,,,,
48658862,1678,1678,1679,1678,,,,,
48661361,1676,1676,1676,1676,,,,,
48663860,1674,1674,1674,1674,,,,,
48666359,1672,1672,1672,1672,,,,,
48668858,1670,1670,1670,1670,,,,,
48671357,1668,1668,1668,1668,,,,,
48673856,1666,1666,1666,1666,,,,,
48676355,1664,1664,1664,1664,,,,,
48678854,1662,1662,1662,1662,,,,,
48681353,1660,1660,1660,1660,,,,,
48683852,1658,1658,1659,1658,,,,,
48686351,1656,1656,1657,1656,,,,,
48688850,1654,1655,1655,1654,,,,,
48691349,1652,1653,1653,1652,,,,,
48693848,1651,1651,1652,1651,,,,,
48696347,1649,1650,1650,1649,,,,,
48698846,1647,1648,1648,1647,,,,,
48701345,1646,1647,1647,1646,,,,,
48703844,1644,1645,1645,1644,,,,,
48706343,1643,1644,1644,1643,,,,,
48708842,1642,1642,1643,1642,,,,,
48711341,1640,1641,1641,1640,,,,,
48713840,1639,1640,1640,1639,,,,,
48716339,1638,1639,1639,1638,,,,,
48718838,1637,1638,1638,1637,,,,,
48721337,1636,1636,1637,1636,,,,,
48723836,1635,1635,1636,1635,,,,,
48726335,1634,1634,1635,1634,,,,,
48728834,1633,1633,1634,1633,,,,,
