timestamp,TimeUS,C1,C2,C3,C4,C5,C6,C7,C8,C9,C10,C11,C12,C13,C14
1683114863.40000010,69028211,1000,1000,1000,1000,0,0,0,0,0,0,0,0,0,0
1683114863.49995995,69128171,1000,1000,1000,1000,0,0,0,0,0,0,0,0,0,0
1683114863.60075307,69228964,1000,1000,1000,1000,0,0,0,0,0,0,0,0,0,0
1683114863.70071292,69328924,1000,1000,1000,1000,0,0,0,0,0,0,0,0,0,0
1683114863.80067301,69428884,1000,1000,1000,1000,0,0,0,0,0,0,0,0,0,0
1683114863.90063310,69528844,1000,1000,1000,1000,0,0,0,0,0,0,0,0,0,0
1683114864.00059295,69628804,1000,1000,1000,1000,0,0,0,0,0,0,0,0,0,0
1683114864.10055304,69728764,1000,1000,1000,1000,0,0,0,0,0,0,0,0,0,0
1683114864.20051289,69828724,1000,1000,1000,1000,0,0,0,0,0,0,0,0,0,0
1683114864.30047297,69928684,1000,1000,1000,1000,0,0,0,0,0,0,0,0,0,0
1683114864.40043306,70028644,1000,1000,1000,1000,0,0,0,0,0,0,0,0,0,0
1683114864.50039291,70128604,1000,1000,1000,1000,0,0,0,0,0,0,0,0,0,0
1683114864.60035300,70228564,1000,1000,1000,1000,0,0,0,0,0,0,0,0,0,0
1683114864.70031309,70328524,1000,1000,1000,1000,0,0,0,0,0,0,0,0,0,0
1683114864.80027294,70428484,1000,1000,1000,1000,0,0,0,0,0,0,0,0,0,0
1683114864.90023303,70528444,1000,1000,1000,1000,0,0,0,0,0,0,0,0,0,0
1683114865.00019288,70628404,1000,1000,1000,1000,0,0,0,0,0,0,0,0,0,0
1683114865.10015297,70728364,1000,1000,1000,1000,0,0,0,0,0,0,0,0,0,0
1683114865.20011306,70828324,1000,1000,1000,1000,0,0,0,0,0,0,0,0,0,0
1683114865.30007291,70928284,1000,1000,1000,1000,0,0,0,0,0,0,0,0,0,0
1683114865.40003300,71028244,1006,1006,1006,1006,0,0,0,0,0,0,0,0,0,0
1683114865.49999309,71128204,1036,1036,1036,1036,0,0,0,0,0,0,0,0,0,0
1683114865.59995294,71228164,1066,1066,1066,1066,0,0,0,0,0,0,0,0,0,0
1683114865.70074606,71328957,1096,1096,1096,1096,0,0,0,0,0,0,0,0,0,0
1683114865.80070591,71428917,1125,1125,1125,1125,0,0,0,0,0,0,0,0,0,0
1683114865.90066600,71528877,1209,1198,1199,1210,0,0,0,0,0,0,0,0,0,0
1683114866.00062609,71628837,1440,1432,1433,1440,0,0,0,0,0,0,0,0,0,0
1683114866.10058594,71728797,1611,1605,1605,1612,0,0,0,0,0,0,0,0,0,0
1683114866.20054603,71828757,1754,1748,1748,1754,0,0,0,0,0,0,0,0,0,0
1683114866.30050588,71928717,1879,1872,1873,1879,0,0,0,0,0,0,0,0,0,0
1683114866.40046597,72028677,1912,1909,1909,1913,0,0,0,0,0,0,0,0,0,0
1683114866.50042605,72128637,1801,1799,1800,1801,0,0,0,0,0,0,0,0,0,0
1683114866.60038590,72228597,1690,1692,1692,1691,0,0,0,0,0,0,0,0,0,0
1683114866.70034599,72328557,1643,1646,1646,1644,0,0,0,0,0,0,0,0,0,0
1683114866.80030608,72428517,1640,1644,1644,1641,0,0,0,0,0,0,0,0,0,0
1683114866.90026593,72528477,1642,1641,1638,1645,0,0,0,0,0,0,0,0,0,0
1683114867.00022602,72628437,1635,1638,1629,1643,0,0,0,0,0,0,0,0,0,0
1683114867.10018587,72728397,1627,1629,1624,1633,0,0,0,0,0,0,0,0,0,0
1683114867.20014596,72828357,1620,1621,1620,1621,0,0,0,0,0,0,0,0,0,0
1683114867.30010605,72928317,1618,1616,1620,1614,0,0,0,0,0,0,0,0,0,0
1683114867.40006590,73028277,1618,1615,1621,1612,0,0,0,0,0,0,0,0,0,0
1683114867.50002599,73128237,1605,1603,1611,1597,0,0,0,0,0,0,0,0,0,0
1683114867.59998608,73228197,1583,1583,1598,1567,0,0,0,0,0,0,0,0,0,0
1683114867.69994593,73328157,1569,1570,1578,1561,0,0,0,0,0,0,0,0,0,0
1683114867.80073905,73428950,1558,1559,1558,1560,0,0,0,0,0,0,0,0,0,0
1683114867.90069890,73528910,1549,1549,1543,1556,0,0,0,0,0,0,0,0,0,0
1683114868.00065899,73628870,1542,1541,1530,1553,0,0,0,0,0,0,0,0,0,0
1683114868.10061908,73728830,1538,1536,1526,1548,0,0,0,0,0,0,0,0,0,0
1683114868.20057893,73828790,1532,1531,1524,1537,0,0,0,0,0,0,0,0,0,0
1683114868.30053902,73928750,1528,1526,1524,1528,0,0,0,0,0,0,0,0,0,0
1683114868.40049887,74028710,1524,1524,1525,1522,0,0,0,0,0,0,0,0,0,0
1683114868.50045896,74128670,1525,1526,1528,1523,0,0,0,0,0,0,0,0,0,0
1683114868.60041904,74228630,1529,1529,1531,1526,0,0,0,0,0,0,0,0,0,0
1683114868.70037889,74328590,1532,1532,1535,1530,0,0,0,0,0,0,0,0,0,0
1683114868.80033898,74428550,1536,1536,1538,1534,0,0,0,0,0,0,0,0,0,0
1683114868.90029907,74528510,1539,1539,1541,1538,0,0,0,0,0,0,0,0,0,0
1683114869.00025892,74628470,1543,1543,1544,1542,0,0,0,0,0,0,0,0,0,0
1683114869.10021901,74728430,1546,1546,1547,1547,0,0,0,0,0,0,0,0,0,0
1683114869.20017886,74828390,1550,1550,1550,1550,0,0,0,0,0,0,0,0,0,0
1683114869.30013895,74928350,1553,1553,1552,1554,0,0,0,0,0,0,0,0,0,0
1683114869.40009904,75028310,1554,1554,1553,1556,0,0,0,0,0,0,0,0,0,0
1683114869.50005889,75128270,1559,1559,1555,1557,0,0,0,0,0,0,0,0,0,0
1683114869.60001898,75228230,1560,1559,1558,1559,0,0,0,0,0,0,0,0,0,0
1683114869.69997907,75328190,1561,1560,1562,1563,0,0,0,0,0,0,0,0,0,0
1683114869.80077195,75428983,1561,1561,1566,1566,0,0,0,0,0,0,0,0,0,0
1683114869.90073204,75528943,1562,1562,1567,1567,0,0,0,0,0,0,0,0,0,0
1683114870.00069189,75628903,1563,1563,1569,1569,0,0,0,0,0,0,0,0,0,0
1683114870.10065198,75728863,1565,1565,1570,1570,0,0,0,0,0,0,0,0,0,0
1683114870.20061207,75828823,1566,1567,1570,1570,0,0,0,0,0,0,0,0,0,0
1683114870.30057192,75928783,1567,1567,1569,1569,0,0,0,0,0,0,0,0,0,0
1683114870.40053201,76028743,1570,1570,1569,1570,0,0,0,0,0,0,0,0,0,0
1683114870.50049210,76128703,1570,1571,1569,1570,0,0,0,0,0,0,0,0,0,0
1683114870.60045195,76228663,1573,1573,1570,1571,0,0,0,0,0,0,0,0,0,0
1683114870.70041203,76328623,1574,1574,1571,1570,0,0,0,0,0,0,0,0,0,0
1683114870.80037189,76428583,1575,1575,1572,1571,0,0,0,0,0,0,0,0,0,0
1683114870.90033197,76528543,1576,1575,1573,1571,0,0,0,0,0,0,0,0,0,0
1683114871.00029206,76628503,1576,1576,1574,1572,0,0,0,0,0,0,0,0,0,0
1683114871.10025191,76728463,1576,1576,1574,1573,0,0,0,0,0,0,0,0,0,0
1683114871.20021200,76828423,1576,1575,1574,1573,0,0,0,0,0,0,0,0,0,0
1683114871.30017209,76928383,1575,1575,1574,1574,0,0,0,0,0,0,0,0,0,0
1683114871.40013194,77028343,1575,1575,1575,1575,0,0,0,0,0,0,0,0,0,0
1683114871.50009203,77128303,1575,1575,1575,1576,0,0,0,0,0,0,0,0,0,0
1683114871.60005188,77228263,1576,1576,1577,1577,0,0,0,0,0,0,0,0,0,0
1683114871.70001197,77328223,1575,1575,1576,1576,0,0,0,0,0,0,0,0,0,0
1683114871.79997206,77428183,1575,1576,1576,1577,0,0,0,0,0,0,0,0,0,0
1683114871.90076494,77528976,1576,1577,1578,1578,0,0,0,0,0,0,0,0,0,0
1683114872.00072503,77628936,1576,1576,1577,1576,0,0,0,0,0,0,0,0,0,0
1683114872.10068488,77728896,1577,1577,1578,1578,0,0,0,0,0,0,0,0,0,0
1683114872.20064497,77828856,1577,1577,1578,1577,0,0,0,0,0,0,0,0,0,0
1683114872.30060506,77928816,1578,1578,1578,1578,0,0,0,0,0,0,0,0,0,0
1683114872.40056491,78028776,1578,1578,1579,1578,0,0,0,0,0,0,0,0,0,0
1683114872.50052500,78128736,1579,1579,1579,1579,0,0,0,0,0,0,0,0,0,0
1683114872.60048509,78228696,1578,1579,1578,1578,0,0,0,0,0,0,0,0,0,0
1683114872.70044494,78328656,1578,1578,1578,1578,0,0,0,0,0,0,0,0,0,0
1683114872.80040503,78428616,1578,1578,1578,1578,0,0,0,0,0,0,0,0,0,0
1683114872.90036488,78528576,1578,1578,1578,1578,0,0,0,0,0,0,0,0,0,0
1683114873.00032496,78628536,1578,1578,1578,1578,0,0,0,0,0,0,0,0,0,0
1683114873.10028505,78728496,1579,1579,1579,1579,0,0,0,0,0,0,0,0,0,0
1683114873.20024490,78828456,1579,1579,1579,1579,0,0,0,0,0,0,0,0,0,0
1683114873.30020499,78928416,1578,1578,1579,1578,0,0,0,0,0,0,0,0,0,0
1683114873.40016508,79028376,1579,1579,1579,1579,0,0,0,0,0,0,0,0,0,0
1683114873.50012493,79128336,1578,1578,1578,1578,0,0,0,0,0,0,0,0,0,0
1683114873.60008502,79228296,1579,1579,1579,1579,0,0,0,0,0,0,0,0,0,0
1683114873.70004487,79328256,1580,1579,1580,1580,0,0,0,0,0,0,0,0,0,0
1683114873.80000496,79428216,1580,1579,1580,1579,0,0,0,0,0,0,0,0,0,0
1683114873.89996505,79528176,1579,1579,1579,1579,0,0,0,0,0,0,0,0,0,0
1683114874.00075793,79628969,1579,1579,1579,1579,0,0,0,0,0,0,0,0,0,0
1683114874.10071802,79728929,1580,1579,1580,1580,0,0,0,0,0,0,0,0,0,0
1683114874.20067787,79828889,1579,1579,1579,1579,0,0,0,0,0,0,0,0,0,0
1683114874.30063796,79928849,1579,1579,1579,1579,0,0,0,0,0,0,0,0,0,0
1683114874.40059805,80028809,1579,1580,1580,1579,0,0,0,0,0,0,0,0,0,0
1683114874.50055790,80128769,1579,1580,1580,1580,0,0,0,0,0,0,0,0,0,0
1683114874.60051799,80228729,1580,1579,1580,1579,0,0,0,0,0,0,0,0,0,0
1683114874.70047808,80328689,1581,1581,1581,1580,0,0,0,0,0,0,0,0,0,0
1683114874.80043793,80428649,1581,1581,1581,1581,0,0,0,0,0,0,0,0,0,0
1683114874.90039802,80528609,1582,1581,1581,1582,0,0,0,0,0,0,0,0,0,0
1683114875.00035787,80628569,1581,1581,1581,1581,0,0,0,0,0,0,0,0,0,0
1683114875.10031796,80728529,1582,1582,1582,1582,0,0,0,0,0,0,0,0,0,0
1683114875.20027804,80828489,1580,1581,1580,1581,0,0,0,0,0,0,0,0,0,0
1683114875.30023789,80928449,1581,1581,1581,1581,0,0,0,0,0,0,0,0,0,0
1683114875.40019798,81028409,1580,1580,1581,1580,0,0,0,0,0,0,0,0,0,0
1683114875.50015807,81128369,1580,1580,1580,1580,0,0,0,0,0,0,0,0,0,0
1683114875.60011792,81228329,1581,1581,1581,1580,0,0,0,0,0,0,0,0,0,0
1683114875.70007801,81328289,1580,1581,1587,1573,0,0,0,0,0,0,0,0,0,0
1683114875.80003786,81428249,1580,1582,1585,1573,0,0,0,0,0,0,0,0,0,0
1683114875.89999795,81528209,1579,1582,1576,1574,0,0,0,0,0,0,0,0,0,0
1683114875.99995804,81628169,1577,1580,1568,1572,0,0,0,0,0,0,0,0,0,0
1683114876.10075092,81728962,1577,1579,1561,1568,0,0,0,0,0,0,0,0,0,0
1683114876.20071101,81828922,1578,1578,1557,1563,0,0,0,0,0,0,0,0,0,0
1683114876.30067086,81928882,1579,1577,1555,1558,0,0,0,0,0,0,0,0,0,0
1683114876.40063095,82028842,1579,1578,1554,1555,0,0,0,0,0,0,0,0,0,0
1683114876.50059104,82128802,1579,1578,1555,1554,0,0,0,0,0,0,0,0,0,0
1683114876.60055089,82228762,1578,1578,1556,1552,0,0,0,0,0,0,0,0,0,0
1683114876.70051098,82328722,1578,1578,1556,1553,0,0,0,0,0,0,0,0,0,0
1683114876.80047107,82428682,1576,1577,1555,1554,0,0,0,0,0,0,0,0,0,0
1683114876.90043092,82528642,1575,1576,1554,1554,0,0,0,0,0,0,0,0,0,0
1683114877.00039101,82628602,1575,1577,1553,1553,0,0,0,0,0,0,0,0,0,0
1683114877.10035110,82728562,1575,1577,1551,1551,0,0,0,0,0,0,0,0,0,0
1683114877.20031095,82828522,1576,1578,1549,1549,0,0,0,0,0,0,0,0,0,0
1683114877.30027103,82928482,1578,1579,1547,1546,0,0,0,0,0,0,0,0,0,0
1683114877.40023088,83028442,1581,1582,1545,1544,0,0,0,0,0,0,0,0,0,0
1683114877.50019097,83128402,1584,1585,1542,1542,0,0,0,0,0,0,0,0,0,0
1683114877.60015106,83228362,1588,1588,1540,1539,0,0,0,0,0,0,0,0,0,0
1683114877.70011091,83328322,1590,1591,1537,1537,0,0,0,0,0,0,0,0,0,0
1683114877.80007100,83428282,1593,1594,1536,1536,0,0,0,0,0,0,0,0,0,0
1683114877.90003109,83528242,1594,1593,1534,1535,0,0,0,0,0,0,0,0,0,0
1683114877.99999094,83628202,1596,1595,1535,1537,0,0,0,0,0,0,0,0,0,0
1683114878.09995103,83728162,1595,1594,1536,1539,0,0,0,0,0,0,0,0,0,0
1683114878.20074391,83828955,1593,1592,1541,1544,0,0,0,0,0,0,0,0,0,0
1683114878.30070400,83928915,1588,1587,1546,1550,0,0,0,0,0,0,0,0,0,0
1683114878.40066409,84028875,1582,1579,1554,1558,0,0,0,0,0,0,0,0,0,0
1683114878.50062394,84128835,1574,1570,1565,1568,0,0,0,0,0,0,0,0,0,0
1683114878.60058403,84228795,1563,1559,1577,1579,0,0,0,0,0,0,0,0,0,0
1683114878.70054388,84328755,1551,1548,1589,1590,0,0,0,0,0,0,0,0,0,0
1683114878.80050397,84428715,1541,1539,1601,1600,0,0,0,0,0,0,0,0,0,0
1683114878.90046406,84528675,1533,1532,1609,1608,0,0,0,0,0,0,0,0,0,0
1683114879.00042391,84628635,1528,1530,1614,1613,0,0,0,0,0,0,0,0,0,0
1683114879.10038400,84728595,1529,1531,1616,1615,0,0,0,0,0,0,0,0,0,0
1683114879.20034409,84828555,1533,1535,1614,1613,0,0,0,0,0,0,0,0,0,0
1683114879.30030394,84928515,1539,1541,1609,1609,0,0,0,0,0,0,0,0,0,0
1683114879.40026402,85028475,1547,1548,1601,1602,0,0,0,0,0,0,0,0,0,0
1683114879.50022388,85128435,1555,1556,1594,1595,0,0,0,0,0,0,0,0,0,0
1683114879.60018396,85228395,1564,1564,1587,1586,0,0,0,0,0,0,0,0,0,0
1683114879.70014405,85328355,1572,1572,1580,1579,0,0,0,0,0,0,0,0,0,0
1683114879.80010390,85428315,1579,1578,1574,1573,0,0,0,0,0,0,0,0,0,0
1683114879.90006399,85528275,1584,1582,1570,1569,0,0,0,0,0,0,0,0,0,0
1683114880.00002408,85628235,1586,1585,1567,1566,0,0,0,0,0,0,0,0,0,0
1683114880.09998393,85728195,1587,1587,1566,1566,0,0,0,0,0,0,0,0,0,0
1683114880.19994402,85828155,1587,1586,1566,1567,0,0,0,0,0,0,0,0,0,0
1683114880.30073690,85928948,1585,1584,1568,1568,0,0,0,0,0,0,0,0,0,0
1683114880.40069699,86028908,1583,1582,1571,1571,0,0,0,0,0,0,0,0,0,0
1683114880.50065708,86128868,1579,1579,1573,1573,0,0,0,0,0,0,0,0,0,0
1683114880.60061693,86228828,1577,1577,1577,1577,0,0,0,0,0,0,0,0,0,0
1683114880.70057702,86328788,1575,1575,1579,1580,0,0,0,0,0,0,0,0,0,0
1683114880.80053687,86428748,1573,1574,1582,1582,0,0,0,0,0,0,0,0,0,0
1683114880.90049696,86528708,1571,1572,1582,1582,0,0,0,0,0,0,0,0,0,0
1683114881.00045705,86628668,1571,1573,1583,1583,0,0,0,0,0,0,0,0,0,0
1683114881.10041690,86728628,1571,1572,1583,1583,0,0,0,0,0,0,0,0,0,0
1683114881.20037699,86828588,1574,1575,1584,1583,0,0,0,0,0,0,0,0,0,0
1683114881.30033708,86928548,1575,1575,1582,1582,0,0,0,0,0,0,0,0,0,0
1683114881.40029693,87028508,1577,1576,1581,1581,0,0,0,0,0,0,0,0,0,0
1683114881.50025702,87128468,1578,1577,1579,1580,0,0,0,0,0,0,0,0,0,0
1683114881.60021687,87228428,1580,1579,1579,1579,0,0,0,0,0,0,0,0,0,0
1683114881.70017695,87328388,1580,1580,1578,1578,0,0,0,0,0,0,0,0,0,0
1683114881.80013704,87428348,1581,1581,1578,1577,0,0,0,0,0,0,0,0,0,0
1683114881.90009689,87528308,1581,1581,1577,1577,0,0,0,0,0,0,0,0,0,0
1683114882.00005698,87628268,1337,1339,1621,1626,0,0,0,0,0,0,0,0,0,0
1683114882.10001707,87728228,1413,1419,1643,1649,0,0,0,0,0,0,0,0,0,0
1683114882.19997692,87828188,1473,1482,1636,1633,0,0,0,0,0,0,0,0,0,0
1683114882.30077004,87928981,1526,1533,1624,1616,0,0,0,0,0,0,0,0,0,0
1683114882.40072989,88028941,1567,1569,1614,1605,0,0,0,0,0,0,0,0,0,0
1683114882.50068998,88128901,1598,1592,1607,1601,0,0,0,0,0,0,0,0,0,0
1683114882.60065007,88228861,1628,1614,1591,1589,0,0,0,0,0,0,0,0,0,0
1683114882.70060992,88328821,1650,1636,1560,1567,0,0,0,0,0,0,0,0,0,0
1683114882.80057001,88428781,1650,1640,1527,1541,0,0,0,0,0,0,0,0,0,0
1683114882.90052986,88528741,1650,1649,1544,1555,0,0,0,0,0,0,0,0,0,0
1683114883.00048995,88628701,1643,1650,1560,1564,0,0,0,0,0,0,0,0,0,0
1683114883.10045004,88728661,1640,1650,1578,1577,0,0,0,0,0,0,0,0,0,0
1683114883.20040989,88828621,1638,1645,1590,1584,0,0,0,0,0,0,0,0,0,0
1683114883.30036998,88928581,1629,1633,1586,1581,0,0,0,0,0,0,0,0,0,0
1683114883.40033007,89028541,1623,1623,1582,1579,0,0,0,0,0,0,0,0,0,0
1683114883.50028992,89128501,1617,1615,1579,1578,0,0,0,0,0,0,0,0,0,0
1683114883.60025001,89228461,1612,1609,1576,1577,0,0,0,0,0,0,0,0,0,0
1683114883.70021009,89328421,1609,1600,1578,1569,0,0,0,0,0,0,0,0,0,0
1683114883.80016994,89428381,1603,1594,1573,1569,0,0,0,0,0,0,0,0,0,0
1683114883.90013003,89528341,1596,1590,1566,1568,0,0,0,0,0,0,0,0,0,0
1683114884.00008988,89628301,1588,1588,1560,1563,0,0,0,0,0,0,0,0,0,0
1683114884.10004997,89728261,1581,1585,1555,1557,0,0,0,0,0,0,0,0,0,0
1683114884.20001006,89828221,1576,1582,1554,1552,0,0,0,0,0,0,0,0,0,0
1683114884.29996991,89928181,1574,1579,1553,1549,0,0,0,0,0,0,0,0,0,0
1683114884.40076303,90028974,1574,1576,1553,1548,0,0,0,0,0,0,0,0,0,0
1683114884.50072289,90128934,1573,1574,1552,1548,0,0,0,0,0,0,0,0,0,0
1683114884.60068297,90228894,1860,1859,1534,1530,0,0,0,0,0,0,0,0,0,0
1683114884.70064306,90328854,1780,1777,1467,1461,0,0,0,0,0,0,0,0,0,0
1683114884.80060291,90428814,1725,1724,1457,1458,0,0,0,0,0,0,0,0,0,0
1683114884.90056300,90528774,1675,1677,1462,1466,0,0,0,0,0,0,0,0,0,0
1683114885.00052309,90628734,1629,1634,1473,1478,0,0,0,0,0,0,0,0,0,0
1683114885.10048294,90728694,1587,1593,1491,1496,0,0,0,0,0,0,0,0,0,0
1683114885.20044303,90828654,1535,1541,1527,1532,0,0,0,0,0,0,0,0,0,0
1683114885.30040288,90928614,1479,1483,1573,1578,0,0,0,0,0,0,0,0,0,0
1683114885.40036297,91028574,1439,1441,1609,1613,0,0,0,0,0,0,0,0,0,0
1683114885.50032306,91128534,1432,1432,1621,1624,0,0,0,0,0,0,0,0,0,0
1683114885.60028291,91228494,1447,1447,1618,1619,0,0,0,0,0,0,0,0,0,0
1683114885.70024300,91328454,1470,1470,1608,1608,0,0,0,0,0,0,0,0,0,0
1683114885.80020308,91428414,1494,1496,1596,1595,0,0,0,0,0,0,0,0,0,0
1683114885.90016294,91528374,1517,1519,1584,1583,0,0,0,0,0,0,0,0,0,0
1683114886.00012302,91628334,1536,1538,1573,1572,0,0,0,0,0,0,0,0,0,0
1683114886.10008287,91728294,1553,1554,1565,1563,0,0,0,0,0,0,0,0,0,0
1683114886.20004296,91828254,1567,1566,1556,1556,0,0,0,0,0,0,0,0,0,0
1683114886.30000305,91928214,1578,1576,1551,1551,0,0,0,0,0,0,0,0,0,0
1683114886.39996290,92028174,1586,1583,1548,1548,0,0,0,0,0,0,0,0,0,0
1683114886.50075603,92128967,1592,1588,1547,1548,0,0,0,0,0,0,0,0,0,0
1683114886.60071588,92228927,1594,1590,1548,1549,0,0,0,0,0,0,0,0,0,0
1683114886.70067596,92328887,1592,1587,1552,1554,0,0,0,0,0,0,0,0,0,0
1683114886.80063605,92428847,1584,1580,1559,1560,0,0,0,0,0,0,0,0,0,0
1683114886.90059590,92528807,1575,1573,1569,1570,0,0,0,0,0,0,0,0,0,0
1683114887.00055599,92628767,1565,1564,1580,1580,0,0,0,0,0,0,0,0,0,0
1683114887.10051608,92728727,1556,1556,1590,1589,0,0,0,0,0,0,0,0,0,0
1683114887.20047593,92828687,1549,1550,1596,1595,0,0,0,0,0,0,0,0,0,0
1683114887.30043602,92928647,1546,1548,1600,1599,0,0,0,0,0,0,0,0,0,0
1683114887.40039587,93028607,1546,1547,1601,1600,0,0,0,0,0,0,0,0,0,0
1683114887.50035596,93128567,1546,1548,1599,1599,0,0,0,0,0,0,0,0,0,0
1683114887.60031605,93228527,1550,1552,1598,1598,0,0,0,0,0,0,0,0,0,0
1683114887.70027590,93328487,1554,1555,1594,1595,0,0,0,0,0,0,0,0,0,0
1683114887.80023599,93428447,1558,1558,1590,1591,0,0,0,0,0,0,0,0,0,0
1683114887.90019608,93528407,1562,1562,1586,1587,0,0,0,0,0,0,0,0,0,0
1683114888.00015593,93628367,1567,1567,1583,1583,0,0,0,0,0,0,0,0,0,0
1683114888.10011601,93728327,1572,1572,1580,1579,0,0,0,0,0,0,0,0,0,0
1683114888.20007586,93828287,1576,1576,1577,1576,0,0,0,0,0,0,0,0,0,0
1683114888.30003595,93928247,1579,1579,1573,1572,0,0,0,0,0,0,0,0,0,0
1683114888.39999604,94028207,1583,1583,1571,1571,0,0,0,0,0,0,0,0,0,0
1683114888.49995589,94128167,1585,1584,1569,1569,0,0,0,0,0,0,0,0,0,0
1683114888.60074902,94228960,1586,1585,1569,1570,0,0,0,0,0,0,0,0,0,0
1683114888.70070887,94328920,1585,1585,1569,1570,0,0,0,0,0,0,0,0,0,0
1683114888.80066895,94428880,1584,1584,1571,1571,0,0,0,0,0,0,0,0,0,0
1683114888.90062904,94528840,1583,1583,1574,1574,0,0,0,0,0,0,0,0,0,0
1683114889.00058889,94628800,1581,1581,1576,1576,0,0,0,0,0,0,0,0,0,0
1683114889.10054898,94728760,1579,1579,1579,1578,0,0,0,0,0,0,0,0,0,0
1683114889.20050907,94828720,1577,1577,1580,1580,0,0,0,0,0,0,0,0,0,0
1683114889.30046892,94928680,1576,1577,1581,1581,0,0,0,0,0,0,0,0,0,0
1683114889.40042901,95028640,1574,1575,1581,1582,0,0,0,0,0,0,0,0,0,0
1683114889.50038886,95128600,1574,1574,1582,1582,0,0,0,0,0,0,0,0,0,0
1683114889.60034895,95228560,1575,1575,1583,1583,0,0,0,0,0,0,0,0,0,0
1683114889.70030904,95328520,1575,1576,1582,1582,0,0,0,0,0,0,0,0,0,0
1683114889.80026889,95428480,1577,1577,1582,1582,0,0,0,0,0,0,0,0,0,0
1683114889.90022898,95528440,1578,1578,1581,1582,0,0,0,0,0,0,0,0,0,0
1683114890.00018907,95628400,1579,1578,1580,1580,0,0,0,0,0,0,0,0,0,0
1683114890.10014892,95728360,1579,1579,1579,1579,0,0,0,0,0,0,0,0,0,0
1683114890.20010900,95828320,1580,1581,1580,1578,0,0,0,0,0,0,0,0,0,0
1683114890.30006909,95928280,1580,1580,1578,1577,0,0,0,0,0,0,0,0,0,0
1683114890.40002894,96028240,1581,1581,1578,1578,0,0,0,0,0,0,0,0,0,0
1683114890.49998903,96128200,1582,1582,1578,1579,0,0,0,0,0,0,0,0,0,0
1683114890.59994888,96228160,1582,1582,1579,1579,0,0,0,0,0,0,0,0,0,0
1683114890.70074201,96328953,1582,1581,1579,1580,0,0,0,0,0,0,0,0,0,0
1683114890.80070210,96428913,1582,1581,1580,1580,0,0,0,0,0,0,0,0,0,0
1683114890.90066195,96528873,1580,1581,1580,1580,0,0,0,0,0,0,0,0,0,0
1683114891.00062203,96628833,1580,1581,1580,1580,0,0,0,0,0,0,0,0,0,0
1683114891.10058188,96728793,1580,1580,1580,1580,0,0,0,0,0,0,0,0,0,0
1683114891.20054197,96828753,1580,1580,1581,1581,0,0,0,0,0,0,0,0,0,0
1683114891.30050206,96928713,1579,1579,1580,1580,0,0,0,0,0,0,0,0,0,0
1683114891.40046191,97028673,1580,1580,1582,1582,0,0,0,0,0,0,0,0,0,0
1683114891.50042200,97128633,1580,1580,1581,1582,0,0,0,0,0,0,0,0,0,0
1683114891.60038209,97228593,1580,1581,1581,1581,0,0,0,0,0,0,0,0,0,0
1683114891.70034194,97328553,1580,1581,1581,1581,0,0,0,0,0,0,0,0,0,0
1683114891.80030203,97428513,1580,1580,1580,1581,0,0,0,0,0,0,0,0,0,0
1683114891.90026188,97528473,1580,1580,1581,1580,0,0,0,0,0,0,0,0,0,0
1683114892.00022197,97628433,1581,1581,1581,1581,0,0,0,0,0,0,0,0,0,0
1683114892.10018206,97728393,1581,1581,1581,1581,0,0,0,0,0,0,0,0,0,0
1683114892.20014191,97828353,1582,1582,1581,1581,0,0,0,0,0,0,0,0,0,0
1683114892.30010200,97928313,1582,1583,1588,1574,0,0,0,0,0,0,0,0,0,0
1683114892.40006208,98028273,1581,1584,1585,1574,0,0,0,0,0,0,0,0,0,0
1683114892.50002193,98128233,1579,1582,1577,1573,0,0,0,0,0,0,0,0,0,0
1683114892.59998202,98228193,1577,1580,1567,1571,0,0,0,0,0,0,0,0,0,0
1683114892.70077491,98328986,1577,1579,1560,1568,0,0,0,0,0,0,0,0,0,0
1683114892.80073500,98428946,1578,1579,1556,1563,0,0,0,0,0,0,0,0,0,0
1683114892.90069509,98528906,1580,1578,1555,1559,0,0,0,0,0,0,0,0,0,0
1683114893.00065494,98628866,1581,1578,1556,1556,0,0,0,0,0,0,0,0,0,0
1683114893.10061502,98728826,1581,1579,1556,1554,0,0,0,0,0,0,0,0,0,0
1683114893.20057487,98828786,1579,1579,1556,1554,0,0,0,0,0,0,0,0,0,0
1683114893.30053496,98928746,1578,1578,1556,1554,0,0,0,0,0,0,0,0,0,0
1683114893.40049505,99028706,1576,1577,1555,1554,0,0,0,0,0,0,0,0,0,0
1683114893.50045490,99128666,1575,1577,1554,1554,0,0,0,0,0,0,0,0,0,0
1683114893.60041499,99228626,1574,1576,1553,1553,0,0,0,0,0,0,0,0,0,0
1683114893.70037508,99328586,1576,1577,1553,1553,0,0,0,0,0,0,0,0,0,0
1683114893.80033493,99428546,1577,1578,1551,1551,0,0,0,0,0,0,0,0,0,0
1683114893.90029502,99528506,1579,1580,1549,1549,0,0,0,0,0,0,0,0,0,0
1683114894.00025487,99628466,1581,1582,1546,1546,0,0,0,0,0,0,0,0,0,0
1683114894.10021496,99728426,1584,1584,1544,1543,0,0,0,0,0,0,0,0,0,0
1683114894.20017505,99828386,1587,1588,1542,1541,0,0,0,0,0,0,0,0,0,0
1683114894.30013490,99928346,1589,1590,1539,1539,0,0,0,0,0,0,0,0,0,0
1683114894.40009499,100028306,1592,1592,1537,1537,0,0,0,0,0,0,0,0,0,0
1683114894.50005507,100128266,1594,1594,1536,1536,0,0,0,0,0,0,0,0,0,0
1683114894.60001493,100228226,1595,1596,1535,1537,0,0,0,0,0,0,0,0,0,0
1683114894.69997501,100328186,1595,1594,1536,1538,0,0,0,0,0,0,0,0,0,0
1683114894.80076790,100428979,1593,1591,1539,1542,0,0,0,0,0,0,0,0,0,0
1683114894.90072799,100528939,1590,1587,1546,1549,0,0,0,0,0,0,0,0,0,0
1683114895.00068808,100628899,1582,1579,1554,1557,0,0,0,0,0,0,0,0,0,0
1683114895.10064793,100728859,1573,1569,1566,1568,0,0,0,0,0,0,0,0,0,0
1683114895.20060802,100828819,1563,1559,1578,1580,0,0,0,0,0,0,0,0,0,0
1683114895.30056787,100928779,1552,1548,1591,1591,0,0,0,0,0,0,0,0,0,0
1683114895.40052795,101028739,1540,1539,1601,1601,0,0,0,0,0,0,0,0,0,0
1683114895.50048804,101128699,1534,1534,1609,1608,0,0,0,0,0,0,0,0,0,0
1683114895.60044789,101228659,1531,1533,1613,1612,0,0,0,0,0,0,0,0,0,0
1683114895.70040798,101328619,1532,1534,1612,1612,0,0,0,0,0,0,0,0,0,0
1683114895.80036807,101428579,1537,1539,1611,1611,0,0,0,0,0,0,0,0,0,0
1683114895.90032792,101528539,1543,1544,1607,1607,0,0,0,0,0,0,0,0,0,0
1683114896.00028801,101628499,1550,1551,1603,1603,0,0,0,0,0,0,0,0,0,0
1683114896.10024786,101728459,1556,1557,1596,1596,0,0,0,0,0,0,0,0,0,0
1683114896.20020795,101828419,1563,1563,1590,1590,0,0,0,0,0,0,0,0,0,0
1683114896.30016804,101928379,1571,1571,1584,1583,0,0,0,0,0,0,0,0,0,0
1683114896.40012789,102028339,1577,1576,1577,1577,0,0,0,0,0,0,0,0,0,0
1683114896.50008798,102128299,1583,1582,1573,1573,0,0,0,0,0,0,0,0,0,0
1683114896.60004807,102228259,1585,1585,1568,1569,0,0,0,0,0,0,0,0,0,0
1683114896.70000792,102328219,1588,1586,1566,1567,0,0,0,0,0,0,0,0,0,0
1683114896.79996800,102428179,1588,1587,1566,1567,0,0,0,0,0,0,0,0,0,0
1683114896.90076089,102528972,1586,1585,1568,1568,0,0,0,0,0,0,0,0,0,0
1683114897.00072098,102628932,1585,1584,1571,1570,0,0,0,0,0,0,0,0,0,0
1683114897.10068107,102728892,1581,1581,1573,1572,0,0,0,0,0,0,0,0,0,0
1683114897.20064092,102828852,1579,1579,1576,1576,0,0,0,0,0,0,0,0,0,0
1683114897.30060101,102928812,1576,1576,1579,1579,0,0,0,0,0,0,0,0,0,0
1683114897.40056109,103028772,1574,1575,1581,1581,0,0,0,0,0,0,0,0,0,0
1683114897.50052094,103128732,1572,1573,1582,1582,0,0,0,0,0,0,0,0,0,0
1683114897.60048103,103228692,1572,1573,1583,1583,0,0,0,0,0,0,0,0,0,0
1683114897.70044088,103328652,1573,1573,1584,1583,0,0,0,0,0,0,0,0,0,0
1683114897.80040097,103428612,1573,1573,1584,1583,0,0,0,0,0,0,0,0,0,0
1683114897.90036106,103528572,1574,1574,1583,1583,0,0,0,0,0,0,0,0,0,0
1683114898.00032091,103628532,1576,1576,1582,1582,0,0,0,0,0,0,0,0,0,0
1683114898.10028100,103728492,1576,1576,1580,1580,0,0,0,0,0,0,0,0,0,0
1683114898.20024109,103828452,1578,1578,1579,1579,0,0,0,0,0,0,0,0,0,0
1683114898.30020094,103928412,1579,1579,1578,1578,0,0,0,0,0,0,0,0,0,0
1683114898.40016103,104028372,1580,1579,1577,1577,0,0,0,0,0,0,0,0,0,0
1683114898.50012088,104128332,1581,1581,1578,1577,0,0,0,0,0,0,0,0,0,0
1683114898.60008097,104228292,1582,1581,1577,1577,0,0,0,0,0,0,0,0,0,0
1683114898.70004106,104328252,1582,1581,1578,1578,0,0,0,0,0,0,0,0,0,0
1683114898.80000091,104428212,1581,1581,1577,1577,0,0,0,0,0,0,0,0,0,0
1683114898.89996099,104528172,1580,1580,1578,1578,0,0,0,0,0,0,0,0,0,0
1683114899.00075388,104628965,1580,1580,1578,1579,0,0,0,0,0,0,0,0,0,0
1683114899.10071397,104728925,1579,1580,1579,1579,0,0,0,0,0,0,0,0,0,0
1683114899.20067406,104828885,1580,1580,1580,1580,0,0,0,0,0,0,0,0,0,0
1683114899.30063391,104928845,1580,1580,1581,1581,0,0,0,0,0,0,0,0,0,0
1683114899.40059400,105028805,1580,1580,1581,1581,0,0,0,0,0,0,0,0,0,0
1683114899.50055408,105128765,1579,1580,1581,1581,0,0,0,0,0,0,0,0,0,0
1683114899.60051394,105228725,1580,1580,1582,1582,0,0,0,0,0,0,0,0,0,0
1683114899.70047402,105328685,1580,1579,1581,1581,0,0,0,0,0,0,0,0,0,0
1683114899.80043387,105428645,1581,1580,1582,1582,0,0,0,0,0,0,0,0,0,0
1683114899.90039396,105528605,1581,1581,1582,1581,0,0,0,0,0,0,0,0,0,0
1683114900.00035405,105628565,1580,1580,1581,1581,0,0,0,0,0,0,0,0,0,0
1683114900.10031390,105728525,1581,1581,1581,1581,0,0,0,0,0,0,0,0,0,0
1683114900.20027399,105828485,1581,1582,1586,1575,0,0,0,0,0,0,0,0,0,0
1683114900.30023408,105928445,1581,1581,1586,1572,0,0,0,0,0,0,0,0,0,0
1683114900.40019393,106028405,1579,1579,1580,1574,0,0,0,0,0,0,0,0,0,0
1683114900.50015402,106128365,1575,1576,1573,1574,0,0,0,0,0,0,0,0,0,0
1683114900.60011387,106228325,1572,1572,1567,1574,0,0,0,0,0,0,0,0,0,0
1683114900.70007396,106328285,1569,1569,1564,1571,0,0,0,0,0,0,0,0,0,0
1683114900.80003405,106428245,1567,1567,1563,1569,0,0,0,0,0,0,0,0,0,0
1683114900.89999390,106528205,1566,1566,1565,1567,0,0,0,0,0,0,0,0,0,0
1683114900.99995399,106628165,1566,1565,1566,1565,0,0,0,0,0,0,0,0,0,0
1683114901.10074687,106728958,1566,1566,1568,1565,0,0,0,0,0,0,0,0,0,0
1683114901.20070696,106828918,1564,1565,1567,1564,0,0,0,0,0,0,0,0,0,0
1683114901.30066705,106928878,1565,1565,1567,1565,0,0,0,0,0,0,0,0,0,0
1683114901.40062690,107028838,1564,1564,1565,1564,0,0,0,0,0,0,0,0,0,0
1683114901.50058699,107128798,1563,1562,1564,1564,0,0,0,0,0,0,0,0,0,0
1683114901.60054708,107228758,1562,1562,1563,1563,0,0,0,0,0,0,0,0,0,0
1683114901.70050693,107328718,1561,1561,1562,1562,0,0,0,0,0,0,0,0,0,0
1683114901.80046701,107428678,1561,1561,1562,1561,0,0,0,0,0,0,0,0,0,0
1683114901.90042686,107528638,1562,1561,1562,1562,0,0,0,0,0,0,0,0,0,0
1683114902.00038695,107628598,1561,1561,1561,1561,0,0,0,0,0,0,0,0,0,0
1683114902.10034704,107728558,1559,1559,1559,1559,0,0,0,0,0,0,0,0,0,0
1683114902.20030689,107828518,1558,1558,1558,1557,0,0,0,0,0,0,0,0,0,0
1683114902.30026698,107928478,1559,1558,1558,1558,0,0,0,0,0,0,0,0,0,0
1683114902.40022707,108028438,1557,1558,1558,1556,0,0,0,0,0,0,0,0,0,0
1683114902.50018692,108128398,1558,1557,1558,1557,0,0,0,0,0,0,0,0,0,0
1683114902.60014701,108228358,1557,1557,1558,1556,0,0,0,0,0,0,0,0,0,0
1683114902.70010710,108328318,1558,1558,1559,1557,0,0,0,0,0,0,0,0,0,0
1683114902.80006695,108428278,1558,1558,1559,1557,0,0,0,0,0,0,0,0,0,0
1683114902.90002704,108528238,1557,1558,1559,1556,0,0,0,0,0,0,0,0,0,0
1683114902.99998689,108628198,1558,1558,1558,1558,0,0,0,0,0,0,0,0,0,0
1683114903.09994698,108728158,1560,1560,1558,1562,0,0,0,0,0,0,0,0,0,0
1683114903.20073986,108828951,1561,1561,1557,1564,0,0,0,0,0,0,0,0,0,0
1683114903.30069995,108928911,1561,1561,1558,1565,0,0,0,0,0,0,0,0,0,0
1683114903.40066004,109028871,1563,1562,1560,1564,0,0,0,0,0,0,0,0,0,0
1683114903.50061989,109128831,1563,1563,1563,1564,0,0,0,0,0,0,0,0,0,0
1683114903.60057998,109228791,1563,1563,1564,1562,0,0,0,0,0,0,0,0,0,0
1683114903.70054007,109328751,1561,1561,1563,1559,0,0,0,0,0,0,0,0,0,0
1683114903.80049992,109428711,1560,1561,1562,1559,0,0,0,0,0,0,0,0,0,0
1683114903.90046000,109528671,1559,1559,1556,1562,0,0,0,0,0,0,0,0,0,0
1683114904.00042009,109628631,1556,1556,1553,1560,0,0,0,0,0,0,0,0,0,0
1683114904.10037994,109728591,1552,1551,1550,1554,0,0,0,0,0,0,0,0,0,0
1683114904.20034003,109828551,1546,1546,1545,1546,0,0,0,0,0,0,0,0,0,0
1683114904.30029988,109928511,1539,1539,1540,1539,0,0,0,0,0,0,0,0,0,0
1683114904.40025997,110028471,1532,1532,1533,1531,0,0,0,0,0,0,0,0,0,0
1683114904.50022006,110128431,1524,1524,1525,1523,0,0,0,0,0,0,0,0,0,0
1683114904.60017991,110228391,1519,1520,1521,1519,0,0,0,0,0,0,0,0,0,0
1683114904.70014000,110328351,1519,1518,1519,1519,0,0,0,0,0,0,0,0,0,0
1683114904.80010009,110428311,1520,1520,1520,1520,0,0,0,0,0,0,0,0,0,0
1683114904.90005994,110528271,1522,1522,1521,1522,0,0,0,0,0,0,0,0,0,0
1683114905.00002003,110628231,1526,1526,1525,1526,0,0,0,0,0,0,0,0,0,0
1683114905.09997988,110728191,1530,1530,1529,1530,0,0,0,0,0,0,0,0,0,0
1683114905.20077300,110828984,1534,1535,1535,1535,0,0,0,0,0,0,0,0,0,0
1683114905.30073309,110928944,1538,1538,1539,1538,0,0,0,0,0,0,0,0,0,0
1683114905.40069294,111028904,1541,1541,1541,1541,0,0,0,0,0,0,0,0,0,0
1683114905.50065303,111128864,1543,1543,1543,1543,0,0,0,0,0,0,0,0,0,0
1683114905.60061288,111228824,1545,1545,1545,1545,0,0,0,0,0,0,0,0,0,0
1683114905.70057297,111328784,1546,1545,1545,1545,0,0,0,0,0,0,0,0,0,0
1683114905.80053306,111428744,1545,1546,1546,1546,0,0,0,0,0,0,0,0,0,0
1683114905.90049291,111528704,1545,1546,1546,1545,0,0,0,0,0,0,0,0,0,0
1683114906.00045300,111628664,1545,1546,1546,1545,0,0,0,0,0,0,0,0,0,0
1683114906.10041308,111728624,1546,1546,1546,1546,0,0,0,0,0,0,0,0,0,0
1683114906.20037293,111828584,1546,1546,1546,1545,0,0,0,0,0,0,0,0,0,0
1683114906.30033302,111928544,1546,1546,1546,1546,0,0,0,0,0,0,0,0,0,0
1683114906.40029287,112028504,1546,1546,1546,1546,0,0,0,0,0,0,0,0,0,0
1683114906.50025296,112128464,1546,1546,1546,1546,0,0,0,0,0,0,0,0,0,0
1683114906.60021305,112228424,1545,1546,1546,1545,0,0,0,0,0,0,0,0,0,0
1683114906.70017290,112328384,1545,1545,1545,1545,0,0,0,0,0,0,0,0,0,0
1683114906.80013299,112428344,1545,1545,1545,1544,0,0,0,0,0,0,0,0,0,0
1683114906.90009308,112528304,1544,1544,1544,1544,0,0,0,0,0,0,0,0,0,0
1683114907.00005293,112628264,1544,1545,1544,1545,0,0,0,0,0,0,0,0,0,0
1683114907.10001302,112728224,1544,1544,1544,1544,0,0,0,0,0,0,0,0,0,0
1683114907.19997287,112828184,1544,1544,1544,1544,0,0,0,0,0,0,0,0,0,0
1683114907.30076599,112928977,1544,1544,1544,1544,0,0,0,0,0,0,0,0,0,0
1683114907.40072608,113028937,1544,1544,1544,1543,0,0,0,0,0,0,0,0,0,0
1683114907.50068593,113128897,1544,1544,1544,1544,0,0,0,0,0,0,0,0,0,0
1683114907.60064602,113228857,1544,1544,1544,1544,0,0,0,0,0,0,0,0,0,0
1683114907.70060587,113328817,1543,1543,1544,1544,0,0,0,0,0,0,0,0,0,0
1683114907.80056596,113428777,1543,1544,1544,1544,0,0,0,0,0,0,0,0,0,0
1683114907.90052605,113528737,1544,1544,1544,1544,0,0,0,0,0,0,0,0,0,0
1683114908.00048590,113628697,1543,1543,1543,1543,0,0,0,0,0,0,0,0,0,0
1683114908.10044599,113728657,1544,1544,1544,1544,0,0,0,0,0,0,0,0,0,0
1683114908.20040607,113828617,1544,1544,1544,1544,0,0,0,0,0,0,0,0,0,0
1683114908.30036592,113928577,1545,1545,1545,1545,0,0,0,0,0,0,0,0,0,0
1683114908.40032601,114028537,1545,1545,1545,1545,0,0,0,0,0,0,0,0,0,0
1683114908.50028586,114128497,1546,1545,1545,1545,0,0,0,0,0,0,0,0,0,0
1683114908.60024595,114228457,1544,1545,1544,1544,0,0,0,0,0,0,0,0,0,0
1683114908.70020604,114328417,1544,1544,1544,1544,0,0,0,0,0,0,0,0,0,0
1683114908.80016589,114428377,1544,1544,1544,1544,0,0,0,0,0,0,0,0,0,0
1683114908.90012598,114528337,1544,1544,1544,1544,0,0,0,0,0,0,0,0,0,0
1683114909.00008607,114628297,1544,1544,1544,1544,0,0,0,0,0,0,0,0,0,0
1683114909.10004592,114728257,1544,1544,1544,1544,0,0,0,0,0,0,0,0,0,0
1683114909.20000601,114828217,1544,1544,1544,1544,0,0,0,0,0,0,0,0,0,0
1683114909.29996610,114928177,1543,1543,1543,1543,0,0,0,0,0,0,0,0,0,0
1683114909.40075898,115028970,1544,1544,1544,1544,0,0,0,0,0,0,0,0,0,0
1683114909.50071907,115128930,1544,1543,1543,1544,0,0,0,0,0,0,0,0,0,0
1683114909.60067892,115228890,1543,1544,1543,1543,0,0,0,0,0,0,0,0,0,0
1683114909.70063901,115328850,1544,1544,1543,1544,0,0,0,0,0,0,0,0,0,0
1683114909.80059886,115428810,1544,1545,1545,1544,0,0,0,0,0,0,0,0,0,0
1683114909.90055895,115528770,1544,1544,1544,1544,0,0,0,0,0,0,0,0,0,0
1683114910.00051904,115628730,1545,1545,1545,1545,0,0,0,0,0,0,0,0,0,0
1683114910.10047889,115728690,1545,1544,1544,1545,0,0,0,0,0,0,0,0,0,0
1683114910.20043898,115828650,1544,1544,1544,1544,0,0,0,0,0,0,0,0,0,0
1683114910.30039907,115928610,1544,1544,1544,1544,0,0,0,0,0,0,0,0,0,0
1683114910.40035892,116028570,1544,1545,1545,1544,0,0,0,0,0,0,0,0,0,0
1683114910.50031900,116128530,1545,1545,1545,1545,0,0,0,0,0,0,0,0,0,0
1683114910.60027909,116228490,1545,1544,1544,1545,0,0,0,0,0,0,0,0,0,0
1683114910.70023894,116328450,1545,1545,1544,1545,0,0,0,0,0,0,0,0,0,0
1683114910.80019903,116428410,1544,1544,1545,1544,0,0,0,0,0,0,0,0,0,0
1683114910.90015888,116528370,1545,1545,1546,1545,0,0,0,0,0,0,0,0,0,0
1683114911.00011897,116628330,1544,1544,1544,1544,0,0,0,0,0,0,0,0,0,0
1683114911.10007906,116728290,1543,1544,1544,1544,0,0,0,0,0,0,0,0,0,0
1683114911.20003891,116828250,1544,1544,1544,1544,0,0,0,0,0,0,0,0,0,0
1683114911.29999900,116928210,1544,1544,1543,1545,0,0,0,0,0,0,0,0,0,0
1683114911.39995909,117028170,1545,1545,1545,1545,0,0,0,0,0,0,0,0,0,0
1683114911.50075197,117128963,1544,1544,1544,1544,0,0,0,0,0,0,0,0,0,0
1683114911.60071206,117228923,1544,1544,1544,1544,0,0,0,0,0,0,0,0,0,0
1683114911.70067191,117328883,1544,1544,1544,1544,0,0,0,0,0,0,0,0,0,0
1683114911.80063200,117428843,1544,1544,1544,1544,0,0,0,0,0,0,0,0,0,0
1683114911.90059209,117528803,1544,1543,1544,1544,0,0,0,0,0,0,0,0,0,0
1683114912.00055194,117628763,1543,1544,1544,1544,0,0,0,0,0,0,0,0,0,0
1683114912.10051203,117728723,1544,1544,1544,1544,0,0,0,0,0,0,0,0,0,0
1683114912.20047188,117828683,1544,1544,1544,1544,0,0,0,0,0,0,0,0,0,0
1683114912.30043197,117928643,1544,1544,1544,1544,0,0,0,0,0,0,0,0,0,0
1683114912.40039206,118028603,1543,1544,1544,1544,0,0,0,0,0,0,0,0,0,0
1683114912.50035191,118128563,1544,1543,1544,1544,0,0,0,0,0,0,0,0,0,0
1683114912.60031199,118228523,1545,1545,1546,1545,0,0,0,0,0,0,0,0,0,0
1683114912.70027208,118328483,1544,1544,1544,1544,0,0,0,0,0,0,0,0,0,0
1683114912.80023193,118428443,1544,1544,1544,1544,0,0,0,0,0,0,0,0,0,0
1683114912.90019202,118528403,1544,1544,1544,1544,0,0,0,0,0,0,0,0,0,0
1683114913.00015187,118628363,1544,1544,1544,1544,0,0,0,0,0,0,0,0,0,0
1683114913.10011196,118728323,1544,1544,1544,1544,0,0,0,0,0,0,0,0,0,0
1683114913.20007205,118828283,1544,1544,1543,1544,0,0,0,0,0,0,0,0,0,0
1683114913.30003190,118928243,1544,1544,1544,1544,0,0,0,0,0,0,0,0,0,0
1683114913.39999199,119028203,1544,1544,1544,1544,0,0,0,0,0,0,0,0,0,0
1683114913.49995208,119128163,1545,1544,1545,1544,0,0,0,0,0,0,0,0,0,0
1683114913.60074496,119228956,1544,1544,1544,1544,0,0,0,0,0,0,0,0,0,0
1683114913.70070505,119328916,1545,1545,1545,1545,0,0,0,0,0,0,0,0,0,0
1683114913.80066490,119428876,1544,1544,1544,1544,0,0,0,0,0,0,0,0,0,0
1683114913.90062499,119528836,1545,1545,1545,1545,0,0,0,0,0,0,0,0,0,0
1683114914.00058508,119628796,1544,1544,1544,1544,0,0,0,0,0,0,0,0,0,0
1683114914.10054493,119728756,1545,1544,1544,1545,0,0,0,0,0,0,0,0,0,0
1683114914.20050502,119828716,1544,1544,1544,1544,0,0,0,0,0,0,0,0,0,0
1683114914.30046487,119928676,1544,1544,1544,1544,0,0,0,0,0,0,0,0,0,0
1683114914.40042496,120028636,1379,1379,1379,1379,0,0,0,0,0,0,0,0,0,0
1683114914.50038505,120128596,1259,1260,1260,1260,0,0,0,0,0,0,0,0,0,0
1683114914.60034490,120228556,1217,1219,1219,1219,0,0,0,0,0,0,0,0,0,0
1683114914.70030499,120328516,1197,1197,1198,1198,0,0,0,0,0,0,0,0,0,0
1683114914.80026507,120428476,1154,1155,1156,1155,0,0,0,0,0,0,0,0,0,0
1683114914.90022492,120528436,1150,1150,1150,1151,0,0,0,0,0,0,0,0,0,0
1683114915.00018501,120628396,1150,1151,1152,1151,0,0,0,0,0,0,0,0,0,0
1683114915.10014486,120728356,1191,1150,1150,1193,0,0,0,0,0,0,0,0,0,0
1683114915.20010495,120828316,1177,1150,1151,1179,0,0,0,0,0,0,0,0,0,0
1683114915.30006504,120928276,1173,1150,1151,1176,0,0,0,0,0,0,0,0,0,0
1683114915.40002489,121028236,1174,1150,1151,1176,0,0,0,0,0,0,0,0,0,0
1683114915.49998498,121128196,1176,1150,1151,1179,0,0,0,0,0,0,0,0,0,0
1683114915.59994507,121228156,1178,1150,1151,1181,0,0,0,0,0,0,0,0,0,0
1683114915.70073795,121328949,1181,1150,1152,1184,0,0,0,0,0,0,0,0,0,0
1683114915.80069804,121428909,1183,1150,1152,1186,0,0,0,0,0,0,0,0,0,0
1683114915.90065789,121528869,1167,1150,1152,1169,0,0,0,0,0,0,0,0,0,0
1683114916.00061798,121628829,1168,1150,1152,1171,0,0,0,0,0,0,0,0,0,0
1683114916.10057807,121728789,1169,1150,1152,1172,0,0,0,0,0,0,0,0,0,0
1683114916.20053792,121828749,1170,1150,1153,1173,0,0,0,0,0,0,0,0,0,0
1683114916.30049801,121928709,1171,1150,1153,1174,0,0,0,0,0,0,0,0,0,0
1683114916.40045810,122028669,1000,1000,1000,1000,0,0,0,0,0,0,0,0,0,0
1683114916.50041795,122128629,1000,1000,1000,1000,0,0,0,0,0,0,0,0,0,0
1683114916.60037804,122228589,1000,1000,1000,1000,0,0,0,0,0,0,0,0,0,0
1683114916.70033789,122328549,1000,1000,1000,1000,0,0,0,0,0,0,0,0,0,0
1683114916.80029798,122428509,1000,1000,1000,1000,0,0,0,0,0,0,0,0,0,0
1683114916.90025806,122528469,1000,1000,1000,1000,0,0,0,0,0,0,0,0,0,0
1683114917.00021791,122628429,1000,1000,1000,1000,0,0,0,0,0,0,0,0,0,0
1683114917.10017800,122728389,1000,1000,1000,1000,0,0,0,0,0,0,0,0,0,0
1683114917.20013809,122828349,1000,1000,1000,1000,0,0,0,0,0,0,0,0,0,0
1683114917.30009794,122928309,1000,1000,1000,1000,0,0,0,0,0,0,0,0,0,0
1683114917.40005803,123028269,1000,1000,1000,1000,0,0,0,0,0,0,0,0,0,0
1683114917.50001788,123128229,1000,1000,1000,1000,0,0,0,0,0,0,0,0,0,0
1683114917.59997797,123228189,1000,1000,1000,1000,0,0,0,0,0,0,0,0,0,0
1683114917.70077109,123328982,1000,1000,1000,1000,0,0,0,0,0,0,0,0,0,0
1683114917.80073094,123428942,1000,1000,1000,1000,0,0,0,0,0,0,0,0,0,0
1683114917.90069103,123528902,1000,1000,1000,1000,0,0,0,0,0,0,0,0,0,0
1683114918.00065088,123628862,1000,1000,1000,1000,0,0,0,0,0,0,0,0,0,0
1683114918.10061097,123728822,1000,1000,1000,1000,0,0,0,0,0,0,0,0,0,0
1683114918.20057106,123828782,1000,1000,1000,1000,0,0,0,0,0,0,0,0,0,0
1683114918.30053091,123928742,1000,1000,1000,1000,0,0,0,0,0,0,0,0,0,0
1683114918.40049100,124028702,1000,1000,1000,1000,0,0,0,0,0,0,0,0,0,0
1683114918.50045109,124128662,1000,1000,1000,1000,0,0,0,0,0,0,0,0,0,0
1683114918.60041094,124228622,1000,1000,1000,1000,0,0,0,0,0,0,0,0,0,0
1683114918.70037103,124328582,1000,1000,1000,1000,0,0,0,0,0,0,0,0,0,0
1683114918.80033088,124428542,1000,1000,1000,1000,0,0,0,0,0,0,0,0,0,0
1683114918.90029097,124528502,1000,1000,1000,1000,0,0,0,0,0,0,0,0,0,0
1683114919.00025105,124628462,1000,1000,1000,1000,0,0,0,0,0,0,0,0,0,0
1683114919.10021091,124728422,1000,1000,1000,1000,0,0,0,0,0,0,0,0,0,0
1683114919.20017099,124828382,1000,1000,1000,1000,0,0,0,0,0,0,0,0,0,0
1683114919.30013108,124928342,1000,1000,1000,1000,0,0,0,0,0,0,0,0,0,0
1683114919.40009093,125028302,1000,1000,1000,1000,0,0,0,0,0,0,0,0,0,0
1683114919.50005102,125128262,1000,1000,1000,1000,0,0,0,0,0,0,0,0,0,0
1683114919.60001087,125228222,1000,1000,1000,1000,0,0,0,0,0,0,0,0,0,0
1683114919.69997096,125328182,1000,1000,1000,1000,0,0,0,0,0,0,0,0,0,0
1683114919.80076408,125428975,1000,1000,1000,1000,0,0,0,0,0,0,0,0,0,0
1683114919.90072393,125528935,1000,1000,1000,1000,0,0,0,0,0,0,0,0,0,0
1683114920.00068402,125628895,1000,1000,1000,1000,0,0,0,0,0,0,0,0,0,0
1683114920.10064387,125728855,1000,1000,1000,1000,0,0,0,0,0,0,0,0,0,0
1683114920.20060396,125828815,1000,1000,1000,1000,0,0,0,0,0,0,0,0,0,0
1683114920.30056405,125928775,1000,1000,1000,1000,0,0,0,0,0,0,0,0,0,0
1683114920.40052390,126028735,1000,1000,1000,1000,0,0,0,0,0,0,0,0,0,0
1683114920.50048399,126128695,1000,1000,1000,1000,0,0,0,0,0,0,0,0,0,0
1683114920.60044408,126228655,1000,1000,1000,1000,0,0,0,0,0,0,0,0,0,0
1683114920.70040393,126328615,1000,1000,1000,1000,0,0,0,0,0,0,0,0,0,0
1683114920.80036402,126428575,1000,1000,1000,1000,0,0,0,0,0,0,0,0,0,0
1683114920.90032387,126528535,1000,1000,1000,1000,0,0,0,0,0,0,0,0,0,0
1683114921.00028396,126628495,1000,1000,1000,1000,0,0,0,0,0,0,0,0,0,0
1683114921.10024405,126728455,1000,1000,1000,1000,0,0,0,0,0,0,0,0,0,0
1683114921.20020390,126828415,1000,1000,1000,1000,0,0,0,0,0,0,0,0,0,0
1683114921.30016398,126928375,1000,1000,1000,1000,0,0,0,0,0,0,0,0,0,0
1683114921.40012407,127028335,1000,1000,1000,1000,0,0,0,0,0,0,0,0,0,0
1683114921.50008392,127128295,1000,1000,1000,1000,0,0,0,0,0,0,0,0,0,0
1683114921.60004401,127228255,1000,1000,1000,1000,0,0,0,0,0,0,0,0,0,0
1683114921.70000386,127328215,1000,1000,1000,1000,0,0,0,0,0,0,0,0,0,0
1683114921.79996395,127428175,1000,1000,1000,1000,0,0,0,0,0,0,0,0,0,0
1683114921.90075707,127528968,1000,1000,1000,1000,0,0,0,0,0,0,0,0,0,0
1683114922.00071692,127628928,1000,1000,1000,1000,0,0,0,0,0,0,0,0,0,0
1683114922.10067701,127728888,1000,1000,1000,1000,0,0,0,0,0,0,0,0,0,0
1683114922.20063686,127828848,1000,1000,1000,1000,0,0,0,0,0,0,0,0,0,0
1683114922.30059695,127928808,1000,1000,1000,1000,0,0,0,0,0,0,0,0,0,0
1683114922.40055704,128028768,1000,1000,1000,1000,0,0,0,0,0,0,0,0,0,0
1683114922.50051689,128128728,1000,1000,1000,1000,0,0,0,0,0,0,0,0,0,0
1683114922.60047698,128228688,1000,1000,1000,1000,0,0,0,0,0,0,0,0,0,0
1683114922.70043707,128328648,1000,1000,1000,1000,0,0,0,0,0,0,0,0,0,0
1683114922.80039692,128428608,1000,1000,1000,1000,0,0,0,0,0,0,0,0,0,0
1683114922.90035701,128528568,1000,1000,1000,1000,0,0,0,0,0,0,0,0,0,0
1683114923.00031710,128628528,1000,1000,1000,1000,0,0,0,0,0,0,0,0,0,0
1683114923.10027695,128728488,1000,1000,1000,1000,0,0,0,0,0,0,0,0,0,0
1683114923.20023704,128828448,1000,1000,1000,1000,0,0,0,0,0,0,0,0,0,0
1683114923.30019689,128928408,1000,1000,1000,1000,0,0,0,0,0,0,0,0,0,0
1683114923.40015697,129028368,1000,1000,1000,1000,0,0,0,0,0,0,0,0,0,0
1683114923.50011706,129128328,1000,1000,1000,1000,0,0,0,0,0,0,0,0,0,0
1683114923.60007691,129228288,1000,1000,1000,1000,0,0,0,0,0,0,0,0,0,0
1683114923.70003700,129328248,1000,1000,1000,1000,0,0,0,0,0,0,0,0,0,0
1683114923.79999709,129428208,1000,1000,1000,1000,0,0,0,0,0,0,0,0,0,0
1683114923.89995694,129528168,1000,1000,1000,1000,0,0,0,0,0,0,0,0,0,0
1683114924.00075006,129628961,1000,1000,1000,1000,0,0,0,0,0,0,0,0,0,0
1683114924.10070992,129728921,1000,1000,1000,1000,0,0,0,0,0,0,0,0,0,0
1683114924.20067000,129828881,1000,1000,1000,1000,0,0,0,0,0,0,0,0,0,0
1683114924.30063009,129928841,1000,1000,1000,1000,0,0,0,0,0,0,0,0,0,0
1683114924.40058994,130028801,1000,1000,1000,1000,0,0,0,0,0,0,0,0,0,0
1683114924.50055003,130128761,1000,1000,1000,1000,0,0,0,0,0,0,0,0,0,0
1683114924.60050988,130228721,1000,1000,1000,1000,0,0,0,0,0,0,0,0,0,0
1683114924.70046997,130328681,1000,1000,1000,1000,0,0,0,0,0,0,0,0,0,0
1683114924.80043006,130428641,1000,1000,1000,1000,0,0,0,0,0,0,0,0,0,0
1683114924.90038991,130528601,1000,1000,1000,1000,0,0,0,0,0,0,0,0,0,0
1683114925.00035000,130628561,1000,1000,1000,1000,0,0,0,0,0,0,0,0,0,0
1683114925.10031009,130728521,1000,1000,1000,1000,0,0,0,0,0,0,0,0,0,0
1683114925.20026994,130828481,1000,1000,1000,1000,0,0,0,0,0,0,0,0,0,0
1683114925.30023003,130928441,1000,1000,1000,1000,0,0,0,0,0,0,0,0,0,0
1683114925.40018988,131028401,1000,1000,1000,1000,0,0,0,0,0,0,0,0,0,0
1683114925.50014997,131128361,1000,1000,1000,1000,0,0,0,0,0,0,0,0,0,0
1683114925.60011005,131228321,1000,1000,1000,1000,0,0,0,0,0,0,0,0,0,0
1683114925.70006990,131328281,1000,1000,1000,1000,0,0,0,0,0,0,0,0,0,0
1683114925.80002999,131428241,1000,1000,1000,1000,0,0,0,0,0,0,0,0,0,0
1683114925.89999008,131528201,1000,1000,1000,1000,0,0,0,0,0,0,0,0,0,0
1683114925.99994993,131628161,1000,1000,1000,1000,0,0,0,0,0,0,0,0,0,0
1683114926.10074306,131728954,1000,1000,1000,1000,0,0,0,0,0,0,0,0,0,0
1683114926.20070291,131828914,1000,1000,1000,1000,0,0,0,0,0,0,0,0,0,0
1683114926.30066299,131928874,1000,1000,1000,1000,0,0,0,0,0,0,0,0,0,0
1683114926.40062308,132028834,1000,1000,1000,1000,0,0,0,0,0,0,0,0,0,0
1683114926.50058293,132128794,1000,1000,1000,1000,0,0,0,0,0,0,0,0,0,0
1683114926.60054302,132228754,1000,1000,1000,1000,0,0,0,0,0,0,0,0,0,0
1683114926.70050287,132328714,1000,1000,1000,1000,0,0,0,0,0,0,0,0,0,0
1683114926.80046296,132428674,1000,1000,1000,1000,0,0,0,0,0,0,0,0,0,0
1683114926.90042305,132528634,1000,1000,1000,1000,0,0,0,0,0,0,0,0,0,0
1683114927.00038290,132628594,1000,1000,1000,1000,0,0,0,0,0,0,0,0,0,0
1683114927.10034299,132728554,1000,1000,1000,1000,0,0,0,0,0,0,0,0,0,0
1683114927.20030308,132828514,1000,1000,1000,1000,0,0,0,0,0,0,0,0,0,0
1683114927.30026293,132928474,1000,1000,1000,1000,0,0,0,0,0,0,0,0,0,0
1683114927.40022302,133028434,1000,1000,1000,1000,0,0,0,0,0,0,0,0,0,0
1683114927.50018287,133128394,1000,1000,1000,1000,0,0,0,0,0,0,0,0,0,0
1683114927.60014296,133228354,1000,1000,1000,1000,0,0,0,0,0,0,0,0,0,0
1683114927.70010304,133328314,1000,1000,1000,1000,0,0,0,0,0,0,0,0,0,0
1683114927.80006289,133428274,1000,1000,1000,1000,0,0,0,0,0,0,0,0,0,0
1683114927.90002298,133528234,1000,1000,1000,1000,0,0,0,0,0,0,0,0,0,0
1683114927.99998307,133628194,1000,1000,1000,1000,0,0,0,0,0,0,0,0,0,0
1683114928.09994292,133728154,1000,1000,1000,1000,0,0,0,0,0,0,0,0,0,0
1683114928.20073605,133828947,1000,1000,1000,1000,0,0,0,0,0,0,0,0,0,0
1683114928.30069590,133928907,1000,1000,1000,1000,0,0,0,0,0,0,0,0,0,0
1683114928.40065598,134028867,1000,1000,1000,1000,0,0,0,0,0,0,0,0,0,0
1683114928.50061607,134128827,1000,1000,1000,1000,0,0,0,0,0,0,0,0,0,0
1683114928.60057592,134228787,1000,1000,1000,1000,0,0,0,0,0,0,0,0,0,0
1683114928.70053601,134328747,1000,1000,1000,1000,0,0,0,0,0,0,0,0,0,0
1683114928.80049586,134428707,1000,1000,1000,1000,0,0,0,0,0,0,0,0,0,0
1683114928.90045595,134528667,1000,1000,1000,1000,0,0,0,0,0,0,0,0,0,0
1683114929.00041604,134628627,1000,1000,1000,1000,0,0,0,0,0,0,0,0,0,0
1683114929.10037589,134728587,1000,1000,1000,1000,0,0,0,0,0,0,0,0,0,0
1683114929.20033598,134828547,1000,1000,1000,1000,0,0,0,0,0,0,0,0,0,0
1683114929.30029607,134928507,1000,1000,1000,1000,0,0,0,0,0,0,0,0,0,0
1683114929.40025592,135028467,1000,1000,1000,1000,0,0,0,0,0,0,0,0,0,0
1683114929.50021601,135128427,1000,1000,1000,1000,0,0,0,0,0,0,0,0,0,0
1683114929.60017610,135228387,1000,1000,1000,1000,0,0,0,0,0,0,0,0,0,0
1683114929.70013595,135328347,1000,1000,1000,1000,0,0,0,0,0,0,0,0,0,0
1683114929.80009604,135428307,1000,1000,1000,1000,0,0,0,0,0,0,0,0,0,0
1683114929.90005589,135528267,1000,1000,1000,1000,0,0,0,0,0,0,0,0,0,0
1683114930.00001597,135628227,1000,1000,1000,1000,0,0,0,0,0,0,0,0,0,0
1683114930.09997606,135728187,1000,1000,1000,1000,0,0,0,0,0,0,0,0,0,0
1683114930.20076895,135828980,1000,1000,1000,1000,0,0,0,0,0,0,0,0,0,0
1683114930.30072904,135928940,1000,1000,1000,1000,0,0,0,0,0,0,0,0,0,0
1683114930.40068889,136028900,1000,1000,1000,1000,0,0,0,0,0,0,0,0,0,0
1683114930.50064898,136128860,1000,1000,1000,1000,0,0,0,0,0,0,0,0,0,0
1683114930.60060906,136228820,1000,1000,1000,1000,0,0,0,0,0,0,0,0,0,0
1683114930.70056891,136328780,1000,1000,1000,1000,0,0,0,0,0,0,0,0,0,0
1683114930.80052900,136428740,1000,1000,1000,1000,0,0,0,0,0,0,0,0,0,0
1683114930.90048909,136528700,1000,1000,1000,1000,0,0,0,0,0,0,0,0,0,0
1683114931.00044894,136628660,1000,1000,1000,1000,0,0,0,0,0,0,0,0,0,0
1683114931.10040903,136728620,1000,1000,1000,1000,0,0,0,0,0,0,0,0,0,0
1683114931.20036888,136828580,1000,1000,1000,1000,0,0,0,0,0,0,0,0,0,0
1683114931.30032897,136928540,1000,1000,1000,1000,0,0,0,0,0,0,0,0,0,0
