TimeUS,M1,M2,M3,M4,TimeUS,C1,C2,C3,C4
42686252,1000,1000,1000,1000,42728735,1000,1000,1000,1000
42688751,1000,1000,1000,1000,42828695,1000,1000,1000,1000
42691250,1000,1000,1000,1000,42928655,1000,1000,1000,1000
42693749,1000,1000,1000,1000,43028615,1000,1000,1000,1000
42696248,1000,1000,1000,1000,43128575,1000,1000,1000,1000
42698747,1000,1000,1000,1000,43228535,1000,1000,1000,1000
42701246,1000,1000,1000,1000,43328495,1000,1000,1000,1000
42703745,1000,1000,1000,1000,43428455,1000,1000,1000,1000
42706244,1000,1000,1000,1000,43528415,1000,1000,1000,1000
42708743,1000,1000,1000,1000,43628375,1000,1000,1000,1000
42711242,1000,1000,1000,1000,43728335,1000,1000,1000,1000
42713741,1000,1000,1000,1000,43828295,1000,1000,1000,1000
42716240,1000,1000,1000,1000,43928255,1000,1000,1000,1000
42718739,1000,1000,1000,1000,44028215,1000,1000,1000,1000
42721238,1000,1000,1000,1000,44128175,1000,1000,1000,1000
42723737,1000,1000,1000,1000,44228968,1000,1000,1000,1000
42726236,1000,1000,1000,1000,44328928,1000,1000,1000,1000
42728735,1000,1000,1000,1000,44428888,1000,1000,1000,1000
42731234,1000,1000,1000,1000,44528848,1000,1000,1000,1000
42733733,1000,1000,1000,1000,44628808,1000,1000,1000,1000
42736232,1000,1000,1000,1000,44728768,1012,1012,1012,1012
42738731,1000,1000,1000,1000,44828728,1042,1042,1042,1042
42741230,1000,1000,1000,1000,44928688,1072,1072,1072,1072
42743729,1000,1000,1000,1000,45028648,1102,1102,1102,1102
42746228,1000,1000,1000,1000,45128608,1132,1132,1132,1132
42748727,1000,1000,1000,1000,45228568,1268,1262,1263,1269
42751226,1000,1000,1000,1000,45328528,1481,1476,1476,1482
42753725,1000,1000,1000,1000,45428488,1644,1640,1641,1645
42756224,1000,1000,1000,1000,45528448,1782,1778,1778,1783
42758723,1000,1000,1000,1000,45628408,1904,1900,1900,1904
42761222,1000,1000,1000,1000,45728368,1898,1896,1896,1898
42763721,1000,1000,1000,1000,45828328,1768,1768,1768,1769
42766220,1000,1000,1000,1000,45928288,1667,1668,1668,1667
42768719,1000,1000,1000,1000,46028248,1633,1635,1635,1633
42771218,1000,1000,1000,1000,46128208,1634,1635,1635,1633
42773717,1000,1000,1000,1000,46228168,1639,1639,1639,1639
42776216,1000,1000,1000,1000,46328961,1635,1635,1635,1635
42778715,1000,1000,1000,1000,46428921,1627,1627,1627,1627
42781214,1000,1000,1000,1000,46528881,1619,1619,1619,1619
42783713,1000,1000,1000,1000,46628841,1614,1613,1613,1614
42786212,1000,1000,1000,1000,46728801,1613,1612,1612,1612
42788711,1000,1000,1000,1000,46828761,1613,1612,1612,1612
42791210,1000,1000,1000,1000,46928721,1613,1614,1614,1613
42793709,1000,1000,1000,1000,47028681,1615,1615,1615,1615
42796208,1000,1000,1000,1000,47128641,1613,1615,1615,1613
42798707,1000,1000,1000,1000,47228601,1584,1584,1584,1584
42801206,1000,1000,1000,1000,47328561,1573,1572,1573,1573
42803705,1000,1000,1000,1000,47428521,1562,1563,1562,1563
42806204,1000,1000,1000,1000,47528481,1554,1553,1553,1555
42808703,1000,1000,1000,1000,47628441,1545,1544,1544,1545
42811202,1000,1000,1000,1000,47728401,1537,1537,1536,1538
42813701,1000,1000,1000,1000,47828361,1527,1527,1526,1528
42816200,1000,1000,1000,1000,47928321,1518,1519,1518,1519
42818699,1000,1000,1000,1000,48028281,1511,1511,1511,1511
42821198,1000,1000,1000,1000,48128241,1509,1508,1508,1509
42823697,1000,1000,1000,1000,48228201,1506,1506,1506,1507
42826196,1000,1000,1000,1000,48328161,1506,1506,1505,1506
42828695,1000,1000,1000,1000,48428954,1503,1503,1503,1503
42831194,1000,1000,1000,1000,48528914,1502,1502,1502,1502
42833693,1000,1000,1000,1000,48628874,1501,1501,1500,1501
42836192,1000,1000,1000,1000,48728834,1501,1500,1500,1501
42838691,1000,1000,1000,1000,48828794,1502,1502,1501,1502
42841190,1000,1000,1000,1000,48928754,1524,1525,1528,1521
42843689,1000,1000,1000,1000,49028714,1543,1543,1549,1536
42846188,1000,1000,1000,1000,49128674,1552,1552,1555,1550
42848687,1000,1000,1000,1000,49228634,1559,1559,1558,1561
42851186,1000,1000,1000,1000,49328594,1565,1564,1560,1568
42853685,1000,1000,1000,1000,49428554,1566,1566,1561,1571
42856184,1000,1000,1000,1000,49528514,1567,1568,1564,1571
42858683,1000,1000,1000,1000,49628474,1570,1570,1569,1571
42861182,1000,1000,1000,1000,49728434,1572,1572,1573,1570
42863681,1000,1000,1000,1000,49828394,1572,1573,1575,1569
42866180,1000,1000,1000,1000,49928354,1574,1574,1577,1571
42868679,1000,1000,1000,1000,50028314,1574,1574,1575,1572
42871178,1000,1000,1000,1000,50128274,1572,1573,1572,1573
42873677,1000,1000,1000,1000,50228234,1570,1569,1573,1576
42876176,1000,1000,1000,1000,50328194,1564,1563,1574,1578
42878675,1000,1000,1000,1000,50428154,1564,1565,1574,1577
42881174,1000,1000,1000,1000,50528947,1566,1566,1572,1573
42883673,1000,1000,1000,1000,50628907,1568,1569,1570,1570
42886172,1000,1000,1000,1000,50728867,1570,1570,1569,1568
42888671,1000,1000,1000,1000,50828827,1572,1571,1567,1566
42891170,1000,1000,1000,1000,50928787,1573,1573,1566,1566
42893669,1000,1000,1000,1000,51028747,1573,1573,1566,1566
42896168,1000,1000,1000,1000,51128707,1575,1574,1567,1567
42898667,1000,1000,1000,1000,51228667,1573,1573,1567,1568
42901166,1000,1000,1000,1000,51328627,1574,1573,1569,1569
42903665,1000,1000,1000,1000,51428587,1572,1572,1570,1570
42906164,1000,1000,1000,1000,51528547,1573,1573,1572,1572
42908663,1000,1000,1000,1000,51628507,1574,1574,1574,1574
42911162,1000,1000,1000,1000,51728467,1574,1573,1576,1574
42913661,1000,1000,1000,1000,51828427,1574,1574,1577,1576
42916160,1000,1000,1000,1000,51928387,1575,1575,1578,1577
42918659,1000,1000,1000,1000,52028347,1575,1576,1578,1578
42921158,1000,1000,1000,1000,52128307,1574,1574,1577,1577
42923657,1000,1000,1000,1000,52228267,1576,1577,1578,1578
42926156,1000,1000,1000,1000,52328227,1576,1576,1577,1578
42928655,1000,1000,1000,1000,52428187,1577,1577,1578,1578
42931154,1000,1000,1000,1000,52528980,1578,1578,1578,1578
42933653,1000,1000,1000,1000,52628940,1578,1578,1577,1577
42936152,1000,1000,1000,1000,52728900,1579,1579,1578,1578
42938651,1000,1000,1000,1000,52828860,1579,1578,1578,1577
42941150,1000,1000,1000,1000,52928820,1578,1579,1577,1577
42943649,1000,1000,1000,1000,53028780,1578,1579,1577,1577
42946148,1000,1000,1000,1000,53128740,1578,1578,1578,1577
42948647,1000,1000,1000,1000,53228700,1578,1578,1578,1578
42951146,1000,1000,1000,1000,53328660,1578,1578,1578,1579
42953645,1000,1000,1000,1000,53428620,1578,1578,1578,1578
42956144,1000,1000,1000,1000,53528580,1578,1578,1578,1578
42958643,1000,1000,1000,1000,53628540,1578,1578,1579,1578
42961142,1000,1000,1000,1000,53728500,1579,1578,1579,1579
42963641,1000,1000,1000,1000,53828460,1579,1579,1580,1580
42966140,1000,1000,1000,1000,53928420,1579,1579,1580,1579
42968639,1000,1000,1000,1000,54028380,1578,1579,1579,1579
42971138,1000,1000,1000,1000,54128340,1579,1580,1580,1580
42973637,1000,1000,1000,1000,54228300,1580,1580,1580,1580
42976136,1000,1000,1000,1000,54328260,1580,1580,1580,1580
42978635,1000,1000,1000,1000,54428220,1579,1579,1579,1579
42981134,1000,1000,1000,1000,54528180,1580,1579,1579,1580
42983633,1000,1000,1000,1000,54628973,1580,1580,1580,1580
42986132,1000,1000,1000,1000,54728933,1579,1580,1579,1579
42988631,1000,1000,1000,1000,54828893,1580,1580,1579,1580
42991130,1000,1000,1000,1000,54928853,1580,1581,1580,1580
42993629,1000,1000,1000,1000,55028813,1580,1580,1580,1580
42996128,1000,1000,1000,1000,55128773,1580,1580,1580,1580
42998627,1000,1000,1000,1000,55228733,1580,1581,1581,1581
43001126,1000,1000,1000,1000,55328693,1579,1580,1579,1580
43003625,1000,1000,1000,1000,55428653,1580,1580,1580,1580
43006124,1000,1000,1000,1000,55528613,1580,1581,1581,1581
43008623,1000,1000,1000,1000,55628573,1580,1581,1581,1581
43011122,1000,1000,1000,1000,55728533,1581,1581,1580,1581
43013621,1000,1000,1000,1000,55828493,1581,1580,1580,1581
43016120,1000,1000,1000,1000,55928453,1581,1580,1580,1581
43018619,1000,1000,1000,1000,56028413,1580,1580,1580,1580
43021118,1000,1000,1000,1000,56128373,1580,1580,1580,1580
43023617,1000,1000,1000,1000,56228333,1581,1581,1581,1581
43026116,1000,1000,1000,1000,56328293,1580,1580,1580,1580
43028615,1000,1000,1000,1000,56428253,1581,1582,1582,1582
43031114,1000,1000,1000,1000,56528213,1581,1582,1587,1576
43033613,1000,1000,1000,1000,56628173,1581,1582,1587,1573
43036112,1000,1000,1000,1000,56728966,1579,1582,1580,1574
43038611,1000,1000,1000,1000,56828926,1577,1580,1570,1573
43041110,1000,1000,1000,1000,56928886,1576,1579,1563,1569
43043609,1000,1000,1000,1000,57028846,1577,1578,1558,1565
43046108,1000,1000,1000,1000,57128806,1578,1577,1555,1560
43048607,1000,1000,1000,1000,57228766,1579,1578,1555,1557
43051106,1000,1000,1000,1000,57328726,1578,1577,1555,1554
43053605,1000,1000,1000,1000,57428686,1578,1578,1557,1554
43056104,1000,1000,1000,1000,57528646,1577,1578,1557,1554
43058603,1000,1000,1000,1000,57628606,1575,1576,1555,1553
43061102,1000,1000,1000,1000,57728566,1575,1576,1555,1554
43063601,1000,1000,1000,1000,57828526,1575,1576,1554,1554
43066100,1000,1000,1000,1000,57928486,1574,1575,1551,1552
43068599,1000,1000,1000,1000,58028446,1575,1577,1550,1551
43071098,1000,1000,1000,1000,58128406,1576,1577,1548,1548
43073597,1000,1000,1000,1000,58228366,1579,1580,1546,1546
43076096,1000,1000,1000,1000,58328326,1581,1582,1543,1542
43078595,1000,1000,1000,1000,58428286,1585,1586,1541,1540
43081094,1000,1000,1000,1000,58528246,1588,1589,1538,1538
43083593,1000,1000,1000,1000,58628206,1591,1592,1536,1536
43086092,1000,1000,1000,1000,58728166,1593,1594,1535,1535
43088591,1000,1000,1000,1000,58828959,1595,1595,1534,1535
43091090,1000,1000,1000,1000,58928919,1594,1594,1534,1537
43093589,1000,1000,1000,1000,59028879,1593,1593,1537,1540
43096088,1000,1000,1000,1000,59128839,1591,1590,1541,1544
43098587,1000,1000,1000,1000,59228799,1586,1584,1548,1551
43101086,1000,1000,1000,1000,59328759,1578,1575,1556,1559
43103585,1000,1000,1000,1000,59428719,1570,1566,1568,1571
43106084,1000,1000,1000,1000,59528679,1559,1556,1581,1582
43108583,1000,1000,1000,1000,59628639,1548,1545,1593,1593
43111082,1000,1000,1000,1000,59728599,1539,1537,1604,1603
43113581,1000,1000,1000,1000,59828559,1532,1531,1611,1610
43116080,1000,1000,1000,1000,59928519,1528,1529,1615,1613
43118579,1000,1000,1000,1000,60028479,1529,1531,1615,1614
43121078,1000,1000,1000,1000,60128439,1533,1536,1612,1611
43123577,1000,1000,1000,1000,60228399,1541,1543,1607,1607
43126076,1000,1000,1000,1000,60328359,1549,1550,1600,1600
43128575,1000,1000,1000,1000,60428319,1558,1558,1592,1592
43131074,1000,1000,1000,1000,60528279,1567,1567,1586,1585
43133573,1000,1000,1000,1000,60628239,1574,1575,1579,1578
43136072,1000,1000,1000,1000,60728199,1581,1580,1573,1573
43138571,1000,1000,1000,1000,60828159,1284,1284,1609,1613
43141070,1000,1000,1000,1000,60928952,1381,1386,1643,1649
43143569,1000,1000,1000,1000,61028912,1451,1460,1636,1633
43146068,1000,1000,1000,1000,61128872,1509,1516,1625,1616
43148567,1000,1000,1000,1000,61228832,1555,1556,1618,1608
43151066,1000,1000,1000,1000,61328792,1596,1583,1608,1601
43153565,1000,1000,1000,1000,61428752,1600,1584,1541,1545
43156064,1000,1000,1000,1000,61528712,1600,1588,1484,1498
43158563,1000,1000,1000,1000,61628672,1600,1598,1491,1505
43161062,1000,1000,1000,1000,61728632,1594,1600,1507,1513
43163561,1000,1000,1000,1000,61828592,1591,1600,1526,1525
43166060,1000,1000,1000,1000,61928552,1592,1600,1545,1540
43168559,1000,1000,1000,1000,62028512,1597,1600,1560,1555
43171058,1000,1000,1000,1000,62128472,1600,1598,1569,1566
43173557,1000,1000,1000,1000,62228432,1600,1596,1571,1571
43176056,1000,1000,1000,1000,62328392,1600,1596,1574,1576
43178555,1000,1000,1000,1000,62428352,1600,1597,1577,1580
43181054,1000,1000,1000,1000,62528312,1600,1598,1583,1579
43183553,1000,1000,1000,1000,62628272,1600,1596,1587,1581
43186052,1000,1000,1000,1000,62728232,1600,1595,1588,1584
43188551,1000,1000,1000,1000,62828192,1600,1596,1588,1587
43191050,1000,1000,1000,1000,62928985,1600,1598,1588,1589
43193549,1000,1000,1000,1000,63028945,1600,1599,1588,1589
43196048,1000,1000,1000,1000,63128905,1598,1600,1585,1590
43198547,1000,1000,1000,1000,63228865,1595,1600,1583,1586
43201046,1000,1000,1000,1000,63328825,1595,1600,1583,1584
43203545,1000,1000,1000,1000,63428785,1596,1600,1585,1583
43206044,1000,1000,1000,1000,63528745,1597,1600,1586,1583
43208543,1000,1000,1000,1000,63628705,1599,1600,1587,1584
43211042,1000,1000,1000,1000,63728665,1599,1600,1586,1585
43213541,1000,1000,1000,1000,63828625,1596,1600,1579,1584
43216040,1000,1000,1000,1000,63928585,1594,1600,1578,1581
43218539,1000,1000,1000,1000,64028545,1594,1600,1578,1578
43221038,1000,1000,1000,1000,64128505,1595,1600,1579,1577
43223537,1000,1000,1000,1000,64228465,1597,1600,1580,1578
43226036,1000,1000,1000,1000,64328425,1598,1600,1580,1579
43228535,1000,1000,1000,1000,64428385,1600,1599,1579,1579
43231034,1000,1000,1000,1000,64528345,1600,1598,1576,1578
43233533,1000,1000,1000,1000,64628305,1600,1590,1575,1565
43236032,1000,1000,1000,1000,64728265,1600,1584,1577,1568
43238531,1000,1000,1000,1000,64828225,1600,1586,1580,1578
43241030,1000,1000,1000,1000,64928185,1600,1590,1582,1585
43243529,1000,1000,1000,1000,65028978,1598,1595,1582,1588
43246028,1000,1000,1000,1000,65128938,1585,1589,1568,1573
43248527,1000,1000,1000,1000,65228898,1577,1584,1560,1562
43251026,1000,1000,1000,1000,65328858,1572,1580,1556,1554
43253525,1000,1000,1000,1000,65428818,1570,1576,1555,1549
43256024,1000,1000,1000,1000,65528778,1570,1573,1553,1547
43258523,1000,1000,1000,1000,65628738,1572,1571,1552,1548
43261022,1000,1000,1000,1000,65728698,1572,1570,1549,1548
43263521,1000,1000,1000,1000,65828658,1571,1569,1548,1547
43266020,1000,1000,1000,1000,65928618,1571,1569,1546,1548
43268519,1000,1000,1000,1000,66028578,1569,1569,1545,1546
43271018,1000,1000,1000,1000,66128538,1568,1570,1546,1546
43273517,1000,1000,1000,1000,66228498,1568,1570,1546,1546
43276016,1000,1000,1000,1000,66328458,1568,1571,1548,1546
43278515,1000,1000,1000,1000,66428418,1568,1570,1547,1545
43281014,1000,1000,1000,1000,66528378,1569,1570,1548,1546
43283513,1000,1000,1000,1000,66628338,1569,1570,1548,1547
43286012,1000,1000,1000,1000,66728298,1570,1571,1548,1548
43288511,1000,1000,1000,1000,66828258,1570,1571,1548,1548
43291010,1000,1000,1000,1000,66928218,1571,1572,1549,1550
43293509,1000,1000,1000,1000,67028178,1572,1572,1550,1550
43296008,1000,1000,1000,1000,67128971,1573,1574,1551,1551
43298507,1000,1000,1000,1000,67228931,1573,1574,1551,1552
43301006,1000,1000,1000,1000,67328891,1574,1575,1551,1552
43303505,1000,1000,1000,1000,67428851,1575,1576,1552,1553
43306004,1000,1000,1000,1000,67528811,1575,1576,1551,1553
43308503,1000,1000,1000,1000,67628771,1577,1576,1552,1554
43311002,1000,1000,1000,1000,67728731,1577,1577,1552,1554
43313501,1000,1000,1000,1000,67828691,1578,1577,1553,1555
43316000,1000,1000,1000,1000,67928651,1578,1578,1552,1554
43318499,1000,1000,1000,1000,68028611,1576,1575,1555,1559
43320998,1000,1000,1000,1000,68128571,1569,1567,1566,1569
43323497,1000,1000,1000,1000,68228531,1561,1559,1578,1581
43325996,1000,1000,1000,1000,68328491,1554,1553,1586,1588
43328495,1000,1000,1000,1000,68428451,1549,1548,1589,1590
43330994,1000,1000,1000,1000,68528411,1546,1546,1592,1591
43333493,1000,1000,1000,1000,68628371,1545,1545,1593,1592
43335992,1000,1000,1000,1000,68728331,1545,1545,1594,1592
43338491,1000,1000,1000,1000,68828291,1546,1546,1593,1592
43340990,1000,1000,1000,1000,68928251,1548,1548,1591,1591
43343489,1000,1000,1000,1000,69028211,1550,1551,1589,1589
43345988,1000,1000,1000,1000,69128171,1553,1554,1588,1587
43348487,1000,1000,1000,1000,69228964,1557,1557,1586,1585
43350986,1000,1000,1000,1000,69328924,1560,1561,1583,1583
43353485,1000,1000,1000,1000,69428884,1564,1564,1582,1582
43355984,1000,1000,1000,1000,69528844,1567,1567,1581,1580
43358483,1000,1000,1000,1000,69628804,1571,1570,1580,1578
43360982,1000,1000,1000,1000,69728764,1574,1573,1579,1578
43363481,1000,1000,1000,1000,69828724,1578,1576,1579,1579
43365980,1000,1000,1000,1000,69928684,1579,1578,1577,1577
43368479,1000,1000,1000,1000,70028644,1580,1579,1576,1577
43370978,1000,1000,1000,1000,70128604,1581,1581,1575,1576
43373477,1000,1000,1000,1000,70228564,1581,1581,1574,1575
43375976,1000,1000,1000,1000,70328524,1582,1582,1574,1574
43378475,1000,1000,1000,1000,70428484,1583,1583,1576,1576
43380974,1000,1000,1000,1000,70528444,1584,1583,1576,1575
43383473,1000,1000,1000,1000,70628404,1584,1583,1576,1575
43385972,1000,1000,1000,1000,70728364,1583,1583,1576,1576
43388471,1000,1000,1000,1000,70828324,1583,1583,1577,1576
43390970,1000,1000,1000,1000,70928284,1583,1583,1577,1576
43393469,1000,1000,1000,1000,71028244,1583,1582,1577,1577
43395968,1000,1000,1000,1000,71128204,1583,1583,1578,1578
43398467,1000,1000,1000,1000,71228164,1582,1582,1578,1579
43400966,1000,1000,1000,1000,71328957,1582,1582,1579,1579
43403465,1000,1000,1000,1000,71428917,1581,1582,1579,1579
43405964,1000,1000,1000,1000,71528877,1581,1582,1579,1579
43408463,1000,1000,1000,1000,71628837,1580,1581,1579,1579
43410962,1000,1000,1000,1000,71728797,1580,1581,1579,1579
43413461,1000,1000,1000,1000,71828757,1580,1580,1580,1579
43415960,1000,1000,1000,1000,71928717,1581,1581,1580,1580
43418459,1000,1000,1000,1000,72028677,1580,1580,1579,1580
43420958,1000,1000,1000,1000,72128637,1580,1579,1578,1579
43423457,1000,1000,1000,1000,72228597,1580,1579,1579,1579
43425956,1000,1000,1000,1000,72328557,1579,1580,1579,1579
43428455,1000,1000,1000,1000,72428517,1579,1579,1579,1579
43430954,1000,1000,1000,1000,72528477,1580,1580,1580,1580
43433453,1000,1000,1000,1000,72628437,1579,1579,1580,1579
43435952,1000,1000,1000,1000,72728397,1580,1580,1580,1580
43438451,1000,1000,1000,1000,72828357,1580,1580,1580,1580
43440950,1000,1000,1000,1000,72928317,1580,1580,1581,1580
43443449,1000,1000,1000,1000,73028277,1581,1580,1581,1581
43445948,1000,1000,1000,1000,73128237,1580,1580,1580,1580
43448447,1000,1000,1000,1000,73228197,1580,1580,1580,1580
43450946,1000,1000,1000,1000,73328157,1580,1580,1579,1580
43453445,1000,1000,1000,1000,73428950,1580,1581,1580,1580
43455944,1000,1000,1000,1000,73528910,1580,1581,1580,1580
43458443,1000,1000,1000,1000,73628870,1580,1580,1580,1580
43460942,1000,1000,1000,1000,73728830,1582,1581,1585,1578
43463441,1000,1000,1000,1000,73828790,1582,1580,1587,1573
43465940,1000,1000,1000,1000,73928750,1580,1579,1580,1572
43468439,1000,1000,1000,1000,74028710,1579,1579,1572,1572
43470938,1000,1000,1000,1000,74128670,1577,1578,1564,1569
43473437,1000,1000,1000,1000,74228630,1576,1578,1560,1566
43475936,1000,1000,1000,1000,74328590,1575,1577,1558,1562
43478435,1000,1000,1000,1000,74428550,1575,1577,1558,1560
43480934,1000,1000,1000,1000,74528510,1576,1577,1558,1558
43483433,1000,1000,1000,1000,74628470,1575,1576,1557,1555
43485932,1000,1000,1000,1000,74728430,1576,1575,1557,1554
43488431,1000,1000,1000,1000,74828390,1576,1575,1556,1554
43490930,1000,1000,1000,1000,74928350,1575,1575,1555,1553
43493429,1000,1000,1000,1000,75028310,1575,1575,1553,1553
43495928,1000,1000,1000,1000,75128270,1576,1576,1551,1552
43498427,1000,1000,1000,1000,75228230,1576,1577,1550,1551
43500926,1000,1000,1000,1000,75328190,1576,1577,1548,1548
43503425,1000,1000,1000,1000,75428983,1576,1578,1546,1545
43505924,1000,1000,1000,1000,75528943,1579,1581,1545,1545
43508423,1000,1000,1000,1000,75628903,1581,1583,1544,1542
43510922,1000,1000,1000,1000,75728863,1584,1584,1542,1542
43513421,1000,1000,1000,1000,75828823,1585,1586,1540,1540
43515920,1000,1000,1000,1000,75928783,1588,1587,1538,1539
43518419,1000,1000,1000,1000,76028743,1590,1589,1539,1539
43520918,1000,1000,1000,1000,76128703,1590,1588,1538,1539
43523417,1000,1000,1000,1000,76228663,1589,1589,1540,1542
43525916,1000,1000,1000,1000,76328623,1588,1587,1543,1545
43528415,1000,1000,1000,1000,76428583,1586,1585,1546,1549
43530914,1000,1000,1000,1000,76528543,1582,1582,1550,1553
43533413,1000,1000,1000,1000,76628503,1578,1577,1556,1559
43535912,1000,1000,1000,1000,76728463,1574,1572,1564,1567
43538411,1000,1000,1000,1000,76828423,1567,1564,1571,1573
43540910,1000,1000,1000,1000,76928383,1560,1557,1581,1582
43543409,1000,1000,1000,1000,77028343,1552,1549,1590,1591
43545908,1000,1000,1000,1000,77128303,1544,1543,1601,1600
43548407,1000,1000,1000,1000,77228263,1537,1537,1607,1606
43550906,1000,1000,1000,1000,77328223,1533,1534,1611,1610
43553405,1000,1000,1000,1000,77428183,1531,1533,1611,1610
43555904,1000,1000,1000,1000,77528976,1532,1536,1608,1609
43558403,1000,1000,1000,1000,77628936,1537,1540,1605,1605
43560902,1000,1000,1000,1000,77728896,1544,1546,1598,1599
43563401,1000,1000,1000,1000,77828856,1551,1553,1592,1591
43565900,1000,1000,1000,1000,77928816,1559,1560,1585,1584
43568399,1000,1000,1000,1000,78028776,1568,1567,1578,1577
43570898,1000,1000,1000,1000,78128736,1575,1573,1573,1571
43573397,1000,1000,1000,1000,78228696,1581,1579,1568,1567
43575896,1000,1000,1000,1000,78328656,1586,1584,1567,1567
43578395,1000,1000,1000,1000,78428616,1588,1586,1566,1565
43580894,1000,1000,1000,1000,78528576,1589,1587,1566,1566
43583393,1000,1000,1000,1000,78628536,1588,1587,1567,1567
43585892,1000,1000,1000,1000,78728496,1587,1587,1569,1570
43588391,1000,1000,1000,1000,78828456,1586,1586,1572,1572
43590890,1000,1000,1000,1000,78928416,1584,1584,1574,1575
43593389,1000,1000,1000,1000,79028376,1582,1583,1577,1577
43595888,1000,1000,1000,1000,79128336,1580,1580,1579,1578
43598387,1000,1000,1000,1000,79228296,1579,1580,1582,1582
43600886,1000,1000,1000,1000,79328256,1577,1578,1583,1583
43603385,1000,1000,1000,1000,79428216,1576,1577,1584,1584
43605884,1000,1000,1000,1000,79528176,1575,1575,1584,1584
43608383,1000,1000,1000,1000,79628969,1575,1575,1585,1585
43610882,1000,1000,1000,1000,79728929,1574,1575,1583,1583
43613381,1000,1000,1000,1000,79828889,1574,1575,1582,1583
43615880,1000,1000,1000,1000,79928849,1576,1576,1582,1582
43618379,1000,1000,1000,1000,80028809,1577,1577,1582,1581
43620878,1000,1000,1000,1000,80128769,1577,1577,1580,1579
43623377,1000,1000,1000,1000,80228729,1579,1579,1580,1580
43625876,1000,1000,1000,1000,80328689,1580,1580,1578,1578
43628375,1000,1000,1000,1000,80428649,1582,1582,1579,1579
43630874,1000,1000,1000,1000,80528609,1582,1582,1579,1579
43633373,1000,1000,1000,1000,80628569,1583,1582,1579,1579
43635872,1000,1000,1000,1000,80728529,1584,1583,1579,1579
43638371,1000,1000,1000,1000,80828489,1583,1582,1579,1579
43640870,1000,1000,1000,1000,80928449,1582,1582,1578,1578
43643369,1000,1000,1000,1000,81028409,1583,1582,1580,1579
43645868,1000,1000,1000,1000,81128369,1582,1582,1580,1580
43648367,1000,1000,1000,1000,81228329,1582,1582,1581,1581
43650866,1000,1000,1000,1000,81328289,1580,1581,1580,1580
43653365,1000,1000,1000,1000,81428249,1581,1582,1582,1581
43655864,1000,1000,1000,1000,81528209,1580,1581,1582,1581
43658363,1000,1000,1000,1000,81628169,1580,1580,1581,1582
43660862,1000,1000,1000,1000,81728962,1581,1581,1582,1582
43663361,1000,1000,1000,1000,81828922,1580,1580,1581,1581
43665860,1000,1000,1000,1000,81928882,1580,1580,1581,1581
43668359,1000,1000,1000,1000,82028842,1580,1580,1587,1574
43670858,1000,1000,1000,1000,82128802,1581,1579,1587,1574
43673357,1000,1000,1000,1000,82228762,1579,1578,1580,1576
43675856,1000,1000,1000,1000,82328722,1575,1575,1571,1575
43678355,1000,1000,1000,1000,82428682,1572,1572,1565,1573
43680854,1000,1000,1000,1000,82528642,1570,1570,1563,1570
43683353,1000,1000,1000,1000,82628602,1568,1569,1564,1568
43685852,1000,1000,1000,1000,82728562,1567,1568,1566,1566
43688351,1000,1000,1000,1000,82828522,1566,1567,1567,1565
43690850,1000,1000,1000,1000,82928482,1565,1566,1567,1564
43693349,1000,1000,1000,1000,83028442,1565,1565,1568,1565
43695848,1000,1000,1000,1000,83128402,1564,1564,1566,1565
43698347,1000,1000,1000,1000,83228362,1563,1564,1565,1565
43700846,1000,1000,1000,1000,83328322,1563,1563,1565,1565
43703345,1000,1000,1000,1000,83428282,1562,1562,1563,1564
43705844,1000,1000,1000,1000,83528242,1561,1561,1563,1563
43708343,1000,1000,1000,1000,83628202,1561,1561,1562,1562
43710842,1000,1000,1000,1000,83728162,1560,1561,1561,1561
43713341,1000,1000,1000,1000,83828955,1560,1561,1561,1561
43715840,1000,1000,1000,1000,83928915,1560,1560,1560,1560
43718339,1000,1000,1000,1000,84028875,1560,1560,1560,1559
43720838,1000,1000,1000,1000,84128835,1559,1559,1559,1559
43723337,1000,1000,1000,1000,84228795,1560,1560,1560,1559
43725836,1000,1000,1000,1000,84328755,1559,1559,1560,1559
43728335,1000,1000,1000,1000,84428715,1559,1559,1560,1558
43730834,1000,1000,1000,1000,84528675,1559,1559,1559,1558
43733333,1000,1000,1000,1000,84628635,1559,1558,1559,1557
43735832,1000,1000,1000,1000,84728595,1559,1559,1560,1558
43738331,1000,1000,1000,1000,84828555,1559,1559,1560,1558
43740830,1000,1000,1000,1000,84928515,1559,1559,1557,1561
43743329,1000,1000,1000,1000,85028475,1559,1560,1557,1563
43745828,1000,1000,1000,1000,85128435,1560,1561,1558,1564
43748327,1000,1000,1000,1000,85228395,1561,1561,1559,1564
43750826,1000,1000,1000,1000,85328355,1560,1561,1560,1562
43753325,1000,1000,1000,1000,85428315,1561,1561,1562,1560
43755824,1000,1000,1000,1000,85528275,1560,1560,1561,1558
43758323,1000,1000,1000,1000,85628235,1559,1559,1561,1556
43760822,1000,1000,1000,1000,85728195,1559,1559,1556,1560
43763321,1000,1000,1000,1000,85828155,1557,1557,1552,1558
43765820,1000,1000,1000,1000,85928948,1554,1554,1549,1553
43768319,1000,1000,1000,1000,86028908,1549,1550,1545,1546
43770818,1000,1000,1000,1000,86128868,1543,1543,1538,1538
43773317,1000,1000,1000,1000,86228828,1537,1537,1532,1530
43775816,1000,1000,1000,1000,86328788,1530,1530,1525,1523
43778315,1000,1000,1000,1000,86428748,1524,1524,1519,1518
43780814,1000,1000,1000,1000,86528708,1521,1520,1518,1518
43783313,1000,1000,1000,1000,86628668,1519,1519,1519,1519
43785812,1000,1000,1000,1000,86728628,1519,1519,1523,1523
43788311,1000,1000,1000,1000,86828588,1521,1521,1527,1528
43790810,1000,1000,1000,1000,86928548,1523,1522,1531,1531
43793309,1000,1000,1000,1000,87028508,1527,1527,1537,1537
43795808,1000,1000,1000,1000,87128468,1531,1531,1542,1541
43798307,1000,1000,1000,1000,87228428,1534,1535,1544,1544
43800806,1000,1000,1000,1000,87328388,1537,1537,1544,1544
43803305,1000,1000,1000,1000,87428348,1540,1540,1545,1545
43805804,1000,1000,1000,1000,87528308,1543,1543,1545,1545
43808303,1000,1000,1000,1000,87628268,1545,1546,1545,1545
43810802,1000,1000,1000,1000,87728228,1548,1548,1545,1544
43813301,1000,1000,1000,1000,87828188,1548,1549,1544,1543
43815800,1000,1000,1000,1000,87928981,1550,1550,1544,1544
43818299,1000,1000,1000,1000,88028941,1550,1550,1544,1544
43820798,1000,1000,1000,1000,88128901,1550,1550,1544,1544
43823297,1000,1000,1000,1000,88228861,1550,1550,1545,1545
43825796,1000,1000,1000,1000,88328821,1549,1549,1544,1544
43828295,1000,1000,1000,1000,88428781,1549,1549,1545,1545
43830794,1000,1000,1000,1000,88528741,1547,1547,1544,1544
43833293,1000,1000,1000,1000,88628701,1546,1546,1544,1545
43835792,1000,1000,1000,1000,88728661,1545,1545,1545,1545
43838291,1000,1000,1000,1000,88828621,1544,1545,1546,1545
43840790,1000,1000,1000,1000,88928581,1543,1543,1545,1545
43843289,1000,1000,1000,1000,89028541,1543,1543,1545,1545
43845788,1000,1000,1000,1000,89128501,1543,1543,1546,1546
43848287,1000,1000,1000,1000,89228461,1543,1543,1546,1545
43850786,1000,1000,1000,1000,89328421,1542,1542,1545,1545
43853285,1000,1000,1000,1000,89428381,1542,1542,1545,1544
43855784,1000,1000,1000,1000,89528341,1543,1542,1544,1544
43858283,1000,1000,1000,1000,89628301,1543,1543,1544,1544
43860782,1000,1000,1000,1000,89728261,1544,1543,1544,1544
43863281,1000,1000,1000,1000,89828221,1544,1543,1544,1543
43865780,1000,1000,1000,1000,89928181,1544,1544,1543,1543
43868279,1000,1000,1000,1000,90028974,1544,1544,1543,1544
43870778,1000,1000,1000,1000,90128934,1544,1545,1544,1544
43873277,1000,1000,1000,1000,90228894,1545,1545,1545,1544
43875776,1000,1000,1000,1000,90328854,1545,1545,1545,1544
43878275,1000,1000,1000,1000,90428814,1545,1545,1544,1544
43880774,1000,1000,1000,1000,90528774,1545,1545,1544,1544
43883273,1000,1000,1000,1000,90628734,1545,1545,1544,1544
43885772,1000,1000,1000,1000,90728694,1545,1545,1544,1545
43888271,1000,1000,1000,1000,90828654,1545,1545,1544,1545
43890770,1000,1000,1000,1000,90928614,1544,1544,1544,1544
43893269,1000,1000,1000,1000,91028574,1545,1545,1545,1545
43895768,1000,1000,1000,1000,91128534,1544,1544,1545,1545
43898267,1000,1000,1000,1000,91228494,1544,1544,1544,1545
43900766,1000,1000,1000,1000,91328454,1545,1544,1545,1545
43903265,1000,1000,1000,1000,91428414,1544,1544,1544,1544
43905764,1000,1000,1000,1000,91528374,1544,1544,1545,1545
43908263,1000,1000,1000,1000,91628334,1544,1545,1544,1545
43910762,1000,1000,1000,1000,91728294,1544,1544,1544,1544
43913261,1000,1000,1000,1000,91828254,1544,1544,1544,1544
43915760,1000,1000,1000,1000,91928214,1544,1544,1544,1545
43918259,1000,1000,1000,1000,92028174,1545,1544,1545,1544
43920758,1000,1000,1000,1000,92128967,1545,1544,1544,1545
43923257,1000,1000,1000,1000,92228927,1544,1544,1544,1544
43925756,1000,1000,1000,1000,92328887,1545,1545,1545,1545
43928255,1000,1000,1000,1000,92428847,1544,1544,1544,1544
43930754,1000,1000,1000,1000,92528807,1545,1545,1545,1545
43933253,1000,1000,1000,1000,92628767,1544,1544,1544,1544
43935752,1000,1000,1000,1000,92728727,1544,1544,1544,1544
43938251,1000,1000,1000,1000,92828687,1544,1544,1544,1544
43940750,1000,1000,1000,1000,92928647,1544,1544,1544,1544
43943249,1000,1000,1000,1000,93028607,1545,1544,1545,1544
43945748,1000,1000,1000,1000,93128567,1544,1544,1544,1544
43948247,1000,1000,1000,1000,93228527,1544,1544,1544,1544
43950746,1000,1000,1000,1000,93328487,1544,1544,1543,1543
43953245,1000,1000,1000,1000,93428447,1543,1544,1544,1543
43955744,1000,1000,1000,1000,93528407,1544,1544,1544,1544
43958243,1000,1000,1000,1000,93628367,1544,1544,1545,1545
43960742,1000,1000,1000,1000,93728327,1544,1544,1544,1545
43963241,1000,1000,1000,1000,93828287,1544,1544,1545,1544
43965740,1000,1000,1000,1000,93928247,1545,1545,1545,1545
43968239,1000,1000,1000,1000,94028207,1545,1545,1545,1545
43970738,1000,1000,1000,1000,94128167,1544,1544,1543,1544
43973237,1000,1000,1000,1000,94228960,1544,1544,1543,1544
43975736,1000,1000,1000,1000,94328920,1544,1544,1544,1544
43978235,1000,1000,1000,1000,94428880,1545,1545,1545,1544
43980734,1000,1000,1000,1000,94528840,1545,1544,1544,1544
43983233,1000,1000,1000,1000,94628800,1544,1544,1543,1543
43985732,1000,1000,1000,1000,94728760,1544,1544,1544,1544
43988231,1000,1000,1000,1000,94828720,1544,1544,1544,1544
43990730,1000,1000,1000,1000,94928680,1544,1544,1544,1544
43993229,1000,1000,1000,1000,95028640,1544,1544,1545,1545
43995728,1000,1000,1000,1000,95128600,1544,1544,1544,1544
43998227,1000,1000,1000,1000,95228560,1544,1544,1544,1544
44000726,1000,1000,1000,1000,95328520,1544,1544,1544,1545
44003225,1000,1000,1000,1000,95428480,1543,1544,1544,1544
44005724,1000,1000,1000,1000,95528440,1543,1544,1543,1544
44008223,1000,1000,1000,1000,95628400,1543,1544,1544,1543
44010722,1000,1000,1000,1000,95728360,1544,1543,1544,1543
44013221,1000,1000,1000,1000,95828320,1544,1544,1544,1544
44015720,1000,1000,1000,1000,95928280,1545,1544,1545,1545
44018219,1000,1000,1000,1000,96028240,1544,1544,1544,1544
44020718,1000,1000,1000,1000,96128200,1501,1500,1480,1481
44023217,1000,1000,1000,1000,96228160,1395,1393,1308,1306
44025716,1000,1000,1000,1000,96328953,1354,1352,1230,1229
44028215,1000,1000,1000,1000,96428913,1342,1340,1206,1204
44030714,1000,1000,1000,1000,96528873,1328,1325,1176,1175
44033213,1000,1000,1000,1000,96628833,1298,1297,1151,1150
44035712,1000,1000,1000,1000,96728793,1211,1208,1150,1150
44038211,1000,1000,1000,1000,96828753,1114,1111,1151,1150
44040710,1000,1000,1000,1000,96928713,1004,1001,1150,1150
44043209,1000,1000,1000,1000,97028673,979,976,1151,1150
44045708,1000,1000,1000,1000,97128633,979,976,1150,1150
44048207,1000,1000,1000,1000,97228593,979,976,1151,1150
44050706,1000,1000,1000,1000,97328553,979,964,1150,1168
44053205,1000,1000,1000,1000,97428513,979,970,1150,1160
44055704,1000,1000,1000,1000,97528473,979,971,1150,1158
44058203,1000,1000,1000,1000,97628433,979,971,1150,1157
44060702,1000,1000,1000,1000,97728393,979,971,1150,1158
44063201,1000,1000,1000,1000,97828353,979,971,1150,1158
44065700,1000,1000,1000,1000,97928313,979,971,1150,1159
44068199,1000,1000,1000,1000,98028273,979,971,1150,1159
44070698,1000,1000,1000,1000,98128233,979,977,1150,1150
44073197,1000,1000,1000,1000,98228193,979,977,1150,1151
44075696,1000,1000,1000,1000,98328986,979,976,1150,1151
44078195,1000,1000,1000,1000,98428946,979,976,1150,1151
44080694,1000,1000,1000,1000,98528906,832,831,1150,1150
44083193,1000,1000,1000,1000,98628866,1000,1000,1000,1000
44085692,1000,1000,1000,1000,98728826,1000,1000,1000,1000
44088191,1000,1000,1000,1000,98828786,1000,1000,1000,1000
44090690,1000,1000,1000,1000,98928746,1000,1000,1000,1000
44093189,1000,1000,1000,1000,99028706,1000,1000,1000,1000
44095688,1000,1000,1000,1000,99128666,1000,1000,1000,1000
44098187,1000,1000,1000,1000,99228626,1000,1000,1000,1000
44100686,1000,1000,1000,1000,99328586,1000,1000,1000,1000
44103185,1000,1000,1000,1000,99428546,1000,1000,1000,1000
44105684,1000,1000,1000,1000,99528506,1000,1000,1000,1000
44108183,1000,1000,1000,1000,99628466,1000,1000,1000,1000
44110682,1000,1000,1000,1000,99728426,1000,1000,1000,1000
44113181,1000,1000,1000,1000,99828386,1000,1000,1000,1000
44115680,1000,1000,1000,1000,99928346,1000,1000,1000,1000
44118179,1000,1000,1000,1000,100028306,1000,1000,1000,1000
44120678,1000,1000,1000,1000,100128266,1000,1000,1000,1000
44123177,1000,1000,1000,1000,100228226,1000,1000,1000,1000
44125676,1000,1000,1000,1000,100328186,1000,1000,1000,1000
44128175,1000,1000,1000,1000,100428979,1000,1000,1000,1000
44130674,1000,1000,1000,1000,100528939,1000,1000,1000,1000
44133173,1000,1000,1000,1000,100628899,1000,1000,1000,1000
44135672,1000,1000,1000,1000,100728859,1000,1000,1000,1000
44138171,1000,1000,1000,1000,100828819,1000,1000,1000,1000
44140670,1000,1000,1000,1000,100928779,1000,1000,1000,1000
44143169,1000,1000,1000,1000,101028739,1000,1000,1000,1000
44145668,1000,1000,1000,1000,101128699,1000,1000,1000,1000
44148167,1000,1000,1000,1000,101228659,1000,1000,1000,1000
44150666,1000,1000,1000,1000,101328619,1000,1000,1000,1000
44153165,1000,1000,1000,1000,101428579,1000,1000,1000,1000
44155664,1000,1000,1000,1000,101528539,1000,1000,1000,1000
44158163,1000,1000,1000,1000,101628499,1000,1000,1000,1000
44160662,1000,1000,1000,1000,101728459,1000,1000,1000,1000
44163161,1000,1000,1000,1000,101828419,1000,1000,1000,1000
44165660,1000,1000,1000,1000,101928379,1000,1000,1000,1000
44168159,1000,1000,1000,1000,102028339,1000,1000,1000,1000
44170658,1000,1000,1000,1000,102128299,1000,1000,1000,1000
44173157,1000,1000,1000,1000,102228259,1000,1000,1000,1000
44175656,1000,1000,1000,1000,102328219,1000,1000,1000,1000
44178155,1000,1000,1000,1000,102428179,1000,1000,1000,1000
44180654,1000,1000,1000,1000,102528972,1000,1000,1000,1000
44183986,1000,1000,1000,1000,102628932,1000,1000,1000,1000
44186485,1000,1000,1000,1000,102728892,1000,1000,1000,1000
44188984,1000,1000,1000,1000,102828852,1000,1000,1000,1000
44191483,1000,1000,1000,1000,102928812,1000,1000,1000,1000
44193982,1000,1000,1000,1000,103028772,1000,1000,1000,1000
44196481,1000,1000,1000,1000,103128732,1000,1000,1000,1000
44198980,1000,1000,1000,1000,103228692,1000,1000,1000,1000
44201479,1000,1000,1000,1000,103328652,1000,1000,1000,1000
44203978,1000,1000,1000,1000,103428612,1000,1000,1000,1000
44206477,1000,1000,1000,1000,103528572,1000,1000,1000,1000
44208976,1000,1000,1000,1000,103628532,1000,1000,1000,1000
44211475,1000,1000,1000,1000,103728492,1000,1000,1000,1000
44213974,1000,1000,1000,1000,103828452,1000,1000,1000,1000
44216473,1000,1000,1000,1000,103928412,1000,1000,1000,1000
44218972,1000,1000,1000,1000,104028372,1000,1000,1000,1000
44221471,1000,1000,1000,1000,104128332,1000,1000,1000,1000
44223970,1000,1000,1000,1000,104228292,1000,1000,1000,1000
44226469,1000,1000,1000,1000,104328252,1000,1000,1000,1000
44228968,1000,1000,1000,1000,104428212,1000,1000,1000,1000
44231467,1000,1000,1000,1000,104528172,1000,1000,1000,1000
44233966,1000,1000,1000,1000,104628965,1000,1000,1000,1000
44236465,1000,1000,1000,1000,104728925,1000,1000,1000,1000
44238964,1000,1000,1000,1000,104828885,1000,1000,1000,1000
44241463,1000,1000,1000,1000,104928845,1000,1000,1000,1000
44243962,1000,1000,1000,1000,105028805,1000,1000,1000,1000
44246461,1000,1000,1000,1000,105128765,1000,1000,1000,1000
44248960,1000,1000,1000,1000,105228725,1000,1000,1000,1000
44251459,1000,1000,1000,1000,105328685,1000,1000,1000,1000
44253958,1000,1000,1000,1000,105428645,1000,1000,1000,1000
44256457,1000,1000,1000,1000,105528605,1000,1000,1000,1000
44258956,1000,1000,1000,1000,105628565,1000,1000,1000,1000
44261455,1000,1000,1000,1000,105728525,1000,1000,1000,1000
44263954,1000,1000,1000,1000,105828485,1000,1000,1000,1000
44266453,1000,1000,1000,1000,105928445,1000,1000,1000,1000
44268952,1000,1000,1000,1000,106028405,1000,1000,1000,1000
44271451,1000,1000,1000,1000,106128365,1000,1000,1000,1000
44273950,1000,1000,1000,1000,106228325,1000,1000,1000,1000
44276449,1000,1000,1000,1000,106328285,1000,1000,1000,1000
44278948,1000,1000,1000,1000,106428245,1000,1000,1000,1000
44281447,1000,1000,1000,1000,106528205,1000,1000,1000,1000
44283946,1000,1000,1000,1000,106628165,1000,1000,1000,1000
44286445,1000,1000,1000,1000,106728958,1000,1000,1000,1000
44288944,1000,1000,1000,1000,106828918,1000,1000,1000,1000
44291443,1000,1000,1000,1000,106928878,1000,1000,1000,1000
44293942,1000,1000,1000,1000,107028838,1000,1000,1000,1000
44296441,1000,1000,1000,1000,107128798,1000,1000,1000,1000
44298940,1000,1000,1000,1000,107228758,1000,1000,1000,1000
44301439,1000,1000,1000,1000,107328718,1000,1000,1000,1000
44303938,1000,1000,1000,1000,107428678,1000,1000,1000,1000
44306437,1000,1000,1000,1000,107528638,1000,1000,1000,1000
44308936,1000,1000,1000,1000,107628598,1000,1000,1000,1000
44311435,1000,1000,1000,1000,107728558,1000,1000,1000,1000
44313934,1000,1000,1000,1000,107828518,1000,1000,1000,1000
44316433,1000,1000,1000,1000,107928478,1000,1000,1000,1000
44318932,1000,1000,1000,1000,108028438,1000,1000,1000,1000
44321431,1000,1000,1000,1000,108128398,1000,1000,1000,1000
44323930,1000,1000,1000,1000,108228358,1000,1000,1000,1000
44326429,1000,1000,1000,1000,108328318,1000,1000,1000,1000
44328928,1000,1000,1000,1000,108428278,1000,1000,1000,1000
44331427,1000,1000,1000,1000,108528238,1000,1000,1000,1000
44333926,1000,1000,1000,1000,108628198,1000,1000,1000,1000
44336425,1000,1000,1000,1000,108728158,1000,1000,1000,1000
44338924,1000,1000,1000,1000,108828951,1000,1000,1000,1000
44341423,1000,1000,1000,1000,108928911,1000,1000,1000,1000
44343922,1000,1000,1000,1000,109028871,1000,1000,1000,1000
44346421,1000,1000,1000,1000,109128831,1000,1000,1000,1000
44348920,1000,1000,1000,1000,109228791,1000,1000,1000,1000
44351419,1000,1000,1000,1000,109328751,1000,1000,1000,1000
44353918,1000,1000,1000,1000,109428711,1000,1000,1000,1000
44356417,1000,1000,1000,1000,109528671,1000,1000,1000,1000
44358916,1000,1000,1000,1000,109628631,1000,1000,1000,1000
44361415,1000,1000,1000,1000,109728591,1000,1000,1000,1000
44363914,1000,1000,1000,1000,109828551,1000,1000,1000,1000
44366413,1000,1000,1000,1000,109928511,1000,1000,1000,1000
44368912,1000,1000,1000,1000,110028471,1000,1000,1000,1000
44371411,1000,1000,1000,1000,110128431,1000,1000,1000,1000
44373910,1000,1000,1000,1000,110228391,1000,1000,1000,1000
44376409,1000,1000,1000,1000,110328351,1000,1000,1000,1000
44378908,1000,1000,1000,1000,110428311,1000,1000,1000,1000
44381407,1000,1000,1000,1000,110528271,1000,1000,1000,1000
44383906,1000,1000,1000,1000,110628231,1000,1000,1000,1000
44386405,1000,1000,1000,1000,110728191,1000,1000,1000,1000
44388904,1000,1000,1000,1000,110828984,1000,1000,1000,1000
44391403,1000,1000,1000,1000,110928944,1000,1000,1000,1000
44393902,1000,1000,1000,1000,111028904,1000,1000,1000,1000
44396401,1000,1000,1000,1000,111128864,1000,1000,1000,1000
44398900,1000,1000,1000,1000,111228824,1000,1000,1000,1000
44401399,1000,1000,1000,1000,111328784,1000,1000,1000,1000
44403898,1000,1000,1000,1000,111428744,1000,1000,1000,1000
44406397,1000,1000,1000,1000,111528704,1000,1000,1000,1000
44408896,1000,1000,1000,1000,111628664,1000,1000,1000,1000
44411395,1000,1000,1000,1000,111728624,1000,1000,1000,1000
44413894,1000,1000,1000,1000,111828584,1000,1000,1000,1000
44416393,1000,1000,1000,1000,111928544,1000,1000,1000,1000
44418892,1000,1000,1000,1000,112028504,1000,1000,1000,1000
44421391,1000,1000,1000,1000,112128464,1000,1000,1000,1000
44423890,1000,1000,1000,1000,112228424,1000,1000,1000,1000
44426389,1000,1000,1000,1000,112328384,1000,1000,1000,1000
44428888,1000,1000,1000,1000,112428344,1000,1000,1000,1000
44431387,1000,1000,1000,1000,112528304,1000,1000,1000,1000
44433886,1000,1000,1000,1000,112628264,1000,1000,1000,1000
44436385,1000,1000,1000,1000,112728224,1000,1000,1000,1000
44438884,1000,1000,1000,1000,112828184,1000,1000,1000,1000
44441383,1000,1000,1000,1000,112928977,1000,1000,1000,1000
44443882,1000,1000,1000,1000,113028937,1000,1000,1000,1000
44446381,1000,1000,1000,1000,113128897,1000,1000,1000,1000
44448880,1000,1000,1000,1000,113228857,1000,1000,1000,1000
44451379,1000,1000,1000,1000,113328817,1000,1000,1000,1000
44453878,1000,1000,1000,1000,113428777,1000,1000,1000,1000
44456377,1000,1000,1000,1000,113528737,1000,1000,1000,1000
44458876,1000,1000,1000,1000,,,,,
44461375,1000,1000,1000,1000,,,,,
44463874,1000,1000,1000,1000,,,,,
44466373,1000,1000,1000,1000,,,,,
44468872,1000,1000,1000,1000,,,,,
44471371,1000,1000,1000,1000,,,,,
44473870,1000,1000,1000,1000,,,,,
44476369,1000,1000,1000,1000,,,,,
44478868,1000,1000,1000,1000,,,,,
44481367,1000,1000,1000,1000,,,,,
44483866,1000,1000,1000,1000,,,,,
44486365,1000,1000,1000,1000,,,,,
44488864,1000,1000,1000,1000,,,,,
44491363,1000,1000,1000,1000,,,,,
44493862,1000,1000,1000,1000,,,,,
44496361,1000,1000,1000,1000,,,,,
44498860,1000,1000,1000,1000,,,,,
44501359,1000,1000,1000,1000,,,,,
44503858,1000,1000,1000,1000,,,,,
44506357,1000,1000,1000,1000,,,,,
44508856,1000,1000,1000,1000,,,,,
44511355,1000,1000,1000,1000,,,,,
44513854,1000,1000,1000,1000,,,,,
44516353,1000,1000,1000,1000,,,,,
44518852,1000,1000,1000,1000,,,,,
44521351,1000,1000,1000,1000,,,,,
44523850,1000,1000,1000,1000,,,,,
44526349,1000,1000,1000,1000,,,,,
44528848,1000,1000,1000,1000,,,,,
44531347,1000,1000,1000,1000,,,,,
44533846,1000,1000,1000,1000,,,,,
44536345,1000,1000,1000,1000,,,,,
44538844,1000,1000,1000,1000,,,,,
44541343,1000,1000,1000,1000,,,,,
44543842,1000,1000,1000,1000,,,,,
44546341,1000,1000,1000,1000,,,,,
44548840,1000,1000,1000,1000,,,,,
44551339,1000,1000,1000,1000,,,,,
44553838,1000,1000,1000,1000,,,,,
44556337,1000,1000,1000,1000,,,,,
44558836,1000,1000,1000,1000,,,,,
44561335,1000,1000,1000,1000,,,,,
44563834,1000,1000,1000,1000,,,,,
44566333,1000,1000,1000,1000,,,,,
44568832,1000,1000,1000,1000,,,,,
44571331,1000,1000,1000,1000,,,,,
44573830,1000,1000,1000,1000,,,,,
44576329,1000,1000,1000,1000,,,,,
44578828,1000,1000,1000,1000,,,,,
44581327,1000,1000,1000,1000,,,,,
44583826,1000,1000,1000,1000,,,,,
44586325,1000,1000,1000,1000,,,,,
44588824,1000,1000,1000,1000,,,,,
44591323,1000,1000,1000,1000,,,,,
44593822,1000,1000,1000,1000,,,,,
44596321,1000,1000,1000,1000,,,,,
44598820,1000,1000,1000,1000,,,,,
44601319,1000,1000,1000,1000,,,,,
44603818,1000,1000,1000,1000,,,,,
44606317,1000,1000,1000,1000,,,,,
44608816,1000,1000,1000,1000,,,,,
44611315,1000,1000,1000,1000,,,,,
44613814,1000,1000,1000,1000,,,,,
44616313,1000,1000,1000,1000,,,,,
44618812,1000,1000,1000,1000,,,,,
44621311,1000,1000,1000,1000,,,,,
44623810,1000,1000,1000,1000,,,,,
44626309,1000,1000,1000,1000,,,,,
44628808,1000,1000,1000,1000,,,,,
44631307,1000,1000,1000,1000,,,,,
44633806,1000,1000,1000,1000,,,,,
44636305,1000,1000,1000,1000,,,,,
44638804,1000,1000,1000,1000,,,,,
44641303,1000,1000,1000,1000,,,,,
44643802,1000,1000,1000,1000,,,,,
44646301,1000,1000,1000,1000,,,,,
44648800,1000,1000,1000,1000,,,,,
44651299,1000,1000,1000,1000,,,,,
44653798,1000,1000,1000,1000,,,,,
44656297,1000,1000,1000,1000,,,,,
44658796,1000,1000,1000,1000,,,,,
44661295,1000,1000,1000,1000,,,,,
44663794,1000,1000,1000,1000,,,,,
44666293,1000,1000,1000,1000,,,,,
44668792,1000,1000,1000,1000,,,,,
44671291,1000,1000,1000,1000,,,,,
44673790,1000,1000,1000,1000,,,,,
44676289,1000,1000,1000,1000,,,,,
44678788,1000,1000,1000,1000,,,,,
44681287,1000,1000,1000,1000,,,,,
44683786,1000,1000,1000,1000,,,,,
44686285,1000,1000,1000,1000,,,,,
44688784,1000,1000,1000,1000,,,,,
44691283,1000,1000,1000,1000,,,,,
44693782,1001,1001,1001,1001,,,,,
44696281,1002,1002,1002,1002,,,,,
44698780,1003,1003,1003,1003,,,,,
44701279,1003,1003,1003,1003,,,,,
44703778,1004,1004,1004,1004,,,,,
44706277,1005,1005,1005,1005,,,,,
44708776,1006,1006,1006,1006,,,,,
44711275,1006,1006,1006,1006,,,,,
44713774,1007,1007,1007,1007,,,,,
44716273,1008,1008,1008,1008,,,,,
44718772,1009,1009,1009,1009,,,,,
44721271,1009,1009,1009,1009,,,,,
44723770,1010,1010,1010,1010,,,,,
44726269,1011,1011,1011,1011,,,,,
44728768,1012,1012,1012,1012,,,,,
44731267,1012,1012,1012,1012,,,,,
44733766,1013,1013,1013,1013,,,,,
44736265,1014,1014,1014,1014,,,,,
44738764,1015,1015,1015,1015,,,,,
44741263,1015,1015,1015,1015,,,,,
44743762,1016,1016,1016,1016,,,,,
44746261,1017,1017,1017,1017,,,,,
44748760,1018,1018,1018,1018,,,,,
44751259,1018,1018,1018,1018,,,,,
44753758,1019,1019,1019,1019,,,,,
44756257,1020,1020,1020,1020,,,,,
44758756,1021,1021,1021,1021,,,,,
44761255,1021,1021,1021,1021,,,,,
44763754,1022,1022,1022,1022,,,,,
44766253,1023,1023,1023,1023,,,,,
44768752,1024,1024,1024,1024,,,,,
44771251,1024,1024,1024,1024,,,,,
44773750,1025,1025,1025,1025,,,,,
44776249,1026,1026,1026,1026,,,,,
44778748,1027,1027,1027,1027,,,,,
44781247,1027,1027,1027,1027,,,,,
44783746,1028,1028,1028,1028,,,,,
44786245,1029,1029,1029,1029,,,,,
44788744,1030,1030,1030,1030,,,,,
44791243,1030,1030,1030,1030,,,,,
44793742,1031,1031,1031,1031,,,,,
44796241,1032,1032,1032,1032,,,,,
44798740,1033,1033,1033,1033,,,,,
44801239,1033,1033,1033,1033,,,,,
44803738,1034,1034,1034,1034,,,,,
44806237,1035,1035,1035,1035,,,,,
44808736,1036,1036,1036,1036,,,,,
44811235,1036,1036,1036,1036,,,,,
44813734,1037,1037,1037,1037,,,,,
44816233,1038,1038,1038,1038,,,,,
44818732,1039,1039,1039,1039,,,,,
44821231,1039,1039,1039,1039,,,,,
44823730,1040,1040,1040,1040,,,,,
44826229,1041,1041,1041,1041,,,,,
44828728,1042,1042,1042,1042,,,,,
44831227,1042,1042,1042,1042,,,,,
44833726,1043,1043,1043,1043,,,,,
44836225,1044,1044,1044,1044,,,,,
44838724,1045,1045,1045,1045,,,,,
44841223,1045,1045,1045,1045,,,,,
44843722,1046,1046,1046,1046,,,,,
44846221,1047,1047,1047,1047,,,,,
44848720,1048,1048,1048,1048,,,,,
44851219,1048,1048,1048,1048,,,,,
44853718,1049,1049,1049,1049,,,,,
44856217,1050,1050,1050,1050,,,,,
44858716,1051,1051,1051,1051,,,,,
44861215,1051,1051,1051,1051,,,,,
44863714,1052,1052,1052,1052,,,,,
44866213,1053,1053,1053,1053,,,,,
44868712,1054,1054,1054,1054,,,,,
44871211,1054,1054,1054,1054,,,,,
44873710,1055,1055,1055,1055,,,,,
44876209,1056,1056,1056,1056,,,,,
44878708,1057,1057,1057,1057,,,,,
44881207,1057,1057,1057,1057,,,,,
44883706,1058,1058,1058,1058,,,,,
44886205,1059,1059,1059,1059,,,,,
44888704,1060,1060,1060,1060,,,,,
44891203,1060,1060,1060,1060,,,,,
44893702,1061,1061,1061,1061,,,,,
44896201,1062,1062,1062,1062,,,,,
44898700,1063,1063,1063,1063,,,,,
44901199,1063,1063,1063,1063,,,,,
44903698,1064,1064,1064,1064,,,,,
44906197,1065,1065,1065,1065,,,,,
44908696,1066,1066,1066,1066,,,,,
44911195,1066,1066,1066,1066,,,,,
44913694,1067,1067,1067,1067,,,,,
44916193,1068,1068,1068,1068,,,,,
44918692,1069,1069,1069,1069,,,,,
44921191,1069,1069,1069,1069,,,,,
44923690,1070,1070,1070,1070,,,,,
44926189,1071,1071,1071,1071,,,,,
44928688,1072,1072,1072,1072,,,,,
44931187,1072,1072,1072,1072,,,,,
44933686,1073,1073,1073,1073,,,,,
44936185,1074,1074,1074,1074,,,,,
44938684,1075,1075,1075,1075,,,,,
44941183,1075,1075,1075,1075,,,,,
44943682,1076,1076,1076,1076,,,,,
44946181,1077,1077,1077,1077,,,,,
44948680,1078,1078,1078,1078,,,,,
44951179,1078,1078,1078,1078,,,,,
44953678,1079,1079,1079,1079,,,,,
44956177,1080,1080,1080,1080,,,,,
44958676,1081,1081,1081,1081,,,,,
44961175,1081,1081,1081,1081,,,,,
44963674,1082,1082,1082,1082,,,,,
44966173,1083,1083,1083,1083,,,,,
44968672,1084,1084,1084,1084,,,,,
44971171,1084,1084,1084,1084,,,,,
44973670,1085,1085,1085,1085,,,,,
44976169,1086,1086,1086,1086,,,,,
44978668,1087,1087,1087,1087,,,,,
44981167,1087,1087,1087,1087,,,,,
44983666,1088,1088,1088,1088,,,,,
44986165,1089,1089,1089,1089,,,,,
44988664,1090,1090,1090,1090,,,,,
44991163,1090,1090,1090,1090,,,,,
44993662,1091,1091,1091,1091,,,,,
44996161,1092,1092,1092,1092,,,,,
44998660,1093,1093,1093,1093,,,,,
45001159,1093,1093,1093,1093,,,,,
45003658,1094,1094,1094,1094,,,,,
45006157,1095,1095,1095,1095,,,,,
45008656,1096,1096,1096,1096,,,,,
45011155,1096,1096,1096,1096,,,,,
45013654,1097,1097,1097,1097,,,,,
45016153,1098,1098,1098,1098,,,,,
45018652,1099,1099,1099,1099,,,,,
45021151,1099,1099,1099,1099,,,,,
45023650,1100,1100,1100,1100,,,,,
45026149,1101,1101,1101,1101,,,,,
45028648,1101,1101,1101,1101,,,,,
45031147,1102,1102,1102,1102,,,,,
45033646,1103,1103,1103,1103,,,,,
45036145,1104,1104,1104,1104,,,,,
45038644,1104,1104,1104,1104,,,,,
45041143,1105,1105,1105,1105,,,,,
45043642,1106,1106,1106,1106,,,,,
45046141,1107,1107,1107,1107,,,,,
45048640,1107,1107,1107,1107,,,,,
45051139,1108,1108,1108,1108,,,,,
45053638,1109,1109,1109,1109,,,,,
45056137,1110,1110,1110,1110,,,,,
45058636,1110,1110,1110,1110,,,,,
45061135,1111,1111,1111,1111,,,,,
45063634,1112,1112,1112,1112,,,,,
45066133,1113,1113,1113,1113,,,,,
45068632,1113,1113,1113,1113,,,,,
45071131,1114,1114,1114,1114,,,,,
45073630,1115,1115,1115,1115,,,,,
45076129,1116,1116,1116,1116,,,,,
45078628,1116,1116,1116,1116,,,,,
45081127,1117,1117,1117,1117,,,,,
45083626,1118,1118,1118,1118,,,,,
45086125,1119,1119,1119,1119,,,,,
45088624,1119,1119,1119,1119,,,,,
45091123,1120,1120,1120,1120,,,,,
45093622,1121,1121,1121,1121,,,,,
45096121,1122,1122,1122,1122,,,,,
45098620,1122,1122,1122,1122,,,,,
45101119,1123,1123,1123,1123,,,,,
45103618,1124,1124,1124,1124,,,,,
45106117,1125,1125,1125,1125,,,,,
45108616,1125,1125,1125,1125,,,,,
45111115,1126,1126,1126,1126,,,,,
45113614,1127,1127,1127,1127,,,,,
45116113,1128,1128,1128,1128,,,,,
45118612,1128,1128,1128,1128,,,,,
45121111,1129,1129,1129,1129,,,,,
45123610,1130,1130,1130,1130,,,,,
45126109,1131,1131,1131,1131,,,,,
45128608,1131,1131,1131,1131,,,,,
45131107,1132,1132,1132,1132,,,,,
45133606,1133,1133,1133,1133,,,,,
45136105,1134,1134,1134,1134,,,,,
45138604,1134,1134,1134,1134,,,,,
45141103,1135,1135,1135,1135,,,,,
45143602,1136,1136,1136,1136,,,,,
45146101,1137,1137,1137,1137,,,,,
45148600,1137,1137,1137,1137,,,,,
45151099,1138,1138,1138,1138,,,,,
45153598,1139,1139,1139,1139,,,,,
45156097,1140,1140,1140,1140,,,,,
45158596,1140,1140,1140,1140,,,,,
45161095,1141,1141,1141,1141,,,,,
45163594,1142,1142,1142,1142,,,,,
45166093,1143,1143,1143,1143,,,,,
45168592,1143,1143,1143,1143,,,,,
45171091,1144,1144,1144,1144,,,,,
45173590,1145,1145,1145,1145,,,,,
45176089,1146,1146,1146,1146,,,,,
45178588,1146,1146,1146,1146,,,,,
45181087,1147,1147,1147,1147,,,,,
45183586,1148,1148,1148,1148,,,,,
45186085,1149,1149,1149,1149,,,,,
45188584,1149,1149,1149,1149,,,,,
45191083,1150,1150,1150,1150,,,,,
45193582,1161,1154,1154,1162,,,,,
45196081,1169,1162,1162,1170,,,,,
45198580,1177,1170,1170,1178,,,,,
45201079,1185,1178,1178,1185,,,,,
45203578,1192,1185,1186,1193,,,,,
45206077,1200,1193,1193,1200,,,,,
45208576,1207,1200,1201,1208,,,,,
45211075,1214,1207,1208,1215,,,,,
45213574,1221,1215,1215,1222,,,,,
45216073,1228,1222,1222,1229,,,,,
45218572,1235,1229,1229,1236,,,,,
45221071,1242,1236,1236,1242,,,,,
45223570,1249,1242,1243,1249,,,,,
45226069,1255,1249,1250,1256,,,,,
45228568,1262,1256,1256,1262,,,,,
45231067,1268,1262,1263,1269,,,,,
45233566,1275,1269,1269,1275,,,,,
45236065,1281,1275,1275,1281,,,,,
45238564,1287,1281,1282,1288,,,,,
45241063,1293,1287,1288,1294,,,,,
45243562,1299,1293,1294,1300,,,,,
45246061,1305,1300,1300,1306,,,,,
45248560,1311,1306,1306,1312,,,,,
45251059,1317,1312,1312,1318,,,,,
45253558,1323,1317,1318,1323,,,,,
45256057,1329,1323,1324,1329,,,,,
45258556,1334,1329,1329,1335,,,,,
45261055,1340,1335,1335,1341,,,,,
45263554,1346,1340,1341,1346,,,,,
45266053,1351,1346,1346,1352,,,,,
45268552,1357,1351,1352,1357,,,,,
45271051,1362,1357,1357,1363,,,,,
45273550,1368,1362,1363,1368,,,,,
45276049,1373,1368,1368,1373,,,,,
45278548,1378,1373,1373,1379,,,,,
45281047,1384,1378,1379,1384,,,,,
45283546,1389,1384,1384,1389,,,,,
45286045,1394,1389,1389,1394,,,,,
45288544,1399,1394,1394,1400,,,,,
45291043,1404,1399,1399,1405,,,,,
45293542,1409,1404,1404,1410,,,,,
45296041,1414,1409,1409,1415,,,,,
45298540,1419,1414,1414,1420,,,,,
45301039,1424,1419,1419,1425,,,,,
45303538,1429,1424,1424,1430,,,,,
45306037,1434,1429,1429,1435,,,,,
45308536,1439,1434,1434,1439,,,,,
45311035,1444,1439,1439,1444,,,,,
45313534,1448,1444,1444,1449,,,,,
45316033,1453,1448,1448,1454,,,,,
45318532,1458,1453,1453,1459,,,,,
45321031,1462,1458,1458,1463,,,,,
45323530,1467,1462,1462,1468,,,,,
45326029,1472,1467,1467,1472,,,,,
45328528,1476,1472,1472,1477,,,,,
45331027,1481,1476,1476,1482,,,,,
45333526,1485,1481,1481,1486,,,,,
45336025,1490,1485,1485,1491,,,,,
45338524,1494,1490,1490,1495,,,,,
45341023,1499,1494,1494,1500,,,,,
45343522,1503,1499,1499,1504,,,,,
45346021,1508,1503,1503,1508,,,,,
45348520,1512,1508,1508,1513,,,,,
45351019,1516,1512,1512,1517,,,,,
45353518,1521,1516,1516,1521,,,,,
45356017,1525,1521,1521,1526,,,,,
45358516,1529,1525,1525,1530,,,,,
45361015,1533,1529,1529,1534,,,,,
45363514,1538,1533,1533,1538,,,,,
45366013,1542,1538,1538,1542,,,,,
45368512,1546,1542,1542,1547,,,,,
45371011,1550,1546,1546,1551,,,,,
45373510,1554,1550,1550,1555,,,,,
45376009,1558,1554,1554,1559,,,,,
45378508,1563,1558,1559,1563,,,,,
45381007,1567,1562,1563,1567,,,,,
45383506,1571,1567,1567,1571,,,,,
45386005,1575,1571,1571,1575,,,,,
45388504,1579,1575,1575,1579,,,,,
45391003,1583,1579,1579,1583,,,,,
45393502,1587,1583,1583,1587,,,,,
45396001,1591,1587,1587,1591,,,,,
45398500,1594,1591,1591,1595,,,,,
45400999,1598,1595,1595,1599,,,,,
45403498,1602,1598,1599,1603,,,,,
45405997,1606,1602,1603,1607,,,,,
45408496,1610,1606,1606,1610,,,,,
45410995,1614,1610,1610,1614,,,,,
45413494,1618,1614,1614,1618,,,,,
45415993,1622,1618,1618,1622,,,,,
45418492,1625,1622,1622,1626,,,,,
45420991,1629,1625,1626,1630,,,,,
45423490,1633,1629,1629,1633,,,,,
45425989,1637,1633,1633,1637,,,,,
45428488,1640,1637,1637,1641,,,,,
45430987,1644,1640,1641,1645,,,,,
45433486,1648,1644,1644,1648,,,,,
45435985,1652,1648,1648,1652,,,,,
45438484,1655,1652,1652,1656,,,,,
45440983,1659,1655,1655,1659,,,,,
45443482,1663,1659,1659,1663,,,,,
45445981,1666,1662,1663,1667,,,,,
45448480,1670,1666,1666,1670,,,,,
45450979,1673,1670,1670,1674,,,,,
45453478,1677,1673,1673,1677,,,,,
45455977,1681,1677,1677,1681,,,,,
45458476,1684,1680,1681,1685,,,,,
45460975,1688,1684,1684,1688,,,,,
45463474,1691,1688,1688,1692,,,,,
45465973,1695,1691,1691,1695,,,,,
45468472,1698,1695,1695,1699,,,,,
45470971,1702,1698,1698,1702,,,,,
45473470,1705,1702,1702,1706,,,,,
45475969,1709,1705,1705,1709,,,,,
45478468,1712,1709,1709,1713,,,,,
45480967,1716,1712,1712,1716,,,,,
45483466,1719,1715,1715,1720,,,,,
45485965,1722,1719,1719,1723,,,,,
45488464,1726,1722,1722,1726,,,,,
45490963,1729,1726,1726,1730,,,,,
45493462,1733,1729,1729,1733,,,,,
45495961,1736,1732,1732,1737,,,,,
45498460,1739,1736,1736,1740,,,,,
45500959,1743,1739,1739,1743,,,,,
45503458,1746,1742,1742,1747,,,,,
45505957,1749,1746,1746,1750,,,,,
45508456,1753,1749,1749,1753,,,,,
45510955,1756,1752,1752,1757,,,,,
45513454,1759,1756,1756,1760,,,,,
45515953,1763,1759,1759,1763,,,,,
45518452,1766,1762,1762,1766,,,,,
45520951,1769,1766,1766,1770,,,,,
45523450,1772,1769,1769,1773,,,,,
45525949,1776,1772,1772,1776,,,,,
45528448,1779,1775,1775,1780,,,,,
45530947,1782,1778,1778,1783,,,,,
45533446,1785,1782,1782,1786,,,,,
45535945,1789,1785,1785,1789,,,,,
45538444,1792,1788,1788,1792,,,,,
45540943,1795,1791,1791,1796,,,,,
45543442,1798,1794,1794,1799,,,,,
45545941,1801,1798,1798,1802,,,,,
45548440,1804,1801,1801,1805,,,,,
45550939,1808,1804,1804,1808,,,,,
45553438,1811,1807,1807,1811,,,,,
45555937,1814,1810,1810,1815,,,,,
45558436,1817,1813,1813,1818,,,,,
45560935,1820,1816,1816,1821,,,,,
45563434,1823,1820,1819,1824,,,,,
45565933,1826,1823,1823,1827,,,,,
45568432,1829,1826,1826,1830,,,,,
45570931,1832,1829,1829,1833,,,,,
45573430,1835,1832,1832,1836,,,,,
45575929,1838,1835,1835,1839,,,,,
45578428,1841,1838,1838,1842,,,,,
45580927,1845,1841,1841,1845,,,,,
45583426,1848,1844,1844,1848,,,,,
45585925,1851,1847,1847,1851,,,,,
45588424,1854,1850,1850,1854,,,,,
45590923,1857,1853,1853,1857,,,,,
45593422,1860,1856,1856,1860,,,,,
45595921,1863,1859,1859,1863,,,,,
45598420,1865,1862,1862,1866,,,,,
45600919,1868,1865,1865,1869,,,,,
45603418,1871,1868,1868,1872,,,,,
45605917,1874,1871,1871,1875,,,,,
45608416,1877,1874,1874,1878,,,,,
45610915,1880,1877,1877,1881,,,,,
45613414,1883,1880,1880,1884,,,,,
45615913,1886,1883,1883,1887,,,,,
45618412,1889,1886,1886,1890,,,,,
45620911,1892,1889,1889,1893,,,,,
45623410,1895,1892,1892,1895,,,,,
45625909,1898,1895,1895,1898,,,,,
45628408,1901,1897,1897,1901,,,,,
45630907,1904,1900,1900,1904,,,,,
45633406,1906,1903,1903,1907,,,,,
45635905,1909,1906,1906,1910,,,,,
45638404,1912,1909,1909,1913,,,,,
45640903,1915,1912,1912,1915,,,,,
45643402,1918,1915,1915,1918,,,,,
45645901,1921,1917,1918,1921,,,,,
45648400,1924,1920,1920,1924,,,,,
45650899,1926,1923,1923,1927,,,,,
45653398,1929,1926,1926,1930,,,,,
45655897,1929,1926,1926,1930,,,,,
45658396,1929,1925,1925,1929,,,,,
45660895,1928,1925,1925,1928,,,,,
45663394,1927,1924,1924,1928,,,,,
45665893,1926,1923,1923,1927,,,,,
45668392,1926,1922,1922,1926,,,,,
45670891,1925,1922,1922,1926,,,,,
45673390,1925,1921,1921,1925,,,,,
45675889,1924,1921,1921,1925,,,,,
45678388,1924,1920,1920,1924,,,,,
45680887,1923,1920,1920,1924,,,,,
45683386,1923,1919,1919,1923,,,,,
45685885,1922,1919,1919,1923,,,,,
45688384,1922,1918,1919,1922,,,,,
45690883,1921,1918,1918,1922,,,,,
45693382,1921,1918,1918,1921,,,,,
45695881,1920,1917,1917,1920,,,,,
45698380,1919,1916,1917,1920,,,,,
45700879,1918,1916,1916,1919,,,,,
45703378,1917,1915,1915,1918,,,,,
45705877,1916,1914,1914,1917,,,,,
45708376,1915,1913,1913,1915,,,,,
45710875,1914,1911,1912,1914,,,,,
45713374,1912,1910,1910,1913,,,,,
45715873,1911,1908,1909,1911,,,,,
45718372,1909,1907,1907,1909,,,,,
45720871,1907,1905,1905,1907,,,,,
45723370,1905,1903,1903,1905,,,,,
45725869,1903,1901,1901,1903,,,,,
45728368,1901,1898,1899,1901,,,,,
45730867,1898,1896,1896,1898,,,,,
45733366,1896,1894,1894,1896,,,,,
45735865,1893,1891,1892,1893,,,,,
45738364,1891,1888,1889,1891,,,,,
45740863,1888,1886,1886,1888,,,,,
45743362,1885,1883,1883,1885,,,,,
45745861,1882,1880,1881,1882,,,,,
45748360,1879,1877,1878,1879,,,,,
45750859,1876,1874,1875,1876,,,,,
45753358,1873,1871,1871,1873,,,,,
45755857,1870,1868,1868,1870,,,,,
45758356,1866,1865,1865,1867,,,,,
45760855,1863,1862,1862,1863,,,,,
45763354,1860,1859,1859,1860,,,,,
45765853,1857,1855,1855,1857,,,,,
45768352,1853,1852,1852,1854,,,,,
45770851,1850,1849,1849,1850,,,,,
45773350,1846,1845,1846,1847,,,,,
45775849,1843,1842,1842,1843,,,,,
45778348,1840,1839,1839,1840,,,,,
45780847,1836,1835,1835,1837,,,,,
45783346,1833,1832,1832,1833,,,,,
45785845,1829,1829,1829,1830,,,,,
45788344,1826,1825,1825,1826,,,,,
45790843,1823,1822,1822,1823,,,,,
45793342,1819,1818,1819,1819,,,,,
45795841,1816,1815,1815,1816,,,,,
45798340,1812,1812,1812,1812,,,,,
45800839,1809,1808,1808,1809,,,,,
45803338,1805,1805,1805,1806,,,,,
45805837,1802,1801,1802,1802,,,,,
45808336,1798,1798,1798,1799,,,,,
45810835,1795,1795,1795,1795,,,,,
45813334,1792,1791,1791,1792,,,,,
45815833,1788,1788,1788,1789,,,,,
45818332,1785,1785,1785,1785,,,,,
45820831,1782,1781,1781,1782,,,,,
45823330,1778,1778,1778,1779,,,,,
45825829,1775,1775,1775,1775,,,,,
45828328,1772,1771,1772,1772,,,,,
45830827,1768,1768,1768,1769,,,,,
45833326,1765,1765,1765,1766,,,,,
