TimeUS,M1,M2,M3,M4,TimeUS,C1,C2,C3,C4
77906325,1000,1000,1000,1000,77928816,1000,1000,1000,1000
77908824,1000,1000,1000,1000,78028776,1000,1000,1000,1000
77911323,1000,1000,1000,1000,78128736,1000,1000,1000,1000
77913822,1000,1000,1000,1000,78228696,1000,1000,1000,1000
77916321,1000,1000,1000,1000,78328656,1000,1000,1000,1000
77918820,1000,1000,1000,1000,78428616,1000,1000,1000,1000
77921319,1000,1000,1000,1000,78528576,1000,1000,1000,1000
77923818,1000,1000,1000,1000,78628536,1000,1000,1000,1000
77926317,1000,1000,1000,1000,78728496,1000,1000,1000,1000
77928816,1000,1000,1000,1000,78828456,1000,1000,1000,1000
77931315,1000,1000,1000,1000,78928416,1000,1000,1000,1000
77933814,1000,1000,1000,1000,79028376,1000,1000,1000,1000
77936313,1000,1000,1000,1000,79128336,1000,1000,1000,1000
77938812,1000,1000,1000,1000,79228296,1000,1000,1000,1000
77941311,1000,1000,1000,1000,79328256,1000,1000,1000,1000
77943810,1000,1000,1000,1000,79428216,1000,1000,1000,1000
77946309,1000,1000,1000,1000,79528176,1000,1000,1000,1000
77948808,1000,1000,1000,1000,79628969,1000,1000,1000,1000
77951307,1000,1000,1000,1000,79728929,1000,1000,1000,1000
77953806,1000,1000,1000,1000,79828889,1000,1000,1000,1000
77956305,1000,1000,1000,1000,79928849,1006,1006,1006,1006
77958804,1000,1000,1000,1000,80028809,1036,1036,1036,1036
77961303,1000,1000,1000,1000,80128769,1066,1066,1066,1066
77963802,1000,1000,1000,1000,80228729,1096,1096,1096,1096
77966301,1000,1000,1000,1000,80328689,1126,1126,1126,1126
77968800,1000,1000,1000,1000,80428649,1217,1205,1206,1217
77971299,1000,1000,1000,1000,80528609,1446,1437,1437,1446
77973798,1000,1000,1000,1000,80628569,1616,1608,1609,1616
77976297,1000,1000,1000,1000,80728529,1758,1750,1751,1758
77978796,1000,1000,1000,1000,80828489,1882,1875,1875,1883
77981295,1000,1000,1000,1000,80928449,1907,1902,1903,1908
77983794,1000,1000,1000,1000,81028409,1793,1791,1792,1793
77986293,1000,1000,1000,1000,81128369,1683,1685,1685,1684
77988792,1000,1000,1000,1000,81228329,1639,1643,1643,1640
77991291,1000,1000,1000,1000,81328289,1636,1636,1633,1639
77993790,1000,1000,1000,1000,81428249,1638,1643,1635,1646
77996289,1000,1000,1000,1000,81528209,1636,1640,1635,1641
77998788,1000,1000,1000,1000,81628169,1632,1634,1633,1632
78001287,1000,1000,1000,1000,81728962,1625,1625,1628,1622
78003786,1000,1000,1000,1000,81828922,1622,1620,1625,1617
78006285,1000,1000,1000,1000,81928882,1621,1618,1623,1616
78008784,1000,1000,1000,1000,82028842,1607,1605,1611,1601
78011283,1000,1000,1000,1000,82128802,1583,1582,1593,1572
78013782,1000,1000,1000,1000,82228762,1570,1570,1575,1565
78016281,1000,1000,1000,1000,82328722,1559,1560,1557,1561
78018780,1000,1000,1000,1000,82428682,1549,1550,1543,1555
78021279,1000,1000,1000,1000,82528642,1543,1543,1533,1552
78023778,1000,1000,1000,1000,82628602,1537,1537,1528,1546
78026277,1000,1000,1000,1000,82728562,1532,1531,1526,1537
78028776,1000,1000,1000,1000,82828522,1527,1526,1524,1528
78031275,1000,1000,1000,1000,82928482,1525,1524,1525,1523
78033774,1000,1000,1000,1000,83028442,1525,1525,1527,1523
78036273,1000,1000,1000,1000,83128402,1529,1528,1531,1526
78038772,1000,1000,1000,1000,83228362,1531,1532,1535,1529
78041271,1000,1000,1000,1000,83328322,1535,1536,1538,1534
78043770,1000,1000,1000,1000,83428282,1540,1539,1542,1539
78046269,1000,1000,1000,1000,83528242,1543,1543,1544,1543
78048768,1000,1000,1000,1000,83628202,1546,1546,1546,1546
78051267,1000,1000,1000,1000,83728162,1549,1549,1549,1550
78053766,1000,1000,1000,1000,83828955,1552,1552,1552,1553
78056265,1000,1000,1000,1000,83928915,1556,1555,1554,1557
78058764,1000,1000,1000,1000,84028875,1560,1560,1552,1555
78061263,1000,1000,1000,1000,84128835,1563,1562,1555,1556
78063762,1000,1000,1000,1000,84228795,1562,1562,1560,1560
78066261,1000,1000,1000,1000,84328755,1561,1560,1564,1564
78068760,1000,1000,1000,1000,84428715,1560,1560,1567,1566
78071259,1000,1000,1000,1000,84528675,1560,1561,1570,1569
78073758,1000,1000,1000,1000,84628635,1562,1563,1571,1570
78076257,1000,1000,1000,1000,84728595,1564,1565,1572,1571
78078756,1000,1000,1000,1000,84828555,1566,1567,1572,1572
78081255,1000,1000,1000,1000,84928515,1568,1568,1571,1571
78083754,1000,1000,1000,1000,85028475,1570,1570,1570,1571
78086253,1000,1000,1000,1000,85128435,1572,1572,1571,1571
78088752,1000,1000,1000,1000,85228395,1574,1574,1571,1570
78091251,1000,1000,1000,1000,85328355,1575,1575,1571,1571
78093750,1000,1000,1000,1000,85428315,1576,1576,1572,1571
78096249,1000,1000,1000,1000,85528275,1577,1576,1572,1571
78098748,1000,1000,1000,1000,85628235,1578,1578,1574,1573
78101247,1000,1000,1000,1000,85728195,1578,1578,1574,1573
78103746,1000,1000,1000,1000,85828155,1577,1577,1574,1574
78106245,1000,1000,1000,1000,85928948,1576,1576,1574,1574
78108744,1000,1000,1000,1000,86028908,1575,1576,1575,1576
78111243,1000,1000,1000,1000,86128868,1576,1576,1576,1577
78113742,1000,1000,1000,1000,86228828,1575,1575,1577,1577
78116241,1000,1000,1000,1000,86328788,1576,1576,1577,1577
78118740,1000,1000,1000,1000,86428748,1576,1576,1578,1578
78121239,1000,1000,1000,1000,86528708,1576,1576,1578,1578
78123738,1000,1000,1000,1000,86628668,1577,1577,1579,1579
78126237,1000,1000,1000,1000,86728628,1578,1578,1579,1579
78128736,1000,1000,1000,1000,86828588,1578,1578,1579,1579
78131235,1000,1000,1000,1000,86928548,1579,1579,1579,1579
78133734,1000,1000,1000,1000,87028508,1579,1579,1579,1578
78136233,1000,1000,1000,1000,87128468,1580,1580,1579,1580
78138732,1000,1000,1000,1000,87228428,1579,1579,1578,1578
78141231,1000,1000,1000,1000,87328388,1579,1579,1578,1579
78143730,1000,1000,1000,1000,87428348,1580,1579,1579,1579
78146229,1000,1000,1000,1000,87528308,1580,1579,1578,1578
78148728,1000,1000,1000,1000,87628268,1579,1579,1579,1578
78151227,1000,1000,1000,1000,87728228,1578,1578,1578,1578
78153726,1000,1000,1000,1000,87828188,1578,1579,1578,1578
78156225,1000,1000,1000,1000,87928981,1579,1579,1579,1579
78158724,1000,1000,1000,1000,88028941,1579,1579,1579,1580
78161223,1000,1000,1000,1000,88128901,1578,1579,1579,1579
78163722,1000,1000,1000,1000,88228861,1579,1579,1579,1579
78166221,1000,1000,1000,1000,88328821,1580,1579,1580,1580
78168720,1000,1000,1000,1000,88428781,1580,1580,1580,1580
78171219,1000,1000,1000,1000,88528741,1580,1580,1580,1580
78173718,1000,1000,1000,1000,88628701,1580,1580,1580,1581
78176217,1000,1000,1000,1000,88728661,1581,1581,1581,1581
78178716,1000,1000,1000,1000,88828621,1580,1580,1580,1580
78181215,1000,1000,1000,1000,88928581,1580,1580,1580,1580
78183714,1000,1000,1000,1000,89028541,1580,1579,1580,1579
78186213,1000,1000,1000,1000,89128501,1581,1581,1581,1581
78188712,1000,1000,1000,1000,89228461,1580,1580,1580,1581
78191211,1000,1000,1000,1000,89328421,1581,1581,1581,1581
78193710,1000,1000,1000,1000,89428381,1582,1581,1582,1581
78196209,1000,1000,1000,1000,89528341,1582,1582,1582,1581
78198708,1000,1000,1000,1000,89628301,1581,1581,1582,1581
78201207,1000,1000,1000,1000,89728261,1580,1581,1580,1581
78203706,1000,1000,1000,1000,89828221,1581,1581,1580,1581
78206205,1000,1000,1000,1000,89928181,1581,1580,1580,1581
78208704,1000,1000,1000,1000,90028974,1581,1581,1581,1580
78211203,1000,1000,1000,1000,90128934,1581,1581,1581,1581
78213702,1000,1000,1000,1000,90228894,1580,1581,1587,1574
78216201,1000,1000,1000,1000,90328854,1581,1583,1587,1574
78218700,1000,1000,1000,1000,90428814,1579,1582,1578,1574
78221199,1000,1000,1000,1000,90528774,1577,1580,1568,1572
78223698,1000,1000,1000,1000,90628734,1577,1579,1562,1568
78226197,1000,1000,1000,1000,90728694,1577,1578,1556,1563
78228696,1000,1000,1000,1000,90828654,1578,1577,1555,1559
78231195,1000,1000,1000,1000,90928614,1579,1577,1554,1555
78233694,1000,1000,1000,1000,91028574,1578,1577,1554,1553
78236193,1000,1000,1000,1000,91128534,1577,1577,1554,1552
78238692,1000,1000,1000,1000,91228494,1576,1577,1555,1552
78241191,1000,1000,1000,1000,91328454,1576,1576,1554,1553
78243690,1000,1000,1000,1000,91428414,1575,1577,1553,1553
78246189,1000,1000,1000,1000,91528374,1575,1577,1553,1554
78248688,1000,1000,1000,1000,91628334,1576,1577,1552,1552
78251187,1000,1000,1000,1000,91728294,1577,1578,1550,1550
78253686,1000,1000,1000,1000,91828254,1579,1580,1549,1549
78256185,1000,1000,1000,1000,91928214,1582,1582,1546,1546
78258684,1000,1000,1000,1000,92028174,1584,1585,1543,1543
78261183,1000,1000,1000,1000,92128967,1587,1587,1540,1540
78263682,1000,1000,1000,1000,92228927,1590,1591,1538,1537
78266181,1000,1000,1000,1000,92328887,1594,1594,1536,1536
78268680,1000,1000,1000,1000,92428847,1595,1595,1534,1535
78271179,1000,1000,1000,1000,92528807,1595,1594,1534,1536
78273678,1000,1000,1000,1000,92628767,1595,1594,1535,1538
78276177,1000,1000,1000,1000,92728727,1593,1592,1539,1542
78278676,1000,1000,1000,1000,92828687,1588,1587,1544,1547
78281175,1000,1000,1000,1000,92928647,1583,1580,1552,1555
78283674,1000,1000,1000,1000,93028607,1575,1571,1563,1565
78286173,1000,1000,1000,1000,93128567,1564,1560,1575,1576
78288672,1000,1000,1000,1000,93228527,1553,1550,1587,1589
78291171,1000,1000,1000,1000,93328487,1542,1539,1598,1599
78293670,1000,1000,1000,1000,93428447,1534,1533,1608,1607
78296169,1000,1000,1000,1000,93528407,1529,1529,1613,1612
78298668,1000,1000,1000,1000,93628367,1527,1529,1615,1614
78301167,1000,1000,1000,1000,93728327,1530,1532,1613,1613
78303666,1000,1000,1000,1000,93828287,1537,1539,1610,1610
78306165,1000,1000,1000,1000,93928247,1544,1546,1603,1603
78308664,1000,1000,1000,1000,94028207,1553,1554,1595,1596
78311163,1000,1000,1000,1000,94128167,1563,1563,1589,1588
78313662,1000,1000,1000,1000,94228960,1571,1572,1582,1581
78316161,1000,1000,1000,1000,94328920,1578,1577,1575,1574
78318660,1000,1000,1000,1000,94428880,1583,1582,1570,1569
78321159,1000,1000,1000,1000,94528840,1587,1584,1566,1566
78323658,1000,1000,1000,1000,94628800,1588,1586,1565,1565
78326157,1000,1000,1000,1000,94728760,1588,1587,1566,1567
78328656,1000,1000,1000,1000,94828720,1586,1585,1568,1568
78331155,1000,1000,1000,1000,94928680,1584,1583,1571,1571
78333654,1000,1000,1000,1000,95028640,1580,1580,1573,1573
78336153,1000,1000,1000,1000,95128600,1578,1578,1577,1576
78338652,1000,1000,1000,1000,95228560,1575,1576,1580,1579
78341151,1000,1000,1000,1000,95328520,1573,1574,1582,1581
78343650,1000,1000,1000,1000,95428480,1573,1574,1583,1583
78346149,1000,1000,1000,1000,95528440,1572,1573,1584,1584
78348648,1000,1000,1000,1000,95628400,1572,1573,1583,1584
78351147,1000,1000,1000,1000,95728360,1572,1573,1582,1582
78353646,1000,1000,1000,1000,95828320,1573,1573,1581,1581
78356145,1000,1000,1000,1000,95928280,1575,1575,1580,1580
78358644,1000,1000,1000,1000,96028240,1577,1577,1579,1580
78361143,1000,1000,1000,1000,96128200,1578,1578,1578,1578
78363642,1000,1000,1000,1000,96228160,1338,1339,1622,1628
78366141,1000,1000,1000,1000,96328953,1414,1420,1643,1648
78368640,1000,1000,1000,1000,96428913,1475,1485,1635,1632
78371139,1000,1000,1000,1000,96528873,1528,1535,1622,1614
78373638,1000,1000,1000,1000,96628833,1568,1570,1613,1603
78376137,1000,1000,1000,1000,96728793,1600,1592,1605,1599
78378636,1000,1000,1000,1000,96828753,1630,1615,1589,1588
78381135,1000,1000,1000,1000,96928713,1650,1637,1556,1564
78383634,1000,1000,1000,1000,97028673,1650,1641,1527,1540
78386133,1000,1000,1000,1000,97128633,1649,1650,1544,1555
78388632,1000,1000,1000,1000,97228593,1643,1650,1560,1565
78391131,1000,1000,1000,1000,97328553,1641,1650,1579,1577
78393630,1000,1000,1000,1000,97428513,1637,1644,1589,1583
78396129,1000,1000,1000,1000,97528473,1629,1631,1584,1580
78398628,1000,1000,1000,1000,97628433,1622,1622,1582,1579
78401127,1000,1000,1000,1000,97728393,1617,1614,1578,1578
78403626,1000,1000,1000,1000,97828353,1612,1609,1576,1577
78406125,1000,1000,1000,1000,97928313,1607,1604,1574,1575
78408624,1000,1000,1000,1000,98028273,1601,1600,1571,1572
78411123,1000,1000,1000,1000,98128233,1595,1596,1568,1568
78413622,1000,1000,1000,1000,98228193,1594,1591,1574,1562
78416121,1000,1000,1000,1000,98328986,1593,1586,1572,1563
78418620,1000,1000,1000,1000,98428946,1589,1583,1566,1563
78421119,1000,1000,1000,1000,98528906,1584,1580,1558,1560
78423618,1000,1000,1000,1000,98628866,1578,1579,1553,1557
78426117,1000,1000,1000,1000,98728826,1575,1578,1551,1553
78428616,1000,1000,1000,1000,98828786,1572,1577,1551,1550
78431115,1000,1000,1000,1000,98928746,1571,1576,1550,1548
78433614,1000,1000,1000,1000,99028706,1571,1573,1550,1546
78436113,1000,1000,1000,1000,99128666,1572,1573,1551,1548
78438612,1000,1000,1000,1000,99228626,1572,1572,1550,1548
78441111,1000,1000,1000,1000,99328586,1572,1571,1549,1548
78443610,1000,1000,1000,1000,99428546,1571,1571,1549,1548
78446109,1000,1000,1000,1000,99528506,1571,1571,1548,1548
78448608,1000,1000,1000,1000,99628466,1570,1571,1548,1548
78451107,1000,1000,1000,1000,99728426,1570,1571,1547,1548
78453606,1000,1000,1000,1000,99828386,1569,1571,1548,1548
78456105,1000,1000,1000,1000,99928346,1570,1572,1549,1548
78458604,1000,1000,1000,1000,100028306,1571,1572,1550,1549
78461103,1000,1000,1000,1000,100128266,1572,1573,1551,1550
78463602,1000,1000,1000,1000,100228226,1572,1573,1551,1551
78466101,1000,1000,1000,1000,100328186,1573,1573,1551,1551
78468600,1000,1000,1000,1000,100428979,1573,1573,1550,1552
78471099,1000,1000,1000,1000,100528939,1574,1574,1550,1553
78473598,1000,1000,1000,1000,100628899,1576,1575,1552,1554
78476097,1000,1000,1000,1000,100728859,1576,1576,1552,1555
78478596,1000,1000,1000,1000,100828819,1577,1577,1553,1555
78481095,1000,1000,1000,1000,100928779,1578,1578,1553,1555
78483594,1000,1000,1000,1000,101028739,1578,1578,1552,1555
78486093,1000,1000,1000,1000,101128699,1578,1578,1552,1555
78488592,1000,1000,1000,1000,101228659,1579,1580,1554,1557
78491091,1000,1000,1000,1000,101328619,1578,1579,1554,1555
78493590,1000,1000,1000,1000,101428579,1579,1578,1556,1558
78496089,1000,1000,1000,1000,101528539,1571,1566,1569,1571
78498588,1000,1000,1000,1000,101628499,1558,1553,1586,1588
78501087,1000,1000,1000,1000,101728459,1548,1544,1596,1598
78503586,1000,1000,1000,1000,101828419,1541,1540,1602,1602
78506085,1000,1000,1000,1000,101928379,1538,1540,1605,1604
78508584,1000,1000,1000,1000,102028339,1538,1541,1605,1603
78511083,1000,1000,1000,1000,102128299,1540,1543,1604,1602
78513582,1000,1000,1000,1000,102228259,1544,1547,1602,1600
78516081,1000,1000,1000,1000,102328219,1548,1550,1598,1596
78518580,1000,1000,1000,1000,102428179,1554,1555,1594,1593
78521079,1000,1000,1000,1000,102528972,1559,1560,1590,1589
78523578,1000,1000,1000,1000,102628932,1565,1564,1586,1586
78526077,1000,1000,1000,1000,102728892,1569,1568,1583,1583
78528576,1000,1000,1000,1000,102828852,1572,1571,1579,1579
78531075,1000,1000,1000,1000,102928812,1575,1575,1577,1577
78533574,1000,1000,1000,1000,103028772,1578,1577,1575,1575
78536073,1000,1000,1000,1000,103128732,1581,1580,1574,1575
78538572,1000,1000,1000,1000,103228692,1582,1582,1573,1573
78541071,1000,1000,1000,1000,103328652,1582,1582,1572,1572
78543570,1000,1000,1000,1000,103428612,1584,1584,1573,1573
78546069,1000,1000,1000,1000,103528572,1585,1585,1573,1573
78548568,1000,1000,1000,1000,103628532,1585,1584,1573,1573
78551067,1000,1000,1000,1000,103728492,1585,1584,1573,1573
78553566,1000,1000,1000,1000,103828452,1585,1585,1575,1575
78556065,1000,1000,1000,1000,103928412,1585,1585,1576,1576
78558564,1000,1000,1000,1000,104028372,1584,1584,1576,1576
78561063,1000,1000,1000,1000,104128332,1583,1583,1575,1576
78563562,1000,1000,1000,1000,104228292,1583,1583,1576,1576
78566061,1000,1000,1000,1000,104328252,1583,1582,1577,1577
78568560,1000,1000,1000,1000,104428212,1582,1582,1578,1578
78571059,1000,1000,1000,1000,104528172,1582,1583,1579,1578
78573558,1000,1000,1000,1000,104628965,1581,1582,1579,1579
78576057,1000,1000,1000,1000,104728925,1581,1582,1580,1579
78578556,1000,1000,1000,1000,104828885,1581,1581,1579,1579
78581055,1000,1000,1000,1000,104928845,1580,1580,1579,1579
78583554,1000,1000,1000,1000,105028805,1580,1581,1580,1580
78586053,1000,1000,1000,1000,105128765,1580,1580,1580,1580
78588552,1000,1000,1000,1000,105228725,1580,1580,1580,1580
78591051,1000,1000,1000,1000,105328685,1580,1580,1580,1580
78593550,1000,1000,1000,1000,105428645,1580,1580,1580,1580
78596049,1000,1000,1000,1000,105528605,1580,1580,1580,1581
78598548,1000,1000,1000,1000,105628565,1580,1580,1580,1580
78601047,1000,1000,1000,1000,105728525,1580,1580,1580,1580
78603546,1000,1000,1000,1000,105828485,1579,1579,1579,1579
78606045,1000,1000,1000,1000,105928445,1579,1579,1579,1579
78608544,1000,1000,1000,1000,106028405,1580,1580,1581,1580
78611043,1000,1000,1000,1000,106128365,1580,1580,1581,1581
78613542,1000,1000,1000,1000,106228325,1580,1580,1580,1580
78616041,1000,1000,1000,1000,106328285,1580,1580,1580,1580
78618540,1000,1000,1000,1000,106428245,1581,1581,1581,1581
78621039,1000,1000,1000,1000,106528205,1580,1581,1580,1580
78623538,1000,1000,1000,1000,106628165,1581,1581,1581,1581
78626037,1000,1000,1000,1000,106728958,1580,1580,1580,1580
78628536,1000,1000,1000,1000,106828918,1581,1581,1582,1579
78631035,1000,1000,1000,1000,106928878,1581,1580,1587,1573
78633534,1000,1000,1000,1000,107028838,1581,1580,1582,1573
78636033,1000,1000,1000,1000,107128798,1579,1578,1572,1572
78638532,1000,1000,1000,1000,107228758,1576,1578,1565,1569
78641031,1000,1000,1000,1000,107328718,1575,1577,1559,1566
78643530,1000,1000,1000,1000,107428678,1574,1576,1556,1561
78646029,1000,1000,1000,1000,107528638,1575,1577,1557,1559
78648528,1000,1000,1000,1000,107628598,1575,1576,1558,1557
78651027,1000,1000,1000,1000,107728558,1575,1576,1558,1556
78653526,1000,1000,1000,1000,107828518,1576,1575,1557,1555
78656025,1000,1000,1000,1000,107928478,1576,1576,1556,1555
78658524,1000,1000,1000,1000,108028438,1576,1576,1556,1555
78661023,1000,1000,1000,1000,108128398,1576,1576,1554,1554
78663522,1000,1000,1000,1000,108228358,1576,1577,1552,1552
78666021,1000,1000,1000,1000,108328318,1576,1578,1551,1552
78668520,1000,1000,1000,1000,108428278,1577,1579,1550,1550
78671019,1000,1000,1000,1000,108528238,1578,1579,1547,1547
78673518,1000,1000,1000,1000,108628198,1579,1580,1545,1545
78676017,1000,1000,1000,1000,108728158,1581,1581,1543,1543
78678516,1000,1000,1000,1000,108828951,1583,1584,1542,1542
78681015,1000,1000,1000,1000,108928911,1584,1585,1539,1540
78683514,1000,1000,1000,1000,109028871,1587,1588,1540,1540
78686013,1000,1000,1000,1000,109128831,1589,1588,1539,1540
78688512,1000,1000,1000,1000,109228791,1589,1589,1539,1540
78691011,1000,1000,1000,1000,109328751,1589,1588,1541,1542
78693510,1000,1000,1000,1000,109428711,1588,1587,1543,1546
78696009,1000,1000,1000,1000,109528671,1585,1585,1545,1549
78698508,1000,1000,1000,1000,109628631,1583,1582,1550,1554
78701007,1000,1000,1000,1000,109728591,1579,1578,1557,1559
78703506,1000,1000,1000,1000,109828551,1574,1572,1563,1566
78706005,1000,1000,1000,1000,109928511,1568,1565,1572,1573
78708504,1000,1000,1000,1000,110028471,1561,1558,1579,1581
78711003,1000,1000,1000,1000,110128431,1554,1551,1589,1589
78713502,1000,1000,1000,1000,110228391,1545,1544,1598,1597
78716001,1000,1000,1000,1000,110328351,1539,1538,1604,1604
78718500,1000,1000,1000,1000,110428311,1533,1535,1608,1608
78720999,1000,1000,1000,1000,110528271,1532,1533,1610,1608
78723498,1000,1000,1000,1000,110628231,1534,1536,1608,1608
78725997,1000,1000,1000,1000,110728191,1538,1540,1604,1604
78728496,1000,1000,1000,1000,110828984,1544,1546,1599,1599
78730995,1000,1000,1000,1000,110928944,1552,1553,1593,1593
78733494,1000,1000,1000,1000,111028904,1559,1560,1586,1585
78735993,1000,1000,1000,1000,111128864,1567,1566,1579,1578
78738492,1000,1000,1000,1000,111228824,1575,1574,1574,1574
78740991,1000,1000,1000,1000,111328784,1581,1579,1570,1569
78743490,1000,1000,1000,1000,111428744,1586,1584,1568,1568
78745989,1000,1000,1000,1000,111528704,1588,1587,1567,1567
78748488,1000,1000,1000,1000,111628664,1588,1587,1567,1567
78750987,1000,1000,1000,1000,111728624,1588,1587,1568,1568
78753486,1000,1000,1000,1000,111828584,1587,1587,1570,1570
78755985,1000,1000,1000,1000,111928544,1586,1586,1573,1573
78758484,1000,1000,1000,1000,112028504,1584,1584,1574,1575
78760983,1000,1000,1000,1000,112128464,1582,1582,1576,1576
78763482,1000,1000,1000,1000,112228424,1581,1581,1580,1579
78765981,1000,1000,1000,1000,112328384,1579,1579,1581,1580
78768480,1000,1000,1000,1000,112428344,1577,1578,1582,1582
78770979,1000,1000,1000,1000,112528304,1576,1576,1583,1583
78773478,1000,1000,1000,1000,112628264,1576,1576,1585,1585
78775977,1000,1000,1000,1000,112728224,1575,1575,1585,1585
78778476,1000,1000,1000,1000,112828184,1574,1575,1584,1584
78780975,1000,1000,1000,1000,112928977,1575,1576,1583,1583
78783474,1000,1000,1000,1000,113028937,1576,1577,1583,1582
78785973,1000,1000,1000,1000,113128897,1577,1577,1581,1581
78788472,1000,1000,1000,1000,113228857,1579,1578,1580,1580
78790971,1000,1000,1000,1000,113328817,1579,1579,1579,1579
78793470,1000,1000,1000,1000,113428777,1580,1580,1578,1578
78795969,1000,1000,1000,1000,113528737,1581,1580,1577,1578
78798468,1000,1000,1000,1000,113628697,1581,1582,1578,1578
78800967,1000,1000,1000,1000,113728657,1581,1581,1576,1577
78803466,1000,1000,1000,1000,113828617,1581,1582,1577,1577
78805965,1000,1000,1000,1000,113928577,1581,1582,1578,1578
78808464,1000,1000,1000,1000,114028537,1582,1582,1579,1579
78810963,1000,1000,1000,1000,114128497,1582,1582,1580,1580
78813462,1000,1000,1000,1000,114228457,1582,1581,1580,1580
78815961,1000,1000,1000,1000,114328417,1581,1581,1581,1581
78818460,1000,1000,1000,1000,114428377,1581,1581,1582,1581
78820959,1000,1000,1000,1000,114528337,1581,1581,1582,1582
78823458,1000,1000,1000,1000,114628297,1581,1581,1582,1582
78825957,1000,1000,1000,1000,114728257,1580,1580,1580,1581
78828456,1000,1000,1000,1000,114828217,1580,1581,1581,1582
78830955,1000,1000,1000,1000,114928177,1581,1581,1582,1582
78833454,1000,1000,1000,1000,115028970,1580,1580,1582,1581
78835953,1000,1000,1000,1000,115128930,1581,1581,1588,1575
78838452,1000,1000,1000,1000,115228890,1581,1580,1587,1574
78840951,1000,1000,1000,1000,115328850,1579,1578,1579,1575
78843450,1000,1000,1000,1000,115428810,1575,1575,1571,1574
78845949,1000,1000,1000,1000,115528770,1573,1572,1566,1573
78848448,1000,1000,1000,1000,115628730,1570,1570,1564,1571
78850947,1000,1000,1000,1000,115728690,1568,1569,1564,1568
78853446,1000,1000,1000,1000,115828650,1567,1568,1566,1566
78855945,1000,1000,1000,1000,115928610,1566,1567,1566,1565
78858444,1000,1000,1000,1000,116028570,1566,1566,1568,1565
78860943,1000,1000,1000,1000,116128530,1565,1565,1567,1564
78863442,1000,1000,1000,1000,116228490,1564,1564,1566,1565
78865941,1000,1000,1000,1000,116328450,1564,1563,1565,1565
78868440,1000,1000,1000,1000,116428410,1563,1563,1564,1565
78870939,1000,1000,1000,1000,116528370,1562,1561,1563,1564
78873438,1000,1000,1000,1000,116628330,1561,1561,1562,1562
78875937,1000,1000,1000,1000,116728290,1560,1560,1561,1561
78878436,1000,1000,1000,1000,116828250,1560,1560,1561,1560
78880935,1000,1000,1000,1000,116928210,1560,1560,1560,1560
78883434,1000,1000,1000,1000,117028170,1560,1560,1561,1560
78885933,1000,1000,1000,1000,117128963,1559,1559,1560,1559
78888432,1000,1000,1000,1000,117228923,1559,1559,1559,1558
78890931,1000,1000,1000,1000,117328883,1559,1559,1559,1558
78893430,1000,1000,1000,1000,117428843,1559,1559,1559,1558
78895929,1000,1000,1000,1000,117528803,1560,1559,1560,1559
78898428,1000,1000,1000,1000,117628763,1559,1559,1560,1558
78900927,1000,1000,1000,1000,117728723,1559,1559,1559,1558
78903426,1000,1000,1000,1000,117828683,1559,1558,1560,1557
78905925,1000,1000,1000,1000,117928643,1559,1558,1559,1558
78908424,1000,1000,1000,1000,118028603,1559,1559,1558,1561
78910923,1000,1000,1000,1000,118128563,1559,1560,1557,1563
78913422,1000,1000,1000,1000,118228523,1560,1561,1558,1564
78915921,1000,1000,1000,1000,118328483,1560,1561,1558,1563
78918420,1000,1000,1000,1000,118428443,1561,1562,1561,1562
78920919,1000,1000,1000,1000,118528403,1560,1560,1561,1559
78923418,1000,1000,1000,1000,118628363,1559,1559,1560,1556
78925917,1000,1000,1000,1000,118728323,1559,1558,1558,1557
78928416,1000,1000,1000,1000,118828283,1558,1558,1555,1559
78930915,1000,1000,1000,1000,118928243,1555,1555,1550,1556
78933414,1000,1000,1000,1000,119028203,1551,1551,1547,1550
78935913,1000,1000,1000,1000,119128163,1546,1547,1542,1543
78938412,1000,1000,1000,1000,119228956,1540,1540,1536,1535
78940911,1000,1000,1000,1000,119328916,1533,1533,1529,1527
78943410,1000,1000,1000,1000,119428876,1526,1526,1522,1520
78945909,1000,1000,1000,1000,119528836,1522,1522,1518,1518
78948408,1000,1000,1000,1000,119628796,1519,1519,1518,1518
78950907,1000,1000,1000,1000,119728756,1519,1519,1520,1521
78953406,1000,1000,1000,1000,119828716,1520,1520,1524,1525
78955905,1000,1000,1000,1000,119928676,1522,1521,1528,1529
78958404,1000,1000,1000,1000,120028636,1525,1525,1533,1534
78960903,1000,1000,1000,1000,120128596,1530,1529,1539,1539
78963402,1000,1000,1000,1000,120228556,1533,1533,1542,1542
78965901,1000,1000,1000,1000,120328516,1536,1536,1543,1543
78968400,1000,1000,1000,1000,120428476,1539,1539,1544,1544
78970899,1000,1000,1000,1000,120528436,1542,1542,1545,1544
78973398,1000,1000,1000,1000,120628396,1544,1545,1545,1545
78975897,1000,1000,1000,1000,120728356,1546,1546,1544,1544
78978396,1000,1000,1000,1000,120828316,1548,1548,1545,1545
78980895,1000,1000,1000,1000,120928276,1549,1549,1544,1544
78983394,1000,1000,1000,1000,121028236,1549,1549,1544,1544
78985893,1000,1000,1000,1000,121128196,1549,1549,1544,1543
78988392,1000,1000,1000,1000,121228156,1549,1549,1544,1544
78990891,1000,1000,1000,1000,121328949,1548,1548,1544,1544
78993390,1000,1000,1000,1000,121428909,1548,1547,1544,1544
78995889,1000,1000,1000,1000,121528869,1547,1546,1544,1544
78998388,1000,1000,1000,1000,121628829,1546,1546,1545,1544
79000887,1000,1000,1000,1000,121728789,1545,1545,1545,1545
79003386,1000,1000,1000,1000,121828749,1544,1545,1546,1545
79005885,1000,1000,1000,1000,121928709,1544,1544,1546,1546
79008384,1000,1000,1000,1000,122028669,1544,1544,1546,1546
79010883,1000,1000,1000,1000,122128629,1544,1543,1546,1546
79013382,1000,1000,1000,1000,122228589,1543,1542,1544,1545
79015881,1000,1000,1000,1000,122328549,1543,1543,1544,1545
79018380,1000,1000,1000,1000,122428509,1543,1543,1545,1545
79020879,1000,1000,1000,1000,122528469,1543,1543,1544,1544
79023378,1000,1000,1000,1000,122628429,1543,1543,1545,1544
79025877,1000,1000,1000,1000,122728389,1544,1543,1544,1543
79028376,1000,1000,1000,1000,122828349,1544,1544,1544,1544
79030875,1000,1000,1000,1000,122928309,1545,1544,1544,1545
79033374,1000,1000,1000,1000,123028269,1544,1544,1543,1543
79035873,1000,1000,1000,1000,123128229,1545,1545,1543,1544
79038372,1000,1000,1000,1000,123228189,1544,1545,1543,1544
79040871,1000,1000,1000,1000,123328982,1545,1545,1544,1544
79043370,1000,1000,1000,1000,123428942,1545,1545,1544,1544
79045869,1000,1000,1000,1000,123528902,1545,1544,1544,1544
79048368,1000,1000,1000,1000,123628862,1545,1545,1544,1544
79050867,1000,1000,1000,1000,123728822,1545,1545,1544,1544
79053366,1000,1000,1000,1000,123828782,1544,1545,1544,1545
79055865,1000,1000,1000,1000,123928742,1545,1544,1544,1545
79058364,1000,1000,1000,1000,124028702,1544,1544,1544,1545
79060863,1000,1000,1000,1000,124128662,1544,1544,1544,1544
79063362,1000,1000,1000,1000,124228622,1544,1544,1544,1544
79065861,1000,1000,1000,1000,124328582,1544,1544,1544,1544
79068360,1000,1000,1000,1000,124428542,1544,1544,1544,1544
79070859,1000,1000,1000,1000,124528502,1544,1543,1543,1544
79073358,1000,1000,1000,1000,124628462,1543,1544,1543,1544
79075857,1000,1000,1000,1000,124728422,1544,1543,1543,1544
79078356,1000,1000,1000,1000,124828382,1544,1544,1544,1544
79080855,1000,1000,1000,1000,124928342,1545,1544,1544,1544
79083354,1000,1000,1000,1000,125028302,1544,1544,1544,1544
79085853,1000,1000,1000,1000,125128262,1545,1544,1544,1545
79088352,1000,1000,1000,1000,125228222,1544,1545,1545,1544
79090851,1000,1000,1000,1000,125328182,1544,1544,1544,1544
79093350,1000,1000,1000,1000,125428975,1543,1544,1544,1544
79095849,1000,1000,1000,1000,125528935,1544,1544,1543,1543
79098348,1000,1000,1000,1000,125628895,1544,1544,1544,1544
79100847,1000,1000,1000,1000,125728855,1544,1543,1543,1543
79103346,1000,1000,1000,1000,125828815,1544,1544,1544,1544
79105845,1000,1000,1000,1000,125928775,1544,1543,1543,1544
79108344,1000,1000,1000,1000,126028735,1544,1544,1544,1544
79110843,1000,1000,1000,1000,126128695,1544,1544,1545,1544
79113342,1000,1000,1000,1000,126228655,1544,1545,1545,1545
79115841,1000,1000,1000,1000,126328615,1545,1545,1545,1545
79118340,1000,1000,1000,1000,126428575,1544,1544,1544,1545
79120839,1000,1000,1000,1000,126528535,1545,1545,1545,1545
79123338,1000,1000,1000,1000,126628495,1544,1544,1544,1544
79125837,1000,1000,1000,1000,126728455,1544,1544,1544,1545
79128336,1000,1000,1000,1000,126828415,1544,1544,1544,1544
79130835,1000,1000,1000,1000,126928375,1544,1544,1544,1544
79133334,1000,1000,1000,1000,127028335,1544,1545,1544,1544
79135833,1000,1000,1000,1000,127128295,1545,1544,1544,1544
79138332,1000,1000,1000,1000,127228255,1544,1544,1544,1544
79140831,1000,1000,1000,1000,127328215,1544,1544,1544,1544
79143330,1000,1000,1000,1000,127428175,1545,1544,1545,1544
79145829,1000,1000,1000,1000,127528968,1545,1544,1544,1544
79148328,1000,1000,1000,1000,127628928,1545,1544,1544,1545
79150827,1000,1000,1000,1000,127728888,1544,1544,1544,1544
79153326,1000,1000,1000,1000,127828848,1545,1544,1545,1545
79155825,1000,1000,1000,1000,127928808,1544,1544,1544,1544
79158324,1000,1000,1000,1000,128028768,1544,1545,1545,1544
79160823,1000,1000,1000,1000,128128728,1544,1544,1544,1544
79163322,1000,1000,1000,1000,128228688,1543,1544,1544,1543
79165821,1000,1000,1000,1000,128328648,1544,1544,1544,1544
79168320,1000,1000,1000,1000,128428608,1544,1545,1544,1544
79170819,1000,1000,1000,1000,128528568,1544,1544,1544,1545
79173318,1000,1000,1000,1000,128628528,1545,1544,1544,1544
79175817,1000,1000,1000,1000,128728488,1545,1544,1545,1545
79178316,1000,1000,1000,1000,128828448,1545,1545,1545,1545
79180815,1000,1000,1000,1000,128928408,1545,1545,1545,1545
79183314,1000,1000,1000,1000,129028368,1544,1544,1544,1543
79185813,1000,1000,1000,1000,129128328,1545,1544,1545,1545
79188312,1000,1000,1000,1000,129228288,1444,1444,1399,1399
79190811,1000,1000,1000,1000,129328248,1363,1364,1265,1269
79193310,1000,1000,1000,1000,129428208,1336,1337,1217,1220
79195809,1000,1000,1000,1000,129528168,1326,1326,1197,1200
79198308,1000,1000,1000,1000,129628961,1307,1308,1159,1161
79200807,1000,1000,1000,1000,129728921,1254,1255,1150,1153
79203306,1000,1000,1000,1000,129828881,1156,1158,1150,1152
79205805,1000,1000,1000,1000,129928841,1044,1045,1150,1152
79208304,1000,1000,1000,1000,130028801,1019,1021,1150,1151
79210803,1000,1000,1000,1000,130128761,1019,1020,1150,1152
79213302,1000,1000,1000,1000,130228721,1019,1021,1150,1151
79215801,1000,1000,1000,1000,130328681,1021,1003,1150,1174
79218300,1000,1000,1000,1000,130428641,1020,1010,1150,1165
79220799,1000,1000,1000,1000,130528601,1020,1012,1150,1163
79223298,1000,1000,1000,1000,130628561,1020,1013,1150,1162
79225797,1000,1000,1000,1000,130728521,1020,1012,1150,1163
79228296,1000,1000,1000,1000,130828481,1020,1012,1150,1163
79230795,1000,1000,1000,1000,130928441,1020,1011,1150,1164
79233294,1000,1000,1000,1000,131028401,1020,1011,1150,1163
79235793,1000,1000,1000,1000,131128361,1021,1020,1150,1151
79238292,1000,1000,1000,1000,131228321,1021,1019,1150,1152
79240791,1000,1000,1000,1000,131328281,1021,1019,1150,1153
79243290,1000,1000,1000,1000,131428241,1021,1019,1150,1153
79245789,1000,1000,1000,1000,131528201,881,881,1150,1150
79248288,1000,1000,1000,1000,131628161,1000,1000,1000,1000
79250787,1000,1000,1000,1000,131728954,1000,1000,1000,1000
79253286,1000,1000,1000,1000,131828914,1000,1000,1000,1000
79255785,1000,1000,1000,1000,131928874,1000,1000,1000,1000
79258284,1000,1000,1000,1000,132028834,1000,1000,1000,1000
79260783,1000,1000,1000,1000,132128794,1000,1000,1000,1000
79263282,1000,1000,1000,1000,132228754,1000,1000,1000,1000
79265781,1000,1000,1000,1000,132328714,1000,1000,1000,1000
79268280,1000,1000,1000,1000,132428674,1000,1000,1000,1000
79270779,1000,1000,1000,1000,132528634,1000,1000,1000,1000
79273278,1000,1000,1000,1000,132628594,1000,1000,1000,1000
79275777,1000,1000,1000,1000,132728554,1000,1000,1000,1000
79278276,1000,1000,1000,1000,132828514,1000,1000,1000,1000
79280775,1000,1000,1000,1000,132928474,1000,1000,1000,1000
79283274,1000,1000,1000,1000,133028434,1000,1000,1000,1000
79285773,1000,1000,1000,1000,133128394,1000,1000,1000,1000
79288272,1000,1000,1000,1000,133228354,1000,1000,1000,1000
79290771,1000,1000,1000,1000,133328314,1000,1000,1000,1000
79293270,1000,1000,1000,1000,133428274,1000,1000,1000,1000
79295769,1000,1000,1000,1000,133528234,1000,1000,1000,1000
79298268,1000,1000,1000,1000,133628194,1000,1000,1000,1000
79300767,1000,1000,1000,1000,133728154,1000,1000,1000,1000
79303266,1000,1000,1000,1000,133828947,1000,1000,1000,1000
79305765,1000,1000,1000,1000,133928907,1000,1000,1000,1000
79308264,1000,1000,1000,1000,134028867,1000,1000,1000,1000
79310763,1000,1000,1000,1000,134128827,1000,1000,1000,1000
79313262,1000,1000,1000,1000,134228787,1000,1000,1000,1000
79315761,1000,1000,1000,1000,134328747,1000,1000,1000,1000
79318260,1000,1000,1000,1000,134428707,1000,1000,1000,1000
79320759,1000,1000,1000,1000,134528667,1000,1000,1000,1000
79323258,1000,1000,1000,1000,134628627,1000,1000,1000,1000
79325757,1000,1000,1000,1000,134728587,1000,1000,1000,1000
79328256,1000,1000,1000,1000,134828547,1000,1000,1000,1000
79330755,1000,1000,1000,1000,134928507,1000,1000,1000,1000
79333254,1000,1000,1000,1000,135028467,1000,1000,1000,1000
79335753,1000,1000,1000,1000,135128427,1000,1000,1000,1000
79338252,1000,1000,1000,1000,135228387,1000,1000,1000,1000
79340751,1000,1000,1000,1000,135328347,1000,1000,1000,1000
79343250,1000,1000,1000,1000,135428307,1000,1000,1000,1000
79345749,1000,1000,1000,1000,135528267,1000,1000,1000,1000
79348248,1000,1000,1000,1000,135628227,1000,1000,1000,1000
79350747,1000,1000,1000,1000,135728187,1000,1000,1000,1000
79353246,1000,1000,1000,1000,135828980,1000,1000,1000,1000
79355745,1000,1000,1000,1000,135928940,1000,1000,1000,1000
79358244,1000,1000,1000,1000,136028900,1000,1000,1000,1000
79360743,1000,1000,1000,1000,136128860,1000,1000,1000,1000
79363242,1000,1000,1000,1000,136228820,1000,1000,1000,1000
79365741,1000,1000,1000,1000,136328780,1000,1000,1000,1000
79368240,1000,1000,1000,1000,136428740,1000,1000,1000,1000
79370739,1000,1000,1000,1000,136528700,1000,1000,1000,1000
79373238,1000,1000,1000,1000,136628660,1000,1000,1000,1000
79375737,1000,1000,1000,1000,136728620,1000,1000,1000,1000
79378236,1000,1000,1000,1000,136828580,1000,1000,1000,1000
79380735,1000,1000,1000,1000,136928540,1000,1000,1000,1000
79383234,1000,1000,1000,1000,137028500,1000,1000,1000,1000
79385733,1000,1000,1000,1000,137128460,1000,1000,1000,1000
79388232,1000,1000,1000,1000,137228420,1000,1000,1000,1000
79390731,1000,1000,1000,1000,137328380,1000,1000,1000,1000
79393230,1000,1000,1000,1000,137428340,1000,1000,1000,1000
79395729,1000,1000,1000,1000,137528300,1000,1000,1000,1000
79398228,1000,1000,1000,1000,137628260,1000,1000,1000,1000
79400727,1000,1000,1000,1000,137728220,1000,1000,1000,1000
79403226,1000,1000,1000,1000,137828180,1000,1000,1000,1000
79405725,1000,1000,1000,1000,137928973,1000,1000,1000,1000
79408224,1000,1000,1000,1000,138028933,1000,1000,1000,1000
79410723,1000,1000,1000,1000,138128893,1000,1000,1000,1000
79413222,1000,1000,1000,1000,138228853,1000,1000,1000,1000
79415721,1000,1000,1000,1000,138328813,1000,1000,1000,1000
79418220,1000,1000,1000,1000,138428773,1000,1000,1000,1000
79420719,1000,1000,1000,1000,138528733,1000,1000,1000,1000
79423218,1000,1000,1000,1000,138628693,1000,1000,1000,1000
79425717,1000,1000,1000,1000,138728653,1000,1000,1000,1000
79428216,1000,1000,1000,1000,138828613,1000,1000,1000,1000
79430715,1000,1000,1000,1000,138928573,1000,1000,1000,1000
79433214,1000,1000,1000,1000,139028533,1000,1000,1000,1000
79435713,1000,1000,1000,1000,139128493,1000,1000,1000,1000
79438212,1000,1000,1000,1000,139228453,1000,1000,1000,1000
79440711,1000,1000,1000,1000,139328413,1000,1000,1000,1000
79443210,1000,1000,1000,1000,139428373,1000,1000,1000,1000
79445709,1000,1000,1000,1000,139528333,1000,1000,1000,1000
79448208,1000,1000,1000,1000,139628293,1000,1000,1000,1000
79450707,1000,1000,1000,1000,139728253,1000,1000,1000,1000
79453206,1000,1000,1000,1000,139828213,1000,1000,1000,1000
79455705,1000,1000,1000,1000,139928173,1000,1000,1000,1000
79458204,1000,1000,1000,1000,140028966,1000,1000,1000,1000
79460703,1000,1000,1000,1000,140128926,1000,1000,1000,1000
79463202,1000,1000,1000,1000,140228886,1000,1000,1000,1000
79465701,1000,1000,1000,1000,140328846,1000,1000,1000,1000
79468200,1000,1000,1000,1000,140428806,1000,1000,1000,1000
79470699,1000,1000,1000,1000,140528766,1000,1000,1000,1000
79473198,1000,1000,1000,1000,140628726,1000,1000,1000,1000
79475697,1000,1000,1000,1000,140728686,1000,1000,1000,1000
79478196,1000,1000,1000,1000,140828646,1000,1000,1000,1000
79480695,1000,1000,1000,1000,140928606,1000,1000,1000,1000
79483194,1000,1000,1000,1000,141028566,1000,1000,1000,1000
79485693,1000,1000,1000,1000,141128526,1000,1000,1000,1000
79488192,1000,1000,1000,1000,141228486,1000,1000,1000,1000
79490691,1000,1000,1000,1000,141328446,1000,1000,1000,1000
79493190,1000,1000,1000,1000,141428406,1000,1000,1000,1000
79495689,1000,1000,1000,1000,141528366,1000,1000,1000,1000
79498188,1000,1000,1000,1000,141628326,1000,1000,1000,1000
79500687,1000,1000,1000,1000,141728286,1000,1000,1000,1000
79503186,1000,1000,1000,1000,141828246,1000,1000,1000,1000
79505685,1000,1000,1000,1000,141928206,1000,1000,1000,1000
79508184,1000,1000,1000,1000,142028166,1000,1000,1000,1000
79510683,1000,1000,1000,1000,142128959,1000,1000,1000,1000
79513182,1000,1000,1000,1000,142228919,1000,1000,1000,1000
79515681,1000,1000,1000,1000,142328879,1000,1000,1000,1000
79518180,1000,1000,1000,1000,142428839,1000,1000,1000,1000
79520679,1000,1000,1000,1000,142528799,1000,1000,1000,1000
79523178,1000,1000,1000,1000,142628759,1000,1000,1000,1000
79525677,1000,1000,1000,1000,142728719,1000,1000,1000,1000
79528176,1000,1000,1000,1000,142828679,1000,1000,1000,1000
79530675,1000,1000,1000,1000,142928639,1000,1000,1000,1000
79533174,1000,1000,1000,1000,143028599,1000,1000,1000,1000
79535673,1000,1000,1000,1000,143128559,1000,1000,1000,1000
79538172,1000,1000,1000,1000,143228519,1000,1000,1000,1000
79540671,1000,1000,1000,1000,143328479,1000,1000,1000,1000
79543170,1000,1000,1000,1000,143428439,1000,1000,1000,1000
79545669,1000,1000,1000,1000,143528399,1000,1000,1000,1000
79548168,1000,1000,1000,1000,143628359,1000,1000,1000,1000
79550667,1000,1000,1000,1000,143728319,1000,1000,1000,1000
79553166,1000,1000,1000,1000,143828279,1000,1000,1000,1000
79555665,1000,1000,1000,1000,143928239,1000,1000,1000,1000
79558164,1000,1000,1000,1000,144028199,1000,1000,1000,1000
79560663,1000,1000,1000,1000,144128159,1000,1000,1000,1000
79563162,1000,1000,1000,1000,144228952,1000,1000,1000,1000
79565661,1000,1000,1000,1000,144328912,1000,1000,1000,1000
79568160,1000,1000,1000,1000,144428872,1000,1000,1000,1000
79570659,1000,1000,1000,1000,,,,,
79573158,1000,1000,1000,1000,,,,,
79575657,1000,1000,1000,1000,,,,,
79578156,1000,1000,1000,1000,,,,,
79580655,1000,1000,1000,1000,,,,,
79583154,1000,1000,1000,1000,,,,,
79586486,1000,1000,1000,1000,,,,,
79588985,1000,1000,1000,1000,,,,,
79591484,1000,1000,1000,1000,,,,,
79593983,1000,1000,1000,1000,,,,,
79596482,1000,1000,1000,1000,,,,,
79598981,1000,1000,1000,1000,,,,,
79601480,1000,1000,1000,1000,,,,,
79603979,1000,1000,1000,1000,,,,,
79606478,1000,1000,1000,1000,,,,,
79608977,1000,1000,1000,1000,,,,,
79611476,1000,1000,1000,1000,,,,,
79613975,1000,1000,1000,1000,,,,,
79616474,1000,1000,1000,1000,,,,,
79618973,1000,1000,1000,1000,,,,,
79621472,1000,1000,1000,1000,,,,,
79623971,1000,1000,1000,1000,,,,,
79626470,1000,1000,1000,1000,,,,,
79628969,1000,1000,1000,1000,,,,,
79631468,1000,1000,1000,1000,,,,,
79633967,1000,1000,1000,1000,,,,,
79636466,1000,1000,1000,1000,,,,,
79638965,1000,1000,1000,1000,,,,,
79641464,1000,1000,1000,1000,,,,,
79643963,1000,1000,1000,1000,,,,,
79646462,1000,1000,1000,1000,,,,,
79648961,1000,1000,1000,1000,,,,,
79651460,1000,1000,1000,1000,,,,,
79653959,1000,1000,1000,1000,,,,,
79656458,1000,1000,1000,1000,,,,,
79658957,1000,1000,1000,1000,,,,,
79661456,1000,1000,1000,1000,,,,,
79663955,1000,1000,1000,1000,,,,,
79666454,1000,1000,1000,1000,,,,,
79668953,1000,1000,1000,1000,,,,,
79671452,1000,1000,1000,1000,,,,,
79673951,1000,1000,1000,1000,,,,,
79676450,1000,1000,1000,1000,,,,,
79678949,1000,1000,1000,1000,,,,,
79681448,1000,1000,1000,1000,,,,,
79683947,1000,1000,1000,1000,,,,,
79686446,1000,1000,1000,1000,,,,,
79688945,1000,1000,1000,1000,,,,,
79691444,1000,1000,1000,1000,,,,,
79693943,1000,1000,1000,1000,,,,,
79696442,1000,1000,1000,1000,,,,,
79698941,1000,1000,1000,1000,,,,,
79701440,1000,1000,1000,1000,,,,,
79703939,1000,1000,1000,1000,,,,,
79706438,1000,1000,1000,1000,,,,,
79708937,1000,1000,1000,1000,,,,,
79711436,1000,1000,1000,1000,,,,,
79713935,1000,1000,1000,1000,,,,,
79716434,1000,1000,1000,1000,,,,,
79718933,1000,1000,1000,1000,,,,,
79721432,1000,1000,1000,1000,,,,,
79723931,1000,1000,1000,1000,,,,,
79726430,1000,1000,1000,1000,,,,,
79728929,1000,1000,1000,1000,,,,,
79731428,1000,1000,1000,1000,,,,,
79733927,1000,1000,1000,1000,,,,,
79736426,1000,1000,1000,1000,,,,,
79738925,1000,1000,1000,1000,,,,,
79741424,1000,1000,1000,1000,,,,,
79743923,1000,1000,1000,1000,,,,,
79746422,1000,1000,1000,1000,,,,,
79748921,1000,1000,1000,1000,,,,,
79751420,1000,1000,1000,1000,,,,,
79753919,1000,1000,1000,1000,,,,,
79756418,1000,1000,1000,1000,,,,,
79758917,1000,1000,1000,1000,,,,,
79761416,1000,1000,1000,1000,,,,,
79763915,1000,1000,1000,1000,,,,,
79766414,1000,1000,1000,1000,,,,,
79768913,1000,1000,1000,1000,,,,,
79771412,1000,1000,1000,1000,,,,,
79773911,1000,1000,1000,1000,,,,,
79776410,1000,1000,1000,1000,,,,,
79778909,1000,1000,1000,1000,,,,,
79781408,1000,1000,1000,1000,,,,,
79783907,1000,1000,1000,1000,,,,,
79786406,1000,1000,1000,1000,,,,,
79788905,1000,1000,1000,1000,,,,,
79791404,1000,1000,1000,1000,,,,,
79793903,1000,1000,1000,1000,,,,,
79796402,1000,1000,1000,1000,,,,,
79798901,1000,1000,1000,1000,,,,,
79801400,1000,1000,1000,1000,,,,,
79803899,1000,1000,1000,1000,,,,,
79806398,1000,1000,1000,1000,,,,,
79808897,1000,1000,1000,1000,,,,,
79811396,1000,1000,1000,1000,,,,,
79813895,1000,1000,1000,1000,,,,,
79816394,1000,1000,1000,1000,,,,,
79818893,1000,1000,1000,1000,,,,,
79821392,1000,1000,1000,1000,,,,,
79823891,1000,1000,1000,1000,,,,,
79826390,1000,1000,1000,1000,,,,,
79828889,1000,1000,1000,1000,,,,,
79831388,1000,1000,1000,1000,,,,,
79833887,1000,1000,1000,1000,,,,,
79836386,1000,1000,1000,1000,,,,,
79838885,1000,1000,1000,1000,,,,,
79841384,1000,1000,1000,1000,,,,,
79843883,1000,1000,1000,1000,,,,,
79846382,1000,1000,1000,1000,,,,,
79848881,1000,1000,1000,1000,,,,,
79851380,1000,1000,1000,1000,,,,,
79853879,1000,1000,1000,1000,,,,,
79856378,1000,1000,1000,1000,,,,,
79858877,1000,1000,1000,1000,,,,,
79861376,1000,1000,1000,1000,,,,,
79863875,1000,1000,1000,1000,,,,,
79866374,1000,1000,1000,1000,,,,,
79868873,1000,1000,1000,1000,,,,,
79871372,1000,1000,1000,1000,,,,,
79873871,1000,1000,1000,1000,,,,,
79876370,1000,1000,1000,1000,,,,,
79878869,1000,1000,1000,1000,,,,,
79881368,1000,1000,1000,1000,,,,,
79883867,1000,1000,1000,1000,,,,,
79886366,1000,1000,1000,1000,,,,,
79888865,1000,1000,1000,1000,,,,,
79891364,1000,1000,1000,1000,,,,,
79893863,1000,1000,1000,1000,,,,,
79896362,1000,1000,1000,1000,,,,,
79898861,1000,1000,1000,1000,,,,,
79901360,1000,1000,1000,1000,,,,,
79903859,1000,1000,1000,1000,,,,,
79906358,1000,1000,1000,1000,,,,,
79908857,1000,1000,1000,1000,,,,,
79911356,1000,1000,1000,1000,,,,,
79913855,1001,1001,1001,1001,,,,,
79916354,1002,1002,1002,1002,,,,,
79918853,1003,1003,1003,1003,,,,,
79921352,1003,1003,1003,1003,,,,,
79923851,1004,1004,1004,1004,,,,,
79926350,1005,1005,1005,1005,,,,,
79928849,1006,1006,1006,1006,,,,,
79931348,1006,1006,1006,1006,,,,,
79933847,1007,1007,1007,1007,,,,,
79936346,1008,1008,1008,1008,,,,,
79938845,1009,1009,1009,1009,,,,,
79941344,1009,1009,1009,1009,,,,,
79943843,1010,1010,1010,1010,,,,,
79946342,1011,1011,1011,1011,,,,,
79948841,1012,1012,1012,1012,,,,,
79951340,1012,1012,1012,1012,,,,,
79953839,1013,1013,1013,1013,,,,,
79956338,1014,1014,1014,1014,,,,,
79958837,1015,1015,1015,1015,,,,,
79961336,1015,1015,1015,1015,,,,,
79963835,1016,1016,1016,1016,,,,,
79966334,1017,1017,1017,1017,,,,,
79968833,1018,1018,1018,1018,,,,,
79971332,1018,1018,1018,1018,,,,,
79973831,1019,1019,1019,1019,,,,,
79976330,1020,1020,1020,1020,,,,,
79978829,1021,1021,1021,1021,,,,,
79981328,1021,1021,1021,1021,,,,,
79983827,1022,1022,1022,1022,,,,,
79986326,1023,1023,1023,1023,,,,,
79988825,1024,1024,1024,1024,,,,,
79991324,1024,1024,1024,1024,,,,,
79993823,1025,1025,1025,1025,,,,,
79996322,1026,1026,1026,1026,,,,,
79998821,1027,1027,1027,1027,,,,,
80001320,1027,1027,1027,1027,,,,,
80003819,1028,1028,1028,1028,,,,,
80006318,1029,1029,1029,1029,,,,,
80008817,1030,1030,1030,1030,,,,,
80011316,1030,1030,1030,1030,,,,,
80013815,1031,1031,1031,1031,,,,,
80016314,1032,1032,1032,1032,,,,,
80018813,1033,1033,1033,1033,,,,,
80021312,1033,1033,1033,1033,,,,,
80023811,1034,1034,1034,1034,,,,,
80026310,1035,1035,1035,1035,,,,,
80028809,1036,1036,1036,1036,,,,,
80031308,1036,1036,1036,1036,,,,,
80033807,1037,1037,1037,1037,,,,,
80036306,1038,1038,1038,1038,,,,,
80038805,1039,1039,1039,1039,,,,,
80041304,1039,1039,1039,1039,,,,,
80043803,1040,1040,1040,1040,,,,,
80046302,1041,1041,1041,1041,,,,,
80048801,1042,1042,1042,1042,,,,,
80051300,1042,1042,1042,1042,,,,,
80053799,1043,1043,1043,1043,,,,,
80056298,1044,1044,1044,1044,,,,,
80058797,1045,1045,1045,1045,,,,,
80061296,1045,1045,1045,1045,,,,,
80063795,1046,1046,1046,1046,,,,,
80066294,1047,1047,1047,1047,,,,,
80068793,1048,1048,1048,1048,,,,,
80071292,1048,1048,1048,1048,,,,,
80073791,1049,1049,1049,1049,,,,,
80076290,1050,1050,1050,1050,,,,,
80078789,1051,1051,1051,1051,,,,,
80081288,1051,1051,1051,1051,,,,,
80083787,1052,1052,1052,1052,,,,,
80086286,1053,1053,1053,1053,,,,,
80088785,1054,1054,1054,1054,,,,,
80091284,1054,1054,1054,1054,,,,,
80093783,1055,1055,1055,1055,,,,,
80096282,1056,1056,1056,1056,,,,,
80098781,1057,1057,1057,1057,,,,,
80101280,1057,1057,1057,1057,,,,,
80103779,1058,1058,1058,1058,,,,,
80106278,1059,1059,1059,1059,,,,,
80108777,1060,1060,1060,1060,,,,,
80111276,1060,1060,1060,1060,,,,,
80113775,1061,1061,1061,1061,,,,,
80116274,1062,1062,1062,1062,,,,,
80118773,1063,1063,1063,1063,,,,,
80121272,1063,1063,1063,1063,,,,,
80123771,1064,1064,1064,1064,,,,,
80126270,1065,1065,1065,1065,,,,,
80128769,1066,1066,1066,1066,,,,,
80131268,1066,1066,1066,1066,,,,,
80133767,1067,1067,1067,1067,,,,,
80136266,1068,1068,1068,1068,,,,,
80138765,1069,1069,1069,1069,,,,,
80141264,1069,1069,1069,1069,,,,,
80143763,1070,1070,1070,1070,,,,,
80146262,1071,1071,1071,1071,,,,,
80148761,1072,1072,1072,1072,,,,,
80151260,1072,1072,1072,1072,,,,,
80153759,1073,1073,1073,1073,,,,,
80156258,1074,1074,1074,1074,,,,,
80158757,1075,1075,1075,1075,,,,,
80161256,1075,1075,1075,1075,,,,,
80163755,1076,1076,1076,1076,,,,,
80166254,1077,1077,1077,1077,,,,,
80168753,1078,1078,1078,1078,,,,,
80171252,1078,1078,1078,1078,,,,,
80173751,1079,1079,1079,1079,,,,,
80176250,1080,1080,1080,1080,,,,,
80178749,1081,1081,1081,1081,,,,,
80181248,1081,1081,1081,1081,,,,,
80183747,1082,1082,1082,1082,,,,,
80186246,1083,1083,1083,1083,,,,,
80188745,1084,1084,1084,1084,,,,,
80191244,1084,1084,1084,1084,,,,,
80193743,1085,1085,1085,1085,,,,,
80196242,1086,1086,1086,1086,,,,,
80198741,1087,1087,1087,1087,,,,,
80201240,1087,1087,1087,1087,,,,,
80203739,1088,1088,1088,1088,,,,,
80206238,1089,1089,1089,1089,,,,,
80208737,1090,1090,1090,1090,,,,,
80211236,1090,1090,1090,1090,,,,,
80213735,1091,1091,1091,1091,,,,,
80216234,1092,1092,1092,1092,,,,,
80218733,1093,1093,1093,1093,,,,,
80221232,1093,1093,1093,1093,,,,,
80223731,1094,1094,1094,1094,,,,,
80226230,1095,1095,1095,1095,,,,,
80228729,1096,1096,1096,1096,,,,,
80231228,1096,1096,1096,1096,,,,,
80233727,1097,1097,1097,1097,,,,,
80236226,1098,1098,1098,1098,,,,,
80238725,1099,1099,1099,1099,,,,,
80241224,1099,1099,1099,1099,,,,,
80243723,1100,1100,1100,1100,,,,,
80246222,1101,1101,1101,1101,,,,,
80248721,1101,1101,1101,1101,,,,,
80251220,1102,1102,1102,1102,,,,,
80253719,1103,1103,1103,1103,,,,,
80256218,1104,1104,1104,1104,,,,,
80258717,1104,1104,1104,1104,,,,,
80261216,1105,1105,1105,1105,,,,,
80263715,1106,1106,1106,1106,,,,,
80266214,1107,1107,1107,1107,,,,,
80268713,1107,1107,1107,1107,,,,,
80271212,1108,1108,1108,1108,,,,,
80273711,1109,1109,1109,1109,,,,,
80276210,1110,1110,1110,1110,,,,,
80278709,1110,1110,1110,1110,,,,,
80281208,1111,1111,1111,1111,,,,,
80283707,1112,1112,1112,1112,,,,,
80286206,1113,1113,1113,1113,,,,,
80288705,1113,1113,1113,1113,,,,,
80291204,1114,1114,1114,1114,,,,,
80293703,1115,1115,1115,1115,,,,,
80296202,1116,1116,1116,1116,,,,,
80298701,1116,1116,1116,1116,,,,,
80301200,1117,1117,1117,1117,,,,,
80303699,1118,1118,1118,1118,,,,,
80306198,1119,1119,1119,1119,,,,,
80308697,1119,1119,1119,1119,,,,,
80311196,1120,1120,1120,1120,,,,,
80313695,1121,1121,1121,1121,,,,,
80316194,1122,1122,1122,1122,,,,,
80318693,1122,1122,1122,1122,,,,,
80321192,1123,1123,1123,1123,,,,,
80323691,1124,1124,1124,1124,,,,,
80326190,1125,1125,1125,1125,,,,,
80328689,1125,1125,1125,1125,,,,,
80331188,1126,1126,1126,1126,,,,,
80333687,1127,1127,1127,1127,,,,,
80336186,1128,1128,1128,1128,,,,,
80338685,1128,1128,1128,1128,,,,,
80341184,1129,1129,1129,1129,,,,,
80343683,1130,1130,1130,1130,,,,,
80346182,1131,1131,1131,1131,,,,,
80348681,1131,1131,1131,1131,,,,,
80351180,1132,1132,1132,1132,,,,,
80353679,1133,1133,1133,1133,,,,,
80356178,1134,1134,1134,1134,,,,,
80358677,1134,1134,1134,1134,,,,,
80361176,1135,1135,1135,1135,,,,,
80363675,1136,1136,1136,1136,,,,,
80366174,1137,1137,1137,1137,,,,,
80368673,1137,1137,1137,1137,,,,,
80371172,1138,1138,1138,1138,,,,,
80373671,1139,1139,1139,1139,,,,,
80376170,1140,1140,1140,1140,,,,,
80378669,1140,1140,1140,1140,,,,,
80381168,1141,1141,1141,1141,,,,,
80383667,1142,1142,1142,1142,,,,,
80386166,1143,1143,1143,1143,,,,,
80388665,1143,1143,1143,1143,,,,,
80391164,1144,1144,1144,1144,,,,,
80393663,1145,1145,1145,1145,,,,,
80396162,1146,1146,1146,1146,,,,,
80398661,1146,1146,1146,1146,,,,,
80401160,1147,1147,1147,1147,,,,,
80403659,1148,1148,1148,1148,,,,,
80406158,1149,1149,1149,1149,,,,,
80408657,1149,1149,1149,1149,,,,,
80411156,1150,1150,1150,1150,,,,,
80413655,1164,1151,1152,1164,,,,,
80416154,1172,1159,1160,1172,,,,,
80418653,1179,1167,1168,1180,,,,,
80421152,1187,1175,1176,1188,,,,,
80423651,1195,1182,1184,1195,,,,,
80426150,1202,1190,1191,1203,,,,,
80428649,1209,1197,1199,1210,,,,,
80431148,1217,1205,1206,1217,,,,,
80433647,1224,1212,1213,1224,,,,,
80436146,1231,1219,1220,1231,,,,,
80438645,1237,1226,1227,1238,,,,,
80441144,1244,1233,1234,1245,,,,,
80443643,1251,1240,1241,1251,,,,,
80446142,1257,1247,1248,1258,,,,,
80448641,1264,1253,1254,1264,,,,,
80451140,1270,1260,1261,1271,,,,,
80453639,1277,1266,1267,1277,,,,,
80456138,1283,1273,1274,1284,,,,,
80458637,1289,1279,1280,1290,,,,,
80461136,1295,1285,1286,1296,,,,,
80463635,1301,1291,1292,1302,,,,,
80466134,1307,1297,1298,1308,,,,,
80468633,1313,1303,1304,1314,,,,,
80471132,1319,1309,1310,1320,,,,,
80473631,1325,1315,1316,1326,,,,,
80476130,1331,1321,1322,1331,,,,,
80478629,1337,1327,1328,1337,,,,,
80481128,1342,1332,1333,1343,,,,,
80483627,1348,1338,1339,1348,,,,,
80486126,1353,1344,1344,1354,,,,,
80488625,1359,1349,1350,1359,,,,,
80491124,1364,1355,1355,1365,,,,,
80493623,1370,1360,1361,1370,,,,,
80496122,1375,1365,1366,1375,,,,,
80498621,1380,1371,1372,1381,,,,,
80501120,1386,1376,1377,1386,,,,,
80503619,1391,1381,1382,1391,,,,,
80506118,1396,1387,1387,1396,,,,,
80508617,1401,1392,1393,1402,,,,,
80511116,1406,1397,1398,1407,,,,,
80513615,1411,1402,1403,1412,,,,,
80516114,1416,1407,1408,1417,,,,,
80518613,1421,1412,1413,1422,,,,,
80521112,1426,1417,1418,1427,,,,,
80523611,1431,1422,1423,1432,,,,,
80526110,1436,1427,1428,1436,,,,,
80528609,1441,1432,1432,1441,,,,,
80531108,1446,1437,1437,1446,,,,,
80533607,1450,1441,1442,1451,,,,,
80536106,1455,1446,1447,1456,,,,,
80538605,1460,1451,1451,1460,,,,,
80541104,1464,1456,1456,1465,,,,,
80543603,1469,1460,1461,1470,,,,,
80546102,1474,1465,1466,1474,,,,,
80548601,1478,1469,1470,1479,,,,,
80551100,1483,1474,1475,1483,,,,,
80553599,1487,1479,1479,1488,,,,,
80556098,1492,1483,1484,1492,,,,,
80558597,1496,1488,1488,1497,,,,,
80561096,1501,1492,1493,1501,,,,,
80563595,1505,1497,1497,1506,,,,,
80566094,1509,1501,1502,1510,,,,,
80568593,1514,1505,1506,1514,,,,,
80571092,1518,1510,1510,1519,,,,,
80573591,1522,1514,1515,1523,,,,,
80576090,1527,1519,1519,1527,,,,,
80578589,1531,1523,1523,1531,,,,,
80581088,1535,1527,1528,1536,,,,,
80583587,1540,1531,1532,1540,,,,,
80586086,1544,1536,1536,1544,,,,,
80588585,1548,1540,1540,1548,,,,,
80591084,1552,1544,1545,1552,,,,,
80593583,1556,1548,1549,1557,,,,,
80596082,1560,1552,1553,1561,,,,,
80598581,1564,1556,1557,1565,,,,,
80601080,1569,1560,1561,1569,,,,,
80603579,1573,1564,1565,1573,,,,,
80606078,1577,1568,1569,1577,,,,,
80608577,1581,1573,1573,1581,,,,,
80611076,1585,1577,1577,1585,,,,,
80613575,1589,1581,1581,1589,,,,,
80616074,1593,1584,1585,1593,,,,,
80618573,1596,1588,1589,1597,,,,,
80621072,1600,1592,1593,1601,,,,,
80623571,1604,1596,1597,1605,,,,,
80626070,1608,1600,1601,1608,,,,,
80628569,1612,1604,1605,1612,,,,,
80631068,1616,1608,1609,1616,,,,,
80633567,1620,1612,1613,1620,,,,,
80636066,1624,1616,1616,1624,,,,,
80638565,1627,1619,1620,1628,,,,,
80641064,1631,1623,1624,1631,,,,,
80643563,1635,1627,1628,1635,,,,,
80646062,1639,1631,1632,1639,,,,,
80648561,1642,1634,1635,1643,,,,,
80651060,1646,1638,1639,1646,,,,,
80653559,1650,1642,1643,1650,,,,,
80656058,1654,1646,1647,1654,,,,,
80658557,1657,1649,1650,1657,,,,,
80661056,1661,1653,1654,1661,,,,,
80663555,1665,1657,1658,1665,,,,,
80666054,1668,1660,1661,1668,,,,,
80668553,1672,1664,1665,1672,,,,,
80671052,1675,1667,1668,1675,,,,,
80673551,1679,1671,1672,1679,,,,,
80676050,1683,1675,1676,1683,,,,,
80678549,1686,1678,1679,1686,,,,,
80681048,1690,1682,1683,1690,,,,,
80683547,1693,1685,1686,1693,,,,,
80686046,1697,1689,1690,1697,,,,,
80688545,1700,1692,1693,1700,,,,,
80691044,1704,1696,1697,1704,,,,,
80693543,1707,1699,1700,1707,,,,,
80696042,1711,1703,1704,1711,,,,,
80698541,1714,1706,1707,1714,,,,,
80701040,1718,1710,1711,1717,,,,,
80703539,1721,1713,1714,1721,,,,,
80706038,1724,1717,1718,1724,,,,,
80708537,1728,1720,1721,1728,,,,,
80711036,1731,1723,1725,1731,,,,,
80713535,1735,1727,1728,1734,,,,,
80716034,1738,1730,1731,1738,,,,,
80718533,1741,1734,1735,1741,,,,,
80721032,1745,1737,1738,1745,,,,,
80723531,1748,1740,1741,1748,,,,,
80726030,1751,1744,1745,1751,,,,,
80728529,1755,1747,1748,1754,,,,,
80731028,1758,1750,1751,1758,,,,,
80733527,1761,1754,1755,1761,,,,,
80736026,1765,1757,1758,1764,,,,,
80738525,1768,1760,1761,1768,,,,,
80741024,1771,1763,1765,1771,,,,,
80743523,1774,1767,1768,1774,,,,,
80746022,1778,1770,1771,1777,,,,,
80748521,1781,1773,1774,1781,,,,,
80751020,1784,1776,1778,1784,,,,,
80753519,1787,1780,1781,1787,,,,,
80756018,1791,1783,1784,1790,,,,,
80758517,1794,1786,1787,1793,,,,,
80761016,1797,1789,1790,1797,,,,,
80763515,1800,1792,1794,1800,,,,,
80766014,1803,1796,1797,1803,,,,,
80768513,1806,1799,1800,1806,,,,,
80771012,1809,1802,1803,1809,,,,,
80773511,1813,1805,1806,1812,,,,,
80776010,1816,1808,1809,1816,,,,,
80778509,1819,1811,1812,1819,,,,,
80781008,1822,1814,1815,1822,,,,,
80783507,1825,1818,1818,1825,,,,,
80786006,1828,1821,1822,1828,,,,,
80788505,1831,1824,1825,1831,,,,,
80791004,1834,1827,1828,1834,,,,,
80793503,1837,1830,1831,1837,,,,,
80796002,1840,1833,1834,1840,,,,,
80798501,1843,1836,1837,1843,,,,,
80801000,1846,1839,1840,1847,,,,,
80803499,1849,1842,1843,1850,,,,,
80805998,1852,1845,1846,1853,,,,,
80808497,1855,1848,1849,1856,,,,,
80810996,1858,1851,1852,1859,,,,,
80813495,1861,1854,1855,1862,,,,,
80815994,1864,1857,1858,1865,,,,,
80818493,1867,1860,1861,1868,,,,,
80820992,1870,1863,1864,1871,,,,,
80823491,1873,1866,1867,1874,,,,,
80825990,1876,1869,1870,1877,,,,,
80828489,1879,1872,1872,1880,,,,,
80830988,1882,1875,1875,1883,,,,,
80833487,1885,1878,1878,1886,,,,,
80835986,1888,1881,1881,1888,,,,,
80838485,1891,1884,1884,1891,,,,,
80840984,1894,1887,1887,1894,,,,,
80843483,1897,1890,1890,1897,,,,,
80845982,1900,1893,1893,1900,,,,,
80848481,1903,1895,1896,1903,,,,,
80850980,1905,1898,1899,1906,,,,,
80853479,1908,1901,1902,1909,,,,,
80855978,1911,1904,1904,1912,,,,,
80858477,1914,1907,1907,1914,,,,,
80860976,1917,1910,1910,1917,,,,,
80863475,1920,1913,1913,1920,,,,,
80865974,1922,1915,1915,1922,,,,,
80868473,1921,1914,1914,1921,,,,,
80870972,1920,1913,1913,1921,,,,,
80873471,1919,1912,1913,1920,,,,,
80875970,1919,1911,1912,1919,,,,,
80878469,1918,1911,1911,1918,,,,,
80880968,1917,1910,1910,1918,,,,,
80883467,1917,1909,1910,1917,,,,,
80885966,1916,1909,1909,1916,,,,,
80888465,1915,1908,1908,1916,,,,,
80890964,1915,1907,1908,1915,,,,,
80893463,1915,1907,1907,1915,,,,,
80895962,1914,1907,1907,1915,,,,,
80898461,1914,1906,1907,1914,,,,,
80900960,1914,1906,1907,1914,,,,,
80903459,1913,1906,1906,1914,,,,,
80905958,1913,1906,1906,1913,,,,,
80908457,1913,1906,1906,1913,,,,,
80910956,1913,1906,1906,1913,,,,,
80913455,1912,1906,1906,1913,,,,,
80915954,1912,1906,1906,1912,,,,,
80918453,1911,1905,1906,1912,,,,,
80920952,1911,1905,1906,1911,,,,,
80923451,1910,1905,1905,1911,,,,,
80925950,1909,1904,1904,1910,,,,,
80928449,1908,1903,1904,1909,,,,,
80930948,1907,1902,1903,1908,,,,,
80933447,1906,1901,1901,1907,,,,,
80935946,1905,1900,1900,1905,,,,,
80938445,1903,1898,1899,1904,,,,,
80940944,1902,1897,1897,1902,,,,,
80943443,1900,1895,1895,1900,,,,,
80945942,1898,1893,1894,1898,,,,,
80948441,1896,1891,1892,1896,,,,,
80950940,1894,1889,1889,1894,,,,,
80953439,1891,1887,1887,1892,,,,,
80955938,1889,1885,1885,1889,,,,,
80958437,1886,1882,1882,1887,,,,,
80960936,1884,1880,1880,1884,,,,,
80963435,1881,1877,1877,1881,,,,,
80965934,1878,1874,1875,1879,,,,,
80968433,1875,1871,1872,1876,,,,,
80970932,1872,1868,1869,1873,,,,,
80973431,1869,1865,1866,1870,,,,,
80975930,1866,1863,1863,1867,,,,,
80978429,1863,1859,1860,1863,,,,,
80980928,1860,1856,1857,1860,,,,,
80983427,1857,1853,1854,1857,,,,,
80985926,1854,1850,1851,1854,,,,,
80988425,1850,1847,1847,1851,,,,,
80990924,1847,1844,1844,1847,,,,,
80993423,1844,1840,1841,1844,,,,,
80995922,1840,1837,1838,1841,,,,,
80998421,1837,1834,1834,1837,,,,,
81000920,1834,1830,1831,1834,,,,,
81003419,1830,1827,1828,1830,,,,,
81005918,1827,1824,1825,1827,,,,,
81008417,1824,1821,1821,1824,,,,,
81010916,1820,1817,1818,1820,,,,,
81013415,1817,1814,1815,1817,,,,,
81015914,1813,1811,1811,1813,,,,,
81018413,1810,1807,1808,1810,,,,,
81020912,1807,1804,1805,1807,,,,,
81023411,1803,1801,1802,1803,,,,,
81025910,1800,1798,1798,1800,,,,,
81028409,1797,1794,1795,1797,,,,,
81030908,1793,1791,1792,1793,,,,,
81033407,1790,1788,1789,1790,,,,,
81035906,1787,1785,1785,1787,,,,,
81038405,1783,1781,1782,1783,,,,,
81040904,1780,1778,1779,1780,,,,,
81043403,1777,1775,1776,1777,,,,,
81045902,1773,1772,1772,1773,,,,,
81048401,1770,1769,1769,1770,,,,,
81050900,1767,1765,1766,1767,,,,,
81053399,1763,1762,1763,1764,,,,,
81055898,1760,1759,1760,1761,,,,,
81058397,1757,1756,1757,1757,,,,,
81060896,1754,1753,1754,1754,,,,,
81063395,1751,1750,1751,1751,,,,,
81065894,1748,1747,1748,1748,,,,,
81068393,1745,1744,1745,1745,,,,,
81070892,1742,1741,1742,1742,,,,,
81073391,1739,1739,1739,1739,,,,,
81075890,1736,1736,1736,1737,,,,,
81078389,1733,1733,1733,1734,,,,,
81080888,1730,1730,1731,1731,,,,,
81083387,1728,1728,1728,1728,,,,,
81085886,1725,1725,1725,1725,,,,,
81088385,1722,1722,1723,1723,,,,,
81090884,1719,1720,1720,1720,,,,,
81093383,1717,1717,1718,1717,,,,,
81095882,1714,1715,1715,1715,,,,,
81098381,1712,1712,1713,1712,,,,,
81100880,1709,1710,1710,1710,,,,,
81103379,1707,1708,1708,1707,,,,,
