timestamp,TimeUS,C1,C2,C3,C4,C5,C6,C7,C8,C9,C10,C11,C12,C13,C14
1683125072.50003982,47928321,1000,1000,1000,1000,0,0,0,0,0,0,0,0,0,0
1683125072.59999990,48028281,1000,1000,1000,1000,0,0,0,0,0,0,0,0,0,0
1683125072.69995999,48128241,1000,1000,1000,1000,0,0,0,0,0,0,0,0,0,0
1683125072.79991984,48228201,1000,1000,1000,1000,0,0,0,0,0,0,0,0,0,0
1683125072.89987993,48328161,1000,1000,1000,1000,0,0,0,0,0,0,0,0,0,0
1683125073.00067282,48428954,1000,1000,1000,1000,0,0,0,0,0,0,0,0,0,0
1683125073.10063291,48528914,1000,1000,1000,1000,0,0,0,0,0,0,0,0,0,0
1683125073.20059299,48628874,1000,1000,1000,1000,0,0,0,0,0,0,0,0,0,0
1683125073.30055285,48728834,1000,1000,1000,1000,0,0,0,0,0,0,0,0,0,0
1683125073.40051293,48828794,1000,1000,1000,1000,0,0,0,0,0,0,0,0,0,0
1683125073.50047302,48928754,1000,1000,1000,1000,0,0,0,0,0,0,0,0,0,0
1683125073.60043287,49028714,1000,1000,1000,1000,0,0,0,0,0,0,0,0,0,0
1683125073.70039296,49128674,1000,1000,1000,1000,0,0,0,0,0,0,0,0,0,0
1683125073.80035305,49228634,1000,1000,1000,1000,0,0,0,0,0,0,0,0,0,0
1683125073.90031290,49328594,1000,1000,1000,1000,0,0,0,0,0,0,0,0,0,0
1683125074.00027299,49428554,1000,1000,1000,1000,0,0,0,0,0,0,0,0,0,0
1683125074.10023284,49528514,1000,1000,1000,1000,0,0,0,0,0,0,0,0,0,0
1683125074.20019293,49628474,1000,1000,1000,1000,0,0,0,0,0,0,0,0,0,0
1683125074.30015302,49728434,1000,1000,1000,1000,0,0,0,0,0,0,0,0,0,0
1683125074.40011287,49828394,1000,1000,1000,1000,0,0,0,0,0,0,0,0,0,0
1683125074.50007296,49928354,1023,1023,1023,1023,0,0,0,0,0,0,0,0,0,0
1683125074.60003304,50028314,1053,1053,1053,1053,0,0,0,0,0,0,0,0,0,0
1683125074.69999290,50128274,1083,1083,1083,1083,0,0,0,0,0,0,0,0,0,0
1683125074.79995298,50228234,1113,1113,1113,1113,0,0,0,0,0,0,0,0,0,0
1683125074.89991283,50328194,1143,1143,1143,1143,0,0,0,0,0,0,0,0,0,0
1683125074.99987292,50428154,1351,1346,1346,1352,0,0,0,0,0,0,0,0,0,0
1683125075.10066605,50528947,1542,1537,1538,1542,0,0,0,0,0,0,0,0,0,0
1683125075.20062590,50628907,1695,1691,1691,1695,0,0,0,0,0,0,0,0,0,0
1683125075.30058599,50728867,1826,1823,1822,1827,0,0,0,0,0,0,0,0,0,0
1683125075.40054584,50828827,1910,1906,1906,1911,0,0,0,0,0,0,0,0,0,0
1683125075.50050592,50928787,1854,1852,1852,1854,0,0,0,0,0,0,0,0,0,0
1683125075.60046601,51028747,1725,1725,1725,1725,0,0,0,0,0,0,0,0,0,0
1683125075.70042586,51128707,1651,1652,1652,1651,0,0,0,0,0,0,0,0,0,0
1683125075.80038595,51228667,1639,1633,1632,1640,0,0,0,0,0,0,0,0,0,0
1683125075.90034604,51328627,1635,1637,1630,1642,0,0,0,0,0,0,0,0,0,0
1683125076.00030589,51428587,1638,1640,1634,1645,0,0,0,0,0,0,0,0,0,0
1683125076.10026598,51528547,1634,1635,1633,1636,0,0,0,0,0,0,0,0,0,0
1683125076.20022583,51628507,1628,1628,1629,1626,0,0,0,0,0,0,0,0,0,0
1683125076.30018592,51728467,1622,1622,1626,1618,0,0,0,0,0,0,0,0,0,0
1683125076.40014601,51828427,1620,1618,1624,1614,0,0,0,0,0,0,0,0,0,0
1683125076.50010586,51928387,1619,1619,1622,1615,0,0,0,0,0,0,0,0,0,0
1683125076.60006595,52028347,1593,1592,1601,1584,0,0,0,0,0,0,0,0,0,0
1683125076.70002604,52128307,1577,1577,1585,1568,0,0,0,0,0,0,0,0,0,0
1683125076.79998589,52228267,1565,1565,1567,1563,0,0,0,0,0,0,0,0,0,0
1683125076.89994597,52328227,1555,1555,1552,1559,0,0,0,0,0,0,0,0,0,0
1683125076.99990582,52428187,1547,1547,1541,1554,0,0,0,0,0,0,0,0,0,0
1683125077.10069895,52528980,1540,1540,1530,1550,0,0,0,0,0,0,0,0,0,0
1683125077.20065904,52628940,1536,1535,1527,1543,0,0,0,0,0,0,0,0,0,0
1683125077.30061889,52728900,1529,1529,1525,1533,0,0,0,0,0,0,0,0,0,0
1683125077.40057898,52828860,1526,1526,1526,1526,0,0,0,0,0,0,0,0,0,0
1683125077.50053883,52928820,1524,1524,1526,1523,0,0,0,0,0,0,0,0,0,0
1683125077.60049891,53028780,1527,1527,1529,1525,0,0,0,0,0,0,0,0,0,0
1683125077.70045900,53128740,1530,1530,1532,1527,0,0,0,0,0,0,0,0,0,0
1683125077.80041885,53228700,1534,1535,1537,1532,0,0,0,0,0,0,0,0,0,0
1683125077.90037894,53328660,1538,1538,1540,1536,0,0,0,0,0,0,0,0,0,0
1683125078.00033903,53428620,1542,1541,1543,1540,0,0,0,0,0,0,0,0,0,0
1683125078.10029888,53528580,1545,1545,1546,1545,0,0,0,0,0,0,0,0,0,0
1683125078.20025897,53628540,1547,1547,1547,1548,0,0,0,0,0,0,0,0,0,0
1683125078.30021882,53728500,1550,1550,1550,1551,0,0,0,0,0,0,0,0,0,0
1683125078.40017891,53828460,1554,1554,1553,1555,0,0,0,0,0,0,0,0,0,0
1683125078.50013900,53928420,1555,1554,1555,1558,0,0,0,0,0,0,0,0,0,0
1683125078.60009885,54028380,1555,1555,1560,1562,0,0,0,0,0,0,0,0,0,0
1683125078.70005894,54128340,1557,1557,1563,1564,0,0,0,0,0,0,0,0,0,0
1683125078.80001903,54228300,1559,1560,1565,1564,0,0,0,0,0,0,0,0,0,0
1683125078.89997888,54328260,1561,1562,1566,1564,0,0,0,0,0,0,0,0,0,0
1683125078.99993896,54428220,1565,1565,1567,1566,0,0,0,0,0,0,0,0,0,0
1683125079.09989882,54528180,1566,1566,1566,1566,0,0,0,0,0,0,0,0,0,0
1683125079.20069194,54628973,1568,1569,1567,1567,0,0,0,0,0,0,0,0,0,0
1683125079.30065203,54728933,1570,1570,1567,1567,0,0,0,0,0,0,0,0,0,0
1683125079.40061188,54828893,1571,1571,1567,1568,0,0,0,0,0,0,0,0,0,0
1683125079.50057197,54928853,1572,1572,1568,1569,0,0,0,0,0,0,0,0,0,0
1683125079.60053182,55028813,1574,1573,1570,1570,0,0,0,0,0,0,0,0,0,0
1683125079.70049191,55128773,1573,1573,1570,1570,0,0,0,0,0,0,0,0,0,0
1683125079.80045199,55228733,1574,1574,1571,1571,0,0,0,0,0,0,0,0,0,0
1683125079.90041184,55328693,1574,1574,1573,1572,0,0,0,0,0,0,0,0,0,0
1683125080.00037193,55428653,1574,1575,1574,1573,0,0,0,0,0,0,0,0,0,0
1683125080.10033202,55528613,1575,1575,1575,1574,0,0,0,0,0,0,0,0,0,0
1683125080.20029187,55628573,1575,1575,1576,1575,0,0,0,0,0,0,0,0,0,0
1683125080.30025196,55728533,1575,1575,1576,1576,0,0,0,0,0,0,0,0,0,0
1683125080.40021205,55828493,1575,1575,1576,1576,0,0,0,0,0,0,0,0,0,0
1683125080.50017190,55928453,1574,1574,1576,1576,0,0,0,0,0,0,0,0,0,0
1683125080.60013199,56028413,1575,1575,1576,1576,0,0,0,0,0,0,0,0,0,0
1683125080.70009184,56128373,1576,1577,1577,1577,0,0,0,0,0,0,0,0,0,0
1683125080.80005193,56228333,1576,1576,1577,1577,0,0,0,0,0,0,0,0,0,0
1683125080.90001202,56328293,1577,1576,1577,1577,0,0,0,0,0,0,0,0,0,0
1683125080.99997187,56428253,1578,1577,1578,1577,0,0,0,0,0,0,0,0,0,0
1683125081.09993196,56528213,1577,1577,1577,1577,0,0,0,0,0,0,0,0,0,0
1683125081.19989204,56628173,1577,1577,1576,1577,0,0,0,0,0,0,0,0,0,0
1683125081.30068493,56728966,1578,1578,1577,1578,0,0,0,0,0,0,0,0,0,0
1683125081.40064502,56828926,1577,1578,1577,1577,0,0,0,0,0,0,0,0,0,0
1683125081.50060487,56928886,1579,1578,1578,1579,0,0,0,0,0,0,0,0,0,0
1683125081.60056496,57028846,1579,1578,1578,1578,0,0,0,0,0,0,0,0,0,0
1683125081.70052505,57128806,1580,1579,1579,1579,0,0,0,0,0,0,0,0,0,0
1683125081.80048490,57228766,1579,1579,1579,1579,0,0,0,0,0,0,0,0,0,0
1683125081.90044498,57328726,1579,1579,1579,1579,0,0,0,0,0,0,0,0,0,0
1683125082.00040483,57428686,1579,1579,1579,1579,0,0,0,0,0,0,0,0,0,0
1683125082.10036492,57528646,1580,1579,1580,1580,0,0,0,0,0,0,0,0,0,0
1683125082.20032501,57628606,1579,1579,1579,1579,0,0,0,0,0,0,0,0,0,0
1683125082.30028486,57728566,1578,1578,1579,1578,0,0,0,0,0,0,0,0,0,0
1683125082.40024495,57828526,1578,1578,1579,1579,0,0,0,0,0,0,0,0,0,0
1683125082.50020504,57928486,1579,1579,1579,1579,0,0,0,0,0,0,0,0,0,0
1683125082.60016489,58028446,1579,1579,1579,1579,0,0,0,0,0,0,0,0,0,0
1683125082.70012498,58128406,1579,1579,1579,1579,0,0,0,0,0,0,0,0,0,0
1683125082.80008483,58228366,1580,1580,1580,1580,0,0,0,0,0,0,0,0,0,0
1683125082.90004492,58328326,1580,1580,1581,1580,0,0,0,0,0,0,0,0,0,0
1683125083.00000501,58428286,1579,1580,1580,1579,0,0,0,0,0,0,0,0,0,0
1683125083.09996486,58528246,1579,1580,1579,1580,0,0,0,0,0,0,0,0,0,0
1683125083.19992495,58628206,1579,1579,1579,1579,0,0,0,0,0,0,0,0,0,0
1683125083.29988503,58728166,1580,1580,1580,1580,0,0,0,0,0,0,0,0,0,0
1683125083.40067792,58828959,1580,1580,1580,1580,0,0,0,0,0,0,0,0,0,0
1683125083.50063801,58928919,1581,1580,1580,1580,0,0,0,0,0,0,0,0,0,0
1683125083.60059786,59028879,1580,1580,1580,1580,0,0,0,0,0,0,0,0,0,0
1683125083.70055795,59128839,1580,1579,1579,1580,0,0,0,0,0,0,0,0,0,0
1683125083.80051804,59228799,1580,1580,1580,1580,0,0,0,0,0,0,0,0,0,0
1683125083.90047789,59328759,1581,1581,1581,1581,0,0,0,0,0,0,0,0,0,0
1683125084.00043797,59428719,1579,1580,1580,1579,0,0,0,0,0,0,0,0,0,0
1683125084.10039783,59528679,1580,1580,1580,1580,0,0,0,0,0,0,0,0,0,0
1683125084.20035791,59628639,1580,1580,1580,1580,0,0,0,0,0,0,0,0,0,0
1683125084.30031800,59728599,1581,1581,1581,1581,0,0,0,0,0,0,0,0,0,0
1683125084.40027785,59828559,1580,1580,1580,1580,0,0,0,0,0,0,0,0,0,0
1683125084.50023794,59928519,1580,1580,1580,1581,0,0,0,0,0,0,0,0,0,0
1683125084.60019803,60028479,1581,1581,1581,1581,0,0,0,0,0,0,0,0,0,0
1683125084.70015788,60128439,1581,1581,1584,1578,0,0,0,0,0,0,0,0,0,0
1683125084.80011797,60228399,1579,1581,1586,1572,0,0,0,0,0,0,0,0,0,0
1683125084.90007782,60328359,1579,1582,1581,1573,0,0,0,0,0,0,0,0,0,0
1683125085.00003791,60428319,1578,1581,1573,1572,0,0,0,0,0,0,0,0,0,0
1683125085.09999800,60528279,1577,1579,1564,1570,0,0,0,0,0,0,0,0,0,0
1683125085.19995785,60628239,1577,1579,1559,1566,0,0,0,0,0,0,0,0,0,0
1683125085.29991794,60728199,1578,1578,1556,1561,0,0,0,0,0,0,0,0,0,0
1683125085.39987803,60828159,1579,1577,1555,1557,0,0,0,0,0,0,0,0,0,0
1683125085.50067091,60928952,1580,1578,1556,1556,0,0,0,0,0,0,0,0,0,0
1683125085.60063100,61028912,1578,1578,1556,1554,0,0,0,0,0,0,0,0,0,0
1683125085.70059085,61128872,1577,1577,1556,1553,0,0,0,0,0,0,0,0,0,0
1683125085.80055094,61228832,1576,1577,1556,1554,0,0,0,0,0,0,0,0,0,0
1683125085.90051103,61328792,1575,1576,1555,1554,0,0,0,0,0,0,0,0,0,0
1683125086.00047088,61428752,1574,1576,1554,1553,0,0,0,0,0,0,0,0,0,0
1683125086.10043097,61528712,1574,1576,1552,1552,0,0,0,0,0,0,0,0,0,0
1683125086.20039082,61628672,1576,1577,1551,1551,0,0,0,0,0,0,0,0,0,0
1683125086.30035090,61728632,1577,1578,1549,1549,0,0,0,0,0,0,0,0,0,0
1683125086.40031099,61828592,1579,1580,1547,1547,0,0,0,0,0,0,0,0,0,0
1683125086.50027084,61928552,1582,1582,1544,1543,0,0,0,0,0,0,0,0,0,0
1683125086.60023093,62028512,1585,1585,1541,1541,0,0,0,0,0,0,0,0,0,0
1683125086.70019102,62128472,1588,1589,1539,1538,0,0,0,0,0,0,0,0,0,0
1683125086.80015087,62228432,1591,1591,1536,1536,0,0,0,0,0,0,0,0,0,0
1683125086.90011096,62328392,1594,1594,1535,1535,0,0,0,0,0,0,0,0,0,0
1683125087.00007105,62428352,1596,1596,1535,1536,0,0,0,0,0,0,0,0,0,0
1683125087.10003090,62528312,1596,1595,1536,1537,0,0,0,0,0,0,0,0,0,0
1683125087.19999099,62628272,1594,1594,1538,1540,0,0,0,0,0,0,0,0,0,0
1683125087.29995084,62728232,1592,1591,1542,1545,0,0,0,0,0,0,0,0,0,0
1683125087.39991093,62828192,1586,1585,1547,1550,0,0,0,0,0,0,0,0,0,0
1683125087.50070405,62928985,1580,1576,1556,1559,0,0,0,0,0,0,0,0,0,0
1683125087.60066390,63028945,1572,1568,1568,1571,0,0,0,0,0,0,0,0,0,0
1683125087.70062399,63128905,1560,1556,1580,1581,0,0,0,0,0,0,0,0,0,0
1683125087.80058384,63228865,1549,1546,1592,1592,0,0,0,0,0,0,0,0,0,0
1683125087.90054393,63328825,1539,1537,1602,1601,0,0,0,0,0,0,0,0,0,0
1683125088.00050402,63428785,1531,1531,1609,1608,0,0,0,0,0,0,0,0,0,0
1683125088.10046387,63528745,1528,1529,1613,1613,0,0,0,0,0,0,0,0,0,0
1683125088.20042396,63628705,1531,1532,1615,1615,0,0,0,0,0,0,0,0,0,0
1683125088.30038404,63728665,1534,1535,1612,1612,0,0,0,0,0,0,0,0,0,0
1683125088.40034389,63828625,1539,1541,1607,1606,0,0,0,0,0,0,0,0,0,0
1683125088.50030398,63928585,1547,1549,1600,1600,0,0,0,0,0,0,0,0,0,0
1683125088.60026383,64028545,1556,1557,1593,1592,0,0,0,0,0,0,0,0,0,0
1683125088.70022392,64128505,1564,1564,1584,1584,0,0,0,0,0,0,0,0,0,0
1683125088.80018401,64228465,1573,1572,1578,1578,0,0,0,0,0,0,0,0,0,0
1683125088.90014386,64328425,1579,1578,1573,1572,0,0,0,0,0,0,0,0,0,0
1683125089.00010395,64428385,1584,1582,1568,1568,0,0,0,0,0,0,0,0,0,0
1683125089.10006404,64528345,1586,1584,1565,1566,0,0,0,0,0,0,0,0,0,0
1683125089.20002389,64628305,1587,1585,1565,1565,0,0,0,0,0,0,0,0,0,0
1683125089.29998398,64728265,1586,1585,1566,1566,0,0,0,0,0,0,0,0,0,0
1683125089.39994383,64828225,1585,1584,1569,1569,0,0,0,0,0,0,0,0,0,0
1683125089.49990392,64928185,1581,1581,1571,1571,0,0,0,0,0,0,0,0,0,0
1683125089.60069704,65028978,1580,1580,1575,1575,0,0,0,0,0,0,0,0,0,0
1683125089.70065689,65128938,1577,1577,1578,1577,0,0,0,0,0,0,0,0,0,0
1683125089.80061698,65228898,1574,1574,1580,1579,0,0,0,0,0,0,0,0,0,0
1683125089.90057683,65328858,1573,1573,1582,1582,0,0,0,0,0,0,0,0,0,0
1683125090.00053692,65428818,1572,1572,1582,1583,0,0,0,0,0,0,0,0,0,0
1683125090.10049701,65528778,1572,1573,1583,1584,0,0,0,0,0,0,0,0,0,0
1683125090.20045686,65628738,1573,1574,1584,1584,0,0,0,0,0,0,0,0,0,0
1683125090.30041695,65728698,1574,1575,1583,1583,0,0,0,0,0,0,0,0,0,0
1683125090.40037704,65828658,1576,1576,1582,1583,0,0,0,0,0,0,0,0,0,0
1683125090.50033689,65928618,1577,1577,1581,1581,0,0,0,0,0,0,0,0,0,0
1683125090.60029697,66028578,1578,1578,1579,1579,0,0,0,0,0,0,0,0,0,0
1683125090.70025682,66128538,1579,1579,1579,1579,0,0,0,0,0,0,0,0,0,0
1683125090.80021691,66228498,1581,1581,1579,1579,0,0,0,0,0,0,0,0,0,0
1683125090.90017700,66328458,1581,1581,1577,1578,0,0,0,0,0,0,0,0,0,0
1683125091.00013685,66428418,1361,1364,1633,1641,0,0,0,0,0,0,0,0,0,0
1683125091.10009694,66528378,1428,1436,1642,1645,0,0,0,0,0,0,0,0,0,0
1683125091.20005703,66628338,1488,1497,1633,1628,0,0,0,0,0,0,0,0,0,0
1683125091.30001688,66728298,1538,1544,1621,1612,0,0,0,0,0,0,0,0,0,0
1683125091.39997697,66828258,1576,1576,1612,1603,0,0,0,0,0,0,0,0,0,0
1683125091.49993682,66928218,1606,1596,1605,1598,0,0,0,0,0,0,0,0,0,0
1683125091.59989691,67028178,1635,1620,1584,1586,0,0,0,0,0,0,0,0,0,0
1683125091.70069003,67128971,1650,1636,1545,1554,0,0,0,0,0,0,0,0,0,0
1683125091.80064988,67228931,1650,1643,1529,1543,0,0,0,0,0,0,0,0,0,0
1683125091.90060997,67328891,1647,1650,1547,1557,0,0,0,0,0,0,0,0,0,0
1683125092.00056982,67428851,1641,1650,1564,1566,0,0,0,0,0,0,0,0,0,0
1683125092.10052991,67528811,1640,1650,1583,1580,0,0,0,0,0,0,0,0,0,0
1683125092.20049000,67628771,1635,1641,1588,1582,0,0,0,0,0,0,0,0,0,0
1683125092.30044985,67728731,1627,1629,1584,1580,0,0,0,0,0,0,0,0,0,0
1683125092.40040994,67828691,1622,1621,1582,1580,0,0,0,0,0,0,0,0,0,0
1683125092.50037003,67928651,1617,1614,1579,1579,0,0,0,0,0,0,0,0,0,0
1683125092.60032988,68028611,1611,1608,1575,1577,0,0,0,0,0,0,0,0,0,0
1683125092.70028996,68128571,1605,1603,1573,1574,0,0,0,0,0,0,0,0,0,0
1683125092.80024981,68228531,1603,1596,1576,1566,0,0,0,0,0,0,0,0,0,0
1683125092.90020990,68328491,1598,1591,1572,1566,0,0,0,0,0,0,0,0,0,0
1683125093.00016999,68428451,1592,1587,1565,1565,0,0,0,0,0,0,0,0,0,0
1683125093.10012984,68528411,1586,1586,1560,1562,0,0,0,0,0,0,0,0,0,0
1683125093.20008993,68628371,1579,1582,1555,1556,0,0,0,0,0,0,0,0,0,0
1683125093.30005002,68728331,1576,1580,1553,1553,0,0,0,0,0,0,0,0,0,0
1683125093.40000987,68828291,1574,1578,1553,1550,0,0,0,0,0,0,0,0,0,0
1683125093.49996996,68928251,1573,1576,1552,1548,0,0,0,0,0,0,0,0,0,0
1683125093.59993005,69028211,1573,1574,1551,1548,0,0,0,0,0,0,0,0,0,0
1683125093.69988990,69128171,1573,1573,1550,1548,0,0,0,0,0,0,0,0,0,0
1683125093.80068302,69228964,1572,1572,1549,1548,0,0,0,0,0,0,0,0,0,0
1683125093.90064287,69328924,1571,1571,1548,1547,0,0,0,0,0,0,0,0,0,0
1683125094.00060296,69428884,1571,1571,1548,1548,0,0,0,0,0,0,0,0,0,0
1683125094.10056305,69528844,1569,1571,1547,1547,0,0,0,0,0,0,0,0,0,0
1683125094.20052290,69628804,1569,1571,1548,1548,0,0,0,0,0,0,0,0,0,0
1683125094.30048299,69728764,1569,1571,1548,1547,0,0,0,0,0,0,0,0,0,0
1683125094.40044284,69828724,1569,1571,1549,1548,0,0,0,0,0,0,0,0,0,0
1683125094.50040293,69928684,1570,1571,1549,1548,0,0,0,0,0,0,0,0,0,0
1683125094.60036302,70028644,1570,1571,1549,1548,0,0,0,0,0,0,0,0,0,0
1683125094.70032287,70128604,1570,1571,1549,1549,0,0,0,0,0,0,0,0,0,0
1683125094.80028296,70228564,1571,1572,1550,1550,0,0,0,0,0,0,0,0,0,0
1683125094.90024304,70328524,1572,1573,1550,1551,0,0,0,0,0,0,0,0,0,0
1683125095.00020289,70428484,1573,1573,1551,1552,0,0,0,0,0,0,0,0,0,0
1683125095.10016298,70528444,1574,1574,1551,1553,0,0,0,0,0,0,0,0,0,0
1683125095.20012283,70628404,1575,1575,1551,1553,0,0,0,0,0,0,0,0,0,0
1683125095.30008292,70728364,1576,1575,1551,1554,0,0,0,0,0,0,0,0,0,0
1683125095.40004301,70828324,1576,1576,1551,1554,0,0,0,0,0,0,0,0,0,0
1683125095.50000286,70928284,1577,1577,1552,1555,0,0,0,0,0,0,0,0,0,0
1683125095.59996295,71028244,1578,1578,1553,1556,0,0,0,0,0,0,0,0,0,0
1683125095.69992304,71128204,1578,1579,1553,1555,0,0,0,0,0,0,0,0,0,0
1683125095.79988289,71228164,1579,1580,1554,1556,0,0,0,0,0,0,0,0,0,0
1683125095.90067601,71328957,1579,1579,1554,1556,0,0,0,0,0,0,0,0,0,0
1683125096.00063586,71428917,1580,1579,1555,1556,0,0,0,0,0,0,0,0,0,0
1683125096.10059595,71528877,1581,1580,1556,1557,0,0,0,0,0,0,0,0,0,0
1683125096.20055604,71628837,1582,1581,1559,1560,0,0,0,0,0,0,0,0,0,0
1683125096.30051589,71728797,1581,1576,1564,1566,0,0,0,0,0,0,0,0,0,0
1683125096.40047598,71828757,1567,1560,1583,1586,0,0,0,0,0,0,0,0,0,0
1683125096.50043583,71928717,1552,1546,1599,1601,0,0,0,0,0,0,0,0,0,0
1683125096.60039592,72028677,1541,1539,1608,1609,0,0,0,0,0,0,0,0,0,0
1683125096.70035601,72128637,1535,1536,1611,1611,0,0,0,0,0,0,0,0,0,0
1683125096.80031586,72228597,1534,1538,1612,1611,0,0,0,0,0,0,0,0,0,0
1683125096.90027595,72328557,1535,1541,1610,1608,0,0,0,0,0,0,0,0,0,0
1683125097.00023603,72428517,1539,1545,1607,1605,0,0,0,0,0,0,0,0,0,0
1683125097.10019588,72528477,1545,1549,1603,1600,0,0,0,0,0,0,0,0,0,0
1683125097.20015597,72628437,1552,1554,1599,1595,0,0,0,0,0,0,0,0,0,0
1683125097.30011582,72728397,1559,1559,1593,1591,0,0,0,0,0,0,0,0,0,0
1683125097.40007591,72828357,1566,1565,1589,1588,0,0,0,0,0,0,0,0,0,0
1683125097.50003600,72928317,1571,1569,1584,1584,0,0,0,0,0,0,0,0,0,0
1683125097.59999585,73028277,1575,1573,1579,1580,0,0,0,0,0,0,0,0,0,0
1683125097.69995594,73128237,1578,1577,1576,1577,0,0,0,0,0,0,0,0,0,0
1683125097.79991603,73228197,1580,1580,1573,1574,0,0,0,0,0,0,0,0,0,0
1683125097.89987588,73328157,1582,1583,1573,1573,0,0,0,0,0,0,0,0,0,0
1683125098.00066900,73428950,1583,1583,1571,1571,0,0,0,0,0,0,0,0,0,0
1683125098.10062885,73528910,1586,1586,1572,1572,0,0,0,0,0,0,0,0,0,0
1683125098.20058894,73628870,1586,1586,1573,1572,0,0,0,0,0,0,0,0,0,0
1683125098.30054903,73728830,1587,1586,1572,1572,0,0,0,0,0,0,0,0,0,0
1683125098.40050888,73828790,1587,1586,1573,1573,0,0,0,0,0,0,0,0,0,0
1683125098.50046897,73928750,1586,1586,1572,1573,0,0,0,0,0,0,0,0,0,0
1683125098.60042882,74028710,1586,1585,1573,1574,0,0,0,0,0,0,0,0,0,0
1683125098.70038891,74128670,1586,1585,1574,1575,0,0,0,0,0,0,0,0,0,0
1683125098.80034900,74228630,1585,1585,1576,1575,0,0,0,0,0,0,0,0,0,0
1683125098.90030885,74328590,1585,1585,1576,1576,0,0,0,0,0,0,0,0,0,0
1683125099.00026894,74428550,1584,1583,1576,1577,0,0,0,0,0,0,0,0,0,0
1683125099.10022902,74528510,1583,1583,1578,1578,0,0,0,0,0,0,0,0,0,0
1683125099.20018888,74628470,1583,1583,1579,1579,0,0,0,0,0,0,0,0,0,0
1683125099.30014896,74728430,1583,1584,1580,1580,0,0,0,0,0,0,0,0,0,0
1683125099.40010881,74828390,1582,1582,1579,1579,0,0,0,0,0,0,0,0,0,0
1683125099.50006890,74928350,1581,1581,1579,1579,0,0,0,0,0,0,0,0,0,0
1683125099.60002899,75028310,1581,1581,1580,1580,0,0,0,0,0,0,0,0,0,0
1683125099.69998884,75128270,1580,1581,1581,1580,0,0,0,0,0,0,0,0,0,0
1683125099.79994893,75228230,1580,1580,1581,1580,0,0,0,0,0,0,0,0,0,0
1683125099.89990902,75328190,1580,1580,1580,1580,0,0,0,0,0,0,0,0,0,0
1683125100.00070190,75428983,1580,1581,1581,1581,0,0,0,0,0,0,0,0,0,0
1683125100.10066199,75528943,1580,1580,1581,1580,0,0,0,0,0,0,0,0,0,0
1683125100.20062184,75628903,1580,1580,1580,1581,0,0,0,0,0,0,0,0,0,0
1683125100.30058193,75728863,1579,1580,1580,1580,0,0,0,0,0,0,0,0,0,0
1683125100.40054202,75828823,1580,1580,1580,1580,0,0,0,0,0,0,0,0,0,0
1683125100.50050187,75928783,1580,1580,1580,1580,0,0,0,0,0,0,0,0,0,0
1683125100.60046196,76028743,1580,1580,1580,1580,0,0,0,0,0,0,0,0,0,0
1683125100.70042205,76128703,1580,1580,1580,1580,0,0,0,0,0,0,0,0,0,0
1683125100.80038190,76228663,1581,1581,1581,1581,0,0,0,0,0,0,0,0,0,0
1683125100.90034199,76328623,1580,1581,1581,1581,0,0,0,0,0,0,0,0,0,0
1683125101.00030184,76428583,1580,1580,1580,1580,0,0,0,0,0,0,0,0,0,0
1683125101.10026193,76528543,1580,1580,1580,1580,0,0,0,0,0,0,0,0,0,0
1683125101.20022202,76628503,1580,1581,1580,1580,0,0,0,0,0,0,0,0,0,0
1683125101.30018187,76728463,1581,1581,1581,1581,0,0,0,0,0,0,0,0,0,0
1683125101.40014195,76828423,1581,1581,1584,1577,0,0,0,0,0,0,0,0,0,0
1683125101.50010204,76928383,1581,1579,1586,1571,0,0,0,0,0,0,0,0,0,0
1683125101.60006189,77028343,1581,1579,1580,1573,0,0,0,0,0,0,0,0,0,0
1683125101.70002198,77128303,1579,1578,1571,1572,0,0,0,0,0,0,0,0,0,0
1683125101.79998183,77228263,1576,1578,1563,1569,0,0,0,0,0,0,0,0,0,0
1683125101.89994192,77328223,1574,1577,1558,1564,0,0,0,0,0,0,0,0,0,0
1683125101.99990201,77428183,1574,1577,1558,1562,0,0,0,0,0,0,0,0,0,0
1683125102.10069489,77528976,1575,1577,1558,1559,0,0,0,0,0,0,0,0,0,0
1683125102.20065498,77628936,1575,1576,1558,1557,0,0,0,0,0,0,0,0,0,0
1683125102.30061483,77728896,1575,1576,1558,1556,0,0,0,0,0,0,0,0,0,0
1683125102.40057492,77828856,1575,1575,1557,1555,0,0,0,0,0,0,0,0,0,0
1683125102.50053501,77928816,1575,1574,1555,1554,0,0,0,0,0,0,0,0,0,0
1683125102.60049486,78028776,1574,1574,1553,1553,0,0,0,0,0,0,0,0,0,0
1683125102.70045495,78128736,1574,1574,1552,1551,0,0,0,0,0,0,0,0,0,0
1683125102.80041504,78228696,1575,1575,1551,1551,0,0,0,0,0,0,0,0,0,0
1683125102.90037489,78328656,1575,1576,1548,1549,0,0,0,0,0,0,0,0,0,0
1683125103.00033498,78428616,1575,1577,1547,1548,0,0,0,0,0,0,0,0,0,0
1683125103.10029483,78528576,1577,1578,1546,1545,0,0,0,0,0,0,0,0,0,0
1683125103.20025492,78628536,1578,1580,1544,1544,0,0,0,0,0,0,0,0,0,0
1683125103.30021501,78728496,1580,1581,1542,1541,0,0,0,0,0,0,0,0,0,0
1683125103.40017486,78828456,1582,1583,1540,1540,0,0,0,0,0,0,0,0,0,0
1683125103.50013494,78928416,1585,1584,1539,1539,0,0,0,0,0,0,0,0,0,0
1683125103.60009503,79028376,1587,1587,1539,1539,0,0,0,0,0,0,0,0,0,0
1683125103.70005488,79128336,1589,1588,1539,1540,0,0,0,0,0,0,0,0,0,0
1683125103.80001497,79228296,1589,1588,1540,1541,0,0,0,0,0,0,0,0,0,0
1683125103.89997482,79328256,1589,1588,1541,1543,0,0,0,0,0,0,0,0,0,0
1683125103.99993491,79428216,1587,1587,1544,1547,0,0,0,0,0,0,0,0,0,0
1683125104.09989500,79528176,1585,1585,1547,1550,0,0,0,0,0,0,0,0,0,0
1683125104.20068789,79628969,1582,1581,1551,1555,0,0,0,0,0,0,0,0,0,0
1683125104.30064797,79728929,1578,1577,1557,1561,0,0,0,0,0,0,0,0,0,0
1683125104.40060782,79828889,1573,1571,1565,1567,0,0,0,0,0,0,0,0,0,0
1683125104.50056791,79928849,1567,1564,1572,1574,0,0,0,0,0,0,0,0,0,0
1683125104.60052800,80028809,1560,1558,1581,1582,0,0,0,0,0,0,0,0,0,0
1683125104.70048785,80128769,1554,1552,1591,1591,0,0,0,0,0,0,0,0,0,0
1683125104.80044794,80228729,1546,1544,1599,1599,0,0,0,0,0,0,0,0,0,0
1683125104.90040803,80328689,1539,1538,1604,1604,0,0,0,0,0,0,0,0,0,0
1683125105.00036788,80428649,1534,1535,1609,1608,0,0,0,0,0,0,0,0,0,0
1683125105.10032797,80528609,1534,1535,1611,1610,0,0,0,0,0,0,0,0,0,0
1683125105.20028782,80628569,1535,1538,1609,1608,0,0,0,0,0,0,0,0,0,0
1683125105.30024791,80728529,1539,1541,1604,1603,0,0,0,0,0,0,0,0,0,0
1683125105.40020800,80828489,1544,1546,1597,1598,0,0,0,0,0,0,0,0,0,0
1683125105.50016785,80928449,1552,1554,1592,1592,0,0,0,0,0,0,0,0,0,0
1683125105.60012794,81028409,1561,1561,1586,1585,0,0,0,0,0,0,0,0,0,0
1683125105.70008802,81128369,1569,1568,1580,1579,0,0,0,0,0,0,0,0,0,0
1683125105.80004787,81228329,1575,1575,1574,1573,0,0,0,0,0,0,0,0,0,0
1683125105.90000796,81328289,1581,1580,1570,1569,0,0,0,0,0,0,0,0,0,0
1683125105.99996781,81428249,1585,1583,1567,1567,0,0,0,0,0,0,0,0,0,0
1683125106.09992790,81528209,1587,1585,1566,1566,0,0,0,0,0,0,0,0,0,0
1683125106.19988799,81628169,1588,1586,1566,1567,0,0,0,0,0,0,0,0,0,0
1683125106.30068088,81728962,1587,1586,1567,1568,0,0,0,0,0,0,0,0,0,0
1683125106.40064096,81828922,1586,1586,1570,1570,0,0,0,0,0,0,0,0,0,0
1683125106.50060081,81928882,1584,1584,1572,1572,0,0,0,0,0,0,0,0,0,0
1683125106.60056090,82028842,1583,1583,1575,1574,0,0,0,0,0,0,0,0,0,0
1683125106.70052099,82128802,1581,1582,1577,1576,0,0,0,0,0,0,0,0,0,0
1683125106.80048084,82228762,1580,1580,1579,1578,0,0,0,0,0,0,0,0,0,0
1683125106.90044093,82328722,1578,1579,1580,1580,0,0,0,0,0,0,0,0,0,0
1683125107.00040102,82428682,1578,1578,1583,1583,0,0,0,0,0,0,0,0,0,0
1683125107.10036087,82528642,1576,1576,1583,1583,0,0,0,0,0,0,0,0,0,0
1683125107.20032096,82628602,1575,1575,1583,1583,0,0,0,0,0,0,0,0,0,0
1683125107.30028105,82728562,1575,1575,1583,1583,0,0,0,0,0,0,0,0,0,0
1683125107.40024090,82828522,1575,1575,1583,1584,0,0,0,0,0,0,0,0,0,0
1683125107.50020099,82928482,1575,1576,1583,1583,0,0,0,0,0,0,0,0,0,0
1683125107.60016084,83028442,1576,1577,1583,1582,0,0,0,0,0,0,0,0,0,0
1683125107.70012093,83128402,1578,1578,1582,1582,0,0,0,0,0,0,0,0,0,0
1683125107.80008101,83228362,1579,1579,1582,1581,0,0,0,0,0,0,0,0,0,0
1683125107.90004086,83328322,1580,1580,1581,1580,0,0,0,0,0,0,0,0,0,0
1683125108.00000095,83428282,1581,1581,1580,1580,0,0,0,0,0,0,0,0,0,0
1683125108.09996104,83528242,1582,1581,1579,1579,0,0,0,0,0,0,0,0,0,0
1683125108.19992089,83628202,1582,1582,1578,1578,0,0,0,0,0,0,0,0,0,0
1683125108.29988098,83728162,1583,1582,1578,1578,0,0,0,0,0,0,0,0,0,0
1683125108.40067387,83828955,1582,1582,1578,1578,0,0,0,0,0,0,0,0,0,0
1683125108.50063396,83928915,1582,1583,1578,1578,0,0,0,0,0,0,0,0,0,0
1683125108.60059404,84028875,1582,1582,1578,1578,0,0,0,0,0,0,0,0,0,0
1683125108.70055389,84128835,1582,1582,1579,1579,0,0,0,0,0,0,0,0,0,0
1683125108.80051398,84228795,1582,1581,1580,1580,0,0,0,0,0,0,0,0,0,0
1683125108.90047383,84328755,1582,1582,1582,1581,0,0,0,0,0,0,0,0,0,0
1683125109.00043392,84428715,1580,1580,1580,1579,0,0,0,0,0,0,0,0,0,0
1683125109.10039401,84528675,1579,1580,1581,1580,0,0,0,0,0,0,0,0,0,0
1683125109.20035386,84628635,1580,1580,1581,1581,0,0,0,0,0,0,0,0,0,0
1683125109.30031395,84728595,1580,1580,1581,1582,0,0,0,0,0,0,0,0,0,0
1683125109.40027404,84828555,1579,1579,1581,1581,0,0,0,0,0,0,0,0,0,0
1683125109.50023389,84928515,1580,1579,1581,1581,0,0,0,0,0,0,0,0,0,0
1683125109.60019398,85028475,1580,1579,1580,1580,0,0,0,0,0,0,0,0,0,0
1683125109.70015383,85128435,1581,1580,1588,1575,0,0,0,0,0,0,0,0,0,0
1683125109.80011392,85228395,1580,1579,1587,1573,0,0,0,0,0,0,0,0,0,0
1683125109.90007401,85328355,1579,1578,1580,1575,0,0,0,0,0,0,0,0,0,0
1683125110.00003386,85428315,1576,1575,1572,1575,0,0,0,0,0,0,0,0,0,0
1683125110.09999394,85528275,1572,1572,1566,1573,0,0,0,0,0,0,0,0,0,0
1683125110.19995403,85628235,1570,1571,1565,1571,0,0,0,0,0,0,0,0,0,0
1683125110.29991388,85728195,1569,1569,1564,1569,0,0,0,0,0,0,0,0,0,0
1683125110.39987397,85828155,1567,1568,1566,1566,0,0,0,0,0,0,0,0,0,0
1683125110.50066686,85928948,1566,1567,1566,1564,0,0,0,0,0,0,0,0,0,0
1683125110.60062695,86028908,1566,1566,1567,1564,0,0,0,0,0,0,0,0,0,0
1683125110.70058703,86128868,1566,1566,1567,1565,0,0,0,0,0,0,0,0,0,0
1683125110.80054688,86228828,1565,1565,1567,1565,0,0,0,0,0,0,0,0,0,0
1683125110.90050697,86328788,1565,1564,1566,1565,0,0,0,0,0,0,0,0,0,0
1683125111.00046682,86428748,1564,1563,1566,1565,0,0,0,0,0,0,0,0,0,0
1683125111.10042691,86528708,1563,1562,1564,1564,0,0,0,0,0,0,0,0,0,0
1683125111.20038700,86628668,1561,1561,1562,1562,0,0,0,0,0,0,0,0,0,0
1683125111.30034685,86728628,1561,1561,1562,1562,0,0,0,0,0,0,0,0,0,0
1683125111.40030694,86828588,1561,1562,1562,1562,0,0,0,0,0,0,0,0,0,0
1683125111.50026703,86928548,1560,1561,1561,1561,0,0,0,0,0,0,0,0,0,0
1683125111.60022688,87028508,1559,1560,1560,1559,0,0,0,0,0,0,0,0,0,0
1683125111.70018697,87128468,1560,1560,1561,1560,0,0,0,0,0,0,0,0,0,0
1683125111.80014682,87228428,1560,1560,1561,1560,0,0,0,0,0,0,0,0,0,0
1683125111.90010691,87328388,1560,1560,1561,1560,0,0,0,0,0,0,0,0,0,0
1683125112.00006700,87428348,1560,1559,1560,1559,0,0,0,0,0,0,0,0,0,0
1683125112.10002685,87528308,1560,1559,1559,1558,0,0,0,0,0,0,0,0,0,0
1683125112.19998693,87628268,1560,1559,1560,1558,0,0,0,0,0,0,0,0,0,0
1683125112.29994702,87728228,1560,1560,1561,1559,0,0,0,0,0,0,0,0,0,0
1683125112.39990687,87828188,1560,1560,1561,1558,0,0,0,0,0,0,0,0,0,0
1683125112.50070000,87928981,1560,1559,1560,1559,0,0,0,0,0,0,0,0,0,0
1683125112.60065985,88028941,1560,1560,1558,1561,0,0,0,0,0,0,0,0,0,0
1683125112.70061994,88128901,1560,1560,1558,1563,0,0,0,0,0,0,0,0,0,0
1683125112.80058002,88228861,1560,1560,1557,1563,0,0,0,0,0,0,0,0,0,0
1683125112.90053988,88328821,1561,1562,1559,1564,0,0,0,0,0,0,0,0,0,0
1683125113.00049996,88428781,1561,1562,1560,1563,0,0,0,0,0,0,0,0,0,0
1683125113.10045981,88528741,1560,1561,1561,1560,0,0,0,0,0,0,0,0,0,0
1683125113.20041990,88628701,1559,1560,1561,1557,0,0,0,0,0,0,0,0,0,0
1683125113.30037999,88728661,1560,1560,1559,1559,0,0,0,0,0,0,0,0,0,0
1683125113.40033984,88828621,1557,1557,1554,1557,0,0,0,0,0,0,0,0,0,0
1683125113.50029993,88928581,1554,1553,1550,1553,0,0,0,0,0,0,0,0,0,0
1683125113.60026002,89028541,1550,1550,1546,1548,0,0,0,0,0,0,0,0,0,0
1683125113.70021987,89128501,1544,1544,1539,1540,0,0,0,0,0,0,0,0,0,0
1683125113.80017996,89228461,1539,1538,1534,1533,0,0,0,0,0,0,0,0,0,0
1683125113.90014005,89328421,1531,1531,1526,1525,0,0,0,0,0,0,0,0,0,0
1683125114.00009990,89428381,1524,1525,1520,1519,0,0,0,0,0,0,0,0,0,0
1683125114.10005999,89528341,1521,1521,1518,1517,0,0,0,0,0,0,0,0,0,0
1683125114.20001984,89628301,1519,1520,1519,1519,0,0,0,0,0,0,0,0,0,0
1683125114.29997993,89728261,1519,1519,1521,1522,0,0,0,0,0,0,0,0,0,0
1683125114.39994001,89828221,1520,1519,1524,1525,0,0,0,0,0,0,0,0,0,0
1683125114.49989986,89928181,1523,1522,1530,1530,0,0,0,0,0,0,0,0,0,0
1683125114.60069299,90028974,1526,1526,1535,1535,0,0,0,0,0,0,0,0,0,0
1683125114.70065284,90128934,1530,1530,1540,1540,0,0,0,0,0,0,0,0,0,0
1683125114.80061293,90228894,1533,1534,1542,1542,0,0,0,0,0,0,0,0,0,0
1683125114.90057302,90328854,1537,1537,1544,1543,0,0,0,0,0,0,0,0,0,0
1683125115.00053287,90428814,1540,1540,1545,1545,0,0,0,0,0,0,0,0,0,0
1683125115.10049295,90528774,1543,1543,1545,1545,0,0,0,0,0,0,0,0,0,0
1683125115.20045304,90628734,1545,1545,1545,1545,0,0,0,0,0,0,0,0,0,0
1683125115.30041289,90728694,1547,1547,1544,1544,0,0,0,0,0,0,0,0,0,0
1683125115.40037298,90828654,1548,1548,1544,1545,0,0,0,0,0,0,0,0,0,0
1683125115.50033283,90928614,1550,1550,1545,1545,0,0,0,0,0,0,0,0,0,0
1683125115.60029292,91028574,1550,1550,1544,1544,0,0,0,0,0,0,0,0,0,0
1683125115.70025301,91128534,1550,1550,1544,1544,0,0,0,0,0,0,0,0,0,0
1683125115.80021286,91228494,1549,1549,1544,1544,0,0,0,0,0,0,0,0,0,0
1683125115.90017295,91328454,1549,1549,1545,1545,0,0,0,0,0,0,0,0,0,0
1683125116.00013304,91428414,1549,1548,1545,1545,0,0,0,0,0,0,0,0,0,0
1683125116.10009289,91528374,1547,1547,1545,1545,0,0,0,0,0,0,0,0,0,0
1683125116.20005298,91628334,1546,1546,1545,1545,0,0,0,0,0,0,0,0,0,0
1683125116.30001283,91728294,1545,1546,1546,1545,0,0,0,0,0,0,0,0,0,0
1683125116.39997292,91828254,1545,1545,1546,1546,0,0,0,0,0,0,0,0,0,0
1683125116.49993300,91928214,1544,1544,1546,1546,0,0,0,0,0,0,0,0,0,0
1683125116.59989285,92028174,1543,1544,1546,1546,0,0,0,0,0,0,0,0,0,0
1683125116.70068598,92128967,1543,1543,1546,1545,0,0,0,0,0,0,0,0,0,0
1683125116.80064583,92228927,1543,1543,1545,1544,0,0,0,0,0,0,0,0,0,0
1683125116.90060592,92328887,1543,1543,1544,1545,0,0,0,0,0,0,0,0,0,0
1683125117.00056601,92428847,1543,1543,1544,1545,0,0,0,0,0,0,0,0,0,0
1683125117.10052586,92528807,1543,1543,1544,1544,0,0,0,0,0,0,0,0,0,0
1683125117.20048594,92628767,1543,1543,1544,1544,0,0,0,0,0,0,0,0,0,0
1683125117.30044603,92728727,1544,1543,1544,1543,0,0,0,0,0,0,0,0,0,0
1683125117.40040588,92828687,1543,1544,1543,1543,0,0,0,0,0,0,0,0,0,0
1683125117.50036597,92928647,1544,1544,1543,1543,0,0,0,0,0,0,0,0,0,0
1683125117.60032582,93028607,1544,1544,1543,1543,0,0,0,0,0,0,0,0,0,0
1683125117.70028591,93128567,1545,1545,1544,1544,0,0,0,0,0,0,0,0,0,0
1683125117.80024600,93228527,1544,1545,1544,1544,0,0,0,0,0,0,0,0,0,0
1683125117.90020585,93328487,1544,1544,1543,1543,0,0,0,0,0,0,0,0,0,0
1683125118.00016594,93428447,1545,1544,1544,1543,0,0,0,0,0,0,0,0,0,0
1683125118.10012603,93528407,1545,1543,1543,1543,0,0,0,0,0,0,0,0,0,0
1683125118.20008588,93628367,1544,1544,1544,1544,0,0,0,0,0,0,0,0,0,0
1683125118.30004597,93728327,1544,1544,1544,1544,0,0,0,0,0,0,0,0,0,0
1683125118.40000582,93828287,1544,1544,1544,1544,0,0,0,0,0,0,0,0,0,0
1683125118.49996591,93928247,1544,1544,1544,1544,0,0,0,0,0,0,0,0,0,0
1683125118.59992599,94028207,1544,1545,1544,1545,0,0,0,0,0,0,0,0,0,0
1683125118.69988585,94128167,1544,1544,1544,1544,0,0,0,0,0,0,0,0,0,0
1683125118.80067897,94228960,1544,1544,1544,1544,0,0,0,0,0,0,0,0,0,0
1683125118.90063882,94328920,1543,1544,1544,1544,0,0,0,0,0,0,0,0,0,0
1683125119.00059891,94428880,1543,1544,1544,1544,0,0,0,0,0,0,0,0,0,0
1683125119.10055900,94528840,1544,1544,1544,1544,0,0,0,0,0,0,0,0,0,0
1683125119.20051885,94628800,1544,1544,1544,1544,0,0,0,0,0,0,0,0,0,0
1683125119.30047894,94728760,1544,1543,1543,1544,0,0,0,0,0,0,0,0,0,0
1683125119.40043902,94828720,1544,1544,1545,1545,0,0,0,0,0,0,0,0,0,0
1683125119.50039887,94928680,1545,1544,1545,1545,0,0,0,0,0,0,0,0,0,0
1683125119.60035896,95028640,1544,1544,1544,1544,0,0,0,0,0,0,0,0,0,0
1683125119.70031881,95128600,1544,1544,1544,1544,0,0,0,0,0,0,0,0,0,0
1683125119.80027890,95228560,1544,1544,1544,1544,0,0,0,0,0,0,0,0,0,0
1683125119.90023899,95328520,1545,1545,1544,1545,0,0,0,0,0,0,0,0,0,0
1683125120.00019884,95428480,1544,1544,1544,1544,0,0,0,0,0,0,0,0,0,0
1683125120.10015893,95528440,1545,1545,1544,1545,0,0,0,0,0,0,0,0,0,0
1683125120.20011902,95628400,1545,1544,1544,1544,0,0,0,0,0,0,0,0,0,0
1683125120.30007887,95728360,1545,1544,1544,1544,0,0,0,0,0,0,0,0,0,0
1683125120.40003896,95828320,1544,1544,1543,1544,0,0,0,0,0,0,0,0,0,0
1683125120.49999905,95928280,1544,1544,1544,1544,0,0,0,0,0,0,0,0,0,0
1683125120.59995890,96028240,1544,1545,1544,1544,0,0,0,0,0,0,0,0,0,0
1683125120.69991899,96128200,1544,1544,1544,1545,0,0,0,0,0,0,0,0,0,0
1683125120.79987884,96228160,1544,1545,1545,1544,0,0,0,0,0,0,0,0,0,0
1683125120.90067196,96328953,1544,1544,1544,1544,0,0,0,0,0,0,0,0,0,0
1683125121.00063205,96428913,1544,1544,1544,1544,0,0,0,0,0,0,0,0,0,0
1683125121.10059190,96528873,1544,1543,1544,1544,0,0,0,0,0,0,0,0,0,0
1683125121.20055199,96628833,1544,1544,1545,1544,0,0,0,0,0,0,0,0,0,0
1683125121.30051184,96728793,1544,1544,1545,1545,0,0,0,0,0,0,0,0,0,0
1683125121.40047193,96828753,1544,1544,1545,1544,0,0,0,0,0,0,0,0,0,0
1683125121.50043201,96928713,1544,1544,1544,1544,0,0,0,0,0,0,0,0,0,0
1683125121.60039186,97028673,1544,1545,1544,1544,0,0,0,0,0,0,0,0,0,0
1683125121.70035195,97128633,1545,1544,1544,1545,0,0,0,0,0,0,0,0,0,0
1683125121.80031204,97228593,1545,1545,1545,1544,0,0,0,0,0,0,0,0,0,0
1683125121.90027189,97328553,1545,1545,1545,1545,0,0,0,0,0,0,0,0,0,0
1683125122.00023198,97428513,1545,1544,1544,1544,0,0,0,0,0,0,0,0,0,0
1683125122.10019183,97528473,1544,1544,1544,1544,0,0,0,0,0,0,0,0,0,0
1683125122.20015192,97628433,1544,1544,1544,1544,0,0,0,0,0,0,0,0,0,0
1683125122.30011201,97728393,1544,1544,1544,1544,0,0,0,0,0,0,0,0,0,0
1683125122.40007186,97828353,1545,1544,1544,1544,0,0,0,0,0,0,0,0,0,0
1683125122.50003195,97928313,1544,1544,1544,1544,0,0,0,0,0,0,0,0,0,0
1683125122.59999204,98028273,1544,1545,1544,1545,0,0,0,0,0,0,0,0,0,0
1683125122.69995189,98128233,1544,1544,1544,1544,0,0,0,0,0,0,0,0,0,0
1683125122.79991198,98228193,1544,1544,1544,1544,0,0,0,0,0,0,0,0,0,0
1683125122.90070486,98328986,1544,1544,1544,1544,0,0,0,0,0,0,0,0,0,0
1683125123.00066495,98428946,1544,1544,1544,1544,0,0,0,0,0,0,0,0,0,0
1683125123.10062504,98528906,1545,1544,1545,1545,0,0,0,0,0,0,0,0,0,0
1683125123.20058489,98628866,1544,1545,1545,1545,0,0,0,0,0,0,0,0,0,0
1683125123.30054498,98728826,1545,1544,1545,1545,0,0,0,0,0,0,0,0,0,0
1683125123.40050483,98828786,1544,1544,1544,1544,0,0,0,0,0,0,0,0,0,0
1683125123.50046492,98928746,1545,1545,1545,1545,0,0,0,0,0,0,0,0,0,0
1683125123.60042500,99028706,1544,1544,1544,1544,0,0,0,0,0,0,0,0,0,0
1683125123.70038486,99128666,1544,1544,1544,1544,0,0,0,0,0,0,0,0,0,0
1683125123.80034494,99228626,1434,1433,1381,1383,0,0,0,0,0,0,0,0,0,0
1683125123.90030503,99328586,1360,1357,1256,1260,0,0,0,0,0,0,0,0,0,0
1683125124.00026488,99428546,1336,1334,1213,1216,0,0,0,0,0,0,0,0,0,0
1683125124.10022497,99528506,1325,1322,1192,1195,0,0,0,0,0,0,0,0,0,0
1683125124.20018482,99628466,1305,1302,1151,1153,0,0,0,0,0,0,0,0,0,0
1683125124.30014491,99728426,1254,1250,1150,1153,0,0,0,0,0,0,0,0,0,0
1683125124.40010500,99828386,1146,1141,1150,1152,0,0,0,0,0,0,0,0,0,0
1683125124.50006485,99928346,1031,1027,1150,1152,0,0,0,0,0,0,0,0,0,0
1683125124.60002494,100028306,1021,1018,1150,1151,0,0,0,0,0,0,0,0,0,0
1683125124.69998503,100128266,1021,1017,1150,1152,0,0,0,0,0,0,0,0,0,0
1683125124.79994488,100228226,1021,1016,1150,1154,0,0,0,0,0,0,0,0,0,0
1683125124.89990497,100328186,1020,1007,1150,1168,0,0,0,0,0,0,0,0,0,0
1683125125.00069785,100428979,1021,1011,1150,1161,0,0,0,0,0,0,0,0,0,0
1683125125.10065794,100528939,1021,1012,1150,1160,0,0,0,0,0,0,0,0,0,0
1683125125.20061803,100628899,1021,1012,1150,1159,0,0,0,0,0,0,0,0,0,0
1683125125.30057788,100728859,1021,1012,1150,1159,0,0,0,0,0,0,0,0,0,0
1683125125.40053797,100828819,1021,1012,1150,1159,0,0,0,0,0,0,0,0,0,0
1683125125.50049782,100928779,1021,1012,1150,1159,0,0,0,0,0,0,0,0,0,0
1683125125.60045791,101028739,1015,1020,1157,1150,0,0,0,0,0,0,0,0,0,0
1683125125.70041800,101128699,1021,1019,1150,1151,0,0,0,0,0,0,0,0,0,0
1683125125.80037785,101228659,1021,1018,1150,1152,0,0,0,0,0,0,0,0,0,0
1683125125.90033793,101328619,1021,1018,1150,1152,0,0,0,0,0,0,0,0,0,0
1683125126.00029802,101428579,1021,1018,1150,1152,0,0,0,0,0,0,0,0,0,0
1683125126.10025787,101528539,848,848,1148,1148,0,0,0,0,0,0,0,0,0,0
1683125126.20021796,101628499,1000,1000,1000,1000,0,0,0,0,0,0,0,0,0,0
1683125126.30017781,101728459,1000,1000,1000,1000,0,0,0,0,0,0,0,0,0,0
1683125126.40013790,101828419,1000,1000,1000,1000,0,0,0,0,0,0,0,0,0,0
1683125126.50009799,101928379,1000,1000,1000,1000,0,0,0,0,0,0,0,0,0,0
1683125126.60005784,102028339,1000,1000,1000,1000,0,0,0,0,0,0,0,0,0,0
1683125126.70001793,102128299,1000,1000,1000,1000,0,0,0,0,0,0,0,0,0,0
1683125126.79997802,102228259,1000,1000,1000,1000,0,0,0,0,0,0,0,0,0,0
1683125126.89993787,102328219,1000,1000,1000,1000,0,0,0,0,0,0,0,0,0,0
1683125126.99989796,102428179,1000,1000,1000,1000,0,0,0,0,0,0,0,0,0,0
1683125127.10069084,102528972,1000,1000,1000,1000,0,0,0,0,0,0,0,0,0,0
1683125127.20065093,102628932,1000,1000,1000,1000,0,0,0,0,0,0,0,0,0,0
1683125127.30061102,102728892,1000,1000,1000,1000,0,0,0,0,0,0,0,0,0,0
1683125127.40057087,102828852,1000,1000,1000,1000,0,0,0,0,0,0,0,0,0,0
1683125127.50053096,102928812,1000,1000,1000,1000,0,0,0,0,0,0,0,0,0,0
1683125127.60049105,103028772,1000,1000,1000,1000,0,0,0,0,0,0,0,0,0,0
1683125127.70045090,103128732,1000,1000,1000,1000,0,0,0,0,0,0,0,0,0,0
1683125127.80041099,103228692,1000,1000,1000,1000,0,0,0,0,0,0,0,0,0,0
1683125127.90037084,103328652,1000,1000,1000,1000,0,0,0,0,0,0,0,0,0,0
1683125128.00033092,103428612,1000,1000,1000,1000,0,0,0,0,0,0,0,0,0,0
1683125128.10029101,103528572,1000,1000,1000,1000,0,0,0,0,0,0,0,0,0,0
1683125128.20025086,103628532,1000,1000,1000,1000,0,0,0,0,0,0,0,0,0,0
1683125128.30021095,103728492,1000,1000,1000,1000,0,0,0,0,0,0,0,0,0,0
1683125128.40017104,103828452,1000,1000,1000,1000,0,0,0,0,0,0,0,0,0,0
1683125128.50013089,103928412,1000,1000,1000,1000,0,0,0,0,0,0,0,0,0,0
1683125128.60009098,104028372,1000,1000,1000,1000,0,0,0,0,0,0,0,0,0,0
1683125128.70005083,104128332,1000,1000,1000,1000,0,0,0,0,0,0,0,0,0,0
1683125128.80001092,104228292,1000,1000,1000,1000,0,0,0,0,0,0,0,0,0,0
1683125128.89997101,104328252,1000,1000,1000,1000,0,0,0,0,0,0,0,0,0,0
1683125128.99993086,104428212,1000,1000,1000,1000,0,0,0,0,0,0,0,0,0,0
1683125129.09989095,104528172,1000,1000,1000,1000,0,0,0,0,0,0,0,0,0,0
1683125129.20068383,104628965,1000,1000,1000,1000,0,0,0,0,0,0,0,0,0,0
1683125129.30064392,104728925,1000,1000,1000,1000,0,0,0,0,0,0,0,0,0,0
1683125129.40060401,104828885,1000,1000,1000,1000,0,0,0,0,0,0,0,0,0,0
1683125129.50056386,104928845,1000,1000,1000,1000,0,0,0,0,0,0,0,0,0,0
1683125129.60052395,105028805,1000,1000,1000,1000,0,0,0,0,0,0,0,0,0,0
1683125129.70048404,105128765,1000,1000,1000,1000,0,0,0,0,0,0,0,0,0,0
1683125129.80044389,105228725,1000,1000,1000,1000,0,0,0,0,0,0,0,0,0,0
1683125129.90040398,105328685,1000,1000,1000,1000,0,0,0,0,0,0,0,0,0,0
1683125130.00036383,105428645,1000,1000,1000,1000,0,0,0,0,0,0,0,0,0,0
1683125130.10032392,105528605,1000,1000,1000,1000,0,0,0,0,0,0,0,0,0,0
1683125130.20028400,105628565,1000,1000,1000,1000,0,0,0,0,0,0,0,0,0,0
1683125130.30024385,105728525,1000,1000,1000,1000,0,0,0,0,0,0,0,0,0,0
1683125130.40020394,105828485,1000,1000,1000,1000,0,0,0,0,0,0,0,0,0,0
1683125130.50016403,105928445,1000,1000,1000,1000,0,0,0,0,0,0,0,0,0,0
1683125130.60012388,106028405,1000,1000,1000,1000,0,0,0,0,0,0,0,0,0,0
1683125130.70008397,106128365,1000,1000,1000,1000,0,0,0,0,0,0,0,0,0,0
1683125130.80004382,106228325,1000,1000,1000,1000,0,0,0,0,0,0,0,0,0,0
1683125130.90000391,106328285,1000,1000,1000,1000,0,0,0,0,0,0,0,0,0,0
1683125130.99996400,106428245,1000,1000,1000,1000,0,0,0,0,0,0,0,0,0,0
1683125131.09992385,106528205,1000,1000,1000,1000,0,0,0,0,0,0,0,0,0,0
1683125131.19988394,106628165,1000,1000,1000,1000,0,0,0,0,0,0,0,0,0,0
1683125131.30067682,106728958,1000,1000,1000,1000,0,0,0,0,0,0,0,0,0,0
1683125131.40063691,106828918,1000,1000,1000,1000,0,0,0,0,0,0,0,0,0,0
1683125131.50059700,106928878,1000,1000,1000,1000,0,0,0,0,0,0,0,0,0,0
1683125131.60055685,107028838,1000,1000,1000,1000,0,0,0,0,0,0,0,0,0,0
1683125131.70051694,107128798,1000,1000,1000,1000,0,0,0,0,0,0,0,0,0,0
1683125131.80047703,107228758,1000,1000,1000,1000,0,0,0,0,0,0,0,0,0,0
1683125131.90043688,107328718,1000,1000,1000,1000,0,0,0,0,0,0,0,0,0,0
1683125132.00039697,107428678,1000,1000,1000,1000,0,0,0,0,0,0,0,0,0,0
1683125132.10035682,107528638,1000,1000,1000,1000,0,0,0,0,0,0,0,0,0,0
1683125132.20031691,107628598,1000,1000,1000,1000,0,0,0,0,0,0,0,0,0,0
1683125132.30027699,107728558,1000,1000,1000,1000,0,0,0,0,0,0,0,0,0,0
1683125132.40023685,107828518,1000,1000,1000,1000,0,0,0,0,0,0,0,0,0,0
1683125132.50019693,107928478,1000,1000,1000,1000,0,0,0,0,0,0,0,0,0,0
1683125132.60015702,108028438,1000,1000,1000,1000,0,0,0,0,0,0,0,0,0,0
1683125132.70011687,108128398,1000,1000,1000,1000,0,0,0,0,0,0,0,0,0,0
1683125132.80007696,108228358,1000,1000,1000,1000,0,0,0,0,0,0,0,0,0,0
1683125132.90003705,108328318,1000,1000,1000,1000,0,0,0,0,0,0,0,0,0,0
1683125132.99999690,108428278,1000,1000,1000,1000,0,0,0,0,0,0,0,0,0,0
1683125133.09995699,108528238,1000,1000,1000,1000,0,0,0,0,0,0,0,0,0,0
1683125133.19991684,108628198,1000,1000,1000,1000,0,0,0,0,0,0,0,0,0,0
1683125133.29987693,108728158,1000,1000,1000,1000,0,0,0,0,0,0,0,0,0,0
1683125133.40066981,108828951,1000,1000,1000,1000,0,0,0,0,0,0,0,0,0,0
1683125133.50062990,108928911,1000,1000,1000,1000,0,0,0,0,0,0,0,0,0,0
1683125133.60058999,109028871,1000,1000,1000,1000,0,0,0,0,0,0,0,0,0,0
1683125133.70054984,109128831,1000,1000,1000,1000,0,0,0,0,0,0,0,0,0,0
1683125133.80050993,109228791,1000,1000,1000,1000,0,0,0,0,0,0,0,0,0,0
1683125133.90047002,109328751,1000,1000,1000,1000,0,0,0,0,0,0,0,0,0,0
1683125134.00042987,109428711,1000,1000,1000,1000,0,0,0,0,0,0,0,0,0,0
1683125134.10038996,109528671,1000,1000,1000,1000,0,0,0,0,0,0,0,0,0,0
1683125134.20035005,109628631,1000,1000,1000,1000,0,0,0,0,0,0,0,0,0,0
1683125134.30030990,109728591,1000,1000,1000,1000,0,0,0,0,0,0,0,0,0,0
1683125134.40026999,109828551,1000,1000,1000,1000,0,0,0,0,0,0,0,0,0,0
1683125134.50022984,109928511,1000,1000,1000,1000,0,0,0,0,0,0,0,0,0,0
1683125134.60018992,110028471,1000,1000,1000,1000,0,0,0,0,0,0,0,0,0,0
1683125134.70015001,110128431,1000,1000,1000,1000,0,0,0,0,0,0,0,0,0,0
1683125134.80010986,110228391,1000,1000,1000,1000,0,0,0,0,0,0,0,0,0,0
1683125134.90006995,110328351,1000,1000,1000,1000,0,0,0,0,0,0,0,0,0,0
1683125135.00003004,110428311,1000,1000,1000,1000,0,0,0,0,0,0,0,0,0,0
1683125135.09998989,110528271,1000,1000,1000,1000,0,0,0,0,0,0,0,0,0,0
1683125135.19994998,110628231,1000,1000,1000,1000,0,0,0,0,0,0,0,0,0,0
1683125135.29990983,110728191,1000,1000,1000,1000,0,0,0,0,0,0,0,0,0,0
1683125135.40070295,110828984,1000,1000,1000,1000,0,0,0,0,0,0,0,0,0,0
1683125135.50066304,110928944,1000,1000,1000,1000,0,0,0,0,0,0,0,0,0,0
1683125135.60062289,111028904,1000,1000,1000,1000,0,0,0,0,0,0,0,0,0,0
1683125135.70058298,111128864,1000,1000,1000,1000,0,0,0,0,0,0,0,0,0,0
1683125135.80054283,111228824,1000,1000,1000,1000,0,0,0,0,0,0,0,0,0,0
1683125135.90050292,111328784,1000,1000,1000,1000,0,0,0,0,0,0,0,0,0,0
1683125136.00046301,111428744,1000,1000,1000,1000,0,0,0,0,0,0,0,0,0,0
1683125136.10042286,111528704,1000,1000,1000,1000,0,0,0,0,0,0,0,0,0,0
1683125136.20038295,111628664,1000,1000,1000,1000,0,0,0,0,0,0,0,0,0,0
1683125136.30034304,111728624,1000,1000,1000,1000,0,0,0,0,0,0,0,0,0,0
1683125136.40030289,111828584,1000,1000,1000,1000,0,0,0,0,0,0,0,0,0,0
1683125136.50026298,111928544,1000,1000,1000,1000,0,0,0,0,0,0,0,0,0,0
1683125136.60022283,112028504,1000,1000,1000,1000,0,0,0,0,0,0,0,0,0,0
1683125136.70018291,112128464,1000,1000,1000,1000,0,0,0,0,0,0,0,0,0,0
1683125136.80014300,112228424,1000,1000,1000,1000,0,0,0,0,0,0,0,0,0,0
1683125136.90010285,112328384,1000,1000,1000,1000,0,0,0,0,0,0,0,0,0,0
1683125137.00006294,112428344,1000,1000,1000,1000,0,0,0,0,0,0,0,0,0,0
1683125137.10002303,112528304,1000,1000,1000,1000,0,0,0,0,0,0,0,0,0,0
1683125137.19998288,112628264,1000,1000,1000,1000,0,0,0,0,0,0,0,0,0,0
1683125137.29994297,112728224,1000,1000,1000,1000,0,0,0,0,0,0,0,0,0,0
1683125137.39990282,112828184,1000,1000,1000,1000,0,0,0,0,0,0,0,0,0,0
1683125137.50069594,112928977,1000,1000,1000,1000,0,0,0,0,0,0,0,0,0,0
1683125137.60065603,113028937,1000,1000,1000,1000,0,0,0,0,0,0,0,0,0,0
1683125137.70061588,113128897,1000,1000,1000,1000,0,0,0,0,0,0,0,0,0,0
1683125137.80057597,113228857,1000,1000,1000,1000,0,0,0,0,0,0,0,0,0,0
1683125137.90053582,113328817,1000,1000,1000,1000,0,0,0,0,0,0,0,0,0,0
1683125138.00049591,113428777,1000,1000,1000,1000,0,0,0,0,0,0,0,0,0,0
1683125138.10045600,113528737,1000,1000,1000,1000,0,0,0,0,0,0,0,0,0,0
1683125138.20041585,113628697,1000,1000,1000,1000,0,0,0,0,0,0,0,0,0,0
1683125138.30037594,113728657,1000,1000,1000,1000,0,0,0,0,0,0,0,0,0,0
1683125138.40033603,113828617,1000,1000,1000,1000,0,0,0,0,0,0,0,0,0,0
1683125138.50029588,113928577,1000,1000,1000,1000,0,0,0,0,0,0,0,0,0,0
1683125138.60025597,114028537,1000,1000,1000,1000,0,0,0,0,0,0,0,0,0,0
1683125138.70021582,114128497,1000,1000,1000,1000,0,0,0,0,0,0,0,0,0,0
1683125138.80017591,114228457,1000,1000,1000,1000,0,0,0,0,0,0,0,0,0,0
1683125138.90013599,114328417,1000,1000,1000,1000,0,0,0,0,0,0,0,0,0,0
1683125139.00009584,114428377,1000,1000,1000,1000,0,0,0,0,0,0,0,0,0,0
1683125139.10005593,114528337,1000,1000,1000,1000,0,0,0,0,0,0,0,0,0,0
1683125139.20001602,114628297,1000,1000,1000,1000,0,0,0,0,0,0,0,0,0,0
1683125139.29997587,114728257,1000,1000,1000,1000,0,0,0,0,0,0,0,0,0,0
1683125139.39993596,114828217,1000,1000,1000,1000,0,0,0,0,0,0,0,0,0,0
1683125139.49989605,114928177,1000,1000,1000,1000,0,0,0,0,0,0,0,0,0,0
1683125139.60068893,115028970,1000,1000,1000,1000,0,0,0,0,0,0,0,0,0,0
1683125139.70064902,115128930,1000,1000,1000,1000,0,0,0,0,0,0,0,0,0,0
1683125139.80060887,115228890,1000,1000,1000,1000,0,0,0,0,0,0,0,0,0,0
1683125139.90056896,115328850,1000,1000,1000,1000,0,0,0,0,0,0,0,0,0,0
1683125140.00052881,115428810,1000,1000,1000,1000,0,0,0,0,0,0,0,0,0,0
1683125140.10048890,115528770,1000,1000,1000,1000,0,0,0,0,0,0,0,0,0,0
1683125140.20044899,115628730,1000,1000,1000,1000,0,0,0,0,0,0,0,0,0,0
1683125140.30040884,115728690,1000,1000,1000,1000,0,0,0,0,0,0,0,0,0,0
1683125140.40036893,115828650,1000,1000,1000,1000,0,0,0,0,0,0,0,0,0,0
1683125140.50032902,115928610,1000,1000,1000,1000,0,0,0,0,0,0,0,0,0,0
1683125140.60028887,116028570,1000,1000,1000,1000,0,0,0,0,0,0,0,0,0,0
1683125140.70024896,116128530,1000,1000,1000,1000,0,0,0,0,0,0,0,0,0,0
1683125140.80020905,116228490,1000,1000,1000,1000,0,0,0,0,0,0,0,0,0,0
1683125140.90016890,116328450,1000,1000,1000,1000,0,0,0,0,0,0,0,0,0,0
1683125141.00012898,116428410,1000,1000,1000,1000,0,0,0,0,0,0,0,0,0,0
