TimeUS,M1,M2,M3,M4,TimeUS,C1,C2,C3,C4
43018619,1000,1000,1000,1000,43028615,1000,1000,1000,1000
43021118,1000,1000,1000,1000,43128575,1000,1000,1000,1000
43023617,1000,1000,1000,1000,43228535,1000,1000,1000,1000
43026116,1000,1000,1000,1000,43328495,1000,1000,1000,1000
43028615,1000,1000,1000,1000,43428455,1000,1000,1000,1000
43031114,1000,1000,1000,1000,43528415,1000,1000,1000,1000
43033613,1000,1000,1000,1000,43628375,1000,1000,1000,1000
43036112,1000,1000,1000,1000,43728335,1000,1000,1000,1000
43038611,1000,1000,1000,1000,43828295,1000,1000,1000,1000
43041110,1000,1000,1000,1000,43928255,1000,1000,1000,1000
43043609,1000,1000,1000,1000,44028215,1000,1000,1000,1000
43046108,1000,1000,1000,1000,44128175,1000,1000,1000,1000
43048607,1000,1000,1000,1000,44228968,1000,1000,1000,1000
43051106,1000,1000,1000,1000,44328928,1000,1000,1000,1000
43053605,1000,1000,1000,1000,44428888,1000,1000,1000,1000
43056104,1000,1000,1000,1000,44528848,1000,1000,1000,1000
43058603,1000,1000,1000,1000,44628808,1000,1000,1000,1000
43061102,1000,1000,1000,1000,44728768,1000,1000,1000,1000
43063601,1000,1000,1000,1000,44828728,1000,1000,1000,1000
43066100,1000,1000,1000,1000,44928688,1000,1000,1000,1000
43068599,1000,1000,1000,1000,45028648,1003,1003,1003,1003
43071098,1000,1000,1000,1000,45128608,1033,1033,1033,1033
43073597,1000,1000,1000,1000,45228568,1063,1063,1063,1063
43076096,1000,1000,1000,1000,45328528,1093,1093,1093,1093
43078595,1000,1000,1000,1000,45428488,1122,1122,1122,1122
43081094,1000,1000,1000,1000,45528448,1177,1170,1170,1178
43083593,1000,1000,1000,1000,45628408,1419,1414,1415,1420
43086092,1000,1000,1000,1000,45728368,1595,1590,1591,1595
43088591,1000,1000,1000,1000,45828328,1740,1735,1736,1740
43091090,1000,1000,1000,1000,45928288,1866,1861,1862,1866
43093589,1000,1000,1000,1000,46028248,1897,1894,1894,1898
43096088,1000,1000,1000,1000,46128208,1796,1795,1793,1798
43098587,1000,1000,1000,1000,46228168,1676,1677,1675,1678
43101086,1000,1000,1000,1000,46328961,1622,1624,1623,1623
43103585,1000,1000,1000,1000,46428921,1617,1618,1618,1617
43106084,1000,1000,1000,1000,46528881,1624,1625,1625,1623
43108583,1000,1000,1000,1000,46628841,1625,1626,1627,1624
43111082,1000,1000,1000,1000,46728801,1621,1621,1621,1620
43113581,1000,1000,1000,1000,46828761,1615,1614,1614,1615
43116080,1000,1000,1000,1000,46928721,1613,1613,1612,1614
43118579,1000,1000,1000,1000,47028681,1613,1613,1612,1613
43121078,1000,1000,1000,1000,47128641,1614,1615,1615,1614
43123577,1000,1000,1000,1000,47228601,1616,1616,1617,1615
43126076,1000,1000,1000,1000,47328561,1605,1605,1608,1602
43128575,1000,1000,1000,1000,47428521,1581,1582,1589,1574
43131074,1000,1000,1000,1000,47528481,1569,1569,1573,1565
43133573,1000,1000,1000,1000,47628441,1559,1558,1559,1559
43136072,1000,1000,1000,1000,47728401,1550,1549,1544,1555
43138571,1000,1000,1000,1000,47828361,1543,1543,1534,1552
43141070,1000,1000,1000,1000,47928321,1537,1537,1530,1544
43143569,1000,1000,1000,1000,48028281,1531,1531,1528,1535
43146068,1000,1000,1000,1000,48128241,1528,1528,1527,1529
43148567,1000,1000,1000,1000,48228201,1528,1528,1529,1528
43151066,1000,1000,1000,1000,48328161,1529,1529,1532,1527
43153565,1000,1000,1000,1000,48428954,1532,1532,1536,1529
43156064,1000,1000,1000,1000,48528914,1536,1536,1539,1533
43158563,1000,1000,1000,1000,48628874,1539,1540,1542,1538
43161062,1000,1000,1000,1000,48728834,1543,1543,1543,1542
43163561,1000,1000,1000,1000,48828794,1546,1546,1546,1546
43166060,1000,1000,1000,1000,48928754,1549,1549,1549,1550
43168559,1000,1000,1000,1000,49028714,1552,1552,1551,1552
43171058,1000,1000,1000,1000,49128674,1554,1554,1553,1555
43173557,1000,1000,1000,1000,49228634,1551,1550,1559,1561
43176056,1000,1000,1000,1000,49328594,1552,1552,1563,1564
43178555,1000,1000,1000,1000,49428554,1556,1557,1564,1565
43181054,1000,1000,1000,1000,49528514,1560,1560,1565,1564
43183553,1000,1000,1000,1000,49628474,1563,1564,1565,1564
43186052,1000,1000,1000,1000,49728434,1567,1567,1565,1564
43188551,1000,1000,1000,1000,49828394,1569,1569,1564,1564
43191050,1000,1000,1000,1000,49928354,1571,1571,1564,1564
43193549,1000,1000,1000,1000,50028314,1573,1572,1565,1566
43196048,1000,1000,1000,1000,50128274,1573,1573,1567,1567
43198547,1000,1000,1000,1000,50228234,1573,1573,1568,1568
43201046,1000,1000,1000,1000,50328194,1574,1574,1570,1570
43203545,1000,1000,1000,1000,50428154,1574,1574,1571,1572
43206044,1000,1000,1000,1000,50528947,1573,1573,1572,1572
43208543,1000,1000,1000,1000,50628907,1573,1574,1574,1574
43211042,1000,1000,1000,1000,50728867,1573,1573,1575,1574
43213541,1000,1000,1000,1000,50828827,1573,1574,1576,1575
43216040,1000,1000,1000,1000,50928787,1573,1573,1576,1575
43218539,1000,1000,1000,1000,51028747,1575,1575,1577,1577
43221038,1000,1000,1000,1000,51128707,1575,1575,1577,1577
43223537,1000,1000,1000,1000,51228667,1575,1575,1577,1577
43226036,1000,1000,1000,1000,51328627,1576,1576,1577,1578
43228535,1000,1000,1000,1000,51428587,1577,1577,1577,1578
43231034,1000,1000,1000,1000,51528547,1577,1578,1577,1578
43233533,1000,1000,1000,1000,51628507,1578,1578,1577,1577
43236032,1000,1000,1000,1000,51728467,1579,1578,1578,1577
43238531,1000,1000,1000,1000,51828427,1578,1578,1577,1577
43241030,1000,1000,1000,1000,51928387,1579,1578,1578,1578
43243529,1000,1000,1000,1000,52028347,1579,1578,1578,1578
43246028,1000,1000,1000,1000,52128307,1578,1578,1578,1577
43248527,1000,1000,1000,1000,52228267,1578,1578,1578,1578
43251026,1000,1000,1000,1000,52328227,1578,1578,1578,1578
43253525,1000,1000,1000,1000,52428187,1577,1578,1577,1578
43256024,1000,1000,1000,1000,52528980,1577,1577,1577,1577
43258523,1000,1000,1000,1000,52628940,1578,1578,1578,1578
43261022,1000,1000,1000,1000,52728900,1578,1577,1578,1578
43263521,1000,1000,1000,1000,52828860,1578,1578,1578,1578
43266020,1000,1000,1000,1000,52928820,1578,1578,1579,1579
43268519,1000,1000,1000,1000,53028780,1579,1579,1579,1579
43271018,1000,1000,1000,1000,53128740,1580,1579,1579,1580
43273517,1000,1000,1000,1000,53228700,1578,1578,1578,1579
43276016,1000,1000,1000,1000,53328660,1579,1579,1579,1579
43278515,1000,1000,1000,1000,53428620,1580,1580,1580,1580
43281014,1000,1000,1000,1000,53528580,1581,1581,1581,1580
43283513,1000,1000,1000,1000,53628540,1580,1580,1580,1580
43286012,1000,1000,1000,1000,53728500,1580,1580,1580,1580
43288511,1000,1000,1000,1000,53828460,1581,1580,1580,1581
43291010,1000,1000,1000,1000,53928420,1580,1580,1580,1580
43293509,1000,1000,1000,1000,54028380,1581,1581,1581,1581
43296008,1000,1000,1000,1000,54128340,1580,1580,1581,1580
43298507,1000,1000,1000,1000,54228300,1581,1581,1581,1581
43301006,1000,1000,1000,1000,54328260,1581,1581,1581,1580
43303505,1000,1000,1000,1000,54428220,1580,1580,1580,1580
43306004,1000,1000,1000,1000,54528180,1581,1581,1581,1581
43308503,1000,1000,1000,1000,54628973,1581,1581,1581,1581
43311002,1000,1000,1000,1000,54728933,1580,1580,1579,1580
43313501,1000,1000,1000,1000,54828893,1581,1581,1581,1581
43316000,1000,1000,1000,1000,54928853,1581,1580,1580,1580
43318499,1000,1000,1000,1000,55028813,1581,1581,1581,1580
43320998,1000,1000,1000,1000,55128773,1581,1580,1581,1580
43323497,1000,1000,1000,1000,55228733,1581,1581,1581,1581
43325996,1000,1000,1000,1000,55328693,1580,1580,1580,1580
43328495,1000,1000,1000,1000,55428653,1581,1581,1586,1575
43330994,1000,1000,1000,1000,55528613,1580,1582,1587,1573
43333493,1000,1000,1000,1000,55628573,1578,1582,1580,1573
43335992,1000,1000,1000,1000,55728533,1577,1580,1570,1572
43338491,1000,1000,1000,1000,55828493,1576,1579,1563,1569
43340990,1000,1000,1000,1000,55928453,1577,1578,1558,1565
43343489,1000,1000,1000,1000,56028413,1579,1578,1556,1561
43345988,1000,1000,1000,1000,56128373,1579,1577,1555,1557
43348487,1000,1000,1000,1000,56228333,1578,1577,1555,1554
43350986,1000,1000,1000,1000,56328293,1578,1577,1555,1553
43353485,1000,1000,1000,1000,56428253,1576,1576,1555,1553
43355984,1000,1000,1000,1000,56528213,1575,1576,1555,1553
43358483,1000,1000,1000,1000,56628173,1574,1576,1554,1553
43360982,1000,1000,1000,1000,56728966,1574,1576,1554,1554
43363481,1000,1000,1000,1000,56828926,1575,1576,1553,1552
43365980,1000,1000,1000,1000,56928886,1575,1577,1550,1550
43368479,1000,1000,1000,1000,57028846,1577,1578,1549,1549
43370978,1000,1000,1000,1000,57128806,1580,1580,1547,1546
43373477,1000,1000,1000,1000,57228766,1582,1583,1544,1544
43375976,1000,1000,1000,1000,57328726,1585,1586,1541,1541
43378475,1000,1000,1000,1000,57428686,1588,1589,1538,1537
43380974,1000,1000,1000,1000,57528646,1591,1591,1535,1536
43383473,1000,1000,1000,1000,57628606,1594,1594,1534,1535
43385972,1000,1000,1000,1000,57728566,1595,1595,1534,1535
43388471,1000,1000,1000,1000,57828526,1594,1594,1534,1536
43390970,1000,1000,1000,1000,57928486,1593,1593,1536,1539
43393469,1000,1000,1000,1000,58028446,1589,1589,1540,1543
43395968,1000,1000,1000,1000,58128406,1585,1583,1547,1550
43398467,1000,1000,1000,1000,58228366,1578,1575,1556,1559
43400966,1000,1000,1000,1000,58328326,1568,1564,1566,1569
43403465,1000,1000,1000,1000,58428286,1558,1554,1580,1581
43405964,1000,1000,1000,1000,58528246,1548,1545,1593,1594
43408463,1000,1000,1000,1000,58628206,1538,1536,1603,1602
43410962,1000,1000,1000,1000,58728166,1531,1531,1610,1610
43413461,1000,1000,1000,1000,58828959,1528,1530,1615,1614
43415960,1000,1000,1000,1000,58928919,1529,1531,1615,1614
43418459,1000,1000,1000,1000,59028879,1534,1537,1612,1612
43420958,1000,1000,1000,1000,59128839,1540,1542,1606,1606
43423457,1000,1000,1000,1000,59228799,1549,1550,1600,1600
43425956,1000,1000,1000,1000,59328759,1558,1558,1592,1592
43428455,1000,1000,1000,1000,59428719,1567,1567,1585,1585
43430954,1000,1000,1000,1000,59528679,1575,1574,1579,1578
43433453,1000,1000,1000,1000,59628639,1581,1580,1573,1572
43435952,1000,1000,1000,1000,59728599,1584,1583,1568,1568
43438451,1000,1000,1000,1000,59828559,1588,1586,1567,1566
43440950,1000,1000,1000,1000,59928519,1346,1345,1568,1568
43443449,1000,1000,1000,1000,60028479,1426,1429,1619,1625
43445948,1000,1000,1000,1000,60128439,1477,1483,1621,1621
43448447,1000,1000,1000,1000,60228399,1522,1529,1611,1607
43450946,1000,1000,1000,1000,60328359,1558,1562,1602,1596
43453445,1000,1000,1000,1000,60428319,1587,1586,1597,1591
43455944,1000,1000,1000,1000,60528279,1606,1601,1590,1588
43458443,1000,1000,1000,1000,60628239,1622,1613,1582,1583
43460942,1000,1000,1000,1000,60728199,1641,1635,1559,1563
43463441,1000,1000,1000,1000,60828159,1659,1653,1537,1544
43465940,1000,1000,1000,1000,60928952,1659,1656,1535,1543
43468439,1000,1000,1000,1000,61028912,1649,1651,1543,1549
43470938,1000,1000,1000,1000,61128872,1638,1642,1551,1553
43473437,1000,1000,1000,1000,61228832,1628,1634,1558,1557
43475936,1000,1000,1000,1000,61328792,1622,1625,1564,1561
43478435,1000,1000,1000,1000,61428752,1616,1617,1567,1563
43480934,1000,1000,1000,1000,61528712,1610,1605,1576,1573
43483433,1000,1000,1000,1000,61628672,1595,1588,1588,1588
43485932,1000,1000,1000,1000,61728632,1577,1571,1602,1603
43488431,1000,1000,1000,1000,61828592,1562,1560,1609,1611
43490930,1000,1000,1000,1000,61928552,1552,1555,1610,1612
43493429,1000,1000,1000,1000,62028512,1550,1555,1609,1609
43495928,1000,1000,1000,1000,62128472,1550,1557,1604,1603
43498427,1000,1000,1000,1000,62228432,1554,1560,1599,1597
43500926,1000,1000,1000,1000,62328392,1560,1564,1595,1591
43503425,1000,1000,1000,1000,62428352,1566,1566,1589,1586
43505924,1000,1000,1000,1000,62528312,1572,1571,1586,1584
43508423,1000,1000,1000,1000,62628272,1576,1574,1581,1581
43510922,1000,1000,1000,1000,62728232,1579,1577,1576,1577
43513421,1000,1000,1000,1000,62828192,1585,1583,1571,1571
43515920,1000,1000,1000,1000,62928985,1591,1590,1565,1566
43518419,1000,1000,1000,1000,63028945,1595,1595,1562,1563
43520918,1000,1000,1000,1000,63128905,1597,1597,1561,1561
43523417,1000,1000,1000,1000,63228865,1597,1596,1562,1563
43525916,1000,1000,1000,1000,63328825,1595,1594,1566,1566
43528415,1000,1000,1000,1000,63428785,1591,1590,1573,1569
43530914,1000,1000,1000,1000,63528745,1588,1584,1584,1570
43533413,1000,1000,1000,1000,63628705,1584,1578,1584,1577
43535912,1000,1000,1000,1000,63728665,1577,1573,1577,1578
43538411,1000,1000,1000,1000,63828625,1572,1572,1571,1576
43540910,1000,1000,1000,1000,63928585,1568,1572,1566,1571
43543409,1000,1000,1000,1000,64028545,1567,1573,1564,1566
43545908,1000,1000,1000,1000,64128505,1567,1572,1562,1561
43548407,1000,1000,1000,1000,64228465,1569,1573,1562,1558
43550906,1000,1000,1000,1000,64328425,1571,1573,1560,1556
43553405,1000,1000,1000,1000,64428385,1573,1572,1558,1555
43555904,1000,1000,1000,1000,64528345,1574,1572,1555,1554
43558403,1000,1000,1000,1000,64628305,1574,1572,1551,1552
43560902,1000,1000,1000,1000,64728265,1574,1573,1549,1550
43563401,1000,1000,1000,1000,64828225,1574,1574,1547,1548
43565900,1000,1000,1000,1000,64928185,1574,1576,1545,1545
43568399,1000,1000,1000,1000,65028978,1575,1577,1542,1542
43570898,1000,1000,1000,1000,65128938,1578,1580,1540,1539
43573397,1000,1000,1000,1000,65228898,1582,1584,1538,1536
43575896,1000,1000,1000,1000,65328858,1586,1587,1535,1533
43578395,1000,1000,1000,1000,65428818,1589,1590,1531,1530
43580894,1000,1000,1000,1000,65528778,1593,1592,1530,1530
43583393,1000,1000,1000,1000,65628738,1594,1594,1530,1531
43585892,1000,1000,1000,1000,65728698,1595,1594,1531,1533
43588391,1000,1000,1000,1000,65828658,1593,1594,1533,1536
43590890,1000,1000,1000,1000,65928618,1591,1591,1537,1541
43593389,1000,1000,1000,1000,66028578,1587,1587,1543,1547
43595888,1000,1000,1000,1000,66128538,1582,1581,1550,1553
43598387,1000,1000,1000,1000,66228498,1576,1575,1556,1559
43600886,1000,1000,1000,1000,66328458,1571,1569,1563,1566
43603385,1000,1000,1000,1000,66428418,1564,1562,1571,1573
43605884,1000,1000,1000,1000,66528378,1558,1556,1576,1579
43608383,1000,1000,1000,1000,66628338,1553,1551,1583,1584
43610882,1000,1000,1000,1000,66728298,1547,1546,1588,1588
43613381,1000,1000,1000,1000,66828258,1543,1543,1593,1592
43615880,1000,1000,1000,1000,66928218,1540,1540,1598,1596
43618379,1000,1000,1000,1000,67028178,1537,1538,1600,1598
43620878,1000,1000,1000,1000,67128971,1537,1538,1602,1600
43623377,1000,1000,1000,1000,67228931,1537,1539,1601,1601
43625876,1000,1000,1000,1000,67328891,1539,1540,1599,1599
43628375,1000,1000,1000,1000,67428851,1542,1544,1596,1596
43630874,1000,1000,1000,1000,67528811,1548,1550,1593,1593
43633373,1000,1000,1000,1000,67628771,1555,1555,1587,1588
43635872,1000,1000,1000,1000,67728731,1562,1562,1583,1584
43638371,1000,1000,1000,1000,67828691,1568,1568,1580,1580
43640870,1000,1000,1000,1000,67928651,1573,1573,1577,1576
43643369,1000,1000,1000,1000,68028611,1577,1576,1574,1573
43645868,1000,1000,1000,1000,68128571,1581,1580,1574,1572
43648367,1000,1000,1000,1000,68228531,1583,1581,1572,1571
43650866,1000,1000,1000,1000,68328491,1584,1583,1571,1571
43653365,1000,1000,1000,1000,68428451,1584,1584,1571,1572
43655864,1000,1000,1000,1000,68528411,1584,1583,1572,1572
43658363,1000,1000,1000,1000,68628371,1584,1583,1572,1573
43660862,1000,1000,1000,1000,68728331,1584,1584,1574,1574
43663361,1000,1000,1000,1000,68828291,1583,1583,1574,1574
43665860,1000,1000,1000,1000,68928251,1582,1582,1575,1575
43668359,1000,1000,1000,1000,69028211,1581,1581,1576,1576
43670858,1000,1000,1000,1000,69128171,1581,1581,1578,1577
43673357,1000,1000,1000,1000,69228964,1580,1580,1578,1578
43675856,1000,1000,1000,1000,69328924,1580,1580,1579,1579
43678355,1000,1000,1000,1000,69428884,1579,1579,1579,1578
43680854,1000,1000,1000,1000,69528844,1579,1579,1579,1580
43683353,1000,1000,1000,1000,69628804,1578,1578,1580,1580
43685852,1000,1000,1000,1000,69728764,1578,1578,1580,1580
43688351,1000,1000,1000,1000,69828724,1578,1579,1580,1580
43690850,1000,1000,1000,1000,69928684,1578,1579,1580,1580
43693349,1000,1000,1000,1000,70028644,1578,1579,1581,1581
43695848,1000,1000,1000,1000,70128604,1578,1578,1580,1580
43698347,1000,1000,1000,1000,70228564,1579,1579,1580,1580
43700846,1000,1000,1000,1000,70328524,1580,1579,1581,1581
43703345,1000,1000,1000,1000,70428484,1580,1579,1580,1580
43705844,1000,1000,1000,1000,70528444,1581,1580,1581,1582
43708343,1000,1000,1000,1000,70628404,1581,1580,1580,1581
43710842,1000,1000,1000,1000,70728364,1581,1581,1580,1581
43713341,1000,1000,1000,1000,70828324,1821,1821,1576,1575
43715840,1000,1000,1000,1000,70928284,1751,1747,1523,1515
43718339,1000,1000,1000,1000,71028244,1698,1690,1521,1520
43720838,1000,1000,1000,1000,71128204,1642,1634,1539,1543
43723337,1000,1000,1000,1000,71228164,1587,1582,1563,1569
43725836,1000,1000,1000,1000,71328957,1543,1543,1586,1589
43728335,1000,1000,1000,1000,71428917,1519,1524,1599,1599
43730834,1000,1000,1000,1000,71528877,1510,1518,1604,1603
43733333,1000,1000,1000,1000,71628837,1513,1520,1606,1605
43735832,1000,1000,1000,1000,71728797,1516,1522,1605,1605
43738331,1000,1000,1000,1000,71828757,1515,1518,1610,1611
43740830,1000,1000,1000,1000,71928717,1518,1519,1612,1615
43743329,1000,1000,1000,1000,72028677,1525,1527,1608,1612
43745828,1000,1000,1000,1000,72128637,1539,1540,1599,1602
43748327,1000,1000,1000,1000,72228597,1557,1558,1589,1590
43750826,1000,1000,1000,1000,72328557,1572,1574,1582,1579
43753325,1000,1000,1000,1000,72428517,1581,1587,1582,1567
43755824,1000,1000,1000,1000,72528477,1586,1594,1574,1566
43758323,1000,1000,1000,1000,72628437,1587,1593,1565,1564
43760822,1000,1000,1000,1000,72728397,1589,1590,1558,1563
43763321,1000,1000,1000,1000,72828357,1590,1586,1555,1560
43765820,1000,1000,1000,1000,72928317,1592,1586,1556,1558
43768319,1000,1000,1000,1000,73028277,1592,1586,1557,1556
43770818,1000,1000,1000,1000,73128237,1591,1587,1559,1556
43773317,1000,1000,1000,1000,73228197,1588,1588,1559,1556
43775816,1000,1000,1000,1000,73328157,1586,1587,1558,1556
43778315,1000,1000,1000,1000,73428950,1584,1586,1558,1556
43780814,1000,1000,1000,1000,73528910,1582,1585,1556,1556
43783313,1000,1000,1000,1000,73628870,1582,1584,1555,1556
43785812,1000,1000,1000,1000,73728830,1583,1584,1554,1556
43788311,1000,1000,1000,1000,73828790,1583,1584,1553,1554
43790810,1000,1000,1000,1000,73928750,1584,1583,1552,1552
43793309,1000,1000,1000,1000,74028710,1584,1584,1550,1550
43795808,1000,1000,1000,1000,74128670,1586,1586,1550,1549
43798307,1000,1000,1000,1000,74228630,1587,1588,1548,1548
43800806,1000,1000,1000,1000,74328590,1587,1589,1546,1546
43803305,1000,1000,1000,1000,74428550,1590,1591,1544,1545
43805804,1000,1000,1000,1000,74528510,1592,1592,1542,1544
43808303,1000,1000,1000,1000,74628470,1594,1594,1543,1545
43810802,1000,1000,1000,1000,74728430,1594,1592,1545,1546
43813301,1000,1000,1000,1000,74828390,1592,1589,1548,1550
43815800,1000,1000,1000,1000,74928350,1590,1586,1556,1557
43818299,1000,1000,1000,1000,75028310,1584,1580,1563,1564
43820798,1000,1000,1000,1000,75128270,1576,1572,1571,1572
43823297,1000,1000,1000,1000,75228230,1569,1566,1580,1580
43825796,1000,1000,1000,1000,75328190,1561,1559,1588,1587
43828295,1000,1000,1000,1000,75428983,1556,1556,1595,1594
43830794,1000,1000,1000,1000,75528943,1552,1553,1600,1599
43833293,1000,1000,1000,1000,75628903,1549,1551,1602,1602
43835792,1000,1000,1000,1000,75728863,1549,1550,1603,1603
43838291,1000,1000,1000,1000,75828823,1549,1550,1602,1602
43840790,1000,1000,1000,1000,75928783,1552,1552,1603,1602
43843289,1000,1000,1000,1000,76028743,1554,1555,1601,1600
43845788,1000,1000,1000,1000,76128703,1556,1558,1598,1597
43848287,1000,1000,1000,1000,76228663,1559,1560,1594,1595
43850786,1000,1000,1000,1000,76328623,1562,1563,1590,1592
43853285,1000,1000,1000,1000,76428583,1566,1566,1588,1589
43855784,1000,1000,1000,1000,76528543,1569,1568,1585,1586
43858283,1000,1000,1000,1000,76628503,1572,1571,1583,1583
43860782,1000,1000,1000,1000,76728463,1575,1574,1582,1581
43863281,1000,1000,1000,1000,76828423,1576,1575,1579,1578
43865780,1000,1000,1000,1000,76928383,1578,1577,1577,1577
43868279,1000,1000,1000,1000,77028343,1579,1580,1577,1576
43870778,1000,1000,1000,1000,77128303,1580,1581,1575,1575
43873277,1000,1000,1000,1000,77228263,1581,1581,1574,1574
43875776,1000,1000,1000,1000,77328223,1582,1581,1574,1575
43878275,1000,1000,1000,1000,77428183,1582,1581,1574,1574
43880774,1000,1000,1000,1000,77528976,1581,1580,1574,1574
43883273,1000,1000,1000,1000,77628936,1581,1580,1575,1575
43885772,1000,1000,1000,1000,77728896,1580,1579,1576,1576
43888271,1000,1000,1000,1000,77828856,1579,1579,1577,1576
43890770,1000,1000,1000,1000,77928816,1578,1578,1577,1577
43893269,1000,1000,1000,1000,78028776,1578,1578,1578,1578
43895768,1000,1000,1000,1000,78128736,1577,1577,1579,1579
43898267,1000,1000,1000,1000,78228696,1577,1578,1580,1580
43900766,1000,1000,1000,1000,78328656,1577,1577,1580,1580
43903265,1000,1000,1000,1000,78428616,1576,1577,1580,1580
43905764,1000,1000,1000,1000,78528576,1576,1577,1579,1580
43908263,1000,1000,1000,1000,78628536,1578,1578,1581,1581
43910762,1000,1000,1000,1000,78728496,1578,1578,1580,1581
43913261,1000,1000,1000,1000,78828456,1579,1578,1581,1580
43915760,1000,1000,1000,1000,78928416,1578,1579,1580,1580
43918259,1000,1000,1000,1000,79028376,1579,1579,1580,1580
43920758,1000,1000,1000,1000,79128336,1579,1579,1580,1580
43923257,1000,1000,1000,1000,79228296,1579,1579,1579,1579
43925756,1000,1000,1000,1000,79328256,1579,1580,1579,1579
43928255,1000,1000,1000,1000,79428216,1579,1580,1579,1579
43930754,1000,1000,1000,1000,79528176,1580,1579,1578,1578
43933253,1000,1000,1000,1000,79628969,1581,1580,1579,1579
43935752,1000,1000,1000,1000,79728929,1581,1581,1580,1580
43938251,1000,1000,1000,1000,79828889,1581,1581,1581,1580
43940750,1000,1000,1000,1000,79928849,1580,1581,1580,1580
43943249,1000,1000,1000,1000,80028809,1581,1581,1580,1581
43945748,1000,1000,1000,1000,80128769,1581,1582,1581,1581
43948247,1000,1000,1000,1000,80228729,1582,1583,1588,1573
43950746,1000,1000,1000,1000,80328689,1580,1582,1585,1573
43953245,1000,1000,1000,1000,80428649,1577,1580,1578,1576
43955744,1000,1000,1000,1000,80528609,1574,1575,1571,1575
43958243,1000,1000,1000,1000,80628569,1572,1571,1566,1574
43960742,1000,1000,1000,1000,80728529,1570,1568,1565,1571
43963241,1000,1000,1000,1000,80828489,1568,1566,1565,1568
43965740,1000,1000,1000,1000,80928449,1567,1566,1566,1566
43968239,1000,1000,1000,1000,81028409,1566,1565,1567,1565
43970738,1000,1000,1000,1000,81128369,1565,1565,1567,1564
43973237,1000,1000,1000,1000,81228329,1564,1565,1567,1564
43975736,1000,1000,1000,1000,81328289,1564,1565,1566,1565
43978235,1000,1000,1000,1000,81428249,1563,1564,1565,1564
43980734,1000,1000,1000,1000,81528209,1562,1562,1563,1563
43983233,1000,1000,1000,1000,81628169,1562,1561,1562,1562
43985732,1000,1000,1000,1000,81728962,1562,1562,1562,1562
43988231,1000,1000,1000,1000,81828922,1561,1561,1561,1561
43990730,1000,1000,1000,1000,81928882,1560,1560,1561,1560
43993229,1000,1000,1000,1000,82028842,1560,1560,1560,1559
43995728,1000,1000,1000,1000,82128802,1559,1559,1559,1558
43998227,1000,1000,1000,1000,82228762,1558,1558,1558,1557
44000726,1000,1000,1000,1000,82328722,1558,1558,1558,1558
44003225,1000,1000,1000,1000,82428682,1557,1557,1557,1557
44005724,1000,1000,1000,1000,82528642,1557,1557,1558,1556
44008223,1000,1000,1000,1000,82628602,1557,1557,1558,1557
44010722,1000,1000,1000,1000,82728562,1558,1558,1558,1557
44013221,1000,1000,1000,1000,82828522,1558,1558,1560,1556
44015720,1000,1000,1000,1000,82928482,1558,1559,1560,1558
44018219,1000,1000,1000,1000,83028442,1559,1560,1559,1561
44020718,1000,1000,1000,1000,83128402,1561,1560,1557,1563
44023217,1000,1000,1000,1000,83228362,1561,1560,1557,1563
44025716,1000,1000,1000,1000,83328322,1562,1561,1559,1564
44028215,1000,1000,1000,1000,83428282,1563,1561,1560,1563
44030714,1000,1000,1000,1000,83528242,1563,1562,1562,1562
44033213,1000,1000,1000,1000,83628202,1562,1563,1564,1561
44035712,1000,1000,1000,1000,83728162,1560,1561,1563,1559
44038211,1000,1000,1000,1000,83828955,1560,1560,1559,1561
44040710,1000,1000,1000,1000,83928915,1558,1557,1554,1561
44043209,1000,1000,1000,1000,84028875,1553,1552,1550,1555
44045708,1000,1000,1000,1000,84128835,1548,1547,1547,1549
44048207,1000,1000,1000,1000,84228795,1542,1541,1542,1542
44050706,1000,1000,1000,1000,84328755,1535,1535,1536,1534
44053205,1000,1000,1000,1000,84428715,1528,1528,1529,1527
44055704,1000,1000,1000,1000,84528675,1521,1521,1522,1521
44058203,1000,1000,1000,1000,84628635,1519,1520,1520,1519
44060702,1000,1000,1000,1000,84728595,1520,1520,1520,1520
44063201,1000,1000,1000,1000,84828555,1521,1522,1521,1522
44065700,1000,1000,1000,1000,84928515,1524,1524,1523,1525
44068199,1000,1000,1000,1000,85028475,1528,1527,1527,1528
44070698,1000,1000,1000,1000,85128435,1533,1532,1533,1533
44073197,1000,1000,1000,1000,85228395,1537,1537,1537,1537
44075696,1000,1000,1000,1000,85328355,1540,1540,1540,1540
44078195,1000,1000,1000,1000,85428315,1542,1543,1543,1542
44080694,1000,1000,1000,1000,85528275,1543,1543,1544,1543
44083193,1000,1000,1000,1000,85628235,1543,1544,1544,1543
44085692,1000,1000,1000,1000,85728195,1546,1546,1546,1546
44088191,1000,1000,1000,1000,85828155,1546,1546,1546,1546
44090690,1000,1000,1000,1000,85928948,1546,1546,1546,1546
44093189,1000,1000,1000,1000,86028908,1547,1547,1547,1547
44095688,1000,1000,1000,1000,86128868,1546,1546,1546,1546
44098187,1000,1000,1000,1000,86228828,1547,1547,1547,1547
44100686,1000,1000,1000,1000,86328788,1545,1545,1545,1545
44103185,1000,1000,1000,1000,86428748,1546,1546,1546,1546
44105684,1000,1000,1000,1000,86528708,1546,1545,1546,1546
44108183,1000,1000,1000,1000,86628668,1545,1545,1545,1545
44110682,1000,1000,1000,1000,86728628,1545,1545,1545,1545
44113181,1000,1000,1000,1000,86828588,1545,1544,1545,1544
44115680,1000,1000,1000,1000,86928548,1544,1545,1545,1545
44118179,1000,1000,1000,1000,87028508,1544,1544,1544,1544
44120678,1000,1000,1000,1000,87128468,1545,1544,1544,1544
44123177,1000,1000,1000,1000,87228428,1544,1544,1544,1544
44125676,1000,1000,1000,1000,87328388,1544,1544,1544,1544
44128175,1000,1000,1000,1000,87428348,1543,1544,1544,1544
44130674,1000,1000,1000,1000,87528308,1544,1544,1544,1543
44133173,1000,1000,1000,1000,87628268,1544,1544,1544,1544
44135672,1000,1000,1000,1000,87728228,1545,1544,1544,1545
44138171,1000,1000,1000,1000,87828188,1544,1544,1544,1544
44140670,1000,1000,1000,1000,87928981,1544,1544,1544,1544
44143169,1000,1000,1000,1000,88028941,1544,1544,1544,1544
44145668,1000,1000,1000,1000,88128901,1544,1543,1544,1544
44148167,1000,1000,1000,1000,88228861,1545,1545,1545,1545
44150666,1000,1000,1000,1000,88328821,1544,1544,1544,1544
44153165,1000,1000,1000,1000,88428781,1544,1545,1545,1545
44155664,1000,1000,1000,1000,88528741,1544,1544,1544,1544
44158163,1000,1000,1000,1000,88628701,1545,1545,1545,1545
44160662,1000,1000,1000,1000,88728661,1544,1543,1543,1544
44163161,1000,1000,1000,1000,88828621,1545,1543,1544,1544
44165660,1000,1000,1000,1000,88928581,1544,1544,1544,1544
44168159,1000,1000,1000,1000,89028541,1544,1544,1544,1544
44170658,1000,1000,1000,1000,89128501,1544,1544,1544,1544
44173157,1000,1000,1000,1000,89228461,1544,1544,1544,1544
44175656,1000,1000,1000,1000,89328421,1545,1545,1544,1545
44178155,1000,1000,1000,1000,89428381,1544,1545,1545,1545
44180654,1000,1000,1000,1000,89528341,1544,1544,1544,1544
44183986,1000,1000,1000,1000,89628301,1544,1544,1544,1544
44186485,1000,1000,1000,1000,89728261,1544,1543,1544,1544
44188984,1000,1000,1000,1000,89828221,1544,1544,1544,1544
44191483,1000,1000,1000,1000,89928181,1544,1544,1544,1545
44193982,1000,1000,1000,1000,90028974,1544,1544,1544,1544
44196481,1000,1000,1000,1000,90128934,1544,1544,1544,1545
44198980,1000,1000,1000,1000,90228894,1544,1545,1544,1544
44201479,1000,1000,1000,1000,90328854,1544,1544,1544,1545
44203978,1000,1000,1000,1000,90428814,1545,1545,1545,1545
44206477,1000,1000,1000,1000,90528774,1545,1545,1545,1545
44208976,1000,1000,1000,1000,90628734,1545,1545,1545,1545
44211475,1000,1000,1000,1000,90728694,1544,1544,1544,1544
44213974,1000,1000,1000,1000,90828654,1544,1544,1544,1544
44216473,1000,1000,1000,1000,90928614,1545,1545,1545,1545
44218972,1000,1000,1000,1000,91028574,1544,1544,1544,1544
44221471,1000,1000,1000,1000,91128534,1544,1544,1544,1544
44223970,1000,1000,1000,1000,91228494,1544,1544,1544,1544
44226469,1000,1000,1000,1000,91328454,1544,1544,1544,1544
44228968,1000,1000,1000,1000,91428414,1543,1543,1543,1543
44231467,1000,1000,1000,1000,91528374,1544,1544,1544,1544
44233966,1000,1000,1000,1000,91628334,1545,1545,1545,1545
44236465,1000,1000,1000,1000,91728294,1545,1545,1545,1545
44238964,1000,1000,1000,1000,91828254,1545,1545,1545,1545
44241463,1000,1000,1000,1000,91928214,1545,1544,1545,1545
44243962,1000,1000,1000,1000,92028174,1545,1545,1545,1545
44246461,1000,1000,1000,1000,92128967,1544,1544,1544,1544
44248960,1000,1000,1000,1000,92228927,1545,1545,1545,1545
44251459,1000,1000,1000,1000,92328887,1544,1544,1543,1544
44253958,1000,1000,1000,1000,92428847,1544,1545,1544,1545
44256457,1000,1000,1000,1000,92528807,1545,1545,1545,1545
44258956,1000,1000,1000,1000,92628767,1544,1544,1545,1544
44261455,1000,1000,1000,1000,92728727,1544,1544,1544,1544
44263954,1000,1000,1000,1000,92828687,1544,1543,1544,1543
44266453,1000,1000,1000,1000,92928647,1544,1544,1544,1544
44268952,1000,1000,1000,1000,93028607,1544,1544,1544,1544
44271451,1000,1000,1000,1000,93128567,1544,1544,1544,1544
44273950,1000,1000,1000,1000,93228527,1545,1545,1545,1544
44276449,1000,1000,1000,1000,93328487,1544,1544,1544,1544
44278948,1000,1000,1000,1000,93428447,1544,1544,1544,1544
44281447,1000,1000,1000,1000,93528407,1545,1545,1545,1545
44283946,1000,1000,1000,1000,93628367,1544,1544,1544,1544
44286445,1000,1000,1000,1000,93728327,1544,1544,1544,1544
44288944,1000,1000,1000,1000,93828287,1544,1544,1544,1544
44291443,1000,1000,1000,1000,93928247,1544,1544,1544,1544
44293942,1000,1000,1000,1000,94028207,1544,1545,1545,1545
44296441,1000,1000,1000,1000,94128167,1545,1545,1545,1545
44298940,1000,1000,1000,1000,94228960,1544,1544,1545,1545
44301439,1000,1000,1000,1000,94328920,1409,1408,1410,1408
44303938,1000,1000,1000,1000,94428880,1273,1270,1275,1270
44306437,1000,1000,1000,1000,94528840,1222,1219,1224,1220
44308936,1000,1000,1000,1000,94628800,1201,1199,1204,1200
44311435,1000,1000,1000,1000,94728760,1162,1159,1165,1162
44313934,1000,1000,1000,1000,94828720,1151,1150,1156,1151
44316433,1000,1000,1000,1000,94928680,1152,1150,1157,1152
44318932,1000,1000,1000,1000,95028640,1183,1150,1155,1185
44321431,1000,1000,1000,1000,95128600,1174,1150,1157,1175
44323930,1000,1000,1000,1000,95228560,1171,1150,1158,1171
44326429,1000,1000,1000,1000,95328520,1172,1150,1159,1172
44328928,1000,1000,1000,1000,95428480,1173,1150,1159,1174
44331427,1000,1000,1000,1000,95528440,1175,1150,1160,1176
44333926,1000,1000,1000,1000,95628400,1177,1150,1161,1178
44336425,1000,1000,1000,1000,95728360,1179,1150,1161,1181
44338924,1000,1000,1000,1000,95828320,1165,1150,1160,1168
44341423,1000,1000,1000,1000,95928280,1166,1150,1160,1170
44343922,1000,1000,1000,1000,96028240,1167,1150,1161,1171
44346421,1000,1000,1000,1000,96128200,1168,1150,1161,1172
44348920,1000,1000,1000,1000,96228160,1168,1150,1161,1173
44351419,1000,1000,1000,1000,96328953,1000,1000,1000,1000
44353918,1000,1000,1000,1000,96428913,1000,1000,1000,1000
44356417,1000,1000,1000,1000,96528873,1000,1000,1000,1000
44358916,1000,1000,1000,1000,96628833,1000,1000,1000,1000
44361415,1000,1000,1000,1000,96728793,1000,1000,1000,1000
44363914,1000,1000,1000,1000,96828753,1000,1000,1000,1000
44366413,1000,1000,1000,1000,96928713,1000,1000,1000,1000
44368912,1000,1000,1000,1000,97028673,1000,1000,1000,1000
44371411,1000,1000,1000,1000,97128633,1000,1000,1000,1000
44373910,1000,1000,1000,1000,97228593,1000,1000,1000,1000
44376409,1000,1000,1000,1000,97328553,1000,1000,1000,1000
44378908,1000,1000,1000,1000,97428513,1000,1000,1000,1000
44381407,1000,1000,1000,1000,97528473,1000,1000,1000,1000
44383906,1000,1000,1000,1000,97628433,1000,1000,1000,1000
44386405,1000,1000,1000,1000,97728393,1000,1000,1000,1000
44388904,1000,1000,1000,1000,97828353,1000,1000,1000,1000
44391403,1000,1000,1000,1000,97928313,1000,1000,1000,1000
44393902,1000,1000,1000,1000,98028273,1000,1000,1000,1000
44396401,1000,1000,1000,1000,98128233,1000,1000,1000,1000
44398900,1000,1000,1000,1000,98228193,1000,1000,1000,1000
44401399,1000,1000,1000,1000,98328986,1000,1000,1000,1000
44403898,1000,1000,1000,1000,98428946,1000,1000,1000,1000
44406397,1000,1000,1000,1000,98528906,1000,1000,1000,1000
44408896,1000,1000,1000,1000,98628866,1000,1000,1000,1000
44411395,1000,1000,1000,1000,98728826,1000,1000,1000,1000
44413894,1000,1000,1000,1000,98828786,1000,1000,1000,1000
44416393,1000,1000,1000,1000,98928746,1000,1000,1000,1000
44418892,1000,1000,1000,1000,99028706,1000,1000,1000,1000
44421391,1000,1000,1000,1000,99128666,1000,1000,1000,1000
44423890,1000,1000,1000,1000,99228626,1000,1000,1000,1000
44426389,1000,1000,1000,1000,99328586,1000,1000,1000,1000
44428888,1000,1000,1000,1000,99428546,1000,1000,1000,1000
44431387,1000,1000,1000,1000,99528506,1000,1000,1000,1000
44433886,1000,1000,1000,1000,99628466,1000,1000,1000,1000
44436385,1000,1000,1000,1000,99728426,1000,1000,1000,1000
44438884,1000,1000,1000,1000,99828386,1000,1000,1000,1000
44441383,1000,1000,1000,1000,99928346,1000,1000,1000,1000
44443882,1000,1000,1000,1000,100028306,1000,1000,1000,1000
44446381,1000,1000,1000,1000,100128266,1000,1000,1000,1000
44448880,1000,1000,1000,1000,100228226,1000,1000,1000,1000
44451379,1000,1000,1000,1000,100328186,1000,1000,1000,1000
44453878,1000,1000,1000,1000,100428979,1000,1000,1000,1000
44456377,1000,1000,1000,1000,100528939,1000,1000,1000,1000
44458876,1000,1000,1000,1000,100628899,1000,1000,1000,1000
44461375,1000,1000,1000,1000,100728859,1000,1000,1000,1000
44463874,1000,1000,1000,1000,100828819,1000,1000,1000,1000
44466373,1000,1000,1000,1000,100928779,1000,1000,1000,1000
44468872,1000,1000,1000,1000,101028739,1000,1000,1000,1000
44471371,1000,1000,1000,1000,101128699,1000,1000,1000,1000
44473870,1000,1000,1000,1000,101228659,1000,1000,1000,1000
44476369,1000,1000,1000,1000,101328619,1000,1000,1000,1000
44478868,1000,1000,1000,1000,101428579,1000,1000,1000,1000
44481367,1000,1000,1000,1000,101528539,1000,1000,1000,1000
44483866,1000,1000,1000,1000,101628499,1000,1000,1000,1000
44486365,1000,1000,1000,1000,101728459,1000,1000,1000,1000
44488864,1000,1000,1000,1000,101828419,1000,1000,1000,1000
44491363,1000,1000,1000,1000,101928379,1000,1000,1000,1000
44493862,1000,1000,1000,1000,102028339,1000,1000,1000,1000
44496361,1000,1000,1000,1000,102128299,1000,1000,1000,1000
44498860,1000,1000,1000,1000,102228259,1000,1000,1000,1000
44501359,1000,1000,1000,1000,102328219,1000,1000,1000,1000
44503858,1000,1000,1000,1000,102428179,1000,1000,1000,1000
44506357,1000,1000,1000,1000,102528972,1000,1000,1000,1000
44508856,1000,1000,1000,1000,102628932,1000,1000,1000,1000
44511355,1000,1000,1000,1000,102728892,1000,1000,1000,1000
44513854,1000,1000,1000,1000,102828852,1000,1000,1000,1000
44516353,1000,1000,1000,1000,102928812,1000,1000,1000,1000
44518852,1000,1000,1000,1000,103028772,1000,1000,1000,1000
44521351,1000,1000,1000,1000,103128732,1000,1000,1000,1000
44523850,1000,1000,1000,1000,103228692,1000,1000,1000,1000
44526349,1000,1000,1000,1000,103328652,1000,1000,1000,1000
44528848,1000,1000,1000,1000,103428612,1000,1000,1000,1000
44531347,1000,1000,1000,1000,103528572,1000,1000,1000,1000
44533846,1000,1000,1000,1000,103628532,1000,1000,1000,1000
44536345,1000,1000,1000,1000,103728492,1000,1000,1000,1000
44538844,1000,1000,1000,1000,103828452,1000,1000,1000,1000
44541343,1000,1000,1000,1000,103928412,1000,1000,1000,1000
44543842,1000,1000,1000,1000,104028372,1000,1000,1000,1000
44546341,1000,1000,1000,1000,104128332,1000,1000,1000,1000
44548840,1000,1000,1000,1000,104228292,1000,1000,1000,1000
44551339,1000,1000,1000,1000,104328252,1000,1000,1000,1000
44553838,1000,1000,1000,1000,104428212,1000,1000,1000,1000
44556337,1000,1000,1000,1000,104528172,1000,1000,1000,1000
44558836,1000,1000,1000,1000,104628965,1000,1000,1000,1000
44561335,1000,1000,1000,1000,104728925,1000,1000,1000,1000
44563834,1000,1000,1000,1000,104828885,1000,1000,1000,1000
44566333,1000,1000,1000,1000,104928845,1000,1000,1000,1000
44568832,1000,1000,1000,1000,105028805,1000,1000,1000,1000
44571331,1000,1000,1000,1000,105128765,1000,1000,1000,1000
44573830,1000,1000,1000,1000,105228725,1000,1000,1000,1000
44576329,1000,1000,1000,1000,105328685,1000,1000,1000,1000
44578828,1000,1000,1000,1000,105428645,1000,1000,1000,1000
44581327,1000,1000,1000,1000,105528605,1000,1000,1000,1000
44583826,1000,1000,1000,1000,105628565,1000,1000,1000,1000
44586325,1000,1000,1000,1000,105728525,1000,1000,1000,1000
44588824,1000,1000,1000,1000,105828485,1000,1000,1000,1000
44591323,1000,1000,1000,1000,105928445,1000,1000,1000,1000
44593822,1000,1000,1000,1000,106028405,1000,1000,1000,1000
44596321,1000,1000,1000,1000,106128365,1000,1000,1000,1000
44598820,1000,1000,1000,1000,106228325,1000,1000,1000,1000
44601319,1000,1000,1000,1000,106328285,1000,1000,1000,1000
44603818,1000,1000,1000,1000,106428245,1000,1000,1000,1000
44606317,1000,1000,1000,1000,106528205,1000,1000,1000,1000
44608816,1000,1000,1000,1000,106628165,1000,1000,1000,1000
44611315,1000,1000,1000,1000,106728958,1000,1000,1000,1000
44613814,1000,1000,1000,1000,106828918,1000,1000,1000,1000
44616313,1000,1000,1000,1000,106928878,1000,1000,1000,1000
44618812,1000,1000,1000,1000,107028838,1000,1000,1000,1000
44621311,1000,1000,1000,1000,107128798,1000,1000,1000,1000
44623810,1000,1000,1000,1000,107228758,1000,1000,1000,1000
44626309,1000,1000,1000,1000,107328718,1000,1000,1000,1000
44628808,1000,1000,1000,1000,107428678,1000,1000,1000,1000
44631307,1000,1000,1000,1000,107528638,1000,1000,1000,1000
44633806,1000,1000,1000,1000,107628598,1000,1000,1000,1000
44636305,1000,1000,1000,1000,107728558,1000,1000,1000,1000
44638804,1000,1000,1000,1000,107828518,1000,1000,1000,1000
44641303,1000,1000,1000,1000,107928478,1000,1000,1000,1000
44643802,1000,1000,1000,1000,108028438,1000,1000,1000,1000
44646301,1000,1000,1000,1000,108128398,1000,1000,1000,1000
44648800,1000,1000,1000,1000,108228358,1000,1000,1000,1000
44651299,1000,1000,1000,1000,108328318,1000,1000,1000,1000
44653798,1000,1000,1000,1000,108428278,1000,1000,1000,1000
44656297,1000,1000,1000,1000,108528238,1000,1000,1000,1000
44658796,1000,1000,1000,1000,108628198,1000,1000,1000,1000
44661295,1000,1000,1000,1000,108728158,1000,1000,1000,1000
44663794,1000,1000,1000,1000,108828951,1000,1000,1000,1000
44666293,1000,1000,1000,1000,108928911,1000,1000,1000,1000
44668792,1000,1000,1000,1000,109028871,1000,1000,1000,1000
44671291,1000,1000,1000,1000,109128831,1000,1000,1000,1000
44673790,1000,1000,1000,1000,109228791,1000,1000,1000,1000
44676289,1000,1000,1000,1000,109328751,1000,1000,1000,1000
44678788,1000,1000,1000,1000,109428711,1000,1000,1000,1000
44681287,1000,1000,1000,1000,109528671,1000,1000,1000,1000
44683786,1000,1000,1000,1000,109628631,1000,1000,1000,1000
44686285,1000,1000,1000,1000,109728591,1000,1000,1000,1000
44688784,1000,1000,1000,1000,109828551,1000,1000,1000,1000
44691283,1000,1000,1000,1000,109928511,1000,1000,1000,1000
44693782,1000,1000,1000,1000,110028471,1000,1000,1000,1000
44696281,1000,1000,1000,1000,110128431,1000,1000,1000,1000
44698780,1000,1000,1000,1000,110228391,1000,1000,1000,1000
44701279,1000,1000,1000,1000,110328351,1000,1000,1000,1000
44703778,1000,1000,1000,1000,110428311,1000,1000,1000,1000
44706277,1000,1000,1000,1000,110528271,1000,1000,1000,1000
44708776,1000,1000,1000,1000,110628231,1000,1000,1000,1000
44711275,1000,1000,1000,1000,110728191,1000,1000,1000,1000
44713774,1000,1000,1000,1000,110828984,1000,1000,1000,1000
44716273,1000,1000,1000,1000,110928944,1000,1000,1000,1000
44718772,1000,1000,1000,1000,111028904,1000,1000,1000,1000
44721271,1000,1000,1000,1000,111128864,1000,1000,1000,1000
44723770,1000,1000,1000,1000,111228824,1000,1000,1000,1000
44726269,1000,1000,1000,1000,,,,,
44728768,1000,1000,1000,1000,,,,,
44731267,1000,1000,1000,1000,,,,,
44733766,1000,1000,1000,1000,,,,,
44736265,1000,1000,1000,1000,,,,,
44738764,1000,1000,1000,1000,,,,,
44741263,1000,1000,1000,1000,,,,,
44743762,1000,1000,1000,1000,,,,,
44746261,1000,1000,1000,1000,,,,,
44748760,1000,1000,1000,1000,,,,,
44751259,1000,1000,1000,1000,,,,,
44753758,1000,1000,1000,1000,,,,,
44756257,1000,1000,1000,1000,,,,,
44758756,1000,1000,1000,1000,,,,,
44761255,1000,1000,1000,1000,,,,,
44763754,1000,1000,1000,1000,,,,,
44766253,1000,1000,1000,1000,,,,,
44768752,1000,1000,1000,1000,,,,,
44771251,1000,1000,1000,1000,,,,,
44773750,1000,1000,1000,1000,,,,,
44776249,1000,1000,1000,1000,,,,,
44778748,1000,1000,1000,1000,,,,,
44781247,1000,1000,1000,1000,,,,,
44783746,1000,1000,1000,1000,,,,,
44786245,1000,1000,1000,1000,,,,,
44788744,1000,1000,1000,1000,,,,,
44791243,1000,1000,1000,1000,,,,,
44793742,1000,1000,1000,1000,,,,,
44796241,1000,1000,1000,1000,,,,,
44798740,1000,1000,1000,1000,,,,,
44801239,1000,1000,1000,1000,,,,,
44803738,1000,1000,1000,1000,,,,,
44806237,1000,1000,1000,1000,,,,,
44808736,1000,1000,1000,1000,,,,,
44811235,1000,1000,1000,1000,,,,,
44813734,1000,1000,1000,1000,,,,,
44816233,1000,1000,1000,1000,,,,,
44818732,1000,1000,1000,1000,,,,,
44821231,1000,1000,1000,1000,,,,,
44823730,1000,1000,1000,1000,,,,,
44826229,1000,1000,1000,1000,,,,,
44828728,1000,1000,1000,1000,,,,,
44831227,1000,1000,1000,1000,,,,,
44833726,1000,1000,1000,1000,,,,,
44836225,1000,1000,1000,1000,,,,,
44838724,1000,1000,1000,1000,,,,,
44841223,1000,1000,1000,1000,,,,,
44843722,1000,1000,1000,1000,,,,,
44846221,1000,1000,1000,1000,,,,,
44848720,1000,1000,1000,1000,,,,,
44851219,1000,1000,1000,1000,,,,,
44853718,1000,1000,1000,1000,,,,,
44856217,1000,1000,1000,1000,,,,,
44858716,1000,1000,1000,1000,,,,,
44861215,1000,1000,1000,1000,,,,,
44863714,1000,1000,1000,1000,,,,,
44866213,1000,1000,1000,1000,,,,,
44868712,1000,1000,1000,1000,,,,,
44871211,1000,1000,1000,1000,,,,,
44873710,1000,1000,1000,1000,,,,,
44876209,1000,1000,1000,1000,,,,,
44878708,1000,1000,1000,1000,,,,,
44881207,1000,1000,1000,1000,,,,,
44883706,1000,1000,1000,1000,,,,,
44886205,1000,1000,1000,1000,,,,,
44888704,1000,1000,1000,1000,,,,,
44891203,1000,1000,1000,1000,,,,,
44893702,1000,1000,1000,1000,,,,,
44896201,1000,1000,1000,1000,,,,,
44898700,1000,1000,1000,1000,,,,,
44901199,1000,1000,1000,1000,,,,,
44903698,1000,1000,1000,1000,,,,,
44906197,1000,1000,1000,1000,,,,,
44908696,1000,1000,1000,1000,,,,,
44911195,1000,1000,1000,1000,,,,,
44913694,1000,1000,1000,1000,,,,,
44916193,1000,1000,1000,1000,,,,,
44918692,1000,1000,1000,1000,,,,,
44921191,1000,1000,1000,1000,,,,,
44923690,1000,1000,1000,1000,,,,,
44926189,1000,1000,1000,1000,,,,,
44928688,1000,1000,1000,1000,,,,,
44931187,1000,1000,1000,1000,,,,,
44933686,1000,1000,1000,1000,,,,,
44936185,1000,1000,1000,1000,,,,,
44938684,1000,1000,1000,1000,,,,,
44941183,1000,1000,1000,1000,,,,,
44943682,1000,1000,1000,1000,,,,,
44946181,1000,1000,1000,1000,,,,,
44948680,1000,1000,1000,1000,,,,,
44951179,1000,1000,1000,1000,,,,,
44953678,1000,1000,1000,1000,,,,,
44956177,1000,1000,1000,1000,,,,,
44958676,1000,1000,1000,1000,,,,,
44961175,1000,1000,1000,1000,,,,,
44963674,1000,1000,1000,1000,,,,,
44966173,1000,1000,1000,1000,,,,,
44968672,1000,1000,1000,1000,,,,,
44971171,1000,1000,1000,1000,,,,,
44973670,1000,1000,1000,1000,,,,,
44976169,1000,1000,1000,1000,,,,,
44978668,1000,1000,1000,1000,,,,,
44981167,1000,1000,1000,1000,,,,,
44983666,1000,1000,1000,1000,,,,,
44986165,1000,1000,1000,1000,,,,,
44988664,1000,1000,1000,1000,,,,,
44991163,1000,1000,1000,1000,,,,,
44993662,1000,1000,1000,1000,,,,,
44996161,1000,1000,1000,1000,,,,,
44998660,1000,1000,1000,1000,,,,,
45001159,1000,1000,1000,1000,,,,,
45003658,1000,1000,1000,1000,,,,,
45006157,1000,1000,1000,1000,,,,,
45008656,1000,1000,1000,1000,,,,,
45011155,1000,1000,1000,1000,,,,,
45013654,1000,1000,1000,1000,,,,,
45016153,1000,1000,1000,1000,,,,,
45018652,1000,1000,1000,1000,,,,,
45021151,1000,1000,1000,1000,,,,,
45023650,1000,1000,1000,1000,,,,,
45026149,1001,1001,1001,1001,,,,,
45028648,1002,1002,1002,1002,,,,,
45031147,1003,1003,1003,1003,,,,,
45033646,1003,1003,1003,1003,,,,,
45036145,1004,1004,1004,1004,,,,,
45038644,1005,1005,1005,1005,,,,,
45041143,1006,1006,1006,1006,,,,,
45043642,1006,1006,1006,1006,,,,,
45046141,1007,1007,1007,1007,,,,,
45048640,1008,1008,1008,1008,,,,,
45051139,1009,1009,1009,1009,,,,,
45053638,1009,1009,1009,1009,,,,,
45056137,1010,1010,1010,1010,,,,,
45058636,1011,1011,1011,1011,,,,,
45061135,1012,1012,1012,1012,,,,,
45063634,1012,1012,1012,1012,,,,,
45066133,1013,1013,1013,1013,,,,,
45068632,1014,1014,1014,1014,,,,,
45071131,1015,1015,1015,1015,,,,,
45073630,1015,1015,1015,1015,,,,,
45076129,1016,1016,1016,1016,,,,,
45078628,1017,1017,1017,1017,,,,,
45081127,1018,1018,1018,1018,,,,,
45083626,1018,1018,1018,1018,,,,,
45086125,1019,1019,1019,1019,,,,,
45088624,1020,1020,1020,1020,,,,,
45091123,1021,1021,1021,1021,,,,,
45093622,1021,1021,1021,1021,,,,,
45096121,1022,1022,1022,1022,,,,,
45098620,1023,1023,1023,1023,,,,,
45101119,1024,1024,1024,1024,,,,,
45103618,1024,1024,1024,1024,,,,,
45106117,1025,1025,1025,1025,,,,,
45108616,1026,1026,1026,1026,,,,,
45111115,1027,1027,1027,1027,,,,,
45113614,1027,1027,1027,1027,,,,,
45116113,1028,1028,1028,1028,,,,,
45118612,1029,1029,1029,1029,,,,,
45121111,1030,1030,1030,1030,,,,,
45123610,1030,1030,1030,1030,,,,,
45126109,1031,1031,1031,1031,,,,,
45128608,1032,1032,1032,1032,,,,,
45131107,1033,1033,1033,1033,,,,,
45133606,1033,1033,1033,1033,,,,,
45136105,1034,1034,1034,1034,,,,,
45138604,1035,1035,1035,1035,,,,,
45141103,1036,1036,1036,1036,,,,,
45143602,1036,1036,1036,1036,,,,,
45146101,1037,1037,1037,1037,,,,,
45148600,1038,1038,1038,1038,,,,,
45151099,1039,1039,1039,1039,,,,,
45153598,1039,1039,1039,1039,,,,,
45156097,1040,1040,1040,1040,,,,,
45158596,1041,1041,1041,1041,,,,,
45161095,1042,1042,1042,1042,,,,,
45163594,1042,1042,1042,1042,,,,,
45166093,1043,1043,1043,1043,,,,,
45168592,1044,1044,1044,1044,,,,,
45171091,1045,1045,1045,1045,,,,,
45173590,1045,1045,1045,1045,,,,,
45176089,1046,1046,1046,1046,,,,,
45178588,1047,1047,1047,1047,,,,,
45181087,1048,1048,1048,1048,,,,,
45183586,1048,1048,1048,1048,,,,,
45186085,1049,1049,1049,1049,,,,,
45188584,1050,1050,1050,1050,,,,,
45191083,1051,1051,1051,1051,,,,,
45193582,1051,1051,1051,1051,,,,,
45196081,1052,1052,1052,1052,,,,,
45198580,1053,1053,1053,1053,,,,,
45201079,1054,1054,1054,1054,,,,,
45203578,1054,1054,1054,1054,,,,,
45206077,1055,1055,1055,1055,,,,,
45208576,1056,1056,1056,1056,,,,,
45211075,1057,1057,1057,1057,,,,,
45213574,1057,1057,1057,1057,,,,,
45216073,1058,1058,1058,1058,,,,,
45218572,1059,1059,1059,1059,,,,,
45221071,1060,1060,1060,1060,,,,,
45223570,1060,1060,1060,1060,,,,,
45226069,1061,1061,1061,1061,,,,,
45228568,1062,1062,1062,1062,,,,,
45231067,1063,1063,1063,1063,,,,,
45233566,1063,1063,1063,1063,,,,,
45236065,1064,1064,1064,1064,,,,,
45238564,1065,1065,1065,1065,,,,,
45241063,1066,1066,1066,1066,,,,,
45243562,1066,1066,1066,1066,,,,,
45246061,1067,1067,1067,1067,,,,,
45248560,1068,1068,1068,1068,,,,,
45251059,1069,1069,1069,1069,,,,,
45253558,1069,1069,1069,1069,,,,,
45256057,1070,1070,1070,1070,,,,,
45258556,1071,1071,1071,1071,,,,,
45261055,1072,1072,1072,1072,,,,,
45263554,1072,1072,1072,1072,,,,,
45266053,1073,1073,1073,1073,,,,,
45268552,1074,1074,1074,1074,,,,,
45271051,1075,1075,1075,1075,,,,,
45273550,1075,1075,1075,1075,,,,,
45276049,1076,1076,1076,1076,,,,,
45278548,1077,1077,1077,1077,,,,,
45281047,1078,1078,1078,1078,,,,,
45283546,1078,1078,1078,1078,,,,,
45286045,1079,1079,1079,1079,,,,,
45288544,1080,1080,1080,1080,,,,,
45291043,1081,1081,1081,1081,,,,,
45293542,1081,1081,1081,1081,,,,,
45296041,1082,1082,1082,1082,,,,,
45298540,1083,1083,1083,1083,,,,,
45301039,1084,1084,1084,1084,,,,,
45303538,1084,1084,1084,1084,,,,,
45306037,1085,1085,1085,1085,,,,,
45308536,1086,1086,1086,1086,,,,,
45311035,1087,1087,1087,1087,,,,,
45313534,1087,1087,1087,1087,,,,,
45316033,1088,1088,1088,1088,,,,,
45318532,1089,1089,1089,1089,,,,,
45321031,1090,1090,1090,1090,,,,,
45323530,1090,1090,1090,1090,,,,,
45326029,1091,1091,1091,1091,,,,,
45328528,1092,1092,1092,1092,,,,,
45331027,1093,1093,1093,1093,,,,,
45333526,1093,1093,1093,1093,,,,,
45336025,1094,1094,1094,1094,,,,,
45338524,1095,1095,1095,1095,,,,,
45341023,1096,1096,1096,1096,,,,,
45343522,1096,1096,1096,1096,,,,,
45346021,1097,1097,1097,1097,,,,,
45348520,1098,1098,1098,1098,,,,,
45351019,1099,1099,1099,1099,,,,,
45353518,1099,1099,1099,1099,,,,,
45356017,1100,1100,1100,1100,,,,,
45358516,1101,1101,1101,1101,,,,,
45361015,1101,1101,1101,1101,,,,,
45363514,1102,1102,1102,1102,,,,,
45366013,1103,1103,1103,1103,,,,,
45368512,1104,1104,1104,1104,,,,,
45371011,1104,1104,1104,1104,,,,,
45373510,1105,1105,1105,1105,,,,,
45376009,1106,1106,1106,1106,,,,,
45378508,1107,1107,1107,1107,,,,,
45381007,1107,1107,1107,1107,,,,,
45383506,1108,1108,1108,1108,,,,,
45386005,1109,1109,1109,1109,,,,,
45388504,1110,1110,1110,1110,,,,,
45391003,1110,1110,1110,1110,,,,,
45393502,1111,1111,1111,1111,,,,,
45396001,1112,1112,1112,1112,,,,,
45398500,1113,1113,1113,1113,,,,,
45400999,1113,1113,1113,1113,,,,,
45403498,1114,1114,1114,1114,,,,,
45405997,1115,1115,1115,1115,,,,,
45408496,1116,1116,1116,1116,,,,,
45410995,1116,1116,1116,1116,,,,,
45413494,1117,1117,1117,1117,,,,,
45415993,1118,1118,1118,1118,,,,,
45418492,1119,1119,1119,1119,,,,,
45420991,1119,1119,1119,1119,,,,,
45423490,1120,1120,1120,1120,,,,,
45425989,1121,1121,1121,1121,,,,,
45428488,1122,1122,1122,1122,,,,,
45430987,1122,1122,1122,1122,,,,,
45433486,1123,1123,1123,1123,,,,,
45435985,1124,1124,1124,1124,,,,,
45438484,1125,1125,1125,1125,,,,,
45440983,1125,1125,1125,1125,,,,,
45443482,1126,1126,1126,1126,,,,,
45445981,1127,1127,1127,1127,,,,,
45448480,1128,1128,1128,1128,,,,,
45450979,1128,1128,1128,1128,,,,,
45453478,1129,1129,1129,1129,,,,,
45455977,1130,1130,1130,1130,,,,,
45458476,1131,1131,1131,1131,,,,,
45460975,1131,1131,1131,1131,,,,,
45463474,1132,1132,1132,1132,,,,,
45465973,1133,1133,1133,1133,,,,,
45468472,1134,1134,1134,1134,,,,,
45470971,1134,1134,1134,1134,,,,,
45473470,1135,1135,1135,1135,,,,,
45475969,1136,1136,1136,1136,,,,,
45478468,1137,1137,1137,1137,,,,,
45480967,1137,1137,1137,1137,,,,,
45483466,1138,1138,1138,1138,,,,,
45485965,1139,1139,1139,1139,,,,,
45488464,1140,1140,1140,1140,,,,,
45490963,1140,1140,1140,1140,,,,,
45493462,1141,1141,1141,1141,,,,,
45495961,1142,1142,1142,1142,,,,,
45498460,1143,1143,1143,1143,,,,,
45500959,1143,1143,1143,1143,,,,,
45503458,1144,1144,1144,1144,,,,,
45505957,1145,1145,1145,1145,,,,,
45508456,1146,1146,1146,1146,,,,,
45510955,1146,1146,1146,1146,,,,,
45513454,1147,1147,1147,1147,,,,,
45515953,1148,1148,1148,1148,,,,,
45518452,1149,1149,1149,1149,,,,,
45520951,1149,1149,1149,1149,,,,,
45523450,1150,1150,1150,1150,,,,,
45525949,1161,1153,1154,1162,,,,,
45528448,1169,1162,1162,1170,,,,,
45530947,1177,1170,1170,1178,,,,,
45533446,1185,1177,1178,1185,,,,,
45535945,1192,1185,1186,1193,,,,,
45538444,1200,1193,1193,1200,,,,,
45540943,1207,1200,1201,1208,,,,,
45543442,1214,1207,1208,1215,,,,,
45545941,1221,1214,1215,1222,,,,,
45548440,1228,1222,1222,1229,,,,,
45550939,1235,1229,1229,1236,,,,,
45553438,1242,1235,1236,1243,,,,,
45555937,1249,1242,1243,1249,,,,,
45558436,1255,1249,1249,1256,,,,,
45560935,1262,1255,1256,1262,,,,,
45563434,1268,1262,1263,1269,,,,,
45565933,1275,1268,1269,1275,,,,,
45568432,1281,1275,1275,1282,,,,,
45570931,1287,1281,1282,1288,,,,,
45573430,1293,1287,1288,1294,,,,,
45575929,1299,1293,1294,1300,,,,,
45578428,1305,1299,1300,1306,,,,,
45580927,1311,1305,1306,1312,,,,,
45583426,1317,1311,1312,1318,,,,,
45585925,1323,1317,1318,1324,,,,,
45588424,1329,1323,1324,1329,,,,,
45590923,1335,1329,1329,1335,,,,,
45593422,1340,1335,1335,1341,,,,,
45595921,1346,1340,1341,1346,,,,,
45598420,1351,1346,1346,1352,,,,,
45600919,1357,1351,1352,1357,,,,,
45603418,1362,1357,1357,1363,,,,,
45605917,1368,1362,1363,1368,,,,,
45608416,1373,1368,1368,1374,,,,,
45610915,1378,1373,1373,1379,,,,,
45613414,1384,1378,1379,1384,,,,,
45615913,1389,1384,1384,1389,,,,,
45618412,1394,1389,1389,1394,,,,,
45620911,1399,1394,1394,1400,,,,,
45623410,1404,1399,1399,1405,,,,,
45625909,1409,1404,1405,1410,,,,,
45628408,1414,1409,1410,1415,,,,,
45630907,1419,1414,1415,1420,,,,,
45633406,1424,1419,1420,1425,,,,,
45635905,1429,1424,1424,1430,,,,,
45638404,1434,1429,1429,1434,,,,,
45640903,1439,1434,1434,1439,,,,,
45643402,1444,1439,1439,1444,,,,,
45645901,1448,1443,1444,1449,,,,,
45648400,1453,1448,1449,1454,,,,,
45650899,1458,1453,1453,1458,,,,,
45653398,1463,1458,1458,1463,,,,,
45655897,1467,1462,1463,1468,,,,,
45658396,1472,1467,1467,1472,,,,,
45660895,1476,1472,1472,1477,,,,,
45663394,1481,1476,1477,1481,,,,,
45665893,1485,1481,1481,1486,,,,,
45668392,1490,1485,1486,1490,,,,,
45670891,1494,1490,1490,1495,,,,,
45673390,1499,1494,1495,1499,,,,,
45675889,1503,1499,1499,1504,,,,,
45678388,1508,1503,1503,1508,,,,,
45680887,1512,1507,1508,1512,,,,,
45683386,1516,1512,1512,1517,,,,,
45685885,1521,1516,1516,1521,,,,,
45688384,1525,1520,1521,1525,,,,,
45690883,1529,1525,1525,1530,,,,,
45693382,1534,1529,1529,1534,,,,,
45695881,1538,1533,1533,1538,,,,,
45698380,1542,1537,1538,1542,,,,,
45700879,1546,1542,1542,1547,,,,,
45703378,1550,1546,1546,1551,,,,,
45705877,1554,1550,1550,1555,,,,,
45708376,1559,1554,1554,1559,,,,,
45710875,1563,1558,1558,1563,,,,,
45713374,1567,1562,1562,1567,,,,,
45715873,1571,1566,1567,1571,,,,,
45718372,1575,1570,1571,1575,,,,,
45720871,1579,1574,1575,1579,,,,,
45723370,1583,1578,1579,1583,,,,,
45725869,1587,1582,1583,1587,,,,,
45728368,1591,1586,1587,1591,,,,,
45730867,1595,1590,1591,1595,,,,,
45733366,1599,1594,1594,1599,,,,,
45735865,1603,1598,1598,1603,,,,,
45738364,1607,1602,1602,1607,,,,,
45740863,1610,1606,1606,1611,,,,,
45743362,1614,1610,1610,1615,,,,,
45745861,1618,1614,1614,1618,,,,,
45748360,1622,1617,1618,1622,,,,,
45750859,1626,1621,1622,1626,,,,,
45753358,1629,1625,1625,1630,,,,,
45755857,1633,1629,1629,1634,,,,,
45758356,1637,1633,1633,1637,,,,,
45760855,1641,1636,1637,1641,,,,,
45763354,1644,1640,1640,1645,,,,,
45765853,1648,1644,1644,1648,,,,,
45768352,1652,1647,1648,1652,,,,,
45770851,1656,1651,1652,1656,,,,,
45773350,1659,1655,1655,1659,,,,,
45775849,1663,1659,1659,1663,,,,,
45778348,1666,1662,1662,1667,,,,,
45780847,1670,1666,1666,1670,,,,,
45783346,1674,1669,1670,1674,,,,,
45785845,1677,1673,1673,1678,,,,,
45788344,1681,1677,1677,1681,,,,,
45790843,1684,1680,1681,1685,,,,,
45793342,1688,1684,1684,1688,,,,,
45795841,1691,1687,1688,1692,,,,,
45798340,1695,1691,1691,1695,,,,,
45800839,1698,1694,1695,1699,,,,,
45803338,1702,1698,1698,1702,,,,,
45805837,1705,1701,1702,1706,,,,,
45808336,1709,1705,1705,1709,,,,,
45810835,1712,1708,1709,1713,,,,,
45813334,1716,1712,1712,1716,,,,,
45815833,1719,1715,1715,1720,,,,,
45818332,1723,1719,1719,1723,,,,,
45820831,1726,1722,1722,1726,,,,,
45823330,1729,1725,1726,1730,,,,,
45825829,1733,1729,1729,1733,,,,,
45828328,1736,1732,1732,1737,,,,,
45830827,1740,1735,1736,1740,,,,,
45833326,1743,1739,1739,1743,,,,,
45835825,1746,1742,1743,1747,,,,,
45838324,1750,1745,1746,1750,,,,,
45840823,1753,1749,1749,1753,,,,,
45843322,1756,1752,1752,1757,,,,,
45845821,1760,1755,1756,1760,,,,,
45848320,1763,1759,1759,1763,,,,,
45850819,1766,1762,1762,1766,,,,,
45853318,1769,1765,1766,1770,,,,,
45855817,1773,1768,1769,1773,,,,,
45858316,1776,1772,1772,1776,,,,,
45860815,1779,1775,1775,1779,,,,,
45863314,1782,1778,1779,1783,,,,,
45865813,1786,1781,1782,1786,,,,,
45868312,1789,1785,1785,1789,,,,,
45870811,1792,1788,1788,1792,,,,,
45873310,1795,1791,1791,1795,,,,,
45875809,1799,1794,1795,1798,,,,,
45878308,1802,1797,1798,1802,,,,,
45880807,1805,1800,1801,1805,,,,,
45883306,1808,1803,1804,1808,,,,,
45885805,1811,1807,1807,1811,,,,,
45888304,1814,1810,1810,1814,,,,,
45890803,1817,1813,1814,1817,,,,,
45893302,1821,1816,1817,1820,,,,,
45895801,1824,1819,1820,1823,,,,,
45898300,1827,1822,1823,1827,,,,,
45900799,1830,1825,1826,1830,,,,,
45903298,1833,1828,1829,1833,,,,,
45905797,1836,1831,1832,1836,,,,,
45908296,1839,1834,1835,1839,,,,,
45910795,1842,1837,1838,1842,,,,,
45913294,1845,1840,1841,1845,,,,,
45915793,1848,1843,1844,1848,,,,,
45918292,1851,1846,1847,1851,,,,,
45920791,1854,1849,1850,1854,,,,,
45923290,1857,1852,1853,1857,,,,,
45925789,1860,1856,1856,1860,,,,,
45928288,1863,1859,1859,1863,,,,,
45930787,1866,1861,1862,1866,,,,,
45933286,1869,1864,1865,1869,,,,,
45935785,1872,1867,1868,1872,,,,,
45938284,1875,1870,1871,1875,,,,,
45940783,1878,1873,1874,1878,,,,,
45943282,1881,1876,1877,1881,,,,,
45945781,1884,1879,1880,1884,,,,,
45948280,1887,1882,1883,1887,,,,,
45950779,1890,1885,1886,1890,,,,,
45953278,1893,1888,1889,1892,,,,,
45955777,1895,1892,1892,1895,,,,,
45958276,1898,1895,1895,1898,,,,,
45960775,1900,1898,1898,1901,,,,,
45963274,1903,1901,1901,1904,,,,,
45965773,1906,1904,1904,1906,,,,,
45968272,1909,1907,1907,1909,,,,,
45970771,1911,1908,1908,1911,,,,,
45973270,1910,1907,1907,1910,,,,,
45975769,1909,1906,1906,1909,,,,,
45978268,1907,1905,1905,1908,,,,,
45980767,1906,1904,1904,1907,,,,,
45983266,1905,1903,1903,1906,,,,,
45985765,1904,1901,1902,1905,,,,,
45988264,1903,1900,1900,1904,,,,,
45990763,1902,1900,1900,1903,,,,,
45993262,1902,1899,1899,1902,,,,,
45995761,1901,1898,1898,1901,,,,,
45998260,1900,1897,1897,1901,,,,,
46000759,1900,1897,1896,1900,,,,,
46003258,1899,1896,1896,1900,,,,,
46005757,1899,1896,1895,1900,,,,,
46008256,1898,1895,1895,1899,,,,,
46010755,1898,1895,1895,1899,,,,,
46013254,1898,1895,1895,1899,,,,,
46015753,1898,1895,1895,1899,,,,,
46018252,1898,1895,1894,1899,,,,,
46020751,1898,1895,1894,1899,,,,,
46023250,1898,1895,1894,1899,,,,,
46025749,1897,1895,1894,1898,,,,,
46028248,1897,1894,1894,1898,,,,,
46030747,1897,1894,1894,1898,,,,,
46033246,1896,1894,1893,1897,,,,,
46035745,1896,1893,1893,1897,,,,,
46038244,1895,1892,1892,1896,,,,,
46040743,1894,1892,1891,1895,,,,,
46043242,1893,1891,1890,1894,,,,,
46045741,1892,1890,1889,1893,,,,,
46048240,1890,1888,1887,1892,,,,,
46050739,1889,1887,1886,1890,,,,,
46053238,1887,1885,1884,1889,,,,,
46055737,1885,1883,1882,1887,,,,,
46058236,1883,1881,1880,1885,,,,,
46060735,1881,1880,1878,1883,,,,,
46063234,1879,1877,1876,1881,,,,,
46065733,1877,1875,1874,1879,,,,,
46068232,1875,1873,1872,1876,,,,,
46070731,1872,1870,1869,1874,,,,,
46073230,1870,1868,1867,1872,,,,,
46075729,1867,1865,1864,1869,,,,,
46078228,1864,1863,1861,1866,,,,,
46080727,1862,1860,1859,1863,,,,,
46083226,1859,1857,1856,1861,,,,,
46085725,1856,1854,1853,1858,,,,,
46088224,1853,1851,1850,1855,,,,,
46090723,1850,1848,1847,1851,,,,,
46093222,1846,1845,1844,1848,,,,,
46095721,1843,1842,1840,1845,,,,,
46098220,1840,1838,1837,1842,,,,,
46100719,1837,1835,1834,1839,,,,,
46103218,1833,1832,1830,1835,,,,,
46105717,1830,1829,1827,1832,,,,,
46108216,1827,1825,1824,1829,,,,,
46110715,1823,1822,1820,1825,,,,,
46113214,1820,1818,1817,1822,,,,,
46115713,1816,1815,1814,1818,,,,,
46118212,1813,1812,1810,1815,,,,,
46120711,1809,1808,1807,1812,,,,,
46123210,1806,1805,1803,1808,,,,,
46125709,1803,1801,1800,1805,,,,,
46128208,1799,1798,1796,1801,,,,,
46130707,1796,1795,1793,1798,,,,,
46133206,1792,1791,1790,1794,,,,,
46135705,1789,1788,1786,1791,,,,,
46138204,1785,1784,1783,1787,,,,,
46140703,1782,1781,1780,1784,,,,,
46143202,1778,1778,1776,1781,,,,,
46145701,1775,1774,1773,1777,,,,,
46148200,1772,1771,1769,1774,,,,,
46150699,1768,1768,1766,1771,,,,,
46153198,1765,1764,1763,1767,,,,,
46155697,1762,1761,1760,1764,,,,,
46158196,1758,1758,1756,1761,,,,,
46160695,1755,1755,1753,1757,,,,,
46163194,1752,1751,1750,1754,,,,,
46165693,1748,1748,1747,1751,,,,,
46168192,1745,1745,1743,1748,,,,,
46170691,1742,1742,1740,1744,,,,,
46173190,1739,1739,1737,1741,,,,,
46175689,1736,1736,1734,1738,,,,,
46178188,1732,1732,1731,1735,,,,,
46180687,1729,1729,1728,1732,,,,,
46183186,1726,1726,1725,1729,,,,,
46185685,1723,1723,1722,1726,,,,,
46188184,1720,1720,1719,1723,,,,,
46190683,1717,1717,1716,1720,,,,,
46193182,1714,1715,1713,1717,,,,,
46195681,1711,1712,1710,1714,,,,,
46198180,1709,1709,1707,1711,,,,,
46200679,1706,1706,1705,1708,,,,,
46203178,1703,1703,1702,1705,,,,,
46205677,1700,1701,1699,1703,,,,,
46208176,1698,1698,1696,1700,,,,,
46210675,1695,1696,1694,1698,,,,,
