timestamp,TimeUS,C1,C2,C3,C4,C5,C6,C7,C8,C9,C10,C11,C12,C13,C14
1683170588.40000010,42228935,1000,1000,1000,1000,0,0,0,0,0,0,0,0,0,0
1683170588.49996018,42328895,1000,1000,1000,1000,0,0,0,0,0,0,0,0,0,0
1683170588.59992003,42428855,1000,1000,1000,1000,0,0,0,0,0,0,0,0,0,0
1683170588.69988012,42528815,1000,1000,1000,1000,0,0,0,0,0,0,0,0,0,0
1683170588.79983997,42628775,1000,1000,1000,1000,0,0,0,0,0,0,0,0,0,0
1683170588.89980006,42728735,1000,1000,1000,1000,0,0,0,0,0,0,0,0,0,0
1683170588.99976015,42828695,1000,1000,1000,1000,0,0,0,0,0,0,0,0,0,0
1683170589.09972000,42928655,1000,1000,1000,1000,0,0,0,0,0,0,0,0,0,0
1683170589.19968009,43028615,1000,1000,1000,1000,0,0,0,0,0,0,0,0,0,0
1683170589.29964018,43128575,1000,1000,1000,1000,0,0,0,0,0,0,0,0,0,0
1683170589.39960003,43228535,1000,1000,1000,1000,0,0,0,0,0,0,0,0,0,0
1683170589.49956012,43328495,1000,1000,1000,1000,0,0,0,0,0,0,0,0,0,0
1683170589.59952021,43428455,1000,1000,1000,1000,0,0,0,0,0,0,0,0,0,0
1683170589.69948006,43528415,1000,1000,1000,1000,0,0,0,0,0,0,0,0,0,0
1683170589.79944015,43628375,1000,1000,1000,1000,0,0,0,0,0,0,0,0,0,0
1683170589.89940000,43728335,1000,1000,1000,1000,0,0,0,0,0,0,0,0,0,0
1683170589.99936008,43828295,1000,1000,1000,1000,0,0,0,0,0,0,0,0,0,0
1683170590.09932017,43928255,1000,1000,1000,1000,0,0,0,0,0,0,0,0,0,0
1683170590.19928002,44028215,1000,1000,1000,1000,0,0,0,0,0,0,0,0,0,0
1683170590.29924011,44128175,1000,1000,1000,1000,0,0,0,0,0,0,0,0,0,0
1683170590.40003300,44228968,1022,1022,1022,1022,0,0,0,0,0,0,0,0,0,0
1683170590.49999309,44328928,1052,1052,1052,1052,0,0,0,0,0,0,0,0,0,0
1683170590.59995317,44428888,1082,1082,1082,1082,0,0,0,0,0,0,0,0,0,0
1683170590.69991302,44528848,1112,1112,1112,1112,0,0,0,0,0,0,0,0,0,0
1683170590.79987311,44628808,1142,1142,1142,1142,0,0,0,0,0,0,0,0,0,0
1683170590.89983320,44728768,1346,1340,1340,1347,0,0,0,0,0,0,0,0,0,0
1683170590.99979305,44828728,1538,1533,1533,1538,0,0,0,0,0,0,0,0,0,0
1683170591.09975314,44928688,1692,1687,1687,1692,0,0,0,0,0,0,0,0,0,0
1683170591.19971299,45028648,1823,1819,1819,1824,0,0,0,0,0,0,0,0,0,0
1683170591.29967308,45128608,1866,1862,1861,1867,0,0,0,0,0,0,0,0,0,0
1683170591.39963317,45228568,1834,1832,1832,1834,0,0,0,0,0,0,0,0,0,0
1683170591.49959302,45328528,1702,1702,1702,1702,0,0,0,0,0,0,0,0,0,0
1683170591.59955311,45428488,1624,1626,1626,1625,0,0,0,0,0,0,0,0,0,0
1683170591.69951320,45528448,1611,1613,1613,1612,0,0,0,0,0,0,0,0,0,0
1683170591.79947305,45628408,1624,1626,1626,1624,0,0,0,0,0,0,0,0,0,0
1683170591.89943314,45728368,1633,1634,1634,1633,0,0,0,0,0,0,0,0,0,0
1683170591.99939299,45828328,1632,1632,1632,1633,0,0,0,0,0,0,0,0,0,0
1683170592.09935308,45928288,1625,1625,1624,1625,0,0,0,0,0,0,0,0,0,0
1683170592.19931316,46028248,1618,1619,1618,1618,0,0,0,0,0,0,0,0,0,0
1683170592.29927301,46128208,1601,1600,1593,1608,0,0,0,0,0,0,0,0,0,0
1683170592.39923310,46228168,1597,1596,1589,1604,0,0,0,0,0,0,0,0,0,0
1683170592.50002599,46328961,1598,1597,1593,1600,0,0,0,0,0,0,0,0,0,0
1683170592.59998608,46428921,1602,1602,1602,1601,0,0,0,0,0,0,0,0,0,0
1683170592.69994617,46528881,1607,1607,1610,1604,0,0,0,0,0,0,0,0,0,0
1683170592.79990602,46628841,1614,1615,1619,1611,0,0,0,0,0,0,0,0,0,0
1683170592.89986610,46728801,1583,1584,1600,1568,0,0,0,0,0,0,0,0,0,0
1683170592.99982619,46828761,1571,1571,1585,1557,0,0,0,0,0,0,0,0,0,0
1683170593.09978604,46928721,1561,1561,1564,1558,0,0,0,0,0,0,0,0,0,0
1683170593.19974613,47028681,1550,1549,1542,1558,0,0,0,0,0,0,0,0,0,0
1683170593.29970598,47128641,1542,1541,1530,1554,0,0,0,0,0,0,0,0,0,0
1683170593.39966607,47228601,1534,1534,1523,1544,0,0,0,0,0,0,0,0,0,0
1683170593.49962616,47328561,1530,1530,1523,1536,0,0,0,0,0,0,0,0,0,0
1683170593.59958601,47428521,1528,1529,1527,1530,0,0,0,0,0,0,0,0,0,0
1683170593.69954610,47528481,1530,1530,1531,1529,0,0,0,0,0,0,0,0,0,0
1683170593.79950619,47628441,1531,1531,1534,1528,0,0,0,0,0,0,0,0,0,0
1683170593.89946604,47728401,1536,1535,1539,1531,0,0,0,0,0,0,0,0,0,0
1683170593.99942613,47828361,1539,1539,1543,1535,0,0,0,0,0,0,0,0,0,0
1683170594.09938598,47928321,1542,1543,1544,1540,0,0,0,0,0,0,0,0,0,0
1683170594.19934607,48028281,1545,1545,1546,1544,0,0,0,0,0,0,0,0,0,0
1683170594.29930615,48128241,1548,1549,1548,1549,0,0,0,0,0,0,0,0,0,0
1683170594.39926600,48228201,1551,1551,1549,1553,0,0,0,0,0,0,0,0,0,0
1683170594.49922609,48328161,1550,1549,1555,1559,0,0,0,0,0,0,0,0,0,0
1683170594.60001898,48428954,1549,1549,1561,1564,0,0,0,0,0,0,0,0,0,0
1683170594.69997907,48528914,1552,1553,1563,1564,0,0,0,0,0,0,0,0,0,0
1683170594.79993916,48628874,1556,1557,1563,1563,0,0,0,0,0,0,0,0,0,0
1683170594.89989901,48728834,1562,1562,1565,1564,0,0,0,0,0,0,0,0,0,0
1683170594.99985909,48828794,1566,1566,1564,1563,0,0,0,0,0,0,0,0,0,0
1683170595.09981918,48928754,1569,1568,1564,1563,0,0,0,0,0,0,0,0,0,0
1683170595.19977903,49028714,1571,1570,1564,1564,0,0,0,0,0,0,0,0,0,0
1683170595.29973912,49128674,1572,1572,1564,1564,0,0,0,0,0,0,0,0,0,0
1683170595.39969921,49228634,1573,1572,1565,1565,0,0,0,0,0,0,0,0,0,0
1683170595.49965906,49328594,1574,1573,1567,1567,0,0,0,0,0,0,0,0,0,0
1683170595.59961915,49428554,1573,1574,1568,1569,0,0,0,0,0,0,0,0,0,0
1683170595.69957900,49528514,1574,1574,1570,1571,0,0,0,0,0,0,0,0,0,0
1683170595.79953909,49628474,1574,1574,1572,1572,0,0,0,0,0,0,0,0,0,0
1683170595.89949918,49728434,1574,1574,1574,1573,0,0,0,0,0,0,0,0,0,0
1683170595.99945903,49828394,1573,1573,1576,1574,0,0,0,0,0,0,0,0,0,0
1683170596.09941912,49928354,1574,1574,1578,1576,0,0,0,0,0,0,0,0,0,0
1683170596.19937921,50028314,1573,1574,1577,1576,0,0,0,0,0,0,0,0,0,0
1683170596.29933906,50128274,1575,1575,1578,1577,0,0,0,0,0,0,0,0,0,0
1683170596.39929914,50228234,1575,1575,1578,1578,0,0,0,0,0,0,0,0,0,0
1683170596.49925900,50328194,1576,1576,1578,1579,0,0,0,0,0,0,0,0,0,0
1683170596.59921908,50428154,1576,1576,1577,1578,0,0,0,0,0,0,0,0,0,0
1683170596.70001221,50528947,1576,1576,1577,1577,0,0,0,0,0,0,0,0,0,0
1683170596.79997206,50628907,1576,1577,1577,1576,0,0,0,0,0,0,0,0,0,0
1683170596.89993215,50728867,1577,1576,1576,1576,0,0,0,0,0,0,0,0,0,0
1683170596.99989200,50828827,1577,1577,1576,1576,0,0,0,0,0,0,0,0,0,0
1683170597.09985209,50928787,1577,1577,1576,1576,0,0,0,0,0,0,0,0,0,0
1683170597.19981217,51028747,1578,1577,1576,1576,0,0,0,0,0,0,0,0,0,0
1683170597.29977202,51128707,1577,1577,1576,1576,0,0,0,0,0,0,0,0,0,0
1683170597.39973211,51228667,1578,1578,1576,1576,0,0,0,0,0,0,0,0,0,0
1683170597.49969220,51328627,1579,1578,1578,1577,0,0,0,0,0,0,0,0,0,0
1683170597.59965205,51428587,1579,1579,1579,1578,0,0,0,0,0,0,0,0,0,0
1683170597.69961214,51528547,1578,1578,1578,1578,0,0,0,0,0,0,0,0,0,0
1683170597.79957199,51628507,1578,1579,1579,1579,0,0,0,0,0,0,0,0,0,0
1683170597.89953208,51728467,1579,1579,1579,1579,0,0,0,0,0,0,0,0,0,0
1683170597.99949217,51828427,1579,1578,1579,1579,0,0,0,0,0,0,0,0,0,0
1683170598.09945202,51928387,1578,1578,1579,1579,0,0,0,0,0,0,0,0,0,0
1683170598.19941211,52028347,1578,1578,1579,1579,0,0,0,0,0,0,0,0,0,0
1683170598.29937220,52128307,1579,1578,1579,1579,0,0,0,0,0,0,0,0,0,0
1683170598.39933205,52228267,1580,1580,1580,1580,0,0,0,0,0,0,0,0,0,0
1683170598.49929214,52328227,1579,1579,1580,1579,0,0,0,0,0,0,0,0,0,0
1683170598.59925199,52428187,1579,1580,1580,1580,0,0,0,0,0,0,0,0,0,0
1683170598.70004511,52528980,1580,1580,1580,1580,0,0,0,0,0,0,0,0,0,0
1683170598.80000520,52628940,1580,1580,1580,1580,0,0,0,0,0,0,0,0,0,0
1683170598.89996505,52728900,1580,1579,1579,1580,0,0,0,0,0,0,0,0,0,0
1683170598.99992514,52828860,1580,1580,1580,1579,0,0,0,0,0,0,0,0,0,0
1683170599.09988499,52928820,1581,1581,1581,1581,0,0,0,0,0,0,0,0,0,0
1683170599.19984508,53028780,1581,1581,1580,1581,0,0,0,0,0,0,0,0,0,0
1683170599.29980516,53128740,1581,1580,1580,1581,0,0,0,0,0,0,0,0,0,0
1683170599.39976501,53228700,1580,1580,1581,1580,0,0,0,0,0,0,0,0,0,0
1683170599.49972510,53328660,1581,1581,1581,1581,0,0,0,0,0,0,0,0,0,0
1683170599.59968519,53428620,1581,1581,1581,1581,0,0,0,0,0,0,0,0,0,0
1683170599.69964504,53528580,1581,1581,1581,1581,0,0,0,0,0,0,0,0,0,0
1683170599.79960513,53628540,1581,1581,1581,1581,0,0,0,0,0,0,0,0,0,0
1683170599.89956498,53728500,1581,1581,1581,1581,0,0,0,0,0,0,0,0,0,0
1683170599.99952507,53828460,1581,1581,1581,1581,0,0,0,0,0,0,0,0,0,0
1683170600.09948516,53928420,1581,1582,1581,1581,0,0,0,0,0,0,0,0,0,0
1683170600.19944501,54028380,1582,1582,1582,1582,0,0,0,0,0,0,0,0,0,0
1683170600.29940510,54128340,1582,1582,1582,1582,0,0,0,0,0,0,0,0,0,0
1683170600.39936519,54228300,1582,1581,1581,1582,0,0,0,0,0,0,0,0,0,0
1683170600.49932504,54328260,1582,1582,1582,1582,0,0,0,0,0,0,0,0,0,0
1683170600.59928513,54428220,1581,1581,1581,1581,0,0,0,0,0,0,0,0,0,0
1683170600.69924498,54528180,1580,1580,1581,1580,0,0,0,0,0,0,0,0,0,0
1683170600.80003810,54628973,1581,1582,1588,1574,0,0,0,0,0,0,0,0,0,0
1683170600.89999819,54728933,1580,1583,1585,1573,0,0,0,0,0,0,0,0,0,0
1683170600.99995804,54828893,1578,1581,1576,1573,0,0,0,0,0,0,0,0,0,0
1683170601.09991813,54928853,1578,1580,1568,1572,0,0,0,0,0,0,0,0,0,0
1683170601.19987798,55028813,1578,1580,1562,1569,0,0,0,0,0,0,0,0,0,0
1683170601.29983807,55128773,1578,1578,1557,1563,0,0,0,0,0,0,0,0,0,0
1683170601.39979815,55228733,1578,1578,1556,1559,0,0,0,0,0,0,0,0,0,0
1683170601.49975801,55328693,1579,1577,1555,1556,0,0,0,0,0,0,0,0,0,0
1683170601.59971809,55428653,1579,1578,1556,1555,0,0,0,0,0,0,0,0,0,0
1683170601.69967818,55528613,1578,1577,1557,1554,0,0,0,0,0,0,0,0,0,0
1683170601.79963803,55628573,1576,1577,1556,1554,0,0,0,0,0,0,0,0,0,0
1683170601.89959812,55728533,1576,1577,1556,1555,0,0,0,0,0,0,0,0,0,0
1683170601.99955821,55828493,1575,1577,1555,1554,0,0,0,0,0,0,0,0,0,0
1683170602.09951806,55928453,1574,1576,1553,1553,0,0,0,0,0,0,0,0,0,0
1683170602.19947815,56028413,1575,1577,1552,1552,0,0,0,0,0,0,0,0,0,0
1683170602.29943800,56128373,1577,1578,1550,1550,0,0,0,0,0,0,0,0,0,0
1683170602.39939809,56228333,1578,1579,1548,1547,0,0,0,0,0,0,0,0,0,0
1683170602.49935818,56328293,1581,1582,1546,1546,0,0,0,0,0,0,0,0,0,0
1683170602.59931803,56428253,1583,1584,1543,1542,0,0,0,0,0,0,0,0,0,0
1683170602.69927812,56528213,1587,1587,1540,1540,0,0,0,0,0,0,0,0,0,0
1683170602.79923820,56628173,1590,1591,1538,1538,0,0,0,0,0,0,0,0,0,0
1683170602.90003109,56728966,1593,1593,1535,1536,0,0,0,0,0,0,0,0,0,0
1683170602.99999118,56828926,1595,1595,1535,1536,0,0,0,0,0,0,0,0,0,0
1683170603.09995103,56928886,1595,1594,1535,1535,0,0,0,0,0,0,0,0,0,0
1683170603.19991112,57028846,1594,1594,1536,1538,0,0,0,0,0,0,0,0,0,0
1683170603.29987121,57128806,1592,1592,1539,1541,0,0,0,0,0,0,0,0,0,0
1683170603.39983106,57228766,1589,1588,1544,1547,0,0,0,0,0,0,0,0,0,0
1683170603.49979115,57328726,1584,1581,1551,1554,0,0,0,0,0,0,0,0,0,0
1683170603.59975100,57428686,1577,1573,1562,1564,0,0,0,0,0,0,0,0,0,0
1683170603.69971108,57528646,1566,1561,1571,1574,0,0,0,0,0,0,0,0,0,0
1683170603.79967117,57628606,1554,1551,1584,1586,0,0,0,0,0,0,0,0,0,0
1683170603.89963102,57728566,1544,1542,1596,1596,0,0,0,0,0,0,0,0,0,0
1683170603.99959111,57828526,1534,1534,1605,1604,0,0,0,0,0,0,0,0,0,0
1683170604.09955120,57928486,1531,1531,1612,1611,0,0,0,0,0,0,0,0,0,0
1683170604.19951105,58028446,1529,1530,1615,1614,0,0,0,0,0,0,0,0,0,0
1683170604.29947114,58128406,1532,1533,1614,1613,0,0,0,0,0,0,0,0,0,0
1683170604.39943099,58228366,1536,1539,1611,1610,0,0,0,0,0,0,0,0,0,0
1683170604.49939108,58328326,1544,1546,1605,1605,0,0,0,0,0,0,0,0,0,0
1683170604.59935117,58428286,1553,1554,1598,1598,0,0,0,0,0,0,0,0,0,0
1683170604.69931102,58528246,1561,1562,1590,1590,0,0,0,0,0,0,0,0,0,0
1683170604.79927111,58628206,1569,1569,1582,1582,0,0,0,0,0,0,0,0,0,0
1683170604.89923120,58728166,1577,1577,1577,1577,0,0,0,0,0,0,0,0,0,0
1683170605.00002408,58828959,1582,1580,1571,1570,0,0,0,0,0,0,0,0,0,0
1683170605.09998417,58928919,1587,1585,1569,1568,0,0,0,0,0,0,0,0,0,0
1683170605.19994402,59028879,1588,1586,1566,1566,0,0,0,0,0,0,0,0,0,0
1683170605.29990411,59128839,1588,1586,1566,1567,0,0,0,0,0,0,0,0,0,0
1683170605.39986420,59228799,1586,1585,1567,1568,0,0,0,0,0,0,0,0,0,0
1683170605.49982405,59328759,1584,1583,1570,1571,0,0,0,0,0,0,0,0,0,0
1683170605.59978414,59428719,1581,1581,1573,1573,0,0,0,0,0,0,0,0,0,0
1683170605.69974399,59528679,1578,1578,1576,1576,0,0,0,0,0,0,0,0,0,0
1683170605.79970407,59628639,1575,1576,1579,1578,0,0,0,0,0,0,0,0,0,0
1683170605.89966416,59728599,1574,1574,1581,1581,0,0,0,0,0,0,0,0,0,0
1683170605.99962401,59828559,1572,1573,1583,1582,0,0,0,0,0,0,0,0,0,0
1683170606.09958410,59928519,1571,1572,1583,1583,0,0,0,0,0,0,0,0,0,0
1683170606.19954419,60028479,1573,1574,1584,1584,0,0,0,0,0,0,0,0,0,0
1683170606.29950404,60128439,1574,1574,1584,1584,0,0,0,0,0,0,0,0,0,0
1683170606.39946413,60228399,1575,1575,1583,1583,0,0,0,0,0,0,0,0,0,0
1683170606.49942398,60328359,1575,1576,1581,1581,0,0,0,0,0,0,0,0,0,0
1683170606.59938407,60428319,1277,1279,1620,1625,0,0,0,0,0,0,0,0,0,0
1683170606.69934416,60528279,1373,1380,1655,1662,0,0,0,0,0,0,0,0,0,0
1683170606.79930401,60628239,1444,1455,1647,1645,0,0,0,0,0,0,0,0,0,0
1683170606.89926410,60728199,1506,1515,1635,1626,0,0,0,0,0,0,0,0,0,0
1683170606.99922419,60828159,1554,1556,1625,1614,0,0,0,0,0,0,0,0,0,0
1683170607.10001707,60928952,1596,1583,1616,1606,0,0,0,0,0,0,0,0,0,0
1683170607.19997716,61028912,1600,1581,1548,1549,0,0,0,0,0,0,0,0,0,0
1683170607.29993701,61128872,1600,1585,1482,1497,0,0,0,0,0,0,0,0,0,0
1683170607.39989710,61228832,1600,1596,1482,1498,0,0,0,0,0,0,0,0,0,0
1683170607.49985719,61328792,1594,1600,1500,1507,0,0,0,0,0,0,0,0,0,0
1683170607.59981704,61428752,1590,1600,1519,1518,0,0,0,0,0,0,0,0,0,0
1683170607.69977713,61528712,1591,1600,1539,1534,0,0,0,0,0,0,0,0,0,0
1683170607.79973698,61628672,1595,1600,1556,1550,0,0,0,0,0,0,0,0,0,0
1683170607.89969707,61728632,1600,1599,1566,1564,0,0,0,0,0,0,0,0,0,0
1683170607.99965715,61828592,1600,1596,1569,1569,0,0,0,0,0,0,0,0,0,0
1683170608.09961700,61928552,1600,1595,1572,1574,0,0,0,0,0,0,0,0,0,0
1683170608.19957709,62028512,1600,1597,1575,1578,0,0,0,0,0,0,0,0,0,0
1683170608.29953718,62128472,1600,1595,1582,1576,0,0,0,0,0,0,0,0,0,0
1683170608.39949703,62228432,1600,1594,1586,1582,0,0,0,0,0,0,0,0,0,0
1683170608.49945712,62328392,1600,1595,1586,1586,0,0,0,0,0,0,0,0,0,0
1683170608.59941721,62428352,1600,1597,1587,1588,0,0,0,0,0,0,0,0,0,0
1683170608.69937706,62528312,1600,1599,1589,1589,0,0,0,0,0,0,0,0,0,0
1683170608.79933715,62628272,1600,1599,1587,1589,0,0,0,0,0,0,0,0,0,0
1683170608.89929700,62728232,1598,1600,1584,1590,0,0,0,0,0,0,0,0,0,0
1683170608.99925709,62828192,1595,1600,1581,1585,0,0,0,0,0,0,0,0,0,0
1683170609.10005021,62928985,1593,1600,1582,1582,0,0,0,0,0,0,0,0,0,0
1683170609.20001006,63028945,1594,1600,1584,1581,0,0,0,0,0,0,0,0,0,0
1683170609.29997015,63128905,1596,1600,1587,1582,0,0,0,0,0,0,0,0,0,0
1683170609.39993000,63228865,1599,1600,1588,1584,0,0,0,0,0,0,0,0,0,0
1683170609.49989009,63328825,1600,1599,1587,1585,0,0,0,0,0,0,0,0,0,0
1683170609.59985018,63428785,1600,1599,1585,1586,0,0,0,0,0,0,0,0,0,0
1683170609.69981003,63528745,1596,1600,1579,1584,0,0,0,0,0,0,0,0,0,0
1683170609.79977012,63628705,1600,1597,1587,1578,0,0,0,0,0,0,0,0,0,0
1683170609.89973021,63728665,1600,1592,1584,1577,0,0,0,0,0,0,0,0,0,0
1683170609.99969006,63828625,1600,1591,1582,1579,0,0,0,0,0,0,0,0,0,0
1683170610.09965014,63928585,1600,1592,1580,1581,0,0,0,0,0,0,0,0,0,0
1683170610.19960999,64028545,1594,1589,1572,1576,0,0,0,0,0,0,0,0,0,0
1683170610.29957008,64128505,1587,1587,1564,1568,0,0,0,0,0,0,0,0,0,0
1683170610.39953017,64228465,1581,1584,1560,1562,0,0,0,0,0,0,0,0,0,0
1683170610.49949002,64328425,1577,1581,1557,1555,0,0,0,0,0,0,0,0,0,0
1683170610.59945011,64428385,1573,1576,1554,1550,0,0,0,0,0,0,0,0,0,0
1683170610.69941020,64528345,1571,1573,1550,1546,0,0,0,0,0,0,0,0,0,0
1683170610.79937005,64628305,1570,1570,1548,1544,0,0,0,0,0,0,0,0,0,0
1683170610.89933014,64728265,1569,1568,1546,1544,0,0,0,0,0,0,0,0,0,0
1683170610.99928999,64828225,1569,1567,1546,1545,0,0,0,0,0,0,0,0,0,0
1683170611.09925008,64928185,1568,1567,1545,1546,0,0,0,0,0,0,0,0,0,0
1683170611.20004320,65028978,1568,1568,1546,1548,0,0,0,0,0,0,0,0,0,0
1683170611.30000305,65128938,1566,1568,1545,1547,0,0,0,0,0,0,0,0,0,0
1683170611.39996314,65228898,1566,1569,1547,1548,0,0,0,0,0,0,0,0,0,0
1683170611.49992299,65328858,1567,1570,1548,1549,0,0,0,0,0,0,0,0,0,0
1683170611.59988308,65428818,1568,1571,1549,1550,0,0,0,0,0,0,0,0,0,0
1683170611.69984317,65528778,1568,1571,1550,1551,0,0,0,0,0,0,0,0,0,0
1683170611.79980302,65628738,1569,1572,1550,1551,0,0,0,0,0,0,0,0,0,0
1683170611.89976311,65728698,1570,1572,1550,1551,0,0,0,0,0,0,0,0,0,0
1683170611.99972320,65828658,1572,1574,1553,1553,0,0,0,0,0,0,0,0,0,0
1683170612.09968305,65928618,1573,1575,1554,1554,0,0,0,0,0,0,0,0,0,0
1683170612.19964314,66028578,1575,1576,1553,1555,0,0,0,0,0,0,0,0,0,0
1683170612.29960299,66128538,1576,1577,1555,1555,0,0,0,0,0,0,0,0,0,0
1683170612.39956307,66228498,1578,1579,1556,1556,0,0,0,0,0,0,0,0,0,0
1683170612.49952316,66328458,1580,1579,1556,1557,0,0,0,0,0,0,0,0,0,0
1683170612.59948301,66428418,1581,1581,1556,1558,0,0,0,0,0,0,0,0,0,0
1683170612.69944310,66528378,1583,1583,1558,1559,0,0,0,0,0,0,0,0,0,0
1683170612.79940319,66628338,1583,1583,1558,1559,0,0,0,0,0,0,0,0,0,0
1683170612.89936304,66728298,1585,1584,1560,1561,0,0,0,0,0,0,0,0,0,0
1683170612.99932313,66828258,1585,1585,1561,1561,0,0,0,0,0,0,0,0,0,0
1683170613.09928298,66928218,1586,1586,1562,1562,0,0,0,0,0,0,0,0,0,0
1683170613.19924307,67028178,1587,1587,1564,1565,0,0,0,0,0,0,0,0,0,0
1683170613.30003619,67128971,1588,1587,1566,1566,0,0,0,0,0,0,0,0,0,0
1683170613.39999604,67228931,1588,1587,1566,1567,0,0,0,0,0,0,0,0,0,0
1683170613.49995613,67328891,1589,1588,1568,1568,0,0,0,0,0,0,0,0,0,0
1683170613.59991598,67428851,1589,1588,1569,1568,0,0,0,0,0,0,0,0,0,0
1683170613.69987607,67528811,1590,1588,1570,1570,0,0,0,0,0,0,0,0,0,0
1683170613.79983616,67628771,1589,1588,1570,1570,0,0,0,0,0,0,0,0,0,0
1683170613.89979601,67728731,1589,1589,1571,1570,0,0,0,0,0,0,0,0,0,0
1683170613.99975610,67828691,1589,1589,1571,1571,0,0,0,0,0,0,0,0,0,0
1683170614.09971619,67928651,1590,1589,1572,1571,0,0,0,0,0,0,0,0,0,0
1683170614.19967604,68028611,1589,1584,1576,1574,0,0,0,0,0,0,0,0,0,0
1683170614.29963613,68128571,1574,1565,1597,1596,0,0,0,0,0,0,0,0,0,0
1683170614.39959598,68228531,1556,1549,1611,1612,0,0,0,0,0,0,0,0,0,0
1683170614.49955606,68328491,1543,1541,1618,1619,0,0,0,0,0,0,0,0,0,0
1683170614.59951615,68428451,1536,1539,1619,1621,0,0,0,0,0,0,0,0,0,0
1683170614.69947600,68528411,1533,1541,1617,1618,0,0,0,0,0,0,0,0,0,0
1683170614.79943609,68628371,1534,1545,1614,1614,0,0,0,0,0,0,0,0,0,0
1683170614.89939618,68728331,1539,1549,1611,1609,0,0,0,0,0,0,0,0,0,0
1683170614.99935603,68828291,1546,1552,1605,1602,0,0,0,0,0,0,0,0,0,0
1683170615.09931612,68928251,1554,1556,1599,1596,0,0,0,0,0,0,0,0,0,0
1683170615.19927621,69028211,1563,1561,1593,1591,0,0,0,0,0,0,0,0,0,0
1683170615.29923606,69128171,1570,1566,1587,1586,0,0,0,0,0,0,0,0,0,0
1683170615.40002918,69228964,1575,1571,1580,1581,0,0,0,0,0,0,0,0,0,0
1683170615.49998903,69328924,1579,1575,1576,1578,0,0,0,0,0,0,0,0,0,0
1683170615.59994912,69428884,1582,1580,1574,1575,0,0,0,0,0,0,0,0,0,0
1683170615.69990921,69528844,1584,1583,1572,1573,0,0,0,0,0,0,0,0,0,0
1683170615.79986906,69628804,1586,1586,1572,1572,0,0,0,0,0,0,0,0,0,0
1683170615.89982915,69728764,1587,1588,1571,1571,0,0,0,0,0,0,0,0,0,0
1683170615.99978900,69828724,1588,1588,1571,1571,0,0,0,0,0,0,0,0,0,0
1683170616.09974909,69928684,1589,1589,1572,1572,0,0,0,0,0,0,0,0,0,0
1683170616.19970918,70028644,1589,1589,1572,1572,0,0,0,0,0,0,0,0,0,0
1683170616.29966903,70128604,1588,1588,1572,1572,0,0,0,0,0,0,0,0,0,0
1683170616.39962912,70228564,1589,1587,1573,1574,0,0,0,0,0,0,0,0,0,0
1683170616.49958920,70328524,1588,1586,1573,1574,0,0,0,0,0,0,0,0,0,0
1683170616.59954906,70428484,1587,1585,1574,1575,0,0,0,0,0,0,0,0,0,0
1683170616.69950914,70528444,1585,1585,1575,1576,0,0,0,0,0,0,0,0,0,0
1683170616.79946899,70628404,1584,1585,1577,1577,0,0,0,0,0,0,0,0,0,0
1683170616.89942908,70728364,1583,1583,1577,1577,0,0,0,0,0,0,0,0,0,0
1683170616.99938917,70828324,1582,1583,1578,1578,0,0,0,0,0,0,0,0,0,0
1683170617.09934902,70928284,1582,1582,1579,1578,0,0,0,0,0,0,0,0,0,0
1683170617.19930911,71028244,1581,1581,1580,1580,0,0,0,0,0,0,0,0,0,0
1683170617.29926920,71128204,1580,1580,1580,1580,0,0,0,0,0,0,0,0,0,0
1683170617.39922905,71228164,1581,1581,1581,1581,0,0,0,0,0,0,0,0,0,0
1683170617.50002217,71328957,1580,1580,1581,1581,0,0,0,0,0,0,0,0,0,0
1683170617.59998202,71428917,1580,1581,1582,1582,0,0,0,0,0,0,0,0,0,0
1683170617.69994211,71528877,1580,1580,1588,1575,0,0,0,0,0,0,0,0,0,0
1683170617.79990220,71628837,1580,1579,1586,1574,0,0,0,0,0,0,0,0,0,0
1683170617.89986205,71728797,1580,1578,1579,1575,0,0,0,0,0,0,0,0,0,0
1683170617.99982214,71828757,1577,1577,1569,1573,0,0,0,0,0,0,0,0,0,0
1683170618.09978199,71928717,1575,1577,1563,1569,0,0,0,0,0,0,0,0,0,0
1683170618.19974208,72028677,1573,1576,1559,1564,0,0,0,0,0,0,0,0,0,0
1683170618.29970217,72128637,1573,1575,1558,1562,0,0,0,0,0,0,0,0,0,0
1683170618.39966202,72228597,1573,1575,1559,1559,0,0,0,0,0,0,0,0,0,0
1683170618.49962211,72328557,1574,1575,1559,1557,0,0,0,0,0,0,0,0,0,0
1683170618.59958220,72428517,1574,1575,1559,1556,0,0,0,0,0,0,0,0,0,0
1683170618.69954205,72528477,1574,1574,1557,1555,0,0,0,0,0,0,0,0,0,0
1683170618.79950213,72628437,1574,1574,1556,1554,0,0,0,0,0,0,0,0,0,0
1683170618.89946198,72728397,1574,1574,1553,1554,0,0,0,0,0,0,0,0,0,0
1683170618.99942207,72828357,1574,1574,1552,1553,0,0,0,0,0,0,0,0,0,0
1683170619.09938216,72928317,1574,1575,1550,1551,0,0,0,0,0,0,0,0,0,0
1683170619.19934201,73028277,1574,1576,1549,1549,0,0,0,0,0,0,0,0,0,0
1683170619.29930210,73128237,1576,1578,1548,1548,0,0,0,0,0,0,0,0,0,0
1683170619.39926219,73228197,1577,1579,1546,1545,0,0,0,0,0,0,0,0,0,0
1683170619.49922204,73328157,1578,1580,1544,1543,0,0,0,0,0,0,0,0,0,0
1683170619.60001516,73428950,1581,1582,1543,1542,0,0,0,0,0,0,0,0,0,0
1683170619.69997501,73528910,1583,1583,1540,1540,0,0,0,0,0,0,0,0,0,0
1683170619.79993510,73628870,1585,1585,1539,1539,0,0,0,0,0,0,0,0,0,0
1683170619.89989519,73728830,1587,1586,1537,1538,0,0,0,0,0,0,0,0,0,0
1683170619.99985504,73828790,1588,1588,1538,1539,0,0,0,0,0,0,0,0,0,0
1683170620.09981513,73928750,1589,1589,1539,1540,0,0,0,0,0,0,0,0,0,0
1683170620.19977498,74028710,1588,1588,1540,1542,0,0,0,0,0,0,0,0,0,0
1683170620.29973507,74128670,1587,1586,1543,1545,0,0,0,0,0,0,0,0,0,0
1683170620.39969516,74228630,1584,1584,1547,1550,0,0,0,0,0,0,0,0,0,0
1683170620.49965501,74328590,1581,1580,1551,1555,0,0,0,0,0,0,0,0,0,0
1683170620.59961510,74428550,1577,1576,1557,1560,0,0,0,0,0,0,0,0,0,0
1683170620.69957519,74528510,1572,1570,1564,1566,0,0,0,0,0,0,0,0,0,0
1683170620.79953504,74628470,1567,1565,1571,1573,0,0,0,0,0,0,0,0,0,0
1683170620.89949512,74728430,1561,1559,1580,1581,0,0,0,0,0,0,0,0,0,0
1683170620.99945498,74828390,1555,1553,1588,1589,0,0,0,0,0,0,0,0,0,0
1683170621.09941506,74928350,1548,1546,1595,1595,0,0,0,0,0,0,0,0,0,0
1683170621.19937515,75028310,1541,1540,1602,1601,0,0,0,0,0,0,0,0,0,0
1683170621.29933500,75128270,1535,1535,1606,1605,0,0,0,0,0,0,0,0,0,0
1683170621.39929509,75228230,1533,1534,1609,1608,0,0,0,0,0,0,0,0,0,0
1683170621.49925518,75328190,1533,1535,1607,1607,0,0,0,0,0,0,0,0,0,0
1683170621.60004807,75428983,1535,1538,1604,1604,0,0,0,0,0,0,0,0,0,0
1683170621.70000815,75528943,1541,1544,1600,1600,0,0,0,0,0,0,0,0,0,0
1683170621.79996800,75628903,1548,1550,1593,1594,0,0,0,0,0,0,0,0,0,0
1683170621.89992809,75728863,1557,1558,1588,1587,0,0,0,0,0,0,0,0,0,0
1683170621.99988818,75828823,1565,1565,1582,1581,0,0,0,0,0,0,0,0,0,0
1683170622.09984803,75928783,1573,1572,1577,1576,0,0,0,0,0,0,0,0,0,0
1683170622.19980812,76028743,1579,1578,1572,1571,0,0,0,0,0,0,0,0,0,0
1683170622.29976821,76128703,1584,1582,1569,1569,0,0,0,0,0,0,0,0,0,0
1683170622.39972806,76228663,1587,1585,1568,1568,0,0,0,0,0,0,0,0,0,0
1683170622.49968815,76328623,1588,1587,1568,1568,0,0,0,0,0,0,0,0,0,0
1683170622.59964800,76428583,1589,1588,1569,1569,0,0,0,0,0,0,0,0,0,0
1683170622.69960809,76528543,1588,1588,1571,1571,0,0,0,0,0,0,0,0,0,0
1683170622.79956818,76628503,1587,1587,1572,1572,0,0,0,0,0,0,0,0,0,0
1683170622.89952803,76728463,1586,1586,1574,1574,0,0,0,0,0,0,0,0,0,0
1683170622.99948812,76828423,1584,1585,1576,1576,0,0,0,0,0,0,0,0,0,0
1683170623.09944820,76928383,1582,1582,1576,1576,0,0,0,0,0,0,0,0,0,0
1683170623.19940805,77028343,1581,1580,1578,1578,0,0,0,0,0,0,0,0,0,0
1683170623.29936814,77128303,1579,1579,1579,1579,0,0,0,0,0,0,0,0,0,0
1683170623.39932799,77228263,1577,1578,1580,1580,0,0,0,0,0,0,0,0,0,0
1683170623.49928808,77328223,1577,1577,1582,1582,0,0,0,0,0,0,0,0,0,0
1683170623.59924817,77428183,1576,1577,1583,1583,0,0,0,0,0,0,0,0,0,0
1683170623.70004106,77528976,1575,1576,1583,1583,0,0,0,0,0,0,0,0,0,0
1683170623.80000114,77628936,1575,1575,1583,1582,0,0,0,0,0,0,0,0,0,0
1683170623.89996099,77728896,1575,1576,1582,1582,0,0,0,0,0,0,0,0,0,0
1683170623.99992108,77828856,1575,1576,1582,1582,0,0,0,0,0,0,0,0,0,0
1683170624.09988117,77928816,1576,1576,1581,1581,0,0,0,0,0,0,0,0,0,0
1683170624.19984102,78028776,1577,1577,1579,1580,0,0,0,0,0,0,0,0,0,0
1683170624.29980111,78128736,1578,1578,1580,1580,0,0,0,0,0,0,0,0,0,0
1683170624.39976120,78228696,1579,1579,1579,1579,0,0,0,0,0,0,0,0,0,0
1683170624.49972105,78328656,1580,1580,1580,1579,0,0,0,0,0,0,0,0,0,0
1683170624.59968114,78428616,1581,1581,1579,1578,0,0,0,0,0,0,0,0,0,0
1683170624.69964099,78528576,1581,1581,1579,1578,0,0,0,0,0,0,0,0,0,0
1683170624.79960108,78628536,1582,1581,1578,1578,0,0,0,0,0,0,0,0,0,0
1683170624.89956117,78728496,1582,1582,1578,1579,0,0,0,0,0,0,0,0,0,0
1683170624.99952102,78828456,1582,1581,1578,1579,0,0,0,0,0,0,0,0,0,0
1683170625.09948111,78928416,1582,1582,1580,1579,0,0,0,0,0,0,0,0,0,0
1683170625.19944119,79028376,1582,1582,1579,1579,0,0,0,0,0,0,0,0,0,0
1683170625.29940104,79128336,1582,1582,1580,1580,0,0,0,0,0,0,0,0,0,0
1683170625.39936113,79228296,1582,1582,1581,1581,0,0,0,0,0,0,0,0,0,0
1683170625.49932098,79328256,1581,1581,1582,1581,0,0,0,0,0,0,0,0,0,0
1683170625.59928107,79428216,1581,1581,1582,1582,0,0,0,0,0,0,0,0,0,0
1683170625.69924116,79528176,1582,1582,1582,1583,0,0,0,0,0,0,0,0,0,0
1683170625.80003405,79628969,1581,1581,1581,1582,0,0,0,0,0,0,0,0,0,0
1683170625.89999413,79728929,1581,1581,1581,1582,0,0,0,0,0,0,0,0,0,0
1683170625.99995399,79828889,1580,1580,1584,1576,0,0,0,0,0,0,0,0,0,0
1683170626.09991407,79928849,1578,1577,1584,1570,0,0,0,0,0,0,0,0,0,0
1683170626.19987416,80028809,1578,1577,1581,1573,0,0,0,0,0,0,0,0,0,0
1683170626.29983401,80128769,1576,1574,1573,1573,0,0,0,0,0,0,0,0,0,0
1683170626.39979410,80228729,1572,1572,1567,1573,0,0,0,0,0,0,0,0,0,0
1683170626.49975419,80328689,1570,1571,1564,1572,0,0,0,0,0,0,0,0,0,0
1683170626.59971404,80428649,1568,1569,1564,1569,0,0,0,0,0,0,0,0,0,0
1683170626.69967413,80528609,1567,1568,1565,1567,0,0,0,0,0,0,0,0,0,0
1683170626.79963398,80628569,1567,1568,1568,1567,0,0,0,0,0,0,0,0,0,0
1683170626.89959407,80728529,1566,1566,1568,1566,0,0,0,0,0,0,0,0,0,0
1683170626.99955416,80828489,1566,1565,1569,1566,0,0,0,0,0,0,0,0,0,0
1683170627.09951401,80928449,1565,1564,1567,1565,0,0,0,0,0,0,0,0,0,0
1683170627.19947410,81028409,1564,1564,1566,1565,0,0,0,0,0,0,0,0,0,0
1683170627.29943419,81128369,1563,1563,1564,1564,0,0,0,0,0,0,0,0,0,0
1683170627.39939404,81228329,1563,1563,1564,1564,0,0,0,0,0,0,0,0,0,0
1683170627.49935412,81328289,1562,1561,1562,1563,0,0,0,0,0,0,0,0,0,0
1683170627.59931397,81428249,1561,1561,1562,1562,0,0,0,0,0,0,0,0,0,0
1683170627.69927406,81528209,1561,1561,1562,1561,0,0,0,0,0,0,0,0,0,0
1683170627.79923415,81628169,1561,1562,1562,1562,0,0,0,0,0,0,0,0,0,0
1683170627.90002704,81728962,1561,1561,1561,1560,0,0,0,0,0,0,0,0,0,0
1683170627.99998713,81828922,1561,1561,1561,1560,0,0,0,0,0,0,0,0,0,0
1683170628.09994698,81928882,1561,1561,1562,1560,0,0,0,0,0,0,0,0,0,0
1683170628.19990706,82028842,1559,1559,1559,1558,0,0,0,0,0,0,0,0,0,0
1683170628.29986715,82128802,1560,1559,1559,1559,0,0,0,0,0,0,0,0,0,0
1683170628.39982700,82228762,1558,1561,1547,1571,0,0,0,0,0,0,0,0,0,0
1683170628.49978709,82328722,1557,1556,1568,1542,0,0,0,0,0,0,0,0,0,0
1683170628.59974718,82428682,1554,1552,1563,1539,0,0,0,0,0,0,0,0,0,0
1683170628.69970703,82528642,1550,1547,1549,1541,0,0,0,0,0,0,0,0,0,0
1683170628.79966712,82628602,1544,1543,1536,1542,0,0,0,0,0,0,0,0,0,0
1683170628.89962721,82728562,1538,1538,1527,1540,0,0,0,0,0,0,0,0,0,0
1683170628.99958706,82828522,1531,1532,1520,1534,0,0,0,0,0,0,0,0,0,0
1683170629.09954715,82928482,1525,1527,1517,1527,0,0,0,0,0,0,0,0,0,0
1683170629.19950700,83028442,1522,1524,1518,1522,0,0,0,0,0,0,0,0,0,0
1683170629.29946709,83128402,1520,1521,1520,1520,0,0,0,0,0,0,0,0,0,0
1683170629.39942718,83228362,1520,1520,1523,1521,0,0,0,0,0,0,0,0,0,0
1683170629.49938703,83328322,1521,1521,1527,1525,0,0,0,0,0,0,0,0,0,0
1683170629.59934711,83428282,1523,1523,1531,1530,0,0,0,0,0,0,0,0,0,0
1683170629.69930720,83528242,1527,1526,1535,1536,0,0,0,0,0,0,0,0,0,0
1683170629.79926705,83628202,1531,1530,1540,1541,0,0,0,0,0,0,0,0,0,0
1683170629.89922714,83728162,1535,1534,1542,1544,0,0,0,0,0,0,0,0,0,0
1683170630.00002003,83828955,1538,1538,1544,1546,0,0,0,0,0,0,0,0,0,0
1683170630.09998012,83928915,1541,1541,1545,1546,0,0,0,0,0,0,0,0,0,0
1683170630.19994020,84028875,1544,1544,1546,1547,0,0,0,0,0,0,0,0,0,0
1683170630.29990005,84128835,1545,1546,1545,1545,0,0,0,0,0,0,0,0,0,0
1683170630.39986014,84228795,1547,1547,1544,1544,0,0,0,0,0,0,0,0,0,0
1683170630.49981999,84328755,1549,1549,1545,1544,0,0,0,0,0,0,0,0,0,0
1683170630.59978008,84428715,1549,1549,1543,1543,0,0,0,0,0,0,0,0,0,0
1683170630.69974017,84528675,1550,1550,1544,1544,0,0,0,0,0,0,0,0,0,0
1683170630.79970002,84628635,1550,1550,1544,1544,0,0,0,0,0,0,0,0,0,0
1683170630.89966011,84728595,1549,1549,1543,1543,0,0,0,0,0,0,0,0,0,0
1683170630.99962020,84828555,1549,1549,1545,1545,0,0,0,0,0,0,0,0,0,0
1683170631.09958005,84928515,1548,1548,1544,1544,0,0,0,0,0,0,0,0,0,0
1683170631.19954014,85028475,1547,1547,1545,1545,0,0,0,0,0,0,0,0,0,0
1683170631.29949999,85128435,1546,1546,1545,1545,0,0,0,0,0,0,0,0,0,0
1683170631.39946008,85228395,1545,1545,1545,1545,0,0,0,0,0,0,0,0,0,0
1683170631.49942017,85328355,1544,1544,1546,1545,0,0,0,0,0,0,0,0,0,0
1683170631.59938002,85428315,1544,1544,1546,1546,0,0,0,0,0,0,0,0,0,0
1683170631.69934011,85528275,1543,1543,1546,1546,0,0,0,0,0,0,0,0,0,0
1683170631.79930019,85628235,1543,1543,1546,1545,0,0,0,0,0,0,0,0,0,0
1683170631.89926004,85728195,1543,1543,1546,1546,0,0,0,0,0,0,0,0,0,0
1683170631.99922013,85828155,1543,1544,1546,1546,0,0,0,0,0,0,0,0,0,0
1683170632.10001302,85928948,1543,1543,1545,1544,0,0,0,0,0,0,0,0,0,0
1683170632.19997311,86028908,1543,1543,1544,1544,0,0,0,0,0,0,0,0,0,0
1683170632.29993320,86128868,1544,1543,1544,1544,0,0,0,0,0,0,0,0,0,0
1683170632.39989305,86228828,1544,1543,1544,1544,0,0,0,0,0,0,0,0,0,0
1683170632.49985313,86328788,1544,1543,1543,1544,0,0,0,0,0,0,0,0,0,0
1683170632.59981298,86428748,1544,1544,1543,1543,0,0,0,0,0,0,0,0,0,0
1683170632.69977307,86528708,1544,1544,1544,1544,0,0,0,0,0,0,0,0,0,0
1683170632.79973316,86628668,1544,1544,1543,1543,0,0,0,0,0,0,0,0,0,0
1683170632.89969301,86728628,1545,1545,1544,1544,0,0,0,0,0,0,0,0,0,0
1683170632.99965310,86828588,1545,1545,1544,1544,0,0,0,0,0,0,0,0,0,0
1683170633.09961319,86928548,1545,1545,1544,1544,0,0,0,0,0,0,0,0,0,0
1683170633.19957304,87028508,1544,1545,1544,1544,0,0,0,0,0,0,0,0,0,0
1683170633.29953313,87128468,1545,1544,1544,1544,0,0,0,0,0,0,0,0,0,0
1683170633.39949298,87228428,1545,1545,1545,1544,0,0,0,0,0,0,0,0,0,0
1683170633.49945307,87328388,1544,1544,1544,1544,0,0,0,0,0,0,0,0,0,0
1683170633.59941316,87428348,1544,1543,1543,1544,0,0,0,0,0,0,0,0,0,0
1683170633.69937301,87528308,1545,1544,1545,1545,0,0,0,0,0,0,0,0,0,0
1683170633.79933310,87628268,1545,1545,1545,1545,0,0,0,0,0,0,0,0,0,0
1683170633.89929318,87728228,1545,1545,1545,1545,0,0,0,0,0,0,0,0,0,0
1683170633.99925303,87828188,1544,1545,1545,1545,0,0,0,0,0,0,0,0,0,0
1683170634.10004616,87928981,1544,1544,1544,1544,0,0,0,0,0,0,0,0,0,0
1683170634.20000601,88028941,1544,1544,1544,1544,0,0,0,0,0,0,0,0,0,0
1683170634.29996610,88128901,1544,1544,1544,1545,0,0,0,0,0,0,0,0,0,0
1683170634.39992619,88228861,1545,1544,1545,1545,0,0,0,0,0,0,0,0,0,0
1683170634.49988604,88328821,1545,1544,1544,1544,0,0,0,0,0,0,0,0,0,0
1683170634.59984612,88428781,1544,1544,1544,1544,0,0,0,0,0,0,0,0,0,0
1683170634.69980597,88528741,1544,1544,1544,1544,0,0,0,0,0,0,0,0,0,0
1683170634.79976606,88628701,1543,1544,1543,1543,0,0,0,0,0,0,0,0,0,0
1683170634.89972615,88728661,1544,1544,1544,1544,0,0,0,0,0,0,0,0,0,0
1683170634.99968600,88828621,1544,1545,1544,1544,0,0,0,0,0,0,0,0,0,0
1683170635.09964609,88928581,1544,1544,1544,1545,0,0,0,0,0,0,0,0,0,0
1683170635.19960618,89028541,1544,1544,1544,1544,0,0,0,0,0,0,0,0,0,0
1683170635.29956603,89128501,1544,1544,1544,1545,0,0,0,0,0,0,0,0,0,0
1683170635.39952612,89228461,1545,1545,1545,1545,0,0,0,0,0,0,0,0,0,0
1683170635.49948621,89328421,1544,1544,1544,1544,0,0,0,0,0,0,0,0,0,0
1683170635.59944606,89428381,1544,1544,1544,1544,0,0,0,0,0,0,0,0,0,0
1683170635.69940615,89528341,1544,1544,1545,1544,0,0,0,0,0,0,0,0,0,0
1683170635.79936600,89628301,1544,1544,1544,1544,0,0,0,0,0,0,0,0,0,0
1683170635.89932609,89728261,1544,1544,1544,1544,0,0,0,0,0,0,0,0,0,0
1683170635.99928617,89828221,1544,1544,1545,1544,0,0,0,0,0,0,0,0,0,0
1683170636.09924603,89928181,1544,1544,1544,1544,0,0,0,0,0,0,0,0,0,0
1683170636.20003915,90028974,1544,1544,1543,1543,0,0,0,0,0,0,0,0,0,0
1683170636.29999900,90128934,1544,1544,1544,1544,0,0,0,0,0,0,0,0,0,0
1683170636.39995909,90228894,1544,1544,1544,1545,0,0,0,0,0,0,0,0,0,0
1683170636.49991918,90328854,1544,1545,1544,1545,0,0,0,0,0,0,0,0,0,0
1683170636.59987903,90428814,1544,1544,1544,1543,0,0,0,0,0,0,0,0,0,0
1683170636.69983912,90528774,1544,1543,1543,1543,0,0,0,0,0,0,0,0,0,0
1683170636.79979920,90628734,1544,1544,1544,1544,0,0,0,0,0,0,0,0,0,0
1683170636.89975905,90728694,1545,1544,1544,1544,0,0,0,0,0,0,0,0,0,0
1683170636.99971914,90828654,1545,1544,1545,1545,0,0,0,0,0,0,0,0,0,0
1683170637.09967899,90928614,1545,1545,1545,1545,0,0,0,0,0,0,0,0,0,0
1683170637.19963908,91028574,1545,1545,1545,1545,0,0,0,0,0,0,0,0,0,0
1683170637.29959917,91128534,1545,1545,1545,1545,0,0,0,0,0,0,0,0,0,0
1683170637.39955902,91228494,1544,1546,1545,1545,0,0,0,0,0,0,0,0,0,0
1683170637.49951911,91328454,1545,1545,1545,1545,0,0,0,0,0,0,0,0,0,0
1683170637.59947920,91428414,1545,1545,1544,1544,0,0,0,0,0,0,0,0,0,0
1683170637.69943905,91528374,1545,1545,1545,1545,0,0,0,0,0,0,0,0,0,0
1683170637.79939914,91628334,1545,1545,1544,1544,0,0,0,0,0,0,0,0,0,0
1683170637.89935899,91728294,1545,1544,1544,1544,0,0,0,0,0,0,0,0,0,0
1683170637.99931908,91828254,1544,1544,1544,1543,0,0,0,0,0,0,0,0,0,0
1683170638.09927917,91928214,1545,1545,1544,1544,0,0,0,0,0,0,0,0,0,0
1683170638.19923902,92028174,1544,1545,1545,1544,0,0,0,0,0,0,0,0,0,0
1683170638.30003214,92128967,1543,1544,1544,1543,0,0,0,0,0,0,0,0,0,0
1683170638.39999199,92228927,1543,1544,1544,1543,0,0,0,0,0,0,0,0,0,0
1683170638.49995208,92328887,1544,1544,1544,1545,0,0,0,0,0,0,0,0,0,0
1683170638.59991217,92428847,1544,1544,1544,1544,0,0,0,0,0,0,0,0,0,0
1683170638.69987202,92528807,1544,1544,1544,1545,0,0,0,0,0,0,0,0,0,0
1683170638.79983211,92628767,1541,1543,1543,1540,0,0,0,0,0,0,0,0,0,0
1683170638.89979219,92728727,1421,1422,1354,1355,0,0,0,0,0,0,0,0,0,0
1683170638.99975204,92828687,1362,1363,1248,1247,0,0,0,0,0,0,0,0,0,0
1683170639.09971213,92928647,1345,1346,1214,1214,0,0,0,0,0,0,0,0,0,0
1683170639.19967198,93028607,1336,1337,1197,1195,0,0,0,0,0,0,0,0,0,0
1683170639.29963207,93128567,1315,1316,1151,1150,0,0,0,0,0,0,0,0,0,0
1683170639.39959216,93228527,1252,1252,1151,1150,0,0,0,0,0,0,0,0,0,0
1683170639.49955201,93328487,1159,1159,1151,1150,0,0,0,0,0,0,0,0,0,0
1683170639.59951210,93428447,1059,1059,1152,1150,0,0,0,0,0,0,0,0,0,0
1683170639.69947219,93528407,971,972,1151,1150,0,0,0,0,0,0,0,0,0,0
1683170639.79943204,93628367,971,971,1151,1150,0,0,0,0,0,0,0,0,0,0
1683170639.89939213,93728327,972,971,1151,1150,0,0,0,0,0,0,0,0,0,0
1683170639.99935198,93828287,972,961,1150,1165,0,0,0,0,0,0,0,0,0,0
1683170640.09931207,93928247,972,962,1150,1164,0,0,0,0,0,0,0,0,0,0
1683170640.19927216,94028207,972,966,1150,1158,0,0,0,0,0,0,0,0,0,0
1683170640.29923201,94128167,972,966,1150,1157,0,0,0,0,0,0,0,0,0,0
1683170640.40002513,94228960,972,966,1150,1157,0,0,0,0,0,0,0,0,0,0
1683170640.49998498,94328920,972,966,1150,1158,0,0,0,0,0,0,0,0,0,0
1683170640.59994507,94428880,972,966,1150,1158,0,0,0,0,0,0,0,0,0,0
1683170640.69990516,94528840,972,965,1150,1158,0,0,0,0,0,0,0,0,0,0
1683170640.79986501,94628800,971,972,1151,1150,0,0,0,0,0,0,0,0,0,0
1683170640.89982510,94728760,972,971,1150,1150,0,0,0,0,0,0,0,0,0,0
1683170640.99978518,94828720,972,971,1150,1151,0,0,0,0,0,0,0,0,0,0
1683170641.09974504,94928680,972,971,1150,1151,0,0,0,0,0,0,0,0,0,0
1683170641.19970512,95028640,972,970,1150,1151,0,0,0,0,0,0,0,0,0,0
1683170641.29966497,95128600,1000,1000,1000,1000,0,0,0,0,0,0,0,0,0,0
1683170641.39962506,95228560,1000,1000,1000,1000,0,0,0,0,0,0,0,0,0,0
1683170641.49958515,95328520,1000,1000,1000,1000,0,0,0,0,0,0,0,0,0,0
1683170641.59954500,95428480,1000,1000,1000,1000,0,0,0,0,0,0,0,0,0,0
1683170641.69950509,95528440,1000,1000,1000,1000,0,0,0,0,0,0,0,0,0,0
1683170641.79946518,95628400,1000,1000,1000,1000,0,0,0,0,0,0,0,0,0,0
1683170641.89942503,95728360,1000,1000,1000,1000,0,0,0,0,0,0,0,0,0,0
1683170641.99938512,95828320,1000,1000,1000,1000,0,0,0,0,0,0,0,0,0,0
1683170642.09934521,95928280,1000,1000,1000,1000,0,0,0,0,0,0,0,0,0,0
1683170642.19930506,96028240,1000,1000,1000,1000,0,0,0,0,0,0,0,0,0,0
1683170642.29926515,96128200,1000,1000,1000,1000,0,0,0,0,0,0,0,0,0,0
1683170642.39922500,96228160,1000,1000,1000,1000,0,0,0,0,0,0,0,0,0,0
1683170642.50001812,96328953,1000,1000,1000,1000,0,0,0,0,0,0,0,0,0,0
1683170642.59997821,96428913,1000,1000,1000,1000,0,0,0,0,0,0,0,0,0,0
1683170642.69993806,96528873,1000,1000,1000,1000,0,0,0,0,0,0,0,0,0,0
1683170642.79989815,96628833,1000,1000,1000,1000,0,0,0,0,0,0,0,0,0,0
1683170642.89985800,96728793,1000,1000,1000,1000,0,0,0,0,0,0,0,0,0,0
1683170642.99981809,96828753,1000,1000,1000,1000,0,0,0,0,0,0,0,0,0,0
1683170643.09977818,96928713,1000,1000,1000,1000,0,0,0,0,0,0,0,0,0,0
1683170643.19973803,97028673,1000,1000,1000,1000,0,0,0,0,0,0,0,0,0,0
1683170643.29969811,97128633,1000,1000,1000,1000,0,0,0,0,0,0,0,0,0,0
1683170643.39965820,97228593,1000,1000,1000,1000,0,0,0,0,0,0,0,0,0,0
1683170643.49961805,97328553,1000,1000,1000,1000,0,0,0,0,0,0,0,0,0,0
1683170643.59957814,97428513,1000,1000,1000,1000,0,0,0,0,0,0,0,0,0,0
1683170643.69953799,97528473,1000,1000,1000,1000,0,0,0,0,0,0,0,0,0,0
1683170643.79949808,97628433,1000,1000,1000,1000,0,0,0,0,0,0,0,0,0,0
1683170643.89945817,97728393,1000,1000,1000,1000,0,0,0,0,0,0,0,0,0,0
1683170643.99941802,97828353,1000,1000,1000,1000,0,0,0,0,0,0,0,0,0,0
1683170644.09937811,97928313,1000,1000,1000,1000,0,0,0,0,0,0,0,0,0,0
1683170644.19933820,98028273,1000,1000,1000,1000,0,0,0,0,0,0,0,0,0,0
1683170644.29929805,98128233,1000,1000,1000,1000,0,0,0,0,0,0,0,0,0,0
1683170644.39925814,98228193,1000,1000,1000,1000,0,0,0,0,0,0,0,0,0,0
1683170644.50005102,98328986,1000,1000,1000,1000,0,0,0,0,0,0,0,0,0,0
1683170644.60001111,98428946,1000,1000,1000,1000,0,0,0,0,0,0,0,0,0,0
1683170644.69997120,98528906,1000,1000,1000,1000,0,0,0,0,0,0,0,0,0,0
1683170644.79993105,98628866,1000,1000,1000,1000,0,0,0,0,0,0,0,0,0,0
1683170644.89989114,98728826,1000,1000,1000,1000,0,0,0,0,0,0,0,0,0,0
1683170644.99985099,98828786,1000,1000,1000,1000,0,0,0,0,0,0,0,0,0,0
1683170645.09981108,98928746,1000,1000,1000,1000,0,0,0,0,0,0,0,0,0,0
1683170645.19977117,99028706,1000,1000,1000,1000,0,0,0,0,0,0,0,0,0,0
1683170645.29973102,99128666,1000,1000,1000,1000,0,0,0,0,0,0,0,0,0,0
1683170645.39969110,99228626,1000,1000,1000,1000,0,0,0,0,0,0,0,0,0,0
1683170645.49965119,99328586,1000,1000,1000,1000,0,0,0,0,0,0,0,0,0,0
1683170645.59961104,99428546,1000,1000,1000,1000,0,0,0,0,0,0,0,0,0,0
1683170645.69957113,99528506,1000,1000,1000,1000,0,0,0,0,0,0,0,0,0,0
1683170645.79953098,99628466,1000,1000,1000,1000,0,0,0,0,0,0,0,0,0,0
1683170645.89949107,99728426,1000,1000,1000,1000,0,0,0,0,0,0,0,0,0,0
1683170645.99945116,99828386,1000,1000,1000,1000,0,0,0,0,0,0,0,0,0,0
1683170646.09941101,99928346,1000,1000,1000,1000,0,0,0,0,0,0,0,0,0,0
1683170646.19937110,100028306,1000,1000,1000,1000,0,0,0,0,0,0,0,0,0,0
1683170646.29933119,100128266,1000,1000,1000,1000,0,0,0,0,0,0,0,0,0,0
1683170646.39929104,100228226,1000,1000,1000,1000,0,0,0,0,0,0,0,0,0,0
1683170646.49925113,100328186,1000,1000,1000,1000,0,0,0,0,0,0,0,0,0,0
1683170646.60004401,100428979,1000,1000,1000,1000,0,0,0,0,0,0,0,0,0,0
1683170646.70000410,100528939,1000,1000,1000,1000,0,0,0,0,0,0,0,0,0,0
1683170646.79996419,100628899,1000,1000,1000,1000,0,0,0,0,0,0,0,0,0,0
1683170646.89992404,100728859,1000,1000,1000,1000,0,0,0,0,0,0,0,0,0,0
1683170646.99988413,100828819,1000,1000,1000,1000,0,0,0,0,0,0,0,0,0,0
1683170647.09984398,100928779,1000,1000,1000,1000,0,0,0,0,0,0,0,0,0,0
1683170647.19980407,101028739,1000,1000,1000,1000,0,0,0,0,0,0,0,0,0,0
1683170647.29976416,101128699,1000,1000,1000,1000,0,0,0,0,0,0,0,0,0,0
1683170647.39972401,101228659,1000,1000,1000,1000,0,0,0,0,0,0,0,0,0,0
1683170647.49968410,101328619,1000,1000,1000,1000,0,0,0,0,0,0,0,0,0,0
1683170647.59964418,101428579,1000,1000,1000,1000,0,0,0,0,0,0,0,0,0,0
1683170647.69960403,101528539,1000,1000,1000,1000,0,0,0,0,0,0,0,0,0,0
1683170647.79956412,101628499,1000,1000,1000,1000,0,0,0,0,0,0,0,0,0,0
1683170647.89952397,101728459,1000,1000,1000,1000,0,0,0,0,0,0,0,0,0,0
1683170647.99948406,101828419,1000,1000,1000,1000,0,0,0,0,0,0,0,0,0,0
1683170648.09944415,101928379,1000,1000,1000,1000,0,0,0,0,0,0,0,0,0,0
1683170648.19940400,102028339,1000,1000,1000,1000,0,0,0,0,0,0,0,0,0,0
1683170648.29936409,102128299,1000,1000,1000,1000,0,0,0,0,0,0,0,0,0,0
1683170648.39932418,102228259,1000,1000,1000,1000,0,0,0,0,0,0,0,0,0,0
1683170648.49928403,102328219,1000,1000,1000,1000,0,0,0,0,0,0,0,0,0,0
1683170648.59924412,102428179,1000,1000,1000,1000,0,0,0,0,0,0,0,0,0,0
1683170648.70003700,102528972,1000,1000,1000,1000,0,0,0,0,0,0,0,0,0,0
1683170648.79999709,102628932,1000,1000,1000,1000,0,0,0,0,0,0,0,0,0,0
1683170648.89995718,102728892,1000,1000,1000,1000,0,0,0,0,0,0,0,0,0,0
1683170648.99991703,102828852,1000,1000,1000,1000,0,0,0,0,0,0,0,0,0,0
1683170649.09987712,102928812,1000,1000,1000,1000,0,0,0,0,0,0,0,0,0,0
1683170649.19983721,103028772,1000,1000,1000,1000,0,0,0,0,0,0,0,0,0,0
1683170649.29979706,103128732,1000,1000,1000,1000,0,0,0,0,0,0,0,0,0,0
1683170649.39975715,103228692,1000,1000,1000,1000,0,0,0,0,0,0,0,0,0,0
1683170649.49971700,103328652,1000,1000,1000,1000,0,0,0,0,0,0,0,0,0,0
1683170649.59967709,103428612,1000,1000,1000,1000,0,0,0,0,0,0,0,0,0,0
1683170649.69963717,103528572,1000,1000,1000,1000,0,0,0,0,0,0,0,0,0,0
1683170649.79959702,103628532,1000,1000,1000,1000,0,0,0,0,0,0,0,0,0,0
1683170649.89955711,103728492,1000,1000,1000,1000,0,0,0,0,0,0,0,0,0,0
1683170649.99951720,103828452,1000,1000,1000,1000,0,0,0,0,0,0,0,0,0,0
1683170650.09947705,103928412,1000,1000,1000,1000,0,0,0,0,0,0,0,0,0,0
1683170650.19943714,104028372,1000,1000,1000,1000,0,0,0,0,0,0,0,0,0,0
1683170650.29939699,104128332,1000,1000,1000,1000,0,0,0,0,0,0,0,0,0,0
1683170650.39935708,104228292,1000,1000,1000,1000,0,0,0,0,0,0,0,0,0,0
1683170650.49931717,104328252,1000,1000,1000,1000,0,0,0,0,0,0,0,0,0,0
1683170650.59927702,104428212,1000,1000,1000,1000,0,0,0,0,0,0,0,0,0,0
1683170650.69923711,104528172,1000,1000,1000,1000,0,0,0,0,0,0,0,0,0,0
1683170650.80002999,104628965,1000,1000,1000,1000,0,0,0,0,0,0,0,0,0,0
1683170650.89999008,104728925,1000,1000,1000,1000,0,0,0,0,0,0,0,0,0,0
1683170650.99995017,104828885,1000,1000,1000,1000,0,0,0,0,0,0,0,0,0,0
