timestamp,TimeUS,C1,C2,C3,C4,C5,C6,C7,C8,C9,C10,C11,C12,C13,C14
1683126449.79999995,47228601,1000,1000,1000,1000,0,0,0,0,0,0,0,0,0,0
1683126449.89996004,47328561,1000,1000,1000,1000,0,0,0,0,0,0,0,0,0,0
1683126449.99991989,47428521,1000,1000,1000,1000,0,0,0,0,0,0,0,0,0,0
1683126450.09987998,47528481,1000,1000,1000,1000,0,0,0,0,0,0,0,0,0,0
1683126450.19984007,47628441,1000,1000,1000,1000,0,0,0,0,0,0,0,0,0,0
1683126450.29979992,47728401,1000,1000,1000,1000,0,0,0,0,0,0,0,0,0,0
1683126450.39976001,47828361,1000,1000,1000,1000,0,0,0,0,0,0,0,0,0,0
1683126450.49971986,47928321,1000,1000,1000,1000,0,0,0,0,0,0,0,0,0,0
1683126450.59967995,48028281,1000,1000,1000,1000,0,0,0,0,0,0,0,0,0,0
1683126450.69964004,48128241,1000,1000,1000,1000,0,0,0,0,0,0,0,0,0,0
1683126450.79959989,48228201,1000,1000,1000,1000,0,0,0,0,0,0,0,0,0,0
1683126450.89955997,48328161,1000,1000,1000,1000,0,0,0,0,0,0,0,0,0,0
1683126451.00035286,48428954,1000,1000,1000,1000,0,0,0,0,0,0,0,0,0,0
1683126451.10031295,48528914,1000,1000,1000,1000,0,0,0,0,0,0,0,0,0,0
1683126451.20027304,48628874,1000,1000,1000,1000,0,0,0,0,0,0,0,0,0,0
1683126451.30023289,48728834,1000,1000,1000,1000,0,0,0,0,0,0,0,0,0,0
1683126451.40019298,48828794,1000,1000,1000,1000,0,0,0,0,0,0,0,0,0,0
1683126451.50015306,48928754,1000,1000,1000,1000,0,0,0,0,0,0,0,0,0,0
1683126451.60011292,49028714,1000,1000,1000,1000,0,0,0,0,0,0,0,0,0,0
1683126451.70007300,49128674,1000,1000,1000,1000,0,0,0,0,0,0,0,0,0,0
1683126451.80003309,49228634,1023,1023,1023,1023,0,0,0,0,0,0,0,0,0,0
1683126451.89999294,49328594,1053,1053,1053,1053,0,0,0,0,0,0,0,0,0,0
1683126451.99995303,49428554,1083,1083,1083,1083,0,0,0,0,0,0,0,0,0,0
1683126452.09991288,49528514,1113,1113,1113,1113,0,0,0,0,0,0,0,0,0,0
1683126452.19987297,49628474,1143,1143,1143,1143,0,0,0,0,0,0,0,0,0,0
1683126452.29983306,49728434,1351,1346,1346,1352,0,0,0,0,0,0,0,0,0,0
1683126452.39979291,49828394,1542,1538,1538,1542,0,0,0,0,0,0,0,0,0,0
1683126452.49975300,49928354,1695,1691,1691,1695,0,0,0,0,0,0,0,0,0,0
1683126452.59971309,50028314,1826,1823,1823,1827,0,0,0,0,0,0,0,0,0,0
1683126452.69967294,50128274,1872,1867,1868,1872,0,0,0,0,0,0,0,0,0,0
1683126452.79963303,50228234,1833,1831,1831,1833,0,0,0,0,0,0,0,0,0,0
1683126452.89959288,50328194,1700,1701,1701,1701,0,0,0,0,0,0,0,0,0,0
1683126452.99955297,50428154,1624,1625,1625,1624,0,0,0,0,0,0,0,0,0,0
1683126453.10034609,50528947,1612,1613,1613,1612,0,0,0,0,0,0,0,0,0,0
1683126453.20030594,50628907,1624,1625,1626,1624,0,0,0,0,0,0,0,0,0,0
1683126453.30026603,50728867,1631,1631,1632,1631,0,0,0,0,0,0,0,0,0,0
1683126453.40022588,50828827,1631,1627,1626,1632,0,0,0,0,0,0,0,0,0,0
1683126453.50018597,50928787,1612,1611,1605,1618,0,0,0,0,0,0,0,0,0,0
1683126453.60014606,51028747,1604,1604,1598,1610,0,0,0,0,0,0,0,0,0,0
1683126453.70010591,51128707,1602,1602,1600,1604,0,0,0,0,0,0,0,0,0,0
1683126453.80006599,51228667,1606,1607,1607,1605,0,0,0,0,0,0,0,0,0,0
1683126453.90002608,51328627,1611,1610,1613,1608,0,0,0,0,0,0,0,0,0,0
1683126453.99998593,51428587,1616,1615,1619,1611,0,0,0,0,0,0,0,0,0,0
1683126454.09994602,51528547,1619,1618,1622,1615,0,0,0,0,0,0,0,0,0,0
1683126454.19990587,51628507,1598,1598,1605,1590,0,0,0,0,0,0,0,0,0,0
1683126454.29986596,51728467,1578,1578,1588,1568,0,0,0,0,0,0,0,0,0,0
1683126454.39982605,51828427,1566,1566,1570,1562,0,0,0,0,0,0,0,0,0,0
1683126454.49978590,51928387,1556,1556,1551,1561,0,0,0,0,0,0,0,0,0,0
1683126454.59974599,52028347,1548,1547,1537,1558,0,0,0,0,0,0,0,0,0,0
1683126454.69970608,52128307,1540,1540,1530,1550,0,0,0,0,0,0,0,0,0,0
1683126454.79966593,52228267,1534,1534,1528,1540,0,0,0,0,0,0,0,0,0,0
1683126454.89962602,52328227,1529,1529,1527,1531,0,0,0,0,0,0,0,0,0,0
1683126454.99958587,52428187,1529,1529,1530,1528,0,0,0,0,0,0,0,0,0,0
1683126455.10037899,52528980,1530,1529,1531,1527,0,0,0,0,0,0,0,0,0,0
1683126455.20033908,52628940,1533,1533,1536,1530,0,0,0,0,0,0,0,0,0,0
1683126455.30029893,52728900,1536,1536,1540,1533,0,0,0,0,0,0,0,0,0,0
1683126455.40025902,52828860,1539,1539,1542,1537,0,0,0,0,0,0,0,0,0,0
1683126455.50021887,52928820,1542,1543,1544,1541,0,0,0,0,0,0,0,0,0,0
1683126455.60017896,53028780,1546,1546,1546,1546,0,0,0,0,0,0,0,0,0,0
1683126455.70013905,53128740,1548,1549,1548,1549,0,0,0,0,0,0,0,0,0,0
1683126455.80009890,53228700,1551,1551,1549,1553,0,0,0,0,0,0,0,0,0,0
1683126455.90005898,53328660,1552,1552,1555,1559,0,0,0,0,0,0,0,0,0,0
1683126456.00001907,53428620,1552,1552,1559,1562,0,0,0,0,0,0,0,0,0,0
1683126456.09997892,53528580,1555,1555,1562,1563,0,0,0,0,0,0,0,0,0,0
1683126456.19993901,53628540,1558,1558,1564,1563,0,0,0,0,0,0,0,0,0,0
1683126456.29989886,53728500,1561,1561,1564,1563,0,0,0,0,0,0,0,0,0,0
1683126456.39985895,53828460,1563,1564,1564,1563,0,0,0,0,0,0,0,0,0,0
1683126456.49981904,53928420,1566,1566,1565,1564,0,0,0,0,0,0,0,0,0,0
1683126456.59977889,54028380,1568,1567,1564,1564,0,0,0,0,0,0,0,0,0,0
1683126456.69973898,54128340,1570,1570,1565,1565,0,0,0,0,0,0,0,0,0,0
1683126456.79969907,54228300,1571,1571,1566,1567,0,0,0,0,0,0,0,0,0,0
1683126456.89965892,54328260,1573,1572,1568,1568,0,0,0,0,0,0,0,0,0,0
1683126456.99961901,54428220,1573,1573,1569,1569,0,0,0,0,0,0,0,0,0,0
1683126457.09957886,54528180,1574,1573,1570,1570,0,0,0,0,0,0,0,0,0,0
1683126457.20037198,54628973,1573,1573,1571,1571,0,0,0,0,0,0,0,0,0,0
1683126457.30033207,54728933,1573,1573,1572,1572,0,0,0,0,0,0,0,0,0,0
1683126457.40029192,54828893,1573,1573,1574,1573,0,0,0,0,0,0,0,0,0,0
1683126457.50025201,54928853,1575,1575,1577,1575,0,0,0,0,0,0,0,0,0,0
1683126457.60021186,55028813,1575,1575,1578,1576,0,0,0,0,0,0,0,0,0,0
1683126457.70017195,55128773,1574,1576,1577,1576,0,0,0,0,0,0,0,0,0,0
1683126457.80013204,55228733,1574,1575,1576,1577,0,0,0,0,0,0,0,0,0,0
1683126457.90009189,55328693,1575,1576,1577,1577,0,0,0,0,0,0,0,0,0,0
1683126458.00005198,55428653,1577,1576,1578,1578,0,0,0,0,0,0,0,0,0,0
1683126458.10001206,55528613,1577,1576,1577,1577,0,0,0,0,0,0,0,0,0,0
1683126458.19997191,55628573,1576,1576,1576,1577,0,0,0,0,0,0,0,0,0,0
1683126458.29993200,55728533,1578,1577,1577,1578,0,0,0,0,0,0,0,0,0,0
1683126458.39989209,55828493,1577,1578,1577,1577,0,0,0,0,0,0,0,0,0,0
1683126458.49985194,55928453,1577,1577,1577,1576,0,0,0,0,0,0,0,0,0,0
1683126458.59981203,56028413,1578,1578,1577,1577,0,0,0,0,0,0,0,0,0,0
1683126458.69977188,56128373,1578,1578,1577,1577,0,0,0,0,0,0,0,0,0,0
1683126458.79973197,56228333,1577,1577,1576,1576,0,0,0,0,0,0,0,0,0,0
1683126458.89969206,56328293,1577,1577,1577,1577,0,0,0,0,0,0,0,0,0,0
1683126458.99965191,56428253,1577,1578,1578,1577,0,0,0,0,0,0,0,0,0,0
1683126459.09961200,56528213,1578,1578,1578,1578,0,0,0,0,0,0,0,0,0,0
1683126459.19957209,56628173,1578,1578,1578,1578,0,0,0,0,0,0,0,0,0,0
1683126459.30036497,56728966,1578,1578,1578,1578,0,0,0,0,0,0,0,0,0,0
1683126459.40032506,56828926,1579,1578,1579,1579,0,0,0,0,0,0,0,0,0,0
1683126459.50028491,56928886,1579,1579,1579,1579,0,0,0,0,0,0,0,0,0,0
1683126459.60024500,57028846,1578,1578,1578,1578,0,0,0,0,0,0,0,0,0,0
1683126459.70020509,57128806,1578,1579,1578,1579,0,0,0,0,0,0,0,0,0,0
1683126459.80016494,57228766,1579,1580,1580,1580,0,0,0,0,0,0,0,0,0,0
1683126459.90012503,57328726,1579,1579,1580,1580,0,0,0,0,0,0,0,0,0,0
1683126460.00008488,57428686,1579,1579,1579,1579,0,0,0,0,0,0,0,0,0,0
1683126460.10004497,57528646,1579,1579,1579,1579,0,0,0,0,0,0,0,0,0,0
1683126460.20000505,57628606,1579,1579,1580,1579,0,0,0,0,0,0,0,0,0,0
1683126460.29996490,57728566,1579,1579,1579,1579,0,0,0,0,0,0,0,0,0,0
1683126460.39992499,57828526,1579,1580,1580,1579,0,0,0,0,0,0,0,0,0,0
1683126460.49988508,57928486,1580,1580,1580,1580,0,0,0,0,0,0,0,0,0,0
1683126460.59984493,58028446,1580,1580,1580,1580,0,0,0,0,0,0,0,0,0,0
1683126460.69980502,58128406,1581,1581,1581,1581,0,0,0,0,0,0,0,0,0,0
1683126460.79976487,58228366,1581,1580,1580,1580,0,0,0,0,0,0,0,0,0,0
1683126460.89972496,58328326,1580,1580,1580,1580,0,0,0,0,0,0,0,0,0,0
1683126460.99968505,58428286,1580,1580,1580,1580,0,0,0,0,0,0,0,0,0,0
1683126461.09964490,58528246,1580,1580,1580,1581,0,0,0,0,0,0,0,0,0,0
1683126461.19960499,58628206,1580,1580,1580,1580,0,0,0,0,0,0,0,0,0,0
1683126461.29956508,58728166,1581,1581,1581,1581,0,0,0,0,0,0,0,0,0,0
1683126461.40035796,58828959,1580,1580,1580,1580,0,0,0,0,0,0,0,0,0,0
1683126461.50031805,58928919,1581,1581,1581,1582,0,0,0,0,0,0,0,0,0,0
1683126461.60027790,59028879,1581,1581,1581,1581,0,0,0,0,0,0,0,0,0,0
1683126461.70023799,59128839,1583,1582,1582,1582,0,0,0,0,0,0,0,0,0,0
1683126461.80019808,59228799,1582,1582,1582,1582,0,0,0,0,0,0,0,0,0,0
1683126461.90015793,59328759,1581,1581,1582,1581,0,0,0,0,0,0,0,0,0,0
1683126462.00011802,59428719,1581,1582,1582,1581,0,0,0,0,0,0,0,0,0,0
1683126462.10007787,59528679,1581,1581,1583,1579,0,0,0,0,0,0,0,0,0,0
1683126462.20003796,59628639,1581,1582,1589,1573,0,0,0,0,0,0,0,0,0,0
1683126462.29999804,59728599,1580,1582,1583,1573,0,0,0,0,0,0,0,0,0,0
1683126462.39995790,59828559,1578,1580,1574,1573,0,0,0,0,0,0,0,0,0,0
1683126462.49991798,59928519,1575,1579,1564,1570,0,0,0,0,0,0,0,0,0,0
1683126462.59987807,60028479,1576,1578,1558,1566,0,0,0,0,0,0,0,0,0,0
1683126462.69983792,60128439,1578,1577,1556,1562,0,0,0,0,0,0,0,0,0,0
1683126462.79979801,60228399,1579,1577,1555,1558,0,0,0,0,0,0,0,0,0,0
1683126462.89975786,60328359,1579,1577,1556,1555,0,0,0,0,0,0,0,0,0,0
1683126462.99971795,60428319,1579,1578,1557,1554,0,0,0,0,0,0,0,0,0,0
1683126463.09967804,60528279,1577,1577,1556,1554,0,0,0,0,0,0,0,0,0,0
1683126463.19963789,60628239,1576,1577,1556,1554,0,0,0,0,0,0,0,0,0,0
1683126463.29959798,60728199,1575,1576,1555,1553,0,0,0,0,0,0,0,0,0,0
1683126463.39955807,60828159,1574,1576,1554,1553,0,0,0,0,0,0,0,0,0,0
1683126463.50035095,60928952,1574,1575,1552,1553,0,0,0,0,0,0,0,0,0,0
1683126463.60031104,61028912,1575,1576,1550,1552,0,0,0,0,0,0,0,0,0,0
1683126463.70027089,61128872,1575,1577,1548,1549,0,0,0,0,0,0,0,0,0,0
1683126463.80023098,61228832,1577,1579,1546,1546,0,0,0,0,0,0,0,0,0,0
1683126463.90019107,61328792,1580,1581,1544,1544,0,0,0,0,0,0,0,0,0,0
1683126464.00015092,61428752,1584,1584,1542,1541,0,0,0,0,0,0,0,0,0,0
1683126464.10011101,61528712,1587,1587,1539,1539,0,0,0,0,0,0,0,0,0,0
1683126464.20007086,61628672,1589,1590,1536,1535,0,0,0,0,0,0,0,0,0,0
1683126464.30003095,61728632,1592,1592,1534,1534,0,0,0,0,0,0,0,0,0,0
1683126464.39999104,61828592,1593,1594,1533,1533,0,0,0,0,0,0,0,0,0,0
1683126464.49995089,61928552,1594,1594,1534,1535,0,0,0,0,0,0,0,0,0,0
1683126464.59991097,62028512,1593,1594,1535,1537,0,0,0,0,0,0,0,0,0,0
1683126464.69987106,62128472,1592,1591,1539,1542,0,0,0,0,0,0,0,0,0,0
1683126464.79983091,62228432,1589,1586,1544,1548,0,0,0,0,0,0,0,0,0,0
1683126464.89979100,62328392,1583,1579,1553,1556,0,0,0,0,0,0,0,0,0,0
1683126464.99975109,62428352,1573,1570,1562,1565,0,0,0,0,0,0,0,0,0,0
1683126465.09971094,62528312,1564,1560,1576,1578,0,0,0,0,0,0,0,0,0,0
1683126465.19967103,62628272,1553,1549,1589,1589,0,0,0,0,0,0,0,0,0,0
1683126465.29963088,62728232,1541,1539,1599,1599,0,0,0,0,0,0,0,0,0,0
1683126465.39959097,62828192,1534,1533,1609,1608,0,0,0,0,0,0,0,0,0,0
1683126465.50038409,62928985,1529,1530,1614,1614,0,0,0,0,0,0,0,0,0,0
1683126465.60034394,63028945,1527,1530,1615,1614,0,0,0,0,0,0,0,0,0,0
1683126465.70030403,63128905,1531,1534,1614,1613,0,0,0,0,0,0,0,0,0,0
1683126465.80026388,63228865,1538,1540,1610,1609,0,0,0,0,0,0,0,0,0,0
1683126465.90022397,63328825,1546,1547,1603,1603,0,0,0,0,0,0,0,0,0,0
1683126466.00018406,63428785,1554,1555,1595,1595,0,0,0,0,0,0,0,0,0,0
1683126466.10014391,63528745,1562,1563,1587,1587,0,0,0,0,0,0,0,0,0,0
1683126466.20010400,63628705,1570,1571,1580,1579,0,0,0,0,0,0,0,0,0,0
1683126466.30006409,63728665,1578,1577,1575,1574,0,0,0,0,0,0,0,0,0,0
1683126466.40002394,63828625,1583,1582,1569,1569,0,0,0,0,0,0,0,0,0,0
1683126466.49998403,63928585,1586,1585,1566,1567,0,0,0,0,0,0,0,0,0,0
1683126466.59994388,64028545,1588,1587,1566,1567,0,0,0,0,0,0,0,0,0,0
1683126466.69990396,64128505,1588,1587,1567,1567,0,0,0,0,0,0,0,0,0,0
1683126466.79986405,64228465,1585,1585,1567,1568,0,0,0,0,0,0,0,0,0,0
1683126466.89982390,64328425,1584,1583,1571,1571,0,0,0,0,0,0,0,0,0,0
1683126466.99978399,64428385,1581,1581,1574,1574,0,0,0,0,0,0,0,0,0,0
1683126467.09974408,64528345,1578,1579,1578,1577,0,0,0,0,0,0,0,0,0,0
1683126467.19970393,64628305,1575,1576,1579,1580,0,0,0,0,0,0,0,0,0,0
1683126467.29966402,64728265,1574,1574,1582,1582,0,0,0,0,0,0,0,0,0,0
1683126467.39962387,64828225,1573,1574,1584,1584,0,0,0,0,0,0,0,0,0,0
1683126467.49958396,64928185,1572,1574,1584,1584,0,0,0,0,0,0,0,0,0,0
1683126467.60037708,65028978,1571,1572,1582,1582,0,0,0,0,0,0,0,0,0,0
1683126467.70033693,65128938,1573,1573,1583,1583,0,0,0,0,0,0,0,0,0,0
1683126467.80029702,65228898,1574,1574,1582,1582,0,0,0,0,0,0,0,0,0,0
1683126467.90025687,65328858,1575,1575,1580,1580,0,0,0,0,0,0,0,0,0,0
1683126468.00021696,65428818,1319,1322,1644,1652,0,0,0,0,0,0,0,0,0,0
1683126468.10017705,65528778,1398,1407,1654,1657,0,0,0,0,0,0,0,0,0,0
1683126468.20013690,65628738,1466,1478,1642,1637,0,0,0,0,0,0,0,0,0,0
1683126468.30009699,65728698,1524,1532,1632,1621,0,0,0,0,0,0,0,0,0,0
1683126468.40005708,65828658,1568,1568,1622,1612,0,0,0,0,0,0,0,0,0,0
1683126468.50001693,65928618,1600,1583,1595,1589,0,0,0,0,0,0,0,0,0,0
1683126468.59997702,66028578,1600,1582,1523,1530,0,0,0,0,0,0,0,0,0,0
1683126468.69993687,66128538,1600,1588,1476,1493,0,0,0,0,0,0,0,0,0,0
1683126468.79989696,66228498,1600,1599,1490,1503,0,0,0,0,0,0,0,0,0,0
1683126468.89985704,66328458,1592,1600,1506,1510,0,0,0,0,0,0,0,0,0,0
1683126468.99981689,66428418,1590,1600,1526,1523,0,0,0,0,0,0,0,0,0,0
1683126469.09977698,66528378,1592,1600,1545,1540,0,0,0,0,0,0,0,0,0,0
1683126469.19973707,66628338,1597,1600,1561,1556,0,0,0,0,0,0,0,0,0,0
1683126469.29969692,66728298,1600,1597,1567,1566,0,0,0,0,0,0,0,0,0,0
1683126469.39965701,66828258,1600,1596,1570,1571,0,0,0,0,0,0,0,0,0,0
1683126469.49961686,66928218,1600,1596,1572,1576,0,0,0,0,0,0,0,0,0,0
1683126469.59957695,67028178,1600,1596,1579,1575,0,0,0,0,0,0,0,0,0,0
1683126469.70037007,67128971,1600,1594,1583,1578,0,0,0,0,0,0,0,0,0,0
1683126469.80032992,67228931,1600,1594,1585,1583,0,0,0,0,0,0,0,0,0,0
1683126469.90029001,67328891,1600,1596,1587,1587,0,0,0,0,0,0,0,0,0,0
1683126470.00024986,67428851,1600,1598,1588,1589,0,0,0,0,0,0,0,0,0,0
1683126470.10020995,67528811,1599,1600,1589,1590,0,0,0,0,0,0,0,0,0,0
1683126470.20017004,67628771,1600,1598,1587,1589,0,0,0,0,0,0,0,0,0,0
1683126470.30012989,67728731,1597,1600,1582,1589,0,0,0,0,0,0,0,0,0,0
1683126470.40008998,67828691,1594,1600,1581,1584,0,0,0,0,0,0,0,0,0,0
1683126470.50005007,67928651,1593,1600,1583,1581,0,0,0,0,0,0,0,0,0,0
1683126470.60000992,68028611,1594,1600,1585,1581,0,0,0,0,0,0,0,0,0,0
1683126470.69997001,68128571,1597,1600,1587,1583,0,0,0,0,0,0,0,0,0,0
1683126470.79992986,68228531,1599,1600,1588,1585,0,0,0,0,0,0,0,0,0,0
1683126470.89988995,68328491,1600,1599,1586,1585,0,0,0,0,0,0,0,0,0,0
1683126470.99985003,68428451,1600,1599,1585,1585,0,0,0,0,0,0,0,0,0,0
1683126471.09980989,68528411,1599,1600,1582,1587,0,0,0,0,0,0,0,0,0,0
1683126471.19976997,68628371,1599,1600,1586,1581,0,0,0,0,0,0,0,0,0,0
1683126471.29973006,68728331,1600,1595,1585,1577,0,0,0,0,0,0,0,0,0,0
1683126471.39968991,68828291,1600,1592,1583,1578,0,0,0,0,0,0,0,0,0,0
1683126471.49965000,68928251,1600,1593,1581,1581,0,0,0,0,0,0,0,0,0,0
1683126471.59961009,69028211,1597,1593,1577,1580,0,0,0,0,0,0,0,0,0,0
1683126471.69956994,69128171,1588,1587,1566,1569,0,0,0,0,0,0,0,0,0,0
1683126471.80036306,69228964,1582,1583,1560,1561,0,0,0,0,0,0,0,0,0,0
1683126471.90032291,69328924,1576,1578,1554,1552,0,0,0,0,0,0,0,0,0,0
1683126472.00028300,69428884,1676,1678,1529,1526,0,0,0,0,0,0,0,0,0,0
1683126472.10024309,69528844,1649,1650,1513,1509,0,0,0,0,0,0,0,0,0,0
1683126472.20020294,69628804,1627,1628,1509,1505,0,0,0,0,0,0,0,0,0,0
1683126472.30016303,69728764,1609,1611,1507,1505,0,0,0,0,0,0,0,0,0,0
1683126472.40012288,69828724,1596,1597,1507,1506,0,0,0,0,0,0,0,0,0,0
1683126472.50008297,69928684,1585,1586,1508,1508,0,0,0,0,0,0,0,0,0,0
1683126472.60004306,70028644,1576,1578,1512,1513,0,0,0,0,0,0,0,0,0,0
1683126472.70000291,70128604,1569,1572,1518,1520,0,0,0,0,0,0,0,0,0,0
1683126472.79996300,70228564,1564,1567,1523,1526,0,0,0,0,0,0,0,0,0,0
1683126472.89992309,70328524,1561,1564,1529,1533,0,0,0,0,0,0,0,0,0,0
1683126472.99988294,70428484,1560,1562,1537,1540,0,0,0,0,0,0,0,0,0,0
1683126473.09984303,70528444,1558,1560,1542,1545,0,0,0,0,0,0,0,0,0,0
1683126473.19980288,70628404,1559,1558,1547,1550,0,0,0,0,0,0,0,0,0,0
1683126473.29976296,70728364,1559,1559,1552,1554,0,0,0,0,0,0,0,0,0,0
1683126473.39972305,70828324,1560,1560,1557,1559,0,0,0,0,0,0,0,0,0,0
1683126473.49968290,70928284,1561,1559,1560,1561,0,0,0,0,0,0,0,0,0,0
1683126473.59964299,71028244,1562,1561,1563,1563,0,0,0,0,0,0,0,0,0,0
1683126473.69960308,71128204,1563,1563,1566,1566,0,0,0,0,0,0,0,0,0,0
1683126473.79956293,71228164,1566,1564,1569,1568,0,0,0,0,0,0,0,0,0,0
1683126473.90035605,71328957,1567,1566,1570,1570,0,0,0,0,0,0,0,0,0,0
1683126474.00031590,71428917,1569,1568,1570,1571,0,0,0,0,0,0,0,0,0,0
1683126474.10027599,71528877,1572,1571,1570,1571,0,0,0,0,0,0,0,0,0,0
1683126474.20023608,71628837,1574,1573,1569,1569,0,0,0,0,0,0,0,0,0,0
1683126474.30019593,71728797,1567,1560,1584,1586,0,0,0,0,0,0,0,0,0,0
1683126474.40015602,71828757,1544,1536,1610,1610,0,0,0,0,0,0,0,0,0,0
1683126474.50011587,71928717,1523,1519,1632,1631,0,0,0,0,0,0,0,0,0,0
1683126474.60007596,72028677,1508,1509,1643,1642,0,0,0,0,0,0,0,0,0,0
1683126474.70003605,72128637,1503,1510,1647,1646,0,0,0,0,0,0,0,0,0,0
1683126474.79999590,72228597,1506,1515,1643,1641,0,0,0,0,0,0,0,0,0,0
1683126474.89995599,72328557,1515,1525,1633,1631,0,0,0,0,0,0,0,0,0,0
1683126474.99991608,72428517,1531,1538,1618,1617,0,0,0,0,0,0,0,0,0,0
1683126475.09987593,72528477,1547,1551,1601,1601,0,0,0,0,0,0,0,0,0,0
1683126475.19983602,72628437,1564,1563,1583,1583,0,0,0,0,0,0,0,0,0,0
1683126475.29979587,72728397,1580,1577,1569,1570,0,0,0,0,0,0,0,0,0,0
1683126475.39975595,72828357,1593,1588,1558,1558,0,0,0,0,0,0,0,0,0,0
1683126475.49971604,72928317,1601,1596,1553,1553,0,0,0,0,0,0,0,0,0,0
1683126475.59967589,73028277,1605,1600,1552,1552,0,0,0,0,0,0,0,0,0,0
1683126475.69963598,73128237,1604,1601,1553,1552,0,0,0,0,0,0,0,0,0,0
1683126475.79959607,73228197,1602,1600,1556,1556,0,0,0,0,0,0,0,0,0,0
1683126475.89955592,73328157,1599,1598,1559,1561,0,0,0,0,0,0,0,0,0,0
1683126476.00034904,73428950,1595,1595,1564,1564,0,0,0,0,0,0,0,0,0,0
1683126476.10030890,73528910,1591,1593,1569,1569,0,0,0,0,0,0,0,0,0,0
1683126476.20026898,73628870,1588,1589,1573,1573,0,0,0,0,0,0,0,0,0,0
1683126476.30022907,73728830,1584,1585,1576,1576,0,0,0,0,0,0,0,0,0,0
1683126476.40018892,73828790,1582,1581,1580,1580,0,0,0,0,0,0,0,0,0,0
1683126476.50014901,73928750,1578,1578,1583,1583,0,0,0,0,0,0,0,0,0,0
1683126476.60010886,74028710,1575,1575,1585,1585,0,0,0,0,0,0,0,0,0,0
1683126476.70006895,74128670,1573,1574,1588,1587,0,0,0,0,0,0,0,0,0,0
1683126476.80002904,74228630,1571,1571,1588,1588,0,0,0,0,0,0,0,0,0,0
1683126476.89998889,74328590,1570,1571,1589,1589,0,0,0,0,0,0,0,0,0,0
1683126476.99994898,74428550,1570,1571,1588,1588,0,0,0,0,0,0,0,0,0,0
1683126477.09990907,74528510,1571,1573,1587,1587,0,0,0,0,0,0,0,0,0,0
1683126477.19986892,74628470,1573,1573,1585,1585,0,0,0,0,0,0,0,0,0,0
1683126477.29982901,74728430,1575,1575,1583,1583,0,0,0,0,0,0,0,0,0,0
1683126477.39978886,74828390,1577,1577,1581,1581,0,0,0,0,0,0,0,0,0,0
1683126477.49974895,74928350,1580,1580,1580,1580,0,0,0,0,0,0,0,0,0,0
1683126477.59970903,75028310,1582,1582,1578,1578,0,0,0,0,0,0,0,0,0,0
1683126477.69966888,75128270,1583,1583,1578,1577,0,0,0,0,0,0,0,0,0,0
1683126477.79962897,75228230,1584,1584,1576,1576,0,0,0,0,0,0,0,0,0,0
1683126477.89958906,75328190,1585,1584,1576,1577,0,0,0,0,0,0,0,0,0,0
1683126478.00038195,75428983,1585,1585,1577,1577,0,0,0,0,0,0,0,0,0,0
1683126478.10034204,75528943,1584,1584,1577,1577,0,0,0,0,0,0,0,0,0,0
1683126478.20030189,75628903,1585,1584,1579,1579,0,0,0,0,0,0,0,0,0,0
1683126478.30026197,75728863,1583,1583,1578,1578,0,0,0,0,0,0,0,0,0,0
1683126478.40022206,75828823,1583,1583,1580,1580,0,0,0,0,0,0,0,0,0,0
1683126478.50018191,75928783,1582,1582,1581,1581,0,0,0,0,0,0,0,0,0,0
1683126478.60014200,76028743,1580,1581,1581,1581,0,0,0,0,0,0,0,0,0,0
1683126478.70010209,76128703,1580,1580,1581,1581,0,0,0,0,0,0,0,0,0,0
1683126478.80006194,76228663,1579,1580,1582,1582,0,0,0,0,0,0,0,0,0,0
1683126478.90002203,76328623,1579,1580,1583,1583,0,0,0,0,0,0,0,0,0,0
1683126478.99998188,76428583,1579,1579,1584,1581,0,0,0,0,0,0,0,0,0,0
1683126479.09994197,76528543,1580,1581,1590,1575,0,0,0,0,0,0,0,0,0,0
1683126479.19990206,76628503,1580,1581,1585,1575,0,0,0,0,0,0,0,0,0,0
1683126479.29986191,76728463,1577,1579,1574,1573,0,0,0,0,0,0,0,0,0,0
1683126479.39982200,76828423,1576,1579,1566,1571,0,0,0,0,0,0,0,0,0,0
1683126479.49978209,76928383,1576,1579,1560,1566,0,0,0,0,0,0,0,0,0,0
1683126479.59974194,77028343,1577,1578,1556,1561,0,0,0,0,0,0,0,0,0,0
1683126479.69970202,77128303,1578,1577,1554,1557,0,0,0,0,0,0,0,0,0,0
1683126479.79966187,77228263,1579,1577,1555,1554,0,0,0,0,0,0,0,0,0,0
1683126479.89962196,77328223,1579,1578,1555,1553,0,0,0,0,0,0,0,0,0,0
1683126479.99958205,77428183,1578,1577,1555,1553,0,0,0,0,0,0,0,0,0,0
1683126480.10037494,77528976,1577,1577,1555,1553,0,0,0,0,0,0,0,0,0,0
1683126480.20033503,77628936,1576,1577,1554,1553,0,0,0,0,0,0,0,0,0,0
1683126480.30029488,77728896,1575,1577,1553,1553,0,0,0,0,0,0,0,0,0,0
1683126480.40025496,77828856,1574,1576,1552,1552,0,0,0,0,0,0,0,0,0,0
1683126480.50021505,77928816,1575,1577,1551,1552,0,0,0,0,0,0,0,0,0,0
1683126480.60017490,78028776,1576,1578,1550,1550,0,0,0,0,0,0,0,0,0,0
1683126480.70013499,78128736,1577,1579,1549,1548,0,0,0,0,0,0,0,0,0,0
1683126480.80009508,78228696,1579,1581,1547,1546,0,0,0,0,0,0,0,0,0,0
1683126480.90005493,78328656,1582,1583,1545,1544,0,0,0,0,0,0,0,0,0,0
1683126481.00001502,78428616,1585,1586,1543,1543,0,0,0,0,0,0,0,0,0,0
1683126481.09997487,78528576,1587,1587,1540,1540,0,0,0,0,0,0,0,0,0,0
1683126481.19993496,78628536,1590,1590,1539,1539,0,0,0,0,0,0,0,0,0,0
1683126481.29989505,78728496,1591,1591,1538,1538,0,0,0,0,0,0,0,0,0,0
1683126481.39985490,78828456,1592,1592,1538,1539,0,0,0,0,0,0,0,0,0,0
1683126481.49981499,78928416,1591,1591,1538,1540,0,0,0,0,0,0,0,0,0,0
1683126481.59977508,79028376,1591,1590,1541,1543,0,0,0,0,0,0,0,0,0,0
1683126481.69973493,79128336,1588,1588,1545,1548,0,0,0,0,0,0,0,0,0,0
1683126481.79969501,79228296,1584,1583,1550,1554,0,0,0,0,0,0,0,0,0,0
1683126481.89965487,79328256,1579,1576,1559,1562,0,0,0,0,0,0,0,0,0,0
1683126481.99961495,79428216,1572,1568,1570,1572,0,0,0,0,0,0,0,0,0,0
1683126482.09957504,79528176,1562,1558,1581,1583,0,0,0,0,0,0,0,0,0,0
1683126482.20036793,79628969,1552,1548,1592,1593,0,0,0,0,0,0,0,0,0,0
1683126482.30032802,79728929,1542,1541,1601,1601,0,0,0,0,0,0,0,0,0,0
1683126482.40028787,79828889,1535,1535,1607,1607,0,0,0,0,0,0,0,0,0,0
1683126482.50024796,79928849,1531,1532,1611,1610,0,0,0,0,0,0,0,0,0,0
1683126482.60020804,80028809,1529,1532,1611,1610,0,0,0,0,0,0,0,0,0,0
1683126482.70016789,80128769,1532,1535,1609,1609,0,0,0,0,0,0,0,0,0,0
1683126482.80012798,80228729,1538,1540,1605,1605,0,0,0,0,0,0,0,0,0,0
1683126482.90008807,80328689,1545,1546,1599,1599,0,0,0,0,0,0,0,0,0,0
1683126483.00004792,80428649,1553,1554,1593,1592,0,0,0,0,0,0,0,0,0,0
1683126483.10000801,80528609,1561,1561,1586,1585,0,0,0,0,0,0,0,0,0,0
1683126483.19996786,80628569,1569,1569,1579,1578,0,0,0,0,0,0,0,0,0,0
1683126483.29992795,80728529,1576,1575,1573,1573,0,0,0,0,0,0,0,0,0,0
1683126483.39988804,80828489,1581,1580,1568,1569,0,0,0,0,0,0,0,0,0,0
1683126483.49984789,80928449,1585,1584,1566,1566,0,0,0,0,0,0,0,0,0,0
1683126483.59980798,81028409,1589,1587,1566,1566,0,0,0,0,0,0,0,0,0,0
1683126483.69976807,81128369,1590,1588,1567,1567,0,0,0,0,0,0,0,0,0,0
1683126483.79972792,81228329,1589,1588,1569,1568,0,0,0,0,0,0,0,0,0,0
1683126483.89968801,81328289,1588,1587,1572,1571,0,0,0,0,0,0,0,0,0,0
1683126483.99964786,81428249,1585,1585,1574,1574,0,0,0,0,0,0,0,0,0,0
1683126484.09960794,81528209,1583,1582,1576,1576,0,0,0,0,0,0,0,0,0,0
1683126484.19956803,81628169,1580,1580,1578,1578,0,0,0,0,0,0,0,0,0,0
1683126484.30036092,81728962,1577,1577,1580,1580,0,0,0,0,0,0,0,0,0,0
1683126484.40032101,81828922,1575,1575,1582,1582,0,0,0,0,0,0,0,0,0,0
1683126484.50028086,81928882,1574,1574,1583,1583,0,0,0,0,0,0,0,0,0,0
1683126484.60024095,82028842,1573,1574,1584,1584,0,0,0,0,0,0,0,0,0,0
1683126484.70020103,82128802,1573,1574,1584,1584,0,0,0,0,0,0,0,0,0,0
1683126484.80016088,82228762,1574,1575,1585,1584,0,0,0,0,0,0,0,0,0,0
1683126484.90012097,82328722,1575,1576,1584,1583,0,0,0,0,0,0,0,0,0,0
1683126485.00008106,82428682,1577,1577,1583,1583,0,0,0,0,0,0,0,0,0,0
1683126485.10004091,82528642,1578,1578,1582,1581,0,0,0,0,0,0,0,0,0,0
1683126485.20000100,82628602,1579,1579,1580,1581,0,0,0,0,0,0,0,0,0,0
1683126485.29996109,82728562,1580,1579,1578,1579,0,0,0,0,0,0,0,0,0,0
1683126485.39992094,82828522,1582,1581,1579,1579,0,0,0,0,0,0,0,0,0,0
1683126485.49988103,82928482,1582,1581,1578,1578,0,0,0,0,0,0,0,0,0,0
1683126485.59984088,83028442,1582,1582,1578,1578,0,0,0,0,0,0,0,0,0,0
1683126485.69980097,83128402,1582,1582,1577,1577,0,0,0,0,0,0,0,0,0,0
1683126485.79976106,83228362,1582,1582,1577,1577,0,0,0,0,0,0,0,0,0,0
1683126485.89972091,83328322,1582,1581,1578,1578,0,0,0,0,0,0,0,0,0,0
1683126485.99968100,83428282,1581,1582,1579,1579,0,0,0,0,0,0,0,0,0,0
1683126486.09964108,83528242,1580,1581,1579,1578,0,0,0,0,0,0,0,0,0,0
1683126486.19960093,83628202,1580,1581,1580,1580,0,0,0,0,0,0,0,0,0,0
1683126486.29956102,83728162,1580,1580,1580,1580,0,0,0,0,0,0,0,0,0,0
1683126486.40035391,83828955,1580,1580,1581,1581,0,0,0,0,0,0,0,0,0,0
1683126486.50031400,83928915,1580,1579,1581,1581,0,0,0,0,0,0,0,0,0,0
1683126486.60027409,84028875,1580,1580,1582,1582,0,0,0,0,0,0,0,0,0,0
1683126486.70023394,84128835,1579,1580,1581,1581,0,0,0,0,0,0,0,0,0,0
1683126486.80019403,84228795,1580,1580,1582,1582,0,0,0,0,0,0,0,0,0,0
1683126486.90015388,84328755,1580,1581,1582,1582,0,0,0,0,0,0,0,0,0,0
1683126487.00011396,84428715,1581,1581,1582,1582,0,0,0,0,0,0,0,0,0,0
1683126487.10007405,84528675,1581,1581,1583,1580,0,0,0,0,0,0,0,0,0,0
1683126487.20003390,84628635,1581,1581,1588,1573,0,0,0,0,0,0,0,0,0,0
1683126487.29999399,84728595,1580,1579,1582,1573,0,0,0,0,0,0,0,0,0,0
1683126487.39995408,84828555,1578,1577,1575,1575,0,0,0,0,0,0,0,0,0,0
1683126487.49991393,84928515,1574,1573,1568,1573,0,0,0,0,0,0,0,0,0,0
1683126487.59987402,85028475,1572,1571,1565,1572,0,0,0,0,0,0,0,0,0,0
1683126487.69983387,85128435,1570,1570,1564,1570,0,0,0,0,0,0,0,0,0,0
1683126487.79979396,85228395,1568,1568,1565,1567,0,0,0,0,0,0,0,0,0,0
1683126487.89975405,85328355,1567,1567,1566,1566,0,0,0,0,0,0,0,0,0,0
1683126487.99971390,85428315,1566,1567,1567,1565,0,0,0,0,0,0,0,0,0,0
1683126488.09967399,85528275,1565,1566,1567,1565,0,0,0,0,0,0,0,0,0,0
1683126488.19963408,85628235,1564,1564,1567,1565,0,0,0,0,0,0,0,0,0,0
1683126488.29959393,85728195,1564,1564,1566,1565,0,0,0,0,0,0,0,0,0,0
1683126488.39955401,85828155,1563,1563,1565,1565,0,0,0,0,0,0,0,0,0,0
1683126488.50034690,85928948,1562,1562,1564,1564,0,0,0,0,0,0,0,0,0,0
1683126488.60030699,86028908,1562,1562,1563,1564,0,0,0,0,0,0,0,0,0,0
1683126488.70026708,86128868,1562,1562,1563,1563,0,0,0,0,0,0,0,0,0,0
1683126488.80022693,86228828,1561,1561,1563,1562,0,0,0,0,0,0,0,0,0,0
1683126488.90018702,86328788,1562,1562,1563,1562,0,0,0,0,0,0,0,0,0,0
1683126489.00014687,86428748,1560,1560,1561,1560,0,0,0,0,0,0,0,0,0,0
1683126489.10010695,86528708,1560,1560,1560,1560,0,0,0,0,0,0,0,0,0,0
1683126489.20006704,86628668,1560,1559,1559,1558,0,0,0,0,0,0,0,0,0,0
1683126489.30002689,86728628,1559,1559,1559,1557,0,0,0,0,0,0,0,0,0,0
1683126489.39998698,86828588,1559,1559,1559,1557,0,0,0,0,0,0,0,0,0,0
1683126489.49994707,86928548,1559,1559,1559,1558,0,0,0,0,0,0,0,0,0,0
1683126489.59990692,87028508,1559,1559,1559,1558,0,0,0,0,0,0,0,0,0,0
1683126489.69986701,87128468,1559,1559,1559,1558,0,0,0,0,0,0,0,0,0,0
1683126489.79982686,87228428,1558,1558,1560,1557,0,0,0,0,0,0,0,0,0,0
1683126489.89978695,87328388,1559,1558,1560,1558,0,0,0,0,0,0,0,0,0,0
1683126489.99974704,87428348,1559,1559,1559,1560,0,0,0,0,0,0,0,0,0,0
1683126490.09970689,87528308,1560,1560,1558,1563,0,0,0,0,0,0,0,0,0,0
1683126490.19966698,87628268,1560,1560,1558,1564,0,0,0,0,0,0,0,0,0,0
1683126490.29962707,87728228,1558,1558,1556,1560,0,0,0,0,0,0,0,0,0,0
1683126490.39958692,87828188,1559,1559,1558,1560,0,0,0,0,0,0,0,0,0,0
1683126490.50038004,87928981,1558,1558,1556,1560,0,0,0,0,0,0,0,0,0,0
1683126490.60033989,88028941,1555,1555,1553,1555,0,0,0,0,0,0,0,0,0,0
1683126490.70029998,88128901,1552,1552,1549,1550,0,0,0,0,0,0,0,0,0,0
1683126490.80026007,88228861,1547,1547,1544,1543,0,0,0,0,0,0,0,0,0,0
1683126490.90021992,88328821,1541,1540,1537,1537,0,0,0,0,0,0,0,0,0,0
1683126491.00018001,88428781,1534,1533,1530,1529,0,0,0,0,0,0,0,0,0,0
1683126491.10013986,88528741,1527,1527,1522,1522,0,0,0,0,0,0,0,0,0,0
1683126491.20009995,88628701,1522,1522,1519,1519,0,0,0,0,0,0,0,0,0,0
1683126491.30006003,88728661,1520,1521,1519,1520,0,0,0,0,0,0,0,0,0,0
1683126491.40001988,88828621,1519,1519,1520,1521,0,0,0,0,0,0,0,0,0,0
1683126491.49997997,88928581,1520,1521,1523,1524,0,0,0,0,0,0,0,0,0,0
1683126491.59994006,89028541,1523,1523,1528,1528,0,0,0,0,0,0,0,0,0,0
1683126491.69989991,89128501,1527,1526,1533,1533,0,0,0,0,0,0,0,0,0,0
1683126491.79986000,89228461,1530,1530,1538,1537,0,0,0,0,0,0,0,0,0,0
1683126491.89982009,89328421,1534,1534,1541,1541,0,0,0,0,0,0,0,0,0,0
1683126491.99977994,89428381,1537,1537,1543,1542,0,0,0,0,0,0,0,0,0,0
1683126492.09974003,89528341,1540,1540,1544,1544,0,0,0,0,0,0,0,0,0,0
1683126492.19969988,89628301,1543,1543,1545,1544,0,0,0,0,0,0,0,0,0,0
1683126492.29965997,89728261,1545,1545,1545,1545,0,0,0,0,0,0,0,0,0,0
1683126492.39962006,89828221,1546,1547,1545,1545,0,0,0,0,0,0,0,0,0,0
1683126492.49957991,89928181,1548,1548,1545,1545,0,0,0,0,0,0,0,0,0,0
1683126492.60037303,90028974,1549,1549,1545,1545,0,0,0,0,0,0,0,0,0,0
1683126492.70033288,90128934,1549,1549,1545,1544,0,0,0,0,0,0,0,0,0,0
1683126492.80029297,90228894,1549,1549,1544,1544,0,0,0,0,0,0,0,0,0,0
1683126492.90025306,90328854,1549,1548,1545,1544,0,0,0,0,0,0,0,0,0,0
1683126493.00021291,90428814,1548,1548,1546,1545,0,0,0,0,0,0,0,0,0,0
1683126493.10017300,90528774,1547,1548,1545,1545,0,0,0,0,0,0,0,0,0,0
1683126493.20013309,90628734,1546,1546,1544,1545,0,0,0,0,0,0,0,0,0,0
1683126493.30009294,90728694,1546,1546,1545,1545,0,0,0,0,0,0,0,0,0,0
1683126493.40005302,90828654,1545,1545,1546,1546,0,0,0,0,0,0,0,0,0,0
1683126493.50001287,90928614,1545,1544,1546,1545,0,0,0,0,0,0,0,0,0,0
1683126493.59997296,91028574,1543,1544,1545,1544,0,0,0,0,0,0,0,0,0,0
1683126493.69993305,91128534,1544,1544,1546,1546,0,0,0,0,0,0,0,0,0,0
1683126493.79989290,91228494,1543,1544,1545,1545,0,0,0,0,0,0,0,0,0,0
1683126493.89985299,91328454,1543,1543,1544,1545,0,0,0,0,0,0,0,0,0,0
1683126493.99981308,91428414,1544,1544,1545,1545,0,0,0,0,0,0,0,0,0,0
1683126494.09977293,91528374,1544,1543,1544,1545,0,0,0,0,0,0,0,0,0,0
1683126494.19973302,91628334,1543,1543,1544,1544,0,0,0,0,0,0,0,0,0,0
1683126494.29969287,91728294,1544,1544,1544,1544,0,0,0,0,0,0,0,0,0,0
1683126494.39965296,91828254,1543,1543,1543,1543,0,0,0,0,0,0,0,0,0,0
1683126494.49961305,91928214,1543,1543,1543,1543,0,0,0,0,0,0,0,0,0,0
1683126494.59957290,92028174,1543,1544,1543,1543,0,0,0,0,0,0,0,0,0,0
1683126494.70036602,92128967,1544,1544,1544,1544,0,0,0,0,0,0,0,0,0,0
1683126494.80032587,92228927,1544,1544,1543,1544,0,0,0,0,0,0,0,0,0,0
1683126494.90028596,92328887,1544,1545,1544,1544,0,0,0,0,0,0,0,0,0,0
1683126495.00024605,92428847,1545,1544,1544,1544,0,0,0,0,0,0,0,0,0,0
1683126495.10020590,92528807,1545,1545,1545,1545,0,0,0,0,0,0,0,0,0,0
1683126495.20016599,92628767,1545,1545,1545,1544,0,0,0,0,0,0,0,0,0,0
1683126495.30012608,92728727,1545,1545,1545,1545,0,0,0,0,0,0,0,0,0,0
1683126495.40008593,92828687,1545,1545,1545,1545,0,0,0,0,0,0,0,0,0,0
1683126495.50004601,92928647,1545,1545,1544,1545,0,0,0,0,0,0,0,0,0,0
1683126495.60000587,93028607,1545,1545,1545,1545,0,0,0,0,0,0,0,0,0,0
1683126495.69996595,93128567,1544,1544,1544,1544,0,0,0,0,0,0,0,0,0,0
1683126495.79992604,93228527,1544,1544,1543,1544,0,0,0,0,0,0,0,0,0,0
1683126495.89988589,93328487,1543,1543,1543,1543,0,0,0,0,0,0,0,0,0,0
1683126495.99984598,93428447,1543,1544,1544,1543,0,0,0,0,0,0,0,0,0,0
1683126496.09980607,93528407,1543,1543,1544,1543,0,0,0,0,0,0,0,0,0,0
1683126496.19976592,93628367,1544,1544,1544,1544,0,0,0,0,0,0,0,0,0,0
1683126496.29972601,93728327,1545,1544,1545,1545,0,0,0,0,0,0,0,0,0,0
1683126496.39968586,93828287,1544,1544,1544,1544,0,0,0,0,0,0,0,0,0,0
1683126496.49964595,93928247,1544,1544,1544,1544,0,0,0,0,0,0,0,0,0,0
1683126496.59960604,94028207,1543,1543,1543,1544,0,0,0,0,0,0,0,0,0,0
1683126496.69956589,94128167,1543,1543,1543,1543,0,0,0,0,0,0,0,0,0,0
1683126496.80035901,94228960,1544,1544,1544,1544,0,0,0,0,0,0,0,0,0,0
1683126496.90031886,94328920,1544,1543,1544,1544,0,0,0,0,0,0,0,0,0,0
1683126497.00027895,94428880,1545,1545,1545,1545,0,0,0,0,0,0,0,0,0,0
1683126497.10023904,94528840,1545,1544,1545,1545,0,0,0,0,0,0,0,0,0,0
1683126497.20019889,94628800,1545,1545,1545,1544,0,0,0,0,0,0,0,0,0,0
1683126497.30015898,94728760,1544,1544,1544,1544,0,0,0,0,0,0,0,0,0,0
1683126497.40011907,94828720,1544,1544,1544,1543,0,0,0,0,0,0,0,0,0,0
1683126497.50007892,94928680,1544,1544,1544,1544,0,0,0,0,0,0,0,0,0,0
1683126497.60003901,95028640,1544,1544,1544,1544,0,0,0,0,0,0,0,0,0,0
1683126497.69999886,95128600,1544,1545,1544,1544,0,0,0,0,0,0,0,0,0,0
1683126497.79995894,95228560,1544,1544,1544,1544,0,0,0,0,0,0,0,0,0,0
1683126497.89991903,95328520,1544,1544,1544,1544,0,0,0,0,0,0,0,0,0,0
1683126497.99987888,95428480,1544,1544,1544,1544,0,0,0,0,0,0,0,0,0,0
1683126498.09983897,95528440,1544,1544,1544,1544,0,0,0,0,0,0,0,0,0,0
1683126498.19979906,95628400,1544,1543,1543,1543,0,0,0,0,0,0,0,0,0,0
1683126498.29975891,95728360,1544,1544,1545,1544,0,0,0,0,0,0,0,0,0,0
1683126498.39971900,95828320,1544,1543,1544,1544,0,0,0,0,0,0,0,0,0,0
1683126498.49967909,95928280,1544,1544,1543,1544,0,0,0,0,0,0,0,0,0,0
1683126498.59963894,96028240,1543,1544,1543,1544,0,0,0,0,0,0,0,0,0,0
1683126498.69959903,96128200,1544,1544,1544,1544,0,0,0,0,0,0,0,0,0,0
1683126498.79955888,96228160,1544,1544,1544,1544,0,0,0,0,0,0,0,0,0,0
1683126498.90035200,96328953,1545,1545,1545,1545,0,0,0,0,0,0,0,0,0,0
1683126499.00031209,96428913,1545,1545,1545,1545,0,0,0,0,0,0,0,0,0,0
1683126499.10027194,96528873,1544,1544,1544,1544,0,0,0,0,0,0,0,0,0,0
1683126499.20023203,96628833,1545,1544,1544,1545,0,0,0,0,0,0,0,0,0,0
1683126499.30019188,96728793,1544,1544,1544,1544,0,0,0,0,0,0,0,0,0,0
1683126499.40015197,96828753,1544,1544,1545,1544,0,0,0,0,0,0,0,0,0,0
1683126499.50011206,96928713,1544,1544,1544,1544,0,0,0,0,0,0,0,0,0,0
1683126499.60007191,97028673,1544,1545,1544,1545,0,0,0,0,0,0,0,0,0,0
1683126499.70003200,97128633,1544,1544,1544,1544,0,0,0,0,0,0,0,0,0,0
1683126499.79999208,97228593,1544,1544,1545,1544,0,0,0,0,0,0,0,0,0,0
1683126499.89995193,97328553,1545,1544,1544,1545,0,0,0,0,0,0,0,0,0,0
1683126499.99991202,97428513,1544,1544,1544,1544,0,0,0,0,0,0,0,0,0,0
1683126500.09987187,97528473,1544,1544,1544,1544,0,0,0,0,0,0,0,0,0,0
1683126500.19983196,97628433,1544,1544,1544,1544,0,0,0,0,0,0,0,0,0,0
1683126500.29979205,97728393,1544,1545,1544,1545,0,0,0,0,0,0,0,0,0,0
1683126500.39975190,97828353,1544,1544,1544,1544,0,0,0,0,0,0,0,0,0,0
1683126500.49971199,97928313,1544,1544,1544,1544,0,0,0,0,0,0,0,0,0,0
1683126500.59967208,98028273,1544,1544,1544,1544,0,0,0,0,0,0,0,0,0,0
1683126500.69963193,98128233,1544,1544,1544,1544,0,0,0,0,0,0,0,0,0,0
1683126500.79959202,98228193,1545,1544,1545,1544,0,0,0,0,0,0,0,0,0,0
1683126500.90038490,98328986,1450,1448,1416,1418,0,0,0,0,0,0,0,0,0,0
1683126501.00034499,98428946,1355,1353,1276,1278,0,0,0,0,0,0,0,0,0,0
1683126501.10030508,98528906,1323,1320,1223,1226,0,0,0,0,0,0,0,0,0,0
1683126501.20026493,98628866,1311,1309,1204,1205,0,0,0,0,0,0,0,0,0,0
1683126501.30022502,98728826,1290,1288,1167,1168,0,0,0,0,0,0,0,0,0,0
1683126501.40018487,98828786,1249,1246,1150,1150,0,0,0,0,0,0,0,0,0,0
1683126501.50014496,98928746,1137,1133,1150,1150,0,0,0,0,0,0,0,0,0,0
1683126501.60010505,99028706,1094,1091,1150,1150,0,0,0,0,0,0,0,0,0,0
1683126501.70006490,99128666,1094,1091,1150,1150,0,0,0,0,0,0,0,0,0,0
1683126501.80002499,99228626,1094,1091,1150,1150,0,0,0,0,0,0,0,0,0,0
1683126501.89998507,99328586,1092,1078,1150,1170,0,0,0,0,0,0,0,0,0,0
1683126501.99994493,99428546,1093,1084,1150,1162,0,0,0,0,0,0,0,0,0,0
1683126502.09990501,99528506,1093,1085,1150,1159,0,0,0,0,0,0,0,0,0,0
1683126502.19986486,99628466,1094,1086,1150,1158,0,0,0,0,0,0,0,0,0,0
1683126502.29982495,99728426,1094,1086,1150,1159,0,0,0,0,0,0,0,0,0,0
1683126502.39978504,99828386,1094,1086,1150,1159,0,0,0,0,0,0,0,0,0,0
1683126502.49974489,99928346,1093,1085,1150,1159,0,0,0,0,0,0,0,0,0,0
1683126502.59970498,100028306,1093,1086,1150,1159,0,0,0,0,0,0,0,0,0,0
1683126502.69966507,100128266,1093,1092,1150,1150,0,0,0,0,0,0,0,0,0,0
1683126502.79962492,100228226,1093,1091,1150,1151,0,0,0,0,0,0,0,0,0,0
1683126502.89958501,100328186,1094,1091,1150,1151,0,0,0,0,0,0,0,0,0,0
1683126503.00037789,100428979,1093,1091,1150,1152,0,0,0,0,0,0,0,0,0,0
1683126503.10033798,100528939,1038,1036,1150,1151,0,0,0,0,0,0,0,0,0,0
1683126503.20029807,100628899,1000,1000,1000,1000,0,0,0,0,0,0,0,0,0,0
1683126503.30025792,100728859,1000,1000,1000,1000,0,0,0,0,0,0,0,0,0,0
1683126503.40021801,100828819,1000,1000,1000,1000,0,0,0,0,0,0,0,0,0,0
1683126503.50017786,100928779,1000,1000,1000,1000,0,0,0,0,0,0,0,0,0,0
1683126503.60013795,101028739,1000,1000,1000,1000,0,0,0,0,0,0,0,0,0,0
1683126503.70009804,101128699,1000,1000,1000,1000,0,0,0,0,0,0,0,0,0,0
1683126503.80005789,101228659,1000,1000,1000,1000,0,0,0,0,0,0,0,0,0,0
1683126503.90001798,101328619,1000,1000,1000,1000,0,0,0,0,0,0,0,0,0,0
1683126503.99997807,101428579,1000,1000,1000,1000,0,0,0,0,0,0,0,0,0,0
1683126504.09993792,101528539,1000,1000,1000,1000,0,0,0,0,0,0,0,0,0,0
1683126504.19989800,101628499,1000,1000,1000,1000,0,0,0,0,0,0,0,0,0,0
1683126504.29985785,101728459,1000,1000,1000,1000,0,0,0,0,0,0,0,0,0,0
1683126504.39981794,101828419,1000,1000,1000,1000,0,0,0,0,0,0,0,0,0,0
1683126504.49977803,101928379,1000,1000,1000,1000,0,0,0,0,0,0,0,0,0,0
1683126504.59973788,102028339,1000,1000,1000,1000,0,0,0,0,0,0,0,0,0,0
1683126504.69969797,102128299,1000,1000,1000,1000,0,0,0,0,0,0,0,0,0,0
1683126504.79965806,102228259,1000,1000,1000,1000,0,0,0,0,0,0,0,0,0,0
1683126504.89961791,102328219,1000,1000,1000,1000,0,0,0,0,0,0,0,0,0,0
1683126504.99957800,102428179,1000,1000,1000,1000,0,0,0,0,0,0,0,0,0,0
1683126505.10037088,102528972,1000,1000,1000,1000,0,0,0,0,0,0,0,0,0,0
1683126505.20033097,102628932,1000,1000,1000,1000,0,0,0,0,0,0,0,0,0,0
1683126505.30029106,102728892,1000,1000,1000,1000,0,0,0,0,0,0,0,0,0,0
1683126505.40025091,102828852,1000,1000,1000,1000,0,0,0,0,0,0,0,0,0,0
1683126505.50021100,102928812,1000,1000,1000,1000,0,0,0,0,0,0,0,0,0,0
1683126505.60017109,103028772,1000,1000,1000,1000,0,0,0,0,0,0,0,0,0,0
1683126505.70013094,103128732,1000,1000,1000,1000,0,0,0,0,0,0,0,0,0,0
1683126505.80009103,103228692,1000,1000,1000,1000,0,0,0,0,0,0,0,0,0,0
1683126505.90005088,103328652,1000,1000,1000,1000,0,0,0,0,0,0,0,0,0,0
1683126506.00001097,103428612,1000,1000,1000,1000,0,0,0,0,0,0,0,0,0,0
1683126506.09997106,103528572,1000,1000,1000,1000,0,0,0,0,0,0,0,0,0,0
1683126506.19993091,103628532,1000,1000,1000,1000,0,0,0,0,0,0,0,0,0,0
1683126506.29989100,103728492,1000,1000,1000,1000,0,0,0,0,0,0,0,0,0,0
1683126506.39985108,103828452,1000,1000,1000,1000,0,0,0,0,0,0,0,0,0,0
1683126506.49981093,103928412,1000,1000,1000,1000,0,0,0,0,0,0,0,0,0,0
1683126506.59977102,104028372,1000,1000,1000,1000,0,0,0,0,0,0,0,0,0,0
1683126506.69973087,104128332,1000,1000,1000,1000,0,0,0,0,0,0,0,0,0,0
1683126506.79969096,104228292,1000,1000,1000,1000,0,0,0,0,0,0,0,0,0,0
1683126506.89965105,104328252,1000,1000,1000,1000,0,0,0,0,0,0,0,0,0,0
1683126506.99961090,104428212,1000,1000,1000,1000,0,0,0,0,0,0,0,0,0,0
1683126507.09957099,104528172,1000,1000,1000,1000,0,0,0,0,0,0,0,0,0,0
1683126507.20036387,104628965,1000,1000,1000,1000,0,0,0,0,0,0,0,0,0,0
1683126507.30032396,104728925,1000,1000,1000,1000,0,0,0,0,0,0,0,0,0,0
1683126507.40028405,104828885,1000,1000,1000,1000,0,0,0,0,0,0,0,0,0,0
1683126507.50024390,104928845,1000,1000,1000,1000,0,0,0,0,0,0,0,0,0,0
1683126507.60020399,105028805,1000,1000,1000,1000,0,0,0,0,0,0,0,0,0,0
1683126507.70016408,105128765,1000,1000,1000,1000,0,0,0,0,0,0,0,0,0,0
1683126507.80012393,105228725,1000,1000,1000,1000,0,0,0,0,0,0,0,0,0,0
1683126507.90008402,105328685,1000,1000,1000,1000,0,0,0,0,0,0,0,0,0,0
1683126508.00004387,105428645,1000,1000,1000,1000,0,0,0,0,0,0,0,0,0,0
1683126508.10000396,105528605,1000,1000,1000,1000,0,0,0,0,0,0,0,0,0,0
1683126508.19996405,105628565,1000,1000,1000,1000,0,0,0,0,0,0,0,0,0,0
1683126508.29992390,105728525,1000,1000,1000,1000,0,0,0,0,0,0,0,0,0,0
1683126508.39988399,105828485,1000,1000,1000,1000,0,0,0,0,0,0,0,0,0,0
1683126508.49984407,105928445,1000,1000,1000,1000,0,0,0,0,0,0,0,0,0,0
1683126508.59980392,106028405,1000,1000,1000,1000,0,0,0,0,0,0,0,0,0,0
1683126508.69976401,106128365,1000,1000,1000,1000,0,0,0,0,0,0,0,0,0,0
1683126508.79972386,106228325,1000,1000,1000,1000,0,0,0,0,0,0,0,0,0,0
1683126508.89968395,106328285,1000,1000,1000,1000,0,0,0,0,0,0,0,0,0,0
1683126508.99964404,106428245,1000,1000,1000,1000,0,0,0,0,0,0,0,0,0,0
1683126509.09960389,106528205,1000,1000,1000,1000,0,0,0,0,0,0,0,0,0,0
1683126509.19956398,106628165,1000,1000,1000,1000,0,0,0,0,0,0,0,0,0,0
1683126509.30035686,106728958,1000,1000,1000,1000,0,0,0,0,0,0,0,0,0,0
1683126509.40031695,106828918,1000,1000,1000,1000,0,0,0,0,0,0,0,0,0,0
1683126509.50027704,106928878,1000,1000,1000,1000,0,0,0,0,0,0,0,0,0,0
1683126509.60023689,107028838,1000,1000,1000,1000,0,0,0,0,0,0,0,0,0,0
1683126509.70019698,107128798,1000,1000,1000,1000,0,0,0,0,0,0,0,0,0,0
1683126509.80015707,107228758,1000,1000,1000,1000,0,0,0,0,0,0,0,0,0,0
1683126509.90011692,107328718,1000,1000,1000,1000,0,0,0,0,0,0,0,0,0,0
1683126510.00007701,107428678,1000,1000,1000,1000,0,0,0,0,0,0,0,0,0,0
1683126510.10003686,107528638,1000,1000,1000,1000,0,0,0,0,0,0,0,0,0,0
1683126510.19999695,107628598,1000,1000,1000,1000,0,0,0,0,0,0,0,0,0,0
1683126510.29995704,107728558,1000,1000,1000,1000,0,0,0,0,0,0,0,0,0,0
1683126510.39991689,107828518,1000,1000,1000,1000,0,0,0,0,0,0,0,0,0,0
1683126510.49987698,107928478,1000,1000,1000,1000,0,0,0,0,0,0,0,0,0,0
1683126510.59983706,108028438,1000,1000,1000,1000,0,0,0,0,0,0,0,0,0,0
1683126510.69979692,108128398,1000,1000,1000,1000,0,0,0,0,0,0,0,0,0,0
1683126510.79975700,108228358,1000,1000,1000,1000,0,0,0,0,0,0,0,0,0,0
1683126510.89971709,108328318,1000,1000,1000,1000,0,0,0,0,0,0,0,0,0,0
1683126510.99967694,108428278,1000,1000,1000,1000,0,0,0,0,0,0,0,0,0,0
1683126511.09963703,108528238,1000,1000,1000,1000,0,0,0,0,0,0,0,0,0,0
1683126511.19959688,108628198,1000,1000,1000,1000,0,0,0,0,0,0,0,0,0,0
1683126511.29955697,108728158,1000,1000,1000,1000,0,0,0,0,0,0,0,0,0,0
1683126511.40034986,108828951,1000,1000,1000,1000,0,0,0,0,0,0,0,0,0,0
1683126511.50030994,108928911,1000,1000,1000,1000,0,0,0,0,0,0,0,0,0,0
1683126511.60027003,109028871,1000,1000,1000,1000,0,0,0,0,0,0,0,0,0,0
1683126511.70022988,109128831,1000,1000,1000,1000,0,0,0,0,0,0,0,0,0,0
1683126511.80018997,109228791,1000,1000,1000,1000,0,0,0,0,0,0,0,0,0,0
