TimeUS,M1,M2,M3,M4,TimeUS,C1,C2,C3,C4
49051205,1000,1000,1000,1000,49128674,1000,1000,1000,1000
49053704,1000,1000,1000,1000,49228634,1000,1000,1000,1000
49056203,1000,1000,1000,1000,49328594,1000,1000,1000,1000
49058702,1000,1000,1000,1000,49428554,1000,1000,1000,1000
49061201,1000,1000,1000,1000,49528514,1000,1000,1000,1000
49063700,1000,1000,1000,1000,49628474,1000,1000,1000,1000
49066199,1000,1000,1000,1000,49728434,1000,1000,1000,1000
49068698,1000,1000,1000,1000,49828394,1000,1000,1000,1000
49071197,1000,1000,1000,1000,49928354,1000,1000,1000,1000
49073696,1000,1000,1000,1000,50028314,1000,1000,1000,1000
49076195,1000,1000,1000,1000,50128274,1000,1000,1000,1000
49078694,1000,1000,1000,1000,50228234,1000,1000,1000,1000
49081193,1000,1000,1000,1000,50328194,1000,1000,1000,1000
49083692,1000,1000,1000,1000,50428154,1000,1000,1000,1000
49086191,1000,1000,1000,1000,50528947,1000,1000,1000,1000
49088690,1000,1000,1000,1000,50628907,1000,1000,1000,1000
49091189,1000,1000,1000,1000,50728867,1000,1000,1000,1000
49093688,1000,1000,1000,1000,50828827,1000,1000,1000,1000
49096187,1000,1000,1000,1000,50928787,1000,1000,1000,1000
49098686,1000,1000,1000,1000,51028747,1000,1000,1000,1000
49101185,1000,1000,1000,1000,51128707,1023,1023,1023,1023
49103684,1000,1000,1000,1000,51228667,1053,1053,1053,1053
49106183,1000,1000,1000,1000,51328627,1083,1083,1083,1083
49108682,1000,1000,1000,1000,51428587,1100,1100,1100,1100
49111181,1000,1000,1000,1000,51528547,1100,1100,1100,1100
49113680,1000,1000,1000,1000,51628507,1100,1100,1100,1100
49116179,1000,1000,1000,1000,51728467,1100,1100,1100,1100
49118678,1000,1000,1000,1000,51828427,1100,1100,1100,1100
49121177,1000,1000,1000,1000,51928387,1100,1100,1100,1100
49123676,1000,1000,1000,1000,52028347,1100,1100,1100,1100
49126175,1000,1000,1000,1000,52128307,1100,1100,1100,1100
49128674,1000,1000,1000,1000,52228267,1100,1100,1100,1100
49131173,1000,1000,1000,1000,52328227,1100,1100,1100,1100
49133672,1000,1000,1000,1000,52428187,1100,1100,1100,1100
49136171,1000,1000,1000,1000,52528980,1100,1100,1100,1100
49138670,1000,1000,1000,1000,52628940,1100,1100,1100,1100
49141169,1000,1000,1000,1000,52728900,1100,1100,1100,1100
49143668,1000,1000,1000,1000,52828860,1100,1100,1100,1100
49146167,1000,1000,1000,1000,52928820,1100,1100,1100,1100
49148666,1000,1000,1000,1000,53028780,1100,1100,1100,1100
49151165,1000,1000,1000,1000,53128740,1100,1100,1100,1100
49153664,1000,1000,1000,1000,53228700,1100,1100,1100,1100
49156163,1000,1000,1000,1000,53328660,1100,1100,1100,1100
49158662,1000,1000,1000,1000,53428620,1100,1100,1100,1100
49161161,1000,1000,1000,1000,53528580,1100,1100,1100,1100
49163660,1000,1000,1000,1000,53628540,1100,1100,1100,1100
49166159,1000,1000,1000,1000,53728500,1100,1100,1100,1100
49168658,1000,1000,1000,1000,53828460,1100,1100,1100,1100
49171157,1000,1000,1000,1000,53928420,1100,1100,1100,1100
49173656,1000,1000,1000,1000,54028380,1100,1100,1100,1100
49176155,1000,1000,1000,1000,54128340,1100,1100,1100,1100
49178654,1000,1000,1000,1000,54228300,1100,1100,1100,1100
49181153,1000,1000,1000,1000,54328260,1100,1100,1100,1100
49183652,1000,1000,1000,1000,54428220,1103,1103,1103,1103
49186151,1000,1000,1000,1000,54528180,1133,1133,1133,1133
49188650,1000,1000,1000,1000,54628973,1182,1176,1176,1183
49191149,1000,1000,1000,1000,54728933,1210,1203,1203,1210
49193648,1000,1000,1000,1000,54828893,1246,1239,1239,1246
49196147,1000,1000,1000,1000,54928853,1291,1284,1284,1292
49198646,1000,1000,1000,1000,55028813,1340,1333,1333,1340
49201145,1000,1000,1000,1000,55128773,1389,1381,1382,1389
49203644,1000,1000,1000,1000,55228733,1440,1432,1432,1440
49206143,1000,1000,1000,1000,55328693,1492,1484,1484,1492
49208642,1000,1000,1000,1000,55428653,1545,1538,1537,1545
49211141,1000,1000,1000,1000,55528613,1594,1586,1587,1594
49213640,1000,1000,1000,1000,55628573,1626,1618,1618,1626
49216139,1000,1000,1000,1000,55728533,1659,1651,1651,1660
49218638,1000,1000,1000,1000,55828493,1694,1685,1685,1694
49221137,1000,1000,1000,1000,55928453,1731,1723,1722,1731
49223636,1000,1000,1000,1000,56028413,1767,1758,1758,1767
49226135,1000,1000,1000,1000,56128373,1747,1743,1743,1747
49228634,1000,1000,1000,1000,56228333,1610,1611,1611,1610
49231133,1000,1000,1000,1000,56328293,1553,1556,1556,1553
49233632,1000,1000,1000,1000,56428253,1574,1577,1578,1574
49236131,1000,1000,1000,1000,56528213,1612,1615,1615,1612
49238630,1000,1000,1000,1000,56628173,1639,1640,1640,1638
49241129,1000,1000,1000,1000,56728966,1646,1646,1646,1646
49243628,1000,1000,1000,1000,56828926,1642,1641,1641,1642
49246127,1000,1000,1000,1000,56928886,1638,1636,1635,1638
49248626,1000,1000,1000,1000,57028846,1635,1633,1633,1635
49251125,1000,1000,1000,1000,57128806,1628,1633,1634,1627
49253624,1000,1000,1000,1000,57228766,1616,1616,1609,1622
49256123,1000,1000,1000,1000,57328726,1612,1612,1605,1619
49258622,1000,1000,1000,1000,57428686,1612,1611,1608,1615
49261121,1000,1000,1000,1000,57528646,1614,1612,1613,1612
49263620,1000,1000,1000,1000,57628606,1617,1616,1618,1613
49266119,1000,1000,1000,1000,57728566,1621,1620,1624,1617
49268618,1000,1000,1000,1000,57828526,1602,1603,1612,1593
49271117,1000,1000,1000,1000,57928486,1584,1586,1601,1570
49273616,1000,1000,1000,1000,58028446,1571,1572,1580,1565
49276115,1000,1000,1000,1000,58128406,1560,1561,1558,1564
49278614,1000,1000,1000,1000,58228366,1551,1551,1541,1562
49281113,1000,1000,1000,1000,58328326,1544,1543,1532,1554
49283612,1000,1000,1000,1000,58428286,1536,1536,1528,1544
49286111,1000,1000,1000,1000,58528246,1532,1531,1528,1535
49288610,1000,1000,1000,1000,58628206,1531,1530,1530,1530
49291109,1000,1000,1000,1000,58728166,1531,1530,1532,1528
49293608,1000,1000,1000,1000,58828959,1533,1533,1536,1530
49296107,1000,1000,1000,1000,58928919,1536,1537,1540,1532
49298606,1000,1000,1000,1000,59028879,1539,1540,1543,1536
49301105,1000,1000,1000,1000,59128839,1543,1543,1545,1541
49303604,1000,1000,1000,1000,59228799,1546,1546,1546,1546
49306103,1000,1000,1000,1000,59328759,1549,1549,1548,1550
49308602,1000,1000,1000,1000,59428719,1551,1551,1550,1552
49311101,1000,1000,1000,1000,59528679,1552,1550,1554,1558
49313600,1000,1000,1000,1000,59628639,1549,1550,1561,1564
49316099,1000,1000,1000,1000,59728599,1552,1552,1562,1564
49318598,1000,1000,1000,1000,59828559,1557,1557,1564,1564
49321097,1000,1000,1000,1000,59928519,1561,1561,1564,1563
49323596,1000,1000,1000,1000,60028479,1565,1565,1564,1563
49326095,1000,1000,1000,1000,60128439,1568,1568,1564,1563
49328594,1000,1000,1000,1000,60228399,1570,1570,1563,1563
49331093,1000,1000,1000,1000,60328359,1572,1572,1565,1565
49333592,1000,1000,1000,1000,60428319,1572,1572,1564,1564
49336091,1000,1000,1000,1000,60528279,1572,1572,1565,1566
49338590,1000,1000,1000,1000,60628239,1574,1573,1568,1568
49341089,1000,1000,1000,1000,60728199,1573,1572,1569,1569
49343588,1000,1000,1000,1000,60828159,1573,1573,1571,1571
49346087,1000,1000,1000,1000,60928952,1574,1574,1574,1573
49348586,1000,1000,1000,1000,61028912,1573,1574,1575,1574
49351085,1000,1000,1000,1000,61128872,1574,1574,1577,1575
49353584,1000,1000,1000,1000,61228832,1574,1574,1577,1576
49356083,1000,1000,1000,1000,61328792,1574,1574,1577,1577
49358582,1000,1000,1000,1000,61428752,1575,1575,1578,1578
49361081,1000,1000,1000,1000,61528712,1575,1575,1577,1577
49363580,1000,1000,1000,1000,61628672,1575,1575,1576,1577
49366079,1000,1000,1000,1000,61728632,1576,1576,1577,1577
49368578,1000,1000,1000,1000,61828592,1577,1578,1577,1578
49371077,1000,1000,1000,1000,61928552,1579,1578,1578,1578
49373576,1000,1000,1000,1000,62028512,1578,1578,1577,1577
49376075,1000,1000,1000,1000,62128472,1579,1578,1577,1577
49378574,1000,1000,1000,1000,62228432,1579,1579,1578,1578
49381073,1000,1000,1000,1000,62328392,1579,1579,1578,1578
49383572,1000,1000,1000,1000,62428352,1578,1578,1578,1577
49386071,1000,1000,1000,1000,62528312,1579,1579,1578,1579
49388570,1000,1000,1000,1000,62628272,1578,1578,1578,1578
49391069,1000,1000,1000,1000,62728232,1579,1579,1579,1579
49393568,1000,1000,1000,1000,62828192,1579,1580,1580,1580
49396067,1000,1000,1000,1000,62928985,1579,1579,1579,1579
49398566,1000,1000,1000,1000,63028945,1578,1578,1579,1579
49401065,1000,1000,1000,1000,63128905,1579,1578,1579,1579
49403564,1000,1000,1000,1000,63228865,1579,1578,1579,1579
49406063,1000,1000,1000,1000,63328825,1578,1578,1579,1579
49408562,1000,1000,1000,1000,63428785,1578,1578,1579,1579
49411061,1000,1000,1000,1000,63528745,1578,1579,1579,1579
49413560,1000,1000,1000,1000,63628705,1579,1579,1580,1579
49416059,1000,1000,1000,1000,63728665,1579,1579,1579,1579
49418558,1000,1000,1000,1000,63828625,1580,1579,1580,1579
49421057,1000,1000,1000,1000,63928585,1580,1580,1580,1580
49423556,1000,1000,1000,1000,64028545,1580,1580,1579,1580
49426055,1000,1000,1000,1000,64128505,1579,1580,1579,1579
49428554,1000,1000,1000,1000,64228465,1581,1581,1580,1580
49431053,1000,1000,1000,1000,64328425,1580,1580,1580,1580
49433552,1000,1000,1000,1000,64428385,1580,1581,1580,1581
49436051,1000,1000,1000,1000,64528345,1581,1581,1581,1581
49438550,1000,1000,1000,1000,64628305,1581,1581,1581,1581
49441049,1000,1000,1000,1000,64728265,1581,1581,1581,1581
49443548,1000,1000,1000,1000,64828225,1581,1580,1581,1581
49446047,1000,1000,1000,1000,64928185,1582,1582,1582,1582
49448546,1000,1000,1000,1000,65028978,1580,1580,1581,1580
49451045,1000,1000,1000,1000,65128938,1580,1580,1580,1580
49453544,1000,1000,1000,1000,65228898,1580,1580,1580,1580
49456043,1000,1000,1000,1000,65328858,1580,1580,1580,1580
49458542,1000,1000,1000,1000,65428818,1581,1580,1580,1580
49461041,1000,1000,1000,1000,65528778,1580,1580,1580,1580
49463540,1000,1000,1000,1000,65628738,1581,1580,1581,1580
49466039,1000,1000,1000,1000,65728698,1581,1581,1581,1581
49468538,1000,1000,1000,1000,65828658,1580,1582,1588,1573
49471037,1000,1000,1000,1000,65928618,1580,1582,1584,1573
49473536,1000,1000,1000,1000,66028578,1579,1582,1577,1574
49476035,1000,1000,1000,1000,66128538,1578,1580,1568,1572
49478534,1000,1000,1000,1000,66228498,1577,1579,1561,1568
49481033,1000,1000,1000,1000,66328458,1577,1578,1557,1563
49483532,1000,1000,1000,1000,66428418,1578,1577,1555,1558
49486031,1000,1000,1000,1000,66528378,1580,1578,1556,1556
49488530,1000,1000,1000,1000,66628338,1580,1578,1556,1554
49491029,1000,1000,1000,1000,66728298,1578,1578,1557,1554
49493528,1000,1000,1000,1000,66828258,1577,1576,1555,1553
49496027,1000,1000,1000,1000,66928218,1575,1576,1555,1554
49498526,1000,1000,1000,1000,67028178,1575,1577,1554,1555
49501025,1000,1000,1000,1000,67128971,1575,1577,1553,1554
49503524,1000,1000,1000,1000,67228931,1575,1577,1551,1552
49506023,1000,1000,1000,1000,67328891,1576,1578,1549,1550
49508522,1000,1000,1000,1000,67428851,1578,1579,1547,1547
49511021,1000,1000,1000,1000,67528811,1581,1581,1545,1545
49513520,1000,1000,1000,1000,67628771,1584,1584,1543,1542
49516019,1000,1000,1000,1000,67728731,1587,1587,1540,1540
49518518,1000,1000,1000,1000,67828691,1590,1591,1537,1538
49521017,1000,1000,1000,1000,67928651,1593,1593,1535,1536
49523516,1000,1000,1000,1000,68028611,1595,1594,1535,1535
49526015,1000,1000,1000,1000,68128571,1595,1595,1535,1536
49528514,1000,1000,1000,1000,68228531,1594,1594,1536,1539
49531013,1000,1000,1000,1000,68328491,1592,1592,1539,1542
49533512,1000,1000,1000,1000,68428451,1589,1588,1545,1548
49536011,1000,1000,1000,1000,68528411,1583,1580,1552,1555
49538510,1000,1000,1000,1000,68628371,1575,1571,1563,1565
49541009,1000,1000,1000,1000,68728331,1564,1560,1574,1576
49543508,1000,1000,1000,1000,68828291,1554,1550,1587,1588
49546007,1000,1000,1000,1000,68928251,1543,1541,1599,1598
49548506,1000,1000,1000,1000,69028211,1534,1534,1608,1606
49551005,1000,1000,1000,1000,69128171,1529,1530,1613,1612
49553504,1000,1000,1000,1000,69228964,1529,1531,1615,1614
49556003,1000,1000,1000,1000,69328924,1531,1534,1613,1613
49558502,1000,1000,1000,1000,69428884,1537,1539,1609,1609
49561001,1000,1000,1000,1000,69528844,1545,1546,1602,1603
49563500,1000,1000,1000,1000,69628804,1554,1555,1596,1596
49565999,1000,1000,1000,1000,69728764,1563,1562,1588,1588
49568498,1000,1000,1000,1000,69828724,1570,1569,1580,1580
49570997,1000,1000,1000,1000,69928684,1577,1577,1575,1574
49573496,1000,1000,1000,1000,70028644,1583,1582,1571,1570
49575995,1000,1000,1000,1000,70128604,1587,1585,1568,1568
49578494,1000,1000,1000,1000,70228564,1588,1586,1566,1567
49580993,1000,1000,1000,1000,70328524,1588,1587,1568,1568
49583492,1000,1000,1000,1000,70428484,1586,1586,1569,1569
49585991,1000,1000,1000,1000,70528444,1584,1583,1571,1571
49588490,1000,1000,1000,1000,70628404,1581,1580,1573,1574
49590989,1000,1000,1000,1000,70728364,1579,1579,1577,1577
49593488,1000,1000,1000,1000,70828324,1576,1576,1579,1580
49595987,1000,1000,1000,1000,70928284,1574,1574,1582,1581
49598486,1000,1000,1000,1000,71028244,1573,1573,1583,1583
49600985,1000,1000,1000,1000,71128204,1571,1571,1582,1582
49603484,1000,1000,1000,1000,71228164,1572,1572,1583,1583
49605983,1000,1000,1000,1000,71328957,1573,1573,1583,1582
49608482,1000,1000,1000,1000,71428917,1574,1574,1581,1582
49610981,1000,1000,1000,1000,71528877,1575,1576,1580,1581
49613480,1000,1000,1000,1000,71628837,1577,1578,1580,1580
49615979,1000,1000,1000,1000,71728797,1579,1579,1579,1579
49618478,1000,1000,1000,1000,71828757,1580,1580,1578,1578
49620977,1000,1000,1000,1000,71928717,1580,1580,1577,1577
49623476,1000,1000,1000,1000,72028677,1581,1581,1577,1577
49625975,1000,1000,1000,1000,72128637,1582,1582,1578,1578
49628474,1000,1000,1000,1000,72228597,1582,1581,1577,1578
49630973,1000,1000,1000,1000,72328557,1582,1581,1578,1578
49633472,1000,1000,1000,1000,72428517,1580,1581,1578,1578
49635971,1000,1000,1000,1000,72528477,1581,1581,1579,1579
49638470,1000,1000,1000,1000,72628437,1580,1580,1579,1579
49640969,1000,1000,1000,1000,72728397,1579,1579,1579,1579
49643468,1000,1000,1000,1000,72828357,1578,1578,1579,1579
49645967,1000,1000,1000,1000,72928317,1578,1578,1579,1580
49648466,1000,1000,1000,1000,73028277,1579,1579,1580,1580
49650965,1000,1000,1000,1000,73128237,1578,1579,1580,1580
49653464,1000,1000,1000,1000,73228197,1580,1579,1581,1581
49655963,1000,1000,1000,1000,73328157,1580,1580,1581,1581
49658462,1000,1000,1000,1000,73428950,1581,1581,1582,1582
49660961,1000,1000,1000,1000,73528910,1580,1580,1581,1581
49663460,1000,1000,1000,1000,73628870,1581,1581,1581,1581
49665959,1000,1000,1000,1000,73728830,1581,1581,1580,1580
49668458,1000,1000,1000,1000,73828790,1580,1582,1586,1573
49670957,1000,1000,1000,1000,73928750,1580,1584,1584,1571
49673456,1000,1000,1000,1000,74028710,1580,1584,1576,1571
49675955,1000,1000,1000,1000,74128670,1580,1582,1566,1569
49678454,1000,1000,1000,1000,74228630,1579,1581,1559,1565
49680953,1000,1000,1000,1000,74328590,1580,1581,1555,1562
49683452,1000,1000,1000,1000,74428550,1581,1580,1553,1556
49685951,1000,1000,1000,1000,74528510,1582,1580,1553,1554
49688450,1000,1000,1000,1000,74628470,1581,1580,1553,1552
49690949,1000,1000,1000,1000,74728430,1580,1580,1554,1552
49693448,1000,1000,1000,1000,74828390,1579,1580,1555,1552
49695947,1000,1000,1000,1000,74928350,1578,1579,1555,1553
49698446,1000,1000,1000,1000,75028310,1577,1579,1554,1554
49700945,1000,1000,1000,1000,75128270,1576,1578,1553,1553
49703444,1000,1000,1000,1000,75228230,1577,1579,1552,1553
49705943,1000,1000,1000,1000,75328190,1578,1579,1550,1551
49708442,1000,1000,1000,1000,75428983,1581,1581,1550,1550
49710941,1000,1000,1000,1000,75528943,1582,1583,1547,1547
49713440,1000,1000,1000,1000,75628903,1584,1586,1546,1546
49715939,1000,1000,1000,1000,75728863,1587,1587,1544,1544
49718438,1000,1000,1000,1000,75828823,1588,1589,1542,1542
49720937,1000,1000,1000,1000,75928783,1590,1591,1539,1540
49723436,1000,1000,1000,1000,76028743,1591,1593,1538,1540
49725935,1000,1000,1000,1000,76128703,1593,1592,1539,1542
49728434,1000,1000,1000,1000,76228663,1592,1590,1542,1545
49730933,1000,1000,1000,1000,76328623,1588,1585,1548,1550
49733432,1000,1000,1000,1000,76428583,1582,1578,1556,1559
49735931,1000,1000,1000,1000,76528543,1574,1570,1567,1568
49738430,1000,1000,1000,1000,76628503,1564,1561,1578,1579
49740929,1000,1000,1000,1000,76728463,1554,1551,1588,1589
49743428,1000,1000,1000,1000,76828423,1545,1544,1598,1598
49745927,1000,1000,1000,1000,76928383,1539,1540,1605,1605
49748426,1000,1000,1000,1000,77028343,1537,1538,1610,1609
49750925,1000,1000,1000,1000,77128303,1536,1538,1611,1610
49753424,1000,1000,1000,1000,77228263,1540,1541,1609,1609
49755923,1000,1000,1000,1000,77328223,1545,1547,1606,1605
49758422,1000,1000,1000,1000,77428183,1552,1553,1600,1599
49760921,1000,1000,1000,1000,77528976,1560,1561,1595,1594
49763420,1000,1000,1000,1000,77628936,1566,1566,1587,1586
49765919,1000,1000,1000,1000,77728896,1573,1573,1581,1580
49768418,1000,1000,1000,1000,77828856,1578,1577,1574,1575
49770917,1000,1000,1000,1000,77928816,1582,1580,1570,1571
49773416,1000,1000,1000,1000,78028776,1586,1585,1570,1570
49775915,1000,1000,1000,1000,78128736,1586,1585,1569,1569
49778414,1000,1000,1000,1000,78228696,1586,1585,1569,1569
49780913,1000,1000,1000,1000,78328656,1583,1583,1570,1570
49783412,1000,1000,1000,1000,78428616,1582,1581,1573,1573
49785911,1000,1000,1000,1000,78528576,1580,1579,1575,1575
49788410,1000,1000,1000,1000,78628536,1578,1578,1578,1578
49790909,1000,1000,1000,1000,78728496,1576,1576,1580,1581
49793408,1000,1000,1000,1000,78828456,1574,1576,1582,1582
49795907,1000,1000,1000,1000,78928416,1574,1575,1584,1583
49798406,1000,1000,1000,1000,79028376,1574,1575,1585,1584
49800905,1000,1000,1000,1000,79128336,1574,1574,1584,1584
49803404,1000,1000,1000,1000,79228296,1575,1574,1582,1583
49805903,1000,1000,1000,1000,79328256,1576,1576,1582,1582
49808402,1000,1000,1000,1000,79428216,1577,1577,1581,1582
49810901,1000,1000,1000,1000,79528176,1579,1579,1581,1581
49813400,1000,1000,1000,1000,79628969,1579,1579,1579,1579
49815899,1000,1000,1000,1000,79728929,1581,1581,1579,1579
49818398,1000,1000,1000,1000,79828889,1581,1581,1579,1578
49820897,1000,1000,1000,1000,79928849,1582,1582,1578,1579
49823396,1000,1000,1000,1000,80028809,1582,1582,1578,1578
49825895,1000,1000,1000,1000,80128769,1582,1581,1578,1578
49828394,1000,1000,1000,1000,80228729,1582,1581,1579,1579
49830893,1000,1000,1000,1000,80328689,1581,1580,1579,1579
49833392,1000,1000,1000,1000,80428649,1581,1581,1580,1580
49835891,1000,1000,1000,1000,80528609,1580,1580,1580,1580
49838390,1000,1000,1000,1000,80628569,1580,1580,1580,1581
49840889,1000,1000,1000,1000,80728529,1579,1580,1581,1581
49843388,1000,1000,1000,1000,80828489,1580,1580,1581,1581
49845887,1000,1000,1000,1000,80928449,1579,1579,1581,1581
49848386,1000,1000,1000,1000,81028409,1580,1580,1581,1582
49850885,1000,1000,1000,1000,81128369,1580,1581,1581,1582
49853384,1000,1000,1000,1000,81228329,1580,1580,1581,1581
49855883,1000,1000,1000,1000,81328289,1579,1579,1580,1580
49858382,1000,1000,1000,1000,81428249,1581,1581,1581,1581
49860881,1000,1000,1000,1000,81528209,1581,1581,1581,1580
49863380,1000,1000,1000,1000,81628169,1581,1581,1580,1580
49865879,1000,1000,1000,1000,81728962,1582,1581,1581,1581
49868378,1000,1000,1000,1000,81828922,1582,1581,1580,1581
49870877,1000,1000,1000,1000,81928882,1581,1583,1585,1577
49873376,1000,1000,1000,1000,82028842,1581,1583,1587,1572
49875875,1000,1000,1000,1000,82128802,1579,1582,1580,1572
49878374,1000,1000,1000,1000,82228762,1578,1581,1571,1571
49880873,1000,1000,1000,1000,82328722,1576,1579,1562,1568
49883372,1000,1000,1000,1000,82428682,1576,1578,1557,1564
49885871,1000,1000,1000,1000,82528642,1579,1579,1555,1561
49888370,1000,1000,1000,1000,82628602,1579,1577,1553,1556
49890869,1000,1000,1000,1000,82728562,1580,1578,1555,1554
49893368,1000,1000,1000,1000,82828522,1579,1578,1556,1553
49895867,1000,1000,1000,1000,82928482,1579,1578,1555,1553
49898366,1000,1000,1000,1000,83028442,1577,1578,1555,1553
49900865,1000,1000,1000,1000,83128402,1576,1578,1555,1554
49903364,1000,1000,1000,1000,83228362,1575,1577,1554,1554
49905863,1000,1000,1000,1000,83328322,1575,1577,1552,1553
49908362,1000,1000,1000,1000,83428282,1577,1578,1552,1552
49910861,1000,1000,1000,1000,83528242,1577,1579,1549,1550
49913360,1000,1000,1000,1000,83628202,1580,1580,1547,1548
49915859,1000,1000,1000,1000,83728162,1583,1583,1546,1546
49918358,1000,1000,1000,1000,83828955,1585,1585,1543,1542
49920857,1000,1000,1000,1000,83928915,1589,1589,1542,1542
49923356,1000,1000,1000,1000,84028875,1591,1591,1540,1540
49925855,1000,1000,1000,1000,84128835,1592,1592,1539,1538
49928354,1000,1000,1000,1000,84228795,1593,1594,1537,1539
49930853,1000,1000,1000,1000,84328755,1594,1595,1539,1541
49933352,1000,1000,1000,1000,84428715,1593,1593,1540,1543
49935851,1000,1000,1000,1000,84528675,1590,1588,1544,1547
49938350,1000,1000,1000,1000,84628635,1584,1582,1551,1553
49940849,1000,1000,1000,1000,84728595,1578,1574,1561,1563
49943348,1000,1000,1000,1000,84828555,1568,1564,1572,1573
49945847,1000,1000,1000,1000,84928515,1557,1554,1583,1584
49948346,1000,1000,1000,1000,85028475,1546,1544,1593,1594
49950845,1000,1000,1000,1000,85128435,1538,1537,1602,1602
49953344,1000,1000,1000,1000,85228395,1533,1533,1609,1608
49955843,1000,1000,1000,1000,85328355,1532,1534,1613,1611
49958342,1000,1000,1000,1000,85428315,1535,1537,1613,1612
49960841,1000,1000,1000,1000,85528275,1539,1542,1610,1609
49963340,1000,1000,1000,1000,85628235,1546,1548,1604,1604
49965839,1000,1000,1000,1000,85728195,1553,1554,1598,1597
49968338,1000,1000,1000,1000,85828155,1562,1562,1591,1590
49970837,1000,1000,1000,1000,85928948,1569,1569,1583,1582
49973336,1000,1000,1000,1000,86028908,1576,1576,1577,1577
49975835,1000,1000,1000,1000,86128868,1581,1580,1572,1572
49978334,1000,1000,1000,1000,86228828,1586,1584,1569,1570
49980833,1000,1000,1000,1000,86328788,1587,1585,1567,1568
49983332,1000,1000,1000,1000,86428748,1587,1585,1567,1567
49985831,1000,1000,1000,1000,86528708,1585,1585,1569,1569
49988330,1000,1000,1000,1000,86628668,1583,1583,1570,1571
49990829,1000,1000,1000,1000,86728628,1580,1580,1572,1573
49993328,1000,1000,1000,1000,86828588,1578,1578,1576,1576
49995827,1000,1000,1000,1000,86928548,1576,1576,1579,1578
49998326,1000,1000,1000,1000,87028508,1574,1575,1581,1580
50000825,1000,1000,1000,1000,87128468,1574,1574,1583,1583
50003324,1000,1000,1000,1000,87228428,1573,1574,1584,1584
50005823,1000,1000,1000,1000,87328388,1573,1573,1583,1583
50008322,1000,1000,1000,1000,87428348,1573,1574,1583,1583
50010821,1000,1000,1000,1000,87528308,1575,1576,1583,1583
50013320,1000,1000,1000,1000,87628268,1576,1576,1582,1581
50015819,1000,1000,1000,1000,87728228,1577,1577,1580,1580
50018318,1000,1000,1000,1000,87828188,1579,1579,1580,1580
50020817,1000,1000,1000,1000,87928981,1581,1580,1579,1579
50023316,1000,1000,1000,1000,88028941,1581,1581,1578,1578
50025815,1000,1000,1000,1000,88128901,1581,1581,1577,1577
50028314,1000,1000,1000,1000,88228861,1582,1581,1577,1577
50030813,1000,1000,1000,1000,88328821,1581,1581,1577,1577
50033312,1000,1000,1000,1000,88428781,1582,1583,1579,1579
50035811,1000,1000,1000,1000,88528741,1581,1582,1579,1579
50038310,1000,1000,1000,1000,88628701,1580,1580,1579,1579
50040809,1000,1000,1000,1000,88728661,1580,1580,1580,1579
50043308,1000,1000,1000,1000,88828621,1580,1579,1580,1580
50045807,1000,1000,1000,1000,88928581,1579,1579,1580,1580
50048306,1000,1000,1000,1000,89028541,1578,1579,1580,1580
50050805,1000,1000,1000,1000,89128501,1579,1579,1580,1581
50053304,1000,1000,1000,1000,89228461,1579,1579,1581,1581
50055803,1000,1000,1000,1000,89328421,1580,1580,1581,1581
50058302,1000,1000,1000,1000,89428381,1579,1580,1581,1581
50060801,1000,1000,1000,1000,89528341,1581,1581,1581,1582
50063300,1000,1000,1000,1000,89628301,1581,1581,1582,1581
50065799,1000,1000,1000,1000,89728261,1580,1581,1581,1580
50068298,1000,1000,1000,1000,89828221,1580,1581,1581,1579
50070797,1000,1000,1000,1000,89928181,1581,1581,1586,1572
50073296,1000,1000,1000,1000,90028974,1580,1581,1584,1573
50075795,1000,1000,1000,1000,90128934,1579,1578,1577,1575
50078294,1000,1000,1000,1000,90228894,1574,1574,1570,1574
50080793,1000,1000,1000,1000,90328854,1572,1572,1567,1575
50083292,1000,1000,1000,1000,90428814,1569,1569,1565,1571
50085791,1000,1000,1000,1000,90528774,1567,1567,1564,1569
50088290,1000,1000,1000,1000,90628734,1566,1566,1566,1566
50090789,1000,1000,1000,1000,90728694,1566,1566,1567,1566
50093288,1000,1000,1000,1000,90828654,1565,1566,1567,1565
50095787,1000,1000,1000,1000,90928614,1565,1565,1567,1565
50098286,1000,1000,1000,1000,91028574,1565,1565,1567,1564
50100785,1000,1000,1000,1000,91128534,1563,1563,1564,1564
50103284,1000,1000,1000,1000,91228494,1562,1562,1563,1563
50105783,1000,1000,1000,1000,91328454,1563,1563,1563,1564
50108282,1000,1000,1000,1000,91428414,1562,1562,1562,1562
50110781,1000,1000,1000,1000,91528374,1561,1561,1561,1561
50113280,1000,1000,1000,1000,91628334,1561,1562,1561,1561
50115779,1000,1000,1000,1000,91728294,1561,1561,1561,1561
50118278,1000,1000,1000,1000,91828254,1559,1560,1560,1559
50120777,1000,1000,1000,1000,91928214,1559,1559,1559,1558
50123276,1000,1000,1000,1000,92028174,1558,1558,1558,1557
50125775,1000,1000,1000,1000,92128967,1558,1558,1558,1557
50128274,1000,1000,1000,1000,92228927,1558,1558,1558,1557
50130773,1000,1000,1000,1000,92328887,1558,1558,1558,1557
50133272,1000,1000,1000,1000,92428847,1558,1558,1558,1557
50135771,1000,1000,1000,1000,92528807,1559,1559,1560,1558
50138270,1000,1000,1000,1000,92628767,1558,1558,1559,1556
50140769,1000,1000,1000,1000,92728727,1558,1558,1558,1559
50143268,1000,1000,1000,1000,92828687,1559,1560,1557,1562
50145767,1000,1000,1000,1000,92928647,1560,1560,1557,1564
50148266,1000,1000,1000,1000,93028607,1562,1561,1559,1564
50150765,1000,1000,1000,1000,93128567,1562,1562,1560,1564
50153264,1000,1000,1000,1000,93228527,1562,1562,1562,1562
50155763,1000,1000,1000,1000,93328487,1562,1562,1563,1560
50158262,1000,1000,1000,1000,93428447,1560,1561,1563,1558
50160761,1000,1000,1000,1000,93528407,1560,1560,1559,1561
50163260,1000,1000,1000,1000,93628367,1558,1558,1555,1560
50165759,1000,1000,1000,1000,93728327,1553,1553,1551,1555
50168258,1000,1000,1000,1000,93828287,1548,1547,1547,1548
50170757,1000,1000,1000,1000,93928247,1541,1541,1541,1541
50173256,1000,1000,1000,1000,94028207,1535,1536,1536,1535
50175755,1000,1000,1000,1000,94128167,1527,1527,1528,1526
50178254,1000,1000,1000,1000,94228960,1521,1521,1522,1520
50180753,1000,1000,1000,1000,94328920,1519,1519,1519,1519
50183252,1000,1000,1000,1000,94428880,1520,1519,1519,1520
50185751,1000,1000,1000,1000,94528840,1521,1521,1521,1522
50188250,1000,1000,1000,1000,94628800,1524,1524,1523,1524
50190749,1000,1000,1000,1000,94728760,1527,1527,1527,1527
50193248,1000,1000,1000,1000,94828720,1532,1532,1532,1532
50195747,1000,1000,1000,1000,94928680,1536,1536,1536,1536
50198246,1000,1000,1000,1000,95028640,1540,1540,1540,1540
50200745,1000,1000,1000,1000,95128600,1542,1542,1542,1542
50203244,1000,1000,1000,1000,95228560,1542,1543,1543,1542
50205743,1000,1000,1000,1000,95328520,1544,1544,1544,1543
50208242,1000,1000,1000,1000,95428480,1545,1545,1545,1545
50210741,1000,1000,1000,1000,95528440,1546,1545,1546,1545
50213240,1000,1000,1000,1000,95628400,1546,1546,1546,1546
50215739,1000,1000,1000,1000,95728360,1547,1547,1547,1547
50218238,1000,1000,1000,1000,95828320,1546,1546,1546,1546
50220737,1000,1000,1000,1000,95928280,1545,1545,1545,1545
50223236,1000,1000,1000,1000,96028240,1545,1545,1545,1545
50225735,1000,1000,1000,1000,96128200,1545,1545,1545,1545
50228234,1000,1000,1000,1000,96228160,1546,1546,1546,1545
50230733,1000,1000,1000,1000,96328953,1545,1545,1545,1545
50233232,1000,1000,1000,1000,96428913,1544,1545,1545,1545
50235731,1000,1000,1000,1000,96528873,1545,1545,1545,1545
50238230,1000,1000,1000,1000,96628833,1545,1545,1545,1545
50240729,1000,1000,1000,1000,96728793,1545,1544,1544,1544
50243228,1000,1000,1000,1000,96828753,1545,1544,1545,1544
50245727,1000,1000,1000,1000,96928713,1544,1544,1544,1544
50248226,1000,1000,1000,1000,97028673,1544,1544,1544,1544
50250725,1000,1000,1000,1000,97128633,1544,1544,1544,1544
50253224,1000,1000,1000,1000,97228593,1544,1544,1544,1544
50255723,1000,1000,1000,1000,97328553,1543,1543,1544,1543
50258222,1000,1000,1000,1000,97428513,1543,1544,1544,1544
50260721,1000,1000,1000,1000,97528473,1543,1543,1543,1543
50263220,1000,1000,1000,1000,97628433,1544,1544,1544,1544
50265719,1000,1000,1000,1000,97728393,1545,1545,1545,1545
50268218,1000,1000,1000,1000,97828353,1544,1545,1544,1544
50270717,1000,1000,1000,1000,97928313,1545,1544,1544,1545
50273216,1000,1000,1000,1000,98028273,1545,1544,1545,1545
50275715,1000,1000,1000,1000,98128233,1545,1544,1545,1544
50278214,1000,1000,1000,1000,98228193,1544,1545,1545,1544
50280713,1000,1000,1000,1000,98328986,1544,1544,1544,1544
50283212,1000,1000,1000,1000,98428946,1544,1545,1544,1544
50285711,1000,1000,1000,1000,98528906,1544,1544,1544,1545
50288210,1000,1000,1000,1000,98628866,1544,1544,1544,1544
50290709,1000,1000,1000,1000,98728826,1545,1545,1545,1545
50293208,1000,1000,1000,1000,98828786,1545,1544,1544,1545
50295707,1000,1000,1000,1000,98928746,1544,1544,1544,1544
50298206,1000,1000,1000,1000,99028706,1544,1545,1545,1544
50300705,1000,1000,1000,1000,99128666,1544,1544,1544,1544
50303204,1000,1000,1000,1000,99228626,1545,1545,1545,1545
50305703,1000,1000,1000,1000,99328586,1544,1544,1544,1544
50308202,1000,1000,1000,1000,99428546,1544,1544,1545,1544
50310701,1000,1000,1000,1000,99528506,1544,1543,1543,1544
50313200,1000,1000,1000,1000,99628466,1544,1544,1544,1544
50315699,1000,1000,1000,1000,99728426,1544,1544,1544,1544
50318198,1000,1000,1000,1000,99828386,1543,1543,1543,1543
50320697,1000,1000,1000,1000,99928346,1544,1544,1544,1544
50323196,1000,1000,1000,1000,100028306,1544,1544,1544,1544
50325695,1000,1000,1000,1000,100128266,1544,1544,1544,1544
50328194,1000,1000,1000,1000,100228226,1544,1544,1544,1544
50330693,1000,1000,1000,1000,100328186,1544,1543,1544,1544
50333192,1000,1000,1000,1000,100428979,1544,1544,1544,1544
50335691,1000,1000,1000,1000,100528939,1544,1544,1544,1544
50338190,1000,1000,1000,1000,100628899,1543,1544,1543,1543
50340689,1000,1000,1000,1000,100728859,1544,1544,1544,1544
50343188,1000,1000,1000,1000,100828819,1544,1544,1545,1544
50345687,1000,1000,1000,1000,100928779,1544,1544,1544,1544
50348186,1000,1000,1000,1000,101028739,1544,1544,1544,1544
50350685,1000,1000,1000,1000,101128699,1544,1545,1544,1545
50353184,1000,1000,1000,1000,101228659,1544,1545,1544,1545
50355683,1000,1000,1000,1000,101328619,1544,1544,1544,1544
50358182,1000,1000,1000,1000,101428579,1544,1544,1544,1544
50360681,1000,1000,1000,1000,101528539,1544,1544,1544,1544
50363180,1000,1000,1000,1000,101628499,1544,1544,1544,1544
50365679,1000,1000,1000,1000,101728459,1544,1544,1544,1544
50368178,1000,1000,1000,1000,101828419,1544,1544,1544,1544
50370677,1000,1000,1000,1000,101928379,1544,1544,1544,1544
50373176,1000,1000,1000,1000,102028339,1544,1544,1544,1544
50375675,1000,1000,1000,1000,102128299,1544,1544,1545,1544
50378174,1000,1000,1000,1000,102228259,1545,1545,1545,1545
50380673,1000,1000,1000,1000,102328219,1545,1545,1545,1545
50383172,1000,1000,1000,1000,102428179,1544,1544,1544,1544
50385671,1000,1000,1000,1000,102528972,1545,1545,1545,1545
50388170,1000,1000,1000,1000,102628932,1545,1546,1545,1545
50390669,1000,1000,1000,1000,102728892,1545,1545,1544,1545
50393168,1000,1000,1000,1000,102828852,1545,1545,1545,1545
50395667,1000,1000,1000,1000,102928812,1544,1543,1544,1544
50398166,1000,1000,1000,1000,103028772,1545,1545,1545,1545
50400665,1000,1000,1000,1000,103128732,1544,1544,1544,1545
50403164,1000,1000,1000,1000,103228692,1544,1544,1544,1544
50405663,1000,1000,1000,1000,103328652,1545,1545,1545,1545
50408162,1000,1000,1000,1000,103428612,1545,1545,1545,1545
50410661,1000,1000,1000,1000,103528572,1544,1544,1544,1544
50413160,1000,1000,1000,1000,103628532,1544,1544,1544,1544
50415659,1000,1000,1000,1000,103728492,1544,1543,1543,1544
50418158,1000,1000,1000,1000,103828452,1544,1544,1544,1544
50420657,1000,1000,1000,1000,103928412,1544,1544,1544,1545
50423156,1000,1000,1000,1000,104028372,1402,1400,1401,1401
50425655,1000,1000,1000,1000,104128332,1272,1268,1270,1270
50428154,1000,1000,1000,1000,104228292,1224,1221,1223,1222
50431486,1000,1000,1000,1000,104328252,1204,1200,1202,1202
50433985,1000,1000,1000,1000,104428212,1165,1163,1164,1164
50436484,1000,1000,1000,1000,104528172,1153,1150,1151,1152
50438983,1000,1000,1000,1000,104628965,1152,1150,1151,1150
50441482,1000,1000,1000,1000,104728925,1188,1150,1151,1187
50443981,1000,1000,1000,1000,104828885,1177,1150,1152,1176
50446480,1000,1000,1000,1000,104928845,1173,1150,1152,1172
50448979,1000,1000,1000,1000,105028805,1174,1150,1152,1172
50451478,1000,1000,1000,1000,105128765,1176,1150,1152,1174
50453977,1000,1000,1000,1000,105228725,1177,1150,1152,1176
50456476,1000,1000,1000,1000,105328685,1180,1150,1152,1178
50458975,1000,1000,1000,1000,105428645,1181,1150,1152,1179
50461474,1000,1000,1000,1000,105528605,1166,1150,1151,1165
50463973,1000,1000,1000,1000,105628565,1168,1150,1152,1167
50466472,1000,1000,1000,1000,105728525,1169,1150,1152,1168
50468971,1000,1000,1000,1000,105828485,1169,1150,1152,1168
50471470,1000,1000,1000,1000,105928445,1170,1150,1152,1169
50473969,1000,1000,1000,1000,106028405,1000,1000,1000,1000
50476468,1000,1000,1000,1000,106128365,1000,1000,1000,1000
50478967,1000,1000,1000,1000,106228325,1000,1000,1000,1000
50481466,1000,1000,1000,1000,106328285,1000,1000,1000,1000
50483965,1000,1000,1000,1000,106428245,1000,1000,1000,1000
50486464,1000,1000,1000,1000,106528205,1000,1000,1000,1000
50488963,1000,1000,1000,1000,106628165,1000,1000,1000,1000
50491462,1000,1000,1000,1000,106728958,1000,1000,1000,1000
50493961,1000,1000,1000,1000,106828918,1000,1000,1000,1000
50496460,1000,1000,1000,1000,106928878,1000,1000,1000,1000
50498959,1000,1000,1000,1000,107028838,1000,1000,1000,1000
50501458,1000,1000,1000,1000,107128798,1000,1000,1000,1000
50503957,1000,1000,1000,1000,107228758,1000,1000,1000,1000
50506456,1000,1000,1000,1000,107328718,1000,1000,1000,1000
50508955,1000,1000,1000,1000,107428678,1000,1000,1000,1000
50511454,1000,1000,1000,1000,107528638,1000,1000,1000,1000
50513953,1000,1000,1000,1000,107628598,1000,1000,1000,1000
50516452,1000,1000,1000,1000,107728558,1000,1000,1000,1000
50518951,1000,1000,1000,1000,107828518,1000,1000,1000,1000
50521450,1000,1000,1000,1000,107928478,1000,1000,1000,1000
50523949,1000,1000,1000,1000,108028438,1000,1000,1000,1000
50526448,1000,1000,1000,1000,108128398,1000,1000,1000,1000
50528947,1000,1000,1000,1000,108228358,1000,1000,1000,1000
50531446,1000,1000,1000,1000,108328318,1000,1000,1000,1000
50533945,1000,1000,1000,1000,108428278,1000,1000,1000,1000
50536444,1000,1000,1000,1000,108528238,1000,1000,1000,1000
50538943,1000,1000,1000,1000,108628198,1000,1000,1000,1000
50541442,1000,1000,1000,1000,108728158,1000,1000,1000,1000
50543941,1000,1000,1000,1000,108828951,1000,1000,1000,1000
50546440,1000,1000,1000,1000,108928911,1000,1000,1000,1000
50548939,1000,1000,1000,1000,109028871,1000,1000,1000,1000
50551438,1000,1000,1000,1000,109128831,1000,1000,1000,1000
50553937,1000,1000,1000,1000,109228791,1000,1000,1000,1000
50556436,1000,1000,1000,1000,109328751,1000,1000,1000,1000
50558935,1000,1000,1000,1000,109428711,1000,1000,1000,1000
50561434,1000,1000,1000,1000,109528671,1000,1000,1000,1000
50563933,1000,1000,1000,1000,109628631,1000,1000,1000,1000
50566432,1000,1000,1000,1000,109728591,1000,1000,1000,1000
50568931,1000,1000,1000,1000,109828551,1000,1000,1000,1000
50571430,1000,1000,1000,1000,109928511,1000,1000,1000,1000
50573929,1000,1000,1000,1000,110028471,1000,1000,1000,1000
50576428,1000,1000,1000,1000,110128431,1000,1000,1000,1000
50578927,1000,1000,1000,1000,110228391,1000,1000,1000,1000
50581426,1000,1000,1000,1000,110328351,1000,1000,1000,1000
50583925,1000,1000,1000,1000,110428311,1000,1000,1000,1000
50586424,1000,1000,1000,1000,110528271,1000,1000,1000,1000
50588923,1000,1000,1000,1000,110628231,1000,1000,1000,1000
50591422,1000,1000,1000,1000,110728191,1000,1000,1000,1000
50593921,1000,1000,1000,1000,110828984,1000,1000,1000,1000
50596420,1000,1000,1000,1000,110928944,1000,1000,1000,1000
50598919,1000,1000,1000,1000,111028904,1000,1000,1000,1000
50601418,1000,1000,1000,1000,111128864,1000,1000,1000,1000
50603917,1000,1000,1000,1000,111228824,1000,1000,1000,1000
50606416,1000,1000,1000,1000,111328784,1000,1000,1000,1000
50608915,1000,1000,1000,1000,111428744,1000,1000,1000,1000
50611414,1000,1000,1000,1000,111528704,1000,1000,1000,1000
50613913,1000,1000,1000,1000,111628664,1000,1000,1000,1000
50616412,1000,1000,1000,1000,111728624,1000,1000,1000,1000
50618911,1000,1000,1000,1000,111828584,1000,1000,1000,1000
50621410,1000,1000,1000,1000,111928544,1000,1000,1000,1000
50623909,1000,1000,1000,1000,112028504,1000,1000,1000,1000
50626408,1000,1000,1000,1000,112128464,1000,1000,1000,1000
50628907,1000,1000,1000,1000,112228424,1000,1000,1000,1000
50631406,1000,1000,1000,1000,112328384,1000,1000,1000,1000
50633905,1000,1000,1000,1000,112428344,1000,1000,1000,1000
50636404,1000,1000,1000,1000,112528304,1000,1000,1000,1000
50638903,1000,1000,1000,1000,112628264,1000,1000,1000,1000
50641402,1000,1000,1000,1000,112728224,1000,1000,1000,1000
50643901,1000,1000,1000,1000,112828184,1000,1000,1000,1000
50646400,1000,1000,1000,1000,112928977,1000,1000,1000,1000
50648899,1000,1000,1000,1000,113028937,1000,1000,1000,1000
50651398,1000,1000,1000,1000,113128897,1000,1000,1000,1000
50653897,1000,1000,1000,1000,113228857,1000,1000,1000,1000
50656396,1000,1000,1000,1000,113328817,1000,1000,1000,1000
50658895,1000,1000,1000,1000,113428777,1000,1000,1000,1000
50661394,1000,1000,1000,1000,113528737,1000,1000,1000,1000
50663893,1000,1000,1000,1000,113628697,1000,1000,1000,1000
50666392,1000,1000,1000,1000,113728657,1000,1000,1000,1000
50668891,1000,1000,1000,1000,113828617,1000,1000,1000,1000
50671390,1000,1000,1000,1000,113928577,1000,1000,1000,1000
50673889,1000,1000,1000,1000,114028537,1000,1000,1000,1000
50676388,1000,1000,1000,1000,114128497,1000,1000,1000,1000
50678887,1000,1000,1000,1000,,,,,
50681386,1000,1000,1000,1000,,,,,
50683885,1000,1000,1000,1000,,,,,
50686384,1000,1000,1000,1000,,,,,
50688883,1000,1000,1000,1000,,,,,
50691382,1000,1000,1000,1000,,,,,
50693881,1000,1000,1000,1000,,,,,
50696380,1000,1000,1000,1000,,,,,
50698879,1000,1000,1000,1000,,,,,
50701378,1000,1000,1000,1000,,,,,
50703877,1000,1000,1000,1000,,,,,
50706376,1000,1000,1000,1000,,,,,
50708875,1000,1000,1000,1000,,,,,
50711374,1000,1000,1000,1000,,,,,
50713873,1000,1000,1000,1000,,,,,
50716372,1000,1000,1000,1000,,,,,
50718871,1000,1000,1000,1000,,,,,
50721370,1000,1000,1000,1000,,,,,
50723869,1000,1000,1000,1000,,,,,
50726368,1000,1000,1000,1000,,,,,
50728867,1000,1000,1000,1000,,,,,
50731366,1000,1000,1000,1000,,,,,
50733865,1000,1000,1000,1000,,,,,
50736364,1000,1000,1000,1000,,,,,
50738863,1000,1000,1000,1000,,,,,
50741362,1000,1000,1000,1000,,,,,
50743861,1000,1000,1000,1000,,,,,
50746360,1000,1000,1000,1000,,,,,
50748859,1000,1000,1000,1000,,,,,
50751358,1000,1000,1000,1000,,,,,
50753857,1000,1000,1000,1000,,,,,
50756356,1000,1000,1000,1000,,,,,
50758855,1000,1000,1000,1000,,,,,
50761354,1000,1000,1000,1000,,,,,
50763853,1000,1000,1000,1000,,,,,
50766352,1000,1000,1000,1000,,,,,
50768851,1000,1000,1000,1000,,,,,
50771350,1000,1000,1000,1000,,,,,
50773849,1000,1000,1000,1000,,,,,
50776348,1000,1000,1000,1000,,,,,
50778847,1000,1000,1000,1000,,,,,
50781346,1000,1000,1000,1000,,,,,
50783845,1000,1000,1000,1000,,,,,
50786344,1000,1000,1000,1000,,,,,
50788843,1000,1000,1000,1000,,,,,
50791342,1000,1000,1000,1000,,,,,
50793841,1000,1000,1000,1000,,,,,
50796340,1000,1000,1000,1000,,,,,
50798839,1000,1000,1000,1000,,,,,
50801338,1000,1000,1000,1000,,,,,
50803837,1000,1000,1000,1000,,,,,
50806336,1000,1000,1000,1000,,,,,
50808835,1000,1000,1000,1000,,,,,
50811334,1000,1000,1000,1000,,,,,
50813833,1000,1000,1000,1000,,,,,
50816332,1000,1000,1000,1000,,,,,
50818831,1000,1000,1000,1000,,,,,
50821330,1000,1000,1000,1000,,,,,
50823829,1000,1000,1000,1000,,,,,
50826328,1000,1000,1000,1000,,,,,
50828827,1000,1000,1000,1000,,,,,
50831326,1000,1000,1000,1000,,,,,
50833825,1000,1000,1000,1000,,,,,
50836324,1000,1000,1000,1000,,,,,
50838823,1000,1000,1000,1000,,,,,
50841322,1000,1000,1000,1000,,,,,
50843821,1000,1000,1000,1000,,,,,
50846320,1000,1000,1000,1000,,,,,
50848819,1000,1000,1000,1000,,,,,
50851318,1000,1000,1000,1000,,,,,
50853817,1000,1000,1000,1000,,,,,
50856316,1000,1000,1000,1000,,,,,
50858815,1000,1000,1000,1000,,,,,
50861314,1000,1000,1000,1000,,,,,
50863813,1000,1000,1000,1000,,,,,
50866312,1000,1000,1000,1000,,,,,
50868811,1000,1000,1000,1000,,,,,
50871310,1000,1000,1000,1000,,,,,
50873809,1000,1000,1000,1000,,,,,
50876308,1000,1000,1000,1000,,,,,
50878807,1000,1000,1000,1000,,,,,
50881306,1000,1000,1000,1000,,,,,
50883805,1000,1000,1000,1000,,,,,
50886304,1000,1000,1000,1000,,,,,
50888803,1000,1000,1000,1000,,,,,
50891302,1000,1000,1000,1000,,,,,
50893801,1000,1000,1000,1000,,,,,
50896300,1000,1000,1000,1000,,,,,
50898799,1000,1000,1000,1000,,,,,
50901298,1000,1000,1000,1000,,,,,
50903797,1000,1000,1000,1000,,,,,
50906296,1000,1000,1000,1000,,,,,
50908795,1000,1000,1000,1000,,,,,
50911294,1000,1000,1000,1000,,,,,
50913793,1000,1000,1000,1000,,,,,
50916292,1000,1000,1000,1000,,,,,
50918791,1000,1000,1000,1000,,,,,
50921290,1000,1000,1000,1000,,,,,
50923789,1000,1000,1000,1000,,,,,
50926288,1000,1000,1000,1000,,,,,
50928787,1000,1000,1000,1000,,,,,
50931286,1000,1000,1000,1000,,,,,
50933785,1000,1000,1000,1000,,,,,
50936284,1000,1000,1000,1000,,,,,
50938783,1000,1000,1000,1000,,,,,
50941282,1000,1000,1000,1000,,,,,
50943781,1000,1000,1000,1000,,,,,
50946280,1000,1000,1000,1000,,,,,
50948779,1000,1000,1000,1000,,,,,
50951278,1000,1000,1000,1000,,,,,
50953777,1000,1000,1000,1000,,,,,
50956276,1000,1000,1000,1000,,,,,
50958775,1000,1000,1000,1000,,,,,
50961274,1000,1000,1000,1000,,,,,
50963773,1000,1000,1000,1000,,,,,
50966272,1000,1000,1000,1000,,,,,
50968771,1000,1000,1000,1000,,,,,
50971270,1000,1000,1000,1000,,,,,
50973769,1000,1000,1000,1000,,,,,
50976268,1000,1000,1000,1000,,,,,
50978767,1000,1000,1000,1000,,,,,
50981266,1000,1000,1000,1000,,,,,
50983765,1000,1000,1000,1000,,,,,
50986264,1000,1000,1000,1000,,,,,
50988763,1000,1000,1000,1000,,,,,
50991262,1000,1000,1000,1000,,,,,
50993761,1000,1000,1000,1000,,,,,
50996260,1000,1000,1000,1000,,,,,
50998759,1000,1000,1000,1000,,,,,
51001258,1000,1000,1000,1000,,,,,
51003757,1000,1000,1000,1000,,,,,
51006256,1000,1000,1000,1000,,,,,
51008755,1000,1000,1000,1000,,,,,
51011254,1000,1000,1000,1000,,,,,
51013753,1000,1000,1000,1000,,,,,
51016252,1000,1000,1000,1000,,,,,
51018751,1000,1000,1000,1000,,,,,
51021250,1000,1000,1000,1000,,,,,
51023749,1000,1000,1000,1000,,,,,
51026248,1000,1000,1000,1000,,,,,
51028747,1000,1000,1000,1000,,,,,
51031246,1000,1000,1000,1000,,,,,
51033745,1000,1000,1000,1000,,,,,
51036244,1000,1000,1000,1000,,,,,
51038743,1000,1000,1000,1000,,,,,
51041242,1000,1000,1000,1000,,,,,
51043741,1000,1000,1000,1000,,,,,
51046240,1000,1000,1000,1000,,,,,
51048739,1000,1000,1000,1000,,,,,
51051238,1000,1000,1000,1000,,,,,
51053737,1000,1000,1000,1000,,,,,
51056236,1000,1000,1000,1000,,,,,
51058735,1001,1001,1001,1001,,,,,
51061234,1002,1002,1002,1002,,,,,
51063733,1003,1003,1003,1003,,,,,
51066232,1003,1003,1003,1003,,,,,
51068731,1004,1004,1004,1004,,,,,
51071230,1005,1005,1005,1005,,,,,
51073729,1006,1006,1006,1006,,,,,
51076228,1006,1006,1006,1006,,,,,
51078727,1007,1007,1007,1007,,,,,
51081226,1008,1008,1008,1008,,,,,
51083725,1009,1009,1009,1009,,,,,
51086224,1009,1009,1009,1009,,,,,
51088723,1010,1010,1010,1010,,,,,
51091222,1011,1011,1011,1011,,,,,
51093721,1012,1012,1012,1012,,,,,
51096220,1012,1012,1012,1012,,,,,
51098719,1013,1013,1013,1013,,,,,
51101218,1014,1014,1014,1014,,,,,
51103717,1015,1015,1015,1015,,,,,
51106216,1015,1015,1015,1015,,,,,
51108715,1016,1016,1016,1016,,,,,
51111214,1017,1017,1017,1017,,,,,
51113713,1018,1018,1018,1018,,,,,
51116212,1018,1018,1018,1018,,,,,
51118711,1019,1019,1019,1019,,,,,
51121210,1020,1020,1020,1020,,,,,
51123709,1021,1021,1021,1021,,,,,
51126208,1021,1021,1021,1021,,,,,
51128707,1022,1022,1022,1022,,,,,
51131206,1023,1023,1023,1023,,,,,
51133705,1024,1024,1024,1024,,,,,
51136204,1024,1024,1024,1024,,,,,
51138703,1025,1025,1025,1025,,,,,
51141202,1026,1026,1026,1026,,,,,
51143701,1027,1027,1027,1027,,,,,
51146200,1027,1027,1027,1027,,,,,
51148699,1028,1028,1028,1028,,,,,
51151198,1029,1029,1029,1029,,,,,
51153697,1030,1030,1030,1030,,,,,
51156196,1030,1030,1030,1030,,,,,
51158695,1031,1031,1031,1031,,,,,
51161194,1032,1032,1032,1032,,,,,
51163693,1033,1033,1033,1033,,,,,
51166192,1033,1033,1033,1033,,,,,
51168691,1034,1034,1034,1034,,,,,
51171190,1035,1035,1035,1035,,,,,
51173689,1036,1036,1036,1036,,,,,
51176188,1036,1036,1036,1036,,,,,
51178687,1037,1037,1037,1037,,,,,
51181186,1038,1038,1038,1038,,,,,
51183685,1039,1039,1039,1039,,,,,
51186184,1039,1039,1039,1039,,,,,
51188683,1040,1040,1040,1040,,,,,
51191182,1041,1041,1041,1041,,,,,
51193681,1042,1042,1042,1042,,,,,
51196180,1042,1042,1042,1042,,,,,
51198679,1043,1043,1043,1043,,,,,
51201178,1044,1044,1044,1044,,,,,
51203677,1045,1045,1045,1045,,,,,
51206176,1045,1045,1045,1045,,,,,
51208675,1046,1046,1046,1046,,,,,
51211174,1047,1047,1047,1047,,,,,
51213673,1048,1048,1048,1048,,,,,
51216172,1048,1048,1048,1048,,,,,
51218671,1049,1049,1049,1049,,,,,
51221170,1050,1050,1050,1050,,,,,
51223669,1051,1051,1051,1051,,,,,
51226168,1051,1051,1051,1051,,,,,
51228667,1052,1052,1052,1052,,,,,
51231166,1053,1053,1053,1053,,,,,
51233665,1054,1054,1054,1054,,,,,
51236164,1054,1054,1054,1054,,,,,
51238663,1055,1055,1055,1055,,,,,
51241162,1056,1056,1056,1056,,,,,
51243661,1057,1057,1057,1057,,,,,
51246160,1057,1057,1057,1057,,,,,
51248659,1058,1058,1058,1058,,,,,
51251158,1059,1059,1059,1059,,,,,
51253657,1060,1060,1060,1060,,,,,
51256156,1060,1060,1060,1060,,,,,
51258655,1061,1061,1061,1061,,,,,
51261154,1062,1062,1062,1062,,,,,
51263653,1063,1063,1063,1063,,,,,
51266152,1063,1063,1063,1063,,,,,
51268651,1064,1064,1064,1064,,,,,
51271150,1065,1065,1065,1065,,,,,
51273649,1066,1066,1066,1066,,,,,
51276148,1066,1066,1066,1066,,,,,
51278647,1067,1067,1067,1067,,,,,
51281146,1068,1068,1068,1068,,,,,
51283645,1069,1069,1069,1069,,,,,
51286144,1069,1069,1069,1069,,,,,
51288643,1070,1070,1070,1070,,,,,
51291142,1071,1071,1071,1071,,,,,
51293641,1072,1072,1072,1072,,,,,
51296140,1072,1072,1072,1072,,,,,
51298639,1073,1073,1073,1073,,,,,
51301138,1074,1074,1074,1074,,,,,
51303637,1075,1075,1075,1075,,,,,
51306136,1075,1075,1075,1075,,,,,
51308635,1076,1076,1076,1076,,,,,
51311134,1077,1077,1077,1077,,,,,
51313633,1078,1078,1078,1078,,,,,
51316132,1078,1078,1078,1078,,,,,
51318631,1079,1079,1079,1079,,,,,
51321130,1080,1080,1080,1080,,,,,
51323629,1081,1081,1081,1081,,,,,
51326128,1081,1081,1081,1081,,,,,
51328627,1082,1082,1082,1082,,,,,
51331126,1083,1083,1083,1083,,,,,
51333625,1084,1084,1084,1084,,,,,
51336124,1084,1084,1084,1084,,,,,
51338623,1085,1085,1085,1085,,,,,
51341122,1086,1086,1086,1086,,,,,
51343621,1087,1087,1087,1087,,,,,
51346120,1087,1087,1087,1087,,,,,
51348619,1088,1088,1088,1088,,,,,
51351118,1089,1089,1089,1089,,,,,
51353617,1090,1090,1090,1090,,,,,
51356116,1090,1090,1090,1090,,,,,
51358615,1091,1091,1091,1091,,,,,
51361114,1092,1092,1092,1092,,,,,
51363613,1093,1093,1093,1093,,,,,
51366112,1093,1093,1093,1093,,,,,
51368611,1094,1094,1094,1094,,,,,
51371110,1095,1095,1095,1095,,,,,
51373609,1096,1096,1096,1096,,,,,
51376108,1096,1096,1096,1096,,,,,
51378607,1097,1097,1097,1097,,,,,
51381106,1098,1098,1098,1098,,,,,
51383605,1099,1099,1099,1099,,,,,
51386104,1099,1099,1099,1099,,,,,
51388603,1100,1100,1100,1100,,,,,
51391102,1100,1100,1100,1100,,,,,
51393601,1100,1100,1100,1100,,,,,
51396100,1100,1100,1100,1100,,,,,
51398599,1100,1100,1100,1100,,,,,
51401098,1100,1100,1100,1100,,,,,
51403597,1100,1100,1100,1100,,,,,
51406096,1100,1100,1100,1100,,,,,
51408595,1100,1100,1100,1100,,,,,
51411094,1100,1100,1100,1100,,,,,
51413593,1100,1100,1100,1100,,,,,
51416092,1100,1100,1100,1100,,,,,
51418591,1100,1100,1100,1100,,,,,
51421090,1100,1100,1100,1100,,,,,
51423589,1100,1100,1100,1100,,,,,
51426088,1100,1100,1100,1100,,,,,
51428587,1100,1100,1100,1100,,,,,
51431086,1100,1100,1100,1100,,,,,
51433585,1100,1100,1100,1100,,,,,
51436084,1100,1100,1100,1100,,,,,
51438583,1100,1100,1100,1100,,,,,
51441082,1100,1100,1100,1100,,,,,
51443581,1100,1100,1100,1100,,,,,
51446080,1100,1100,1100,1100,,,,,
51448579,1100,1100,1100,1100,,,,,
51451078,1100,1100,1100,1100,,,,,
51453577,1100,1100,1100,1100,,,,,
51456076,1100,1100,1100,1100,,,,,
51458575,1100,1100,1100,1100,,,,,
51461074,1100,1100,1100,1100,,,,,
51463573,1100,1100,1100,1100,,,,,
51466072,1100,1100,1100,1100,,,,,
51468571,1100,1100,1100,1100,,,,,
51471070,1100,1100,1100,1100,,,,,
51473569,1100,1100,1100,1100,,,,,
51476068,1100,1100,1100,1100,,,,,
51478567,1100,1100,1100,1100,,,,,
51481066,1100,1100,1100,1100,,,,,
51483565,1100,1100,1100,1100,,,,,
51486064,1100,1100,1100,1100,,,,,
51488563,1100,1100,1100,1100,,,,,
51491062,1100,1100,1100,1100,,,,,
51493561,1100,1100,1100,1100,,,,,
51496060,1100,1100,1100,1100,,,,,
51498559,1100,1100,1100,1100,,,,,
51501058,1100,1100,1100,1100,,,,,
51503557,1100,1100,1100,1100,,,,,
51506056,1100,1100,1100,1100,,,,,
51508555,1100,1100,1100,1100,,,,,
51511054,1100,1100,1100,1100,,,,,
51513553,1100,1100,1100,1100,,,,,
51516052,1100,1100,1100,1100,,,,,
51518551,1100,1100,1100,1100,,,,,
51521050,1100,1100,1100,1100,,,,,
51523549,1100,1100,1100,1100,,,,,
51526048,1100,1100,1100,1100,,,,,
51528547,1100,1100,1100,1100,,,,,
51531046,1100,1100,1100,1100,,,,,
51533545,1100,1100,1100,1100,,,,,
51536044,1100,1100,1100,1100,,,,,
51538543,1100,1100,1100,1100,,,,,
51541042,1100,1100,1100,1100,,,,,
51543541,1100,1100,1100,1100,,,,,
51546040,1100,1100,1100,1100,,,,,
51548539,1100,1100,1100,1100,,,,,
51551038,1100,1100,1100,1100,,,,,
51553537,1100,1100,1100,1100,,,,,
51556036,1100,1100,1100,1100,,,,,
51558535,1100,1100,1100,1100,,,,,
51561034,1100,1100,1100,1100,,,,,
51563533,1100,1100,1100,1100,,,,,
51566032,1100,1100,1100,1100,,,,,
51568531,1100,1100,1100,1100,,,,,
51571030,1100,1100,1100,1100,,,,,
51573529,1100,1100,1100,1100,,,,,
51576028,1100,1100,1100,1100,,,,,
51578527,1100,1100,1100,1100,,,,,
51581026,1100,1100,1100,1100,,,,,
51583525,1100,1100,1100,1100,,,,,
51586024,1100,1100,1100,1100,,,,,
51588523,1100,1100,1100,1100,,,,,
51591022,1100,1100,1100,1100,,,,,
51593521,1100,1100,1100,1100,,,,,
51596020,1100,1100,1100,1100,,,,,
51598519,1100,1100,1100,1100,,,,,
51601018,1100,1100,1100,1100,,,,,
51603517,1100,1100,1100,1100,,,,,
51606016,1100,1100,1100,1100,,,,,
51608515,1100,1100,1100,1100,,,,,
51611014,1100,1100,1100,1100,,,,,
51613513,1100,1100,1100,1100,,,,,
51616012,1100,1100,1100,1100,,,,,
51618511,1100,1100,1100,1100,,,,,
51621010,1100,1100,1100,1100,,,,,
51623509,1100,1100,1100,1100,,,,,
51626008,1100,1100,1100,1100,,,,,
51628507,1100,1100,1100,1100,,,,,
51631006,1100,1100,1100,1100,,,,,
51633505,1100,1100,1100,1100,,,,,
51636004,1100,1100,1100,1100,,,,,
51638503,1100,1100,1100,1100,,,,,
51641002,1100,1100,1100,1100,,,,,
51643501,1100,1100,1100,1100,,,,,
51646000,1100,1100,1100,1100,,,,,
51648499,1100,1100,1100,1100,,,,,
51650998,1100,1100,1100,1100,,,,,
51653497,1100,1100,1100,1100,,,,,
51655996,1100,1100,1100,1100,,,,,
51658495,1100,1100,1100,1100,,,,,
51660994,1100,1100,1100,1100,,,,,
51663493,1100,1100,1100,1100,,,,,
51665992,1100,1100,1100,1100,,,,,
51668491,1100,1100,1100,1100,,,,,
51670990,1100,1100,1100,1100,,,,,
51673489,1100,1100,1100,1100,,,,,
51675988,1100,1100,1100,1100,,,,,
51678487,1100,1100,1100,1100,,,,,
51680986,1100,1100,1100,1100,,,,,
51683485,1100,1100,1100,1100,,,,,
51685984,1100,1100,1100,1100,,,,,
51688483,1100,1100,1100,1100,,,,,
51690982,1100,1100,1100,1100,,,,,
51693481,1100,1100,1100,1100,,,,,
51695980,1100,1100,1100,1100,,,,,
51698479,1100,1100,1100,1100,,,,,
51700978,1100,1100,1100,1100,,,,,
51703477,1100,1100,1100,1100,,,,,
51705976,1100,1100,1100,1100,,,,,
51708475,1100,1100,1100,1100,,,,,
51710974,1100,1100,1100,1100,,,,,
51713473,1100,1100,1100,1100,,,,,
51715972,1100,1100,1100,1100,,,,,
51718471,1100,1100,1100,1100,,,,,
51720970,1100,1100,1100,1100,,,,,
51723469,1100,1100,1100,1100,,,,,
51725968,1100,1100,1100,1100,,,,,
51728467,1100,1100,1100,1100,,,,,
51730966,1100,1100,1100,1100,,,,,
51733465,1100,1100,1100,1100,,,,,
51735964,1100,1100,1100,1100,,,,,
51738463,1100,1100,1100,1100,,,,,
51740962,1100,1100,1100,1100,,,,,
51743461,1100,1100,1100,1100,,,,,
51745960,1100,1100,1100,1100,,,,,
51748459,1100,1100,1100,1100,,,,,
51750958,1100,1100,1100,1100,,,,,
51753457,1100,1100,1100,1100,,,,,
51755956,1100,1100,1100,1100,,,,,
51758455,1100,1100,1100,1100,,,,,
51760954,1100,1100,1100,1100,,,,,
51763453,1100,1100,1100,1100,,,,,
51765952,1100,1100,1100,1100,,,,,
51768451,1100,1100,1100,1100,,,,,
51770950,1100,1100,1100,1100,,,,,
51773449,1100,1100,1100,1100,,,,,
51775948,1100,1100,1100,1100,,,,,
51778447,1100,1100,1100,1100,,,,,
51780946,1100,1100,1100,1100,,,,,
51783445,1100,1100,1100,1100,,,,,
51785944,1100,1100,1100,1100,,,,,
51788443,1100,1100,1100,1100,,,,,
51790942,1100,1100,1100,1100,,,,,
51793441,1100,1100,1100,1100,,,,,
51795940,1100,1100,1100,1100,,,,,
51798439,1100,1100,1100,1100,,,,,
51800938,1100,1100,1100,1100,,,,,
51803437,1100,1100,1100,1100,,,,,
51805936,1100,1100,1100,1100,,,,,
51808435,1100,1100,1100,1100,,,,,
51810934,1100,1100,1100,1100,,,,,
51813433,1100,1100,1100,1100,,,,,
51815932,1100,1100,1100,1100,,,,,
51818431,1100,1100,1100,1100,,,,,
51820930,1100,1100,1100,1100,,,,,
51823429,1100,1100,1100,1100,,,,,
51825928,1100,1100,1100,1100,,,,,
51828427,1100,1100,1100,1100,,,,,
51830926,1100,1100,1100,1100,,,,,
51833425,1100,1100,1100,1100,,,,,
51835924,1100,1100,1100,1100,,,,,
51838423,1100,1100,1100,1100,,,,,
51840922,1100,1100,1100,1100,,,,,
51843421,1100,1100,1100,1100,,,,,
51845920,1100,1100,1100,1100,,,,,
51848419,1100,1100,1100,1100,,,,,
51850918,1100,1100,1100,1100,,,,,
51853417,1100,1100,1100,1100,,,,,
51855916,1100,1100,1100,1100,,,,,
51858415,1100,1100,1100,1100,,,,,
51860914,1100,1100,1100,1100,,,,,
51863413,1100,1100,1100,1100,,,,,
51865912,1100,1100,1100,1100,,,,,
51868411,1100,1100,1100,1100,,,,,
51870910,1100,1100,1100,1100,,,,,
51873409,1100,1100,1100,1100,,,,,
51875908,1100,1100,1100,1100,,,,,
51878407,1100,1100,1100,1100,,,,,
51880906,1100,1100,1100,1100,,,,,
51883405,1100,1100,1100,1100,,,,,
51885904,1100,1100,1100,1100,,,,,
51888403,1100,1100,1100,1100,,,,,
51890902,1100,1100,1100,1100,,,,,
51893401,1100,1100,1100,1100,,,,,
51895900,1100,1100,1100,1100,,,,,
51898399,1100,1100,1100,1100,,,,,
51900898,1100,1100,1100,1100,,,,,
51903397,1100,1100,1100,1100,,,,,
51905896,1100,1100,1100,1100,,,,,
51908395,1100,1100,1100,1100,,,,,
51910894,1100,1100,1100,1100,,,,,
51913393,1100,1100,1100,1100,,,,,
51915892,1100,1100,1100,1100,,,,,
51918391,1100,1100,1100,1100,,,,,
51920890,1100,1100,1100,1100,,,,,
51923389,1100,1100,1100,1100,,,,,
51925888,1100,1100,1100,1100,,,,,
51928387,1100,1100,1100,1100,,,,,
51930886,1100,1100,1100,1100,,,,,
51933385,1100,1100,1100,1100,,,,,
51935884,1100,1100,1100,1100,,,,,
51938383,1100,1100,1100,1100,,,,,
51940882,1100,1100,1100,1100,,,,,
51943381,1100,1100,1100,1100,,,,,
51945880,1100,1100,1100,1100,,,,,
51948379,1100,1100,1100,1100,,,,,
51950878,1100,1100,1100,1100,,,,,
51953377,1100,1100,1100,1100,,,,,
51955876,1100,1100,1100,1100,,,,,
51958375,1100,1100,1100,1100,,,,,
51960874,1100,1100,1100,1100,,,,,
51963373,1100,1100,1100,1100,,,,,
51965872,1100,1100,1100,1100,,,,,
51968371,1100,1100,1100,1100,,,,,
51970870,1100,1100,1100,1100,,,,,
51973369,1100,1100,1100,1100,,,,,
51975868,1100,1100,1100,1100,,,,,
51978367,1100,1100,1100,1100,,,,,
51980866,1100,1100,1100,1100,,,,,
51983365,1100,1100,1100,1100,,,,,
51985864,1100,1100,1100,1100,,,,,
51988363,1100,1100,1100,1100,,,,,
51990862,1100,1100,1100,1100,,,,,
51993361,1100,1100,1100,1100,,,,,
51995860,1100,1100,1100,1100,,,,,
51998359,1100,1100,1100,1100,,,,,
52000858,1100,1100,1100,1100,,,,,
52003357,1100,1100,1100,1100,,,,,
52005856,1100,1100,1100,1100,,,,,
52008355,1100,1100,1100,1100,,,,,
52010854,1100,1100,1100,1100,,,,,
52013353,1100,1100,1100,1100,,,,,
52015852,1100,1100,1100,1100,,,,,
52018351,1100,1100,1100,1100,,,,,
52020850,1100,1100,1100,1100,,,,,
52023349,1100,1100,1100,1100,,,,,
52025848,1100,1100,1100,1100,,,,,
52028347,1100,1100,1100,1100,,,,,
52030846,1100,1100,1100,1100,,,,,
52033345,1100,1100,1100,1100,,,,,
52035844,1100,1100,1100,1100,,,,,
52038343,1100,1100,1100,1100,,,,,
52040842,1100,1100,1100,1100,,,,,
52043341,1100,1100,1100,1100,,,,,
52045840,1100,1100,1100,1100,,,,,
52048339,1100,1100,1100,1100,,,,,
52050838,1100,1100,1100,1100,,,,,
52053337,1100,1100,1100,1100,,,,,
52055836,1100,1100,1100,1100,,,,,
52058335,1100,1100,1100,1100,,,,,
52060834,1100,1100,1100,1100,,,,,
52063333,1100,1100,1100,1100,,,,,
52065832,1100,1100,1100,1100,,,,,
52068331,1100,1100,1100,1100,,,,,
52070830,1100,1100,1100,1100,,,,,
52073329,1100,1100,1100,1100,,,,,
52075828,1100,1100,1100,1100,,,,,
52078327,1100,1100,1100,1100,,,,,
52080826,1100,1100,1100,1100,,,,,
52083325,1100,1100,1100,1100,,,,,
52085824,1100,1100,1100,1100,,,,,
52088323,1100,1100,1100,1100,,,,,
52090822,1100,1100,1100,1100,,,,,
52093321,1100,1100,1100,1100,,,,,
52095820,1100,1100,1100,1100,,,,,
52098319,1100,1100,1100,1100,,,,,
52100818,1100,1100,1100,1100,,,,,
52103317,1100,1100,1100,1100,,,,,
52105816,1100,1100,1100,1100,,,,,
52108315,1100,1100,1100,1100,,,,,
52110814,1100,1100,1100,1100,,,,,
52113313,1100,1100,1100,1100,,,,,
52115812,1100,1100,1100,1100,,,,,
52118311,1100,1100,1100,1100,,,,,
52120810,1100,1100,1100,1100,,,,,
52123309,1100,1100,1100,1100,,,,,
52125808,1100,1100,1100,1100,,,,,
52128307,1100,1100,1100,1100,,,,,
52130806,1100,1100,1100,1100,,,,,
52133305,1100,1100,1100,1100,,,,,
52135804,1100,1100,1100,1100,,,,,
52138303,1100,1100,1100,1100,,,,,
52140802,1100,1100,1100,1100,,,,,
52143301,1100,1100,1100,1100,,,,,
52145800,1100,1100,1100,1100,,,,,
52148299,1100,1100,1100,1100,,,,,
52150798,1100,1100,1100,1100,,,,,
52153297,1100,1100,1100,1100,,,,,
52155796,1100,1100,1100,1100,,,,,
52158295,1100,1100,1100,1100,,,,,
52160794,1100,1100,1100,1100,,,,,
52163293,1100,1100,1100,1100,,,,,
52165792,1100,1100,1100,1100,,,,,
52168291,1100,1100,1100,1100,,,,,
52170790,1100,1100,1100,1100,,,,,
52173289,1100,1100,1100,1100,,,,,
52175788,1100,1100,1100,1100,,,,,
52178287,1100,1100,1100,1100,,,,,
52180786,1100,1100,1100,1100,,,,,
52183285,1100,1100,1100,1100,,,,,
52185784,1100,1100,1100,1100,,,,,
52188283,1100,1100,1100,1100,,,,,
52190782,1100,1100,1100,1100,,,,,
52193281,1100,1100,1100,1100,,,,,
52195780,1100,1100,1100,1100,,,,,
52198279,1100,1100,1100,1100,,,,,
52200778,1100,1100,1100,1100,,,,,
52203277,1100,1100,1100,1100,,,,,
52205776,1100,1100,1100,1100,,,,,
52208275,1100,1100,1100,1100,,,,,
52210774,1100,1100,1100,1100,,,,,
52213273,1100,1100,1100,1100,,,,,
52215772,1100,1100,1100,1100,,,,,
52218271,1100,1100,1100,1100,,,,,
52220770,1100,1100,1100,1100,,,,,
52223269,1100,1100,1100,1100,,,,,
52225768,1100,1100,1100,1100,,,,,
52228267,1100,1100,1100,1100,,,,,
52230766,1100,1100,1100,1100,,,,,
52233265,1100,1100,1100,1100,,,,,
52235764,1100,1100,1100,1100,,,,,
52238263,1100,1100,1100,1100,,,,,
52240762,1100,1100,1100,1100,,,,,
52243261,1100,1100,1100,1100,,,,,
52245760,1100,1100,1100,1100,,,,,
52248259,1100,1100,1100,1100,,,,,
52250758,1100,1100,1100,1100,,,,,
52253257,1100,1100,1100,1100,,,,,
52255756,1100,1100,1100,1100,,,,,
52258255,1100,1100,1100,1100,,,,,
52260754,1100,1100,1100,1100,,,,,
52263253,1100,1100,1100,1100,,,,,
52265752,1100,1100,1100,1100,,,,,
52268251,1100,1100,1100,1100,,,,,
52270750,1100,1100,1100,1100,,,,,
52273249,1100,1100,1100,1100,,,,,
52275748,1100,1100,1100,1100,,,,,
52278247,1100,1100,1100,1100,,,,,
52280746,1100,1100,1100,1100,,,,,
52283245,1100,1100,1100,1100,,,,,
52285744,1100,1100,1100,1100,,,,,
52288243,1100,1100,1100,1100,,,,,
52290742,1100,1100,1100,1100,,,,,
52293241,1100,1100,1100,1100,,,,,
52295740,1100,1100,1100,1100,,,,,
