TimeUS,M1,M2,M3,M4,TimeUS,C1,C2,C3,C4
44918692,1000,1000,1000,1000,44928688,1000,1000,1000,1000
44921191,1000,1000,1000,1000,45028648,1000,1000,1000,1000
44923690,1000,1000,1000,1000,45128608,1000,1000,1000,1000
44926189,1000,1000,1000,1000,45228568,1000,1000,1000,1000
44928688,1000,1000,1000,1000,45328528,1000,1000,1000,1000
44931187,1000,1000,1000,1000,45428488,1000,1000,1000,1000
44933686,1000,1000,1000,1000,45528448,1000,1000,1000,1000
44936185,1000,1000,1000,1000,45628408,1000,1000,1000,1000
44938684,1000,1000,1000,1000,45728368,1000,1000,1000,1000
44941183,1000,1000,1000,1000,45828328,1000,1000,1000,1000
44943682,1000,1000,1000,1000,45928288,1000,1000,1000,1000
44946181,1000,1000,1000,1000,46028248,1000,1000,1000,1000
44948680,1000,1000,1000,1000,46128208,1000,1000,1000,1000
44951179,1000,1000,1000,1000,46228168,1000,1000,1000,1000
44953678,1000,1000,1000,1000,46328961,1000,1000,1000,1000
44956177,1000,1000,1000,1000,46428921,1000,1000,1000,1000
44958676,1000,1000,1000,1000,46528881,1000,1000,1000,1000
44961175,1000,1000,1000,1000,46628841,1000,1000,1000,1000
44963674,1000,1000,1000,1000,46728801,1000,1000,1000,1000
44966173,1000,1000,1000,1000,46828761,1000,1000,1000,1000
44968672,1000,1000,1000,1000,46928721,1003,1003,1003,1003
44971171,1000,1000,1000,1000,47028681,1033,1033,1033,1033
44973670,1000,1000,1000,1000,47128641,1063,1063,1063,1063
44976169,1000,1000,1000,1000,47228601,1093,1093,1093,1093
44978668,1000,1000,1000,1000,47328561,1122,1122,1122,1122
44981167,1000,1000,1000,1000,47428521,1176,1170,1171,1177
44983666,1000,1000,1000,1000,47528481,1419,1414,1415,1419
44986165,1000,1000,1000,1000,47628441,1594,1591,1591,1595
44988664,1000,1000,1000,1000,47728401,1739,1736,1736,1740
44991163,1000,1000,1000,1000,47828361,1865,1863,1862,1866
44993662,1000,1000,1000,1000,47928321,1929,1927,1927,1930
44996161,1000,1000,1000,1000,48028281,1821,1819,1820,1820
44998660,1000,1000,1000,1000,48128241,1701,1701,1702,1700
45001159,1000,1000,1000,1000,48228201,1646,1648,1648,1646
45003658,1000,1000,1000,1000,48328161,1639,1640,1640,1639
45006157,1000,1000,1000,1000,48428954,1644,1646,1645,1645
45008656,1000,1000,1000,1000,48528914,1642,1643,1642,1642
45011155,1000,1000,1000,1000,48628874,1634,1635,1634,1635
45013654,1000,1000,1000,1000,48728834,1625,1624,1624,1624
45016153,1000,1000,1000,1000,48828794,1617,1616,1617,1617
45018652,1000,1000,1000,1000,48928754,1614,1613,1613,1614
45021151,1000,1000,1000,1000,49028714,1613,1613,1613,1613
45023650,1000,1000,1000,1000,49128674,1587,1588,1587,1588
45026149,1000,1000,1000,1000,49228634,1571,1572,1569,1573
45028648,1000,1000,1000,1000,49328594,1560,1559,1557,1562
45031147,1000,1000,1000,1000,49428554,1550,1550,1548,1552
45033646,1000,1000,1000,1000,49528514,1541,1541,1540,1541
45036145,1000,1000,1000,1000,49628474,1533,1532,1533,1532
45038644,1000,1000,1000,1000,49728434,1526,1526,1527,1525
45041143,1000,1000,1000,1000,49828394,1519,1519,1520,1519
45043642,1000,1000,1000,1000,49928354,1514,1514,1514,1515
45046141,1000,1000,1000,1000,50028314,1513,1513,1513,1513
45048640,1000,1000,1000,1000,50128274,1514,1514,1513,1515
45051139,1000,1000,1000,1000,50228234,1516,1516,1516,1517
45053638,1000,1000,1000,1000,50328194,1519,1518,1518,1519
45056137,1000,1000,1000,1000,50428154,1526,1527,1530,1523
45058636,1000,1000,1000,1000,50528947,1536,1536,1541,1530
45061135,1000,1000,1000,1000,50628907,1541,1541,1543,1539
45063634,1000,1000,1000,1000,50728867,1546,1546,1544,1548
45066133,1000,1000,1000,1000,50828827,1548,1548,1543,1552
45068632,1000,1000,1000,1000,50928787,1550,1550,1546,1555
45071131,1000,1000,1000,1000,51028747,1553,1553,1550,1556
45073630,1000,1000,1000,1000,51128707,1556,1556,1555,1557
45076129,1000,1000,1000,1000,51228667,1561,1560,1563,1558
45078628,1000,1000,1000,1000,51328627,1563,1563,1566,1560
45081127,1000,1000,1000,1000,51428587,1565,1565,1567,1562
45083626,1000,1000,1000,1000,51528547,1565,1566,1567,1564
45086125,1000,1000,1000,1000,51628507,1566,1566,1566,1566
45088624,1000,1000,1000,1000,51728467,1563,1562,1568,1571
45091123,1000,1000,1000,1000,51828427,1559,1559,1572,1576
45093622,1000,1000,1000,1000,51928387,1559,1560,1571,1573
45096121,1000,1000,1000,1000,52028347,1562,1563,1569,1570
45098620,1000,1000,1000,1000,52128307,1566,1567,1568,1568
45101119,1000,1000,1000,1000,52228267,1569,1569,1566,1566
45103618,1000,1000,1000,1000,52328227,1572,1572,1566,1565
45106117,1000,1000,1000,1000,52428187,1573,1573,1565,1564
45108616,1000,1000,1000,1000,52528980,1574,1573,1565,1564
45111115,1000,1000,1000,1000,52628940,1575,1575,1566,1566
45113614,1000,1000,1000,1000,52728900,1574,1573,1566,1567
45116113,1000,1000,1000,1000,52828860,1574,1574,1568,1568
45118612,1000,1000,1000,1000,52928820,1573,1572,1569,1570
45121111,1000,1000,1000,1000,53028780,1573,1573,1571,1572
45123610,1000,1000,1000,1000,53128740,1573,1574,1575,1574
45126109,1000,1000,1000,1000,53228700,1572,1573,1576,1574
45128608,1000,1000,1000,1000,53328660,1574,1574,1578,1576
45131107,1000,1000,1000,1000,53428620,1574,1573,1578,1577
45133606,1000,1000,1000,1000,53528580,1573,1574,1577,1577
45136105,1000,1000,1000,1000,53628540,1574,1575,1578,1578
45138604,1000,1000,1000,1000,53728500,1575,1575,1578,1578
45141103,1000,1000,1000,1000,53828460,1576,1575,1576,1577
45143602,1000,1000,1000,1000,53928420,1576,1576,1576,1577
45146101,1000,1000,1000,1000,54028380,1576,1576,1576,1576
45148600,1000,1000,1000,1000,54128340,1577,1577,1577,1577
45151099,1000,1000,1000,1000,54228300,1579,1578,1578,1577
45153598,1000,1000,1000,1000,54328260,1578,1578,1577,1577
45156097,1000,1000,1000,1000,54428220,1578,1577,1577,1576
45158596,1000,1000,1000,1000,54528180,1578,1578,1577,1577
45161095,1000,1000,1000,1000,54628973,1579,1579,1578,1578
45163594,1000,1000,1000,1000,54728933,1578,1578,1577,1578
45166093,1000,1000,1000,1000,54828893,1578,1578,1578,1578
45168592,1000,1000,1000,1000,54928853,1578,1579,1579,1578
45171091,1000,1000,1000,1000,55028813,1579,1579,1579,1579
45173590,1000,1000,1000,1000,55128773,1579,1579,1579,1579
45176089,1000,1000,1000,1000,55228733,1579,1579,1579,1579
45178588,1000,1000,1000,1000,55328693,1579,1579,1579,1579
45181087,1000,1000,1000,1000,55428653,1579,1578,1579,1579
45183586,1000,1000,1000,1000,55528613,1578,1579,1579,1579
45186085,1000,1000,1000,1000,55628573,1579,1579,1579,1580
45188584,1000,1000,1000,1000,55728533,1579,1578,1579,1579
45191083,1000,1000,1000,1000,55828493,1579,1579,1579,1579
45193582,1000,1000,1000,1000,55928453,1579,1580,1580,1580
45196081,1000,1000,1000,1000,56028413,1579,1579,1579,1579
45198580,1000,1000,1000,1000,56128373,1579,1580,1580,1580
45201079,1000,1000,1000,1000,56228333,1580,1580,1580,1580
45203578,1000,1000,1000,1000,56328293,1580,1580,1580,1580
45206077,1000,1000,1000,1000,56428253,1580,1580,1580,1580
45208576,1000,1000,1000,1000,56528213,1580,1580,1580,1580
45211075,1000,1000,1000,1000,56628173,1581,1580,1581,1580
45213574,1000,1000,1000,1000,56728966,1580,1581,1581,1580
45216073,1000,1000,1000,1000,56828926,1580,1581,1581,1580
45218572,1000,1000,1000,1000,56928886,1579,1579,1579,1579
45221071,1000,1000,1000,1000,57028846,1580,1580,1580,1580
45223570,1000,1000,1000,1000,57128806,1581,1581,1581,1581
45226069,1000,1000,1000,1000,57228766,1580,1580,1580,1580
45228568,1000,1000,1000,1000,57328726,1581,1581,1581,1581
45231067,1000,1000,1000,1000,57428686,1581,1580,1581,1581
45233566,1000,1000,1000,1000,57528646,1581,1581,1581,1581
45236065,1000,1000,1000,1000,57628606,1581,1581,1581,1581
45238564,1000,1000,1000,1000,57728566,1581,1581,1581,1581
45241063,1000,1000,1000,1000,57828526,1581,1581,1581,1581
45243562,1000,1000,1000,1000,57928486,1581,1580,1581,1581
45246061,1000,1000,1000,1000,58028446,1580,1581,1587,1573
45248560,1000,1000,1000,1000,58128406,1579,1581,1584,1572
45251059,1000,1000,1000,1000,58228366,1578,1581,1577,1573
45253558,1000,1000,1000,1000,58328326,1577,1579,1569,1572
45256057,1000,1000,1000,1000,58428286,1576,1578,1561,1568
45258556,1000,1000,1000,1000,58528246,1577,1578,1557,1564
45261055,1000,1000,1000,1000,58628206,1579,1578,1556,1559
45263554,1000,1000,1000,1000,58728166,1579,1577,1555,1556
45266053,1000,1000,1000,1000,58828959,1580,1578,1557,1555
45268552,1000,1000,1000,1000,58928919,1579,1578,1557,1554
45271051,1000,1000,1000,1000,59028879,1577,1578,1557,1555
45273550,1000,1000,1000,1000,59128839,1577,1578,1556,1555
45276049,1000,1000,1000,1000,59228799,1575,1577,1555,1555
45278548,1000,1000,1000,1000,59328759,1575,1576,1553,1553
45281047,1000,1000,1000,1000,59428719,1575,1577,1552,1552
45283546,1000,1000,1000,1000,59528679,1577,1578,1551,1552
45286045,1000,1000,1000,1000,59628639,1579,1580,1549,1549
45288544,1000,1000,1000,1000,59728599,1580,1581,1546,1546
45291043,1000,1000,1000,1000,59828559,1583,1584,1544,1543
45293542,1000,1000,1000,1000,59928519,1586,1587,1541,1540
45296041,1000,1000,1000,1000,60028479,1589,1589,1538,1538
45298540,1000,1000,1000,1000,60128439,1592,1592,1536,1536
45301039,1000,1000,1000,1000,60228399,1594,1594,1534,1535
45303538,1000,1000,1000,1000,60328359,1594,1594,1534,1536
45306037,1000,1000,1000,1000,60428319,1593,1594,1535,1537
45308536,1000,1000,1000,1000,60528279,1593,1593,1539,1541
45311035,1000,1000,1000,1000,60628239,1590,1589,1544,1547
45313534,1000,1000,1000,1000,60728199,1584,1582,1550,1554
45316033,1000,1000,1000,1000,60828159,1577,1574,1560,1563
45318532,1000,1000,1000,1000,60928952,1567,1563,1572,1574
45321031,1000,1000,1000,1000,61028912,1556,1553,1584,1585
45323530,1000,1000,1000,1000,61128872,1546,1543,1596,1596
45326029,1000,1000,1000,1000,61228832,1537,1535,1605,1604
45328528,1000,1000,1000,1000,61328792,1531,1531,1612,1611
45331027,1000,1000,1000,1000,61428752,1529,1530,1614,1613
45333526,1000,1000,1000,1000,61528712,1530,1532,1613,1613
45336025,1000,1000,1000,1000,61628672,1535,1538,1610,1610
45338524,1000,1000,1000,1000,61728632,1543,1544,1604,1604
45341023,1000,1000,1000,1000,61828592,1552,1553,1598,1598
45343522,1000,1000,1000,1000,61928552,1561,1561,1591,1590
45346021,1000,1000,1000,1000,62028512,1568,1568,1583,1582
45348520,1000,1000,1000,1000,62128472,1576,1576,1577,1576
45351019,1000,1000,1000,1000,62228432,1581,1580,1571,1571
45353518,1000,1000,1000,1000,62328392,1584,1583,1567,1567
45356017,1000,1000,1000,1000,62428352,1587,1585,1566,1566
45358516,1000,1000,1000,1000,62528312,1587,1586,1566,1566
45361015,1000,1000,1000,1000,62628272,1586,1585,1568,1568
45363514,1000,1000,1000,1000,62728232,1583,1582,1569,1569
45366013,1000,1000,1000,1000,62828192,1580,1581,1572,1572
45368512,1000,1000,1000,1000,62928985,1579,1580,1577,1577
45371011,1000,1000,1000,1000,63028945,1576,1576,1578,1578
45373510,1000,1000,1000,1000,63128905,1574,1575,1581,1581
45376009,1000,1000,1000,1000,63228865,1573,1573,1582,1582
45378508,1000,1000,1000,1000,63328825,1572,1573,1583,1583
45381007,1000,1000,1000,1000,63428785,1572,1573,1584,1583
45383506,1000,1000,1000,1000,63528745,1573,1573,1583,1583
45386005,1000,1000,1000,1000,63628705,1574,1574,1582,1582
45388504,1000,1000,1000,1000,63728665,1576,1576,1582,1582
45391003,1000,1000,1000,1000,63828625,1578,1578,1581,1581
45393502,1000,1000,1000,1000,63928585,1579,1578,1579,1579
45396001,1000,1000,1000,1000,64028545,1579,1579,1578,1578
45398500,1000,1000,1000,1000,64128505,1581,1581,1578,1578
45400999,1000,1000,1000,1000,64228465,1581,1581,1577,1577
45403498,1000,1000,1000,1000,64328425,1434,1436,1614,1619
45405997,1000,1000,1000,1000,64428385,1481,1486,1620,1623
45408496,1000,1000,1000,1000,64528345,1522,1528,1612,1609
45410995,1000,1000,1000,1000,64628305,1558,1563,1600,1595
45413494,1000,1000,1000,1000,64728265,1586,1587,1591,1586
45415993,1000,1000,1000,1000,64828225,1605,1603,1584,1581
45418492,1000,1000,1000,1000,64928185,1619,1613,1582,1581
45420991,1000,1000,1000,1000,65028978,1625,1618,1578,1579
45423490,1000,1000,1000,1000,65128938,1630,1623,1567,1572
45425989,1000,1000,1000,1000,65228898,1638,1636,1553,1559
45428488,1000,1000,1000,1000,65328858,1643,1643,1544,1548
45430987,1000,1000,1000,1000,65428818,1642,1644,1542,1545
45433486,1000,1000,1000,1000,65528778,1636,1637,1548,1549
45435985,1000,1000,1000,1000,65628738,1625,1624,1558,1558
45438484,1000,1000,1000,1000,65728698,1611,1609,1572,1571
45440983,1000,1000,1000,1000,65828658,1594,1592,1586,1585
45443482,1000,1000,1000,1000,65928618,1580,1579,1595,1595
45445981,1000,1000,1000,1000,66028578,1571,1573,1604,1594
45448480,1000,1000,1000,1000,66128538,1568,1569,1603,1590
45450979,1000,1000,1000,1000,66228498,1567,1568,1594,1587
45453478,1000,1000,1000,1000,66328458,1567,1568,1583,1583
45455977,1000,1000,1000,1000,66428418,1565,1567,1573,1575
45458476,1000,1000,1000,1000,66528378,1565,1568,1566,1569
45460975,1000,1000,1000,1000,66628338,1567,1569,1562,1564
45463474,1000,1000,1000,1000,66728298,1567,1569,1559,1559
45465973,1000,1000,1000,1000,66828258,1569,1570,1557,1556
45468472,1000,1000,1000,1000,66928218,1570,1571,1554,1552
45470971,1000,1000,1000,1000,67028178,1572,1572,1552,1550
45473470,1000,1000,1000,1000,67128971,1573,1573,1550,1548
45475969,1000,1000,1000,1000,67228931,1573,1573,1546,1546
45478468,1000,1000,1000,1000,67328891,1574,1574,1545,1545
45480967,1000,1000,1000,1000,67428851,1576,1577,1544,1545
45483466,1000,1000,1000,1000,67528811,1576,1578,1542,1542
45485965,1000,1000,1000,1000,67628771,1578,1580,1542,1541
45488464,1000,1000,1000,1000,67728731,1581,1582,1540,1540
45490963,1000,1000,1000,1000,67828691,1582,1583,1539,1537
45493462,1000,1000,1000,1000,67928651,1585,1586,1537,1537
45495961,1000,1000,1000,1000,68028611,1588,1588,1537,1536
45498460,1000,1000,1000,1000,68128571,1591,1591,1534,1535
45500959,1000,1000,1000,1000,68228531,1593,1593,1533,1534
45503458,1000,1000,1000,1000,68328491,1593,1593,1535,1536
45505957,1000,1000,1000,1000,68428451,1592,1592,1537,1540
45508456,1000,1000,1000,1000,68528411,1588,1588,1541,1545
45510955,1000,1000,1000,1000,68628371,1585,1585,1547,1551
45513454,1000,1000,1000,1000,68728331,1580,1579,1551,1556
45515953,1000,1000,1000,1000,68828291,1575,1575,1558,1561
45518452,1000,1000,1000,1000,68928251,1570,1569,1565,1568
45520951,1000,1000,1000,1000,69028211,1565,1562,1572,1574
45523450,1000,1000,1000,1000,69128171,1559,1556,1580,1581
45525949,1000,1000,1000,1000,69228964,1554,1551,1587,1587
45528448,1000,1000,1000,1000,69328924,1549,1546,1593,1593
45530947,1000,1000,1000,1000,69428884,1543,1542,1598,1597
45533446,1000,1000,1000,1000,69528844,1541,1541,1603,1602
45535945,1000,1000,1000,1000,69628804,1538,1540,1605,1604
45538444,1000,1000,1000,1000,69728764,1537,1540,1605,1604
45540943,1000,1000,1000,1000,69828724,1539,1542,1606,1605
45543442,1000,1000,1000,1000,69928684,1543,1545,1603,1602
45545941,1000,1000,1000,1000,70028644,1549,1550,1599,1598
45548440,1000,1000,1000,1000,70128604,1555,1556,1593,1592
45550939,1000,1000,1000,1000,70228564,1563,1563,1588,1587
45553438,1000,1000,1000,1000,70328524,1569,1569,1582,1582
45555937,1000,1000,1000,1000,70428484,1575,1574,1578,1577
45558436,1000,1000,1000,1000,70528444,1579,1578,1575,1574
45560935,1000,1000,1000,1000,70628404,1583,1581,1572,1573
45563434,1000,1000,1000,1000,70728364,1584,1583,1571,1571
45565933,1000,1000,1000,1000,70828324,1585,1584,1570,1571
45568432,1000,1000,1000,1000,70928284,1585,1585,1570,1571
45570931,1000,1000,1000,1000,71028244,1585,1585,1571,1571
45573430,1000,1000,1000,1000,71128204,1586,1585,1573,1573
45575929,1000,1000,1000,1000,71228164,1585,1585,1574,1574
45578428,1000,1000,1000,1000,71328957,1584,1583,1575,1575
45580927,1000,1000,1000,1000,71428917,1584,1584,1577,1577
45583426,1000,1000,1000,1000,71528877,1581,1582,1576,1577
45585925,1000,1000,1000,1000,71628837,1581,1581,1578,1579
45588424,1000,1000,1000,1000,71728797,1581,1581,1580,1579
45590923,1000,1000,1000,1000,71828757,1580,1581,1581,1580
45593422,1000,1000,1000,1000,71928717,1578,1578,1579,1579
45595921,1000,1000,1000,1000,72028677,1578,1579,1581,1581
45598420,1000,1000,1000,1000,72128637,1578,1578,1580,1580
45600919,1000,1000,1000,1000,72228597,1578,1579,1582,1582
45603418,1000,1000,1000,1000,72328557,1578,1578,1581,1581
45605917,1000,1000,1000,1000,72428517,1578,1578,1581,1581
45608416,1000,1000,1000,1000,72528477,1578,1578,1581,1581
45610915,1000,1000,1000,1000,72628437,1579,1579,1581,1582
45613414,1000,1000,1000,1000,72728397,1579,1579,1581,1581
45615913,1000,1000,1000,1000,72828357,1579,1579,1580,1580
45618412,1000,1000,1000,1000,72928317,1580,1580,1580,1580
45620911,1000,1000,1000,1000,73028277,1581,1581,1581,1581
45623410,1000,1000,1000,1000,73128237,1582,1581,1580,1581
45625909,1000,1000,1000,1000,73228197,1581,1581,1580,1581
45628408,1000,1000,1000,1000,73328157,1581,1581,1580,1580
45630907,1000,1000,1000,1000,73428950,1582,1582,1580,1581
45633406,1000,1000,1000,1000,73528910,1581,1581,1579,1580
45635905,1000,1000,1000,1000,73628870,1582,1582,1581,1580
45638404,1000,1000,1000,1000,73728830,1582,1582,1581,1581
45640903,1000,1000,1000,1000,73828790,1582,1581,1580,1580
45643402,1000,1000,1000,1000,73928750,1582,1582,1581,1581
45645901,1000,1000,1000,1000,74028710,1581,1581,1580,1580
45648400,1000,1000,1000,1000,74128670,1582,1582,1581,1581
45650899,1000,1000,1000,1000,74228630,1581,1581,1581,1581
45653398,1000,1000,1000,1000,74328590,1581,1581,1580,1581
45655897,1000,1000,1000,1000,74428550,1581,1581,1581,1581
45658396,1000,1000,1000,1000,74528510,1581,1581,1587,1574
45660895,1000,1000,1000,1000,74628470,1580,1580,1585,1572
45663394,1000,1000,1000,1000,74728430,1579,1580,1577,1573
45665893,1000,1000,1000,1000,74828390,1576,1578,1568,1571
45668392,1000,1000,1000,1000,74928350,1575,1578,1561,1567
45670891,1000,1000,1000,1000,75028310,1575,1577,1557,1563
45673390,1000,1000,1000,1000,75128270,1576,1576,1556,1559
45675889,1000,1000,1000,1000,75228230,1577,1577,1556,1557
45678388,1000,1000,1000,1000,75328190,1577,1577,1557,1555
45680887,1000,1000,1000,1000,75428983,1577,1577,1557,1555
45683386,1000,1000,1000,1000,75528943,1577,1577,1557,1555
45685885,1000,1000,1000,1000,75628903,1577,1577,1556,1554
45688384,1000,1000,1000,1000,75728863,1577,1577,1555,1555
45690883,1000,1000,1000,1000,75828823,1575,1576,1553,1553
45693382,1000,1000,1000,1000,75928783,1575,1576,1550,1552
45695881,1000,1000,1000,1000,76028743,1576,1577,1549,1550
45698380,1000,1000,1000,1000,76128703,1577,1579,1549,1548
45700879,1000,1000,1000,1000,76228663,1579,1581,1547,1546
45703378,1000,1000,1000,1000,76328623,1581,1582,1546,1544
45705877,1000,1000,1000,1000,76428583,1583,1584,1543,1542
45708376,1000,1000,1000,1000,76528543,1586,1586,1541,1541
45710875,1000,1000,1000,1000,76628503,1588,1588,1539,1540
45713374,1000,1000,1000,1000,76728463,1590,1590,1538,1539
45715873,1000,1000,1000,1000,76828423,1591,1591,1539,1540
45718372,1000,1000,1000,1000,76928383,1592,1591,1540,1542
45720871,1000,1000,1000,1000,77028343,1590,1590,1541,1543
45723370,1000,1000,1000,1000,77128303,1589,1588,1544,1547
45725869,1000,1000,1000,1000,77228263,1586,1585,1549,1551
45728368,1000,1000,1000,1000,77328223,1581,1579,1554,1557
45730867,1000,1000,1000,1000,77428183,1575,1573,1563,1565
45733366,1000,1000,1000,1000,77528976,1567,1563,1572,1574
45735865,1000,1000,1000,1000,77628936,1557,1554,1584,1585
45738364,1000,1000,1000,1000,77728896,1547,1545,1594,1595
45740863,1000,1000,1000,1000,77828856,1539,1538,1603,1603
45743362,1000,1000,1000,1000,77928816,1534,1534,1609,1609
45745861,1000,1000,1000,1000,78028776,1531,1533,1612,1611
45748360,1000,1000,1000,1000,78128736,1531,1534,1611,1610
45750859,1000,1000,1000,1000,78228696,1535,1538,1608,1608
45753358,1000,1000,1000,1000,78328656,1541,1544,1603,1603
45755857,1000,1000,1000,1000,78428616,1548,1549,1595,1595
45758356,1000,1000,1000,1000,78528576,1557,1558,1589,1589
45760855,1000,1000,1000,1000,78628536,1566,1565,1583,1582
45763354,1000,1000,1000,1000,78728496,1573,1573,1577,1577
45765853,1000,1000,1000,1000,78828456,1579,1578,1572,1571
45768352,1000,1000,1000,1000,78928416,1584,1582,1568,1567
45770851,1000,1000,1000,1000,79028376,1587,1586,1566,1566
45773350,1000,1000,1000,1000,79128336,1589,1587,1566,1566
45775849,1000,1000,1000,1000,79228296,1589,1588,1567,1567
45778348,1000,1000,1000,1000,79328256,1588,1587,1569,1569
45780847,1000,1000,1000,1000,79428216,1585,1585,1571,1572
45783346,1000,1000,1000,1000,79528176,1583,1583,1575,1575
45785845,1000,1000,1000,1000,79628969,1581,1581,1579,1578
45788344,1000,1000,1000,1000,79728929,1579,1579,1581,1581
45790843,1000,1000,1000,1000,79828889,1577,1577,1583,1583
45793342,1000,1000,1000,1000,79928849,1575,1576,1584,1584
45795841,1000,1000,1000,1000,80028809,1574,1574,1585,1585
45798340,1000,1000,1000,1000,80128769,1574,1574,1585,1585
45800839,1000,1000,1000,1000,80228729,1574,1575,1585,1585
45803338,1000,1000,1000,1000,80328689,1575,1575,1584,1583
45805837,1000,1000,1000,1000,80428649,1577,1577,1583,1583
45808336,1000,1000,1000,1000,80528609,1577,1578,1581,1582
45810835,1000,1000,1000,1000,80628569,1578,1578,1580,1580
45813334,1000,1000,1000,1000,80728529,1579,1579,1578,1579
45815833,1000,1000,1000,1000,80828489,1580,1580,1578,1578
45818332,1000,1000,1000,1000,80928449,1581,1581,1578,1578
45820831,1000,1000,1000,1000,81028409,1582,1582,1577,1577
45823330,1000,1000,1000,1000,81128369,1582,1581,1576,1576
45825829,1000,1000,1000,1000,81228329,1582,1582,1578,1578
45828328,1000,1000,1000,1000,81328289,1582,1582,1578,1578
45830827,1000,1000,1000,1000,81428249,1582,1582,1579,1579
45833326,1000,1000,1000,1000,81528209,1581,1581,1579,1579
45835825,1000,1000,1000,1000,81628169,1581,1581,1580,1580
45838324,1000,1000,1000,1000,81728962,1581,1581,1581,1580
45840823,1000,1000,1000,1000,81828922,1580,1580,1580,1580
45843322,1000,1000,1000,1000,81928882,1580,1580,1581,1581
45845821,1000,1000,1000,1000,82028842,1579,1579,1581,1581
45848320,1000,1000,1000,1000,82128802,1579,1580,1581,1581
45850819,1000,1000,1000,1000,82228762,1579,1580,1581,1581
45853318,1000,1000,1000,1000,82328722,1580,1580,1582,1581
45855817,1000,1000,1000,1000,82428682,1581,1581,1582,1582
45858316,1000,1000,1000,1000,82528642,1581,1581,1583,1582
45860815,1000,1000,1000,1000,82628602,1582,1582,1587,1576
45863314,1000,1000,1000,1000,82728562,1582,1581,1588,1574
45865813,1000,1000,1000,1000,82828522,1580,1579,1581,1575
45868312,1000,1000,1000,1000,82928482,1576,1575,1572,1574
45870811,1000,1000,1000,1000,83028442,1572,1572,1566,1572
45873310,1000,1000,1000,1000,83128402,1570,1570,1563,1571
45875809,1000,1000,1000,1000,83228362,1568,1569,1564,1569
45878308,1000,1000,1000,1000,83328322,1568,1567,1565,1567
45880807,1000,1000,1000,1000,83428282,1566,1567,1567,1565
45883306,1000,1000,1000,1000,83528242,1565,1566,1567,1565
45885805,1000,1000,1000,1000,83628202,1564,1565,1567,1564
45888304,1000,1000,1000,1000,83728162,1564,1564,1566,1564
45890803,1000,1000,1000,1000,83828955,1563,1563,1564,1563
45893302,1000,1000,1000,1000,83928915,1563,1562,1564,1564
45895801,1000,1000,1000,1000,84028875,1561,1561,1562,1563
45898300,1000,1000,1000,1000,84128835,1562,1561,1563,1563
45900799,1000,1000,1000,1000,84228795,1561,1561,1562,1562
45903298,1000,1000,1000,1000,84328755,1561,1561,1561,1561
45905797,1000,1000,1000,1000,84428715,1560,1560,1561,1561
45908296,1000,1000,1000,1000,84528675,1560,1561,1560,1560
45910795,1000,1000,1000,1000,84628635,1559,1560,1559,1558
45913294,1000,1000,1000,1000,84728595,1558,1559,1558,1557
45915793,1000,1000,1000,1000,84828555,1559,1558,1558,1557
45918292,1000,1000,1000,1000,84928515,1558,1558,1557,1557
45920791,1000,1000,1000,1000,85028475,1558,1557,1557,1557
45923290,1000,1000,1000,1000,85128435,1558,1558,1558,1557
45925789,1000,1000,1000,1000,85228395,1558,1558,1559,1556
45928288,1000,1000,1000,1000,85328355,1558,1558,1560,1557
45930787,1000,1000,1000,1000,85428315,1559,1558,1559,1558
45933286,1000,1000,1000,1000,85528275,1558,1558,1557,1559
45935785,1000,1000,1000,1000,85628235,1559,1559,1557,1562
45938284,1000,1000,1000,1000,85728195,1559,1560,1557,1564
45940783,1000,1000,1000,1000,85828155,1558,1559,1557,1560
45943282,1000,1000,1000,1000,85928948,1559,1559,1558,1561
45945781,1000,1000,1000,1000,86028908,1557,1558,1556,1558
45948280,1000,1000,1000,1000,86128868,1554,1555,1553,1554
45950779,1000,1000,1000,1000,86228828,1551,1550,1548,1548
45953278,1000,1000,1000,1000,86328788,1545,1544,1542,1541
45955777,1000,1000,1000,1000,86428748,1538,1538,1535,1534
45958276,1000,1000,1000,1000,86528708,1532,1532,1528,1527
45960775,1000,1000,1000,1000,86628668,1525,1525,1521,1522
45963274,1000,1000,1000,1000,86728628,1522,1522,1519,1520
45965773,1000,1000,1000,1000,86828588,1521,1520,1519,1520
45968272,1000,1000,1000,1000,86928548,1521,1520,1522,1523
45970771,1000,1000,1000,1000,87028508,1522,1522,1526,1526
45973270,1000,1000,1000,1000,87128468,1524,1524,1529,1530
45975769,1000,1000,1000,1000,87228428,1529,1529,1535,1535
45978268,1000,1000,1000,1000,87328388,1533,1533,1539,1539
45980767,1000,1000,1000,1000,87428348,1536,1536,1542,1542
45983266,1000,1000,1000,1000,87528308,1539,1539,1544,1543
45985765,1000,1000,1000,1000,87628268,1541,1542,1544,1545
45988264,1000,1000,1000,1000,87728228,1544,1544,1545,1545
45990763,1000,1000,1000,1000,87828188,1545,1545,1544,1545
45993262,1000,1000,1000,1000,87928981,1547,1547,1545,1544
45995761,1000,1000,1000,1000,88028941,1548,1548,1545,1545
45998260,1000,1000,1000,1000,88128901,1549,1548,1544,1544
46000759,1000,1000,1000,1000,88228861,1548,1548,1544,1544
46003258,1000,1000,1000,1000,88328821,1548,1548,1544,1544
46005757,1000,1000,1000,1000,88428781,1547,1548,1544,1544
46008256,1000,1000,1000,1000,88528741,1547,1547,1544,1544
46010755,1000,1000,1000,1000,88628701,1546,1546,1544,1543
46013254,1000,1000,1000,1000,88728661,1546,1545,1545,1545
46015753,1000,1000,1000,1000,88828621,1545,1545,1545,1544
46018252,1000,1000,1000,1000,88928581,1544,1544,1545,1545
46020751,1000,1000,1000,1000,89028541,1544,1544,1545,1545
46023250,1000,1000,1000,1000,89128501,1544,1543,1545,1545
46025749,1000,1000,1000,1000,89228461,1543,1543,1545,1545
46028248,1000,1000,1000,1000,89328421,1543,1543,1545,1545
46030747,1000,1000,1000,1000,89428381,1543,1543,1544,1544
46033246,1000,1000,1000,1000,89528341,1543,1544,1544,1544
46035745,1000,1000,1000,1000,89628301,1543,1543,1544,1543
46038244,1000,1000,1000,1000,89728261,1544,1544,1544,1544
46040743,1000,1000,1000,1000,89828221,1544,1544,1544,1543
46043242,1000,1000,1000,1000,89928181,1544,1543,1543,1544
46045741,1000,1000,1000,1000,90028974,1544,1544,1543,1543
46048240,1000,1000,1000,1000,90128934,1544,1544,1543,1543
46050739,1000,1000,1000,1000,90228894,1544,1544,1544,1543
46053238,1000,1000,1000,1000,90328854,1544,1544,1543,1544
46055737,1000,1000,1000,1000,90428814,1544,1544,1543,1543
46058236,1000,1000,1000,1000,90528774,1544,1544,1544,1544
46060735,1000,1000,1000,1000,90628734,1544,1545,1544,1544
46063234,1000,1000,1000,1000,90728694,1544,1544,1544,1544
46065733,1000,1000,1000,1000,90828654,1544,1544,1544,1544
46068232,1000,1000,1000,1000,90928614,1544,1543,1543,1544
46070731,1000,1000,1000,1000,91028574,1545,1544,1544,1544
46073230,1000,1000,1000,1000,91128534,1544,1544,1544,1545
46075729,1000,1000,1000,1000,91228494,1544,1544,1544,1544
46078228,1000,1000,1000,1000,91328454,1543,1543,1543,1544
46080727,1000,1000,1000,1000,91428414,1544,1544,1544,1544
46083226,1000,1000,1000,1000,91528374,1544,1543,1544,1543
46085725,1000,1000,1000,1000,91628334,1544,1544,1544,1544
46088224,1000,1000,1000,1000,91728294,1544,1544,1544,1545
46090723,1000,1000,1000,1000,91828254,1544,1545,1544,1545
46093222,1000,1000,1000,1000,91928214,1544,1544,1544,1544
46095721,1000,1000,1000,1000,92028174,1545,1545,1545,1544
46098220,1000,1000,1000,1000,92128967,1545,1545,1545,1544
46100719,1000,1000,1000,1000,92228927,1545,1545,1545,1545
46103218,1000,1000,1000,1000,92328887,1545,1544,1544,1545
46105717,1000,1000,1000,1000,92428847,1544,1544,1544,1544
46108216,1000,1000,1000,1000,92528807,1545,1544,1544,1545
46110715,1000,1000,1000,1000,92628767,1544,1545,1545,1544
46113214,1000,1000,1000,1000,92728727,1545,1545,1544,1545
46115713,1000,1000,1000,1000,92828687,1545,1545,1545,1545
46118212,1000,1000,1000,1000,92928647,1545,1545,1545,1545
46120711,1000,1000,1000,1000,93028607,1544,1545,1545,1544
46123210,1000,1000,1000,1000,93128567,1544,1544,1544,1544
46125709,1000,1000,1000,1000,93228527,1544,1544,1544,1544
46128208,1000,1000,1000,1000,93328487,1544,1544,1545,1544
46130707,1000,1000,1000,1000,93428447,1544,1544,1544,1544
46133206,1000,1000,1000,1000,93528407,1544,1544,1544,1544
46135705,1000,1000,1000,1000,93628367,1544,1544,1544,1544
46138204,1000,1000,1000,1000,93728327,1544,1544,1544,1545
46140703,1000,1000,1000,1000,93828287,1545,1545,1545,1545
46143202,1000,1000,1000,1000,93928247,1544,1544,1544,1544
46145701,1000,1000,1000,1000,94028207,1544,1544,1544,1544
46148200,1000,1000,1000,1000,94128167,1544,1544,1544,1544
46150699,1000,1000,1000,1000,94228960,1544,1544,1544,1544
46153198,1000,1000,1000,1000,94328920,1545,1544,1544,1545
46155697,1000,1000,1000,1000,94428880,1545,1545,1545,1545
46158196,1000,1000,1000,1000,94528840,1545,1544,1544,1545
46160695,1000,1000,1000,1000,94628800,1544,1545,1544,1545
46163194,1000,1000,1000,1000,94728760,1545,1545,1544,1545
46165693,1000,1000,1000,1000,94828720,1544,1544,1544,1544
46168192,1000,1000,1000,1000,94928680,1544,1544,1544,1543
46170691,1000,1000,1000,1000,95028640,1544,1543,1544,1543
46173190,1000,1000,1000,1000,95128600,1544,1544,1544,1544
46175689,1000,1000,1000,1000,95228560,1544,1545,1545,1545
46178188,1000,1000,1000,1000,95328520,1544,1544,1544,1545
46180687,1000,1000,1000,1000,95428480,1545,1545,1545,1545
46183186,1000,1000,1000,1000,95528440,1544,1544,1544,1544
46185685,1000,1000,1000,1000,95628400,1544,1544,1544,1544
46188184,1000,1000,1000,1000,95728360,1545,1544,1544,1544
46190683,1000,1000,1000,1000,95828320,1546,1546,1546,1546
46193182,1000,1000,1000,1000,95928280,1545,1545,1545,1545
46195681,1000,1000,1000,1000,96028240,1544,1545,1545,1544
46198180,1000,1000,1000,1000,96128200,1544,1544,1544,1544
46200679,1000,1000,1000,1000,96228160,1544,1544,1544,1544
46203178,1000,1000,1000,1000,96328953,1544,1544,1544,1544
46205677,1000,1000,1000,1000,96428913,1423,1423,1385,1385
46208176,1000,1000,1000,1000,96528873,1339,1339,1264,1265
46210675,1000,1000,1000,1000,96628833,1312,1312,1222,1222
46213174,1000,1000,1000,1000,96728793,1300,1299,1201,1201
46215673,1000,1000,1000,1000,96828753,1276,1275,1161,1160
46218172,1000,1000,1000,1000,96928713,1231,1230,1150,1150
46220671,1000,1000,1000,1000,97028673,1127,1126,1150,1150
46223170,1000,1000,1000,1000,97128633,1127,1126,1150,1150
46225669,1000,1000,1000,1000,97228593,1127,1126,1150,1150
46228168,1000,1000,1000,1000,97328553,1127,1117,1150,1162
46230667,1000,1000,1000,1000,97428513,1127,1115,1150,1165
46233166,1000,1000,1000,1000,97528473,1127,1120,1150,1159
46235665,1000,1000,1000,1000,97628433,1127,1121,1150,1158
46238164,1000,1000,1000,1000,97728393,1127,1121,1150,1158
46240663,1000,1000,1000,1000,97828353,1127,1120,1150,1158
46243162,1000,1000,1000,1000,97928313,1127,1120,1150,1158
46245661,1000,1000,1000,1000,98028273,1127,1120,1150,1158
46248160,1000,1000,1000,1000,98128233,1124,1127,1153,1150
46250659,1000,1000,1000,1000,98228193,1127,1126,1150,1150
46253158,1000,1000,1000,1000,98328986,1127,1125,1150,1151
46255657,1000,1000,1000,1000,98428946,1127,1125,1150,1151
46258156,1000,1000,1000,1000,98528906,1127,1125,1150,1151
46260655,1000,1000,1000,1000,98628866,1000,1000,1000,1000
46263154,1000,1000,1000,1000,98728826,1000,1000,1000,1000
46266486,1000,1000,1000,1000,98828786,1000,1000,1000,1000
46268985,1000,1000,1000,1000,98928746,1000,1000,1000,1000
46271484,1000,1000,1000,1000,99028706,1000,1000,1000,1000
46273983,1000,1000,1000,1000,99128666,1000,1000,1000,1000
46276482,1000,1000,1000,1000,99228626,1000,1000,1000,1000
46278981,1000,1000,1000,1000,99328586,1000,1000,1000,1000
46281480,1000,1000,1000,1000,99428546,1000,1000,1000,1000
46283979,1000,1000,1000,1000,99528506,1000,1000,1000,1000
46286478,1000,1000,1000,1000,99628466,1000,1000,1000,1000
46288977,1000,1000,1000,1000,99728426,1000,1000,1000,1000
46291476,1000,1000,1000,1000,99828386,1000,1000,1000,1000
46293975,1000,1000,1000,1000,99928346,1000,1000,1000,1000
46296474,1000,1000,1000,1000,100028306,1000,1000,1000,1000
46298973,1000,1000,1000,1000,100128266,1000,1000,1000,1000
46301472,1000,1000,1000,1000,100228226,1000,1000,1000,1000
46303971,1000,1000,1000,1000,100328186,1000,1000,1000,1000
46306470,1000,1000,1000,1000,100428979,1000,1000,1000,1000
46308969,1000,1000,1000,1000,100528939,1000,1000,1000,1000
46311468,1000,1000,1000,1000,100628899,1000,1000,1000,1000
46313967,1000,1000,1000,1000,100728859,1000,1000,1000,1000
46316466,1000,1000,1000,1000,100828819,1000,1000,1000,1000
46318965,1000,1000,1000,1000,100928779,1000,1000,1000,1000
46321464,1000,1000,1000,1000,101028739,1000,1000,1000,1000
46323963,1000,1000,1000,1000,101128699,1000,1000,1000,1000
46326462,1000,1000,1000,1000,101228659,1000,1000,1000,1000
46328961,1000,1000,1000,1000,101328619,1000,1000,1000,1000
46331460,1000,1000,1000,1000,101428579,1000,1000,1000,1000
46333959,1000,1000,1000,1000,101528539,1000,1000,1000,1000
46336458,1000,1000,1000,1000,101628499,1000,1000,1000,1000
46338957,1000,1000,1000,1000,101728459,1000,1000,1000,1000
46341456,1000,1000,1000,1000,101828419,1000,1000,1000,1000
46343955,1000,1000,1000,1000,101928379,1000,1000,1000,1000
46346454,1000,1000,1000,1000,102028339,1000,1000,1000,1000
46348953,1000,1000,1000,1000,102128299,1000,1000,1000,1000
46351452,1000,1000,1000,1000,102228259,1000,1000,1000,1000
46353951,1000,1000,1000,1000,102328219,1000,1000,1000,1000
46356450,1000,1000,1000,1000,102428179,1000,1000,1000,1000
46358949,1000,1000,1000,1000,102528972,1000,1000,1000,1000
46361448,1000,1000,1000,1000,102628932,1000,1000,1000,1000
46363947,1000,1000,1000,1000,102728892,1000,1000,1000,1000
46366446,1000,1000,1000,1000,102828852,1000,1000,1000,1000
46368945,1000,1000,1000,1000,102928812,1000,1000,1000,1000
46371444,1000,1000,1000,1000,103028772,1000,1000,1000,1000
46373943,1000,1000,1000,1000,103128732,1000,1000,1000,1000
46376442,1000,1000,1000,1000,103228692,1000,1000,1000,1000
46378941,1000,1000,1000,1000,103328652,1000,1000,1000,1000
46381440,1000,1000,1000,1000,103428612,1000,1000,1000,1000
46383939,1000,1000,1000,1000,103528572,1000,1000,1000,1000
46386438,1000,1000,1000,1000,103628532,1000,1000,1000,1000
46388937,1000,1000,1000,1000,103728492,1000,1000,1000,1000
46391436,1000,1000,1000,1000,103828452,1000,1000,1000,1000
46393935,1000,1000,1000,1000,103928412,1000,1000,1000,1000
46396434,1000,1000,1000,1000,104028372,1000,1000,1000,1000
46398933,1000,1000,1000,1000,104128332,1000,1000,1000,1000
46401432,1000,1000,1000,1000,104228292,1000,1000,1000,1000
46403931,1000,1000,1000,1000,104328252,1000,1000,1000,1000
46406430,1000,1000,1000,1000,104428212,1000,1000,1000,1000
46408929,1000,1000,1000,1000,104528172,1000,1000,1000,1000
46411428,1000,1000,1000,1000,104628965,1000,1000,1000,1000
46413927,1000,1000,1000,1000,104728925,1000,1000,1000,1000
46416426,1000,1000,1000,1000,104828885,1000,1000,1000,1000
46418925,1000,1000,1000,1000,104928845,1000,1000,1000,1000
46421424,1000,1000,1000,1000,105028805,1000,1000,1000,1000
46423923,1000,1000,1000,1000,105128765,1000,1000,1000,1000
46426422,1000,1000,1000,1000,105228725,1000,1000,1000,1000
46428921,1000,1000,1000,1000,105328685,1000,1000,1000,1000
46431420,1000,1000,1000,1000,105428645,1000,1000,1000,1000
46433919,1000,1000,1000,1000,105528605,1000,1000,1000,1000
46436418,1000,1000,1000,1000,105628565,1000,1000,1000,1000
46438917,1000,1000,1000,1000,105728525,1000,1000,1000,1000
46441416,1000,1000,1000,1000,105828485,1000,1000,1000,1000
46443915,1000,1000,1000,1000,105928445,1000,1000,1000,1000
46446414,1000,1000,1000,1000,106028405,1000,1000,1000,1000
46448913,1000,1000,1000,1000,106128365,1000,1000,1000,1000
46451412,1000,1000,1000,1000,106228325,1000,1000,1000,1000
46453911,1000,1000,1000,1000,106328285,1000,1000,1000,1000
46456410,1000,1000,1000,1000,106428245,1000,1000,1000,1000
46458909,1000,1000,1000,1000,106528205,1000,1000,1000,1000
46461408,1000,1000,1000,1000,106628165,1000,1000,1000,1000
46463907,1000,1000,1000,1000,106728958,1000,1000,1000,1000
46466406,1000,1000,1000,1000,106828918,1000,1000,1000,1000
46468905,1000,1000,1000,1000,106928878,1000,1000,1000,1000
46471404,1000,1000,1000,1000,107028838,1000,1000,1000,1000
46473903,1000,1000,1000,1000,107128798,1000,1000,1000,1000
46476402,1000,1000,1000,1000,107228758,1000,1000,1000,1000
46478901,1000,1000,1000,1000,107328718,1000,1000,1000,1000
46481400,1000,1000,1000,1000,107428678,1000,1000,1000,1000
46483899,1000,1000,1000,1000,107528638,1000,1000,1000,1000
46486398,1000,1000,1000,1000,107628598,1000,1000,1000,1000
46488897,1000,1000,1000,1000,,,,,
46491396,1000,1000,1000,1000,,,,,
46493895,1000,1000,1000,1000,,,,,
46496394,1000,1000,1000,1000,,,,,
46498893,1000,1000,1000,1000,,,,,
46501392,1000,1000,1000,1000,,,,,
46503891,1000,1000,1000,1000,,,,,
46506390,1000,1000,1000,1000,,,,,
46508889,1000,1000,1000,1000,,,,,
46511388,1000,1000,1000,1000,,,,,
46513887,1000,1000,1000,1000,,,,,
46516386,1000,1000,1000,1000,,,,,
46518885,1000,1000,1000,1000,,,,,
46521384,1000,1000,1000,1000,,,,,
46523883,1000,1000,1000,1000,,,,,
46526382,1000,1000,1000,1000,,,,,
46528881,1000,1000,1000,1000,,,,,
46531380,1000,1000,1000,1000,,,,,
46533879,1000,1000,1000,1000,,,,,
46536378,1000,1000,1000,1000,,,,,
46538877,1000,1000,1000,1000,,,,,
46541376,1000,1000,1000,1000,,,,,
46543875,1000,1000,1000,1000,,,,,
46546374,1000,1000,1000,1000,,,,,
46548873,1000,1000,1000,1000,,,,,
46551372,1000,1000,1000,1000,,,,,
46553871,1000,1000,1000,1000,,,,,
46556370,1000,1000,1000,1000,,,,,
46558869,1000,1000,1000,1000,,,,,
46561368,1000,1000,1000,1000,,,,,
46563867,1000,1000,1000,1000,,,,,
46566366,1000,1000,1000,1000,,,,,
46568865,1000,1000,1000,1000,,,,,
46571364,1000,1000,1000,1000,,,,,
46573863,1000,1000,1000,1000,,,,,
46576362,1000,1000,1000,1000,,,,,
46578861,1000,1000,1000,1000,,,,,
46581360,1000,1000,1000,1000,,,,,
46583859,1000,1000,1000,1000,,,,,
46586358,1000,1000,1000,1000,,,,,
46588857,1000,1000,1000,1000,,,,,
46591356,1000,1000,1000,1000,,,,,
46593855,1000,1000,1000,1000,,,,,
46596354,1000,1000,1000,1000,,,,,
46598853,1000,1000,1000,1000,,,,,
46601352,1000,1000,1000,1000,,,,,
46603851,1000,1000,1000,1000,,,,,
46606350,1000,1000,1000,1000,,,,,
46608849,1000,1000,1000,1000,,,,,
46611348,1000,1000,1000,1000,,,,,
46613847,1000,1000,1000,1000,,,,,
46616346,1000,1000,1000,1000,,,,,
46618845,1000,1000,1000,1000,,,,,
46621344,1000,1000,1000,1000,,,,,
46623843,1000,1000,1000,1000,,,,,
46626342,1000,1000,1000,1000,,,,,
46628841,1000,1000,1000,1000,,,,,
46631340,1000,1000,1000,1000,,,,,
46633839,1000,1000,1000,1000,,,,,
46636338,1000,1000,1000,1000,,,,,
46638837,1000,1000,1000,1000,,,,,
46641336,1000,1000,1000,1000,,,,,
46643835,1000,1000,1000,1000,,,,,
46646334,1000,1000,1000,1000,,,,,
46648833,1000,1000,1000,1000,,,,,
46651332,1000,1000,1000,1000,,,,,
46653831,1000,1000,1000,1000,,,,,
46656330,1000,1000,1000,1000,,,,,
46658829,1000,1000,1000,1000,,,,,
46661328,1000,1000,1000,1000,,,,,
46663827,1000,1000,1000,1000,,,,,
46666326,1000,1000,1000,1000,,,,,
46668825,1000,1000,1000,1000,,,,,
46671324,1000,1000,1000,1000,,,,,
46673823,1000,1000,1000,1000,,,,,
46676322,1000,1000,1000,1000,,,,,
46678821,1000,1000,1000,1000,,,,,
46681320,1000,1000,1000,1000,,,,,
46683819,1000,1000,1000,1000,,,,,
46686318,1000,1000,1000,1000,,,,,
46688817,1000,1000,1000,1000,,,,,
46691316,1000,1000,1000,1000,,,,,
46693815,1000,1000,1000,1000,,,,,
46696314,1000,1000,1000,1000,,,,,
46698813,1000,1000,1000,1000,,,,,
46701312,1000,1000,1000,1000,,,,,
46703811,1000,1000,1000,1000,,,,,
46706310,1000,1000,1000,1000,,,,,
46708809,1000,1000,1000,1000,,,,,
46711308,1000,1000,1000,1000,,,,,
46713807,1000,1000,1000,1000,,,,,
46716306,1000,1000,1000,1000,,,,,
46718805,1000,1000,1000,1000,,,,,
46721304,1000,1000,1000,1000,,,,,
46723803,1000,1000,1000,1000,,,,,
46726302,1000,1000,1000,1000,,,,,
46728801,1000,1000,1000,1000,,,,,
46731300,1000,1000,1000,1000,,,,,
46733799,1000,1000,1000,1000,,,,,
46736298,1000,1000,1000,1000,,,,,
46738797,1000,1000,1000,1000,,,,,
46741296,1000,1000,1000,1000,,,,,
46743795,1000,1000,1000,1000,,,,,
46746294,1000,1000,1000,1000,,,,,
46748793,1000,1000,1000,1000,,,,,
46751292,1000,1000,1000,1000,,,,,
46753791,1000,1000,1000,1000,,,,,
46756290,1000,1000,1000,1000,,,,,
46758789,1000,1000,1000,1000,,,,,
46761288,1000,1000,1000,1000,,,,,
46763787,1000,1000,1000,1000,,,,,
46766286,1000,1000,1000,1000,,,,,
46768785,1000,1000,1000,1000,,,,,
46771284,1000,1000,1000,1000,,,,,
46773783,1000,1000,1000,1000,,,,,
46776282,1000,1000,1000,1000,,,,,
46778781,1000,1000,1000,1000,,,,,
46781280,1000,1000,1000,1000,,,,,
46783779,1000,1000,1000,1000,,,,,
46786278,1000,1000,1000,1000,,,,,
46788777,1000,1000,1000,1000,,,,,
46791276,1000,1000,1000,1000,,,,,
46793775,1000,1000,1000,1000,,,,,
46796274,1000,1000,1000,1000,,,,,
46798773,1000,1000,1000,1000,,,,,
46801272,1000,1000,1000,1000,,,,,
46803771,1000,1000,1000,1000,,,,,
46806270,1000,1000,1000,1000,,,,,
46808769,1000,1000,1000,1000,,,,,
46811268,1000,1000,1000,1000,,,,,
46813767,1000,1000,1000,1000,,,,,
46816266,1000,1000,1000,1000,,,,,
46818765,1000,1000,1000,1000,,,,,
46821264,1000,1000,1000,1000,,,,,
46823763,1000,1000,1000,1000,,,,,
46826262,1000,1000,1000,1000,,,,,
46828761,1000,1000,1000,1000,,,,,
46831260,1000,1000,1000,1000,,,,,
46833759,1000,1000,1000,1000,,,,,
46836258,1000,1000,1000,1000,,,,,
46838757,1000,1000,1000,1000,,,,,
46841256,1000,1000,1000,1000,,,,,
46843755,1000,1000,1000,1000,,,,,
46846254,1000,1000,1000,1000,,,,,
46848753,1000,1000,1000,1000,,,,,
46851252,1000,1000,1000,1000,,,,,
46853751,1000,1000,1000,1000,,,,,
46856250,1000,1000,1000,1000,,,,,
46858749,1000,1000,1000,1000,,,,,
46861248,1000,1000,1000,1000,,,,,
46863747,1000,1000,1000,1000,,,,,
46866246,1000,1000,1000,1000,,,,,
46868745,1000,1000,1000,1000,,,,,
46871244,1000,1000,1000,1000,,,,,
46873743,1000,1000,1000,1000,,,,,
46876242,1000,1000,1000,1000,,,,,
46878741,1000,1000,1000,1000,,,,,
46881240,1000,1000,1000,1000,,,,,
46883739,1000,1000,1000,1000,,,,,
46886238,1000,1000,1000,1000,,,,,
46888737,1000,1000,1000,1000,,,,,
46891236,1000,1000,1000,1000,,,,,
46893735,1000,1000,1000,1000,,,,,
46896234,1000,1000,1000,1000,,,,,
46898733,1000,1000,1000,1000,,,,,
46901232,1000,1000,1000,1000,,,,,
46903731,1000,1000,1000,1000,,,,,
46906230,1000,1000,1000,1000,,,,,
46908729,1000,1000,1000,1000,,,,,
46911228,1000,1000,1000,1000,,,,,
46913727,1000,1000,1000,1000,,,,,
46916226,1000,1000,1000,1000,,,,,
46918725,1000,1000,1000,1000,,,,,
46921224,1000,1000,1000,1000,,,,,
46923723,1000,1000,1000,1000,,,,,
46926222,1001,1001,1001,1001,,,,,
46928721,1002,1002,1002,1002,,,,,
46931220,1003,1003,1003,1003,,,,,
46933719,1003,1003,1003,1003,,,,,
46936218,1004,1004,1004,1004,,,,,
46938717,1005,1005,1005,1005,,,,,
46941216,1006,1006,1006,1006,,,,,
46943715,1006,1006,1006,1006,,,,,
46946214,1007,1007,1007,1007,,,,,
46948713,1008,1008,1008,1008,,,,,
46951212,1009,1009,1009,1009,,,,,
46953711,1009,1009,1009,1009,,,,,
46956210,1010,1010,1010,1010,,,,,
46958709,1011,1011,1011,1011,,,,,
46961208,1012,1012,1012,1012,,,,,
46963707,1012,1012,1012,1012,,,,,
46966206,1013,1013,1013,1013,,,,,
46968705,1014,1014,1014,1014,,,,,
46971204,1015,1015,1015,1015,,,,,
46973703,1015,1015,1015,1015,,,,,
46976202,1016,1016,1016,1016,,,,,
46978701,1017,1017,1017,1017,,,,,
46981200,1018,1018,1018,1018,,,,,
46983699,1018,1018,1018,1018,,,,,
46986198,1019,1019,1019,1019,,,,,
46988697,1020,1020,1020,1020,,,,,
46991196,1021,1021,1021,1021,,,,,
46993695,1021,1021,1021,1021,,,,,
46996194,1022,1022,1022,1022,,,,,
46998693,1023,1023,1023,1023,,,,,
47001192,1024,1024,1024,1024,,,,,
47003691,1024,1024,1024,1024,,,,,
47006190,1025,1025,1025,1025,,,,,
47008689,1026,1026,1026,1026,,,,,
47011188,1027,1027,1027,1027,,,,,
47013687,1027,1027,1027,1027,,,,,
47016186,1028,1028,1028,1028,,,,,
47018685,1029,1029,1029,1029,,,,,
47021184,1030,1030,1030,1030,,,,,
47023683,1030,1030,1030,1030,,,,,
47026182,1031,1031,1031,1031,,,,,
47028681,1032,1032,1032,1032,,,,,
47031180,1033,1033,1033,1033,,,,,
47033679,1033,1033,1033,1033,,,,,
47036178,1034,1034,1034,1034,,,,,
47038677,1035,1035,1035,1035,,,,,
47041176,1036,1036,1036,1036,,,,,
47043675,1036,1036,1036,1036,,,,,
47046174,1037,1037,1037,1037,,,,,
47048673,1038,1038,1038,1038,,,,,
47051172,1039,1039,1039,1039,,,,,
47053671,1039,1039,1039,1039,,,,,
47056170,1040,1040,1040,1040,,,,,
47058669,1041,1041,1041,1041,,,,,
47061168,1042,1042,1042,1042,,,,,
47063667,1042,1042,1042,1042,,,,,
47066166,1043,1043,1043,1043,,,,,
47068665,1044,1044,1044,1044,,,,,
47071164,1045,1045,1045,1045,,,,,
47073663,1045,1045,1045,1045,,,,,
47076162,1046,1046,1046,1046,,,,,
47078661,1047,1047,1047,1047,,,,,
47081160,1048,1048,1048,1048,,,,,
47083659,1048,1048,1048,1048,,,,,
47086158,1049,1049,1049,1049,,,,,
47088657,1050,1050,1050,1050,,,,,
47091156,1051,1051,1051,1051,,,,,
47093655,1051,1051,1051,1051,,,,,
47096154,1052,1052,1052,1052,,,,,
47098653,1053,1053,1053,1053,,,,,
47101152,1054,1054,1054,1054,,,,,
47103651,1054,1054,1054,1054,,,,,
47106150,1055,1055,1055,1055,,,,,
47108649,1056,1056,1056,1056,,,,,
47111148,1057,1057,1057,1057,,,,,
47113647,1057,1057,1057,1057,,,,,
47116146,1058,1058,1058,1058,,,,,
47118645,1059,1059,1059,1059,,,,,
47121144,1060,1060,1060,1060,,,,,
47123643,1060,1060,1060,1060,,,,,
47126142,1061,1061,1061,1061,,,,,
47128641,1062,1062,1062,1062,,,,,
47131140,1063,1063,1063,1063,,,,,
47133639,1063,1063,1063,1063,,,,,
47136138,1064,1064,1064,1064,,,,,
47138637,1065,1065,1065,1065,,,,,
47141136,1066,1066,1066,1066,,,,,
47143635,1066,1066,1066,1066,,,,,
47146134,1067,1067,1067,1067,,,,,
47148633,1068,1068,1068,1068,,,,,
47151132,1069,1069,1069,1069,,,,,
47153631,1069,1069,1069,1069,,,,,
47156130,1070,1070,1070,1070,,,,,
47158629,1071,1071,1071,1071,,,,,
47161128,1072,1072,1072,1072,,,,,
47163627,1072,1072,1072,1072,,,,,
47166126,1073,1073,1073,1073,,,,,
47168625,1074,1074,1074,1074,,,,,
47171124,1075,1075,1075,1075,,,,,
47173623,1075,1075,1075,1075,,,,,
47176122,1076,1076,1076,1076,,,,,
47178621,1077,1077,1077,1077,,,,,
47181120,1078,1078,1078,1078,,,,,
47183619,1078,1078,1078,1078,,,,,
47186118,1079,1079,1079,1079,,,,,
47188617,1080,1080,1080,1080,,,,,
47191116,1081,1081,1081,1081,,,,,
47193615,1081,1081,1081,1081,,,,,
47196114,1082,1082,1082,1082,,,,,
47198613,1083,1083,1083,1083,,,,,
47201112,1084,1084,1084,1084,,,,,
47203611,1084,1084,1084,1084,,,,,
47206110,1085,1085,1085,1085,,,,,
47208609,1086,1086,1086,1086,,,,,
47211108,1087,1087,1087,1087,,,,,
47213607,1087,1087,1087,1087,,,,,
47216106,1088,1088,1088,1088,,,,,
47218605,1089,1089,1089,1089,,,,,
47221104,1090,1090,1090,1090,,,,,
47223603,1090,1090,1090,1090,,,,,
47226102,1091,1091,1091,1091,,,,,
47228601,1092,1092,1092,1092,,,,,
47231100,1093,1093,1093,1093,,,,,
47233599,1093,1093,1093,1093,,,,,
47236098,1094,1094,1094,1094,,,,,
47238597,1095,1095,1095,1095,,,,,
47241096,1096,1096,1096,1096,,,,,
47243595,1096,1096,1096,1096,,,,,
47246094,1097,1097,1097,1097,,,,,
47248593,1098,1098,1098,1098,,,,,
47251092,1099,1099,1099,1099,,,,,
47253591,1099,1099,1099,1099,,,,,
47256090,1100,1100,1100,1100,,,,,
47258589,1101,1101,1101,1101,,,,,
47261088,1101,1101,1101,1101,,,,,
47263587,1102,1102,1102,1102,,,,,
47266086,1103,1103,1103,1103,,,,,
47268585,1104,1104,1104,1104,,,,,
47271084,1104,1104,1104,1104,,,,,
47273583,1105,1105,1105,1105,,,,,
47276082,1106,1106,1106,1106,,,,,
47278581,1107,1107,1107,1107,,,,,
47281080,1107,1107,1107,1107,,,,,
47283579,1108,1108,1108,1108,,,,,
47286078,1109,1109,1109,1109,,,,,
47288577,1110,1110,1110,1110,,,,,
47291076,1110,1110,1110,1110,,,,,
47293575,1111,1111,1111,1111,,,,,
47296074,1112,1112,1112,1112,,,,,
47298573,1113,1113,1113,1113,,,,,
47301072,1113,1113,1113,1113,,,,,
47303571,1114,1114,1114,1114,,,,,
47306070,1115,1115,1115,1115,,,,,
47308569,1116,1116,1116,1116,,,,,
47311068,1116,1116,1116,1116,,,,,
47313567,1117,1117,1117,1117,,,,,
47316066,1118,1118,1118,1118,,,,,
47318565,1119,1119,1119,1119,,,,,
47321064,1119,1119,1119,1119,,,,,
47323563,1120,1120,1120,1120,,,,,
47326062,1121,1121,1121,1121,,,,,
47328561,1122,1122,1122,1122,,,,,
47331060,1122,1122,1122,1122,,,,,
47333559,1123,1123,1123,1123,,,,,
47336058,1124,1124,1124,1124,,,,,
47338557,1125,1125,1125,1125,,,,,
47341056,1125,1125,1125,1125,,,,,
47343555,1126,1126,1126,1126,,,,,
47346054,1127,1127,1127,1127,,,,,
47348553,1128,1128,1128,1128,,,,,
47351052,1128,1128,1128,1128,,,,,
47353551,1129,1129,1129,1129,,,,,
47356050,1130,1130,1130,1130,,,,,
47358549,1131,1131,1131,1131,,,,,
47361048,1131,1131,1131,1131,,,,,
47363547,1132,1132,1132,1132,,,,,
47366046,1133,1133,1133,1133,,,,,
47368545,1134,1134,1134,1134,,,,,
47371044,1134,1134,1134,1134,,,,,
47373543,1135,1135,1135,1135,,,,,
47376042,1136,1136,1136,1136,,,,,
47378541,1137,1137,1137,1137,,,,,
47381040,1137,1137,1137,1137,,,,,
47383539,1138,1138,1138,1138,,,,,
47386038,1139,1139,1139,1139,,,,,
47388537,1140,1140,1140,1140,,,,,
47391036,1140,1140,1140,1140,,,,,
47393535,1141,1141,1141,1141,,,,,
47396034,1142,1142,1142,1142,,,,,
47398533,1143,1143,1143,1143,,,,,
47401032,1143,1143,1143,1143,,,,,
47403531,1144,1144,1144,1144,,,,,
47406030,1145,1145,1145,1145,,,,,
47408529,1146,1146,1146,1146,,,,,
47411028,1146,1146,1146,1146,,,,,
47413527,1147,1147,1147,1147,,,,,
47416026,1148,1148,1148,1148,,,,,
47418525,1149,1149,1149,1149,,,,,
47421024,1149,1149,1149,1149,,,,,
47423523,1150,1150,1150,1150,,,,,
47426022,1161,1154,1155,1161,,,,,
47428521,1169,1162,1163,1169,,,,,
47431020,1176,1170,1171,1177,,,,,
47433519,1184,1178,1179,1185,,,,,
47436018,1192,1186,1186,1192,,,,,
47438517,1199,1193,1194,1200,,,,,
47441016,1206,1201,1201,1207,,,,,
47443515,1214,1208,1208,1214,,,,,
47446014,1221,1215,1216,1221,,,,,
47448513,1228,1222,1223,1228,,,,,
47451012,1235,1229,1230,1235,,,,,
47453511,1242,1236,1237,1242,,,,,
47456010,1248,1243,1243,1249,,,,,
47458509,1255,1250,1250,1255,,,,,
47461008,1261,1256,1257,1262,,,,,
47463507,1268,1263,1263,1268,,,,,
47466006,1274,1269,1269,1275,,,,,
47468505,1281,1275,1276,1281,,,,,
47471004,1287,1282,1282,1287,,,,,
47473503,1293,1288,1288,1293,,,,,
47476002,1299,1294,1294,1299,,,,,
47478501,1305,1300,1300,1305,,,,,
47481000,1311,1306,1306,1311,,,,,
47483499,1317,1312,1312,1317,,,,,
47485998,1323,1318,1318,1323,,,,,
47488497,1328,1324,1324,1329,,,,,
47490996,1334,1329,1330,1335,,,,,
47493495,1340,1335,1335,1340,,,,,
47495994,1345,1341,1341,1346,,,,,
47498493,1351,1346,1347,1351,,,,,
47500992,1356,1352,1352,1357,,,,,
47503491,1362,1357,1358,1362,,,,,
47505990,1367,1363,1363,1368,,,,,
47508489,1373,1368,1368,1373,,,,,
47510988,1378,1373,1374,1378,,,,,
47513487,1383,1379,1379,1384,,,,,
47515986,1389,1384,1384,1389,,,,,
47518485,1394,1389,1389,1394,,,,,
47520984,1399,1394,1395,1399,,,,,
47523483,1404,1399,1400,1404,,,,,
47525982,1409,1404,1405,1409,,,,,
47528481,1414,1409,1410,1414,,,,,
47530980,1419,1414,1415,1419,,,,,
47533479,1424,1419,1420,1424,,,,,
47535978,1429,1424,1425,1429,,,,,
47538477,1434,1429,1430,1434,,,,,
47540976,1439,1434,1434,1439,,,,,
47543475,1443,1439,1439,1444,,,,,
47545974,1448,1444,1444,1449,,,,,
47548473,1453,1448,1449,1453,,,,,
47550972,1458,1453,1454,1458,,,,,
47553471,1462,1458,1458,1463,,,,,
47555970,1467,1463,1463,1467,,,,,
47558469,1472,1467,1468,1472,,,,,
47560968,1476,1472,1472,1476,,,,,
47563467,1481,1476,1477,1481,,,,,
47565966,1485,1481,1481,1486,,,,,
47568465,1490,1485,1486,1490,,,,,
47570964,1494,1490,1490,1495,,,,,
47573463,1499,1494,1495,1499,,,,,
47575962,1503,1499,1499,1503,,,,,
47578461,1507,1503,1504,1508,,,,,
47580960,1512,1508,1508,1512,,,,,
47583459,1516,1512,1512,1517,,,,,
47585958,1521,1516,1517,1521,,,,,
47588457,1525,1521,1521,1525,,,,,
47590956,1529,1525,1525,1529,,,,,
47593455,1533,1529,1530,1534,,,,,
47595954,1538,1533,1534,1538,,,,,
47598453,1542,1538,1538,1542,,,,,
47600952,1546,1542,1542,1546,,,,,
47603451,1550,1546,1546,1550,,,,,
47605950,1554,1550,1550,1555,,,,,
47608449,1558,1554,1555,1559,,,,,
47610948,1562,1558,1559,1563,,,,,
47613447,1567,1563,1563,1567,,,,,
47615946,1571,1567,1567,1571,,,,,
47618445,1575,1571,1571,1575,,,,,
47620944,1579,1575,1575,1579,,,,,
47623443,1583,1579,1579,1583,,,,,
47625942,1587,1583,1583,1587,,,,,
47628441,1591,1587,1587,1591,,,,,
47630940,1594,1591,1591,1595,,,,,
47633439,1598,1595,1595,1599,,,,,
47635938,1602,1599,1599,1603,,,,,
47638437,1606,1602,1603,1607,,,,,
47640936,1610,1606,1607,1610,,,,,
47643435,1614,1610,1610,1614,,,,,
47645934,1618,1614,1614,1618,,,,,
47648433,1622,1618,1618,1622,,,,,
47650932,1625,1622,1622,1626,,,,,
47653431,1629,1626,1626,1629,,,,,
47655930,1633,1629,1630,1633,,,,,
47658429,1637,1633,1633,1637,,,,,
47660928,1640,1637,1637,1641,,,,,
47663427,1644,1641,1641,1644,,,,,
47665926,1648,1644,1644,1648,,,,,
47668425,1651,1648,1648,1652,,,,,
47670924,1655,1652,1652,1655,,,,,
47673423,1659,1655,1656,1659,,,,,
47675922,1662,1659,1659,1663,,,,,
47678421,1666,1663,1663,1666,,,,,
47680920,1670,1666,1666,1670,,,,,
47683419,1673,1670,1670,1674,,,,,
47685918,1677,1673,1674,1677,,,,,
47688417,1680,1677,1677,1681,,,,,
47690916,1684,1681,1681,1684,,,,,
47693415,1688,1684,1684,1688,,,,,
47695914,1691,1688,1688,1691,,,,,
47698413,1695,1691,1691,1695,,,,,
47700912,1698,1695,1695,1698,,,,,
47703411,1702,1698,1699,1702,,,,,
47705910,1705,1702,1702,1705,,,,,
47708409,1709,1705,1705,1709,,,,,
47710908,1712,1709,1709,1712,,,,,
47713407,1715,1712,1712,1716,,,,,
47715906,1719,1716,1716,1719,,,,,
47718405,1722,1719,1719,1723,,,,,
47720904,1726,1722,1723,1726,,,,,
47723403,1729,1726,1726,1729,,,,,
47725902,1733,1729,1729,1733,,,,,
47728401,1736,1733,1733,1736,,,,,
47730900,1739,1736,1736,1740,,,,,
47733399,1743,1739,1740,1743,,,,,
47735898,1746,1743,1743,1746,,,,,
47738397,1749,1746,1746,1750,,,,,
47740896,1753,1749,1749,1753,,,,,
47743395,1756,1752,1753,1756,,,,,
47745894,1759,1756,1756,1760,,,,,
47748393,1763,1759,1759,1763,,,,,
47750892,1766,1762,1763,1766,,,,,
47753391,1769,1766,1766,1769,,,,,
47755890,1772,1769,1769,1773,,,,,
47758389,1776,1772,1772,1776,,,,,
47760888,1779,1775,1776,1779,,,,,
47763387,1782,1779,1779,1782,,,,,
47765886,1785,1782,1782,1786,,,,,
47768385,1788,1785,1785,1789,,,,,
47770884,1792,1788,1788,1792,,,,,
47773383,1795,1791,1792,1795,,,,,
47775882,1798,1795,1795,1798,,,,,
47778381,1801,1798,1798,1801,,,,,
47780880,1804,1801,1801,1805,,,,,
47783379,1807,1804,1804,1808,,,,,
47785878,1811,1807,1807,1811,,,,,
47788377,1814,1810,1811,1814,,,,,
47790876,1817,1814,1814,1817,,,,,
47793375,1820,1817,1817,1820,,,,,
47795874,1823,1820,1820,1823,,,,,
47798373,1826,1823,1823,1826,,,,,
47800872,1829,1826,1826,1830,,,,,
47803371,1832,1829,1829,1833,,,,,
47805870,1835,1832,1832,1836,,,,,
47808369,1838,1835,1835,1839,,,,,
47810868,1841,1838,1838,1842,,,,,
47813367,1844,1841,1841,1845,,,,,
47815866,1847,1844,1844,1848,,,,,
47818365,1850,1847,1847,1851,,,,,
47820864,1853,1850,1850,1854,,,,,
47823363,1856,1854,1853,1857,,,,,
47825862,1859,1857,1856,1860,,,,,
47828361,1862,1860,1859,1863,,,,,
47830860,1865,1863,1862,1866,,,,,
47833359,1868,1866,1865,1869,,,,,
47835858,1871,1868,1868,1872,,,,,
47838357,1874,1871,1871,1875,,,,,
47840856,1877,1874,1874,1878,,,,,
47843355,1880,1877,1877,1881,,,,,
47845854,1883,1880,1880,1884,,,,,
47848353,1886,1883,1883,1886,,,,,
47850852,1889,1886,1886,1889,,,,,
47853351,1892,1889,1889,1892,,,,,
47855850,1895,1892,1892,1895,,,,,
47858349,1898,1895,1895,1898,,,,,
47860848,1900,1898,1898,1901,,,,,
47863347,1903,1901,1900,1904,,,,,
47865846,1906,1903,1903,1907,,,,,
47868345,1909,1906,1906,1910,,,,,
47870844,1912,1909,1909,1913,,,,,
47873343,1915,1912,1912,1915,,,,,
47875842,1918,1915,1915,1918,,,,,
47878341,1921,1918,1918,1921,,,,,
47880840,1923,1920,1920,1924,,,,,
47883339,1926,1923,1923,1927,,,,,
47885838,1929,1926,1926,1930,,,,,
47888337,1932,1929,1929,1932,,,,,
47890836,1935,1932,1932,1935,,,,,
47893335,1938,1934,1934,1938,,,,,
47895834,1937,1934,1934,1938,,,,,
47898333,1937,1934,1934,1937,,,,,
47900832,1936,1933,1933,1937,,,,,
47903331,1936,1932,1932,1936,,,,,
47905830,1935,1932,1932,1936,,,,,
47908329,1935,1931,1931,1935,,,,,
47910828,1934,1931,1931,1935,,,,,
47913327,1934,1931,1930,1934,,,,,
47915826,1933,1930,1930,1934,,,,,
47918325,1933,1930,1930,1933,,,,,
47920824,1932,1929,1929,1933,,,,,
47923323,1931,1929,1929,1932,,,,,
47925822,1931,1928,1928,1931,,,,,
47928321,1930,1928,1928,1931,,,,,
47930820,1929,1927,1927,1930,,,,,
47933319,1928,1926,1926,1929,,,,,
47935818,1927,1925,1925,1928,,,,,
47938317,1926,1924,1924,1927,,,,,
47940816,1925,1923,1923,1925,,,,,
47943315,1923,1921,1921,1924,,,,,
47945814,1922,1920,1920,1922,,,,,
47948313,1920,1918,1918,1920,,,,,
47950812,1918,1916,1916,1919,,,,,
47953311,1916,1914,1914,1917,,,,,
47955810,1914,1912,1912,1914,,,,,
47958309,1912,1910,1910,1912,,,,,
47960808,1910,1907,1908,1910,,,,,
47963307,1907,1905,1905,1907,,,,,
47965806,1904,1902,1903,1905,,,,,
47968305,1902,1900,1900,1902,,,,,
47970804,1899,1897,1897,1899,,,,,
47973303,1896,1894,1894,1896,,,,,
47975802,1893,1892,1892,1894,,,,,
47978301,1890,1889,1889,1891,,,,,
47980800,1887,1886,1886,1888,,,,,
47983299,1884,1883,1883,1885,,,,,
47985798,1881,1880,1880,1882,,,,,
47988297,1878,1876,1877,1878,,,,,
47990796,1875,1873,1874,1875,,,,,
47993295,1872,1870,1870,1872,,,,,
47995794,1869,1867,1867,1869,,,,,
47998293,1865,1864,1864,1866,,,,,
48000792,1862,1860,1861,1862,,,,,
48003291,1859,1857,1857,1859,,,,,
48005790,1855,1854,1854,1855,,,,,
48008289,1852,1850,1851,1852,,,,,
48010788,1849,1847,1847,1849,,,,,
48013287,1845,1844,1844,1845,,,,,
48015786,1842,1840,1841,1842,,,,,
48018285,1838,1837,1837,1838,,,,,
48020784,1835,1833,1834,1835,,,,,
48023283,1831,1830,1830,1831,,,,,
48025782,1828,1826,1827,1828,,,,,
48028281,1824,1823,1823,1824,,,,,
48030780,1821,1819,1820,1820,,,,,
48033279,1817,1816,1816,1817,,,,,
48035778,1814,1812,1813,1813,,,,,
48038277,1810,1809,1810,1810,,,,,
48040776,1807,1805,1806,1806,,,,,
48043275,1803,1802,1803,1803,,,,,
48045774,1800,1799,1799,1799,,,,,
48048273,1796,1795,1796,1796,,,,,
48050772,1793,1792,1793,1793,,,,,
48053271,1789,1788,1789,1789,,,,,
48055770,1786,1785,1786,1786,,,,,
48058269,1783,1782,1783,1782,,,,,
48060768,1780,1779,1780,1779,,,,,
48063267,1776,1776,1776,1776,,,,,
48065766,1773,1772,1773,1773,,,,,
48068265,1770,1769,1770,1770,,,,,
48070764,1767,1766,1767,1766,,,,,
48073263,1764,1763,1764,1763,,,,,
48075762,1761,1760,1761,1760,,,,,
48078261,1757,1757,1758,1757,,,,,
48080760,1754,1754,1755,1754,,,,,
48083259,1751,1751,1752,1751,,,,,
48085758,1748,1748,1749,1748,,,,,
48088257,1745,1745,1746,1745,,,,,
48090756,1742,1742,1743,1742,,,,,
48093255,1739,1739,1740,1739,,,,,
48095754,1736,1736,1737,1736,,,,,
48098253,1734,1733,1734,1733,,,,,
48100752,1731,1730,1731,1730,,,,,
48103251,1728,1728,1728,1727,,,,,
48105750,1725,1725,1726,1725,,,,,
48108249,1723,1722,1723,1722,,,,,
48110748,1720,1720,1720,1719,,,,,
48113247,1717,1717,1718,1717,,,,,
48115746,1715,1715,1715,1714,,,,,
48118245,1712,1712,1713,1712,,,,,
48120744,1710,1710,1711,1710,,,,,
48123243,1708,1707,1708,1707,,,,,
48125742,1705,1705,1706,1705,,,,,
48128241,1703,1703,1704,1702,,,,,
48130740,1701,1701,1702,1700,,,,,
48133239,1698,1699,1699,1698,,,,,
48135738,1696,1697,1697,1696,,,,,
48138237,1694,1694,1695,1694,,,,,
48140736,1692,1692,1693,1692,,,,,
48143235,1690,1691,1691,1690,,,,,
48145734,1688,1689,1689,1688,,,,,
48148233,1686,1687,1687,1686,,,,,
48150732,1684,1685,1686,1684,,,,,
48153231,1682,1683,1684,1682,,,,,
48155730,1681,1681,1682,1680,,,,,
48158229,1679,1680,1680,1678,,,,,
48160728,1677,1678,1679,1677,,,,,
48163227,1675,1676,1677,1675,,,,,
48165726,1674,1675,1676,1673,,,,,
48168225,1672,1673,1674,1672,,,,,
48170724,1671,1672,1673,1670,,,,,
48173223,1669,1670,1671,1669,,,,,
48175722,1668,1669,1670,1668,,,,,
48178221,1667,1668,1669,1666,,,,,
48180720,1666,1667,1667,1665,,,,,
48183219,1664,1665,1666,1664,,,,,
48185718,1663,1664,1665,1663,,,,,
48188217,1662,1663,1664,1661,,,,,
48190716,1661,1662,1663,1660,,,,,
48193215,1660,1661,1661,1659,,,,,
48195714,1659,1660,1660,1658,,,,,
48198213,1657,1659,1659,1657,,,,,
48200712,1656,1658,1658,1656,,,,,
48203211,1655,1657,1657,1655,,,,,
48205710,1655,1656,1656,1654,,,,,
48208209,1654,1655,1655,1653,,,,,
48210708,1653,1654,1654,1653,,,,,
