timestamp,TimeUS,C1,C2,C3,C4,C5,C6,C7,C8,C9,C10,C11,C12,C13,C14
1683041270.50004005,45528448,1000,1000,1000,1000,0,0,0,0,0,0,0,0,0,0
1683041270.59999990,45628408,1000,1000,1000,1000,0,0,0,0,0,0,0,0,0,0
1683041270.69995999,45728368,1000,1000,1000,1000,0,0,0,0,0,0,0,0,0,0
1683041270.79991984,45828328,1000,1000,1000,1000,0,0,0,0,0,0,0,0,0,0
1683041270.89987993,45928288,1000,1000,1000,1000,0,0,0,0,0,0,0,0,0,0
1683041270.99984002,46028248,1000,1000,1000,1000,0,0,0,0,0,0,0,0,0,0
1683041271.09979987,46128208,1000,1000,1000,1000,0,0,0,0,0,0,0,0,0,0
1683041271.19975996,46228168,1000,1000,1000,1000,0,0,0,0,0,0,0,0,0,0
1683041271.30055285,46328961,1000,1000,1000,1000,0,0,0,0,0,0,0,0,0,0
1683041271.40051293,46428921,1000,1000,1000,1000,0,0,0,0,0,0,0,0,0,0
1683041271.50047302,46528881,1000,1000,1000,1000,0,0,0,0,0,0,0,0,0,0
1683041271.60043287,46628841,1000,1000,1000,1000,0,0,0,0,0,0,0,0,0,0
1683041271.70039296,46728801,1000,1000,1000,1000,0,0,0,0,0,0,0,0,0,0
1683041271.80035305,46828761,1000,1000,1000,1000,0,0,0,0,0,0,0,0,0,0
1683041271.90031290,46928721,1000,1000,1000,1000,0,0,0,0,0,0,0,0,0,0
1683041272.00027299,47028681,1000,1000,1000,1000,0,0,0,0,0,0,0,0,0,0
1683041272.10023284,47128641,1000,1000,1000,1000,0,0,0,0,0,0,0,0,0,0
1683041272.20019293,47228601,1000,1000,1000,1000,0,0,0,0,0,0,0,0,0,0
1683041272.30015302,47328561,1000,1000,1000,1000,0,0,0,0,0,0,0,0,0,0
1683041272.40011287,47428521,1000,1000,1000,1000,0,0,0,0,0,0,0,0,0,0
1683041272.50007296,47528481,1023,1023,1023,1023,0,0,0,0,0,0,0,0,0,0
1683041272.60003304,47628441,1053,1053,1053,1053,0,0,0,0,0,0,0,0,0,0
1683041272.69999290,47728401,1083,1083,1083,1083,0,0,0,0,0,0,0,0,0,0
1683041272.79995298,47828361,1113,1113,1113,1113,0,0,0,0,0,0,0,0,0,0
1683041272.89991283,47928321,1143,1143,1143,1143,0,0,0,0,0,0,0,0,0,0
1683041272.99987292,48028281,1351,1346,1347,1351,0,0,0,0,0,0,0,0,0,0
1683041273.09983301,48128241,1542,1538,1538,1542,0,0,0,0,0,0,0,0,0,0
1683041273.19979286,48228201,1695,1691,1691,1695,0,0,0,0,0,0,0,0,0,0
1683041273.29975295,48328161,1826,1823,1823,1827,0,0,0,0,0,0,0,0,0,0
1683041273.40054584,48428954,1876,1873,1873,1876,0,0,0,0,0,0,0,0,0,0
1683041273.50050592,48528914,1835,1833,1834,1835,0,0,0,0,0,0,0,0,0,0
1683041273.60046601,48628874,1707,1706,1706,1707,0,0,0,0,0,0,0,0,0,0
1683041273.70042586,48728834,1632,1632,1633,1632,0,0,0,0,0,0,0,0,0,0
1683041273.80038595,48828794,1620,1622,1622,1620,0,0,0,0,0,0,0,0,0,0
1683041273.90034604,48928754,1631,1633,1633,1631,0,0,0,0,0,0,0,0,0,0
1683041274.00030589,49028714,1639,1640,1640,1639,0,0,0,0,0,0,0,0,0,0
1683041274.10026598,49128674,1636,1636,1636,1636,0,0,0,0,0,0,0,0,0,0
1683041274.20022607,49228634,1628,1628,1628,1628,0,0,0,0,0,0,0,0,0,0
1683041274.30018592,49328594,1620,1620,1620,1620,0,0,0,0,0,0,0,0,0,0
1683041274.40014601,49428554,1600,1599,1591,1608,0,0,0,0,0,0,0,0,0,0
1683041274.50010586,49528514,1595,1593,1585,1602,0,0,0,0,0,0,0,0,0,0
1683041274.60006595,49628474,1593,1593,1589,1597,0,0,0,0,0,0,0,0,0,0
1683041274.70002604,49728434,1596,1596,1596,1595,0,0,0,0,0,0,0,0,0,0
1683041274.79998589,49828394,1600,1601,1604,1597,0,0,0,0,0,0,0,0,0,0
1683041274.89994597,49928354,1592,1593,1600,1585,0,0,0,0,0,0,0,0,0,0
1683041274.99990606,50028314,1574,1574,1594,1554,0,0,0,0,0,0,0,0,0,0
1683041275.09986591,50128274,1563,1564,1576,1552,0,0,0,0,0,0,0,0,0,0
1683041275.19982600,50228234,1553,1552,1552,1554,0,0,0,0,0,0,0,0,0,0
1683041275.29978585,50328194,1544,1544,1534,1555,0,0,0,0,0,0,0,0,0,0
1683041275.39974594,50428154,1536,1536,1524,1549,0,0,0,0,0,0,0,0,0,0
1683041275.50053906,50528947,1531,1530,1521,1541,0,0,0,0,0,0,0,0,0,0
1683041275.60049891,50628907,1528,1527,1522,1533,0,0,0,0,0,0,0,0,0,0
1683041275.70045900,50728867,1528,1528,1528,1529,0,0,0,0,0,0,0,0,0,0
1683041275.80041885,50828827,1530,1531,1532,1528,0,0,0,0,0,0,0,0,0,0
1683041275.90037894,50928787,1534,1534,1538,1530,0,0,0,0,0,0,0,0,0,0
1683041276.00033903,51028747,1537,1538,1542,1532,0,0,0,0,0,0,0,0,0,0
1683041276.10029888,51128707,1541,1541,1545,1538,0,0,0,0,0,0,0,0,0,0
1683041276.20025897,51228667,1545,1544,1546,1543,0,0,0,0,0,0,0,0,0,0
1683041276.30021906,51328627,1547,1547,1547,1547,0,0,0,0,0,0,0,0,0,0
1683041276.40017891,51428587,1551,1550,1549,1552,0,0,0,0,0,0,0,0,0,0
1683041276.50013900,51528547,1554,1551,1551,1555,0,0,0,0,0,0,0,0,0,0
1683041276.60009885,51628507,1548,1548,1560,1564,0,0,0,0,0,0,0,0,0,0
1683041276.70005894,51728467,1550,1551,1562,1565,0,0,0,0,0,0,0,0,0,0
1683041276.80001903,51828427,1554,1555,1563,1563,0,0,0,0,0,0,0,0,0,0
1683041276.89997888,51928387,1560,1561,1564,1564,0,0,0,0,0,0,0,0,0,0
1683041276.99993896,52028347,1563,1564,1563,1562,0,0,0,0,0,0,0,0,0,0
1683041277.09989905,52128307,1568,1567,1563,1562,0,0,0,0,0,0,0,0,0,0
1683041277.19985890,52228267,1571,1570,1564,1563,0,0,0,0,0,0,0,0,0,0
1683041277.29981899,52328227,1572,1571,1563,1564,0,0,0,0,0,0,0,0,0,0
1683041277.39977884,52428187,1572,1572,1564,1564,0,0,0,0,0,0,0,0,0,0
1683041277.50057197,52528980,1573,1573,1566,1567,0,0,0,0,0,0,0,0,0,0
1683041277.60053205,52628940,1573,1573,1567,1568,0,0,0,0,0,0,0,0,0,0
1683041277.70049191,52728900,1573,1573,1569,1569,0,0,0,0,0,0,0,0,0,0
1683041277.80045199,52828860,1573,1573,1570,1571,0,0,0,0,0,0,0,0,0,0
1683041277.90041184,52928820,1573,1573,1573,1573,0,0,0,0,0,0,0,0,0,0
1683041278.00037193,53028780,1574,1573,1575,1573,0,0,0,0,0,0,0,0,0,0
1683041278.10033202,53128740,1573,1573,1576,1574,0,0,0,0,0,0,0,0,0,0
1683041278.20029187,53228700,1573,1574,1577,1576,0,0,0,0,0,0,0,0,0,0
1683041278.30025196,53328660,1574,1574,1577,1577,0,0,0,0,0,0,0,0,0,0
1683041278.40021205,53428620,1574,1574,1577,1577,0,0,0,0,0,0,0,0,0,0
1683041278.50017190,53528580,1576,1576,1578,1578,0,0,0,0,0,0,0,0,0,0
1683041278.60013199,53628540,1575,1575,1577,1577,0,0,0,0,0,0,0,0,0,0
1683041278.70009184,53728500,1575,1576,1577,1576,0,0,0,0,0,0,0,0,0,0
1683041278.80005193,53828460,1576,1576,1576,1577,0,0,0,0,0,0,0,0,0,0
1683041278.90001202,53928420,1577,1576,1576,1576,0,0,0,0,0,0,0,0,0,0
1683041278.99997187,54028380,1577,1576,1576,1576,0,0,0,0,0,0,0,0,0,0
1683041279.09993196,54128340,1578,1578,1577,1577,0,0,0,0,0,0,0,0,0,0
1683041279.19989204,54228300,1578,1579,1577,1577,0,0,0,0,0,0,0,0,0,0
1683041279.29985189,54328260,1579,1578,1578,1577,0,0,0,0,0,0,0,0,0,0
1683041279.39981198,54428220,1578,1578,1577,1577,0,0,0,0,0,0,0,0,0,0
1683041279.49977183,54528180,1578,1578,1577,1577,0,0,0,0,0,0,0,0,0,0
1683041279.60056496,54628973,1579,1579,1578,1578,0,0,0,0,0,0,0,0,0,0
1683041279.70052505,54728933,1579,1579,1579,1579,0,0,0,0,0,0,0,0,0,0
1683041279.80048490,54828893,1578,1578,1578,1578,0,0,0,0,0,0,0,0,0,0
1683041279.90044498,54928853,1578,1578,1578,1579,0,0,0,0,0,0,0,0,0,0
1683041280.00040483,55028813,1578,1578,1579,1579,0,0,0,0,0,0,0,0,0,0
1683041280.10036492,55128773,1579,1579,1579,1580,0,0,0,0,0,0,0,0,0,0
1683041280.20032501,55228733,1578,1578,1578,1578,0,0,0,0,0,0,0,0,0,0
1683041280.30028486,55328693,1578,1578,1579,1579,0,0,0,0,0,0,0,0,0,0
1683041280.40024495,55428653,1578,1578,1579,1579,0,0,0,0,0,0,0,0,0,0
1683041280.50020504,55528613,1578,1579,1579,1579,0,0,0,0,0,0,0,0,0,0
1683041280.60016489,55628573,1579,1579,1579,1579,0,0,0,0,0,0,0,0,0,0
1683041280.70012498,55728533,1578,1578,1578,1578,0,0,0,0,0,0,0,0,0,0
1683041280.80008507,55828493,1580,1580,1579,1579,0,0,0,0,0,0,0,0,0,0
1683041280.90004492,55928453,1580,1579,1579,1579,0,0,0,0,0,0,0,0,0,0
1683041281.00000501,56028413,1579,1579,1579,1579,0,0,0,0,0,0,0,0,0,0
1683041281.09996486,56128373,1580,1580,1579,1580,0,0,0,0,0,0,0,0,0,0
1683041281.19992495,56228333,1580,1580,1580,1580,0,0,0,0,0,0,0,0,0,0
1683041281.29988503,56328293,1580,1579,1579,1579,0,0,0,0,0,0,0,0,0,0
1683041281.39984488,56428253,1581,1580,1580,1580,0,0,0,0,0,0,0,0,0,0
1683041281.49980497,56528213,1579,1579,1579,1579,0,0,0,0,0,0,0,0,0,0
1683041281.59976506,56628173,1580,1580,1580,1580,0,0,0,0,0,0,0,0,0,0
1683041281.70055795,56728966,1580,1581,1581,1581,0,0,0,0,0,0,0,0,0,0
1683041281.80051804,56828926,1579,1580,1580,1580,0,0,0,0,0,0,0,0,0,0
1683041281.90047789,56928886,1580,1580,1580,1580,0,0,0,0,0,0,0,0,0,0
1683041282.00043797,57028846,1580,1579,1580,1580,0,0,0,0,0,0,0,0,0,0
1683041282.10039806,57128806,1580,1580,1580,1580,0,0,0,0,0,0,0,0,0,0
1683041282.20035791,57228766,1580,1580,1580,1580,0,0,0,0,0,0,0,0,0,0
1683041282.30031800,57328726,1580,1580,1580,1580,0,0,0,0,0,0,0,0,0,0
1683041282.40027785,57428686,1581,1580,1581,1581,0,0,0,0,0,0,0,0,0,0
1683041282.50023794,57528646,1580,1580,1580,1580,0,0,0,0,0,0,0,0,0,0
1683041282.60019803,57628606,1580,1580,1580,1581,0,0,0,0,0,0,0,0,0,0
1683041282.70015788,57728566,1580,1580,1580,1580,0,0,0,0,0,0,0,0,0,0
1683041282.80011797,57828526,1580,1581,1586,1575,0,0,0,0,0,0,0,0,0,0
1683041282.90007806,57928486,1580,1582,1587,1573,0,0,0,0,0,0,0,0,0,0
1683041283.00003791,58028446,1580,1583,1580,1574,0,0,0,0,0,0,0,0,0,0
1683041283.09999800,58128406,1577,1580,1571,1572,0,0,0,0,0,0,0,0,0,0
1683041283.19995785,58228366,1577,1579,1563,1569,0,0,0,0,0,0,0,0,0,0
1683041283.29991794,58328326,1578,1578,1558,1565,0,0,0,0,0,0,0,0,0,0
1683041283.39987803,58428286,1578,1578,1555,1560,0,0,0,0,0,0,0,0,0,0
1683041283.49983788,58528246,1580,1578,1556,1557,0,0,0,0,0,0,0,0,0,0
1683041283.59979796,58628206,1579,1578,1556,1555,0,0,0,0,0,0,0,0,0,0
1683041283.69975805,58728166,1578,1578,1556,1554,0,0,0,0,0,0,0,0,0,0
1683041283.80055094,58828959,1577,1577,1556,1553,0,0,0,0,0,0,0,0,0,0
1683041283.90051103,58928919,1576,1577,1557,1554,0,0,0,0,0,0,0,0,0,0
1683041284.00047088,59028879,1575,1576,1555,1554,0,0,0,0,0,0,0,0,0,0
1683041284.10043097,59128839,1574,1575,1553,1553,0,0,0,0,0,0,0,0,0,0
1683041284.20039105,59228799,1575,1576,1552,1553,0,0,0,0,0,0,0,0,0,0
1683041284.30035090,59328759,1575,1577,1550,1551,0,0,0,0,0,0,0,0,0,0
1683041284.40031099,59428719,1576,1578,1548,1548,0,0,0,0,0,0,0,0,0,0
1683041284.50027084,59528679,1580,1580,1547,1546,0,0,0,0,0,0,0,0,0,0
1683041284.60023093,59628639,1582,1583,1544,1543,0,0,0,0,0,0,0,0,0,0
1683041284.70019102,59728599,1586,1587,1542,1541,0,0,0,0,0,0,0,0,0,0
1683041284.80015087,59828559,1589,1590,1540,1539,0,0,0,0,0,0,0,0,0,0
1683041284.90011096,59928519,1592,1592,1537,1537,0,0,0,0,0,0,0,0,0,0
1683041285.00007105,60028479,1595,1595,1535,1535,0,0,0,0,0,0,0,0,0,0
1683041285.10003090,60128439,1596,1595,1535,1536,0,0,0,0,0,0,0,0,0,0
1683041285.19999099,60228399,1595,1595,1535,1536,0,0,0,0,0,0,0,0,0,0
1683041285.29995084,60328359,1595,1594,1538,1540,0,0,0,0,0,0,0,0,0,0
1683041285.39991093,60428319,1592,1590,1542,1545,0,0,0,0,0,0,0,0,0,0
1683041285.49987102,60528279,1587,1584,1548,1552,0,0,0,0,0,0,0,0,0,0
1683041285.59983087,60628239,1579,1576,1557,1560,0,0,0,0,0,0,0,0,0,0
1683041285.69979095,60728199,1570,1567,1569,1571,0,0,0,0,0,0,0,0,0,0
1683041285.79975104,60828159,1559,1555,1581,1582,0,0,0,0,0,0,0,0,0,0
1683041285.90054393,60928952,1547,1544,1592,1593,0,0,0,0,0,0,0,0,0,0
1683041286.00050402,61028912,1538,1536,1603,1603,0,0,0,0,0,0,0,0,0,0
1683041286.10046387,61128872,1532,1531,1611,1610,0,0,0,0,0,0,0,0,0,0
1683041286.20042396,61228832,1528,1529,1615,1614,0,0,0,0,0,0,0,0,0,0
1683041286.30038404,61328792,1529,1531,1616,1614,0,0,0,0,0,0,0,0,0,0
1683041286.40034389,61428752,1533,1536,1612,1612,0,0,0,0,0,0,0,0,0,0
1683041286.50030398,61528712,1540,1543,1607,1607,0,0,0,0,0,0,0,0,0,0
1683041286.60026383,61628672,1548,1550,1600,1600,0,0,0,0,0,0,0,0,0,0
1683041286.70022392,61728632,1558,1558,1592,1592,0,0,0,0,0,0,0,0,0,0
1683041286.80018401,61828592,1566,1566,1584,1584,0,0,0,0,0,0,0,0,0,0
1683041286.90014386,61928552,1573,1573,1577,1576,0,0,0,0,0,0,0,0,0,0
1683041287.00010395,62028512,1580,1579,1572,1571,0,0,0,0,0,0,0,0,0,0
1683041287.10006404,62128472,1585,1584,1568,1568,0,0,0,0,0,0,0,0,0,0
1683041287.20002389,62228432,1586,1585,1565,1565,0,0,0,0,0,0,0,0,0,0
1683041287.29998398,62328392,1587,1585,1564,1565,0,0,0,0,0,0,0,0,0,0
1683041287.39994407,62428352,1586,1585,1566,1566,0,0,0,0,0,0,0,0,0,0
1683041287.49990392,62528312,1584,1584,1569,1569,0,0,0,0,0,0,0,0,0,0
1683041287.59986401,62628272,1581,1581,1571,1572,0,0,0,0,0,0,0,0,0,0
1683041287.69982386,62728232,1579,1579,1575,1575,0,0,0,0,0,0,0,0,0,0
1683041287.79978395,62828192,1576,1576,1577,1577,0,0,0,0,0,0,0,0,0,0
1683041287.90057707,62928985,1574,1574,1580,1580,0,0,0,0,0,0,0,0,0,0
1683041288.00053692,63028945,1572,1573,1582,1581,0,0,0,0,0,0,0,0,0,0
1683041288.10049701,63128905,1572,1573,1583,1583,0,0,0,0,0,0,0,0,0,0
1683041288.20045686,63228865,1572,1573,1584,1583,0,0,0,0,0,0,0,0,0,0
1683041288.30041695,63328825,1573,1574,1583,1584,0,0,0,0,0,0,0,0,0,0
1683041288.40037704,63428785,1573,1574,1582,1582,0,0,0,0,0,0,0,0,0,0
1683041288.50033689,63528745,1575,1575,1582,1582,0,0,0,0,0,0,0,0,0,0
1683041288.60029697,63628705,1575,1575,1579,1579,0,0,0,0,0,0,0,0,0,0
1683041288.70025706,63728665,1577,1577,1578,1578,0,0,0,0,0,0,0,0,0,0
1683041288.80021691,63828625,1578,1577,1577,1577,0,0,0,0,0,0,0,0,0,0
1683041288.90017700,63928585,1579,1578,1576,1575,0,0,0,0,0,0,0,0,0,0
1683041289.00013685,64028545,1581,1581,1577,1577,0,0,0,0,0,0,0,0,0,0
1683041289.10009694,64128505,1581,1581,1577,1577,0,0,0,0,0,0,0,0,0,0
1683041289.20005703,64228465,1581,1581,1577,1577,0,0,0,0,0,0,0,0,0,0
1683041289.30001688,64328425,1582,1581,1578,1578,0,0,0,0,0,0,0,0,0,0
1683041289.39997697,64428385,1581,1581,1578,1578,0,0,0,0,0,0,0,0,0,0
1683041289.49993706,64528345,1581,1581,1579,1579,0,0,0,0,0,0,0,0,0,0
1683041289.59989691,64628305,1580,1580,1579,1579,0,0,0,0,0,0,0,0,0,0
1683041289.69985700,64728265,1579,1579,1578,1579,0,0,0,0,0,0,0,0,0,0
1683041289.79981685,64828225,1579,1579,1579,1580,0,0,0,0,0,0,0,0,0,0
1683041289.89977694,64928185,1579,1579,1580,1580,0,0,0,0,0,0,0,0,0,0
1683041290.00057006,65028978,1578,1578,1580,1580,0,0,0,0,0,0,0,0,0,0
1683041290.10052991,65128938,1580,1580,1582,1581,0,0,0,0,0,0,0,0,0,0
1683041290.20049000,65228898,1580,1580,1581,1581,0,0,0,0,0,0,0,0,0,0
1683041290.30044985,65328858,1580,1580,1581,1581,0,0,0,0,0,0,0,0,0,0
1683041290.40040994,65428818,1580,1580,1581,1581,0,0,0,0,0,0,0,0,0,0
1683041290.50037003,65528778,1580,1580,1581,1581,0,0,0,0,0,0,0,0,0,0
1683041290.60032988,65628738,1580,1580,1580,1580,0,0,0,0,0,0,0,0,0,0
1683041290.70028996,65728698,1360,1363,1636,1644,0,0,0,0,0,0,0,0,0,0
1683041290.80025005,65828658,1428,1436,1647,1648,0,0,0,0,0,0,0,0,0,0
1683041290.90020990,65928618,1488,1498,1641,1623,0,0,0,0,0,0,0,0,0,0
1683041291.00016999,66028578,1539,1544,1625,1606,0,0,0,0,0,0,0,0,0,0
1683041291.10012984,66128538,1578,1574,1607,1598,0,0,0,0,0,0,0,0,0,0
1683041291.20008993,66228498,1608,1591,1589,1590,0,0,0,0,0,0,0,0,0,0
1683041291.30005002,66328458,1634,1615,1564,1574,0,0,0,0,0,0,0,0,0,0
1683041291.40000987,66428418,1650,1635,1534,1548,0,0,0,0,0,0,0,0,0,0
1683041291.49996996,66528378,1650,1646,1538,1549,0,0,0,0,0,0,0,0,0,0
1683041291.59993005,66628338,1638,1643,1548,1551,0,0,0,0,0,0,0,0,0,0
1683041291.69988990,66728298,1626,1636,1555,1552,0,0,0,0,0,0,0,0,0,0
1683041291.79984999,66828258,1616,1625,1558,1552,0,0,0,0,0,0,0,0,0,0
1683041291.89980984,66928218,1609,1614,1560,1553,0,0,0,0,0,0,0,0,0,0
1683041291.99976993,67028178,1605,1605,1559,1555,0,0,0,0,0,0,0,0,0,0
1683041292.10056305,67128971,1600,1597,1557,1556,0,0,0,0,0,0,0,0,0,0
1683041292.20052290,67228931,1595,1591,1554,1555,0,0,0,0,0,0,0,0,0,0
1683041292.30048299,67328891,1590,1586,1552,1554,0,0,0,0,0,0,0,0,0,0
1683041292.40044284,67428851,1585,1583,1551,1553,0,0,0,0,0,0,0,0,0,0
1683041292.50040293,67528811,1580,1580,1550,1550,0,0,0,0,0,0,0,0,0,0
1683041292.60036302,67628771,1577,1579,1551,1550,0,0,0,0,0,0,0,0,0,0
1683041292.70032287,67728731,1574,1576,1550,1547,0,0,0,0,0,0,0,0,0,0
1683041292.80028296,67828691,1572,1574,1551,1547,0,0,0,0,0,0,0,0,0,0
1683041292.90024304,67928651,1571,1572,1549,1547,0,0,0,0,0,0,0,0,0,0
1683041293.00020289,68028611,1572,1572,1551,1549,0,0,0,0,0,0,0,0,0,0
1683041293.10016298,68128571,1572,1571,1551,1552,0,0,0,0,0,0,0,0,0,0
1683041293.20012283,68228531,1573,1573,1553,1554,0,0,0,0,0,0,0,0,0,0
1683041293.30008292,68328491,1574,1574,1553,1556,0,0,0,0,0,0,0,0,0,0
1683041293.40004301,68428451,1575,1576,1555,1557,0,0,0,0,0,0,0,0,0,0
1683041293.50000286,68528411,1575,1578,1556,1559,0,0,0,0,0,0,0,0,0,0
1683041293.59996295,68628371,1576,1580,1557,1559,0,0,0,0,0,0,0,0,0,0
1683041293.69992304,68728331,1578,1582,1558,1560,0,0,0,0,0,0,0,0,0,0
1683041293.79988289,68828291,1579,1582,1559,1560,0,0,0,0,0,0,0,0,0,0
1683041293.89984298,68928251,1582,1584,1560,1561,0,0,0,0,0,0,0,0,0,0
1683041293.99980307,69028211,1583,1585,1560,1561,0,0,0,0,0,0,0,0,0,0
1683041294.09976292,69128171,1586,1586,1562,1563,0,0,0,0,0,0,0,0,0,0
1683041294.20055604,69228964,1589,1587,1563,1564,0,0,0,0,0,0,0,0,0,0
1683041294.30051589,69328924,1590,1588,1563,1565,0,0,0,0,0,0,0,0,0,0
1683041294.40047598,69428884,1592,1590,1565,1567,0,0,0,0,0,0,0,0,0,0
1683041294.50043607,69528844,1591,1590,1565,1567,0,0,0,0,0,0,0,0,0,0
1683041294.60039592,69628804,1592,1591,1567,1568,0,0,0,0,0,0,0,0,0,0
1683041294.70035601,69728764,1591,1591,1568,1569,0,0,0,0,0,0,0,0,0,0
1683041294.80031586,69828724,1591,1591,1569,1569,0,0,0,0,0,0,0,0,0,0
1683041294.90027595,69928684,1591,1591,1571,1570,0,0,0,0,0,0,0,0,0,0
1683041295.00023603,70028644,1592,1591,1572,1572,0,0,0,0,0,0,0,0,0,0
1683041295.10019588,70128604,1591,1590,1573,1572,0,0,0,0,0,0,0,0,0,0
1683041295.20015597,70228564,1592,1590,1574,1573,0,0,0,0,0,0,0,0,0,0
1683041295.30011606,70328524,1591,1590,1573,1573,0,0,0,0,0,0,0,0,0,0
1683041295.40007591,70428484,1590,1590,1573,1573,0,0,0,0,0,0,0,0,0,0
1683041295.50003600,70528444,1590,1590,1573,1573,0,0,0,0,0,0,0,0,0,0
1683041295.59999585,70628404,1590,1590,1573,1572,0,0,0,0,0,0,0,0,0,0
1683041295.69995594,70728364,1590,1590,1573,1573,0,0,0,0,0,0,0,0,0,0
1683041295.79991603,70828324,1590,1590,1573,1572,0,0,0,0,0,0,0,0,0,0
1683041295.89987588,70928284,1592,1590,1573,1572,0,0,0,0,0,0,0,0,0,0
1683041295.99983597,71028244,1582,1575,1587,1586,0,0,0,0,0,0,0,0,0,0
1683041296.09979606,71128204,1564,1557,1606,1606,0,0,0,0,0,0,0,0,0,0
1683041296.19975591,71228164,1549,1547,1615,1617,0,0,0,0,0,0,0,0,0,0
1683041296.30054903,71328957,1540,1542,1617,1619,0,0,0,0,0,0,0,0,0,0
1683041296.40050888,71428917,1536,1542,1615,1616,0,0,0,0,0,0,0,0,0,0
1683041296.50046897,71528877,1537,1547,1613,1613,0,0,0,0,0,0,0,0,0,0
1683041296.60042906,71628837,1542,1551,1610,1609,0,0,0,0,0,0,0,0,0,0
1683041296.70038891,71728797,1548,1555,1605,1602,0,0,0,0,0,0,0,0,0,0
1683041296.80034900,71828757,1556,1559,1600,1597,0,0,0,0,0,0,0,0,0,0
1683041296.90030885,71928717,1564,1564,1595,1592,0,0,0,0,0,0,0,0,0,0
1683041297.00026894,72028677,1570,1568,1588,1586,0,0,0,0,0,0,0,0,0,0
1683041297.10022902,72128637,1575,1571,1581,1582,0,0,0,0,0,0,0,0,0,0
1683041297.20018888,72228597,1579,1576,1577,1579,0,0,0,0,0,0,0,0,0,0
1683041297.30014896,72328557,1582,1580,1576,1577,0,0,0,0,0,0,0,0,0,0
1683041297.40010905,72428517,1584,1583,1573,1574,0,0,0,0,0,0,0,0,0,0
1683041297.50006890,72528477,1586,1585,1572,1573,0,0,0,0,0,0,0,0,0,0
1683041297.60002899,72628437,1587,1588,1573,1573,0,0,0,0,0,0,0,0,0,0
1683041297.69998884,72728397,1588,1588,1573,1572,0,0,0,0,0,0,0,0,0,0
1683041297.79994893,72828357,1589,1589,1574,1573,0,0,0,0,0,0,0,0,0,0
1683041297.89990902,72928317,1589,1588,1573,1573,0,0,0,0,0,0,0,0,0,0
1683041297.99986887,73028277,1589,1588,1574,1574,0,0,0,0,0,0,0,0,0,0
1683041298.09982896,73128237,1588,1587,1574,1575,0,0,0,0,0,0,0,0,0,0
1683041298.19978905,73228197,1588,1587,1574,1575,0,0,0,0,0,0,0,0,0,0
1683041298.29974890,73328157,1587,1586,1575,1576,0,0,0,0,0,0,0,0,0,0
1683041298.40054202,73428950,1584,1585,1575,1575,0,0,0,0,0,0,0,0,0,0
1683041298.50050187,73528910,1585,1585,1578,1577,0,0,0,0,0,0,0,0,0,0
1683041298.60046196,73628870,1585,1585,1579,1579,0,0,0,0,0,0,0,0,0,0
1683041298.70042205,73728830,1584,1584,1580,1579,0,0,0,0,0,0,0,0,0,0
1683041298.80038190,73828790,1584,1582,1585,1574,0,0,0,0,0,0,0,0,0,0
1683041298.90034199,73928750,1584,1581,1586,1572,0,0,0,0,0,0,0,0,0,0
1683041299.00030184,74028710,1582,1579,1578,1573,0,0,0,0,0,0,0,0,0,0
1683041299.10026193,74128670,1580,1578,1570,1572,0,0,0,0,0,0,0,0,0,0
1683041299.20022202,74228630,1576,1577,1563,1569,0,0,0,0,0,0,0,0,0,0
1683041299.30018187,74328590,1572,1577,1559,1564,0,0,0,0,0,0,0,0,0,0
1683041299.40014195,74428550,1571,1576,1559,1561,0,0,0,0,0,0,0,0,0,0
1683041299.50010204,74528510,1571,1575,1559,1558,0,0,0,0,0,0,0,0,0,0
1683041299.60006189,74628470,1572,1574,1560,1557,0,0,0,0,0,0,0,0,0,0
1683041299.70002198,74728430,1573,1573,1559,1556,0,0,0,0,0,0,0,0,0,0
1683041299.79998183,74828390,1573,1572,1558,1556,0,0,0,0,0,0,0,0,0,0
1683041299.89994192,74928350,1574,1572,1556,1556,0,0,0,0,0,0,0,0,0,0
1683041299.99990201,75028310,1573,1572,1554,1554,0,0,0,0,0,0,0,0,0,0
1683041300.09986186,75128270,1572,1573,1552,1553,0,0,0,0,0,0,0,0,0,0
1683041300.19982195,75228230,1572,1574,1551,1551,0,0,0,0,0,0,0,0,0,0
1683041300.29978204,75328190,1572,1575,1550,1550,0,0,0,0,0,0,0,0,0,0
1683041300.40057492,75428983,1574,1576,1549,1548,0,0,0,0,0,0,0,0,0,0
1683041300.50053501,75528943,1575,1577,1547,1546,0,0,0,0,0,0,0,0,0,0
1683041300.60049486,75628903,1577,1578,1545,1545,0,0,0,0,0,0,0,0,0,0
1683041300.70045495,75728863,1580,1580,1544,1544,0,0,0,0,0,0,0,0,0,0
1683041300.80041504,75828823,1582,1582,1542,1542,0,0,0,0,0,0,0,0,0,0
1683041300.90037489,75928783,1584,1584,1541,1541,0,0,0,0,0,0,0,0,0,0
1683041301.00033498,76028743,1586,1586,1539,1539,0,0,0,0,0,0,0,0,0,0
1683041301.10029507,76128703,1587,1587,1538,1539,0,0,0,0,0,0,0,0,0,0
1683041301.20025492,76228663,1588,1588,1540,1540,0,0,0,0,0,0,0,0,0,0
1683041301.30021501,76328623,1588,1586,1540,1541,0,0,0,0,0,0,0,0,0,0
1683041301.40017486,76428583,1587,1585,1542,1544,0,0,0,0,0,0,0,0,0,0
1683041301.50013494,76528543,1585,1584,1546,1549,0,0,0,0,0,0,0,0,0,0
1683041301.60009503,76628503,1582,1581,1550,1554,0,0,0,0,0,0,0,0,0,0
1683041301.70005488,76728463,1577,1577,1554,1558,0,0,0,0,0,0,0,0,0,0
1683041301.80001497,76828423,1572,1572,1559,1562,0,0,0,0,0,0,0,0,0,0
1683041301.89997506,76928383,1567,1566,1566,1569,0,0,0,0,0,0,0,0,0,0
1683041301.99993491,77028343,1562,1561,1574,1575,0,0,0,0,0,0,0,0,0,0
1683041302.09989500,77128303,1557,1555,1581,1581,0,0,0,0,0,0,0,0,0,0
1683041302.19985485,77228263,1552,1550,1588,1588,0,0,0,0,0,0,0,0,0,0
1683041302.29981494,77328223,1546,1544,1594,1593,0,0,0,0,0,0,0,0,0,0
1683041302.39977503,77428183,1541,1540,1599,1599,0,0,0,0,0,0,0,0,0,0
1683041302.50056791,77528976,1537,1538,1605,1604,0,0,0,0,0,0,0,0,0,0
1683041302.60052800,77628936,1536,1537,1607,1606,0,0,0,0,0,0,0,0,0,0
1683041302.70048785,77728896,1536,1537,1605,1604,0,0,0,0,0,0,0,0,0,0
1683041302.80044794,77828856,1539,1542,1602,1602,0,0,0,0,0,0,0,0,0,0
1683041302.90040803,77928816,1545,1547,1597,1597,0,0,0,0,0,0,0,0,0,0
1683041303.00036788,78028776,1551,1553,1591,1591,0,0,0,0,0,0,0,0,0,0
1683041303.10032797,78128736,1559,1560,1586,1585,0,0,0,0,0,0,0,0,0,0
1683041303.20028806,78228696,1568,1567,1581,1579,0,0,0,0,0,0,0,0,0,0
1683041303.30024791,78328656,1574,1573,1575,1574,0,0,0,0,0,0,0,0,0,0
1683041303.40020800,78428616,1580,1578,1572,1571,0,0,0,0,0,0,0,0,0,0
1683041303.50016785,78528576,1584,1582,1570,1569,0,0,0,0,0,0,0,0,0,0
1683041303.60012794,78628536,1587,1585,1570,1570,0,0,0,0,0,0,0,0,0,0
1683041303.70008802,78728496,1587,1585,1568,1569,0,0,0,0,0,0,0,0,0,0
1683041303.80004787,78828456,1587,1585,1569,1570,0,0,0,0,0,0,0,0,0,0
1683041303.90000796,78928416,1586,1586,1571,1571,0,0,0,0,0,0,0,0,0,0
1683041303.99996805,79028376,1584,1585,1572,1572,0,0,0,0,0,0,0,0,0,0
1683041304.09992790,79128336,1584,1584,1574,1574,0,0,0,0,0,0,0,0,0,0
1683041304.19988799,79228296,1583,1583,1575,1575,0,0,0,0,0,0,0,0,0,0
1683041304.29984784,79328256,1581,1582,1577,1577,0,0,0,0,0,0,0,0,0,0
1683041304.39980793,79428216,1580,1580,1578,1577,0,0,0,0,0,0,0,0,0,0
1683041304.49976802,79528176,1579,1580,1580,1580,0,0,0,0,0,0,0,0,0,0
1683041304.60056090,79628969,1578,1579,1580,1580,0,0,0,0,0,0,0,0,0,0
1683041304.70052099,79728929,1578,1578,1581,1581,0,0,0,0,0,0,0,0,0,0
1683041304.80048084,79828889,1577,1577,1582,1582,0,0,0,0,0,0,0,0,0,0
1683041304.90044093,79928849,1577,1577,1582,1582,0,0,0,0,0,0,0,0,0,0
1683041305.00040102,80028809,1577,1577,1582,1582,0,0,0,0,0,0,0,0,0,0
1683041305.10036087,80128769,1576,1577,1581,1582,0,0,0,0,0,0,0,0,0,0
1683041305.20032096,80228729,1577,1577,1582,1582,0,0,0,0,0,0,0,0,0,0
1683041305.30028105,80328689,1578,1578,1582,1582,0,0,0,0,0,0,0,0,0,0
1683041305.40024090,80428649,1578,1578,1581,1581,0,0,0,0,0,0,0,0,0,0
1683041305.50020099,80528609,1578,1579,1580,1580,0,0,0,0,0,0,0,0,0,0
1683041305.60016084,80628569,1579,1580,1580,1580,0,0,0,0,0,0,0,0,0,0
1683041305.70012093,80728529,1581,1580,1580,1580,0,0,0,0,0,0,0,0,0,0
1683041305.80008101,80828489,1581,1581,1579,1579,0,0,0,0,0,0,0,0,0,0
1683041305.90004086,80928449,1581,1582,1580,1580,0,0,0,0,0,0,0,0,0,0
1683041306.00000095,81028409,1582,1582,1580,1580,0,0,0,0,0,0,0,0,0,0
1683041306.09996104,81128369,1582,1582,1580,1580,0,0,0,0,0,0,0,0,0,0
1683041306.19992089,81228329,1583,1582,1580,1580,0,0,0,0,0,0,0,0,0,0
1683041306.29988098,81328289,1583,1582,1580,1580,0,0,0,0,0,0,0,0,0,0
1683041306.39984083,81428249,1582,1582,1579,1579,0,0,0,0,0,0,0,0,0,0
1683041306.49980092,81528209,1581,1581,1579,1580,0,0,0,0,0,0,0,0,0,0
1683041306.59976101,81628169,1581,1581,1580,1580,0,0,0,0,0,0,0,0,0,0
1683041306.70055389,81728962,1581,1582,1581,1581,0,0,0,0,0,0,0,0,0,0
1683041306.80051398,81828922,1582,1582,1582,1581,0,0,0,0,0,0,0,0,0,0
1683041306.90047383,81928882,1582,1581,1582,1582,0,0,0,0,0,0,0,0,0,0
1683041307.00043392,82028842,1582,1581,1582,1582,0,0,0,0,0,0,0,0,0,0
1683041307.10039401,82128802,1582,1582,1583,1583,0,0,0,0,0,0,0,0,0,0
1683041307.20035386,82228762,1581,1581,1588,1576,0,0,0,0,0,0,0,0,0,0
1683041307.30031395,82328722,1581,1581,1588,1576,0,0,0,0,0,0,0,0,0,0
1683041307.40027404,82428682,1579,1578,1580,1576,0,0,0,0,0,0,0,0,0,0
1683041307.50023389,82528642,1576,1575,1572,1576,0,0,0,0,0,0,0,0,0,0
1683041307.60019398,82628602,1573,1572,1567,1574,0,0,0,0,0,0,0,0,0,0
1683041307.70015407,82728562,1570,1571,1565,1572,0,0,0,0,0,0,0,0,0,0
1683041307.80011392,82828522,1568,1569,1565,1569,0,0,0,0,0,0,0,0,0,0
1683041307.90007401,82928482,1567,1568,1567,1567,0,0,0,0,0,0,0,0,0,0
1683041308.00003386,83028442,1567,1568,1568,1566,0,0,0,0,0,0,0,0,0,0
1683041308.09999394,83128402,1566,1566,1567,1565,0,0,0,0,0,0,0,0,0,0
1683041308.19995403,83228362,1565,1565,1567,1565,0,0,0,0,0,0,0,0,0,0
1683041308.29991388,83328322,1564,1564,1566,1564,0,0,0,0,0,0,0,0,0,0
1683041308.39987397,83428282,1564,1563,1565,1564,0,0,0,0,0,0,0,0,0,0
1683041308.49983406,83528242,1563,1562,1563,1563,0,0,0,0,0,0,0,0,0,0
1683041308.59979391,83628202,1562,1562,1563,1563,0,0,0,0,0,0,0,0,0,0
1683041308.69975400,83728162,1562,1562,1562,1563,0,0,0,0,0,0,0,0,0,0
1683041308.80054688,83828955,1561,1561,1562,1562,0,0,0,0,0,0,0,0,0,0
1683041308.90050697,83928915,1561,1561,1561,1561,0,0,0,0,0,0,0,0,0,0
1683041309.00046706,84028875,1561,1561,1562,1561,0,0,0,0,0,0,0,0,0,0
1683041309.10042691,84128835,1561,1561,1561,1561,0,0,0,0,0,0,0,0,0,0
1683041309.20038700,84228795,1560,1560,1560,1560,0,0,0,0,0,0,0,0,0,0
1683041309.30034685,84328755,1560,1560,1560,1559,0,0,0,0,0,0,0,0,0,0
1683041309.40030694,84428715,1559,1558,1558,1558,0,0,0,0,0,0,0,0,0,0
1683041309.50026703,84528675,1560,1559,1559,1559,0,0,0,0,0,0,0,0,0,0
1683041309.60022688,84628635,1559,1558,1558,1558,0,0,0,0,0,0,0,0,0,0
1683041309.70018697,84728595,1559,1559,1559,1558,0,0,0,0,0,0,0,0,0,0
1683041309.80014706,84828555,1558,1558,1559,1556,0,0,0,0,0,0,0,0,0,0
1683041309.90010691,84928515,1557,1556,1558,1554,0,0,0,0,0,0,0,0,0,0
1683041310.00006700,85028475,1557,1556,1557,1556,0,0,0,0,0,0,0,0,0,0
1683041310.10002685,85128435,1555,1554,1552,1555,0,0,0,0,0,0,0,0,0,0
1683041310.19998693,85228395,1551,1552,1547,1552,0,0,0,0,0,0,0,0,0,0
1683041310.29994702,85328355,1547,1548,1542,1549,0,0,0,0,0,0,0,0,0,0
1683041310.39990687,85428315,1543,1543,1538,1542,0,0,0,0,0,0,0,0,0,0
1683041310.49986696,85528275,1537,1537,1532,1535,0,0,0,0,0,0,0,0,0,0
1683041310.59982705,85628235,1530,1531,1525,1526,0,0,0,0,0,0,0,0,0,0
1683041310.69978690,85728195,1525,1525,1521,1521,0,0,0,0,0,0,0,0,0,0
1683041310.79974699,85828155,1522,1522,1520,1519,0,0,0,0,0,0,0,0,0,0
1683041310.90053988,85928948,1520,1520,1520,1519,0,0,0,0,0,0,0,0,0,0
1683041311.00049996,86028908,1521,1521,1524,1524,0,0,0,0,0,0,0,0,0,0
1683041311.10046005,86128868,1523,1523,1527,1529,0,0,0,0,0,0,0,0,0,0
1683041311.20041990,86228828,1525,1525,1531,1532,0,0,0,0,0,0,0,0,0,0
1683041311.30037999,86328788,1529,1528,1536,1537,0,0,0,0,0,0,0,0,0,0
1683041311.40033984,86428748,1533,1533,1541,1541,0,0,0,0,0,0,0,0,0,0
1683041311.50029993,86528708,1536,1536,1543,1543,0,0,0,0,0,0,0,0,0,0
1683041311.60026002,86628668,1539,1539,1545,1545,0,0,0,0,0,0,0,0,0,0
1683041311.70021987,86728628,1542,1542,1546,1546,0,0,0,0,0,0,0,0,0,0
1683041311.80017996,86828588,1544,1545,1546,1546,0,0,0,0,0,0,0,0,0,0
1683041311.90014005,86928548,1546,1546,1545,1545,0,0,0,0,0,0,0,0,0,0
1683041312.00009990,87028508,1548,1548,1546,1545,0,0,0,0,0,0,0,0,0,0
1683041312.10005999,87128468,1549,1549,1545,1545,0,0,0,0,0,0,0,0,0,0
1683041312.20001984,87228428,1549,1549,1544,1544,0,0,0,0,0,0,0,0,0,0
1683041312.29997993,87328388,1550,1550,1545,1545,0,0,0,0,0,0,0,0,0,0
1683041312.39994001,87428348,1549,1549,1544,1543,0,0,0,0,0,0,0,0,0,0
1683041312.49989986,87528308,1549,1549,1544,1544,0,0,0,0,0,0,0,0,0,0
1683041312.59985995,87628268,1548,1548,1544,1544,0,0,0,0,0,0,0,0,0,0
1683041312.69982004,87728228,1548,1548,1545,1545,0,0,0,0,0,0,0,0,0,0
1683041312.79977989,87828188,1547,1546,1545,1545,0,0,0,0,0,0,0,0,0,0
1683041312.90057302,87928981,1546,1545,1545,1545,0,0,0,0,0,0,0,0,0,0
1683041313.00053287,88028941,1545,1546,1546,1546,0,0,0,0,0,0,0,0,0,0
1683041313.10049295,88128901,1544,1544,1545,1545,0,0,0,0,0,0,0,0,0,0
1683041313.20045304,88228861,1544,1544,1546,1546,0,0,0,0,0,0,0,0,0,0
1683041313.30041289,88328821,1544,1544,1546,1546,0,0,0,0,0,0,0,0,0,0
1683041313.40037298,88428781,1543,1544,1545,1546,0,0,0,0,0,0,0,0,0,0
1683041313.50033283,88528741,1543,1544,1546,1545,0,0,0,0,0,0,0,0,0,0
1683041313.60029292,88628701,1543,1543,1545,1545,0,0,0,0,0,0,0,0,0,0
1683041313.70025301,88728661,1544,1544,1545,1545,0,0,0,0,0,0,0,0,0,0
1683041313.80021286,88828621,1544,1544,1545,1544,0,0,0,0,0,0,0,0,0,0
1683041313.90017295,88928581,1544,1544,1544,1544,0,0,0,0,0,0,0,0,0,0
1683041314.00013304,89028541,1544,1545,1544,1544,0,0,0,0,0,0,0,0,0,0
1683041314.10009289,89128501,1544,1544,1544,1544,0,0,0,0,0,0,0,0,0,0
1683041314.20005298,89228461,1545,1545,1544,1545,0,0,0,0,0,0,0,0,0,0
1683041314.30001307,89328421,1546,1545,1545,1544,0,0,0,0,0,0,0,0,0,0
1683041314.39997292,89428381,1545,1544,1544,1543,0,0,0,0,0,0,0,0,0,0
1683041314.49993300,89528341,1545,1544,1543,1543,0,0,0,0,0,0,0,0,0,0
1683041314.59989285,89628301,1545,1545,1544,1544,0,0,0,0,0,0,0,0,0,0
1683041314.69985294,89728261,1545,1545,1544,1544,0,0,0,0,0,0,0,0,0,0
1683041314.79981303,89828221,1545,1545,1544,1544,0,0,0,0,0,0,0,0,0,0
1683041314.89977288,89928181,1545,1545,1545,1545,0,0,0,0,0,0,0,0,0,0
1683041315.00056601,90028974,1545,1544,1544,1544,0,0,0,0,0,0,0,0,0,0
1683041315.10052586,90128934,1545,1545,1545,1545,0,0,0,0,0,0,0,0,0,0
1683041315.20048594,90228894,1544,1544,1544,1544,0,0,0,0,0,0,0,0,0,0
1683041315.30044603,90328854,1544,1544,1544,1545,0,0,0,0,0,0,0,0,0,0
1683041315.40040588,90428814,1544,1544,1544,1544,0,0,0,0,0,0,0,0,0,0
1683041315.50036597,90528774,1543,1543,1543,1543,0,0,0,0,0,0,0,0,0,0
1683041315.60032606,90628734,1544,1544,1544,1544,0,0,0,0,0,0,0,0,0,0
1683041315.70028591,90728694,1544,1544,1544,1544,0,0,0,0,0,0,0,0,0,0
1683041315.80024600,90828654,1544,1544,1544,1545,0,0,0,0,0,0,0,0,0,0
1683041315.90020585,90928614,1545,1544,1545,1545,0,0,0,0,0,0,0,0,0,0
1683041316.00016594,91028574,1545,1545,1545,1546,0,0,0,0,0,0,0,0,0,0
1683041316.10012603,91128534,1545,1544,1545,1545,0,0,0,0,0,0,0,0,0,0
1683041316.20008588,91228494,1544,1545,1544,1544,0,0,0,0,0,0,0,0,0,0
1683041316.30004597,91328454,1544,1544,1544,1544,0,0,0,0,0,0,0,0,0,0
1683041316.40000606,91428414,1545,1545,1544,1545,0,0,0,0,0,0,0,0,0,0
1683041316.49996591,91528374,1545,1545,1544,1545,0,0,0,0,0,0,0,0,0,0
1683041316.59992599,91628334,1545,1545,1545,1544,0,0,0,0,0,0,0,0,0,0
1683041316.69988585,91728294,1545,1545,1545,1545,0,0,0,0,0,0,0,0,0,0
1683041316.79984593,91828254,1545,1545,1545,1545,0,0,0,0,0,0,0,0,0,0
1683041316.89980602,91928214,1545,1545,1545,1545,0,0,0,0,0,0,0,0,0,0
1683041316.99976587,92028174,1545,1545,1545,1544,0,0,0,0,0,0,0,0,0,0
1683041317.10055900,92128967,1545,1545,1544,1544,0,0,0,0,0,0,0,0,0,0
1683041317.20051885,92228927,1544,1544,1544,1544,0,0,0,0,0,0,0,0,0,0
1683041317.30047894,92328887,1544,1544,1543,1544,0,0,0,0,0,0,0,0,0,0
1683041317.40043902,92428847,1544,1544,1544,1544,0,0,0,0,0,0,0,0,0,0
1683041317.50039887,92528807,1545,1544,1545,1545,0,0,0,0,0,0,0,0,0,0
1683041317.60035896,92628767,1544,1545,1545,1545,0,0,0,0,0,0,0,0,0,0
1683041317.70031905,92728727,1545,1545,1545,1545,0,0,0,0,0,0,0,0,0,0
1683041317.80027890,92828687,1544,1545,1545,1544,0,0,0,0,0,0,0,0,0,0
1683041317.90023899,92928647,1545,1544,1545,1544,0,0,0,0,0,0,0,0,0,0
1683041318.00019884,93028607,1545,1544,1545,1544,0,0,0,0,0,0,0,0,0,0
1683041318.10015893,93128567,1544,1544,1544,1544,0,0,0,0,0,0,0,0,0,0
1683041318.20011902,93228527,1544,1544,1544,1544,0,0,0,0,0,0,0,0,0,0
1683041318.30007887,93328487,1544,1544,1544,1545,0,0,0,0,0,0,0,0,0,0
1683041318.40003896,93428447,1544,1544,1543,1544,0,0,0,0,0,0,0,0,0,0
1683041318.49999905,93528407,1544,1544,1544,1544,0,0,0,0,0,0,0,0,0,0
1683041318.59995890,93628367,1543,1544,1544,1543,0,0,0,0,0,0,0,0,0,0
1683041318.69991899,93728327,1544,1544,1544,1544,0,0,0,0,0,0,0,0,0,0
1683041318.79987884,93828287,1543,1544,1544,1543,0,0,0,0,0,0,0,0,0,0
1683041318.89983892,93928247,1544,1544,1543,1544,0,0,0,0,0,0,0,0,0,0
1683041318.99979901,94028207,1544,1544,1544,1543,0,0,0,0,0,0,0,0,0,0
1683041319.09975886,94128167,1544,1543,1543,1544,0,0,0,0,0,0,0,0,0,0
1683041319.20055199,94228960,1544,1544,1544,1544,0,0,0,0,0,0,0,0,0,0
1683041319.30051184,94328920,1544,1544,1544,1544,0,0,0,0,0,0,0,0,0,0
1683041319.40047193,94428880,1545,1545,1545,1545,0,0,0,0,0,0,0,0,0,0
1683041319.50043201,94528840,1544,1544,1545,1545,0,0,0,0,0,0,0,0,0,0
1683041319.60039186,94628800,1544,1544,1544,1544,0,0,0,0,0,0,0,0,0,0
1683041319.70035195,94728760,1545,1545,1546,1546,0,0,0,0,0,0,0,0,0,0
1683041319.80031204,94828720,1545,1545,1545,1546,0,0,0,0,0,0,0,0,0,0
1683041319.90027189,94928680,1545,1545,1545,1545,0,0,0,0,0,0,0,0,0,0
1683041320.00023198,95028640,1545,1545,1545,1545,0,0,0,0,0,0,0,0,0,0
1683041320.10019183,95128600,1545,1544,1544,1544,0,0,0,0,0,0,0,0,0,0
1683041320.20015192,95228560,1545,1545,1544,1545,0,0,0,0,0,0,0,0,0,0
1683041320.30011201,95328520,1545,1545,1545,1544,0,0,0,0,0,0,0,0,0,0
1683041320.40007186,95428480,1545,1544,1544,1545,0,0,0,0,0,0,0,0,0,0
1683041320.50003195,95528440,1427,1425,1369,1373,0,0,0,0,0,0,0,0,0,0
1683041320.59999204,95628400,1359,1357,1254,1260,0,0,0,0,0,0,0,0,0,0
1683041320.69995189,95728360,1339,1337,1216,1223,0,0,0,0,0,0,0,0,0,0
1683041320.79991198,95828320,1329,1327,1198,1203,0,0,0,0,0,0,0,0,0,0
1683041320.89987206,95928280,1308,1305,1154,1160,0,0,0,0,0,0,0,0,0,0
1683041320.99983191,96028240,1246,1244,1150,1155,0,0,0,0,0,0,0,0,0,0
1683041321.09979200,96128200,1147,1143,1150,1156,0,0,0,0,0,0,0,0,0,0
1683041321.19975185,96228160,1036,1033,1150,1154,0,0,0,0,0,0,0,0,0,0
1683041321.30054498,96328953,1016,1013,1150,1154,0,0,0,0,0,0,0,0,0,0
1683041321.40050507,96428913,1016,1013,1150,1153,0,0,0,0,0,0,0,0,0,0
1683041321.50046492,96528873,1017,1013,1150,1154,0,0,0,0,0,0,0,0,0,0
1683041321.60042500,96628833,1016,1003,1150,1168,0,0,0,0,0,0,0,0,0,0
1683041321.70038486,96728793,1016,1007,1150,1163,0,0,0,0,0,0,0,0,0,0
1683041321.80034494,96828753,1016,1008,1150,1161,0,0,0,0,0,0,0,0,0,0
1683041321.90030503,96928713,1016,1008,1150,1161,0,0,0,0,0,0,0,0,0,0
1683041322.00026488,97028673,1016,1009,1150,1160,0,0,0,0,0,0,0,0,0,0
1683041322.10022497,97128633,1016,1008,1150,1160,0,0,0,0,0,0,0,0,0,0
1683041322.20018506,97228593,1016,1009,1150,1160,0,0,0,0,0,0,0,0,0,0
1683041322.30014491,97328553,1016,1008,1150,1160,0,0,0,0,0,0,0,0,0,0
1683041322.40010500,97428513,1016,1015,1150,1152,0,0,0,0,0,0,0,0,0,0
1683041322.50006485,97528473,1016,1014,1150,1153,0,0,0,0,0,0,0,0,0,0
1683041322.60002494,97628433,1017,1014,1150,1153,0,0,0,0,0,0,0,0,0,0
1683041322.69998503,97728393,1016,1014,1150,1153,0,0,0,0,0,0,0,0,0,0
1683041322.79994488,97828353,866,865,1150,1150,0,0,0,0,0,0,0,0,0,0
1683041322.89990497,97928313,1000,1000,1000,1000,0,0,0,0,0,0,0,0,0,0
1683041322.99986506,98028273,1000,1000,1000,1000,0,0,0,0,0,0,0,0,0,0
1683041323.09982491,98128233,1000,1000,1000,1000,0,0,0,0,0,0,0,0,0,0
1683041323.19978499,98228193,1000,1000,1000,1000,0,0,0,0,0,0,0,0,0,0
1683041323.30057788,98328986,1000,1000,1000,1000,0,0,0,0,0,0,0,0,0,0
1683041323.40053797,98428946,1000,1000,1000,1000,0,0,0,0,0,0,0,0,0,0
1683041323.50049806,98528906,1000,1000,1000,1000,0,0,0,0,0,0,0,0,0,0
1683041323.60045791,98628866,1000,1000,1000,1000,0,0,0,0,0,0,0,0,0,0
1683041323.70041800,98728826,1000,1000,1000,1000,0,0,0,0,0,0,0,0,0,0
1683041323.80037785,98828786,1000,1000,1000,1000,0,0,0,0,0,0,0,0,0,0
1683041323.90033793,98928746,1000,1000,1000,1000,0,0,0,0,0,0,0,0,0,0
1683041324.00029802,99028706,1000,1000,1000,1000,0,0,0,0,0,0,0,0,0,0
1683041324.10025787,99128666,1000,1000,1000,1000,0,0,0,0,0,0,0,0,0,0
1683041324.20021796,99228626,1000,1000,1000,1000,0,0,0,0,0,0,0,0,0,0
1683041324.30017805,99328586,1000,1000,1000,1000,0,0,0,0,0,0,0,0,0,0
1683041324.40013790,99428546,1000,1000,1000,1000,0,0,0,0,0,0,0,0,0,0
1683041324.50009799,99528506,1000,1000,1000,1000,0,0,0,0,0,0,0,0,0,0
1683041324.60005784,99628466,1000,1000,1000,1000,0,0,0,0,0,0,0,0,0,0
1683041324.70001793,99728426,1000,1000,1000,1000,0,0,0,0,0,0,0,0,0,0
1683041324.79997802,99828386,1000,1000,1000,1000,0,0,0,0,0,0,0,0,0,0
1683041324.89993787,99928346,1000,1000,1000,1000,0,0,0,0,0,0,0,0,0,0
1683041324.99989796,100028306,1000,1000,1000,1000,0,0,0,0,0,0,0,0,0,0
1683041325.09985805,100128266,1000,1000,1000,1000,0,0,0,0,0,0,0,0,0,0
1683041325.19981790,100228226,1000,1000,1000,1000,0,0,0,0,0,0,0,0,0,0
1683041325.29977798,100328186,1000,1000,1000,1000,0,0,0,0,0,0,0,0,0,0
1683041325.40057087,100428979,1000,1000,1000,1000,0,0,0,0,0,0,0,0,0,0
1683041325.50053096,100528939,1000,1000,1000,1000,0,0,0,0,0,0,0,0,0,0
1683041325.60049105,100628899,1000,1000,1000,1000,0,0,0,0,0,0,0,0,0,0
1683041325.70045090,100728859,1000,1000,1000,1000,0,0,0,0,0,0,0,0,0,0
1683041325.80041099,100828819,1000,1000,1000,1000,0,0,0,0,0,0,0,0,0,0
1683041325.90037084,100928779,1000,1000,1000,1000,0,0,0,0,0,0,0,0,0,0
1683041326.00033092,101028739,1000,1000,1000,1000,0,0,0,0,0,0,0,0,0,0
1683041326.10029101,101128699,1000,1000,1000,1000,0,0,0,0,0,0,0,0,0,0
1683041326.20025086,101228659,1000,1000,1000,1000,0,0,0,0,0,0,0,0,0,0
1683041326.30021095,101328619,1000,1000,1000,1000,0,0,0,0,0,0,0,0,0,0
1683041326.40017104,101428579,1000,1000,1000,1000,0,0,0,0,0,0,0,0,0,0
1683041326.50013089,101528539,1000,1000,1000,1000,0,0,0,0,0,0,0,0,0,0
1683041326.60009098,101628499,1000,1000,1000,1000,0,0,0,0,0,0,0,0,0,0
1683041326.70005083,101728459,1000,1000,1000,1000,0,0,0,0,0,0,0,0,0,0
1683041326.80001092,101828419,1000,1000,1000,1000,0,0,0,0,0,0,0,0,0,0
1683041326.89997101,101928379,1000,1000,1000,1000,0,0,0,0,0,0,0,0,0,0
1683041326.99993086,102028339,1000,1000,1000,1000,0,0,0,0,0,0,0,0,0,0
1683041327.09989095,102128299,1000,1000,1000,1000,0,0,0,0,0,0,0,0,0,0
1683041327.19985104,102228259,1000,1000,1000,1000,0,0,0,0,0,0,0,0,0,0
1683041327.29981089,102328219,1000,1000,1000,1000,0,0,0,0,0,0,0,0,0,0
1683041327.39977098,102428179,1000,1000,1000,1000,0,0,0,0,0,0,0,0,0,0
1683041327.50056386,102528972,1000,1000,1000,1000,0,0,0,0,0,0,0,0,0,0
1683041327.60052395,102628932,1000,1000,1000,1000,0,0,0,0,0,0,0,0,0,0
1683041327.70048404,102728892,1000,1000,1000,1000,0,0,0,0,0,0,0,0,0,0
1683041327.80044389,102828852,1000,1000,1000,1000,0,0,0,0,0,0,0,0,0,0
1683041327.90040398,102928812,1000,1000,1000,1000,0,0,0,0,0,0,0,0,0,0
1683041328.00036407,103028772,1000,1000,1000,1000,0,0,0,0,0,0,0,0,0,0
1683041328.10032392,103128732,1000,1000,1000,1000,0,0,0,0,0,0,0,0,0,0
1683041328.20028400,103228692,1000,1000,1000,1000,0,0,0,0,0,0,0,0,0,0
1683041328.30024385,103328652,1000,1000,1000,1000,0,0,0,0,0,0,0,0,0,0
1683041328.40020394,103428612,1000,1000,1000,1000,0,0,0,0,0,0,0,0,0,0
1683041328.50016403,103528572,1000,1000,1000,1000,0,0,0,0,0,0,0,0,0,0
1683041328.60012388,103628532,1000,1000,1000,1000,0,0,0,0,0,0,0,0,0,0
1683041328.70008397,103728492,1000,1000,1000,1000,0,0,0,0,0,0,0,0,0,0
1683041328.80004406,103828452,1000,1000,1000,1000,0,0,0,0,0,0,0,0,0,0
1683041328.90000391,103928412,1000,1000,1000,1000,0,0,0,0,0,0,0,0,0,0
1683041328.99996400,104028372,1000,1000,1000,1000,0,0,0,0,0,0,0,0,0,0
1683041329.09992385,104128332,1000,1000,1000,1000,0,0,0,0,0,0,0,0,0,0
1683041329.19988394,104228292,1000,1000,1000,1000,0,0,0,0,0,0,0,0,0,0
1683041329.29984403,104328252,1000,1000,1000,1000,0,0,0,0,0,0,0,0,0,0
1683041329.39980388,104428212,1000,1000,1000,1000,0,0,0,0,0,0,0,0,0,0
1683041329.49976397,104528172,1000,1000,1000,1000,0,0,0,0,0,0,0,0,0,0
1683041329.60055685,104628965,1000,1000,1000,1000,0,0,0,0,0,0,0,0,0,0
1683041329.70051694,104728925,1000,1000,1000,1000,0,0,0,0,0,0,0,0,0,0
1683041329.80047703,104828885,1000,1000,1000,1000,0,0,0,0,0,0,0,0,0,0
1683041329.90043688,104928845,1000,1000,1000,1000,0,0,0,0,0,0,0,0,0,0
1683041330.00039697,105028805,1000,1000,1000,1000,0,0,0,0,0,0,0,0,0,0
1683041330.10035706,105128765,1000,1000,1000,1000,0,0,0,0,0,0,0,0,0,0
1683041330.20031691,105228725,1000,1000,1000,1000,0,0,0,0,0,0,0,0,0,0
1683041330.30027699,105328685,1000,1000,1000,1000,0,0,0,0,0,0,0,0,0,0
1683041330.40023685,105428645,1000,1000,1000,1000,0,0,0,0,0,0,0,0,0,0
1683041330.50019693,105528605,1000,1000,1000,1000,0,0,0,0,0,0,0,0,0,0
1683041330.60015702,105628565,1000,1000,1000,1000,0,0,0,0,0,0,0,0,0,0
1683041330.70011687,105728525,1000,1000,1000,1000,0,0,0,0,0,0,0,0,0,0
1683041330.80007696,105828485,1000,1000,1000,1000,0,0,0,0,0,0,0,0,0,0
1683041330.90003705,105928445,1000,1000,1000,1000,0,0,0,0,0,0,0,0,0,0
1683041330.99999690,106028405,1000,1000,1000,1000,0,0,0,0,0,0,0,0,0,0
1683041331.09995699,106128365,1000,1000,1000,1000,0,0,0,0,0,0,0,0,0,0
1683041331.19991684,106228325,1000,1000,1000,1000,0,0,0,0,0,0,0,0,0,0
1683041331.29987693,106328285,1000,1000,1000,1000,0,0,0,0,0,0,0,0,0,0
1683041331.39983702,106428245,1000,1000,1000,1000,0,0,0,0,0,0,0,0,0,0
1683041331.49979687,106528205,1000,1000,1000,1000,0,0,0,0,0,0,0,0,0,0
1683041331.59975696,106628165,1000,1000,1000,1000,0,0,0,0,0,0,0,0,0,0
1683041331.70054984,106728958,1000,1000,1000,1000,0,0,0,0,0,0,0,0,0,0
1683041331.80050993,106828918,1000,1000,1000,1000,0,0,0,0,0,0,0,0,0,0
1683041331.90047002,106928878,1000,1000,1000,1000,0,0,0,0,0,0,0,0,0,0
1683041332.00042987,107028838,1000,1000,1000,1000,0,0,0,0,0,0,0,0,0,0
1683041332.10038996,107128798,1000,1000,1000,1000,0,0,0,0,0,0,0,0,0,0
1683041332.20035005,107228758,1000,1000,1000,1000,0,0,0,0,0,0,0,0,0,0
1683041332.30030990,107328718,1000,1000,1000,1000,0,0,0,0,0,0,0,0,0,0
1683041332.40026999,107428678,1000,1000,1000,1000,0,0,0,0,0,0,0,0,0,0
1683041332.50022984,107528638,1000,1000,1000,1000,0,0,0,0,0,0,0,0,0,0
1683041332.60018992,107628598,1000,1000,1000,1000,0,0,0,0,0,0,0,0,0,0
1683041332.70015001,107728558,1000,1000,1000,1000,0,0,0,0,0,0,0,0,0,0
1683041332.80010986,107828518,1000,1000,1000,1000,0,0,0,0,0,0,0,0,0,0
1683041332.90006995,107928478,1000,1000,1000,1000,0,0,0,0,0,0,0,0,0,0
1683041333.00003004,108028438,1000,1000,1000,1000,0,0,0,0,0,0,0,0,0,0
1683041333.09998989,108128398,1000,1000,1000,1000,0,0,0,0,0,0,0,0,0,0
1683041333.19994998,108228358,1000,1000,1000,1000,0,0,0,0,0,0,0,0,0,0
1683041333.29991007,108328318,1000,1000,1000,1000,0,0,0,0,0,0,0,0,0,0
1683041333.39986992,108428278,1000,1000,1000,1000,0,0,0,0,0,0,0,0,0,0
1683041333.49983001,108528238,1000,1000,1000,1000,0,0,0,0,0,0,0,0,0,0
1683041333.59978986,108628198,1000,1000,1000,1000,0,0,0,0,0,0,0,0,0,0
1683041333.69974995,108728158,1000,1000,1000,1000,0,0,0,0,0,0,0,0,0,0
1683041333.80054283,108828951,1000,1000,1000,1000,0,0,0,0,0,0,0,0,0,0
1683041333.90050292,108928911,1000,1000,1000,1000,0,0,0,0,0,0,0,0,0,0
1683041334.00046301,109028871,1000,1000,1000,1000,0,0,0,0,0,0,0,0,0,0
