timestamp,TimeUS,C1,C2,C3,C4,C5,C6,C7,C8,C9,C10,C11,C12,C13,C14
1684083928.10003996,48528914,1000,1000,1000,1000,0,0,0,0,0,0,0,0,0,0
1684083928.20000005,48628874,1000,1000,1000,1000,0,0,0,0,0,0,0,0,0,0
1684083928.29995990,48728834,1000,1000,1000,1000,0,0,0,0,0,0,0,0,0,0
1684083928.39991999,48828794,1000,1000,1000,1000,0,0,0,0,0,0,0,0,0,0
1684083928.49988008,48928754,1000,1000,1000,1000,0,0,0,0,0,0,0,0,0,0
1684083928.59983993,49028714,1000,1000,1000,1000,0,0,0,0,0,0,0,0,0,0
1684083928.69980001,49128674,1000,1000,1000,1000,0,0,0,0,0,0,0,0,0,0
1684083928.79976010,49228634,1000,1000,1000,1000,0,0,0,0,0,0,0,0,0,0
1684083928.89971995,49328594,1000,1000,1000,1000,0,0,0,0,0,0,0,0,0,0
1684083928.99968004,49428554,1000,1000,1000,1000,0,0,0,0,0,0,0,0,0,0
1684083929.09963989,49528514,1000,1000,1000,1000,0,0,0,0,0,0,0,0,0,0
1684083929.19959998,49628474,1000,1000,1000,1000,0,0,0,0,0,0,0,0,0,0
1684083929.29956007,49728434,1000,1000,1000,1000,0,0,0,0,0,0,0,0,0,0
1684083929.39951992,49828394,1000,1000,1000,1000,0,0,0,0,0,0,0,0,0,0
1684083929.49948001,49928354,1000,1000,1000,1000,0,0,0,0,0,0,0,0,0,0
1684083929.59944010,50028314,1000,1000,1000,1000,0,0,0,0,0,0,0,0,0,0
1684083929.69939995,50128274,1000,1000,1000,1000,0,0,0,0,0,0,0,0,0,0
1684083929.79936004,50228234,1000,1000,1000,1000,0,0,0,0,0,0,0,0,0,0
1684083929.89931989,50328194,1000,1000,1000,1000,0,0,0,0,0,0,0,0,0,0
1684083929.99927998,50428154,1000,1000,1000,1000,0,0,0,0,0,0,0,0,0,0
1684083930.10007310,50528947,1023,1023,1023,1023,0,0,0,0,0,0,0,0,0,0
1684083930.20003295,50628907,1053,1053,1053,1053,0,0,0,0,0,0,0,0,0,0
1684083930.29999304,50728867,1083,1083,1083,1083,0,0,0,0,0,0,0,0,0,0
1684083930.39995289,50828827,1113,1113,1113,1113,0,0,0,0,0,0,0,0,0,0
1684083930.49991298,50928787,1143,1143,1143,1143,0,0,0,0,0,0,0,0,0,0
1684083930.59987307,51028747,1351,1346,1346,1352,0,0,0,0,0,0,0,0,0,0
1684083930.69983292,51128707,1542,1537,1538,1542,0,0,0,0,0,0,0,0,0,0
1684083930.79979300,51228667,1695,1691,1691,1695,0,0,0,0,0,0,0,0,0,0
1684083930.89975309,51328627,1827,1822,1822,1827,0,0,0,0,0,0,0,0,0,0
1684083930.99971294,51428587,1859,1853,1854,1859,0,0,0,0,0,0,0,0,0,0
1684083931.09967303,51528547,1832,1830,1830,1833,0,0,0,0,0,0,0,0,0,0
1684083931.19963288,51628507,1704,1704,1704,1704,0,0,0,0,0,0,0,0,0,0
1684083931.29959297,51728467,1631,1627,1627,1632,0,0,0,0,0,0,0,0,0,0
1684083931.39955306,51828427,1613,1614,1610,1618,0,0,0,0,0,0,0,0,0,0
1684083931.49951291,51928387,1624,1626,1623,1629,0,0,0,0,0,0,0,0,0,0
1684083931.59947300,52028347,1634,1636,1635,1636,0,0,0,0,0,0,0,0,0,0
1684083931.69943309,52128307,1635,1636,1637,1634,0,0,0,0,0,0,0,0,0,0
1684083931.79939294,52228267,1630,1630,1633,1628,0,0,0,0,0,0,0,0,0,0
1684083931.89935303,52328227,1626,1625,1628,1622,0,0,0,0,0,0,0,0,0,0
1684083931.99931288,52428187,1623,1621,1624,1620,0,0,0,0,0,0,0,0,0,0
1684083932.10010600,52528980,1622,1621,1622,1621,0,0,0,0,0,0,0,0,0,0
1684083932.20006609,52628940,1622,1621,1621,1622,0,0,0,0,0,0,0,0,0,0
1684083932.30002594,52728900,1618,1619,1618,1619,0,0,0,0,0,0,0,0,0,0
1684083932.39998603,52828860,1587,1587,1593,1581,0,0,0,0,0,0,0,0,0,0
1684083932.49994588,52928820,1574,1575,1579,1570,0,0,0,0,0,0,0,0,0,0
1684083932.59990597,53028780,1563,1563,1564,1563,0,0,0,0,0,0,0,0,0,0
1684083932.69986606,53128740,1555,1555,1552,1557,0,0,0,0,0,0,0,0,0,0
1684083932.79982591,53228700,1548,1547,1540,1555,0,0,0,0,0,0,0,0,0,0
1684083932.89978600,53328660,1541,1541,1533,1549,0,0,0,0,0,0,0,0,0,0
1684083932.99974608,53428620,1535,1535,1530,1540,0,0,0,0,0,0,0,0,0,0
1684083933.09970593,53528580,1529,1529,1527,1531,0,0,0,0,0,0,0,0,0,0
1684083933.19966602,53628540,1527,1527,1528,1527,0,0,0,0,0,0,0,0,0,0
1684083933.29962587,53728500,1529,1529,1531,1527,0,0,0,0,0,0,0,0,0,0
1684083933.39958596,53828460,1531,1531,1534,1528,0,0,0,0,0,0,0,0,0,0
1684083933.49954605,53928420,1533,1534,1536,1531,0,0,0,0,0,0,0,0,0,0
1684083933.59950590,54028380,1536,1537,1539,1535,0,0,0,0,0,0,0,0,0,0
1684083933.69946599,54128340,1540,1540,1542,1539,0,0,0,0,0,0,0,0,0,0
1684083933.79942608,54228300,1543,1543,1544,1543,0,0,0,0,0,0,0,0,0,0
1684083933.89938593,54328260,1547,1547,1547,1547,0,0,0,0,0,0,0,0,0,0
1684083933.99934602,54428220,1549,1549,1548,1549,0,0,0,0,0,0,0,0,0,0
1684083934.09930587,54528180,1551,1551,1550,1552,0,0,0,0,0,0,0,0,0,0
1684083934.20009899,54628973,1554,1554,1553,1555,0,0,0,0,0,0,0,0,0,0
1684083934.30005908,54728933,1553,1552,1558,1561,0,0,0,0,0,0,0,0,0,0
1684083934.40001893,54828893,1555,1555,1562,1563,0,0,0,0,0,0,0,0,0,0
1684083934.49997902,54928853,1558,1558,1564,1565,0,0,0,0,0,0,0,0,0,0
1684083934.59993887,55028813,1560,1561,1565,1564,0,0,0,0,0,0,0,0,0,0
1684083934.69989896,55128773,1563,1564,1566,1565,0,0,0,0,0,0,0,0,0,0
1684083934.79985905,55228733,1566,1566,1566,1565,0,0,0,0,0,0,0,0,0,0
1684083934.89981890,55328693,1569,1569,1566,1566,0,0,0,0,0,0,0,0,0,0
1684083934.99977899,55428653,1570,1570,1565,1566,0,0,0,0,0,0,0,0,0,0
1684083935.09973907,55528613,1571,1571,1566,1566,0,0,0,0,0,0,0,0,0,0
1684083935.19969893,55628573,1572,1572,1567,1567,0,0,0,0,0,0,0,0,0,0
1684083935.29965901,55728533,1573,1572,1568,1568,0,0,0,0,0,0,0,0,0,0
1684083935.39961910,55828493,1572,1572,1568,1569,0,0,0,0,0,0,0,0,0,0
1684083935.49957895,55928453,1574,1574,1571,1571,0,0,0,0,0,0,0,0,0,0
1684083935.59953904,56028413,1573,1573,1572,1572,0,0,0,0,0,0,0,0,0,0
1684083935.69949889,56128373,1574,1574,1574,1573,0,0,0,0,0,0,0,0,0,0
1684083935.79945898,56228333,1575,1575,1576,1574,0,0,0,0,0,0,0,0,0,0
1684083935.89941907,56328293,1575,1575,1576,1575,0,0,0,0,0,0,0,0,0,0
1684083935.99937892,56428253,1574,1574,1576,1575,0,0,0,0,0,0,0,0,0,0
1684083936.09933901,56528213,1574,1574,1576,1576,0,0,0,0,0,0,0,0,0,0
1684083936.19929910,56628173,1574,1575,1576,1577,0,0,0,0,0,0,0,0,0,0
1684083936.30009198,56728966,1575,1575,1576,1577,0,0,0,0,0,0,0,0,0,0
1684083936.40005207,56828926,1575,1575,1575,1576,0,0,0,0,0,0,0,0,0,0
1684083936.50001192,56928886,1576,1576,1576,1576,0,0,0,0,0,0,0,0,0,0
1684083936.59997201,57028846,1577,1577,1577,1577,0,0,0,0,0,0,0,0,0,0
1684083936.69993210,57128806,1577,1577,1577,1577,0,0,0,0,0,0,0,0,0,0
1684083936.79989195,57228766,1577,1577,1577,1576,0,0,0,0,0,0,0,0,0,0
1684083936.89985204,57328726,1578,1578,1578,1577,0,0,0,0,0,0,0,0,0,0
1684083936.99981189,57428686,1577,1578,1577,1577,0,0,0,0,0,0,0,0,0,0
1684083937.09977198,57528646,1578,1578,1577,1577,0,0,0,0,0,0,0,0,0,0
1684083937.19973207,57628606,1578,1578,1578,1578,0,0,0,0,0,0,0,0,0,0
1684083937.29969192,57728566,1579,1578,1578,1578,0,0,0,0,0,0,0,0,0,0
1684083937.39965200,57828526,1578,1578,1578,1578,0,0,0,0,0,0,0,0,0,0
1684083937.49961209,57928486,1578,1578,1577,1578,0,0,0,0,0,0,0,0,0,0
1684083937.59957194,58028446,1579,1579,1579,1578,0,0,0,0,0,0,0,0,0,0
1684083937.69953203,58128406,1579,1579,1579,1579,0,0,0,0,0,0,0,0,0,0
1684083937.79949188,58228366,1579,1579,1579,1579,0,0,0,0,0,0,0,0,0,0
1684083937.89945197,58328326,1578,1578,1579,1579,0,0,0,0,0,0,0,0,0,0
1684083937.99941206,58428286,1579,1579,1579,1580,0,0,0,0,0,0,0,0,0,0
1684083938.09937191,58528246,1579,1578,1579,1579,0,0,0,0,0,0,0,0,0,0
1684083938.19933200,58628206,1579,1579,1580,1579,0,0,0,0,0,0,0,0,0,0
1684083938.29929209,58728166,1578,1579,1579,1579,0,0,0,0,0,0,0,0,0,0
1684083938.40008497,58828959,1579,1579,1579,1579,0,0,0,0,0,0,0,0,0,0
1684083938.50004506,58928919,1579,1579,1579,1580,0,0,0,0,0,0,0,0,0,0
1684083938.60000491,59028879,1579,1579,1580,1579,0,0,0,0,0,0,0,0,0,0
1684083938.69996500,59128839,1580,1580,1580,1580,0,0,0,0,0,0,0,0,0,0
1684083938.79992509,59228799,1580,1580,1580,1580,0,0,0,0,0,0,0,0,0,0
1684083938.89988494,59328759,1580,1579,1579,1579,0,0,0,0,0,0,0,0,0,0
1684083938.99984503,59428719,1580,1580,1579,1580,0,0,0,0,0,0,0,0,0,0
1684083939.09980488,59528679,1579,1579,1579,1579,0,0,0,0,0,0,0,0,0,0
1684083939.19976497,59628639,1580,1580,1580,1580,0,0,0,0,0,0,0,0,0,0
1684083939.29972506,59728599,1580,1581,1580,1580,0,0,0,0,0,0,0,0,0,0
1684083939.39968491,59828559,1580,1580,1581,1580,0,0,0,0,0,0,0,0,0,0
1684083939.49964499,59928519,1579,1579,1579,1579,0,0,0,0,0,0,0,0,0,0
1684083939.59960508,60028479,1580,1580,1580,1580,0,0,0,0,0,0,0,0,0,0
1684083939.69956493,60128439,1580,1581,1581,1581,0,0,0,0,0,0,0,0,0,0
1684083939.79952502,60228399,1580,1580,1581,1581,0,0,0,0,0,0,0,0,0,0
1684083939.89948487,60328359,1581,1580,1581,1581,0,0,0,0,0,0,0,0,0,0
1684083939.99944496,60428319,1580,1580,1580,1580,0,0,0,0,0,0,0,0,0,0
1684083940.09940505,60528279,1581,1580,1581,1580,0,0,0,0,0,0,0,0,0,0
1684083940.19936490,60628239,1581,1581,1581,1580,0,0,0,0,0,0,0,0,0,0
1684083940.29932499,60728199,1581,1581,1581,1581,0,0,0,0,0,0,0,0,0,0
1684083940.39928508,60828159,1581,1582,1584,1580,0,0,0,0,0,0,0,0,0,0
1684083940.50007796,60928952,1580,1581,1588,1572,0,0,0,0,0,0,0,0,0,0
1684083940.60003805,61028912,1579,1582,1583,1573,0,0,0,0,0,0,0,0,0,0
1684083940.69999790,61128872,1579,1581,1574,1574,0,0,0,0,0,0,0,0,0,0
1684083940.79995799,61228832,1576,1579,1565,1570,0,0,0,0,0,0,0,0,0,0
1684083940.89991808,61328792,1577,1578,1559,1566,0,0,0,0,0,0,0,0,0,0
1684083940.99987793,61428752,1578,1578,1556,1562,0,0,0,0,0,0,0,0,0,0
1684083941.09983802,61528712,1579,1578,1555,1558,0,0,0,0,0,0,0,0,0,0
1684083941.19979787,61628672,1580,1578,1556,1556,0,0,0,0,0,0,0,0,0,0
1684083941.29975796,61728632,1578,1577,1555,1553,0,0,0,0,0,0,0,0,0,0
1684083941.39971805,61828592,1578,1578,1556,1554,0,0,0,0,0,0,0,0,0,0
1684083941.49967790,61928552,1576,1577,1555,1553,0,0,0,0,0,0,0,0,0,0
1684083941.59963799,62028512,1577,1578,1556,1555,0,0,0,0,0,0,0,0,0,0
1684083941.69959807,62128472,1574,1576,1554,1554,0,0,0,0,0,0,0,0,0,0
1684083941.79955792,62228432,1574,1576,1552,1553,0,0,0,0,0,0,0,0,0,0
1684083941.89951801,62328392,1575,1577,1551,1552,0,0,0,0,0,0,0,0,0,0
1684083941.99947810,62428352,1576,1578,1549,1549,0,0,0,0,0,0,0,0,0,0
1684083942.09943795,62528312,1579,1580,1548,1548,0,0,0,0,0,0,0,0,0,0
1684083942.19939804,62628272,1582,1583,1546,1545,0,0,0,0,0,0,0,0,0,0
1684083942.29935789,62728232,1585,1586,1544,1542,0,0,0,0,0,0,0,0,0,0
1684083942.39931798,62828192,1588,1589,1540,1540,0,0,0,0,0,0,0,0,0,0
1684083942.50011110,62928985,1590,1590,1537,1537,0,0,0,0,0,0,0,0,0,0
1684083942.60007095,63028945,1593,1593,1535,1536,0,0,0,0,0,0,0,0,0,0
1684083942.70003104,63128905,1595,1595,1534,1536,0,0,0,0,0,0,0,0,0,0
1684083942.79999089,63228865,1595,1595,1535,1537,0,0,0,0,0,0,0,0,0,0
1684083942.89995098,63328825,1593,1593,1535,1538,0,0,0,0,0,0,0,0,0,0
1684083942.99991107,63428785,1592,1591,1540,1542,0,0,0,0,0,0,0,0,0,0
1684083943.09987092,63528745,1589,1587,1546,1549,0,0,0,0,0,0,0,0,0,0
1684083943.19983101,63628705,1581,1578,1554,1556,0,0,0,0,0,0,0,0,0,0
1684083943.29979110,63728665,1573,1569,1565,1567,0,0,0,0,0,0,0,0,0,0
1684083943.39975095,63828625,1562,1559,1577,1579,0,0,0,0,0,0,0,0,0,0
1684083943.49971104,63928585,1551,1548,1590,1591,0,0,0,0,0,0,0,0,0,0
1684083943.59967089,64028545,1540,1538,1599,1599,0,0,0,0,0,0,0,0,0,0
1684083943.69963098,64128505,1533,1532,1608,1607,0,0,0,0,0,0,0,0,0,0
1684083943.79959106,64228465,1528,1529,1613,1612,0,0,0,0,0,0,0,0,0,0
1684083943.89955091,64328425,1528,1530,1615,1614,0,0,0,0,0,0,0,0,0,0
1684083943.99951100,64428385,1531,1534,1612,1612,0,0,0,0,0,0,0,0,0,0
1684083944.09947109,64528345,1538,1541,1609,1608,0,0,0,0,0,0,0,0,0,0
1684083944.19943094,64628305,1546,1547,1601,1601,0,0,0,0,0,0,0,0,0,0
1684083944.29939103,64728265,1555,1556,1594,1594,0,0,0,0,0,0,0,0,0,0
1684083944.39935088,64828225,1565,1564,1587,1587,0,0,0,0,0,0,0,0,0,0
1684083944.49931097,64928185,1572,1572,1580,1579,0,0,0,0,0,0,0,0,0,0
1684083944.60010409,65028978,1580,1579,1575,1574,0,0,0,0,0,0,0,0,0,0
1684083944.70006394,65128938,1585,1584,1571,1570,0,0,0,0,0,0,0,0,0,0
1684083944.80002403,65228898,1587,1586,1568,1567,0,0,0,0,0,0,0,0,0,0
1684083944.89998388,65328858,1588,1587,1567,1567,0,0,0,0,0,0,0,0,0,0
1684083944.99994397,65428818,1588,1587,1567,1568,0,0,0,0,0,0,0,0,0,0
1684083945.09990406,65528778,1587,1586,1569,1570,0,0,0,0,0,0,0,0,0,0
1684083945.19986391,65628738,1583,1583,1571,1571,0,0,0,0,0,0,0,0,0,0
1684083945.29982400,65728698,1580,1579,1573,1573,0,0,0,0,0,0,0,0,0,0
1684083945.39978409,65828658,1578,1578,1577,1577,0,0,0,0,0,0,0,0,0,0
1684083945.49974394,65928618,1575,1575,1580,1579,0,0,0,0,0,0,0,0,0,0
1684083945.59970403,66028578,1573,1574,1582,1581,0,0,0,0,0,0,0,0,0,0
1684083945.69966388,66128538,1680,1680,1567,1564,0,0,0,0,0,0,0,0,0,0
1684083945.79962397,66228498,1641,1639,1555,1552,0,0,0,0,0,0,0,0,0,0
1684083945.89958405,66328458,1610,1607,1561,1562,0,0,0,0,0,0,0,0,0,0
1684083945.99954391,66428418,1580,1578,1571,1573,0,0,0,0,0,0,0,0,0,0
1684083946.09950399,66528378,1558,1558,1581,1583,0,0,0,0,0,0,0,0,0,0
1684083946.19946408,66628338,1546,1547,1589,1590,0,0,0,0,0,0,0,0,0,0
1684083946.29942393,66728298,1542,1545,1593,1593,0,0,0,0,0,0,0,0,0,0
1684083946.39938402,66828258,1542,1546,1594,1593,0,0,0,0,0,0,0,0,0,0
1684083946.49934387,66928218,1547,1550,1594,1593,0,0,0,0,0,0,0,0,0,0
1684083946.59930396,67028178,1552,1554,1591,1591,0,0,0,0,0,0,0,0,0,0
1684083946.70009708,67128971,1557,1559,1588,1589,0,0,0,0,0,0,0,0,0,0
1684083946.80005693,67228931,1563,1563,1586,1586,0,0,0,0,0,0,0,0,0,0
1684083946.90001702,67328891,1569,1569,1583,1585,0,0,0,0,0,0,0,0,0,0
1684083946.99997687,67428851,1572,1572,1580,1581,0,0,0,0,0,0,0,0,0,0
1684083947.09993696,67528811,1576,1576,1579,1580,0,0,0,0,0,0,0,0,0,0
1684083947.19989705,67628771,1578,1578,1577,1576,0,0,0,0,0,0,0,0,0,0
1684083947.29985690,67728731,1582,1581,1577,1576,0,0,0,0,0,0,0,0,0,0
1684083947.39981699,67828691,1584,1584,1577,1576,0,0,0,0,0,0,0,0,0,0
1684083947.49977708,67928651,1584,1584,1575,1575,0,0,0,0,0,0,0,0,0,0
1684083947.59973693,68028611,1586,1585,1576,1575,0,0,0,0,0,0,0,0,0,0
1684083947.69969702,68128571,1586,1586,1577,1576,0,0,0,0,0,0,0,0,0,0
1684083947.79965687,68228531,1586,1586,1577,1577,0,0,0,0,0,0,0,0,0,0
1684083947.89961696,68328491,1584,1584,1577,1578,0,0,0,0,0,0,0,0,0,0
1684083947.99957705,68428451,1584,1582,1578,1578,0,0,0,0,0,0,0,0,0,0
1684083948.09953690,68528411,1584,1583,1579,1580,0,0,0,0,0,0,0,0,0,0
1684083948.19949698,68628371,1582,1581,1580,1580,0,0,0,0,0,0,0,0,0,0
1684083948.29945707,68728331,1581,1581,1582,1581,0,0,0,0,0,0,0,0,0,0
1684083948.39941692,68828291,1580,1581,1583,1582,0,0,0,0,0,0,0,0,0,0
1684083948.49937701,68928251,1578,1583,1588,1574,0,0,0,0,0,0,0,0,0,0
1684083948.59933710,69028211,1577,1584,1584,1573,0,0,0,0,0,0,0,0,0,0
1684083948.69929695,69128171,1577,1582,1575,1574,0,0,0,0,0,0,0,0,0,0
1684083948.80009007,69228964,1577,1579,1565,1571,0,0,0,0,0,0,0,0,0,0
1684083948.90004992,69328924,1578,1578,1560,1568,0,0,0,0,0,0,0,0,0,0
1684083949.00001001,69428884,1580,1579,1556,1562,0,0,0,0,0,0,0,0,0,0
1684083949.09997010,69528844,1582,1580,1553,1557,0,0,0,0,0,0,0,0,0,0
1684083949.19992995,69628804,1584,1581,1553,1553,0,0,0,0,0,0,0,0,0,0
1684083949.29989004,69728764,1584,1582,1554,1551,0,0,0,0,0,0,0,0,0,0
1684083949.39984989,69828724,1584,1583,1554,1551,0,0,0,0,0,0,0,0,0,0
1684083949.49980998,69928684,1580,1582,1553,1550,0,0,0,0,0,0,0,0,0,0
1684083949.59977007,70028644,1580,1582,1553,1552,0,0,0,0,0,0,0,0,0,0
1684083949.69972992,70128604,1580,1582,1552,1553,0,0,0,0,0,0,0,0,0,0
1684083949.79969001,70228564,1579,1581,1551,1552,0,0,0,0,0,0,0,0,0,0
1684083949.89965010,70328524,1579,1580,1550,1551,0,0,0,0,0,0,0,0,0,0
1684083949.99960995,70428484,1580,1581,1550,1550,0,0,0,0,0,0,0,0,0,0
1684083950.09957004,70528444,1583,1583,1549,1549,0,0,0,0,0,0,0,0,0,0
1684083950.19952989,70628404,1585,1586,1549,1548,0,0,0,0,0,0,0,0,0,0
1684083950.29948997,70728364,1586,1587,1545,1545,0,0,0,0,0,0,0,0,0,0
1684083950.39945006,70828324,1589,1591,1542,1543,0,0,0,0,0,0,0,0,0,0
1684083950.49940991,70928284,1592,1594,1541,1541,0,0,0,0,0,0,0,0,0,0
1684083950.59937000,71028244,1594,1594,1540,1541,0,0,0,0,0,0,0,0,0,0
1684083950.69933009,71128204,1594,1592,1540,1543,0,0,0,0,0,0,0,0,0,0
1684083950.79928994,71228164,1593,1590,1546,1548,0,0,0,0,0,0,0,0,0,0
1684083950.90008307,71328957,1588,1583,1552,1554,0,0,0,0,0,0,0,0,0,0
1684083951.00004292,71428917,1581,1576,1562,1563,0,0,0,0,0,0,0,0,0,0
1684083951.10000300,71528877,1572,1568,1573,1574,0,0,0,0,0,0,0,0,0,0
1684083951.19996309,71628837,1561,1558,1583,1584,0,0,0,0,0,0,0,0,0,0
1684083951.29992294,71728797,1553,1552,1594,1593,0,0,0,0,0,0,0,0,0,0
1684083951.39988303,71828757,1547,1547,1600,1599,0,0,0,0,0,0,0,0,0,0
1684083951.49984288,71928717,1544,1545,1604,1603,0,0,0,0,0,0,0,0,0,0
1684083951.59980297,72028677,1545,1546,1606,1606,0,0,0,0,0,0,0,0,0,0
1684083951.69976306,72128637,1546,1547,1605,1605,0,0,0,0,0,0,0,0,0,0
1684083951.79972291,72228597,1549,1550,1605,1603,0,0,0,0,0,0,0,0,0,0
1684083951.89968300,72328557,1553,1554,1602,1601,0,0,0,0,0,0,0,0,0,0
1684083951.99964309,72428517,1557,1558,1599,1598,0,0,0,0,0,0,0,0,0,0
1684083952.09960294,72528477,1562,1563,1595,1595,0,0,0,0,0,0,0,0,0,0
1684083952.19956303,72628437,1566,1567,1590,1591,0,0,0,0,0,0,0,0,0,0
1684083952.29952288,72728397,1571,1571,1587,1587,0,0,0,0,0,0,0,0,0,0
1684083952.39948297,72828357,1574,1574,1583,1583,0,0,0,0,0,0,0,0,0,0
1684083952.49944305,72928317,1578,1578,1579,1579,0,0,0,0,0,0,0,0,0,0
1684083952.59940290,73028277,1580,1579,1575,1575,0,0,0,0,0,0,0,0,0,0
1684083952.69936299,73128237,1583,1581,1573,1573,0,0,0,0,0,0,0,0,0,0
1684083952.79932308,73228197,1585,1584,1573,1573,0,0,0,0,0,0,0,0,0,0
1684083952.89928293,73328157,1585,1584,1572,1572,0,0,0,0,0,0,0,0,0,0
1684083953.00007606,73428950,1583,1582,1572,1572,0,0,0,0,0,0,0,0,0,0
1684083953.10003591,73528910,1582,1581,1573,1574,0,0,0,0,0,0,0,0,0,0
1684083953.19999599,73628870,1580,1579,1575,1575,0,0,0,0,0,0,0,0,0,0
1684083953.29995608,73728830,1578,1578,1577,1577,0,0,0,0,0,0,0,0,0,0
1684083953.39991593,73828790,1577,1577,1580,1580,0,0,0,0,0,0,0,0,0,0
1684083953.49987602,73928750,1576,1576,1581,1581,0,0,0,0,0,0,0,0,0,0
1684083953.59983587,74028710,1575,1575,1582,1582,0,0,0,0,0,0,0,0,0,0
1684083953.69979596,74128670,1575,1576,1583,1583,0,0,0,0,0,0,0,0,0,0
1684083953.79975605,74228630,1575,1575,1583,1583,0,0,0,0,0,0,0,0,0,0
1684083953.89971590,74328590,1575,1576,1583,1583,0,0,0,0,0,0,0,0,0,0
1684083953.99967599,74428550,1576,1577,1582,1582,0,0,0,0,0,0,0,0,0,0
1684083954.09963608,74528510,1577,1577,1581,1582,0,0,0,0,0,0,0,0,0,0
1684083954.19959593,74628470,1579,1579,1581,1581,0,0,0,0,0,0,0,0,0,0
1684083954.29955602,74728430,1580,1579,1580,1580,0,0,0,0,0,0,0,0,0,0
1684083954.39951587,74828390,1580,1580,1579,1579,0,0,0,0,0,0,0,0,0,0
1684083954.49947596,74928350,1580,1581,1579,1579,0,0,0,0,0,0,0,0,0,0
1684083954.59943604,75028310,1581,1581,1579,1579,0,0,0,0,0,0,0,0,0,0
1684083954.69939590,75128270,1581,1581,1579,1579,0,0,0,0,0,0,0,0,0,0
1684083954.79935598,75228230,1580,1581,1579,1578,0,0,0,0,0,0,0,0,0,0
1684083954.89931607,75328190,1580,1581,1579,1579,0,0,0,0,0,0,0,0,0,0
1684083955.00010896,75428983,1580,1581,1580,1579,0,0,0,0,0,0,0,0,0,0
1684083955.10006905,75528943,1581,1580,1580,1580,0,0,0,0,0,0,0,0,0,0
1684083955.20002890,75628903,1580,1580,1580,1580,0,0,0,0,0,0,0,0,0,0
1684083955.29998899,75728863,1581,1580,1581,1581,0,0,0,0,0,0,0,0,0,0
1684083955.39994907,75828823,1581,1580,1581,1581,0,0,0,0,0,0,0,0,0,0
1684083955.49990892,75928783,1580,1580,1581,1581,0,0,0,0,0,0,0,0,0,0
1684083955.59986901,76028743,1580,1581,1582,1581,0,0,0,0,0,0,0,0,0,0
1684083955.69982910,76128703,1579,1580,1581,1581,0,0,0,0,0,0,0,0,0,0
1684083955.79978895,76228663,1579,1580,1581,1580,0,0,0,0,0,0,0,0,0,0
1684083955.89974904,76328623,1579,1579,1580,1580,0,0,0,0,0,0,0,0,0,0
1684083955.99970889,76428583,1580,1580,1580,1581,0,0,0,0,0,0,0,0,0,0
1684083956.09966898,76528543,1581,1580,1580,1581,0,0,0,0,0,0,0,0,0,0
1684083956.19962907,76628503,1581,1581,1581,1580,0,0,0,0,0,0,0,0,0,0
1684083956.29958892,76728463,1581,1581,1580,1581,0,0,0,0,0,0,0,0,0,0
1684083956.39954901,76828423,1581,1582,1584,1577,0,0,0,0,0,0,0,0,0,0
1684083956.49950910,76928383,1578,1581,1585,1571,0,0,0,0,0,0,0,0,0,0
1684083956.59946895,77028343,1579,1582,1579,1572,0,0,0,0,0,0,0,0,0,0
1684083956.69942904,77128303,1576,1580,1570,1571,0,0,0,0,0,0,0,0,0,0
1684083956.79938889,77228263,1577,1579,1563,1569,0,0,0,0,0,0,0,0,0,0
1684083956.89934897,77328223,1577,1578,1557,1564,0,0,0,0,0,0,0,0,0,0
1684083956.99930906,77428183,1579,1578,1554,1559,0,0,0,0,0,0,0,0,0,0
1684083957.10010195,77528976,1580,1577,1554,1556,0,0,0,0,0,0,0,0,0,0
1684083957.20006204,77628936,1581,1579,1555,1554,0,0,0,0,0,0,0,0,0,0
1684083957.30002189,77728896,1579,1578,1555,1553,0,0,0,0,0,0,0,0,0,0
1684083957.39998198,77828856,1577,1578,1555,1552,0,0,0,0,0,0,0,0,0,0
1684083957.49994206,77928816,1576,1578,1556,1553,0,0,0,0,0,0,0,0,0,0
1684083957.59990191,78028776,1575,1577,1555,1554,0,0,0,0,0,0,0,0,0,0
1684083957.69986200,78128736,1574,1575,1552,1553,0,0,0,0,0,0,0,0,0,0
1684083957.79982209,78228696,1575,1577,1552,1553,0,0,0,0,0,0,0,0,0,0
1684083957.89978194,78328656,1576,1578,1551,1552,0,0,0,0,0,0,0,0,0,0
1684083957.99974203,78428616,1578,1578,1548,1549,0,0,0,0,0,0,0,0,0,0
1684083958.09970188,78528576,1580,1581,1547,1547,0,0,0,0,0,0,0,0,0,0
1684083958.19966197,78628536,1583,1584,1544,1544,0,0,0,0,0,0,0,0,0,0
1684083958.29962206,78728496,1586,1587,1543,1542,0,0,0,0,0,0,0,0,0,0
1684083958.39958191,78828456,1589,1590,1540,1540,0,0,0,0,0,0,0,0,0,0
1684083958.49954200,78928416,1592,1592,1538,1539,0,0,0,0,0,0,0,0,0,0
1684083958.59950209,79028376,1594,1594,1538,1538,0,0,0,0,0,0,0,0,0,0
1684083958.69946194,79128336,1596,1596,1537,1539,0,0,0,0,0,0,0,0,0,0
1684083958.79942203,79228296,1470,1471,1541,1543,0,0,0,0,0,0,0,0,0,0
1684083958.89938188,79328256,1517,1519,1569,1572,0,0,0,0,0,0,0,0,0,0
1684083958.99934196,79428216,1543,1543,1569,1570,0,0,0,0,0,0,0,0,0,0
1684083959.09930205,79528176,1566,1563,1568,1567,0,0,0,0,0,0,0,0,0,0
1684083959.20009494,79628969,1582,1577,1566,1566,0,0,0,0,0,0,0,0,0,0
1684083959.30005503,79728929,1590,1585,1568,1568,0,0,0,0,0,0,0,0,0,0
1684083959.40001488,79828889,1590,1586,1571,1573,0,0,0,0,0,0,0,0,0,0
1684083959.49997497,79928849,1587,1583,1576,1579,0,0,0,0,0,0,0,0,0,0
1684083959.59993505,80028809,1581,1580,1584,1586,0,0,0,0,0,0,0,0,0,0
1684083959.69989491,80128769,1573,1572,1589,1591,0,0,0,0,0,0,0,0,0,0
1684083959.79985499,80228729,1566,1567,1596,1597,0,0,0,0,0,0,0,0,0,0
1684083959.89981508,80328689,1559,1560,1601,1601,0,0,0,0,0,0,0,0,0,0
1684083959.99977493,80428649,1556,1557,1605,1604,0,0,0,0,0,0,0,0,0,0
1684083960.09973502,80528609,1555,1555,1606,1605,0,0,0,0,0,0,0,0,0,0
1684083960.19969487,80628569,1554,1556,1605,1603,0,0,0,0,0,0,0,0,0,0
1684083960.29965496,80728529,1556,1557,1602,1600,0,0,0,0,0,0,0,0,0,0
1684083960.39961505,80828489,1559,1561,1597,1595,0,0,0,0,0,0,0,0,0,0
1684083960.49957490,80928449,1564,1565,1591,1591,0,0,0,0,0,0,0,0,0,0
1684083960.59953499,81028409,1569,1569,1585,1585,0,0,0,0,0,0,0,0,0,0
1684083960.69949508,81128369,1573,1573,1579,1580,0,0,0,0,0,0,0,0,0,0
1684083960.79945493,81228329,1577,1577,1574,1575,0,0,0,0,0,0,0,0,0,0
1684083960.89941502,81328289,1581,1581,1572,1572,0,0,0,0,0,0,0,0,0,0
1684083960.99937487,81428249,1583,1582,1569,1569,0,0,0,0,0,0,0,0,0,0
1684083961.09933496,81528209,1583,1583,1569,1568,0,0,0,0,0,0,0,0,0,0
1684083961.19929504,81628169,1584,1583,1570,1569,0,0,0,0,0,0,0,0,0,0
1684083961.30008793,81728962,1582,1582,1571,1570,0,0,0,0,0,0,0,0,0,0
1684083961.40004802,81828922,1582,1581,1572,1573,0,0,0,0,0,0,0,0,0,0
1684083961.50000787,81928882,1580,1579,1574,1574,0,0,0,0,0,0,0,0,0,0
1684083961.59996796,82028842,1578,1578,1577,1577,0,0,0,0,0,0,0,0,0,0
1684083961.69992805,82128802,1577,1577,1579,1578,0,0,0,0,0,0,0,0,0,0
1684083961.79988790,82228762,1576,1576,1580,1580,0,0,0,0,0,0,0,0,0,0
1684083961.89984798,82328722,1575,1575,1581,1581,0,0,0,0,0,0,0,0,0,0
1684083961.99980807,82428682,1574,1575,1581,1582,0,0,0,0,0,0,0,0,0,0
1684083962.09976792,82528642,1575,1575,1582,1582,0,0,0,0,0,0,0,0,0,0
1684083962.19972801,82628602,1575,1576,1582,1582,0,0,0,0,0,0,0,0,0,0
1684083962.29968810,82728562,1577,1577,1582,1582,0,0,0,0,0,0,0,0,0,0
1684083962.39964795,82828522,1578,1578,1581,1581,0,0,0,0,0,0,0,0,0,0
1684083962.49960804,82928482,1579,1579,1581,1580,0,0,0,0,0,0,0,0,0,0
1684083962.59956789,83028442,1580,1580,1580,1580,0,0,0,0,0,0,0,0,0,0
1684083962.69952798,83128402,1580,1580,1579,1579,0,0,0,0,0,0,0,0,0,0
1684083962.79948807,83228362,1581,1581,1579,1579,0,0,0,0,0,0,0,0,0,0
1684083962.89944792,83328322,1581,1581,1578,1578,0,0,0,0,0,0,0,0,0,0
1684083962.99940801,83428282,1581,1581,1578,1578,0,0,0,0,0,0,0,0,0,0
1684083963.09936810,83528242,1582,1582,1579,1579,0,0,0,0,0,0,0,0,0,0
1684083963.19932795,83628202,1582,1581,1579,1579,0,0,0,0,0,0,0,0,0,0
1684083963.29928803,83728162,1581,1581,1579,1579,0,0,0,0,0,0,0,0,0,0
1684083963.40008092,83828955,1580,1580,1578,1578,0,0,0,0,0,0,0,0,0,0
1684083963.50004101,83928915,1579,1580,1579,1579,0,0,0,0,0,0,0,0,0,0
1684083963.60000110,84028875,1578,1579,1578,1579,0,0,0,0,0,0,0,0,0,0
1684083963.69996095,84128835,1579,1579,1579,1580,0,0,0,0,0,0,0,0,0,0
1684083963.79992104,84228795,1578,1579,1579,1580,0,0,0,0,0,0,0,0,0,0
1684083963.89988089,84328755,1579,1578,1580,1580,0,0,0,0,0,0,0,0,0,0
1684083963.99984097,84428715,1579,1579,1580,1580,0,0,0,0,0,0,0,0,0,0
1684083964.09980106,84528675,1579,1580,1581,1580,0,0,0,0,0,0,0,0,0,0
1684083964.19976091,84628635,1580,1581,1581,1581,0,0,0,0,0,0,0,0,0,0
1684083964.29972100,84728595,1581,1581,1584,1577,0,0,0,0,0,0,0,0,0,0
1684083964.39968109,84828555,1581,1581,1588,1573,0,0,0,0,0,0,0,0,0,0
1684083964.49964094,84928515,1580,1579,1583,1575,0,0,0,0,0,0,0,0,0,0
1684083964.59960103,85028475,1576,1575,1575,1575,0,0,0,0,0,0,0,0,0,0
1684083964.69956088,85128435,1574,1573,1569,1575,0,0,0,0,0,0,0,0,0,0
1684083964.79952097,85228395,1570,1570,1565,1573,0,0,0,0,0,0,0,0,0,0
1684083964.89948106,85328355,1568,1568,1565,1570,0,0,0,0,0,0,0,0,0,0
1684083964.99944091,85428315,1567,1568,1566,1568,0,0,0,0,0,0,0,0,0,0
1684083965.09940100,85528275,1566,1567,1566,1566,0,0,0,0,0,0,0,0,0,0
1684083965.19936109,85628235,1566,1566,1567,1565,0,0,0,0,0,0,0,0,0,0
1684083965.29932094,85728195,1565,1565,1566,1564,0,0,0,0,0,0,0,0,0,0
1684083965.39928102,85828155,1564,1564,1565,1563,0,0,0,0,0,0,0,0,0,0
1684083965.50007391,85928948,1564,1563,1564,1563,0,0,0,0,0,0,0,0,0,0
1684083965.60003400,86028908,1564,1563,1564,1564,0,0,0,0,0,0,0,0,0,0
1684083965.69999409,86128868,1561,1561,1561,1562,0,0,0,0,0,0,0,0,0,0
1684083965.79995394,86228828,1561,1561,1562,1562,0,0,0,0,0,0,0,0,0,0
1684083965.89991403,86328788,1561,1562,1562,1562,0,0,0,0,0,0,0,0,0,0
1684083965.99987388,86428748,1560,1561,1560,1560,0,0,0,0,0,0,0,0,0,0
1684083966.09983397,86528708,1560,1561,1561,1560,0,0,0,0,0,0,0,0,0,0
1684083966.19979405,86628668,1559,1559,1560,1559,0,0,0,0,0,0,0,0,0,0
1684083966.29975390,86728628,1559,1559,1559,1558,0,0,0,0,0,0,0,0,0,0
1684083966.39971399,86828588,1558,1558,1558,1558,0,0,0,0,0,0,0,0,0,0
1684083966.49967408,86928548,1557,1557,1557,1557,0,0,0,0,0,0,0,0,0,0
1684083966.59963393,87028508,1557,1557,1557,1557,0,0,0,0,0,0,0,0,0,0
1684083966.69959402,87128468,1558,1558,1558,1557,0,0,0,0,0,0,0,0,0,0
1684083966.79955387,87228428,1558,1558,1559,1557,0,0,0,0,0,0,0,0,0,0
1684083966.89951396,87328388,1558,1557,1559,1557,0,0,0,0,0,0,0,0,0,0
1684083966.99947405,87428348,1558,1557,1559,1556,0,0,0,0,0,0,0,0,0,0
1684083967.09943390,87528308,1556,1555,1557,1555,0,0,0,0,0,0,0,0,0,0
1684083967.19939399,87628268,1557,1557,1556,1559,0,0,0,0,0,0,0,0,0,0
1684083967.29935408,87728228,1556,1557,1553,1560,0,0,0,0,0,0,0,0,0,0
1684083967.39931393,87828188,1553,1554,1550,1557,0,0,0,0,0,0,0,0,0,0
1684083967.50010705,87928981,1549,1550,1546,1552,0,0,0,0,0,0,0,0,0,0
1684083967.60006690,88028941,1544,1545,1543,1545,0,0,0,0,0,0,0,0,0,0
1684083967.70002699,88128901,1538,1538,1537,1538,0,0,0,0,0,0,0,0,0,0
1684083967.79998708,88228861,1530,1530,1531,1529,0,0,0,0,0,0,0,0,0,0
1684083967.89994693,88328821,1524,1524,1524,1523,0,0,0,0,0,0,0,0,0,0
1684083967.99990702,88428781,1521,1521,1521,1521,0,0,0,0,0,0,0,0,0,0
1684083968.09986687,88528741,1521,1520,1520,1521,0,0,0,0,0,0,0,0,0,0
1684083968.19982696,88628701,1521,1521,1520,1522,0,0,0,0,0,0,0,0,0,0
1684083968.29978704,88728661,1525,1525,1524,1526,0,0,0,0,0,0,0,0,0,0
1684083968.39974689,88828621,1528,1528,1527,1529,0,0,0,0,0,0,0,0,0,0
1684083968.49970698,88928581,1533,1533,1532,1533,0,0,0,0,0,0,0,0,0,0
1684083968.59966707,89028541,1538,1538,1537,1538,0,0,0,0,0,0,0,0,0,0
1684083968.69962692,89128501,1541,1541,1541,1541,0,0,0,0,0,0,0,0,0,0
1684083968.79958701,89228461,1542,1542,1542,1542,0,0,0,0,0,0,0,0,0,0
1684083968.89954710,89328421,1544,1544,1544,1544,0,0,0,0,0,0,0,0,0,0
1684083968.99950695,89428381,1545,1545,1546,1545,0,0,0,0,0,0,0,0,0,0
1684083969.09946704,89528341,1545,1545,1546,1545,0,0,0,0,0,0,0,0,0,0
1684083969.19942689,89628301,1546,1546,1546,1546,0,0,0,0,0,0,0,0,0,0
1684083969.29938698,89728261,1546,1546,1546,1546,0,0,0,0,0,0,0,0,0,0
1684083969.39934707,89828221,1546,1546,1546,1546,0,0,0,0,0,0,0,0,0,0
1684083969.49930692,89928181,1546,1545,1545,1545,0,0,0,0,0,0,0,0,0,0
1684083969.60010004,90028974,1546,1546,1546,1545,0,0,0,0,0,0,0,0,0,0
1684083969.70005989,90128934,1545,1545,1545,1545,0,0,0,0,0,0,0,0,0,0
1684083969.80001998,90228894,1545,1545,1545,1545,0,0,0,0,0,0,0,0,0,0
1684083969.89998007,90328854,1545,1545,1545,1545,0,0,0,0,0,0,0,0,0,0
1684083969.99993992,90428814,1544,1545,1545,1545,0,0,0,0,0,0,0,0,0,0
1684083970.09990001,90528774,1545,1545,1545,1545,0,0,0,0,0,0,0,0,0,0
1684083970.19986010,90628734,1545,1545,1545,1545,0,0,0,0,0,0,0,0,0,0
1684083970.29981995,90728694,1544,1544,1544,1544,0,0,0,0,0,0,0,0,0,0
1684083970.39978004,90828654,1544,1543,1543,1543,0,0,0,0,0,0,0,0,0,0
1684083970.49973989,90928614,1543,1543,1543,1543,0,0,0,0,0,0,0,0,0,0
1684083970.59969997,91028574,1544,1544,1544,1544,0,0,0,0,0,0,0,0,0,0
1684083970.69966006,91128534,1544,1544,1544,1544,0,0,0,0,0,0,0,0,0,0
1684083970.79961991,91228494,1544,1544,1544,1544,0,0,0,0,0,0,0,0,0,0
1684083970.89958000,91328454,1544,1544,1544,1544,0,0,0,0,0,0,0,0,0,0
1684083970.99954009,91428414,1544,1545,1544,1544,0,0,0,0,0,0,0,0,0,0
1684083971.09949994,91528374,1544,1544,1544,1544,0,0,0,0,0,0,0,0,0,0
1684083971.19946003,91628334,1544,1545,1544,1545,0,0,0,0,0,0,0,0,0,0
1684083971.29941988,91728294,1545,1544,1544,1544,0,0,0,0,0,0,0,0,0,0
1684083971.39937997,91828254,1544,1543,1543,1543,0,0,0,0,0,0,0,0,0,0
1684083971.49934006,91928214,1544,1543,1543,1544,0,0,0,0,0,0,0,0,0,0
1684083971.59929991,92028174,1544,1544,1544,1544,0,0,0,0,0,0,0,0,0,0
1684083971.70009303,92128967,1544,1544,1544,1544,0,0,0,0,0,0,0,0,0,0
1684083971.80005288,92228927,1543,1544,1544,1543,0,0,0,0,0,0,0,0,0,0
1684083971.90001297,92328887,1544,1544,1544,1544,0,0,0,0,0,0,0,0,0,0
1684083971.99997306,92428847,1543,1543,1543,1543,0,0,0,0,0,0,0,0,0,0
1684083972.09993291,92528807,1544,1543,1544,1543,0,0,0,0,0,0,0,0,0,0
1684083972.19989300,92628767,1544,1544,1544,1543,0,0,0,0,0,0,0,0,0,0
1684083972.29985309,92728727,1544,1544,1544,1544,0,0,0,0,0,0,0,0,0,0
1684083972.39981294,92828687,1544,1544,1544,1544,0,0,0,0,0,0,0,0,0,0
1684083972.49977303,92928647,1544,1543,1543,1544,0,0,0,0,0,0,0,0,0,0
1684083972.59973288,93028607,1543,1544,1543,1544,0,0,0,0,0,0,0,0,0,0
1684083972.69969296,93128567,1544,1544,1544,1544,0,0,0,0,0,0,0,0,0,0
1684083972.79965305,93228527,1544,1545,1544,1545,0,0,0,0,0,0,0,0,0,0
1684083972.89961290,93328487,1544,1544,1544,1544,0,0,0,0,0,0,0,0,0,0
1684083972.99957299,93428447,1544,1545,1544,1544,0,0,0,0,0,0,0,0,0,0
1684083973.09953308,93528407,1545,1544,1544,1544,0,0,0,0,0,0,0,0,0,0
1684083973.19949293,93628367,1545,1544,1544,1544,0,0,0,0,0,0,0,0,0,0
1684083973.29945302,93728327,1545,1544,1544,1545,0,0,0,0,0,0,0,0,0,0
1684083973.39941287,93828287,1545,1545,1545,1544,0,0,0,0,0,0,0,0,0,0
1684083973.49937296,93928247,1545,1544,1545,1545,0,0,0,0,0,0,0,0,0,0
1684083973.59933305,94028207,1544,1544,1544,1544,0,0,0,0,0,0,0,0,0,0
1684083973.69929290,94128167,1544,1544,1543,1544,0,0,0,0,0,0,0,0,0,0
1684083973.80008602,94228960,1544,1544,1544,1544,0,0,0,0,0,0,0,0,0,0
1684083973.90004587,94328920,1545,1545,1544,1545,0,0,0,0,0,0,0,0,0,0
1684083974.00000596,94428880,1545,1545,1545,1545,0,0,0,0,0,0,0,0,0,0
1684083974.09996605,94528840,1544,1544,1544,1544,0,0,0,0,0,0,0,0,0,0
1684083974.19992590,94628800,1544,1544,1544,1544,0,0,0,0,0,0,0,0,0,0
1684083974.29988599,94728760,1544,1544,1544,1544,0,0,0,0,0,0,0,0,0,0
1684083974.39984608,94828720,1544,1544,1544,1544,0,0,0,0,0,0,0,0,0,0
1684083974.49980593,94928680,1544,1543,1543,1544,0,0,0,0,0,0,0,0,0,0
1684083974.59976602,95028640,1544,1544,1544,1544,0,0,0,0,0,0,0,0,0,0
1684083974.69972587,95128600,1544,1544,1544,1544,0,0,0,0,0,0,0,0,0,0
1684083974.79968596,95228560,1543,1544,1544,1544,0,0,0,0,0,0,0,0,0,0
1684083974.89964604,95328520,1544,1544,1544,1544,0,0,0,0,0,0,0,0,0,0
1684083974.99960589,95428480,1545,1545,1545,1545,0,0,0,0,0,0,0,0,0,0
1684083975.09956598,95528440,1545,1544,1545,1545,0,0,0,0,0,0,0,0,0,0
1684083975.19952607,95628400,1544,1544,1544,1544,0,0,0,0,0,0,0,0,0,0
1684083975.29948592,95728360,1544,1544,1543,1544,0,0,0,0,0,0,0,0,0,0
1684083975.39944601,95828320,1544,1545,1544,1544,0,0,0,0,0,0,0,0,0,0
1684083975.49940610,95928280,1544,1544,1544,1544,0,0,0,0,0,0,0,0,0,0
1684083975.59936595,96028240,1544,1544,1544,1544,0,0,0,0,0,0,0,0,0,0
1684083975.69932604,96128200,1545,1544,1545,1544,0,0,0,0,0,0,0,0,0,0
1684083975.79928589,96228160,1544,1544,1544,1544,0,0,0,0,0,0,0,0,0,0
1684083975.90007901,96328953,1544,1545,1544,1544,0,0,0,0,0,0,0,0,0,0
1684083976.00003910,96428913,1544,1544,1544,1544,0,0,0,0,0,0,0,0,0,0
1684083976.09999895,96528873,1545,1544,1545,1545,0,0,0,0,0,0,0,0,0,0
1684083976.19995904,96628833,1545,1545,1545,1545,0,0,0,0,0,0,0,0,0,0
1684083976.29991889,96728793,1544,1544,1545,1544,0,0,0,0,0,0,0,0,0,0
1684083976.39987898,96828753,1543,1544,1544,1544,0,0,0,0,0,0,0,0,0,0
1684083976.49983907,96928713,1544,1544,1544,1544,0,0,0,0,0,0,0,0,0,0
1684083976.59979892,97028673,1544,1544,1544,1544,0,0,0,0,0,0,0,0,0,0
1684083976.69975901,97128633,1544,1544,1544,1544,0,0,0,0,0,0,0,0,0,0
1684083976.79971910,97228593,1544,1544,1544,1544,0,0,0,0,0,0,0,0,0,0
1684083976.89967895,97328553,1544,1544,1543,1544,0,0,0,0,0,0,0,0,0,0
1684083976.99963903,97428513,1544,1545,1544,1544,0,0,0,0,0,0,0,0,0,0
1684083977.09959888,97528473,1544,1544,1544,1544,0,0,0,0,0,0,0,0,0,0
1684083977.19955897,97628433,1545,1545,1545,1545,0,0,0,0,0,0,0,0,0,0
1684083977.29951906,97728393,1545,1544,1544,1545,0,0,0,0,0,0,0,0,0,0
1684083977.39947891,97828353,1545,1544,1545,1544,0,0,0,0,0,0,0,0,0,0
1684083977.49943900,97928313,1545,1545,1545,1545,0,0,0,0,0,0,0,0,0,0
1684083977.59939909,98028273,1545,1545,1545,1545,0,0,0,0,0,0,0,0,0,0
1684083977.69935894,98128233,1374,1372,1372,1373,0,0,0,0,0,0,0,0,0,0
1684083977.79931903,98228193,1257,1255,1255,1256,0,0,0,0,0,0,0,0,0,0
1684083977.90011191,98328986,1220,1216,1216,1217,0,0,0,0,0,0,0,0,0,0
1684083978.00007200,98428946,1201,1198,1197,1198,0,0,0,0,0,0,0,0,0,0
1684083978.10003209,98528906,1157,1154,1153,1155,0,0,0,0,0,0,0,0,0,0
1684083978.19999194,98628866,1154,1150,1150,1150,0,0,0,0,0,0,0,0,0,0
1684083978.29995203,98728826,1155,1150,1150,1151,0,0,0,0,0,0,0,0,0,0
1684083978.39991188,98828786,1184,1152,1150,1182,0,0,0,0,0,0,0,0,0,0
1684083978.49987197,98928746,1175,1151,1150,1172,0,0,0,0,0,0,0,0,0,0
1684083978.59983206,99028706,1173,1152,1150,1169,0,0,0,0,0,0,0,0,0,0
1684083978.69979191,99128666,1174,1152,1150,1170,0,0,0,0,0,0,0,0,0,0
1684083978.79975200,99228626,1176,1152,1150,1172,0,0,0,0,0,0,0,0,0,0
1684083978.89971209,99328586,1178,1152,1150,1173,0,0,0,0,0,0,0,0,0,0
1684083978.99967194,99428546,1180,1152,1150,1175,0,0,0,0,0,0,0,0,0,0
1684083979.09963202,99528506,1181,1152,1150,1176,0,0,0,0,0,0,0,0,0,0
1684083979.19959188,99628466,1169,1153,1150,1164,0,0,0,0,0,0,0,0,0,0
1684083979.29955196,99728426,1170,1153,1150,1165,0,0,0,0,0,0,0,0,0,0
1684083979.39951205,99828386,1171,1153,1150,1165,0,0,0,0,0,0,0,0,0,0
1684083979.49947190,99928346,1172,1154,1150,1166,0,0,0,0,0,0,0,0,0,0
1684083979.59943199,100028306,1173,1154,1150,1167,0,0,0,0,0,0,0,0,0,0
1684083979.69939208,100128266,1000,1000,1000,1000,0,0,0,0,0,0,0,0,0,0
1684083979.79935193,100228226,1000,1000,1000,1000,0,0,0,0,0,0,0,0,0,0
1684083979.89931202,100328186,1000,1000,1000,1000,0,0,0,0,0,0,0,0,0,0
1684083980.00010490,100428979,1000,1000,1000,1000,0,0,0,0,0,0,0,0,0,0
1684083980.10006499,100528939,1000,1000,1000,1000,0,0,0,0,0,0,0,0,0,0
1684083980.20002508,100628899,1000,1000,1000,1000,0,0,0,0,0,0,0,0,0,0
1684083980.29998493,100728859,1000,1000,1000,1000,0,0,0,0,0,0,0,0,0,0
1684083980.39994502,100828819,1000,1000,1000,1000,0,0,0,0,0,0,0,0,0,0
1684083980.49990487,100928779,1000,1000,1000,1000,0,0,0,0,0,0,0,0,0,0
1684083980.59986496,101028739,1000,1000,1000,1000,0,0,0,0,0,0,0,0,0,0
1684083980.69982505,101128699,1000,1000,1000,1000,0,0,0,0,0,0,0,0,0,0
1684083980.79978490,101228659,1000,1000,1000,1000,0,0,0,0,0,0,0,0,0,0
1684083980.89974499,101328619,1000,1000,1000,1000,0,0,0,0,0,0,0,0,0,0
1684083980.99970508,101428579,1000,1000,1000,1000,0,0,0,0,0,0,0,0,0,0
1684083981.09966493,101528539,1000,1000,1000,1000,0,0,0,0,0,0,0,0,0,0
1684083981.19962502,101628499,1000,1000,1000,1000,0,0,0,0,0,0,0,0,0,0
1684083981.29958487,101728459,1000,1000,1000,1000,0,0,0,0,0,0,0,0,0,0
1684083981.39954495,101828419,1000,1000,1000,1000,0,0,0,0,0,0,0,0,0,0
1684083981.49950504,101928379,1000,1000,1000,1000,0,0,0,0,0,0,0,0,0,0
1684083981.59946489,102028339,1000,1000,1000,1000,0,0,0,0,0,0,0,0,0,0
1684083981.69942498,102128299,1000,1000,1000,1000,0,0,0,0,0,0,0,0,0,0
1684083981.79938507,102228259,1000,1000,1000,1000,0,0,0,0,0,0,0,0,0,0
1684083981.89934492,102328219,1000,1000,1000,1000,0,0,0,0,0,0,0,0,0,0
1684083981.99930501,102428179,1000,1000,1000,1000,0,0,0,0,0,0,0,0,0,0
1684083982.10009789,102528972,1000,1000,1000,1000,0,0,0,0,0,0,0,0,0,0
1684083982.20005798,102628932,1000,1000,1000,1000,0,0,0,0,0,0,0,0,0,0
1684083982.30001807,102728892,1000,1000,1000,1000,0,0,0,0,0,0,0,0,0,0
1684083982.39997792,102828852,1000,1000,1000,1000,0,0,0,0,0,0,0,0,0,0
1684083982.49993801,102928812,1000,1000,1000,1000,0,0,0,0,0,0,0,0,0,0
1684083982.59989810,103028772,1000,1000,1000,1000,0,0,0,0,0,0,0,0,0,0
1684083982.69985795,103128732,1000,1000,1000,1000,0,0,0,0,0,0,0,0,0,0
1684083982.79981804,103228692,1000,1000,1000,1000,0,0,0,0,0,0,0,0,0,0
1684083982.89977789,103328652,1000,1000,1000,1000,0,0,0,0,0,0,0,0,0,0
1684083982.99973798,103428612,1000,1000,1000,1000,0,0,0,0,0,0,0,0,0,0
1684083983.09969807,103528572,1000,1000,1000,1000,0,0,0,0,0,0,0,0,0,0
1684083983.19965792,103628532,1000,1000,1000,1000,0,0,0,0,0,0,0,0,0,0
1684083983.29961801,103728492,1000,1000,1000,1000,0,0,0,0,0,0,0,0,0,0
1684083983.39957809,103828452,1000,1000,1000,1000,0,0,0,0,0,0,0,0,0,0
1684083983.49953794,103928412,1000,1000,1000,1000,0,0,0,0,0,0,0,0,0,0
1684083983.59949803,104028372,1000,1000,1000,1000,0,0,0,0,0,0,0,0,0,0
1684083983.69945788,104128332,1000,1000,1000,1000,0,0,0,0,0,0,0,0,0,0
1684083983.79941797,104228292,1000,1000,1000,1000,0,0,0,0,0,0,0,0,0,0
1684083983.89937806,104328252,1000,1000,1000,1000,0,0,0,0,0,0,0,0,0,0
1684083983.99933791,104428212,1000,1000,1000,1000,0,0,0,0,0,0,0,0,0,0
1684083984.09929800,104528172,1000,1000,1000,1000,0,0,0,0,0,0,0,0,0,0
1684083984.20009089,104628965,1000,1000,1000,1000,0,0,0,0,0,0,0,0,0,0
1684083984.30005097,104728925,1000,1000,1000,1000,0,0,0,0,0,0,0,0,0,0
1684083984.40001106,104828885,1000,1000,1000,1000,0,0,0,0,0,0,0,0,0,0
1684083984.49997091,104928845,1000,1000,1000,1000,0,0,0,0,0,0,0,0,0,0
1684083984.59993100,105028805,1000,1000,1000,1000,0,0,0,0,0,0,0,0,0,0
1684083984.69989109,105128765,1000,1000,1000,1000,0,0,0,0,0,0,0,0,0,0
1684083984.79985094,105228725,1000,1000,1000,1000,0,0,0,0,0,0,0,0,0,0
1684083984.89981103,105328685,1000,1000,1000,1000,0,0,0,0,0,0,0,0,0,0
1684083984.99977088,105428645,1000,1000,1000,1000,0,0,0,0,0,0,0,0,0,0
1684083985.09973097,105528605,1000,1000,1000,1000,0,0,0,0,0,0,0,0,0,0
1684083985.19969106,105628565,1000,1000,1000,1000,0,0,0,0,0,0,0,0,0,0
1684083985.29965091,105728525,1000,1000,1000,1000,0,0,0,0,0,0,0,0,0,0
1684083985.39961100,105828485,1000,1000,1000,1000,0,0,0,0,0,0,0,0,0,0
1684083985.49957108,105928445,1000,1000,1000,1000,0,0,0,0,0,0,0,0,0,0
1684083985.59953094,106028405,1000,1000,1000,1000,0,0,0,0,0,0,0,0,0,0
1684083985.69949102,106128365,1000,1000,1000,1000,0,0,0,0,0,0,0,0,0,0
1684083985.79945087,106228325,1000,1000,1000,1000,0,0,0,0,0,0,0,0,0,0
1684083985.89941096,106328285,1000,1000,1000,1000,0,0,0,0,0,0,0,0,0,0
1684083985.99937105,106428245,1000,1000,1000,1000,0,0,0,0,0,0,0,0,0,0
1684083986.09933090,106528205,1000,1000,1000,1000,0,0,0,0,0,0,0,0,0,0
1684083986.19929099,106628165,1000,1000,1000,1000,0,0,0,0,0,0,0,0,0,0
1684083986.30008388,106728958,1000,1000,1000,1000,0,0,0,0,0,0,0,0,0,0
1684083986.40004396,106828918,1000,1000,1000,1000,0,0,0,0,0,0,0,0,0,0
1684083986.50000405,106928878,1000,1000,1000,1000,0,0,0,0,0,0,0,0,0,0
1684083986.59996390,107028838,1000,1000,1000,1000,0,0,0,0,0,0,0,0,0,0
1684083986.69992399,107128798,1000,1000,1000,1000,0,0,0,0,0,0,0,0,0,0
1684083986.79988408,107228758,1000,1000,1000,1000,0,0,0,0,0,0,0,0,0,0
1684083986.89984393,107328718,1000,1000,1000,1000,0,0,0,0,0,0,0,0,0,0
1684083986.99980402,107428678,1000,1000,1000,1000,0,0,0,0,0,0,0,0,0,0
1684083987.09976387,107528638,1000,1000,1000,1000,0,0,0,0,0,0,0,0,0,0
1684083987.19972396,107628598,1000,1000,1000,1000,0,0,0,0,0,0,0,0,0,0
1684083987.29968405,107728558,1000,1000,1000,1000,0,0,0,0,0,0,0,0,0,0
1684083987.39964390,107828518,1000,1000,1000,1000,0,0,0,0,0,0,0,0,0,0
1684083987.49960399,107928478,1000,1000,1000,1000,0,0,0,0,0,0,0,0,0,0
1684083987.59956408,108028438,1000,1000,1000,1000,0,0,0,0,0,0,0,0,0,0
1684083987.69952393,108128398,1000,1000,1000,1000,0,0,0,0,0,0,0,0,0,0
1684083987.79948401,108228358,1000,1000,1000,1000,0,0,0,0,0,0,0,0,0,0
1684083987.89944410,108328318,1000,1000,1000,1000,0,0,0,0,0,0,0,0,0,0
1684083987.99940395,108428278,1000,1000,1000,1000,0,0,0,0,0,0,0,0,0,0
1684083988.09936404,108528238,1000,1000,1000,1000,0,0,0,0,0,0,0,0,0,0
1684083988.19932389,108628198,1000,1000,1000,1000,0,0,0,0,0,0,0,0,0,0
1684083988.29928398,108728158,1000,1000,1000,1000,0,0,0,0,0,0,0,0,0,0
1684083988.40007687,108828951,1000,1000,1000,1000,0,0,0,0,0,0,0,0,0,0
1684083988.50003695,108928911,1000,1000,1000,1000,0,0,0,0,0,0,0,0,0,0
1684083988.59999704,109028871,1000,1000,1000,1000,0,0,0,0,0,0,0,0,0,0
1684083988.69995689,109128831,1000,1000,1000,1000,0,0,0,0,0,0,0,0,0,0
1684083988.79991698,109228791,1000,1000,1000,1000,0,0,0,0,0,0,0,0,0,0
1684083988.89987707,109328751,1000,1000,1000,1000,0,0,0,0,0,0,0,0,0,0
1684083988.99983692,109428711,1000,1000,1000,1000,0,0,0,0,0,0,0,0,0,0
1684083989.09979701,109528671,1000,1000,1000,1000,0,0,0,0,0,0,0,0,0,0
1684083989.19975710,109628631,1000,1000,1000,1000,0,0,0,0,0,0,0,0,0,0
1684083989.29971695,109728591,1000,1000,1000,1000,0,0,0,0,0,0,0,0,0,0
1684083989.39967704,109828551,1000,1000,1000,1000,0,0,0,0,0,0,0,0,0,0
1684083989.49963689,109928511,1000,1000,1000,1000,0,0,0,0,0,0,0,0,0,0
1684083989.59959698,110028471,1000,1000,1000,1000,0,0,0,0,0,0,0,0,0,0
1684083989.69955707,110128431,1000,1000,1000,1000,0,0,0,0,0,0,0,0,0,0
1684083989.79951692,110228391,1000,1000,1000,1000,0,0,0,0,0,0,0,0,0,0
1684083989.89947701,110328351,1000,1000,1000,1000,0,0,0,0,0,0,0,0,0,0
1684083989.99943709,110428311,1000,1000,1000,1000,0,0,0,0,0,0,0,0,0,0
1684083990.09939694,110528271,1000,1000,1000,1000,0,0,0,0,0,0,0,0,0,0
1684083990.19935703,110628231,1000,1000,1000,1000,0,0,0,0,0,0,0,0,0,0
1684083990.29931688,110728191,1000,1000,1000,1000,0,0,0,0,0,0,0,0,0,0
1684083990.40011001,110828984,1000,1000,1000,1000,0,0,0,0,0,0,0,0,0,0
1684083990.50007010,110928944,1000,1000,1000,1000,0,0,0,0,0,0,0,0,0,0
1684083990.60002995,111028904,1000,1000,1000,1000,0,0,0,0,0,0,0,0,0,0
1684083990.69999003,111128864,1000,1000,1000,1000,0,0,0,0,0,0,0,0,0,0
1684083990.79994988,111228824,1000,1000,1000,1000,0,0,0,0,0,0,0,0,0,0
1684083990.89990997,111328784,1000,1000,1000,1000,0,0,0,0,0,0,0,0,0,0
1684083990.99987006,111428744,1000,1000,1000,1000,0,0,0,0,0,0,0,0,0,0
1684083991.09982991,111528704,1000,1000,1000,1000,0,0,0,0,0,0,0,0,0,0
1684083991.19979000,111628664,1000,1000,1000,1000,0,0,0,0,0,0,0,0,0,0
1684083991.29975009,111728624,1000,1000,1000,1000,0,0,0,0,0,0,0,0,0,0
1684083991.39970994,111828584,1000,1000,1000,1000,0,0,0,0,0,0,0,0,0,0
1684083991.49967003,111928544,1000,1000,1000,1000,0,0,0,0,0,0,0,0,0,0
1684083991.59962988,112028504,1000,1000,1000,1000,0,0,0,0,0,0,0,0,0,0
1684083991.69958997,112128464,1000,1000,1000,1000,0,0,0,0,0,0,0,0,0,0
1684083991.79955006,112228424,1000,1000,1000,1000,0,0,0,0,0,0,0,0,0,0
1684083991.89950991,112328384,1000,1000,1000,1000,0,0,0,0,0,0,0,0,0,0
1684083991.99947000,112428344,1000,1000,1000,1000,0,0,0,0,0,0,0,0,0,0
1684083992.09943008,112528304,1000,1000,1000,1000,0,0,0,0,0,0,0,0,0,0
1684083992.19938993,112628264,1000,1000,1000,1000,0,0,0,0,0,0,0,0,0,0
1684083992.29935002,112728224,1000,1000,1000,1000,0,0,0,0,0,0,0,0,0,0
1684083992.39930987,112828184,1000,1000,1000,1000,0,0,0,0,0,0,0,0,0,0
1684083992.50010300,112928977,1000,1000,1000,1000,0,0,0,0,0,0,0,0,0,0
1684083992.60006309,113028937,1000,1000,1000,1000,0,0,0,0,0,0,0,0,0,0
1684083992.70002294,113128897,1000,1000,1000,1000,0,0,0,0,0,0,0,0,0,0
1684083992.79998302,113228857,1000,1000,1000,1000,0,0,0,0,0,0,0,0,0,0
1684083992.89994287,113328817,1000,1000,1000,1000,0,0,0,0,0,0,0,0,0,0
1684083992.99990296,113428777,1000,1000,1000,1000,0,0,0,0,0,0,0,0,0,0
1684083993.09986305,113528737,1000,1000,1000,1000,0,0,0,0,0,0,0,0,0,0
1684083993.19982290,113628697,1000,1000,1000,1000,0,0,0,0,0,0,0,0,0,0
1684083993.29978299,113728657,1000,1000,1000,1000,0,0,0,0,0,0,0,0,0,0
1684083993.39974308,113828617,1000,1000,1000,1000,0,0,0,0,0,0,0,0,0,0
1684083993.49970293,113928577,1000,1000,1000,1000,0,0,0,0,0,0,0,0,0,0
1684083993.59966302,114028537,1000,1000,1000,1000,0,0,0,0,0,0,0,0,0,0
1684083993.69962287,114128497,1000,1000,1000,1000,0,0,0,0,0,0,0,0,0,0
1684083993.79958296,114228457,1000,1000,1000,1000,0,0,0,0,0,0,0,0,0,0
1684083993.89954305,114328417,1000,1000,1000,1000,0,0,0,0,0,0,0,0,0,0
1684083993.99950290,114428377,1000,1000,1000,1000,0,0,0,0,0,0,0,0,0,0
1684083994.09946299,114528337,1000,1000,1000,1000,0,0,0,0,0,0,0,0,0,0
1684083994.19942307,114628297,1000,1000,1000,1000,0,0,0,0,0,0,0,0,0,0
1684083994.29938293,114728257,1000,1000,1000,1000,0,0,0,0,0,0,0,0,0,0
1684083994.39934301,114828217,1000,1000,1000,1000,0,0,0,0,0,0,0,0,0,0
1684083994.49930310,114928177,1000,1000,1000,1000,0,0,0,0,0,0,0,0,0,0
1684083994.60009599,115028970,1000,1000,1000,1000,0,0,0,0,0,0,0,0,0,0
