timestamp,TimeUS,C1,C2,C3,C4,C5,C6,C7,C8,C9,C10,C11,C12,C13,C14
1683194256.30004025,69728764,1000,1000,1000,1000,0,0,0,0,0,0,0,0,0,0
1683194256.40000010,69828724,1000,1000,1000,1000,0,0,0,0,0,0,0,0,0,0
1683194256.49996018,69928684,1000,1000,1000,1000,0,0,0,0,0,0,0,0,0,0
1683194256.59992027,70028644,1000,1000,1000,1000,0,0,0,0,0,0,0,0,0,0
1683194256.69988012,70128604,1000,1000,1000,1000,0,0,0,0,0,0,0,0,0,0
1683194256.79984021,70228564,1000,1000,1000,1000,0,0,0,0,0,0,0,0,0,0
1683194256.89980030,70328524,1000,1000,1000,1000,0,0,0,0,0,0,0,0,0,0
1683194256.99976015,70428484,1000,1000,1000,1000,0,0,0,0,0,0,0,0,0,0
1683194257.09972024,70528444,1000,1000,1000,1000,0,0,0,0,0,0,0,0,0,0
1683194257.19968009,70628404,1000,1000,1000,1000,0,0,0,0,0,0,0,0,0,0
1683194257.29964018,70728364,1000,1000,1000,1000,0,0,0,0,0,0,0,0,0,0
1683194257.39960027,70828324,1000,1000,1000,1000,0,0,0,0,0,0,0,0,0,0
1683194257.49956012,70928284,1000,1000,1000,1000,0,0,0,0,0,0,0,0,0,0
1683194257.59952021,71028244,1000,1000,1000,1000,0,0,0,0,0,0,0,0,0,0
1683194257.69948030,71128204,1000,1000,1000,1000,0,0,0,0,0,0,0,0,0,0
1683194257.79944015,71228164,1000,1000,1000,1000,0,0,0,0,0,0,0,0,0,0
1683194257.90023327,71328957,1000,1000,1000,1000,0,0,0,0,0,0,0,0,0,0
1683194258.00019312,71428917,1000,1000,1000,1000,0,0,0,0,0,0,0,0,0,0
1683194258.10015321,71528877,1000,1000,1000,1000,0,0,0,0,0,0,0,0,0,0
1683194258.20011330,71628837,1000,1000,1000,1000,0,0,0,0,0,0,0,0,0,0
1683194258.30007315,71728797,1015,1015,1015,1015,0,0,0,0,0,0,0,0,0,0
1683194258.40003324,71828757,1045,1045,1045,1045,0,0,0,0,0,0,0,0,0,0
1683194258.49999309,71928717,1075,1075,1075,1075,0,0,0,0,0,0,0,0,0,0
1683194258.59995317,72028677,1105,1105,1105,1105,0,0,0,0,0,0,0,0,0,0
1683194258.69991326,72128637,1135,1135,1135,1135,0,0,0,0,0,0,0,0,0,0
1683194258.79987311,72228597,1295,1286,1287,1295,0,0,0,0,0,0,0,0,0,0
1683194258.89983320,72328557,1500,1493,1493,1500,0,0,0,0,0,0,0,0,0,0
1683194258.99979329,72428517,1660,1654,1654,1660,0,0,0,0,0,0,0,0,0,0
1683194259.09975314,72528477,1796,1790,1790,1797,0,0,0,0,0,0,0,0,0,0
1683194259.19971323,72628437,1910,1904,1904,1911,0,0,0,0,0,0,0,0,0,0
1683194259.29967308,72728397,1876,1872,1873,1876,0,0,0,0,0,0,0,0,0,0
1683194259.39963317,72828357,1747,1746,1747,1746,0,0,0,0,0,0,0,0,0,0
1683194259.49959326,72928317,1654,1657,1656,1655,0,0,0,0,0,0,0,0,0,0
1683194259.59955311,73028277,1628,1632,1632,1629,0,0,0,0,0,0,0,0,0,0
1683194259.69951320,73128237,1633,1636,1636,1633,0,0,0,0,0,0,0,0,0,0
1683194259.79947329,73228197,1641,1642,1642,1641,0,0,0,0,0,0,0,0,0,0
1683194259.89943314,73328157,1641,1633,1633,1641,0,0,0,0,0,0,0,0,0,0
1683194260.00022626,73428950,1618,1618,1609,1626,0,0,0,0,0,0,0,0,0,0
1683194260.10018611,73528910,1609,1609,1601,1616,0,0,0,0,0,0,0,0,0,0
1683194260.20014620,73628870,1605,1605,1602,1607,0,0,0,0,0,0,0,0,0,0
1683194260.30010629,73728830,1606,1606,1607,1604,0,0,0,0,0,0,0,0,0,0
1683194260.40006614,73828790,1611,1610,1614,1607,0,0,0,0,0,0,0,0,0,0
1683194260.50002623,73928750,1611,1611,1616,1606,0,0,0,0,0,0,0,0,0,0
1683194260.59998608,74028710,1582,1582,1599,1565,0,0,0,0,0,0,0,0,0,0
1683194260.69994617,74128670,1570,1569,1582,1558,0,0,0,0,0,0,0,0,0,0
1683194260.79990625,74228630,1558,1558,1560,1557,0,0,0,0,0,0,0,0,0,0
1683194260.89986610,74328590,1549,1550,1542,1558,0,0,0,0,0,0,0,0,0,0
1683194260.99982619,74428550,1541,1540,1528,1554,0,0,0,0,0,0,0,0,0,0
1683194261.09978628,74528510,1536,1535,1524,1547,0,0,0,0,0,0,0,0,0,0
1683194261.19974613,74628470,1530,1530,1523,1536,0,0,0,0,0,0,0,0,0,0
1683194261.29970622,74728430,1527,1526,1524,1528,0,0,0,0,0,0,0,0,0,0
1683194261.39966607,74828390,1526,1526,1528,1524,0,0,0,0,0,0,0,0,0,0
1683194261.49962616,74928350,1529,1529,1531,1526,0,0,0,0,0,0,0,0,0,0
1683194261.59958625,75028310,1532,1532,1535,1528,0,0,0,0,0,0,0,0,0,0
1683194261.69954610,75128270,1536,1536,1540,1533,0,0,0,0,0,0,0,0,0,0
1683194261.79950619,75228230,1540,1540,1542,1537,0,0,0,0,0,0,0,0,0,0
1683194261.89946628,75328190,1543,1543,1545,1542,0,0,0,0,0,0,0,0,0,0
1683194262.00025916,75428983,1545,1545,1546,1545,0,0,0,0,0,0,0,0,0,0
1683194262.10021925,75528943,1549,1549,1548,1550,0,0,0,0,0,0,0,0,0,0
1683194262.20017910,75628903,1552,1552,1551,1554,0,0,0,0,0,0,0,0,0,0
1683194262.30013919,75728863,1554,1554,1553,1556,0,0,0,0,0,0,0,0,0,0
1683194262.40009928,75828823,1556,1556,1555,1557,0,0,0,0,0,0,0,0,0,0
1683194262.50005913,75928783,1558,1558,1560,1561,0,0,0,0,0,0,0,0,0,0
1683194262.60001922,76028743,1558,1559,1562,1562,0,0,0,0,0,0,0,0,0,0
1683194262.69997931,76128703,1561,1561,1566,1565,0,0,0,0,0,0,0,0,0,0
1683194262.79993916,76228663,1562,1562,1566,1566,0,0,0,0,0,0,0,0,0,0
1683194262.89989924,76328623,1563,1564,1567,1567,0,0,0,0,0,0,0,0,0,0
1683194262.99985909,76428583,1566,1566,1569,1568,0,0,0,0,0,0,0,0,0,0
1683194263.09981918,76528543,1568,1568,1568,1568,0,0,0,0,0,0,0,0,0,0
1683194263.19977927,76628503,1569,1569,1568,1569,0,0,0,0,0,0,0,0,0,0
1683194263.29973912,76728463,1571,1571,1569,1569,0,0,0,0,0,0,0,0,0,0
1683194263.39969921,76828423,1573,1572,1570,1570,0,0,0,0,0,0,0,0,0,0
1683194263.49965930,76928383,1573,1572,1569,1570,0,0,0,0,0,0,0,0,0,0
1683194263.59961915,77028343,1574,1574,1571,1571,0,0,0,0,0,0,0,0,0,0
1683194263.69957924,77128303,1574,1574,1572,1571,0,0,0,0,0,0,0,0,0,0
1683194263.79953909,77228263,1574,1575,1573,1571,0,0,0,0,0,0,0,0,0,0
1683194263.89949918,77328223,1575,1575,1574,1572,0,0,0,0,0,0,0,0,0,0
1683194263.99945927,77428183,1576,1576,1576,1574,0,0,0,0,0,0,0,0,0,0
1683194264.10025215,77528976,1576,1576,1575,1575,0,0,0,0,0,0,0,0,0,0
1683194264.20021224,77628936,1575,1575,1575,1575,0,0,0,0,0,0,0,0,0,0
1683194264.30017209,77728896,1575,1575,1575,1575,0,0,0,0,0,0,0,0,0,0
1683194264.40013218,77828856,1575,1575,1575,1576,0,0,0,0,0,0,0,0,0,0
1683194264.50009227,77928816,1575,1576,1576,1576,0,0,0,0,0,0,0,0,0,0
1683194264.60005212,78028776,1575,1576,1577,1577,0,0,0,0,0,0,0,0,0,0
1683194264.70001221,78128736,1576,1576,1577,1577,0,0,0,0,0,0,0,0,0,0
1683194264.79997230,78228696,1577,1576,1577,1577,0,0,0,0,0,0,0,0,0,0
1683194264.89993215,78328656,1577,1577,1578,1577,0,0,0,0,0,0,0,0,0,0
1683194264.99989223,78428616,1577,1577,1578,1577,0,0,0,0,0,0,0,0,0,0
1683194265.09985209,78528576,1578,1578,1578,1578,0,0,0,0,0,0,0,0,0,0
1683194265.19981217,78628536,1577,1577,1576,1577,0,0,0,0,0,0,0,0,0,0
1683194265.29977226,78728496,1578,1578,1578,1578,0,0,0,0,0,0,0,0,0,0
1683194265.39973211,78828456,1577,1578,1577,1578,0,0,0,0,0,0,0,0,0,0
1683194265.49969220,78928416,1577,1578,1577,1577,0,0,0,0,0,0,0,0,0,0
1683194265.59965229,79028376,1578,1579,1579,1578,0,0,0,0,0,0,0,0,0,0
1683194265.69961214,79128336,1578,1577,1577,1577,0,0,0,0,0,0,0,0,0,0
1683194265.79957223,79228296,1579,1579,1579,1578,0,0,0,0,0,0,0,0,0,0
1683194265.89953208,79328256,1580,1579,1580,1579,0,0,0,0,0,0,0,0,0,0
1683194265.99949217,79428216,1580,1580,1581,1580,0,0,0,0,0,0,0,0,0,0
1683194266.09945226,79528176,1579,1579,1579,1580,0,0,0,0,0,0,0,0,0,0
1683194266.20024514,79628969,1580,1580,1580,1580,0,0,0,0,0,0,0,0,0,0
1683194266.30020523,79728929,1580,1580,1580,1580,0,0,0,0,0,0,0,0,0,0
1683194266.40016508,79828889,1580,1580,1580,1581,0,0,0,0,0,0,0,0,0,0
1683194266.50012517,79928849,1580,1579,1579,1580,0,0,0,0,0,0,0,0,0,0
1683194266.60008526,80028809,1580,1579,1579,1580,0,0,0,0,0,0,0,0,0,0
1683194266.70004511,80128769,1580,1579,1579,1580,0,0,0,0,0,0,0,0,0,0
1683194266.80000520,80228729,1580,1580,1580,1580,0,0,0,0,0,0,0,0,0,0
1683194266.89996529,80328689,1580,1580,1580,1580,0,0,0,0,0,0,0,0,0,0
1683194266.99992514,80428649,1580,1580,1580,1580,0,0,0,0,0,0,0,0,0,0
1683194267.09988523,80528609,1580,1581,1581,1581,0,0,0,0,0,0,0,0,0,0
1683194267.19984508,80628569,1580,1580,1580,1580,0,0,0,0,0,0,0,0,0,0
1683194267.29980516,80728529,1580,1580,1580,1580,0,0,0,0,0,0,0,0,0,0
1683194267.39976525,80828489,1580,1580,1580,1580,0,0,0,0,0,0,0,0,0,0
1683194267.49972510,80928449,1580,1581,1580,1581,0,0,0,0,0,0,0,0,0,0
1683194267.59968519,81028409,1580,1580,1580,1580,0,0,0,0,0,0,0,0,0,0
1683194267.69964528,81128369,1581,1581,1581,1581,0,0,0,0,0,0,0,0,0,0
1683194267.79960513,81228329,1580,1580,1580,1580,0,0,0,0,0,0,0,0,0,0
1683194267.89956522,81328289,1581,1580,1580,1581,0,0,0,0,0,0,0,0,0,0
1683194267.99952507,81428249,1581,1580,1580,1580,0,0,0,0,0,0,0,0,0,0
1683194268.09948516,81528209,1580,1580,1580,1580,0,0,0,0,0,0,0,0,0,0
1683194268.19944525,81628169,1582,1582,1582,1582,0,0,0,0,0,0,0,0,0,0
1683194268.30023813,81728962,1580,1581,1581,1580,0,0,0,0,0,0,0,0,0,0
1683194268.40019822,81828922,1580,1581,1581,1581,0,0,0,0,0,0,0,0,0,0
1683194268.50015807,81928882,1581,1580,1580,1580,0,0,0,0,0,0,0,0,0,0
1683194268.60011816,82028842,1580,1581,1587,1574,0,0,0,0,0,0,0,0,0,0
1683194268.70007825,82128802,1581,1583,1587,1574,0,0,0,0,0,0,0,0,0,0
1683194268.80003810,82228762,1579,1581,1578,1573,0,0,0,0,0,0,0,0,0,0
1683194268.89999819,82328722,1577,1581,1569,1573,0,0,0,0,0,0,0,0,0,0
1683194268.99995828,82428682,1576,1579,1561,1569,0,0,0,0,0,0,0,0,0,0
1683194269.09991813,82528642,1577,1578,1557,1564,0,0,0,0,0,0,0,0,0,0
1683194269.19987822,82628602,1578,1577,1554,1558,0,0,0,0,0,0,0,0,0,0
1683194269.29983830,82728562,1580,1578,1556,1556,0,0,0,0,0,0,0,0,0,0
1683194269.39979815,82828522,1579,1577,1556,1553,0,0,0,0,0,0,0,0,0,0
1683194269.49975824,82928482,1579,1578,1556,1554,0,0,0,0,0,0,0,0,0,0
1683194269.59971809,83028442,1577,1578,1556,1554,0,0,0,0,0,0,0,0,0,0
1683194269.69967818,83128402,1577,1578,1556,1555,0,0,0,0,0,0,0,0,0,0
1683194269.79963827,83228362,1575,1577,1554,1554,0,0,0,0,0,0,0,0,0,0
1683194269.89959812,83328322,1575,1577,1554,1553,0,0,0,0,0,0,0,0,0,0
1683194269.99955821,83428282,1575,1577,1552,1552,0,0,0,0,0,0,0,0,0,0
1683194270.09951830,83528242,1577,1578,1550,1551,0,0,0,0,0,0,0,0,0,0
1683194270.19947815,83628202,1579,1580,1549,1548,0,0,0,0,0,0,0,0,0,0
1683194270.29943824,83728162,1581,1582,1546,1546,0,0,0,0,0,0,0,0,0,0
1683194270.40023112,83828955,1584,1585,1544,1543,0,0,0,0,0,0,0,0,0,0
1683194270.50019121,83928915,1587,1587,1540,1540,0,0,0,0,0,0,0,0,0,0
1683194270.60015130,84028875,1590,1590,1537,1538,0,0,0,0,0,0,0,0,0,0
1683194270.70011115,84128835,1593,1593,1536,1536,0,0,0,0,0,0,0,0,0,0
1683194270.80007124,84228795,1594,1594,1534,1534,0,0,0,0,0,0,0,0,0,0
1683194270.90003109,84328755,1594,1594,1534,1535,0,0,0,0,0,0,0,0,0,0
1683194270.99999118,84428715,1593,1594,1535,1537,0,0,0,0,0,0,0,0,0,0
1683194271.09995127,84528675,1593,1592,1539,1541,0,0,0,0,0,0,0,0,0,0
1683194271.19991112,84628635,1589,1587,1543,1546,0,0,0,0,0,0,0,0,0,0
1683194271.29987121,84728595,1583,1580,1551,1554,0,0,0,0,0,0,0,0,0,0
1683194271.39983130,84828555,1575,1572,1561,1564,0,0,0,0,0,0,0,0,0,0
1683194271.49979115,84928515,1565,1561,1572,1575,0,0,0,0,0,0,0,0,0,0
1683194271.59975123,85028475,1554,1551,1586,1587,0,0,0,0,0,0,0,0,0,0
1683194271.69971108,85128435,1544,1542,1598,1598,0,0,0,0,0,0,0,0,0,0
1683194271.79967117,85228395,1536,1535,1607,1606,0,0,0,0,0,0,0,0,0,0
1683194271.89963126,85328355,1530,1531,1613,1612,0,0,0,0,0,0,0,0,0,0
1683194271.99959111,85428315,1529,1531,1616,1615,0,0,0,0,0,0,0,0,0,0
1683194272.09955120,85528275,1532,1535,1616,1615,0,0,0,0,0,0,0,0,0,0
1683194272.19951129,85628235,1537,1539,1611,1610,0,0,0,0,0,0,0,0,0,0
1683194272.29947114,85728195,1544,1546,1604,1605,0,0,0,0,0,0,0,0,0,0
1683194272.39943123,85828155,1553,1555,1598,1598,0,0,0,0,0,0,0,0,0,0
1683194272.50022411,85928948,1561,1562,1589,1589,0,0,0,0,0,0,0,0,0,0
1683194272.60018420,86028908,1570,1570,1582,1582,0,0,0,0,0,0,0,0,0,0
1683194272.70014429,86128868,1577,1576,1575,1575,0,0,0,0,0,0,0,0,0,0
1683194272.80010414,86228828,1582,1581,1570,1569,0,0,0,0,0,0,0,0,0,0
1683194272.90006423,86328788,1585,1584,1567,1566,0,0,0,0,0,0,0,0,0,0
1683194273.00002408,86428748,1587,1586,1566,1566,0,0,0,0,0,0,0,0,0,0
1683194273.09998417,86528708,1587,1586,1566,1566,0,0,0,0,0,0,0,0,0,0
1683194273.19994426,86628668,1586,1585,1567,1567,0,0,0,0,0,0,0,0,0,0
1683194273.29990411,86728628,1405,1408,1619,1626,0,0,0,0,0,0,0,0,0,0
1683194273.39986420,86828588,1457,1464,1626,1628,0,0,0,0,0,0,0,0,0,0
1683194273.49982429,86928548,1506,1513,1618,1614,0,0,0,0,0,0,0,0,0,0
1683194273.59978414,87028508,1546,1551,1609,1601,0,0,0,0,0,0,0,0,0,0
1683194273.69974422,87128468,1577,1578,1600,1594,0,0,0,0,0,0,0,0,0,0
1683194273.79970407,87228428,1599,1595,1593,1590,0,0,0,0,0,0,0,0,0,0
1683194273.89966416,87328388,1616,1608,1587,1587,0,0,0,0,0,0,0,0,0,0
1683194273.99962425,87428348,1636,1628,1565,1569,0,0,0,0,0,0,0,0,0,0
1683194274.09958410,87528308,1656,1650,1541,1547,0,0,0,0,0,0,0,0,0,0
1683194274.19954419,87628268,1660,1656,1534,1542,0,0,0,0,0,0,0,0,0,0
1683194274.29950428,87728228,1651,1651,1541,1547,0,0,0,0,0,0,0,0,0,0
1683194274.39946413,87828188,1639,1643,1549,1551,0,0,0,0,0,0,0,0,0,0
1683194274.50025725,87928981,1629,1635,1557,1556,0,0,0,0,0,0,0,0,0,0
1683194274.60021710,88028941,1622,1626,1563,1560,0,0,0,0,0,0,0,0,0,0
1683194274.70017719,88128901,1618,1619,1568,1564,0,0,0,0,0,0,0,0,0,0
1683194274.80013728,88228861,1613,1612,1569,1566,0,0,0,0,0,0,0,0,0,0
1683194274.90009713,88328821,1608,1602,1572,1572,0,0,0,0,0,0,0,0,0,0
1683194275.00005722,88428781,1594,1587,1585,1585,0,0,0,0,0,0,0,0,0,0
1683194275.10001707,88528741,1576,1571,1598,1600,0,0,0,0,0,0,0,0,0,0
1683194275.19997716,88628701,1560,1559,1608,1610,0,0,0,0,0,0,0,0,0,0
1683194275.29993725,88728661,1550,1554,1610,1611,0,0,0,0,0,0,0,0,0,0
1683194275.39989710,88828621,1547,1553,1608,1609,0,0,0,0,0,0,0,0,0,0
1683194275.49985719,88928581,1548,1555,1605,1603,0,0,0,0,0,0,0,0,0,0
1683194275.59981728,89028541,1552,1558,1600,1597,0,0,0,0,0,0,0,0,0,0
1683194275.69977713,89128501,1559,1562,1596,1592,0,0,0,0,0,0,0,0,0,0
1683194275.79973722,89228461,1566,1567,1591,1588,0,0,0,0,0,0,0,0,0,0
1683194275.89969730,89328421,1572,1570,1586,1584,0,0,0,0,0,0,0,0,0,0
1683194275.99965715,89428381,1576,1573,1581,1581,0,0,0,0,0,0,0,0,0,0
1683194276.09961724,89528341,1581,1578,1574,1575,0,0,0,0,0,0,0,0,0,0
1683194276.19957709,89628301,1588,1586,1567,1569,0,0,0,0,0,0,0,0,0,0
1683194276.29953718,89728261,1593,1592,1562,1563,0,0,0,0,0,0,0,0,0,0
1683194276.39949727,89828221,1596,1597,1559,1560,0,0,0,0,0,0,0,0,0,0
1683194276.49945712,89928181,1599,1598,1560,1560,0,0,0,0,0,0,0,0,0,0
1683194276.60025024,90028974,1599,1597,1568,1559,0,0,0,0,0,0,0,0,0,0
1683194276.70021009,90128934,1596,1590,1571,1560,0,0,0,0,0,0,0,0,0,0
1683194276.80017018,90228894,1592,1585,1570,1567,0,0,0,0,0,0,0,0,0,0
1683194276.90013027,90328854,1584,1580,1567,1571,0,0,0,0,0,0,0,0,0,0
1683194277.00009012,90428814,1575,1577,1565,1571,0,0,0,0,0,0,0,0,0,0
1683194277.10005021,90528774,1569,1574,1566,1570,0,0,0,0,0,0,0,0,0,0
1683194277.20001030,90628734,1567,1572,1567,1567,0,0,0,0,0,0,0,0,0,0
1683194277.29997015,90728694,1566,1571,1566,1565,0,0,0,0,0,0,0,0,0,0
1683194277.39993024,90828654,1567,1570,1565,1562,0,0,0,0,0,0,0,0,0,0
1683194277.49989009,90928614,1569,1570,1563,1559,0,0,0,0,0,0,0,0,0,0
1683194277.59985018,91028574,1570,1570,1560,1558,0,0,0,0,0,0,0,0,0,0
1683194277.69981027,91128534,1571,1569,1555,1554,0,0,0,0,0,0,0,0,0,0
1683194277.79977012,91228494,1572,1571,1552,1552,0,0,0,0,0,0,0,0,0,0
1683194277.89973021,91328454,1574,1573,1548,1549,0,0,0,0,0,0,0,0,0,0
1683194277.99969029,91428414,1575,1576,1544,1545,0,0,0,0,0,0,0,0,0,0
1683194278.09965014,91528374,1576,1578,1541,1541,0,0,0,0,0,0,0,0,0,0
1683194278.19961023,91628334,1579,1581,1538,1537,0,0,0,0,0,0,0,0,0,0
1683194278.29957008,91728294,1581,1583,1535,1534,0,0,0,0,0,0,0,0,0,0
1683194278.39953017,91828254,1584,1586,1533,1532,0,0,0,0,0,0,0,0,0,0
1683194278.49949026,91928214,1588,1588,1532,1531,0,0,0,0,0,0,0,0,0,0
1683194278.59945011,92028174,1590,1590,1531,1531,0,0,0,0,0,0,0,0,0,0
1683194278.70024323,92128967,1591,1591,1531,1531,0,0,0,0,0,0,0,0,0,0
1683194278.80020308,92228927,1592,1592,1533,1534,0,0,0,0,0,0,0,0,0,0
1683194278.90016317,92328887,1592,1591,1535,1536,0,0,0,0,0,0,0,0,0,0
1683194279.00012326,92428847,1590,1590,1537,1540,0,0,0,0,0,0,0,0,0,0
1683194279.10008311,92528807,1588,1587,1542,1546,0,0,0,0,0,0,0,0,0,0
1683194279.20004320,92628767,1583,1583,1548,1551,0,0,0,0,0,0,0,0,0,0
1683194279.30000329,92728727,1578,1577,1554,1557,0,0,0,0,0,0,0,0,0,0
1683194279.39996314,92828687,1574,1572,1561,1564,0,0,0,0,0,0,0,0,0,0
1683194279.49992323,92928647,1568,1565,1568,1570,0,0,0,0,0,0,0,0,0,0
1683194279.59988308,93028607,1561,1559,1573,1576,0,0,0,0,0,0,0,0,0,0
1683194279.69984317,93128567,1555,1554,1578,1581,0,0,0,0,0,0,0,0,0,0
1683194279.79980326,93228527,1550,1550,1584,1585,0,0,0,0,0,0,0,0,0,0
1683194279.89976311,93328487,1547,1546,1590,1589,0,0,0,0,0,0,0,0,0,0
1683194279.99972320,93428447,1544,1544,1594,1593,0,0,0,0,0,0,0,0,0,0
1683194280.09968328,93528407,1541,1541,1597,1596,0,0,0,0,0,0,0,0,0,0
1683194280.19964314,93628367,1540,1540,1599,1598,0,0,0,0,0,0,0,0,0,0
1683194280.29960322,93728327,1539,1539,1598,1597,0,0,0,0,0,0,0,0,0,0
1683194280.39956307,93828287,1541,1541,1598,1598,0,0,0,0,0,0,0,0,0,0
1683194280.49952316,93928247,1543,1545,1596,1597,0,0,0,0,0,0,0,0,0,0
1683194280.59948325,94028207,1546,1548,1592,1593,0,0,0,0,0,0,0,0,0,0
1683194280.69944310,94128167,1551,1553,1589,1589,0,0,0,0,0,0,0,0,0,0
1683194280.80023623,94228960,1557,1558,1586,1586,0,0,0,0,0,0,0,0,0,0
1683194280.90019608,94328920,1563,1563,1582,1582,0,0,0,0,0,0,0,0,0,0
1683194281.00015616,94428880,1569,1568,1579,1579,0,0,0,0,0,0,0,0,0,0
1683194281.10011625,94528840,1572,1572,1576,1576,0,0,0,0,0,0,0,0,0,0
1683194281.20007610,94628800,1577,1576,1575,1574,0,0,0,0,0,0,0,0,0,0
1683194281.30003619,94728760,1580,1578,1574,1573,0,0,0,0,0,0,0,0,0,0
1683194281.39999628,94828720,1582,1580,1572,1572,0,0,0,0,0,0,0,0,0,0
1683194281.49995613,94928680,1583,1582,1572,1572,0,0,0,0,0,0,0,0,0,0
1683194281.59991622,95028640,1583,1583,1572,1573,0,0,0,0,0,0,0,0,0,0
1683194281.69987607,95128600,1583,1583,1572,1572,0,0,0,0,0,0,0,0,0,0
1683194281.79983616,95228560,1583,1583,1573,1573,0,0,0,0,0,0,0,0,0,0
1683194281.89979625,95328520,1583,1582,1573,1573,0,0,0,0,0,0,0,0,0,0
1683194281.99975610,95428480,1582,1582,1574,1574,0,0,0,0,0,0,0,0,0,0
1683194282.09971619,95528440,1582,1582,1575,1575,0,0,0,0,0,0,0,0,0,0
1683194282.19967628,95628400,1582,1581,1576,1576,0,0,0,0,0,0,0,0,0,0
1683194282.29963613,95728360,1581,1581,1577,1577,0,0,0,0,0,0,0,0,0,0
1683194282.39959621,95828320,1580,1580,1577,1577,0,0,0,0,0,0,0,0,0,0
1683194282.49955630,95928280,1579,1580,1578,1578,0,0,0,0,0,0,0,0,0,0
1683194282.59951615,96028240,1579,1579,1579,1578,0,0,0,0,0,0,0,0,0,0
1683194282.69947624,96128200,1579,1579,1579,1579,0,0,0,0,0,0,0,0,0,0
1683194282.79943609,96228160,1578,1579,1580,1580,0,0,0,0,0,0,0,0,0,0
1683194282.90022922,96328953,1578,1578,1580,1579,0,0,0,0,0,0,0,0,0,0
1683194283.00018930,96428913,1578,1578,1579,1579,0,0,0,0,0,0,0,0,0,0
1683194283.10014915,96528873,1579,1579,1581,1581,0,0,0,0,0,0,0,0,0,0
1683194283.20010924,96628833,1579,1579,1581,1580,0,0,0,0,0,0,0,0,0,0
1683194283.30006909,96728793,1578,1578,1580,1580,0,0,0,0,0,0,0,0,0,0
1683194283.40002918,96828753,1578,1579,1580,1580,0,0,0,0,0,0,0,0,0,0
1683194283.49998927,96928713,1579,1579,1580,1580,0,0,0,0,0,0,0,0,0,0
1683194283.59994912,97028673,1579,1579,1580,1580,0,0,0,0,0,0,0,0,0,0
1683194283.69990921,97128633,1580,1580,1580,1580,0,0,0,0,0,0,0,0,0,0
1683194283.79986930,97228593,1580,1580,1580,1580,0,0,0,0,0,0,0,0,0,0
1683194283.89982915,97328553,1580,1580,1580,1580,0,0,0,0,0,0,0,0,0,0
1683194283.99978924,97428513,1580,1580,1580,1580,0,0,0,0,0,0,0,0,0,0
1683194284.09974909,97528473,1580,1580,1580,1580,0,0,0,0,0,0,0,0,0,0
1683194284.19970918,97628433,1581,1581,1581,1580,0,0,0,0,0,0,0,0,0,0
1683194284.29966927,97728393,1580,1581,1579,1580,0,0,0,0,0,0,0,0,0,0
1683194284.39962912,97828353,1581,1581,1580,1579,0,0,0,0,0,0,0,0,0,0
1683194284.49958920,97928313,1582,1581,1580,1580,0,0,0,0,0,0,0,0,0,0
1683194284.59954929,98028273,1581,1581,1580,1580,0,0,0,0,0,0,0,0,0,0
1683194284.69950914,98128233,1581,1581,1579,1580,0,0,0,0,0,0,0,0,0,0
1683194284.79946923,98228193,1580,1580,1578,1579,0,0,0,0,0,0,0,0,0,0
1683194284.90026212,98328986,1581,1581,1580,1580,0,0,0,0,0,0,0,0,0,0
1683194285.00022221,98428946,1581,1582,1581,1581,0,0,0,0,0,0,0,0,0,0
1683194285.10018229,98528906,1581,1581,1581,1581,0,0,0,0,0,0,0,0,0,0
1683194285.20014215,98628866,1582,1581,1581,1581,0,0,0,0,0,0,0,0,0,0
1683194285.30010223,98728826,1582,1581,1582,1582,0,0,0,0,0,0,0,0,0,0
1683194285.40006208,98828786,1582,1582,1582,1582,0,0,0,0,0,0,0,0,0,0
1683194285.50002217,98928746,1582,1582,1587,1577,0,0,0,0,0,0,0,0,0,0
1683194285.59998226,99028706,1581,1581,1586,1573,0,0,0,0,0,0,0,0,0,0
1683194285.69994211,99128666,1579,1580,1579,1573,0,0,0,0,0,0,0,0,0,0
1683194285.79990220,99228626,1578,1580,1570,1572,0,0,0,0,0,0,0,0,0,0
1683194285.89986229,99328586,1576,1578,1562,1568,0,0,0,0,0,0,0,0,0,0
1683194285.99982214,99428546,1576,1578,1558,1564,0,0,0,0,0,0,0,0,0,0
1683194286.09978223,99528506,1576,1578,1556,1560,0,0,0,0,0,0,0,0,0,0
1683194286.19974208,99628466,1577,1578,1556,1557,0,0,0,0,0,0,0,0,0,0
1683194286.29970217,99728426,1578,1578,1558,1556,0,0,0,0,0,0,0,0,0,0
1683194286.39966226,99828386,1578,1577,1558,1555,0,0,0,0,0,0,0,0,0,0
1683194286.49962211,99928346,1577,1577,1556,1554,0,0,0,0,0,0,0,0,0,0
1683194286.59958220,100028306,1576,1576,1555,1554,0,0,0,0,0,0,0,0,0,0
1683194286.69954228,100128266,1576,1576,1554,1553,0,0,0,0,0,0,0,0,0,0
1683194286.79950213,100228226,1576,1577,1553,1552,0,0,0,0,0,0,0,0,0,0
1683194286.89946222,100328186,1576,1577,1551,1552,0,0,0,0,0,0,0,0,0,0
1683194287.00025511,100428979,1576,1578,1550,1551,0,0,0,0,0,0,0,0,0,0
1683194287.10021520,100528939,1577,1579,1549,1549,0,0,0,0,0,0,0,0,0,0
1683194287.20017529,100628899,1578,1580,1547,1546,0,0,0,0,0,0,0,0,0,0
1683194287.30013514,100728859,1581,1582,1546,1546,0,0,0,0,0,0,0,0,0,0
1683194287.40009522,100828819,1583,1584,1544,1544,0,0,0,0,0,0,0,0,0,0
1683194287.50005507,100928779,1586,1586,1542,1543,0,0,0,0,0,0,0,0,0,0
1683194287.60001516,101028739,1588,1588,1541,1541,0,0,0,0,0,0,0,0,0,0
1683194287.69997525,101128699,1589,1589,1540,1540,0,0,0,0,0,0,0,0,0,0
1683194287.79993510,101228659,1590,1590,1539,1540,0,0,0,0,0,0,0,0,0,0
1683194287.89989519,101328619,1591,1590,1540,1542,0,0,0,0,0,0,0,0,0,0
1683194287.99985528,101428579,1590,1590,1542,1544,0,0,0,0,0,0,0,0,0,0
1683194288.09981513,101528539,1589,1588,1544,1547,0,0,0,0,0,0,0,0,0,0
1683194288.19977522,101628499,1587,1586,1548,1552,0,0,0,0,0,0,0,0,0,0
1683194288.29973507,101728459,1582,1580,1553,1556,0,0,0,0,0,0,0,0,0,0
1683194288.39969516,101828419,1576,1574,1561,1564,0,0,0,0,0,0,0,0,0,0
1683194288.49965525,101928379,1569,1566,1572,1573,0,0,0,0,0,0,0,0,0,0
1683194288.59961510,102028339,1561,1558,1583,1584,0,0,0,0,0,0,0,0,0,0
1683194288.69957519,102128299,1551,1548,1593,1593,0,0,0,0,0,0,0,0,0,0
1683194288.79953527,102228259,1543,1541,1602,1603,0,0,0,0,0,0,0,0,0,0
1683194288.89949512,102328219,1536,1536,1609,1608,0,0,0,0,0,0,0,0,0,0
1683194288.99945521,102428179,1532,1534,1612,1610,0,0,0,0,0,0,0,0,0,0
1683194289.10024810,102528972,1532,1534,1611,1611,0,0,0,0,0,0,0,0,0,0
1683194289.20020819,102628932,1535,1537,1609,1609,0,0,0,0,0,0,0,0,0,0
1683194289.30016828,102728892,1540,1543,1605,1604,0,0,0,0,0,0,0,0,0,0
1683194289.40012813,102828852,1548,1550,1599,1598,0,0,0,0,0,0,0,0,0,0
1683194289.50008821,102928812,1555,1556,1592,1591,0,0,0,0,0,0,0,0,0,0
1683194289.60004830,103028772,1563,1564,1585,1584,0,0,0,0,0,0,0,0,0,0
1683194289.70000815,103128732,1572,1571,1579,1578,0,0,0,0,0,0,0,0,0,0
1683194289.79996824,103228692,1579,1577,1573,1573,0,0,0,0,0,0,0,0,0,0
1683194289.89992809,103328652,1584,1582,1570,1569,0,0,0,0,0,0,0,0,0,0
1683194289.99988818,103428612,1587,1585,1566,1566,0,0,0,0,0,0,0,0,0,0
1683194290.09984827,103528572,1589,1587,1566,1566,0,0,0,0,0,0,0,0,0,0
1683194290.19980812,103628532,1589,1588,1566,1567,0,0,0,0,0,0,0,0,0,0
1683194290.29976821,103728492,1588,1587,1568,1568,0,0,0,0,0,0,0,0,0,0
1683194290.39972830,103828452,1587,1587,1571,1572,0,0,0,0,0,0,0,0,0,0
1683194290.49968815,103928412,1584,1585,1574,1574,0,0,0,0,0,0,0,0,0,0
1683194290.59964824,104028372,1582,1582,1577,1576,0,0,0,0,0,0,0,0,0,0
1683194290.69960809,104128332,1579,1580,1580,1579,0,0,0,0,0,0,0,0,0,0
1683194290.79956818,104228292,1577,1577,1581,1581,0,0,0,0,0,0,0,0,0,0
1683194290.89952826,104328252,1575,1575,1583,1583,0,0,0,0,0,0,0,0,0,0
1683194290.99948812,104428212,1574,1574,1584,1584,0,0,0,0,0,0,0,0,0,0
1683194291.09944820,104528172,1573,1574,1584,1584,0,0,0,0,0,0,0,0,0,0
1683194291.20024109,104628965,1573,1575,1586,1585,0,0,0,0,0,0,0,0,0,0
1683194291.30020118,104728925,1574,1575,1585,1584,0,0,0,0,0,0,0,0,0,0
1683194291.40016127,104828885,1575,1575,1583,1583,0,0,0,0,0,0,0,0,0,0
1683194291.50012112,104928845,1576,1576,1581,1581,0,0,0,0,0,0,0,0,0,0
1683194291.60008121,105028805,1578,1577,1580,1581,0,0,0,0,0,0,0,0,0,0
1683194291.70004129,105128765,1578,1579,1579,1579,0,0,0,0,0,0,0,0,0,0
1683194291.80000114,105228725,1580,1579,1578,1578,0,0,0,0,0,0,0,0,0,0
1683194291.89996123,105328685,1581,1581,1578,1578,0,0,0,0,0,0,0,0,0,0
1683194291.99992108,105428645,1582,1582,1578,1578,0,0,0,0,0,0,0,0,0,0
1683194292.09988117,105528605,1583,1582,1579,1578,0,0,0,0,0,0,0,0,0,0
1683194292.19984126,105628565,1583,1583,1579,1579,0,0,0,0,0,0,0,0,0,0
1683194292.29980111,105728525,1583,1583,1579,1578,0,0,0,0,0,0,0,0,0,0
1683194292.39976120,105828485,1582,1582,1579,1579,0,0,0,0,0,0,0,0,0,0
1683194292.49972129,105928445,1582,1582,1579,1579,0,0,0,0,0,0,0,0,0,0
1683194292.59968114,106028405,1581,1581,1579,1579,0,0,0,0,0,0,0,0,0,0
1683194292.69964123,106128365,1581,1582,1581,1581,0,0,0,0,0,0,0,0,0,0
1683194292.79960108,106228325,1581,1581,1582,1581,0,0,0,0,0,0,0,0,0,0
1683194292.89956117,106328285,1581,1581,1582,1582,0,0,0,0,0,0,0,0,0,0
1683194292.99952126,106428245,1581,1581,1582,1582,0,0,0,0,0,0,0,0,0,0
1683194293.09948111,106528205,1581,1580,1583,1582,0,0,0,0,0,0,0,0,0,0
1683194293.19944119,106628165,1581,1581,1583,1582,0,0,0,0,0,0,0,0,0,0
1683194293.30023408,106728958,1581,1581,1583,1583,0,0,0,0,0,0,0,0,0,0
1683194293.40019417,106828918,1581,1581,1582,1582,0,0,0,0,0,0,0,0,0,0
1683194293.50015426,106928878,1581,1580,1581,1582,0,0,0,0,0,0,0,0,0,0
1683194293.60011411,107028838,1581,1581,1586,1576,0,0,0,0,0,0,0,0,0,0
1683194293.70007420,107128798,1580,1581,1587,1573,0,0,0,0,0,0,0,0,0,0
1683194293.80003428,107228758,1579,1578,1580,1574,0,0,0,0,0,0,0,0,0,0
1683194293.89999413,107328718,1576,1575,1571,1573,0,0,0,0,0,0,0,0,0,0
1683194293.99995422,107428678,1573,1572,1566,1573,0,0,0,0,0,0,0,0,0,0
1683194294.09991407,107528638,1570,1570,1564,1571,0,0,0,0,0,0,0,0,0,0
1683194294.19987416,107628598,1569,1569,1564,1569,0,0,0,0,0,0,0,0,0,0
1683194294.29983425,107728558,1567,1568,1565,1566,0,0,0,0,0,0,0,0,0,0
1683194294.39979410,107828518,1566,1567,1567,1565,0,0,0,0,0,0,0,0,0,0
1683194294.49975419,107928478,1566,1566,1568,1566,0,0,0,0,0,0,0,0,0,0
1683194294.59971428,108028438,1565,1565,1567,1565,0,0,0,0,0,0,0,0,0,0
1683194294.69967413,108128398,1565,1565,1567,1566,0,0,0,0,0,0,0,0,0,0
1683194294.79963422,108228358,1564,1564,1567,1566,0,0,0,0,0,0,0,0,0,0
1683194294.89959431,108328318,1563,1563,1565,1565,0,0,0,0,0,0,0,0,0,0
1683194294.99955416,108428278,1563,1563,1565,1565,0,0,0,0,0,0,0,0,0,0
1683194295.09951425,108528238,1562,1562,1563,1564,0,0,0,0,0,0,0,0,0,0
1683194295.19947410,108628198,1562,1562,1563,1563,0,0,0,0,0,0,0,0,0,0
1683194295.29943419,108728158,1561,1561,1561,1562,0,0,0,0,0,0,0,0,0,0
1683194295.40022707,108828951,1561,1560,1561,1561,0,0,0,0,0,0,0,0,0,0
1683194295.50018716,108928911,1561,1561,1561,1561,0,0,0,0,0,0,0,0,0,0
1683194295.60014725,109028871,1560,1560,1560,1559,0,0,0,0,0,0,0,0,0,0
1683194295.70010710,109128831,1560,1560,1560,1559,0,0,0,0,0,0,0,0,0,0
1683194295.80006719,109228791,1559,1559,1560,1559,0,0,0,0,0,0,0,0,0,0
1683194295.90002728,109328751,1559,1559,1560,1558,0,0,0,0,0,0,0,0,0,0
1683194295.99998713,109428711,1559,1558,1559,1557,0,0,0,0,0,0,0,0,0,0
1683194296.09994721,109528671,1559,1559,1559,1558,0,0,0,0,0,0,0,0,0,0
1683194296.19990730,109628631,1558,1558,1559,1557,0,0,0,0,0,0,0,0,0,0
1683194296.29986715,109728591,1559,1558,1560,1557,0,0,0,0,0,0,0,0,0,0
1683194296.39982724,109828551,1557,1556,1558,1555,0,0,0,0,0,0,0,0,0,0
1683194296.49978709,109928511,1557,1556,1556,1557,0,0,0,0,0,0,0,0,0,0
1683194296.59974718,110028471,1557,1557,1553,1560,0,0,0,0,0,0,0,0,0,0
1683194296.69970727,110128431,1555,1555,1550,1558,0,0,0,0,0,0,0,0,0,0
1683194296.79966712,110228391,1551,1552,1547,1553,0,0,0,0,0,0,0,0,0,0
1683194296.89962721,110328351,1546,1547,1543,1546,0,0,0,0,0,0,0,0,0,0
1683194296.99958730,110428311,1540,1541,1538,1537,0,0,0,0,0,0,0,0,0,0
1683194297.09954715,110528271,1535,1535,1531,1530,0,0,0,0,0,0,0,0,0,0
1683194297.19950724,110628231,1528,1528,1524,1523,0,0,0,0,0,0,0,0,0,0
1683194297.29946709,110728191,1524,1524,1521,1520,0,0,0,0,0,0,0,0,0,0
1683194297.40026021,110828984,1522,1521,1520,1520,0,0,0,0,0,0,0,0,0,0
1683194297.50022030,110928944,1521,1521,1521,1522,0,0,0,0,0,0,0,0,0,0
1683194297.60018015,111028904,1522,1522,1524,1526,0,0,0,0,0,0,0,0,0,0
1683194297.70014024,111128864,1525,1525,1529,1530,0,0,0,0,0,0,0,0,0,0
1683194297.80010009,111228824,1527,1527,1533,1534,0,0,0,0,0,0,0,0,0,0
1683194297.90006018,111328784,1532,1532,1539,1539,0,0,0,0,0,0,0,0,0,0
1683194298.00002027,111428744,1535,1535,1542,1542,0,0,0,0,0,0,0,0,0,0
1683194298.09998012,111528704,1538,1538,1543,1543,0,0,0,0,0,0,0,0,0,0
1683194298.19994020,111628664,1540,1540,1544,1544,0,0,0,0,0,0,0,0,0,0
1683194298.29990029,111728624,1542,1543,1545,1545,0,0,0,0,0,0,0,0,0,0
1683194298.39986014,111828584,1544,1544,1544,1544,0,0,0,0,0,0,0,0,0,0
1683194298.49982023,111928544,1545,1546,1544,1544,0,0,0,0,0,0,0,0,0,0
1683194298.59978008,112028504,1547,1547,1544,1544,0,0,0,0,0,0,0,0,0,0
1683194298.69974017,112128464,1548,1547,1544,1544,0,0,0,0,0,0,0,0,0,0
1683194298.79970026,112228424,1548,1548,1544,1543,0,0,0,0,0,0,0,0,0,0
1683194298.89966011,112328384,1548,1547,1544,1543,0,0,0,0,0,0,0,0,0,0
1683194298.99962020,112428344,1548,1548,1544,1544,0,0,0,0,0,0,0,0,0,0
1683194299.09958029,112528304,1548,1548,1545,1545,0,0,0,0,0,0,0,0,0,0
1683194299.19954014,112628264,1547,1547,1545,1545,0,0,0,0,0,0,0,0,0,0
1683194299.29950023,112728224,1546,1546,1544,1544,0,0,0,0,0,0,0,0,0,0
1683194299.39946008,112828184,1545,1545,1545,1545,0,0,0,0,0,0,0,0,0,0
1683194299.50025320,112928977,1544,1544,1545,1544,0,0,0,0,0,0,0,0,0,0
1683194299.60021329,113028937,1544,1544,1545,1544,0,0,0,0,0,0,0,0,0,0
1683194299.70017314,113128897,1544,1544,1545,1545,0,0,0,0,0,0,0,0,0,0
1683194299.80013323,113228857,1543,1544,1545,1545,0,0,0,0,0,0,0,0,0,0
1683194299.90009308,113328817,1543,1543,1545,1544,0,0,0,0,0,0,0,0,0,0
1683194300.00005317,113428777,1544,1543,1545,1545,0,0,0,0,0,0,0,0,0,0
1683194300.10001326,113528737,1544,1543,1545,1545,0,0,0,0,0,0,0,0,0,0
1683194300.19997311,113628697,1544,1544,1545,1545,0,0,0,0,0,0,0,0,0,0
1683194300.29993320,113728657,1544,1543,1544,1544,0,0,0,0,0,0,0,0,0,0
1683194300.39989328,113828617,1544,1544,1544,1544,0,0,0,0,0,0,0,0,0,0
1683194300.49985313,113928577,1544,1543,1543,1543,0,0,0,0,0,0,0,0,0,0
1683194300.59981322,114028537,1544,1544,1543,1543,0,0,0,0,0,0,0,0,0,0
1683194300.69977307,114128497,1544,1543,1543,1543,0,0,0,0,0,0,0,0,0,0
1683194300.79973316,114228457,1544,1544,1543,1543,0,0,0,0,0,0,0,0,0,0
1683194300.89969325,114328417,1544,1544,1543,1544,0,0,0,0,0,0,0,0,0,0
1683194300.99965310,114428377,1544,1545,1544,1544,0,0,0,0,0,0,0,0,0,0
1683194301.09961319,114528337,1544,1544,1544,1544,0,0,0,0,0,0,0,0,0,0
1683194301.19957328,114628297,1544,1545,1545,1544,0,0,0,0,0,0,0,0,0,0
1683194301.29953313,114728257,1545,1544,1544,1544,0,0,0,0,0,0,0,0,0,0
1683194301.39949322,114828217,1544,1544,1544,1544,0,0,0,0,0,0,0,0,0,0
1683194301.49945331,114928177,1544,1544,1544,1544,0,0,0,0,0,0,0,0,0,0
1683194301.60024619,115028970,1544,1544,1544,1544,0,0,0,0,0,0,0,0,0,0
1683194301.70020628,115128930,1545,1544,1544,1545,0,0,0,0,0,0,0,0,0,0
1683194301.80016613,115228890,1544,1544,1543,1544,0,0,0,0,0,0,0,0,0,0
1683194301.90012622,115328850,1544,1544,1544,1544,0,0,0,0,0,0,0,0,0,0
1683194302.00008607,115428810,1545,1545,1545,1545,0,0,0,0,0,0,0,0,0,0
1683194302.10004616,115528770,1544,1544,1543,1544,0,0,0,0,0,0,0,0,0,0
1683194302.20000625,115628730,1543,1544,1543,1543,0,0,0,0,0,0,0,0,0,0
1683194302.29996610,115728690,1544,1543,1544,1544,0,0,0,0,0,0,0,0,0,0
1683194302.39992619,115828650,1544,1544,1544,1544,0,0,0,0,0,0,0,0,0,0
1683194302.49988627,115928610,1544,1544,1543,1544,0,0,0,0,0,0,0,0,0,0
1683194302.59984612,116028570,1544,1544,1544,1544,0,0,0,0,0,0,0,0,0,0
1683194302.69980621,116128530,1544,1544,1544,1544,0,0,0,0,0,0,0,0,0,0
1683194302.79976630,116228490,1544,1544,1545,1544,0,0,0,0,0,0,0,0,0,0
1683194302.89972615,116328450,1545,1545,1545,1545,0,0,0,0,0,0,0,0,0,0
1683194302.99968624,116428410,1544,1544,1544,1544,0,0,0,0,0,0,0,0,0,0
1683194303.09964609,116528370,1544,1544,1544,1544,0,0,0,0,0,0,0,0,0,0
1683194303.19960618,116628330,1544,1544,1543,1544,0,0,0,0,0,0,0,0,0,0
1683194303.29956627,116728290,1545,1545,1546,1545,0,0,0,0,0,0,0,0,0,0
1683194303.39952612,116828250,1544,1545,1545,1544,0,0,0,0,0,0,0,0,0,0
1683194303.49948621,116928210,1544,1544,1544,1544,0,0,0,0,0,0,0,0,0,0
1683194303.59944630,117028170,1545,1545,1544,1544,0,0,0,0,0,0,0,0,0,0
1683194303.70023918,117128963,1544,1543,1543,1543,0,0,0,0,0,0,0,0,0,0
1683194303.80019927,117228923,1544,1544,1544,1544,0,0,0,0,0,0,0,0,0,0
1683194303.90015912,117328883,1544,1544,1544,1544,0,0,0,0,0,0,0,0,0,0
1683194304.00011921,117428843,1544,1544,1544,1543,0,0,0,0,0,0,0,0,0,0
1683194304.10007930,117528803,1544,1544,1545,1544,0,0,0,0,0,0,0,0,0,0
1683194304.20003915,117628763,1544,1544,1544,1544,0,0,0,0,0,0,0,0,0,0
1683194304.29999924,117728723,1544,1544,1545,1545,0,0,0,0,0,0,0,0,0,0
1683194304.39995909,117828683,1544,1544,1544,1545,0,0,0,0,0,0,0,0,0,0
1683194304.49991918,117928643,1544,1544,1544,1545,0,0,0,0,0,0,0,0,0,0
1683194304.59987926,118028603,1544,1544,1544,1544,0,0,0,0,0,0,0,0,0,0
1683194304.69983912,118128563,1545,1544,1544,1544,0,0,0,0,0,0,0,0,0,0
1683194304.79979920,118228523,1544,1543,1544,1543,0,0,0,0,0,0,0,0,0,0
1683194304.89975929,118328483,1544,1544,1544,1544,0,0,0,0,0,0,0,0,0,0
1683194304.99971914,118428443,1545,1545,1545,1545,0,0,0,0,0,0,0,0,0,0
1683194305.09967923,118528403,1545,1545,1545,1545,0,0,0,0,0,0,0,0,0,0
1683194305.19963908,118628363,1544,1544,1544,1544,0,0,0,0,0,0,0,0,0,0
1683194305.29959917,118728323,1544,1544,1544,1544,0,0,0,0,0,0,0,0,0,0
1683194305.39955926,118828283,1544,1545,1544,1544,0,0,0,0,0,0,0,0,0,0
1683194305.49951911,118928243,1544,1544,1544,1544,0,0,0,0,0,0,0,0,0,0
1683194305.59947920,119028203,1544,1544,1544,1544,0,0,0,0,0,0,0,0,0,0
1683194305.69943929,119128163,1544,1544,1543,1544,0,0,0,0,0,0,0,0,0,0
1683194305.80023217,119228956,1544,1544,1544,1543,0,0,0,0,0,0,0,0,0,0
1683194305.90019226,119328916,1544,1544,1544,1544,0,0,0,0,0,0,0,0,0,0
1683194306.00015211,119428876,1544,1544,1544,1544,0,0,0,0,0,0,0,0,0,0
1683194306.10011220,119528836,1544,1544,1544,1544,0,0,0,0,0,0,0,0,0,0
1683194306.20007229,119628796,1544,1545,1545,1545,0,0,0,0,0,0,0,0,0,0
1683194306.30003214,119728756,1545,1545,1544,1545,0,0,0,0,0,0,0,0,0,0
1683194306.39999223,119828716,1545,1545,1545,1545,0,0,0,0,0,0,0,0,0,0
1683194306.49995208,119928676,1545,1544,1545,1545,0,0,0,0,0,0,0,0,0,0
1683194306.59991217,120028636,1545,1545,1545,1545,0,0,0,0,0,0,0,0,0,0
1683194306.69987226,120128596,1544,1544,1544,1545,0,0,0,0,0,0,0,0,0,0
1683194306.79983211,120228556,1544,1544,1543,1543,0,0,0,0,0,0,0,0,0,0
1683194306.89979219,120328516,1545,1544,1544,1544,0,0,0,0,0,0,0,0,0,0
1683194306.99975228,120428476,1425,1425,1380,1379,0,0,0,0,0,0,0,0,0,0
1683194307.09971213,120528436,1347,1348,1258,1258,0,0,0,0,0,0,0,0,0,0
1683194307.19967222,120628396,1322,1323,1217,1215,0,0,0,0,0,0,0,0,0,0
1683194307.29963207,120728356,1311,1311,1196,1195,0,0,0,0,0,0,0,0,0,0
1683194307.39959216,120828316,1288,1289,1154,1152,0,0,0,0,0,0,0,0,0,0
1683194307.49955225,120928276,1231,1231,1151,1150,0,0,0,0,0,0,0,0,0,0
1683194307.59951210,121028236,1121,1123,1152,1150,0,0,0,0,0,0,0,0,0,0
1683194307.69947219,121128196,1070,1070,1151,1150,0,0,0,0,0,0,0,0,0,0
1683194307.79943228,121228156,1069,1070,1152,1150,0,0,0,0,0,0,0,0,0,0
1683194307.90022516,121328949,1070,1070,1151,1150,0,0,0,0,0,0,0,0,0,0
1683194308.00018525,121428909,1071,1052,1150,1174,0,0,0,0,0,0,0,0,0,0
1683194308.10014510,121528869,1071,1059,1150,1165,0,0,0,0,0,0,0,0,0,0
1683194308.20010519,121628829,1071,1063,1150,1160,0,0,0,0,0,0,0,0,0,0
1683194308.30006528,121728789,1071,1063,1150,1160,0,0,0,0,0,0,0,0,0,0
1683194308.40002513,121828749,1071,1063,1150,1160,0,0,0,0,0,0,0,0,0,0
1683194308.49998522,121928709,1071,1063,1150,1160,0,0,0,0,0,0,0,0,0,0
1683194308.59994531,122028669,1071,1063,1150,1160,0,0,0,0,0,0,0,0,0,0
1683194308.69990516,122128629,1071,1062,1150,1161,0,0,0,0,0,0,0,0,0,0
1683194308.79986525,122228589,1071,1070,1150,1150,0,0,0,0,0,0,0,0,0,0
1683194308.89982510,122328549,1071,1070,1150,1151,0,0,0,0,0,0,0,0,0,0
1683194308.99978518,122428509,1071,1069,1150,1151,0,0,0,0,0,0,0,0,0,0
1683194309.09974527,122528469,1071,1069,1150,1152,0,0,0,0,0,0,0,0,0,0
1683194309.19970512,122628429,1053,1051,1150,1152,0,0,0,0,0,0,0,0,0,0
1683194309.29966521,122728389,1000,1000,1000,1000,0,0,0,0,0,0,0,0,0,0
1683194309.39962530,122828349,1000,1000,1000,1000,0,0,0,0,0,0,0,0,0,0
1683194309.49958515,122928309,1000,1000,1000,1000,0,0,0,0,0,0,0,0,0,0
1683194309.59954524,123028269,1000,1000,1000,1000,0,0,0,0,0,0,0,0,0,0
1683194309.69950509,123128229,1000,1000,1000,1000,0,0,0,0,0,0,0,0,0,0
1683194309.79946518,123228189,1000,1000,1000,1000,0,0,0,0,0,0,0,0,0,0
1683194309.90025830,123328982,1000,1000,1000,1000,0,0,0,0,0,0,0,0,0,0
1683194310.00021815,123428942,1000,1000,1000,1000,0,0,0,0,0,0,0,0,0,0
1683194310.10017824,123528902,1000,1000,1000,1000,0,0,0,0,0,0,0,0,0,0
1683194310.20013809,123628862,1000,1000,1000,1000,0,0,0,0,0,0,0,0,0,0
1683194310.30009818,123728822,1000,1000,1000,1000,0,0,0,0,0,0,0,0,0,0
1683194310.40005827,123828782,1000,1000,1000,1000,0,0,0,0,0,0,0,0,0,0
1683194310.50001812,123928742,1000,1000,1000,1000,0,0,0,0,0,0,0,0,0,0
1683194310.59997821,124028702,1000,1000,1000,1000,0,0,0,0,0,0,0,0,0,0
1683194310.69993830,124128662,1000,1000,1000,1000,0,0,0,0,0,0,0,0,0,0
1683194310.79989815,124228622,1000,1000,1000,1000,0,0,0,0,0,0,0,0,0,0
1683194310.89985824,124328582,1000,1000,1000,1000,0,0,0,0,0,0,0,0,0,0
1683194310.99981809,124428542,1000,1000,1000,1000,0,0,0,0,0,0,0,0,0,0
1683194311.09977818,124528502,1000,1000,1000,1000,0,0,0,0,0,0,0,0,0,0
1683194311.19973826,124628462,1000,1000,1000,1000,0,0,0,0,0,0,0,0,0,0
1683194311.29969811,124728422,1000,1000,1000,1000,0,0,0,0,0,0,0,0,0,0
1683194311.39965820,124828382,1000,1000,1000,1000,0,0,0,0,0,0,0,0,0,0
1683194311.49961829,124928342,1000,1000,1000,1000,0,0,0,0,0,0,0,0,0,0
1683194311.59957814,125028302,1000,1000,1000,1000,0,0,0,0,0,0,0,0,0,0
1683194311.69953823,125128262,1000,1000,1000,1000,0,0,0,0,0,0,0,0,0,0
1683194311.79949808,125228222,1000,1000,1000,1000,0,0,0,0,0,0,0,0,0,0
1683194311.89945817,125328182,1000,1000,1000,1000,0,0,0,0,0,0,0,0,0,0
1683194312.00025129,125428975,1000,1000,1000,1000,0,0,0,0,0,0,0,0,0,0
1683194312.10021114,125528935,1000,1000,1000,1000,0,0,0,0,0,0,0,0,0,0
1683194312.20017123,125628895,1000,1000,1000,1000,0,0,0,0,0,0,0,0,0,0
1683194312.30013108,125728855,1000,1000,1000,1000,0,0,0,0,0,0,0,0,0,0
1683194312.40009117,125828815,1000,1000,1000,1000,0,0,0,0,0,0,0,0,0,0
1683194312.50005126,125928775,1000,1000,1000,1000,0,0,0,0,0,0,0,0,0,0
1683194312.60001111,126028735,1000,1000,1000,1000,0,0,0,0,0,0,0,0,0,0
1683194312.69997120,126128695,1000,1000,1000,1000,0,0,0,0,0,0,0,0,0,0
1683194312.79993129,126228655,1000,1000,1000,1000,0,0,0,0,0,0,0,0,0,0
1683194312.89989114,126328615,1000,1000,1000,1000,0,0,0,0,0,0,0,0,0,0
1683194312.99985123,126428575,1000,1000,1000,1000,0,0,0,0,0,0,0,0,0,0
1683194313.09981108,126528535,1000,1000,1000,1000,0,0,0,0,0,0,0,0,0,0
1683194313.19977117,126628495,1000,1000,1000,1000,0,0,0,0,0,0,0,0,0,0
1683194313.29973125,126728455,1000,1000,1000,1000,0,0,0,0,0,0,0,0,0,0
1683194313.39969110,126828415,1000,1000,1000,1000,0,0,0,0,0,0,0,0,0,0
1683194313.49965119,126928375,1000,1000,1000,1000,0,0,0,0,0,0,0,0,0,0
1683194313.59961128,127028335,1000,1000,1000,1000,0,0,0,0,0,0,0,0,0,0
1683194313.69957113,127128295,1000,1000,1000,1000,0,0,0,0,0,0,0,0,0,0
1683194313.79953122,127228255,1000,1000,1000,1000,0,0,0,0,0,0,0,0,0,0
1683194313.89949107,127328215,1000,1000,1000,1000,0,0,0,0,0,0,0,0,0,0
1683194313.99945116,127428175,1000,1000,1000,1000,0,0,0,0,0,0,0,0,0,0
1683194314.10024428,127528968,1000,1000,1000,1000,0,0,0,0,0,0,0,0,0,0
1683194314.20020413,127628928,1000,1000,1000,1000,0,0,0,0,0,0,0,0,0,0
1683194314.30016422,127728888,1000,1000,1000,1000,0,0,0,0,0,0,0,0,0,0
1683194314.40012407,127828848,1000,1000,1000,1000,0,0,0,0,0,0,0,0,0,0
1683194314.50008416,127928808,1000,1000,1000,1000,0,0,0,0,0,0,0,0,0,0
1683194314.60004425,128028768,1000,1000,1000,1000,0,0,0,0,0,0,0,0,0,0
1683194314.70000410,128128728,1000,1000,1000,1000,0,0,0,0,0,0,0,0,0,0
1683194314.79996419,128228688,1000,1000,1000,1000,0,0,0,0,0,0,0,0,0,0
1683194314.89992428,128328648,1000,1000,1000,1000,0,0,0,0,0,0,0,0,0,0
1683194314.99988413,128428608,1000,1000,1000,1000,0,0,0,0,0,0,0,0,0,0
1683194315.09984422,128528568,1000,1000,1000,1000,0,0,0,0,0,0,0,0,0,0
1683194315.19980431,128628528,1000,1000,1000,1000,0,0,0,0,0,0,0,0,0,0
1683194315.29976416,128728488,1000,1000,1000,1000,0,0,0,0,0,0,0,0,0,0
1683194315.39972425,128828448,1000,1000,1000,1000,0,0,0,0,0,0,0,0,0,0
1683194315.49968410,128928408,1000,1000,1000,1000,0,0,0,0,0,0,0,0,0,0
1683194315.59964418,129028368,1000,1000,1000,1000,0,0,0,0,0,0,0,0,0,0
1683194315.69960427,129128328,1000,1000,1000,1000,0,0,0,0,0,0,0,0,0,0
1683194315.79956412,129228288,1000,1000,1000,1000,0,0,0,0,0,0,0,0,0,0
1683194315.89952421,129328248,1000,1000,1000,1000,0,0,0,0,0,0,0,0,0,0
