timestamp,TimeUS,C1,C2,C3,C4,C5,C6,C7,C8,C9,C10,C11,C12,C13,C14
1684072023.70004010,111928544,1000,1000,1000,1000,0,0,0,0,0,0,0,0,0,0
1684072023.79999995,112028504,1000,1000,1000,1000,0,0,0,0,0,0,0,0,0,0
1684072023.89996004,112128464,1000,1000,1000,1000,0,0,0,0,0,0,0,0,0,0
1684072023.99992013,112228424,1000,1000,1000,1000,0,0,0,0,0,0,0,0,0,0
1684072024.09987998,112328384,1000,1000,1000,1000,0,0,0,0,0,0,0,0,0,0
1684072024.19984007,112428344,1000,1000,1000,1000,0,0,0,0,0,0,0,0,0,0
1684072024.29980016,112528304,1000,1000,1000,1000,0,0,0,0,0,0,0,0,0,0
1684072024.39976001,112628264,1000,1000,1000,1000,0,0,0,0,0,0,0,0,0,0
1684072024.49972010,112728224,1000,1000,1000,1000,0,0,0,0,0,0,0,0,0,0
1684072024.59967995,112828184,1000,1000,1000,1000,0,0,0,0,0,0,0,0,0,0
1684072024.70047307,112928977,1000,1000,1000,1000,0,0,0,0,0,0,0,0,0,0
1684072024.80043316,113028937,1000,1000,1000,1000,0,0,0,0,0,0,0,0,0,0
1684072024.90039301,113128897,1000,1000,1000,1000,0,0,0,0,0,0,0,0,0,0
1684072025.00035310,113228857,1000,1000,1000,1000,0,0,0,0,0,0,0,0,0,0
1684072025.10031295,113328817,1000,1000,1000,1000,0,0,0,0,0,0,0,0,0,0
1684072025.20027304,113428777,1000,1000,1000,1000,0,0,0,0,0,0,0,0,0,0
1684072025.30023313,113528737,1000,1000,1000,1000,0,0,0,0,0,0,0,0,0,0
1684072025.40019298,113628697,1000,1000,1000,1000,0,0,0,0,0,0,0,0,0,0
1684072025.50015306,113728657,1000,1000,1000,1000,0,0,0,0,0,0,0,0,0,0
1684072025.60011315,113828617,1000,1000,1000,1000,0,0,0,0,0,0,0,0,0,0
1684072025.70007300,113928577,1000,1000,1000,1000,0,0,0,0,0,0,0,0,0,0
1684072025.80003309,114028537,1030,1030,1030,1030,0,0,0,0,0,0,0,0,0,0
1684072025.89999294,114128497,1060,1060,1060,1060,0,0,0,0,0,0,0,0,0,0
1684072025.99995303,114228457,1090,1090,1090,1090,0,0,0,0,0,0,0,0,0,0
1684072026.09991312,114328417,1120,1120,1120,1120,0,0,0,0,0,0,0,0,0,0
1684072026.19987297,114428377,1150,1150,1150,1150,0,0,0,0,0,0,0,0,0,0
1684072026.29983306,114528337,1408,1395,1395,1409,0,0,0,0,0,0,0,0,0,0
1684072026.39979315,114628297,1586,1575,1576,1587,0,0,0,0,0,0,0,0,0,0
1684072026.49975300,114728257,1733,1722,1722,1733,0,0,0,0,0,0,0,0,0,0
1684072026.59971309,114828217,1860,1850,1850,1860,0,0,0,0,0,0,0,0,0,0
1684072026.69967318,114928177,1887,1879,1878,1888,0,0,0,0,0,0,0,0,0,0
1684072026.80046606,115028970,1800,1797,1796,1802,0,0,0,0,0,0,0,0,0,0
1684072026.90042615,115128930,1673,1674,1672,1675,0,0,0,0,0,0,0,0,0,0
1684072027.00038600,115228890,1614,1617,1617,1615,0,0,0,0,0,0,0,0,0,0
1684072027.10034609,115328850,1607,1612,1612,1608,0,0,0,0,0,0,0,0,0,0
1684072027.20030594,115428810,1617,1620,1621,1616,0,0,0,0,0,0,0,0,0,0
1684072027.30026603,115528770,1622,1623,1624,1622,0,0,0,0,0,0,0,0,0,0
1684072027.40022612,115628730,1621,1620,1620,1620,0,0,0,0,0,0,0,0,0,0
1684072027.50018597,115728690,1616,1614,1614,1616,0,0,0,0,0,0,0,0,0,0
1684072027.60014606,115828650,1613,1611,1610,1613,0,0,0,0,0,0,0,0,0,0
1684072027.70010614,115928610,1615,1613,1613,1615,0,0,0,0,0,0,0,0,0,0
1684072027.80006599,116028570,1616,1616,1615,1615,0,0,0,0,0,0,0,0,0,0
1684072027.90002608,116128530,1618,1618,1619,1617,0,0,0,0,0,0,0,0,0,0
1684072027.99998617,116228490,1620,1621,1621,1619,0,0,0,0,0,0,0,0,0,0
1684072028.09994602,116328450,1599,1600,1603,1595,0,0,0,0,0,0,0,0,0,0
1684072028.19990611,116428410,1580,1582,1588,1574,0,0,0,0,0,0,0,0,0,0
1684072028.29986596,116528370,1569,1570,1573,1566,0,0,0,0,0,0,0,0,0,0
1684072028.39982605,116628330,1560,1560,1559,1561,0,0,0,0,0,0,0,0,0,0
1684072028.49978614,116728290,1551,1550,1543,1558,0,0,0,0,0,0,0,0,0,0
1684072028.59974599,116828250,1544,1543,1535,1552,0,0,0,0,0,0,0,0,0,0
1684072028.69970608,116928210,1538,1538,1531,1544,0,0,0,0,0,0,0,0,0,0
1684072028.79966617,117028170,1533,1532,1529,1534,0,0,0,0,0,0,0,0,0,0
1684072028.90045905,117128963,1529,1528,1528,1528,0,0,0,0,0,0,0,0,0,0
1684072029.00041914,117228923,1528,1528,1530,1526,0,0,0,0,0,0,0,0,0,0
1684072029.10037899,117328883,1530,1530,1533,1526,0,0,0,0,0,0,0,0,0,0
1684072029.20033908,117428843,1534,1535,1538,1531,0,0,0,0,0,0,0,0,0,0
1684072029.30029917,117528803,1538,1538,1540,1536,0,0,0,0,0,0,0,0,0,0
1684072029.40025902,117628763,1540,1540,1542,1540,0,0,0,0,0,0,0,0,0,0
1684072029.50021911,117728723,1543,1543,1544,1543,0,0,0,0,0,0,0,0,0,0
1684072029.60017896,117828683,1546,1546,1547,1547,0,0,0,0,0,0,0,0,0,0
1684072029.70013905,117928643,1549,1549,1549,1550,0,0,0,0,0,0,0,0,0,0
1684072029.80009913,118028603,1552,1552,1552,1553,0,0,0,0,0,0,0,0,0,0
1684072029.90005898,118128563,1553,1554,1553,1554,0,0,0,0,0,0,0,0,0,0
1684072030.00001907,118228523,1556,1557,1555,1556,0,0,0,0,0,0,0,0,0,0
1684072030.09997916,118328483,1559,1558,1556,1558,0,0,0,0,0,0,0,0,0,0
1684072030.19993901,118428443,1560,1559,1560,1560,0,0,0,0,0,0,0,0,0,0
1684072030.29989910,118528403,1560,1560,1563,1563,0,0,0,0,0,0,0,0,0,0
1684072030.39985895,118628363,1560,1561,1565,1565,0,0,0,0,0,0,0,0,0,0
1684072030.49981904,118728323,1562,1562,1567,1567,0,0,0,0,0,0,0,0,0,0
1684072030.59977913,118828283,1563,1564,1568,1568,0,0,0,0,0,0,0,0,0,0
1684072030.69973898,118928243,1564,1564,1568,1567,0,0,0,0,0,0,0,0,0,0
1684072030.79969907,119028203,1567,1567,1569,1569,0,0,0,0,0,0,0,0,0,0
1684072030.89965916,119128163,1569,1569,1569,1569,0,0,0,0,0,0,0,0,0,0
1684072031.00045204,119228956,1571,1571,1569,1569,0,0,0,0,0,0,0,0,0,0
1684072031.10041213,119328916,1573,1572,1570,1570,0,0,0,0,0,0,0,0,0,0
1684072031.20037198,119428876,1572,1572,1569,1570,0,0,0,0,0,0,0,0,0,0
1684072031.30033207,119528836,1574,1574,1571,1572,0,0,0,0,0,0,0,0,0,0
1684072031.40029216,119628796,1575,1575,1572,1572,0,0,0,0,0,0,0,0,0,0
1684072031.50025201,119728756,1574,1575,1573,1571,0,0,0,0,0,0,0,0,0,0
1684072031.60021210,119828716,1575,1576,1574,1572,0,0,0,0,0,0,0,0,0,0
1684072031.70017195,119928676,1575,1576,1574,1573,0,0,0,0,0,0,0,0,0,0
1684072031.80013204,120028636,1576,1576,1575,1574,0,0,0,0,0,0,0,0,0,0
1684072031.90009212,120128596,1575,1575,1575,1575,0,0,0,0,0,0,0,0,0,0
1684072032.00005198,120228556,1576,1576,1575,1576,0,0,0,0,0,0,0,0,0,0
1684072032.10001206,120328516,1575,1575,1575,1575,0,0,0,0,0,0,0,0,0,0
1684072032.19997215,120428476,1576,1576,1577,1577,0,0,0,0,0,0,0,0,0,0
1684072032.29993200,120528436,1575,1576,1577,1576,0,0,0,0,0,0,0,0,0,0
1684072032.39989209,120628396,1577,1578,1578,1578,0,0,0,0,0,0,0,0,0,0
1684072032.49985194,120728356,1577,1577,1578,1578,0,0,0,0,0,0,0,0,0,0
1684072032.59981203,120828316,1578,1578,1578,1578,0,0,0,0,0,0,0,0,0,0
1684072032.69977212,120928276,1578,1577,1578,1578,0,0,0,0,0,0,0,0,0,0
1684072032.79973197,121028236,1578,1578,1579,1578,0,0,0,0,0,0,0,0,0,0
1684072032.89969206,121128196,1578,1578,1578,1578,0,0,0,0,0,0,0,0,0,0
1684072032.99965215,121228156,1578,1578,1578,1578,0,0,0,0,0,0,0,0,0,0
1684072033.10044503,121328949,1578,1578,1578,1578,0,0,0,0,0,0,0,0,0,0
1684072033.20040512,121428909,1577,1578,1577,1577,0,0,0,0,0,0,0,0,0,0
1684072033.30036497,121528869,1578,1578,1577,1578,0,0,0,0,0,0,0,0,0,0
1684072033.40032506,121628829,1578,1578,1578,1578,0,0,0,0,0,0,0,0,0,0
1684072033.50028515,121728789,1578,1578,1578,1578,0,0,0,0,0,0,0,0,0,0
1684072033.60024500,121828749,1578,1578,1579,1578,0,0,0,0,0,0,0,0,0,0
1684072033.70020509,121928709,1580,1579,1579,1579,0,0,0,0,0,0,0,0,0,0
1684072033.80016518,122028669,1579,1579,1579,1579,0,0,0,0,0,0,0,0,0,0
1684072033.90012503,122128629,1579,1579,1579,1579,0,0,0,0,0,0,0,0,0,0
1684072034.00008512,122228589,1579,1579,1579,1579,0,0,0,0,0,0,0,0,0,0
1684072034.10004497,122328549,1579,1579,1579,1580,0,0,0,0,0,0,0,0,0,0
1684072034.20000505,122428509,1579,1580,1580,1580,0,0,0,0,0,0,0,0,0,0
1684072034.29996514,122528469,1579,1579,1580,1580,0,0,0,0,0,0,0,0,0,0
1684072034.39992499,122628429,1579,1580,1580,1580,0,0,0,0,0,0,0,0,0,0
1684072034.49988508,122728389,1579,1579,1579,1579,0,0,0,0,0,0,0,0,0,0
1684072034.59984517,122828349,1580,1580,1580,1580,0,0,0,0,0,0,0,0,0,0
1684072034.69980502,122928309,1580,1580,1580,1580,0,0,0,0,0,0,0,0,0,0
1684072034.79976511,123028269,1580,1580,1580,1580,0,0,0,0,0,0,0,0,0,0
1684072034.89972496,123128229,1579,1579,1579,1579,0,0,0,0,0,0,0,0,0,0
1684072034.99968505,123228189,1580,1580,1580,1580,0,0,0,0,0,0,0,0,0,0
1684072035.10047817,123328982,1581,1581,1581,1581,0,0,0,0,0,0,0,0,0,0
1684072035.20043802,123428942,1579,1580,1580,1579,0,0,0,0,0,0,0,0,0,0
1684072035.30039811,123528902,1579,1579,1579,1579,0,0,0,0,0,0,0,0,0,0
1684072035.40035796,123628862,1580,1579,1580,1580,0,0,0,0,0,0,0,0,0,0
1684072035.50031805,123728822,1580,1579,1579,1580,0,0,0,0,0,0,0,0,0,0
1684072035.60027814,123828782,1581,1581,1581,1581,0,0,0,0,0,0,0,0,0,0
1684072035.70023799,123928742,1580,1581,1580,1581,0,0,0,0,0,0,0,0,0,0
1684072035.80019808,124028702,1580,1580,1580,1580,0,0,0,0,0,0,0,0,0,0
1684072035.90015817,124128662,1581,1581,1581,1581,0,0,0,0,0,0,0,0,0,0
1684072036.00011802,124228622,1581,1581,1582,1581,0,0,0,0,0,0,0,0,0,0
1684072036.10007811,124328582,1581,1581,1581,1582,0,0,0,0,0,0,0,0,0,0
1684072036.20003796,124428542,1582,1582,1586,1578,0,0,0,0,0,0,0,0,0,0
1684072036.29999804,124528502,1581,1583,1588,1574,0,0,0,0,0,0,0,0,0,0
1684072036.39995813,124628462,1580,1583,1582,1574,0,0,0,0,0,0,0,0,0,0
1684072036.49991798,124728422,1579,1582,1573,1574,0,0,0,0,0,0,0,0,0,0
1684072036.59987807,124828382,1578,1581,1565,1571,0,0,0,0,0,0,0,0,0,0
1684072036.69983816,124928342,1579,1579,1559,1566,0,0,0,0,0,0,0,0,0,0
1684072036.79979801,125028302,1580,1579,1556,1561,0,0,0,0,0,0,0,0,0,0
1684072036.89975810,125128262,1581,1579,1555,1558,0,0,0,0,0,0,0,0,0,0
1684072036.99971795,125228222,1580,1579,1555,1555,0,0,0,0,0,0,0,0,0,0
1684072037.09967804,125328182,1580,1580,1556,1554,0,0,0,0,0,0,0,0,0,0
1684072037.20047116,125428975,1578,1579,1556,1553,0,0,0,0,0,0,0,0,0,0
1684072037.30043101,125528935,1577,1578,1555,1554,0,0,0,0,0,0,0,0,0,0
1684072037.40039110,125628895,1576,1578,1555,1554,0,0,0,0,0,0,0,0,0,0
1684072037.50035095,125728855,1576,1577,1554,1554,0,0,0,0,0,0,0,0,0,0
1684072037.60031104,125828815,1577,1579,1553,1554,0,0,0,0,0,0,0,0,0,0
1684072037.70027113,125928775,1577,1578,1550,1551,0,0,0,0,0,0,0,0,0,0
1684072037.80023098,126028735,1578,1579,1548,1548,0,0,0,0,0,0,0,0,0,0
1684072037.90019107,126128695,1581,1582,1546,1547,0,0,0,0,0,0,0,0,0,0
1684072038.00015116,126228655,1584,1585,1544,1544,0,0,0,0,0,0,0,0,0,0
1684072038.10011101,126328615,1587,1588,1541,1541,0,0,0,0,0,0,0,0,0,0
1684072038.20007110,126428575,1591,1591,1540,1539,0,0,0,0,0,0,0,0,0,0
1684072038.30003095,126528535,1593,1593,1536,1536,0,0,0,0,0,0,0,0,0,0
1684072038.39999104,126628495,1595,1595,1536,1536,0,0,0,0,0,0,0,0,0,0
1684072038.49995112,126728455,1596,1595,1534,1536,0,0,0,0,0,0,0,0,0,0
1684072038.59991097,126828415,1595,1595,1535,1537,0,0,0,0,0,0,0,0,0,0
1684072038.69987106,126928375,1593,1593,1537,1541,0,0,0,0,0,0,0,0,0,0
1684072038.79983115,127028335,1590,1589,1543,1546,0,0,0,0,0,0,0,0,0,0
1684072038.89979100,127128295,1586,1583,1552,1555,0,0,0,0,0,0,0,0,0,0
1684072038.99975109,127228255,1577,1574,1561,1564,0,0,0,0,0,0,0,0,0,0
1684072039.09971094,127328215,1567,1563,1573,1575,0,0,0,0,0,0,0,0,0,0
1684072039.19967103,127428175,1556,1552,1586,1587,0,0,0,0,0,0,0,0,0,0
1684072039.30046415,127528968,1544,1541,1598,1598,0,0,0,0,0,0,0,0,0,0
1684072039.40042400,127628928,1535,1534,1608,1607,0,0,0,0,0,0,0,0,0,0
1684072039.50038409,127728888,1529,1529,1614,1613,0,0,0,0,0,0,0,0,0,0
1684072039.60034394,127828848,1528,1529,1616,1616,0,0,0,0,0,0,0,0,0,0
1684072039.70030403,127928808,1249,1252,1643,1645,0,0,0,0,0,0,0,0,0,0
1684072039.80026412,128028768,1349,1357,1678,1683,0,0,0,0,0,0,0,0,0,0
1684072039.90022397,128128728,1421,1432,1666,1664,0,0,0,0,0,0,0,0,0,0
1684072040.00018406,128228688,1489,1498,1641,1634,0,0,0,0,0,0,0,0,0,0
1684072040.10014415,128328648,1545,1548,1619,1610,0,0,0,0,0,0,0,0,0,0
1684072040.20010400,128428608,1584,1580,1605,1598,0,0,0,0,0,0,0,0,0,0
1684072040.30006409,128528568,1616,1600,1593,1590,0,0,0,0,0,0,0,0,0,0
1684072040.40002418,128628528,1632,1615,1552,1559,0,0,0,0,0,0,0,0,0,0
1684072040.49998403,128728488,1632,1620,1506,1520,0,0,0,0,0,0,0,0,0,0
1684072040.59994411,128828448,1632,1631,1519,1531,0,0,0,0,0,0,0,0,0,0
1684072040.69990396,128928408,1625,1632,1536,1541,0,0,0,0,0,0,0,0,0,0
1684072040.79986405,129028368,1622,1632,1556,1554,0,0,0,0,0,0,0,0,0,0
1684072040.89982414,129128328,1593,1600,1575,1570,0,0,0,0,0,0,0,0,0,0
1684072040.99978399,129228288,1596,1600,1586,1582,0,0,0,0,0,0,0,0,0,0
1684072041.09974408,129328248,1600,1598,1590,1587,0,0,0,0,0,0,0,0,0,0
1684072041.19970417,129428208,1600,1596,1588,1588,0,0,0,0,0,0,0,0,0,0
1684072041.29966402,129528168,1599,1595,1585,1587,0,0,0,0,0,0,0,0,0,0
1684072041.40045714,129628961,1599,1597,1585,1589,0,0,0,0,0,0,0,0,0,0
1684072041.50041699,129728921,1599,1599,1586,1588,0,0,0,0,0,0,0,0,0,0
1684072041.60037708,129828881,1597,1599,1587,1586,0,0,0,0,0,0,0,0,0,0
1684072041.70033717,129928841,1597,1599,1587,1586,0,0,0,0,0,0,0,0,0,0
1684072041.80029702,130028801,1597,1598,1587,1584,0,0,0,0,0,0,0,0,0,0
1684072041.90025711,130128761,1621,1621,1577,1575,0,0,0,0,0,0,0,0,0,0
1684072042.00021696,130228721,1615,1613,1573,1572,0,0,0,0,0,0,0,0,0,0
1684072042.10017705,130328681,1608,1607,1570,1570,0,0,0,0,0,0,0,0,0,0
1684072042.20013714,130428641,1603,1603,1568,1568,0,0,0,0,0,0,0,0,0,0
1684072042.30009699,130528601,1598,1597,1565,1565,0,0,0,0,0,0,0,0,0,0
1684072042.40005708,130628561,1569,1570,1572,1572,0,0,0,0,0,0,0,0,0,0
1684072042.50001717,130728521,1571,1573,1573,1572,0,0,0,0,0,0,0,0,0,0
1684072042.59997702,130828481,1574,1574,1572,1571,0,0,0,0,0,0,0,0,0,0
1684072042.69993711,130928441,1576,1576,1572,1572,0,0,0,0,0,0,0,0,0,0
1684072042.79989696,131028401,1579,1578,1574,1573,0,0,0,0,0,0,0,0,0,0
1684072042.89985704,131128361,1581,1580,1573,1574,0,0,0,0,0,0,0,0,0,0
1684072042.99981713,131228321,1583,1582,1574,1574,0,0,0,0,0,0,0,0,0,0
1684072043.09977698,131328281,1584,1584,1574,1574,0,0,0,0,0,0,0,0,0,0
1684072043.19973707,131428241,1584,1584,1573,1573,0,0,0,0,0,0,0,0,0,0
1684072043.29969716,131528201,1585,1585,1573,1573,0,0,0,0,0,0,0,0,0,0
1684072043.39965701,131628161,1585,1586,1572,1572,0,0,0,0,0,0,0,0,0,0
1684072043.50045013,131728954,1586,1587,1574,1573,0,0,0,0,0,0,0,0,0,0
1684072043.60040998,131828914,1587,1587,1574,1573,0,0,0,0,0,0,0,0,0,0
1684072043.70037007,131928874,1587,1587,1573,1573,0,0,0,0,0,0,0,0,0,0
1684072043.80033016,132028834,1619,1619,1572,1573,0,0,0,0,0,0,0,0,0,0
1684072043.90029001,132128794,1612,1611,1565,1564,0,0,0,0,0,0,0,0,0,0
1684072044.00025010,132228754,1607,1606,1563,1563,0,0,0,0,0,0,0,0,0,0
1684072044.10020995,132328714,1602,1602,1562,1562,0,0,0,0,0,0,0,0,0,0
1684072044.20017004,132428674,1599,1596,1566,1557,0,0,0,0,0,0,0,0,0,0
1684072044.30013013,132528634,1598,1591,1566,1558,0,0,0,0,0,0,0,0,0,0
1684072044.40008998,132628594,1594,1588,1561,1559,0,0,0,0,0,0,0,0,0,0
1684072044.50005007,132728554,1589,1587,1555,1558,0,0,0,0,0,0,0,0,0,0
1684072044.60001016,132828514,1583,1583,1554,1557,0,0,0,0,0,0,0,0,0,0
1684072044.69997001,132928474,1568,1570,1567,1567,0,0,0,0,0,0,0,0,0,0
1684072044.79993010,133028434,1551,1556,1581,1581,0,0,0,0,0,0,0,0,0,0
1684072044.89988995,133128394,1540,1545,1587,1586,0,0,0,0,0,0,0,0,0,0
1684072044.99985003,133228354,1536,1541,1587,1586,0,0,0,0,0,0,0,0,0,0
1684072045.09981012,133328314,1537,1541,1585,1584,0,0,0,0,0,0,0,0,0,0
1684072045.19976997,133428274,1540,1543,1580,1579,0,0,0,0,0,0,0,0,0,0
1684072045.29973006,133528234,1544,1546,1574,1574,0,0,0,0,0,0,0,0,0,0
1684072045.39969015,133628194,1550,1550,1569,1568,0,0,0,0,0,0,0,0,0,0
1684072045.49965000,133728154,1555,1555,1563,1563,0,0,0,0,0,0,0,0,0,0
1684072045.60044312,133828947,1560,1560,1558,1557,0,0,0,0,0,0,0,0,0,0
1684072045.70040298,133928907,1565,1565,1553,1552,0,0,0,0,0,0,0,0,0,0
1684072045.80036306,134028867,1570,1570,1549,1548,0,0,0,0,0,0,0,0,0,0
1684072045.90032315,134128827,1575,1575,1545,1544,0,0,0,0,0,0,0,0,0,0
1684072046.00028300,134228787,1582,1582,1538,1537,0,0,0,0,0,0,0,0,0,0
1684072046.10024309,134328747,1592,1591,1529,1528,0,0,0,0,0,0,0,0,0,0
1684072046.20020294,134428707,1598,1598,1523,1522,0,0,0,0,0,0,0,0,0,0
1684072046.30016303,134528667,1601,1601,1521,1522,0,0,0,0,0,0,0,0,0,0
1684072046.40012312,134628627,1598,1599,1526,1527,0,0,0,0,0,0,0,0,0,0
1684072046.50008297,134728587,1595,1595,1531,1533,0,0,0,0,0,0,0,0,0,0
1684072046.60004306,134828547,1592,1593,1537,1539,0,0,0,0,0,0,0,0,0,0
1684072046.70000315,134928507,1590,1590,1540,1542,0,0,0,0,0,0,0,0,0,0
1684072046.79996300,135028467,1588,1588,1543,1545,0,0,0,0,0,0,0,0,0,0
1684072046.89992309,135128427,1587,1586,1546,1547,0,0,0,0,0,0,0,0,0,0
1684072046.99988317,135228387,1583,1581,1550,1554,0,0,0,0,0,0,0,0,0,0
1684072047.09984303,135328347,1575,1572,1560,1563,0,0,0,0,0,0,0,0,0,0
1684072047.19980311,135428307,1566,1564,1568,1572,0,0,0,0,0,0,0,0,0,0
1684072047.29976296,135528267,1560,1558,1576,1580,0,0,0,0,0,0,0,0,0,0
1684072047.39972305,135628227,1553,1553,1581,1583,0,0,0,0,0,0,0,0,0,0
1684072047.49968314,135728187,1548,1548,1585,1585,0,0,0,0,0,0,0,0,0,0
1684072047.60047603,135828980,1546,1547,1589,1589,0,0,0,0,0,0,0,0,0,0
1684072047.70043612,135928940,1545,1545,1593,1591,0,0,0,0,0,0,0,0,0,0
1684072047.80039597,136028900,1544,1544,1595,1593,0,0,0,0,0,0,0,0,0,0
1684072047.90035605,136128860,1544,1544,1596,1594,0,0,0,0,0,0,0,0,0,0
1684072048.00031614,136228820,1544,1545,1594,1593,0,0,0,0,0,0,0,0,0,0
1684072048.10027599,136328780,1546,1547,1593,1593,0,0,0,0,0,0,0,0,0,0
1684072048.20023608,136428740,1549,1550,1592,1592,0,0,0,0,0,0,0,0,0,0
1684072048.30019617,136528700,1552,1552,1589,1589,0,0,0,0,0,0,0,0,0,0
1684072048.40015602,136628660,1556,1556,1586,1587,0,0,0,0,0,0,0,0,0,0
1684072048.50011611,136728620,1559,1559,1583,1583,0,0,0,0,0,0,0,0,0,0
1684072048.60007596,136828580,1564,1564,1583,1582,0,0,0,0,0,0,0,0,0,0
1684072048.70003605,136928540,1568,1568,1581,1580,0,0,0,0,0,0,0,0,0,0
1684072048.79999614,137028500,1571,1571,1579,1578,0,0,0,0,0,0,0,0,0,0
1684072048.89995599,137128460,1575,1574,1578,1577,0,0,0,0,0,0,0,0,0,0
1684072048.99991608,137228420,1577,1576,1577,1576,0,0,0,0,0,0,0,0,0,0
1684072049.09987617,137328380,1579,1578,1575,1575,0,0,0,0,0,0,0,0,0,0
1684072049.19983602,137428340,1581,1580,1575,1575,0,0,0,0,0,0,0,0,0,0
1684072049.29979610,137528300,1582,1582,1575,1576,0,0,0,0,0,0,0,0,0,0
1684072049.39975595,137628260,1583,1582,1575,1575,0,0,0,0,0,0,0,0,0,0
1684072049.49971604,137728220,1583,1582,1574,1574,0,0,0,0,0,0,0,0,0,0
1684072049.59967613,137828180,1583,1583,1575,1576,0,0,0,0,0,0,0,0,0,0
1684072049.70046902,137928973,1582,1583,1575,1574,0,0,0,0,0,0,0,0,0,0
1684072049.80042911,138028933,1583,1583,1577,1576,0,0,0,0,0,0,0,0,0,0
1684072049.90038896,138128893,1583,1583,1577,1577,0,0,0,0,0,0,0,0,0,0
1684072050.00034904,138228853,1582,1582,1577,1577,0,0,0,0,0,0,0,0,0,0
1684072050.10030913,138328813,1582,1582,1577,1577,0,0,0,0,0,0,0,0,0,0
1684072050.20026898,138428773,1581,1581,1577,1577,0,0,0,0,0,0,0,0,0,0
1684072050.30022907,138528733,1580,1581,1577,1577,0,0,0,0,0,0,0,0,0,0
1684072050.40018916,138628693,1580,1580,1578,1578,0,0,0,0,0,0,0,0,0,0
1684072050.50014901,138728653,1580,1580,1579,1579,0,0,0,0,0,0,0,0,0,0
1684072050.60010910,138828613,1580,1581,1580,1580,0,0,0,0,0,0,0,0,0,0
1684072050.70006895,138928573,1580,1580,1580,1580,0,0,0,0,0,0,0,0,0,0
1684072050.80002904,139028533,1580,1580,1581,1581,0,0,0,0,0,0,0,0,0,0
1684072050.89998913,139128493,1580,1579,1580,1580,0,0,0,0,0,0,0,0,0,0
1684072050.99994898,139228453,1866,1864,1544,1539,0,0,0,0,0,0,0,0,0,0
1684072051.09990907,139328413,1790,1783,1499,1490,0,0,0,0,0,0,0,0,0,0
1684072051.19986916,139428373,1723,1712,1502,1503,0,0,0,0,0,0,0,0,0,0
1684072051.29982901,139528333,1648,1639,1528,1533,0,0,0,0,0,0,0,0,0,0
1684072051.39978909,139628293,1575,1572,1562,1568,0,0,0,0,0,0,0,0,0,0
1684072051.49974895,139728253,1525,1528,1585,1587,0,0,0,0,0,0,0,0,0,0
1684072051.59970903,139828213,1501,1510,1598,1598,0,0,0,0,0,0,0,0,0,0
1684072051.69966912,139928173,1485,1497,1611,1609,0,0,0,0,0,0,0,0,0,0
1684072051.80046201,140028966,1469,1476,1630,1629,0,0,0,0,0,0,0,0,0,0
1684072051.90042210,140128926,1459,1467,1640,1644,0,0,0,0,0,0,0,0,0,0
1684072052.00038195,140228886,1477,1478,1632,1639,0,0,0,0,0,0,0,0,0,0
1684072052.10034204,140328846,1498,1495,1620,1627,0,0,0,0,0,0,0,0,0,0
1684072052.20030212,140428806,1516,1512,1612,1616,0,0,0,0,0,0,0,0,0,0
1684072052.30026197,140528766,1530,1527,1606,1606,0,0,0,0,0,0,0,0,0,0
1684072052.40022206,140628726,1543,1542,1604,1601,0,0,0,0,0,0,0,0,0,0
1684072052.50018215,140728686,1558,1566,1595,1592,0,0,0,0,0,0,0,0,0,0
1684072052.60014200,140828646,1584,1593,1575,1573,0,0,0,0,0,0,0,0,0,0
1684072052.70010209,140928606,1607,1613,1557,1556,0,0,0,0,0,0,0,0,0,0
1684072052.80006194,141028566,1619,1620,1548,1548,0,0,0,0,0,0,0,0,0,0
1684072052.90002203,141128526,1624,1619,1547,1547,0,0,0,0,0,0,0,0,0,0
1684072052.99998212,141228486,1625,1617,1552,1552,0,0,0,0,0,0,0,0,0,0
1684072053.09994197,141328446,1620,1613,1561,1556,0,0,0,0,0,0,0,0,0,0
1684072053.19990206,141428406,1611,1612,1572,1556,0,0,0,0,0,0,0,0,0,0
1684072053.29986215,141528366,1603,1609,1574,1564,0,0,0,0,0,0,0,0,0,0
1684072053.39982200,141628326,1595,1603,1571,1571,0,0,0,0,0,0,0,0,0,0
1684072053.49978209,141728286,1588,1593,1567,1573,0,0,0,0,0,0,0,0,0,0
1684072053.59974217,141828246,1584,1586,1564,1573,0,0,0,0,0,0,0,0,0,0
1684072053.69970202,141928206,1583,1579,1565,1571,0,0,0,0,0,0,0,0,0,0
1684072053.79966211,142028166,1580,1576,1567,1570,0,0,0,0,0,0,0,0,0,0
1684072053.90045500,142128959,1578,1575,1569,1568,0,0,0,0,0,0,0,0,0,0
1684072054.00041509,142228919,1576,1575,1571,1567,0,0,0,0,0,0,0,0,0,0
1684072054.10037518,142328879,1575,1576,1571,1567,0,0,0,0,0,0,0,0,0,0
1684072054.20033503,142428839,1574,1577,1570,1567,0,0,0,0,0,0,0,0,0,0
1684072054.30029511,142528799,1574,1578,1567,1567,0,0,0,0,0,0,0,0,0,0
1684072054.40025496,142628759,1576,1579,1565,1566,0,0,0,0,0,0,0,0,0,0
1684072054.50021505,142728719,1577,1579,1561,1563,0,0,0,0,0,0,0,0,0,0
1684072054.60017514,142828679,1580,1581,1560,1561,0,0,0,0,0,0,0,0,0,0
1684072054.70013499,142928639,1582,1582,1558,1558,0,0,0,0,0,0,0,0,0,0
1684072054.80009508,143028599,1583,1583,1554,1555,0,0,0,0,0,0,0,0,0,0
1684072054.90005517,143128559,1586,1586,1552,1552,0,0,0,0,0,0,0,0,0,0
1684072055.00001502,143228519,1590,1590,1551,1551,0,0,0,0,0,0,0,0,0,0
1684072055.09997511,143328479,1593,1593,1549,1550,0,0,0,0,0,0,0,0,0,0
1684072055.19993496,143428439,1596,1596,1550,1550,0,0,0,0,0,0,0,0,0,0
1684072055.29989505,143528399,1597,1595,1549,1550,0,0,0,0,0,0,0,0,0,0
1684072055.39985514,143628359,1597,1594,1551,1552,0,0,0,0,0,0,0,0,0,0
1684072055.49981499,143728319,1596,1591,1555,1556,0,0,0,0,0,0,0,0,0,0
1684072055.59977508,143828279,1592,1589,1561,1561,0,0,0,0,0,0,0,0,0,0
1684072055.69973516,143928239,1588,1584,1567,1568,0,0,0,0,0,0,0,0,0,0
1684072055.79969501,144028199,1581,1578,1574,1574,0,0,0,0,0,0,0,0,0,0
1684072055.89965510,144128159,1575,1573,1581,1581,0,0,0,0,0,0,0,0,0,0
1684072056.00044799,144228952,1569,1568,1588,1588,0,0,0,0,0,0,0,0,0,0
1684072056.10040808,144328912,1565,1564,1594,1593,0,0,0,0,0,0,0,0,0,0
1684072056.20036817,144428872,1560,1560,1597,1597,0,0,0,0,0,0,0,0,0,0
1684072056.30032802,144528832,1557,1558,1600,1599,0,0,0,0,0,0,0,0,0,0
1684072056.40028811,144628792,1556,1557,1602,1601,0,0,0,0,0,0,0,0,0,0
1684072056.50024796,144728752,1556,1557,1603,1601,0,0,0,0,0,0,0,0,0,0
1684072056.60020804,144828712,1558,1559,1603,1602,0,0,0,0,0,0,0,0,0,0
1684072056.70016813,144928672,1558,1560,1601,1600,0,0,0,0,0,0,0,0,0,0
1684072056.80012798,145028632,1558,1559,1597,1597,0,0,0,0,0,0,0,0,0,0
1684072056.90008807,145128592,1561,1562,1595,1596,0,0,0,0,0,0,0,0,0,0
1684072057.00004816,145228552,1563,1564,1592,1593,0,0,0,0,0,0,0,0,0,0
1684072057.10000801,145328512,1565,1565,1589,1590,0,0,0,0,0,0,0,0,0,0
1684072057.19996810,145428472,1567,1567,1587,1588,0,0,0,0,0,0,0,0,0,0
1684072057.29992795,145528432,1570,1569,1586,1585,0,0,0,0,0,0,0,0,0,0
1684072057.39988804,145628392,1571,1571,1583,1583,0,0,0,0,0,0,0,0,0,0
1684072057.49984813,145728352,1574,1573,1583,1582,0,0,0,0,0,0,0,0,0,0
1684072057.59980798,145828312,1575,1575,1582,1581,0,0,0,0,0,0,0,0,0,0
1684072057.69976807,145928272,1576,1575,1579,1579,0,0,0,0,0,0,0,0,0,0
1684072057.79972816,146028232,1577,1578,1578,1579,0,0,0,0,0,0,0,0,0,0
1684072057.89968801,146128192,1578,1577,1577,1578,0,0,0,0,0,0,0,0,0,0
1684072058.00048113,146228985,1579,1578,1577,1577,0,0,0,0,0,0,0,0,0,0
1684072058.10044098,146328945,1579,1578,1576,1576,0,0,0,0,0,0,0,0,0,0
1684072058.20040107,146428905,1579,1578,1575,1575,0,0,0,0,0,0,0,0,0,0
1684072058.30036116,146528865,1579,1578,1576,1575,0,0,0,0,0,0,0,0,0,0
1684072058.40032101,146628825,1580,1579,1576,1576,0,0,0,0,0,0,0,0,0,0
1684072058.50028110,146728785,1578,1578,1576,1576,0,0,0,0,0,0,0,0,0,0
1684072058.60024095,146828745,1579,1579,1577,1577,0,0,0,0,0,0,0,0,0,0
1684072058.70020103,146928705,1579,1579,1577,1577,0,0,0,0,0,0,0,0,0,0
1684072058.80016112,147028665,1578,1578,1577,1577,0,0,0,0,0,0,0,0,0,0
1684072058.90012097,147128625,1578,1578,1577,1578,0,0,0,0,0,0,0,0,0,0
1684072059.00008106,147228585,1578,1578,1578,1578,0,0,0,0,0,0,0,0,0,0
1684072059.10004115,147328545,1578,1578,1578,1578,0,0,0,0,0,0,0,0,0,0
1684072059.20000100,147428505,1577,1577,1578,1577,0,0,0,0,0,0,0,0,0,0
1684072059.29996109,147528465,1578,1577,1578,1579,0,0,0,0,0,0,0,0,0,0
1684072059.39992094,147628425,1577,1578,1578,1579,0,0,0,0,0,0,0,0,0,0
1684072059.49988103,147728385,1577,1577,1578,1578,0,0,0,0,0,0,0,0,0,0
1684072059.59984112,147828345,1578,1578,1579,1579,0,0,0,0,0,0,0,0,0,0
1684072059.69980097,147928305,1578,1577,1578,1579,0,0,0,0,0,0,0,0,0,0
1684072059.79976106,148028265,1578,1578,1579,1579,0,0,0,0,0,0,0,0,0,0
1684072059.89972115,148128225,1578,1578,1579,1579,0,0,0,0,0,0,0,0,0,0
1684072059.99968100,148228185,1578,1578,1579,1578,0,0,0,0,0,0,0,0,0,0
1684072060.10047412,148328978,1577,1578,1578,1578,0,0,0,0,0,0,0,0,0,0
1684072060.20043397,148428938,1579,1579,1579,1580,0,0,0,0,0,0,0,0,0,0
1684072060.30039406,148528898,1580,1580,1580,1580,0,0,0,0,0,0,0,0,0,0
1684072060.40035415,148628858,1579,1579,1579,1579,0,0,0,0,0,0,0,0,0,0
1684072060.50031400,148728818,1580,1579,1579,1579,0,0,0,0,0,0,0,0,0,0
1684072060.60027409,148828778,1581,1581,1580,1580,0,0,0,0,0,0,0,0,0,0
1684072060.70023417,148928738,1582,1583,1584,1577,0,0,0,0,0,0,0,0,0,0
1684072060.80019403,149028698,1580,1583,1586,1571,0,0,0,0,0,0,0,0,0,0
1684072060.90015411,149128658,1578,1582,1581,1573,0,0,0,0,0,0,0,0,0,0
1684072061.00011396,149228618,1576,1578,1574,1575,0,0,0,0,0,0,0,0,0,0
1684072061.10007405,149328578,1573,1572,1567,1574,0,0,0,0,0,0,0,0,0,0
1684072061.20003414,149428538,1572,1570,1565,1573,0,0,0,0,0,0,0,0,0,0
1684072061.29999399,149528498,1570,1567,1564,1570,0,0,0,0,0,0,0,0,0,0
1684072061.39995408,149628458,1569,1567,1566,1568,0,0,0,0,0,0,0,0,0,0
1684072061.49991417,149728418,1567,1566,1566,1565,0,0,0,0,0,0,0,0,0,0
1684072061.59987402,149828378,1566,1565,1567,1564,0,0,0,0,0,0,0,0,0,0
1684072061.69983411,149928338,1565,1565,1567,1564,0,0,0,0,0,0,0,0,0,0
1684072061.79979396,150028298,1563,1565,1566,1563,0,0,0,0,0,0,0,0,0,0
1684072061.89975405,150128258,1564,1564,1565,1565,0,0,0,0,0,0,0,0,0,0
1684072061.99971414,150228218,1562,1563,1564,1564,0,0,0,0,0,0,0,0,0,0
1684072062.09967399,150328178,1563,1563,1563,1564,0,0,0,0,0,0,0,0,0,0
1684072062.20046711,150428971,1562,1562,1563,1563,0,0,0,0,0,0,0,0,0,0
1684072062.30042696,150528931,1561,1561,1562,1562,0,0,0,0,0,0,0,0,0,0
1684072062.40038705,150628891,1561,1561,1562,1561,0,0,0,0,0,0,0,0,0,0
1684072062.50034714,150728851,1561,1561,1562,1561,0,0,0,0,0,0,0,0,0,0
1684072062.60030699,150828811,1559,1560,1560,1559,0,0,0,0,0,0,0,0,0,0
1684072062.70026708,150928771,1559,1559,1559,1558,0,0,0,0,0,0,0,0,0,0
1684072062.80022717,151028731,1558,1558,1558,1558,0,0,0,0,0,0,0,0,0,0
1684072062.90018702,151128691,1558,1558,1558,1558,0,0,0,0,0,0,0,0,0,0
1684072063.00014710,151228651,1558,1558,1559,1557,0,0,0,0,0,0,0,0,0,0
1684072063.10010695,151328611,1558,1558,1558,1557,0,0,0,0,0,0,0,0,0,0
1684072063.20006704,151428571,1558,1558,1559,1557,0,0,0,0,0,0,0,0,0,0
1684072063.30002713,151528531,1559,1560,1560,1558,0,0,0,0,0,0,0,0,0,0
1684072063.39998698,151628491,1559,1560,1560,1558,0,0,0,0,0,0,0,0,0,0
1684072063.49994707,151728451,1559,1559,1558,1561,0,0,0,0,0,0,0,0,0,0
1684072063.59990716,151828411,1560,1560,1557,1563,0,0,0,0,0,0,0,0,0,0
1684072063.69986701,151928371,1561,1560,1557,1564,0,0,0,0,0,0,0,0,0,0
1684072063.79982710,152028331,1563,1561,1559,1564,0,0,0,0,0,0,0,0,0,0
1684072063.89978695,152128291,1563,1562,1560,1563,0,0,0,0,0,0,0,0,0,0
1684072063.99974704,152228251,1564,1563,1564,1563,0,0,0,0,0,0,0,0,0,0
1684072064.09970713,152328211,1562,1561,1561,1562,0,0,0,0,0,0,0,0,0,0
1684072064.19966698,152428171,1559,1559,1559,1559,0,0,0,0,0,0,0,0,0,0
1684072064.30046010,152528964,1552,1553,1553,1553,0,0,0,0,0,0,0,0,0,0
1684072064.40041995,152628924,1546,1548,1547,1547,0,0,0,0,0,0,0,0,0,0
1684072064.50038004,152728884,1541,1541,1541,1542,0,0,0,0,0,0,0,0,0,0
1684072064.60034013,152828844,1533,1533,1533,1533,0,0,0,0,0,0,0,0,0,0
1684072064.70029998,152928804,1525,1525,1525,1526,0,0,0,0,0,0,0,0,0,0
1684072064.80026007,153028764,1521,1521,1521,1521,0,0,0,0,0,0,0,0,0,0
1684072064.90022016,153128724,1519,1519,1519,1520,0,0,0,0,0,0,0,0,0,0
1684072065.00018001,153228684,1520,1520,1520,1520,0,0,0,0,0,0,0,0,0,0
1684072065.10014009,153328644,1522,1522,1522,1523,0,0,0,0,0,0,0,0,0,0
1684072065.20009995,153428604,1525,1525,1525,1525,0,0,0,0,0,0,0,0,0,0
1684072065.30006003,153528564,1528,1529,1528,1529,0,0,0,0,0,0,0,0,0,0
1684072065.40002012,153628524,1534,1534,1534,1534,0,0,0,0,0,0,0,0,0,0
1684072065.49997997,153728484,1539,1538,1539,1538,0,0,0,0,0,0,0,0,0,0
1684072065.59994006,153828444,1540,1540,1540,1540,0,0,0,0,0,0,0,0,0,0
1684072065.69990015,153928404,1543,1543,1543,1543,0,0,0,0,0,0,0,0,0,0
1684072065.79986000,154028364,1544,1544,1545,1544,0,0,0,0,0,0,0,0,0,0
1684072065.89982009,154128324,1546,1546,1546,1546,0,0,0,0,0,0,0,0,0,0
1684072065.99977994,154228284,1546,1546,1546,1546,0,0,0,0,0,0,0,0,0,0
1684072066.09974003,154328244,1546,1546,1546,1546,0,0,0,0,0,0,0,0,0,0
1684072066.19970012,154428204,1546,1546,1546,1546,0,0,0,0,0,0,0,0,0,0
1684072066.29965997,154528164,1546,1546,1546,1546,0,0,0,0,0,0,0,0,0,0
1684072066.40045309,154628957,1545,1545,1546,1545,0,0,0,0,0,0,0,0,0,0
1684072066.50041294,154728917,1546,1546,1546,1546,0,0,0,0,0,0,0,0,0,0
1684072066.60037303,154828877,1545,1545,1546,1545,0,0,0,0,0,0,0,0,0,0
1684072066.70033312,154928837,1545,1545,1545,1545,0,0,0,0,0,0,0,0,0,0
1684072066.80029297,155028797,1545,1545,1545,1546,0,0,0,0,0,0,0,0,0,0
1684072066.90025306,155128757,1545,1545,1545,1545,0,0,0,0,0,0,0,0,0,0
1684072067.00021315,155228717,1545,1546,1546,1545,0,0,0,0,0,0,0,0,0,0
1684072067.10017300,155328677,1545,1545,1545,1545,0,0,0,0,0,0,0,0,0,0
1684072067.20013309,155428637,1545,1545,1545,1545,0,0,0,0,0,0,0,0,0,0
1684072067.30009317,155528597,1545,1544,1544,1545,0,0,0,0,0,0,0,0,0,0
1684072067.40005302,155628557,1545,1545,1545,1545,0,0,0,0,0,0,0,0,0,0
1684072067.50001311,155728517,1545,1545,1545,1545,0,0,0,0,0,0,0,0,0,0
1684072067.59997296,155828477,1543,1544,1544,1544,0,0,0,0,0,0,0,0,0,0
1684072067.69993305,155928437,1544,1543,1543,1544,0,0,0,0,0,0,0,0,0,0
1684072067.79989314,156028397,1545,1545,1545,1545,0,0,0,0,0,0,0,0,0,0
1684072067.89985299,156128357,1544,1544,1544,1544,0,0,0,0,0,0,0,0,0,0
1684072067.99981308,156228317,1545,1545,1545,1545,0,0,0,0,0,0,0,0,0,0
1684072068.09977317,156328277,1544,1544,1544,1545,0,0,0,0,0,0,0,0,0,0
1684072068.19973302,156428237,1544,1545,1545,1544,0,0,0,0,0,0,0,0,0,0
1684072068.29969311,156528197,1544,1544,1544,1544,0,0,0,0,0,0,0,0,0,0
1684072068.39965296,156628157,1544,1544,1544,1544,0,0,0,0,0,0,0,0,0,0
1684072068.50044608,156728950,1544,1543,1544,1544,0,0,0,0,0,0,0,0,0,0
1684072068.60040617,156828910,1543,1543,1543,1543,0,0,0,0,0,0,0,0,0,0
1684072068.70036602,156928870,1544,1544,1544,1544,0,0,0,0,0,0,0,0,0,0
1684072068.80032611,157028830,1545,1545,1545,1544,0,0,0,0,0,0,0,0,0,0
1684072068.90028596,157128790,1545,1544,1544,1545,0,0,0,0,0,0,0,0,0,0
1684072069.00024605,157228750,1544,1544,1544,1544,0,0,0,0,0,0,0,0,0,0
1684072069.10020614,157328710,1544,1544,1544,1544,0,0,0,0,0,0,0,0,0,0
1684072069.20016599,157428670,1545,1545,1545,1545,0,0,0,0,0,0,0,0,0,0
1684072069.30012608,157528630,1545,1544,1544,1545,0,0,0,0,0,0,0,0,0,0
1684072069.40008616,157628590,1544,1544,1544,1544,0,0,0,0,0,0,0,0,0,0
1684072069.50004601,157728550,1544,1544,1544,1544,0,0,0,0,0,0,0,0,0,0
1684072069.60000610,157828510,1544,1544,1544,1544,0,0,0,0,0,0,0,0,0,0
1684072069.69996595,157928470,1544,1544,1544,1544,0,0,0,0,0,0,0,0,0,0
1684072069.79992604,158028430,1544,1544,1544,1544,0,0,0,0,0,0,0,0,0,0
1684072069.89988613,158128390,1544,1544,1544,1544,0,0,0,0,0,0,0,0,0,0
1684072069.99984598,158228350,1544,1544,1544,1544,0,0,0,0,0,0,0,0,0,0
1684072070.09980607,158328310,1545,1544,1544,1545,0,0,0,0,0,0,0,0,0,0
1684072070.19976616,158428270,1544,1545,1545,1544,0,0,0,0,0,0,0,0,0,0
1684072070.29972601,158528230,1545,1544,1544,1544,0,0,0,0,0,0,0,0,0,0
1684072070.39968610,158628190,1544,1544,1544,1544,0,0,0,0,0,0,0,0,0,0
1684072070.50047898,158728983,1544,1543,1543,1544,0,0,0,0,0,0,0,0,0,0
1684072070.60043907,158828943,1544,1544,1544,1544,0,0,0,0,0,0,0,0,0,0
1684072070.70039916,158928903,1544,1544,1544,1545,0,0,0,0,0,0,0,0,0,0
1684072070.80035901,159028863,1543,1544,1544,1544,0,0,0,0,0,0,0,0,0,0
1684072070.90031910,159128823,1545,1545,1544,1545,0,0,0,0,0,0,0,0,0,0
1684072071.00027895,159228783,1544,1544,1545,1544,0,0,0,0,0,0,0,0,0,0
1684072071.10023904,159328743,1545,1544,1545,1545,0,0,0,0,0,0,0,0,0,0
1684072071.20019913,159428703,1545,1545,1545,1545,0,0,0,0,0,0,0,0,0,0
1684072071.30015898,159528663,1546,1545,1546,1545,0,0,0,0,0,0,0,0,0,0
1684072071.40011907,159628623,1545,1545,1545,1545,0,0,0,0,0,0,0,0,0,0
1684072071.50007915,159728583,1545,1545,1545,1545,0,0,0,0,0,0,0,0,0,0
1684072071.60003901,159828543,1544,1544,1544,1545,0,0,0,0,0,0,0,0,0,0
1684072071.69999909,159928503,1545,1544,1544,1545,0,0,0,0,0,0,0,0,0,0
1684072071.79995894,160028463,1545,1544,1545,1545,0,0,0,0,0,0,0,0,0,0
1684072071.89991903,160128423,1545,1544,1544,1545,0,0,0,0,0,0,0,0,0,0
1684072071.99987912,160228383,1544,1544,1545,1544,0,0,0,0,0,0,0,0,0,0
1684072072.09983897,160328343,1545,1545,1545,1545,0,0,0,0,0,0,0,0,0,0
1684072072.19979906,160428303,1544,1545,1545,1545,0,0,0,0,0,0,0,0,0,0
1684072072.29975915,160528263,1544,1544,1544,1545,0,0,0,0,0,0,0,0,0,0
1684072072.39971900,160628223,1544,1544,1545,1544,0,0,0,0,0,0,0,0,0,0
1684072072.49967909,160728183,1545,1544,1544,1544,0,0,0,0,0,0,0,0,0,0
1684072072.60047197,160828976,1545,1545,1545,1545,0,0,0,0,0,0,0,0,0,0
1684072072.70043206,160928936,1545,1545,1544,1545,0,0,0,0,0,0,0,0,0,0
1684072072.80039215,161028896,1545,1545,1546,1545,0,0,0,0,0,0,0,0,0,0
1684072072.90035200,161128856,1544,1544,1544,1544,0,0,0,0,0,0,0,0,0,0
1684072073.00031209,161228816,1545,1546,1546,1545,0,0,0,0,0,0,0,0,0,0
1684072073.10027194,161328776,1545,1545,1545,1545,0,0,0,0,0,0,0,0,0,0
1684072073.20023203,161428736,1545,1545,1545,1545,0,0,0,0,0,0,0,0,0,0
1684072073.30019212,161528696,1544,1544,1544,1545,0,0,0,0,0,0,0,0,0,0
1684072073.40015197,161628656,1544,1545,1544,1544,0,0,0,0,0,0,0,0,0,0
1684072073.50011206,161728616,1545,1544,1545,1545,0,0,0,0,0,0,0,0,0,0
1684072073.60007215,161828576,1544,1544,1544,1544,0,0,0,0,0,0,0,0,0,0
1684072073.70003200,161928536,1544,1544,1544,1544,0,0,0,0,0,0,0,0,0,0
1684072073.79999208,162028496,1544,1544,1545,1545,0,0,0,0,0,0,0,0,0,0
1684072073.89995217,162128456,1544,1543,1544,1544,0,0,0,0,0,0,0,0,0,0
1684072073.99991202,162228416,1544,1544,1545,1544,0,0,0,0,0,0,0,0,0,0
1684072074.09987211,162328376,1544,1543,1543,1544,0,0,0,0,0,0,0,0,0,0
1684072074.19983196,162428336,1544,1545,1544,1545,0,0,0,0,0,0,0,0,0,0
1684072074.29979205,162528296,1544,1544,1544,1544,0,0,0,0,0,0,0,0,0,0
1684072074.39975214,162628256,1544,1544,1544,1544,0,0,0,0,0,0,0,0,0,0
1684072074.49971199,162728216,1544,1544,1544,1545,0,0,0,0,0,0,0,0,0,0
1684072074.59967208,162828176,1480,1479,1480,1479,0,0,0,0,0,0,0,0,0,0
1684072074.70046496,162928969,1311,1306,1311,1308,0,0,0,0,0,0,0,0,0,0
1684072074.80042505,163028929,1234,1230,1237,1231,0,0,0,0,0,0,0,0,0,0
1684072074.90038514,163128889,1211,1206,1213,1210,0,0,0,0,0,0,0,0,0,0
1684072075.00034499,163228849,1184,1181,1188,1184,0,0,0,0,0,0,0,0,0,0
1684072075.10030508,163328809,1155,1150,1157,1155,0,0,0,0,0,0,0,0,0,0
1684072075.20026517,163428769,1154,1150,1158,1154,0,0,0,0,0,0,0,0,0,0
1684072075.30022502,163528729,1190,1150,1155,1195,0,0,0,0,0,0,0,0,0,0
1684072075.40018511,163628689,1198,1150,1157,1203,0,0,0,0,0,0,0,0,0,0
1684072075.50014496,163728649,1188,1150,1160,1192,0,0,0,0,0,0,0,0,0,0
1684072075.60010505,163828609,1187,1150,1161,1190,0,0,0,0,0,0,0,0,0,0
1684072075.70006514,163928569,1190,1150,1162,1194,0,0,0,0,0,0,0,0,0,0
1684072075.80002499,164028529,1193,1150,1162,1197,0,0,0,0,0,0,0,0,0,0
1684072075.89998507,164128489,1197,1150,1163,1201,0,0,0,0,0,0,0,0,0,0
1684072075.99994516,164228449,1200,1150,1163,1205,0,0,0,0,0,0,0,0,0,0
1684072076.09990501,164328409,1166,1150,1164,1171,0,0,0,0,0,0,0,0,0,0
1684072076.19986510,164428369,1178,1150,1164,1185,0,0,0,0,0,0,0,0,0,0
1684072076.29982495,164528329,1180,1150,1164,1187,0,0,0,0,0,0,0,0,0,0
1684072076.39978504,164628289,1181,1150,1165,1189,0,0,0,0,0,0,0,0,0,0
1684072076.49974513,164728249,1182,1150,1165,1190,0,0,0,0,0,0,0,0,0,0
1684072076.59970498,164828209,1000,1000,1000,1000,0,0,0,0,0,0,0,0,0,0
1684072076.69966507,164928169,1000,1000,1000,1000,0,0,0,0,0,0,0,0,0,0
1684072076.80045795,165028962,1000,1000,1000,1000,0,0,0,0,0,0,0,0,0,0
1684072076.90041804,165128922,1000,1000,1000,1000,0,0,0,0,0,0,0,0,0,0
1684072077.00037813,165228882,1000,1000,1000,1000,0,0,0,0,0,0,0,0,0,0
1684072077.10033798,165328842,1000,1000,1000,1000,0,0,0,0,0,0,0,0,0,0
1684072077.20029807,165428802,1000,1000,1000,1000,0,0,0,0,0,0,0,0,0,0
1684072077.30025816,165528762,1000,1000,1000,1000,0,0,0,0,0,0,0,0,0,0
1684072077.40021801,165628722,1000,1000,1000,1000,0,0,0,0,0,0,0,0,0,0
1684072077.50017810,165728682,1000,1000,1000,1000,0,0,0,0,0,0,0,0,0,0
1684072077.60013795,165828642,1000,1000,1000,1000,0,0,0,0,0,0,0,0,0,0
1684072077.70009804,165928602,1000,1000,1000,1000,0,0,0,0,0,0,0,0,0,0
1684072077.80005813,166028562,1000,1000,1000,1000,0,0,0,0,0,0,0,0,0,0
1684072077.90001798,166128522,1000,1000,1000,1000,0,0,0,0,0,0,0,0,0,0
1684072077.99997807,166228482,1000,1000,1000,1000,0,0,0,0,0,0,0,0,0,0
1684072078.09993815,166328442,1000,1000,1000,1000,0,0,0,0,0,0,0,0,0,0
1684072078.13992214,166368426,1000,1000,1000,1000,0,0,0,0,0,0,0,0,0,0
1684072078.23988199,166468386,1000,1000,1000,1000,0,0,0,0,0,0,0,0,0,0
1684072078.33984208,166568346,1000,1000,1000,1000,0,0,0,0,0,0,0,0,0,0
1684072078.43980217,166668306,1000,1000,1000,1000,0,0,0,0,0,0,0,0,0,0
1684072078.53976202,166768266,1000,1000,1000,1000,0,0,0,0,0,0,0,0,0,0
1684072078.63972211,166868226,1000,1000,1000,1000,0,0,0,0,0,0,0,0,0,0
1684072078.73968196,166968186,1000,1000,1000,1000,0,0,0,0,0,0,0,0,0,0
1684072078.84047508,167068979,1000,1000,1000,1000,0,0,0,0,0,0,0,0,0,0
1684072078.94043517,167168939,1000,1000,1000,1000,0,0,0,0,0,0,0,0,0,0
1684072079.04039502,167268899,1000,1000,1000,1000,0,0,0,0,0,0,0,0,0,0
1684072079.14035511,167368859,1000,1000,1000,1000,0,0,0,0,0,0,0,0,0,0
1684072079.24031496,167468819,1000,1000,1000,1000,0,0,0,0,0,0,0,0,0,0
1684072079.34027505,167568779,1000,1000,1000,1000,0,0,0,0,0,0,0,0,0,0
1684072079.44023514,167668739,1000,1000,1000,1000,0,0,0,0,0,0,0,0,0,0
1684072079.54019499,167768699,1000,1000,1000,1000,0,0,0,0,0,0,0,0,0,0
1684072079.64015508,167868659,1000,1000,1000,1000,0,0,0,0,0,0,0,0,0,0
1684072079.74011517,167968619,1000,1000,1000,1000,0,0,0,0,0,0,0,0,0,0
1684072079.84007502,168068579,1000,1000,1000,1000,0,0,0,0,0,0,0,0,0,0
1684072079.94003510,168168539,1000,1000,1000,1000,0,0,0,0,0,0,0,0,0,0
1684072080.03999496,168268499,1000,1000,1000,1000,0,0,0,0,0,0,0,0,0,0
1684072080.13995504,168368459,1000,1000,1000,1000,0,0,0,0,0,0,0,0,0,0
1684072080.23991513,168468419,1000,1000,1000,1000,0,0,0,0,0,0,0,0,0,0
1684072080.33987498,168568379,1000,1000,1000,1000,0,0,0,0,0,0,0,0,0,0
1684072080.43983507,168668339,1000,1000,1000,1000,0,0,0,0,0,0,0,0,0,0
1684072080.53979516,168768299,1000,1000,1000,1000,0,0,0,0,0,0,0,0,0,0
1684072080.63975501,168868259,1000,1000,1000,1000,0,0,0,0,0,0,0,0,0,0
1684072080.73971510,168968219,1000,1000,1000,1000,0,0,0,0,0,0,0,0,0,0
1684072080.83967495,169068179,1000,1000,1000,1000,0,0,0,0,0,0,0,0,0,0
1684072080.94046807,169168972,1000,1000,1000,1000,0,0,0,0,0,0,0,0,0,0
1684072081.04042816,169268932,1000,1000,1000,1000,0,0,0,0,0,0,0,0,0,0
1684072081.14038801,169368892,1000,1000,1000,1000,0,0,0,0,0,0,0,0,0,0
1684072081.24034810,169468852,1000,1000,1000,1000,0,0,0,0,0,0,0,0,0,0
1684072081.34030795,169568812,1000,1000,1000,1000,0,0,0,0,0,0,0,0,0,0
1684072081.44026804,169668772,1000,1000,1000,1000,0,0,0,0,0,0,0,0,0,0
1684072081.54022813,169768732,1000,1000,1000,1000,0,0,0,0,0,0,0,0,0,0
1684072081.64018798,169868692,1000,1000,1000,1000,0,0,0,0,0,0,0,0,0,0
1684072081.74014807,169968652,1000,1000,1000,1000,0,0,0,0,0,0,0,0,0,0
1684072081.84010816,170068612,1000,1000,1000,1000,0,0,0,0,0,0,0,0,0,0
1684072081.94006801,170168572,1000,1000,1000,1000,0,0,0,0,0,0,0,0,0,0
1684072082.04002810,170268532,1000,1000,1000,1000,0,0,0,0,0,0,0,0,0,0
1684072082.13998795,170368492,1000,1000,1000,1000,0,0,0,0,0,0,0,0,0,0
1684072082.23994803,170468452,1000,1000,1000,1000,0,0,0,0,0,0,0,0,0,0
1684072082.33990812,170568412,1000,1000,1000,1000,0,0,0,0,0,0,0,0,0,0
1684072082.43986797,170668372,1000,1000,1000,1000,0,0,0,0,0,0,0,0,0,0
1684072082.53982806,170768332,1000,1000,1000,1000,0,0,0,0,0,0,0,0,0,0
1684072082.63978815,170868292,1000,1000,1000,1000,0,0,0,0,0,0,0,0,0,0
1684072082.73974800,170968252,1000,1000,1000,1000,0,0,0,0,0,0,0,0,0,0
1684072082.83970809,171068212,1000,1000,1000,1000,0,0,0,0,0,0,0,0,0,0
1684072082.93966794,171168172,1000,1000,1000,1000,0,0,0,0,0,0,0,0,0,0
1684072083.04046106,171268965,1000,1000,1000,1000,0,0,0,0,0,0,0,0,0,0
1684072083.14042115,171368925,1000,1000,1000,1000,0,0,0,0,0,0,0,0,0,0
1684072083.24038100,171468885,1000,1000,1000,1000,0,0,0,0,0,0,0,0,0,0
1684072083.34034109,171568845,1000,1000,1000,1000,0,0,0,0,0,0,0,0,0,0
1684072083.44030094,171668805,1000,1000,1000,1000,0,0,0,0,0,0,0,0,0,0
1684072083.54026103,171768765,1000,1000,1000,1000,0,0,0,0,0,0,0,0,0,0
1684072083.64022112,171868725,1000,1000,1000,1000,0,0,0,0,0,0,0,0,0,0
1684072083.74018097,171968685,1000,1000,1000,1000,0,0,0,0,0,0,0,0,0,0
1684072083.84014106,172068645,1000,1000,1000,1000,0,0,0,0,0,0,0,0,0,0
1684072083.94010115,172168605,1000,1000,1000,1000,0,0,0,0,0,0,0,0,0,0
1684072084.04006100,172268565,1000,1000,1000,1000,0,0,0,0,0,0,0,0,0,0
1684072084.14002109,172368525,1000,1000,1000,1000,0,0,0,0,0,0,0,0,0,0
1684072084.23998117,172468485,1000,1000,1000,1000,0,0,0,0,0,0,0,0,0,0
1684072084.33994102,172568445,1000,1000,1000,1000,0,0,0,0,0,0,0,0,0,0
1684072084.43990111,172668405,1000,1000,1000,1000,0,0,0,0,0,0,0,0,0,0
1684072084.53986096,172768365,1000,1000,1000,1000,0,0,0,0,0,0,0,0,0,0
1684072084.63982105,172868325,1000,1000,1000,1000,0,0,0,0,0,0,0,0,0,0
1684072084.73978114,172968285,1000,1000,1000,1000,0,0,0,0,0,0,0,0,0,0
1684072084.83974099,173068245,1000,1000,1000,1000,0,0,0,0,0,0,0,0,0,0
1684072084.93970108,173168205,1000,1000,1000,1000,0,0,0,0,0,0,0,0,0,0
1684072085.03966117,173268165,1000,1000,1000,1000,0,0,0,0,0,0,0,0,0,0
1684072085.14045405,173368958,1000,1000,1000,1000,0,0,0,0,0,0,0,0,0,0
1684072085.24041414,173468918,1000,1000,1000,1000,0,0,0,0,0,0,0,0,0,0
1684072085.34037399,173568878,1000,1000,1000,1000,0,0,0,0,0,0,0,0,0,0
1684072085.44033408,173668838,1000,1000,1000,1000,0,0,0,0,0,0,0,0,0,0
1684072085.54029417,173768798,1000,1000,1000,1000,0,0,0,0,0,0,0,0,0,0
1684072085.64025402,173868758,1000,1000,1000,1000,0,0,0,0,0,0,0,0,0,0
1684072085.74021411,173968718,1000,1000,1000,1000,0,0,0,0,0,0,0,0,0,0
1684072085.84017396,174068678,1000,1000,1000,1000,0,0,0,0,0,0,0,0,0,0
1684072085.94013405,174168638,1000,1000,1000,1000,0,0,0,0,0,0,0,0,0,0
1684072086.04009414,174268598,1000,1000,1000,1000,0,0,0,0,0,0,0,0,0,0
1684072086.14005399,174368558,1000,1000,1000,1000,0,0,0,0,0,0,0,0,0,0
1684072086.24001408,174468518,1000,1000,1000,1000,0,0,0,0,0,0,0,0,0,0
1684072086.33997416,174568478,1000,1000,1000,1000,0,0,0,0,0,0,0,0,0,0
1684072086.43993402,174668438,1000,1000,1000,1000,0,0,0,0,0,0,0,0,0,0
1684072086.53989410,174768398,1000,1000,1000,1000,0,0,0,0,0,0,0,0,0,0
1684072086.63985395,174868358,1000,1000,1000,1000,0,0,0,0,0,0,0,0,0,0
1684072086.73981404,174968318,1000,1000,1000,1000,0,0,0,0,0,0,0,0,0,0
