TimeUS,M1,M2,M3,M4,TimeUS,C1,C2,C3,C4
79205805,1000,1000,1000,1000,79228296,1000,1000,1000,1000
79208304,1000,1000,1000,1000,79328256,1000,1000,1000,1000
79210803,1000,1000,1000,1000,79428216,1000,1000,1000,1000
79213302,1000,1000,1000,1000,79528176,1000,1000,1000,1000
79215801,1000,1000,1000,1000,79628969,1000,1000,1000,1000
79218300,1000,1000,1000,1000,79728929,1000,1000,1000,1000
79220799,1000,1000,1000,1000,79828889,1000,1000,1000,1000
79223298,1000,1000,1000,1000,79928849,1000,1000,1000,1000
79225797,1000,1000,1000,1000,80028809,1000,1000,1000,1000
79228296,1000,1000,1000,1000,80128769,1000,1000,1000,1000
79230795,1000,1000,1000,1000,80228729,1000,1000,1000,1000
79233294,1000,1000,1000,1000,80328689,1000,1000,1000,1000
79235793,1000,1000,1000,1000,80428649,1000,1000,1000,1000
79238292,1000,1000,1000,1000,80528609,1000,1000,1000,1000
79240791,1000,1000,1000,1000,80628569,1000,1000,1000,1000
79243290,1000,1000,1000,1000,80728529,1000,1000,1000,1000
79245789,1000,1000,1000,1000,80828489,1000,1000,1000,1000
79248288,1000,1000,1000,1000,80928449,1000,1000,1000,1000
79250787,1000,1000,1000,1000,81028409,1000,1000,1000,1000
79253286,1000,1000,1000,1000,81128369,1000,1000,1000,1000
79255785,1000,1000,1000,1000,81228329,1006,1006,1006,1006
79258284,1000,1000,1000,1000,81328289,1036,1036,1036,1036
79260783,1000,1000,1000,1000,81428249,1066,1066,1066,1066
79263282,1000,1000,1000,1000,81528209,1096,1096,1096,1096
79265781,1000,1000,1000,1000,81628169,1126,1126,1126,1126
79268280,1000,1000,1000,1000,81728962,1217,1205,1206,1217
79270779,1000,1000,1000,1000,81828922,1445,1437,1438,1446
79273278,1000,1000,1000,1000,81928882,1616,1608,1609,1616
79275777,1000,1000,1000,1000,82028842,1758,1751,1751,1758
79278276,1000,1000,1000,1000,82128802,1876,1869,1869,1877
79280775,1000,1000,1000,1000,82228762,1872,1866,1867,1872
79283274,1000,1000,1000,1000,82328722,1772,1770,1770,1773
79285773,1000,1000,1000,1000,82428682,1655,1657,1657,1656
79288272,1000,1000,1000,1000,82528642,1611,1614,1614,1611
79290771,1000,1000,1000,1000,82628602,1615,1619,1619,1615
79293270,1000,1000,1000,1000,82728562,1630,1631,1631,1630
79295769,1000,1000,1000,1000,82828522,1633,1634,1634,1633
79298268,1000,1000,1000,1000,82928482,1629,1628,1628,1629
79300767,1000,1000,1000,1000,83028442,1622,1620,1620,1622
79303266,1000,1000,1000,1000,83128402,1604,1603,1596,1610
79305765,1000,1000,1000,1000,83228362,1599,1598,1590,1606
79308264,1000,1000,1000,1000,83328322,1599,1598,1594,1602
79310763,1000,1000,1000,1000,83428282,1604,1602,1603,1602
79313262,1000,1000,1000,1000,83528242,1608,1608,1610,1605
79315761,1000,1000,1000,1000,83628202,1613,1614,1617,1610
79318260,1000,1000,1000,1000,83728162,1602,1603,1610,1596
79320759,1000,1000,1000,1000,83828955,1579,1581,1596,1565
79323258,1000,1000,1000,1000,83928915,1568,1569,1579,1561
79325757,1000,1000,1000,1000,84028875,1557,1557,1555,1560
79328256,1000,1000,1000,1000,84128835,1549,1548,1539,1560
79330755,1000,1000,1000,1000,84228795,1541,1539,1528,1552
79333254,1000,1000,1000,1000,84328755,1535,1533,1525,1543
79335753,1000,1000,1000,1000,84428715,1529,1529,1525,1533
79338252,1000,1000,1000,1000,84528675,1528,1529,1528,1528
79340751,1000,1000,1000,1000,84628635,1530,1531,1532,1528
79343250,1000,1000,1000,1000,84728595,1534,1534,1537,1530
79345749,1000,1000,1000,1000,84828555,1537,1537,1541,1532
79348248,1000,1000,1000,1000,84928515,1540,1540,1543,1537
79350747,1000,1000,1000,1000,85028475,1543,1543,1545,1542
79353246,1000,1000,1000,1000,85128435,1546,1546,1547,1546
79355745,1000,1000,1000,1000,85228395,1548,1549,1548,1550
79358244,1000,1000,1000,1000,85328355,1551,1551,1550,1553
79360743,1000,1000,1000,1000,85428315,1551,1550,1554,1558
79363242,1000,1000,1000,1000,85528275,1551,1552,1560,1562
79365741,1000,1000,1000,1000,85628235,1554,1554,1562,1563
79368240,1000,1000,1000,1000,85728195,1557,1558,1563,1563
79370739,1000,1000,1000,1000,85828155,1561,1561,1564,1563
79373238,1000,1000,1000,1000,85928948,1564,1564,1565,1563
79375737,1000,1000,1000,1000,86028908,1567,1567,1565,1565
79378236,1000,1000,1000,1000,86128868,1570,1570,1565,1566
79380735,1000,1000,1000,1000,86228828,1570,1571,1565,1565
79383234,1000,1000,1000,1000,86328788,1572,1571,1565,1566
79385733,1000,1000,1000,1000,86428748,1573,1572,1566,1567
79388232,1000,1000,1000,1000,86528708,1574,1573,1568,1569
79390731,1000,1000,1000,1000,86628668,1572,1572,1568,1569
79393230,1000,1000,1000,1000,86728628,1573,1573,1570,1571
79395729,1000,1000,1000,1000,86828588,1573,1573,1572,1571
79398228,1000,1000,1000,1000,86928548,1574,1574,1576,1573
79400727,1000,1000,1000,1000,87028508,1573,1574,1576,1574
79403226,1000,1000,1000,1000,87128468,1574,1574,1577,1576
79405725,1000,1000,1000,1000,87228428,1574,1574,1576,1576
79408224,1000,1000,1000,1000,87328388,1575,1574,1577,1577
79410723,1000,1000,1000,1000,87428348,1574,1574,1575,1576
79413222,1000,1000,1000,1000,87528308,1575,1575,1576,1577
79415721,1000,1000,1000,1000,87628268,1576,1576,1577,1577
79418220,1000,1000,1000,1000,87728228,1576,1577,1577,1577
79420719,1000,1000,1000,1000,87828188,1577,1577,1577,1577
79423218,1000,1000,1000,1000,87928981,1578,1578,1577,1577
79425717,1000,1000,1000,1000,88028941,1579,1578,1578,1578
79428216,1000,1000,1000,1000,88128901,1578,1578,1577,1577
79430715,1000,1000,1000,1000,88228861,1578,1578,1578,1577
79433214,1000,1000,1000,1000,88328821,1578,1578,1578,1578
79435713,1000,1000,1000,1000,88428781,1578,1578,1577,1577
79438212,1000,1000,1000,1000,88528741,1578,1578,1578,1578
79440711,1000,1000,1000,1000,88628701,1578,1579,1579,1578
79443210,1000,1000,1000,1000,88728661,1580,1579,1580,1580
79445709,1000,1000,1000,1000,88828621,1579,1579,1580,1579
79448208,1000,1000,1000,1000,88928581,1578,1578,1578,1578
79450707,1000,1000,1000,1000,89028541,1578,1578,1578,1579
79453206,1000,1000,1000,1000,89128501,1579,1579,1579,1580
79455705,1000,1000,1000,1000,89228461,1578,1578,1578,1578
79458204,1000,1000,1000,1000,89328421,1579,1579,1579,1580
79460703,1000,1000,1000,1000,89428381,1579,1578,1579,1579
79463202,1000,1000,1000,1000,89528341,1579,1579,1580,1579
79465701,1000,1000,1000,1000,89628301,1579,1579,1579,1578
79468200,1000,1000,1000,1000,89728261,1579,1579,1579,1579
79470699,1000,1000,1000,1000,89828221,1579,1579,1579,1579
79473198,1000,1000,1000,1000,89928181,1579,1579,1579,1579
79475697,1000,1000,1000,1000,90028974,1578,1578,1578,1579
79478196,1000,1000,1000,1000,90128934,1580,1579,1580,1579
79480695,1000,1000,1000,1000,90228894,1580,1580,1580,1580
79483194,1000,1000,1000,1000,90328854,1579,1580,1580,1580
79485693,1000,1000,1000,1000,90428814,1579,1579,1579,1579
79488192,1000,1000,1000,1000,90528774,1580,1580,1580,1581
79490691,1000,1000,1000,1000,90628734,1580,1580,1580,1580
79493190,1000,1000,1000,1000,90728694,1580,1580,1580,1580
79495689,1000,1000,1000,1000,90828654,1580,1580,1580,1580
79498188,1000,1000,1000,1000,90928614,1582,1581,1581,1581
79500687,1000,1000,1000,1000,91028574,1581,1581,1581,1581
79503186,1000,1000,1000,1000,91128534,1582,1582,1582,1581
79505685,1000,1000,1000,1000,91228494,1581,1581,1582,1580
79508184,1000,1000,1000,1000,91328454,1580,1581,1581,1581
79510683,1000,1000,1000,1000,91428414,1581,1581,1581,1581
79513182,1000,1000,1000,1000,91528374,1581,1581,1581,1581
79515681,1000,1000,1000,1000,91628334,1581,1581,1583,1580
79518180,1000,1000,1000,1000,91728294,1581,1581,1588,1573
79520679,1000,1000,1000,1000,91828254,1579,1582,1583,1573
79523178,1000,1000,1000,1000,91928214,1578,1581,1575,1574
79525677,1000,1000,1000,1000,92028174,1577,1580,1566,1571
79528176,1000,1000,1000,1000,92128967,1577,1579,1559,1566
79530675,1000,1000,1000,1000,92228927,1578,1578,1555,1562
79533174,1000,1000,1000,1000,92328887,1579,1578,1555,1557
79535673,1000,1000,1000,1000,92428847,1580,1578,1556,1555
79538172,1000,1000,1000,1000,92528807,1580,1578,1556,1554
79540671,1000,1000,1000,1000,92628767,1579,1578,1556,1553
79543170,1000,1000,1000,1000,92728727,1576,1577,1555,1553
79545669,1000,1000,1000,1000,92828687,1575,1576,1554,1553
79548168,1000,1000,1000,1000,92928647,1575,1577,1553,1554
79550667,1000,1000,1000,1000,93028607,1574,1576,1552,1552
79553166,1000,1000,1000,1000,93128567,1575,1577,1550,1551
79555665,1000,1000,1000,1000,93228527,1576,1578,1549,1548
79558164,1000,1000,1000,1000,93328487,1579,1580,1547,1546
79560663,1000,1000,1000,1000,93428447,1582,1583,1545,1544
79563162,1000,1000,1000,1000,93528407,1585,1585,1542,1541
79565661,1000,1000,1000,1000,93628367,1588,1589,1539,1539
79568160,1000,1000,1000,1000,93728327,1591,1592,1537,1537
79570659,1000,1000,1000,1000,93828287,1593,1593,1534,1534
79573158,1000,1000,1000,1000,93928247,1595,1595,1535,1536
79575657,1000,1000,1000,1000,94028207,1595,1595,1535,1537
79578156,1000,1000,1000,1000,94128167,1594,1594,1537,1540
79580655,1000,1000,1000,1000,94228960,1592,1591,1541,1544
79583154,1000,1000,1000,1000,94328920,1588,1585,1548,1551
79586486,1000,1000,1000,1000,94428880,1581,1578,1557,1560
79588985,1000,1000,1000,1000,94528840,1571,1567,1567,1570
79591484,1000,1000,1000,1000,94628800,1560,1557,1580,1581
79593983,1000,1000,1000,1000,94728760,1550,1547,1593,1593
79596482,1000,1000,1000,1000,94828720,1541,1539,1604,1603
79598981,1000,1000,1000,1000,94928680,1534,1533,1611,1611
79601480,1000,1000,1000,1000,95028640,1529,1530,1615,1613
79603979,1000,1000,1000,1000,95128600,1529,1530,1615,1613
79606478,1000,1000,1000,1000,95228560,1533,1535,1612,1612
79608977,1000,1000,1000,1000,95328520,1539,1541,1607,1607
79611476,1000,1000,1000,1000,95428480,1546,1548,1599,1600
79613975,1000,1000,1000,1000,95528440,1556,1556,1592,1592
79616474,1000,1000,1000,1000,95628400,1564,1564,1585,1583
79618973,1000,1000,1000,1000,95728360,1572,1572,1578,1577
79621472,1000,1000,1000,1000,95828320,1579,1579,1573,1572
79623971,1000,1000,1000,1000,95928280,1584,1582,1568,1568
79626470,1000,1000,1000,1000,96028240,1587,1585,1566,1566
79628969,1000,1000,1000,1000,96128200,1588,1586,1566,1566
79631468,1000,1000,1000,1000,96228160,1587,1585,1566,1567
79633967,1000,1000,1000,1000,96328953,1585,1584,1569,1569
79636466,1000,1000,1000,1000,96428913,1582,1583,1572,1572
79638965,1000,1000,1000,1000,96528873,1579,1580,1575,1575
79641464,1000,1000,1000,1000,96628833,1577,1578,1578,1578
79643963,1000,1000,1000,1000,96728793,1575,1575,1580,1580
79646462,1000,1000,1000,1000,96828753,1574,1574,1583,1582
79648961,1000,1000,1000,1000,96928713,1571,1573,1583,1583
79651460,1000,1000,1000,1000,97028673,1572,1573,1584,1584
79653959,1000,1000,1000,1000,97128633,1572,1573,1583,1583
79656458,1000,1000,1000,1000,97228593,1573,1573,1582,1582
79658957,1000,1000,1000,1000,97328553,1574,1574,1581,1581
79661456,1000,1000,1000,1000,97428513,1575,1575,1579,1580
79663955,1000,1000,1000,1000,97528473,1577,1577,1579,1579
79666454,1000,1000,1000,1000,97628433,1579,1579,1578,1578
79668953,1000,1000,1000,1000,97728393,1540,1541,1589,1590
79671452,1000,1000,1000,1000,97828353,1555,1556,1590,1590
79673951,1000,1000,1000,1000,97928313,1569,1570,1587,1587
79676450,1000,1000,1000,1000,98028273,1580,1581,1582,1581
79678949,1000,1000,1000,1000,98128233,1590,1590,1578,1577
79681448,1000,1000,1000,1000,98228193,1596,1595,1573,1572
79683947,1000,1000,1000,1000,98328986,1600,1598,1570,1570
79686446,1000,1000,1000,1000,98428946,1602,1599,1569,1570
79688945,1000,1000,1000,1000,98528906,1601,1599,1570,1571
79691444,1000,1000,1000,1000,98628866,1597,1596,1571,1572
79693943,1000,1000,1000,1000,98728826,1594,1593,1574,1575
79696442,1000,1000,1000,1000,98828786,1590,1590,1577,1577
79698941,1000,1000,1000,1000,98928746,1586,1586,1580,1580
79701440,1000,1000,1000,1000,99028706,1581,1582,1582,1582
79703939,1000,1000,1000,1000,99128666,1578,1579,1585,1585
79706438,1000,1000,1000,1000,99228626,1576,1577,1587,1586
79708937,1000,1000,1000,1000,99328586,1574,1575,1588,1587
79711436,1000,1000,1000,1000,99428546,1574,1575,1588,1588
79713935,1000,1000,1000,1000,99528506,1574,1575,1586,1586
79716434,1000,1000,1000,1000,99628466,1576,1576,1587,1584
79718933,1000,1000,1000,1000,99728426,1576,1579,1590,1575
79721432,1000,1000,1000,1000,99828386,1579,1581,1583,1573
79723931,1000,1000,1000,1000,99928346,1580,1581,1572,1571
79726430,1000,1000,1000,1000,100028306,1581,1582,1562,1568
79728929,1000,1000,1000,1000,100128266,1581,1582,1555,1561
79731428,1000,1000,1000,1000,100228226,1582,1581,1550,1555
79733927,1000,1000,1000,1000,100328186,1583,1582,1549,1552
79736426,1000,1000,1000,1000,100428979,1584,1582,1551,1550
79738925,1000,1000,1000,1000,100528939,1583,1582,1552,1550
79741424,1000,1000,1000,1000,100628899,1581,1581,1552,1550
79743923,1000,1000,1000,1000,100728859,1579,1580,1553,1551
79746422,1000,1000,1000,1000,100828819,1577,1578,1553,1552
79748921,1000,1000,1000,1000,100928779,1577,1578,1554,1554
79751420,1000,1000,1000,1000,101028739,1575,1577,1553,1553
79753919,1000,1000,1000,1000,101128699,1576,1577,1552,1552
79756418,1000,1000,1000,1000,101228659,1576,1578,1550,1550
79758917,1000,1000,1000,1000,101328619,1578,1579,1548,1548
79761416,1000,1000,1000,1000,101428579,1580,1581,1546,1546
79763915,1000,1000,1000,1000,101528539,1583,1583,1544,1544
79766414,1000,1000,1000,1000,101628499,1586,1586,1543,1542
79768913,1000,1000,1000,1000,101728459,1588,1588,1542,1542
79771412,1000,1000,1000,1000,101828419,1589,1591,1539,1541
79773911,1000,1000,1000,1000,101928379,1590,1591,1538,1540
79776410,1000,1000,1000,1000,102028339,1591,1591,1540,1542
79778909,1000,1000,1000,1000,102128299,1590,1589,1544,1546
79781408,1000,1000,1000,1000,102228259,1587,1584,1549,1551
79783907,1000,1000,1000,1000,102328219,1581,1577,1557,1559
79786406,1000,1000,1000,1000,102428179,1573,1569,1566,1569
79788905,1000,1000,1000,1000,102528972,1564,1560,1578,1580
79791404,1000,1000,1000,1000,102628932,1553,1551,1588,1589
79793903,1000,1000,1000,1000,102728892,1545,1543,1597,1598
79796402,1000,1000,1000,1000,102828852,1539,1538,1605,1604
79798901,1000,1000,1000,1000,102928812,1535,1536,1609,1608
79801400,1000,1000,1000,1000,103028772,1535,1537,1610,1609
79803899,1000,1000,1000,1000,103128732,1537,1540,1608,1607
79806398,1000,1000,1000,1000,103228692,1543,1544,1604,1603
79808897,1000,1000,1000,1000,103328652,1550,1551,1599,1598
79811396,1000,1000,1000,1000,103428612,1558,1558,1593,1592
79813895,1000,1000,1000,1000,103528572,1566,1566,1586,1586
79816394,1000,1000,1000,1000,103628532,1573,1572,1580,1580
79818893,1000,1000,1000,1000,103728492,1579,1578,1576,1575
79821392,1000,1000,1000,1000,103828452,1583,1582,1572,1572
79823891,1000,1000,1000,1000,103928412,1585,1585,1569,1570
79826390,1000,1000,1000,1000,104028372,1587,1586,1569,1569
79828889,1000,1000,1000,1000,104128332,1587,1586,1570,1570
79831388,1000,1000,1000,1000,104228292,1587,1586,1572,1572
79833887,1000,1000,1000,1000,104328252,1584,1584,1573,1574
79836386,1000,1000,1000,1000,104428212,1582,1582,1576,1576
79838885,1000,1000,1000,1000,104528172,1579,1580,1578,1578
79841384,1000,1000,1000,1000,104628965,1577,1578,1581,1581
79843883,1000,1000,1000,1000,104728925,1576,1576,1583,1582
79846382,1000,1000,1000,1000,104828885,1574,1574,1583,1583
79848881,1000,1000,1000,1000,104928845,1573,1574,1584,1583
79851380,1000,1000,1000,1000,105028805,1572,1573,1583,1583
79853879,1000,1000,1000,1000,105128765,1573,1574,1582,1583
79856378,1000,1000,1000,1000,105228725,1575,1575,1582,1582
79858877,1000,1000,1000,1000,105328685,1576,1576,1581,1581
79861376,1000,1000,1000,1000,105428645,1578,1578,1581,1580
79863875,1000,1000,1000,1000,105528605,1579,1578,1579,1579
79866374,1000,1000,1000,1000,105628565,1579,1580,1578,1578
79868873,1000,1000,1000,1000,105728525,1580,1580,1577,1577
79871372,1000,1000,1000,1000,105828485,1580,1580,1576,1576
79873871,1000,1000,1000,1000,105928445,1581,1580,1576,1577
79876370,1000,1000,1000,1000,106028405,1581,1581,1577,1577
79878869,1000,1000,1000,1000,106128365,1581,1581,1578,1578
79881368,1000,1000,1000,1000,106228325,1581,1581,1579,1579
79883867,1000,1000,1000,1000,106328285,1581,1581,1579,1579
79886366,1000,1000,1000,1000,106428245,1581,1580,1580,1580
79888865,1000,1000,1000,1000,106528205,1581,1581,1581,1581
79891364,1000,1000,1000,1000,106628165,1580,1580,1581,1581
79893863,1000,1000,1000,1000,106728958,1580,1580,1581,1582
79896362,1000,1000,1000,1000,106828918,1580,1580,1581,1581
79898861,1000,1000,1000,1000,106928878,1579,1579,1581,1581
79901360,1000,1000,1000,1000,107028838,1580,1580,1581,1581
79903859,1000,1000,1000,1000,107128798,1581,1581,1582,1582
79906358,1000,1000,1000,1000,107228758,1580,1580,1581,1581
79908857,1000,1000,1000,1000,107328718,1581,1580,1581,1581
79911356,1000,1000,1000,1000,107428678,1582,1581,1582,1581
79913855,1000,1000,1000,1000,107528638,1582,1582,1581,1581
79916354,1000,1000,1000,1000,107628598,1582,1582,1581,1581
79918853,1000,1000,1000,1000,107728558,1581,1582,1581,1581
79921352,1000,1000,1000,1000,107828518,1581,1582,1585,1577
79923851,1000,1000,1000,1000,107928478,1581,1583,1587,1572
79926350,1000,1000,1000,1000,108028438,1580,1582,1580,1573
79928849,1000,1000,1000,1000,108128398,1579,1581,1572,1572
79931348,1000,1000,1000,1000,108228358,1578,1580,1564,1569
79933847,1000,1000,1000,1000,108328318,1577,1579,1558,1564
79936346,1000,1000,1000,1000,108428278,1578,1579,1555,1560
79938845,1000,1000,1000,1000,108528238,1580,1579,1555,1557
79941344,1000,1000,1000,1000,108628198,1580,1578,1555,1554
79943843,1000,1000,1000,1000,108728158,1578,1578,1555,1552
79946342,1000,1000,1000,1000,108828951,1579,1579,1557,1554
79948841,1000,1000,1000,1000,108928911,1577,1577,1556,1554
79951340,1000,1000,1000,1000,109028871,1577,1578,1556,1554
79953839,1000,1000,1000,1000,109128831,1575,1577,1554,1554
79956338,1000,1000,1000,1000,109228791,1575,1577,1553,1553
79958837,1000,1000,1000,1000,109328751,1576,1577,1551,1552
79961336,1000,1000,1000,1000,109428711,1577,1579,1549,1550
79963835,1000,1000,1000,1000,109528671,1579,1580,1548,1548
79966334,1000,1000,1000,1000,109628631,1581,1582,1545,1544
79968833,1000,1000,1000,1000,109728591,1584,1584,1542,1542
79971332,1000,1000,1000,1000,109828551,1586,1586,1540,1540
79973831,1000,1000,1000,1000,109928511,1587,1588,1537,1537
79976330,1000,1000,1000,1000,110028471,1590,1591,1538,1538
79978829,1000,1000,1000,1000,110128431,1592,1592,1536,1538
79981328,1000,1000,1000,1000,110228391,1592,1592,1537,1539
79983827,1000,1000,1000,1000,110328351,1592,1591,1540,1542
79986326,1000,1000,1000,1000,110428311,1589,1588,1544,1547
79988825,1000,1000,1000,1000,110528271,1586,1583,1551,1554
79991324,1000,1000,1000,1000,110628231,1579,1575,1560,1563
79993823,1000,1000,1000,1000,110728191,1571,1567,1572,1573
79996322,1000,1000,1000,1000,110828984,1561,1558,1583,1585
79998821,1000,1000,1000,1000,110928944,1552,1549,1595,1595
80001320,1000,1000,1000,1000,111028904,1542,1541,1603,1603
80003819,1000,1000,1000,1000,111128864,1537,1537,1610,1609
80006318,1000,1000,1000,1000,111228824,1532,1534,1611,1611
80008817,1000,1000,1000,1000,111328784,1534,1536,1612,1611
80011316,1000,1000,1000,1000,111428744,1537,1540,1609,1609
80013815,1000,1000,1000,1000,111528704,1543,1546,1604,1604
80016314,1000,1000,1000,1000,111628664,1552,1553,1599,1598
80018813,1000,1000,1000,1000,111728624,1560,1560,1592,1591
80021312,1000,1000,1000,1000,111828584,1567,1567,1585,1583
80023811,1000,1000,1000,1000,111928544,1574,1573,1579,1578
80026310,1000,1000,1000,1000,112028504,1579,1579,1573,1572
80028809,1000,1000,1000,1000,112128464,1584,1583,1570,1570
80031308,1000,1000,1000,1000,112228424,1586,1585,1568,1568
80033807,1000,1000,1000,1000,112328384,1588,1587,1568,1568
80036306,1000,1000,1000,1000,112428344,1587,1586,1569,1569
80038805,1000,1000,1000,1000,112528304,1585,1584,1570,1570
80041304,1000,1000,1000,1000,112628264,1582,1581,1572,1572
80043803,1000,1000,1000,1000,112728224,1580,1580,1575,1575
80046302,1000,1000,1000,1000,112828184,1577,1578,1578,1578
80048801,1000,1000,1000,1000,112928977,1576,1577,1581,1581
80051300,1000,1000,1000,1000,113028937,1574,1575,1583,1582
80053799,1000,1000,1000,1000,113128897,1573,1573,1583,1583
80056298,1000,1000,1000,1000,113228857,1573,1573,1583,1584
80058797,1000,1000,1000,1000,113328817,1574,1574,1584,1584
80061296,1000,1000,1000,1000,113428777,1575,1575,1584,1583
80063795,1000,1000,1000,1000,113528737,1575,1575,1582,1581
80066294,1000,1000,1000,1000,113628697,1576,1577,1581,1581
80068793,1000,1000,1000,1000,113728657,1578,1578,1580,1580
80071292,1000,1000,1000,1000,113828617,1579,1578,1578,1579
80073791,1000,1000,1000,1000,113928577,1579,1580,1578,1578
80076290,1000,1000,1000,1000,114028537,1580,1580,1577,1577
80078789,1000,1000,1000,1000,114128497,1582,1582,1578,1578
80081288,1000,1000,1000,1000,114228457,1582,1581,1578,1577
80083787,1000,1000,1000,1000,114328417,1581,1581,1578,1578
80086286,1000,1000,1000,1000,114428377,1581,1581,1578,1578
80088785,1000,1000,1000,1000,114528337,1582,1581,1579,1579
80091284,1000,1000,1000,1000,114628297,1581,1581,1580,1580
80093783,1000,1000,1000,1000,114728257,1581,1581,1581,1580
80096282,1000,1000,1000,1000,114828217,1581,1581,1581,1581
80098781,1000,1000,1000,1000,114928177,1580,1581,1581,1582
80101280,1000,1000,1000,1000,115028970,1579,1579,1580,1581
80103779,1000,1000,1000,1000,115128930,1579,1579,1580,1581
80106278,1000,1000,1000,1000,115228890,1580,1580,1582,1582
80108777,1000,1000,1000,1000,115328850,1580,1579,1581,1581
80111276,1000,1000,1000,1000,115428810,1580,1580,1581,1581
80113775,1000,1000,1000,1000,115528770,1580,1580,1581,1581
80116274,1000,1000,1000,1000,115628730,1581,1581,1581,1581
80118773,1000,1000,1000,1000,115728690,1581,1582,1581,1581
80121272,1000,1000,1000,1000,115828650,1579,1580,1585,1571
80123771,1000,1000,1000,1000,115928610,1580,1580,1584,1572
80126270,1000,1000,1000,1000,116028570,1579,1578,1578,1575
80128769,1000,1000,1000,1000,116128530,1575,1574,1571,1575
80131268,1000,1000,1000,1000,116228490,1572,1571,1566,1573
80133767,1000,1000,1000,1000,116328450,1569,1569,1564,1571
80136266,1000,1000,1000,1000,116428410,1568,1567,1565,1568
80138765,1000,1000,1000,1000,116528370,1567,1567,1566,1567
80141264,1000,1000,1000,1000,116628330,1565,1566,1567,1565
80143763,1000,1000,1000,1000,116728290,1567,1567,1569,1566
80146262,1000,1000,1000,1000,116828250,1566,1566,1568,1565
80148761,1000,1000,1000,1000,116928210,1565,1565,1567,1565
80151260,1000,1000,1000,1000,117028170,1565,1565,1566,1565
80153759,1000,1000,1000,1000,117128963,1563,1563,1564,1564
80156258,1000,1000,1000,1000,117228923,1562,1562,1563,1563
80158757,1000,1000,1000,1000,117328883,1562,1562,1562,1563
80161256,1000,1000,1000,1000,117428843,1562,1563,1563,1563
80163755,1000,1000,1000,1000,117528803,1562,1562,1562,1562
80166254,1000,1000,1000,1000,117628763,1561,1561,1562,1560
80168753,1000,1000,1000,1000,117728723,1560,1560,1560,1559
80171252,1000,1000,1000,1000,117828683,1560,1559,1559,1558
80173751,1000,1000,1000,1000,117928643,1559,1558,1559,1558
80176250,1000,1000,1000,1000,118028603,1559,1559,1559,1558
80178749,1000,1000,1000,1000,118128563,1557,1557,1551,1562
80181248,1000,1000,1000,1000,118228523,1555,1554,1569,1539
80183747,1000,1000,1000,1000,118328483,1551,1550,1561,1539
80186246,1000,1000,1000,1000,118428443,1545,1545,1548,1542
80188745,1000,1000,1000,1000,118528403,1540,1540,1536,1544
80191244,1000,1000,1000,1000,118628363,1534,1535,1527,1541
80193743,1000,1000,1000,1000,118728323,1528,1528,1520,1534
80196242,1000,1000,1000,1000,118828283,1524,1524,1518,1527
80198741,1000,1000,1000,1000,118928243,1522,1522,1519,1524
80201240,1000,1000,1000,1000,119028203,1522,1522,1523,1522
80203739,1000,1000,1000,1000,119128163,1524,1524,1525,1523
80206238,1000,1000,1000,1000,119228956,1525,1525,1527,1524
80208737,1000,1000,1000,1000,119328916,1530,1530,1532,1531
80211236,1000,1000,1000,1000,119428876,1535,1534,1536,1536
80213735,1000,1000,1000,1000,119528836,1539,1538,1539,1541
80216234,1000,1000,1000,1000,119628796,1542,1542,1542,1544
80218733,1000,1000,1000,1000,119728756,1544,1543,1544,1545
80221232,1000,1000,1000,1000,119828716,1545,1545,1544,1546
80223731,1000,1000,1000,1000,119928676,1546,1546,1546,1546
80226230,1000,1000,1000,1000,120028636,1546,1546,1546,1546
80228729,1000,1000,1000,1000,120128596,1546,1547,1545,1545
80231228,1000,1000,1000,1000,120228556,1547,1547,1546,1546
80233727,1000,1000,1000,1000,120328516,1546,1547,1546,1545
80236226,1000,1000,1000,1000,120428476,1547,1548,1547,1547
80238725,1000,1000,1000,1000,120528436,1547,1547,1546,1546
80241224,1000,1000,1000,1000,120628396,1545,1546,1545,1545
80243723,1000,1000,1000,1000,120728356,1546,1546,1546,1546
80246222,1000,1000,1000,1000,120828316,1545,1546,1545,1545
80248721,1000,1000,1000,1000,120928276,1546,1545,1546,1545
80251220,1000,1000,1000,1000,121028236,1545,1545,1545,1545
80253719,1000,1000,1000,1000,121128196,1544,1544,1545,1545
80256218,1000,1000,1000,1000,121228156,1545,1545,1545,1545
80258717,1000,1000,1000,1000,121328949,1544,1545,1545,1545
80261216,1000,1000,1000,1000,121428909,1544,1544,1545,1545
80263715,1000,1000,1000,1000,121528869,1543,1543,1544,1543
80266214,1000,1000,1000,1000,121628829,1544,1544,1544,1544
80268713,1000,1000,1000,1000,121728789,1543,1543,1544,1543
80271212,1000,1000,1000,1000,121828749,1545,1545,1545,1545
80273711,1000,1000,1000,1000,121928709,1545,1544,1544,1544
80276210,1000,1000,1000,1000,122028669,1544,1544,1544,1544
80278709,1000,1000,1000,1000,122128629,1543,1544,1543,1543
80281208,1000,1000,1000,1000,122228589,1544,1545,1544,1544
80283707,1000,1000,1000,1000,122328549,1544,1544,1544,1544
80286206,1000,1000,1000,1000,122428509,1544,1544,1544,1543
80288705,1000,1000,1000,1000,122528469,1544,1544,1544,1544
80291204,1000,1000,1000,1000,122628429,1544,1544,1544,1544
80293703,1000,1000,1000,1000,122728389,1544,1544,1543,1544
80296202,1000,1000,1000,1000,122828349,1544,1544,1544,1544
80298701,1000,1000,1000,1000,122928309,1544,1544,1544,1544
80301200,1000,1000,1000,1000,123028269,1543,1544,1544,1544
80303699,1000,1000,1000,1000,123128229,1544,1544,1543,1544
80306198,1000,1000,1000,1000,123228189,1543,1544,1543,1543
80308697,1000,1000,1000,1000,123328982,1544,1544,1544,1544
80311196,1000,1000,1000,1000,123428942,1544,1544,1544,1544
80313695,1000,1000,1000,1000,123528902,1544,1544,1544,1544
80316194,1000,1000,1000,1000,123628862,1544,1544,1544,1544
80318693,1000,1000,1000,1000,123728822,1545,1544,1545,1544
80321192,1000,1000,1000,1000,123828782,1544,1545,1544,1545
80323691,1000,1000,1000,1000,123928742,1544,1544,1544,1544
80326190,1000,1000,1000,1000,124028702,1544,1544,1544,1544
80328689,1000,1000,1000,1000,124128662,1544,1544,1544,1544
80331188,1000,1000,1000,1000,124228622,1544,1544,1544,1544
80333687,1000,1000,1000,1000,124328582,1544,1544,1544,1544
80336186,1000,1000,1000,1000,124428542,1543,1544,1544,1543
80338685,1000,1000,1000,1000,124528502,1544,1544,1543,1544
80341184,1000,1000,1000,1000,124628462,1544,1544,1544,1545
80343683,1000,1000,1000,1000,124728422,1544,1543,1543,1544
80346182,1000,1000,1000,1000,124828382,1545,1545,1545,1545
80348681,1000,1000,1000,1000,124928342,1544,1544,1544,1544
80351180,1000,1000,1000,1000,125028302,1544,1545,1544,1544
80353679,1000,1000,1000,1000,125128262,1544,1544,1544,1544
80356178,1000,1000,1000,1000,125228222,1544,1545,1545,1544
80358677,1000,1000,1000,1000,125328182,1545,1544,1544,1545
80361176,1000,1000,1000,1000,125428975,1544,1544,1544,1544
80363675,1000,1000,1000,1000,125528935,1544,1543,1543,1544
80366174,1000,1000,1000,1000,125628895,1544,1544,1544,1544
80368673,1000,1000,1000,1000,125728855,1544,1544,1544,1544
80371172,1000,1000,1000,1000,125828815,1544,1544,1544,1544
80373671,1000,1000,1000,1000,125928775,1545,1544,1545,1545
80376170,1000,1000,1000,1000,126028735,1544,1544,1544,1544
80378669,1000,1000,1000,1000,126128695,1544,1544,1544,1544
80381168,1000,1000,1000,1000,126228655,1543,1543,1543,1543
80383667,1000,1000,1000,1000,126328615,1544,1544,1543,1544
80386166,1000,1000,1000,1000,126428575,1543,1543,1543,1543
80388665,1000,1000,1000,1000,126528535,1544,1544,1544,1544
80391164,1000,1000,1000,1000,126628495,1544,1544,1544,1544
80393663,1000,1000,1000,1000,126728455,1544,1543,1543,1544
80396162,1000,1000,1000,1000,126828415,1543,1544,1544,1544
80398661,1000,1000,1000,1000,126928375,1545,1544,1545,1545
80401160,1000,1000,1000,1000,127028335,1544,1544,1544,1544
80403659,1000,1000,1000,1000,127128295,1544,1544,1544,1544
80406158,1000,1000,1000,1000,127228255,1544,1545,1545,1544
80408657,1000,1000,1000,1000,127328215,1544,1545,1545,1544
80411156,1000,1000,1000,1000,127428175,1544,1545,1544,1545
80413655,1000,1000,1000,1000,127528968,1544,1544,1544,1544
80416154,1000,1000,1000,1000,127628928,1545,1544,1544,1544
80418653,1000,1000,1000,1000,127728888,1545,1544,1544,1544
80421152,1000,1000,1000,1000,127828848,1544,1545,1545,1544
80423651,1000,1000,1000,1000,127928808,1544,1544,1544,1544
80426150,1000,1000,1000,1000,128028768,1544,1544,1544,1544
80428649,1000,1000,1000,1000,128128728,1544,1544,1544,1544
80431148,1000,1000,1000,1000,128228688,1544,1545,1545,1544
80433647,1000,1000,1000,1000,128328648,1545,1545,1545,1545
80436146,1000,1000,1000,1000,128428608,1544,1545,1545,1545
80438645,1000,1000,1000,1000,128528568,1534,1534,1534,1532
80441144,1000,1000,1000,1000,128628528,1361,1362,1345,1343
80443643,1000,1000,1000,1000,128728488,1275,1275,1245,1244
80446142,1000,1000,1000,1000,128828448,1247,1248,1213,1211
80448641,1000,1000,1000,1000,128928408,1227,1228,1189,1188
80451140,1000,1000,1000,1000,129028368,1196,1199,1153,1150
80453639,1000,1000,1000,1000,129128328,1196,1198,1152,1150
80456138,1000,1000,1000,1000,129228288,1196,1199,1154,1150
80458637,1000,1000,1000,1000,129328248,1225,1195,1150,1184
80461136,1000,1000,1000,1000,129428208,1225,1195,1150,1186
80463635,1000,1000,1000,1000,129528168,1217,1195,1150,1175
80466134,1000,1000,1000,1000,129628961,1215,1195,1150,1173
80468633,1000,1000,1000,1000,129728921,1217,1195,1150,1176
80471132,1000,1000,1000,1000,129828881,1219,1195,1150,1178
80473631,1000,1000,1000,1000,129928841,1221,1195,1150,1181
80476130,1000,1000,1000,1000,130028801,1222,1195,1150,1183
80478629,1000,1000,1000,1000,130128761,1204,1195,1150,1160
80481128,1000,1000,1000,1000,130228721,1210,1195,1150,1167
80483627,1000,1000,1000,1000,130328681,1211,1195,1150,1168
80486126,1000,1000,1000,1000,130428641,1212,1194,1150,1169
80488625,1000,1000,1000,1000,130528601,1212,1194,1150,1170
80491124,1000,1000,1000,1000,130628561,1000,1000,1000,1000
80493623,1000,1000,1000,1000,130728521,1000,1000,1000,1000
80496122,1000,1000,1000,1000,130828481,1000,1000,1000,1000
80498621,1000,1000,1000,1000,130928441,1000,1000,1000,1000
80501120,1000,1000,1000,1000,131028401,1000,1000,1000,1000
80503619,1000,1000,1000,1000,131128361,1000,1000,1000,1000
80506118,1000,1000,1000,1000,131228321,1000,1000,1000,1000
80508617,1000,1000,1000,1000,131328281,1000,1000,1000,1000
80511116,1000,1000,1000,1000,131428241,1000,1000,1000,1000
80513615,1000,1000,1000,1000,131528201,1000,1000,1000,1000
80516114,1000,1000,1000,1000,131628161,1000,1000,1000,1000
80518613,1000,1000,1000,1000,131728954,1000,1000,1000,1000
80521112,1000,1000,1000,1000,131828914,1000,1000,1000,1000
80523611,1000,1000,1000,1000,131928874,1000,1000,1000,1000
80526110,1000,1000,1000,1000,132028834,1000,1000,1000,1000
80528609,1000,1000,1000,1000,132128794,1000,1000,1000,1000
80531108,1000,1000,1000,1000,132228754,1000,1000,1000,1000
80533607,1000,1000,1000,1000,132328714,1000,1000,1000,1000
80536106,1000,1000,1000,1000,132428674,1000,1000,1000,1000
80538605,1000,1000,1000,1000,132528634,1000,1000,1000,1000
80541104,1000,1000,1000,1000,132628594,1000,1000,1000,1000
80543603,1000,1000,1000,1000,132728554,1000,1000,1000,1000
80546102,1000,1000,1000,1000,132828514,1000,1000,1000,1000
80548601,1000,1000,1000,1000,132928474,1000,1000,1000,1000
80551100,1000,1000,1000,1000,133028434,1000,1000,1000,1000
80553599,1000,1000,1000,1000,133128394,1000,1000,1000,1000
80556098,1000,1000,1000,1000,133228354,1000,1000,1000,1000
80558597,1000,1000,1000,1000,133328314,1000,1000,1000,1000
80561096,1000,1000,1000,1000,133428274,1000,1000,1000,1000
80563595,1000,1000,1000,1000,133528234,1000,1000,1000,1000
80566094,1000,1000,1000,1000,133628194,1000,1000,1000,1000
80568593,1000,1000,1000,1000,133728154,1000,1000,1000,1000
80571092,1000,1000,1000,1000,133828947,1000,1000,1000,1000
80573591,1000,1000,1000,1000,133928907,1000,1000,1000,1000
80576090,1000,1000,1000,1000,134028867,1000,1000,1000,1000
80578589,1000,1000,1000,1000,134128827,1000,1000,1000,1000
80581088,1000,1000,1000,1000,134228787,1000,1000,1000,1000
80583587,1000,1000,1000,1000,134328747,1000,1000,1000,1000
80586086,1000,1000,1000,1000,134428707,1000,1000,1000,1000
80588585,1000,1000,1000,1000,134528667,1000,1000,1000,1000
80591084,1000,1000,1000,1000,134628627,1000,1000,1000,1000
80593583,1000,1000,1000,1000,134728587,1000,1000,1000,1000
80596082,1000,1000,1000,1000,134828547,1000,1000,1000,1000
80598581,1000,1000,1000,1000,134928507,1000,1000,1000,1000
80601080,1000,1000,1000,1000,135028467,1000,1000,1000,1000
80603579,1000,1000,1000,1000,135128427,1000,1000,1000,1000
80606078,1000,1000,1000,1000,135228387,1000,1000,1000,1000
80608577,1000,1000,1000,1000,135328347,1000,1000,1000,1000
80611076,1000,1000,1000,1000,135428307,1000,1000,1000,1000
80613575,1000,1000,1000,1000,135528267,1000,1000,1000,1000
80616074,1000,1000,1000,1000,135628227,1000,1000,1000,1000
80618573,1000,1000,1000,1000,135728187,1000,1000,1000,1000
80621072,1000,1000,1000,1000,135828980,1000,1000,1000,1000
80623571,1000,1000,1000,1000,135928940,1000,1000,1000,1000
80626070,1000,1000,1000,1000,136028900,1000,1000,1000,1000
80628569,1000,1000,1000,1000,136128860,1000,1000,1000,1000
80631068,1000,1000,1000,1000,136228820,1000,1000,1000,1000
80633567,1000,1000,1000,1000,136328780,1000,1000,1000,1000
80636066,1000,1000,1000,1000,136428740,1000,1000,1000,1000
80638565,1000,1000,1000,1000,136528700,1000,1000,1000,1000
80641064,1000,1000,1000,1000,136628660,1000,1000,1000,1000
80643563,1000,1000,1000,1000,136728620,1000,1000,1000,1000
80646062,1000,1000,1000,1000,136828580,1000,1000,1000,1000
80648561,1000,1000,1000,1000,136928540,1000,1000,1000,1000
80651060,1000,1000,1000,1000,137028500,1000,1000,1000,1000
80653559,1000,1000,1000,1000,137128460,1000,1000,1000,1000
80656058,1000,1000,1000,1000,137228420,1000,1000,1000,1000
80658557,1000,1000,1000,1000,137328380,1000,1000,1000,1000
80661056,1000,1000,1000,1000,137428340,1000,1000,1000,1000
80663555,1000,1000,1000,1000,137528300,1000,1000,1000,1000
80666054,1000,1000,1000,1000,137628260,1000,1000,1000,1000
80668553,1000,1000,1000,1000,137728220,1000,1000,1000,1000
80671052,1000,1000,1000,1000,137828180,1000,1000,1000,1000
80673551,1000,1000,1000,1000,137928973,1000,1000,1000,1000
80676050,1000,1000,1000,1000,138028933,1000,1000,1000,1000
80678549,1000,1000,1000,1000,138128893,1000,1000,1000,1000
80681048,1000,1000,1000,1000,138228853,1000,1000,1000,1000
80683547,1000,1000,1000,1000,138328813,1000,1000,1000,1000
80686046,1000,1000,1000,1000,138428773,1000,1000,1000,1000
80688545,1000,1000,1000,1000,138528733,1000,1000,1000,1000
80691044,1000,1000,1000,1000,138628693,1000,1000,1000,1000
80693543,1000,1000,1000,1000,138728653,1000,1000,1000,1000
80696042,1000,1000,1000,1000,138828613,1000,1000,1000,1000
80698541,1000,1000,1000,1000,138928573,1000,1000,1000,1000
80701040,1000,1000,1000,1000,139028533,1000,1000,1000,1000
80703539,1000,1000,1000,1000,139128493,1000,1000,1000,1000
80706038,1000,1000,1000,1000,139228453,1000,1000,1000,1000
80708537,1000,1000,1000,1000,139328413,1000,1000,1000,1000
80711036,1000,1000,1000,1000,139428373,1000,1000,1000,1000
80713535,1000,1000,1000,1000,139528333,1000,1000,1000,1000
80716034,1000,1000,1000,1000,139628293,1000,1000,1000,1000
80718533,1000,1000,1000,1000,139728253,1000,1000,1000,1000
80721032,1000,1000,1000,1000,139828213,1000,1000,1000,1000
80723531,1000,1000,1000,1000,139928173,1000,1000,1000,1000
80726030,1000,1000,1000,1000,140028966,1000,1000,1000,1000
80728529,1000,1000,1000,1000,140128926,1000,1000,1000,1000
80731028,1000,1000,1000,1000,140228886,1000,1000,1000,1000
80733527,1000,1000,1000,1000,140328846,1000,1000,1000,1000
80736026,1000,1000,1000,1000,140428806,1000,1000,1000,1000
80738525,1000,1000,1000,1000,140528766,1000,1000,1000,1000
80741024,1000,1000,1000,1000,140628726,1000,1000,1000,1000
80743523,1000,1000,1000,1000,140728686,1000,1000,1000,1000
80746022,1000,1000,1000,1000,140828646,1000,1000,1000,1000
80748521,1000,1000,1000,1000,140928606,1000,1000,1000,1000
80751020,1000,1000,1000,1000,141028566,1000,1000,1000,1000
80753519,1000,1000,1000,1000,141128526,1000,1000,1000,1000
80756018,1000,1000,1000,1000,141228486,1000,1000,1000,1000
80758517,1000,1000,1000,1000,141328446,1000,1000,1000,1000
80761016,1000,1000,1000,1000,141428406,1000,1000,1000,1000
80763515,1000,1000,1000,1000,141528366,1000,1000,1000,1000
80766014,1000,1000,1000,1000,141628326,1000,1000,1000,1000
80768513,1000,1000,1000,1000,141728286,1000,1000,1000,1000
80771012,1000,1000,1000,1000,141828246,1000,1000,1000,1000
80773511,1000,1000,1000,1000,141928206,1000,1000,1000,1000
80776010,1000,1000,1000,1000,142028166,1000,1000,1000,1000
80778509,1000,1000,1000,1000,142128959,1000,1000,1000,1000
80781008,1000,1000,1000,1000,142228919,1000,1000,1000,1000
80783507,1000,1000,1000,1000,142328879,1000,1000,1000,1000
80786006,1000,1000,1000,1000,142428839,1000,1000,1000,1000
80788505,1000,1000,1000,1000,142528799,1000,1000,1000,1000
80791004,1000,1000,1000,1000,142628759,1000,1000,1000,1000
80793503,1000,1000,1000,1000,142728719,1000,1000,1000,1000
80796002,1000,1000,1000,1000,142828679,1000,1000,1000,1000
80798501,1000,1000,1000,1000,142928639,1000,1000,1000,1000
80801000,1000,1000,1000,1000,143028599,1000,1000,1000,1000
80803499,1000,1000,1000,1000,143128559,1000,1000,1000,1000
80805998,1000,1000,1000,1000,143228519,1000,1000,1000,1000
80808497,1000,1000,1000,1000,143328479,1000,1000,1000,1000
80810996,1000,1000,1000,1000,143428439,1000,1000,1000,1000
80813495,1000,1000,1000,1000,143528399,1000,1000,1000,1000
80815994,1000,1000,1000,1000,143628359,1000,1000,1000,1000
80818493,1000,1000,1000,1000,143728319,1000,1000,1000,1000
80820992,1000,1000,1000,1000,143828279,1000,1000,1000,1000
80823491,1000,1000,1000,1000,143928239,1000,1000,1000,1000
80825990,1000,1000,1000,1000,144028199,1000,1000,1000,1000
80828489,1000,1000,1000,1000,144128159,1000,1000,1000,1000
80830988,1000,1000,1000,1000,144228952,1000,1000,1000,1000
80833487,1000,1000,1000,1000,144328912,1000,1000,1000,1000
80835986,1000,1000,1000,1000,144428872,1000,1000,1000,1000
80838485,1000,1000,1000,1000,144528832,1000,1000,1000,1000
80840984,1000,1000,1000,1000,144628792,1000,1000,1000,1000
80843483,1000,1000,1000,1000,144728752,1000,1000,1000,1000
80845982,1000,1000,1000,1000,144828712,1000,1000,1000,1000
80848481,1000,1000,1000,1000,144928672,1000,1000,1000,1000
80850980,1000,1000,1000,1000,145028632,1000,1000,1000,1000
80853479,1000,1000,1000,1000,145128592,1000,1000,1000,1000
80855978,1000,1000,1000,1000,145228552,1000,1000,1000,1000
80858477,1000,1000,1000,1000,145328512,1000,1000,1000,1000
80860976,1000,1000,1000,1000,145428472,1000,1000,1000,1000
80863475,1000,1000,1000,1000,145528432,1000,1000,1000,1000
80865974,1000,1000,1000,1000,,,,,
80868473,1000,1000,1000,1000,,,,,
80870972,1000,1000,1000,1000,,,,,
80873471,1000,1000,1000,1000,,,,,
80875970,1000,1000,1000,1000,,,,,
80878469,1000,1000,1000,1000,,,,,
80880968,1000,1000,1000,1000,,,,,
80883467,1000,1000,1000,1000,,,,,
80885966,1000,1000,1000,1000,,,,,
80888465,1000,1000,1000,1000,,,,,
80890964,1000,1000,1000,1000,,,,,
80893463,1000,1000,1000,1000,,,,,
80895962,1000,1000,1000,1000,,,,,
80898461,1000,1000,1000,1000,,,,,
80900960,1000,1000,1000,1000,,,,,
80903459,1000,1000,1000,1000,,,,,
80905958,1000,1000,1000,1000,,,,,
80908457,1000,1000,1000,1000,,,,,
80910956,1000,1000,1000,1000,,,,,
80913455,1000,1000,1000,1000,,,,,
80915954,1000,1000,1000,1000,,,,,
80918453,1000,1000,1000,1000,,,,,
80920952,1000,1000,1000,1000,,,,,
80923451,1000,1000,1000,1000,,,,,
80925950,1000,1000,1000,1000,,,,,
80928449,1000,1000,1000,1000,,,,,
80930948,1000,1000,1000,1000,,,,,
80933447,1000,1000,1000,1000,,,,,
80935946,1000,1000,1000,1000,,,,,
80938445,1000,1000,1000,1000,,,,,
80940944,1000,1000,1000,1000,,,,,
80943443,1000,1000,1000,1000,,,,,
80945942,1000,1000,1000,1000,,,,,
80948441,1000,1000,1000,1000,,,,,
80950940,1000,1000,1000,1000,,,,,
80953439,1000,1000,1000,1000,,,,,
80955938,1000,1000,1000,1000,,,,,
80958437,1000,1000,1000,1000,,,,,
80960936,1000,1000,1000,1000,,,,,
80963435,1000,1000,1000,1000,,,,,
80965934,1000,1000,1000,1000,,,,,
80968433,1000,1000,1000,1000,,,,,
80970932,1000,1000,1000,1000,,,,,
80973431,1000,1000,1000,1000,,,,,
80975930,1000,1000,1000,1000,,,,,
80978429,1000,1000,1000,1000,,,,,
80980928,1000,1000,1000,1000,,,,,
80983427,1000,1000,1000,1000,,,,,
80985926,1000,1000,1000,1000,,,,,
80988425,1000,1000,1000,1000,,,,,
80990924,1000,1000,1000,1000,,,,,
80993423,1000,1000,1000,1000,,,,,
80995922,1000,1000,1000,1000,,,,,
80998421,1000,1000,1000,1000,,,,,
81000920,1000,1000,1000,1000,,,,,
81003419,1000,1000,1000,1000,,,,,
81005918,1000,1000,1000,1000,,,,,
81008417,1000,1000,1000,1000,,,,,
81010916,1000,1000,1000,1000,,,,,
81013415,1000,1000,1000,1000,,,,,
81015914,1000,1000,1000,1000,,,,,
81018413,1000,1000,1000,1000,,,,,
81020912,1000,1000,1000,1000,,,,,
81023411,1000,1000,1000,1000,,,,,
81025910,1000,1000,1000,1000,,,,,
81028409,1000,1000,1000,1000,,,,,
81030908,1000,1000,1000,1000,,,,,
81033407,1000,1000,1000,1000,,,,,
81035906,1000,1000,1000,1000,,,,,
81038405,1000,1000,1000,1000,,,,,
81040904,1000,1000,1000,1000,,,,,
81043403,1000,1000,1000,1000,,,,,
81045902,1000,1000,1000,1000,,,,,
81048401,1000,1000,1000,1000,,,,,
81050900,1000,1000,1000,1000,,,,,
81053399,1000,1000,1000,1000,,,,,
81055898,1000,1000,1000,1000,,,,,
81058397,1000,1000,1000,1000,,,,,
81060896,1000,1000,1000,1000,,,,,
81063395,1000,1000,1000,1000,,,,,
81065894,1000,1000,1000,1000,,,,,
81068393,1000,1000,1000,1000,,,,,
81070892,1000,1000,1000,1000,,,,,
81073391,1000,1000,1000,1000,,,,,
81075890,1000,1000,1000,1000,,,,,
81078389,1000,1000,1000,1000,,,,,
81080888,1000,1000,1000,1000,,,,,
81083387,1000,1000,1000,1000,,,,,
81085886,1000,1000,1000,1000,,,,,
81088385,1000,1000,1000,1000,,,,,
81090884,1000,1000,1000,1000,,,,,
81093383,1000,1000,1000,1000,,,,,
81095882,1000,1000,1000,1000,,,,,
81098381,1000,1000,1000,1000,,,,,
81100880,1000,1000,1000,1000,,,,,
81103379,1000,1000,1000,1000,,,,,
81105878,1000,1000,1000,1000,,,,,
81108377,1000,1000,1000,1000,,,,,
81110876,1000,1000,1000,1000,,,,,
81113375,1000,1000,1000,1000,,,,,
81115874,1000,1000,1000,1000,,,,,
81118373,1000,1000,1000,1000,,,,,
81120872,1000,1000,1000,1000,,,,,
81123371,1000,1000,1000,1000,,,,,
81125870,1000,1000,1000,1000,,,,,
81128369,1000,1000,1000,1000,,,,,
81130868,1000,1000,1000,1000,,,,,
81133367,1000,1000,1000,1000,,,,,
81135866,1000,1000,1000,1000,,,,,
81138365,1000,1000,1000,1000,,,,,
81140864,1000,1000,1000,1000,,,,,
81143363,1000,1000,1000,1000,,,,,
81145862,1000,1000,1000,1000,,,,,
81148361,1000,1000,1000,1000,,,,,
81150860,1000,1000,1000,1000,,,,,
81153359,1000,1000,1000,1000,,,,,
81155858,1000,1000,1000,1000,,,,,
81158357,1000,1000,1000,1000,,,,,
81160856,1000,1000,1000,1000,,,,,
81163355,1000,1000,1000,1000,,,,,
81165854,1000,1000,1000,1000,,,,,
81168353,1000,1000,1000,1000,,,,,
81170852,1000,1000,1000,1000,,,,,
81173351,1000,1000,1000,1000,,,,,
81175850,1000,1000,1000,1000,,,,,
81178349,1000,1000,1000,1000,,,,,
81180848,1000,1000,1000,1000,,,,,
81183347,1000,1000,1000,1000,,,,,
81185846,1000,1000,1000,1000,,,,,
81188345,1000,1000,1000,1000,,,,,
81190844,1000,1000,1000,1000,,,,,
81193343,1000,1000,1000,1000,,,,,
81195842,1000,1000,1000,1000,,,,,
81198341,1000,1000,1000,1000,,,,,
81200840,1000,1000,1000,1000,,,,,
81203339,1000,1000,1000,1000,,,,,
81205838,1000,1000,1000,1000,,,,,
81208337,1000,1000,1000,1000,,,,,
81210836,1000,1000,1000,1000,,,,,
81213335,1001,1001,1001,1001,,,,,
81215834,1002,1002,1002,1002,,,,,
81218333,1003,1003,1003,1003,,,,,
81220832,1003,1003,1003,1003,,,,,
81223331,1004,1004,1004,1004,,,,,
81225830,1005,1005,1005,1005,,,,,
81228329,1006,1006,1006,1006,,,,,
81230828,1006,1006,1006,1006,,,,,
81233327,1007,1007,1007,1007,,,,,
81235826,1008,1008,1008,1008,,,,,
81238325,1009,1009,1009,1009,,,,,
81240824,1009,1009,1009,1009,,,,,
81243323,1010,1010,1010,1010,,,,,
81245822,1011,1011,1011,1011,,,,,
81248321,1012,1012,1012,1012,,,,,
81250820,1012,1012,1012,1012,,,,,
81253319,1013,1013,1013,1013,,,,,
81255818,1014,1014,1014,1014,,,,,
81258317,1015,1015,1015,1015,,,,,
81260816,1015,1015,1015,1015,,,,,
81263315,1016,1016,1016,1016,,,,,
81265814,1017,1017,1017,1017,,,,,
81268313,1018,1018,1018,1018,,,,,
81270812,1018,1018,1018,1018,,,,,
81273311,1019,1019,1019,1019,,,,,
81275810,1020,1020,1020,1020,,,,,
81278309,1021,1021,1021,1021,,,,,
81280808,1021,1021,1021,1021,,,,,
81283307,1022,1022,1022,1022,,,,,
81285806,1023,1023,1023,1023,,,,,
81288305,1024,1024,1024,1024,,,,,
81290804,1024,1024,1024,1024,,,,,
81293303,1025,1025,1025,1025,,,,,
81295802,1026,1026,1026,1026,,,,,
81298301,1027,1027,1027,1027,,,,,
81300800,1027,1027,1027,1027,,,,,
81303299,1028,1028,1028,1028,,,,,
81305798,1029,1029,1029,1029,,,,,
81308297,1030,1030,1030,1030,,,,,
81310796,1030,1030,1030,1030,,,,,
81313295,1031,1031,1031,1031,,,,,
81315794,1032,1032,1032,1032,,,,,
81318293,1033,1033,1033,1033,,,,,
81320792,1033,1033,1033,1033,,,,,
81323291,1034,1034,1034,1034,,,,,
81325790,1035,1035,1035,1035,,,,,
81328289,1036,1036,1036,1036,,,,,
81330788,1036,1036,1036,1036,,,,,
81333287,1037,1037,1037,1037,,,,,
81335786,1038,1038,1038,1038,,,,,
81338285,1039,1039,1039,1039,,,,,
81340784,1039,1039,1039,1039,,,,,
81343283,1040,1040,1040,1040,,,,,
81345782,1041,1041,1041,1041,,,,,
81348281,1042,1042,1042,1042,,,,,
81350780,1042,1042,1042,1042,,,,,
81353279,1043,1043,1043,1043,,,,,
81355778,1044,1044,1044,1044,,,,,
81358277,1045,1045,1045,1045,,,,,
81360776,1045,1045,1045,1045,,,,,
81363275,1046,1046,1046,1046,,,,,
81365774,1047,1047,1047,1047,,,,,
81368273,1048,1048,1048,1048,,,,,
81370772,1048,1048,1048,1048,,,,,
81373271,1049,1049,1049,1049,,,,,
81375770,1050,1050,1050,1050,,,,,
81378269,1051,1051,1051,1051,,,,,
81380768,1051,1051,1051,1051,,,,,
81383267,1052,1052,1052,1052,,,,,
81385766,1053,1053,1053,1053,,,,,
81388265,1054,1054,1054,1054,,,,,
81390764,1054,1054,1054,1054,,,,,
81393263,1055,1055,1055,1055,,,,,
81395762,1056,1056,1056,1056,,,,,
81398261,1057,1057,1057,1057,,,,,
81400760,1057,1057,1057,1057,,,,,
81403259,1058,1058,1058,1058,,,,,
81405758,1059,1059,1059,1059,,,,,
81408257,1060,1060,1060,1060,,,,,
81410756,1060,1060,1060,1060,,,,,
81413255,1061,1061,1061,1061,,,,,
81415754,1062,1062,1062,1062,,,,,
81418253,1063,1063,1063,1063,,,,,
81420752,1063,1063,1063,1063,,,,,
81423251,1064,1064,1064,1064,,,,,
81425750,1065,1065,1065,1065,,,,,
81428249,1066,1066,1066,1066,,,,,
81430748,1066,1066,1066,1066,,,,,
81433247,1067,1067,1067,1067,,,,,
81435746,1068,1068,1068,1068,,,,,
81438245,1069,1069,1069,1069,,,,,
81440744,1069,1069,1069,1069,,,,,
81443243,1070,1070,1070,1070,,,,,
81445742,1071,1071,1071,1071,,,,,
81448241,1072,1072,1072,1072,,,,,
81450740,1072,1072,1072,1072,,,,,
81453239,1073,1073,1073,1073,,,,,
81455738,1074,1074,1074,1074,,,,,
81458237,1075,1075,1075,1075,,,,,
81460736,1075,1075,1075,1075,,,,,
81463235,1076,1076,1076,1076,,,,,
81465734,1077,1077,1077,1077,,,,,
81468233,1078,1078,1078,1078,,,,,
81470732,1078,1078,1078,1078,,,,,
81473231,1079,1079,1079,1079,,,,,
81475730,1080,1080,1080,1080,,,,,
81478229,1081,1081,1081,1081,,,,,
81480728,1081,1081,1081,1081,,,,,
81483227,1082,1082,1082,1082,,,,,
81485726,1083,1083,1083,1083,,,,,
81488225,1084,1084,1084,1084,,,,,
81490724,1084,1084,1084,1084,,,,,
81493223,1085,1085,1085,1085,,,,,
81495722,1086,1086,1086,1086,,,,,
81498221,1087,1087,1087,1087,,,,,
81500720,1087,1087,1087,1087,,,,,
81503219,1088,1088,1088,1088,,,,,
81505718,1089,1089,1089,1089,,,,,
81508217,1090,1090,1090,1090,,,,,
81510716,1090,1090,1090,1090,,,,,
81513215,1091,1091,1091,1091,,,,,
81515714,1092,1092,1092,1092,,,,,
81518213,1093,1093,1093,1093,,,,,
81520712,1093,1093,1093,1093,,,,,
81523211,1094,1094,1094,1094,,,,,
81525710,1095,1095,1095,1095,,,,,
81528209,1096,1096,1096,1096,,,,,
81530708,1096,1096,1096,1096,,,,,
81533207,1097,1097,1097,1097,,,,,
81535706,1098,1098,1098,1098,,,,,
81538205,1099,1099,1099,1099,,,,,
81540704,1099,1099,1099,1099,,,,,
81543203,1100,1100,1100,1100,,,,,
81545702,1101,1101,1101,1101,,,,,
81548201,1101,1101,1101,1101,,,,,
81550700,1102,1102,1102,1102,,,,,
81553199,1103,1103,1103,1103,,,,,
81555698,1104,1104,1104,1104,,,,,
81558197,1104,1104,1104,1104,,,,,
81560696,1105,1105,1105,1105,,,,,
81563195,1106,1106,1106,1106,,,,,
81565694,1107,1107,1107,1107,,,,,
81568193,1107,1107,1107,1107,,,,,
81570692,1108,1108,1108,1108,,,,,
81573191,1109,1109,1109,1109,,,,,
81575690,1110,1110,1110,1110,,,,,
81578189,1110,1110,1110,1110,,,,,
81580688,1111,1111,1111,1111,,,,,
81583187,1112,1112,1112,1112,,,,,
81585686,1113,1113,1113,1113,,,,,
81588185,1113,1113,1113,1113,,,,,
81590684,1114,1114,1114,1114,,,,,
81593183,1115,1115,1115,1115,,,,,
81595682,1116,1116,1116,1116,,,,,
81598181,1116,1116,1116,1116,,,,,
81600680,1117,1117,1117,1117,,,,,
81603179,1118,1118,1118,1118,,,,,
81605678,1119,1119,1119,1119,,,,,
81608177,1119,1119,1119,1119,,,,,
81610676,1120,1120,1120,1120,,,,,
81613175,1121,1121,1121,1121,,,,,
81615674,1122,1122,1122,1122,,,,,
81618173,1122,1122,1122,1122,,,,,
81620672,1123,1123,1123,1123,,,,,
81623171,1124,1124,1124,1124,,,,,
81625670,1125,1125,1125,1125,,,,,
81628169,1125,1125,1125,1125,,,,,
81630668,1126,1126,1126,1126,,,,,
81633167,1127,1127,1127,1127,,,,,
81635666,1128,1128,1128,1128,,,,,
81638165,1128,1128,1128,1128,,,,,
81640664,1129,1129,1129,1129,,,,,
81643163,1130,1130,1130,1130,,,,,
81645662,1131,1131,1131,1131,,,,,
81648161,1131,1131,1131,1131,,,,,
81650660,1132,1132,1132,1132,,,,,
81653159,1133,1133,1133,1133,,,,,
81655658,1134,1134,1134,1134,,,,,
81658157,1134,1134,1134,1134,,,,,
81660656,1135,1135,1135,1135,,,,,
81663155,1136,1136,1136,1136,,,,,
81665654,1137,1137,1137,1137,,,,,
81668986,1137,1137,1137,1137,,,,,
81671485,1138,1138,1138,1138,,,,,
81673984,1139,1139,1139,1139,,,,,
81676483,1140,1140,1140,1140,,,,,
81678982,1140,1140,1140,1140,,,,,
81681481,1141,1141,1141,1141,,,,,
81683980,1142,1142,1142,1142,,,,,
81686479,1143,1143,1143,1143,,,,,
81688978,1143,1143,1143,1143,,,,,
81691477,1144,1144,1144,1144,,,,,
81693976,1145,1145,1145,1145,,,,,
81696475,1146,1146,1146,1146,,,,,
81698974,1146,1146,1146,1146,,,,,
81701473,1147,1147,1147,1147,,,,,
81703972,1148,1148,1148,1148,,,,,
81706471,1149,1149,1149,1149,,,,,
81708970,1149,1149,1149,1149,,,,,
81711469,1150,1150,1150,1150,,,,,
81713968,1164,1151,1152,1164,,,,,
81716467,1172,1159,1160,1172,,,,,
81718966,1180,1167,1168,1180,,,,,
81721465,1187,1175,1176,1188,,,,,
81723964,1195,1183,1184,1195,,,,,
81726463,1202,1190,1191,1202,,,,,
81728962,1210,1198,1199,1210,,,,,
81731461,1217,1205,1206,1217,,,,,
81733960,1224,1212,1213,1224,,,,,
81736459,1231,1219,1220,1231,,,,,
81738958,1238,1226,1227,1238,,,,,
81741457,1244,1233,1234,1245,,,,,
81743956,1251,1240,1241,1251,,,,,
81746455,1258,1247,1248,1258,,,,,
81748954,1264,1253,1254,1264,,,,,
81751453,1271,1260,1261,1271,,,,,
81753952,1277,1266,1267,1277,,,,,
81756451,1283,1273,1274,1283,,,,,
81758950,1289,1279,1280,1290,,,,,
81761449,1295,1285,1286,1296,,,,,
81763948,1301,1291,1292,1302,,,,,
81766447,1307,1297,1298,1308,,,,,
81768946,1313,1303,1304,1314,,,,,
81771445,1319,1309,1310,1319,,,,,
81773944,1325,1315,1316,1325,,,,,
81776443,1331,1321,1322,1331,,,,,
81778942,1336,1327,1328,1337,,,,,
81781441,1342,1333,1334,1342,,,,,
81783940,1348,1338,1339,1348,,,,,
81786439,1353,1344,1345,1353,,,,,
81788938,1359,1349,1350,1359,,,,,
81791437,1364,1355,1356,1364,,,,,
81793936,1370,1360,1361,1370,,,,,
81796435,1375,1366,1367,1375,,,,,
81798934,1380,1371,1372,1380,,,,,
81801433,1385,1376,1377,1385,,,,,
81803932,1391,1382,1383,1391,,,,,
81806431,1396,1387,1388,1396,,,,,
81808930,1401,1392,1393,1401,,,,,
81811429,1406,1397,1398,1406,,,,,
81813928,1411,1402,1403,1411,,,,,
81816427,1416,1407,1408,1416,,,,,
81818926,1421,1412,1413,1421,,,,,
81821425,1426,1417,1418,1426,,,,,
81823924,1431,1422,1423,1431,,,,,
81826423,1436,1427,1428,1436,,,,,
81828922,1441,1432,1433,1441,,,,,
81831421,1445,1437,1438,1446,,,,,
81833920,1450,1442,1442,1450,,,,,
81836419,1455,1446,1447,1455,,,,,
81838918,1460,1451,1452,1460,,,,,
81841417,1464,1456,1457,1464,,,,,
81843916,1469,1461,1461,1469,,,,,
81846415,1474,1465,1466,1474,,,,,
81848914,1478,1470,1470,1478,,,,,
81851413,1483,1474,1475,1483,,,,,
81853912,1487,1479,1480,1487,,,,,
81856411,1492,1483,1484,1492,,,,,
81858910,1496,1488,1489,1496,,,,,
81861409,1501,1492,1493,1501,,,,,
81863908,1505,1497,1497,1505,,,,,
81866407,1509,1501,1502,1510,,,,,
81868906,1514,1506,1506,1514,,,,,
81871405,1518,1510,1511,1518,,,,,
81873904,1522,1514,1515,1523,,,,,
81876403,1527,1519,1519,1527,,,,,
81878902,1531,1523,1524,1531,,,,,
81881401,1535,1527,1528,1535,,,,,
81883900,1540,1531,1532,1540,,,,,
81886399,1544,1536,1536,1544,,,,,
81888898,1548,1540,1541,1548,,,,,
81891397,1552,1544,1545,1552,,,,,
81893896,1556,1548,1549,1556,,,,,
81896395,1560,1552,1553,1560,,,,,
81898894,1565,1556,1557,1564,,,,,
81901393,1569,1560,1561,1569,,,,,
81903892,1573,1564,1565,1573,,,,,
81906391,1577,1569,1569,1577,,,,,
81908890,1581,1573,1573,1581,,,,,
81911389,1585,1577,1577,1585,,,,,
81913888,1589,1581,1581,1589,,,,,
81916387,1593,1585,1585,1593,,,,,
81918886,1597,1588,1589,1597,,,,,
81921385,1601,1592,1593,1600,,,,,
81923884,1604,1596,1597,1604,,,,,
81926383,1608,1600,1601,1608,,,,,
81928882,1612,1604,1605,1612,,,,,
81931381,1616,1608,1609,1616,,,,,
81933880,1620,1612,1613,1620,,,,,
81936379,1624,1616,1616,1624,,,,,
81938878,1627,1620,1620,1627,,,,,
81941377,1631,1623,1624,1631,,,,,
81943876,1635,1627,1628,1635,,,,,
81946375,1639,1631,1632,1639,,,,,
81948874,1642,1635,1635,1642,,,,,
81951373,1646,1638,1639,1646,,,,,
81953872,1650,1642,1643,1650,,,,,
81956371,1653,1646,1646,1654,,,,,
81958870,1657,1650,1650,1657,,,,,
81961369,1661,1653,1654,1661,,,,,
81963868,1664,1657,1658,1664,,,,,
81966367,1668,1661,1661,1668,,,,,
81968866,1671,1664,1665,1672,,,,,
81971365,1675,1668,1668,1675,,,,,
81973864,1679,1672,1672,1679,,,,,
81976363,1682,1675,1676,1682,,,,,
81978862,1686,1679,1679,1686,,,,,
81981361,1689,1682,1683,1690,,,,,
81983860,1693,1686,1686,1693,,,,,
81986359,1696,1689,1690,1697,,,,,
81988858,1700,1693,1693,1700,,,,,
81991357,1703,1696,1697,1704,,,,,
81993856,1707,1700,1700,1707,,,,,
81996355,1710,1703,1704,1711,,,,,
81998854,1714,1707,1707,1714,,,,,
82001353,1717,1710,1711,1717,,,,,
82003852,1721,1714,1714,1721,,,,,
82006351,1724,1717,1718,1724,,,,,
82008850,1727,1721,1721,1728,,,,,
82011349,1731,1724,1724,1731,,,,,
82013848,1734,1727,1728,1735,,,,,
82016347,1738,1731,1731,1738,,,,,
82018846,1741,1734,1735,1741,,,,,
82021345,1744,1738,1738,1745,,,,,
82023844,1748,1741,1741,1748,,,,,
82026343,1751,1744,1745,1751,,,,,
82028842,1754,1748,1748,1755,,,,,
82031341,1758,1751,1751,1758,,,,,
82033840,1761,1754,1754,1761,,,,,
82036339,1764,1757,1758,1765,,,,,
82038838,1767,1761,1761,1768,,,,,
82041337,1771,1764,1764,1771,,,,,
82043836,1774,1767,1767,1774,,,,,
82046335,1777,1771,1771,1778,,,,,
82048834,1780,1774,1774,1781,,,,,
82051333,1784,1777,1777,1784,,,,,
82053832,1787,1780,1780,1787,,,,,
82056331,1790,1783,1784,1791,,,,,
82058830,1793,1787,1787,1794,,,,,
82061329,1796,1790,1790,1797,,,,,
82063828,1800,1793,1793,1800,,,,,
82066327,1803,1796,1796,1803,,,,,
82068826,1806,1799,1799,1806,,,,,
82071325,1809,1802,1803,1810,,,,,
82073824,1812,1806,1806,1813,,,,,
82076323,1815,1809,1809,1816,,,,,
82078822,1818,1812,1812,1819,,,,,
82081321,1822,1815,1815,1822,,,,,
82083820,1825,1818,1818,1825,,,,,
82086319,1828,1821,1821,1828,,,,,
82088818,1831,1824,1824,1831,,,,,
82091317,1834,1827,1827,1835,,,,,
82093816,1837,1830,1830,1838,,,,,
82096315,1840,1833,1833,1841,,,,,
82098814,1843,1836,1836,1844,,,,,
82101313,1846,1839,1839,1847,,,,,
82103812,1849,1842,1842,1850,,,,,
82106311,1852,1845,1846,1853,,,,,
82108810,1855,1848,1849,1856,,,,,
82111309,1858,1851,1852,1859,,,,,
82113808,1861,1854,1855,1862,,,,,
82116307,1864,1857,1858,1865,,,,,
82118806,1867,1860,1861,1868,,,,,
82121305,1870,1863,1863,1871,,,,,
82123804,1873,1866,1866,1874,,,,,
82126303,1876,1869,1869,1877,,,,,
82128802,1878,1870,1871,1878,,,,,
82131301,1876,1869,1869,1877,,,,,
82133800,1875,1868,1868,1876,,,,,
82136299,1874,1867,1867,1874,,,,,
82138798,1873,1866,1866,1873,,,,,
82141297,1872,1865,1865,1872,,,,,
82143796,1871,1863,1864,1871,,,,,
82146295,1870,1862,1863,1870,,,,,
82148794,1869,1862,1862,1869,,,,,
82151293,1868,1861,1861,1868,,,,,
82153792,1868,1860,1860,1868,,,,,
82156291,1867,1859,1860,1867,,,,,
82158790,1866,1859,1859,1866,,,,,
82161289,1866,1858,1859,1866,,,,,
82163788,1865,1858,1858,1865,,,,,
82166287,1865,1857,1858,1865,,,,,
82168786,1865,1857,1858,1865,,,,,
82171285,1864,1857,1857,1865,,,,,
82173784,1864,1857,1857,1864,,,,,
82176283,1864,1857,1857,1864,,,,,
82178782,1864,1857,1857,1864,,,,,
82181281,1864,1857,1857,1864,,,,,
82183780,1865,1857,1857,1865,,,,,
82186279,1865,1857,1858,1865,,,,,
82188778,1865,1857,1858,1865,,,,,
82191277,1865,1858,1858,1865,,,,,
82193776,1866,1858,1859,1866,,,,,
82196275,1866,1858,1859,1866,,,,,
82198774,1867,1859,1860,1867,,,,,
82201273,1867,1860,1860,1867,,,,,
82203772,1868,1860,1861,1868,,,,,
82206271,1869,1861,1861,1869,,,,,
82208770,1869,1861,1862,1869,,,,,
82211269,1870,1862,1863,1870,,,,,
82213768,1870,1863,1864,1870,,,,,
82216267,1871,1864,1864,1871,,,,,
82218766,1871,1864,1865,1871,,,,,
82221265,1872,1865,1866,1872,,,,,
82223764,1872,1865,1866,1872,,,,,
82226263,1872,1866,1866,1872,,,,,
82228762,1872,1866,1867,1872,,,,,
82231261,1872,1866,1867,1872,,,,,
82233760,1871,1866,1866,1871,,,,,
82236259,1871,1865,1866,1871,,,,,
82238758,1870,1865,1866,1870,,,,,
82241257,1869,1864,1865,1869,,,,,
82243756,1868,1863,1864,1868,,,,,
82246255,1867,1862,1863,1867,,,,,
82248754,1866,1861,1862,1866,,,,,
82251253,1865,1860,1860,1865,,,,,
82253752,1863,1858,1859,1863,,,,,
82256251,1861,1857,1857,1861,,,,,
82258750,1859,1855,1855,1859,,,,,
82261249,1857,1853,1853,1857,,,,,
82263748,1855,1851,1851,1855,,,,,
82266247,1853,1849,1849,1853,,,,,
82268746,1851,1846,1847,1851,,,,,
82271245,1848,1844,1845,1848,,,,,
82273744,1846,1842,1842,1846,,,,,
82276243,1843,1839,1840,1843,,,,,
82278742,1840,1837,1837,1841,,,,,
82281241,1838,1834,1835,1838,,,,,
82283740,1835,1831,1832,1835,,,,,
82286239,1832,1829,1829,1832,,,,,
82288738,1829,1826,1826,1829,,,,,
82291237,1826,1823,1823,1826,,,,,
82293736,1823,1820,1820,1823,,,,,
82296235,1820,1817,1817,1820,,,,,
82298734,1817,1814,1814,1817,,,,,
82301233,1813,1810,1811,1814,,,,,
82303732,1810,1807,1808,1810,,,,,
82306231,1807,1804,1804,1807,,,,,
82308730,1803,1801,1801,1804,,,,,
82311229,1800,1797,1798,1800,,,,,
82313728,1797,1794,1794,1797,,,,,
82316227,1793,1790,1791,1793,,,,,
82318726,1790,1787,1787,1790,,,,,
82321225,1786,1784,1784,1787,,,,,
82323724,1783,1780,1781,1783,,,,,
82326223,1779,1777,1777,1780,,,,,
82328722,1776,1774,1774,1776,,,,,
82331221,1772,1770,1770,1773,,,,,
82333720,1769,1767,1767,1769,,,,,
82336219,1765,1763,1764,1766,,,,,
82338718,1762,1760,1760,1762,,,,,
82341217,1758,1757,1757,1759,,,,,
82343716,1755,1753,1754,1755,,,,,
82346215,1751,1750,1750,1752,,,,,
82348714,1748,1746,1747,1748,,,,,
82351213,1745,1743,1743,1745,,,,,
82353712,1741,1740,1740,1742,,,,,
82356211,1738,1737,1737,1738,,,,,
82358710,1734,1733,1734,1735,,,,,
82361209,1731,1730,1730,1731,,,,,
82363708,1728,1727,1727,1728,,,,,
82366207,1725,1724,1724,1725,,,,,
82368706,1721,1721,1721,1722,,,,,
82371205,1718,1718,1718,1719,,,,,
82373704,1715,1715,1715,1716,,,,,
82376203,1712,1712,1712,1713,,,,,
82378702,1709,1709,1709,1710,,,,,
82381201,1706,1706,1706,1707,,,,,
82383700,1703,1703,1703,1704,,,,,
82386199,1700,1700,1700,1701,,,,,
82388698,1697,1697,1698,1698,,,,,
82391197,1695,1695,1695,1695,,,,,
82393696,1692,1692,1692,1692,,,,,
82396195,1689,1689,1690,1689,,,,,
82398694,1686,1687,1687,1687,,,,,
82401193,1684,1684,1684,1684,,,,,
82403692,1681,1682,1682,1681,,,,,
82406191,1678,1679,1679,1679,,,,,
