TimeUS,M1,M2,M3,M4,TimeUS,C1,C2,C3,C4
240741165,1000,1000,1000,1000,240768654,1000,1000,1000,1000
240743664,1000,1000,1000,1000,240868614,1000,1000,1000,1000
240746163,1000,1000,1000,1000,240968574,1000,1000,1000,1000
240748662,1000,1000,1000,1000,241068534,1000,1000,1000,1000
240751161,1000,1000,1000,1000,241168494,1000,1000,1000,1000
240753660,1000,1000,1000,1000,241268454,1000,1000,1000,1000
240756159,1000,1000,1000,1000,241368414,1000,1000,1000,1000
240758658,1000,1000,1000,1000,241468374,1000,1000,1000,1000
240761157,1000,1000,1000,1000,241568334,1000,1000,1000,1000
240763656,1000,1000,1000,1000,241668294,1000,1000,1000,1000
240766155,1000,1000,1000,1000,241768254,1000,1000,1000,1000
240768654,1000,1000,1000,1000,241868214,1000,1000,1000,1000
240771153,1000,1000,1000,1000,241968174,1000,1000,1000,1000
240773652,1000,1000,1000,1000,242068967,1000,1000,1000,1000
240776151,1000,1000,1000,1000,242168927,1000,1000,1000,1000
240778650,1000,1000,1000,1000,242268887,1000,1000,1000,1000
240781149,1000,1000,1000,1000,242368847,1000,1000,1000,1000
240783648,1000,1000,1000,1000,242468807,1000,1000,1000,1000
240786147,1000,1000,1000,1000,242568767,1000,1000,1000,1000
240788646,1000,1000,1000,1000,242668727,1000,1000,1000,1000
240791145,1000,1000,1000,1000,242768687,1008,1008,1008,1008
240793644,1000,1000,1000,1000,242868647,1038,1038,1038,1038
240796143,1000,1000,1000,1000,242968607,1068,1068,1068,1068
240798642,1000,1000,1000,1000,243068567,1098,1098,1098,1098
240801141,1000,1000,1000,1000,243168527,1128,1128,1128,1128
240803640,1000,1000,1000,1000,243268487,1241,1207,1209,1243
240806139,1000,1000,1000,1000,243368447,1463,1437,1438,1465
240808638,1000,1000,1000,1000,243468407,1631,1608,1609,1632
240811137,1000,1000,1000,1000,243568367,1771,1749,1750,1773
240813636,1000,1000,1000,1000,243668327,1895,1873,1874,1896
240816135,1000,1000,1000,1000,243768287,1909,1895,1896,1909
240818634,1000,1000,1000,1000,243868247,1787,1782,1783,1787
240821133,1000,1000,1000,1000,243968207,1672,1674,1673,1675
240823632,1000,1000,1000,1000,244068167,1624,1635,1631,1630
240826131,1000,1000,1000,1000,244168960,1622,1635,1632,1626
240828630,1000,1000,1000,1000,244268920,1631,1640,1639,1632
240831129,1000,1000,1000,1000,244368880,1634,1637,1638,1632
240833628,1000,1000,1000,1000,244468840,1632,1630,1632,1629
240836127,1000,1000,1000,1000,244568800,1625,1619,1622,1622
240838626,1000,1000,1000,1000,244668760,1620,1614,1616,1617
240841125,1000,1000,1000,1000,244768720,1617,1614,1614,1616
240843624,1000,1000,1000,1000,244868680,1616,1614,1614,1615
240846123,1000,1000,1000,1000,244968640,1595,1597,1599,1591
240848622,1000,1000,1000,1000,245068600,1575,1580,1585,1569
240851121,1000,1000,1000,1000,245168560,1563,1567,1569,1561
240853620,1000,1000,1000,1000,245268520,1556,1558,1556,1558
240856119,1000,1000,1000,1000,245368480,1548,1547,1543,1553
240858618,1000,1000,1000,1000,245468440,1543,1540,1532,1551
240861117,1000,1000,1000,1000,245568400,1537,1534,1527,1543
240863616,1000,1000,1000,1000,245668360,1532,1529,1525,1534
240866115,1000,1000,1000,1000,245768320,1527,1526,1525,1526
240868614,1000,1000,1000,1000,245868280,1527,1527,1528,1525
240871113,1000,1000,1000,1000,245968240,1527,1528,1531,1524
240873612,1000,1000,1000,1000,246068200,1530,1531,1534,1527
240876111,1000,1000,1000,1000,246168160,1534,1535,1538,1533
240878610,1000,1000,1000,1000,246268953,1538,1538,1540,1538
240881109,1000,1000,1000,1000,246368913,1542,1542,1543,1542
240883608,1000,1000,1000,1000,246468873,1545,1544,1546,1546
240886107,1000,1000,1000,1000,246568833,1548,1548,1549,1549
240888606,1000,1000,1000,1000,246668793,1551,1551,1552,1552
240891105,1000,1000,1000,1000,246768753,1553,1554,1554,1554
240893604,1000,1000,1000,1000,246868713,1556,1556,1556,1557
240896103,1000,1000,1000,1000,246968673,1557,1557,1556,1557
240898602,1000,1000,1000,1000,247068633,1559,1561,1558,1559
240901101,1000,1000,1000,1000,247168593,1578,1579,1543,1545
240903600,1000,1000,1000,1000,247268553,1578,1576,1546,1547
240906099,1000,1000,1000,1000,247368513,1571,1568,1556,1557
240908598,1000,1000,1000,1000,247468473,1565,1562,1567,1567
240911097,1000,1000,1000,1000,247568433,1558,1557,1575,1574
240913596,1000,1000,1000,1000,247668393,1554,1555,1580,1579
240916095,1000,1000,1000,1000,247768353,1554,1556,1583,1582
240918594,1000,1000,1000,1000,247868313,1555,1557,1582,1582
240921093,1000,1000,1000,1000,247968273,1558,1560,1581,1581
240923592,1000,1000,1000,1000,248068233,1563,1564,1578,1579
240926091,1000,1000,1000,1000,248168193,1567,1567,1575,1575
240928590,1000,1000,1000,1000,248268986,1573,1573,1574,1574
240931089,1000,1000,1000,1000,248368946,1576,1576,1571,1570
240933588,1000,1000,1000,1000,248468906,1579,1578,1569,1568
240936087,1000,1000,1000,1000,248568866,1581,1581,1569,1568
240938586,1000,1000,1000,1000,248668826,1582,1582,1568,1567
240941085,1000,1000,1000,1000,248768786,1583,1583,1570,1569
240943584,1000,1000,1000,1000,248868746,1582,1581,1570,1570
240946083,1000,1000,1000,1000,248968706,1581,1581,1572,1572
240948582,1000,1000,1000,1000,249068666,1579,1579,1572,1574
240951081,1000,1000,1000,1000,249168626,1577,1578,1575,1575
240953580,1000,1000,1000,1000,249268586,1576,1576,1577,1576
240956079,1000,1000,1000,1000,249368546,1575,1575,1578,1578
240958578,1000,1000,1000,1000,249468506,1575,1574,1578,1579
240961077,1000,1000,1000,1000,249568466,1574,1575,1579,1579
240963576,1000,1000,1000,1000,249668426,1575,1575,1581,1580
240966075,1000,1000,1000,1000,249768386,1575,1575,1580,1580
240968574,1000,1000,1000,1000,249868346,1575,1575,1579,1579
240971073,1000,1000,1000,1000,249968306,1576,1577,1579,1579
240973572,1000,1000,1000,1000,250068266,1577,1577,1579,1579
240976071,1000,1000,1000,1000,250168226,1578,1578,1579,1579
240978570,1000,1000,1000,1000,250268186,1579,1578,1577,1577
240981069,1000,1000,1000,1000,250368979,1580,1579,1578,1578
240983568,1000,1000,1000,1000,250468939,1579,1579,1577,1577
240986067,1000,1000,1000,1000,250568899,1580,1580,1578,1578
240988566,1000,1000,1000,1000,250668859,1580,1580,1578,1578
240991065,1000,1000,1000,1000,250768819,1580,1579,1578,1578
240993564,1000,1000,1000,1000,250868779,1580,1580,1579,1579
240996063,1000,1000,1000,1000,250968739,1580,1580,1580,1580
240998562,1000,1000,1000,1000,251068699,1580,1580,1580,1580
241001061,1000,1000,1000,1000,251168659,1579,1579,1580,1580
241003560,1000,1000,1000,1000,251268619,1579,1579,1580,1580
241006059,1000,1000,1000,1000,251368579,1580,1580,1581,1581
241008558,1000,1000,1000,1000,251468539,1579,1579,1580,1580
241011057,1000,1000,1000,1000,251568499,1579,1579,1581,1580
241013556,1000,1000,1000,1000,251668459,1579,1579,1581,1580
241016055,1000,1000,1000,1000,251768419,1580,1580,1581,1581
241018554,1000,1000,1000,1000,251868379,1580,1580,1581,1581
241021053,1000,1000,1000,1000,251968339,1579,1579,1579,1580
241023552,1000,1000,1000,1000,252068299,1579,1579,1579,1579
241026051,1000,1000,1000,1000,252168259,1579,1579,1578,1579
241028550,1000,1000,1000,1000,252268219,1580,1580,1580,1580
241031049,1000,1000,1000,1000,252368179,1580,1579,1579,1579
241033548,1000,1000,1000,1000,252468972,1579,1579,1579,1579
241036047,1000,1000,1000,1000,252568932,1580,1580,1580,1580
241038546,1000,1000,1000,1000,252668892,1580,1580,1581,1580
241041045,1000,1000,1000,1000,252768852,1581,1581,1581,1581
241043544,1000,1000,1000,1000,252868812,1581,1580,1580,1580
241046043,1000,1000,1000,1000,252968772,1580,1580,1580,1581
241048542,1000,1000,1000,1000,253068732,1580,1580,1580,1581
241051041,1000,1000,1000,1000,253168692,1580,1582,1585,1577
241053540,1000,1000,1000,1000,253268652,1580,1583,1587,1572
241056039,1000,1000,1000,1000,253368612,1580,1584,1582,1573
241058538,1000,1000,1000,1000,253468572,1579,1581,1571,1571
241061037,1000,1000,1000,1000,253568532,1579,1581,1564,1570
241063536,1000,1000,1000,1000,253668492,1579,1580,1557,1565
241066035,1000,1000,1000,1000,253768452,1581,1581,1554,1560
241068534,1000,1000,1000,1000,253868412,1582,1580,1553,1555
241071033,1000,1000,1000,1000,253968372,1582,1580,1553,1552
241073532,1000,1000,1000,1000,254068332,1582,1581,1554,1552
241076031,1000,1000,1000,1000,254168292,1581,1582,1555,1553
241078530,1000,1000,1000,1000,254268252,1579,1581,1554,1552
241081029,1000,1000,1000,1000,254368212,1579,1580,1553,1552
241083528,1000,1000,1000,1000,254468172,1578,1580,1552,1552
241086027,1000,1000,1000,1000,254568965,1579,1581,1551,1551
241088526,1000,1000,1000,1000,254668925,1579,1581,1549,1549
241091025,1000,1000,1000,1000,254768885,1582,1583,1547,1547
241093524,1000,1000,1000,1000,254868845,1584,1585,1544,1544
241096023,1000,1000,1000,1000,254968805,1587,1587,1542,1541
241098522,1000,1000,1000,1000,255068765,1590,1590,1540,1539
241101021,1000,1000,1000,1000,255168725,1593,1594,1538,1538
241103520,1000,1000,1000,1000,255268685,1596,1595,1537,1537
241106019,1000,1000,1000,1000,255368645,1596,1596,1535,1537
241108518,1000,1000,1000,1000,255468605,1596,1596,1536,1539
241111017,1000,1000,1000,1000,255568565,1595,1594,1539,1542
241113516,1000,1000,1000,1000,255668525,1591,1589,1545,1548
241116015,1000,1000,1000,1000,255768485,1585,1582,1553,1556
241118514,1000,1000,1000,1000,255868445,1576,1573,1564,1567
241121013,1000,1000,1000,1000,255968405,1565,1561,1576,1578
241123512,1000,1000,1000,1000,256068365,1554,1551,1590,1591
241126011,1000,1000,1000,1000,256168325,1543,1540,1601,1601
241128510,1000,1000,1000,1000,256268285,1533,1533,1610,1609
241131009,1000,1000,1000,1000,256368245,1529,1530,1616,1614
241133508,1000,1000,1000,1000,256468205,1528,1530,1617,1616
241136007,1000,1000,1000,1000,256568165,1531,1534,1615,1614
241138506,1000,1000,1000,1000,256668958,1538,1540,1610,1610
241141005,1000,1000,1000,1000,256768918,1545,1547,1603,1604
241143504,1000,1000,1000,1000,256868878,1555,1556,1596,1596
241146003,1000,1000,1000,1000,256968838,1563,1564,1588,1587
241148502,1000,1000,1000,1000,257068798,1572,1571,1580,1579
241151001,1000,1000,1000,1000,257168758,1578,1577,1573,1573
241153500,1000,1000,1000,1000,257268718,1584,1583,1569,1569
241155999,1000,1000,1000,1000,257368678,1588,1587,1568,1567
241158498,1000,1000,1000,1000,257468638,1588,1587,1566,1565
241160997,1000,1000,1000,1000,257568598,1588,1586,1566,1566
241163496,1000,1000,1000,1000,257668558,1585,1584,1567,1568
241165995,1000,1000,1000,1000,257768518,1582,1582,1569,1570
241168494,1000,1000,1000,1000,257868478,1580,1580,1573,1574
241170993,1000,1000,1000,1000,257968438,1362,1365,1620,1625
241173492,1000,1000,1000,1000,258068398,1427,1433,1639,1642
241175991,1000,1000,1000,1000,258168358,1481,1490,1633,1629
241178490,1000,1000,1000,1000,258268318,1530,1537,1621,1614
241180989,1000,1000,1000,1000,258368278,1568,1569,1610,1603
241183488,1000,1000,1000,1000,258468238,1595,1592,1602,1598
241185987,1000,1000,1000,1000,258568198,1617,1606,1592,1591
241188486,1000,1000,1000,1000,258668158,1640,1629,1569,1573
241190985,1000,1000,1000,1000,258768951,1660,1650,1544,1553
241193484,1000,1000,1000,1000,258868911,1661,1656,1540,1550
241195983,1000,1000,1000,1000,258968871,1650,1653,1547,1554
241198482,1000,1000,1000,1000,259068831,1638,1645,1554,1556
241200981,1000,1000,1000,1000,259168791,1628,1636,1561,1559
241203480,1000,1000,1000,1000,259268751,1622,1627,1567,1562
241205979,1000,1000,1000,1000,259368711,1617,1619,1570,1566
241208478,1000,1000,1000,1000,259468671,1614,1612,1571,1569
241210977,1000,1000,1000,1000,259568631,1610,1606,1571,1571
241213476,1000,1000,1000,1000,259668591,1606,1602,1571,1571
241215975,1000,1000,1000,1000,259768551,1603,1600,1570,1572
241218474,1000,1000,1000,1000,259868511,1598,1597,1569,1570
241220973,1000,1000,1000,1000,259968471,1594,1595,1568,1568
241223472,1000,1000,1000,1000,260068431,1590,1589,1574,1573
241225971,1000,1000,1000,1000,260168391,1577,1575,1586,1585
241228470,1000,1000,1000,1000,260268351,1563,1560,1599,1599
241230969,1000,1000,1000,1000,260368311,1551,1551,1608,1608
241233468,1000,1000,1000,1000,260468271,1545,1548,1609,1610
241235967,1000,1000,1000,1000,260568231,1546,1551,1608,1608
241238466,1000,1000,1000,1000,260668191,1548,1553,1603,1602
241240965,1000,1000,1000,1000,260768984,1554,1558,1599,1597
241243464,1000,1000,1000,1000,260868944,1561,1564,1594,1592
241245963,1000,1000,1000,1000,260968904,1567,1568,1590,1587
241248462,1000,1000,1000,1000,261068864,1577,1573,1589,1573
241250961,1000,1000,1000,1000,261168824,1588,1580,1575,1566
241253460,1000,1000,1000,1000,261268784,1595,1587,1557,1559
241255959,1000,1000,1000,1000,261368744,1598,1594,1543,1550
241258458,1000,1000,1000,1000,261468704,1599,1599,1537,1543
241260957,1000,1000,1000,1000,261568664,1598,1601,1535,1538
241263456,1000,1000,1000,1000,261668624,1594,1599,1537,1536
241265955,1000,1000,1000,1000,261768584,1590,1594,1542,1539
241268454,1000,1000,1000,1000,261868544,1585,1587,1548,1545
241270953,1000,1000,1000,1000,261968504,1578,1580,1553,1552
241273452,1000,1000,1000,1000,262068464,1572,1573,1559,1558
241275951,1000,1000,1000,1000,262168424,1566,1567,1563,1562
241278450,1000,1000,1000,1000,262268384,1563,1563,1565,1565
241280949,1000,1000,1000,1000,262368344,1561,1562,1564,1564
241283448,1000,1000,1000,1000,262468304,1561,1563,1560,1560
241285947,1000,1000,1000,1000,262568264,1564,1565,1555,1555
241288446,1000,1000,1000,1000,262668224,1569,1570,1549,1548
241290945,1000,1000,1000,1000,262768184,1575,1577,1542,1541
241293444,1000,1000,1000,1000,262868977,1582,1583,1536,1535
241295943,1000,1000,1000,1000,262968937,1588,1588,1531,1531
241298442,1000,1000,1000,1000,263068897,1592,1592,1529,1529
241300941,1000,1000,1000,1000,263168857,1593,1593,1530,1531
241303440,1000,1000,1000,1000,263268817,1592,1591,1533,1536
241305939,1000,1000,1000,1000,263368777,1590,1590,1537,1540
241308438,1000,1000,1000,1000,263468737,1588,1588,1541,1544
241310937,1000,1000,1000,1000,263568697,1587,1588,1545,1547
241313436,1000,1000,1000,1000,263668657,1585,1584,1550,1553
241315935,1000,1000,1000,1000,263768617,1577,1576,1557,1561
241318434,1000,1000,1000,1000,263868577,1570,1569,1565,1569
241320933,1000,1000,1000,1000,263968537,1564,1562,1573,1576
241323432,1000,1000,1000,1000,264068497,1557,1556,1578,1581
241325931,1000,1000,1000,1000,264168457,1553,1553,1584,1585
241328430,1000,1000,1000,1000,264268417,1549,1549,1588,1587
241330929,1000,1000,1000,1000,264368377,1546,1546,1591,1589
241333428,1000,1000,1000,1000,264468337,1545,1545,1593,1592
241335927,1000,1000,1000,1000,264568297,1545,1545,1595,1593
241338426,1000,1000,1000,1000,264668257,1545,1545,1596,1594
241340925,1000,1000,1000,1000,264768217,1546,1547,1594,1594
241343424,1000,1000,1000,1000,264868177,1548,1549,1593,1593
241345923,1000,1000,1000,1000,264968970,1550,1552,1591,1591
241348422,1000,1000,1000,1000,265068930,1554,1556,1589,1590
241350921,1000,1000,1000,1000,265168890,1558,1559,1586,1586
241353420,1000,1000,1000,1000,265268850,1563,1563,1585,1584
241355919,1000,1000,1000,1000,265368810,1566,1566,1581,1580
241358418,1000,1000,1000,1000,265468770,1570,1570,1581,1579
241360917,1000,1000,1000,1000,265568730,1574,1573,1579,1578
241363416,1000,1000,1000,1000,265668690,1576,1575,1576,1576
241365915,1000,1000,1000,1000,265768650,1578,1577,1574,1575
241368414,1000,1000,1000,1000,265868610,1580,1579,1575,1575
241370913,1000,1000,1000,1000,265968570,1580,1580,1573,1573
241373412,1000,1000,1000,1000,266068530,1581,1581,1573,1573
241375911,1000,1000,1000,1000,266168490,1581,1581,1573,1573
241378410,1000,1000,1000,1000,266268450,1583,1583,1575,1574
241380909,1000,1000,1000,1000,266368410,1582,1582,1575,1574
241383408,1000,1000,1000,1000,266468370,1582,1582,1575,1575
241385907,1000,1000,1000,1000,266568330,1582,1581,1575,1575
241388406,1000,1000,1000,1000,266668290,1581,1581,1575,1575
241390905,1000,1000,1000,1000,266768250,1581,1581,1576,1576
241393404,1000,1000,1000,1000,266868210,1581,1581,1577,1577
241395903,1000,1000,1000,1000,266968170,1580,1580,1577,1577
241398402,1000,1000,1000,1000,267068963,1580,1580,1578,1578
241400901,1000,1000,1000,1000,267168923,1580,1581,1580,1579
241403400,1000,1000,1000,1000,267268883,1579,1580,1579,1579
241405899,1000,1000,1000,1000,267368843,1579,1579,1579,1579
241408398,1000,1000,1000,1000,267468803,1579,1579,1579,1579
241410897,1000,1000,1000,1000,267568763,1578,1579,1579,1579
241413396,1000,1000,1000,1000,267668723,1578,1578,1579,1579
241415895,1000,1000,1000,1000,267768683,1580,1579,1581,1580
241418394,1000,1000,1000,1000,267868643,1579,1579,1580,1580
241420893,1000,1000,1000,1000,267968603,1579,1579,1580,1580
241423392,1000,1000,1000,1000,268068563,1579,1579,1580,1580
241425891,1000,1000,1000,1000,268168523,1579,1579,1579,1579
241428390,1000,1000,1000,1000,268268483,1579,1579,1579,1579
241430889,1000,1000,1000,1000,268368443,1580,1580,1580,1580
241433388,1000,1000,1000,1000,268468403,1580,1580,1580,1580
241435887,1000,1000,1000,1000,268568363,1580,1580,1580,1580
241438386,1000,1000,1000,1000,268668323,1580,1580,1580,1580
241440885,1000,1000,1000,1000,268768283,1580,1580,1581,1580
241443384,1000,1000,1000,1000,268868243,1581,1581,1581,1581
241445883,1000,1000,1000,1000,268968203,1581,1580,1580,1580
241448382,1000,1000,1000,1000,269068163,1581,1581,1580,1581
241450881,1000,1000,1000,1000,269168956,1581,1581,1581,1581
241453380,1000,1000,1000,1000,269268916,1581,1581,1581,1581
241455879,1000,1000,1000,1000,269368876,1581,1582,1581,1581
241458378,1000,1000,1000,1000,269468836,1581,1581,1581,1581
241460877,1000,1000,1000,1000,269568796,1582,1582,1581,1581
241463376,1000,1000,1000,1000,269668756,1582,1582,1581,1581
241465875,1000,1000,1000,1000,269768716,1581,1582,1586,1576
241468374,1000,1000,1000,1000,269868676,1582,1582,1587,1573
241470873,1000,1000,1000,1000,269968636,1581,1582,1580,1574
241473372,1000,1000,1000,1000,270068596,1579,1580,1570,1572
241475871,1000,1000,1000,1000,270168556,1578,1580,1563,1569
241478370,1000,1000,1000,1000,270268516,1577,1579,1558,1564
241480869,1000,1000,1000,1000,270368476,1577,1579,1556,1560
241483368,1000,1000,1000,1000,270468436,1577,1578,1556,1557
241485867,1000,1000,1000,1000,270568396,1578,1579,1557,1556
241488366,1000,1000,1000,1000,270668356,1579,1578,1557,1555
241490865,1000,1000,1000,1000,270768316,1579,1578,1557,1555
241493364,1000,1000,1000,1000,270868276,1578,1578,1556,1554
241495863,1000,1000,1000,1000,270968236,1578,1579,1555,1554
241498362,1000,1000,1000,1000,271068196,1578,1579,1554,1554
241500861,1000,1000,1000,1000,271168156,1578,1579,1552,1552
241503360,1000,1000,1000,1000,271268949,1578,1579,1551,1551
241505859,1000,1000,1000,1000,271368909,1579,1581,1549,1550
241508358,1000,1000,1000,1000,271468869,1581,1582,1548,1548
241510857,1000,1000,1000,1000,271568829,1583,1584,1547,1547
241513356,1000,1000,1000,1000,271668789,1584,1585,1545,1545
241515855,1000,1000,1000,1000,271768749,1586,1587,1544,1544
241518354,1000,1000,1000,1000,271868709,1587,1587,1543,1542
241520853,1000,1000,1000,1000,271968669,1589,1589,1543,1543
241523352,1000,1000,1000,1000,272068629,1590,1589,1543,1544
241525851,1000,1000,1000,1000,272168589,1590,1590,1544,1545
241528350,1000,1000,1000,1000,272268549,1590,1590,1545,1548
241530849,1000,1000,1000,1000,272368509,1588,1587,1548,1550
241533348,1000,1000,1000,1000,272468469,1585,1584,1552,1555
241535847,1000,1000,1000,1000,272568429,1581,1579,1559,1562
241538346,1000,1000,1000,1000,272668389,1576,1573,1566,1568
241540845,1000,1000,1000,1000,272768349,1569,1565,1574,1576
241543344,1000,1000,1000,1000,272868309,1561,1558,1584,1586
241545843,1000,1000,1000,1000,272968269,1551,1550,1593,1594
241548342,1000,1000,1000,1000,273068229,1544,1544,1602,1602
241550841,1000,1000,1000,1000,273168189,1539,1539,1608,1607
241553340,1000,1000,1000,1000,273268982,1536,1538,1611,1609
241555839,1000,1000,1000,1000,273368942,1536,1538,1611,1610
241558338,1000,1000,1000,1000,273468902,1538,1541,1607,1607
241560837,1000,1000,1000,1000,273568862,1543,1545,1602,1602
241563336,1000,1000,1000,1000,273668822,1550,1552,1597,1596
241565835,1000,1000,1000,1000,273768782,1558,1558,1590,1589
241568334,1000,1000,1000,1000,273868742,1566,1565,1584,1583
241570833,1000,1000,1000,1000,273968702,1572,1572,1578,1577
241573332,1000,1000,1000,1000,274068662,1578,1577,1572,1572
241575831,1000,1000,1000,1000,274168622,1583,1582,1569,1569
241578330,1000,1000,1000,1000,274268582,1586,1584,1566,1566
241580829,1000,1000,1000,1000,274368542,1588,1586,1566,1566
241583328,1000,1000,1000,1000,274468502,1589,1587,1567,1568
241585827,1000,1000,1000,1000,274568462,1587,1587,1569,1569
241588326,1000,1000,1000,1000,274668422,1586,1586,1572,1572
241590825,1000,1000,1000,1000,274768382,1584,1583,1573,1573
241593324,1000,1000,1000,1000,274868342,1581,1582,1576,1576
241595823,1000,1000,1000,1000,274968302,1578,1579,1578,1578
241598322,1000,1000,1000,1000,275068262,1577,1577,1581,1581
241600821,1000,1000,1000,1000,275168222,1576,1576,1583,1583
241603320,1000,1000,1000,1000,275268182,1575,1576,1585,1584
241605819,1000,1000,1000,1000,275368975,1574,1575,1585,1585
241608318,1000,1000,1000,1000,275468935,1574,1575,1585,1585
241610817,1000,1000,1000,1000,275568895,1575,1575,1584,1584
241613316,1000,1000,1000,1000,275668855,1575,1576,1583,1584
241615815,1000,1000,1000,1000,275768815,1575,1576,1581,1582
241618314,1000,1000,1000,1000,275868775,1576,1576,1579,1580
241620813,1000,1000,1000,1000,275968735,1577,1578,1578,1579
241623312,1000,1000,1000,1000,276068695,1579,1579,1578,1578
241625811,1000,1000,1000,1000,276168655,1581,1581,1579,1578
241628310,1000,1000,1000,1000,276268615,1582,1581,1578,1577
241630809,1000,1000,1000,1000,276368575,1583,1582,1579,1578
241633308,1000,1000,1000,1000,276468535,1583,1582,1578,1578
241635807,1000,1000,1000,1000,276568495,1583,1582,1579,1579
241638306,1000,1000,1000,1000,276668455,1583,1583,1579,1580
241640805,1000,1000,1000,1000,276768415,1582,1582,1579,1579
241643304,1000,1000,1000,1000,276868375,1581,1581,1579,1579
241645803,1000,1000,1000,1000,276968335,1581,1581,1580,1580
241648302,1000,1000,1000,1000,277068295,1581,1582,1582,1582
241650801,1000,1000,1000,1000,277168255,1581,1581,1582,1582
241653300,1000,1000,1000,1000,277268215,1581,1581,1582,1582
241655799,1000,1000,1000,1000,277368175,1581,1581,1582,1582
241658298,1000,1000,1000,1000,277468968,1581,1580,1583,1582
241660797,1000,1000,1000,1000,277568928,1581,1581,1583,1583
241663296,1000,1000,1000,1000,277668888,1580,1581,1581,1582
241665795,1000,1000,1000,1000,277768848,1581,1581,1585,1578
241668294,1000,1000,1000,1000,277868808,1581,1581,1588,1573
241670793,1000,1000,1000,1000,277968768,1579,1579,1582,1574
241673292,1000,1000,1000,1000,278068728,1576,1575,1573,1574
241675791,1000,1000,1000,1000,278168688,1574,1573,1567,1574
241678290,1000,1000,1000,1000,278268648,1571,1570,1564,1571
241680789,1000,1000,1000,1000,278368608,1569,1569,1563,1569
241683288,1000,1000,1000,1000,278468568,1567,1568,1564,1567
241685787,1000,1000,1000,1000,278568528,1567,1568,1567,1566
241688286,1000,1000,1000,1000,278668488,1566,1567,1568,1565
241690785,1000,1000,1000,1000,278768448,1566,1566,1569,1566
241693284,1000,1000,1000,1000,278868408,1566,1566,1568,1566
241695783,1000,1000,1000,1000,278968368,1566,1565,1568,1567
241698282,1000,1000,1000,1000,279068328,1565,1565,1567,1567
241700781,1000,1000,1000,1000,279168288,1563,1563,1564,1565
241703280,1000,1000,1000,1000,279268248,1563,1563,1564,1565
241705779,1000,1000,1000,1000,279368208,1562,1563,1563,1563
241708278,1000,1000,1000,1000,279468168,1563,1563,1564,1563
241710777,1000,1000,1000,1000,279568961,1562,1562,1563,1561
241713276,1000,1000,1000,1000,279668921,1562,1562,1562,1561
241715775,1000,1000,1000,1000,279768881,1561,1560,1561,1560
241718274,1000,1000,1000,1000,279868841,1561,1561,1560,1560
241720773,1000,1000,1000,1000,279968801,1560,1560,1560,1559
241723272,1000,1000,1000,1000,280068761,1560,1559,1560,1558
241725771,1000,1000,1000,1000,280168721,1559,1559,1560,1558
241728270,1000,1000,1000,1000,280268681,1560,1559,1561,1559
241730769,1000,1000,1000,1000,280368641,1559,1559,1560,1558
241733268,1000,1000,1000,1000,280468601,1559,1558,1560,1557
241735767,1000,1000,1000,1000,280568561,1560,1559,1561,1560
241738266,1000,1000,1000,1000,280668521,1560,1560,1559,1563
241740765,1000,1000,1000,1000,280768481,1560,1561,1558,1564
241743264,1000,1000,1000,1000,280868441,1561,1561,1558,1565
241745763,1000,1000,1000,1000,280968401,1561,1562,1559,1565
241748262,1000,1000,1000,1000,281068361,1561,1562,1561,1563
241750761,1000,1000,1000,1000,281168321,1562,1562,1563,1560
241753260,1000,1000,1000,1000,281268281,1562,1561,1563,1558
241755759,1000,1000,1000,1000,281368241,1562,1561,1560,1560
241758258,1000,1000,1000,1000,281468201,1560,1560,1556,1560
241760757,1000,1000,1000,1000,281568161,1556,1556,1552,1556
241763256,1000,1000,1000,1000,281668954,1552,1552,1547,1549
241765755,1000,1000,1000,1000,281768914,1546,1546,1541,1541
241768254,1000,1000,1000,1000,281868874,1539,1539,1535,1534
241770753,1000,1000,1000,1000,281968834,1532,1532,1528,1526
241773252,1000,1000,1000,1000,282068794,1525,1525,1521,1520
241775751,1000,1000,1000,1000,282168754,1522,1521,1519,1519
241778250,1000,1000,1000,1000,282268714,1519,1519,1519,1519
241780749,1000,1000,1000,1000,282368674,1519,1519,1521,1522
241783248,1000,1000,1000,1000,282468634,1520,1519,1524,1525
241785747,1000,1000,1000,1000,282568594,1522,1522,1529,1529
241788246,1000,1000,1000,1000,282668554,1526,1526,1535,1535
241790745,1000,1000,1000,1000,282768514,1530,1531,1539,1539
241793244,1000,1000,1000,1000,282868474,1534,1534,1542,1542
241795743,1000,1000,1000,1000,282968434,1537,1537,1543,1543
241798242,1000,1000,1000,1000,283068394,1540,1540,1544,1544
241800741,1000,1000,1000,1000,283168354,1542,1543,1544,1544
241803240,1000,1000,1000,1000,283268314,1544,1545,1544,1544
241805739,1000,1000,1000,1000,283368274,1546,1546,1544,1543
241808238,1000,1000,1000,1000,283468234,1548,1548,1544,1544
241810737,1000,1000,1000,1000,283568194,1549,1549,1544,1544
241813236,1000,1000,1000,1000,283668154,1550,1550,1545,1545
241815735,1000,1000,1000,1000,283768947,1550,1550,1545,1545
241818234,1000,1000,1000,1000,283868907,1549,1549,1544,1544
241820733,1000,1000,1000,1000,283968867,1548,1549,1545,1544
241823232,1000,1000,1000,1000,284068827,1548,1548,1545,1545
241825731,1000,1000,1000,1000,284168787,1547,1547,1545,1545
241828230,1000,1000,1000,1000,284268747,1545,1546,1545,1545
241830729,1000,1000,1000,1000,284368707,1545,1545,1546,1546
241833228,1000,1000,1000,1000,284468667,1545,1544,1546,1545
241835727,1000,1000,1000,1000,284568627,1544,1543,1545,1545
241838226,1000,1000,1000,1000,284668587,1544,1544,1546,1546
241840725,1000,1000,1000,1000,284768547,1543,1543,1545,1545
241843224,1000,1000,1000,1000,284868507,1543,1543,1545,1545
241845723,1000,1000,1000,1000,284968467,1543,1543,1545,1544
241848222,1000,1000,1000,1000,285068427,1543,1543,1544,1545
241850721,1000,1000,1000,1000,285168387,1542,1543,1544,1543
241853220,1000,1000,1000,1000,285268347,1543,1543,1543,1543
241855719,1000,1000,1000,1000,285368307,1543,1543,1543,1543
241858218,1000,1000,1000,1000,285468267,1544,1543,1544,1543
241860717,1000,1000,1000,1000,285568227,1543,1543,1543,1543
241863216,1000,1000,1000,1000,285668187,1544,1544,1544,1544
241865715,1000,1000,1000,1000,285768980,1544,1544,1544,1543
241868214,1000,1000,1000,1000,285868940,1543,1544,1543,1543
241870713,1000,1000,1000,1000,285968900,1544,1544,1543,1543
241873212,1000,1000,1000,1000,286068860,1544,1544,1543,1544
241875711,1000,1000,1000,1000,286168820,1543,1543,1543,1543
241878210,1000,1000,1000,1000,286268780,1544,1544,1544,1543
241880709,1000,1000,1000,1000,286368740,1544,1544,1544,1544
241883208,1000,1000,1000,1000,286468700,1544,1544,1545,1545
241885707,1000,1000,1000,1000,286568660,1544,1544,1544,1544
241888206,1000,1000,1000,1000,286668620,1545,1544,1545,1545
241890705,1000,1000,1000,1000,286768580,1545,1544,1545,1545
241893204,1000,1000,1000,1000,286868540,1545,1544,1545,1545
241895703,1000,1000,1000,1000,286968500,1544,1544,1544,1544
241898202,1000,1000,1000,1000,287068460,1544,1544,1544,1544
241900701,1000,1000,1000,1000,287168420,1544,1544,1544,1543
241903200,1000,1000,1000,1000,287268380,1545,1545,1545,1545
241905699,1000,1000,1000,1000,287368340,1544,1544,1544,1544
241908198,1000,1000,1000,1000,287468300,1544,1544,1544,1544
241910697,1000,1000,1000,1000,287568260,1545,1545,1545,1544
241913196,1000,1000,1000,1000,287668220,1544,1545,1545,1545
241915695,1000,1000,1000,1000,287768180,1545,1545,1545,1545
241918194,1000,1000,1000,1000,287868973,1545,1544,1545,1545
241920693,1000,1000,1000,1000,287968933,1545,1545,1546,1546
241923192,1000,1000,1000,1000,288068893,1545,1546,1545,1546
241925691,1000,1000,1000,1000,288168853,1545,1545,1545,1544
241928190,1000,1000,1000,1000,288268813,1545,1545,1545,1545
241930689,1000,1000,1000,1000,288368773,1544,1544,1544,1544
241933188,1000,1000,1000,1000,288468733,1544,1544,1544,1543
241935687,1000,1000,1000,1000,288568693,1543,1544,1544,1543
241938186,1000,1000,1000,1000,288668653,1544,1544,1544,1544
241940685,1000,1000,1000,1000,288768613,1544,1544,1544,1544
241943184,1000,1000,1000,1000,288868573,1544,1544,1544,1544
241945683,1000,1000,1000,1000,288968533,1543,1544,1544,1543
241948182,1000,1000,1000,1000,289068493,1544,1544,1544,1544
241950681,1000,1000,1000,1000,289168453,1544,1544,1544,1544
241953180,1000,1000,1000,1000,289268413,1544,1544,1545,1545
241955679,1000,1000,1000,1000,289368373,1544,1544,1544,1544
241958178,1000,1000,1000,1000,289468333,1544,1543,1544,1544
241960677,1000,1000,1000,1000,289568293,1544,1543,1544,1543
241963176,1000,1000,1000,1000,289668253,1544,1544,1544,1544
241965675,1000,1000,1000,1000,289768213,1544,1544,1545,1544
241968174,1000,1000,1000,1000,289868173,1543,1544,1544,1543
241970673,1000,1000,1000,1000,289968966,1544,1544,1544,1544
241973172,1000,1000,1000,1000,290068926,1544,1544,1544,1544
241975671,1000,1000,1000,1000,290168886,1543,1544,1543,1543
241978170,1000,1000,1000,1000,290268846,1544,1544,1544,1544
241980669,1000,1000,1000,1000,290368806,1544,1543,1544,1543
241983168,1000,1000,1000,1000,290468766,1544,1543,1544,1544
241985667,1000,1000,1000,1000,290568726,1544,1544,1544,1544
241988166,1000,1000,1000,1000,290668686,1544,1544,1544,1544
241990665,1000,1000,1000,1000,290768646,1544,1544,1544,1544
241993164,1000,1000,1000,1000,290868606,1544,1544,1544,1544
241995663,1000,1000,1000,1000,290968566,1544,1545,1545,1545
241998162,1000,1000,1000,1000,291068526,1544,1545,1545,1545
242000661,1000,1000,1000,1000,291168486,1544,1545,1545,1545
242003160,1000,1000,1000,1000,291268446,1545,1545,1545,1545
242005659,1000,1000,1000,1000,291368406,1545,1544,1545,1544
242008158,1000,1000,1000,1000,291468366,1544,1544,1544,1544
242010657,1000,1000,1000,1000,291568326,1544,1545,1544,1544
242013156,1000,1000,1000,1000,291668286,1544,1544,1544,1544
242015655,1000,1000,1000,1000,291768246,1544,1544,1544,1544
242018154,1000,1000,1000,1000,291868206,1544,1545,1544,1544
242021486,1000,1000,1000,1000,291968166,1434,1435,1390,1389
242023985,1000,1000,1000,1000,292068959,1353,1354,1262,1259
242026484,1000,1000,1000,1000,292168919,1327,1328,1216,1213
242028983,1000,1000,1000,1000,292268879,1315,1317,1194,1191
242031482,1000,1000,1000,1000,292368839,1293,1295,1153,1150
242033981,1000,1000,1000,1000,292468799,1233,1235,1154,1150
242036480,1000,1000,1000,1000,292568759,1124,1127,1154,1150
242038979,1000,1000,1000,1000,292668719,1048,1051,1153,1150
242041478,1000,1000,1000,1000,292768679,1048,1051,1153,1150
242043977,1000,1000,1000,1000,292868639,1048,1051,1153,1150
242046476,1000,1000,1000,1000,292968599,1050,1015,1150,1197
242048975,1000,1000,1000,1000,293068559,1050,1024,1150,1186
242051474,1000,1000,1000,1000,293168519,1050,1033,1150,1175
242053973,1000,1000,1000,1000,293268479,1050,1035,1150,1172
242056472,1000,1000,1000,1000,293368439,1050,1034,1150,1173
242058971,1000,1000,1000,1000,293468399,1050,1034,1150,1174
242061470,1000,1000,1000,1000,293568359,1050,1033,1150,1175
242063969,1000,1000,1000,1000,293668319,1050,1032,1150,1175
242066468,1000,1000,1000,1000,293768279,1049,1051,1152,1150
242068967,1000,1000,1000,1000,293868239,1051,1048,1150,1153
242071466,1000,1000,1000,1000,293968199,1051,1047,1150,1154
242073965,1000,1000,1000,1000,294068159,1051,1047,1150,1155
242076464,1000,1000,1000,1000,294168952,1051,1046,1150,1156
242078963,1000,1000,1000,1000,294268912,1000,1000,1000,1000
242081462,1000,1000,1000,1000,294368872,1000,1000,1000,1000
242083961,1000,1000,1000,1000,294468832,1000,1000,1000,1000
242086460,1000,1000,1000,1000,294568792,1000,1000,1000,1000
242088959,1000,1000,1000,1000,294668752,1000,1000,1000,1000
242091458,1000,1000,1000,1000,294768712,1000,1000,1000,1000
242093957,1000,1000,1000,1000,294868672,1000,1000,1000,1000
242096456,1000,1000,1000,1000,294968632,1000,1000,1000,1000
242098955,1000,1000,1000,1000,295068592,1000,1000,1000,1000
242101454,1000,1000,1000,1000,295168552,1000,1000,1000,1000
242103953,1000,1000,1000,1000,295268512,1000,1000,1000,1000
242106452,1000,1000,1000,1000,295368472,1000,1000,1000,1000
242108951,1000,1000,1000,1000,295468432,1000,1000,1000,1000
242111450,1000,1000,1000,1000,295568392,1000,1000,1000,1000
242113949,1000,1000,1000,1000,295668352,1000,1000,1000,1000
242116448,1000,1000,1000,1000,295768312,1000,1000,1000,1000
242118947,1000,1000,1000,1000,295868272,1000,1000,1000,1000
242121446,1000,1000,1000,1000,295968232,1000,1000,1000,1000
242123945,1000,1000,1000,1000,296068192,1000,1000,1000,1000
242126444,1000,1000,1000,1000,296168985,1000,1000,1000,1000
242128943,1000,1000,1000,1000,296268945,1000,1000,1000,1000
242131442,1000,1000,1000,1000,296368905,1000,1000,1000,1000
242133941,1000,1000,1000,1000,296468865,1000,1000,1000,1000
242136440,1000,1000,1000,1000,296568825,1000,1000,1000,1000
242138939,1000,1000,1000,1000,296668785,1000,1000,1000,1000
242141438,1000,1000,1000,1000,296768745,1000,1000,1000,1000
242143937,1000,1000,1000,1000,296868705,1000,1000,1000,1000
242146436,1000,1000,1000,1000,296968665,1000,1000,1000,1000
242148935,1000,1000,1000,1000,297068625,1000,1000,1000,1000
242151434,1000,1000,1000,1000,297168585,1000,1000,1000,1000
242153933,1000,1000,1000,1000,297268545,1000,1000,1000,1000
242156432,1000,1000,1000,1000,297368505,1000,1000,1000,1000
242158931,1000,1000,1000,1000,297468465,1000,1000,1000,1000
242161430,1000,1000,1000,1000,297568425,1000,1000,1000,1000
242163929,1000,1000,1000,1000,297668385,1000,1000,1000,1000
242166428,1000,1000,1000,1000,297768345,1000,1000,1000,1000
242168927,1000,1000,1000,1000,297868305,1000,1000,1000,1000
242171426,1000,1000,1000,1000,297968265,1000,1000,1000,1000
242173925,1000,1000,1000,1000,298068225,1000,1000,1000,1000
242176424,1000,1000,1000,1000,298168185,1000,1000,1000,1000
242178923,1000,1000,1000,1000,298268978,1000,1000,1000,1000
242181422,1000,1000,1000,1000,298368938,1000,1000,1000,1000
242183921,1000,1000,1000,1000,298468898,1000,1000,1000,1000
242186420,1000,1000,1000,1000,298568858,1000,1000,1000,1000
242188919,1000,1000,1000,1000,298668818,1000,1000,1000,1000
242191418,1000,1000,1000,1000,298768778,1000,1000,1000,1000
242193917,1000,1000,1000,1000,298868738,1000,1000,1000,1000
242196416,1000,1000,1000,1000,298968698,1000,1000,1000,1000
242198915,1000,1000,1000,1000,299068658,1000,1000,1000,1000
242201414,1000,1000,1000,1000,299168618,1000,1000,1000,1000
242203913,1000,1000,1000,1000,299268578,1000,1000,1000,1000
242206412,1000,1000,1000,1000,299368538,1000,1000,1000,1000
242208911,1000,1000,1000,1000,299468498,1000,1000,1000,1000
242211410,1000,1000,1000,1000,299568458,1000,1000,1000,1000
242213909,1000,1000,1000,1000,299668418,1000,1000,1000,1000
242216408,1000,1000,1000,1000,299768378,1000,1000,1000,1000
242218907,1000,1000,1000,1000,299868338,1000,1000,1000,1000
242221406,1000,1000,1000,1000,299968298,1000,1000,1000,1000
242223905,1000,1000,1000,1000,300068258,1000,1000,1000,1000
242226404,1000,1000,1000,1000,300168218,1000,1000,1000,1000
242228903,1000,1000,1000,1000,300268178,1000,1000,1000,1000
242231402,1000,1000,1000,1000,300368971,1000,1000,1000,1000
242233901,1000,1000,1000,1000,300468931,1000,1000,1000,1000
242236400,1000,1000,1000,1000,300568891,1000,1000,1000,1000
242238899,1000,1000,1000,1000,300668851,1000,1000,1000,1000
242241398,1000,1000,1000,1000,300768811,1000,1000,1000,1000
242243897,1000,1000,1000,1000,300868771,1000,1000,1000,1000
242246396,1000,1000,1000,1000,300968731,1000,1000,1000,1000
242248895,1000,1000,1000,1000,301068691,1000,1000,1000,1000
242251394,1000,1000,1000,1000,301168651,1000,1000,1000,1000
242253893,1000,1000,1000,1000,301268611,1000,1000,1000,1000
242256392,1000,1000,1000,1000,301368571,1000,1000,1000,1000
242258891,1000,1000,1000,1000,301468531,1000,1000,1000,1000
242261390,1000,1000,1000,1000,301568491,1000,1000,1000,1000
242263889,1000,1000,1000,1000,301668451,1000,1000,1000,1000
242266388,1000,1000,1000,1000,301768411,1000,1000,1000,1000
242268887,1000,1000,1000,1000,301868371,1000,1000,1000,1000
242271386,1000,1000,1000,1000,301968331,1000,1000,1000,1000
242273885,1000,1000,1000,1000,302068291,1000,1000,1000,1000
242276384,1000,1000,1000,1000,302168251,1000,1000,1000,1000
242278883,1000,1000,1000,1000,302268211,1000,1000,1000,1000
242281382,1000,1000,1000,1000,302368171,1000,1000,1000,1000
242283881,1000,1000,1000,1000,302468964,1000,1000,1000,1000
242286380,1000,1000,1000,1000,302568924,1000,1000,1000,1000
242288879,1000,1000,1000,1000,302668884,1000,1000,1000,1000
242291378,1000,1000,1000,1000,302768844,1000,1000,1000,1000
242293877,1000,1000,1000,1000,302868804,1000,1000,1000,1000
242296376,1000,1000,1000,1000,302968764,1000,1000,1000,1000
242298875,1000,1000,1000,1000,303068724,1000,1000,1000,1000
242301374,1000,1000,1000,1000,303168684,1000,1000,1000,1000
242303873,1000,1000,1000,1000,303268644,1000,1000,1000,1000
242306372,1000,1000,1000,1000,303368604,1000,1000,1000,1000
242308871,1000,1000,1000,1000,303468564,1000,1000,1000,1000
242311370,1000,1000,1000,1000,303568524,1000,1000,1000,1000
242313869,1000,1000,1000,1000,303668484,1000,1000,1000,1000
242316368,1000,1000,1000,1000,303768444,1000,1000,1000,1000
242318867,1000,1000,1000,1000,303868404,1000,1000,1000,1000
242321366,1000,1000,1000,1000,303968364,1000,1000,1000,1000
242323865,1000,1000,1000,1000,304068324,1000,1000,1000,1000
242326364,1000,1000,1000,1000,304168284,1000,1000,1000,1000
242328863,1000,1000,1000,1000,304268244,1000,1000,1000,1000
242331362,1000,1000,1000,1000,304368204,1000,1000,1000,1000
242333861,1000,1000,1000,1000,304468164,1000,1000,1000,1000
242336360,1000,1000,1000,1000,304568957,1000,1000,1000,1000
242338859,1000,1000,1000,1000,304668917,1000,1000,1000,1000
242341358,1000,1000,1000,1000,304768877,1000,1000,1000,1000
242343857,1000,1000,1000,1000,304868837,1000,1000,1000,1000
242346356,1000,1000,1000,1000,304968797,1000,1000,1000,1000
242348855,1000,1000,1000,1000,305068757,1000,1000,1000,1000
242351354,1000,1000,1000,1000,305168717,1000,1000,1000,1000
242353853,1000,1000,1000,1000,305268677,1000,1000,1000,1000
242356352,1000,1000,1000,1000,305368637,1000,1000,1000,1000
242358851,1000,1000,1000,1000,305468597,1000,1000,1000,1000
242361350,1000,1000,1000,1000,305568557,1000,1000,1000,1000
242363849,1000,1000,1000,1000,305668517,1000,1000,1000,1000
242366348,1000,1000,1000,1000,305768477,1000,1000,1000,1000
242368847,1000,1000,1000,1000,305868437,1000,1000,1000,1000
242371346,1000,1000,1000,1000,305968397,1000,1000,1000,1000
242373845,1000,1000,1000,1000,306068357,1000,1000,1000,1000
242376344,1000,1000,1000,1000,306168317,1000,1000,1000,1000
242378843,1000,1000,1000,1000,306268277,1000,1000,1000,1000
242381342,1000,1000,1000,1000,306368237,1000,1000,1000,1000
242383841,1000,1000,1000,1000,306468197,1000,1000,1000,1000
242386340,1000,1000,1000,1000,306568157,1000,1000,1000,1000
242388839,1000,1000,1000,1000,306668950,1000,1000,1000,1000
242391338,1000,1000,1000,1000,306768910,1000,1000,1000,1000
242393837,1000,1000,1000,1000,306868870,1000,1000,1000,1000
242396336,1000,1000,1000,1000,306968830,1000,1000,1000,1000
242398835,1000,1000,1000,1000,307068790,1000,1000,1000,1000
242401334,1000,1000,1000,1000,307168750,1000,1000,1000,1000
242403833,1000,1000,1000,1000,307268710,1000,1000,1000,1000
242406332,1000,1000,1000,1000,307368670,1000,1000,1000,1000
242408831,1000,1000,1000,1000,307468630,1000,1000,1000,1000
242411330,1000,1000,1000,1000,307568590,1000,1000,1000,1000
242413829,1000,1000,1000,1000,307668550,1000,1000,1000,1000
242416328,1000,1000,1000,1000,307768510,1000,1000,1000,1000
242418827,1000,1000,1000,1000,307868470,1000,1000,1000,1000
242421326,1000,1000,1000,1000,307968430,1000,1000,1000,1000
242423825,1000,1000,1000,1000,308068390,1000,1000,1000,1000
242426324,1000,1000,1000,1000,308168350,1000,1000,1000,1000
242428823,1000,1000,1000,1000,308268310,1000,1000,1000,1000
242431322,1000,1000,1000,1000,308368270,1000,1000,1000,1000
242433821,1000,1000,1000,1000,308468230,1000,1000,1000,1000
242436320,1000,1000,1000,1000,308568190,1000,1000,1000,1000
242438819,1000,1000,1000,1000,308668983,1000,1000,1000,1000
242441318,1000,1000,1000,1000,308768943,1000,1000,1000,1000
242443817,1000,1000,1000,1000,308868903,1000,1000,1000,1000
242446316,1000,1000,1000,1000,308968863,1000,1000,1000,1000
242448815,1000,1000,1000,1000,309068823,1000,1000,1000,1000
242451314,1000,1000,1000,1000,309168783,1000,1000,1000,1000
242453813,1000,1000,1000,1000,,,,,
242456312,1000,1000,1000,1000,,,,,
242458811,1000,1000,1000,1000,,,,,
242461310,1000,1000,1000,1000,,,,,
242463809,1000,1000,1000,1000,,,,,
242466308,1000,1000,1000,1000,,,,,
242468807,1000,1000,1000,1000,,,,,
242471306,1000,1000,1000,1000,,,,,
242473805,1000,1000,1000,1000,,,,,
242476304,1000,1000,1000,1000,,,,,
242478803,1000,1000,1000,1000,,,,,
242481302,1000,1000,1000,1000,,,,,
242483801,1000,1000,1000,1000,,,,,
242486300,1000,1000,1000,1000,,,,,
242488799,1000,1000,1000,1000,,,,,
242491298,1000,1000,1000,1000,,,,,
242493797,1000,1000,1000,1000,,,,,
242496296,1000,1000,1000,1000,,,,,
242498795,1000,1000,1000,1000,,,,,
242501294,1000,1000,1000,1000,,,,,
242503793,1000,1000,1000,1000,,,,,
242506292,1000,1000,1000,1000,,,,,
242508791,1000,1000,1000,1000,,,,,
242511290,1000,1000,1000,1000,,,,,
242513789,1000,1000,1000,1000,,,,,
242516288,1000,1000,1000,1000,,,,,
242518787,1000,1000,1000,1000,,,,,
242521286,1000,1000,1000,1000,,,,,
242523785,1000,1000,1000,1000,,,,,
242526284,1000,1000,1000,1000,,,,,
242528783,1000,1000,1000,1000,,,,,
242531282,1000,1000,1000,1000,,,,,
242533781,1000,1000,1000,1000,,,,,
242536280,1000,1000,1000,1000,,,,,
242538779,1000,1000,1000,1000,,,,,
242541278,1000,1000,1000,1000,,,,,
242543777,1000,1000,1000,1000,,,,,
242546276,1000,1000,1000,1000,,,,,
242548775,1000,1000,1000,1000,,,,,
242551274,1000,1000,1000,1000,,,,,
242553773,1000,1000,1000,1000,,,,,
242556272,1000,1000,1000,1000,,,,,
242558771,1000,1000,1000,1000,,,,,
242561270,1000,1000,1000,1000,,,,,
242563769,1000,1000,1000,1000,,,,,
242566268,1000,1000,1000,1000,,,,,
242568767,1000,1000,1000,1000,,,,,
242571266,1000,1000,1000,1000,,,,,
242573765,1000,1000,1000,1000,,,,,
242576264,1000,1000,1000,1000,,,,,
242578763,1000,1000,1000,1000,,,,,
242581262,1000,1000,1000,1000,,,,,
242583761,1000,1000,1000,1000,,,,,
242586260,1000,1000,1000,1000,,,,,
242588759,1000,1000,1000,1000,,,,,
242591258,1000,1000,1000,1000,,,,,
242593757,1000,1000,1000,1000,,,,,
242596256,1000,1000,1000,1000,,,,,
242598755,1000,1000,1000,1000,,,,,
242601254,1000,1000,1000,1000,,,,,
242603753,1000,1000,1000,1000,,,,,
242606252,1000,1000,1000,1000,,,,,
242608751,1000,1000,1000,1000,,,,,
242611250,1000,1000,1000,1000,,,,,
242613749,1000,1000,1000,1000,,,,,
242616248,1000,1000,1000,1000,,,,,
242618747,1000,1000,1000,1000,,,,,
242621246,1000,1000,1000,1000,,,,,
242623745,1000,1000,1000,1000,,,,,
242626244,1000,1000,1000,1000,,,,,
242628743,1000,1000,1000,1000,,,,,
242631242,1000,1000,1000,1000,,,,,
242633741,1000,1000,1000,1000,,,,,
242636240,1000,1000,1000,1000,,,,,
242638739,1000,1000,1000,1000,,,,,
242641238,1000,1000,1000,1000,,,,,
242643737,1000,1000,1000,1000,,,,,
242646236,1000,1000,1000,1000,,,,,
242648735,1000,1000,1000,1000,,,,,
242651234,1000,1000,1000,1000,,,,,
242653733,1000,1000,1000,1000,,,,,
242656232,1000,1000,1000,1000,,,,,
242658731,1000,1000,1000,1000,,,,,
242661230,1000,1000,1000,1000,,,,,
242663729,1000,1000,1000,1000,,,,,
242666228,1000,1000,1000,1000,,,,,
242668727,1000,1000,1000,1000,,,,,
242671226,1000,1000,1000,1000,,,,,
242673725,1000,1000,1000,1000,,,,,
242676224,1000,1000,1000,1000,,,,,
242678723,1000,1000,1000,1000,,,,,
242681222,1000,1000,1000,1000,,,,,
242683721,1000,1000,1000,1000,,,,,
242686220,1000,1000,1000,1000,,,,,
242688719,1000,1000,1000,1000,,,,,
242691218,1000,1000,1000,1000,,,,,
242693717,1000,1000,1000,1000,,,,,
242696216,1000,1000,1000,1000,,,,,
242698715,1000,1000,1000,1000,,,,,
242701214,1000,1000,1000,1000,,,,,
242703713,1000,1000,1000,1000,,,,,
242706212,1000,1000,1000,1000,,,,,
242708711,1000,1000,1000,1000,,,,,
242711210,1000,1000,1000,1000,,,,,
242713709,1000,1000,1000,1000,,,,,
242716208,1000,1000,1000,1000,,,,,
242718707,1000,1000,1000,1000,,,,,
242721206,1000,1000,1000,1000,,,,,
242723705,1000,1000,1000,1000,,,,,
242726204,1000,1000,1000,1000,,,,,
242728703,1000,1000,1000,1000,,,,,
242731202,1000,1000,1000,1000,,,,,
242733701,1000,1000,1000,1000,,,,,
242736200,1000,1000,1000,1000,,,,,
242738699,1000,1000,1000,1000,,,,,
242741198,1000,1000,1000,1000,,,,,
242743697,1000,1000,1000,1000,,,,,
242746196,1000,1000,1000,1000,,,,,
242748695,1001,1001,1001,1001,,,,,
242751194,1002,1002,1002,1002,,,,,
242753693,1003,1003,1003,1003,,,,,
242756192,1003,1003,1003,1003,,,,,
242758691,1004,1004,1004,1004,,,,,
242761190,1005,1005,1005,1005,,,,,
242763689,1006,1006,1006,1006,,,,,
242766188,1006,1006,1006,1006,,,,,
242768687,1007,1007,1007,1007,,,,,
242771186,1008,1008,1008,1008,,,,,
242773685,1009,1009,1009,1009,,,,,
242776184,1009,1009,1009,1009,,,,,
242778683,1010,1010,1010,1010,,,,,
242781182,1011,1011,1011,1011,,,,,
242783681,1012,1012,1012,1012,,,,,
242786180,1012,1012,1012,1012,,,,,
242788679,1013,1013,1013,1013,,,,,
242791178,1014,1014,1014,1014,,,,,
242793677,1015,1015,1015,1015,,,,,
242796176,1015,1015,1015,1015,,,,,
242798675,1016,1016,1016,1016,,,,,
242801174,1017,1017,1017,1017,,,,,
242803673,1018,1018,1018,1018,,,,,
242806172,1018,1018,1018,1018,,,,,
242808671,1019,1019,1019,1019,,,,,
242811170,1020,1020,1020,1020,,,,,
242813669,1021,1021,1021,1021,,,,,
242816168,1021,1021,1021,1021,,,,,
242818667,1022,1022,1022,1022,,,,,
242821166,1023,1023,1023,1023,,,,,
242823665,1024,1024,1024,1024,,,,,
242826164,1024,1024,1024,1024,,,,,
242828663,1025,1025,1025,1025,,,,,
242831162,1026,1026,1026,1026,,,,,
242833661,1027,1027,1027,1027,,,,,
242836160,1027,1027,1027,1027,,,,,
242838659,1028,1028,1028,1028,,,,,
242841158,1029,1029,1029,1029,,,,,
242843657,1030,1030,1030,1030,,,,,
242846156,1030,1030,1030,1030,,,,,
242848655,1031,1031,1031,1031,,,,,
242851154,1032,1032,1032,1032,,,,,
242853653,1033,1033,1033,1033,,,,,
242856152,1033,1033,1033,1033,,,,,
242858651,1034,1034,1034,1034,,,,,
242861150,1035,1035,1035,1035,,,,,
242863649,1036,1036,1036,1036,,,,,
242866148,1036,1036,1036,1036,,,,,
242868647,1037,1037,1037,1037,,,,,
242871146,1038,1038,1038,1038,,,,,
242873645,1039,1039,1039,1039,,,,,
242876144,1039,1039,1039,1039,,,,,
242878643,1040,1040,1040,1040,,,,,
242881142,1041,1041,1041,1041,,,,,
242883641,1042,1042,1042,1042,,,,,
242886140,1042,1042,1042,1042,,,,,
242888639,1043,1043,1043,1043,,,,,
242891138,1044,1044,1044,1044,,,,,
242893637,1045,1045,1045,1045,,,,,
242896136,1045,1045,1045,1045,,,,,
242898635,1046,1046,1046,1046,,,,,
242901134,1047,1047,1047,1047,,,,,
242903633,1048,1048,1048,1048,,,,,
242906132,1048,1048,1048,1048,,,,,
242908631,1049,1049,1049,1049,,,,,
242911130,1050,1050,1050,1050,,,,,
242913629,1051,1051,1051,1051,,,,,
242916128,1051,1051,1051,1051,,,,,
242918627,1052,1052,1052,1052,,,,,
242921126,1053,1053,1053,1053,,,,,
242923625,1054,1054,1054,1054,,,,,
242926124,1054,1054,1054,1054,,,,,
242928623,1055,1055,1055,1055,,,,,
242931122,1056,1056,1056,1056,,,,,
242933621,1057,1057,1057,1057,,,,,
242936120,1057,1057,1057,1057,,,,,
242938619,1058,1058,1058,1058,,,,,
242941118,1059,1059,1059,1059,,,,,
242943617,1060,1060,1060,1060,,,,,
242946116,1060,1060,1060,1060,,,,,
242948615,1061,1061,1061,1061,,,,,
242951114,1062,1062,1062,1062,,,,,
242953613,1063,1063,1063,1063,,,,,
242956112,1063,1063,1063,1063,,,,,
242958611,1064,1064,1064,1064,,,,,
242961110,1065,1065,1065,1065,,,,,
242963609,1066,1066,1066,1066,,,,,
242966108,1066,1066,1066,1066,,,,,
242968607,1067,1067,1067,1067,,,,,
242971106,1068,1068,1068,1068,,,,,
242973605,1069,1069,1069,1069,,,,,
242976104,1069,1069,1069,1069,,,,,
242978603,1070,1070,1070,1070,,,,,
242981102,1071,1071,1071,1071,,,,,
242983601,1072,1072,1072,1072,,,,,
242986100,1072,1072,1072,1072,,,,,
242988599,1073,1073,1073,1073,,,,,
242991098,1074,1074,1074,1074,,,,,
242993597,1075,1075,1075,1075,,,,,
242996096,1075,1075,1075,1075,,,,,
242998595,1076,1076,1076,1076,,,,,
243001094,1077,1077,1077,1077,,,,,
243003593,1078,1078,1078,1078,,,,,
243006092,1078,1078,1078,1078,,,,,
243008591,1079,1079,1079,1079,,,,,
243011090,1080,1080,1080,1080,,,,,
243013589,1081,1081,1081,1081,,,,,
243016088,1081,1081,1081,1081,,,,,
243018587,1082,1082,1082,1082,,,,,
243021086,1083,1083,1083,1083,,,,,
243023585,1084,1084,1084,1084,,,,,
243026084,1084,1084,1084,1084,,,,,
243028583,1085,1085,1085,1085,,,,,
243031082,1086,1086,1086,1086,,,,,
243033581,1087,1087,1087,1087,,,,,
243036080,1087,1087,1087,1087,,,,,
243038579,1088,1088,1088,1088,,,,,
243041078,1089,1089,1089,1089,,,,,
243043577,1090,1090,1090,1090,,,,,
243046076,1090,1090,1090,1090,,,,,
243048575,1091,1091,1091,1091,,,,,
243051074,1092,1092,1092,1092,,,,,
243053573,1093,1093,1093,1093,,,,,
243056072,1093,1093,1093,1093,,,,,
243058571,1094,1094,1094,1094,,,,,
243061070,1095,1095,1095,1095,,,,,
243063569,1096,1096,1096,1096,,,,,
243066068,1096,1096,1096,1096,,,,,
243068567,1097,1097,1097,1097,,,,,
243071066,1098,1098,1098,1098,,,,,
243073565,1099,1099,1099,1099,,,,,
243076064,1099,1099,1099,1099,,,,,
243078563,1100,1100,1100,1100,,,,,
243081062,1101,1101,1101,1101,,,,,
243083561,1101,1101,1101,1101,,,,,
243086060,1102,1102,1102,1102,,,,,
243088559,1103,1103,1103,1103,,,,,
243091058,1104,1104,1104,1104,,,,,
243093557,1104,1104,1104,1104,,,,,
243096056,1105,1105,1105,1105,,,,,
243098555,1106,1106,1106,1106,,,,,
243101054,1107,1107,1107,1107,,,,,
243103553,1107,1107,1107,1107,,,,,
243106052,1108,1108,1108,1108,,,,,
243108551,1109,1109,1109,1109,,,,,
243111050,1110,1110,1110,1110,,,,,
243113549,1110,1110,1110,1110,,,,,
243116048,1111,1111,1111,1111,,,,,
243118547,1112,1112,1112,1112,,,,,
243121046,1113,1113,1113,1113,,,,,
243123545,1113,1113,1113,1113,,,,,
243126044,1114,1114,1114,1114,,,,,
243128543,1115,1115,1115,1115,,,,,
243131042,1116,1116,1116,1116,,,,,
243133541,1116,1116,1116,1116,,,,,
243136040,1117,1117,1117,1117,,,,,
243138539,1118,1118,1118,1118,,,,,
243141038,1119,1119,1119,1119,,,,,
243143537,1119,1119,1119,1119,,,,,
243146036,1120,1120,1120,1120,,,,,
243148535,1121,1121,1121,1121,,,,,
243151034,1122,1122,1122,1122,,,,,
243153533,1122,1122,1122,1122,,,,,
243156032,1123,1123,1123,1123,,,,,
243158531,1124,1124,1124,1124,,,,,
243161030,1125,1125,1125,1125,,,,,
243163529,1125,1125,1125,1125,,,,,
243166028,1126,1126,1126,1126,,,,,
243168527,1127,1127,1127,1127,,,,,
243171026,1128,1128,1128,1128,,,,,
243173525,1128,1128,1128,1128,,,,,
243176024,1129,1129,1129,1129,,,,,
243178523,1130,1130,1130,1130,,,,,
243181022,1131,1131,1131,1131,,,,,
243183521,1131,1131,1131,1131,,,,,
243186020,1132,1132,1132,1132,,,,,
243188519,1133,1133,1133,1133,,,,,
243191018,1134,1134,1134,1134,,,,,
243193517,1134,1134,1134,1134,,,,,
243196016,1135,1135,1135,1135,,,,,
243198515,1136,1136,1136,1136,,,,,
243201014,1137,1137,1137,1137,,,,,
243203513,1137,1137,1137,1137,,,,,
243206012,1138,1138,1138,1138,,,,,
243208511,1139,1139,1139,1139,,,,,
243211010,1140,1140,1140,1140,,,,,
243213509,1140,1140,1140,1140,,,,,
243216008,1141,1141,1141,1141,,,,,
243218507,1142,1142,1142,1142,,,,,
243221006,1143,1143,1143,1143,,,,,
243223505,1143,1143,1143,1143,,,,,
243226004,1144,1144,1144,1144,,,,,
243228503,1145,1145,1145,1145,,,,,
243231002,1146,1146,1146,1146,,,,,
243233501,1146,1146,1146,1146,,,,,
243236000,1147,1147,1147,1147,,,,,
243238499,1148,1148,1148,1148,,,,,
243240998,1149,1149,1149,1149,,,,,
243243497,1149,1149,1149,1149,,,,,
243245996,1150,1150,1150,1150,,,,,
243248495,1165,1150,1150,1166,,,,,
243250994,1180,1150,1151,1181,,,,,
243253493,1191,1153,1155,1193,,,,,
243255992,1199,1161,1163,1201,,,,,
243258491,1206,1169,1171,1208,,,,,
243260990,1213,1177,1179,1215,,,,,
243263489,1220,1185,1187,1222,,,,,
243265988,1228,1192,1194,1230,,,,,
243268487,1234,1199,1201,1236,,,,,
243270986,1241,1207,1209,1243,,,,,
243273485,1248,1214,1216,1250,,,,,
243275984,1255,1221,1223,1257,,,,,
243278483,1261,1228,1230,1263,,,,,
243280982,1268,1235,1236,1270,,,,,
243283481,1274,1241,1243,1276,,,,,
243285980,1281,1248,1250,1282,,,,,
243288479,1287,1254,1256,1289,,,,,
243290978,1293,1261,1263,1295,,,,,
243293477,1299,1267,1269,1301,,,,,
243295976,1305,1274,1275,1307,,,,,
243298475,1311,1280,1282,1313,,,,,
243300974,1317,1286,1288,1319,,,,,
243303473,1323,1292,1294,1325,,,,,
243305972,1329,1298,1300,1331,,,,,
243308471,1335,1304,1306,1336,,,,,
243310970,1341,1310,1312,1342,,,,,
243313469,1346,1316,1317,1348,,,,,
243315968,1352,1321,1323,1353,,,,,
243318467,1357,1327,1329,1359,,,,,
243320966,1363,1333,1334,1364,,,,,
243323465,1368,1338,1340,1370,,,,,
243325964,1374,1344,1346,1375,,,,,
243328463,1379,1350,1351,1380,,,,,
243330962,1384,1355,1357,1386,,,,,
243333461,1389,1360,1362,1391,,,,,
243335960,1395,1366,1367,1396,,,,,
243338459,1400,1371,1373,1401,,,,,
243340958,1405,1376,1378,1406,,,,,
243343457,1410,1382,1383,1411,,,,,
243345956,1415,1387,1388,1416,,,,,
243348455,1420,1392,1394,1421,,,,,
243350954,1425,1397,1399,1426,,,,,
243353453,1430,1402,1404,1431,,,,,
243355952,1435,1407,1409,1436,,,,,
243358451,1440,1412,1414,1441,,,,,
243360950,1444,1417,1419,1446,,,,,
243363449,1449,1422,1424,1451,,,,,
243365948,1454,1427,1429,1455,,,,,
243368447,1459,1432,1433,1460,,,,,
243370946,1463,1437,1438,1465,,,,,
243373445,1468,1442,1443,1469,,,,,
243375944,1473,1446,1448,1474,,,,,
243378443,1477,1451,1453,1478,,,,,
243380942,1482,1456,1457,1483,,,,,
243383441,1486,1461,1462,1488,,,,,
243385940,1491,1465,1467,1492,,,,,
243388439,1495,1470,1471,1497,,,,,
243390938,1500,1474,1476,1501,,,,,
243393437,1504,1479,1480,1505,,,,,
243395936,1508,1483,1485,1510,,,,,
243398435,1513,1488,1489,1514,,,,,
243400934,1517,1492,1494,1519,,,,,
243403433,1522,1497,1498,1523,,,,,
243405932,1526,1501,1502,1527,,,,,
243408431,1530,1506,1507,1531,,,,,
243410930,1534,1510,1511,1536,,,,,
243413429,1539,1514,1515,1540,,,,,
243415928,1543,1519,1520,1544,,,,,
243418427,1547,1523,1524,1548,,,,,
243420926,1551,1527,1528,1553,,,,,
243423425,1555,1531,1532,1557,,,,,
243425924,1560,1536,1537,1561,,,,,
243428423,1564,1540,1541,1565,,,,,
243430922,1568,1544,1545,1569,,,,,
243433421,1572,1548,1549,1573,,,,,
243435920,1576,1552,1553,1577,,,,,
243438419,1580,1556,1557,1581,,,,,
243440918,1584,1560,1561,1585,,,,,
243443417,1588,1564,1566,1589,,,,,
243445916,1592,1568,1570,1593,,,,,
243448415,1596,1573,1574,1597,,,,,
243450914,1600,1577,1578,1601,,,,,
243453413,1604,1580,1581,1605,,,,,
243455912,1608,1584,1585,1609,,,,,
243458411,1611,1588,1589,1613,,,,,
243460910,1615,1592,1593,1617,,,,,
243463409,1619,1596,1597,1620,,,,,
243465908,1623,1600,1601,1624,,,,,
243468407,1627,1604,1605,1628,,,,,
243470906,1631,1608,1609,1632,,,,,
243473405,1634,1612,1613,1636,,,,,
243475904,1638,1615,1616,1640,,,,,
243478403,1642,1619,1620,1643,,,,,
243480902,1646,1623,1624,1647,,,,,
243483401,1649,1627,1628,1651,,,,,
243485900,1653,1630,1631,1654,,,,,
243488399,1657,1634,1635,1658,,,,,
243490898,1661,1638,1639,1662,,,,,
243493397,1664,1641,1642,1666,,,,,
243495896,1668,1645,1646,1669,,,,,
243498395,1672,1649,1650,1673,,,,,
243500894,1675,1652,1653,1676,,,,,
243503393,1679,1656,1657,1680,,,,,
243505892,1682,1660,1661,1684,,,,,
243508391,1686,1663,1664,1687,,,,,
243510890,1690,1667,1668,1691,,,,,
243513389,1693,1670,1671,1694,,,,,
243515888,1697,1674,1675,1698,,,,,
243518387,1700,1677,1679,1701,,,,,
243520886,1704,1681,1682,1705,,,,,
243523385,1707,1685,1686,1708,,,,,
243525884,1711,1688,1689,1712,,,,,
243528383,1714,1692,1693,1715,,,,,
243530882,1718,1695,1696,1719,,,,,
243533381,1721,1699,1700,1722,,,,,
243535880,1725,1702,1703,1726,,,,,
243538379,1728,1705,1707,1729,,,,,
243540878,1731,1709,1710,1733,,,,,
243543377,1735,1712,1713,1736,,,,,
243545876,1738,1716,1717,1739,,,,,
243548375,1742,1719,1720,1743,,,,,
243550874,1745,1723,1724,1746,,,,,
243553373,1748,1726,1727,1749,,,,,
243555872,1752,1729,1730,1753,,,,,
243558371,1755,1733,1734,1756,,,,,
243560870,1758,1736,1737,1759,,,,,
243563369,1762,1739,1740,1763,,,,,
243565868,1765,1743,1744,1766,,,,,
243568367,1768,1746,1747,1769,,,,,
243570866,1771,1749,1750,1773,,,,,
243573365,1775,1753,1754,1776,,,,,
243575864,1778,1756,1757,1779,,,,,
243578363,1781,1759,1760,1782,,,,,
243580862,1784,1763,1763,1786,,,,,
243583361,1788,1766,1767,1789,,,,,
243585860,1791,1769,1770,1792,,,,,
243588359,1794,1772,1773,1795,,,,,
243590858,1797,1775,1776,1798,,,,,
243593357,1800,1779,1779,1802,,,,,
243595856,1803,1782,1783,1805,,,,,
243598355,1807,1785,1786,1808,,,,,
243600854,1810,1788,1789,1811,,,,,
243603353,1813,1791,1792,1814,,,,,
243605852,1816,1795,1795,1817,,,,,
243608351,1819,1798,1799,1820,,,,,
243610850,1822,1801,1802,1824,,,,,
243613349,1825,1804,1805,1827,,,,,
243615848,1829,1807,1808,1830,,,,,
243618347,1832,1810,1811,1833,,,,,
243620846,1835,1813,1814,1836,,,,,
243623345,1838,1816,1817,1839,,,,,
243625844,1841,1820,1820,1842,,,,,
243628343,1844,1823,1823,1845,,,,,
243630842,1847,1826,1827,1848,,,,,
243633341,1850,1829,1830,1851,,,,,
243635840,1853,1832,1833,1854,,,,,
243638339,1856,1835,1836,1857,,,,,
243640838,1859,1838,1839,1860,,,,,
243643337,1862,1841,1842,1863,,,,,
243645836,1865,1844,1845,1866,,,,,
243648335,1868,1847,1848,1869,,,,,
243650834,1871,1850,1851,1872,,,,,
243653333,1874,1853,1854,1875,,,,,
243655832,1877,1856,1857,1878,,,,,
243658331,1880,1859,1860,1881,,,,,
243660830,1883,1862,1863,1884,,,,,
243663329,1886,1864,1865,1887,,,,,
243665828,1889,1867,1868,1890,,,,,
243668327,1892,1870,1871,1893,,,,,
243670826,1895,1873,1874,1896,,,,,
243673325,1898,1876,1877,1899,,,,,
243675824,1901,1879,1880,1902,,,,,
243678323,1904,1882,1883,1905,,,,,
243680822,1907,1885,1886,1908,,,,,
243683321,1910,1888,1889,1910,,,,,
243685820,1913,1891,1892,1913,,,,,
243688319,1915,1893,1895,1916,,,,,
243690818,1918,1896,1897,1919,,,,,
243693317,1921,1899,1900,1922,,,,,
243695816,1924,1902,1903,1925,,,,,
243698315,1927,1905,1906,1928,,,,,
243700814,1927,1905,1906,1928,,,,,
243703313,1926,1904,1905,1927,,,,,
243705812,1926,1903,1904,1926,,,,,
243708311,1925,1902,1904,1926,,,,,
243710810,1924,1902,1903,1925,,,,,
243713309,1924,1901,1902,1925,,,,,
243715808,1923,1900,1902,1924,,,,,
243718307,1923,1900,1901,1924,,,,,
243720806,1922,1899,1900,1923,,,,,
243723305,1922,1899,1900,1923,,,,,
243725804,1922,1898,1900,1922,,,,,
243728303,1921,1898,1899,1922,,,,,
243730802,1921,1898,1899,1922,,,,,
243733301,1921,1898,1899,1921,,,,,
243735800,1920,1898,1899,1921,,,,,
243738299,1920,1898,1899,1921,,,,,
243740798,1919,1898,1899,1920,,,,,
243743297,1919,1898,1900,1920,,,,,
243745796,1918,1899,1900,1919,,,,,
243748295,1918,1899,1900,1919,,,,,
243750794,1917,1899,1901,1918,,,,,
243753293,1917,1899,1900,1917,,,,,
243755792,1916,1899,1900,1916,,,,,
243758291,1915,1899,1900,1916,,,,,
243760790,1914,1899,1900,1915,,,,,
243763289,1913,1898,1899,1914,,,,,
243765788,1912,1897,1898,1912,,,,,
243768287,1910,1896,1897,1911,,,,,
243770786,1909,1895,1896,1909,,,,,
243773285,1907,1893,1895,1908,,,,,
243775784,1905,1892,1893,1906,,,,,
243778283,1904,1890,1892,1904,,,,,
243780782,1902,1889,1890,1902,,,,,
243783281,1899,1887,1888,1900,,,,,
243785780,1897,1885,1886,1898,,,,,
243788279,1895,1882,1884,1895,,,,,
243790778,1892,1880,1881,1893,,,,,
243793277,1890,1878,1879,1890,,,,,
243795776,1887,1875,1877,1888,,,,,
