timestamp,TimeUS,C1,C2,C3,C4,C5,C6,C7,C8,C9,C10,C11,C12,C13,C14
1683183990.90004015,80528609,1000,1000,1000,1000,0,0,0,0,0,0,0,0,0,0
1683183991.00000000,80628569,1000,1000,1000,1000,0,0,0,0,0,0,0,0,0,0
1683183991.09996009,80728529,1000,1000,1000,1000,0,0,0,0,0,0,0,0,0,0
1683183991.19992018,80828489,1000,1000,1000,1000,0,0,0,0,0,0,0,0,0,0
1683183991.29988003,80928449,1000,1000,1000,1000,0,0,0,0,0,0,0,0,0,0
1683183991.39984012,81028409,1000,1000,1000,1000,0,0,0,0,0,0,0,0,0,0
1683183991.49980021,81128369,1000,1000,1000,1000,0,0,0,0,0,0,0,0,0,0
1683183991.59976006,81228329,1000,1000,1000,1000,0,0,0,0,0,0,0,0,0,0
1683183991.69972014,81328289,1000,1000,1000,1000,0,0,0,0,0,0,0,0,0,0
1683183991.79967999,81428249,1000,1000,1000,1000,0,0,0,0,0,0,0,0,0,0
1683183991.89964008,81528209,1000,1000,1000,1000,0,0,0,0,0,0,0,0,0,0
1683183991.99960017,81628169,1000,1000,1000,1000,0,0,0,0,0,0,0,0,0,0
1683183992.10039306,81728962,1000,1000,1000,1000,0,0,0,0,0,0,0,0,0,0
1683183992.20035315,81828922,1000,1000,1000,1000,0,0,0,0,0,0,0,0,0,0
1683183992.30031300,81928882,1000,1000,1000,1000,0,0,0,0,0,0,0,0,0,0
1683183992.40027308,82028842,1000,1000,1000,1000,0,0,0,0,0,0,0,0,0,0
1683183992.50023317,82128802,1000,1000,1000,1000,0,0,0,0,0,0,0,0,0,0
1683183992.60019302,82228762,1000,1000,1000,1000,0,0,0,0,0,0,0,0,0,0
1683183992.70015311,82328722,1000,1000,1000,1000,0,0,0,0,0,0,0,0,0,0
1683183992.80011320,82428682,1000,1000,1000,1000,0,0,0,0,0,0,0,0,0,0
1683183992.90007305,82528642,1027,1027,1027,1027,0,0,0,0,0,0,0,0,0,0
1683183993.00003314,82628602,1057,1057,1057,1057,0,0,0,0,0,0,0,0,0,0
1683183993.09999323,82728562,1087,1087,1087,1087,0,0,0,0,0,0,0,0,0,0
1683183993.19995308,82828522,1116,1116,1116,1116,0,0,0,0,0,0,0,0,0,0
1683183993.29991317,82928482,1146,1146,1146,1146,0,0,0,0,0,0,0,0,0,0
1683183993.39987302,83028442,1380,1371,1372,1381,0,0,0,0,0,0,0,0,0,0
1683183993.49983311,83128402,1564,1556,1557,1565,0,0,0,0,0,0,0,0,0,0
1683183993.59979320,83228362,1714,1707,1707,1714,0,0,0,0,0,0,0,0,0,0
1683183993.69975305,83328322,1843,1836,1836,1844,0,0,0,0,0,0,0,0,0,0
1683183993.79971313,83428282,1899,1891,1891,1899,0,0,0,0,0,0,0,0,0,0
1683183993.89967322,83528242,1826,1823,1824,1826,0,0,0,0,0,0,0,0,0,0
1683183993.99963307,83628202,1697,1698,1698,1697,0,0,0,0,0,0,0,0,0,0
1683183994.09959316,83728162,1630,1632,1633,1630,0,0,0,0,0,0,0,0,0,0
1683183994.20038605,83828955,1620,1624,1624,1621,0,0,0,0,0,0,0,0,0,0
1683183994.30034614,83928915,1629,1632,1632,1629,0,0,0,0,0,0,0,0,0,0
1683183994.40030622,84028875,1633,1634,1634,1633,0,0,0,0,0,0,0,0,0,0
1683183994.50026608,84128835,1629,1629,1629,1629,0,0,0,0,0,0,0,0,0,0
1683183994.60022616,84228795,1622,1620,1620,1621,0,0,0,0,0,0,0,0,0,0
1683183994.70018601,84328755,1616,1615,1614,1616,0,0,0,0,0,0,0,0,0,0
1683183994.80014610,84428715,1613,1611,1611,1612,0,0,0,0,0,0,0,0,0,0
1683183994.90010619,84528675,1613,1613,1612,1613,0,0,0,0,0,0,0,0,0,0
1683183995.00006604,84628635,1614,1614,1614,1614,0,0,0,0,0,0,0,0,0,0
1683183995.10002613,84728595,1615,1616,1615,1615,0,0,0,0,0,0,0,0,0,0
1683183995.19998622,84828555,1612,1617,1617,1612,0,0,0,0,0,0,0,0,0,0
1683183995.29994607,84928515,1583,1584,1583,1584,0,0,0,0,0,0,0,0,0,0
1683183995.39990616,85028475,1569,1569,1567,1571,0,0,0,0,0,0,0,0,0,0
1683183995.49986601,85128435,1559,1558,1556,1561,0,0,0,0,0,0,0,0,0,0
1683183995.59982610,85228395,1548,1548,1547,1549,0,0,0,0,0,0,0,0,0,0
1683183995.69978619,85328355,1540,1539,1540,1540,0,0,0,0,0,0,0,0,0,0
1683183995.79974604,85428315,1531,1531,1532,1530,0,0,0,0,0,0,0,0,0,0
1683183995.89970613,85528275,1522,1522,1522,1522,0,0,0,0,0,0,0,0,0,0
1683183995.99966621,85628235,1516,1516,1516,1516,0,0,0,0,0,0,0,0,0,0
1683183996.09962606,85728195,1515,1514,1514,1515,0,0,0,0,0,0,0,0,0,0
1683183996.19958615,85828155,1514,1514,1514,1515,0,0,0,0,0,0,0,0,0,0
1683183996.30037904,85928948,1515,1515,1514,1515,0,0,0,0,0,0,0,0,0,0
1683183996.40033913,86028908,1515,1515,1515,1516,0,0,0,0,0,0,0,0,0,0
1683183996.50029922,86128868,1516,1516,1516,1516,0,0,0,0,0,0,0,0,0,0
1683183996.60025907,86228828,1518,1518,1518,1518,0,0,0,0,0,0,0,0,0,0
1683183996.70021915,86328788,1532,1532,1537,1528,0,0,0,0,0,0,0,0,0,0
1683183996.80017900,86428748,1541,1541,1546,1536,0,0,0,0,0,0,0,0,0,0
1683183996.90013909,86528708,1548,1547,1549,1547,0,0,0,0,0,0,0,0,0,0
1683183997.00009918,86628668,1552,1551,1549,1555,0,0,0,0,0,0,0,0,0,0
1683183997.10005903,86728628,1555,1554,1550,1559,0,0,0,0,0,0,0,0,0,0
1683183997.20001912,86828588,1557,1557,1552,1561,0,0,0,0,0,0,0,0,0,0
1683183997.29997921,86928548,1558,1558,1555,1561,0,0,0,0,0,0,0,0,0,0
1683183997.39993906,87028508,1562,1562,1562,1562,0,0,0,0,0,0,0,0,0,0
1683183997.49989915,87128468,1563,1564,1566,1561,0,0,0,0,0,0,0,0,0,0
1683183997.59985900,87228428,1567,1567,1570,1563,0,0,0,0,0,0,0,0,0,0
1683183997.69981909,87328388,1568,1568,1570,1565,0,0,0,0,0,0,0,0,0,0
1683183997.79977918,87428348,1568,1568,1569,1567,0,0,0,0,0,0,0,0,0,0
1683183997.89973903,87528308,1569,1568,1568,1569,0,0,0,0,0,0,0,0,0,0
1683183997.99969912,87628268,1568,1566,1566,1569,0,0,0,0,0,0,0,0,0,0
1683183998.09965920,87728228,1563,1563,1569,1573,0,0,0,0,0,0,0,0,0,0
1683183998.19961905,87828188,1563,1563,1570,1572,0,0,0,0,0,0,0,0,0,0
1683183998.30041218,87928981,1564,1564,1568,1571,0,0,0,0,0,0,0,0,0,0
1683183998.40037203,88028941,1565,1565,1568,1568,0,0,0,0,0,0,0,0,0,0
1683183998.50033212,88128901,1566,1566,1567,1567,0,0,0,0,0,0,0,0,0,0
1683183998.60029221,88228861,1569,1569,1569,1567,0,0,0,0,0,0,0,0,0,0
1683183998.70025206,88328821,1571,1570,1568,1566,0,0,0,0,0,0,0,0,0,0
1683183998.80021214,88428781,1572,1572,1568,1567,0,0,0,0,0,0,0,0,0,0
1683183998.90017200,88528741,1573,1572,1568,1568,0,0,0,0,0,0,0,0,0,0
1683183999.00013208,88628701,1573,1573,1568,1568,0,0,0,0,0,0,0,0,0,0
1683183999.10009217,88728661,1572,1572,1568,1569,0,0,0,0,0,0,0,0,0,0
1683183999.20005202,88828621,1573,1573,1570,1570,0,0,0,0,0,0,0,0,0,0
1683183999.30001211,88928581,1573,1573,1571,1572,0,0,0,0,0,0,0,0,0,0
1683183999.39997220,89028541,1574,1574,1573,1573,0,0,0,0,0,0,0,0,0,0
1683183999.49993205,89128501,1575,1574,1575,1574,0,0,0,0,0,0,0,0,0,0
1683183999.59989214,89228461,1575,1575,1577,1575,0,0,0,0,0,0,0,0,0,0
1683183999.69985223,89328421,1575,1575,1577,1576,0,0,0,0,0,0,0,0,0,0
1683183999.79981208,89428381,1575,1576,1578,1577,0,0,0,0,0,0,0,0,0,0
1683183999.89977217,89528341,1575,1575,1577,1577,0,0,0,0,0,0,0,0,0,0
1683183999.99973202,89628301,1575,1575,1577,1577,0,0,0,0,0,0,0,0,0,0
1683184000.09969211,89728261,1577,1576,1577,1577,0,0,0,0,0,0,0,0,0,0
1683184000.19965219,89828221,1577,1577,1577,1577,0,0,0,0,0,0,0,0,0,0
1683184000.29961205,89928181,1578,1577,1578,1578,0,0,0,0,0,0,0,0,0,0
1683184000.40040517,90028974,1577,1577,1577,1577,0,0,0,0,0,0,0,0,0,0
1683184000.50036502,90128934,1577,1577,1577,1577,0,0,0,0,0,0,0,0,0,0
1683184000.60032511,90228894,1577,1577,1577,1576,0,0,0,0,0,0,0,0,0,0
1683184000.70028520,90328854,1577,1577,1577,1577,0,0,0,0,0,0,0,0,0,0
1683184000.80024505,90428814,1577,1577,1576,1576,0,0,0,0,0,0,0,0,0,0
1683184000.90020514,90528774,1578,1578,1578,1578,0,0,0,0,0,0,0,0,0,0
1683184001.00016522,90628734,1578,1579,1578,1578,0,0,0,0,0,0,0,0,0,0
1683184001.10012507,90728694,1578,1578,1577,1577,0,0,0,0,0,0,0,0,0,0
1683184001.20008516,90828654,1579,1578,1578,1579,0,0,0,0,0,0,0,0,0,0
1683184001.30004501,90928614,1578,1578,1578,1578,0,0,0,0,0,0,0,0,0,0
1683184001.40000510,91028574,1578,1578,1579,1578,0,0,0,0,0,0,0,0,0,0
1683184001.49996519,91128534,1579,1579,1579,1579,0,0,0,0,0,0,0,0,0,0
1683184001.59992504,91228494,1579,1579,1580,1580,0,0,0,0,0,0,0,0,0,0
1683184001.69988513,91328454,1579,1579,1580,1579,0,0,0,0,0,0,0,0,0,0
1683184001.79984522,91428414,1579,1579,1580,1580,0,0,0,0,0,0,0,0,0,0
1683184001.89980507,91528374,1579,1579,1579,1579,0,0,0,0,0,0,0,0,0,0
1683184001.99976516,91628334,1579,1579,1579,1579,0,0,0,0,0,0,0,0,0,0
1683184002.09972501,91728294,1579,1579,1580,1579,0,0,0,0,0,0,0,0,0,0
1683184002.19968510,91828254,1580,1580,1580,1580,0,0,0,0,0,0,0,0,0,0
1683184002.29964519,91928214,1579,1579,1579,1579,0,0,0,0,0,0,0,0,0,0
1683184002.39960504,92028174,1580,1580,1580,1580,0,0,0,0,0,0,0,0,0,0
1683184002.50039816,92128967,1579,1579,1580,1579,0,0,0,0,0,0,0,0,0,0
1683184002.60035801,92228927,1580,1580,1580,1580,0,0,0,0,0,0,0,0,0,0
1683184002.70031810,92328887,1580,1580,1580,1580,0,0,0,0,0,0,0,0,0,0
1683184002.80027819,92428847,1581,1580,1580,1580,0,0,0,0,0,0,0,0,0,0
1683184002.90023804,92528807,1581,1580,1580,1580,0,0,0,0,0,0,0,0,0,0
1683184003.00019813,92628767,1580,1580,1580,1580,0,0,0,0,0,0,0,0,0,0
1683184003.10015821,92728727,1581,1581,1581,1580,0,0,0,0,0,0,0,0,0,0
1683184003.20011806,92828687,1581,1581,1581,1581,0,0,0,0,0,0,0,0,0,0
1683184003.30007815,92928647,1581,1581,1581,1581,0,0,0,0,0,0,0,0,0,0
1683184003.40003800,93028607,1581,1581,1581,1581,0,0,0,0,0,0,0,0,0,0
1683184003.49999809,93128567,1580,1580,1580,1580,0,0,0,0,0,0,0,0,0,0
1683184003.59995818,93228527,1580,1580,1580,1581,0,0,0,0,0,0,0,0,0,0
1683184003.69991803,93328487,1580,1580,1580,1580,0,0,0,0,0,0,0,0,0,0
1683184003.79987812,93428447,1581,1581,1581,1581,0,0,0,0,0,0,0,0,0,0
1683184003.89983821,93528407,1580,1580,1581,1581,0,0,0,0,0,0,0,0,0,0
1683184003.99979806,93628367,1581,1581,1581,1581,0,0,0,0,0,0,0,0,0,0
1683184004.09975815,93728327,1580,1580,1580,1580,0,0,0,0,0,0,0,0,0,0
1683184004.19971800,93828287,1581,1581,1581,1581,0,0,0,0,0,0,0,0,0,0
1683184004.29967809,93928247,1579,1580,1584,1574,0,0,0,0,0,0,0,0,0,0
1683184004.39963818,94028207,1579,1581,1585,1572,0,0,0,0,0,0,0,0,0,0
1683184004.49959803,94128167,1578,1581,1579,1573,0,0,0,0,0,0,0,0,0,0
1683184004.60039115,94228960,1577,1580,1570,1572,0,0,0,0,0,0,0,0,0,0
1683184004.70035100,94328920,1576,1578,1562,1568,0,0,0,0,0,0,0,0,0,0
1683184004.80031109,94428880,1578,1578,1558,1565,0,0,0,0,0,0,0,0,0,0
1683184004.90027118,94528840,1579,1578,1555,1560,0,0,0,0,0,0,0,0,0,0
1683184005.00023103,94628800,1580,1578,1555,1556,0,0,0,0,0,0,0,0,0,0
1683184005.10019112,94728760,1579,1578,1555,1554,0,0,0,0,0,0,0,0,0,0
1683184005.20015121,94828720,1579,1579,1556,1553,0,0,0,0,0,0,0,0,0,0
1683184005.30011106,94928680,1579,1579,1557,1554,0,0,0,0,0,0,0,0,0,0
1683184005.40007114,95028640,1578,1579,1557,1555,0,0,0,0,0,0,0,0,0,0
1683184005.50003099,95128600,1576,1576,1554,1553,0,0,0,0,0,0,0,0,0,0
1683184005.59999108,95228560,1575,1577,1554,1554,0,0,0,0,0,0,0,0,0,0
1683184005.69995117,95328520,1575,1577,1552,1552,0,0,0,0,0,0,0,0,0,0
1683184005.79991102,95428480,1576,1578,1550,1551,0,0,0,0,0,0,0,0,0,0
1683184005.89987111,95528440,1577,1579,1547,1548,0,0,0,0,0,0,0,0,0,0
1683184005.99983120,95628400,1580,1582,1546,1545,0,0,0,0,0,0,0,0,0,0
1683184006.09979105,95728360,1583,1584,1543,1543,0,0,0,0,0,0,0,0,0,0
1683184006.19975114,95828320,1587,1587,1541,1540,0,0,0,0,0,0,0,0,0,0
1683184006.29971123,95928280,1591,1590,1538,1539,0,0,0,0,0,0,0,0,0,0
1683184006.39967108,96028240,1593,1593,1536,1536,0,0,0,0,0,0,0,0,0,0
1683184006.49963117,96128200,1595,1594,1535,1535,0,0,0,0,0,0,0,0,0,0
1683184006.59959102,96228160,1595,1595,1535,1536,0,0,0,0,0,0,0,0,0,0
1683184006.70038414,96328953,1594,1594,1536,1538,0,0,0,0,0,0,0,0,0,0
1683184006.80034423,96428913,1593,1593,1539,1542,0,0,0,0,0,0,0,0,0,0
1683184006.90030408,96528873,1591,1589,1545,1549,0,0,0,0,0,0,0,0,0,0
1683184007.00026417,96628833,1584,1582,1552,1555,0,0,0,0,0,0,0,0,0,0
1683184007.10022402,96728793,1577,1574,1563,1565,0,0,0,0,0,0,0,0,0,0
1683184007.20018411,96828753,1567,1563,1574,1576,0,0,0,0,0,0,0,0,0,0
1683184007.30014420,96928713,1556,1552,1586,1588,0,0,0,0,0,0,0,0,0,0
1683184007.40010405,97028673,1544,1542,1597,1598,0,0,0,0,0,0,0,0,0,0
1683184007.50006413,97128633,1535,1533,1606,1605,0,0,0,0,0,0,0,0,0,0
1683184007.60002422,97228593,1531,1532,1614,1612,0,0,0,0,0,0,0,0,0,0
1683184007.69998407,97328553,1529,1531,1616,1615,0,0,0,0,0,0,0,0,0,0
1683184007.79994416,97428513,1532,1534,1615,1614,0,0,0,0,0,0,0,0,0,0
1683184007.89990401,97528473,1536,1538,1610,1610,0,0,0,0,0,0,0,0,0,0
1683184007.99986410,97628433,1544,1546,1604,1605,0,0,0,0,0,0,0,0,0,0
1683184008.09982419,97728393,1552,1553,1597,1597,0,0,0,0,0,0,0,0,0,0
1683184008.19978404,97828353,1562,1562,1589,1589,0,0,0,0,0,0,0,0,0,0
1683184008.29974413,97928313,1571,1570,1583,1582,0,0,0,0,0,0,0,0,0,0
1683184008.39970422,98028273,1577,1577,1576,1575,0,0,0,0,0,0,0,0,0,0
1683184008.49966407,98128233,1583,1582,1571,1571,0,0,0,0,0,0,0,0,0,0
1683184008.59962416,98228193,1585,1584,1566,1566,0,0,0,0,0,0,0,0,0,0
1683184008.70041704,98328986,1588,1587,1567,1567,0,0,0,0,0,0,0,0,0,0
1683184008.80037713,98428946,1587,1586,1566,1567,0,0,0,0,0,0,0,0,0,0
1683184008.90033722,98528906,1586,1585,1568,1568,0,0,0,0,0,0,0,0,0,0
1683184009.00029707,98628866,1584,1583,1571,1570,0,0,0,0,0,0,0,0,0,0
1683184009.10025716,98728826,1581,1581,1574,1573,0,0,0,0,0,0,0,0,0,0
1683184009.20021701,98828786,1578,1578,1576,1575,0,0,0,0,0,0,0,0,0,0
1683184009.30017710,98928746,1576,1576,1579,1579,0,0,0,0,0,0,0,0,0,0
1683184009.40013719,99028706,1574,1574,1581,1581,0,0,0,0,0,0,0,0,0,0
1683184009.50009704,99128666,1573,1574,1583,1583,0,0,0,0,0,0,0,0,0,0
1683184009.60005713,99228626,1572,1572,1583,1584,0,0,0,0,0,0,0,0,0,0
1683184009.70001721,99328586,1572,1572,1583,1584,0,0,0,0,0,0,0,0,0,0
1683184009.79997706,99428546,1573,1574,1584,1584,0,0,0,0,0,0,0,0,0,0
1683184009.89993715,99528506,1575,1575,1583,1583,0,0,0,0,0,0,0,0,0,0
1683184009.99989700,99628466,1576,1576,1581,1582,0,0,0,0,0,0,0,0,0,0
1683184010.09985709,99728426,1578,1577,1581,1581,0,0,0,0,0,0,0,0,0,0
1683184010.19981718,99828386,1579,1579,1579,1580,0,0,0,0,0,0,0,0,0,0
1683184010.29977703,99928346,1579,1579,1578,1578,0,0,0,0,0,0,0,0,0,0
1683184010.39973712,100028306,1580,1580,1577,1577,0,0,0,0,0,0,0,0,0,0
1683184010.49969721,100128266,1581,1580,1576,1576,0,0,0,0,0,0,0,0,0,0
1683184010.59965706,100228226,1581,1580,1576,1576,0,0,0,0,0,0,0,0,0,0
1683184010.69961715,100328186,1582,1582,1578,1578,0,0,0,0,0,0,0,0,0,0
1683184010.80041003,100428979,1581,1580,1577,1577,0,0,0,0,0,0,0,0,0,0
1683184010.90037012,100528939,1581,1581,1578,1578,0,0,0,0,0,0,0,0,0,0
1683184011.00033021,100628899,1581,1580,1579,1579,0,0,0,0,0,0,0,0,0,0
1683184011.10029006,100728859,1580,1580,1580,1579,0,0,0,0,0,0,0,0,0,0
1683184011.20025015,100828819,1580,1580,1580,1580,0,0,0,0,0,0,0,0,0,0
1683184011.30021000,100928779,1580,1579,1581,1580,0,0,0,0,0,0,0,0,0,0
1683184011.40017009,101028739,1579,1579,1580,1580,0,0,0,0,0,0,0,0,0,0
1683184011.50013018,101128699,1579,1579,1581,1581,0,0,0,0,0,0,0,0,0,0
1683184011.60009003,101228659,1579,1580,1581,1582,0,0,0,0,0,0,0,0,0,0
1683184011.70005012,101328619,1579,1580,1581,1581,0,0,0,0,0,0,0,0,0,0
1683184011.80001020,101428579,1580,1580,1581,1582,0,0,0,0,0,0,0,0,0,0
1683184011.89997005,101528539,1580,1580,1581,1581,0,0,0,0,0,0,0,0,0,0
1683184011.99993014,101628499,1580,1580,1580,1580,0,0,0,0,0,0,0,0,0,0
1683184012.09988999,101728459,1581,1580,1581,1580,0,0,0,0,0,0,0,0,0,0
1683184012.19985008,101828419,1580,1580,1580,1580,0,0,0,0,0,0,0,0,0,0
1683184012.29981017,101928379,1580,1582,1585,1575,0,0,0,0,0,0,0,0,0,0
1683184012.39977002,102028339,1581,1584,1585,1571,0,0,0,0,0,0,0,0,0,0
1683184012.49973011,102128299,1581,1584,1577,1571,0,0,0,0,0,0,0,0,0,0
1683184012.59969020,102228259,1580,1583,1568,1570,0,0,0,0,0,0,0,0,0,0
1683184012.69965005,102328219,1580,1582,1561,1567,0,0,0,0,0,0,0,0,0,0
1683184012.79961014,102428179,1580,1581,1555,1562,0,0,0,0,0,0,0,0,0,0
1683184012.90040302,102528972,1582,1580,1553,1557,0,0,0,0,0,0,0,0,0,0
1683184013.00036311,102628932,1582,1580,1553,1554,0,0,0,0,0,0,0,0,0,0
1683184013.10032320,102728892,1582,1581,1554,1553,0,0,0,0,0,0,0,0,0,0
1683184013.20028305,102828852,1580,1580,1554,1551,0,0,0,0,0,0,0,0,0,0
1683184013.30024314,102928812,1580,1580,1555,1553,0,0,0,0,0,0,0,0,0,0
1683184013.40020323,103028772,1577,1579,1554,1553,0,0,0,0,0,0,0,0,0,0
1683184013.50016308,103128732,1577,1578,1554,1554,0,0,0,0,0,0,0,0,0,0
1683184013.60012317,103228692,1575,1577,1552,1552,0,0,0,0,0,0,0,0,0,0
1683184013.70008302,103328652,1576,1577,1551,1551,0,0,0,0,0,0,0,0,0,0
1683184013.80004311,103428612,1577,1578,1550,1550,0,0,0,0,0,0,0,0,0,0
1683184013.90000319,103528572,1579,1580,1548,1549,0,0,0,0,0,0,0,0,0,0
1683184013.99996305,103628532,1580,1581,1546,1546,0,0,0,0,0,0,0,0,0,0
1683184014.09992313,103728492,1583,1584,1544,1545,0,0,0,0,0,0,0,0,0,0
1683184014.19988322,103828452,1586,1587,1543,1543,0,0,0,0,0,0,0,0,0,0
1683184014.29984307,103928412,1588,1589,1541,1542,0,0,0,0,0,0,0,0,0,0
1683184014.39980316,104028372,1590,1592,1540,1541,0,0,0,0,0,0,0,0,0,0
1683184014.49976301,104128332,1592,1592,1539,1540,0,0,0,0,0,0,0,0,0,0
1683184014.59972310,104228292,1592,1592,1539,1541,0,0,0,0,0,0,0,0,0,0
1683184014.69968319,104328252,1592,1591,1544,1546,0,0,0,0,0,0,0,0,0,0
1683184014.79964304,104428212,1588,1586,1548,1551,0,0,0,0,0,0,0,0,0,0
1683184014.89960313,104528172,1583,1579,1557,1559,0,0,0,0,0,0,0,0,0,0
1683184015.00039601,104628965,1575,1571,1567,1569,0,0,0,0,0,0,0,0,0,0
1683184015.10035610,104728925,1565,1561,1578,1579,0,0,0,0,0,0,0,0,0,0
1683184015.20031619,104828885,1555,1553,1588,1589,0,0,0,0,0,0,0,0,0,0
1683184015.30027604,104928845,1546,1545,1597,1598,0,0,0,0,0,0,0,0,0,0
1683184015.40023613,105028805,1540,1540,1604,1604,0,0,0,0,0,0,0,0,0,0
1683184015.50019622,105128765,1537,1538,1609,1608,0,0,0,0,0,0,0,0,0,0
1683184015.60015607,105228725,1537,1539,1611,1609,0,0,0,0,0,0,0,0,0,0
1683184015.70011616,105328685,1541,1542,1610,1609,0,0,0,0,0,0,0,0,0,0
1683184015.80007601,105428645,1545,1547,1606,1605,0,0,0,0,0,0,0,0,0,0
1683184015.90003610,105528605,1552,1554,1601,1600,0,0,0,0,0,0,0,0,0,0
1683184015.99999619,105628565,1559,1561,1594,1594,0,0,0,0,0,0,0,0,0,0
1683184016.09995604,105728525,1567,1567,1588,1587,0,0,0,0,0,0,0,0,0,0
1683184016.19991612,105828485,1574,1573,1582,1581,0,0,0,0,0,0,0,0,0,0
1683184016.29987621,105928445,1579,1578,1576,1576,0,0,0,0,0,0,0,0,0,0
1683184016.39983606,106028405,1583,1582,1572,1573,0,0,0,0,0,0,0,0,0,0
1683184016.49979615,106128365,1585,1583,1569,1569,0,0,0,0,0,0,0,0,0,0
1683184016.59975600,106228325,1586,1584,1569,1569,0,0,0,0,0,0,0,0,0,0
1683184016.69971609,106328285,1586,1584,1570,1570,0,0,0,0,0,0,0,0,0,0
1683184016.79967618,106428245,1584,1583,1571,1570,0,0,0,0,0,0,0,0,0,0
1683184016.89963603,106528205,1581,1581,1572,1572,0,0,0,0,0,0,0,0,0,0
1683184016.99959612,106628165,1579,1579,1575,1575,0,0,0,0,0,0,0,0,0,0
1683184017.10038900,106728958,1577,1577,1578,1578,0,0,0,0,0,0,0,0,0,0
1683184017.20034909,106828918,1575,1576,1580,1580,0,0,0,0,0,0,0,0,0,0
1683184017.30030918,106928878,1574,1574,1582,1582,0,0,0,0,0,0,0,0,0,0
1683184017.40026903,107028838,1574,1574,1583,1583,0,0,0,0,0,0,0,0,0,0
1683184017.50022912,107128798,1573,1574,1584,1583,0,0,0,0,0,0,0,0,0,0
1683184017.60018921,107228758,1575,1575,1584,1584,0,0,0,0,0,0,0,0,0,0
1683184017.70014906,107328718,1574,1575,1583,1583,0,0,0,0,0,0,0,0,0,0
1683184017.80010915,107428678,1576,1576,1582,1582,0,0,0,0,0,0,0,0,0,0
1683184017.90006900,107528638,1576,1577,1581,1582,0,0,0,0,0,0,0,0,0,0
1683184018.00002909,107628598,1578,1578,1580,1580,0,0,0,0,0,0,0,0,0,0
1683184018.09998918,107728558,1579,1579,1579,1579,0,0,0,0,0,0,0,0,0,0
1683184018.19994903,107828518,1580,1580,1578,1579,0,0,0,0,0,0,0,0,0,0
1683184018.29990911,107928478,1581,1580,1578,1578,0,0,0,0,0,0,0,0,0,0
1683184018.39986920,108028438,1582,1581,1578,1577,0,0,0,0,0,0,0,0,0,0
1683184018.49982905,108128398,1581,1581,1577,1577,0,0,0,0,0,0,0,0,0,0
1683184018.59978914,108228358,1581,1581,1577,1578,0,0,0,0,0,0,0,0,0,0
1683184018.69974923,108328318,1580,1580,1577,1577,0,0,0,0,0,0,0,0,0,0
1683184018.79970908,108428278,1581,1580,1579,1579,0,0,0,0,0,0,0,0,0,0
1683184018.89966917,108528238,1580,1580,1578,1579,0,0,0,0,0,0,0,0,0,0
1683184018.99962902,108628198,1580,1581,1580,1580,0,0,0,0,0,0,0,0,0,0
1683184019.09958911,108728158,1581,1581,1582,1581,0,0,0,0,0,0,0,0,0,0
1683184019.20038199,108828951,1580,1580,1582,1581,0,0,0,0,0,0,0,0,0,0
1683184019.30034208,108928911,1581,1580,1582,1582,0,0,0,0,0,0,0,0,0,0
1683184019.40030217,109028871,1580,1579,1581,1582,0,0,0,0,0,0,0,0,0,0
1683184019.50026202,109128831,1579,1579,1581,1581,0,0,0,0,0,0,0,0,0,0
1683184019.60022211,109228791,1579,1579,1580,1581,0,0,0,0,0,0,0,0,0,0
1683184019.70018220,109328751,1580,1580,1581,1581,0,0,0,0,0,0,0,0,0,0
1683184019.80014205,109428711,1580,1581,1581,1581,0,0,0,0,0,0,0,0,0,0
1683184019.90010214,109528671,1580,1581,1581,1581,0,0,0,0,0,0,0,0,0,0
1683184020.00006223,109628631,1582,1581,1581,1581,0,0,0,0,0,0,0,0,0,0
1683184020.10002208,109728591,1582,1582,1581,1581,0,0,0,0,0,0,0,0,0,0
1683184020.19998217,109828551,1582,1581,1581,1581,0,0,0,0,0,0,0,0,0,0
1683184020.29994202,109928511,1582,1582,1581,1581,0,0,0,0,0,0,0,0,0,0
1683184020.39990211,110028471,1582,1583,1585,1578,0,0,0,0,0,0,0,0,0,0
1683184020.49986219,110128431,1581,1584,1587,1573,0,0,0,0,0,0,0,0,0,0
1683184020.59982204,110228391,1582,1585,1582,1574,0,0,0,0,0,0,0,0,0,0
1683184020.69978213,110328351,1580,1583,1572,1573,0,0,0,0,0,0,0,0,0,0
1683184020.79974222,110428311,1578,1580,1564,1570,0,0,0,0,0,0,0,0,0,0
1683184020.89970207,110528271,1579,1580,1559,1565,0,0,0,0,0,0,0,0,0,0
1683184020.99966216,110628231,1580,1580,1556,1561,0,0,0,0,0,0,0,0,0,0
1683184021.09962201,110728191,1581,1579,1555,1557,0,0,0,0,0,0,0,0,0,0
1683184021.20041513,110828984,1580,1579,1555,1554,0,0,0,0,0,0,0,0,0,0
1683184021.30037522,110928944,1580,1579,1555,1553,0,0,0,0,0,0,0,0,0,0
1683184021.40033507,111028904,1578,1579,1556,1553,0,0,0,0,0,0,0,0,0,0
1683184021.50029516,111128864,1577,1578,1555,1554,0,0,0,0,0,0,0,0,0,0
1683184021.60025501,111228824,1577,1578,1555,1554,0,0,0,0,0,0,0,0,0,0
1683184021.70021510,111328784,1576,1577,1554,1554,0,0,0,0,0,0,0,0,0,0
1683184021.80017519,111428744,1576,1577,1553,1553,0,0,0,0,0,0,0,0,0,0
1683184021.90013504,111528704,1577,1578,1552,1552,0,0,0,0,0,0,0,0,0,0
1683184022.00009513,111628664,1578,1580,1550,1551,0,0,0,0,0,0,0,0,0,0
1683184022.10005522,111728624,1579,1581,1547,1548,0,0,0,0,0,0,0,0,0,0
1683184022.20001507,111828584,1582,1583,1545,1545,0,0,0,0,0,0,0,0,0,0
1683184022.29997516,111928544,1585,1585,1543,1543,0,0,0,0,0,0,0,0,0,0
1683184022.39993501,112028504,1587,1588,1541,1541,0,0,0,0,0,0,0,0,0,0
1683184022.49989510,112128464,1591,1591,1540,1540,0,0,0,0,0,0,0,0,0,0
1683184022.59985518,112228424,1592,1592,1538,1538,0,0,0,0,0,0,0,0,0,0
1683184022.69981503,112328384,1593,1593,1537,1538,0,0,0,0,0,0,0,0,0,0
1683184022.79977512,112428344,1593,1593,1537,1539,0,0,0,0,0,0,0,0,0,0
1683184022.89973521,112528304,1592,1590,1539,1542,0,0,0,0,0,0,0,0,0,0
1683184022.99969506,112628264,1589,1587,1545,1547,0,0,0,0,0,0,0,0,0,0
1683184023.09965515,112728224,1584,1581,1553,1555,0,0,0,0,0,0,0,0,0,0
1683184023.19961500,112828184,1576,1573,1563,1565,0,0,0,0,0,0,0,0,0,0
1683184023.30040812,112928977,1567,1562,1573,1575,0,0,0,0,0,0,0,0,0,0
1683184023.40036821,113028937,1556,1553,1585,1587,0,0,0,0,0,0,0,0,0,0
1683184023.50032806,113128897,1546,1544,1596,1596,0,0,0,0,0,0,0,0,0,0
1683184023.60028815,113228857,1539,1538,1604,1604,0,0,0,0,0,0,0,0,0,0
1683184023.70024800,113328817,1535,1535,1610,1610,0,0,0,0,0,0,0,0,0,0
1683184023.80020809,113428777,1533,1535,1612,1611,0,0,0,0,0,0,0,0,0,0
1683184023.90016818,113528737,1536,1538,1613,1612,0,0,0,0,0,0,0,0,0,0
1683184024.00012803,113628697,1541,1543,1609,1608,0,0,0,0,0,0,0,0,0,0
1683184024.10008812,113728657,1547,1548,1603,1602,0,0,0,0,0,0,0,0,0,0
1683184024.20004821,113828617,1555,1556,1596,1596,0,0,0,0,0,0,0,0,0,0
1683184024.30000806,113928577,1563,1563,1589,1589,0,0,0,0,0,0,0,0,0,0
1683184024.39996815,114028537,1570,1570,1582,1582,0,0,0,0,0,0,0,0,0,0
1683184024.49992800,114128497,1577,1576,1576,1576,0,0,0,0,0,0,0,0,0,0
1683184024.59988809,114228457,1582,1581,1572,1572,0,0,0,0,0,0,0,0,0,0
1683184024.69984818,114328417,1585,1583,1569,1569,0,0,0,0,0,0,0,0,0,0
1683184024.79980803,114428377,1587,1586,1569,1569,0,0,0,0,0,0,0,0,0,0
1683184024.89976811,114528337,1586,1585,1568,1567,0,0,0,0,0,0,0,0,0,0
1683184024.99972820,114628297,1585,1585,1570,1570,0,0,0,0,0,0,0,0,0,0
1683184025.09968805,114728257,1583,1582,1571,1571,0,0,0,0,0,0,0,0,0,0
1683184025.19964814,114828217,1581,1581,1574,1574,0,0,0,0,0,0,0,0,0,0
1683184025.29960823,114928177,1578,1578,1577,1577,0,0,0,0,0,0,0,0,0,0
1683184025.40040112,115028970,1575,1576,1579,1578,0,0,0,0,0,0,0,0,0,0
1683184025.50036120,115128930,1575,1575,1582,1581,0,0,0,0,0,0,0,0,0,0
1683184025.60032105,115228890,1573,1574,1583,1583,0,0,0,0,0,0,0,0,0,0
1683184025.70028114,115328850,1572,1573,1583,1583,0,0,0,0,0,0,0,0,0,0
1683184025.80024099,115428810,1573,1574,1583,1584,0,0,0,0,0,0,0,0,0,0
1683184025.90020108,115528770,1574,1574,1583,1583,0,0,0,0,0,0,0,0,0,0
1683184026.00016117,115628730,1575,1575,1583,1583,0,0,0,0,0,0,0,0,0,0
1683184026.10012102,115728690,1575,1575,1580,1581,0,0,0,0,0,0,0,0,0,0
1683184026.20008111,115828650,1577,1577,1580,1580,0,0,0,0,0,0,0,0,0,0
1683184026.30004120,115928610,1578,1578,1579,1578,0,0,0,0,0,0,0,0,0,0
1683184026.40000105,116028570,1579,1579,1578,1578,0,0,0,0,0,0,0,0,0,0
1683184026.49996114,116128530,1579,1579,1576,1577,0,0,0,0,0,0,0,0,0,0
1683184026.59992123,116228490,1581,1581,1577,1577,0,0,0,0,0,0,0,0,0,0
1683184026.69988108,116328450,1581,1580,1577,1577,0,0,0,0,0,0,0,0,0,0
1683184026.79984117,116428410,1580,1580,1577,1576,0,0,0,0,0,0,0,0,0,0
1683184026.89980102,116528370,1581,1581,1578,1578,0,0,0,0,0,0,0,0,0,0
1683184026.99976110,116628330,1581,1581,1579,1579,0,0,0,0,0,0,0,0,0,0
1683184027.09972119,116728290,1580,1580,1578,1579,0,0,0,0,0,0,0,0,0,0
1683184027.19968104,116828250,1579,1579,1579,1579,0,0,0,0,0,0,0,0,0,0
1683184027.29964113,116928210,1579,1579,1579,1579,0,0,0,0,0,0,0,0,0,0
1683184027.39960122,117028170,1579,1580,1581,1580,0,0,0,0,0,0,0,0,0,0
1683184027.50039411,117128963,1580,1580,1581,1581,0,0,0,0,0,0,0,0,0,0
1683184027.60035419,117228923,1579,1579,1581,1580,0,0,0,0,0,0,0,0,0,0
1683184027.70031404,117328883,1581,1581,1582,1582,0,0,0,0,0,0,0,0,0,0
1683184027.80027413,117428843,1579,1579,1581,1581,0,0,0,0,0,0,0,0,0,0
1683184027.90023422,117528803,1580,1580,1581,1581,0,0,0,0,0,0,0,0,0,0
1683184028.00019407,117628763,1580,1580,1580,1581,0,0,0,0,0,0,0,0,0,0
1683184028.10015416,117728723,1581,1580,1581,1581,0,0,0,0,0,0,0,0,0,0
1683184028.20011401,117828683,1580,1580,1580,1580,0,0,0,0,0,0,0,0,0,0
1683184028.30007410,117928643,1580,1581,1583,1576,0,0,0,0,0,0,0,0,0,0
1683184028.40003419,118028603,1581,1582,1587,1572,0,0,0,0,0,0,0,0,0,0
1683184028.49999404,118128563,1579,1579,1582,1573,0,0,0,0,0,0,0,0,0,0
1683184028.59995413,118228523,1577,1577,1575,1576,0,0,0,0,0,0,0,0,0,0
1683184028.69991422,118328483,1573,1573,1568,1575,0,0,0,0,0,0,0,0,0,0
1683184028.79987407,118428443,1571,1571,1566,1573,0,0,0,0,0,0,0,0,0,0
1683184028.89983416,118528403,1569,1568,1565,1570,0,0,0,0,0,0,0,0,0,0
1683184028.99979401,118628363,1569,1568,1566,1569,0,0,0,0,0,0,0,0,0,0
1683184029.09975410,118728323,1567,1567,1567,1567,0,0,0,0,0,0,0,0,0,0
1683184029.19971418,118828283,1566,1567,1568,1566,0,0,0,0,0,0,0,0,0,0
1683184029.29967403,118928243,1565,1566,1567,1565,0,0,0,0,0,0,0,0,0,0
1683184029.39963412,119028203,1565,1566,1567,1565,0,0,0,0,0,0,0,0,0,0
1683184029.49959421,119128163,1564,1564,1565,1564,0,0,0,0,0,0,0,0,0,0
1683184029.60038710,119228956,1563,1563,1564,1563,0,0,0,0,0,0,0,0,0,0
1683184029.70034719,119328916,1563,1563,1564,1564,0,0,0,0,0,0,0,0,0,0
1683184029.80030704,119428876,1562,1562,1563,1563,0,0,0,0,0,0,0,0,0,0
1683184029.90026712,119528836,1561,1561,1562,1562,0,0,0,0,0,0,0,0,0,0
1683184030.00022721,119628796,1561,1561,1561,1561,0,0,0,0,0,0,0,0,0,0
1683184030.10018706,119728756,1561,1561,1561,1561,0,0,0,0,0,0,0,0,0,0
1683184030.20014715,119828716,1561,1561,1561,1560,0,0,0,0,0,0,0,0,0,0
1683184030.30010700,119928676,1559,1559,1559,1558,0,0,0,0,0,0,0,0,0,0
1683184030.40006709,120028636,1558,1558,1558,1557,0,0,0,0,0,0,0,0,0,0
1683184030.50002718,120128596,1559,1558,1559,1558,0,0,0,0,0,0,0,0,0,0
1683184030.59998703,120228556,1558,1558,1558,1557,0,0,0,0,0,0,0,0,0,0
1683184030.69994712,120328516,1557,1557,1557,1556,0,0,0,0,0,0,0,0,0,0
1683184030.79990721,120428476,1557,1557,1558,1556,0,0,0,0,0,0,0,0,0,0
1683184030.89986706,120528436,1558,1558,1558,1557,0,0,0,0,0,0,0,0,0,0
1683184030.99982715,120628396,1559,1558,1560,1557,0,0,0,0,0,0,0,0,0,0
1683184031.09978700,120728356,1559,1559,1560,1558,0,0,0,0,0,0,0,0,0,0
1683184031.19974709,120828316,1559,1559,1558,1560,0,0,0,0,0,0,0,0,0,0
1683184031.29970717,120928276,1558,1558,1556,1561,0,0,0,0,0,0,0,0,0,0
1683184031.39966702,121028236,1558,1558,1556,1561,0,0,0,0,0,0,0,0,0,0
1683184031.49962711,121128196,1558,1558,1555,1562,0,0,0,0,0,0,0,0,0,0
1683184031.59958720,121228156,1556,1556,1554,1558,0,0,0,0,0,0,0,0,0,0
1683184031.70038009,121328949,1551,1552,1550,1552,0,0,0,0,0,0,0,0,0,0
1683184031.80034018,121428909,1547,1547,1547,1546,0,0,0,0,0,0,0,0,0,0
1683184031.90030003,121528869,1540,1540,1541,1539,0,0,0,0,0,0,0,0,0,0
1683184032.00026011,121628829,1533,1533,1534,1532,0,0,0,0,0,0,0,0,0,0
1683184032.10022020,121728789,1526,1525,1525,1525,0,0,0,0,0,0,0,0,0,0
1683184032.20018005,121828749,1522,1522,1522,1522,0,0,0,0,0,0,0,0,0,0
1683184032.30014014,121928709,1522,1522,1521,1523,0,0,0,0,0,0,0,0,0,0
1683184032.40010023,122028669,1522,1522,1521,1522,0,0,0,0,0,0,0,0,0,0
1683184032.50006008,122128629,1524,1524,1524,1525,0,0,0,0,0,0,0,0,0,0
1683184032.60002017,122228589,1527,1528,1527,1528,0,0,0,0,0,0,0,0,0,0
1683184032.69998002,122328549,1531,1531,1531,1532,0,0,0,0,0,0,0,0,0,0
1683184032.79994011,122428509,1536,1536,1536,1536,0,0,0,0,0,0,0,0,0,0
1683184032.89990020,122528469,1539,1539,1539,1539,0,0,0,0,0,0,0,0,0,0
1683184032.99986005,122628429,1541,1541,1541,1541,0,0,0,0,0,0,0,0,0,0
1683184033.09982014,122728389,1543,1543,1543,1543,0,0,0,0,0,0,0,0,0,0
1683184033.19978023,122828349,1545,1545,1545,1545,0,0,0,0,0,0,0,0,0,0
1683184033.29974008,122928309,1545,1545,1546,1545,0,0,0,0,0,0,0,0,0,0
1683184033.39970016,123028269,1545,1546,1546,1545,0,0,0,0,0,0,0,0,0,0
1683184033.49966002,123128229,1546,1546,1546,1546,0,0,0,0,0,0,0,0,0,0
1683184033.59962010,123228189,1546,1546,1546,1546,0,0,0,0,0,0,0,0,0,0
1683184033.70041323,123328982,1546,1546,1547,1546,0,0,0,0,0,0,0,0,0,0
1683184033.80037308,123428942,1547,1546,1547,1546,0,0,0,0,0,0,0,0,0,0
1683184033.90033317,123528902,1546,1545,1545,1545,0,0,0,0,0,0,0,0,0,0
1683184034.00029302,123628862,1546,1546,1546,1545,0,0,0,0,0,0,0,0,0,0
1683184034.10025311,123728822,1545,1546,1545,1546,0,0,0,0,0,0,0,0,0,0
1683184034.20021319,123828782,1546,1546,1546,1546,0,0,0,0,0,0,0,0,0,0
1683184034.30017304,123928742,1545,1545,1545,1545,0,0,0,0,0,0,0,0,0,0
1683184034.40013313,124028702,1545,1545,1545,1545,0,0,0,0,0,0,0,0,0,0
1683184034.50009322,124128662,1545,1545,1545,1545,0,0,0,0,0,0,0,0,0,0
1683184034.60005307,124228622,1544,1545,1545,1545,0,0,0,0,0,0,0,0,0,0
1683184034.70001316,124328582,1545,1545,1546,1545,0,0,0,0,0,0,0,0,0,0
1683184034.79997301,124428542,1545,1545,1545,1545,0,0,0,0,0,0,0,0,0,0
1683184034.89993310,124528502,1544,1544,1544,1545,0,0,0,0,0,0,0,0,0,0
1683184034.99989319,124628462,1545,1545,1545,1544,0,0,0,0,0,0,0,0,0,0
1683184035.09985304,124728422,1544,1544,1544,1543,0,0,0,0,0,0,0,0,0,0
1683184035.19981313,124828382,1545,1545,1545,1544,0,0,0,0,0,0,0,0,0,0
1683184035.29977322,124928342,1543,1543,1543,1543,0,0,0,0,0,0,0,0,0,0
1683184035.39973307,125028302,1544,1544,1544,1543,0,0,0,0,0,0,0,0,0,0
1683184035.49969316,125128262,1544,1544,1544,1544,0,0,0,0,0,0,0,0,0,0
1683184035.59965301,125228222,1544,1544,1544,1544,0,0,0,0,0,0,0,0,0,0
1683184035.69961309,125328182,1545,1545,1545,1545,0,0,0,0,0,0,0,0,0,0
1683184035.80040622,125428975,1543,1544,1544,1544,0,0,0,0,0,0,0,0,0,0
1683184035.90036607,125528935,1545,1545,1544,1545,0,0,0,0,0,0,0,0,0,0
1683184036.00032616,125628895,1544,1545,1544,1545,0,0,0,0,0,0,0,0,0,0
1683184036.10028601,125728855,1545,1544,1544,1544,0,0,0,0,0,0,0,0,0,0
1683184036.20024610,125828815,1544,1544,1545,1544,0,0,0,0,0,0,0,0,0,0
1683184036.30020618,125928775,1545,1545,1545,1545,0,0,0,0,0,0,0,0,0,0
1683184036.40016603,126028735,1544,1544,1544,1544,0,0,0,0,0,0,0,0,0,0
1683184036.50012612,126128695,1545,1544,1544,1544,0,0,0,0,0,0,0,0,0,0
1683184036.60008621,126228655,1545,1545,1545,1545,0,0,0,0,0,0,0,0,0,0
1683184036.70004606,126328615,1545,1544,1545,1545,0,0,0,0,0,0,0,0,0,0
1683184036.80000615,126428575,1544,1544,1544,1544,0,0,0,0,0,0,0,0,0,0
1683184036.89996600,126528535,1545,1544,1544,1544,0,0,0,0,0,0,0,0,0,0
1683184036.99992609,126628495,1545,1545,1545,1545,0,0,0,0,0,0,0,0,0,0
1683184037.09988618,126728455,1545,1545,1545,1545,0,0,0,0,0,0,0,0,0,0
1683184037.19984603,126828415,1544,1545,1545,1544,0,0,0,0,0,0,0,0,0,0
1683184037.29980612,126928375,1545,1544,1544,1545,0,0,0,0,0,0,0,0,0,0
1683184037.39976621,127028335,1544,1544,1544,1545,0,0,0,0,0,0,0,0,0,0
1683184037.49972606,127128295,1543,1543,1543,1543,0,0,0,0,0,0,0,0,0,0
1683184037.59968615,127228255,1544,1545,1545,1544,0,0,0,0,0,0,0,0,0,0
1683184037.69964600,127328215,1545,1544,1544,1544,0,0,0,0,0,0,0,0,0,0
1683184037.79960608,127428175,1544,1544,1544,1544,0,0,0,0,0,0,0,0,0,0
1683184037.90039921,127528968,1544,1544,1544,1544,0,0,0,0,0,0,0,0,0,0
1683184038.00035906,127628928,1544,1544,1544,1544,0,0,0,0,0,0,0,0,0,0
1683184038.10031915,127728888,1544,1544,1543,1544,0,0,0,0,0,0,0,0,0,0
1683184038.20027900,127828848,1543,1544,1544,1543,0,0,0,0,0,0,0,0,0,0
1683184038.30023909,127928808,1543,1543,1543,1544,0,0,0,0,0,0,0,0,0,0
1683184038.40019917,128028768,1543,1544,1543,1543,0,0,0,0,0,0,0,0,0,0
1683184038.50015903,128128728,1544,1543,1544,1544,0,0,0,0,0,0,0,0,0,0
1683184038.60011911,128228688,1545,1545,1545,1544,0,0,0,0,0,0,0,0,0,0
1683184038.70007920,128328648,1545,1545,1545,1545,0,0,0,0,0,0,0,0,0,0
1683184038.80003905,128428608,1544,1545,1544,1544,0,0,0,0,0,0,0,0,0,0
1683184038.89999914,128528568,1545,1545,1545,1546,0,0,0,0,0,0,0,0,0,0
1683184038.99995923,128628528,1545,1545,1545,1545,0,0,0,0,0,0,0,0,0,0
1683184039.09991908,128728488,1544,1544,1544,1544,0,0,0,0,0,0,0,0,0,0
1683184039.19987917,128828448,1544,1545,1545,1544,0,0,0,0,0,0,0,0,0,0
1683184039.29983902,128928408,1545,1544,1545,1545,0,0,0,0,0,0,0,0,0,0
1683184039.39979911,129028368,1544,1544,1544,1544,0,0,0,0,0,0,0,0,0,0
1683184039.49975920,129128328,1544,1544,1544,1544,0,0,0,0,0,0,0,0,0,0
1683184039.59971905,129228288,1545,1545,1545,1545,0,0,0,0,0,0,0,0,0,0
1683184039.69967914,129328248,1545,1544,1544,1544,0,0,0,0,0,0,0,0,0,0
1683184039.79963923,129428208,1544,1544,1544,1544,0,0,0,0,0,0,0,0,0,0
1683184039.89959908,129528168,1544,1544,1544,1544,0,0,0,0,0,0,0,0,0,0
1683184040.00039220,129628961,1543,1544,1544,1543,0,0,0,0,0,0,0,0,0,0
1683184040.10035205,129728921,1543,1543,1543,1543,0,0,0,0,0,0,0,0,0,0
1683184040.20031214,129828881,1543,1544,1544,1544,0,0,0,0,0,0,0,0,0,0
1683184040.30027223,129928841,1543,1543,1543,1543,0,0,0,0,0,0,0,0,0,0
1683184040.40023208,130028801,1544,1544,1544,1543,0,0,0,0,0,0,0,0,0,0
1683184040.50019217,130128761,1544,1543,1544,1544,0,0,0,0,0,0,0,0,0,0
1683184040.60015202,130228721,1543,1543,1543,1543,0,0,0,0,0,0,0,0,0,0
1683184040.70011210,130328681,1544,1543,1543,1544,0,0,0,0,0,0,0,0,0,0
1683184040.80007219,130428641,1544,1544,1544,1544,0,0,0,0,0,0,0,0,0,0
1683184040.90003204,130528601,1544,1544,1544,1544,0,0,0,0,0,0,0,0,0,0
1683184040.99999213,130628561,1544,1544,1544,1544,0,0,0,0,0,0,0,0,0,0
1683184041.09995222,130728521,1544,1544,1544,1544,0,0,0,0,0,0,0,0,0,0
1683184041.19991207,130828481,1544,1544,1544,1544,0,0,0,0,0,0,0,0,0,0
1683184041.29987216,130928441,1544,1544,1544,1544,0,0,0,0,0,0,0,0,0,0
1683184041.39983201,131028401,1544,1544,1544,1544,0,0,0,0,0,0,0,0,0,0
1683184041.49979210,131128361,1546,1545,1546,1545,0,0,0,0,0,0,0,0,0,0
1683184041.59975219,131228321,1545,1545,1545,1545,0,0,0,0,0,0,0,0,0,0
1683184041.69971204,131328281,1544,1544,1544,1544,0,0,0,0,0,0,0,0,0,0
1683184041.79967213,131428241,1544,1545,1545,1545,0,0,0,0,0,0,0,0,0,0
1683184041.89963222,131528201,1449,1448,1448,1448,0,0,0,0,0,0,0,0,0,0
1683184041.99959207,131628161,1294,1294,1295,1294,0,0,0,0,0,0,0,0,0,0
1683184042.10038519,131728954,1232,1231,1232,1231,0,0,0,0,0,0,0,0,0,0
1683184042.20034504,131828914,1210,1210,1211,1210,0,0,0,0,0,0,0,0,0,0
1683184042.30030513,131928874,1178,1176,1177,1177,0,0,0,0,0,0,0,0,0,0
1683184042.40026522,132028834,1151,1150,1152,1150,0,0,0,0,0,0,0,0,0,0
1683184042.50022507,132128794,1151,1150,1152,1150,0,0,0,0,0,0,0,0,0,0
1683184042.60018516,132228754,1192,1150,1151,1191,0,0,0,0,0,0,0,0,0,0
1683184042.70014501,132328714,1186,1150,1151,1186,0,0,0,0,0,0,0,0,0,0
1683184042.80010509,132428674,1178,1150,1152,1177,0,0,0,0,0,0,0,0,0,0
1683184042.90006518,132528634,1177,1150,1151,1177,0,0,0,0,0,0,0,0,0,0
1683184043.00002503,132628594,1179,1150,1152,1179,0,0,0,0,0,0,0,0,0,0
1683184043.09998512,132728554,1182,1150,1152,1182,0,0,0,0,0,0,0,0,0,0
1683184043.19994521,132828514,1185,1150,1152,1184,0,0,0,0,0,0,0,0,0,0
1683184043.29990506,132928474,1187,1150,1152,1186,0,0,0,0,0,0,0,0,0,0
1683184043.39986515,133028434,1166,1150,1151,1166,0,0,0,0,0,0,0,0,0,0
1683184043.49982500,133128394,1170,1150,1152,1170,0,0,0,0,0,0,0,0,0,0
1683184043.59978509,133228354,1172,1150,1152,1172,0,0,0,0,0,0,0,0,0,0
1683184043.69974518,133328314,1173,1150,1152,1172,0,0,0,0,0,0,0,0,0,0
1683184043.79970503,133428274,1173,1150,1152,1173,0,0,0,0,0,0,0,0,0,0
1683184043.89966512,133528234,1000,1000,1000,1000,0,0,0,0,0,0,0,0,0,0
1683184043.99962521,133628194,1000,1000,1000,1000,0,0,0,0,0,0,0,0,0,0
1683184044.09958506,133728154,1000,1000,1000,1000,0,0,0,0,0,0,0,0,0,0
1683184044.20037818,133828947,1000,1000,1000,1000,0,0,0,0,0,0,0,0,0,0
1683184044.30033803,133928907,1000,1000,1000,1000,0,0,0,0,0,0,0,0,0,0
1683184044.40029812,134028867,1000,1000,1000,1000,0,0,0,0,0,0,0,0,0,0
1683184044.50025821,134128827,1000,1000,1000,1000,0,0,0,0,0,0,0,0,0,0
1683184044.60021806,134228787,1000,1000,1000,1000,0,0,0,0,0,0,0,0,0,0
1683184044.70017815,134328747,1000,1000,1000,1000,0,0,0,0,0,0,0,0,0,0
1683184044.80013800,134428707,1000,1000,1000,1000,0,0,0,0,0,0,0,0,0,0
1683184044.90009809,134528667,1000,1000,1000,1000,0,0,0,0,0,0,0,0,0,0
1683184045.00005817,134628627,1000,1000,1000,1000,0,0,0,0,0,0,0,0,0,0
1683184045.10001802,134728587,1000,1000,1000,1000,0,0,0,0,0,0,0,0,0,0
1683184045.19997811,134828547,1000,1000,1000,1000,0,0,0,0,0,0,0,0,0,0
1683184045.29993820,134928507,1000,1000,1000,1000,0,0,0,0,0,0,0,0,0,0
1683184045.39989805,135028467,1000,1000,1000,1000,0,0,0,0,0,0,0,0,0,0
1683184045.49985814,135128427,1000,1000,1000,1000,0,0,0,0,0,0,0,0,0,0
1683184045.59981823,135228387,1000,1000,1000,1000,0,0,0,0,0,0,0,0,0,0
1683184045.69977808,135328347,1000,1000,1000,1000,0,0,0,0,0,0,0,0,0,0
1683184045.79973817,135428307,1000,1000,1000,1000,0,0,0,0,0,0,0,0,0,0
1683184045.89969802,135528267,1000,1000,1000,1000,0,0,0,0,0,0,0,0,0,0
1683184045.99965811,135628227,1000,1000,1000,1000,0,0,0,0,0,0,0,0,0,0
1683184046.09961820,135728187,1000,1000,1000,1000,0,0,0,0,0,0,0,0,0,0
1683184046.20041108,135828980,1000,1000,1000,1000,0,0,0,0,0,0,0,0,0,0
1683184046.30037117,135928940,1000,1000,1000,1000,0,0,0,0,0,0,0,0,0,0
1683184046.40033102,136028900,1000,1000,1000,1000,0,0,0,0,0,0,0,0,0,0
1683184046.50029111,136128860,1000,1000,1000,1000,0,0,0,0,0,0,0,0,0,0
1683184046.60025120,136228820,1000,1000,1000,1000,0,0,0,0,0,0,0,0,0,0
1683184046.70021105,136328780,1000,1000,1000,1000,0,0,0,0,0,0,0,0,0,0
1683184046.80017114,136428740,1000,1000,1000,1000,0,0,0,0,0,0,0,0,0,0
1683184046.90013123,136528700,1000,1000,1000,1000,0,0,0,0,0,0,0,0,0,0
1683184047.00009108,136628660,1000,1000,1000,1000,0,0,0,0,0,0,0,0,0,0
1683184047.10005116,136728620,1000,1000,1000,1000,0,0,0,0,0,0,0,0,0,0
1683184047.20001101,136828580,1000,1000,1000,1000,0,0,0,0,0,0,0,0,0,0
1683184047.29997110,136928540,1000,1000,1000,1000,0,0,0,0,0,0,0,0,0,0
1683184047.39993119,137028500,1000,1000,1000,1000,0,0,0,0,0,0,0,0,0,0
1683184047.49989104,137128460,1000,1000,1000,1000,0,0,0,0,0,0,0,0,0,0
1683184047.59985113,137228420,1000,1000,1000,1000,0,0,0,0,0,0,0,0,0,0
1683184047.69981122,137328380,1000,1000,1000,1000,0,0,0,0,0,0,0,0,0,0
1683184047.79977107,137428340,1000,1000,1000,1000,0,0,0,0,0,0,0,0,0,0
1683184047.89973116,137528300,1000,1000,1000,1000,0,0,0,0,0,0,0,0,0,0
1683184047.99969101,137628260,1000,1000,1000,1000,0,0,0,0,0,0,0,0,0,0
1683184048.09965110,137728220,1000,1000,1000,1000,0,0,0,0,0,0,0,0,0,0
1683184048.19961119,137828180,1000,1000,1000,1000,0,0,0,0,0,0,0,0,0,0
1683184048.30040407,137928973,1000,1000,1000,1000,0,0,0,0,0,0,0,0,0,0
1683184048.40036416,138028933,1000,1000,1000,1000,0,0,0,0,0,0,0,0,0,0
1683184048.50032401,138128893,1000,1000,1000,1000,0,0,0,0,0,0,0,0,0,0
1683184048.60028410,138228853,1000,1000,1000,1000,0,0,0,0,0,0,0,0,0,0
1683184048.70024419,138328813,1000,1000,1000,1000,0,0,0,0,0,0,0,0,0,0
1683184048.80020404,138428773,1000,1000,1000,1000,0,0,0,0,0,0,0,0,0,0
1683184048.90016413,138528733,1000,1000,1000,1000,0,0,0,0,0,0,0,0,0,0
1683184049.00012422,138628693,1000,1000,1000,1000,0,0,0,0,0,0,0,0,0,0
1683184049.10008407,138728653,1000,1000,1000,1000,0,0,0,0,0,0,0,0,0,0
1683184049.20004416,138828613,1000,1000,1000,1000,0,0,0,0,0,0,0,0,0,0
1683184049.30000401,138928573,1000,1000,1000,1000,0,0,0,0,0,0,0,0,0,0
1683184049.39996409,139028533,1000,1000,1000,1000,0,0,0,0,0,0,0,0,0,0
1683184049.49992418,139128493,1000,1000,1000,1000,0,0,0,0,0,0,0,0,0,0
1683184049.59988403,139228453,1000,1000,1000,1000,0,0,0,0,0,0,0,0,0,0
1683184049.69984412,139328413,1000,1000,1000,1000,0,0,0,0,0,0,0,0,0,0
1683184049.79980421,139428373,1000,1000,1000,1000,0,0,0,0,0,0,0,0,0,0
1683184049.89976406,139528333,1000,1000,1000,1000,0,0,0,0,0,0,0,0,0,0
1683184049.99972415,139628293,1000,1000,1000,1000,0,0,0,0,0,0,0,0,0,0
1683184050.09968400,139728253,1000,1000,1000,1000,0,0,0,0,0,0,0,0,0,0
1683184050.19964409,139828213,1000,1000,1000,1000,0,0,0,0,0,0,0,0,0,0
1683184050.29960418,139928173,1000,1000,1000,1000,0,0,0,0,0,0,0,0,0,0
1683184050.40039706,140028966,1000,1000,1000,1000,0,0,0,0,0,0,0,0,0,0
1683184050.50035715,140128926,1000,1000,1000,1000,0,0,0,0,0,0,0,0,0,0
1683184050.60031700,140228886,1000,1000,1000,1000,0,0,0,0,0,0,0,0,0,0
1683184050.70027709,140328846,1000,1000,1000,1000,0,0,0,0,0,0,0,0,0,0
1683184050.80023718,140428806,1000,1000,1000,1000,0,0,0,0,0,0,0,0,0,0
1683184050.90019703,140528766,1000,1000,1000,1000,0,0,0,0,0,0,0,0,0,0
1683184051.00015712,140628726,1000,1000,1000,1000,0,0,0,0,0,0,0,0,0,0
1683184051.10011721,140728686,1000,1000,1000,1000,0,0,0,0,0,0,0,0,0,0
1683184051.20007706,140828646,1000,1000,1000,1000,0,0,0,0,0,0,0,0,0,0
1683184051.30003715,140928606,1000,1000,1000,1000,0,0,0,0,0,0,0,0,0,0
1683184051.39999700,141028566,1000,1000,1000,1000,0,0,0,0,0,0,0,0,0,0
1683184051.49995708,141128526,1000,1000,1000,1000,0,0,0,0,0,0,0,0,0,0
1683184051.59991717,141228486,1000,1000,1000,1000,0,0,0,0,0,0,0,0,0,0
1683184051.69987702,141328446,1000,1000,1000,1000,0,0,0,0,0,0,0,0,0,0
1683184051.79983711,141428406,1000,1000,1000,1000,0,0,0,0,0,0,0,0,0,0
1683184051.89979720,141528366,1000,1000,1000,1000,0,0,0,0,0,0,0,0,0,0
1683184051.99975705,141628326,1000,1000,1000,1000,0,0,0,0,0,0,0,0,0,0
1683184052.09971714,141728286,1000,1000,1000,1000,0,0,0,0,0,0,0,0,0,0
1683184052.19967723,141828246,1000,1000,1000,1000,0,0,0,0,0,0,0,0,0,0
1683184052.29963708,141928206,1000,1000,1000,1000,0,0,0,0,0,0,0,0,0,0
1683184052.39959717,142028166,1000,1000,1000,1000,0,0,0,0,0,0,0,0,0,0
1683184052.50039005,142128959,1000,1000,1000,1000,0,0,0,0,0,0,0,0,0,0
1683184052.60035014,142228919,1000,1000,1000,1000,0,0,0,0,0,0,0,0,0,0
1683184052.70031023,142328879,1000,1000,1000,1000,0,0,0,0,0,0,0,0,0,0
1683184052.80027008,142428839,1000,1000,1000,1000,0,0,0,0,0,0,0,0,0,0
1683184052.90023017,142528799,1000,1000,1000,1000,0,0,0,0,0,0,0,0,0,0
1683184053.00019002,142628759,1000,1000,1000,1000,0,0,0,0,0,0,0,0,0,0
1683184053.10015011,142728719,1000,1000,1000,1000,0,0,0,0,0,0,0,0,0,0
1683184053.20011020,142828679,1000,1000,1000,1000,0,0,0,0,0,0,0,0,0,0
1683184053.30007005,142928639,1000,1000,1000,1000,0,0,0,0,0,0,0,0,0,0
1683184053.40003014,143028599,1000,1000,1000,1000,0,0,0,0,0,0,0,0,0,0
1683184053.49999022,143128559,1000,1000,1000,1000,0,0,0,0,0,0,0,0,0,0
1683184053.59995008,143228519,1000,1000,1000,1000,0,0,0,0,0,0,0,0,0,0
1683184053.69991016,143328479,1000,1000,1000,1000,0,0,0,0,0,0,0,0,0,0
1683184053.79987001,143428439,1000,1000,1000,1000,0,0,0,0,0,0,0,0,0,0
1683184053.89983010,143528399,1000,1000,1000,1000,0,0,0,0,0,0,0,0,0,0
1683184053.99979019,143628359,1000,1000,1000,1000,0,0,0,0,0,0,0,0,0,0
1683184054.09975004,143728319,1000,1000,1000,1000,0,0,0,0,0,0,0,0,0,0
1683184054.19971013,143828279,1000,1000,1000,1000,0,0,0,0,0,0,0,0,0,0
1683184054.29967022,143928239,1000,1000,1000,1000,0,0,0,0,0,0,0,0,0,0
1683184054.39963007,144028199,1000,1000,1000,1000,0,0,0,0,0,0,0,0,0,0
1683184054.49959016,144128159,1000,1000,1000,1000,0,0,0,0,0,0,0,0,0,0
1683184054.60038304,144228952,1000,1000,1000,1000,0,0,0,0,0,0,0,0,0,0
1683184054.70034313,144328912,1000,1000,1000,1000,0,0,0,0,0,0,0,0,0,0
1683184054.80030322,144428872,1000,1000,1000,1000,0,0,0,0,0,0,0,0,0,0
1683184054.90026307,144528832,1000,1000,1000,1000,0,0,0,0,0,0,0,0,0,0
1683184055.00022316,144628792,1000,1000,1000,1000,0,0,0,0,0,0,0,0,0,0
1683184055.10018301,144728752,1000,1000,1000,1000,0,0,0,0,0,0,0,0,0,0
1683184055.20014310,144828712,1000,1000,1000,1000,0,0,0,0,0,0,0,0,0,0
1683184055.30010319,144928672,1000,1000,1000,1000,0,0,0,0,0,0,0,0,0,0
1683184055.40006304,145028632,1000,1000,1000,1000,0,0,0,0,0,0,0,0,0,0
1683184055.50002313,145128592,1000,1000,1000,1000,0,0,0,0,0,0,0,0,0,0
1683184055.59998322,145228552,1000,1000,1000,1000,0,0,0,0,0,0,0,0,0,0
1683184055.69994307,145328512,1000,1000,1000,1000,0,0,0,0,0,0,0,0,0,0
1683184055.79990315,145428472,1000,1000,1000,1000,0,0,0,0,0,0,0,0,0,0
1683184055.89986300,145528432,1000,1000,1000,1000,0,0,0,0,0,0,0,0,0,0
1683184055.99982309,145628392,1000,1000,1000,1000,0,0,0,0,0,0,0,0,0,0
1683184056.09978318,145728352,1000,1000,1000,1000,0,0,0,0,0,0,0,0,0,0
1683184056.19974303,145828312,1000,1000,1000,1000,0,0,0,0,0,0,0,0,0,0
1683184056.29970312,145928272,1000,1000,1000,1000,0,0,0,0,0,0,0,0,0,0
1683184056.39966321,146028232,1000,1000,1000,1000,0,0,0,0,0,0,0,0,0,0
1683184056.49962306,146128192,1000,1000,1000,1000,0,0,0,0,0,0,0,0,0,0
1683184056.60041618,146228985,1000,1000,1000,1000,0,0,0,0,0,0,0,0,0,0
1683184056.70037603,146328945,1000,1000,1000,1000,0,0,0,0,0,0,0,0,0,0
1683184056.80033612,146428905,1000,1000,1000,1000,0,0,0,0,0,0,0,0,0,0
1683184056.90029621,146528865,1000,1000,1000,1000,0,0,0,0,0,0,0,0,0,0
1683184057.00025606,146628825,1000,1000,1000,1000,0,0,0,0,0,0,0,0,0,0
1683184057.10021615,146728785,1000,1000,1000,1000,0,0,0,0,0,0,0,0,0,0
1683184057.20017600,146828745,1000,1000,1000,1000,0,0,0,0,0,0,0,0,0,0
1683184057.30013609,146928705,1000,1000,1000,1000,0,0,0,0,0,0,0,0,0,0
1683184057.40009618,147028665,1000,1000,1000,1000,0,0,0,0,0,0,0,0,0,0
1683184057.50005603,147128625,1000,1000,1000,1000,0,0,0,0,0,0,0,0,0,0
1683184057.60001612,147228585,1000,1000,1000,1000,0,0,0,0,0,0,0,0,0,0
1683184057.69997621,147328545,1000,1000,1000,1000,0,0,0,0,0,0,0,0,0,0
1683184057.79993606,147428505,1000,1000,1000,1000,0,0,0,0,0,0,0,0,0,0
1683184057.89989614,147528465,1000,1000,1000,1000,0,0,0,0,0,0,0,0,0,0
1683184057.99985600,147628425,1000,1000,1000,1000,0,0,0,0,0,0,0,0,0,0
1683184058.09981608,147728385,1000,1000,1000,1000,0,0,0,0,0,0,0,0,0,0
1683184058.19977617,147828345,1000,1000,1000,1000,0,0,0,0,0,0,0,0,0,0
1683184058.29973602,147928305,1000,1000,1000,1000,0,0,0,0,0,0,0,0,0,0
1683184058.39969611,148028265,1000,1000,1000,1000,0,0,0,0,0,0,0,0,0,0
1683184058.49965620,148128225,1000,1000,1000,1000,0,0,0,0,0,0,0,0,0,0
1683184058.59961605,148228185,1000,1000,1000,1000,0,0,0,0,0,0,0,0,0,0
1683184058.70040917,148328978,1000,1000,1000,1000,0,0,0,0,0,0,0,0,0,0
1683184058.80036902,148428938,1000,1000,1000,1000,0,0,0,0,0,0,0,0,0,0
