TimeUS,M1,M2,M3,M4,TimeUS,C1,C2,C3,C4
44451379,1000,1000,1000,1000,44528848,1000,1000,1000,1000
44453878,1000,1000,1000,1000,44628808,1000,1000,1000,1000
44456377,1000,1000,1000,1000,44728768,1000,1000,1000,1000
44458876,1000,1000,1000,1000,44828728,1000,1000,1000,1000
44461375,1000,1000,1000,1000,44928688,1000,1000,1000,1000
44463874,1000,1000,1000,1000,45028648,1000,1000,1000,1000
44466373,1000,1000,1000,1000,45128608,1000,1000,1000,1000
44468872,1000,1000,1000,1000,45228568,1000,1000,1000,1000
44471371,1000,1000,1000,1000,45328528,1000,1000,1000,1000
44473870,1000,1000,1000,1000,45428488,1000,1000,1000,1000
44476369,1000,1000,1000,1000,45528448,1000,1000,1000,1000
44478868,1000,1000,1000,1000,45628408,1000,1000,1000,1000
44481367,1000,1000,1000,1000,45728368,1000,1000,1000,1000
44483866,1000,1000,1000,1000,45828328,1000,1000,1000,1000
44486365,1000,1000,1000,1000,45928288,1000,1000,1000,1000
44488864,1000,1000,1000,1000,46028248,1000,1000,1000,1000
44491363,1000,1000,1000,1000,46128208,1000,1000,1000,1000
44493862,1000,1000,1000,1000,46228168,1000,1000,1000,1000
44496361,1000,1000,1000,1000,46328961,1000,1000,1000,1000
44498860,1000,1000,1000,1000,46428921,1000,1000,1000,1000
44501359,1000,1000,1000,1000,46528881,1023,1023,1023,1023
44503858,1000,1000,1000,1000,46628841,1053,1053,1053,1053
44506357,1000,1000,1000,1000,46728801,1083,1083,1083,1083
44508856,1000,1000,1000,1000,46828761,1113,1113,1113,1113
44511355,1000,1000,1000,1000,46928721,1143,1143,1143,1143
44513854,1000,1000,1000,1000,47028681,1351,1346,1347,1351
44516353,1000,1000,1000,1000,47128641,1542,1538,1538,1542
44518852,1000,1000,1000,1000,47228601,1695,1691,1692,1695
44521351,1000,1000,1000,1000,47328561,1826,1822,1823,1826
44523850,1000,1000,1000,1000,47428521,1857,1853,1853,1857
44526349,1000,1000,1000,1000,47528481,1832,1831,1831,1833
44528848,1000,1000,1000,1000,47628441,1705,1705,1705,1705
44531347,1000,1000,1000,1000,47728401,1630,1630,1631,1630
44533846,1000,1000,1000,1000,47828361,1618,1619,1619,1618
44536345,1000,1000,1000,1000,47928321,1632,1633,1633,1632
44538844,1000,1000,1000,1000,48028281,1642,1642,1642,1642
44541343,1000,1000,1000,1000,48128241,1635,1634,1632,1637
44543842,1000,1000,1000,1000,48228201,1620,1620,1613,1627
44546341,1000,1000,1000,1000,48328161,1612,1612,1606,1617
44548840,1000,1000,1000,1000,48428954,1610,1610,1609,1611
44551339,1000,1000,1000,1000,48528914,1612,1612,1614,1610
44553838,1000,1000,1000,1000,48628874,1615,1615,1619,1612
44556337,1000,1000,1000,1000,48728834,1619,1619,1623,1615
44558836,1000,1000,1000,1000,48828794,1599,1600,1609,1590
44561335,1000,1000,1000,1000,48928754,1581,1582,1595,1569
44563834,1000,1000,1000,1000,49028714,1569,1569,1574,1564
44566333,1000,1000,1000,1000,49128674,1559,1558,1556,1561
44568832,1000,1000,1000,1000,49228634,1550,1549,1540,1560
44571331,1000,1000,1000,1000,49328594,1544,1542,1531,1555
44573830,1000,1000,1000,1000,49428554,1537,1536,1527,1545
44576329,1000,1000,1000,1000,49528514,1531,1530,1526,1534
44578828,1000,1000,1000,1000,49628474,1527,1527,1527,1527
44581327,1000,1000,1000,1000,49728434,1527,1528,1529,1525
44583826,1000,1000,1000,1000,49828394,1530,1530,1533,1527
44586325,1000,1000,1000,1000,49928354,1533,1533,1536,1530
44588824,1000,1000,1000,1000,50028314,1536,1536,1539,1533
44591323,1000,1000,1000,1000,50128274,1540,1540,1542,1538
44593822,1000,1000,1000,1000,50228234,1544,1544,1545,1544
44596321,1000,1000,1000,1000,50328194,1547,1546,1546,1547
44598820,1000,1000,1000,1000,50428154,1549,1549,1548,1550
44601319,1000,1000,1000,1000,50528947,1552,1552,1551,1553
44603818,1000,1000,1000,1000,50628907,1552,1552,1555,1558
44606317,1000,1000,1000,1000,50728867,1553,1553,1560,1562
44608816,1000,1000,1000,1000,50828827,1555,1555,1562,1563
44611315,1000,1000,1000,1000,50928787,1558,1558,1564,1564
44613814,1000,1000,1000,1000,51028747,1561,1561,1565,1564
44616313,1000,1000,1000,1000,51128707,1564,1564,1565,1564
44618812,1000,1000,1000,1000,51228667,1566,1567,1565,1565
44621311,1000,1000,1000,1000,51328627,1569,1569,1565,1565
44623810,1000,1000,1000,1000,51428587,1571,1570,1566,1566
44626309,1000,1000,1000,1000,51528547,1572,1572,1567,1567
44628808,1000,1000,1000,1000,51628507,1572,1572,1567,1567
44631307,1000,1000,1000,1000,51728467,1573,1573,1568,1569
44633806,1000,1000,1000,1000,51828427,1573,1574,1570,1570
44636305,1000,1000,1000,1000,51928387,1573,1574,1571,1571
44638804,1000,1000,1000,1000,52028347,1574,1575,1573,1572
44641303,1000,1000,1000,1000,52128307,1574,1574,1574,1573
44643802,1000,1000,1000,1000,52228267,1574,1574,1576,1574
44646301,1000,1000,1000,1000,52328227,1574,1574,1575,1575
44648800,1000,1000,1000,1000,52428187,1574,1574,1575,1574
44651299,1000,1000,1000,1000,52528980,1575,1575,1577,1577
44653798,1000,1000,1000,1000,52628940,1575,1575,1577,1577
44656297,1000,1000,1000,1000,52728900,1576,1576,1577,1577
44658796,1000,1000,1000,1000,52828860,1575,1575,1576,1577
44661295,1000,1000,1000,1000,52928820,1575,1575,1576,1576
44663794,1000,1000,1000,1000,53028780,1576,1576,1576,1576
44666293,1000,1000,1000,1000,53128740,1577,1577,1576,1577
44668792,1000,1000,1000,1000,53228700,1577,1577,1577,1577
44671291,1000,1000,1000,1000,53328660,1578,1577,1577,1577
44673790,1000,1000,1000,1000,53428620,1578,1578,1577,1577
44676289,1000,1000,1000,1000,53528580,1579,1578,1578,1578
44678788,1000,1000,1000,1000,53628540,1579,1579,1579,1579
44681287,1000,1000,1000,1000,53728500,1579,1579,1579,1579
44683786,1000,1000,1000,1000,53828460,1579,1579,1579,1579
44686285,1000,1000,1000,1000,53928420,1579,1579,1578,1579
44688784,1000,1000,1000,1000,54028380,1579,1580,1580,1579
44691283,1000,1000,1000,1000,54128340,1579,1580,1580,1580
44693782,1000,1000,1000,1000,54228300,1579,1579,1580,1579
44696281,1000,1000,1000,1000,54328260,1580,1579,1579,1580
44698780,1000,1000,1000,1000,54428220,1579,1579,1580,1579
44701279,1000,1000,1000,1000,54528180,1579,1579,1580,1580
44703778,1000,1000,1000,1000,54628973,1579,1580,1580,1580
44706277,1000,1000,1000,1000,54728933,1579,1579,1580,1579
44708776,1000,1000,1000,1000,54828893,1579,1579,1580,1579
44711275,1000,1000,1000,1000,54928853,1580,1580,1580,1580
44713774,1000,1000,1000,1000,55028813,1579,1579,1578,1579
44716273,1000,1000,1000,1000,55128773,1579,1579,1578,1579
44718772,1000,1000,1000,1000,55228733,1579,1579,1578,1579
44721271,1000,1000,1000,1000,55328693,1579,1579,1579,1579
44723770,1000,1000,1000,1000,55428653,1578,1579,1579,1578
44726269,1000,1000,1000,1000,55528613,1579,1579,1579,1579
44728768,1000,1000,1000,1000,55628573,1579,1579,1579,1579
44731267,1000,1000,1000,1000,55728533,1580,1580,1580,1580
44733766,1000,1000,1000,1000,55828493,1580,1580,1580,1580
44736265,1000,1000,1000,1000,55928453,1581,1580,1581,1580
44738764,1000,1000,1000,1000,56028413,1581,1581,1581,1581
44741263,1000,1000,1000,1000,56128373,1581,1581,1581,1581
44743762,1000,1000,1000,1000,56228333,1580,1581,1581,1581
44746261,1000,1000,1000,1000,56328293,1581,1581,1581,1581
44748760,1000,1000,1000,1000,56428253,1580,1580,1580,1580
44751259,1000,1000,1000,1000,56528213,1581,1581,1581,1581
44753758,1000,1000,1000,1000,56628173,1580,1580,1580,1580
44756257,1000,1000,1000,1000,56728966,1581,1581,1581,1581
44758756,1000,1000,1000,1000,56828926,1581,1580,1584,1577
44761255,1000,1000,1000,1000,56928886,1580,1581,1587,1573
44763754,1000,1000,1000,1000,57028846,1579,1581,1581,1573
44766253,1000,1000,1000,1000,57128806,1577,1581,1573,1573
44768752,1000,1000,1000,1000,57228766,1576,1580,1564,1570
44771251,1000,1000,1000,1000,57328726,1577,1579,1559,1566
44773750,1000,1000,1000,1000,57428686,1577,1577,1555,1560
44776249,1000,1000,1000,1000,57528646,1580,1578,1556,1558
44778748,1000,1000,1000,1000,57628606,1580,1578,1556,1556
44781247,1000,1000,1000,1000,57728566,1580,1578,1557,1555
44783746,1000,1000,1000,1000,57828526,1577,1578,1556,1554
44786245,1000,1000,1000,1000,57928486,1576,1577,1555,1553
44788744,1000,1000,1000,1000,58028446,1575,1576,1555,1553
44791243,1000,1000,1000,1000,58128406,1575,1577,1554,1554
44793742,1000,1000,1000,1000,58228366,1575,1576,1552,1553
44796241,1000,1000,1000,1000,58328326,1576,1577,1551,1552
44798740,1000,1000,1000,1000,58428286,1577,1579,1550,1549
44801239,1000,1000,1000,1000,58528246,1579,1580,1547,1547
44803738,1000,1000,1000,1000,58628206,1582,1583,1545,1544
44806237,1000,1000,1000,1000,58728166,1585,1586,1542,1542
44808736,1000,1000,1000,1000,58828959,1587,1588,1539,1538
44811235,1000,1000,1000,1000,58928919,1590,1591,1536,1536
44813734,1000,1000,1000,1000,59028879,1592,1592,1534,1534
44816233,1000,1000,1000,1000,59128839,1594,1594,1534,1535
44818732,1000,1000,1000,1000,59228799,1594,1594,1534,1536
44821231,1000,1000,1000,1000,59328759,1593,1593,1536,1539
44823730,1000,1000,1000,1000,59428719,1590,1590,1541,1543
44826229,1000,1000,1000,1000,59528679,1586,1584,1547,1550
44828728,1000,1000,1000,1000,59628639,1580,1577,1556,1559
44831227,1000,1000,1000,1000,59728599,1572,1567,1567,1570
44833726,1000,1000,1000,1000,59828559,1561,1557,1580,1581
44836225,1000,1000,1000,1000,59928519,1550,1546,1592,1593
44838724,1000,1000,1000,1000,60028479,1539,1538,1602,1602
44841223,1000,1000,1000,1000,60128439,1533,1533,1610,1609
44843722,1000,1000,1000,1000,60228399,1529,1530,1614,1613
44846221,1000,1000,1000,1000,60328359,1529,1531,1615,1614
44848720,1000,1000,1000,1000,60428319,1532,1535,1611,1611
44851219,1000,1000,1000,1000,60528279,1538,1541,1606,1606
44853718,1000,1000,1000,1000,60628239,1547,1548,1599,1599
44856217,1000,1000,1000,1000,60728199,1556,1556,1591,1591
44858716,1000,1000,1000,1000,60828159,1565,1565,1585,1584
44861215,1000,1000,1000,1000,60928952,1574,1573,1579,1578
44863714,1000,1000,1000,1000,61028912,1581,1579,1574,1572
44866213,1000,1000,1000,1000,61128872,1584,1583,1569,1568
44868712,1000,1000,1000,1000,61228832,1586,1585,1566,1566
44871211,1000,1000,1000,1000,61328792,1588,1587,1566,1567
44873710,1000,1000,1000,1000,61428752,1586,1586,1567,1567
44876209,1000,1000,1000,1000,61528712,1585,1584,1569,1569
44878708,1000,1000,1000,1000,61628672,1582,1582,1572,1572
44881207,1000,1000,1000,1000,61728632,1580,1579,1575,1575
44883706,1000,1000,1000,1000,61828592,1578,1578,1579,1579
44886205,1000,1000,1000,1000,61928552,1229,1230,1584,1585
44888704,1000,1000,1000,1000,62028512,1344,1350,1655,1664
44891203,1000,1000,1000,1000,62128472,1416,1426,1656,1657
44893702,1000,1000,1000,1000,62228432,1481,1491,1643,1636
44896201,1000,1000,1000,1000,62328392,1534,1539,1631,1620
44898700,1000,1000,1000,1000,62428352,1576,1571,1623,1613
44901199,1000,1000,1000,1000,62528312,1600,1583,1584,1581
44903698,1000,1000,1000,1000,62628272,1600,1584,1513,1522
44906197,1000,1000,1000,1000,62728232,1600,1591,1478,1494
44908696,1000,1000,1000,1000,62828192,1597,1600,1494,1504
44911195,1000,1000,1000,1000,62928985,1592,1600,1511,1514
44913694,1000,1000,1000,1000,63028945,1590,1600,1531,1527
44916193,1000,1000,1000,1000,63128905,1593,1600,1549,1543
44918692,1000,1000,1000,1000,63228865,1598,1600,1563,1559
44921191,1000,1000,1000,1000,63328825,1600,1597,1569,1568
44923690,1000,1000,1000,1000,63428785,1600,1596,1571,1573
44926189,1000,1000,1000,1000,63528745,1600,1596,1574,1577
44928688,1000,1000,1000,1000,63628705,1600,1598,1578,1581
44931187,1000,1000,1000,1000,63728665,1600,1598,1585,1578
44933686,1000,1000,1000,1000,63828625,1600,1596,1588,1581
44936185,1000,1000,1000,1000,63928585,1600,1596,1587,1586
44938684,1000,1000,1000,1000,64028545,1600,1599,1586,1590
44941183,1000,1000,1000,1000,64128505,1598,1600,1584,1589
44943682,1000,1000,1000,1000,64228465,1595,1600,1583,1585
44946181,1000,1000,1000,1000,64328425,1594,1600,1583,1583
44948680,1000,1000,1000,1000,64428385,1595,1600,1584,1583
44951179,1000,1000,1000,1000,64528345,1596,1600,1585,1582
44953678,1000,1000,1000,1000,64628305,1597,1600,1585,1583
44956177,1000,1000,1000,1000,64728265,1598,1600,1584,1584
44958676,1000,1000,1000,1000,64828225,1600,1599,1583,1584
44961175,1000,1000,1000,1000,64928185,1600,1589,1580,1571
44963674,1000,1000,1000,1000,65028978,1600,1587,1578,1574
44966173,1000,1000,1000,1000,65128938,1600,1590,1580,1582
44968672,1000,1000,1000,1000,65228898,1600,1596,1583,1588
44971171,1000,1000,1000,1000,65328858,1598,1600,1585,1588
44973670,1000,1000,1000,1000,65428818,1596,1600,1585,1585
44976169,1000,1000,1000,1000,65528778,1593,1598,1582,1581
44978668,1000,1000,1000,1000,65628738,1592,1595,1580,1577
44981167,1000,1000,1000,1000,65728698,1593,1595,1580,1576
44983666,1000,1000,1000,1000,65828658,1594,1593,1579,1576
44986165,1000,1000,1000,1000,65928618,1593,1591,1575,1574
44988664,1000,1000,1000,1000,66028578,1590,1589,1571,1570
44991163,1000,1000,1000,1000,66128538,1587,1587,1566,1567
44993662,1000,1000,1000,1000,66228498,1584,1584,1562,1562
44996161,1000,1000,1000,1000,66328458,1580,1581,1558,1557
44998660,1000,1000,1000,1000,66428418,1577,1578,1555,1553
45001159,1000,1000,1000,1000,66528378,1574,1576,1552,1551
45003658,1000,1000,1000,1000,66628338,1573,1574,1551,1549
45006157,1000,1000,1000,1000,66728298,1571,1572,1548,1547
45008656,1000,1000,1000,1000,66828258,1570,1570,1548,1546
45011155,1000,1000,1000,1000,66928218,1569,1569,1546,1545
45013654,1000,1000,1000,1000,67028178,1569,1569,1546,1546
45016153,1000,1000,1000,1000,67128971,1568,1569,1546,1546
45018652,1000,1000,1000,1000,67228931,1569,1569,1546,1547
45021151,1000,1000,1000,1000,67328891,1568,1569,1547,1548
45023650,1000,1000,1000,1000,67428851,1568,1569,1546,1547
45026149,1000,1000,1000,1000,67528811,1569,1570,1547,1549
45028648,1000,1000,1000,1000,67628771,1570,1572,1549,1550
45031147,1000,1000,1000,1000,67728731,1571,1572,1548,1550
45033646,1000,1000,1000,1000,67828691,1572,1573,1549,1552
45036145,1000,1000,1000,1000,67928651,1574,1574,1550,1552
45038644,1000,1000,1000,1000,68028611,1574,1576,1551,1553
45041143,1000,1000,1000,1000,68128571,1575,1577,1552,1553
45043642,1000,1000,1000,1000,68228531,1576,1578,1553,1554
45046141,1000,1000,1000,1000,68328491,1578,1579,1554,1555
45048640,1000,1000,1000,1000,68428451,1579,1579,1554,1555
45051139,1000,1000,1000,1000,68528411,1580,1579,1555,1556
45053638,1000,1000,1000,1000,68628371,1581,1580,1556,1557
45056137,1000,1000,1000,1000,68728331,1582,1581,1557,1558
45058636,1000,1000,1000,1000,68828291,1582,1582,1558,1559
45061135,1000,1000,1000,1000,68928251,1583,1582,1559,1560
45063634,1000,1000,1000,1000,69028211,1583,1583,1561,1561
45066133,1000,1000,1000,1000,69128171,1583,1583,1562,1562
45068632,1000,1000,1000,1000,69228964,1584,1583,1562,1563
45071131,1000,1000,1000,1000,69328924,1584,1584,1564,1564
45073630,1000,1000,1000,1000,69428884,1584,1584,1565,1565
45076129,1000,1000,1000,1000,69528844,1585,1579,1571,1571
45078628,1000,1000,1000,1000,69628804,1570,1561,1594,1594
45081127,1000,1000,1000,1000,69728764,1553,1546,1610,1611
45083626,1000,1000,1000,1000,69828724,1542,1539,1618,1619
45086125,1000,1000,1000,1000,69928684,1534,1537,1619,1620
45088624,1000,1000,1000,1000,70028644,1532,1539,1618,1618
45091123,1000,1000,1000,1000,70128604,1533,1543,1616,1614
45093622,1000,1000,1000,1000,70228564,1538,1547,1611,1609
45096121,1000,1000,1000,1000,70328524,1545,1552,1606,1604
45098620,1000,1000,1000,1000,70428484,1553,1555,1599,1596
45101119,1000,1000,1000,1000,70528444,1561,1561,1593,1591
45103618,1000,1000,1000,1000,70628404,1568,1566,1587,1586
45106117,1000,1000,1000,1000,70728364,1574,1571,1581,1582
45108616,1000,1000,1000,1000,70828324,1578,1575,1576,1577
45111115,1000,1000,1000,1000,70928284,1583,1580,1575,1576
45113614,1000,1000,1000,1000,71028244,1585,1583,1573,1574
45116113,1000,1000,1000,1000,71128204,1586,1586,1572,1572
45118612,1000,1000,1000,1000,71228164,1587,1588,1571,1571
45121111,1000,1000,1000,1000,71328957,1588,1588,1571,1571
45123610,1000,1000,1000,1000,71428917,1589,1589,1572,1571
45126109,1000,1000,1000,1000,71528877,1589,1588,1572,1572
45128608,1000,1000,1000,1000,71628837,1589,1588,1572,1572
45131107,1000,1000,1000,1000,71728797,1589,1588,1573,1574
45133606,1000,1000,1000,1000,71828757,1588,1587,1574,1575
45136105,1000,1000,1000,1000,71928717,1587,1587,1576,1576
45138604,1000,1000,1000,1000,72028677,1585,1586,1576,1576
45141103,1000,1000,1000,1000,72128637,1584,1585,1577,1576
45143602,1000,1000,1000,1000,72228597,1584,1584,1578,1578
45146101,1000,1000,1000,1000,72328557,1583,1582,1578,1578
45148600,1000,1000,1000,1000,72428517,1582,1582,1579,1578
45151099,1000,1000,1000,1000,72528477,1582,1582,1580,1579
45153598,1000,1000,1000,1000,72628437,1581,1581,1580,1580
45156097,1000,1000,1000,1000,72728397,1580,1580,1579,1580
45158596,1000,1000,1000,1000,72828357,1580,1580,1580,1580
45161095,1000,1000,1000,1000,72928317,1579,1579,1580,1581
45163594,1000,1000,1000,1000,73028277,1579,1579,1580,1581
45166093,1000,1000,1000,1000,73128237,1579,1579,1581,1581
45168592,1000,1000,1000,1000,73228197,1579,1580,1582,1582
45171091,1000,1000,1000,1000,73328157,1580,1580,1582,1582
45173590,1000,1000,1000,1000,73428950,1580,1580,1582,1582
45176089,1000,1000,1000,1000,73528910,1580,1580,1582,1582
45178588,1000,1000,1000,1000,73628870,1579,1579,1581,1580
45181087,1000,1000,1000,1000,73728830,1579,1580,1581,1581
45183586,1000,1000,1000,1000,73828790,1580,1580,1581,1581
45186085,1000,1000,1000,1000,73928750,1580,1579,1585,1575
45188584,1000,1000,1000,1000,74028710,1581,1579,1585,1572
45191083,1000,1000,1000,1000,74128670,1579,1578,1577,1572
45193582,1000,1000,1000,1000,74228630,1578,1577,1569,1571
45196081,1000,1000,1000,1000,74328590,1576,1578,1563,1568
45198580,1000,1000,1000,1000,74428550,1574,1576,1558,1564
45201079,1000,1000,1000,1000,74528510,1574,1576,1558,1561
45203578,1000,1000,1000,1000,74628470,1574,1577,1558,1559
45206077,1000,1000,1000,1000,74728430,1574,1576,1558,1557
45208576,1000,1000,1000,1000,74828390,1574,1575,1557,1555
45211075,1000,1000,1000,1000,74928350,1575,1574,1557,1554
45213574,1000,1000,1000,1000,75028310,1574,1574,1555,1553
45216073,1000,1000,1000,1000,75128270,1574,1574,1553,1553
45218572,1000,1000,1000,1000,75228230,1574,1574,1552,1552
45221071,1000,1000,1000,1000,75328190,1575,1575,1551,1552
45223570,1000,1000,1000,1000,75428983,1575,1577,1550,1551
45226069,1000,1000,1000,1000,75528943,1576,1578,1549,1549
45228568,1000,1000,1000,1000,75628903,1577,1578,1546,1545
45231067,1000,1000,1000,1000,75728863,1578,1580,1545,1544
45233566,1000,1000,1000,1000,75828823,1581,1582,1544,1542
45236065,1000,1000,1000,1000,75928783,1583,1584,1541,1541
45238564,1000,1000,1000,1000,76028743,1586,1586,1540,1540
45241063,1000,1000,1000,1000,76128703,1588,1587,1539,1539
45243562,1000,1000,1000,1000,76228663,1589,1588,1538,1539
45246061,1000,1000,1000,1000,76328623,1590,1589,1539,1540
45248560,1000,1000,1000,1000,76428583,1589,1588,1540,1542
45251059,1000,1000,1000,1000,76528543,1589,1587,1544,1546
45253558,1000,1000,1000,1000,76628503,1585,1584,1545,1549
45256057,1000,1000,1000,1000,76728463,1583,1582,1551,1555
45258556,1000,1000,1000,1000,76828423,1578,1578,1556,1559
45261055,1000,1000,1000,1000,76928383,1573,1571,1562,1565
45263554,1000,1000,1000,1000,77028343,1567,1565,1571,1573
45266053,1000,1000,1000,1000,77128303,1561,1559,1580,1581
45268552,1000,1000,1000,1000,77228263,1553,1551,1588,1588
45271051,1000,1000,1000,1000,77328223,1546,1544,1597,1597
45273550,1000,1000,1000,1000,77428183,1539,1538,1604,1604
45276049,1000,1000,1000,1000,77528976,1533,1534,1609,1608
45278548,1000,1000,1000,1000,77628936,1531,1533,1610,1609
45281047,1000,1000,1000,1000,77728896,1532,1534,1608,1608
45283546,1000,1000,1000,1000,77828856,1535,1538,1605,1604
45286045,1000,1000,1000,1000,77928816,1541,1543,1599,1599
45288544,1000,1000,1000,1000,78028776,1548,1550,1592,1593
45291043,1000,1000,1000,1000,78128736,1557,1557,1586,1585
45293542,1000,1000,1000,1000,78228696,1564,1565,1579,1578
45296041,1000,1000,1000,1000,78328656,1572,1572,1574,1573
45298540,1000,1000,1000,1000,78428616,1579,1578,1570,1569
45301039,1000,1000,1000,1000,78528576,1584,1583,1567,1567
45303538,1000,1000,1000,1000,78628536,1588,1586,1567,1567
45306037,1000,1000,1000,1000,78728496,1589,1588,1567,1568
45308536,1000,1000,1000,1000,78828456,1590,1588,1569,1569
45311035,1000,1000,1000,1000,78928416,1589,1588,1570,1570
45313534,1000,1000,1000,1000,79028376,1587,1587,1572,1573
45316033,1000,1000,1000,1000,79128336,1586,1586,1575,1575
45318532,1000,1000,1000,1000,79228296,1584,1584,1577,1577
45321031,1000,1000,1000,1000,79328256,1582,1582,1578,1578
45323530,1000,1000,1000,1000,79428216,1580,1581,1580,1580
45326029,1000,1000,1000,1000,79528176,1579,1579,1582,1582
45328528,1000,1000,1000,1000,79628969,1578,1578,1583,1583
45331027,1000,1000,1000,1000,79728929,1576,1577,1583,1583
45333526,1000,1000,1000,1000,79828889,1575,1576,1584,1584
45336025,1000,1000,1000,1000,79928849,1575,1575,1583,1583
45338524,1000,1000,1000,1000,80028809,1575,1575,1583,1583
45341023,1000,1000,1000,1000,80128769,1575,1575,1582,1582
45343522,1000,1000,1000,1000,80228729,1575,1576,1581,1581
45346021,1000,1000,1000,1000,80328689,1576,1577,1580,1580
45348520,1000,1000,1000,1000,80428649,1578,1578,1580,1579
45351019,1000,1000,1000,1000,80528609,1580,1579,1580,1580
45353518,1000,1000,1000,1000,80628569,1580,1580,1579,1579
45356017,1000,1000,1000,1000,80728529,1581,1581,1578,1579
45358516,1000,1000,1000,1000,80828489,1582,1582,1579,1579
45361015,1000,1000,1000,1000,80928449,1582,1582,1579,1579
45363514,1000,1000,1000,1000,81028409,1583,1583,1579,1579
45366013,1000,1000,1000,1000,81128369,1583,1583,1580,1580
45368512,1000,1000,1000,1000,81228329,1583,1583,1580,1580
45371011,1000,1000,1000,1000,81328289,1582,1582,1579,1579
45373510,1000,1000,1000,1000,81428249,1582,1582,1579,1579
45376009,1000,1000,1000,1000,81528209,1582,1582,1581,1581
45378508,1000,1000,1000,1000,81628169,1581,1581,1580,1580
45381007,1000,1000,1000,1000,81728962,1581,1581,1581,1581
45383506,1000,1000,1000,1000,81828922,1581,1581,1582,1582
45386005,1000,1000,1000,1000,81928882,1581,1581,1582,1582
45388504,1000,1000,1000,1000,82028842,1580,1580,1582,1582
45391003,1000,1000,1000,1000,82128802,1581,1581,1582,1583
45393502,1000,1000,1000,1000,82228762,1581,1581,1586,1578
45396001,1000,1000,1000,1000,82328722,1581,1580,1589,1574
45398500,1000,1000,1000,1000,82428682,1579,1578,1582,1574
45400999,1000,1000,1000,1000,82528642,1577,1576,1575,1576
45403498,1000,1000,1000,1000,82628602,1573,1573,1567,1573
45405997,1000,1000,1000,1000,82728562,1570,1570,1563,1571
45408496,1000,1000,1000,1000,82828522,1568,1569,1563,1568
45410995,1000,1000,1000,1000,82928482,1566,1568,1564,1566
45413494,1000,1000,1000,1000,83028442,1565,1567,1565,1564
45415993,1000,1000,1000,1000,83128402,1566,1567,1567,1565
45418492,1000,1000,1000,1000,83228362,1565,1565,1568,1565
45420991,1000,1000,1000,1000,83328322,1564,1564,1566,1564
45423490,1000,1000,1000,1000,83428282,1564,1563,1566,1564
45425989,1000,1000,1000,1000,83528242,1563,1563,1565,1565
45428488,1000,1000,1000,1000,83628202,1563,1562,1564,1564
45430987,1000,1000,1000,1000,83728162,1562,1562,1564,1564
45433486,1000,1000,1000,1000,83828955,1562,1562,1563,1564
45435985,1000,1000,1000,1000,83928915,1562,1562,1563,1563
45438484,1000,1000,1000,1000,84028875,1561,1561,1562,1561
45440983,1000,1000,1000,1000,84128835,1561,1561,1562,1561
45443482,1000,1000,1000,1000,84228795,1561,1561,1562,1561
45445981,1000,1000,1000,1000,84328755,1561,1561,1561,1561
45448480,1000,1000,1000,1000,84428715,1561,1561,1561,1560
45450979,1000,1000,1000,1000,84528675,1561,1560,1560,1559
45453478,1000,1000,1000,1000,84628635,1561,1561,1561,1560
45455977,1000,1000,1000,1000,84728595,1560,1560,1560,1559
45458476,1000,1000,1000,1000,84828555,1560,1560,1561,1558
45460975,1000,1000,1000,1000,84928515,1560,1560,1561,1558
45463474,1000,1000,1000,1000,85028475,1561,1560,1562,1559
45465973,1000,1000,1000,1000,85128435,1561,1560,1560,1561
45468472,1000,1000,1000,1000,85228395,1560,1560,1558,1562
45470971,1000,1000,1000,1000,85328355,1560,1560,1557,1563
45473470,1000,1000,1000,1000,85428315,1560,1561,1558,1563
45475969,1000,1000,1000,1000,85528275,1560,1560,1558,1562
45478468,1000,1000,1000,1000,85628235,1559,1560,1559,1560
45480967,1000,1000,1000,1000,85728195,1558,1559,1559,1556
45483466,1000,1000,1000,1000,85828155,1558,1558,1559,1555
45485965,1000,1000,1000,1000,85928948,1558,1558,1557,1559
45488464,1000,1000,1000,1000,86028908,1556,1556,1553,1558
45490963,1000,1000,1000,1000,86128868,1553,1553,1548,1553
45493462,1000,1000,1000,1000,86228828,1548,1548,1544,1545
45495961,1000,1000,1000,1000,86328788,1542,1542,1537,1537
45498460,1000,1000,1000,1000,86428748,1536,1536,1531,1530
45500959,1000,1000,1000,1000,86528708,1529,1529,1524,1522
45503458,1000,1000,1000,1000,86628668,1524,1523,1519,1518
45505957,1000,1000,1000,1000,86728628,1521,1520,1517,1518
45508456,1000,1000,1000,1000,86828588,1519,1519,1519,1519
45510955,1000,1000,1000,1000,86928548,1519,1519,1522,1523
45513454,1000,1000,1000,1000,87028508,1520,1520,1526,1527
45515953,1000,1000,1000,1000,87128468,1523,1523,1531,1532
45518452,1000,1000,1000,1000,87228428,1526,1527,1536,1537
45520951,1000,1000,1000,1000,87328388,1530,1530,1541,1540
45523450,1000,1000,1000,1000,87428348,1534,1534,1543,1542
45525949,1000,1000,1000,1000,87528308,1537,1537,1545,1544
45528448,1000,1000,1000,1000,87628268,1540,1540,1544,1545
45530947,1000,1000,1000,1000,87728228,1543,1543,1544,1545
45533446,1000,1000,1000,1000,87828188,1545,1545,1545,1545
45535945,1000,1000,1000,1000,87928981,1548,1548,1545,1545
45538444,1000,1000,1000,1000,88028941,1549,1549,1544,1544
45540943,1000,1000,1000,1000,88128901,1550,1550,1544,1543
45543442,1000,1000,1000,1000,88228861,1550,1550,1544,1543
45545941,1000,1000,1000,1000,88328821,1549,1550,1543,1543
45548440,1000,1000,1000,1000,88428781,1549,1549,1544,1544
45550939,1000,1000,1000,1000,88528741,1550,1550,1546,1546
45553438,1000,1000,1000,1000,88628701,1549,1549,1546,1545
45555937,1000,1000,1000,1000,88728661,1548,1548,1545,1546
45558436,1000,1000,1000,1000,88828621,1547,1547,1546,1546
45560935,1000,1000,1000,1000,88928581,1546,1546,1546,1546
45563434,1000,1000,1000,1000,89028541,1544,1545,1545,1545
45565933,1000,1000,1000,1000,89128501,1544,1544,1546,1546
45568432,1000,1000,1000,1000,89228461,1543,1544,1546,1546
45570931,1000,1000,1000,1000,89328421,1543,1543,1546,1546
45573430,1000,1000,1000,1000,89428381,1543,1543,1545,1545
45575929,1000,1000,1000,1000,89528341,1543,1544,1546,1546
45578428,1000,1000,1000,1000,89628301,1544,1543,1545,1545
45580927,1000,1000,1000,1000,89728261,1544,1543,1544,1544
45583426,1000,1000,1000,1000,89828221,1543,1543,1543,1543
45585925,1000,1000,1000,1000,89928181,1543,1543,1542,1543
45588424,1000,1000,1000,1000,90028974,1544,1544,1544,1544
45590923,1000,1000,1000,1000,90128934,1544,1544,1543,1543
45593422,1000,1000,1000,1000,90228894,1544,1544,1544,1544
45595921,1000,1000,1000,1000,90328854,1544,1544,1543,1543
45598420,1000,1000,1000,1000,90428814,1543,1544,1543,1543
45600919,1000,1000,1000,1000,90528774,1544,1544,1543,1543
45603418,1000,1000,1000,1000,90628734,1544,1544,1543,1543
45605917,1000,1000,1000,1000,90728694,1544,1544,1544,1544
45608416,1000,1000,1000,1000,90828654,1544,1543,1544,1544
45610915,1000,1000,1000,1000,90928614,1544,1543,1543,1543
45613414,1000,1000,1000,1000,91028574,1544,1544,1545,1545
45615913,1000,1000,1000,1000,91128534,1544,1544,1544,1544
45618412,1000,1000,1000,1000,91228494,1544,1544,1544,1544
45620911,1000,1000,1000,1000,91328454,1545,1544,1544,1545
45623410,1000,1000,1000,1000,91428414,1544,1544,1544,1544
45625909,1000,1000,1000,1000,91528374,1544,1544,1544,1544
45628408,1000,1000,1000,1000,91628334,1545,1545,1545,1544
45630907,1000,1000,1000,1000,91728294,1544,1545,1545,1544
45633406,1000,1000,1000,1000,91828254,1544,1544,1544,1544
45635905,1000,1000,1000,1000,91928214,1545,1544,1544,1545
45638404,1000,1000,1000,1000,92028174,1544,1544,1544,1544
45640903,1000,1000,1000,1000,92128967,1545,1545,1545,1545
45643402,1000,1000,1000,1000,92228927,1544,1545,1544,1544
45645901,1000,1000,1000,1000,92328887,1544,1544,1544,1544
45648400,1000,1000,1000,1000,92428847,1544,1544,1544,1544
45650899,1000,1000,1000,1000,92528807,1543,1544,1543,1543
45653398,1000,1000,1000,1000,92628767,1543,1544,1544,1543
45655897,1000,1000,1000,1000,92728727,1544,1544,1543,1544
45658396,1000,1000,1000,1000,92828687,1543,1544,1543,1544
45660895,1000,1000,1000,1000,92928647,1544,1543,1544,1544
45663394,1000,1000,1000,1000,93028607,1545,1544,1545,1545
45665893,1000,1000,1000,1000,93128567,1544,1543,1544,1544
45668392,1000,1000,1000,1000,93228527,1545,1544,1545,1544
45670891,1000,1000,1000,1000,93328487,1544,1544,1544,1544
45673390,1000,1000,1000,1000,93428447,1544,1544,1544,1544
45675889,1000,1000,1000,1000,93528407,1544,1544,1544,1544
45678388,1000,1000,1000,1000,93628367,1544,1545,1544,1544
45680887,1000,1000,1000,1000,93728327,1544,1544,1544,1544
45683386,1000,1000,1000,1000,93828287,1545,1545,1545,1545
45685885,1000,1000,1000,1000,93928247,1545,1544,1545,1545
45688384,1000,1000,1000,1000,94028207,1544,1544,1544,1544
45690883,1000,1000,1000,1000,94128167,1544,1543,1544,1544
45693382,1000,1000,1000,1000,94228960,1544,1544,1544,1544
45695881,1000,1000,1000,1000,94328920,1544,1544,1544,1544
45698380,1000,1000,1000,1000,94428880,1544,1544,1544,1544
45700879,1000,1000,1000,1000,94528840,1544,1544,1544,1544
45703378,1000,1000,1000,1000,94628800,1543,1544,1543,1543
45705877,1000,1000,1000,1000,94728760,1544,1544,1544,1544
45708376,1000,1000,1000,1000,94828720,1544,1545,1545,1544
45710875,1000,1000,1000,1000,94928680,1544,1544,1544,1545
45713374,1000,1000,1000,1000,95028640,1544,1545,1544,1544
45715873,1000,1000,1000,1000,95128600,1545,1544,1545,1545
45718372,1000,1000,1000,1000,95228560,1545,1545,1545,1545
45720871,1000,1000,1000,1000,95328520,1545,1544,1545,1545
45723370,1000,1000,1000,1000,95428480,1544,1544,1544,1544
45725869,1000,1000,1000,1000,95528440,1544,1544,1544,1544
45728368,1000,1000,1000,1000,95628400,1544,1545,1544,1544
45730867,1000,1000,1000,1000,95728360,1544,1544,1544,1544
45733366,1000,1000,1000,1000,95828320,1544,1544,1544,1544
45735865,1000,1000,1000,1000,95928280,1544,1544,1543,1544
45738364,1000,1000,1000,1000,96028240,1544,1544,1544,1544
45740863,1000,1000,1000,1000,96128200,1544,1544,1544,1544
45743362,1000,1000,1000,1000,96228160,1544,1544,1544,1544
45745861,1000,1000,1000,1000,96328953,1528,1527,1520,1519
45748360,1000,1000,1000,1000,96428913,1408,1407,1330,1331
45750859,1000,1000,1000,1000,96528873,1358,1356,1235,1238
45753358,1000,1000,1000,1000,96628833,1343,1342,1206,1208
45755857,1000,1000,1000,1000,96728793,1331,1329,1181,1182
45758356,1000,1000,1000,1000,96828753,1301,1300,1150,1150
45760855,1000,1000,1000,1000,96928713,1217,1215,1150,1151
45763354,1000,1000,1000,1000,97028673,1117,1115,1150,1150
45765853,1000,1000,1000,1000,97128633,1007,1005,1150,1151
45768352,1000,1000,1000,1000,97228593,960,958,1150,1150
45770851,1000,1000,1000,1000,97328553,960,958,1150,1150
45773350,1000,1000,1000,1000,97428513,960,958,1150,1150
45775849,1000,1000,1000,1000,97528473,959,946,1150,1167
45778348,1000,1000,1000,1000,97628433,959,951,1150,1161
45780847,1000,1000,1000,1000,97728393,960,953,1150,1158
45783346,1000,1000,1000,1000,97828353,960,953,1150,1158
45785845,1000,1000,1000,1000,97928313,960,953,1150,1158
45788344,1000,1000,1000,1000,98028273,960,953,1150,1158
45790843,1000,1000,1000,1000,98128233,960,953,1150,1158
45793342,1000,1000,1000,1000,98228193,960,953,1150,1158
45795841,1000,1000,1000,1000,98328986,959,959,1150,1150
45798340,1000,1000,1000,1000,98428946,960,958,1150,1151
45800839,1000,1000,1000,1000,98528906,960,958,1150,1151
45803338,1000,1000,1000,1000,98628866,960,958,1150,1151
45805837,1000,1000,1000,1000,98728826,941,939,1150,1151
45808336,1000,1000,1000,1000,98828786,1000,1000,1000,1000
45810835,1000,1000,1000,1000,98928746,1000,1000,1000,1000
45813334,1000,1000,1000,1000,99028706,1000,1000,1000,1000
45815833,1000,1000,1000,1000,99128666,1000,1000,1000,1000
45818332,1000,1000,1000,1000,99228626,1000,1000,1000,1000
45820831,1000,1000,1000,1000,99328586,1000,1000,1000,1000
45823330,1000,1000,1000,1000,99428546,1000,1000,1000,1000
45825829,1000,1000,1000,1000,99528506,1000,1000,1000,1000
45828328,1000,1000,1000,1000,99628466,1000,1000,1000,1000
45830827,1000,1000,1000,1000,99728426,1000,1000,1000,1000
45833326,1000,1000,1000,1000,99828386,1000,1000,1000,1000
45835825,1000,1000,1000,1000,99928346,1000,1000,1000,1000
45838324,1000,1000,1000,1000,100028306,1000,1000,1000,1000
45840823,1000,1000,1000,1000,100128266,1000,1000,1000,1000
45843322,1000,1000,1000,1000,100228226,1000,1000,1000,1000
45845821,1000,1000,1000,1000,100328186,1000,1000,1000,1000
45848320,1000,1000,1000,1000,100428979,1000,1000,1000,1000
45850819,1000,1000,1000,1000,100528939,1000,1000,1000,1000
45853318,1000,1000,1000,1000,100628899,1000,1000,1000,1000
45855817,1000,1000,1000,1000,100728859,1000,1000,1000,1000
45858316,1000,1000,1000,1000,100828819,1000,1000,1000,1000
45860815,1000,1000,1000,1000,100928779,1000,1000,1000,1000
45863314,1000,1000,1000,1000,101028739,1000,1000,1000,1000
45865813,1000,1000,1000,1000,101128699,1000,1000,1000,1000
45868312,1000,1000,1000,1000,101228659,1000,1000,1000,1000
45870811,1000,1000,1000,1000,101328619,1000,1000,1000,1000
45873310,1000,1000,1000,1000,101428579,1000,1000,1000,1000
45875809,1000,1000,1000,1000,101528539,1000,1000,1000,1000
45878308,1000,1000,1000,1000,101628499,1000,1000,1000,1000
45880807,1000,1000,1000,1000,101728459,1000,1000,1000,1000
45883306,1000,1000,1000,1000,101828419,1000,1000,1000,1000
45885805,1000,1000,1000,1000,101928379,1000,1000,1000,1000
45888304,1000,1000,1000,1000,102028339,1000,1000,1000,1000
45890803,1000,1000,1000,1000,102128299,1000,1000,1000,1000
45893302,1000,1000,1000,1000,102228259,1000,1000,1000,1000
45895801,1000,1000,1000,1000,102328219,1000,1000,1000,1000
45898300,1000,1000,1000,1000,102428179,1000,1000,1000,1000
45900799,1000,1000,1000,1000,102528972,1000,1000,1000,1000
45903298,1000,1000,1000,1000,102628932,1000,1000,1000,1000
45905797,1000,1000,1000,1000,102728892,1000,1000,1000,1000
45908296,1000,1000,1000,1000,102828852,1000,1000,1000,1000
45910795,1000,1000,1000,1000,102928812,1000,1000,1000,1000
45913294,1000,1000,1000,1000,103028772,1000,1000,1000,1000
45915793,1000,1000,1000,1000,103128732,1000,1000,1000,1000
45918292,1000,1000,1000,1000,103228692,1000,1000,1000,1000
45920791,1000,1000,1000,1000,103328652,1000,1000,1000,1000
45923290,1000,1000,1000,1000,103428612,1000,1000,1000,1000
45925789,1000,1000,1000,1000,103528572,1000,1000,1000,1000
45928288,1000,1000,1000,1000,103628532,1000,1000,1000,1000
45930787,1000,1000,1000,1000,103728492,1000,1000,1000,1000
45933286,1000,1000,1000,1000,103828452,1000,1000,1000,1000
45935785,1000,1000,1000,1000,103928412,1000,1000,1000,1000
45938284,1000,1000,1000,1000,104028372,1000,1000,1000,1000
45940783,1000,1000,1000,1000,104128332,1000,1000,1000,1000
45943282,1000,1000,1000,1000,104228292,1000,1000,1000,1000
45945781,1000,1000,1000,1000,104328252,1000,1000,1000,1000
45948280,1000,1000,1000,1000,104428212,1000,1000,1000,1000
45950779,1000,1000,1000,1000,104528172,1000,1000,1000,1000
45953278,1000,1000,1000,1000,104628965,1000,1000,1000,1000
45955777,1000,1000,1000,1000,104728925,1000,1000,1000,1000
45958276,1000,1000,1000,1000,104828885,1000,1000,1000,1000
45960775,1000,1000,1000,1000,104928845,1000,1000,1000,1000
45963274,1000,1000,1000,1000,105028805,1000,1000,1000,1000
45965773,1000,1000,1000,1000,105128765,1000,1000,1000,1000
45968272,1000,1000,1000,1000,105228725,1000,1000,1000,1000
45970771,1000,1000,1000,1000,105328685,1000,1000,1000,1000
45973270,1000,1000,1000,1000,105428645,1000,1000,1000,1000
45975769,1000,1000,1000,1000,105528605,1000,1000,1000,1000
45978268,1000,1000,1000,1000,105628565,1000,1000,1000,1000
45980767,1000,1000,1000,1000,105728525,1000,1000,1000,1000
45983266,1000,1000,1000,1000,105828485,1000,1000,1000,1000
45985765,1000,1000,1000,1000,105928445,1000,1000,1000,1000
45988264,1000,1000,1000,1000,106028405,1000,1000,1000,1000
45990763,1000,1000,1000,1000,106128365,1000,1000,1000,1000
45993262,1000,1000,1000,1000,106228325,1000,1000,1000,1000
45995761,1000,1000,1000,1000,106328285,1000,1000,1000,1000
45998260,1000,1000,1000,1000,106428245,1000,1000,1000,1000
46000759,1000,1000,1000,1000,106528205,1000,1000,1000,1000
46003258,1000,1000,1000,1000,106628165,1000,1000,1000,1000
46005757,1000,1000,1000,1000,106728958,1000,1000,1000,1000
46008256,1000,1000,1000,1000,106828918,1000,1000,1000,1000
46010755,1000,1000,1000,1000,106928878,1000,1000,1000,1000
46013254,1000,1000,1000,1000,107028838,1000,1000,1000,1000
46015753,1000,1000,1000,1000,107128798,1000,1000,1000,1000
46018252,1000,1000,1000,1000,107228758,1000,1000,1000,1000
46020751,1000,1000,1000,1000,107328718,1000,1000,1000,1000
46023250,1000,1000,1000,1000,107428678,1000,1000,1000,1000
46025749,1000,1000,1000,1000,107528638,1000,1000,1000,1000
46028248,1000,1000,1000,1000,107628598,1000,1000,1000,1000
46030747,1000,1000,1000,1000,107728558,1000,1000,1000,1000
46033246,1000,1000,1000,1000,107828518,1000,1000,1000,1000
46035745,1000,1000,1000,1000,107928478,1000,1000,1000,1000
46038244,1000,1000,1000,1000,108028438,1000,1000,1000,1000
46040743,1000,1000,1000,1000,108128398,1000,1000,1000,1000
46043242,1000,1000,1000,1000,108228358,1000,1000,1000,1000
46045741,1000,1000,1000,1000,108328318,1000,1000,1000,1000
46048240,1000,1000,1000,1000,108428278,1000,1000,1000,1000
46050739,1000,1000,1000,1000,108528238,1000,1000,1000,1000
46053238,1000,1000,1000,1000,108628198,1000,1000,1000,1000
46055737,1000,1000,1000,1000,108728158,1000,1000,1000,1000
46058236,1000,1000,1000,1000,108828951,1000,1000,1000,1000
46060735,1000,1000,1000,1000,108928911,1000,1000,1000,1000
46063234,1000,1000,1000,1000,109028871,1000,1000,1000,1000
46065733,1000,1000,1000,1000,109128831,1000,1000,1000,1000
46068232,1000,1000,1000,1000,109228791,1000,1000,1000,1000
46070731,1000,1000,1000,1000,109328751,1000,1000,1000,1000
46073230,1000,1000,1000,1000,109428711,1000,1000,1000,1000
46075729,1000,1000,1000,1000,109528671,1000,1000,1000,1000
46078228,1000,1000,1000,1000,109628631,1000,1000,1000,1000
46080727,1000,1000,1000,1000,109728591,1000,1000,1000,1000
46083226,1000,1000,1000,1000,109828551,1000,1000,1000,1000
46085725,1000,1000,1000,1000,109928511,1000,1000,1000,1000
46088224,1000,1000,1000,1000,110028471,1000,1000,1000,1000
46090723,1000,1000,1000,1000,110128431,1000,1000,1000,1000
46093222,1000,1000,1000,1000,110228391,1000,1000,1000,1000
46095721,1000,1000,1000,1000,110328351,1000,1000,1000,1000
46098220,1000,1000,1000,1000,110428311,1000,1000,1000,1000
46100719,1000,1000,1000,1000,110528271,1000,1000,1000,1000
46103218,1000,1000,1000,1000,110628231,1000,1000,1000,1000
46105717,1000,1000,1000,1000,110728191,1000,1000,1000,1000
46108216,1000,1000,1000,1000,110828984,1000,1000,1000,1000
46110715,1000,1000,1000,1000,110928944,1000,1000,1000,1000
46113214,1000,1000,1000,1000,111028904,1000,1000,1000,1000
46115713,1000,1000,1000,1000,111128864,1000,1000,1000,1000
46118212,1000,1000,1000,1000,111228824,1000,1000,1000,1000
46120711,1000,1000,1000,1000,111328784,1000,1000,1000,1000
46123210,1000,1000,1000,1000,111428744,1000,1000,1000,1000
46125709,1000,1000,1000,1000,111528704,1000,1000,1000,1000
46128208,1000,1000,1000,1000,111628664,1000,1000,1000,1000
46130707,1000,1000,1000,1000,111728624,1000,1000,1000,1000
46133206,1000,1000,1000,1000,111828584,1000,1000,1000,1000
46135705,1000,1000,1000,1000,111928544,1000,1000,1000,1000
46138204,1000,1000,1000,1000,112028504,1000,1000,1000,1000
46140703,1000,1000,1000,1000,112128464,1000,1000,1000,1000
46143202,1000,1000,1000,1000,112228424,1000,1000,1000,1000
46145701,1000,1000,1000,1000,112328384,1000,1000,1000,1000
46148200,1000,1000,1000,1000,112428344,1000,1000,1000,1000
46150699,1000,1000,1000,1000,112528304,1000,1000,1000,1000
46153198,1000,1000,1000,1000,112628264,1000,1000,1000,1000
46155697,1000,1000,1000,1000,112728224,1000,1000,1000,1000
46158196,1000,1000,1000,1000,112828184,1000,1000,1000,1000
46160695,1000,1000,1000,1000,112928977,1000,1000,1000,1000
46163194,1000,1000,1000,1000,113028937,1000,1000,1000,1000
46165693,1000,1000,1000,1000,113128897,1000,1000,1000,1000
46168192,1000,1000,1000,1000,113228857,1000,1000,1000,1000
46170691,1000,1000,1000,1000,113328817,1000,1000,1000,1000
46173190,1000,1000,1000,1000,113428777,1000,1000,1000,1000
46175689,1000,1000,1000,1000,113528737,1000,1000,1000,1000
46178188,1000,1000,1000,1000,113628697,1000,1000,1000,1000
46180687,1000,1000,1000,1000,113728657,1000,1000,1000,1000
46183186,1000,1000,1000,1000,,,,,
46185685,1000,1000,1000,1000,,,,,
46188184,1000,1000,1000,1000,,,,,
46190683,1000,1000,1000,1000,,,,,
46193182,1000,1000,1000,1000,,,,,
46195681,1000,1000,1000,1000,,,,,
46198180,1000,1000,1000,1000,,,,,
46200679,1000,1000,1000,1000,,,,,
46203178,1000,1000,1000,1000,,,,,
46205677,1000,1000,1000,1000,,,,,
46208176,1000,1000,1000,1000,,,,,
46210675,1000,1000,1000,1000,,,,,
46213174,1000,1000,1000,1000,,,,,
46215673,1000,1000,1000,1000,,,,,
46218172,1000,1000,1000,1000,,,,,
46220671,1000,1000,1000,1000,,,,,
46223170,1000,1000,1000,1000,,,,,
46225669,1000,1000,1000,1000,,,,,
46228168,1000,1000,1000,1000,,,,,
46230667,1000,1000,1000,1000,,,,,
46233166,1000,1000,1000,1000,,,,,
46235665,1000,1000,1000,1000,,,,,
46238164,1000,1000,1000,1000,,,,,
46240663,1000,1000,1000,1000,,,,,
46243162,1000,1000,1000,1000,,,,,
46245661,1000,1000,1000,1000,,,,,
46248160,1000,1000,1000,1000,,,,,
46250659,1000,1000,1000,1000,,,,,
46253158,1000,1000,1000,1000,,,,,
46255657,1000,1000,1000,1000,,,,,
46258156,1000,1000,1000,1000,,,,,
46260655,1000,1000,1000,1000,,,,,
46263154,1000,1000,1000,1000,,,,,
46266486,1000,1000,1000,1000,,,,,
46268985,1000,1000,1000,1000,,,,,
46271484,1000,1000,1000,1000,,,,,
46273983,1000,1000,1000,1000,,,,,
46276482,1000,1000,1000,1000,,,,,
46278981,1000,1000,1000,1000,,,,,
46281480,1000,1000,1000,1000,,,,,
46283979,1000,1000,1000,1000,,,,,
46286478,1000,1000,1000,1000,,,,,
46288977,1000,1000,1000,1000,,,,,
46291476,1000,1000,1000,1000,,,,,
46293975,1000,1000,1000,1000,,,,,
46296474,1000,1000,1000,1000,,,,,
46298973,1000,1000,1000,1000,,,,,
46301472,1000,1000,1000,1000,,,,,
46303971,1000,1000,1000,1000,,,,,
46306470,1000,1000,1000,1000,,,,,
46308969,1000,1000,1000,1000,,,,,
46311468,1000,1000,1000,1000,,,,,
46313967,1000,1000,1000,1000,,,,,
46316466,1000,1000,1000,1000,,,,,
46318965,1000,1000,1000,1000,,,,,
46321464,1000,1000,1000,1000,,,,,
46323963,1000,1000,1000,1000,,,,,
46326462,1000,1000,1000,1000,,,,,
46328961,1000,1000,1000,1000,,,,,
46331460,1000,1000,1000,1000,,,,,
46333959,1000,1000,1000,1000,,,,,
46336458,1000,1000,1000,1000,,,,,
46338957,1000,1000,1000,1000,,,,,
46341456,1000,1000,1000,1000,,,,,
46343955,1000,1000,1000,1000,,,,,
46346454,1000,1000,1000,1000,,,,,
46348953,1000,1000,1000,1000,,,,,
46351452,1000,1000,1000,1000,,,,,
46353951,1000,1000,1000,1000,,,,,
46356450,1000,1000,1000,1000,,,,,
46358949,1000,1000,1000,1000,,,,,
46361448,1000,1000,1000,1000,,,,,
46363947,1000,1000,1000,1000,,,,,
46366446,1000,1000,1000,1000,,,,,
46368945,1000,1000,1000,1000,,,,,
46371444,1000,1000,1000,1000,,,,,
46373943,1000,1000,1000,1000,,,,,
46376442,1000,1000,1000,1000,,,,,
46378941,1000,1000,1000,1000,,,,,
46381440,1000,1000,1000,1000,,,,,
46383939,1000,1000,1000,1000,,,,,
46386438,1000,1000,1000,1000,,,,,
46388937,1000,1000,1000,1000,,,,,
46391436,1000,1000,1000,1000,,,,,
46393935,1000,1000,1000,1000,,,,,
46396434,1000,1000,1000,1000,,,,,
46398933,1000,1000,1000,1000,,,,,
46401432,1000,1000,1000,1000,,,,,
46403931,1000,1000,1000,1000,,,,,
46406430,1000,1000,1000,1000,,,,,
46408929,1000,1000,1000,1000,,,,,
46411428,1000,1000,1000,1000,,,,,
46413927,1000,1000,1000,1000,,,,,
46416426,1000,1000,1000,1000,,,,,
46418925,1000,1000,1000,1000,,,,,
46421424,1000,1000,1000,1000,,,,,
46423923,1000,1000,1000,1000,,,,,
46426422,1000,1000,1000,1000,,,,,
46428921,1000,1000,1000,1000,,,,,
46431420,1000,1000,1000,1000,,,,,
46433919,1000,1000,1000,1000,,,,,
46436418,1000,1000,1000,1000,,,,,
46438917,1000,1000,1000,1000,,,,,
46441416,1000,1000,1000,1000,,,,,
46443915,1000,1000,1000,1000,,,,,
46446414,1000,1000,1000,1000,,,,,
46448913,1000,1000,1000,1000,,,,,
46451412,1000,1000,1000,1000,,,,,
46453911,1000,1000,1000,1000,,,,,
46456410,1000,1000,1000,1000,,,,,
46458909,1001,1001,1001,1001,,,,,
46461408,1002,1002,1002,1002,,,,,
46463907,1003,1003,1003,1003,,,,,
46466406,1003,1003,1003,1003,,,,,
46468905,1004,1004,1004,1004,,,,,
46471404,1005,1005,1005,1005,,,,,
46473903,1006,1006,1006,1006,,,,,
46476402,1006,1006,1006,1006,,,,,
46478901,1007,1007,1007,1007,,,,,
46481400,1008,1008,1008,1008,,,,,
46483899,1009,1009,1009,1009,,,,,
46486398,1009,1009,1009,1009,,,,,
46488897,1010,1010,1010,1010,,,,,
46491396,1011,1011,1011,1011,,,,,
46493895,1012,1012,1012,1012,,,,,
46496394,1012,1012,1012,1012,,,,,
46498893,1013,1013,1013,1013,,,,,
46501392,1014,1014,1014,1014,,,,,
46503891,1015,1015,1015,1015,,,,,
46506390,1015,1015,1015,1015,,,,,
46508889,1016,1016,1016,1016,,,,,
46511388,1017,1017,1017,1017,,,,,
46513887,1018,1018,1018,1018,,,,,
46516386,1018,1018,1018,1018,,,,,
46518885,1019,1019,1019,1019,,,,,
46521384,1020,1020,1020,1020,,,,,
46523883,1021,1021,1021,1021,,,,,
46526382,1021,1021,1021,1021,,,,,
46528881,1022,1022,1022,1022,,,,,
46531380,1023,1023,1023,1023,,,,,
46533879,1024,1024,1024,1024,,,,,
46536378,1024,1024,1024,1024,,,,,
46538877,1025,1025,1025,1025,,,,,
46541376,1026,1026,1026,1026,,,,,
46543875,1027,1027,1027,1027,,,,,
46546374,1027,1027,1027,1027,,,,,
46548873,1028,1028,1028,1028,,,,,
46551372,1029,1029,1029,1029,,,,,
46553871,1030,1030,1030,1030,,,,,
46556370,1030,1030,1030,1030,,,,,
46558869,1031,1031,1031,1031,,,,,
46561368,1032,1032,1032,1032,,,,,
46563867,1033,1033,1033,1033,,,,,
46566366,1033,1033,1033,1033,,,,,
46568865,1034,1034,1034,1034,,,,,
46571364,1035,1035,1035,1035,,,,,
46573863,1036,1036,1036,1036,,,,,
46576362,1036,1036,1036,1036,,,,,
46578861,1037,1037,1037,1037,,,,,
46581360,1038,1038,1038,1038,,,,,
46583859,1039,1039,1039,1039,,,,,
46586358,1039,1039,1039,1039,,,,,
46588857,1040,1040,1040,1040,,,,,
46591356,1041,1041,1041,1041,,,,,
46593855,1042,1042,1042,1042,,,,,
46596354,1042,1042,1042,1042,,,,,
46598853,1043,1043,1043,1043,,,,,
46601352,1044,1044,1044,1044,,,,,
46603851,1045,1045,1045,1045,,,,,
46606350,1045,1045,1045,1045,,,,,
46608849,1046,1046,1046,1046,,,,,
46611348,1047,1047,1047,1047,,,,,
46613847,1048,1048,1048,1048,,,,,
46616346,1048,1048,1048,1048,,,,,
46618845,1049,1049,1049,1049,,,,,
46621344,1050,1050,1050,1050,,,,,
46623843,1051,1051,1051,1051,,,,,
46626342,1051,1051,1051,1051,,,,,
46628841,1052,1052,1052,1052,,,,,
46631340,1053,1053,1053,1053,,,,,
46633839,1054,1054,1054,1054,,,,,
46636338,1054,1054,1054,1054,,,,,
46638837,1055,1055,1055,1055,,,,,
46641336,1056,1056,1056,1056,,,,,
46643835,1057,1057,1057,1057,,,,,
46646334,1057,1057,1057,1057,,,,,
46648833,1058,1058,1058,1058,,,,,
46651332,1059,1059,1059,1059,,,,,
46653831,1060,1060,1060,1060,,,,,
46656330,1060,1060,1060,1060,,,,,
46658829,1061,1061,1061,1061,,,,,
46661328,1062,1062,1062,1062,,,,,
46663827,1063,1063,1063,1063,,,,,
46666326,1063,1063,1063,1063,,,,,
46668825,1064,1064,1064,1064,,,,,
46671324,1065,1065,1065,1065,,,,,
46673823,1066,1066,1066,1066,,,,,
46676322,1066,1066,1066,1066,,,,,
46678821,1067,1067,1067,1067,,,,,
46681320,1068,1068,1068,1068,,,,,
46683819,1069,1069,1069,1069,,,,,
46686318,1069,1069,1069,1069,,,,,
46688817,1070,1070,1070,1070,,,,,
46691316,1071,1071,1071,1071,,,,,
46693815,1072,1072,1072,1072,,,,,
46696314,1072,1072,1072,1072,,,,,
46698813,1073,1073,1073,1073,,,,,
46701312,1074,1074,1074,1074,,,,,
46703811,1075,1075,1075,1075,,,,,
46706310,1075,1075,1075,1075,,,,,
46708809,1076,1076,1076,1076,,,,,
46711308,1077,1077,1077,1077,,,,,
46713807,1078,1078,1078,1078,,,,,
46716306,1078,1078,1078,1078,,,,,
46718805,1079,1079,1079,1079,,,,,
46721304,1080,1080,1080,1080,,,,,
46723803,1081,1081,1081,1081,,,,,
46726302,1081,1081,1081,1081,,,,,
46728801,1082,1082,1082,1082,,,,,
46731300,1083,1083,1083,1083,,,,,
46733799,1084,1084,1084,1084,,,,,
46736298,1084,1084,1084,1084,,,,,
46738797,1085,1085,1085,1085,,,,,
46741296,1086,1086,1086,1086,,,,,
46743795,1087,1087,1087,1087,,,,,
46746294,1087,1087,1087,1087,,,,,
46748793,1088,1088,1088,1088,,,,,
46751292,1089,1089,1089,1089,,,,,
46753791,1090,1090,1090,1090,,,,,
46756290,1090,1090,1090,1090,,,,,
46758789,1091,1091,1091,1091,,,,,
46761288,1092,1092,1092,1092,,,,,
46763787,1093,1093,1093,1093,,,,,
46766286,1093,1093,1093,1093,,,,,
46768785,1094,1094,1094,1094,,,,,
46771284,1095,1095,1095,1095,,,,,
46773783,1096,1096,1096,1096,,,,,
46776282,1096,1096,1096,1096,,,,,
46778781,1097,1097,1097,1097,,,,,
46781280,1098,1098,1098,1098,,,,,
46783779,1099,1099,1099,1099,,,,,
46786278,1099,1099,1099,1099,,,,,
46788777,1100,1100,1100,1100,,,,,
46791276,1101,1101,1101,1101,,,,,
46793775,1101,1101,1101,1101,,,,,
46796274,1102,1102,1102,1102,,,,,
46798773,1103,1103,1103,1103,,,,,
46801272,1104,1104,1104,1104,,,,,
46803771,1104,1104,1104,1104,,,,,
46806270,1105,1105,1105,1105,,,,,
46808769,1106,1106,1106,1106,,,,,
46811268,1107,1107,1107,1107,,,,,
46813767,1107,1107,1107,1107,,,,,
46816266,1108,1108,1108,1108,,,,,
46818765,1109,1109,1109,1109,,,,,
46821264,1110,1110,1110,1110,,,,,
46823763,1110,1110,1110,1110,,,,,
46826262,1111,1111,1111,1111,,,,,
46828761,1112,1112,1112,1112,,,,,
46831260,1113,1113,1113,1113,,,,,
46833759,1113,1113,1113,1113,,,,,
46836258,1114,1114,1114,1114,,,,,
46838757,1115,1115,1115,1115,,,,,
46841256,1116,1116,1116,1116,,,,,
46843755,1116,1116,1116,1116,,,,,
46846254,1117,1117,1117,1117,,,,,
46848753,1118,1118,1118,1118,,,,,
46851252,1119,1119,1119,1119,,,,,
46853751,1119,1119,1119,1119,,,,,
46856250,1120,1120,1120,1120,,,,,
46858749,1121,1121,1121,1121,,,,,
46861248,1122,1122,1122,1122,,,,,
46863747,1122,1122,1122,1122,,,,,
46866246,1123,1123,1123,1123,,,,,
46868745,1124,1124,1124,1124,,,,,
46871244,1125,1125,1125,1125,,,,,
46873743,1125,1125,1125,1125,,,,,
46876242,1126,1126,1126,1126,,,,,
46878741,1127,1127,1127,1127,,,,,
46881240,1128,1128,1128,1128,,,,,
46883739,1128,1128,1128,1128,,,,,
46886238,1129,1129,1129,1129,,,,,
46888737,1130,1130,1130,1130,,,,,
46891236,1131,1131,1131,1131,,,,,
46893735,1131,1131,1131,1131,,,,,
46896234,1132,1132,1132,1132,,,,,
46898733,1133,1133,1133,1133,,,,,
46901232,1134,1134,1134,1134,,,,,
46903731,1134,1134,1134,1134,,,,,
46906230,1135,1135,1135,1135,,,,,
46908729,1136,1136,1136,1136,,,,,
46911228,1137,1137,1137,1137,,,,,
46913727,1137,1137,1137,1137,,,,,
46916226,1138,1138,1138,1138,,,,,
46918725,1139,1139,1139,1139,,,,,
46921224,1140,1140,1140,1140,,,,,
46923723,1140,1140,1140,1140,,,,,
46926222,1141,1141,1141,1141,,,,,
46928721,1142,1142,1142,1142,,,,,
46931220,1143,1143,1143,1143,,,,,
46933719,1143,1143,1143,1143,,,,,
46936218,1144,1144,1144,1144,,,,,
46938717,1145,1145,1145,1145,,,,,
46941216,1146,1146,1146,1146,,,,,
46943715,1146,1146,1146,1146,,,,,
46946214,1147,1147,1147,1147,,,,,
46948713,1148,1148,1148,1148,,,,,
46951212,1149,1149,1149,1149,,,,,
46953711,1149,1149,1149,1149,,,,,
46956210,1150,1150,1150,1150,,,,,
46958709,1161,1154,1155,1161,,,,,
46961208,1169,1162,1163,1169,,,,,
46963707,1177,1170,1171,1177,,,,,
46966206,1184,1178,1179,1184,,,,,
46968705,1192,1186,1186,1192,,,,,
46971204,1199,1193,1194,1199,,,,,
46973703,1207,1201,1201,1207,,,,,
46976202,1214,1208,1209,1214,,,,,
46978701,1221,1215,1216,1221,,,,,
46981200,1228,1222,1223,1228,,,,,
46983699,1235,1229,1230,1235,,,,,
46986198,1242,1236,1237,1242,,,,,
46988697,1248,1243,1243,1249,,,,,
46991196,1255,1250,1250,1255,,,,,
46993695,1261,1256,1257,1262,,,,,
46996194,1268,1263,1263,1268,,,,,
46998693,1274,1269,1270,1274,,,,,
47001192,1280,1276,1276,1281,,,,,
47003691,1287,1282,1282,1287,,,,,
47006190,1293,1288,1288,1293,,,,,
47008689,1299,1294,1295,1299,,,,,
47011188,1305,1300,1301,1305,,,,,
47013687,1311,1306,1307,1311,,,,,
47016186,1317,1312,1313,1317,,,,,
47018685,1323,1318,1318,1323,,,,,
47021184,1328,1324,1324,1329,,,,,
47023683,1334,1329,1330,1334,,,,,
47026182,1340,1335,1336,1340,,,,,
47028681,1345,1341,1341,1345,,,,,
47031180,1351,1346,1347,1351,,,,,
47033679,1356,1352,1352,1357,,,,,
47036178,1362,1357,1358,1362,,,,,
47038677,1367,1363,1363,1367,,,,,
47041176,1373,1368,1369,1373,,,,,
47043675,1378,1374,1374,1378,,,,,
47046174,1383,1379,1379,1383,,,,,
47048673,1388,1384,1385,1389,,,,,
47051172,1394,1389,1390,1394,,,,,
47053671,1399,1394,1395,1399,,,,,
47056170,1404,1400,1400,1404,,,,,
47058669,1409,1405,1405,1409,,,,,
47061168,1414,1410,1410,1414,,,,,
47063667,1419,1415,1415,1419,,,,,
47066166,1424,1420,1420,1424,,,,,
47068665,1429,1425,1425,1429,,,,,
47071164,1434,1430,1430,1434,,,,,
47073663,1438,1434,1435,1438,,,,,
47076162,1443,1439,1440,1443,,,,,
47078661,1448,1444,1445,1448,,,,,
47081160,1453,1449,1449,1453,,,,,
47083659,1457,1454,1454,1457,,,,,
47086158,1462,1458,1459,1462,,,,,
47088657,1467,1463,1463,1467,,,,,
47091156,1471,1468,1468,1471,,,,,
47093655,1476,1472,1473,1476,,,,,
47096154,1480,1477,1477,1481,,,,,
47098653,1485,1481,1482,1485,,,,,
47101152,1490,1486,1486,1490,,,,,
47103651,1494,1490,1491,1494,,,,,
47106150,1498,1495,1495,1499,,,,,
47108649,1503,1499,1499,1503,,,,,
47111148,1507,1504,1504,1508,,,,,
47113647,1512,1508,1508,1512,,,,,
47116146,1516,1512,1513,1516,,,,,
47118645,1520,1517,1517,1521,,,,,
47121144,1525,1521,1521,1525,,,,,
47123643,1529,1525,1525,1529,,,,,
47126142,1533,1529,1530,1534,,,,,
47128641,1537,1534,1534,1538,,,,,
47131140,1542,1538,1538,1542,,,,,
47133639,1546,1542,1542,1546,,,,,
47136138,1550,1546,1546,1550,,,,,
47138637,1554,1550,1551,1554,,,,,
47141136,1558,1555,1555,1559,,,,,
47143635,1562,1559,1559,1563,,,,,
47146134,1566,1563,1563,1567,,,,,
47148633,1570,1567,1567,1571,,,,,
47151132,1574,1571,1571,1575,,,,,
47153631,1578,1575,1575,1579,,,,,
47156130,1582,1579,1579,1583,,,,,
47158629,1586,1583,1583,1587,,,,,
47161128,1590,1587,1587,1591,,,,,
47163627,1594,1591,1591,1595,,,,,
47166126,1598,1595,1595,1599,,,,,
47168625,1602,1599,1599,1602,,,,,
47171124,1606,1603,1603,1606,,,,,
47173623,1610,1606,1607,1610,,,,,
47176122,1614,1610,1611,1614,,,,,
47178621,1618,1614,1614,1618,,,,,
47181120,1621,1618,1618,1622,,,,,
47183619,1625,1622,1622,1625,,,,,
47186118,1629,1626,1626,1629,,,,,
47188617,1633,1629,1630,1633,,,,,
47191116,1637,1633,1633,1637,,,,,
47193615,1640,1637,1637,1641,,,,,
47196114,1644,1641,1641,1644,,,,,
47198613,1648,1644,1645,1648,,,,,
47201112,1652,1648,1648,1652,,,,,
47203611,1655,1652,1652,1655,,,,,
47206110,1659,1655,1656,1659,,,,,
47208609,1663,1659,1659,1663,,,,,
47211108,1666,1663,1663,1666,,,,,
47213607,1670,1666,1667,1670,,,,,
47216106,1673,1670,1670,1673,,,,,
47218605,1677,1673,1674,1677,,,,,
47221104,1681,1677,1677,1681,,,,,
47223603,1684,1680,1681,1684,,,,,
47226102,1688,1684,1685,1688,,,,,
47228601,1691,1688,1688,1691,,,,,
47231100,1695,1691,1692,1695,,,,,
47233599,1698,1695,1695,1698,,,,,
47236098,1702,1698,1699,1702,,,,,
47238597,1705,1702,1702,1705,,,,,
47241096,1709,1705,1706,1709,,,,,
47243595,1712,1708,1709,1712,,,,,
47246094,1716,1712,1713,1716,,,,,
47248593,1719,1715,1716,1719,,,,,
47251092,1723,1719,1719,1722,,,,,
47253591,1726,1722,1723,1726,,,,,
47256090,1729,1725,1726,1729,,,,,
47258589,1733,1729,1730,1733,,,,,
47261088,1736,1732,1733,1736,,,,,
47263587,1740,1736,1736,1739,,,,,
47266086,1743,1739,1740,1743,,,,,
47268585,1746,1742,1743,1746,,,,,
47271084,1750,1746,1746,1749,,,,,
47273583,1753,1749,1750,1753,,,,,
47276082,1756,1752,1753,1756,,,,,
47278581,1760,1755,1756,1759,,,,,
47281080,1763,1759,1760,1763,,,,,
47283579,1766,1762,1763,1766,,,,,
47286078,1769,1765,1766,1769,,,,,
47288577,1773,1769,1769,1772,,,,,
47291076,1776,1772,1773,1776,,,,,
47293575,1779,1775,1776,1779,,,,,
47296074,1782,1778,1779,1782,,,,,
47298573,1786,1781,1782,1785,,,,,
47301072,1789,1785,1785,1789,,,,,
47303571,1792,1788,1789,1792,,,,,
47306070,1795,1791,1792,1795,,,,,
47308569,1798,1794,1795,1798,,,,,
47311068,1802,1797,1798,1801,,,,,
47313567,1805,1801,1801,1804,,,,,
47316066,1808,1804,1804,1808,,,,,
47318565,1811,1807,1807,1811,,,,,
47321064,1814,1810,1811,1814,,,,,
47323563,1817,1813,1814,1817,,,,,
47326062,1820,1816,1817,1820,,,,,
47328561,1823,1819,1820,1823,,,,,
47331060,1826,1822,1823,1826,,,,,
47333559,1830,1826,1826,1830,,,,,
47336058,1833,1829,1829,1833,,,,,
47338557,1836,1832,1832,1836,,,,,
47341056,1839,1835,1835,1839,,,,,
47343555,1842,1838,1838,1842,,,,,
47346054,1845,1841,1841,1845,,,,,
47348553,1848,1844,1844,1848,,,,,
47351052,1851,1847,1847,1851,,,,,
47353551,1854,1850,1850,1854,,,,,
47356050,1857,1853,1853,1857,,,,,
47358549,1860,1856,1856,1860,,,,,
47361048,1863,1859,1859,1863,,,,,
47363547,1866,1862,1862,1866,,,,,
47366046,1869,1865,1865,1869,,,,,
47368545,1870,1866,1866,1870,,,,,
47371044,1869,1865,1865,1869,,,,,
47373543,1868,1864,1864,1868,,,,,
47376042,1867,1863,1863,1867,,,,,
47378541,1865,1862,1862,1866,,,,,
47381040,1864,1860,1860,1865,,,,,
47383539,1863,1859,1859,1864,,,,,
47386038,1862,1858,1858,1863,,,,,
47388537,1861,1857,1857,1862,,,,,
47391036,1860,1856,1856,1861,,,,,
47393535,1859,1855,1856,1860,,,,,
47396034,1859,1855,1855,1859,,,,,
47398533,1858,1854,1854,1858,,,,,
47401032,1857,1853,1853,1858,,,,,
47403531,1857,1853,1853,1857,,,,,
47406030,1856,1852,1853,1857,,,,,
47408529,1856,1852,1852,1856,,,,,
47411028,1856,1852,1852,1856,,,,,
47413527,1856,1852,1852,1856,,,,,
47416026,1856,1852,1852,1856,,,,,
47418525,1856,1852,1852,1856,,,,,
47421024,1856,1852,1852,1856,,,,,
47423523,1856,1852,1852,1856,,,,,
47426022,1856,1852,1853,1857,,,,,
47428521,1857,1853,1853,1857,,,,,
47431020,1857,1853,1853,1857,,,,,
47433519,1858,1853,1854,1858,,,,,
47436018,1858,1854,1854,1858,,,,,
47438517,1859,1855,1855,1859,,,,,
47441016,1859,1855,1855,1859,,,,,
47443515,1860,1856,1856,1860,,,,,
47446014,1861,1857,1857,1861,,,,,
47448513,1861,1857,1857,1862,,,,,
47451012,1862,1858,1858,1862,,,,,
47453511,1863,1859,1859,1863,,,,,
47456010,1864,1860,1860,1864,,,,,
47458509,1865,1861,1861,1865,,,,,
47461008,1865,1862,1862,1866,,,,,
47463507,1866,1863,1863,1866,,,,,
47466006,1867,1864,1864,1867,,,,,
47468505,1867,1864,1865,1868,,,,,
47471004,1868,1865,1865,1868,,,,,
47473503,1868,1865,1866,1869,,,,,
47476002,1868,1866,1866,1869,,,,,
47478501,1868,1866,1866,1869,,,,,
47481000,1868,1866,1866,1868,,,,,
47483499,1868,1865,1865,1868,,,,,
47485998,1867,1865,1865,1867,,,,,
47488497,1866,1864,1864,1867,,,,,
47490996,1865,1863,1863,1866,,,,,
47493495,1864,1862,1862,1865,,,,,
47495994,1863,1861,1861,1863,,,,,
47498493,1861,1860,1860,1862,,,,,
47500992,1860,1858,1858,1860,,,,,
47503491,1858,1857,1857,1859,,,,,
47505990,1856,1855,1855,1857,,,,,
47508489,1854,1853,1853,1855,,,,,
47510988,1852,1851,1851,1853,,,,,
47513487,1850,1849,1849,1851,,,,,
47515986,1848,1847,1847,1848,,,,,
47518485,1845,1844,1844,1846,,,,,
47520984,1843,1842,1842,1844,,,,,
47523483,1840,1839,1839,1841,,,,,
47525982,1838,1837,1837,1838,,,,,
47528481,1835,1834,1834,1836,,,,,
47530980,1832,1831,1831,1833,,,,,
47533479,1829,1829,1829,1830,,,,,
47535978,1826,1826,1826,1827,,,,,
47538477,1823,1823,1823,1824,,,,,
47540976,1820,1820,1820,1821,,,,,
47543475,1817,1817,1817,1818,,,,,
47545974,1814,1814,1814,1815,,,,,
47548473,1811,1811,1811,1811,,,,,
47550972,1808,1807,1807,1808,,,,,
47553471,1805,1804,1804,1805,,,,,
47555970,1801,1801,1801,1802,,,,,
47558469,1798,1798,1798,1798,,,,,
47560968,1795,1794,1795,1795,,,,,
47563467,1792,1791,1791,1792,,,,,
47565966,1788,1788,1788,1789,,,,,
47568465,1785,1785,1785,1785,,,,,
47570964,1782,1781,1781,1782,,,,,
47573463,1778,1778,1778,1778,,,,,
47575962,1775,1775,1775,1775,,,,,
47578461,1772,1771,1771,1772,,,,,
47580960,1768,1768,1768,1768,,,,,
47583459,1765,1765,1765,1765,,,,,
47585958,1762,1761,1762,1762,,,,,
47588457,1758,1758,1758,1758,,,,,
47590956,1755,1755,1755,1755,,,,,
47593455,1752,1751,1752,1752,,,,,
47595954,1748,1748,1748,1748,,,,,
47598453,1745,1745,1745,1745,,,,,
47600952,1742,1741,1742,1742,,,,,
47603451,1738,1738,1738,1738,,,,,
47605950,1735,1735,1735,1735,,,,,
47608449,1732,1732,1732,1732,,,,,
47610948,1729,1728,1729,1729,,,,,
47613447,1726,1725,1726,1725,,,,,
47615946,1723,1722,1723,1722,,,,,
47618445,1719,1719,1720,1719,,,,,
47620944,1716,1716,1717,1716,,,,,
47623443,1713,1713,1714,1713,,,,,
47625942,1711,1710,1711,1710,,,,,
