TimeUS,M1,M2,M3,M4,TimeUS,C1,C2,C3,C4
1105928285,1000,1000,1000,1000,1105968269,1000,1000,1000,1000
1105930784,1000,1000,1000,1000,1106068229,1000,1000,1000,1000
1105933283,1000,1000,1000,1000,1106168189,1000,1000,1000,1000
1105935782,1000,1000,1000,1000,1106268982,1000,1000,1000,1000
1105938281,1000,1000,1000,1000,1106368942,1000,1000,1000,1000
1105940780,1000,1000,1000,1000,1106468902,1000,1000,1000,1000
1105943279,1000,1000,1000,1000,1106568862,1000,1000,1000,1000
1105945778,1000,1000,1000,1000,1106668822,1000,1000,1000,1000
1105948277,1000,1000,1000,1000,1106768782,1000,1000,1000,1000
1105950776,1000,1000,1000,1000,1106868742,1000,1000,1000,1000
1105953275,1000,1000,1000,1000,1106968702,1000,1000,1000,1000
1105955774,1000,1000,1000,1000,1107068662,1000,1000,1000,1000
1105958273,1000,1000,1000,1000,1107168622,1000,1000,1000,1000
1105960772,1000,1000,1000,1000,1107268582,1000,1000,1000,1000
1105963271,1000,1000,1000,1000,1107368542,1000,1000,1000,1000
1105965770,1000,1000,1000,1000,1107468502,1000,1000,1000,1000
1105968269,1000,1000,1000,1000,1107568462,1000,1000,1000,1000
1105970768,1000,1000,1000,1000,1107668422,1000,1000,1000,1000
1105973267,1000,1000,1000,1000,1107768382,1000,1000,1000,1000
1105975766,1000,1000,1000,1000,1107868342,1000,1000,1000,1000
1105978265,1000,1000,1000,1000,1107968302,1012,1012,1012,1012
1105980764,1000,1000,1000,1000,1108068262,1042,1042,1042,1042
1105983263,1000,1000,1000,1000,1108168222,1072,1072,1072,1072
1105985762,1000,1000,1000,1000,1108268182,1101,1101,1101,1101
1105988261,1000,1000,1000,1000,1108368975,1131,1131,1131,1131
1105990760,1000,1000,1000,1000,1108468935,1248,1272,1270,1246
1105993259,1000,1000,1000,1000,1108568895,1465,1484,1483,1464
1105995758,1000,1000,1000,1000,1108668855,1631,1648,1646,1630
1105998257,1000,1000,1000,1000,1108768815,1772,1784,1783,1771
1106000756,1000,1000,1000,1000,1108868775,1893,1907,1904,1893
1106003255,1000,1000,1000,1000,1108968735,1877,1886,1883,1878
1106005754,1000,1000,1000,1000,1109068695,1752,1754,1751,1752
1106008253,1000,1000,1000,1000,1109168655,1649,1644,1643,1648
1106010752,1000,1000,1000,1000,1109268615,1611,1605,1604,1610
1106013251,1000,1000,1000,1000,1109368575,1613,1607,1607,1612
1106015750,1000,1000,1000,1000,1109468535,1617,1613,1614,1616
1106018249,1000,1000,1000,1000,1109568495,1615,1615,1615,1615
1106020748,1000,1000,1000,1000,1109668455,1609,1611,1612,1610
1106023247,1000,1000,1000,1000,1109768415,1603,1606,1607,1605
1106025746,1000,1000,1000,1000,1109868375,1604,1606,1607,1605
1106028245,1000,1000,1000,1000,1109968335,1608,1609,1610,1609
1106030744,1000,1000,1000,1000,1110068295,1610,1611,1612,1611
1106033243,1000,1000,1000,1000,1110168255,1615,1615,1616,1615
1106035742,1000,1000,1000,1000,1110268215,1618,1617,1619,1617
1106038241,1000,1000,1000,1000,1110368175,1606,1605,1607,1604
1106040740,1000,1000,1000,1000,1110468968,1582,1579,1586,1574
1106043239,1000,1000,1000,1000,1110568928,1569,1568,1572,1565
1106045738,1000,1000,1000,1000,1110668888,1559,1559,1558,1559
1106048237,1000,1000,1000,1000,1110768848,1550,1551,1543,1557
1106050736,1000,1000,1000,1000,1110868808,1542,1543,1535,1550
1106053235,1000,1000,1000,1000,1110968768,1535,1536,1530,1541
1106055734,1000,1000,1000,1000,1111068728,1530,1530,1528,1533
1106058233,1000,1000,1000,1000,1111168688,1529,1529,1530,1529
1106060732,1000,1000,1000,1000,1111268648,1529,1530,1531,1528
1106063231,1000,1000,1000,1000,1111368608,1533,1532,1536,1530
1106065730,1000,1000,1000,1000,1111468568,1536,1536,1539,1533
1106068229,1000,1000,1000,1000,1111568528,1539,1540,1542,1536
1106070728,1000,1000,1000,1000,1111668488,1543,1543,1543,1541
1106073227,1000,1000,1000,1000,1111768448,1546,1546,1546,1545
1106075726,1000,1000,1000,1000,1111868408,1548,1548,1547,1548
1106078225,1000,1000,1000,1000,1111968368,1550,1545,1553,1556
1106080724,1000,1000,1000,1000,1112068328,1527,1527,1576,1579
1106083223,1000,1000,1000,1000,1112168288,1532,1534,1577,1580
1106085722,1000,1000,1000,1000,1112268248,1544,1547,1569,1571
1106088221,1000,1000,1000,1000,1112368208,1558,1560,1561,1562
1106090720,1000,1000,1000,1000,1112468168,1569,1571,1556,1554
1106093219,1000,1000,1000,1000,1112568961,1578,1577,1551,1549
1106095718,1000,1000,1000,1000,1112668921,1584,1582,1550,1550
1106098217,1000,1000,1000,1000,1112768881,1588,1584,1551,1551
1106100716,1000,1000,1000,1000,1112868841,1586,1584,1554,1554
1106103215,1000,1000,1000,1000,1112968801,1583,1582,1558,1558
1106105714,1000,1000,1000,1000,1113068761,1579,1578,1562,1562
1106108213,1000,1000,1000,1000,1113168721,1574,1574,1566,1567
1106110712,1000,1000,1000,1000,1113268681,1570,1571,1571,1571
1106113211,1000,1000,1000,1000,1113368641,1568,1568,1576,1575
1106115710,1000,1000,1000,1000,1113468601,1567,1567,1580,1579
1106118209,1000,1000,1000,1000,1113568561,1565,1566,1581,1580
1106120708,1000,1000,1000,1000,1113668521,1565,1566,1582,1581
1106123207,1000,1000,1000,1000,1113768481,1566,1567,1582,1582
1106125706,1000,1000,1000,1000,1113868441,1568,1569,1581,1581
1106128205,1000,1000,1000,1000,1113968401,1571,1571,1580,1580
1106130704,1000,1000,1000,1000,1114068361,1573,1573,1578,1578
1106133203,1000,1000,1000,1000,1114168321,1575,1575,1576,1576
1106135702,1000,1000,1000,1000,1114268281,1577,1576,1575,1575
1106138201,1000,1000,1000,1000,1114368241,1579,1578,1575,1575
1106140700,1000,1000,1000,1000,1114468201,1580,1579,1574,1574
1106143199,1000,1000,1000,1000,1114568161,1580,1579,1573,1573
1106145698,1000,1000,1000,1000,1114668954,1580,1579,1573,1573
1106148197,1000,1000,1000,1000,1114768914,1580,1580,1574,1574
1106150696,1000,1000,1000,1000,1114868874,1579,1579,1575,1575
1106153195,1000,1000,1000,1000,1114968834,1579,1579,1577,1576
1106155694,1000,1000,1000,1000,1115068794,1578,1578,1577,1577
1106158193,1000,1000,1000,1000,1115168754,1577,1578,1578,1577
1106160692,1000,1000,1000,1000,1115268714,1577,1578,1579,1578
1106163191,1000,1000,1000,1000,1115368674,1577,1577,1579,1579
1106165690,1000,1000,1000,1000,1115468634,1577,1577,1579,1579
1106168189,1000,1000,1000,1000,1115568594,1576,1576,1578,1579
1106170688,1000,1000,1000,1000,1115668554,1577,1577,1579,1579
1106173187,1000,1000,1000,1000,1115768514,1577,1577,1578,1579
1106175686,1000,1000,1000,1000,1115868474,1577,1578,1579,1579
1106178185,1000,1000,1000,1000,1115968434,1578,1578,1578,1578
1106180684,1000,1000,1000,1000,1116068394,1579,1579,1579,1579
1106183183,1000,1000,1000,1000,1116168354,1580,1579,1579,1579
1106185682,1000,1000,1000,1000,1116268314,1581,1581,1580,1580
1106188181,1000,1000,1000,1000,1116368274,1580,1580,1579,1579
1106190680,1000,1000,1000,1000,1116468234,1581,1581,1579,1579
1106193179,1000,1000,1000,1000,1116568194,1580,1580,1579,1579
1106195678,1000,1000,1000,1000,1116668154,1580,1580,1579,1579
1106198177,1000,1000,1000,1000,1116768947,1581,1580,1580,1580
1106200676,1000,1000,1000,1000,1116868907,1581,1581,1580,1580
1106203175,1000,1000,1000,1000,1116968867,1580,1580,1580,1580
1106205674,1000,1000,1000,1000,1117068827,1579,1580,1580,1580
1106208173,1000,1000,1000,1000,1117168787,1580,1580,1580,1581
1106210672,1000,1000,1000,1000,1117268747,1580,1580,1581,1581
1106213171,1000,1000,1000,1000,1117368707,1580,1580,1581,1580
1106215670,1000,1000,1000,1000,1117468667,1581,1580,1581,1581
1106218169,1000,1000,1000,1000,1117568627,1580,1579,1579,1580
1106220668,1000,1000,1000,1000,1117668587,1581,1581,1581,1582
1106223167,1000,1000,1000,1000,1117768547,1581,1581,1581,1580
1106225666,1000,1000,1000,1000,1117868507,1581,1580,1581,1580
1106228165,1000,1000,1000,1000,1117968467,1581,1581,1581,1581
1106230664,1000,1000,1000,1000,1118068427,1581,1581,1581,1581
1106233163,1000,1000,1000,1000,1118168387,1582,1582,1581,1581
1106235662,1000,1000,1000,1000,1118268347,1581,1581,1584,1577
1106238161,1000,1000,1000,1000,1118368307,1581,1581,1588,1574
1106240660,1000,1000,1000,1000,1118468267,1579,1581,1581,1573
1106243159,1000,1000,1000,1000,1118568227,1577,1580,1573,1574
1106245658,1000,1000,1000,1000,1118668187,1576,1579,1566,1572
1106248157,1000,1000,1000,1000,1118768980,1575,1577,1560,1567
1106250656,1000,1000,1000,1000,1118868940,1576,1575,1558,1563
1106253155,1000,1000,1000,1000,1118968900,1576,1574,1558,1559
1106255654,1000,1000,1000,1000,1119068860,1576,1574,1558,1557
1106258986,1000,1000,1000,1000,1119168820,1575,1574,1558,1556
1106261485,1000,1000,1000,1000,1119268780,1573,1574,1559,1556
1106263984,1000,1000,1000,1000,1119368740,1573,1574,1558,1556
1106266483,1000,1000,1000,1000,1119468700,1571,1573,1556,1555
1106268982,1000,1000,1000,1000,1119568660,1570,1572,1554,1555
1106271481,1000,1000,1000,1000,1119668620,1570,1571,1553,1554
1106273980,1000,1000,1000,1000,1119768580,1571,1572,1552,1552
1106276479,1000,1000,1000,1000,1119868540,1573,1573,1551,1551
1106278978,1000,1000,1000,1000,1119968500,1574,1575,1549,1549
1106281477,1000,1000,1000,1000,1120068460,1577,1577,1547,1547
1106283976,1000,1000,1000,1000,1120168420,1579,1580,1545,1544
1106286475,1000,1000,1000,1000,1120268380,1582,1583,1542,1541
1106288974,1000,1000,1000,1000,1120368340,1584,1585,1538,1539
1106291473,1000,1000,1000,1000,1120468300,1588,1588,1536,1536
1106293972,1000,1000,1000,1000,1120568260,1590,1591,1534,1534
1106296471,1000,1000,1000,1000,1120668220,1593,1593,1533,1534
1106298970,1000,1000,1000,1000,1120768180,1594,1593,1533,1534
1106301469,1000,1000,1000,1000,1120868973,1593,1592,1534,1535
1106303968,1000,1000,1000,1000,1120968933,1591,1590,1538,1539
1106306467,1000,1000,1000,1000,1121068893,1587,1587,1541,1544
1106308966,1000,1000,1000,1000,1121168853,1583,1582,1548,1552
1106311465,1000,1000,1000,1000,1121268813,1575,1574,1555,1558
1106313964,1000,1000,1000,1000,1121368773,1568,1565,1566,1568
1106316463,1000,1000,1000,1000,1121468733,1558,1554,1577,1579
1106318962,1000,1000,1000,1000,1121568693,1549,1545,1589,1590
1106321461,1000,1000,1000,1000,1121668653,1540,1538,1600,1599
1106323960,1000,1000,1000,1000,1121768613,1533,1532,1607,1606
1106326459,1000,1000,1000,1000,1121868573,1530,1530,1612,1610
1106328958,1000,1000,1000,1000,1121968533,1530,1532,1613,1612
1106331457,1000,1000,1000,1000,1122068493,1534,1536,1611,1611
1106333956,1000,1000,1000,1000,1122168453,1539,1541,1605,1606
1106336455,1000,1000,1000,1000,1122268413,1547,1548,1599,1600
1106338954,1000,1000,1000,1000,1122368373,1557,1557,1593,1594
1106341453,1000,1000,1000,1000,1122468333,1565,1566,1586,1586
1106343952,1000,1000,1000,1000,1122568293,1574,1573,1581,1580
1106346451,1000,1000,1000,1000,1122668253,1579,1578,1575,1574
1106348950,1000,1000,1000,1000,1122768213,1584,1583,1571,1570
1106351449,1000,1000,1000,1000,1122868173,1587,1585,1568,1568
1106353948,1000,1000,1000,1000,1122968966,1588,1587,1568,1568
1106356447,1000,1000,1000,1000,1123068926,1586,1585,1568,1568
1106358946,1000,1000,1000,1000,1123168886,1585,1585,1570,1570
1106361445,1000,1000,1000,1000,1123268846,1583,1583,1573,1573
1106363944,1000,1000,1000,1000,1123368806,1581,1581,1575,1576
1106366443,1000,1000,1000,1000,1123468766,1578,1579,1578,1578
1106368942,1000,1000,1000,1000,1123568726,1576,1577,1580,1580
1106371441,1000,1000,1000,1000,1123668686,1575,1576,1583,1583
1106373940,1000,1000,1000,1000,1123768646,1574,1575,1584,1584
1106376439,1000,1000,1000,1000,1123868606,1573,1574,1584,1583
1106378938,1000,1000,1000,1000,1123968566,1575,1574,1584,1584
1106381437,1000,1000,1000,1000,1124068526,1576,1576,1584,1584
1106383936,1000,1000,1000,1000,1124168486,1258,1259,1620,1625
1106386435,1000,1000,1000,1000,1124268446,1359,1367,1660,1668
1106388934,1000,1000,1000,1000,1124368406,1434,1445,1652,1650
1106391433,1000,1000,1000,1000,1124468366,1498,1508,1639,1630
1106393932,1000,1000,1000,1000,1124568326,1550,1553,1631,1619
1106396431,1000,1000,1000,1000,1124668286,1584,1569,1605,1594
1106398930,1000,1000,1000,1000,1124768246,1584,1565,1527,1530
1106401429,1000,1000,1000,1000,1124868206,1584,1570,1465,1480
1106403928,1000,1000,1000,1000,1124968166,1584,1581,1469,1484
1106406427,1000,1000,1000,1000,1125068959,1577,1584,1486,1492
1106408926,1000,1000,1000,1000,1125168919,1573,1584,1506,1504
1106411425,1000,1000,1000,1000,1125268879,1575,1584,1526,1520
1106413924,1000,1000,1000,1000,1125368839,1580,1584,1542,1537
1106416423,1000,1000,1000,1000,1125468799,1584,1583,1552,1549
1106418922,1000,1000,1000,1000,1125568759,1584,1580,1554,1555
1106421421,1000,1000,1000,1000,1125668719,1584,1580,1557,1560
1106423920,1000,1000,1000,1000,1125768679,1584,1577,1562,1557
1106426419,1000,1000,1000,1000,1125868639,1584,1576,1566,1563
1106428918,1000,1000,1000,1000,1125968599,1584,1578,1569,1569
1106431417,1000,1000,1000,1000,1126068559,1584,1576,1565,1571
1106433916,1000,1000,1000,1000,1126168519,1584,1580,1567,1573
1106436415,1000,1000,1000,1000,1126268479,1582,1584,1570,1573
1106438914,1000,1000,1000,1000,1126368439,1579,1584,1571,1570
1106441413,1000,1000,1000,1000,1126468399,1577,1584,1568,1570
1106443912,1000,1000,1000,1000,1126568359,1577,1584,1569,1569
1106446411,1000,1000,1000,1000,1126668319,1579,1584,1572,1569
1106448910,1000,1000,1000,1000,1126768279,1581,1584,1573,1570
1106451409,1000,1000,1000,1000,1126868239,1583,1584,1574,1571
1106453908,1000,1000,1000,1000,1126968199,1584,1583,1572,1571
1106456407,1000,1000,1000,1000,1127068159,1584,1583,1570,1571
1106458906,1000,1000,1000,1000,1127168952,1584,1583,1570,1570
1106461405,1000,1000,1000,1000,1127268912,1583,1584,1570,1570
1106463904,1000,1000,1000,1000,1127368872,1582,1584,1570,1569
1106466403,1000,1000,1000,1000,1127468832,1582,1584,1570,1568
1106468902,1000,1000,1000,1000,1127568792,1583,1584,1571,1569
1106471401,1000,1000,1000,1000,1127668752,1583,1584,1570,1569
1106473900,1000,1000,1000,1000,1127768712,1583,1584,1571,1568
1106476399,1000,1000,1000,1000,1127868672,1583,1584,1570,1568
1106478898,1000,1000,1000,1000,1127968632,1583,1584,1570,1567
1106481397,1000,1000,1000,1000,1128068592,1584,1583,1569,1567
1106483896,1000,1000,1000,1000,1128168552,1584,1581,1566,1566
1106486395,1000,1000,1000,1000,1128268512,1584,1574,1557,1563
1106488894,1000,1000,1000,1000,1128368472,1584,1577,1557,1565
1106491393,1000,1000,1000,1000,1128468432,1584,1583,1563,1568
1106493892,1000,1000,1000,1000,1128568392,1582,1584,1568,1563
1106496391,1000,1000,1000,1000,1128668352,1583,1584,1571,1564
1106498890,1000,1000,1000,1000,1128768312,1584,1582,1570,1564
1106501389,1000,1000,1000,1000,1128868272,1584,1581,1567,1564
1106503888,1000,1000,1000,1000,1128968232,1584,1581,1565,1564
1106506387,1000,1000,1000,1000,1129068192,1584,1582,1564,1564
1106508886,1000,1000,1000,1000,1129168985,1584,1582,1564,1563
1106511385,1000,1000,1000,1000,1129268945,1583,1584,1564,1563
1106513884,1000,1000,1000,1000,1129368905,1583,1584,1564,1561
1106516383,1000,1000,1000,1000,1129468865,1583,1584,1564,1561
1106518882,1000,1000,1000,1000,1129568825,1584,1583,1563,1561
1106521381,1000,1000,1000,1000,1129668785,1584,1583,1562,1562
1106523880,1000,1000,1000,1000,1129768745,1582,1584,1561,1563
1106526379,1000,1000,1000,1000,1129868705,1580,1584,1559,1562
1106528878,1000,1000,1000,1000,1129968665,1577,1584,1559,1561
1106531377,1000,1000,1000,1000,1130068625,1576,1584,1560,1561
1106533876,1000,1000,1000,1000,1130168585,1578,1584,1562,1563
1106536375,1000,1000,1000,1000,1130268545,1580,1584,1563,1565
1106538874,1000,1000,1000,1000,1130368505,1582,1584,1564,1565
1106541373,1000,1000,1000,1000,1130468465,1583,1584,1564,1565
1106543872,1000,1000,1000,1000,1130568425,1583,1584,1563,1564
1106546371,1000,1000,1000,1000,1130668385,1583,1584,1561,1563
1106548870,1000,1000,1000,1000,1130768345,1583,1584,1565,1570
1106551369,1000,1000,1000,1000,1130868305,1583,1584,1601,1606
1106553868,1000,1000,1000,1000,1130968265,1584,1583,1619,1614
1106556367,1000,1000,1000,1000,1131068225,1584,1582,1565,1562
1106558866,1000,1000,1000,1000,1131168185,1584,1582,1540,1541
1106561365,1000,1000,1000,1000,1131268978,1584,1582,1537,1540
1106563864,1000,1000,1000,1000,1131368938,1584,1583,1541,1544
1106566363,1000,1000,1000,1000,1131468898,1584,1583,1546,1547
1106568862,1000,1000,1000,1000,1131568858,1584,1583,1550,1550
1106571361,1000,1000,1000,1000,1131668818,1583,1584,1553,1553
1106573860,1000,1000,1000,1000,1131768778,1584,1583,1556,1555
1106576359,1000,1000,1000,1000,1131868738,1581,1584,1554,1557
1106578858,1000,1000,1000,1000,1131968698,1581,1584,1554,1557
1106581357,1000,1000,1000,1000,1132068658,1581,1584,1557,1555
1106583856,1000,1000,1000,1000,1132168618,1584,1583,1563,1556
1106586355,1000,1000,1000,1000,1132268578,1584,1582,1562,1557
1106588854,1000,1000,1000,1000,1132368538,1584,1580,1560,1558
1106591353,1000,1000,1000,1000,1132468498,1584,1581,1559,1560
1106593852,1000,1000,1000,1000,1132568458,1584,1581,1559,1561
1106596351,1000,1000,1000,1000,1132668418,1584,1580,1561,1563
1106598850,1000,1000,1000,1000,1132768378,1584,1579,1603,1605
1106601349,1000,1000,1000,1000,1132868338,1572,1568,1632,1633
1106603848,1000,1000,1000,1000,1132968298,1551,1550,1629,1633
1106606347,1000,1000,1000,1000,1133068258,1539,1542,1625,1630
1106608846,1000,1000,1000,1000,1133168218,1533,1539,1620,1623
1106611345,1000,1000,1000,1000,1133268178,1532,1539,1616,1614
1106613844,1000,1000,1000,1000,1133368971,1534,1540,1610,1607
1106616343,1000,1000,1000,1000,1133468931,1539,1543,1603,1599
1106618842,1000,1000,1000,1000,1133568891,1546,1547,1596,1593
1106621341,1000,1000,1000,1000,1133668851,1552,1551,1588,1585
1106623840,1000,1000,1000,1000,1133768811,1559,1556,1580,1579
1106626339,1000,1000,1000,1000,1133868771,1564,1561,1573,1574
1106628838,1000,1000,1000,1000,1133968731,1570,1568,1571,1572
1106631337,1000,1000,1000,1000,1134068691,1574,1573,1569,1569
1106633836,1000,1000,1000,1000,1134168651,1577,1576,1566,1567
1106636335,1000,1000,1000,1000,1134268611,1580,1579,1566,1566
1106638834,1000,1000,1000,1000,1134368571,1582,1581,1566,1566
1106641333,1000,1000,1000,1000,1134468531,1583,1584,1567,1567
1106643832,1000,1000,1000,1000,1134568491,1584,1583,1567,1565
1106646331,1000,1000,1000,1000,1134668451,1584,1583,1568,1566
1106648830,1000,1000,1000,1000,1134768411,1584,1583,1568,1567
1106651329,1000,1000,1000,1000,1134868371,1584,1583,1569,1569
1106653828,1000,1000,1000,1000,1134968331,1584,1583,1570,1571
1106656327,1000,1000,1000,1000,1135068291,1584,1583,1572,1573
1106658826,1000,1000,1000,1000,1135168251,1583,1584,1575,1576
1106661325,1000,1000,1000,1000,1135268211,1583,1584,1576,1577
1106663824,1000,1000,1000,1000,1135368171,1583,1584,1578,1579
1106666323,1000,1000,1000,1000,1135468964,1583,1583,1580,1579
1106668822,1000,1000,1000,1000,1135568924,1582,1582,1579,1580
1106671321,1000,1000,1000,1000,1135668884,1580,1581,1578,1579
1106673820,1000,1000,1000,1000,1135768844,1579,1580,1577,1578
1106676319,1000,1000,1000,1000,1135868804,1578,1579,1578,1578
1106678818,1000,1000,1000,1000,1135968764,1579,1579,1579,1579
1106681317,1000,1000,1000,1000,1136068724,1579,1579,1580,1579
1106683816,1000,1000,1000,1000,1136168684,1578,1578,1579,1579
1106686315,1000,1000,1000,1000,1136268644,1578,1578,1580,1579
1106688814,1000,1000,1000,1000,1136368604,1578,1578,1580,1579
1106691313,1000,1000,1000,1000,1136468564,1579,1578,1580,1580
1106693812,1000,1000,1000,1000,1136568524,1578,1578,1580,1580
1106696311,1000,1000,1000,1000,1136668484,1579,1579,1580,1580
1106698810,1000,1000,1000,1000,1136768444,1578,1579,1580,1579
1106701309,1000,1000,1000,1000,1136868404,1579,1579,1580,1580
1106703808,1000,1000,1000,1000,1136968364,1580,1580,1581,1581
1106706307,1000,1000,1000,1000,1137068324,1580,1580,1581,1581
1106708806,1000,1000,1000,1000,1137168284,1580,1580,1580,1581
1106711305,1000,1000,1000,1000,1137268244,1581,1581,1581,1582
1106713804,1000,1000,1000,1000,1137368204,1580,1581,1580,1580
1106716303,1000,1000,1000,1000,1137468164,1581,1581,1581,1580
1106718802,1000,1000,1000,1000,1137568957,1582,1581,1581,1580
1106721301,1000,1000,1000,1000,1137668917,1582,1581,1581,1580
1106723800,1000,1000,1000,1000,1137768877,1582,1580,1587,1573
1106726299,1000,1000,1000,1000,1137868837,1581,1580,1583,1573
1106728798,1000,1000,1000,1000,1137968797,1579,1578,1574,1573
1106731297,1000,1000,1000,1000,1138068757,1576,1578,1567,1572
1106733796,1000,1000,1000,1000,1138168717,1574,1577,1562,1568
1106736295,1000,1000,1000,1000,1138268677,1573,1576,1560,1564
1106738794,1000,1000,1000,1000,1138368637,1573,1575,1560,1561
1106741293,1000,1000,1000,1000,1138468597,1573,1574,1560,1559
1106743792,1000,1000,1000,1000,1138568557,1573,1573,1560,1558
1106746291,1000,1000,1000,1000,1138668517,1574,1573,1560,1558
1106748790,1000,1000,1000,1000,1138768477,1573,1573,1559,1558
1106751289,1000,1000,1000,1000,1138868437,1572,1572,1557,1557
1106753788,1000,1000,1000,1000,1138968397,1572,1572,1557,1556
1106756287,1000,1000,1000,1000,1139068357,1571,1572,1555,1555
1106758786,1000,1000,1000,1000,1139168317,1571,1573,1554,1554
1106761285,1000,1000,1000,1000,1139268277,1571,1573,1552,1552
1106763784,1000,1000,1000,1000,1139368237,1572,1574,1551,1550
1106766283,1000,1000,1000,1000,1139468197,1572,1574,1548,1547
1106768782,1000,1000,1000,1000,1139568157,1575,1575,1547,1546
1106771281,1000,1000,1000,1000,1139668950,1576,1577,1545,1545
1106773780,1000,1000,1000,1000,1139768910,1578,1579,1542,1542
1106776279,1000,1000,1000,1000,1139868870,1580,1581,1541,1540
1106778778,1000,1000,1000,1000,1139968830,1583,1584,1539,1539
1106781277,1000,1000,1000,1000,1140068790,1583,1584,1534,1534
1106783776,1000,1000,1000,1000,1140168750,1584,1583,1530,1531
1106786275,1000,1000,1000,1000,1140268710,1584,1583,1528,1529
1106788774,1000,1000,1000,1000,1140368670,1584,1583,1529,1530
1106791273,1000,1000,1000,1000,1140468630,1584,1583,1533,1535
1106793772,1000,1000,1000,1000,1140568590,1584,1583,1539,1542
1106796271,1000,1000,1000,1000,1140668550,1584,1583,1548,1551
1106798770,1000,1000,1000,1000,1140768510,1584,1582,1558,1562
1106801269,1000,1000,1000,1000,1140868470,1584,1582,1572,1574
1106803768,1000,1000,1000,1000,1140968430,1577,1576,1578,1580
1106806267,1000,1000,1000,1000,1141068390,1569,1567,1582,1584
1106808766,1000,1000,1000,1000,1141168350,1560,1558,1588,1589
1106811265,1000,1000,1000,1000,1141268310,1551,1549,1595,1596
1106813764,1000,1000,1000,1000,1141368270,1542,1541,1601,1601
1106816263,1000,1000,1000,1000,1141468230,1536,1536,1605,1605
1106818762,1000,1000,1000,1000,1141568190,1532,1533,1608,1607
1106821261,1000,1000,1000,1000,1141668983,1532,1532,1607,1606
1106823760,1000,1000,1000,1000,1141768943,1533,1535,1604,1603
1106826259,1000,1000,1000,1000,1141868903,1537,1539,1599,1599
1106828758,1000,1000,1000,1000,1141968863,1544,1546,1593,1593
1106831257,1000,1000,1000,1000,1142068823,1552,1553,1587,1588
1106833756,1000,1000,1000,1000,1142168783,1560,1561,1582,1581
1106836255,1000,1000,1000,1000,1142268743,1568,1567,1577,1575
1106838754,1000,1000,1000,1000,1142368703,1575,1574,1573,1572
1106841253,1000,1000,1000,1000,1142468663,1582,1580,1570,1569
1106843752,1000,1000,1000,1000,1142568623,1584,1582,1565,1564
1106846251,1000,1000,1000,1000,1142668583,1584,1582,1561,1560
1106848750,1000,1000,1000,1000,1142768543,1584,1582,1561,1560
1106851249,1000,1000,1000,1000,1142868503,1584,1583,1564,1563
1106853748,1000,1000,1000,1000,1142968463,1584,1583,1568,1568
1106856247,1000,1000,1000,1000,1143068423,1583,1584,1572,1572
1106858746,1000,1000,1000,1000,1143168383,1584,1583,1577,1577
1106861245,1000,1000,1000,1000,1143268343,1584,1583,1581,1582
1106863744,1000,1000,1000,1000,1143368303,1584,1583,1586,1586
1106866243,1000,1000,1000,1000,1143468263,1583,1584,1589,1589
1106868742,1000,1000,1000,1000,1143568223,1580,1580,1586,1587
1106871241,1000,1000,1000,1000,1143668183,1577,1578,1584,1585
1106873740,1000,1000,1000,1000,1143768976,1576,1576,1582,1584
1106876239,1000,1000,1000,1000,1143868936,1575,1576,1582,1583
1106878738,1000,1000,1000,1000,1143968896,1574,1575,1581,1580
1106881237,1000,1000,1000,1000,1144068856,1575,1575,1580,1579
1106883736,1000,1000,1000,1000,1144168816,1576,1576,1580,1579
1106886235,1000,1000,1000,1000,1144268776,1578,1577,1580,1579
1106888734,1000,1000,1000,1000,1144368736,1578,1578,1578,1578
1106891233,1000,1000,1000,1000,1144468696,1579,1578,1578,1577
1106893732,1000,1000,1000,1000,1144568656,1579,1578,1576,1576
1106896231,1000,1000,1000,1000,1144668616,1579,1579,1576,1576
1106898730,1000,1000,1000,1000,1144768576,1580,1580,1577,1577
1106901229,1000,1000,1000,1000,1144868536,1580,1580,1576,1577
1106903728,1000,1000,1000,1000,1144968496,1581,1581,1578,1578
1106906227,1000,1000,1000,1000,1145068456,1580,1581,1578,1578
1106908726,1000,1000,1000,1000,1145168416,1581,1581,1579,1578
1106911225,1000,1000,1000,1000,1145268376,1581,1581,1580,1579
1106913724,1000,1000,1000,1000,1145368336,1581,1581,1579,1579
1106916223,1000,1000,1000,1000,1145468296,1581,1581,1581,1581
1106918722,1000,1000,1000,1000,1145568256,1581,1581,1581,1581
1106921221,1000,1000,1000,1000,1145668216,1582,1581,1582,1582
1106923720,1000,1000,1000,1000,1145768176,1581,1581,1582,1582
1106926219,1000,1000,1000,1000,1145868969,1581,1581,1581,1581
1106928718,1000,1000,1000,1000,1145968929,1581,1581,1582,1582
1106931217,1000,1000,1000,1000,1146068889,1581,1581,1581,1582
1106933716,1000,1000,1000,1000,1146168849,1581,1581,1581,1581
1106936215,1000,1000,1000,1000,1146268809,1581,1581,1586,1576
1106938714,1000,1000,1000,1000,1146368769,1581,1579,1586,1572
1106941213,1000,1000,1000,1000,1146468729,1580,1577,1579,1574
1106943712,1000,1000,1000,1000,1146568689,1577,1575,1571,1574
1106946211,1000,1000,1000,1000,1146668649,1573,1573,1566,1572
1106948710,1000,1000,1000,1000,1146768609,1570,1571,1564,1570
1106951209,1000,1000,1000,1000,1146868569,1568,1569,1564,1568
1106953708,1000,1000,1000,1000,1146968529,1566,1568,1565,1567
1106956207,1000,1000,1000,1000,1147068489,1565,1566,1566,1565
1106958706,1000,1000,1000,1000,1147168449,1565,1565,1568,1566
1106961205,1000,1000,1000,1000,1147268409,1564,1565,1568,1566
1106963704,1000,1000,1000,1000,1147368369,1563,1563,1566,1565
1106966203,1000,1000,1000,1000,1147468329,1563,1562,1566,1565
1106968702,1000,1000,1000,1000,1147568289,1562,1562,1565,1565
1106971201,1000,1000,1000,1000,1147668249,1561,1561,1562,1563
1106973700,1000,1000,1000,1000,1147768209,1561,1560,1561,1562
1106976199,1000,1000,1000,1000,1147868169,1560,1560,1561,1561
1106978698,1000,1000,1000,1000,1147968962,1560,1560,1561,1561
1106981197,1000,1000,1000,1000,1148068922,1560,1561,1561,1560
1106983696,1000,1000,1000,1000,1148168882,1560,1560,1560,1559
1106986195,1000,1000,1000,1000,1148268842,1560,1560,1559,1559
1106988694,1000,1000,1000,1000,1148368802,1559,1560,1559,1558
1106991193,1000,1000,1000,1000,1148468762,1559,1559,1559,1558
1106993692,1000,1000,1000,1000,1148568722,1559,1559,1559,1558
1106996191,1000,1000,1000,1000,1148668682,1559,1559,1559,1558
1106998690,1000,1000,1000,1000,1148768642,1559,1559,1559,1558
1107001189,1000,1000,1000,1000,1148868602,1558,1558,1559,1557
1107003688,1000,1000,1000,1000,1148968562,1559,1559,1559,1558
1107006187,1000,1000,1000,1000,1149068522,1558,1558,1559,1558
1107008686,1000,1000,1000,1000,1149168482,1558,1558,1559,1557
1107011185,1000,1000,1000,1000,1149268442,1558,1559,1559,1559
1107013684,1000,1000,1000,1000,1149368402,1559,1559,1558,1561
1107016183,1000,1000,1000,1000,1149408386,1559,1559,1557,1562
1107018682,1000,1000,1000,1000,1149508346,1559,1559,1558,1562
1107021181,1000,1000,1000,1000,1149608306,1557,1557,1556,1559
1107023680,1000,1000,1000,1000,1149708266,1556,1557,1556,1557
1107026179,1000,1000,1000,1000,1149808226,1556,1557,1554,1559
1107028678,1000,1000,1000,1000,1149908186,1554,1554,1552,1555
1107031177,1000,1000,1000,1000,1150008979,1551,1551,1548,1549
1107033676,1000,1000,1000,1000,1150108939,1547,1547,1543,1543
1107036175,1000,1000,1000,1000,1150208899,1541,1542,1537,1536
1107038674,1000,1000,1000,1000,1150308859,1536,1535,1530,1529
1107041173,1000,1000,1000,1000,1150408819,1529,1529,1523,1523
1107043672,1000,1000,1000,1000,1150508779,1524,1524,1519,1518
1107046171,1000,1000,1000,1000,1150608739,1522,1522,1519,1519
1107048670,1000,1000,1000,1000,1150708699,1520,1520,1520,1520
1107051169,1000,1000,1000,1000,1150808659,1521,1520,1523,1524
1107053668,1000,1000,1000,1000,1150908619,1521,1521,1527,1528
1107056167,1000,1000,1000,1000,1151008579,1525,1525,1532,1533
1107058666,1000,1000,1000,1000,1151108539,1529,1528,1538,1538
1107061165,1000,1000,1000,1000,1151208499,1533,1532,1542,1543
1107063664,1000,1000,1000,1000,1151308459,1535,1535,1544,1544
1107066163,1000,1000,1000,1000,1151408419,1538,1538,1545,1545
1107068662,1000,1000,1000,1000,1151508379,1542,1541,1547,1546
1107071161,1000,1000,1000,1000,1151608339,1544,1544,1546,1546
1107073660,1000,1000,1000,1000,1151708299,1546,1547,1547,1546
1107076159,1000,1000,1000,1000,1151808259,1548,1548,1545,1546
1107078658,1000,1000,1000,1000,1151908219,1549,1550,1546,1545
1107081157,1000,1000,1000,1000,1152008179,1550,1550,1544,1545
1107083656,1000,1000,1000,1000,1152108972,1550,1551,1545,1544
1107086155,1000,1000,1000,1000,1152208932,1551,1550,1544,1545
1107088654,1000,1000,1000,1000,1152308892,1550,1550,1544,1544
1107091153,1000,1000,1000,1000,1152408852,1549,1549,1544,1544
1107093652,1000,1000,1000,1000,1152508812,1549,1549,1546,1545
1107096151,1000,1000,1000,1000,1152608772,1548,1547,1545,1545
1107098650,1000,1000,1000,1000,1152708732,1547,1547,1546,1545
1107101149,1000,1000,1000,1000,1152808692,1546,1546,1547,1547
1107103648,1000,1000,1000,1000,1152908652,1545,1546,1547,1546
1107106147,1000,1000,1000,1000,1153008612,1545,1545,1547,1548
1107108646,1000,1000,1000,1000,1153108572,1544,1545,1547,1546
1107111145,1000,1000,1000,1000,1153208532,1545,1544,1547,1547
1107113644,1000,1000,1000,1000,1153308492,1544,1544,1546,1546
1107116143,1000,1000,1000,1000,1153408452,1544,1544,1546,1546
1107118642,1000,1000,1000,1000,1153508412,1544,1544,1546,1545
1107121141,1000,1000,1000,1000,1153608372,1544,1544,1545,1545
1107123640,1000,1000,1000,1000,1153708332,1544,1544,1545,1544
1107126139,1000,1000,1000,1000,1153808292,1545,1544,1544,1545
1107128638,1000,1000,1000,1000,1153908252,1544,1545,1544,1544
1107131137,1000,1000,1000,1000,1154008212,1545,1544,1544,1544
1107133636,1000,1000,1000,1000,1154108172,1544,1545,1544,1544
1107136135,1000,1000,1000,1000,1154208965,1545,1545,1544,1544
1107138634,1000,1000,1000,1000,1154308925,1544,1545,1543,1543
1107141133,1000,1000,1000,1000,1154408885,1545,1544,1543,1544
1107143632,1000,1000,1000,1000,1154508845,1544,1544,1544,1543
1107146131,1000,1000,1000,1000,1154608805,1544,1544,1543,1543
1107148630,1000,1000,1000,1000,1154708765,1544,1545,1545,1544
1107151129,1000,1000,1000,1000,1154808725,1544,1544,1544,1544
1107153628,1000,1000,1000,1000,1154908685,1544,1544,1545,1544
1107156127,1000,1000,1000,1000,1155008645,1544,1544,1544,1545
1107158626,1000,1000,1000,1000,1155108605,1544,1544,1544,1544
1107161125,1000,1000,1000,1000,1155208565,1544,1543,1544,1544
1107163624,1000,1000,1000,1000,1155308525,1544,1544,1544,1544
1107166123,1000,1000,1000,1000,1155408485,1544,1543,1543,1544
1107168622,1000,1000,1000,1000,1155508445,1543,1544,1544,1544
1107171121,1000,1000,1000,1000,1155608405,1544,1544,1544,1545
1107173620,1000,1000,1000,1000,1155708365,1544,1544,1544,1544
1107176119,1000,1000,1000,1000,1155808325,1545,1544,1544,1545
1107178618,1000,1000,1000,1000,1155908285,1544,1545,1545,1544
1107181117,1000,1000,1000,1000,1156008245,1545,1544,1544,1544
1107183616,1000,1000,1000,1000,1156108205,1544,1545,1545,1544
1107186115,1000,1000,1000,1000,1156208165,1545,1545,1544,1544
1107188614,1000,1000,1000,1000,1156308958,1544,1545,1544,1544
1107191113,1000,1000,1000,1000,1156408918,1545,1544,1544,1544
1107193612,1000,1000,1000,1000,1156508878,1544,1544,1544,1543
1107196111,1000,1000,1000,1000,1156608838,1544,1544,1543,1544
1107198610,1000,1000,1000,1000,1156708798,1544,1544,1544,1543
1107201109,1000,1000,1000,1000,1156808758,1544,1545,1544,1544
1107203608,1000,1000,1000,1000,1156908718,1544,1544,1544,1544
1107206107,1000,1000,1000,1000,1157008678,1544,1544,1544,1544
1107208606,1000,1000,1000,1000,1157108638,1544,1544,1544,1544
1107211105,1000,1000,1000,1000,1157208598,1544,1543,1543,1544
1107213604,1000,1000,1000,1000,1157308558,1543,1544,1544,1543
1107216103,1000,1000,1000,1000,1157408518,1544,1544,1544,1544
1107218602,1000,1000,1000,1000,1157508478,1544,1544,1545,1544
1107221101,1000,1000,1000,1000,1157608438,1544,1544,1544,1544
1107223600,1000,1000,1000,1000,1157708398,1544,1544,1545,1544
1107226099,1000,1000,1000,1000,1157808358,1544,1544,1544,1544
1107228598,1000,1000,1000,1000,1157908318,1544,1545,1545,1545
1107231097,1000,1000,1000,1000,1158008278,1544,1544,1544,1544
1107233596,1000,1000,1000,1000,1158108238,1544,1545,1545,1545
1107236095,1000,1000,1000,1000,1158208198,1544,1543,1543,1543
1107238594,1000,1000,1000,1000,1158308158,1545,1545,1545,1545
1107241093,1000,1000,1000,1000,1158408951,1544,1544,1544,1544
1107243592,1000,1000,1000,1000,1158508911,1544,1544,1545,1544
1107246091,1000,1000,1000,1000,1158608871,1544,1544,1544,1544
1107248590,1000,1000,1000,1000,1158708831,1544,1544,1544,1544
1107251089,1000,1000,1000,1000,1158808791,1545,1545,1544,1545
1107253588,1000,1000,1000,1000,1158908751,1545,1545,1545,1544
1107256087,1000,1000,1000,1000,1159008711,1545,1544,1544,1545
1107258586,1000,1000,1000,1000,1159108671,1545,1545,1545,1544
1107261085,1000,1000,1000,1000,1159208631,1544,1544,1544,1545
1107263584,1000,1000,1000,1000,1159308591,1545,1545,1545,1545
1107266083,1000,1000,1000,1000,1159408551,1545,1544,1544,1545
1107268582,1000,1000,1000,1000,1159508511,1544,1544,1544,1544
1107271081,1000,1000,1000,1000,1159608471,1544,1544,1543,1544
1107273580,1000,1000,1000,1000,1159708431,1544,1544,1544,1544
1107276079,1000,1000,1000,1000,1159808391,1544,1544,1545,1544
1107278578,1000,1000,1000,1000,1159908351,1544,1544,1544,1544
1107281077,1000,1000,1000,1000,1160008311,1544,1544,1544,1544
1107283576,1000,1000,1000,1000,1160108271,1494,1493,1468,1467
1107286075,1000,1000,1000,1000,1160208231,1394,1392,1303,1299
1107288574,1000,1000,1000,1000,1160308191,1357,1355,1232,1226
1107291073,1000,1000,1000,1000,1160408984,1347,1344,1209,1206
1107293572,1000,1000,1000,1000,1160508944,1332,1330,1179,1175
1107296071,1000,1000,1000,1000,1160608904,1321,1318,1153,1150
1107298570,1000,1000,1000,1000,1160708864,1217,1214,1156,1150
1107301069,1000,1000,1000,1000,1160808824,1123,1118,1155,1150
1107303568,1000,1000,1000,1000,1160908784,1018,1013,1156,1150
1107306067,1000,1000,1000,1000,1161008744,964,959,1153,1150
1107308566,1000,1000,1000,1000,1161108704,964,959,1154,1150
1107311065,1000,1000,1000,1000,1161208664,964,959,1153,1150
1107313564,1000,1000,1000,1000,1161308624,929,962,1196,1150
1107316063,1000,1000,1000,1000,1161408584,941,960,1183,1150
1107318562,1000,1000,1000,1000,1161508544,947,959,1176,1150
1107321061,1000,1000,1000,1000,1161608504,948,959,1175,1150
1107323560,1000,1000,1000,1000,1161708464,948,959,1176,1150
1107326059,1000,1000,1000,1000,1161808424,947,959,1176,1150
1107328558,1000,1000,1000,1000,1161908384,947,959,1177,1150
1107331057,1000,1000,1000,1000,1162008344,946,959,1178,1150
1107333556,1000,1000,1000,1000,1162108304,962,962,1152,1150
1107336055,1000,1000,1000,1000,1162208264,960,962,1155,1150
1107338554,1000,1000,1000,1000,1162308224,959,962,1156,1150
1107341053,1000,1000,1000,1000,1162408184,959,962,1157,1150
1107343552,1000,1000,1000,1000,1162508977,944,948,1157,1150
1107346051,1000,1000,1000,1000,1162608937,1000,1000,1000,1000
1107348550,1000,1000,1000,1000,1162708897,1000,1000,1000,1000
1107351049,1000,1000,1000,1000,1162808857,1000,1000,1000,1000
1107353548,1000,1000,1000,1000,1162908817,1000,1000,1000,1000
1107356047,1000,1000,1000,1000,1163008777,1000,1000,1000,1000
1107358546,1000,1000,1000,1000,1163108737,1000,1000,1000,1000
1107361045,1000,1000,1000,1000,1163208697,1000,1000,1000,1000
1107363544,1000,1000,1000,1000,1163308657,1000,1000,1000,1000
1107366043,1000,1000,1000,1000,1163408617,1000,1000,1000,1000
1107368542,1000,1000,1000,1000,1163508577,1000,1000,1000,1000
1107371041,1000,1000,1000,1000,1163608537,1000,1000,1000,1000
1107373540,1000,1000,1000,1000,1163708497,1000,1000,1000,1000
1107376039,1000,1000,1000,1000,1163808457,1000,1000,1000,1000
1107378538,1000,1000,1000,1000,1163908417,1000,1000,1000,1000
1107381037,1000,1000,1000,1000,1164008377,1000,1000,1000,1000
1107383536,1000,1000,1000,1000,1164108337,1000,1000,1000,1000
1107386035,1000,1000,1000,1000,1164208297,1000,1000,1000,1000
1107388534,1000,1000,1000,1000,1164308257,1000,1000,1000,1000
1107391033,1000,1000,1000,1000,1164408217,1000,1000,1000,1000
1107393532,1000,1000,1000,1000,1164508177,1000,1000,1000,1000
1107396031,1000,1000,1000,1000,1164608970,1000,1000,1000,1000
1107398530,1000,1000,1000,1000,1164708930,1000,1000,1000,1000
1107401029,1000,1000,1000,1000,1164808890,1000,1000,1000,1000
1107403528,1000,1000,1000,1000,1164908850,1000,1000,1000,1000
1107406027,1000,1000,1000,1000,1165008810,1000,1000,1000,1000
1107408526,1000,1000,1000,1000,1165108770,1000,1000,1000,1000
1107411025,1000,1000,1000,1000,1165208730,1000,1000,1000,1000
1107413524,1000,1000,1000,1000,1165308690,1000,1000,1000,1000
1107416023,1000,1000,1000,1000,1165408650,1000,1000,1000,1000
1107418522,1000,1000,1000,1000,1165508610,1000,1000,1000,1000
1107421021,1000,1000,1000,1000,1165608570,1000,1000,1000,1000
1107423520,1000,1000,1000,1000,1165708530,1000,1000,1000,1000
1107426019,1000,1000,1000,1000,1165808490,1000,1000,1000,1000
1107428518,1000,1000,1000,1000,1165908450,1000,1000,1000,1000
1107431017,1000,1000,1000,1000,1166008410,1000,1000,1000,1000
1107433516,1000,1000,1000,1000,1166108370,1000,1000,1000,1000
1107436015,1000,1000,1000,1000,1166208330,1000,1000,1000,1000
1107438514,1000,1000,1000,1000,1166308290,1000,1000,1000,1000
1107441013,1000,1000,1000,1000,1166408250,1000,1000,1000,1000
1107443512,1000,1000,1000,1000,1166508210,1000,1000,1000,1000
1107446011,1000,1000,1000,1000,1166608170,1000,1000,1000,1000
1107448510,1000,1000,1000,1000,1166708963,1000,1000,1000,1000
1107451009,1000,1000,1000,1000,1166808923,1000,1000,1000,1000
1107453508,1000,1000,1000,1000,1166908883,1000,1000,1000,1000
1107456007,1000,1000,1000,1000,1167008843,1000,1000,1000,1000
1107458506,1000,1000,1000,1000,1167108803,1000,1000,1000,1000
1107461005,1000,1000,1000,1000,1167208763,1000,1000,1000,1000
1107463504,1000,1000,1000,1000,1167308723,1000,1000,1000,1000
1107466003,1000,1000,1000,1000,1167408683,1000,1000,1000,1000
1107468502,1000,1000,1000,1000,1167508643,1000,1000,1000,1000
1107471001,1000,1000,1000,1000,1167608603,1000,1000,1000,1000
1107473500,1000,1000,1000,1000,1167708563,1000,1000,1000,1000
1107475999,1000,1000,1000,1000,1167808523,1000,1000,1000,1000
1107478498,1000,1000,1000,1000,1167908483,1000,1000,1000,1000
1107480997,1000,1000,1000,1000,1168008443,1000,1000,1000,1000
1107483496,1000,1000,1000,1000,1168108403,1000,1000,1000,1000
1107485995,1000,1000,1000,1000,1168208363,1000,1000,1000,1000
1107488494,1000,1000,1000,1000,1168308323,1000,1000,1000,1000
1107490993,1000,1000,1000,1000,1168408283,1000,1000,1000,1000
1107493492,1000,1000,1000,1000,1168508243,1000,1000,1000,1000
1107495991,1000,1000,1000,1000,1168608203,1000,1000,1000,1000
1107498490,1000,1000,1000,1000,1168708163,1000,1000,1000,1000
1107500989,1000,1000,1000,1000,1168808956,1000,1000,1000,1000
1107503488,1000,1000,1000,1000,1168908916,1000,1000,1000,1000
1107505987,1000,1000,1000,1000,1169008876,1000,1000,1000,1000
1107508486,1000,1000,1000,1000,1169108836,1000,1000,1000,1000
1107510985,1000,1000,1000,1000,1169208796,1000,1000,1000,1000
1107513484,1000,1000,1000,1000,1169308756,1000,1000,1000,1000
1107515983,1000,1000,1000,1000,1169408716,1000,1000,1000,1000
1107518482,1000,1000,1000,1000,1169508676,1000,1000,1000,1000
1107520981,1000,1000,1000,1000,1169608636,1000,1000,1000,1000
1107523480,1000,1000,1000,1000,1169708596,1000,1000,1000,1000
1107525979,1000,1000,1000,1000,1169808556,1000,1000,1000,1000
1107528478,1000,1000,1000,1000,1169908516,1000,1000,1000,1000
1107530977,1000,1000,1000,1000,1170008476,1000,1000,1000,1000
1107533476,1000,1000,1000,1000,1170108436,1000,1000,1000,1000
1107535975,1000,1000,1000,1000,1170208396,1000,1000,1000,1000
1107538474,1000,1000,1000,1000,1170308356,1000,1000,1000,1000
1107540973,1000,1000,1000,1000,1170408316,1000,1000,1000,1000
1107543472,1000,1000,1000,1000,1170508276,1000,1000,1000,1000
1107545971,1000,1000,1000,1000,1170608236,1000,1000,1000,1000
1107548470,1000,1000,1000,1000,1170708196,1000,1000,1000,1000
1107550969,1000,1000,1000,1000,1170808156,1000,1000,1000,1000
1107553468,1000,1000,1000,1000,1170908949,1000,1000,1000,1000
1107555967,1000,1000,1000,1000,1171008909,1000,1000,1000,1000
1107558466,1000,1000,1000,1000,1171108869,1000,1000,1000,1000
1107560965,1000,1000,1000,1000,1171208829,1000,1000,1000,1000
1107563464,1000,1000,1000,1000,1171308789,1000,1000,1000,1000
1107565963,1000,1000,1000,1000,1171408749,1000,1000,1000,1000
1107568462,1000,1000,1000,1000,1171508709,1000,1000,1000,1000
1107570961,1000,1000,1000,1000,1171608669,1000,1000,1000,1000
1107573460,1000,1000,1000,1000,1171708629,1000,1000,1000,1000
1107575959,1000,1000,1000,1000,1171808589,1000,1000,1000,1000
1107578458,1000,1000,1000,1000,1171908549,1000,1000,1000,1000
1107580957,1000,1000,1000,1000,1172008509,1000,1000,1000,1000
1107583456,1000,1000,1000,1000,1172108469,1000,1000,1000,1000
1107585955,1000,1000,1000,1000,1172208429,1000,1000,1000,1000
1107588454,1000,1000,1000,1000,1172308389,1000,1000,1000,1000
1107590953,1000,1000,1000,1000,1172408349,1000,1000,1000,1000
1107593452,1000,1000,1000,1000,1172508309,1000,1000,1000,1000
1107595951,1000,1000,1000,1000,1172608269,1000,1000,1000,1000
1107598450,1000,1000,1000,1000,1172708229,1000,1000,1000,1000
1107600949,1000,1000,1000,1000,1172808189,1000,1000,1000,1000
1107603448,1000,1000,1000,1000,1172908982,1000,1000,1000,1000
1107605947,1000,1000,1000,1000,1173008942,1000,1000,1000,1000
1107608446,1000,1000,1000,1000,1173108902,1000,1000,1000,1000
1107610945,1000,1000,1000,1000,1173208862,1000,1000,1000,1000
1107613444,1000,1000,1000,1000,1173308822,1000,1000,1000,1000
1107615943,1000,1000,1000,1000,1173408782,1000,1000,1000,1000
1107618442,1000,1000,1000,1000,1173508742,1000,1000,1000,1000
1107620941,1000,1000,1000,1000,1173608702,1000,1000,1000,1000
1107623440,1000,1000,1000,1000,1173708662,1000,1000,1000,1000
1107625939,1000,1000,1000,1000,1173808622,1000,1000,1000,1000
1107628438,1000,1000,1000,1000,1173908582,1000,1000,1000,1000
1107630937,1000,1000,1000,1000,1174008542,1000,1000,1000,1000
1107633436,1000,1000,1000,1000,1174108502,1000,1000,1000,1000
1107635935,1000,1000,1000,1000,1174208462,1000,1000,1000,1000
1107638434,1000,1000,1000,1000,1174308422,1000,1000,1000,1000
1107640933,1000,1000,1000,1000,1174408382,1000,1000,1000,1000
1107643432,1000,1000,1000,1000,1174508342,1000,1000,1000,1000
1107645931,1000,1000,1000,1000,1174608302,1000,1000,1000,1000
1107648430,1000,1000,1000,1000,1174708262,1000,1000,1000,1000
1107650929,1000,1000,1000,1000,1174808222,1000,1000,1000,1000
1107653428,1000,1000,1000,1000,1174908182,1000,1000,1000,1000
1107655927,1000,1000,1000,1000,1175008975,1000,1000,1000,1000
1107658426,1000,1000,1000,1000,1175108935,1000,1000,1000,1000
1107660925,1000,1000,1000,1000,1175208895,1000,1000,1000,1000
1107663424,1000,1000,1000,1000,1175308855,1000,1000,1000,1000
1107665923,1000,1000,1000,1000,1175408815,1000,1000,1000,1000
1107668422,1000,1000,1000,1000,1175508775,1000,1000,1000,1000
1107670921,1000,1000,1000,1000,1175608735,1000,1000,1000,1000
1107673420,1000,1000,1000,1000,1175708695,1000,1000,1000,1000
1107675919,1000,1000,1000,1000,1175808655,1000,1000,1000,1000
1107678418,1000,1000,1000,1000,1175908615,1000,1000,1000,1000
1107680917,1000,1000,1000,1000,1176008575,1000,1000,1000,1000
1107683416,1000,1000,1000,1000,1176108535,1000,1000,1000,1000
1107685915,1000,1000,1000,1000,1176208495,1000,1000,1000,1000
1107688414,1000,1000,1000,1000,1176308455,1000,1000,1000,1000
1107690913,1000,1000,1000,1000,1176408415,1000,1000,1000,1000
1107693412,1000,1000,1000,1000,1176508375,1000,1000,1000,1000
1107695911,1000,1000,1000,1000,1176608335,1000,1000,1000,1000
1107698410,1000,1000,1000,1000,1176708295,1000,1000,1000,1000
1107700909,1000,1000,1000,1000,1176808255,1000,1000,1000,1000
1107703408,1000,1000,1000,1000,1176908215,1000,1000,1000,1000
1107705907,1000,1000,1000,1000,1177008175,1000,1000,1000,1000
1107708406,1000,1000,1000,1000,1177108968,1000,1000,1000,1000
1107710905,1000,1000,1000,1000,1177208928,1000,1000,1000,1000
1107713404,1000,1000,1000,1000,1177308888,1000,1000,1000,1000
1107715903,1000,1000,1000,1000,1177408848,1000,1000,1000,1000
1107718402,1000,1000,1000,1000,1177508808,1000,1000,1000,1000
1107720901,1000,1000,1000,1000,,,,,
1107723400,1000,1000,1000,1000,,,,,
1107725899,1000,1000,1000,1000,,,,,
1107728398,1000,1000,1000,1000,,,,,
1107730897,1000,1000,1000,1000,,,,,
1107733396,1000,1000,1000,1000,,,,,
1107735895,1000,1000,1000,1000,,,,,
1107738394,1000,1000,1000,1000,,,,,
1107740893,1000,1000,1000,1000,,,,,
1107743392,1000,1000,1000,1000,,,,,
1107745891,1000,1000,1000,1000,,,,,
1107748390,1000,1000,1000,1000,,,,,
1107750889,1000,1000,1000,1000,,,,,
1107753388,1000,1000,1000,1000,,,,,
1107755887,1000,1000,1000,1000,,,,,
1107758386,1000,1000,1000,1000,,,,,
1107760885,1000,1000,1000,1000,,,,,
1107763384,1000,1000,1000,1000,,,,,
1107765883,1000,1000,1000,1000,,,,,
1107768382,1000,1000,1000,1000,,,,,
1107770881,1000,1000,1000,1000,,,,,
1107773380,1000,1000,1000,1000,,,,,
1107775879,1000,1000,1000,1000,,,,,
1107778378,1000,1000,1000,1000,,,,,
1107780877,1000,1000,1000,1000,,,,,
1107783376,1000,1000,1000,1000,,,,,
1107785875,1000,1000,1000,1000,,,,,
1107788374,1000,1000,1000,1000,,,,,
1107790873,1000,1000,1000,1000,,,,,
1107793372,1000,1000,1000,1000,,,,,
1107795871,1000,1000,1000,1000,,,,,
1107798370,1000,1000,1000,1000,,,,,
1107800869,1000,1000,1000,1000,,,,,
1107803368,1000,1000,1000,1000,,,,,
1107805867,1000,1000,1000,1000,,,,,
1107808366,1000,1000,1000,1000,,,,,
1107810865,1000,1000,1000,1000,,,,,
1107813364,1000,1000,1000,1000,,,,,
1107815863,1000,1000,1000,1000,,,,,
1107818362,1000,1000,1000,1000,,,,,
1107820861,1000,1000,1000,1000,,,,,
1107823360,1000,1000,1000,1000,,,,,
1107825859,1000,1000,1000,1000,,,,,
1107828358,1000,1000,1000,1000,,,,,
1107830857,1000,1000,1000,1000,,,,,
1107833356,1000,1000,1000,1000,,,,,
1107835855,1000,1000,1000,1000,,,,,
1107838354,1000,1000,1000,1000,,,,,
1107840853,1000,1000,1000,1000,,,,,
1107843352,1000,1000,1000,1000,,,,,
1107845851,1000,1000,1000,1000,,,,,
1107848350,1000,1000,1000,1000,,,,,
1107850849,1000,1000,1000,1000,,,,,
1107853348,1000,1000,1000,1000,,,,,
1107855847,1000,1000,1000,1000,,,,,
1107858346,1000,1000,1000,1000,,,,,
1107860845,1000,1000,1000,1000,,,,,
1107863344,1000,1000,1000,1000,,,,,
1107865843,1000,1000,1000,1000,,,,,
1107868342,1000,1000,1000,1000,,,,,
1107870841,1000,1000,1000,1000,,,,,
1107873340,1000,1000,1000,1000,,,,,
1107875839,1000,1000,1000,1000,,,,,
1107878338,1000,1000,1000,1000,,,,,
1107880837,1000,1000,1000,1000,,,,,
1107883336,1000,1000,1000,1000,,,,,
1107885835,1000,1000,1000,1000,,,,,
1107888334,1000,1000,1000,1000,,,,,
1107890833,1000,1000,1000,1000,,,,,
1107893332,1000,1000,1000,1000,,,,,
1107895831,1000,1000,1000,1000,,,,,
1107898330,1000,1000,1000,1000,,,,,
1107900829,1000,1000,1000,1000,,,,,
1107903328,1000,1000,1000,1000,,,,,
1107905827,1000,1000,1000,1000,,,,,
1107908326,1000,1000,1000,1000,,,,,
1107910825,1000,1000,1000,1000,,,,,
1107913324,1000,1000,1000,1000,,,,,
1107915823,1000,1000,1000,1000,,,,,
1107918322,1000,1000,1000,1000,,,,,
1107920821,1000,1000,1000,1000,,,,,
1107923320,1000,1000,1000,1000,,,,,
1107925819,1000,1000,1000,1000,,,,,
1107928318,1000,1000,1000,1000,,,,,
1107930817,1000,1000,1000,1000,,,,,
1107933316,1000,1000,1000,1000,,,,,
1107935815,1001,1001,1001,1001,,,,,
1107938314,1002,1002,1002,1002,,,,,
1107940813,1003,1003,1003,1003,,,,,
1107943312,1003,1003,1003,1003,,,,,
1107945811,1004,1004,1004,1004,,,,,
1107948310,1005,1005,1005,1005,,,,,
1107950809,1006,1006,1006,1006,,,,,
1107953308,1006,1006,1006,1006,,,,,
1107955807,1007,1007,1007,1007,,,,,
1107958306,1008,1008,1008,1008,,,,,
1107960805,1009,1009,1009,1009,,,,,
1107963304,1009,1009,1009,1009,,,,,
1107965803,1010,1010,1010,1010,,,,,
1107968302,1011,1011,1011,1011,,,,,
1107970801,1012,1012,1012,1012,,,,,
1107973300,1012,1012,1012,1012,,,,,
1107975799,1013,1013,1013,1013,,,,,
1107978298,1014,1014,1014,1014,,,,,
1107980797,1015,1015,1015,1015,,,,,
1107983296,1015,1015,1015,1015,,,,,
1107985795,1016,1016,1016,1016,,,,,
1107988294,1017,1017,1017,1017,,,,,
1107990793,1018,1018,1018,1018,,,,,
1107993292,1018,1018,1018,1018,,,,,
1107995791,1019,1019,1019,1019,,,,,
1107998290,1020,1020,1020,1020,,,,,
1108000789,1021,1021,1021,1021,,,,,
1108003288,1021,1021,1021,1021,,,,,
1108005787,1022,1022,1022,1022,,,,,
1108008286,1023,1023,1023,1023,,,,,
1108010785,1024,1024,1024,1024,,,,,
1108013284,1024,1024,1024,1024,,,,,
1108015783,1025,1025,1025,1025,,,,,
1108018282,1026,1026,1026,1026,,,,,
1108020781,1027,1027,1027,1027,,,,,
1108023280,1027,1027,1027,1027,,,,,
1108025779,1028,1028,1028,1028,,,,,
1108028278,1029,1029,1029,1029,,,,,
1108030777,1030,1030,1030,1030,,,,,
1108033276,1030,1030,1030,1030,,,,,
1108035775,1031,1031,1031,1031,,,,,
1108038274,1032,1032,1032,1032,,,,,
1108040773,1033,1033,1033,1033,,,,,
1108043272,1033,1033,1033,1033,,,,,
1108045771,1034,1034,1034,1034,,,,,
1108048270,1035,1035,1035,1035,,,,,
1108050769,1036,1036,1036,1036,,,,,
1108053268,1036,1036,1036,1036,,,,,
1108055767,1037,1037,1037,1037,,,,,
1108058266,1038,1038,1038,1038,,,,,
1108060765,1039,1039,1039,1039,,,,,
1108063264,1039,1039,1039,1039,,,,,
1108065763,1040,1040,1040,1040,,,,,
1108068262,1041,1041,1041,1041,,,,,
1108070761,1042,1042,1042,1042,,,,,
1108073260,1042,1042,1042,1042,,,,,
1108075759,1043,1043,1043,1043,,,,,
1108078258,1044,1044,1044,1044,,,,,
1108080757,1045,1045,1045,1045,,,,,
1108083256,1045,1045,1045,1045,,,,,
1108085755,1046,1046,1046,1046,,,,,
1108088254,1047,1047,1047,1047,,,,,
1108090753,1048,1048,1048,1048,,,,,
1108093252,1048,1048,1048,1048,,,,,
1108095751,1049,1049,1049,1049,,,,,
1108098250,1050,1050,1050,1050,,,,,
1108100749,1051,1051,1051,1051,,,,,
1108103248,1051,1051,1051,1051,,,,,
1108105747,1052,1052,1052,1052,,,,,
1108108246,1053,1053,1053,1053,,,,,
1108110745,1054,1054,1054,1054,,,,,
1108113244,1054,1054,1054,1054,,,,,
1108115743,1055,1055,1055,1055,,,,,
1108118242,1056,1056,1056,1056,,,,,
1108120741,1057,1057,1057,1057,,,,,
1108123240,1057,1057,1057,1057,,,,,
1108125739,1058,1058,1058,1058,,,,,
1108128238,1059,1059,1059,1059,,,,,
1108130737,1060,1060,1060,1060,,,,,
1108133236,1060,1060,1060,1060,,,,,
1108135735,1061,1061,1061,1061,,,,,
1108138234,1062,1062,1062,1062,,,,,
1108140733,1063,1063,1063,1063,,,,,
1108143232,1063,1063,1063,1063,,,,,
1108145731,1064,1064,1064,1064,,,,,
1108148230,1065,1065,1065,1065,,,,,
1108150729,1066,1066,1066,1066,,,,,
1108153228,1066,1066,1066,1066,,,,,
1108155727,1067,1067,1067,1067,,,,,
1108158226,1068,1068,1068,1068,,,,,
1108160725,1069,1069,1069,1069,,,,,
1108163224,1069,1069,1069,1069,,,,,
1108165723,1070,1070,1070,1070,,,,,
1108168222,1071,1071,1071,1071,,,,,
1108170721,1072,1072,1072,1072,,,,,
1108173220,1072,1072,1072,1072,,,,,
1108175719,1073,1073,1073,1073,,,,,
1108178218,1074,1074,1074,1074,,,,,
1108180717,1075,1075,1075,1075,,,,,
1108183216,1075,1075,1075,1075,,,,,
1108185715,1076,1076,1076,1076,,,,,
1108188214,1077,1077,1077,1077,,,,,
1108190713,1078,1078,1078,1078,,,,,
1108193212,1078,1078,1078,1078,,,,,
1108195711,1079,1079,1079,1079,,,,,
1108198210,1080,1080,1080,1080,,,,,
1108200709,1081,1081,1081,1081,,,,,
1108203208,1081,1081,1081,1081,,,,,
1108205707,1082,1082,1082,1082,,,,,
1108208206,1083,1083,1083,1083,,,,,
1108210705,1084,1084,1084,1084,,,,,
1108213204,1084,1084,1084,1084,,,,,
1108215703,1085,1085,1085,1085,,,,,
1108218202,1086,1086,1086,1086,,,,,
1108220701,1087,1087,1087,1087,,,,,
1108223200,1087,1087,1087,1087,,,,,
1108225699,1088,1088,1088,1088,,,,,
1108228198,1089,1089,1089,1089,,,,,
1108230697,1090,1090,1090,1090,,,,,
1108233196,1090,1090,1090,1090,,,,,
1108235695,1091,1091,1091,1091,,,,,
1108238194,1092,1092,1092,1092,,,,,
1108240693,1093,1093,1093,1093,,,,,
1108243192,1093,1093,1093,1093,,,,,
1108245691,1094,1094,1094,1094,,,,,
1108248190,1095,1095,1095,1095,,,,,
1108250689,1096,1096,1096,1096,,,,,
1108253188,1096,1096,1096,1096,,,,,
1108255687,1097,1097,1097,1097,,,,,
1108258186,1098,1098,1098,1098,,,,,
1108260685,1099,1099,1099,1099,,,,,
1108263184,1099,1099,1099,1099,,,,,
1108265683,1100,1100,1100,1100,,,,,
1108268182,1101,1101,1101,1101,,,,,
1108270681,1101,1101,1101,1101,,,,,
1108273180,1102,1102,1102,1102,,,,,
1108275679,1103,1103,1103,1103,,,,,
1108278178,1104,1104,1104,1104,,,,,
1108280677,1104,1104,1104,1104,,,,,
1108283176,1105,1105,1105,1105,,,,,
1108285675,1106,1106,1106,1106,,,,,
1108288174,1107,1107,1107,1107,,,,,
1108290673,1107,1107,1107,1107,,,,,
1108293172,1108,1108,1108,1108,,,,,
1108295671,1109,1109,1109,1109,,,,,
1108298170,1110,1110,1110,1110,,,,,
1108300669,1110,1110,1110,1110,,,,,
1108303168,1111,1111,1111,1111,,,,,
1108305667,1112,1112,1112,1112,,,,,
1108308166,1113,1113,1113,1113,,,,,
1108310665,1113,1113,1113,1113,,,,,
1108313164,1114,1114,1114,1114,,,,,
1108315663,1115,1115,1115,1115,,,,,
1108318162,1116,1116,1116,1116,,,,,
1108320661,1116,1116,1116,1116,,,,,
1108323160,1117,1117,1117,1117,,,,,
1108325659,1118,1118,1118,1118,,,,,
1108328158,1119,1119,1119,1119,,,,,
1108330657,1119,1119,1119,1119,,,,,
1108333156,1120,1120,1120,1120,,,,,
1108335655,1121,1121,1121,1121,,,,,
1108338154,1122,1122,1122,1122,,,,,
1108341486,1122,1122,1122,1122,,,,,
1108343985,1123,1123,1123,1123,,,,,
1108346484,1124,1124,1124,1124,,,,,
1108348983,1125,1125,1125,1125,,,,,
1108351482,1125,1125,1125,1125,,,,,
1108353981,1126,1126,1126,1126,,,,,
1108356480,1127,1127,1127,1127,,,,,
1108358979,1128,1128,1128,1128,,,,,
1108361478,1128,1128,1128,1128,,,,,
1108363977,1129,1129,1129,1129,,,,,
1108366476,1130,1130,1130,1130,,,,,
1108368975,1131,1131,1131,1131,,,,,
1108371474,1131,1131,1131,1131,,,,,
1108373973,1132,1132,1132,1132,,,,,
1108376472,1133,1133,1133,1133,,,,,
1108378971,1134,1134,1134,1134,,,,,
1108381470,1134,1134,1134,1134,,,,,
1108383969,1135,1135,1135,1135,,,,,
1108386468,1136,1136,1136,1136,,,,,
1108388967,1137,1137,1137,1137,,,,,
1108391466,1137,1137,1137,1137,,,,,
1108393965,1138,1138,1138,1138,,,,,
1108396464,1139,1139,1139,1139,,,,,
1108398963,1140,1140,1140,1140,,,,,
1108401462,1140,1140,1140,1140,,,,,
1108403961,1141,1141,1141,1141,,,,,
1108406460,1142,1142,1142,1142,,,,,
1108408959,1143,1143,1143,1143,,,,,
1108411458,1143,1143,1143,1143,,,,,
1108413957,1144,1144,1144,1144,,,,,
1108416456,1145,1145,1145,1145,,,,,
1108418955,1146,1146,1146,1146,,,,,
1108421454,1146,1146,1146,1146,,,,,
1108423953,1147,1147,1147,1147,,,,,
1108426452,1148,1148,1148,1148,,,,,
1108428951,1149,1149,1149,1149,,,,,
1108431450,1149,1149,1149,1149,,,,,
1108433949,1150,1150,1150,1150,,,,,
1108436448,1150,1166,1165,1150,,,,,
1108438947,1153,1181,1178,1151,,,,,
1108441446,1161,1188,1186,1159,,,,,
1108443945,1169,1196,1193,1167,,,,,
1108446444,1176,1203,1201,1175,,,,,
1108448943,1184,1211,1208,1182,,,,,
1108451442,1192,1218,1215,1190,,,,,
1108453941,1199,1225,1222,1197,,,,,
1108456440,1206,1232,1229,1205,,,,,
1108458939,1213,1239,1236,1212,,,,,
1108461438,1221,1246,1243,1219,,,,,
1108463937,1228,1252,1250,1226,,,,,
1108466436,1234,1259,1257,1233,,,,,
1108468935,1241,1265,1263,1240,,,,,
1108471434,1248,1272,1270,1246,,,,,
1108473933,1254,1278,1276,1253,,,,,
1108476432,1261,1285,1282,1259,,,,,
1108478931,1267,1291,1288,1266,,,,,
1108481430,1274,1297,1295,1272,,,,,
1108483929,1280,1303,1301,1278,,,,,
1108486428,1286,1309,1307,1285,,,,,
1108488927,1292,1315,1313,1291,,,,,
1108491426,1298,1321,1319,1297,,,,,
1108493925,1304,1327,1325,1303,,,,,
1108496424,1310,1332,1330,1309,,,,,
1108498923,1316,1338,1336,1314,,,,,
1108501422,1322,1344,1342,1320,,,,,
1108503921,1327,1349,1347,1326,,,,,
1108506420,1333,1355,1353,1332,,,,,
1108508919,1339,1360,1358,1337,,,,,
1108511418,1344,1366,1364,1343,,,,,
1108513917,1350,1371,1369,1348,,,,,
1108516416,1355,1377,1375,1354,,,,,
1108518915,1361,1382,1380,1359,,,,,
1108521414,1366,1387,1385,1365,,,,,
1108523913,1371,1392,1391,1370,,,,,
1108526412,1377,1398,1396,1375,,,,,
1108528911,1382,1403,1401,1381,,,,,
1108531410,1387,1408,1406,1386,,,,,
1108533909,1392,1413,1411,1391,,,,,
1108536408,1397,1418,1416,1396,,,,,
1108538907,1402,1423,1421,1401,,,,,
1108541406,1407,1428,1426,1406,,,,,
1108543905,1412,1433,1431,1411,,,,,
1108546404,1417,1438,1436,1416,,,,,
1108548903,1422,1442,1441,1421,,,,,
1108551402,1427,1447,1445,1426,,,,,
1108553901,1432,1452,1450,1431,,,,,
1108556400,1437,1457,1455,1436,,,,,
1108558899,1442,1461,1460,1441,,,,,
1108561398,1447,1466,1464,1445,,,,,
1108563897,1451,1471,1469,1450,,,,,
1108566396,1456,1475,1473,1455,,,,,
1108568895,1461,1480,1478,1460,,,,,
1108571394,1465,1484,1483,1464,,,,,
1108573893,1470,1489,1487,1469,,,,,
1108576392,1474,1493,1492,1473,,,,,
1108578891,1479,1498,1496,1478,,,,,
1108581390,1484,1502,1501,1482,,,,,
1108583889,1488,1507,1505,1487,,,,,
1108586388,1493,1511,1509,1491,,,,,
1108588887,1497,1515,1514,1496,,,,,
1108591386,1501,1520,1518,1500,,,,,
1108593885,1506,1524,1522,1505,,,,,
1108596384,1510,1528,1527,1509,,,,,
1108598883,1515,1533,1531,1513,,,,,
1108601382,1519,1537,1535,1518,,,,,
1108603881,1523,1541,1539,1522,,,,,
1108606380,1527,1545,1544,1526,,,,,
1108608879,1532,1549,1548,1531,,,,,
1108611378,1536,1554,1552,1535,,,,,
1108613877,1540,1558,1556,1539,,,,,
1108616376,1544,1562,1560,1543,,,,,
1108618875,1548,1566,1564,1547,,,,,
1108621374,1553,1570,1568,1551,,,,,
1108623873,1557,1574,1572,1556,,,,,
1108626372,1561,1578,1576,1560,,,,,
1108628871,1565,1582,1580,1564,,,,,
1108631370,1569,1586,1584,1568,,,,,
1108633869,1573,1590,1588,1572,,,,,
1108636368,1577,1594,1592,1576,,,,,
1108638867,1581,1598,1596,1580,,,,,
1108641366,1585,1602,1600,1584,,,,,
1108643865,1589,1606,1604,1588,,,,,
1108646364,1593,1610,1608,1592,,,,,
1108648863,1597,1614,1612,1596,,,,,
1108651362,1600,1617,1616,1599,,,,,
1108653861,1604,1621,1620,1603,,,,,
1108656360,1608,1625,1623,1607,,,,,
1108658859,1612,1629,1627,1611,,,,,
1108661358,1616,1633,1631,1615,,,,,
1108663857,1620,1636,1635,1619,,,,,
1108666356,1623,1640,1639,1622,,,,,
1108668855,1627,1644,1642,1626,,,,,
1108671354,1631,1648,1646,1630,,,,,
1108673853,1635,1651,1650,1634,,,,,
1108676352,1638,1655,1654,1637,,,,,
1108678851,1642,1659,1657,1641,,,,,
1108681350,1646,1662,1661,1645,,,,,
1108683849,1649,1666,1665,1648,,,,,
1108686348,1653,1670,1668,1652,,,,,
1108688847,1657,1673,1672,1656,,,,,
1108691346,1660,1677,1676,1659,,,,,
1108693845,1664,1681,1679,1663,,,,,
1108696344,1667,1684,1683,1667,,,,,
1108698843,1671,1688,1686,1670,,,,,
1108701342,1675,1691,1690,1674,,,,,
1108703841,1678,1695,1693,1677,,,,,
1108706340,1682,1698,1697,1681,,,,,
1108708839,1685,1702,1700,1684,,,,,
1108711338,1689,1705,1704,1688,,,,,
1108713837,1692,1709,1707,1691,,,,,
1108716336,1696,1712,1711,1695,,,,,
1108718835,1699,1716,1714,1698,,,,,
1108721334,1703,1719,1718,1702,,,,,
1108723833,1706,1723,1721,1705,,,,,
1108726332,1710,1726,1725,1709,,,,,
1108728831,1713,1730,1728,1712,,,,,
1108731330,1718,1731,1730,1717,,,,,
1108733829,1722,1734,1732,1722,,,,,
1108736328,1726,1737,1735,1725,,,,,
1108738827,1730,1740,1738,1729,,,,,
1108741326,1733,1743,1742,1732,,,,,
1108743825,1737,1747,1745,1736,,,,,
1108746324,1740,1750,1749,1739,,,,,
1108748823,1743,1754,1752,1742,,,,,
1108751322,1746,1757,1756,1745,,,,,
1108753821,1749,1760,1759,1749,,,,,
1108756320,1753,1764,1762,1752,,,,,
1108758819,1756,1767,1766,1755,,,,,
1108761318,1759,1771,1769,1758,,,,,
1108763817,1762,1774,1773,1761,,,,,
1108766316,1765,1777,1776,1764,,,,,
1108768815,1768,1781,1779,1768,,,,,
1108771314,1772,1784,1783,1771,,,,,
1108773813,1775,1787,1786,1774,,,,,
1108776312,1778,1791,1789,1777,,,,,
1108778811,1781,1794,1792,1780,,,,,
1108781310,1784,1797,1796,1783,,,,,
1108783809,1787,1800,1799,1787,,,,,
1108786308,1791,1803,1802,1790,,,,,
1108788807,1794,1807,1805,1793,,,,,
1108791306,1797,1810,1808,1796,,,,,
1108793805,1800,1813,1811,1799,,,,,
1108796304,1803,1816,1814,1802,,,,,
