TimeUS,M1,M2,M3,M4,TimeUS,C1,C2,C3,C4
69676285,1000,1000,1000,1000,69728764,1000,1000,1000,1000
69678784,1000,1000,1000,1000,69828724,1000,1000,1000,1000
69681283,1000,1000,1000,1000,69928684,1000,1000,1000,1000
69683782,1000,1000,1000,1000,70028644,1000,1000,1000,1000
69686281,1000,1000,1000,1000,70128604,1000,1000,1000,1000
69688780,1000,1000,1000,1000,70228564,1000,1000,1000,1000
69691279,1000,1000,1000,1000,70328524,1000,1000,1000,1000
69693778,1000,1000,1000,1000,70428484,1000,1000,1000,1000
69696277,1000,1000,1000,1000,70528444,1000,1000,1000,1000
69698776,1000,1000,1000,1000,70628404,1000,1000,1000,1000
69701275,1000,1000,1000,1000,70728364,1000,1000,1000,1000
69703774,1000,1000,1000,1000,70828324,1000,1000,1000,1000
69706273,1000,1000,1000,1000,70928284,1000,1000,1000,1000
69708772,1000,1000,1000,1000,71028244,1000,1000,1000,1000
69711271,1000,1000,1000,1000,71128204,1000,1000,1000,1000
69713770,1000,1000,1000,1000,71228164,1000,1000,1000,1000
69716269,1000,1000,1000,1000,71328957,1000,1000,1000,1000
69718768,1000,1000,1000,1000,71428917,1000,1000,1000,1000
69721267,1000,1000,1000,1000,71528877,1000,1000,1000,1000
69723766,1000,1000,1000,1000,71628837,1000,1000,1000,1000
69726265,1000,1000,1000,1000,71728797,1015,1015,1015,1015
69728764,1000,1000,1000,1000,71828757,1045,1045,1045,1045
69731263,1000,1000,1000,1000,71928717,1075,1075,1075,1075
69733762,1000,1000,1000,1000,72028677,1105,1105,1105,1105
69736261,1000,1000,1000,1000,72128637,1135,1135,1135,1135
69738760,1000,1000,1000,1000,72228597,1295,1286,1287,1295
69741259,1000,1000,1000,1000,72328557,1500,1493,1493,1500
69743758,1000,1000,1000,1000,72428517,1660,1654,1654,1660
69746257,1000,1000,1000,1000,72528477,1796,1790,1790,1797
69748756,1000,1000,1000,1000,72628437,1910,1904,1904,1911
69751255,1000,1000,1000,1000,72728397,1876,1872,1873,1876
69753754,1000,1000,1000,1000,72828357,1747,1746,1747,1746
69756253,1000,1000,1000,1000,72928317,1654,1657,1656,1655
69758752,1000,1000,1000,1000,73028277,1628,1632,1632,1629
69761251,1000,1000,1000,1000,73128237,1633,1636,1636,1633
69763750,1000,1000,1000,1000,73228197,1641,1642,1642,1641
69766249,1000,1000,1000,1000,73328157,1641,1633,1633,1641
69768748,1000,1000,1000,1000,73428950,1618,1618,1609,1626
69771247,1000,1000,1000,1000,73528910,1609,1609,1601,1616
69773746,1000,1000,1000,1000,73628870,1605,1605,1602,1607
69776245,1000,1000,1000,1000,73728830,1606,1606,1607,1604
69778744,1000,1000,1000,1000,73828790,1611,1610,1614,1607
69781243,1000,1000,1000,1000,73928750,1611,1611,1616,1606
69783742,1000,1000,1000,1000,74028710,1582,1582,1599,1565
69786241,1000,1000,1000,1000,74128670,1570,1569,1582,1558
69788740,1000,1000,1000,1000,74228630,1558,1558,1560,1557
69791239,1000,1000,1000,1000,74328590,1549,1550,1542,1558
69793738,1000,1000,1000,1000,74428550,1541,1540,1528,1554
69796237,1000,1000,1000,1000,74528510,1536,1535,1524,1547
69798736,1000,1000,1000,1000,74628470,1530,1530,1523,1536
69801235,1000,1000,1000,1000,74728430,1527,1526,1524,1528
69803734,1000,1000,1000,1000,74828390,1526,1526,1528,1524
69806233,1000,1000,1000,1000,74928350,1529,1529,1531,1526
69808732,1000,1000,1000,1000,75028310,1532,1532,1535,1528
69811231,1000,1000,1000,1000,75128270,1536,1536,1540,1533
69813730,1000,1000,1000,1000,75228230,1540,1540,1542,1537
69816229,1000,1000,1000,1000,75328190,1543,1543,1545,1542
69818728,1000,1000,1000,1000,75428983,1545,1545,1546,1545
69821227,1000,1000,1000,1000,75528943,1549,1549,1548,1550
69823726,1000,1000,1000,1000,75628903,1552,1552,1551,1554
69826225,1000,1000,1000,1000,75728863,1554,1554,1553,1556
69828724,1000,1000,1000,1000,75828823,1556,1556,1555,1557
69831223,1000,1000,1000,1000,75928783,1558,1558,1560,1561
69833722,1000,1000,1000,1000,76028743,1558,1559,1562,1562
69836221,1000,1000,1000,1000,76128703,1561,1561,1566,1565
69838720,1000,1000,1000,1000,76228663,1562,1562,1566,1566
69841219,1000,1000,1000,1000,76328623,1563,1564,1567,1567
69843718,1000,1000,1000,1000,76428583,1566,1566,1569,1568
69846217,1000,1000,1000,1000,76528543,1568,1568,1568,1568
69848716,1000,1000,1000,1000,76628503,1569,1569,1568,1569
69851215,1000,1000,1000,1000,76728463,1571,1571,1569,1569
69853714,1000,1000,1000,1000,76828423,1573,1572,1570,1570
69856213,1000,1000,1000,1000,76928383,1573,1572,1569,1570
69858712,1000,1000,1000,1000,77028343,1574,1574,1571,1571
69861211,1000,1000,1000,1000,77128303,1574,1574,1572,1571
69863710,1000,1000,1000,1000,77228263,1574,1575,1573,1571
69866209,1000,1000,1000,1000,77328223,1575,1575,1574,1572
69868708,1000,1000,1000,1000,77428183,1576,1576,1576,1574
69871207,1000,1000,1000,1000,77528976,1576,1576,1575,1575
69873706,1000,1000,1000,1000,77628936,1575,1575,1575,1575
69876205,1000,1000,1000,1000,77728896,1575,1575,1575,1575
69878704,1000,1000,1000,1000,77828856,1575,1575,1575,1576
69881203,1000,1000,1000,1000,77928816,1575,1576,1576,1576
69883702,1000,1000,1000,1000,78028776,1575,1576,1577,1577
69886201,1000,1000,1000,1000,78128736,1576,1576,1577,1577
69888700,1000,1000,1000,1000,78228696,1577,1576,1577,1577
69891199,1000,1000,1000,1000,78328656,1577,1577,1578,1577
69893698,1000,1000,1000,1000,78428616,1577,1577,1578,1577
69896197,1000,1000,1000,1000,78528576,1578,1578,1578,1578
69898696,1000,1000,1000,1000,78628536,1577,1577,1576,1577
69901195,1000,1000,1000,1000,78728496,1578,1578,1578,1578
69903694,1000,1000,1000,1000,78828456,1577,1578,1577,1578
69906193,1000,1000,1000,1000,78928416,1577,1578,1577,1577
69908692,1000,1000,1000,1000,79028376,1578,1579,1579,1578
69911191,1000,1000,1000,1000,79128336,1578,1577,1577,1577
69913690,1000,1000,1000,1000,79228296,1579,1579,1579,1578
69916189,1000,1000,1000,1000,79328256,1580,1579,1580,1579
69918688,1000,1000,1000,1000,79428216,1580,1580,1581,1580
69921187,1000,1000,1000,1000,79528176,1579,1579,1579,1580
69923686,1000,1000,1000,1000,79628969,1580,1580,1580,1580
69926185,1000,1000,1000,1000,79728929,1580,1580,1580,1580
69928684,1000,1000,1000,1000,79828889,1580,1580,1580,1581
69931183,1000,1000,1000,1000,79928849,1580,1579,1579,1580
69933682,1000,1000,1000,1000,80028809,1580,1579,1579,1580
69936181,1000,1000,1000,1000,80128769,1580,1579,1579,1580
69938680,1000,1000,1000,1000,80228729,1580,1580,1580,1580
69941179,1000,1000,1000,1000,80328689,1580,1580,1580,1580
69943678,1000,1000,1000,1000,80428649,1580,1580,1580,1580
69946177,1000,1000,1000,1000,80528609,1580,1581,1581,1581
69948676,1000,1000,1000,1000,80628569,1580,1580,1580,1580
69951175,1000,1000,1000,1000,80728529,1580,1580,1580,1580
69953674,1000,1000,1000,1000,80828489,1580,1580,1580,1580
69956173,1000,1000,1000,1000,80928449,1580,1581,1580,1581
69958672,1000,1000,1000,1000,81028409,1580,1580,1580,1580
69961171,1000,1000,1000,1000,81128369,1581,1581,1581,1581
69963670,1000,1000,1000,1000,81228329,1580,1580,1580,1580
69966169,1000,1000,1000,1000,81328289,1581,1580,1580,1581
69968668,1000,1000,1000,1000,81428249,1581,1580,1580,1580
69971167,1000,1000,1000,1000,81528209,1580,1580,1580,1580
69973666,1000,1000,1000,1000,81628169,1582,1582,1582,1582
69976165,1000,1000,1000,1000,81728962,1580,1581,1581,1580
69978664,1000,1000,1000,1000,81828922,1580,1581,1581,1581
69981163,1000,1000,1000,1000,81928882,1581,1580,1580,1580
69983662,1000,1000,1000,1000,82028842,1580,1581,1587,1574
69986161,1000,1000,1000,1000,82128802,1581,1583,1587,1574
69988660,1000,1000,1000,1000,82228762,1579,1581,1578,1573
69991159,1000,1000,1000,1000,82328722,1577,1581,1569,1573
69993658,1000,1000,1000,1000,82428682,1576,1579,1561,1569
69996157,1000,1000,1000,1000,82528642,1577,1578,1557,1564
69998656,1000,1000,1000,1000,82628602,1578,1577,1554,1558
70001155,1000,1000,1000,1000,82728562,1580,1578,1556,1556
70003654,1000,1000,1000,1000,82828522,1579,1577,1556,1553
70006153,1000,1000,1000,1000,82928482,1579,1578,1556,1554
70008652,1000,1000,1000,1000,83028442,1577,1578,1556,1554
70011151,1000,1000,1000,1000,83128402,1577,1578,1556,1555
70013650,1000,1000,1000,1000,83228362,1575,1577,1554,1554
70016149,1000,1000,1000,1000,83328322,1575,1577,1554,1553
70018648,1000,1000,1000,1000,83428282,1575,1577,1552,1552
70021147,1000,1000,1000,1000,83528242,1577,1578,1550,1551
70023646,1000,1000,1000,1000,83628202,1579,1580,1549,1548
70026145,1000,1000,1000,1000,83728162,1581,1582,1546,1546
70028644,1000,1000,1000,1000,83828955,1584,1585,1544,1543
70031143,1000,1000,1000,1000,83928915,1587,1587,1540,1540
70033642,1000,1000,1000,1000,84028875,1590,1590,1537,1538
70036141,1000,1000,1000,1000,84128835,1593,1593,1536,1536
70038640,1000,1000,1000,1000,84228795,1594,1594,1534,1534
70041139,1000,1000,1000,1000,84328755,1594,1594,1534,1535
70043638,1000,1000,1000,1000,84428715,1593,1594,1535,1537
70046137,1000,1000,1000,1000,84528675,1593,1592,1539,1541
70048636,1000,1000,1000,1000,84628635,1589,1587,1543,1546
70051135,1000,1000,1000,1000,84728595,1583,1580,1551,1554
70053634,1000,1000,1000,1000,84828555,1575,1572,1561,1564
70056133,1000,1000,1000,1000,84928515,1565,1561,1572,1575
70058632,1000,1000,1000,1000,85028475,1554,1551,1586,1587
70061131,1000,1000,1000,1000,85128435,1544,1542,1598,1598
70063630,1000,1000,1000,1000,85228395,1536,1535,1607,1606
70066129,1000,1000,1000,1000,85328355,1530,1531,1613,1612
70068628,1000,1000,1000,1000,85428315,1529,1531,1616,1615
70071127,1000,1000,1000,1000,85528275,1532,1535,1616,1615
70073626,1000,1000,1000,1000,85628235,1537,1539,1611,1610
70076125,1000,1000,1000,1000,85728195,1544,1546,1604,1605
70078624,1000,1000,1000,1000,85828155,1553,1555,1598,1598
70081123,1000,1000,1000,1000,85928948,1561,1562,1589,1589
70083622,1000,1000,1000,1000,86028908,1570,1570,1582,1582
70086121,1000,1000,1000,1000,86128868,1577,1576,1575,1575
70088620,1000,1000,1000,1000,86228828,1582,1581,1570,1569
70091119,1000,1000,1000,1000,86328788,1585,1584,1567,1566
70093618,1000,1000,1000,1000,86428748,1587,1586,1566,1566
70096117,1000,1000,1000,1000,86528708,1587,1586,1566,1566
70098616,1000,1000,1000,1000,86628668,1586,1585,1567,1567
70101115,1000,1000,1000,1000,86728628,1405,1408,1619,1626
70103614,1000,1000,1000,1000,86828588,1457,1464,1626,1628
70106113,1000,1000,1000,1000,86928548,1506,1513,1618,1614
70108612,1000,1000,1000,1000,87028508,1546,1551,1609,1601
70111111,1000,1000,1000,1000,87128468,1577,1578,1600,1594
70113610,1000,1000,1000,1000,87228428,1599,1595,1593,1590
70116109,1000,1000,1000,1000,87328388,1616,1608,1587,1587
70118608,1000,1000,1000,1000,87428348,1636,1628,1565,1569
70121107,1000,1000,1000,1000,87528308,1656,1650,1541,1547
70123606,1000,1000,1000,1000,87628268,1660,1656,1534,1542
70126105,1000,1000,1000,1000,87728228,1651,1651,1541,1547
70128604,1000,1000,1000,1000,87828188,1639,1643,1549,1551
70131103,1000,1000,1000,1000,87928981,1629,1635,1557,1556
70133602,1000,1000,1000,1000,88028941,1622,1626,1563,1560
70136101,1000,1000,1000,1000,88128901,1618,1619,1568,1564
70138600,1000,1000,1000,1000,88228861,1613,1612,1569,1566
70141099,1000,1000,1000,1000,88328821,1608,1602,1572,1572
70143598,1000,1000,1000,1000,88428781,1594,1587,1585,1585
70146097,1000,1000,1000,1000,88528741,1576,1571,1598,1600
70148596,1000,1000,1000,1000,88628701,1560,1559,1608,1610
70151095,1000,1000,1000,1000,88728661,1550,1554,1610,1611
70153594,1000,1000,1000,1000,88828621,1547,1553,1608,1609
70156093,1000,1000,1000,1000,88928581,1548,1555,1605,1603
70158592,1000,1000,1000,1000,89028541,1552,1558,1600,1597
70161091,1000,1000,1000,1000,89128501,1559,1562,1596,1592
70163590,1000,1000,1000,1000,89228461,1566,1567,1591,1588
70166089,1000,1000,1000,1000,89328421,1572,1570,1586,1584
70168588,1000,1000,1000,1000,89428381,1576,1573,1581,1581
70171087,1000,1000,1000,1000,89528341,1581,1578,1574,1575
70173586,1000,1000,1000,1000,89628301,1588,1586,1567,1569
70176085,1000,1000,1000,1000,89728261,1593,1592,1562,1563
70178584,1000,1000,1000,1000,89828221,1596,1597,1559,1560
70181083,1000,1000,1000,1000,89928181,1599,1598,1560,1560
70183582,1000,1000,1000,1000,90028974,1599,1597,1568,1559
70186081,1000,1000,1000,1000,90128934,1596,1590,1571,1560
70188580,1000,1000,1000,1000,90228894,1592,1585,1570,1567
70191079,1000,1000,1000,1000,90328854,1584,1580,1567,1571
70193578,1000,1000,1000,1000,90428814,1575,1577,1565,1571
70196077,1000,1000,1000,1000,90528774,1569,1574,1566,1570
70198576,1000,1000,1000,1000,90628734,1567,1572,1567,1567
70201075,1000,1000,1000,1000,90728694,1566,1571,1566,1565
70203574,1000,1000,1000,1000,90828654,1567,1570,1565,1562
70206073,1000,1000,1000,1000,90928614,1569,1570,1563,1559
70208572,1000,1000,1000,1000,91028574,1570,1570,1560,1558
70211071,1000,1000,1000,1000,91128534,1571,1569,1555,1554
70213570,1000,1000,1000,1000,91228494,1572,1571,1552,1552
70216069,1000,1000,1000,1000,91328454,1574,1573,1548,1549
70218568,1000,1000,1000,1000,91428414,1575,1576,1544,1545
70221067,1000,1000,1000,1000,91528374,1576,1578,1541,1541
70223566,1000,1000,1000,1000,91628334,1579,1581,1538,1537
70226065,1000,1000,1000,1000,91728294,1581,1583,1535,1534
70228564,1000,1000,1000,1000,91828254,1584,1586,1533,1532
70231063,1000,1000,1000,1000,91928214,1588,1588,1532,1531
70233562,1000,1000,1000,1000,92028174,1590,1590,1531,1531
70236061,1000,1000,1000,1000,92128967,1591,1591,1531,1531
70238560,1000,1000,1000,1000,92228927,1592,1592,1533,1534
70241059,1000,1000,1000,1000,92328887,1592,1591,1535,1536
70243558,1000,1000,1000,1000,92428847,1590,1590,1537,1540
70246057,1000,1000,1000,1000,92528807,1588,1587,1542,1546
70248556,1000,1000,1000,1000,92628767,1583,1583,1548,1551
70251055,1000,1000,1000,1000,92728727,1578,1577,1554,1557
70253554,1000,1000,1000,1000,92828687,1574,1572,1561,1564
70256053,1000,1000,1000,1000,92928647,1568,1565,1568,1570
70258552,1000,1000,1000,1000,93028607,1561,1559,1573,1576
70261051,1000,1000,1000,1000,93128567,1555,1554,1578,1581
70263550,1000,1000,1000,1000,93228527,1550,1550,1584,1585
70266049,1000,1000,1000,1000,93328487,1547,1546,1590,1589
70268548,1000,1000,1000,1000,93428447,1544,1544,1594,1593
70271047,1000,1000,1000,1000,93528407,1541,1541,1597,1596
70273546,1000,1000,1000,1000,93628367,1540,1540,1599,1598
70276045,1000,1000,1000,1000,93728327,1539,1539,1598,1597
70278544,1000,1000,1000,1000,93828287,1541,1541,1598,1598
70281043,1000,1000,1000,1000,93928247,1543,1545,1596,1597
70283542,1000,1000,1000,1000,94028207,1546,1548,1592,1593
70286041,1000,1000,1000,1000,94128167,1551,1553,1589,1589
70288540,1000,1000,1000,1000,94228960,1557,1558,1586,1586
70291039,1000,1000,1000,1000,94328920,1563,1563,1582,1582
70293538,1000,1000,1000,1000,94428880,1569,1568,1579,1579
70296037,1000,1000,1000,1000,94528840,1572,1572,1576,1576
70298536,1000,1000,1000,1000,94628800,1577,1576,1575,1574
70301035,1000,1000,1000,1000,94728760,1580,1578,1574,1573
70303534,1000,1000,1000,1000,94828720,1582,1580,1572,1572
70306033,1000,1000,1000,1000,94928680,1583,1582,1572,1572
70308532,1000,1000,1000,1000,95028640,1583,1583,1572,1573
70311031,1000,1000,1000,1000,95128600,1583,1583,1572,1572
70313530,1000,1000,1000,1000,95228560,1583,1583,1573,1573
70316029,1000,1000,1000,1000,95328520,1583,1582,1573,1573
70318528,1000,1000,1000,1000,95428480,1582,1582,1574,1574
70321027,1000,1000,1000,1000,95528440,1582,1582,1575,1575
70323526,1000,1000,1000,1000,95628400,1582,1581,1576,1576
70326025,1000,1000,1000,1000,95728360,1581,1581,1577,1577
70328524,1000,1000,1000,1000,95828320,1580,1580,1577,1577
70331023,1000,1000,1000,1000,95928280,1579,1580,1578,1578
70333522,1000,1000,1000,1000,96028240,1579,1579,1579,1578
70336021,1000,1000,1000,1000,96128200,1579,1579,1579,1579
70338520,1000,1000,1000,1000,96228160,1578,1579,1580,1580
70341019,1000,1000,1000,1000,96328953,1578,1578,1580,1579
70343518,1000,1000,1000,1000,96428913,1578,1578,1579,1579
70346017,1000,1000,1000,1000,96528873,1579,1579,1581,1581
70348516,1000,1000,1000,1000,96628833,1579,1579,1581,1580
70351015,1000,1000,1000,1000,96728793,1578,1578,1580,1580
70353514,1000,1000,1000,1000,96828753,1578,1579,1580,1580
70356013,1000,1000,1000,1000,96928713,1579,1579,1580,1580
70358512,1000,1000,1000,1000,97028673,1579,1579,1580,1580
70361011,1000,1000,1000,1000,97128633,1580,1580,1580,1580
70363510,1000,1000,1000,1000,97228593,1580,1580,1580,1580
70366009,1000,1000,1000,1000,97328553,1580,1580,1580,1580
70368508,1000,1000,1000,1000,97428513,1580,1580,1580,1580
70371007,1000,1000,1000,1000,97528473,1580,1580,1580,1580
70373506,1000,1000,1000,1000,97628433,1581,1581,1581,1580
70376005,1000,1000,1000,1000,97728393,1580,1581,1579,1580
70378504,1000,1000,1000,1000,97828353,1581,1581,1580,1579
70381003,1000,1000,1000,1000,97928313,1582,1581,1580,1580
70383502,1000,1000,1000,1000,98028273,1581,1581,1580,1580
70386001,1000,1000,1000,1000,98128233,1581,1581,1579,1580
70388500,1000,1000,1000,1000,98228193,1580,1580,1578,1579
70390999,1000,1000,1000,1000,98328986,1581,1581,1580,1580
70393498,1000,1000,1000,1000,98428946,1581,1582,1581,1581
70395997,1000,1000,1000,1000,98528906,1581,1581,1581,1581
70398496,1000,1000,1000,1000,98628866,1582,1581,1581,1581
70400995,1000,1000,1000,1000,98728826,1582,1581,1582,1582
70403494,1000,1000,1000,1000,98828786,1582,1582,1582,1582
70405993,1000,1000,1000,1000,98928746,1582,1582,1587,1577
70408492,1000,1000,1000,1000,99028706,1581,1581,1586,1573
70410991,1000,1000,1000,1000,99128666,1579,1580,1579,1573
70413490,1000,1000,1000,1000,99228626,1578,1580,1570,1572
70415989,1000,1000,1000,1000,99328586,1576,1578,1562,1568
70418488,1000,1000,1000,1000,99428546,1576,1578,1558,1564
70420987,1000,1000,1000,1000,99528506,1576,1578,1556,1560
70423486,1000,1000,1000,1000,99628466,1577,1578,1556,1557
70425985,1000,1000,1000,1000,99728426,1578,1578,1558,1556
70428484,1000,1000,1000,1000,99828386,1578,1577,1558,1555
70430983,1000,1000,1000,1000,99928346,1577,1577,1556,1554
70433482,1000,1000,1000,1000,100028306,1576,1576,1555,1554
70435981,1000,1000,1000,1000,100128266,1576,1576,1554,1553
70438480,1000,1000,1000,1000,100228226,1576,1577,1553,1552
70440979,1000,1000,1000,1000,100328186,1576,1577,1551,1552
70443478,1000,1000,1000,1000,100428979,1576,1578,1550,1551
70445977,1000,1000,1000,1000,100528939,1577,1579,1549,1549
70448476,1000,1000,1000,1000,100628899,1578,1580,1547,1546
70450975,1000,1000,1000,1000,100728859,1581,1582,1546,1546
70453474,1000,1000,1000,1000,100828819,1583,1584,1544,1544
70455973,1000,1000,1000,1000,100928779,1586,1586,1542,1543
70458472,1000,1000,1000,1000,101028739,1588,1588,1541,1541
70460971,1000,1000,1000,1000,101128699,1589,1589,1540,1540
70463470,1000,1000,1000,1000,101228659,1590,1590,1539,1540
70465969,1000,1000,1000,1000,101328619,1591,1590,1540,1542
70468468,1000,1000,1000,1000,101428579,1590,1590,1542,1544
70470967,1000,1000,1000,1000,101528539,1589,1588,1544,1547
70473466,1000,1000,1000,1000,101628499,1587,1586,1548,1552
70475965,1000,1000,1000,1000,101728459,1582,1580,1553,1556
70478464,1000,1000,1000,1000,101828419,1576,1574,1561,1564
70480963,1000,1000,1000,1000,101928379,1569,1566,1572,1573
70483462,1000,1000,1000,1000,102028339,1561,1558,1583,1584
70485961,1000,1000,1000,1000,102128299,1551,1548,1593,1593
70488460,1000,1000,1000,1000,102228259,1543,1541,1602,1603
70490959,1000,1000,1000,1000,102328219,1536,1536,1609,1608
70493458,1000,1000,1000,1000,102428179,1532,1534,1612,1610
70495957,1000,1000,1000,1000,102528972,1532,1534,1611,1611
70498456,1000,1000,1000,1000,102628932,1535,1537,1609,1609
70500955,1000,1000,1000,1000,102728892,1540,1543,1605,1604
70503454,1000,1000,1000,1000,102828852,1548,1550,1599,1598
70505953,1000,1000,1000,1000,102928812,1555,1556,1592,1591
70508452,1000,1000,1000,1000,103028772,1563,1564,1585,1584
70510951,1000,1000,1000,1000,103128732,1572,1571,1579,1578
70513450,1000,1000,1000,1000,103228692,1579,1577,1573,1573
70515949,1000,1000,1000,1000,103328652,1584,1582,1570,1569
70518448,1000,1000,1000,1000,103428612,1587,1585,1566,1566
70520947,1000,1000,1000,1000,103528572,1589,1587,1566,1566
70523446,1000,1000,1000,1000,103628532,1589,1588,1566,1567
70525945,1000,1000,1000,1000,103728492,1588,1587,1568,1568
70528444,1000,1000,1000,1000,103828452,1587,1587,1571,1572
70530943,1000,1000,1000,1000,103928412,1584,1585,1574,1574
70533442,1000,1000,1000,1000,104028372,1582,1582,1577,1576
70535941,1000,1000,1000,1000,104128332,1579,1580,1580,1579
70538440,1000,1000,1000,1000,104228292,1577,1577,1581,1581
70540939,1000,1000,1000,1000,104328252,1575,1575,1583,1583
70543438,1000,1000,1000,1000,104428212,1574,1574,1584,1584
70545937,1000,1000,1000,1000,104528172,1573,1574,1584,1584
70548436,1000,1000,1000,1000,104628965,1573,1575,1586,1585
70550935,1000,1000,1000,1000,104728925,1574,1575,1585,1584
70553434,1000,1000,1000,1000,104828885,1575,1575,1583,1583
70555933,1000,1000,1000,1000,104928845,1576,1576,1581,1581
70558432,1000,1000,1000,1000,105028805,1578,1577,1580,1581
70560931,1000,1000,1000,1000,105128765,1578,1579,1579,1579
70563430,1000,1000,1000,1000,105228725,1580,1579,1578,1578
70565929,1000,1000,1000,1000,105328685,1581,1581,1578,1578
70568428,1000,1000,1000,1000,105428645,1582,1582,1578,1578
70570927,1000,1000,1000,1000,105528605,1583,1582,1579,1578
70573426,1000,1000,1000,1000,105628565,1583,1583,1579,1579
70575925,1000,1000,1000,1000,105728525,1583,1583,1579,1578
70578424,1000,1000,1000,1000,105828485,1582,1582,1579,1579
70580923,1000,1000,1000,1000,105928445,1582,1582,1579,1579
70583422,1000,1000,1000,1000,106028405,1581,1581,1579,1579
70585921,1000,1000,1000,1000,106128365,1581,1582,1581,1581
70588420,1000,1000,1000,1000,106228325,1581,1581,1582,1581
70590919,1000,1000,1000,1000,106328285,1581,1581,1582,1582
70593418,1000,1000,1000,1000,106428245,1581,1581,1582,1582
70595917,1000,1000,1000,1000,106528205,1581,1580,1583,1582
70598416,1000,1000,1000,1000,106628165,1581,1581,1583,1582
70600915,1000,1000,1000,1000,106728958,1581,1581,1583,1583
70603414,1000,1000,1000,1000,106828918,1581,1581,1582,1582
70605913,1000,1000,1000,1000,106928878,1581,1580,1581,1582
70608412,1000,1000,1000,1000,107028838,1581,1581,1586,1576
70610911,1000,1000,1000,1000,107128798,1580,1581,1587,1573
70613410,1000,1000,1000,1000,107228758,1579,1578,1580,1574
70615909,1000,1000,1000,1000,107328718,1576,1575,1571,1573
70618408,1000,1000,1000,1000,107428678,1573,1572,1566,1573
70620907,1000,1000,1000,1000,107528638,1570,1570,1564,1571
70623406,1000,1000,1000,1000,107628598,1569,1569,1564,1569
70625905,1000,1000,1000,1000,107728558,1567,1568,1565,1566
70628404,1000,1000,1000,1000,107828518,1566,1567,1567,1565
70630903,1000,1000,1000,1000,107928478,1566,1566,1568,1566
70633402,1000,1000,1000,1000,108028438,1565,1565,1567,1565
70635901,1000,1000,1000,1000,108128398,1565,1565,1567,1566
70638400,1000,1000,1000,1000,108228358,1564,1564,1567,1566
70640899,1000,1000,1000,1000,108328318,1563,1563,1565,1565
70643398,1000,1000,1000,1000,108428278,1563,1563,1565,1565
70645897,1000,1000,1000,1000,108528238,1562,1562,1563,1564
70648396,1000,1000,1000,1000,108628198,1562,1562,1563,1563
70650895,1000,1000,1000,1000,108728158,1561,1561,1561,1562
70653394,1000,1000,1000,1000,108828951,1561,1560,1561,1561
70655893,1000,1000,1000,1000,108928911,1561,1561,1561,1561
70658392,1000,1000,1000,1000,109028871,1560,1560,1560,1559
70660891,1000,1000,1000,1000,109128831,1560,1560,1560,1559
70663390,1000,1000,1000,1000,109228791,1559,1559,1560,1559
70665889,1000,1000,1000,1000,109328751,1559,1559,1560,1558
70668388,1000,1000,1000,1000,109428711,1559,1558,1559,1557
70670887,1000,1000,1000,1000,109528671,1559,1559,1559,1558
70673386,1000,1000,1000,1000,109628631,1558,1558,1559,1557
70675885,1000,1000,1000,1000,109728591,1559,1558,1560,1557
70678384,1000,1000,1000,1000,109828551,1557,1556,1558,1555
70680883,1000,1000,1000,1000,109928511,1557,1556,1556,1557
70683382,1000,1000,1000,1000,110028471,1557,1557,1553,1560
70685881,1000,1000,1000,1000,110128431,1555,1555,1550,1558
70688380,1000,1000,1000,1000,110228391,1551,1552,1547,1553
70690879,1000,1000,1000,1000,110328351,1546,1547,1543,1546
70693378,1000,1000,1000,1000,110428311,1540,1541,1538,1537
70695877,1000,1000,1000,1000,110528271,1535,1535,1531,1530
70698376,1000,1000,1000,1000,110628231,1528,1528,1524,1523
70700875,1000,1000,1000,1000,110728191,1524,1524,1521,1520
70703374,1000,1000,1000,1000,110828984,1522,1521,1520,1520
70705873,1000,1000,1000,1000,110928944,1521,1521,1521,1522
70708372,1000,1000,1000,1000,111028904,1522,1522,1524,1526
70710871,1000,1000,1000,1000,111128864,1525,1525,1529,1530
70713370,1000,1000,1000,1000,111228824,1527,1527,1533,1534
70715869,1000,1000,1000,1000,111328784,1532,1532,1539,1539
70718368,1000,1000,1000,1000,111428744,1535,1535,1542,1542
70720867,1000,1000,1000,1000,111528704,1538,1538,1543,1543
70723366,1000,1000,1000,1000,111628664,1540,1540,1544,1544
70725865,1000,1000,1000,1000,111728624,1542,1543,1545,1545
70728364,1000,1000,1000,1000,111828584,1544,1544,1544,1544
70730863,1000,1000,1000,1000,111928544,1545,1546,1544,1544
70733362,1000,1000,1000,1000,112028504,1547,1547,1544,1544
70735861,1000,1000,1000,1000,112128464,1548,1547,1544,1544
70738360,1000,1000,1000,1000,112228424,1548,1548,1544,1543
70740859,1000,1000,1000,1000,112328384,1548,1547,1544,1543
70743358,1000,1000,1000,1000,112428344,1548,1548,1544,1544
70745857,1000,1000,1000,1000,112528304,1548,1548,1545,1545
70748356,1000,1000,1000,1000,112628264,1547,1547,1545,1545
70750855,1000,1000,1000,1000,112728224,1546,1546,1544,1544
70753354,1000,1000,1000,1000,112828184,1545,1545,1545,1545
70755853,1000,1000,1000,1000,112928977,1544,1544,1545,1544
70758352,1000,1000,1000,1000,113028937,1544,1544,1545,1544
70760851,1000,1000,1000,1000,113128897,1544,1544,1545,1545
70763350,1000,1000,1000,1000,113228857,1543,1544,1545,1545
70765849,1000,1000,1000,1000,113328817,1543,1543,1545,1544
70768348,1000,1000,1000,1000,113428777,1544,1543,1545,1545
70770847,1000,1000,1000,1000,113528737,1544,1543,1545,1545
70773346,1000,1000,1000,1000,113628697,1544,1544,1545,1545
70775845,1000,1000,1000,1000,113728657,1544,1543,1544,1544
70778344,1000,1000,1000,1000,113828617,1544,1544,1544,1544
70780843,1000,1000,1000,1000,113928577,1544,1543,1543,1543
70783342,1000,1000,1000,1000,114028537,1544,1544,1543,1543
70785841,1000,1000,1000,1000,114128497,1544,1543,1543,1543
70788340,1000,1000,1000,1000,114228457,1544,1544,1543,1543
70790839,1000,1000,1000,1000,114328417,1544,1544,1543,1544
70793338,1000,1000,1000,1000,114428377,1544,1545,1544,1544
70795837,1000,1000,1000,1000,114528337,1544,1544,1544,1544
70798336,1000,1000,1000,1000,114628297,1544,1545,1545,1544
70800835,1000,1000,1000,1000,114728257,1545,1544,1544,1544
70803334,1000,1000,1000,1000,114828217,1544,1544,1544,1544
70805833,1000,1000,1000,1000,114928177,1544,1544,1544,1544
70808332,1000,1000,1000,1000,115028970,1544,1544,1544,1544
70810831,1000,1000,1000,1000,115128930,1545,1544,1544,1545
70813330,1000,1000,1000,1000,115228890,1544,1544,1543,1544
70815829,1000,1000,1000,1000,115328850,1544,1544,1544,1544
70818328,1000,1000,1000,1000,115428810,1545,1545,1545,1545
70820827,1000,1000,1000,1000,115528770,1544,1544,1543,1544
70823326,1000,1000,1000,1000,115628730,1543,1544,1543,1543
70825825,1000,1000,1000,1000,115728690,1544,1543,1544,1544
70828324,1000,1000,1000,1000,115828650,1544,1544,1544,1544
70830823,1000,1000,1000,1000,115928610,1544,1544,1543,1544
70833322,1000,1000,1000,1000,116028570,1544,1544,1544,1544
70835821,1000,1000,1000,1000,116128530,1544,1544,1544,1544
70838320,1000,1000,1000,1000,116228490,1544,1544,1545,1544
70840819,1000,1000,1000,1000,116328450,1545,1545,1545,1545
70843318,1000,1000,1000,1000,116428410,1544,1544,1544,1544
70845817,1000,1000,1000,1000,116528370,1544,1544,1544,1544
70848316,1000,1000,1000,1000,116628330,1544,1544,1543,1544
70850815,1000,1000,1000,1000,116728290,1545,1545,1546,1545
70853314,1000,1000,1000,1000,116828250,1544,1545,1545,1544
70855813,1000,1000,1000,1000,116928210,1544,1544,1544,1544
70858312,1000,1000,1000,1000,117028170,1545,1545,1544,1544
70860811,1000,1000,1000,1000,117128963,1544,1543,1543,1543
70863310,1000,1000,1000,1000,117228923,1544,1544,1544,1544
70865809,1000,1000,1000,1000,117328883,1544,1544,1544,1544
70868308,1000,1000,1000,1000,117428843,1544,1544,1544,1543
70870807,1000,1000,1000,1000,117528803,1544,1544,1545,1544
70873306,1000,1000,1000,1000,117628763,1544,1544,1544,1544
70875805,1000,1000,1000,1000,117728723,1544,1544,1545,1545
70878304,1000,1000,1000,1000,117828683,1544,1544,1544,1545
70880803,1000,1000,1000,1000,117928643,1544,1544,1544,1545
70883302,1000,1000,1000,1000,118028603,1544,1544,1544,1544
70885801,1000,1000,1000,1000,118128563,1545,1544,1544,1544
70888300,1000,1000,1000,1000,118228523,1544,1543,1544,1543
70890799,1000,1000,1000,1000,118328483,1544,1544,1544,1544
70893298,1000,1000,1000,1000,118428443,1545,1545,1545,1545
70895797,1000,1000,1000,1000,118528403,1545,1545,1545,1545
70898296,1000,1000,1000,1000,118628363,1544,1544,1544,1544
70900795,1000,1000,1000,1000,118728323,1544,1544,1544,1544
70903294,1000,1000,1000,1000,118828283,1544,1545,1544,1544
70905793,1000,1000,1000,1000,118928243,1544,1544,1544,1544
70908292,1000,1000,1000,1000,119028203,1544,1544,1544,1544
70910791,1000,1000,1000,1000,119128163,1544,1544,1543,1544
70913290,1000,1000,1000,1000,119228956,1544,1544,1544,1543
70915789,1000,1000,1000,1000,119328916,1544,1544,1544,1544
70918288,1000,1000,1000,1000,119428876,1544,1544,1544,1544
70920787,1000,1000,1000,1000,119528836,1544,1544,1544,1544
70923286,1000,1000,1000,1000,119628796,1544,1545,1545,1545
70925785,1000,1000,1000,1000,119728756,1545,1545,1544,1545
70928284,1000,1000,1000,1000,119828716,1545,1545,1545,1545
70930783,1000,1000,1000,1000,119928676,1545,1544,1545,1545
70933282,1000,1000,1000,1000,120028636,1545,1545,1545,1545
70935781,1000,1000,1000,1000,120128596,1544,1544,1544,1545
70938280,1000,1000,1000,1000,120228556,1544,1544,1543,1543
70940779,1000,1000,1000,1000,120328516,1545,1544,1544,1544
70943278,1000,1000,1000,1000,120428476,1425,1425,1380,1379
70945777,1000,1000,1000,1000,120528436,1347,1348,1258,1258
70948276,1000,1000,1000,1000,120628396,1322,1323,1217,1215
70950775,1000,1000,1000,1000,120728356,1311,1311,1196,1195
70953274,1000,1000,1000,1000,120828316,1288,1289,1154,1152
70955773,1000,1000,1000,1000,120928276,1231,1231,1151,1150
70958272,1000,1000,1000,1000,121028236,1121,1123,1152,1150
70960771,1000,1000,1000,1000,121128196,1070,1070,1151,1150
70963270,1000,1000,1000,1000,121228156,1069,1070,1152,1150
70965769,1000,1000,1000,1000,121328949,1070,1070,1151,1150
70968268,1000,1000,1000,1000,121428909,1071,1052,1150,1174
70970767,1000,1000,1000,1000,121528869,1071,1059,1150,1165
70973266,1000,1000,1000,1000,121628829,1071,1063,1150,1160
70975765,1000,1000,1000,1000,121728789,1071,1063,1150,1160
70978264,1000,1000,1000,1000,121828749,1071,1063,1150,1160
70980763,1000,1000,1000,1000,121928709,1071,1063,1150,1160
70983262,1000,1000,1000,1000,122028669,1071,1063,1150,1160
70985761,1000,1000,1000,1000,122128629,1071,1062,1150,1161
70988260,1000,1000,1000,1000,122228589,1071,1070,1150,1150
70990759,1000,1000,1000,1000,122328549,1071,1070,1150,1151
70993258,1000,1000,1000,1000,122428509,1071,1069,1150,1151
70995757,1000,1000,1000,1000,122528469,1071,1069,1150,1152
70998256,1000,1000,1000,1000,122628429,1053,1051,1150,1152
71000755,1000,1000,1000,1000,122728389,1000,1000,1000,1000
71003254,1000,1000,1000,1000,122828349,1000,1000,1000,1000
71005753,1000,1000,1000,1000,122928309,1000,1000,1000,1000
71008252,1000,1000,1000,1000,123028269,1000,1000,1000,1000
71010751,1000,1000,1000,1000,123128229,1000,1000,1000,1000
71013250,1000,1000,1000,1000,123228189,1000,1000,1000,1000
71015749,1000,1000,1000,1000,123328982,1000,1000,1000,1000
71018248,1000,1000,1000,1000,123428942,1000,1000,1000,1000
71020747,1000,1000,1000,1000,123528902,1000,1000,1000,1000
71023246,1000,1000,1000,1000,123628862,1000,1000,1000,1000
71025745,1000,1000,1000,1000,123728822,1000,1000,1000,1000
71028244,1000,1000,1000,1000,123828782,1000,1000,1000,1000
71030743,1000,1000,1000,1000,123928742,1000,1000,1000,1000
71033242,1000,1000,1000,1000,124028702,1000,1000,1000,1000
71035741,1000,1000,1000,1000,124128662,1000,1000,1000,1000
71038240,1000,1000,1000,1000,124228622,1000,1000,1000,1000
71040739,1000,1000,1000,1000,124328582,1000,1000,1000,1000
71043238,1000,1000,1000,1000,124428542,1000,1000,1000,1000
71045737,1000,1000,1000,1000,124528502,1000,1000,1000,1000
71048236,1000,1000,1000,1000,124628462,1000,1000,1000,1000
71050735,1000,1000,1000,1000,124728422,1000,1000,1000,1000
71053234,1000,1000,1000,1000,124828382,1000,1000,1000,1000
71055733,1000,1000,1000,1000,124928342,1000,1000,1000,1000
71058232,1000,1000,1000,1000,125028302,1000,1000,1000,1000
71060731,1000,1000,1000,1000,125128262,1000,1000,1000,1000
71063230,1000,1000,1000,1000,125228222,1000,1000,1000,1000
71065729,1000,1000,1000,1000,125328182,1000,1000,1000,1000
71068228,1000,1000,1000,1000,125428975,1000,1000,1000,1000
71070727,1000,1000,1000,1000,125528935,1000,1000,1000,1000
71073226,1000,1000,1000,1000,125628895,1000,1000,1000,1000
71075725,1000,1000,1000,1000,125728855,1000,1000,1000,1000
71078224,1000,1000,1000,1000,125828815,1000,1000,1000,1000
71080723,1000,1000,1000,1000,125928775,1000,1000,1000,1000
71083222,1000,1000,1000,1000,126028735,1000,1000,1000,1000
71085721,1000,1000,1000,1000,126128695,1000,1000,1000,1000
71088220,1000,1000,1000,1000,126228655,1000,1000,1000,1000
71090719,1000,1000,1000,1000,126328615,1000,1000,1000,1000
71093218,1000,1000,1000,1000,126428575,1000,1000,1000,1000
71095717,1000,1000,1000,1000,126528535,1000,1000,1000,1000
71098216,1000,1000,1000,1000,126628495,1000,1000,1000,1000
71100715,1000,1000,1000,1000,126728455,1000,1000,1000,1000
71103214,1000,1000,1000,1000,126828415,1000,1000,1000,1000
71105713,1000,1000,1000,1000,126928375,1000,1000,1000,1000
71108212,1000,1000,1000,1000,127028335,1000,1000,1000,1000
71110711,1000,1000,1000,1000,127128295,1000,1000,1000,1000
71113210,1000,1000,1000,1000,127228255,1000,1000,1000,1000
71115709,1000,1000,1000,1000,127328215,1000,1000,1000,1000
71118208,1000,1000,1000,1000,127428175,1000,1000,1000,1000
71120707,1000,1000,1000,1000,127528968,1000,1000,1000,1000
71123206,1000,1000,1000,1000,127628928,1000,1000,1000,1000
71125705,1000,1000,1000,1000,127728888,1000,1000,1000,1000
71128204,1000,1000,1000,1000,127828848,1000,1000,1000,1000
71130703,1000,1000,1000,1000,127928808,1000,1000,1000,1000
71133202,1000,1000,1000,1000,128028768,1000,1000,1000,1000
71135701,1000,1000,1000,1000,128128728,1000,1000,1000,1000
71138200,1000,1000,1000,1000,128228688,1000,1000,1000,1000
71140699,1000,1000,1000,1000,128328648,1000,1000,1000,1000
71143198,1000,1000,1000,1000,128428608,1000,1000,1000,1000
71145697,1000,1000,1000,1000,128528568,1000,1000,1000,1000
71148196,1000,1000,1000,1000,128628528,1000,1000,1000,1000
71150695,1000,1000,1000,1000,128728488,1000,1000,1000,1000
71153194,1000,1000,1000,1000,128828448,1000,1000,1000,1000
71155693,1000,1000,1000,1000,128928408,1000,1000,1000,1000
71158192,1000,1000,1000,1000,129028368,1000,1000,1000,1000
71160691,1000,1000,1000,1000,129128328,1000,1000,1000,1000
71163190,1000,1000,1000,1000,129228288,1000,1000,1000,1000
71165689,1000,1000,1000,1000,129328248,1000,1000,1000,1000
71168188,1000,1000,1000,1000,,,,,
71170687,1000,1000,1000,1000,,,,,
71173186,1000,1000,1000,1000,,,,,
71175685,1000,1000,1000,1000,,,,,
71178184,1000,1000,1000,1000,,,,,
71180683,1000,1000,1000,1000,,,,,
71183182,1000,1000,1000,1000,,,,,
71185681,1000,1000,1000,1000,,,,,
71188180,1000,1000,1000,1000,,,,,
71190679,1000,1000,1000,1000,,,,,
71193178,1000,1000,1000,1000,,,,,
71195677,1000,1000,1000,1000,,,,,
71198176,1000,1000,1000,1000,,,,,
71200675,1000,1000,1000,1000,,,,,
71203174,1000,1000,1000,1000,,,,,
71205673,1000,1000,1000,1000,,,,,
71208172,1000,1000,1000,1000,,,,,
71210671,1000,1000,1000,1000,,,,,
71213170,1000,1000,1000,1000,,,,,
71215669,1000,1000,1000,1000,,,,,
71218168,1000,1000,1000,1000,,,,,
71220667,1000,1000,1000,1000,,,,,
71223166,1000,1000,1000,1000,,,,,
71225665,1000,1000,1000,1000,,,,,
71228164,1000,1000,1000,1000,,,,,
71230663,1000,1000,1000,1000,,,,,
71233162,1000,1000,1000,1000,,,,,
71235661,1000,1000,1000,1000,,,,,
71238160,1000,1000,1000,1000,,,,,
71240659,1000,1000,1000,1000,,,,,
71243158,1000,1000,1000,1000,,,,,
71245657,1000,1000,1000,1000,,,,,
71248156,1000,1000,1000,1000,,,,,
71250655,1000,1000,1000,1000,,,,,
71253154,1000,1000,1000,1000,,,,,
71256486,1000,1000,1000,1000,,,,,
71258985,1000,1000,1000,1000,,,,,
71261484,1000,1000,1000,1000,,,,,
71263983,1000,1000,1000,1000,,,,,
71266482,1000,1000,1000,1000,,,,,
71268981,1000,1000,1000,1000,,,,,
71271480,1000,1000,1000,1000,,,,,
71273979,1000,1000,1000,1000,,,,,
71276478,1000,1000,1000,1000,,,,,
71278977,1000,1000,1000,1000,,,,,
71281476,1000,1000,1000,1000,,,,,
71283975,1000,1000,1000,1000,,,,,
71286474,1000,1000,1000,1000,,,,,
71288973,1000,1000,1000,1000,,,,,
71291472,1000,1000,1000,1000,,,,,
71293971,1000,1000,1000,1000,,,,,
71296470,1000,1000,1000,1000,,,,,
71298969,1000,1000,1000,1000,,,,,
71301468,1000,1000,1000,1000,,,,,
71303967,1000,1000,1000,1000,,,,,
71306466,1000,1000,1000,1000,,,,,
71308965,1000,1000,1000,1000,,,,,
71311464,1000,1000,1000,1000,,,,,
71313963,1000,1000,1000,1000,,,,,
71316462,1000,1000,1000,1000,,,,,
71318961,1000,1000,1000,1000,,,,,
71321460,1000,1000,1000,1000,,,,,
71323959,1000,1000,1000,1000,,,,,
71326458,1000,1000,1000,1000,,,,,
71328957,1000,1000,1000,1000,,,,,
71331456,1000,1000,1000,1000,,,,,
71333955,1000,1000,1000,1000,,,,,
71336454,1000,1000,1000,1000,,,,,
71338953,1000,1000,1000,1000,,,,,
71341452,1000,1000,1000,1000,,,,,
71343951,1000,1000,1000,1000,,,,,
71346450,1000,1000,1000,1000,,,,,
71348949,1000,1000,1000,1000,,,,,
71351448,1000,1000,1000,1000,,,,,
71353947,1000,1000,1000,1000,,,,,
71356446,1000,1000,1000,1000,,,,,
71358945,1000,1000,1000,1000,,,,,
71361444,1000,1000,1000,1000,,,,,
71363943,1000,1000,1000,1000,,,,,
71366442,1000,1000,1000,1000,,,,,
71368941,1000,1000,1000,1000,,,,,
71371440,1000,1000,1000,1000,,,,,
71373939,1000,1000,1000,1000,,,,,
71376438,1000,1000,1000,1000,,,,,
71378937,1000,1000,1000,1000,,,,,
71381436,1000,1000,1000,1000,,,,,
71383935,1000,1000,1000,1000,,,,,
71386434,1000,1000,1000,1000,,,,,
71388933,1000,1000,1000,1000,,,,,
71391432,1000,1000,1000,1000,,,,,
71393931,1000,1000,1000,1000,,,,,
71396430,1000,1000,1000,1000,,,,,
71398929,1000,1000,1000,1000,,,,,
71401428,1000,1000,1000,1000,,,,,
71403927,1000,1000,1000,1000,,,,,
71406426,1000,1000,1000,1000,,,,,
71408925,1000,1000,1000,1000,,,,,
71411424,1000,1000,1000,1000,,,,,
71413923,1000,1000,1000,1000,,,,,
71416422,1000,1000,1000,1000,,,,,
71418921,1000,1000,1000,1000,,,,,
71421420,1000,1000,1000,1000,,,,,
71423919,1000,1000,1000,1000,,,,,
71426418,1000,1000,1000,1000,,,,,
71428917,1000,1000,1000,1000,,,,,
71431416,1000,1000,1000,1000,,,,,
71433915,1000,1000,1000,1000,,,,,
71436414,1000,1000,1000,1000,,,,,
71438913,1000,1000,1000,1000,,,,,
71441412,1000,1000,1000,1000,,,,,
71443911,1000,1000,1000,1000,,,,,
71446410,1000,1000,1000,1000,,,,,
71448909,1000,1000,1000,1000,,,,,
71451408,1000,1000,1000,1000,,,,,
71453907,1000,1000,1000,1000,,,,,
71456406,1000,1000,1000,1000,,,,,
71458905,1000,1000,1000,1000,,,,,
71461404,1000,1000,1000,1000,,,,,
71463903,1000,1000,1000,1000,,,,,
71466402,1000,1000,1000,1000,,,,,
71468901,1000,1000,1000,1000,,,,,
71471400,1000,1000,1000,1000,,,,,
71473899,1000,1000,1000,1000,,,,,
71476398,1000,1000,1000,1000,,,,,
71478897,1000,1000,1000,1000,,,,,
71481396,1000,1000,1000,1000,,,,,
71483895,1000,1000,1000,1000,,,,,
71486394,1000,1000,1000,1000,,,,,
71488893,1000,1000,1000,1000,,,,,
71491392,1000,1000,1000,1000,,,,,
71493891,1000,1000,1000,1000,,,,,
71496390,1000,1000,1000,1000,,,,,
71498889,1000,1000,1000,1000,,,,,
71501388,1000,1000,1000,1000,,,,,
71503887,1000,1000,1000,1000,,,,,
71506386,1000,1000,1000,1000,,,,,
71508885,1000,1000,1000,1000,,,,,
71511384,1000,1000,1000,1000,,,,,
71513883,1000,1000,1000,1000,,,,,
71516382,1000,1000,1000,1000,,,,,
71518881,1000,1000,1000,1000,,,,,
71521380,1000,1000,1000,1000,,,,,
71523879,1000,1000,1000,1000,,,,,
71526378,1000,1000,1000,1000,,,,,
71528877,1000,1000,1000,1000,,,,,
71531376,1000,1000,1000,1000,,,,,
71533875,1000,1000,1000,1000,,,,,
71536374,1000,1000,1000,1000,,,,,
71538873,1000,1000,1000,1000,,,,,
71541372,1000,1000,1000,1000,,,,,
71543871,1000,1000,1000,1000,,,,,
71546370,1000,1000,1000,1000,,,,,
71548869,1000,1000,1000,1000,,,,,
71551368,1000,1000,1000,1000,,,,,
71553867,1000,1000,1000,1000,,,,,
71556366,1000,1000,1000,1000,,,,,
71558865,1000,1000,1000,1000,,,,,
71561364,1000,1000,1000,1000,,,,,
71563863,1000,1000,1000,1000,,,,,
71566362,1000,1000,1000,1000,,,,,
71568861,1000,1000,1000,1000,,,,,
71571360,1000,1000,1000,1000,,,,,
71573859,1000,1000,1000,1000,,,,,
71576358,1000,1000,1000,1000,,,,,
71578857,1000,1000,1000,1000,,,,,
71581356,1000,1000,1000,1000,,,,,
71583855,1000,1000,1000,1000,,,,,
71586354,1000,1000,1000,1000,,,,,
71588853,1000,1000,1000,1000,,,,,
71591352,1000,1000,1000,1000,,,,,
71593851,1000,1000,1000,1000,,,,,
71596350,1000,1000,1000,1000,,,,,
71598849,1000,1000,1000,1000,,,,,
71601348,1000,1000,1000,1000,,,,,
71603847,1000,1000,1000,1000,,,,,
71606346,1000,1000,1000,1000,,,,,
71608845,1000,1000,1000,1000,,,,,
71611344,1000,1000,1000,1000,,,,,
71613843,1000,1000,1000,1000,,,,,
71616342,1000,1000,1000,1000,,,,,
71618841,1000,1000,1000,1000,,,,,
71621340,1000,1000,1000,1000,,,,,
71623839,1000,1000,1000,1000,,,,,
71626338,1000,1000,1000,1000,,,,,
71628837,1000,1000,1000,1000,,,,,
71631336,1000,1000,1000,1000,,,,,
71633835,1000,1000,1000,1000,,,,,
71636334,1000,1000,1000,1000,,,,,
71638833,1000,1000,1000,1000,,,,,
71641332,1000,1000,1000,1000,,,,,
71643831,1000,1000,1000,1000,,,,,
71646330,1000,1000,1000,1000,,,,,
71648829,1000,1000,1000,1000,,,,,
71651328,1000,1000,1000,1000,,,,,
71653827,1000,1000,1000,1000,,,,,
71656326,1000,1000,1000,1000,,,,,
71658825,1000,1000,1000,1000,,,,,
71661324,1000,1000,1000,1000,,,,,
71663823,1000,1000,1000,1000,,,,,
71666322,1000,1000,1000,1000,,,,,
71668821,1000,1000,1000,1000,,,,,
71671320,1000,1000,1000,1000,,,,,
71673819,1000,1000,1000,1000,,,,,
71676318,1000,1000,1000,1000,,,,,
71678817,1000,1000,1000,1000,,,,,
71681316,1000,1000,1000,1000,,,,,
71683815,1001,1001,1001,1001,,,,,
71686314,1002,1002,1002,1002,,,,,
71688813,1003,1003,1003,1003,,,,,
71691312,1003,1003,1003,1003,,,,,
71693811,1004,1004,1004,1004,,,,,
71696310,1005,1005,1005,1005,,,,,
71698809,1006,1006,1006,1006,,,,,
71701308,1006,1006,1006,1006,,,,,
71703807,1007,1007,1007,1007,,,,,
71706306,1008,1008,1008,1008,,,,,
71708805,1009,1009,1009,1009,,,,,
71711304,1009,1009,1009,1009,,,,,
71713803,1010,1010,1010,1010,,,,,
71716302,1011,1011,1011,1011,,,,,
71718801,1012,1012,1012,1012,,,,,
71721300,1012,1012,1012,1012,,,,,
71723799,1013,1013,1013,1013,,,,,
71726298,1014,1014,1014,1014,,,,,
71728797,1015,1015,1015,1015,,,,,
71731296,1015,1015,1015,1015,,,,,
71733795,1016,1016,1016,1016,,,,,
71736294,1017,1017,1017,1017,,,,,
71738793,1018,1018,1018,1018,,,,,
71741292,1018,1018,1018,1018,,,,,
71743791,1019,1019,1019,1019,,,,,
71746290,1020,1020,1020,1020,,,,,
71748789,1021,1021,1021,1021,,,,,
71751288,1021,1021,1021,1021,,,,,
71753787,1022,1022,1022,1022,,,,,
71756286,1023,1023,1023,1023,,,,,
71758785,1024,1024,1024,1024,,,,,
71761284,1024,1024,1024,1024,,,,,
71763783,1025,1025,1025,1025,,,,,
71766282,1026,1026,1026,1026,,,,,
71768781,1027,1027,1027,1027,,,,,
71771280,1027,1027,1027,1027,,,,,
71773779,1028,1028,1028,1028,,,,,
71776278,1029,1029,1029,1029,,,,,
71778777,1030,1030,1030,1030,,,,,
71781276,1030,1030,1030,1030,,,,,
71783775,1031,1031,1031,1031,,,,,
71786274,1032,1032,1032,1032,,,,,
71788773,1033,1033,1033,1033,,,,,
71791272,1033,1033,1033,1033,,,,,
71793771,1034,1034,1034,1034,,,,,
71796270,1035,1035,1035,1035,,,,,
71798769,1036,1036,1036,1036,,,,,
71801268,1036,1036,1036,1036,,,,,
71803767,1037,1037,1037,1037,,,,,
71806266,1038,1038,1038,1038,,,,,
71808765,1039,1039,1039,1039,,,,,
71811264,1039,1039,1039,1039,,,,,
71813763,1040,1040,1040,1040,,,,,
71816262,1041,1041,1041,1041,,,,,
71818761,1042,1042,1042,1042,,,,,
71821260,1042,1042,1042,1042,,,,,
71823759,1043,1043,1043,1043,,,,,
71826258,1044,1044,1044,1044,,,,,
71828757,1045,1045,1045,1045,,,,,
71831256,1045,1045,1045,1045,,,,,
71833755,1046,1046,1046,1046,,,,,
71836254,1047,1047,1047,1047,,,,,
71838753,1048,1048,1048,1048,,,,,
71841252,1048,1048,1048,1048,,,,,
71843751,1049,1049,1049,1049,,,,,
71846250,1050,1050,1050,1050,,,,,
71848749,1051,1051,1051,1051,,,,,
71851248,1051,1051,1051,1051,,,,,
71853747,1052,1052,1052,1052,,,,,
71856246,1053,1053,1053,1053,,,,,
71858745,1054,1054,1054,1054,,,,,
71861244,1054,1054,1054,1054,,,,,
71863743,1055,1055,1055,1055,,,,,
71866242,1056,1056,1056,1056,,,,,
71868741,1057,1057,1057,1057,,,,,
71871240,1057,1057,1057,1057,,,,,
71873739,1058,1058,1058,1058,,,,,
71876238,1059,1059,1059,1059,,,,,
71878737,1060,1060,1060,1060,,,,,
71881236,1060,1060,1060,1060,,,,,
71883735,1061,1061,1061,1061,,,,,
71886234,1062,1062,1062,1062,,,,,
71888733,1063,1063,1063,1063,,,,,
71891232,1063,1063,1063,1063,,,,,
71893731,1064,1064,1064,1064,,,,,
71896230,1065,1065,1065,1065,,,,,
71898729,1066,1066,1066,1066,,,,,
71901228,1066,1066,1066,1066,,,,,
71903727,1067,1067,1067,1067,,,,,
71906226,1068,1068,1068,1068,,,,,
71908725,1069,1069,1069,1069,,,,,
71911224,1069,1069,1069,1069,,,,,
71913723,1070,1070,1070,1070,,,,,
71916222,1071,1071,1071,1071,,,,,
71918721,1072,1072,1072,1072,,,,,
71921220,1072,1072,1072,1072,,,,,
71923719,1073,1073,1073,1073,,,,,
71926218,1074,1074,1074,1074,,,,,
71928717,1075,1075,1075,1075,,,,,
71931216,1075,1075,1075,1075,,,,,
71933715,1076,1076,1076,1076,,,,,
71936214,1077,1077,1077,1077,,,,,
71938713,1078,1078,1078,1078,,,,,
71941212,1078,1078,1078,1078,,,,,
71943711,1079,1079,1079,1079,,,,,
71946210,1080,1080,1080,1080,,,,,
71948709,1081,1081,1081,1081,,,,,
71951208,1081,1081,1081,1081,,,,,
71953707,1082,1082,1082,1082,,,,,
71956206,1083,1083,1083,1083,,,,,
71958705,1084,1084,1084,1084,,,,,
71961204,1084,1084,1084,1084,,,,,
71963703,1085,1085,1085,1085,,,,,
71966202,1086,1086,1086,1086,,,,,
71968701,1087,1087,1087,1087,,,,,
71971200,1087,1087,1087,1087,,,,,
71973699,1088,1088,1088,1088,,,,,
71976198,1089,1089,1089,1089,,,,,
71978697,1090,1090,1090,1090,,,,,
71981196,1090,1090,1090,1090,,,,,
71983695,1091,1091,1091,1091,,,,,
71986194,1092,1092,1092,1092,,,,,
71988693,1093,1093,1093,1093,,,,,
71991192,1093,1093,1093,1093,,,,,
71993691,1094,1094,1094,1094,,,,,
71996190,1095,1095,1095,1095,,,,,
71998689,1096,1096,1096,1096,,,,,
72001188,1096,1096,1096,1096,,,,,
72003687,1097,1097,1097,1097,,,,,
72006186,1098,1098,1098,1098,,,,,
72008685,1099,1099,1099,1099,,,,,
72011184,1099,1099,1099,1099,,,,,
72013683,1100,1100,1100,1100,,,,,
72016182,1101,1101,1101,1101,,,,,
72018681,1101,1101,1101,1101,,,,,
72021180,1102,1102,1102,1102,,,,,
72023679,1103,1103,1103,1103,,,,,
72026178,1104,1104,1104,1104,,,,,
72028677,1104,1104,1104,1104,,,,,
72031176,1105,1105,1105,1105,,,,,
72033675,1106,1106,1106,1106,,,,,
72036174,1107,1107,1107,1107,,,,,
72038673,1107,1107,1107,1107,,,,,
72041172,1108,1108,1108,1108,,,,,
72043671,1109,1109,1109,1109,,,,,
72046170,1110,1110,1110,1110,,,,,
72048669,1110,1110,1110,1110,,,,,
72051168,1111,1111,1111,1111,,,,,
72053667,1112,1112,1112,1112,,,,,
72056166,1113,1113,1113,1113,,,,,
72058665,1113,1113,1113,1113,,,,,
72061164,1114,1114,1114,1114,,,,,
72063663,1115,1115,1115,1115,,,,,
72066162,1116,1116,1116,1116,,,,,
72068661,1116,1116,1116,1116,,,,,
72071160,1117,1117,1117,1117,,,,,
72073659,1118,1118,1118,1118,,,,,
72076158,1119,1119,1119,1119,,,,,
72078657,1119,1119,1119,1119,,,,,
72081156,1120,1120,1120,1120,,,,,
72083655,1121,1121,1121,1121,,,,,
72086154,1122,1122,1122,1122,,,,,
72088653,1122,1122,1122,1122,,,,,
72091152,1123,1123,1123,1123,,,,,
72093651,1124,1124,1124,1124,,,,,
72096150,1125,1125,1125,1125,,,,,
72098649,1125,1125,1125,1125,,,,,
72101148,1126,1126,1126,1126,,,,,
72103647,1127,1127,1127,1127,,,,,
72106146,1128,1128,1128,1128,,,,,
72108645,1128,1128,1128,1128,,,,,
72111144,1129,1129,1129,1129,,,,,
72113643,1130,1130,1130,1130,,,,,
72116142,1131,1131,1131,1131,,,,,
72118641,1131,1131,1131,1131,,,,,
72121140,1132,1132,1132,1132,,,,,
72123639,1133,1133,1133,1133,,,,,
72126138,1134,1134,1134,1134,,,,,
72128637,1134,1134,1134,1134,,,,,
72131136,1135,1135,1135,1135,,,,,
72133635,1136,1136,1136,1136,,,,,
72136134,1137,1137,1137,1137,,,,,
72138633,1137,1137,1137,1137,,,,,
72141132,1138,1138,1138,1138,,,,,
72143631,1139,1139,1139,1139,,,,,
72146130,1140,1140,1140,1140,,,,,
72148629,1140,1140,1140,1140,,,,,
72151128,1141,1141,1141,1141,,,,,
72153627,1142,1142,1142,1142,,,,,
72156126,1143,1143,1143,1143,,,,,
72158625,1143,1143,1143,1143,,,,,
72161124,1144,1144,1144,1144,,,,,
72163623,1145,1145,1145,1145,,,,,
72166122,1146,1146,1146,1146,,,,,
72168621,1146,1146,1146,1146,,,,,
72171120,1147,1147,1147,1147,,,,,
72173619,1148,1148,1148,1148,,,,,
72176118,1149,1149,1149,1149,,,,,
72178617,1149,1149,1149,1149,,,,,
72181116,1150,1150,1150,1150,,,,,
72183615,1163,1152,1153,1164,,,,,
72186114,1171,1160,1161,1171,,,,,
72188613,1179,1168,1169,1179,,,,,
72191112,1186,1176,1177,1187,,,,,
72193611,1194,1183,1184,1195,,,,,
72196110,1201,1191,1192,1202,,,,,
72198609,1209,1198,1199,1209,,,,,
72201108,1216,1206,1207,1216,,,,,
72203607,1223,1213,1214,1223,,,,,
72206106,1230,1220,1221,1230,,,,,
72208605,1237,1227,1228,1237,,,,,
72211104,1244,1234,1235,1244,,,,,
72213603,1250,1241,1241,1251,,,,,
72216102,1257,1247,1248,1257,,,,,
72218601,1263,1254,1255,1264,,,,,
72221100,1270,1261,1261,1270,,,,,
72223599,1276,1267,1268,1277,,,,,
72226098,1282,1273,1274,1283,,,,,
72228597,1289,1280,1280,1289,,,,,
72231096,1295,1286,1287,1295,,,,,
72233595,1301,1292,1293,1301,,,,,
72236094,1307,1298,1299,1307,,,,,
72238593,1313,1304,1305,1313,,,,,
72241092,1319,1310,1311,1319,,,,,
72243591,1324,1316,1317,1325,,,,,
72246090,1330,1322,1322,1331,,,,,
72248589,1336,1327,1328,1336,,,,,
72251088,1342,1333,1334,1342,,,,,
72253587,1347,1339,1340,1347,,,,,
72256086,1353,1344,1345,1353,,,,,
72258585,1358,1350,1351,1358,,,,,
72261084,1364,1355,1356,1364,,,,,
72263583,1369,1361,1362,1369,,,,,
72266082,1374,1366,1367,1375,,,,,
72268581,1380,1372,1372,1380,,,,,
72271080,1385,1377,1378,1385,,,,,
72273579,1390,1382,1383,1390,,,,,
72276078,1395,1387,1388,1396,,,,,
72278577,1400,1392,1393,1401,,,,,
72281076,1406,1398,1398,1406,,,,,
72283575,1411,1403,1403,1411,,,,,
72286074,1416,1408,1408,1416,,,,,
72288573,1421,1413,1413,1421,,,,,
72291072,1426,1418,1418,1426,,,,,
72293571,1431,1423,1423,1431,,,,,
72296070,1435,1427,1428,1436,,,,,
72298569,1440,1432,1433,1440,,,,,
72301068,1445,1437,1438,1445,,,,,
72303567,1450,1442,1443,1450,,,,,
72306066,1455,1447,1447,1455,,,,,
72308565,1459,1451,1452,1459,,,,,
72311064,1464,1456,1457,1464,,,,,
72313563,1469,1461,1462,1469,,,,,
72316062,1473,1465,1466,1473,,,,,
72318561,1478,1470,1471,1478,,,,,
72321060,1482,1475,1475,1482,,,,,
72323559,1487,1479,1480,1487,,,,,
72326058,1491,1484,1484,1492,,,,,
72328557,1496,1488,1489,1496,,,,,
72331056,1500,1493,1493,1500,,,,,
72333555,1505,1497,1498,1505,,,,,
72336054,1509,1502,1502,1509,,,,,
72338553,1513,1506,1507,1514,,,,,
72341052,1518,1510,1511,1518,,,,,
72343551,1522,1515,1515,1522,,,,,
72346050,1526,1519,1520,1527,,,,,
72348549,1531,1523,1524,1531,,,,,
72351048,1535,1528,1528,1535,,,,,
72353547,1539,1532,1533,1539,,,,,
72356046,1543,1536,1537,1543,,,,,
72358545,1548,1540,1541,1548,,,,,
72361044,1552,1544,1545,1552,,,,,
72363543,1556,1549,1549,1556,,,,,
72366042,1560,1553,1553,1560,,,,,
72368541,1564,1557,1558,1564,,,,,
72371040,1568,1561,1562,1568,,,,,
72373539,1572,1565,1566,1572,,,,,
72376038,1576,1569,1570,1576,,,,,
72378537,1580,1573,1574,1580,,,,,
72381036,1584,1577,1578,1584,,,,,
72383535,1588,1581,1582,1588,,,,,
72386034,1592,1585,1586,1592,,,,,
72388533,1596,1589,1590,1596,,,,,
72391032,1600,1593,1594,1600,,,,,
72393531,1604,1597,1598,1604,,,,,
72396030,1608,1601,1602,1608,,,,,
72398529,1612,1605,1605,1612,,,,,
72401028,1615,1609,1609,1615,,,,,
72403527,1619,1612,1613,1619,,,,,
72406026,1623,1616,1617,1623,,,,,
72408525,1627,1620,1621,1627,,,,,
72411024,1631,1624,1625,1631,,,,,
72413523,1634,1628,1628,1634,,,,,
72416022,1638,1631,1632,1638,,,,,
72418521,1642,1635,1636,1642,,,,,
72421020,1646,1639,1640,1646,,,,,
72423519,1649,1643,1643,1649,,,,,
72426018,1653,1646,1647,1653,,,,,
72428517,1657,1650,1651,1657,,,,,
72431016,1660,1654,1654,1660,,,,,
72433515,1664,1657,1658,1664,,,,,
72436014,1667,1661,1662,1668,,,,,
72438513,1671,1665,1665,1671,,,,,
72441012,1675,1668,1669,1675,,,,,
72443511,1678,1672,1672,1678,,,,,
72446010,1682,1675,1676,1682,,,,,
72448509,1685,1679,1680,1686,,,,,
72451008,1689,1683,1683,1689,,,,,
72453507,1693,1686,1687,1693,,,,,
72456006,1696,1690,1690,1696,,,,,
72458505,1700,1693,1694,1700,,,,,
72461004,1703,1697,1697,1703,,,,,
72463503,1707,1700,1701,1707,,,,,
72466002,1710,1704,1704,1710,,,,,
72468501,1714,1707,1708,1714,,,,,
72471000,1717,1710,1711,1717,,,,,
72473499,1720,1714,1714,1721,,,,,
72475998,1724,1717,1718,1724,,,,,
72478497,1727,1721,1721,1728,,,,,
72480996,1731,1724,1725,1731,,,,,
72483495,1734,1728,1728,1734,,,,,
72485994,1737,1731,1731,1738,,,,,
72488493,1741,1734,1735,1741,,,,,
72490992,1744,1738,1738,1744,,,,,
72493491,1747,1741,1741,1748,,,,,
72495990,1751,1744,1745,1751,,,,,
72498489,1754,1748,1748,1754,,,,,
72500988,1757,1751,1751,1758,,,,,
72503487,1761,1754,1755,1761,,,,,
72505986,1764,1758,1758,1764,,,,,
72508485,1767,1761,1761,1768,,,,,
72510984,1770,1764,1765,1771,,,,,
72513483,1774,1767,1768,1774,,,,,
72515982,1777,1771,1771,1777,,,,,
72518481,1780,1774,1774,1781,,,,,
72520980,1783,1777,1778,1784,,,,,
72523479,1787,1780,1781,1787,,,,,
72525978,1790,1784,1784,1790,,,,,
72528477,1793,1787,1787,1793,,,,,
72530976,1796,1790,1790,1797,,,,,
72533475,1799,1793,1793,1800,,,,,
72535974,1802,1796,1797,1803,,,,,
72538473,1806,1800,1800,1806,,,,,
72540972,1809,1803,1803,1809,,,,,
72543471,1812,1806,1806,1812,,,,,
72545970,1815,1809,1809,1815,,,,,
72548469,1818,1812,1812,1819,,,,,
72550968,1821,1815,1815,1822,,,,,
72553467,1824,1818,1819,1825,,,,,
72555966,1827,1821,1822,1828,,,,,
72558465,1830,1825,1825,1831,,,,,
72560964,1834,1828,1828,1834,,,,,
72563463,1837,1831,1831,1837,,,,,
72565962,1840,1834,1834,1840,,,,,
72568461,1843,1837,1837,1843,,,,,
72570960,1846,1840,1840,1846,,,,,
72573459,1849,1843,1843,1849,,,,,
72575958,1852,1846,1846,1852,,,,,
72578457,1855,1849,1849,1855,,,,,
72580956,1858,1852,1852,1858,,,,,
72583455,1861,1855,1855,1861,,,,,
72585954,1864,1858,1858,1864,,,,,
72588453,1867,1861,1861,1867,,,,,
72590952,1870,1864,1864,1870,,,,,
72593451,1873,1867,1867,1873,,,,,
72595950,1876,1870,1870,1876,,,,,
72598449,1879,1873,1873,1879,,,,,
72600948,1882,1876,1876,1882,,,,,
72603447,1884,1879,1879,1885,,,,,
72605946,1887,1882,1882,1888,,,,,
72608445,1890,1884,1885,1891,,,,,
72610944,1893,1887,1888,1894,,,,,
72613443,1896,1890,1890,1897,,,,,
72615942,1899,1893,1893,1900,,,,,
72618441,1902,1896,1896,1902,,,,,
72620940,1905,1899,1899,1905,,,,,
72623439,1908,1902,1902,1908,,,,,
72625938,1911,1905,1905,1911,,,,,
72628437,1911,1905,1905,1911,,,,,
72630936,1910,1904,1904,1911,,,,,
72633435,1909,1903,1903,1910,,,,,
72635934,1908,1902,1902,1909,,,,,
72638433,1907,1901,1902,1908,,,,,
72640932,1907,1901,1901,1907,,,,,
72643431,1906,1900,1900,1906,,,,,
72645930,1905,1899,1899,1906,,,,,
72648429,1904,1898,1898,1905,,,,,
72650928,1904,1898,1898,1904,,,,,
72653427,1903,1897,1897,1904,,,,,
72655926,1903,1897,1897,1903,,,,,
72658425,1902,1896,1896,1903,,,,,
72660924,1902,1896,1896,1903,,,,,
72663423,1902,1896,1896,1903,,,,,
72665922,1902,1896,1896,1902,,,,,
72668421,1902,1895,1896,1902,,,,,
72670920,1902,1895,1896,1902,,,,,
72673419,1902,1896,1896,1902,,,,,
72675918,1902,1896,1896,1902,,,,,
72678417,1902,1896,1896,1902,,,,,
72680916,1902,1896,1896,1902,,,,,
72683415,1901,1896,1896,1902,,,,,
72685914,1901,1896,1896,1902,,,,,
72688413,1901,1896,1896,1901,,,,,
72690912,1901,1896,1896,1901,,,,,
72693411,1900,1895,1896,1900,,,,,
72695910,1899,1895,1895,1900,,,,,
72698409,1899,1894,1894,1899,,,,,
72700908,1898,1893,1894,1898,,,,,
72703407,1897,1892,1893,1897,,,,,
72705906,1895,1891,1891,1896,,,,,
72708405,1894,1890,1890,1894,,,,,
72710904,1892,1888,1889,1893,,,,,
72713403,1891,1887,1887,1891,,,,,
72715902,1889,1885,1885,1889,,,,,
72718401,1887,1883,1883,1887,,,,,
72720900,1885,1881,1882,1885,,,,,
72723399,1883,1879,1879,1883,,,,,
72725898,1881,1877,1877,1881,,,,,
72728397,1878,1874,1875,1878,,,,,
72730896,1876,1872,1873,1876,,,,,
72733395,1873,1869,1870,1873,,,,,
72735894,1871,1867,1868,1870,,,,,
72738393,1868,1864,1865,1868,,,,,
72740892,1865,1861,1862,1865,,,,,
72743391,1862,1858,1859,1862,,,,,
72745890,1859,1855,1857,1859,,,,,
72748389,1856,1852,1854,1856,,,,,
72750888,1853,1849,1851,1853,,,,,
72753387,1850,1846,1848,1850,,,,,
72755886,1847,1843,1845,1846,,,,,
72758385,1844,1840,1841,1843,,,,,
72760884,1841,1837,1838,1840,,,,,
72763383,1837,1834,1835,1837,,,,,
72765882,1834,1831,1832,1833,,,,,
72768381,1831,1827,1829,1830,,,,,
72770880,1827,1824,1825,1827,,,,,
72773379,1824,1821,1822,1823,,,,,
72775878,1821,1818,1819,1820,,,,,
72778377,1817,1814,1816,1817,,,,,
72780876,1814,1811,1812,1813,,,,,
72783375,1811,1808,1809,1810,,,,,
72785874,1807,1805,1806,1807,,,,,
72788373,1804,1801,1803,1803,,,,,
72790872,1801,1798,1799,1800,,,,,
72793371,1797,1795,1796,1797,,,,,
72795870,1794,1791,1793,1793,,,,,
72798369,1790,1788,1789,1790,,,,,
72800868,1787,1785,1786,1786,,,,,
72803367,1784,1781,1783,1783,,,,,
72805866,1780,1778,1779,1780,,,,,
72808365,1777,1775,1776,1776,,,,,
72810864,1773,1772,1773,1773,,,,,
72813363,1770,1768,1769,1769,,,,,
72815862,1766,1765,1766,1766,,,,,
72818361,1763,1762,1763,1763,,,,,
72820860,1760,1758,1760,1759,,,,,
72823359,1756,1755,1756,1756,,,,,
72825858,1753,1752,1753,1753,,,,,
72828357,1750,1749,1750,1750,,,,,
72830856,1747,1746,1747,1746,,,,,
72833355,1744,1743,1744,1743,,,,,
72835854,1740,1740,1741,1740,,,,,
72838353,1737,1737,1737,1737,,,,,
72840852,1734,1734,1734,1734,,,,,
72843351,1731,1731,1732,1731,,,,,
72845850,1728,1728,1729,1728,,,,,
72848349,1725,1725,1726,1725,,,,,
72850848,1722,1722,1723,1723,,,,,
72853347,1720,1720,1720,1720,,,,,
72855846,1717,1717,1717,1717,,,,,
72858345,1714,1714,1715,1714,,,,,
72860844,1711,1712,1712,1712,,,,,
72863343,1709,1709,1709,1709,,,,,
72865842,1706,1706,1707,1706,,,,,
72868341,1704,1704,1704,1704,,,,,
72870840,1701,1701,1702,1701,,,,,
72873339,1698,1699,1699,1699,,,,,
72875838,1696,1697,1697,1696,,,,,
72878337,1693,1694,1695,1694,,,,,
72880836,1691,1692,1692,1691,,,,,
72883335,1689,1690,1690,1689,,,,,
72885834,1686,1687,1688,1687,,,,,
72888333,1684,1685,1685,1684,,,,,
72890832,1682,1683,1683,1682,,,,,
72893331,1680,1681,1681,1680,,,,,
72895830,1678,1679,1679,1678,,,,,
72898329,1676,1677,1677,1676,,,,,
72900828,1674,1675,1675,1674,,,,,
72903327,1672,1673,1674,1672,,,,,
72905826,1670,1672,1672,1671,,,,,
72908325,1668,1670,1670,1669,,,,,
72910824,1667,1668,1668,1667,,,,,
72913323,1665,1667,1667,1665,,,,,
72915822,1663,1665,1665,1664,,,,,
72918321,1662,1664,1664,1662,,,,,
72920820,1660,1662,1662,1661,,,,,
72923319,1659,1661,1661,1659,,,,,
72925818,1657,1660,1659,1658,,,,,
72928317,1656,1658,1658,1656,,,,,
72930816,1654,1657,1656,1655,,,,,
72933315,1653,1656,1655,1654,,,,,
72935814,1652,1654,1654,1653,,,,,
72938313,1650,1653,1653,1651,,,,,
72940812,1649,1652,1651,1650,,,,,
72943311,1648,1651,1650,1649,,,,,
72945810,1646,1650,1649,1648,,,,,
72948309,1645,1649,1648,1646,,,,,
72950808,1644,1647,1647,1645,,,,,
72953307,1643,1646,1646,1644,,,,,
72955806,1642,1646,1645,1643,,,,,
72958305,1641,1645,1644,1642,,,,,
72960804,1640,1644,1643,1641,,,,,
72963303,1639,1643,1642,1640,,,,,
72965802,1639,1642,1641,1640,,,,,
72968301,1638,1641,1641,1639,,,,,
72970800,1637,1641,1640,1638,,,,,
72973299,1636,1640,1639,1638,,,,,
72975798,1636,1639,1639,1637,,,,,
72978297,1635,1639,1638,1636,,,,,
72980796,1634,1638,1637,1636,,,,,
72983295,1634,1638,1637,1635,,,,,
72985794,1633,1637,1636,1635,,,,,
72988293,1633,1637,1636,1634,,,,,
72990792,1632,1636,1635,1634,,,,,
72993291,1632,1636,1635,1633,,,,,
72995790,1632,1635,1635,1633,,,,,
72998289,1631,1635,1634,1632,,,,,
73000788,1631,1635,1634,1632,,,,,
73003287,1631,1634,1634,1632,,,,,
73005786,1630,1634,1633,1631,,,,,
