TimeUS,M1,M2,M3,M4,TimeUS,C1,C2,C3,C4
64310932,1000,1000,1000,1000,64328425,1000,1000,1000,1000
64313431,1000,1000,1000,1000,64428385,1000,1000,1000,1000
64315930,1000,1000,1000,1000,64528345,1000,1000,1000,1000
64318429,1000,1000,1000,1000,64628305,1000,1000,1000,1000
64320928,1000,1000,1000,1000,64728265,1000,1000,1000,1000
64323427,1000,1000,1000,1000,64828225,1000,1000,1000,1000
64325926,1000,1000,1000,1000,64928185,1000,1000,1000,1000
64328425,1000,1000,1000,1000,65028978,1000,1000,1000,1000
64330924,1000,1000,1000,1000,65128938,1000,1000,1000,1000
64333423,1000,1000,1000,1000,65228898,1000,1000,1000,1000
64335922,1000,1000,1000,1000,65328858,1000,1000,1000,1000
64338421,1000,1000,1000,1000,65428818,1000,1000,1000,1000
64340920,1000,1000,1000,1000,65528778,1000,1000,1000,1000
64343419,1000,1000,1000,1000,65628738,1000,1000,1000,1000
64345918,1000,1000,1000,1000,65728698,1000,1000,1000,1000
64348417,1000,1000,1000,1000,65828658,1000,1000,1000,1000
64350916,1000,1000,1000,1000,65928618,1000,1000,1000,1000
64353415,1000,1000,1000,1000,66028578,1000,1000,1000,1000
64355914,1000,1000,1000,1000,66128538,1000,1000,1000,1000
64358413,1000,1000,1000,1000,66228498,1000,1000,1000,1000
64360912,1000,1000,1000,1000,66328458,1005,1005,1005,1005
64363411,1000,1000,1000,1000,66428418,1035,1035,1035,1035
64365910,1000,1000,1000,1000,66528378,1065,1065,1065,1065
64368409,1000,1000,1000,1000,66628338,1095,1095,1095,1095
64370908,1000,1000,1000,1000,66728298,1125,1125,1125,1125
64373407,1000,1000,1000,1000,66828258,1201,1192,1192,1201
64375906,1000,1000,1000,1000,66928218,1435,1428,1428,1435
64378405,1000,1000,1000,1000,67028178,1607,1601,1602,1608
64380904,1000,1000,1000,1000,67128971,1750,1745,1745,1751
64383403,1000,1000,1000,1000,67228931,1876,1870,1870,1876
64385902,1000,1000,1000,1000,67328891,1871,1866,1867,1871
64388401,1000,1000,1000,1000,67428851,1779,1777,1777,1780
64390900,1000,1000,1000,1000,67528811,1661,1662,1662,1661
64393399,1000,1000,1000,1000,67628771,1615,1617,1617,1615
64395898,1000,1000,1000,1000,67728731,1618,1621,1621,1618
64398397,1000,1000,1000,1000,67828691,1632,1635,1634,1632
64400896,1000,1000,1000,1000,67928651,1636,1637,1636,1636
64403395,1000,1000,1000,1000,68028611,1631,1631,1631,1632
64405894,1000,1000,1000,1000,68128571,1616,1615,1612,1619
64408393,1000,1000,1000,1000,68228531,1604,1604,1595,1612
64410892,1000,1000,1000,1000,68328491,1601,1600,1595,1606
64413391,1000,1000,1000,1000,68428451,1602,1602,1601,1604
64415890,1000,1000,1000,1000,68528411,1607,1607,1609,1605
64418389,1000,1000,1000,1000,68628371,1613,1612,1616,1609
64420888,1000,1000,1000,1000,68728331,1618,1618,1622,1615
64423387,1000,1000,1000,1000,68828291,1587,1588,1603,1573
64425886,1000,1000,1000,1000,68928251,1574,1574,1587,1562
64428385,1000,1000,1000,1000,69028211,1563,1563,1567,1561
64430884,1000,1000,1000,1000,69128171,1553,1552,1546,1561
64433383,1000,1000,1000,1000,69228964,1544,1543,1532,1556
64435882,1000,1000,1000,1000,69328924,1538,1537,1526,1548
64438381,1000,1000,1000,1000,69428884,1531,1531,1524,1538
64440880,1000,1000,1000,1000,69528844,1527,1527,1525,1529
64443379,1000,1000,1000,1000,69628804,1528,1528,1529,1526
64445878,1000,1000,1000,1000,69728764,1530,1529,1532,1527
64448377,1000,1000,1000,1000,69828724,1533,1533,1536,1529
64450876,1000,1000,1000,1000,69928684,1537,1537,1540,1533
64453375,1000,1000,1000,1000,70028644,1540,1540,1543,1538
64455874,1000,1000,1000,1000,70128604,1544,1544,1545,1543
64458373,1000,1000,1000,1000,70228564,1547,1547,1548,1547
64460872,1000,1000,1000,1000,70328524,1549,1549,1549,1550
64463371,1000,1000,1000,1000,70428484,1552,1552,1550,1554
64465870,1000,1000,1000,1000,70528444,1553,1552,1555,1559
64468369,1000,1000,1000,1000,70628404,1553,1554,1559,1562
64470868,1000,1000,1000,1000,70728364,1556,1556,1562,1563
64473367,1000,1000,1000,1000,70828324,1558,1559,1564,1563
64475866,1000,1000,1000,1000,70928284,1561,1561,1564,1563
64478365,1000,1000,1000,1000,71028244,1564,1564,1565,1564
64480864,1000,1000,1000,1000,71128204,1567,1567,1566,1565
64483363,1000,1000,1000,1000,71228164,1569,1569,1566,1566
64485862,1000,1000,1000,1000,71328957,1571,1571,1567,1568
64488361,1000,1000,1000,1000,71428917,1571,1572,1567,1568
64490860,1000,1000,1000,1000,71528877,1573,1573,1569,1569
64493359,1000,1000,1000,1000,71628837,1574,1574,1570,1571
64495858,1000,1000,1000,1000,71728797,1574,1574,1570,1571
64498357,1000,1000,1000,1000,71828757,1574,1574,1572,1572
64500856,1000,1000,1000,1000,71928717,1573,1573,1573,1571
64503355,1000,1000,1000,1000,72028677,1574,1574,1575,1573
64505854,1000,1000,1000,1000,72128637,1575,1575,1576,1574
64508353,1000,1000,1000,1000,72228597,1574,1575,1575,1575
64510852,1000,1000,1000,1000,72328557,1575,1575,1576,1576
64513351,1000,1000,1000,1000,72428517,1575,1575,1576,1576
64515850,1000,1000,1000,1000,72528477,1576,1576,1577,1577
64518349,1000,1000,1000,1000,72628437,1576,1576,1577,1577
64520848,1000,1000,1000,1000,72728397,1576,1575,1576,1577
64523347,1000,1000,1000,1000,72828357,1577,1576,1577,1577
64525846,1000,1000,1000,1000,72928317,1576,1576,1576,1576
64528345,1000,1000,1000,1000,73028277,1577,1577,1577,1577
64530844,1000,1000,1000,1000,73128237,1578,1578,1578,1578
64533343,1000,1000,1000,1000,73228197,1577,1578,1577,1577
64535842,1000,1000,1000,1000,73328157,1577,1577,1576,1577
64538341,1000,1000,1000,1000,73428950,1577,1577,1576,1576
64540840,1000,1000,1000,1000,73528910,1577,1577,1576,1576
64543339,1000,1000,1000,1000,73628870,1578,1578,1577,1577
64545838,1000,1000,1000,1000,73728830,1578,1578,1577,1577
64548337,1000,1000,1000,1000,73828790,1579,1579,1579,1578
64550836,1000,1000,1000,1000,73928750,1578,1577,1577,1577
64553335,1000,1000,1000,1000,74028710,1578,1578,1578,1578
64555834,1000,1000,1000,1000,74128670,1578,1578,1578,1579
64558333,1000,1000,1000,1000,74228630,1578,1578,1578,1578
64560832,1000,1000,1000,1000,74328590,1577,1577,1578,1578
64563331,1000,1000,1000,1000,74428550,1578,1578,1579,1578
64565830,1000,1000,1000,1000,74528510,1578,1578,1579,1579
64568329,1000,1000,1000,1000,74628470,1578,1578,1578,1578
64570828,1000,1000,1000,1000,74728430,1579,1579,1580,1579
64573327,1000,1000,1000,1000,74828390,1580,1580,1580,1580
64575826,1000,1000,1000,1000,74928350,1580,1580,1580,1580
64578325,1000,1000,1000,1000,75028310,1580,1580,1580,1580
64580824,1000,1000,1000,1000,75128270,1580,1581,1580,1581
64583323,1000,1000,1000,1000,75228230,1580,1580,1580,1580
64585822,1000,1000,1000,1000,75328190,1580,1580,1580,1580
64588321,1000,1000,1000,1000,75428983,1581,1581,1581,1581
64590820,1000,1000,1000,1000,75528943,1580,1580,1580,1580
64593319,1000,1000,1000,1000,75628903,1580,1580,1580,1580
64595818,1000,1000,1000,1000,75728863,1580,1580,1580,1580
64598317,1000,1000,1000,1000,75828823,1581,1581,1580,1581
64600816,1000,1000,1000,1000,75928783,1580,1581,1581,1580
64603315,1000,1000,1000,1000,76028743,1581,1581,1581,1581
64605814,1000,1000,1000,1000,76128703,1581,1581,1581,1581
64608313,1000,1000,1000,1000,76228663,1580,1580,1580,1581
64610812,1000,1000,1000,1000,76328623,1581,1581,1581,1581
64613311,1000,1000,1000,1000,76428583,1581,1580,1581,1581
64615810,1000,1000,1000,1000,76528543,1581,1581,1581,1581
64618309,1000,1000,1000,1000,76628503,1581,1581,1581,1581
64620808,1000,1000,1000,1000,76728463,1581,1582,1586,1578
64623307,1000,1000,1000,1000,76828423,1581,1583,1589,1574
64625806,1000,1000,1000,1000,76928383,1580,1583,1582,1574
64628305,1000,1000,1000,1000,77028343,1579,1582,1574,1574
64630804,1000,1000,1000,1000,77128303,1578,1580,1565,1571
64633303,1000,1000,1000,1000,77228263,1577,1578,1559,1566
64635802,1000,1000,1000,1000,77328223,1579,1578,1556,1562
64638301,1000,1000,1000,1000,77428183,1579,1578,1555,1557
64640800,1000,1000,1000,1000,77528976,1580,1578,1555,1555
64643299,1000,1000,1000,1000,77628936,1579,1578,1556,1554
64645798,1000,1000,1000,1000,77728896,1579,1579,1557,1555
64648297,1000,1000,1000,1000,77828856,1576,1578,1556,1554
64650796,1000,1000,1000,1000,77928816,1576,1577,1555,1554
64653295,1000,1000,1000,1000,78028776,1574,1576,1553,1553
64655794,1000,1000,1000,1000,78128736,1575,1576,1552,1553
64658293,1000,1000,1000,1000,78228696,1576,1577,1551,1551
64660792,1000,1000,1000,1000,78328656,1577,1578,1549,1549
64663291,1000,1000,1000,1000,78428616,1580,1580,1547,1546
64665790,1000,1000,1000,1000,78528576,1583,1583,1544,1544
64668289,1000,1000,1000,1000,78628536,1585,1586,1541,1541
64670788,1000,1000,1000,1000,78728496,1588,1589,1539,1539
64673287,1000,1000,1000,1000,78828456,1591,1592,1536,1536
64675786,1000,1000,1000,1000,78928416,1593,1593,1534,1534
64678285,1000,1000,1000,1000,79028376,1595,1594,1534,1535
64680784,1000,1000,1000,1000,79128336,1595,1595,1535,1537
64683283,1000,1000,1000,1000,79228296,1593,1593,1537,1540
64685782,1000,1000,1000,1000,79328256,1591,1590,1542,1545
64688281,1000,1000,1000,1000,79428216,1587,1585,1549,1552
64690780,1000,1000,1000,1000,79528176,1579,1576,1558,1560
64693279,1000,1000,1000,1000,79628969,1570,1566,1569,1571
64695778,1000,1000,1000,1000,79728929,1559,1556,1582,1583
64698277,1000,1000,1000,1000,79828889,1548,1545,1593,1593
64700776,1000,1000,1000,1000,79928849,1537,1536,1602,1602
64703275,1000,1000,1000,1000,80028809,1531,1531,1610,1609
64705774,1000,1000,1000,1000,80128769,1528,1529,1613,1613
64708273,1000,1000,1000,1000,80228729,1528,1531,1613,1612
64710772,1000,1000,1000,1000,80328689,1533,1535,1610,1609
64713271,1000,1000,1000,1000,80428649,1541,1542,1606,1605
64715770,1000,1000,1000,1000,80528609,1550,1550,1599,1600
64718269,1000,1000,1000,1000,80628569,1557,1557,1590,1590
64720768,1000,1000,1000,1000,80728529,1566,1566,1584,1584
64723267,1000,1000,1000,1000,80828489,1574,1574,1578,1578
64725766,1000,1000,1000,1000,80928449,1580,1579,1573,1572
64728265,1000,1000,1000,1000,81028409,1585,1583,1569,1569
64730764,1000,1000,1000,1000,81128369,1586,1585,1566,1566
64733263,1000,1000,1000,1000,81228329,1588,1587,1566,1567
64735762,1000,1000,1000,1000,81328289,1587,1585,1567,1567
64738261,1000,1000,1000,1000,81428249,1586,1585,1570,1570
64740760,1000,1000,1000,1000,81528209,1583,1582,1572,1573
64743259,1000,1000,1000,1000,81628169,1580,1580,1575,1575
64745758,1000,1000,1000,1000,81728962,1576,1577,1578,1578
64748257,1000,1000,1000,1000,81828922,1575,1576,1581,1581
64750756,1000,1000,1000,1000,81928882,1573,1574,1582,1582
64753255,1000,1000,1000,1000,82028842,1573,1573,1584,1584
64755754,1000,1000,1000,1000,82128802,1573,1573,1584,1584
64758253,1000,1000,1000,1000,82228762,1573,1573,1584,1583
64760752,1000,1000,1000,1000,82328722,1572,1574,1581,1582
64763251,1000,1000,1000,1000,82428682,1574,1575,1581,1582
64765750,1000,1000,1000,1000,82528642,1576,1577,1581,1581
64768249,1000,1000,1000,1000,82628602,1578,1578,1580,1579
64770748,1000,1000,1000,1000,82728562,1580,1579,1579,1579
64773247,1000,1000,1000,1000,82828522,1580,1579,1577,1577
64775746,1000,1000,1000,1000,82928482,1580,1580,1576,1576
64778245,1000,1000,1000,1000,83028442,1581,1581,1577,1577
64780744,1000,1000,1000,1000,83128402,1581,1581,1577,1577
64783243,1000,1000,1000,1000,83228362,1582,1581,1578,1578
64785742,1000,1000,1000,1000,83328322,1581,1581,1578,1578
64788241,1000,1000,1000,1000,83428282,1581,1581,1579,1579
64790740,1000,1000,1000,1000,83528242,1582,1581,1580,1580
64793239,1000,1000,1000,1000,83628202,1580,1580,1580,1580
64795738,1000,1000,1000,1000,83728162,1580,1580,1581,1581
64798237,1000,1000,1000,1000,83828955,1579,1580,1581,1581
64800736,1000,1000,1000,1000,83928915,1579,1579,1580,1581
64803235,1000,1000,1000,1000,84028875,1579,1579,1580,1580
64805734,1000,1000,1000,1000,84128835,1579,1579,1580,1581
64808233,1000,1000,1000,1000,84228795,1579,1580,1581,1581
64810732,1000,1000,1000,1000,84328755,1580,1580,1581,1580
64813231,1000,1000,1000,1000,84428715,1579,1579,1580,1580
64815730,1000,1000,1000,1000,84528675,1580,1580,1581,1581
64818229,1000,1000,1000,1000,84628635,1580,1580,1580,1580
64820728,1000,1000,1000,1000,84728595,1581,1581,1582,1579
64823227,1000,1000,1000,1000,84828555,1580,1583,1586,1571
64825726,1000,1000,1000,1000,84928515,1580,1583,1580,1570
64828225,1000,1000,1000,1000,85028475,1579,1583,1571,1570
64830724,1000,1000,1000,1000,85128435,1579,1581,1563,1568
64833223,1000,1000,1000,1000,85228395,1579,1580,1556,1564
64835722,1000,1000,1000,1000,85328355,1580,1579,1553,1558
64838221,1000,1000,1000,1000,85428315,1582,1580,1553,1555
64840720,1000,1000,1000,1000,85528275,1581,1579,1552,1552
64843219,1000,1000,1000,1000,85628235,1580,1580,1553,1552
64845718,1000,1000,1000,1000,85728195,1579,1579,1554,1551
64848217,1000,1000,1000,1000,85828155,1578,1579,1554,1552
64850716,1000,1000,1000,1000,85928948,1577,1579,1554,1553
64853215,1000,1000,1000,1000,86028908,1576,1578,1554,1554
64855714,1000,1000,1000,1000,86128868,1576,1578,1552,1553
64858213,1000,1000,1000,1000,86228828,1577,1579,1551,1552
64860712,1000,1000,1000,1000,86328788,1578,1579,1549,1550
64863211,1000,1000,1000,1000,86428748,1580,1581,1547,1547
64865710,1000,1000,1000,1000,86528708,1583,1583,1546,1545
64868209,1000,1000,1000,1000,86628668,1585,1586,1544,1544
64870708,1000,1000,1000,1000,86728628,1588,1587,1542,1542
64873207,1000,1000,1000,1000,86828588,1589,1590,1540,1540
64875706,1000,1000,1000,1000,86928548,1591,1592,1539,1540
64878205,1000,1000,1000,1000,87028508,1592,1593,1538,1540
64880704,1000,1000,1000,1000,87128468,1593,1592,1540,1543
64883203,1000,1000,1000,1000,87228428,1590,1589,1544,1547
64885702,1000,1000,1000,1000,87328388,1587,1583,1552,1554
64888201,1000,1000,1000,1000,87428348,1579,1575,1560,1562
64890700,1000,1000,1000,1000,87528308,1569,1566,1571,1572
64893199,1000,1000,1000,1000,87628268,1560,1557,1582,1583
64895698,1000,1000,1000,1000,87728228,1550,1547,1592,1592
64898197,1000,1000,1000,1000,87828188,1542,1541,1601,1601
64900696,1000,1000,1000,1000,87928981,1537,1537,1607,1606
64903195,1000,1000,1000,1000,88028941,1535,1536,1610,1609
64905694,1000,1000,1000,1000,88128901,1537,1539,1611,1611
64908193,1000,1000,1000,1000,88228861,1541,1543,1608,1608
64910692,1000,1000,1000,1000,88328821,1549,1550,1605,1604
64913191,1000,1000,1000,1000,88428781,1556,1557,1599,1598
64915690,1000,1000,1000,1000,88528741,1563,1563,1592,1590
64918189,1000,1000,1000,1000,88628701,1569,1570,1585,1584
64920688,1000,1000,1000,1000,88728661,1575,1575,1578,1578
64923187,1000,1000,1000,1000,88828621,1580,1580,1573,1574
64925686,1000,1000,1000,1000,88928581,1584,1583,1570,1571
64928185,1000,1000,1000,1000,89028541,1586,1584,1568,1569
64930684,1000,1000,1000,1000,89128501,1586,1585,1568,1569
64933183,1000,1000,1000,1000,89228461,1585,1584,1569,1569
64935682,1000,1000,1000,1000,89328421,1584,1583,1572,1572
64938181,1000,1000,1000,1000,89428381,1582,1582,1575,1574
64940680,1000,1000,1000,1000,89528341,1579,1579,1577,1576
64943179,1000,1000,1000,1000,89628301,1577,1578,1579,1580
64945678,1000,1000,1000,1000,89728261,1574,1575,1580,1580
64948177,1000,1000,1000,1000,89828221,1573,1574,1582,1582
64950676,1000,1000,1000,1000,89928181,1573,1573,1583,1583
64953175,1000,1000,1000,1000,90028974,1573,1574,1583,1583
64955674,1000,1000,1000,1000,90128934,1574,1574,1583,1583
64958173,1000,1000,1000,1000,90228894,1576,1575,1583,1583
64960672,1000,1000,1000,1000,90328854,1576,1576,1582,1581
64963171,1000,1000,1000,1000,90428814,1578,1578,1582,1581
64965670,1000,1000,1000,1000,90528774,1579,1579,1580,1580
64968169,1000,1000,1000,1000,90628734,1578,1579,1578,1578
64970668,1000,1000,1000,1000,90728694,1580,1580,1577,1578
64973167,1000,1000,1000,1000,90828654,1581,1581,1578,1579
64975666,1000,1000,1000,1000,90928614,1581,1581,1578,1578
64978165,1000,1000,1000,1000,91028574,1582,1582,1579,1579
64980664,1000,1000,1000,1000,91128534,1582,1581,1579,1578
64983163,1000,1000,1000,1000,91228494,1581,1581,1579,1579
64985662,1000,1000,1000,1000,91328454,1582,1582,1580,1580
64988161,1000,1000,1000,1000,91428414,1581,1581,1580,1580
64990660,1000,1000,1000,1000,91528374,1580,1581,1580,1581
64993159,1000,1000,1000,1000,91628334,1580,1580,1580,1581
64995658,1000,1000,1000,1000,91728294,1579,1579,1580,1581
64998157,1000,1000,1000,1000,91828254,1580,1580,1581,1581
65000656,1000,1000,1000,1000,91928214,1579,1579,1581,1580
65003155,1000,1000,1000,1000,92028174,1580,1580,1582,1581
65005654,1000,1000,1000,1000,92128967,1580,1580,1581,1581
65008986,1000,1000,1000,1000,92228927,1581,1581,1581,1581
65011485,1000,1000,1000,1000,92328887,1581,1581,1581,1582
65013984,1000,1000,1000,1000,92428847,1580,1581,1581,1581
65016483,1000,1000,1000,1000,92528807,1582,1581,1581,1581
65018982,1000,1000,1000,1000,92628767,1581,1581,1581,1581
65021481,1000,1000,1000,1000,92728727,1582,1582,1581,1581
65023980,1000,1000,1000,1000,92828687,1581,1581,1581,1580
65026479,1000,1000,1000,1000,92928647,1582,1583,1587,1574
65028978,1000,1000,1000,1000,93028607,1581,1583,1585,1572
65031477,1000,1000,1000,1000,93128567,1579,1582,1576,1572
65033976,1000,1000,1000,1000,93228527,1578,1581,1568,1571
65036475,1000,1000,1000,1000,93328487,1578,1580,1562,1569
65038974,1000,1000,1000,1000,93428447,1577,1579,1556,1562
65041473,1000,1000,1000,1000,93528407,1579,1579,1555,1558
65043972,1000,1000,1000,1000,93628367,1581,1579,1555,1556
65046471,1000,1000,1000,1000,93728327,1580,1579,1555,1554
65048970,1000,1000,1000,1000,93828287,1580,1580,1557,1554
65051469,1000,1000,1000,1000,93928247,1579,1579,1557,1554
65053968,1000,1000,1000,1000,94028207,1577,1578,1556,1554
65056467,1000,1000,1000,1000,94128167,1576,1578,1555,1555
65058966,1000,1000,1000,1000,94228960,1575,1577,1554,1554
65061465,1000,1000,1000,1000,94328920,1576,1578,1553,1553
65063964,1000,1000,1000,1000,94428880,1577,1578,1550,1551
65066463,1000,1000,1000,1000,94528840,1578,1579,1549,1549
65068962,1000,1000,1000,1000,94628800,1580,1582,1547,1547
65071461,1000,1000,1000,1000,94728760,1584,1585,1545,1545
65073960,1000,1000,1000,1000,94828720,1586,1587,1543,1542
65076459,1000,1000,1000,1000,94928680,1589,1589,1540,1540
65078958,1000,1000,1000,1000,95028640,1590,1590,1538,1539
65081457,1000,1000,1000,1000,95128600,1591,1592,1537,1538
65083956,1000,1000,1000,1000,95228560,1593,1594,1538,1539
65086455,1000,1000,1000,1000,95328520,1593,1593,1538,1540
65088954,1000,1000,1000,1000,95428480,1592,1590,1541,1544
65091453,1000,1000,1000,1000,95528440,1588,1585,1547,1550
65093952,1000,1000,1000,1000,95628400,1582,1579,1556,1559
65096451,1000,1000,1000,1000,95728360,1573,1569,1565,1568
65098950,1000,1000,1000,1000,95828320,1563,1560,1578,1579
65101449,1000,1000,1000,1000,95928280,1553,1551,1590,1590
65103948,1000,1000,1000,1000,96028240,1543,1543,1599,1599
65106447,1000,1000,1000,1000,96128200,1536,1536,1606,1606
65108946,1000,1000,1000,1000,96228160,1533,1534,1610,1610
65111445,1000,1000,1000,1000,96328953,1532,1534,1612,1611
65113944,1000,1000,1000,1000,96428913,1536,1538,1610,1609
65116443,1000,1000,1000,1000,96528873,1542,1543,1606,1605
65118942,1000,1000,1000,1000,96628833,1549,1551,1600,1600
65121441,1000,1000,1000,1000,96728793,1558,1559,1594,1594
65123940,1000,1000,1000,1000,96828753,1566,1567,1588,1587
65126439,1000,1000,1000,1000,96928713,1572,1572,1580,1579
65128938,1000,1000,1000,1000,97028673,1579,1578,1575,1575
65131437,1000,1000,1000,1000,97128633,1584,1582,1571,1571
65133936,1000,1000,1000,1000,97228593,1586,1585,1568,1569
65136435,1000,1000,1000,1000,97328553,1587,1585,1567,1567
65138934,1000,1000,1000,1000,97428513,1586,1585,1568,1568
65141433,1000,1000,1000,1000,97528473,1585,1585,1571,1571
65143932,1000,1000,1000,1000,97628433,1582,1581,1572,1572
65146431,1000,1000,1000,1000,97728393,1579,1579,1574,1574
65148930,1000,1000,1000,1000,97828353,1576,1577,1577,1577
65151429,1000,1000,1000,1000,97928313,1576,1576,1581,1580
65153928,1000,1000,1000,1000,98028273,1574,1574,1582,1581
65156427,1000,1000,1000,1000,98128233,1572,1573,1582,1583
65158926,1000,1000,1000,1000,98228193,1572,1572,1583,1583
65161425,1000,1000,1000,1000,98328986,1572,1573,1583,1583
65163924,1000,1000,1000,1000,98428946,1573,1574,1582,1582
65166423,1000,1000,1000,1000,98528906,1576,1576,1583,1582
65168922,1000,1000,1000,1000,98628866,1576,1577,1581,1581
65171421,1000,1000,1000,1000,98728826,1578,1577,1579,1579
65173920,1000,1000,1000,1000,98828786,1579,1579,1579,1579
65176419,1000,1000,1000,1000,98928746,1581,1580,1578,1578
65178918,1000,1000,1000,1000,99028706,1581,1581,1578,1578
65181417,1000,1000,1000,1000,99128666,1582,1581,1578,1578
65183916,1000,1000,1000,1000,99228626,1581,1581,1577,1577
65186415,1000,1000,1000,1000,99328586,1581,1581,1577,1577
65188914,1000,1000,1000,1000,99428546,1580,1581,1578,1578
65191413,1000,1000,1000,1000,99528506,1580,1580,1578,1578
65193912,1000,1000,1000,1000,99628466,1580,1580,1578,1579
65196411,1000,1000,1000,1000,99728426,1580,1580,1579,1580
65198910,1000,1000,1000,1000,99828386,1579,1580,1580,1580
65201409,1000,1000,1000,1000,99928346,1580,1580,1581,1582
65203908,1000,1000,1000,1000,100028306,1580,1580,1581,1581
65206407,1000,1000,1000,1000,100128266,1579,1579,1581,1581
65208906,1000,1000,1000,1000,100228226,1580,1580,1581,1582
65211405,1000,1000,1000,1000,100328186,1580,1580,1581,1581
65213904,1000,1000,1000,1000,100428979,1581,1581,1582,1582
65216403,1000,1000,1000,1000,100528939,1581,1581,1581,1581
65218902,1000,1000,1000,1000,100628899,1580,1580,1580,1580
65221401,1000,1000,1000,1000,100728859,1580,1580,1580,1580
65223900,1000,1000,1000,1000,100828819,1582,1583,1586,1576
65226399,1000,1000,1000,1000,100928779,1581,1582,1587,1572
65228898,1000,1000,1000,1000,101028739,1579,1579,1580,1574
65231397,1000,1000,1000,1000,101128699,1576,1576,1573,1575
65233896,1000,1000,1000,1000,101228659,1573,1573,1568,1575
65236395,1000,1000,1000,1000,101328619,1571,1570,1566,1573
65238894,1000,1000,1000,1000,101428579,1568,1569,1565,1570
65241393,1000,1000,1000,1000,101528539,1567,1566,1565,1567
65243892,1000,1000,1000,1000,101628499,1567,1567,1568,1566
65246391,1000,1000,1000,1000,101728459,1566,1566,1567,1565
65248890,1000,1000,1000,1000,101828419,1566,1566,1568,1566
65251389,1000,1000,1000,1000,101928379,1564,1565,1567,1564
65253888,1000,1000,1000,1000,102028339,1564,1564,1565,1564
65256387,1000,1000,1000,1000,102128299,1563,1563,1564,1565
65258886,1000,1000,1000,1000,102228259,1563,1563,1563,1564
65261385,1000,1000,1000,1000,102328219,1563,1563,1563,1564
65263884,1000,1000,1000,1000,102428179,1561,1561,1562,1561
65266383,1000,1000,1000,1000,102528972,1562,1562,1562,1562
65268882,1000,1000,1000,1000,102628932,1560,1561,1561,1560
65271381,1000,1000,1000,1000,102728892,1560,1559,1559,1559
65273880,1000,1000,1000,1000,102828852,1559,1558,1559,1558
65276379,1000,1000,1000,1000,102928812,1558,1558,1558,1557
65278878,1000,1000,1000,1000,103028772,1557,1558,1557,1557
65281377,1000,1000,1000,1000,103128732,1557,1557,1557,1556
65283876,1000,1000,1000,1000,103228692,1557,1557,1558,1556
65286375,1000,1000,1000,1000,103328652,1557,1557,1558,1556
65288874,1000,1000,1000,1000,103428612,1559,1559,1560,1558
65291373,1000,1000,1000,1000,103528572,1559,1559,1560,1558
65293872,1000,1000,1000,1000,103628532,1560,1559,1560,1560
65296371,1000,1000,1000,1000,103728492,1560,1559,1557,1562
65298870,1000,1000,1000,1000,103828452,1561,1560,1557,1564
65301369,1000,1000,1000,1000,103928412,1561,1561,1558,1564
65303868,1000,1000,1000,1000,104028372,1562,1562,1560,1564
65306367,1000,1000,1000,1000,104128332,1563,1563,1562,1564
65308866,1000,1000,1000,1000,104228292,1562,1562,1563,1561
65311365,1000,1000,1000,1000,104328252,1560,1560,1562,1559
65313864,1000,1000,1000,1000,104428212,1560,1559,1558,1561
65316363,1000,1000,1000,1000,104528172,1557,1557,1555,1559
65318862,1000,1000,1000,1000,104628965,1553,1552,1551,1554
65321361,1000,1000,1000,1000,104728925,1546,1546,1546,1547
65323860,1000,1000,1000,1000,104828885,1540,1540,1540,1540
65326359,1000,1000,1000,1000,104928845,1533,1533,1534,1533
65328858,1000,1000,1000,1000,105028805,1525,1525,1526,1525
65331357,1000,1000,1000,1000,105128765,1522,1521,1522,1521
65333856,1000,1000,1000,1000,105228725,1520,1520,1520,1520
65336355,1000,1000,1000,1000,105328685,1521,1520,1520,1521
65338854,1000,1000,1000,1000,105428645,1523,1523,1523,1524
65341353,1000,1000,1000,1000,105528605,1526,1526,1526,1526
65343852,1000,1000,1000,1000,105628565,1530,1530,1530,1530
65346351,1000,1000,1000,1000,105728525,1536,1535,1536,1535
65348850,1000,1000,1000,1000,105828485,1539,1539,1539,1538
65351349,1000,1000,1000,1000,105928445,1540,1541,1541,1540
65353848,1000,1000,1000,1000,106028405,1542,1542,1542,1542
65356347,1000,1000,1000,1000,106128365,1543,1543,1544,1543
65358846,1000,1000,1000,1000,106228325,1545,1544,1544,1544
65361345,1000,1000,1000,1000,106328285,1546,1546,1545,1546
65363844,1000,1000,1000,1000,106428245,1546,1547,1546,1546
65366343,1000,1000,1000,1000,106528205,1547,1547,1547,1547
65368842,1000,1000,1000,1000,106628165,1546,1546,1547,1546
65371341,1000,1000,1000,1000,106728958,1546,1546,1546,1546
65373840,1000,1000,1000,1000,106828918,1546,1546,1546,1546
65376339,1000,1000,1000,1000,106928878,1546,1545,1546,1545
65378838,1000,1000,1000,1000,107028838,1545,1545,1545,1545
65381337,1000,1000,1000,1000,107128798,1545,1545,1546,1545
65383836,1000,1000,1000,1000,107228758,1544,1544,1544,1544
65386335,1000,1000,1000,1000,107328718,1544,1544,1544,1544
65388834,1000,1000,1000,1000,107428678,1544,1545,1544,1545
65391333,1000,1000,1000,1000,107528638,1544,1544,1544,1544
65393832,1000,1000,1000,1000,107628598,1544,1544,1545,1544
65396331,1000,1000,1000,1000,107728558,1545,1544,1544,1544
65398830,1000,1000,1000,1000,107828518,1544,1544,1544,1544
65401329,1000,1000,1000,1000,107928478,1544,1544,1544,1545
65403828,1000,1000,1000,1000,108028438,1544,1544,1544,1545
65406327,1000,1000,1000,1000,108128398,1544,1544,1544,1544
65408826,1000,1000,1000,1000,108228358,1544,1544,1544,1544
65411325,1000,1000,1000,1000,108328318,1544,1544,1543,1543
65413824,1000,1000,1000,1000,108428278,1544,1544,1544,1544
65416323,1000,1000,1000,1000,108528238,1545,1544,1544,1545
65418822,1000,1000,1000,1000,108628198,1543,1544,1543,1544
65421321,1000,1000,1000,1000,108728158,1544,1544,1544,1544
65423820,1000,1000,1000,1000,108828951,1544,1544,1544,1543
65426319,1000,1000,1000,1000,108928911,1544,1544,1544,1544
65428818,1000,1000,1000,1000,109028871,1544,1544,1544,1544
65431317,1000,1000,1000,1000,109128831,1544,1544,1544,1545
65433816,1000,1000,1000,1000,109228791,1543,1544,1544,1543
65436315,1000,1000,1000,1000,109328751,1544,1544,1544,1544
65438814,1000,1000,1000,1000,109428711,1544,1544,1544,1544
65441313,1000,1000,1000,1000,109528671,1544,1544,1544,1544
65443812,1000,1000,1000,1000,109628631,1544,1544,1544,1544
65446311,1000,1000,1000,1000,109728591,1545,1544,1545,1544
65448810,1000,1000,1000,1000,109828551,1544,1544,1544,1544
65451309,1000,1000,1000,1000,109928511,1544,1544,1543,1544
65453808,1000,1000,1000,1000,110028471,1544,1545,1544,1545
65456307,1000,1000,1000,1000,110128431,1544,1544,1544,1544
65458806,1000,1000,1000,1000,110228391,1544,1545,1545,1544
65461305,1000,1000,1000,1000,110328351,1544,1544,1544,1544
65463804,1000,1000,1000,1000,110428311,1544,1545,1545,1545
65466303,1000,1000,1000,1000,110528271,1544,1544,1544,1544
65468802,1000,1000,1000,1000,110628231,1543,1543,1543,1543
65471301,1000,1000,1000,1000,110728191,1544,1543,1544,1544
65473800,1000,1000,1000,1000,110828984,1544,1544,1544,1543
65476299,1000,1000,1000,1000,110928944,1543,1543,1543,1544
65478798,1000,1000,1000,1000,111028904,1544,1544,1544,1544
65481297,1000,1000,1000,1000,111128864,1544,1544,1544,1544
65483796,1000,1000,1000,1000,111228824,1544,1544,1544,1544
65486295,1000,1000,1000,1000,111328784,1543,1543,1543,1543
65488794,1000,1000,1000,1000,111428744,1543,1543,1544,1543
65491293,1000,1000,1000,1000,111528704,1544,1544,1544,1544
65493792,1000,1000,1000,1000,111628664,1544,1545,1544,1544
65496291,1000,1000,1000,1000,111728624,1544,1544,1544,1544
65498790,1000,1000,1000,1000,111828584,1543,1544,1544,1543
65501289,1000,1000,1000,1000,111928544,1544,1543,1543,1544
65503788,1000,1000,1000,1000,112028504,1543,1543,1543,1543
65506287,1000,1000,1000,1000,112128464,1543,1543,1543,1544
65508786,1000,1000,1000,1000,112228424,1544,1543,1544,1543
65511285,1000,1000,1000,1000,112328384,1543,1543,1543,1543
65513784,1000,1000,1000,1000,112428344,1544,1545,1544,1544
65516283,1000,1000,1000,1000,112528304,1544,1545,1544,1544
65518782,1000,1000,1000,1000,112628264,1545,1545,1545,1545
65521281,1000,1000,1000,1000,112728224,1544,1543,1543,1544
65523780,1000,1000,1000,1000,112828184,1544,1544,1544,1544
65526279,1000,1000,1000,1000,112928977,1543,1543,1543,1543
65528778,1000,1000,1000,1000,113028937,1543,1544,1544,1543
65531277,1000,1000,1000,1000,113128897,1545,1545,1545,1545
65533776,1000,1000,1000,1000,113228857,1544,1545,1544,1545
65536275,1000,1000,1000,1000,113328817,1545,1544,1544,1545
65538774,1000,1000,1000,1000,113428777,1544,1544,1544,1544
65541273,1000,1000,1000,1000,113528737,1544,1544,1544,1545
65543772,1000,1000,1000,1000,113628697,1543,1543,1544,1543
65546271,1000,1000,1000,1000,113728657,1544,1544,1544,1544
65548770,1000,1000,1000,1000,113828617,1543,1544,1544,1544
65551269,1000,1000,1000,1000,113928577,1544,1543,1544,1544
65553768,1000,1000,1000,1000,114028537,1545,1544,1545,1544
65556267,1000,1000,1000,1000,114128497,1544,1544,1544,1544
65558766,1000,1000,1000,1000,114228457,1544,1544,1544,1544
65561265,1000,1000,1000,1000,114328417,1544,1544,1544,1544
65563764,1000,1000,1000,1000,114428377,1544,1545,1545,1544
65566263,1000,1000,1000,1000,114528337,1544,1544,1544,1544
65568762,1000,1000,1000,1000,114628297,1544,1544,1544,1544
65571261,1000,1000,1000,1000,114728257,1544,1544,1544,1544
65573760,1000,1000,1000,1000,114828217,1544,1544,1544,1544
65576259,1000,1000,1000,1000,114928177,1417,1416,1417,1416
65578758,1000,1000,1000,1000,115028970,1275,1274,1275,1274
65581257,1000,1000,1000,1000,115128930,1221,1220,1221,1220
65583756,1000,1000,1000,1000,115228890,1200,1199,1200,1199
65586255,1000,1000,1000,1000,115328850,1162,1160,1161,1161
65588754,1000,1000,1000,1000,115428810,1151,1150,1151,1150
65591253,1000,1000,1000,1000,115528770,1152,1150,1151,1151
65593752,1000,1000,1000,1000,115628730,1189,1150,1150,1189
65596251,1000,1000,1000,1000,115728690,1178,1150,1151,1177
65598750,1000,1000,1000,1000,115828650,1173,1150,1151,1173
65601249,1000,1000,1000,1000,115928610,1174,1150,1151,1174
65603748,1000,1000,1000,1000,116028570,1176,1150,1151,1175
65606247,1000,1000,1000,1000,116128530,1179,1150,1151,1178
65608746,1000,1000,1000,1000,116228490,1180,1150,1151,1180
65611245,1000,1000,1000,1000,116328450,1183,1150,1152,1182
65613744,1000,1000,1000,1000,116428410,1167,1150,1151,1166
65616243,1000,1000,1000,1000,116528370,1169,1150,1151,1168
65618742,1000,1000,1000,1000,116628330,1170,1150,1152,1169
65621241,1000,1000,1000,1000,116728290,1170,1150,1152,1170
65623740,1000,1000,1000,1000,116828250,1171,1150,1152,1170
65626239,1000,1000,1000,1000,116928210,1000,1000,1000,1000
65628738,1000,1000,1000,1000,117028170,1000,1000,1000,1000
65631237,1000,1000,1000,1000,117128963,1000,1000,1000,1000
65633736,1000,1000,1000,1000,117228923,1000,1000,1000,1000
65636235,1000,1000,1000,1000,117328883,1000,1000,1000,1000
65638734,1000,1000,1000,1000,117428843,1000,1000,1000,1000
65641233,1000,1000,1000,1000,117528803,1000,1000,1000,1000
65643732,1000,1000,1000,1000,117628763,1000,1000,1000,1000
65646231,1000,1000,1000,1000,117728723,1000,1000,1000,1000
65648730,1000,1000,1000,1000,117828683,1000,1000,1000,1000
65651229,1000,1000,1000,1000,117928643,1000,1000,1000,1000
65653728,1000,1000,1000,1000,118028603,1000,1000,1000,1000
65656227,1000,1000,1000,1000,118128563,1000,1000,1000,1000
65658726,1000,1000,1000,1000,118228523,1000,1000,1000,1000
65661225,1000,1000,1000,1000,118328483,1000,1000,1000,1000
65663724,1000,1000,1000,1000,118428443,1000,1000,1000,1000
65666223,1000,1000,1000,1000,118528403,1000,1000,1000,1000
65668722,1000,1000,1000,1000,118628363,1000,1000,1000,1000
65671221,1000,1000,1000,1000,118728323,1000,1000,1000,1000
65673720,1000,1000,1000,1000,118828283,1000,1000,1000,1000
65676219,1000,1000,1000,1000,118928243,1000,1000,1000,1000
65678718,1000,1000,1000,1000,119028203,1000,1000,1000,1000
65681217,1000,1000,1000,1000,119128163,1000,1000,1000,1000
65683716,1000,1000,1000,1000,119228956,1000,1000,1000,1000
65686215,1000,1000,1000,1000,119328916,1000,1000,1000,1000
65688714,1000,1000,1000,1000,119428876,1000,1000,1000,1000
65691213,1000,1000,1000,1000,119528836,1000,1000,1000,1000
65693712,1000,1000,1000,1000,119628796,1000,1000,1000,1000
65696211,1000,1000,1000,1000,119728756,1000,1000,1000,1000
65698710,1000,1000,1000,1000,119828716,1000,1000,1000,1000
65701209,1000,1000,1000,1000,119928676,1000,1000,1000,1000
65703708,1000,1000,1000,1000,120028636,1000,1000,1000,1000
65706207,1000,1000,1000,1000,120128596,1000,1000,1000,1000
65708706,1000,1000,1000,1000,120228556,1000,1000,1000,1000
65711205,1000,1000,1000,1000,120328516,1000,1000,1000,1000
65713704,1000,1000,1000,1000,120428476,1000,1000,1000,1000
65716203,1000,1000,1000,1000,120528436,1000,1000,1000,1000
65718702,1000,1000,1000,1000,120628396,1000,1000,1000,1000
65721201,1000,1000,1000,1000,120728356,1000,1000,1000,1000
65723700,1000,1000,1000,1000,120828316,1000,1000,1000,1000
65726199,1000,1000,1000,1000,120928276,1000,1000,1000,1000
65728698,1000,1000,1000,1000,121028236,1000,1000,1000,1000
65731197,1000,1000,1000,1000,121128196,1000,1000,1000,1000
65733696,1000,1000,1000,1000,121228156,1000,1000,1000,1000
65736195,1000,1000,1000,1000,121328949,1000,1000,1000,1000
65738694,1000,1000,1000,1000,121428909,1000,1000,1000,1000
65741193,1000,1000,1000,1000,121528869,1000,1000,1000,1000
65743692,1000,1000,1000,1000,121628829,1000,1000,1000,1000
65746191,1000,1000,1000,1000,121728789,1000,1000,1000,1000
65748690,1000,1000,1000,1000,121828749,1000,1000,1000,1000
65751189,1000,1000,1000,1000,121928709,1000,1000,1000,1000
65753688,1000,1000,1000,1000,122028669,1000,1000,1000,1000
65756187,1000,1000,1000,1000,122128629,1000,1000,1000,1000
65758686,1000,1000,1000,1000,122228589,1000,1000,1000,1000
65761185,1000,1000,1000,1000,122328549,1000,1000,1000,1000
65763684,1000,1000,1000,1000,122428509,1000,1000,1000,1000
65766183,1000,1000,1000,1000,122528469,1000,1000,1000,1000
65768682,1000,1000,1000,1000,122628429,1000,1000,1000,1000
65771181,1000,1000,1000,1000,122728389,1000,1000,1000,1000
65773680,1000,1000,1000,1000,122828349,1000,1000,1000,1000
65776179,1000,1000,1000,1000,122928309,1000,1000,1000,1000
65778678,1000,1000,1000,1000,123028269,1000,1000,1000,1000
65781177,1000,1000,1000,1000,123128229,1000,1000,1000,1000
65783676,1000,1000,1000,1000,123228189,1000,1000,1000,1000
65786175,1000,1000,1000,1000,123328982,1000,1000,1000,1000
65788674,1000,1000,1000,1000,123428942,1000,1000,1000,1000
65791173,1000,1000,1000,1000,123528902,1000,1000,1000,1000
65793672,1000,1000,1000,1000,123628862,1000,1000,1000,1000
65796171,1000,1000,1000,1000,123728822,1000,1000,1000,1000
65798670,1000,1000,1000,1000,123828782,1000,1000,1000,1000
65801169,1000,1000,1000,1000,123928742,1000,1000,1000,1000
65803668,1000,1000,1000,1000,124028702,1000,1000,1000,1000
65806167,1000,1000,1000,1000,124128662,1000,1000,1000,1000
65808666,1000,1000,1000,1000,124228622,1000,1000,1000,1000
65811165,1000,1000,1000,1000,124328582,1000,1000,1000,1000
65813664,1000,1000,1000,1000,124428542,1000,1000,1000,1000
65816163,1000,1000,1000,1000,124528502,1000,1000,1000,1000
65818662,1000,1000,1000,1000,124628462,1000,1000,1000,1000
65821161,1000,1000,1000,1000,124728422,1000,1000,1000,1000
65823660,1000,1000,1000,1000,124828382,1000,1000,1000,1000
65826159,1000,1000,1000,1000,124928342,1000,1000,1000,1000
65828658,1000,1000,1000,1000,125028302,1000,1000,1000,1000
65831157,1000,1000,1000,1000,125128262,1000,1000,1000,1000
65833656,1000,1000,1000,1000,125228222,1000,1000,1000,1000
65836155,1000,1000,1000,1000,125328182,1000,1000,1000,1000
65838654,1000,1000,1000,1000,125428975,1000,1000,1000,1000
65841153,1000,1000,1000,1000,125528935,1000,1000,1000,1000
65843652,1000,1000,1000,1000,125628895,1000,1000,1000,1000
65846151,1000,1000,1000,1000,125728855,1000,1000,1000,1000
65848650,1000,1000,1000,1000,125828815,1000,1000,1000,1000
65851149,1000,1000,1000,1000,125928775,1000,1000,1000,1000
65853648,1000,1000,1000,1000,126028735,1000,1000,1000,1000
65856147,1000,1000,1000,1000,126128695,1000,1000,1000,1000
65858646,1000,1000,1000,1000,126228655,1000,1000,1000,1000
65861145,1000,1000,1000,1000,126328615,1000,1000,1000,1000
65863644,1000,1000,1000,1000,126428575,1000,1000,1000,1000
65866143,1000,1000,1000,1000,126528535,1000,1000,1000,1000
65868642,1000,1000,1000,1000,126628495,1000,1000,1000,1000
65871141,1000,1000,1000,1000,126728455,1000,1000,1000,1000
65873640,1000,1000,1000,1000,126828415,1000,1000,1000,1000
65876139,1000,1000,1000,1000,126928375,1000,1000,1000,1000
65878638,1000,1000,1000,1000,127028335,1000,1000,1000,1000
65881137,1000,1000,1000,1000,127128295,1000,1000,1000,1000
65883636,1000,1000,1000,1000,127228255,1000,1000,1000,1000
65886135,1000,1000,1000,1000,127328215,1000,1000,1000,1000
65888634,1000,1000,1000,1000,127428175,1000,1000,1000,1000
65891133,1000,1000,1000,1000,127528968,1000,1000,1000,1000
65893632,1000,1000,1000,1000,127628928,1000,1000,1000,1000
65896131,1000,1000,1000,1000,127728888,1000,1000,1000,1000
65898630,1000,1000,1000,1000,127828848,1000,1000,1000,1000
65901129,1000,1000,1000,1000,127928808,1000,1000,1000,1000
65903628,1000,1000,1000,1000,128028768,1000,1000,1000,1000
65906127,1000,1000,1000,1000,128128728,1000,1000,1000,1000
65908626,1000,1000,1000,1000,128228688,1000,1000,1000,1000
65911125,1000,1000,1000,1000,128328648,1000,1000,1000,1000
65913624,1000,1000,1000,1000,128428608,1000,1000,1000,1000
65916123,1000,1000,1000,1000,128528568,1000,1000,1000,1000
65918622,1000,1000,1000,1000,128628528,1000,1000,1000,1000
65921121,1000,1000,1000,1000,128728488,1000,1000,1000,1000
65923620,1000,1000,1000,1000,128828448,1000,1000,1000,1000
65926119,1000,1000,1000,1000,128928408,1000,1000,1000,1000
65928618,1000,1000,1000,1000,129028368,1000,1000,1000,1000
65931117,1000,1000,1000,1000,129128328,1000,1000,1000,1000
65933616,1000,1000,1000,1000,129228288,1000,1000,1000,1000
65936115,1000,1000,1000,1000,129328248,1000,1000,1000,1000
65938614,1000,1000,1000,1000,129428208,1000,1000,1000,1000
65941113,1000,1000,1000,1000,129528168,1000,1000,1000,1000
65943612,1000,1000,1000,1000,129628961,1000,1000,1000,1000
65946111,1000,1000,1000,1000,129728921,1000,1000,1000,1000
65948610,1000,1000,1000,1000,129828881,1000,1000,1000,1000
65951109,1000,1000,1000,1000,129928841,1000,1000,1000,1000
65953608,1000,1000,1000,1000,130028801,1000,1000,1000,1000
65956107,1000,1000,1000,1000,130128761,1000,1000,1000,1000
65958606,1000,1000,1000,1000,130228721,1000,1000,1000,1000
65961105,1000,1000,1000,1000,130328681,1000,1000,1000,1000
65963604,1000,1000,1000,1000,130428641,1000,1000,1000,1000
65966103,1000,1000,1000,1000,130528601,1000,1000,1000,1000
65968602,1000,1000,1000,1000,130628561,1000,1000,1000,1000
65971101,1000,1000,1000,1000,130728521,1000,1000,1000,1000
65973600,1000,1000,1000,1000,130828481,1000,1000,1000,1000
65976099,1000,1000,1000,1000,130928441,1000,1000,1000,1000
65978598,1000,1000,1000,1000,131028401,1000,1000,1000,1000
65981097,1000,1000,1000,1000,131128361,1000,1000,1000,1000
65983596,1000,1000,1000,1000,131228321,1000,1000,1000,1000
65986095,1000,1000,1000,1000,131328281,1000,1000,1000,1000
65988594,1000,1000,1000,1000,131428241,1000,1000,1000,1000
65991093,1000,1000,1000,1000,131528201,1000,1000,1000,1000
65993592,1000,1000,1000,1000,131628161,1000,1000,1000,1000
65996091,1000,1000,1000,1000,131728954,1000,1000,1000,1000
65998590,1000,1000,1000,1000,131828914,1000,1000,1000,1000
66001089,1000,1000,1000,1000,,,,,
66003588,1000,1000,1000,1000,,,,,
66006087,1000,1000,1000,1000,,,,,
66008586,1000,1000,1000,1000,,,,,
66011085,1000,1000,1000,1000,,,,,
66013584,1000,1000,1000,1000,,,,,
66016083,1000,1000,1000,1000,,,,,
66018582,1000,1000,1000,1000,,,,,
66021081,1000,1000,1000,1000,,,,,
66023580,1000,1000,1000,1000,,,,,
66026079,1000,1000,1000,1000,,,,,
66028578,1000,1000,1000,1000,,,,,
66031077,1000,1000,1000,1000,,,,,
66033576,1000,1000,1000,1000,,,,,
66036075,1000,1000,1000,1000,,,,,
66038574,1000,1000,1000,1000,,,,,
66041073,1000,1000,1000,1000,,,,,
66043572,1000,1000,1000,1000,,,,,
66046071,1000,1000,1000,1000,,,,,
66048570,1000,1000,1000,1000,,,,,
66051069,1000,1000,1000,1000,,,,,
66053568,1000,1000,1000,1000,,,,,
66056067,1000,1000,1000,1000,,,,,
66058566,1000,1000,1000,1000,,,,,
66061065,1000,1000,1000,1000,,,,,
66063564,1000,1000,1000,1000,,,,,
66066063,1000,1000,1000,1000,,,,,
66068562,1000,1000,1000,1000,,,,,
66071061,1000,1000,1000,1000,,,,,
66073560,1000,1000,1000,1000,,,,,
66076059,1000,1000,1000,1000,,,,,
66078558,1000,1000,1000,1000,,,,,
66081057,1000,1000,1000,1000,,,,,
66083556,1000,1000,1000,1000,,,,,
66086055,1000,1000,1000,1000,,,,,
66088554,1000,1000,1000,1000,,,,,
66091053,1000,1000,1000,1000,,,,,
66093552,1000,1000,1000,1000,,,,,
66096051,1000,1000,1000,1000,,,,,
66098550,1000,1000,1000,1000,,,,,
66101049,1000,1000,1000,1000,,,,,
66103548,1000,1000,1000,1000,,,,,
66106047,1000,1000,1000,1000,,,,,
66108546,1000,1000,1000,1000,,,,,
66111045,1000,1000,1000,1000,,,,,
66113544,1000,1000,1000,1000,,,,,
66116043,1000,1000,1000,1000,,,,,
66118542,1000,1000,1000,1000,,,,,
66121041,1000,1000,1000,1000,,,,,
66123540,1000,1000,1000,1000,,,,,
66126039,1000,1000,1000,1000,,,,,
66128538,1000,1000,1000,1000,,,,,
66131037,1000,1000,1000,1000,,,,,
66133536,1000,1000,1000,1000,,,,,
66136035,1000,1000,1000,1000,,,,,
66138534,1000,1000,1000,1000,,,,,
66141033,1000,1000,1000,1000,,,,,
66143532,1000,1000,1000,1000,,,,,
66146031,1000,1000,1000,1000,,,,,
66148530,1000,1000,1000,1000,,,,,
66151029,1000,1000,1000,1000,,,,,
66153528,1000,1000,1000,1000,,,,,
66156027,1000,1000,1000,1000,,,,,
66158526,1000,1000,1000,1000,,,,,
66161025,1000,1000,1000,1000,,,,,
66163524,1000,1000,1000,1000,,,,,
66166023,1000,1000,1000,1000,,,,,
66168522,1000,1000,1000,1000,,,,,
66171021,1000,1000,1000,1000,,,,,
66173520,1000,1000,1000,1000,,,,,
66176019,1000,1000,1000,1000,,,,,
66178518,1000,1000,1000,1000,,,,,
66181017,1000,1000,1000,1000,,,,,
66183516,1000,1000,1000,1000,,,,,
66186015,1000,1000,1000,1000,,,,,
66188514,1000,1000,1000,1000,,,,,
66191013,1000,1000,1000,1000,,,,,
66193512,1000,1000,1000,1000,,,,,
66196011,1000,1000,1000,1000,,,,,
66198510,1000,1000,1000,1000,,,,,
66201009,1000,1000,1000,1000,,,,,
66203508,1000,1000,1000,1000,,,,,
66206007,1000,1000,1000,1000,,,,,
66208506,1000,1000,1000,1000,,,,,
66211005,1000,1000,1000,1000,,,,,
66213504,1000,1000,1000,1000,,,,,
66216003,1000,1000,1000,1000,,,,,
66218502,1000,1000,1000,1000,,,,,
66221001,1000,1000,1000,1000,,,,,
66223500,1000,1000,1000,1000,,,,,
66225999,1000,1000,1000,1000,,,,,
66228498,1000,1000,1000,1000,,,,,
66230997,1000,1000,1000,1000,,,,,
66233496,1000,1000,1000,1000,,,,,
66235995,1000,1000,1000,1000,,,,,
66238494,1000,1000,1000,1000,,,,,
66240993,1000,1000,1000,1000,,,,,
66243492,1000,1000,1000,1000,,,,,
66245991,1000,1000,1000,1000,,,,,
66248490,1000,1000,1000,1000,,,,,
66250989,1000,1000,1000,1000,,,,,
66253488,1000,1000,1000,1000,,,,,
66255987,1000,1000,1000,1000,,,,,
66258486,1000,1000,1000,1000,,,,,
66260985,1000,1000,1000,1000,,,,,
66263484,1000,1000,1000,1000,,,,,
66265983,1000,1000,1000,1000,,,,,
66268482,1000,1000,1000,1000,,,,,
66270981,1000,1000,1000,1000,,,,,
66273480,1000,1000,1000,1000,,,,,
66275979,1000,1000,1000,1000,,,,,
66278478,1000,1000,1000,1000,,,,,
66280977,1000,1000,1000,1000,,,,,
66283476,1000,1000,1000,1000,,,,,
66285975,1000,1000,1000,1000,,,,,
66288474,1000,1000,1000,1000,,,,,
66290973,1000,1000,1000,1000,,,,,
66293472,1000,1000,1000,1000,,,,,
66295971,1000,1000,1000,1000,,,,,
66298470,1000,1000,1000,1000,,,,,
66300969,1000,1000,1000,1000,,,,,
66303468,1000,1000,1000,1000,,,,,
66305967,1000,1000,1000,1000,,,,,
66308466,1000,1000,1000,1000,,,,,
66310965,1000,1000,1000,1000,,,,,
66313464,1000,1000,1000,1000,,,,,
66315963,1000,1000,1000,1000,,,,,
66318462,1001,1001,1001,1001,,,,,
66320961,1002,1002,1002,1002,,,,,
66323460,1003,1003,1003,1003,,,,,
66325959,1003,1003,1003,1003,,,,,
66328458,1004,1004,1004,1004,,,,,
66330957,1005,1005,1005,1005,,,,,
66333456,1006,1006,1006,1006,,,,,
66335955,1006,1006,1006,1006,,,,,
66338454,1007,1007,1007,1007,,,,,
66340953,1008,1008,1008,1008,,,,,
66343452,1009,1009,1009,1009,,,,,
66345951,1009,1009,1009,1009,,,,,
66348450,1010,1010,1010,1010,,,,,
66350949,1011,1011,1011,1011,,,,,
66353448,1012,1012,1012,1012,,,,,
66355947,1012,1012,1012,1012,,,,,
66358446,1013,1013,1013,1013,,,,,
66360945,1014,1014,1014,1014,,,,,
66363444,1015,1015,1015,1015,,,,,
66365943,1015,1015,1015,1015,,,,,
66368442,1016,1016,1016,1016,,,,,
66370941,1017,1017,1017,1017,,,,,
66373440,1018,1018,1018,1018,,,,,
66375939,1018,1018,1018,1018,,,,,
66378438,1019,1019,1019,1019,,,,,
66380937,1020,1020,1020,1020,,,,,
66383436,1021,1021,1021,1021,,,,,
66385935,1021,1021,1021,1021,,,,,
66388434,1022,1022,1022,1022,,,,,
66390933,1023,1023,1023,1023,,,,,
66393432,1024,1024,1024,1024,,,,,
66395931,1024,1024,1024,1024,,,,,
66398430,1025,1025,1025,1025,,,,,
66400929,1026,1026,1026,1026,,,,,
66403428,1027,1027,1027,1027,,,,,
66405927,1027,1027,1027,1027,,,,,
66408426,1028,1028,1028,1028,,,,,
66410925,1029,1029,1029,1029,,,,,
66413424,1030,1030,1030,1030,,,,,
66415923,1030,1030,1030,1030,,,,,
66418422,1031,1031,1031,1031,,,,,
66420921,1032,1032,1032,1032,,,,,
66423420,1033,1033,1033,1033,,,,,
66425919,1033,1033,1033,1033,,,,,
66428418,1034,1034,1034,1034,,,,,
66430917,1035,1035,1035,1035,,,,,
66433416,1036,1036,1036,1036,,,,,
66435915,1036,1036,1036,1036,,,,,
66438414,1037,1037,1037,1037,,,,,
66440913,1038,1038,1038,1038,,,,,
66443412,1039,1039,1039,1039,,,,,
66445911,1039,1039,1039,1039,,,,,
66448410,1040,1040,1040,1040,,,,,
66450909,1041,1041,1041,1041,,,,,
66453408,1042,1042,1042,1042,,,,,
66455907,1042,1042,1042,1042,,,,,
66458406,1043,1043,1043,1043,,,,,
66460905,1044,1044,1044,1044,,,,,
66463404,1045,1045,1045,1045,,,,,
66465903,1045,1045,1045,1045,,,,,
66468402,1046,1046,1046,1046,,,,,
66470901,1047,1047,1047,1047,,,,,
66473400,1048,1048,1048,1048,,,,,
66475899,1048,1048,1048,1048,,,,,
66478398,1049,1049,1049,1049,,,,,
66480897,1050,1050,1050,1050,,,,,
66483396,1051,1051,1051,1051,,,,,
66485895,1051,1051,1051,1051,,,,,
66488394,1052,1052,1052,1052,,,,,
66490893,1053,1053,1053,1053,,,,,
66493392,1054,1054,1054,1054,,,,,
66495891,1054,1054,1054,1054,,,,,
66498390,1055,1055,1055,1055,,,,,
66500889,1056,1056,1056,1056,,,,,
66503388,1057,1057,1057,1057,,,,,
66505887,1057,1057,1057,1057,,,,,
66508386,1058,1058,1058,1058,,,,,
66510885,1059,1059,1059,1059,,,,,
66513384,1060,1060,1060,1060,,,,,
66515883,1060,1060,1060,1060,,,,,
66518382,1061,1061,1061,1061,,,,,
66520881,1062,1062,1062,1062,,,,,
66523380,1063,1063,1063,1063,,,,,
66525879,1063,1063,1063,1063,,,,,
66528378,1064,1064,1064,1064,,,,,
66530877,1065,1065,1065,1065,,,,,
66533376,1066,1066,1066,1066,,,,,
66535875,1066,1066,1066,1066,,,,,
66538374,1067,1067,1067,1067,,,,,
66540873,1068,1068,1068,1068,,,,,
66543372,1069,1069,1069,1069,,,,,
66545871,1069,1069,1069,1069,,,,,
66548370,1070,1070,1070,1070,,,,,
66550869,1071,1071,1071,1071,,,,,
66553368,1072,1072,1072,1072,,,,,
66555867,1072,1072,1072,1072,,,,,
66558366,1073,1073,1073,1073,,,,,
66560865,1074,1074,1074,1074,,,,,
66563364,1075,1075,1075,1075,,,,,
66565863,1075,1075,1075,1075,,,,,
66568362,1076,1076,1076,1076,,,,,
66570861,1077,1077,1077,1077,,,,,
66573360,1078,1078,1078,1078,,,,,
66575859,1078,1078,1078,1078,,,,,
66578358,1079,1079,1079,1079,,,,,
66580857,1080,1080,1080,1080,,,,,
66583356,1081,1081,1081,1081,,,,,
66585855,1081,1081,1081,1081,,,,,
66588354,1082,1082,1082,1082,,,,,
66590853,1083,1083,1083,1083,,,,,
66593352,1084,1084,1084,1084,,,,,
66595851,1084,1084,1084,1084,,,,,
66598350,1085,1085,1085,1085,,,,,
66600849,1086,1086,1086,1086,,,,,
66603348,1087,1087,1087,1087,,,,,
66605847,1087,1087,1087,1087,,,,,
66608346,1088,1088,1088,1088,,,,,
66610845,1089,1089,1089,1089,,,,,
66613344,1090,1090,1090,1090,,,,,
66615843,1090,1090,1090,1090,,,,,
66618342,1091,1091,1091,1091,,,,,
66620841,1092,1092,1092,1092,,,,,
66623340,1093,1093,1093,1093,,,,,
66625839,1093,1093,1093,1093,,,,,
66628338,1094,1094,1094,1094,,,,,
66630837,1095,1095,1095,1095,,,,,
66633336,1096,1096,1096,1096,,,,,
66635835,1096,1096,1096,1096,,,,,
66638334,1097,1097,1097,1097,,,,,
66640833,1098,1098,1098,1098,,,,,
66643332,1099,1099,1099,1099,,,,,
66645831,1099,1099,1099,1099,,,,,
66648330,1100,1100,1100,1100,,,,,
66650829,1101,1101,1101,1101,,,,,
66653328,1101,1101,1101,1101,,,,,
66655827,1102,1102,1102,1102,,,,,
66658326,1103,1103,1103,1103,,,,,
66660825,1104,1104,1104,1104,,,,,
66663324,1104,1104,1104,1104,,,,,
66665823,1105,1105,1105,1105,,,,,
66668322,1106,1106,1106,1106,,,,,
66670821,1107,1107,1107,1107,,,,,
66673320,1107,1107,1107,1107,,,,,
66675819,1108,1108,1108,1108,,,,,
66678318,1109,1109,1109,1109,,,,,
66680817,1110,1110,1110,1110,,,,,
66683316,1110,1110,1110,1110,,,,,
66685815,1111,1111,1111,1111,,,,,
66688314,1112,1112,1112,1112,,,,,
66690813,1113,1113,1113,1113,,,,,
66693312,1113,1113,1113,1113,,,,,
66695811,1114,1114,1114,1114,,,,,
66698310,1115,1115,1115,1115,,,,,
66700809,1116,1116,1116,1116,,,,,
66703308,1116,1116,1116,1116,,,,,
66705807,1117,1117,1117,1117,,,,,
66708306,1118,1118,1118,1118,,,,,
66710805,1119,1119,1119,1119,,,,,
66713304,1119,1119,1119,1119,,,,,
66715803,1120,1120,1120,1120,,,,,
66718302,1121,1121,1121,1121,,,,,
66720801,1122,1122,1122,1122,,,,,
66723300,1122,1122,1122,1122,,,,,
66725799,1123,1123,1123,1123,,,,,
66728298,1124,1124,1124,1124,,,,,
66730797,1125,1125,1125,1125,,,,,
66733296,1125,1125,1125,1125,,,,,
66735795,1126,1126,1126,1126,,,,,
66738294,1127,1127,1127,1127,,,,,
66740793,1128,1128,1128,1128,,,,,
66743292,1128,1128,1128,1128,,,,,
66745791,1129,1129,1129,1129,,,,,
66748290,1130,1130,1130,1130,,,,,
66750789,1131,1131,1131,1131,,,,,
66753288,1131,1131,1131,1131,,,,,
66755787,1132,1132,1132,1132,,,,,
66758286,1133,1133,1133,1133,,,,,
66760785,1134,1134,1134,1134,,,,,
66763284,1134,1134,1134,1134,,,,,
66765783,1135,1135,1135,1135,,,,,
66768282,1136,1136,1136,1136,,,,,
66770781,1137,1137,1137,1137,,,,,
66773280,1137,1137,1137,1137,,,,,
66775779,1138,1138,1138,1138,,,,,
66778278,1139,1139,1139,1139,,,,,
66780777,1140,1140,1140,1140,,,,,
66783276,1140,1140,1140,1140,,,,,
66785775,1141,1141,1141,1141,,,,,
66788274,1142,1142,1142,1142,,,,,
66790773,1143,1143,1143,1143,,,,,
66793272,1143,1143,1143,1143,,,,,
66795771,1144,1144,1144,1144,,,,,
66798270,1145,1145,1145,1145,,,,,
66800769,1146,1146,1146,1146,,,,,
66803268,1146,1146,1146,1146,,,,,
66805767,1147,1147,1147,1147,,,,,
66808266,1148,1148,1148,1148,,,,,
66810765,1149,1149,1149,1149,,,,,
66813264,1149,1149,1149,1149,,,,,
66815763,1150,1150,1150,1150,,,,,
66818262,1162,1152,1153,1163,,,,,
66820761,1170,1161,1161,1171,,,,,
66823260,1178,1169,1169,1179,,,,,
66825759,1186,1176,1177,1186,,,,,
66828258,1193,1184,1185,1194,,,,,
66830757,1201,1192,1192,1201,,,,,
66833256,1208,1199,1200,1209,,,,,
66835755,1215,1206,1207,1216,,,,,
66838254,1222,1214,1214,1223,,,,,
66840753,1229,1221,1221,1230,,,,,
66843252,1236,1228,1228,1237,,,,,
66845751,1243,1235,1235,1243,,,,,
66848250,1250,1241,1242,1250,,,,,
66850749,1256,1248,1249,1257,,,,,
66853248,1263,1255,1255,1263,,,,,
66855747,1269,1261,1262,1270,,,,,
66858246,1276,1268,1268,1276,,,,,
66860745,1282,1274,1275,1282,,,,,
66863244,1288,1280,1281,1288,,,,,
66865743,1294,1286,1287,1295,,,,,
66868242,1300,1293,1293,1301,,,,,
66870741,1306,1299,1299,1307,,,,,
66873240,1312,1305,1305,1313,,,,,
66875739,1318,1311,1311,1319,,,,,
66878238,1324,1316,1317,1324,,,,,
66880737,1330,1322,1323,1330,,,,,
66883236,1335,1328,1328,1336,,,,,
66885735,1341,1334,1334,1341,,,,,
66888234,1347,1339,1340,1347,,,,,
66890733,1352,1345,1345,1353,,,,,
66893232,1358,1350,1351,1358,,,,,
66895731,1363,1356,1356,1364,,,,,
66898230,1369,1361,1362,1369,,,,,
66900729,1374,1367,1367,1374,,,,,
66903228,1379,1372,1373,1380,,,,,
66905727,1385,1377,1378,1385,,,,,
66908226,1390,1383,1383,1390,,,,,
66910725,1395,1388,1388,1395,,,,,
66913224,1400,1393,1393,1400,,,,,
66915723,1405,1398,1399,1406,,,,,
66918222,1410,1403,1404,1411,,,,,
66920721,1415,1408,1409,1416,,,,,
66923220,1420,1413,1414,1421,,,,,
66925719,1425,1418,1419,1426,,,,,
66928218,1430,1423,1424,1430,,,,,
66930717,1435,1428,1428,1435,,,,,
66933216,1440,1433,1433,1440,,,,,
66935715,1444,1438,1438,1445,,,,,
66938214,1449,1443,1443,1450,,,,,
66940713,1454,1447,1448,1454,,,,,
66943212,1459,1452,1452,1459,,,,,
66945711,1463,1457,1457,1464,,,,,
66948210,1468,1462,1462,1468,,,,,
66950709,1473,1466,1466,1473,,,,,
66953208,1477,1471,1471,1478,,,,,
66955707,1482,1475,1476,1482,,,,,
66958206,1486,1480,1480,1487,,,,,
66960705,1491,1484,1485,1491,,,,,
66963204,1495,1489,1489,1496,,,,,
66965703,1500,1493,1494,1500,,,,,
66968202,1504,1498,1498,1505,,,,,
66970701,1508,1502,1502,1509,,,,,
66973200,1513,1507,1507,1513,,,,,
66975699,1517,1511,1511,1518,,,,,
66978198,1521,1515,1516,1522,,,,,
66980697,1526,1520,1520,1526,,,,,
66983196,1530,1524,1524,1530,,,,,
66985695,1534,1528,1529,1535,,,,,
66988194,1538,1533,1533,1539,,,,,
66990693,1543,1537,1537,1543,,,,,
66993192,1547,1541,1541,1547,,,,,
66995691,1551,1545,1545,1551,,,,,
66998190,1555,1549,1549,1556,,,,,
67000689,1559,1554,1554,1560,,,,,
67003188,1563,1558,1558,1564,,,,,
67005687,1567,1562,1562,1568,,,,,
67008186,1571,1566,1566,1572,,,,,
67010685,1575,1570,1570,1576,,,,,
67013184,1579,1574,1574,1580,,,,,
67015683,1583,1578,1578,1584,,,,,
67018182,1587,1582,1582,1588,,,,,
67020681,1591,1586,1586,1592,,,,,
67023180,1595,1590,1590,1596,,,,,
67025679,1599,1594,1594,1600,,,,,
67028178,1603,1598,1598,1604,,,,,
67030677,1607,1601,1602,1608,,,,,
67033176,1611,1605,1606,1611,,,,,
67035675,1615,1609,1609,1615,,,,,
67038174,1619,1613,1613,1619,,,,,
67040673,1622,1617,1617,1623,,,,,
67043172,1626,1621,1621,1627,,,,,
67045671,1630,1624,1625,1630,,,,,
67048170,1634,1628,1629,1634,,,,,
67050669,1638,1632,1632,1638,,,,,
67053168,1641,1636,1636,1642,,,,,
67055667,1645,1639,1640,1645,,,,,
67058166,1649,1643,1643,1649,,,,,
67060665,1653,1647,1647,1653,,,,,
67063164,1656,1651,1651,1657,,,,,
67065663,1660,1654,1654,1660,,,,,
67068162,1663,1658,1658,1664,,,,,
67070661,1667,1661,1662,1668,,,,,
67073160,1671,1665,1665,1671,,,,,
67075659,1674,1669,1669,1675,,,,,
67078158,1678,1672,1672,1678,,,,,
67080657,1682,1676,1676,1682,,,,,
67083156,1685,1679,1680,1686,,,,,
67085655,1689,1683,1683,1689,,,,,
67088154,1692,1687,1687,1693,,,,,
67091486,1696,1690,1690,1696,,,,,
67093985,1699,1694,1694,1700,,,,,
67096484,1703,1697,1697,1703,,,,,
67098983,1706,1701,1701,1707,,,,,
67101482,1710,1704,1704,1710,,,,,
67103981,1713,1707,1708,1714,,,,,
67106480,1717,1711,1711,1717,,,,,
67108979,1720,1714,1715,1720,,,,,
67111478,1723,1718,1718,1724,,,,,
67113977,1727,1721,1721,1727,,,,,
67116476,1730,1725,1725,1731,,,,,
67118975,1734,1728,1728,1734,,,,,
67121474,1737,1731,1732,1737,,,,,
67123973,1740,1735,1735,1741,,,,,
67126472,1744,1738,1738,1744,,,,,
67128971,1747,1741,1742,1747,,,,,
67131470,1750,1745,1745,1751,,,,,
67133969,1754,1748,1748,1754,,,,,
67136468,1757,1751,1752,1757,,,,,
67138967,1760,1755,1755,1761,,,,,
67141466,1764,1758,1758,1764,,,,,
67143965,1767,1761,1762,1767,,,,,
67146464,1770,1765,1765,1771,,,,,
67148963,1773,1768,1768,1774,,,,,
67151462,1777,1771,1771,1777,,,,,
67153961,1780,1774,1775,1780,,,,,
67156460,1783,1777,1778,1783,,,,,
67158959,1786,1781,1781,1787,,,,,
67161458,1790,1784,1784,1790,,,,,
67163957,1793,1787,1787,1793,,,,,
67166456,1796,1790,1791,1796,,,,,
67168955,1799,1793,1794,1799,,,,,
67171454,1802,1797,1797,1803,,,,,
67173953,1805,1800,1800,1806,,,,,
67176452,1809,1803,1803,1809,,,,,
67178951,1812,1806,1806,1812,,,,,
67181450,1815,1809,1810,1815,,,,,
67183949,1818,1812,1813,1818,,,,,
67186448,1821,1815,1816,1821,,,,,
67188947,1824,1818,1819,1824,,,,,
67191446,1827,1822,1822,1827,,,,,
67193945,1830,1825,1825,1830,,,,,
67196444,1833,1828,1828,1834,,,,,
67198943,1837,1831,1831,1837,,,,,
67201442,1840,1834,1834,1840,,,,,
67203941,1843,1837,1837,1843,,,,,
67206440,1846,1840,1840,1846,,,,,
67208939,1849,1843,1843,1849,,,,,
67211438,1852,1846,1846,1852,,,,,
67213937,1855,1849,1849,1855,,,,,
67216436,1858,1852,1852,1858,,,,,
67218935,1861,1855,1855,1861,,,,,
67221434,1864,1858,1858,1864,,,,,
67223933,1867,1861,1861,1867,,,,,
67226432,1870,1864,1864,1870,,,,,
67228931,1873,1867,1867,1873,,,,,
67231430,1876,1870,1870,1876,,,,,
67233929,1876,1871,1871,1876,,,,,
67236428,1875,1869,1870,1875,,,,,
67238927,1874,1868,1869,1874,,,,,
67241426,1873,1867,1868,1873,,,,,
67243925,1872,1866,1867,1872,,,,,
67246424,1871,1865,1866,1871,,,,,
67248923,1870,1864,1865,1870,,,,,
67251422,1869,1863,1864,1869,,,,,
67253921,1868,1862,1863,1868,,,,,
67256420,1867,1861,1862,1867,,,,,
67258919,1867,1861,1861,1867,,,,,
67261418,1866,1860,1860,1866,,,,,
67263917,1865,1859,1860,1865,,,,,
67266416,1865,1859,1859,1865,,,,,
67268915,1864,1858,1859,1864,,,,,
67271414,1864,1858,1858,1864,,,,,
67273913,1863,1857,1858,1863,,,,,
67276412,1863,1857,1858,1863,,,,,
67278911,1863,1857,1858,1863,,,,,
67281410,1863,1857,1857,1863,,,,,
67283909,1863,1857,1858,1863,,,,,
67286408,1863,1857,1858,1863,,,,,
67288907,1863,1857,1858,1863,,,,,
67291406,1863,1857,1858,1863,,,,,
67293905,1864,1858,1858,1864,,,,,
67296404,1864,1858,1859,1864,,,,,
67298903,1864,1858,1859,1864,,,,,
67301402,1865,1859,1859,1865,,,,,
67303901,1865,1859,1860,1865,,,,,
67306400,1866,1860,1860,1866,,,,,
67308899,1866,1860,1861,1866,,,,,
67311398,1867,1861,1861,1867,,,,,
67313897,1868,1862,1862,1868,,,,,
67316396,1868,1862,1863,1868,,,,,
67318895,1869,1863,1864,1869,,,,,
67321394,1869,1864,1864,1869,,,,,
67323893,1870,1865,1865,1870,,,,,
67326392,1870,1865,1866,1870,,,,,
67328891,1871,1866,1866,1871,,,,,
67331390,1871,1866,1867,1871,,,,,
67333889,1871,1866,1867,1871,,,,,
67336388,1871,1866,1867,1871,,,,,
67338887,1871,1866,1867,1871,,,,,
67341386,1870,1866,1866,1870,,,,,
67343885,1870,1866,1866,1870,,,,,
67346384,1869,1865,1865,1869,,,,,
67348883,1868,1864,1865,1868,,,,,
67351382,1867,1863,1864,1867,,,,,
67353881,1866,1862,1862,1866,,,,,
67356380,1864,1861,1861,1865,,,,,
67358879,1863,1859,1859,1863,,,,,
67361378,1861,1858,1858,1861,,,,,
67363877,1859,1856,1856,1859,,,,,
67366376,1857,1854,1854,1857,,,,,
67368875,1855,1852,1852,1855,,,,,
67371374,1853,1850,1850,1853,,,,,
67373873,1850,1847,1847,1851,,,,,
67376372,1848,1845,1845,1848,,,,,
67378871,1845,1842,1842,1846,,,,,
67381370,1843,1840,1840,1843,,,,,
67383869,1840,1837,1837,1840,,,,,
67386368,1837,1834,1834,1838,,,,,
67388867,1834,1832,1832,1835,,,,,
67391366,1831,1829,1829,1832,,,,,
67393865,1828,1826,1826,1829,,,,,
67396364,1825,1823,1823,1826,,,,,
67398863,1822,1820,1820,1823,,,,,
67401362,1819,1817,1817,1820,,,,,
67403861,1816,1814,1814,1817,,,,,
67406360,1813,1811,1811,1813,,,,,
67408859,1810,1808,1808,1810,,,,,
67411358,1806,1804,1804,1807,,,,,
67413857,1803,1801,1801,1804,,,,,
67416356,1800,1798,1798,1800,,,,,
67418855,1796,1794,1794,1797,,,,,
67421354,1793,1791,1791,1793,,,,,
67423853,1789,1788,1788,1790,,,,,
67426352,1786,1784,1784,1787,,,,,
67428851,1782,1781,1781,1783,,,,,
67431350,1779,1777,1777,1780,,,,,
67433849,1776,1774,1774,1776,,,,,
67436348,1772,1771,1771,1773,,,,,
67438847,1769,1767,1767,1769,,,,,
67441346,1765,1764,1764,1766,,,,,
67443845,1762,1760,1760,1762,,,,,
67446344,1758,1757,1757,1759,,,,,
67448843,1755,1754,1754,1756,,,,,
67451342,1752,1750,1750,1752,,,,,
67453841,1748,1747,1747,1749,,,,,
67456340,1745,1744,1744,1745,,,,,
67458839,1742,1741,1741,1742,,,,,
67461338,1738,1737,1737,1739,,,,,
67463837,1735,1734,1734,1735,,,,,
67466336,1732,1731,1731,1732,,,,,
67468835,1729,1728,1728,1729,,,,,
67471334,1725,1724,1725,1726,,,,,
67473833,1722,1721,1722,1723,,,,,
67476332,1719,1718,1719,1719,,,,,
67478831,1716,1715,1716,1716,,,,,
67481330,1713,1712,1713,1713,,,,,
67483829,1710,1709,1710,1710,,,,,
67486328,1707,1706,1707,1707,,,,,
67488827,1704,1703,1704,1704,,,,,
67491326,1701,1701,1701,1701,,,,,
67493825,1698,1698,1698,1698,,,,,
67496324,1695,1695,1695,1696,,,,,
67498823,1693,1692,1693,1693,,,,,
67501322,1690,1690,1690,1690,,,,,
