timestamp,TimeUS,C1,C2,C3,C4,C5,C6,C7,C8,C9,C10,C11,C12,C13,C14
1684063381.30004025,43928255,1000,1000,1000,1000,0,0,0,0,0,0,0,0,0,0
1684063381.40000010,44028215,1000,1000,1000,1000,0,0,0,0,0,0,0,0,0,0
1684063381.49996018,44128175,1000,1000,1000,1000,0,0,0,0,0,0,0,0,0,0
1684063381.60075307,44228968,1000,1000,1000,1000,0,0,0,0,0,0,0,0,0,0
1684063381.70071316,44328928,1000,1000,1000,1000,0,0,0,0,0,0,0,0,0,0
1684063381.80067325,44428888,1000,1000,1000,1000,0,0,0,0,0,0,0,0,0,0
1684063381.90063310,44528848,1000,1000,1000,1000,0,0,0,0,0,0,0,0,0,0
1684063382.00059319,44628808,1000,1000,1000,1000,0,0,0,0,0,0,0,0,0,0
1684063382.10055327,44728768,1000,1000,1000,1000,0,0,0,0,0,0,0,0,0,0
1684063382.20051312,44828728,1000,1000,1000,1000,0,0,0,0,0,0,0,0,0,0
1684063382.30047321,44928688,1000,1000,1000,1000,0,0,0,0,0,0,0,0,0,0
1684063382.40043306,45028648,1000,1000,1000,1000,0,0,0,0,0,0,0,0,0,0
1684063382.50039315,45128608,1000,1000,1000,1000,0,0,0,0,0,0,0,0,0,0
1684063382.60035324,45228568,1000,1000,1000,1000,0,0,0,0,0,0,0,0,0,0
1684063382.70031309,45328528,1000,1000,1000,1000,0,0,0,0,0,0,0,0,0,0
1684063382.80027318,45428488,1000,1000,1000,1000,0,0,0,0,0,0,0,0,0,0
1684063382.90023327,45528448,1000,1000,1000,1000,0,0,0,0,0,0,0,0,0,0
1684063383.00019312,45628408,1000,1000,1000,1000,0,0,0,0,0,0,0,0,0,0
1684063383.10015321,45728368,1000,1000,1000,1000,0,0,0,0,0,0,0,0,0,0
1684063383.20011306,45828328,1000,1000,1000,1000,0,0,0,0,0,0,0,0,0,0
1684063383.30007315,45928288,1012,1012,1012,1012,0,0,0,0,0,0,0,0,0,0
1684063383.40003324,46028248,1042,1042,1042,1042,0,0,0,0,0,0,0,0,0,0
1684063383.49999309,46128208,1072,1072,1072,1072,0,0,0,0,0,0,0,0,0,0
1684063383.59995317,46228168,1102,1102,1102,1102,0,0,0,0,0,0,0,0,0,0
1684063383.70074606,46328961,1132,1132,1132,1132,0,0,0,0,0,0,0,0,0,0
1684063383.80070615,46428921,1268,1262,1263,1269,0,0,0,0,0,0,0,0,0,0
1684063383.90066624,46528881,1481,1476,1477,1481,0,0,0,0,0,0,0,0,0,0
1684063384.00062609,46628841,1644,1640,1641,1645,0,0,0,0,0,0,0,0,0,0
1684063384.10058618,46728801,1782,1779,1779,1782,0,0,0,0,0,0,0,0,0,0
1684063384.20054626,46828761,1903,1901,1901,1903,0,0,0,0,0,0,0,0,0,0
1684063384.30050611,46928721,1883,1880,1879,1884,0,0,0,0,0,0,0,0,0,0
1684063384.40046620,47028681,1752,1751,1750,1754,0,0,0,0,0,0,0,0,0,0
1684063384.50042605,47128641,1648,1650,1648,1650,0,0,0,0,0,0,0,0,0,0
1684063384.60038614,47228601,1614,1616,1615,1614,0,0,0,0,0,0,0,0,0,0
1684063384.70034623,47328561,1616,1617,1617,1616,0,0,0,0,0,0,0,0,0,0
1684063384.80030608,47428521,1622,1622,1623,1621,0,0,0,0,0,0,0,0,0,0
1684063384.90026617,47528481,1621,1621,1621,1620,0,0,0,0,0,0,0,0,0,0
1684063385.00022626,47628441,1616,1615,1616,1616,0,0,0,0,0,0,0,0,0,0
1684063385.10018611,47728401,1612,1610,1610,1611,0,0,0,0,0,0,0,0,0,0
1684063385.20014620,47828361,1610,1609,1609,1610,0,0,0,0,0,0,0,0,0,0
1684063385.30010605,47928321,1612,1612,1611,1612,0,0,0,0,0,0,0,0,0,0
1684063385.40006614,48028281,1613,1614,1614,1613,0,0,0,0,0,0,0,0,0,0
1684063385.50002623,48128241,1616,1616,1617,1615,0,0,0,0,0,0,0,0,0,0
1684063385.59998608,48228201,1613,1613,1614,1611,0,0,0,0,0,0,0,0,0,0
1684063385.69994617,48328161,1583,1584,1590,1577,0,0,0,0,0,0,0,0,0,0
1684063385.80073905,48428954,1570,1571,1575,1566,0,0,0,0,0,0,0,0,0,0
1684063385.90069914,48528914,1560,1560,1560,1560,0,0,0,0,0,0,0,0,0,0
1684063386.00065923,48628874,1552,1552,1547,1558,0,0,0,0,0,0,0,0,0,0
1684063386.10061908,48728834,1546,1544,1536,1554,0,0,0,0,0,0,0,0,0,0
1684063386.20057917,48828794,1538,1537,1530,1545,0,0,0,0,0,0,0,0,0,0
1684063386.30053926,48928754,1532,1532,1528,1535,0,0,0,0,0,0,0,0,0,0
1684063386.40049911,49028714,1527,1528,1527,1528,0,0,0,0,0,0,0,0,0,0
1684063386.50045919,49128674,1527,1527,1528,1526,0,0,0,0,0,0,0,0,0,0
1684063386.60041928,49228634,1529,1529,1532,1526,0,0,0,0,0,0,0,0,0,0
1684063386.70037913,49328594,1533,1533,1536,1530,0,0,0,0,0,0,0,0,0,0
1684063386.80033922,49428554,1535,1536,1538,1533,0,0,0,0,0,0,0,0,0,0
1684063386.90029907,49528514,1539,1539,1541,1537,0,0,0,0,0,0,0,0,0,0
1684063387.00025916,49628474,1543,1543,1544,1542,0,0,0,0,0,0,0,0,0,0
1684063387.10021925,49728434,1546,1546,1546,1546,0,0,0,0,0,0,0,0,0,0
1684063387.20017910,49828394,1548,1549,1548,1549,0,0,0,0,0,0,0,0,0,0
1684063387.30013919,49928354,1551,1552,1550,1552,0,0,0,0,0,0,0,0,0,0
1684063387.40009928,50028314,1554,1554,1553,1555,0,0,0,0,0,0,0,0,0,0
1684063387.50005913,50128274,1551,1550,1560,1563,0,0,0,0,0,0,0,0,0,0
1684063387.60001922,50228234,1552,1552,1563,1565,0,0,0,0,0,0,0,0,0,0
1684063387.69997907,50328194,1555,1556,1564,1565,0,0,0,0,0,0,0,0,0,0
1684063387.79993916,50428154,1559,1560,1564,1564,0,0,0,0,0,0,0,0,0,0
1684063387.90073228,50528947,1564,1565,1565,1564,0,0,0,0,0,0,0,0,0,0
1684063388.00069213,50628907,1567,1567,1564,1564,0,0,0,0,0,0,0,0,0,0
1684063388.10065222,50728867,1570,1570,1564,1564,0,0,0,0,0,0,0,0,0,0
1684063388.20061207,50828827,1571,1571,1564,1564,0,0,0,0,0,0,0,0,0,0
1684063388.30057216,50928787,1573,1572,1565,1565,0,0,0,0,0,0,0,0,0,0
1684063388.40053225,51028747,1572,1572,1565,1566,0,0,0,0,0,0,0,0,0,0
1684063388.50049210,51128707,1574,1573,1568,1568,0,0,0,0,0,0,0,0,0,0
1684063388.60045218,51228667,1574,1574,1570,1570,0,0,0,0,0,0,0,0,0,0
1684063388.70041227,51328627,1573,1573,1572,1571,0,0,0,0,0,0,0,0,0,0
1684063388.80037212,51428587,1572,1572,1572,1572,0,0,0,0,0,0,0,0,0,0
1684063388.90033221,51528547,1573,1573,1575,1574,0,0,0,0,0,0,0,0,0,0
1684063389.00029206,51628507,1573,1574,1577,1575,0,0,0,0,0,0,0,0,0,0
1684063389.10025215,51728467,1573,1573,1576,1575,0,0,0,0,0,0,0,0,0,0
1684063389.20021224,51828427,1573,1573,1576,1576,0,0,0,0,0,0,0,0,0,0
1684063389.30017209,51928387,1575,1574,1577,1577,0,0,0,0,0,0,0,0,0,0
1684063389.40013218,52028347,1575,1575,1577,1577,0,0,0,0,0,0,0,0,0,0
1684063389.50009227,52128307,1576,1575,1577,1577,0,0,0,0,0,0,0,0,0,0
1684063389.60005212,52228267,1575,1575,1575,1575,0,0,0,0,0,0,0,0,0,0
1684063389.70001221,52328227,1576,1576,1576,1576,0,0,0,0,0,0,0,0,0,0
1684063389.79997206,52428187,1576,1576,1576,1576,0,0,0,0,0,0,0,0,0,0
1684063389.90076518,52528980,1577,1577,1576,1576,0,0,0,0,0,0,0,0,0,0
1684063390.00072527,52628940,1578,1578,1577,1577,0,0,0,0,0,0,0,0,0,0
1684063390.10068512,52728900,1578,1578,1577,1577,0,0,0,0,0,0,0,0,0,0
1684063390.20064521,52828860,1578,1578,1577,1577,0,0,0,0,0,0,0,0,0,0
1684063390.30060506,52928820,1578,1577,1577,1576,0,0,0,0,0,0,0,0,0,0
1684063390.40056515,53028780,1578,1578,1577,1577,0,0,0,0,0,0,0,0,0,0
1684063390.50052524,53128740,1578,1578,1578,1578,0,0,0,0,0,0,0,0,0,0
1684063390.60048509,53228700,1578,1578,1577,1578,0,0,0,0,0,0,0,0,0,0
1684063390.70044518,53328660,1578,1578,1578,1578,0,0,0,0,0,0,0,0,0,0
1684063390.80040526,53428620,1578,1578,1578,1578,0,0,0,0,0,0,0,0,0,0
1684063390.90036511,53528580,1578,1578,1578,1579,0,0,0,0,0,0,0,0,0,0
1684063391.00032520,53628540,1579,1578,1579,1579,0,0,0,0,0,0,0,0,0,0
1684063391.10028505,53728500,1578,1578,1579,1579,0,0,0,0,0,0,0,0,0,0
1684063391.20024514,53828460,1579,1579,1580,1580,0,0,0,0,0,0,0,0,0,0
1684063391.30020523,53928420,1579,1579,1580,1580,0,0,0,0,0,0,0,0,0,0
1684063391.40016508,54028380,1579,1579,1580,1580,0,0,0,0,0,0,0,0,0,0
1684063391.50012517,54128340,1579,1579,1579,1580,0,0,0,0,0,0,0,0,0,0
1684063391.60008526,54228300,1579,1580,1579,1579,0,0,0,0,0,0,0,0,0,0
1684063391.70004511,54328260,1580,1580,1580,1580,0,0,0,0,0,0,0,0,0,0
1684063391.80000520,54428220,1579,1579,1579,1579,0,0,0,0,0,0,0,0,0,0
1684063391.89996505,54528180,1581,1580,1580,1581,0,0,0,0,0,0,0,0,0,0
1684063392.00075817,54628973,1580,1580,1580,1580,0,0,0,0,0,0,0,0,0,0
1684063392.10071826,54728933,1580,1580,1580,1580,0,0,0,0,0,0,0,0,0,0
1684063392.20067811,54828893,1580,1579,1580,1580,0,0,0,0,0,0,0,0,0,0
1684063392.30063820,54928853,1579,1579,1579,1579,0,0,0,0,0,0,0,0,0,0
1684063392.40059805,55028813,1579,1580,1580,1580,0,0,0,0,0,0,0,0,0,0
1684063392.50055814,55128773,1580,1580,1580,1580,0,0,0,0,0,0,0,0,0,0
1684063392.60051823,55228733,1579,1579,1579,1579,0,0,0,0,0,0,0,0,0,0
1684063392.70047808,55328693,1580,1579,1580,1579,0,0,0,0,0,0,0,0,0,0
1684063392.80043817,55428653,1580,1580,1580,1580,0,0,0,0,0,0,0,0,0,0
1684063392.90039825,55528613,1580,1580,1581,1580,0,0,0,0,0,0,0,0,0,0
1684063393.00035810,55628573,1580,1580,1581,1580,0,0,0,0,0,0,0,0,0,0
1684063393.10031819,55728533,1580,1580,1580,1581,0,0,0,0,0,0,0,0,0,0
1684063393.20027828,55828493,1580,1580,1580,1580,0,0,0,0,0,0,0,0,0,0
1684063393.30023813,55928453,1581,1581,1580,1581,0,0,0,0,0,0,0,0,0,0
1684063393.40019822,56028413,1580,1580,1580,1580,0,0,0,0,0,0,0,0,0,0
1684063393.50015807,56128373,1580,1580,1580,1580,0,0,0,0,0,0,0,0,0,0
1684063393.60011816,56228333,1579,1579,1579,1580,0,0,0,0,0,0,0,0,0,0
1684063393.70007825,56328293,1580,1581,1587,1574,0,0,0,0,0,0,0,0,0,0
1684063393.80003810,56428253,1580,1582,1586,1573,0,0,0,0,0,0,0,0,0,0
1684063393.89999819,56528213,1578,1581,1577,1573,0,0,0,0,0,0,0,0,0,0
1684063393.99995828,56628173,1576,1579,1568,1571,0,0,0,0,0,0,0,0,0,0
1684063394.10075116,56728966,1577,1579,1562,1570,0,0,0,0,0,0,0,0,0,0
1684063394.20071125,56828926,1578,1579,1558,1564,0,0,0,0,0,0,0,0,0,0
1684063394.30067110,56928886,1578,1578,1556,1559,0,0,0,0,0,0,0,0,0,0
1684063394.40063119,57028846,1580,1578,1556,1557,0,0,0,0,0,0,0,0,0,0
1684063394.50059128,57128806,1579,1578,1556,1555,0,0,0,0,0,0,0,0,0,0
1684063394.60055113,57228766,1578,1578,1556,1554,0,0,0,0,0,0,0,0,0,0
1684063394.70051122,57328726,1577,1577,1556,1554,0,0,0,0,0,0,0,0,0,0
1684063394.80047107,57428686,1576,1577,1556,1555,0,0,0,0,0,0,0,0,0,0
1684063394.90043116,57528646,1575,1577,1555,1555,0,0,0,0,0,0,0,0,0,0
1684063395.00039124,57628606,1574,1576,1554,1553,0,0,0,0,0,0,0,0,0,0
1684063395.10035110,57728566,1575,1577,1553,1553,0,0,0,0,0,0,0,0,0,0
1684063395.20031118,57828526,1576,1578,1551,1551,0,0,0,0,0,0,0,0,0,0
1684063395.30027127,57928486,1577,1578,1547,1547,0,0,0,0,0,0,0,0,0,0
1684063395.40023112,58028446,1579,1580,1545,1544,0,0,0,0,0,0,0,0,0,0
1684063395.50019121,58128406,1582,1582,1542,1542,0,0,0,0,0,0,0,0,0,0
1684063395.60015106,58228366,1585,1586,1540,1539,0,0,0,0,0,0,0,0,0,0
1684063395.70011115,58328326,1589,1589,1538,1538,0,0,0,0,0,0,0,0,0,0
1684063395.80007124,58428286,1592,1592,1535,1536,0,0,0,0,0,0,0,0,0,0
1684063395.90003109,58528246,1594,1594,1534,1535,0,0,0,0,0,0,0,0,0,0
1684063395.99999118,58628206,1595,1595,1534,1535,0,0,0,0,0,0,0,0,0,0
1684063396.09995127,58728166,1595,1594,1535,1537,0,0,0,0,0,0,0,0,0,0
1684063396.20074415,58828959,1593,1592,1538,1541,0,0,0,0,0,0,0,0,0,0
1684063396.30070424,58928919,1590,1589,1543,1546,0,0,0,0,0,0,0,0,0,0
1684063396.40066409,59028879,1584,1583,1550,1553,0,0,0,0,0,0,0,0,0,0
1684063396.50062418,59128839,1579,1576,1561,1564,0,0,0,0,0,0,0,0,0,0
1684063396.60058427,59228799,1567,1564,1570,1573,0,0,0,0,0,0,0,0,0,0
1684063396.70054412,59328759,1558,1554,1584,1585,0,0,0,0,0,0,0,0,0,0
1684063396.80050421,59428719,1546,1543,1595,1595,0,0,0,0,0,0,0,0,0,0
1684063396.90046406,59528679,1536,1535,1604,1604,0,0,0,0,0,0,0,0,0,0
1684063397.00042415,59628639,1530,1531,1611,1610,0,0,0,0,0,0,0,0,0,0
1684063397.10038424,59728599,1529,1531,1615,1614,0,0,0,0,0,0,0,0,0,0
1684063397.20034409,59828559,1530,1533,1615,1614,0,0,0,0,0,0,0,0,0,0
1684063397.30030417,59928519,1535,1537,1611,1611,0,0,0,0,0,0,0,0,0,0
1684063397.40026426,60028479,1542,1544,1605,1606,0,0,0,0,0,0,0,0,0,0
1684063397.50022411,60128439,1550,1552,1598,1598,0,0,0,0,0,0,0,0,0,0
1684063397.60018420,60228399,1559,1559,1590,1589,0,0,0,0,0,0,0,0,0,0
1684063397.70014405,60328359,1568,1567,1583,1582,0,0,0,0,0,0,0,0,0,0
1684063397.80010414,60428319,1574,1574,1576,1575,0,0,0,0,0,0,0,0,0,0
1684063397.90006423,60528279,1580,1579,1570,1570,0,0,0,0,0,0,0,0,0,0
1684063398.00002408,60628239,1585,1583,1567,1567,0,0,0,0,0,0,0,0,0,0
1684063398.09998417,60728199,1587,1586,1566,1566,0,0,0,0,0,0,0,0,0,0
1684063398.19994426,60828159,1587,1586,1566,1565,0,0,0,0,0,0,0,0,0,0
1684063398.30073714,60928952,1586,1585,1567,1567,0,0,0,0,0,0,0,0,0,0
1684063398.40069723,61028912,1585,1584,1570,1570,0,0,0,0,0,0,0,0,0,0
1684063398.50065708,61128872,1582,1581,1573,1573,0,0,0,0,0,0,0,0,0,0
1684063398.60061717,61228832,1579,1579,1576,1576,0,0,0,0,0,0,0,0,0,0
1684063398.70057726,61328792,1577,1577,1579,1579,0,0,0,0,0,0,0,0,0,0
1684063398.80053711,61428752,1554,1555,1581,1581,0,0,0,0,0,0,0,0,0,0
1684063398.90049720,61528712,1560,1561,1587,1587,0,0,0,0,0,0,0,0,0,0
1684063399.00045705,61628672,1563,1565,1587,1587,0,0,0,0,0,0,0,0,0,0
1684063399.10041714,61728632,1568,1570,1586,1586,0,0,0,0,0,0,0,0,0,0
1684063399.20037723,61828592,1573,1573,1584,1583,0,0,0,0,0,0,0,0,0,0
1684063399.30033708,61928552,1577,1578,1582,1582,0,0,0,0,0,0,0,0,0,0
1684063399.40029716,62028512,1580,1580,1579,1578,0,0,0,0,0,0,0,0,0,0
1684063399.50025725,62128472,1584,1584,1578,1578,0,0,0,0,0,0,0,0,0,0
1684063399.60021710,62228432,1586,1585,1576,1576,0,0,0,0,0,0,0,0,0,0
1684063399.70017719,62328392,1587,1586,1575,1575,0,0,0,0,0,0,0,0,0,0
1684063399.80013728,62428352,1587,1586,1575,1575,0,0,0,0,0,0,0,0,0,0
1684063399.90009713,62528312,1585,1584,1574,1575,0,0,0,0,0,0,0,0,0,0
1684063400.00005722,62628272,1585,1585,1576,1577,0,0,0,0,0,0,0,0,0,0
1684063400.10001707,62728232,1584,1584,1579,1578,0,0,0,0,0,0,0,0,0,0
1684063400.19997716,62828192,1581,1582,1579,1579,0,0,0,0,0,0,0,0,0,0
1684063400.30077028,62928985,1579,1579,1579,1579,0,0,0,0,0,0,0,0,0,0
1684063400.40073013,63028945,1579,1579,1581,1581,0,0,0,0,0,0,0,0,0,0
1684063400.50069022,63128905,1578,1578,1581,1582,0,0,0,0,0,0,0,0,0,0
1684063400.60065007,63228865,1577,1578,1582,1582,0,0,0,0,0,0,0,0,0,0
1684063400.70061016,63328825,1578,1579,1583,1583,0,0,0,0,0,0,0,0,0,0
1684063400.80057025,63428785,1578,1579,1583,1582,0,0,0,0,0,0,0,0,0,0
1684063400.90053010,63528745,1580,1581,1584,1584,0,0,0,0,0,0,0,0,0,0
1684063401.00049019,63628705,1580,1579,1582,1582,0,0,0,0,0,0,0,0,0,0
1684063401.10045028,63728665,1581,1580,1582,1582,0,0,0,0,0,0,0,0,0,0
1684063401.20041013,63828625,1581,1580,1581,1581,0,0,0,0,0,0,0,0,0,0
1684063401.30037022,63928585,1581,1581,1580,1581,0,0,0,0,0,0,0,0,0,0
1684063401.40033007,64028545,1581,1582,1580,1580,0,0,0,0,0,0,0,0,0,0
1684063401.50029016,64128505,1582,1582,1580,1580,0,0,0,0,0,0,0,0,0,0
1684063401.60025024,64228465,1582,1582,1579,1580,0,0,0,0,0,0,0,0,0,0
1684063401.70021009,64328425,1582,1583,1583,1576,0,0,0,0,0,0,0,0,0,0
1684063401.80017018,64428385,1582,1584,1586,1571,0,0,0,0,0,0,0,0,0,0
1684063401.90013027,64528345,1581,1584,1579,1571,0,0,0,0,0,0,0,0,0,0
1684063402.00009012,64628305,1580,1582,1570,1570,0,0,0,0,0,0,0,0,0,0
1684063402.10005021,64728265,1579,1581,1562,1567,0,0,0,0,0,0,0,0,0,0
1684063402.20001006,64828225,1580,1581,1557,1564,0,0,0,0,0,0,0,0,0,0
1684063402.29997015,64928185,1580,1580,1553,1559,0,0,0,0,0,0,0,0,0,0
1684063402.40076327,65028978,1581,1580,1553,1556,0,0,0,0,0,0,0,0,0,0
1684063402.50072312,65128938,1580,1579,1553,1553,0,0,0,0,0,0,0,0,0,0
1684063402.60068321,65228898,1579,1579,1554,1552,0,0,0,0,0,0,0,0,0,0
1684063402.70064306,65328858,1578,1578,1555,1552,0,0,0,0,0,0,0,0,0,0
1684063402.80060315,65428818,1578,1579,1555,1553,0,0,0,0,0,0,0,0,0,0
1684063402.90056324,65528778,1577,1578,1555,1554,0,0,0,0,0,0,0,0,0,0
1684063403.00052309,65628738,1577,1578,1554,1554,0,0,0,0,0,0,0,0,0,0
1684063403.10048318,65728698,1576,1578,1552,1552,0,0,0,0,0,0,0,0,0,0
1684063403.20044327,65828658,1577,1579,1550,1551,0,0,0,0,0,0,0,0,0,0
1684063403.30040312,65928618,1578,1579,1548,1549,0,0,0,0,0,0,0,0,0,0
1684063403.40036321,66028578,1580,1581,1546,1546,0,0,0,0,0,0,0,0,0,0
1684063403.50032306,66128538,1583,1584,1545,1545,0,0,0,0,0,0,0,0,0,0
1684063403.60028315,66228498,1585,1585,1542,1542,0,0,0,0,0,0,0,0,0,0
1684063403.70024323,66328458,1587,1587,1541,1541,0,0,0,0,0,0,0,0,0,0
1684063403.80020308,66428418,1589,1590,1540,1540,0,0,0,0,0,0,0,0,0,0
1684063403.90016317,66528378,1591,1592,1538,1540,0,0,0,0,0,0,0,0,0,0
1684063404.00012326,66628338,1592,1593,1539,1541,0,0,0,0,0,0,0,0,0,0
1684063404.10008311,66728298,1592,1591,1541,1543,0,0,0,0,0,0,0,0,0,0
1684063404.20004320,66828258,1589,1587,1544,1547,0,0,0,0,0,0,0,0,0,0
1684063404.30000305,66928218,1585,1582,1552,1554,0,0,0,0,0,0,0,0,0,0
1684063404.39996314,67028178,1578,1574,1560,1563,0,0,0,0,0,0,0,0,0,0
1684063404.50075626,67128971,1569,1564,1570,1572,0,0,0,0,0,0,0,0,0,0
1684063404.60071611,67228931,1559,1555,1582,1583,0,0,0,0,0,0,0,0,0,0
1684063404.70067620,67328891,1550,1548,1593,1593,0,0,0,0,0,0,0,0,0,0
1684063404.80063605,67428851,1543,1542,1602,1602,0,0,0,0,0,0,0,0,0,0
1684063404.90059614,67528811,1537,1537,1607,1607,0,0,0,0,0,0,0,0,0,0
1684063405.00055623,67628771,1534,1536,1609,1609,0,0,0,0,0,0,0,0,0,0
1684063405.10051608,67728731,1536,1538,1610,1609,0,0,0,0,0,0,0,0,0,0
1684063405.20047617,67828691,1540,1543,1608,1607,0,0,0,0,0,0,0,0,0,0
1684063405.30043626,67928651,1547,1549,1604,1603,0,0,0,0,0,0,0,0,0,0
1684063405.40039611,68028611,1554,1555,1598,1596,0,0,0,0,0,0,0,0,0,0
1684063405.50035620,68128571,1562,1563,1592,1591,0,0,0,0,0,0,0,0,0,0
1684063405.60031605,68228531,1569,1569,1584,1584,0,0,0,0,0,0,0,0,0,0
1684063405.70027614,68328491,1575,1575,1578,1578,0,0,0,0,0,0,0,0,0,0
1684063405.80023623,68428451,1581,1580,1574,1574,0,0,0,0,0,0,0,0,0,0
1684063405.90019608,68528411,1584,1582,1570,1570,0,0,0,0,0,0,0,0,0,0
1684063406.00015616,68628371,1586,1585,1569,1569,0,0,0,0,0,0,0,0,0,0
1684063406.10011625,68728331,1585,1585,1568,1568,0,0,0,0,0,0,0,0,0,0
1684063406.20007610,68828291,1585,1584,1569,1569,0,0,0,0,0,0,0,0,0,0
1684063406.30003619,68928251,1584,1583,1572,1572,0,0,0,0,0,0,0,0,0,0
1684063406.39999628,69028211,1582,1582,1574,1574,0,0,0,0,0,0,0,0,0,0
1684063406.49995613,69128171,1579,1579,1576,1576,0,0,0,0,0,0,0,0,0,0
1684063406.60074925,69228964,1577,1577,1578,1579,0,0,0,0,0,0,0,0,0,0
1684063406.70070910,69328924,1576,1576,1581,1581,0,0,0,0,0,0,0,0,0,0
1684063406.80066919,69428884,1574,1575,1582,1582,0,0,0,0,0,0,0,0,0,0
1684063406.90062928,69528844,1573,1574,1583,1583,0,0,0,0,0,0,0,0,0,0
1684063407.00058913,69628804,1573,1574,1584,1583,0,0,0,0,0,0,0,0,0,0
1684063407.10054922,69728764,1573,1573,1583,1583,0,0,0,0,0,0,0,0,0,0
1684063407.20050907,69828724,1574,1575,1583,1583,0,0,0,0,0,0,0,0,0,0
1684063407.30046916,69928684,1576,1576,1582,1582,0,0,0,0,0,0,0,0,0,0
1684063407.40042925,70028644,1577,1577,1580,1580,0,0,0,0,0,0,0,0,0,0
1684063407.50038910,70128604,1579,1579,1580,1580,0,0,0,0,0,0,0,0,0,0
1684063407.60034919,70228564,1580,1580,1579,1579,0,0,0,0,0,0,0,0,0,0
1684063407.70030928,70328524,1582,1581,1579,1579,0,0,0,0,0,0,0,0,0,0
1684063407.80026913,70428484,1582,1581,1578,1578,0,0,0,0,0,0,0,0,0,0
1684063407.90022922,70528444,1581,1582,1578,1578,0,0,0,0,0,0,0,0,0,0
1684063408.00018907,70628404,1582,1582,1579,1578,0,0,0,0,0,0,0,0,0,0
1684063408.10014915,70728364,1581,1582,1579,1578,0,0,0,0,0,0,0,0,0,0
1684063408.20010924,70828324,1582,1581,1579,1579,0,0,0,0,0,0,0,0,0,0
1684063408.30006909,70928284,1581,1581,1579,1579,0,0,0,0,0,0,0,0,0,0
1684063408.40002918,71028244,1579,1579,1579,1579,0,0,0,0,0,0,0,0,0,0
1684063408.49998927,71128204,1580,1580,1580,1580,0,0,0,0,0,0,0,0,0,0
1684063408.59994912,71228164,1580,1580,1581,1580,0,0,0,0,0,0,0,0,0,0
1684063408.70074224,71328957,1579,1579,1581,1581,0,0,0,0,0,0,0,0,0,0
1684063408.80070210,71428917,1580,1580,1581,1581,0,0,0,0,0,0,0,0,0,0
1684063408.90066218,71528877,1580,1580,1582,1581,0,0,0,0,0,0,0,0,0,0
1684063409.00062227,71628837,1579,1580,1581,1581,0,0,0,0,0,0,0,0,0,0
1684063409.10058212,71728797,1580,1580,1581,1581,0,0,0,0,0,0,0,0,0,0
1684063409.20054221,71828757,1580,1579,1580,1581,0,0,0,0,0,0,0,0,0,0
1684063409.30050206,71928717,1579,1580,1580,1580,0,0,0,0,0,0,0,0,0,0
1684063409.40046215,72028677,1580,1581,1581,1581,0,0,0,0,0,0,0,0,0,0
1684063409.50042224,72128637,1581,1581,1581,1581,0,0,0,0,0,0,0,0,0,0
1684063409.60038209,72228597,1580,1580,1580,1580,0,0,0,0,0,0,0,0,0,0
1684063409.70034218,72328557,1581,1581,1580,1580,0,0,0,0,0,0,0,0,0,0
1684063409.80030227,72428517,1581,1581,1581,1580,0,0,0,0,0,0,0,0,0,0
1684063409.90026212,72528477,1582,1582,1586,1575,0,0,0,0,0,0,0,0,0,0
1684063410.00022221,72628437,1581,1584,1587,1573,0,0,0,0,0,0,0,0,0,0
1684063410.10018206,72728397,1580,1582,1579,1573,0,0,0,0,0,0,0,0,0,0
1684063410.20014215,72828357,1578,1581,1570,1572,0,0,0,0,0,0,0,0,0,0
1684063410.30010223,72928317,1577,1579,1562,1569,0,0,0,0,0,0,0,0,0,0
1684063410.40006208,73028277,1578,1579,1558,1565,0,0,0,0,0,0,0,0,0,0
1684063410.50002217,73128237,1579,1579,1555,1560,0,0,0,0,0,0,0,0,0,0
1684063410.59998226,73228197,1579,1578,1555,1556,0,0,0,0,0,0,0,0,0,0
1684063410.69994211,73328157,1579,1577,1554,1553,0,0,0,0,0,0,0,0,0,0
1684063410.80073524,73428950,1579,1578,1556,1553,0,0,0,0,0,0,0,0,0,0
1684063410.90069509,73528910,1578,1577,1556,1553,0,0,0,0,0,0,0,0,0,0
1684063411.00065517,73628870,1576,1577,1555,1553,0,0,0,0,0,0,0,0,0,0
1684063411.10061526,73728830,1574,1576,1554,1554,0,0,0,0,0,0,0,0,0,0
1684063411.20057511,73828790,1574,1576,1553,1553,0,0,0,0,0,0,0,0,0,0
1684063411.30053520,73928750,1574,1576,1552,1552,0,0,0,0,0,0,0,0,0,0
1684063411.40049505,74028710,1575,1577,1550,1551,0,0,0,0,0,0,0,0,0,0
1684063411.50045514,74128670,1578,1578,1549,1549,0,0,0,0,0,0,0,0,0,0
1684063411.60041523,74228630,1580,1580,1547,1547,0,0,0,0,0,0,0,0,0,0
1684063411.70037508,74328590,1583,1583,1545,1545,0,0,0,0,0,0,0,0,0,0
1684063411.80033517,74428550,1585,1585,1542,1542,0,0,0,0,0,0,0,0,0,0
1684063411.90029526,74528510,1587,1588,1540,1540,0,0,0,0,0,0,0,0,0,0
1684063412.00025511,74628470,1590,1591,1538,1538,0,0,0,0,0,0,0,0,0,0
1684063412.10021520,74728430,1593,1593,1538,1539,0,0,0,0,0,0,0,0,0,0
1684063412.20017505,74828390,1592,1593,1536,1538,0,0,0,0,0,0,0,0,0,0
1684063412.30013514,74928350,1593,1593,1537,1539,0,0,0,0,0,0,0,0,0,0
1684063412.40009522,75028310,1591,1591,1539,1541,0,0,0,0,0,0,0,0,0,0
1684063412.50005507,75128270,1589,1587,1544,1547,0,0,0,0,0,0,0,0,0,0
1684063412.60001516,75228230,1585,1581,1551,1554,0,0,0,0,0,0,0,0,0,0
1684063412.69997525,75328190,1577,1573,1560,1563,0,0,0,0,0,0,0,0,0,0
1684063412.80076814,75428983,1568,1564,1572,1574,0,0,0,0,0,0,0,0,0,0
1684063412.90072823,75528943,1557,1553,1583,1585,0,0,0,0,0,0,0,0,0,0
1684063413.00068808,75628903,1547,1545,1595,1595,0,0,0,0,0,0,0,0,0,0
1684063413.10064816,75728863,1539,1538,1604,1603,0,0,0,0,0,0,0,0,0,0
1684063413.20060825,75828823,1534,1534,1610,1609,0,0,0,0,0,0,0,0,0,0
1684063413.30056810,75928783,1532,1533,1613,1612,0,0,0,0,0,0,0,0,0,0
1684063413.40052819,76028743,1533,1536,1612,1612,0,0,0,0,0,0,0,0,0,0
1684063413.50048828,76128703,1538,1540,1609,1609,0,0,0,0,0,0,0,0,0,0
1684063413.60044813,76228663,1545,1547,1604,1604,0,0,0,0,0,0,0,0,0,0
1684063413.70040822,76328623,1553,1554,1597,1597,0,0,0,0,0,0,0,0,0,0
1684063413.80036807,76428583,1561,1561,1590,1589,0,0,0,0,0,0,0,0,0,0
1684063413.90032816,76528543,1569,1569,1583,1583,0,0,0,0,0,0,0,0,0,0
1684063414.00028825,76628503,1575,1575,1577,1576,0,0,0,0,0,0,0,0,0,0
1684063414.10024810,76728463,1581,1580,1572,1571,0,0,0,0,0,0,0,0,0,0
1684063414.20020819,76828423,1584,1583,1568,1569,0,0,0,0,0,0,0,0,0,0
1684063414.30016828,76928383,1586,1585,1566,1566,0,0,0,0,0,0,0,0,0,0
1684063414.40012813,77028343,1587,1586,1567,1567,0,0,0,0,0,0,0,0,0,0
1684063414.50008821,77128303,1586,1585,1568,1568,0,0,0,0,0,0,0,0,0,0
1684063414.60004807,77228263,1584,1584,1571,1571,0,0,0,0,0,0,0,0,0,0
1684063414.70000815,77328223,1581,1582,1573,1573,0,0,0,0,0,0,0,0,0,0
1684063414.79996824,77428183,1578,1578,1575,1575,0,0,0,0,0,0,0,0,0,0
1684063414.90076113,77528976,1577,1577,1579,1579,0,0,0,0,0,0,0,0,0,0
1684063415.00072122,77628936,1575,1575,1581,1581,0,0,0,0,0,0,0,0,0,0
1684063415.10068107,77728896,1574,1575,1584,1583,0,0,0,0,0,0,0,0,0,0
1684063415.20064116,77828856,1573,1574,1585,1584,0,0,0,0,0,0,0,0,0,0
1684063415.30060124,77928816,1574,1574,1585,1585,0,0,0,0,0,0,0,0,0,0
1684063415.40056109,78028776,1574,1574,1585,1584,0,0,0,0,0,0,0,0,0,0
1684063415.50052118,78128736,1574,1574,1582,1583,0,0,0,0,0,0,0,0,0,0
1684063415.60048127,78228696,1575,1576,1581,1582,0,0,0,0,0,0,0,0,0,0
1684063415.70044112,78328656,1577,1577,1580,1581,0,0,0,0,0,0,0,0,0,0
1684063415.80040121,78428616,1579,1579,1580,1580,0,0,0,0,0,0,0,0,0,0
1684063415.90036106,78528576,1580,1579,1579,1578,0,0,0,0,0,0,0,0,0,0
1684063416.00032115,78628536,1581,1581,1579,1578,0,0,0,0,0,0,0,0,0,0
1684063416.10028124,78728496,1581,1581,1578,1577,0,0,0,0,0,0,0,0,0,0
1684063416.20024109,78828456,1582,1582,1577,1578,0,0,0,0,0,0,0,0,0,0
1684063416.30020118,78928416,1582,1581,1577,1578,0,0,0,0,0,0,0,0,0,0
1684063416.40016127,79028376,1580,1581,1577,1577,0,0,0,0,0,0,0,0,0,0
1684063416.50012112,79128336,1581,1581,1578,1578,0,0,0,0,0,0,0,0,0,0
1684063416.60008121,79228296,1581,1582,1580,1580,0,0,0,0,0,0,0,0,0,0
1684063416.70004106,79328256,1581,1581,1580,1580,0,0,0,0,0,0,0,0,0,0
1684063416.80000114,79428216,1581,1580,1580,1580,0,0,0,0,0,0,0,0,0,0
1684063416.89996123,79528176,1580,1580,1581,1580,0,0,0,0,0,0,0,0,0,0
1684063417.00075412,79628969,1579,1579,1580,1580,0,0,0,0,0,0,0,0,0,0
1684063417.10071421,79728929,1579,1579,1581,1581,0,0,0,0,0,0,0,0,0,0
1684063417.20067406,79828889,1580,1580,1581,1582,0,0,0,0,0,0,0,0,0,0
1684063417.30063415,79928849,1580,1580,1582,1581,0,0,0,0,0,0,0,0,0,0
1684063417.40059423,80028809,1580,1580,1582,1581,0,0,0,0,0,0,0,0,0,0
1684063417.50055408,80128769,1580,1580,1581,1581,0,0,0,0,0,0,0,0,0,0
1684063417.60051417,80228729,1580,1581,1581,1581,0,0,0,0,0,0,0,0,0,0
1684063417.70047426,80328689,1580,1580,1581,1580,0,0,0,0,0,0,0,0,0,0
1684063417.80043411,80428649,1580,1580,1580,1580,0,0,0,0,0,0,0,0,0,0
1684063417.90039420,80528609,1577,1577,1583,1569,0,0,0,0,0,0,0,0,0,0
1684063418.00035405,80628569,1578,1578,1582,1571,0,0,0,0,0,0,0,0,0,0
1684063418.10031414,80728529,1577,1577,1576,1574,0,0,0,0,0,0,0,0,0,0
1684063418.20027423,80828489,1574,1574,1570,1574,0,0,0,0,0,0,0,0,0,0
1684063418.30023408,80928449,1572,1572,1567,1573,0,0,0,0,0,0,0,0,0,0
1684063418.40019417,81028409,1569,1569,1565,1571,0,0,0,0,0,0,0,0,0,0
1684063418.50015426,81128369,1567,1567,1565,1568,0,0,0,0,0,0,0,0,0,0
1684063418.60011411,81228329,1567,1567,1566,1566,0,0,0,0,0,0,0,0,0,0
1684063418.70007420,81328289,1566,1566,1567,1566,0,0,0,0,0,0,0,0,0,0
1684063418.80003405,81428249,1565,1566,1567,1565,0,0,0,0,0,0,0,0,0,0
1684063418.89999413,81528209,1565,1565,1567,1565,0,0,0,0,0,0,0,0,0,0
1684063418.99995422,81628169,1564,1564,1565,1564,0,0,0,0,0,0,0,0,0,0
1684063419.10074711,81728962,1563,1563,1564,1564,0,0,0,0,0,0,0,0,0,0
1684063419.20070720,81828922,1562,1562,1563,1563,0,0,0,0,0,0,0,0,0,0
1684063419.30066705,81928882,1561,1561,1562,1562,0,0,0,0,0,0,0,0,0,0
1684063419.40062714,82028842,1562,1562,1562,1562,0,0,0,0,0,0,0,0,0,0
1684063419.50058722,82128802,1561,1561,1561,1562,0,0,0,0,0,0,0,0,0,0
1684063419.60054708,82228762,1561,1560,1561,1560,0,0,0,0,0,0,0,0,0,0
1684063419.70050716,82328722,1560,1560,1560,1560,0,0,0,0,0,0,0,0,0,0
1684063419.80046725,82428682,1560,1560,1561,1559,0,0,0,0,0,0,0,0,0,0
1684063419.90042710,82528642,1559,1558,1559,1558,0,0,0,0,0,0,0,0,0,0
1684063420.00038719,82628602,1558,1557,1558,1557,0,0,0,0,0,0,0,0,0,0
1684063420.10034728,82728562,1558,1559,1558,1558,0,0,0,0,0,0,0,0,0,0
1684063420.20030713,82828522,1557,1558,1544,1569,0,0,0,0,0,0,0,0,0,0
1684063420.30026722,82928482,1555,1555,1567,1542,0,0,0,0,0,0,0,0,0,0
1684063420.40022707,83028442,1552,1551,1564,1539,0,0,0,0,0,0,0,0,0,0
1684063420.50018716,83128402,1547,1546,1551,1542,0,0,0,0,0,0,0,0,0,0
1684063420.60014725,83228362,1541,1541,1539,1543,0,0,0,0,0,0,0,0,0,0
1684063420.70010710,83328322,1534,1535,1528,1541,0,0,0,0,0,0,0,0,0,0
1684063420.80006719,83428282,1529,1529,1522,1535,0,0,0,0,0,0,0,0,0,0
1684063420.90002728,83528242,1524,1524,1519,1529,0,0,0,0,0,0,0,0,0,0
1684063420.99998713,83628202,1522,1522,1520,1524,0,0,0,0,0,0,0,0,0,0
1684063421.09994721,83728162,1523,1522,1522,1522,0,0,0,0,0,0,0,0,0,0
1684063421.20074010,83828955,1524,1524,1525,1523,0,0,0,0,0,0,0,0,0,0
1684063421.30070019,83928915,1526,1526,1527,1525,0,0,0,0,0,0,0,0,0,0
1684063421.40066028,84028875,1529,1530,1531,1529,0,0,0,0,0,0,0,0,0,0
1684063421.50062013,84128835,1533,1534,1534,1534,0,0,0,0,0,0,0,0,0,0
1684063421.60058022,84228795,1538,1538,1538,1539,0,0,0,0,0,0,0,0,0,0
1684063421.70054007,84328755,1541,1541,1541,1543,0,0,0,0,0,0,0,0,0,0
1684063421.80050015,84428715,1543,1543,1542,1545,0,0,0,0,0,0,0,0,0,0
1684063421.90046024,84528675,1545,1544,1544,1545,0,0,0,0,0,0,0,0,0,0
1684063422.00042009,84628635,1546,1546,1546,1547,0,0,0,0,0,0,0,0,0,0
1684063422.10038018,84728595,1546,1547,1546,1547,0,0,0,0,0,0,0,0,0,0
1684063422.20034027,84828555,1546,1547,1547,1547,0,0,0,0,0,0,0,0,0,0
1684063422.30030012,84928515,1547,1547,1547,1547,0,0,0,0,0,0,0,0,0,0
1684063422.40026021,85028475,1548,1547,1548,1547,0,0,0,0,0,0,0,0,0,0
1684063422.50022006,85128435,1546,1546,1546,1545,0,0,0,0,0,0,0,0,0,0
1684063422.60018015,85228395,1547,1546,1546,1546,0,0,0,0,0,0,0,0,0,0
1684063422.70014024,85328355,1546,1546,1546,1546,0,0,0,0,0,0,0,0,0,0
1684063422.80010009,85428315,1545,1545,1545,1545,0,0,0,0,0,0,0,0,0,0
1684063422.90006018,85528275,1546,1546,1546,1546,0,0,0,0,0,0,0,0,0,0
1684063423.00002027,85628235,1545,1546,1545,1545,0,0,0,0,0,0,0,0,0,0
1684063423.09998012,85728195,1545,1545,1545,1545,0,0,0,0,0,0,0,0,0,0
1684063423.19994020,85828155,1545,1544,1545,1545,0,0,0,0,0,0,0,0,0,0
1684063423.30073309,85928948,1545,1545,1545,1545,0,0,0,0,0,0,0,0,0,0
1684063423.40069318,86028908,1545,1545,1545,1545,0,0,0,0,0,0,0,0,0,0
1684063423.50065327,86128868,1544,1544,1545,1544,0,0,0,0,0,0,0,0,0,0
1684063423.60061312,86228828,1544,1544,1544,1544,0,0,0,0,0,0,0,0,0,0
1684063423.70057321,86328788,1545,1545,1545,1544,0,0,0,0,0,0,0,0,0,0
1684063423.80053306,86428748,1545,1545,1545,1545,0,0,0,0,0,0,0,0,0,0
1684063423.90049314,86528708,1544,1545,1544,1544,0,0,0,0,0,0,0,0,0,0
1684063424.00045323,86628668,1544,1544,1544,1544,0,0,0,0,0,0,0,0,0,0
1684063424.10041308,86728628,1544,1545,1544,1544,0,0,0,0,0,0,0,0,0,0
1684063424.20037317,86828588,1544,1544,1544,1544,0,0,0,0,0,0,0,0,0,0
1684063424.30033326,86928548,1544,1543,1543,1543,0,0,0,0,0,0,0,0,0,0
1684063424.40029311,87028508,1543,1544,1543,1543,0,0,0,0,0,0,0,0,0,0
1684063424.50025320,87128468,1544,1544,1544,1543,0,0,0,0,0,0,0,0,0,0
1684063424.60021305,87228428,1544,1545,1545,1544,0,0,0,0,0,0,0,0,0,0
1684063424.70017314,87328388,1545,1544,1545,1544,0,0,0,0,0,0,0,0,0,0
1684063424.80013323,87428348,1544,1544,1544,1544,0,0,0,0,0,0,0,0,0,0
1684063424.90009308,87528308,1544,1544,1544,1544,0,0,0,0,0,0,0,0,0,0
1684063425.00005317,87628268,1543,1544,1544,1544,0,0,0,0,0,0,0,0,0,0
1684063425.10001326,87728228,1544,1544,1544,1544,0,0,0,0,0,0,0,0,0,0
1684063425.19997311,87828188,1544,1544,1543,1545,0,0,0,0,0,0,0,0,0,0
1684063425.30076623,87928981,1544,1543,1543,1544,0,0,0,0,0,0,0,0,0,0
1684063425.40072608,88028941,1543,1544,1544,1544,0,0,0,0,0,0,0,0,0,0
1684063425.50068617,88128901,1543,1543,1543,1542,0,0,0,0,0,0,0,0,0,0
1684063425.60064626,88228861,1544,1544,1544,1544,0,0,0,0,0,0,0,0,0,0
1684063425.70060611,88328821,1544,1544,1544,1543,0,0,0,0,0,0,0,0,0,0
1684063425.80056620,88428781,1544,1544,1544,1544,0,0,0,0,0,0,0,0,0,0
1684063425.90052605,88528741,1544,1544,1544,1544,0,0,0,0,0,0,0,0,0,0
1684063426.00048614,88628701,1544,1544,1544,1544,0,0,0,0,0,0,0,0,0,0
1684063426.10044622,88728661,1544,1544,1543,1544,0,0,0,0,0,0,0,0,0,0
1684063426.20040607,88828621,1544,1544,1544,1544,0,0,0,0,0,0,0,0,0,0
1684063426.30036616,88928581,1544,1544,1544,1544,0,0,0,0,0,0,0,0,0,0
1684063426.40032625,89028541,1545,1544,1544,1544,0,0,0,0,0,0,0,0,0,0
1684063426.50028610,89128501,1544,1544,1544,1544,0,0,0,0,0,0,0,0,0,0
1684063426.60024619,89228461,1544,1544,1544,1544,0,0,0,0,0,0,0,0,0,0
1684063426.70020628,89328421,1545,1545,1545,1545,0,0,0,0,0,0,0,0,0,0
1684063426.80016613,89428381,1544,1544,1544,1544,0,0,0,0,0,0,0,0,0,0
1684063426.90012622,89528341,1545,1545,1545,1545,0,0,0,0,0,0,0,0,0,0
1684063427.00008607,89628301,1545,1545,1545,1545,0,0,0,0,0,0,0,0,0,0
1684063427.10004616,89728261,1545,1544,1544,1545,0,0,0,0,0,0,0,0,0,0
1684063427.20000625,89828221,1544,1544,1544,1544,0,0,0,0,0,0,0,0,0,0
1684063427.29996610,89928181,1545,1545,1545,1545,0,0,0,0,0,0,0,0,0,0
1684063427.40075922,90028974,1545,1545,1544,1545,0,0,0,0,0,0,0,0,0,0
1684063427.50071907,90128934,1544,1544,1544,1544,0,0,0,0,0,0,0,0,0,0
1684063427.60067916,90228894,1543,1544,1544,1544,0,0,0,0,0,0,0,0,0,0
1684063427.70063925,90328854,1544,1544,1544,1544,0,0,0,0,0,0,0,0,0,0
1684063427.80059910,90428814,1545,1545,1545,1545,0,0,0,0,0,0,0,0,0,0
1684063427.90055919,90528774,1546,1545,1545,1545,0,0,0,0,0,0,0,0,0,0
1684063428.00051928,90628734,1545,1545,1545,1545,0,0,0,0,0,0,0,0,0,0
1684063428.10047913,90728694,1545,1545,1544,1545,0,0,0,0,0,0,0,0,0,0
1684063428.20043921,90828654,1545,1545,1545,1544,0,0,0,0,0,0,0,0,0,0
1684063428.30039907,90928614,1545,1545,1545,1545,0,0,0,0,0,0,0,0,0,0
1684063428.40035915,91028574,1545,1545,1544,1545,0,0,0,0,0,0,0,0,0,0
1684063428.50031924,91128534,1544,1544,1544,1544,0,0,0,0,0,0,0,0,0,0
1684063428.60027909,91228494,1545,1545,1545,1545,0,0,0,0,0,0,0,0,0,0
1684063428.70023918,91328454,1545,1544,1544,1544,0,0,0,0,0,0,0,0,0,0
1684063428.80019927,91428414,1544,1544,1544,1544,0,0,0,0,0,0,0,0,0,0
1684063428.90015912,91528374,1543,1544,1544,1544,0,0,0,0,0,0,0,0,0,0
1684063429.00011921,91628334,1544,1544,1544,1544,0,0,0,0,0,0,0,0,0,0
1684063429.10007906,91728294,1544,1544,1544,1545,0,0,0,0,0,0,0,0,0,0
1684063429.20003915,91828254,1545,1545,1545,1545,0,0,0,0,0,0,0,0,0,0
1684063429.29999924,91928214,1545,1544,1545,1545,0,0,0,0,0,0,0,0,0,0
1684063429.39995909,92028174,1544,1544,1545,1544,0,0,0,0,0,0,0,0,0,0
1684063429.50075221,92128967,1544,1544,1543,1544,0,0,0,0,0,0,0,0,0,0
1684063429.60071206,92228927,1545,1545,1545,1545,0,0,0,0,0,0,0,0,0,0
1684063429.70067215,92328887,1544,1544,1544,1544,0,0,0,0,0,0,0,0,0,0
1684063429.80063224,92428847,1545,1545,1545,1545,0,0,0,0,0,0,0,0,0,0
1684063429.90059209,92528807,1545,1545,1545,1545,0,0,0,0,0,0,0,0,0,0
1684063430.00055218,92628767,1544,1544,1544,1544,0,0,0,0,0,0,0,0,0,0
1684063430.10051227,92728727,1545,1544,1544,1545,0,0,0,0,0,0,0,0,0,0
1684063430.20047212,92828687,1545,1545,1545,1545,0,0,0,0,0,0,0,0,0,0
1684063430.30043221,92928647,1544,1544,1544,1544,0,0,0,0,0,0,0,0,0,0
1684063430.40039206,93028607,1544,1545,1545,1544,0,0,0,0,0,0,0,0,0,0
1684063430.50035214,93128567,1545,1544,1544,1545,0,0,0,0,0,0,0,0,0,0
1684063430.60031223,93228527,1497,1496,1495,1495,0,0,0,0,0,0,0,0,0,0
1684063430.70027208,93328487,1325,1324,1317,1317,0,0,0,0,0,0,0,0,0,0
1684063430.80023217,93428447,1247,1246,1235,1234,0,0,0,0,0,0,0,0,0,0
1684063430.90019226,93528407,1224,1223,1210,1210,0,0,0,0,0,0,0,0,0,0
1684063431.00015211,93628367,1202,1201,1187,1186,0,0,0,0,0,0,0,0,0,0
1684063431.10011220,93728327,1169,1166,1150,1150,0,0,0,0,0,0,0,0,0,0
1684063431.20007205,93828287,1169,1167,1151,1150,0,0,0,0,0,0,0,0,0,0
1684063431.30003214,93928247,1169,1166,1150,1150,0,0,0,0,0,0,0,0,0,0
1684063431.39999223,94028207,1196,1168,1150,1180,0,0,0,0,0,0,0,0,0,0
1684063431.49995208,94128167,1187,1167,1150,1170,0,0,0,0,0,0,0,0,0,0
1684063431.60074520,94228960,1184,1166,1150,1167,0,0,0,0,0,0,0,0,0,0
1684063431.70070505,94328920,1185,1166,1150,1168,0,0,0,0,0,0,0,0,0,0
1684063431.80066514,94428880,1187,1166,1150,1169,0,0,0,0,0,0,0,0,0,0
1684063431.90062523,94528840,1189,1166,1150,1171,0,0,0,0,0,0,0,0,0,0
1684063432.00058508,94628800,1190,1166,1150,1173,0,0,0,0,0,0,0,0,0,0
1684063432.10054517,94728760,1191,1166,1150,1174,0,0,0,0,0,0,0,0,0,0
1684063432.20050526,94828720,1180,1166,1150,1162,0,0,0,0,0,0,0,0,0,0
1684063432.30046511,94928680,1181,1166,1150,1163,0,0,0,0,0,0,0,0,0,0
1684063432.40042520,95028640,1181,1166,1150,1164,0,0,0,0,0,0,0,0,0,0
1684063432.50038505,95128600,1182,1166,1150,1164,0,0,0,0,0,0,0,0,0,0
1684063432.60034513,95228560,1178,1163,1150,1163,0,0,0,0,0,0,0,0,0,0
1684063432.70030522,95328520,1000,1000,1000,1000,0,0,0,0,0,0,0,0,0,0
1684063432.80026507,95428480,1000,1000,1000,1000,0,0,0,0,0,0,0,0,0,0
1684063432.90022516,95528440,1000,1000,1000,1000,0,0,0,0,0,0,0,0,0,0
1684063433.00018525,95628400,1000,1000,1000,1000,0,0,0,0,0,0,0,0,0,0
1684063433.10014510,95728360,1000,1000,1000,1000,0,0,0,0,0,0,0,0,0,0
1684063433.20010519,95828320,1000,1000,1000,1000,0,0,0,0,0,0,0,0,0,0
1684063433.30006528,95928280,1000,1000,1000,1000,0,0,0,0,0,0,0,0,0,0
1684063433.40002513,96028240,1000,1000,1000,1000,0,0,0,0,0,0,0,0,0,0
1684063433.49998522,96128200,1000,1000,1000,1000,0,0,0,0,0,0,0,0,0,0
1684063433.59994507,96228160,1000,1000,1000,1000,0,0,0,0,0,0,0,0,0,0
1684063433.70073819,96328953,1000,1000,1000,1000,0,0,0,0,0,0,0,0,0,0
1684063433.80069828,96428913,1000,1000,1000,1000,0,0,0,0,0,0,0,0,0,0
1684063433.90065813,96528873,1000,1000,1000,1000,0,0,0,0,0,0,0,0,0,0
1684063434.00061822,96628833,1000,1000,1000,1000,0,0,0,0,0,0,0,0,0,0
1684063434.10057807,96728793,1000,1000,1000,1000,0,0,0,0,0,0,0,0,0,0
1684063434.20053816,96828753,1000,1000,1000,1000,0,0,0,0,0,0,0,0,0,0
1684063434.30049825,96928713,1000,1000,1000,1000,0,0,0,0,0,0,0,0,0,0
1684063434.40045810,97028673,1000,1000,1000,1000,0,0,0,0,0,0,0,0,0,0
1684063434.50041819,97128633,1000,1000,1000,1000,0,0,0,0,0,0,0,0,0,0
1684063434.60037827,97228593,1000,1000,1000,1000,0,0,0,0,0,0,0,0,0,0
1684063434.70033813,97328553,1000,1000,1000,1000,0,0,0,0,0,0,0,0,0,0
1684063434.80029821,97428513,1000,1000,1000,1000,0,0,0,0,0,0,0,0,0,0
1684063434.90025806,97528473,1000,1000,1000,1000,0,0,0,0,0,0,0,0,0,0
1684063435.00021815,97628433,1000,1000,1000,1000,0,0,0,0,0,0,0,0,0,0
1684063435.10017824,97728393,1000,1000,1000,1000,0,0,0,0,0,0,0,0,0,0
1684063435.20013809,97828353,1000,1000,1000,1000,0,0,0,0,0,0,0,0,0,0
1684063435.30009818,97928313,1000,1000,1000,1000,0,0,0,0,0,0,0,0,0,0
1684063435.40005827,98028273,1000,1000,1000,1000,0,0,0,0,0,0,0,0,0,0
1684063435.50001812,98128233,1000,1000,1000,1000,0,0,0,0,0,0,0,0,0,0
1684063435.59997821,98228193,1000,1000,1000,1000,0,0,0,0,0,0,0,0,0,0
1684063435.70077109,98328986,1000,1000,1000,1000,0,0,0,0,0,0,0,0,0,0
1684063435.80073118,98428946,1000,1000,1000,1000,0,0,0,0,0,0,0,0,0,0
1684063435.90069127,98528906,1000,1000,1000,1000,0,0,0,0,0,0,0,0,0,0
1684063436.00065112,98628866,1000,1000,1000,1000,0,0,0,0,0,0,0,0,0,0
1684063436.10061121,98728826,1000,1000,1000,1000,0,0,0,0,0,0,0,0,0,0
1684063436.20057106,98828786,1000,1000,1000,1000,0,0,0,0,0,0,0,0,0,0
1684063436.30053115,98928746,1000,1000,1000,1000,0,0,0,0,0,0,0,0,0,0
1684063436.40049124,99028706,1000,1000,1000,1000,0,0,0,0,0,0,0,0,0,0
1684063436.50045109,99128666,1000,1000,1000,1000,0,0,0,0,0,0,0,0,0,0
1684063436.60041118,99228626,1000,1000,1000,1000,0,0,0,0,0,0,0,0,0,0
1684063436.70037127,99328586,1000,1000,1000,1000,0,0,0,0,0,0,0,0,0,0
1684063436.80033112,99428546,1000,1000,1000,1000,0,0,0,0,0,0,0,0,0,0
1684063436.90029120,99528506,1000,1000,1000,1000,0,0,0,0,0,0,0,0,0,0
1684063437.00025105,99628466,1000,1000,1000,1000,0,0,0,0,0,0,0,0,0,0
1684063437.10021114,99728426,1000,1000,1000,1000,0,0,0,0,0,0,0,0,0,0
1684063437.20017123,99828386,1000,1000,1000,1000,0,0,0,0,0,0,0,0,0,0
1684063437.30013108,99928346,1000,1000,1000,1000,0,0,0,0,0,0,0,0,0,0
1684063437.40009117,100028306,1000,1000,1000,1000,0,0,0,0,0,0,0,0,0,0
1684063437.50005126,100128266,1000,1000,1000,1000,0,0,0,0,0,0,0,0,0,0
1684063437.60001111,100228226,1000,1000,1000,1000,0,0,0,0,0,0,0,0,0,0
1684063437.69997120,100328186,1000,1000,1000,1000,0,0,0,0,0,0,0,0,0,0
1684063437.80076408,100428979,1000,1000,1000,1000,0,0,0,0,0,0,0,0,0,0
1684063437.90072417,100528939,1000,1000,1000,1000,0,0,0,0,0,0,0,0,0,0
1684063438.00068426,100628899,1000,1000,1000,1000,0,0,0,0,0,0,0,0,0,0
1684063438.10064411,100728859,1000,1000,1000,1000,0,0,0,0,0,0,0,0,0,0
1684063438.20060420,100828819,1000,1000,1000,1000,0,0,0,0,0,0,0,0,0,0
1684063438.30056405,100928779,1000,1000,1000,1000,0,0,0,0,0,0,0,0,0,0
1684063438.40052414,101028739,1000,1000,1000,1000,0,0,0,0,0,0,0,0,0,0
1684063438.50048423,101128699,1000,1000,1000,1000,0,0,0,0,0,0,0,0,0,0
1684063438.60044408,101228659,1000,1000,1000,1000,0,0,0,0,0,0,0,0,0,0
1684063438.70040417,101328619,1000,1000,1000,1000,0,0,0,0,0,0,0,0,0,0
1684063438.80036426,101428579,1000,1000,1000,1000,0,0,0,0,0,0,0,0,0,0
1684063438.90032411,101528539,1000,1000,1000,1000,0,0,0,0,0,0,0,0,0,0
1684063439.00028419,101628499,1000,1000,1000,1000,0,0,0,0,0,0,0,0,0,0
1684063439.10024405,101728459,1000,1000,1000,1000,0,0,0,0,0,0,0,0,0,0
1684063439.20020413,101828419,1000,1000,1000,1000,0,0,0,0,0,0,0,0,0,0
1684063439.30016422,101928379,1000,1000,1000,1000,0,0,0,0,0,0,0,0,0,0
1684063439.40012407,102028339,1000,1000,1000,1000,0,0,0,0,0,0,0,0,0,0
1684063439.50008416,102128299,1000,1000,1000,1000,0,0,0,0,0,0,0,0,0,0
1684063439.60004425,102228259,1000,1000,1000,1000,0,0,0,0,0,0,0,0,0,0
1684063439.70000410,102328219,1000,1000,1000,1000,0,0,0,0,0,0,0,0,0,0
1684063439.79996419,102428179,1000,1000,1000,1000,0,0,0,0,0,0,0,0,0,0
1684063439.90075707,102528972,1000,1000,1000,1000,0,0,0,0,0,0,0,0,0,0
1684063440.00071716,102628932,1000,1000,1000,1000,0,0,0,0,0,0,0,0,0,0
1684063440.10067725,102728892,1000,1000,1000,1000,0,0,0,0,0,0,0,0,0,0
1684063440.20063710,102828852,1000,1000,1000,1000,0,0,0,0,0,0,0,0,0,0
1684063440.30059719,102928812,1000,1000,1000,1000,0,0,0,0,0,0,0,0,0,0
1684063440.40055728,103028772,1000,1000,1000,1000,0,0,0,0,0,0,0,0,0,0
1684063440.50051713,103128732,1000,1000,1000,1000,0,0,0,0,0,0,0,0,0,0
1684063440.60047722,103228692,1000,1000,1000,1000,0,0,0,0,0,0,0,0,0,0
1684063440.70043707,103328652,1000,1000,1000,1000,0,0,0,0,0,0,0,0,0,0
1684063440.80039716,103428612,1000,1000,1000,1000,0,0,0,0,0,0,0,0,0,0
1684063440.90035725,103528572,1000,1000,1000,1000,0,0,0,0,0,0,0,0,0,0
1684063441.00031710,103628532,1000,1000,1000,1000,0,0,0,0,0,0,0,0,0,0
1684063441.10027719,103728492,1000,1000,1000,1000,0,0,0,0,0,0,0,0,0,0
1684063441.20023727,103828452,1000,1000,1000,1000,0,0,0,0,0,0,0,0,0,0
1684063441.30019712,103928412,1000,1000,1000,1000,0,0,0,0,0,0,0,0,0,0
1684063441.40015721,104028372,1000,1000,1000,1000,0,0,0,0,0,0,0,0,0,0
1684063441.50011706,104128332,1000,1000,1000,1000,0,0,0,0,0,0,0,0,0,0
1684063441.60007715,104228292,1000,1000,1000,1000,0,0,0,0,0,0,0,0,0,0
1684063441.70003724,104328252,1000,1000,1000,1000,0,0,0,0,0,0,0,0,0,0
1684063441.79999709,104428212,1000,1000,1000,1000,0,0,0,0,0,0,0,0,0,0
1684063441.89995718,104528172,1000,1000,1000,1000,0,0,0,0,0,0,0,0,0,0
1684063442.00075006,104628965,1000,1000,1000,1000,0,0,0,0,0,0,0,0,0,0
1684063442.10071015,104728925,1000,1000,1000,1000,0,0,0,0,0,0,0,0,0,0
1684063442.20067024,104828885,1000,1000,1000,1000,0,0,0,0,0,0,0,0,0,0
1684063442.30063009,104928845,1000,1000,1000,1000,0,0,0,0,0,0,0,0,0,0
1684063442.40059018,105028805,1000,1000,1000,1000,0,0,0,0,0,0,0,0,0,0
1684063442.50055027,105128765,1000,1000,1000,1000,0,0,0,0,0,0,0,0,0,0
1684063442.60051012,105228725,1000,1000,1000,1000,0,0,0,0,0,0,0,0,0,0
1684063442.70047021,105328685,1000,1000,1000,1000,0,0,0,0,0,0,0,0,0,0
1684063442.80043006,105428645,1000,1000,1000,1000,0,0,0,0,0,0,0,0,0,0
1684063442.90039015,105528605,1000,1000,1000,1000,0,0,0,0,0,0,0,0,0,0
1684063443.00035024,105628565,1000,1000,1000,1000,0,0,0,0,0,0,0,0,0,0
1684063443.10031009,105728525,1000,1000,1000,1000,0,0,0,0,0,0,0,0,0,0
1684063443.20027018,105828485,1000,1000,1000,1000,0,0,0,0,0,0,0,0,0,0
1684063443.30023026,105928445,1000,1000,1000,1000,0,0,0,0,0,0,0,0,0,0
1684063443.40019011,106028405,1000,1000,1000,1000,0,0,0,0,0,0,0,0,0,0
1684063443.50015020,106128365,1000,1000,1000,1000,0,0,0,0,0,0,0,0,0,0
1684063443.60011005,106228325,1000,1000,1000,1000,0,0,0,0,0,0,0,0,0,0
1684063443.70007014,106328285,1000,1000,1000,1000,0,0,0,0,0,0,0,0,0,0
1684063443.80003023,106428245,1000,1000,1000,1000,0,0,0,0,0,0,0,0,0,0
1684063443.89999008,106528205,1000,1000,1000,1000,0,0,0,0,0,0,0,0,0,0
1684063443.99995017,106628165,1000,1000,1000,1000,0,0,0,0,0,0,0,0,0,0
1684063444.10074306,106728958,1000,1000,1000,1000,0,0,0,0,0,0,0,0,0,0
1684063444.20070314,106828918,1000,1000,1000,1000,0,0,0,0,0,0,0,0,0,0
1684063444.30066323,106928878,1000,1000,1000,1000,0,0,0,0,0,0,0,0,0,0
1684063444.40062308,107028838,1000,1000,1000,1000,0,0,0,0,0,0,0,0,0,0
1684063444.50058317,107128798,1000,1000,1000,1000,0,0,0,0,0,0,0,0,0,0
1684063444.60054326,107228758,1000,1000,1000,1000,0,0,0,0,0,0,0,0,0,0
1684063444.70050311,107328718,1000,1000,1000,1000,0,0,0,0,0,0,0,0,0,0
1684063444.80046320,107428678,1000,1000,1000,1000,0,0,0,0,0,0,0,0,0,0
1684063444.90042305,107528638,1000,1000,1000,1000,0,0,0,0,0,0,0,0,0,0
1684063445.00038314,107628598,1000,1000,1000,1000,0,0,0,0,0,0,0,0,0,0
1684063445.10034323,107728558,1000,1000,1000,1000,0,0,0,0,0,0,0,0,0,0
1684063445.20030308,107828518,1000,1000,1000,1000,0,0,0,0,0,0,0,0,0,0
1684063445.30026317,107928478,1000,1000,1000,1000,0,0,0,0,0,0,0,0,0,0
1684063445.40022326,108028438,1000,1000,1000,1000,0,0,0,0,0,0,0,0,0,0
1684063445.50018311,108128398,1000,1000,1000,1000,0,0,0,0,0,0,0,0,0,0
1684063445.60014319,108228358,1000,1000,1000,1000,0,0,0,0,0,0,0,0,0,0
1684063445.70010328,108328318,1000,1000,1000,1000,0,0,0,0,0,0,0,0,0,0
1684063445.80006313,108428278,1000,1000,1000,1000,0,0,0,0,0,0,0,0,0,0
1684063445.90002322,108528238,1000,1000,1000,1000,0,0,0,0,0,0,0,0,0,0
1684063445.99998307,108628198,1000,1000,1000,1000,0,0,0,0,0,0,0,0,0,0
1684063446.09994316,108728158,1000,1000,1000,1000,0,0,0,0,0,0,0,0,0,0
1684063446.20073605,108828951,1000,1000,1000,1000,0,0,0,0,0,0,0,0,0,0
1684063446.30069613,108928911,1000,1000,1000,1000,0,0,0,0,0,0,0,0,0,0
1684063446.40065622,109028871,1000,1000,1000,1000,0,0,0,0,0,0,0,0,0,0
1684063446.50061607,109128831,1000,1000,1000,1000,0,0,0,0,0,0,0,0,0,0
1684063446.60057616,109228791,1000,1000,1000,1000,0,0,0,0,0,0,0,0,0,0
1684063446.70053625,109328751,1000,1000,1000,1000,0,0,0,0,0,0,0,0,0,0
1684063446.80049610,109428711,1000,1000,1000,1000,0,0,0,0,0,0,0,0,0,0
1684063446.90045619,109528671,1000,1000,1000,1000,0,0,0,0,0,0,0,0,0,0
1684063447.00041628,109628631,1000,1000,1000,1000,0,0,0,0,0,0,0,0,0,0
1684063447.10037613,109728591,1000,1000,1000,1000,0,0,0,0,0,0,0,0,0,0
1684063447.20033622,109828551,1000,1000,1000,1000,0,0,0,0,0,0,0,0,0,0
1684063447.30029607,109928511,1000,1000,1000,1000,0,0,0,0,0,0,0,0,0,0
1684063447.40025616,110028471,1000,1000,1000,1000,0,0,0,0,0,0,0,0,0,0
1684063447.50021625,110128431,1000,1000,1000,1000,0,0,0,0,0,0,0,0,0,0
1684063447.60017610,110228391,1000,1000,1000,1000,0,0,0,0,0,0,0,0,0,0
