timestamp,TimeUS,C1,C2,C3,C4,C5,C6,C7,C8,C9,C10,C11,C12,C13,C14
1682164119.50004005,44928688,1000,1000,1000,1000,0,0,0,0,0,0,0,0,0,0
1682164119.59999990,45028648,1000,1000,1000,1000,0,0,0,0,0,0,0,0,0,0
1682164119.69995999,45128608,1000,1000,1000,1000,0,0,0,0,0,0,0,0,0,0
1682164119.79992008,45228568,1000,1000,1000,1000,0,0,0,0,0,0,0,0,0,0
1682164119.89987993,45328528,1000,1000,1000,1000,0,0,0,0,0,0,0,0,0,0
1682164119.99984002,45428488,1000,1000,1000,1000,0,0,0,0,0,0,0,0,0,0
1682164120.09980011,45528448,1000,1000,1000,1000,0,0,0,0,0,0,0,0,0,0
1682164120.19975996,45628408,1000,1000,1000,1000,0,0,0,0,0,0,0,0,0,0
1682164120.29972005,45728368,1000,1000,1000,1000,0,0,0,0,0,0,0,0,0,0
1682164120.39967990,45828328,1000,1000,1000,1000,0,0,0,0,0,0,0,0,0,0
1682164120.49963999,45928288,1000,1000,1000,1000,0,0,0,0,0,0,0,0,0,0
1682164120.59960008,46028248,1000,1000,1000,1000,0,0,0,0,0,0,0,0,0,0
1682164120.69955993,46128208,1000,1000,1000,1000,0,0,0,0,0,0,0,0,0,0
1682164120.79952002,46228168,1000,1000,1000,1000,0,0,0,0,0,0,0,0,0,0
1682164120.90031290,46328961,1000,1000,1000,1000,0,0,0,0,0,0,0,0,0,0
1682164121.00027299,46428921,1000,1000,1000,1000,0,0,0,0,0,0,0,0,0,0
1682164121.10023308,46528881,1000,1000,1000,1000,0,0,0,0,0,0,0,0,0,0
1682164121.20019293,46628841,1000,1000,1000,1000,0,0,0,0,0,0,0,0,0,0
1682164121.30015302,46728801,1000,1000,1000,1000,0,0,0,0,0,0,0,0,0,0
1682164121.40011311,46828761,1000,1000,1000,1000,0,0,0,0,0,0,0,0,0,0
1682164121.50007296,46928721,1003,1003,1003,1003,0,0,0,0,0,0,0,0,0,0
1682164121.60003304,47028681,1033,1033,1033,1033,0,0,0,0,0,0,0,0,0,0
1682164121.69999290,47128641,1063,1063,1063,1063,0,0,0,0,0,0,0,0,0,0
1682164121.79995298,47228601,1093,1093,1093,1093,0,0,0,0,0,0,0,0,0,0
1682164121.89991307,47328561,1122,1122,1122,1122,0,0,0,0,0,0,0,0,0,0
1682164121.99987292,47428521,1176,1170,1171,1177,0,0,0,0,0,0,0,0,0,0
1682164122.09983301,47528481,1419,1414,1415,1419,0,0,0,0,0,0,0,0,0,0
1682164122.19979310,47628441,1594,1591,1591,1595,0,0,0,0,0,0,0,0,0,0
1682164122.29975295,47728401,1739,1736,1736,1740,0,0,0,0,0,0,0,0,0,0
1682164122.39971304,47828361,1865,1863,1862,1866,0,0,0,0,0,0,0,0,0,0
1682164122.49967289,47928321,1929,1927,1927,1930,0,0,0,0,0,0,0,0,0,0
1682164122.59963298,48028281,1821,1819,1820,1820,0,0,0,0,0,0,0,0,0,0
1682164122.69959307,48128241,1701,1701,1702,1700,0,0,0,0,0,0,0,0,0,0
1682164122.79955292,48228201,1646,1648,1648,1646,0,0,0,0,0,0,0,0,0,0
1682164122.89951301,48328161,1639,1640,1640,1639,0,0,0,0,0,0,0,0,0,0
1682164123.00030589,48428954,1644,1646,1645,1645,0,0,0,0,0,0,0,0,0,0
1682164123.10026598,48528914,1642,1643,1642,1642,0,0,0,0,0,0,0,0,0,0
1682164123.20022607,48628874,1634,1635,1634,1635,0,0,0,0,0,0,0,0,0,0
1682164123.30018592,48728834,1625,1624,1624,1624,0,0,0,0,0,0,0,0,0,0
1682164123.40014601,48828794,1617,1616,1617,1617,0,0,0,0,0,0,0,0,0,0
1682164123.50010610,48928754,1614,1613,1613,1614,0,0,0,0,0,0,0,0,0,0
1682164123.60006595,49028714,1613,1613,1613,1613,0,0,0,0,0,0,0,0,0,0
1682164123.70002604,49128674,1587,1588,1587,1588,0,0,0,0,0,0,0,0,0,0
1682164123.79998612,49228634,1571,1572,1569,1573,0,0,0,0,0,0,0,0,0,0
1682164123.89994597,49328594,1560,1559,1557,1562,0,0,0,0,0,0,0,0,0,0
1682164123.99990606,49428554,1550,1550,1548,1552,0,0,0,0,0,0,0,0,0,0
1682164124.09986591,49528514,1541,1541,1540,1541,0,0,0,0,0,0,0,0,0,0
1682164124.19982600,49628474,1533,1532,1533,1532,0,0,0,0,0,0,0,0,0,0
1682164124.29978609,49728434,1526,1526,1527,1525,0,0,0,0,0,0,0,0,0,0
1682164124.39974594,49828394,1519,1519,1520,1519,0,0,0,0,0,0,0,0,0,0
1682164124.49970603,49928354,1514,1514,1514,1515,0,0,0,0,0,0,0,0,0,0
1682164124.59966612,50028314,1513,1513,1513,1513,0,0,0,0,0,0,0,0,0,0
1682164124.69962597,50128274,1514,1514,1513,1515,0,0,0,0,0,0,0,0,0,0
1682164124.79958606,50228234,1516,1516,1516,1517,0,0,0,0,0,0,0,0,0,0
1682164124.89954591,50328194,1519,1518,1518,1519,0,0,0,0,0,0,0,0,0,0
1682164124.99950600,50428154,1526,1527,1530,1523,0,0,0,0,0,0,0,0,0,0
1682164125.10029912,50528947,1536,1536,1541,1530,0,0,0,0,0,0,0,0,0,0
1682164125.20025897,50628907,1541,1541,1543,1539,0,0,0,0,0,0,0,0,0,0
1682164125.30021906,50728867,1546,1546,1544,1548,0,0,0,0,0,0,0,0,0,0
1682164125.40017891,50828827,1548,1548,1543,1552,0,0,0,0,0,0,0,0,0,0
1682164125.50013900,50928787,1550,1550,1546,1555,0,0,0,0,0,0,0,0,0,0
1682164125.60009909,51028747,1553,1553,1550,1556,0,0,0,0,0,0,0,0,0,0
1682164125.70005894,51128707,1556,1556,1555,1557,0,0,0,0,0,0,0,0,0,0
1682164125.80001903,51228667,1561,1560,1563,1558,0,0,0,0,0,0,0,0,0,0
1682164125.89997911,51328627,1563,1563,1566,1560,0,0,0,0,0,0,0,0,0,0
1682164125.99993896,51428587,1565,1565,1567,1562,0,0,0,0,0,0,0,0,0,0
1682164126.09989905,51528547,1565,1566,1567,1564,0,0,0,0,0,0,0,0,0,0
1682164126.19985890,51628507,1566,1566,1566,1566,0,0,0,0,0,0,0,0,0,0
1682164126.29981899,51728467,1563,1562,1568,1571,0,0,0,0,0,0,0,0,0,0
1682164126.39977908,51828427,1559,1559,1572,1576,0,0,0,0,0,0,0,0,0,0
1682164126.49973893,51928387,1559,1560,1571,1573,0,0,0,0,0,0,0,0,0,0
1682164126.59969902,52028347,1562,1563,1569,1570,0,0,0,0,0,0,0,0,0,0
1682164126.69965911,52128307,1566,1567,1568,1568,0,0,0,0,0,0,0,0,0,0
1682164126.79961896,52228267,1569,1569,1566,1566,0,0,0,0,0,0,0,0,0,0
1682164126.89957905,52328227,1572,1572,1566,1565,0,0,0,0,0,0,0,0,0,0
1682164126.99953890,52428187,1573,1573,1565,1564,0,0,0,0,0,0,0,0,0,0
1682164127.10033202,52528980,1574,1573,1565,1564,0,0,0,0,0,0,0,0,0,0
1682164127.20029211,52628940,1575,1575,1566,1566,0,0,0,0,0,0,0,0,0,0
1682164127.30025196,52728900,1574,1573,1566,1567,0,0,0,0,0,0,0,0,0,0
1682164127.40021205,52828860,1574,1574,1568,1568,0,0,0,0,0,0,0,0,0,0
1682164127.50017190,52928820,1573,1572,1569,1570,0,0,0,0,0,0,0,0,0,0
1682164127.60013199,53028780,1573,1573,1571,1572,0,0,0,0,0,0,0,0,0,0
1682164127.70009208,53128740,1573,1574,1575,1574,0,0,0,0,0,0,0,0,0,0
1682164127.80005193,53228700,1572,1573,1576,1574,0,0,0,0,0,0,0,0,0,0
1682164127.90001202,53328660,1574,1574,1578,1576,0,0,0,0,0,0,0,0,0,0
1682164127.99997211,53428620,1574,1573,1578,1577,0,0,0,0,0,0,0,0,0,0
1682164128.09993196,53528580,1573,1574,1577,1577,0,0,0,0,0,0,0,0,0,0
1682164128.19989204,53628540,1574,1575,1578,1578,0,0,0,0,0,0,0,0,0,0
1682164128.29985189,53728500,1575,1575,1578,1578,0,0,0,0,0,0,0,0,0,0
1682164128.39981198,53828460,1576,1575,1576,1577,0,0,0,0,0,0,0,0,0,0
1682164128.49977207,53928420,1576,1576,1576,1577,0,0,0,0,0,0,0,0,0,0
1682164128.59973192,54028380,1576,1576,1576,1576,0,0,0,0,0,0,0,0,0,0
1682164128.69969201,54128340,1577,1577,1577,1577,0,0,0,0,0,0,0,0,0,0
1682164128.79965210,54228300,1579,1578,1578,1577,0,0,0,0,0,0,0,0,0,0
1682164128.89961195,54328260,1578,1578,1577,1577,0,0,0,0,0,0,0,0,0,0
1682164128.99957204,54428220,1578,1577,1577,1576,0,0,0,0,0,0,0,0,0,0
1682164129.09953189,54528180,1578,1578,1577,1577,0,0,0,0,0,0,0,0,0,0
1682164129.20032501,54628973,1579,1579,1578,1578,0,0,0,0,0,0,0,0,0,0
1682164129.30028510,54728933,1578,1578,1577,1578,0,0,0,0,0,0,0,0,0,0
1682164129.40024495,54828893,1578,1578,1578,1578,0,0,0,0,0,0,0,0,0,0
1682164129.50020504,54928853,1578,1579,1579,1578,0,0,0,0,0,0,0,0,0,0
1682164129.60016489,55028813,1579,1579,1579,1579,0,0,0,0,0,0,0,0,0,0
1682164129.70012498,55128773,1579,1579,1579,1579,0,0,0,0,0,0,0,0,0,0
1682164129.80008507,55228733,1579,1579,1579,1579,0,0,0,0,0,0,0,0,0,0
1682164129.90004492,55328693,1579,1579,1579,1579,0,0,0,0,0,0,0,0,0,0
1682164130.00000501,55428653,1579,1578,1579,1579,0,0,0,0,0,0,0,0,0,0
1682164130.09996510,55528613,1578,1579,1579,1579,0,0,0,0,0,0,0,0,0,0
1682164130.19992495,55628573,1579,1579,1579,1580,0,0,0,0,0,0,0,0,0,0
1682164130.29988503,55728533,1579,1578,1579,1579,0,0,0,0,0,0,0,0,0,0
1682164130.39984512,55828493,1579,1579,1579,1579,0,0,0,0,0,0,0,0,0,0
1682164130.49980497,55928453,1579,1580,1580,1580,0,0,0,0,0,0,0,0,0,0
1682164130.59976506,56028413,1579,1579,1579,1579,0,0,0,0,0,0,0,0,0,0
1682164130.69972491,56128373,1579,1580,1580,1580,0,0,0,0,0,0,0,0,0,0
1682164130.79968500,56228333,1580,1580,1580,1580,0,0,0,0,0,0,0,0,0,0
1682164130.89964509,56328293,1580,1580,1580,1580,0,0,0,0,0,0,0,0,0,0
1682164130.99960494,56428253,1580,1580,1580,1580,0,0,0,0,0,0,0,0,0,0
1682164131.09956503,56528213,1580,1580,1580,1580,0,0,0,0,0,0,0,0,0,0
1682164131.19952512,56628173,1581,1580,1581,1580,0,0,0,0,0,0,0,0,0,0
1682164131.30031800,56728966,1580,1581,1581,1580,0,0,0,0,0,0,0,0,0,0
1682164131.40027809,56828926,1580,1581,1581,1580,0,0,0,0,0,0,0,0,0,0
1682164131.50023794,56928886,1579,1579,1579,1579,0,0,0,0,0,0,0,0,0,0
1682164131.60019803,57028846,1580,1580,1580,1580,0,0,0,0,0,0,0,0,0,0
1682164131.70015812,57128806,1581,1581,1581,1581,0,0,0,0,0,0,0,0,0,0
1682164131.80011797,57228766,1580,1580,1580,1580,0,0,0,0,0,0,0,0,0,0
1682164131.90007806,57328726,1581,1581,1581,1581,0,0,0,0,0,0,0,0,0,0
1682164132.00003791,57428686,1581,1580,1581,1581,0,0,0,0,0,0,0,0,0,0
1682164132.09999800,57528646,1581,1581,1581,1581,0,0,0,0,0,0,0,0,0,0
1682164132.19995809,57628606,1581,1581,1581,1581,0,0,0,0,0,0,0,0,0,0
1682164132.29991794,57728566,1581,1581,1581,1581,0,0,0,0,0,0,0,0,0,0
1682164132.39987803,57828526,1581,1581,1581,1581,0,0,0,0,0,0,0,0,0,0
1682164132.49983811,57928486,1581,1580,1581,1581,0,0,0,0,0,0,0,0,0,0
1682164132.59979796,58028446,1580,1581,1587,1573,0,0,0,0,0,0,0,0,0,0
1682164132.69975805,58128406,1579,1581,1584,1572,0,0,0,0,0,0,0,0,0,0
1682164132.79971790,58228366,1578,1581,1577,1573,0,0,0,0,0,0,0,0,0,0
1682164132.89967799,58328326,1577,1579,1569,1572,0,0,0,0,0,0,0,0,0,0
1682164132.99963808,58428286,1576,1578,1561,1568,0,0,0,0,0,0,0,0,0,0
1682164133.09959793,58528246,1577,1578,1557,1564,0,0,0,0,0,0,0,0,0,0
1682164133.19955802,58628206,1579,1578,1556,1559,0,0,0,0,0,0,0,0,0,0
1682164133.29951811,58728166,1579,1577,1555,1556,0,0,0,0,0,0,0,0,0,0
1682164133.40031099,58828959,1580,1578,1557,1555,0,0,0,0,0,0,0,0,0,0
1682164133.50027108,58928919,1579,1578,1557,1554,0,0,0,0,0,0,0,0,0,0
1682164133.60023093,59028879,1577,1578,1557,1555,0,0,0,0,0,0,0,0,0,0
1682164133.70019102,59128839,1577,1578,1556,1555,0,0,0,0,0,0,0,0,0,0
1682164133.80015111,59228799,1575,1577,1555,1555,0,0,0,0,0,0,0,0,0,0
1682164133.90011096,59328759,1575,1576,1553,1553,0,0,0,0,0,0,0,0,0,0
1682164134.00007105,59428719,1575,1577,1552,1552,0,0,0,0,0,0,0,0,0,0
1682164134.10003090,59528679,1577,1578,1551,1552,0,0,0,0,0,0,0,0,0,0
1682164134.19999099,59628639,1579,1580,1549,1549,0,0,0,0,0,0,0,0,0,0
1682164134.29995108,59728599,1580,1581,1546,1546,0,0,0,0,0,0,0,0,0,0
1682164134.39991093,59828559,1583,1584,1544,1543,0,0,0,0,0,0,0,0,0,0
1682164134.49987102,59928519,1586,1587,1541,1540,0,0,0,0,0,0,0,0,0,0
1682164134.59983110,60028479,1589,1589,1538,1538,0,0,0,0,0,0,0,0,0,0
1682164134.69979095,60128439,1592,1592,1536,1536,0,0,0,0,0,0,0,0,0,0
1682164134.79975104,60228399,1594,1594,1534,1535,0,0,0,0,0,0,0,0,0,0
1682164134.89971089,60328359,1594,1594,1534,1536,0,0,0,0,0,0,0,0,0,0
1682164134.99967098,60428319,1593,1594,1535,1537,0,0,0,0,0,0,0,0,0,0
1682164135.09963107,60528279,1593,1593,1539,1541,0,0,0,0,0,0,0,0,0,0
1682164135.19959092,60628239,1590,1589,1544,1547,0,0,0,0,0,0,0,0,0,0
1682164135.29955101,60728199,1584,1582,1550,1554,0,0,0,0,0,0,0,0,0,0
1682164135.39951110,60828159,1577,1574,1560,1563,0,0,0,0,0,0,0,0,0,0
1682164135.50030398,60928952,1567,1563,1572,1574,0,0,0,0,0,0,0,0,0,0
1682164135.60026407,61028912,1556,1553,1584,1585,0,0,0,0,0,0,0,0,0,0
1682164135.70022392,61128872,1546,1543,1596,1596,0,0,0,0,0,0,0,0,0,0
1682164135.80018401,61228832,1537,1535,1605,1604,0,0,0,0,0,0,0,0,0,0
1682164135.90014410,61328792,1531,1531,1612,1611,0,0,0,0,0,0,0,0,0,0
1682164136.00010395,61428752,1529,1530,1614,1613,0,0,0,0,0,0,0,0,0,0
1682164136.10006404,61528712,1530,1532,1613,1613,0,0,0,0,0,0,0,0,0,0
1682164136.20002389,61628672,1535,1538,1610,1610,0,0,0,0,0,0,0,0,0,0
1682164136.29998398,61728632,1543,1544,1604,1604,0,0,0,0,0,0,0,0,0,0
1682164136.39994407,61828592,1552,1553,1598,1598,0,0,0,0,0,0,0,0,0,0
1682164136.49990392,61928552,1561,1561,1591,1590,0,0,0,0,0,0,0,0,0,0
1682164136.59986401,62028512,1568,1568,1583,1582,0,0,0,0,0,0,0,0,0,0
1682164136.69982409,62128472,1576,1576,1577,1576,0,0,0,0,0,0,0,0,0,0
1682164136.79978395,62228432,1581,1580,1571,1571,0,0,0,0,0,0,0,0,0,0
1682164136.89974403,62328392,1584,1583,1567,1567,0,0,0,0,0,0,0,0,0,0
1682164136.99970412,62428352,1587,1585,1566,1566,0,0,0,0,0,0,0,0,0,0
1682164137.09966397,62528312,1587,1586,1566,1566,0,0,0,0,0,0,0,0,0,0
1682164137.19962406,62628272,1586,1585,1568,1568,0,0,0,0,0,0,0,0,0,0
1682164137.29958391,62728232,1583,1582,1569,1569,0,0,0,0,0,0,0,0,0,0
1682164137.39954400,62828192,1580,1581,1572,1572,0,0,0,0,0,0,0,0,0,0
1682164137.50033712,62928985,1579,1580,1577,1577,0,0,0,0,0,0,0,0,0,0
1682164137.60029697,63028945,1576,1576,1578,1578,0,0,0,0,0,0,0,0,0,0
1682164137.70025706,63128905,1574,1575,1581,1581,0,0,0,0,0,0,0,0,0,0
1682164137.80021691,63228865,1573,1573,1582,1582,0,0,0,0,0,0,0,0,0,0
1682164137.90017700,63328825,1572,1573,1583,1583,0,0,0,0,0,0,0,0,0,0
1682164138.00013709,63428785,1572,1573,1584,1583,0,0,0,0,0,0,0,0,0,0
1682164138.10009694,63528745,1573,1573,1583,1583,0,0,0,0,0,0,0,0,0,0
1682164138.20005703,63628705,1574,1574,1582,1582,0,0,0,0,0,0,0,0,0,0
1682164138.30001712,63728665,1576,1576,1582,1582,0,0,0,0,0,0,0,0,0,0
1682164138.39997697,63828625,1578,1578,1581,1581,0,0,0,0,0,0,0,0,0,0
1682164138.49993706,63928585,1579,1578,1579,1579,0,0,0,0,0,0,0,0,0,0
1682164138.59989691,64028545,1579,1579,1578,1578,0,0,0,0,0,0,0,0,0,0
1682164138.69985700,64128505,1581,1581,1578,1578,0,0,0,0,0,0,0,0,0,0
1682164138.79981709,64228465,1581,1581,1577,1577,0,0,0,0,0,0,0,0,0,0
1682164138.89977694,64328425,1434,1436,1614,1619,0,0,0,0,0,0,0,0,0,0
1682164138.99973702,64428385,1481,1486,1620,1623,0,0,0,0,0,0,0,0,0,0
1682164139.09969711,64528345,1522,1528,1612,1609,0,0,0,0,0,0,0,0,0,0
1682164139.19965696,64628305,1558,1563,1600,1595,0,0,0,0,0,0,0,0,0,0
1682164139.29961705,64728265,1586,1587,1591,1586,0,0,0,0,0,0,0,0,0,0
1682164139.39957690,64828225,1605,1603,1584,1581,0,0,0,0,0,0,0,0,0,0
1682164139.49953699,64928185,1619,1613,1582,1581,0,0,0,0,0,0,0,0,0,0
1682164139.60033011,65028978,1625,1618,1578,1579,0,0,0,0,0,0,0,0,0,0
1682164139.70028996,65128938,1630,1623,1567,1572,0,0,0,0,0,0,0,0,0,0
1682164139.80025005,65228898,1638,1636,1553,1559,0,0,0,0,0,0,0,0,0,0
1682164139.90020990,65328858,1643,1643,1544,1548,0,0,0,0,0,0,0,0,0,0
1682164140.00016999,65428818,1642,1644,1542,1545,0,0,0,0,0,0,0,0,0,0
1682164140.10013008,65528778,1636,1637,1548,1549,0,0,0,0,0,0,0,0,0,0
1682164140.20008993,65628738,1625,1624,1558,1558,0,0,0,0,0,0,0,0,0,0
1682164140.30005002,65728698,1611,1609,1572,1571,0,0,0,0,0,0,0,0,0,0
1682164140.40001011,65828658,1594,1592,1586,1585,0,0,0,0,0,0,0,0,0,0
1682164140.49996996,65928618,1580,1579,1595,1595,0,0,0,0,0,0,0,0,0,0
1682164140.59993005,66028578,1571,1573,1604,1594,0,0,0,0,0,0,0,0,0,0
1682164140.69988990,66128538,1568,1569,1603,1590,0,0,0,0,0,0,0,0,0,0
1682164140.79984999,66228498,1567,1568,1594,1587,0,0,0,0,0,0,0,0,0,0
1682164140.89981008,66328458,1567,1568,1583,1583,0,0,0,0,0,0,0,0,0,0
1682164140.99976993,66428418,1565,1567,1573,1575,0,0,0,0,0,0,0,0,0,0
1682164141.09973001,66528378,1565,1568,1566,1569,0,0,0,0,0,0,0,0,0,0
1682164141.19969010,66628338,1567,1569,1562,1564,0,0,0,0,0,0,0,0,0,0
1682164141.29964995,66728298,1567,1569,1559,1559,0,0,0,0,0,0,0,0,0,0
1682164141.39961004,66828258,1569,1570,1557,1556,0,0,0,0,0,0,0,0,0,0
1682164141.49956989,66928218,1570,1571,1554,1552,0,0,0,0,0,0,0,0,0,0
1682164141.59952998,67028178,1572,1572,1552,1550,0,0,0,0,0,0,0,0,0,0
1682164141.70032310,67128971,1573,1573,1550,1548,0,0,0,0,0,0,0,0,0,0
1682164141.80028296,67228931,1573,1573,1546,1546,0,0,0,0,0,0,0,0,0,0
1682164141.90024304,67328891,1574,1574,1545,1545,0,0,0,0,0,0,0,0,0,0
1682164142.00020289,67428851,1576,1577,1544,1545,0,0,0,0,0,0,0,0,0,0
1682164142.10016298,67528811,1576,1578,1542,1542,0,0,0,0,0,0,0,0,0,0
1682164142.20012307,67628771,1578,1580,1542,1541,0,0,0,0,0,0,0,0,0,0
1682164142.30008292,67728731,1581,1582,1540,1540,0,0,0,0,0,0,0,0,0,0
1682164142.40004301,67828691,1582,1583,1539,1537,0,0,0,0,0,0,0,0,0,0
1682164142.50000310,67928651,1585,1586,1537,1537,0,0,0,0,0,0,0,0,0,0
1682164142.59996295,68028611,1588,1588,1537,1536,0,0,0,0,0,0,0,0,0,0
1682164142.69992304,68128571,1591,1591,1534,1535,0,0,0,0,0,0,0,0,0,0
1682164142.79988289,68228531,1593,1593,1533,1534,0,0,0,0,0,0,0,0,0,0
1682164142.89984298,68328491,1593,1593,1535,1536,0,0,0,0,0,0,0,0,0,0
1682164142.99980307,68428451,1592,1592,1537,1540,0,0,0,0,0,0,0,0,0,0
1682164143.09976292,68528411,1588,1588,1541,1545,0,0,0,0,0,0,0,0,0,0
1682164143.19972301,68628371,1585,1585,1547,1551,0,0,0,0,0,0,0,0,0,0
1682164143.29968309,68728331,1580,1579,1551,1556,0,0,0,0,0,0,0,0,0,0
1682164143.39964294,68828291,1575,1575,1558,1561,0,0,0,0,0,0,0,0,0,0
1682164143.49960303,68928251,1570,1569,1565,1568,0,0,0,0,0,0,0,0,0,0
1682164143.59956312,69028211,1565,1562,1572,1574,0,0,0,0,0,0,0,0,0,0
1682164143.69952297,69128171,1559,1556,1580,1581,0,0,0,0,0,0,0,0,0,0
1682164143.80031610,69228964,1554,1551,1587,1587,0,0,0,0,0,0,0,0,0,0
1682164143.90027595,69328924,1549,1546,1593,1593,0,0,0,0,0,0,0,0,0,0
1682164144.00023603,69428884,1543,1542,1598,1597,0,0,0,0,0,0,0,0,0,0
1682164144.10019612,69528844,1541,1541,1603,1602,0,0,0,0,0,0,0,0,0,0
1682164144.20015597,69628804,1538,1540,1605,1604,0,0,0,0,0,0,0,0,0,0
1682164144.30011606,69728764,1537,1540,1605,1604,0,0,0,0,0,0,0,0,0,0
1682164144.40007591,69828724,1539,1542,1606,1605,0,0,0,0,0,0,0,0,0,0
1682164144.50003600,69928684,1543,1545,1603,1602,0,0,0,0,0,0,0,0,0,0
1682164144.59999609,70028644,1549,1550,1599,1598,0,0,0,0,0,0,0,0,0,0
1682164144.69995594,70128604,1555,1556,1593,1592,0,0,0,0,0,0,0,0,0,0
1682164144.79991603,70228564,1563,1563,1588,1587,0,0,0,0,0,0,0,0,0,0
1682164144.89987612,70328524,1569,1569,1582,1582,0,0,0,0,0,0,0,0,0,0
1682164144.99983597,70428484,1575,1574,1578,1577,0,0,0,0,0,0,0,0,0,0
1682164145.09979606,70528444,1579,1578,1575,1574,0,0,0,0,0,0,0,0,0,0
1682164145.19975591,70628404,1583,1581,1572,1573,0,0,0,0,0,0,0,0,0,0
1682164145.29971600,70728364,1584,1583,1571,1571,0,0,0,0,0,0,0,0,0,0
1682164145.39967608,70828324,1585,1584,1570,1571,0,0,0,0,0,0,0,0,0,0
1682164145.49963593,70928284,1585,1585,1570,1571,0,0,0,0,0,0,0,0,0,0
1682164145.59959602,71028244,1585,1585,1571,1571,0,0,0,0,0,0,0,0,0,0
1682164145.69955611,71128204,1586,1585,1573,1573,0,0,0,0,0,0,0,0,0,0
1682164145.79951596,71228164,1585,1585,1574,1574,0,0,0,0,0,0,0,0,0,0
1682164145.90030909,71328957,1584,1583,1575,1575,0,0,0,0,0,0,0,0,0,0
1682164146.00026894,71428917,1584,1584,1577,1577,0,0,0,0,0,0,0,0,0,0
1682164146.10022902,71528877,1581,1582,1576,1577,0,0,0,0,0,0,0,0,0,0
1682164146.20018911,71628837,1581,1581,1578,1579,0,0,0,0,0,0,0,0,0,0
1682164146.30014896,71728797,1581,1581,1580,1579,0,0,0,0,0,0,0,0,0,0
1682164146.40010905,71828757,1580,1581,1581,1580,0,0,0,0,0,0,0,0,0,0
1682164146.50006890,71928717,1578,1578,1579,1579,0,0,0,0,0,0,0,0,0,0
1682164146.60002899,72028677,1578,1579,1581,1581,0,0,0,0,0,0,0,0,0,0
1682164146.69998908,72128637,1578,1578,1580,1580,0,0,0,0,0,0,0,0,0,0
1682164146.79994893,72228597,1578,1579,1582,1582,0,0,0,0,0,0,0,0,0,0
1682164146.89990902,72328557,1578,1578,1581,1581,0,0,0,0,0,0,0,0,0,0
1682164146.99986911,72428517,1578,1578,1581,1581,0,0,0,0,0,0,0,0,0,0
1682164147.09982896,72528477,1578,1578,1581,1581,0,0,0,0,0,0,0,0,0,0
1682164147.19978905,72628437,1579,1579,1581,1582,0,0,0,0,0,0,0,0,0,0
1682164147.29974890,72728397,1579,1579,1581,1581,0,0,0,0,0,0,0,0,0,0
1682164147.39970899,72828357,1579,1579,1580,1580,0,0,0,0,0,0,0,0,0,0
1682164147.49966908,72928317,1580,1580,1580,1580,0,0,0,0,0,0,0,0,0,0
1682164147.59962893,73028277,1581,1581,1581,1581,0,0,0,0,0,0,0,0,0,0
1682164147.69958901,73128237,1582,1581,1580,1581,0,0,0,0,0,0,0,0,0,0
1682164147.79954910,73228197,1581,1581,1580,1581,0,0,0,0,0,0,0,0,0,0
1682164147.89950895,73328157,1581,1581,1580,1580,0,0,0,0,0,0,0,0,0,0
1682164148.00030208,73428950,1582,1582,1580,1581,0,0,0,0,0,0,0,0,0,0
1682164148.10026193,73528910,1581,1581,1579,1580,0,0,0,0,0,0,0,0,0,0
1682164148.20022202,73628870,1582,1582,1581,1580,0,0,0,0,0,0,0,0,0,0
1682164148.30018210,73728830,1582,1582,1581,1581,0,0,0,0,0,0,0,0,0,0
1682164148.40014195,73828790,1582,1581,1580,1580,0,0,0,0,0,0,0,0,0,0
1682164148.50010204,73928750,1582,1582,1581,1581,0,0,0,0,0,0,0,0,0,0
1682164148.60006189,74028710,1581,1581,1580,1580,0,0,0,0,0,0,0,0,0,0
1682164148.70002198,74128670,1582,1582,1581,1581,0,0,0,0,0,0,0,0,0,0
1682164148.79998207,74228630,1581,1581,1581,1581,0,0,0,0,0,0,0,0,0,0
1682164148.89994192,74328590,1581,1581,1580,1581,0,0,0,0,0,0,0,0,0,0
1682164148.99990201,74428550,1581,1581,1581,1581,0,0,0,0,0,0,0,0,0,0
1682164149.09986210,74528510,1581,1581,1587,1574,0,0,0,0,0,0,0,0,0,0
1682164149.19982195,74628470,1580,1580,1585,1572,0,0,0,0,0,0,0,0,0,0
1682164149.29978204,74728430,1579,1580,1577,1573,0,0,0,0,0,0,0,0,0,0
1682164149.39974189,74828390,1576,1578,1568,1571,0,0,0,0,0,0,0,0,0,0
1682164149.49970198,74928350,1575,1578,1561,1567,0,0,0,0,0,0,0,0,0,0
1682164149.59966207,75028310,1575,1577,1557,1563,0,0,0,0,0,0,0,0,0,0
1682164149.69962192,75128270,1576,1576,1556,1559,0,0,0,0,0,0,0,0,0,0
1682164149.79958200,75228230,1577,1577,1556,1557,0,0,0,0,0,0,0,0,0,0
1682164149.89954209,75328190,1577,1577,1557,1555,0,0,0,0,0,0,0,0,0,0
1682164150.00033498,75428983,1577,1577,1557,1555,0,0,0,0,0,0,0,0,0,0
1682164150.10029507,75528943,1577,1577,1557,1555,0,0,0,0,0,0,0,0,0,0
1682164150.20025492,75628903,1577,1577,1556,1554,0,0,0,0,0,0,0,0,0,0
1682164150.30021501,75728863,1577,1577,1555,1555,0,0,0,0,0,0,0,0,0,0
1682164150.40017509,75828823,1575,1576,1553,1553,0,0,0,0,0,0,0,0,0,0
1682164150.50013494,75928783,1575,1576,1550,1552,0,0,0,0,0,0,0,0,0,0
1682164150.60009503,76028743,1576,1577,1549,1550,0,0,0,0,0,0,0,0,0,0
1682164150.70005512,76128703,1577,1579,1549,1548,0,0,0,0,0,0,0,0,0,0
1682164150.80001497,76228663,1579,1581,1547,1546,0,0,0,0,0,0,0,0,0,0
1682164150.89997506,76328623,1581,1582,1546,1544,0,0,0,0,0,0,0,0,0,0
1682164150.99993491,76428583,1583,1584,1543,1542,0,0,0,0,0,0,0,0,0,0
1682164151.09989500,76528543,1586,1586,1541,1541,0,0,0,0,0,0,0,0,0,0
1682164151.19985509,76628503,1588,1588,1539,1540,0,0,0,0,0,0,0,0,0,0
1682164151.29981494,76728463,1590,1590,1538,1539,0,0,0,0,0,0,0,0,0,0
1682164151.39977503,76828423,1591,1591,1539,1540,0,0,0,0,0,0,0,0,0,0
1682164151.49973512,76928383,1592,1591,1540,1542,0,0,0,0,0,0,0,0,0,0
1682164151.59969497,77028343,1590,1590,1541,1543,0,0,0,0,0,0,0,0,0,0
1682164151.69965506,77128303,1589,1588,1544,1547,0,0,0,0,0,0,0,0,0,0
1682164151.79961491,77228263,1586,1585,1549,1551,0,0,0,0,0,0,0,0,0,0
1682164151.89957500,77328223,1581,1579,1554,1557,0,0,0,0,0,0,0,0,0,0
1682164151.99953508,77428183,1575,1573,1563,1565,0,0,0,0,0,0,0,0,0,0
1682164152.10032797,77528976,1567,1563,1572,1574,0,0,0,0,0,0,0,0,0,0
1682164152.20028806,77628936,1557,1554,1584,1585,0,0,0,0,0,0,0,0,0,0
1682164152.30024791,77728896,1547,1545,1594,1595,0,0,0,0,0,0,0,0,0,0
1682164152.40020800,77828856,1539,1538,1603,1603,0,0,0,0,0,0,0,0,0,0
1682164152.50016809,77928816,1534,1534,1609,1609,0,0,0,0,0,0,0,0,0,0
1682164152.60012794,78028776,1531,1533,1612,1611,0,0,0,0,0,0,0,0,0,0
1682164152.70008802,78128736,1531,1534,1611,1610,0,0,0,0,0,0,0,0,0,0
1682164152.80004811,78228696,1535,1538,1608,1608,0,0,0,0,0,0,0,0,0,0
1682164152.90000796,78328656,1541,1544,1603,1603,0,0,0,0,0,0,0,0,0,0
1682164152.99996805,78428616,1548,1549,1595,1595,0,0,0,0,0,0,0,0,0,0
1682164153.09992790,78528576,1557,1558,1589,1589,0,0,0,0,0,0,0,0,0,0
1682164153.19988799,78628536,1566,1565,1583,1582,0,0,0,0,0,0,0,0,0,0
1682164153.29984808,78728496,1573,1573,1577,1577,0,0,0,0,0,0,0,0,0,0
1682164153.39980793,78828456,1579,1578,1572,1571,0,0,0,0,0,0,0,0,0,0
1682164153.49976802,78928416,1584,1582,1568,1567,0,0,0,0,0,0,0,0,0,0
1682164153.59972811,79028376,1587,1586,1566,1566,0,0,0,0,0,0,0,0,0,0
1682164153.69968796,79128336,1589,1587,1566,1566,0,0,0,0,0,0,0,0,0,0
1682164153.79964805,79228296,1589,1588,1567,1567,0,0,0,0,0,0,0,0,0,0
1682164153.89960790,79328256,1588,1587,1569,1569,0,0,0,0,0,0,0,0,0,0
1682164153.99956799,79428216,1585,1585,1571,1572,0,0,0,0,0,0,0,0,0,0
1682164154.09952807,79528176,1583,1583,1575,1575,0,0,0,0,0,0,0,0,0,0
1682164154.20032096,79628969,1581,1581,1579,1578,0,0,0,0,0,0,0,0,0,0
1682164154.30028105,79728929,1579,1579,1581,1581,0,0,0,0,0,0,0,0,0,0
1682164154.40024090,79828889,1577,1577,1583,1583,0,0,0,0,0,0,0,0,0,0
1682164154.50020099,79928849,1575,1576,1584,1584,0,0,0,0,0,0,0,0,0,0
1682164154.60016108,80028809,1574,1574,1585,1585,0,0,0,0,0,0,0,0,0,0
1682164154.70012093,80128769,1574,1574,1585,1585,0,0,0,0,0,0,0,0,0,0
1682164154.80008101,80228729,1574,1575,1585,1585,0,0,0,0,0,0,0,0,0,0
1682164154.90004110,80328689,1575,1575,1584,1583,0,0,0,0,0,0,0,0,0,0
1682164155.00000095,80428649,1577,1577,1583,1583,0,0,0,0,0,0,0,0,0,0
1682164155.09996104,80528609,1577,1578,1581,1582,0,0,0,0,0,0,0,0,0,0
1682164155.19992089,80628569,1578,1578,1580,1580,0,0,0,0,0,0,0,0,0,0
1682164155.29988098,80728529,1579,1579,1578,1579,0,0,0,0,0,0,0,0,0,0
1682164155.39984107,80828489,1580,1580,1578,1578,0,0,0,0,0,0,0,0,0,0
1682164155.49980092,80928449,1581,1581,1578,1578,0,0,0,0,0,0,0,0,0,0
1682164155.59976101,81028409,1582,1582,1577,1577,0,0,0,0,0,0,0,0,0,0
1682164155.69972110,81128369,1582,1581,1576,1576,0,0,0,0,0,0,0,0,0,0
1682164155.79968095,81228329,1582,1582,1578,1578,0,0,0,0,0,0,0,0,0,0
1682164155.89964104,81328289,1582,1582,1578,1578,0,0,0,0,0,0,0,0,0,0
1682164155.99960089,81428249,1582,1582,1579,1579,0,0,0,0,0,0,0,0,0,0
1682164156.09956098,81528209,1581,1581,1579,1579,0,0,0,0,0,0,0,0,0,0
1682164156.19952106,81628169,1581,1581,1580,1580,0,0,0,0,0,0,0,0,0,0
1682164156.30031395,81728962,1581,1581,1581,1580,0,0,0,0,0,0,0,0,0,0
1682164156.40027404,81828922,1580,1580,1580,1580,0,0,0,0,0,0,0,0,0,0
1682164156.50023389,81928882,1580,1580,1581,1581,0,0,0,0,0,0,0,0,0,0
1682164156.60019398,82028842,1579,1579,1581,1581,0,0,0,0,0,0,0,0,0,0
1682164156.70015407,82128802,1579,1580,1581,1581,0,0,0,0,0,0,0,0,0,0
1682164156.80011392,82228762,1579,1580,1581,1581,0,0,0,0,0,0,0,0,0,0
1682164156.90007401,82328722,1580,1580,1582,1581,0,0,0,0,0,0,0,0,0,0
1682164157.00003409,82428682,1581,1581,1582,1582,0,0,0,0,0,0,0,0,0,0
1682164157.09999394,82528642,1581,1581,1583,1582,0,0,0,0,0,0,0,0,0,0
1682164157.19995403,82628602,1582,1582,1587,1576,0,0,0,0,0,0,0,0,0,0
1682164157.29991412,82728562,1582,1581,1588,1574,0,0,0,0,0,0,0,0,0,0
1682164157.39987397,82828522,1580,1579,1581,1575,0,0,0,0,0,0,0,0,0,0
1682164157.49983406,82928482,1576,1575,1572,1574,0,0,0,0,0,0,0,0,0,0
1682164157.59979391,83028442,1572,1572,1566,1572,0,0,0,0,0,0,0,0,0,0
1682164157.69975400,83128402,1570,1570,1563,1571,0,0,0,0,0,0,0,0,0,0
1682164157.79971409,83228362,1568,1569,1564,1569,0,0,0,0,0,0,0,0,0,0
1682164157.89967394,83328322,1568,1567,1565,1567,0,0,0,0,0,0,0,0,0,0
1682164157.99963403,83428282,1566,1567,1567,1565,0,0,0,0,0,0,0,0,0,0
1682164158.09959412,83528242,1565,1566,1567,1565,0,0,0,0,0,0,0,0,0,0
1682164158.19955397,83628202,1564,1565,1567,1564,0,0,0,0,0,0,0,0,0,0
1682164158.29951406,83728162,1564,1564,1566,1564,0,0,0,0,0,0,0,0,0,0
1682164158.40030694,83828955,1563,1563,1564,1563,0,0,0,0,0,0,0,0,0,0
1682164158.50026703,83928915,1563,1562,1564,1564,0,0,0,0,0,0,0,0,0,0
1682164158.60022712,84028875,1561,1561,1562,1563,0,0,0,0,0,0,0,0,0,0
1682164158.70018697,84128835,1562,1561,1563,1563,0,0,0,0,0,0,0,0,0,0
1682164158.80014706,84228795,1561,1561,1562,1562,0,0,0,0,0,0,0,0,0,0
1682164158.90010691,84328755,1561,1561,1561,1561,0,0,0,0,0,0,0,0,0,0
1682164159.00006700,84428715,1560,1560,1561,1561,0,0,0,0,0,0,0,0,0,0
1682164159.10002708,84528675,1560,1561,1560,1560,0,0,0,0,0,0,0,0,0,0
1682164159.19998693,84628635,1559,1560,1559,1558,0,0,0,0,0,0,0,0,0,0
1682164159.29994702,84728595,1558,1559,1558,1557,0,0,0,0,0,0,0,0,0,0
1682164159.39990711,84828555,1559,1558,1558,1557,0,0,0,0,0,0,0,0,0,0
1682164159.49986696,84928515,1558,1558,1557,1557,0,0,0,0,0,0,0,0,0,0
1682164159.59982705,85028475,1558,1557,1557,1557,0,0,0,0,0,0,0,0,0,0
1682164159.69978690,85128435,1558,1558,1558,1557,0,0,0,0,0,0,0,0,0,0
1682164159.79974699,85228395,1558,1558,1559,1556,0,0,0,0,0,0,0,0,0,0
1682164159.89970708,85328355,1558,1558,1560,1557,0,0,0,0,0,0,0,0,0,0
1682164159.99966693,85428315,1559,1558,1559,1558,0,0,0,0,0,0,0,0,0,0
1682164160.09962702,85528275,1558,1558,1557,1559,0,0,0,0,0,0,0,0,0,0
1682164160.19958711,85628235,1559,1559,1557,1562,0,0,0,0,0,0,0,0,0,0
1682164160.29954696,85728195,1559,1560,1557,1564,0,0,0,0,0,0,0,0,0,0
1682164160.39950705,85828155,1558,1559,1557,1560,0,0,0,0,0,0,0,0,0,0
1682164160.50029993,85928948,1559,1559,1558,1561,0,0,0,0,0,0,0,0,0,0
1682164160.60026002,86028908,1557,1558,1556,1558,0,0,0,0,0,0,0,0,0,0
1682164160.70022011,86128868,1554,1555,1553,1554,0,0,0,0,0,0,0,0,0,0
1682164160.80017996,86228828,1551,1550,1548,1548,0,0,0,0,0,0,0,0,0,0
1682164160.90014005,86328788,1545,1544,1542,1541,0,0,0,0,0,0,0,0,0,0
1682164161.00009990,86428748,1538,1538,1535,1534,0,0,0,0,0,0,0,0,0,0
1682164161.10005999,86528708,1532,1532,1528,1527,0,0,0,0,0,0,0,0,0,0
1682164161.20002007,86628668,1525,1525,1521,1522,0,0,0,0,0,0,0,0,0,0
1682164161.29997993,86728628,1522,1522,1519,1520,0,0,0,0,0,0,0,0,0,0
1682164161.39994001,86828588,1521,1520,1519,1520,0,0,0,0,0,0,0,0,0,0
1682164161.49990010,86928548,1521,1520,1522,1523,0,0,0,0,0,0,0,0,0,0
1682164161.59985995,87028508,1522,1522,1526,1526,0,0,0,0,0,0,0,0,0,0
1682164161.69982004,87128468,1524,1524,1529,1530,0,0,0,0,0,0,0,0,0,0
1682164161.79977989,87228428,1529,1529,1535,1535,0,0,0,0,0,0,0,0,0,0
1682164161.89973998,87328388,1533,1533,1539,1539,0,0,0,0,0,0,0,0,0,0
1682164161.99970007,87428348,1536,1536,1542,1542,0,0,0,0,0,0,0,0,0,0
1682164162.09965992,87528308,1539,1539,1544,1543,0,0,0,0,0,0,0,0,0,0
1682164162.19962001,87628268,1541,1542,1544,1545,0,0,0,0,0,0,0,0,0,0
1682164162.29958010,87728228,1544,1544,1545,1545,0,0,0,0,0,0,0,0,0,0
1682164162.39953995,87828188,1545,1545,1544,1545,0,0,0,0,0,0,0,0,0,0
1682164162.50033307,87928981,1547,1547,1545,1544,0,0,0,0,0,0,0,0,0,0
1682164162.60029292,88028941,1548,1548,1545,1545,0,0,0,0,0,0,0,0,0,0
1682164162.70025301,88128901,1549,1548,1544,1544,0,0,0,0,0,0,0,0,0,0
1682164162.80021310,88228861,1548,1548,1544,1544,0,0,0,0,0,0,0,0,0,0
1682164162.90017295,88328821,1548,1548,1544,1544,0,0,0,0,0,0,0,0,0,0
1682164163.00013304,88428781,1547,1548,1544,1544,0,0,0,0,0,0,0,0,0,0
1682164163.10009289,88528741,1547,1547,1544,1544,0,0,0,0,0,0,0,0,0,0
1682164163.20005298,88628701,1546,1546,1544,1543,0,0,0,0,0,0,0,0,0,0
1682164163.30001307,88728661,1546,1545,1545,1545,0,0,0,0,0,0,0,0,0,0
1682164163.39997292,88828621,1545,1545,1545,1544,0,0,0,0,0,0,0,0,0,0
1682164163.49993300,88928581,1544,1544,1545,1545,0,0,0,0,0,0,0,0,0,0
1682164163.59989309,89028541,1544,1544,1545,1545,0,0,0,0,0,0,0,0,0,0
1682164163.69985294,89128501,1544,1543,1545,1545,0,0,0,0,0,0,0,0,0,0
1682164163.79981303,89228461,1543,1543,1545,1545,0,0,0,0,0,0,0,0,0,0
1682164163.89977312,89328421,1543,1543,1545,1545,0,0,0,0,0,0,0,0,0,0
1682164163.99973297,89428381,1543,1543,1544,1544,0,0,0,0,0,0,0,0,0,0
1682164164.09969306,89528341,1543,1544,1544,1544,0,0,0,0,0,0,0,0,0,0
1682164164.19965291,89628301,1543,1543,1544,1543,0,0,0,0,0,0,0,0,0,0
1682164164.29961300,89728261,1544,1544,1544,1544,0,0,0,0,0,0,0,0,0,0
1682164164.39957309,89828221,1544,1544,1544,1543,0,0,0,0,0,0,0,0,0,0
1682164164.49953294,89928181,1544,1543,1543,1544,0,0,0,0,0,0,0,0,0,0
1682164164.60032606,90028974,1544,1544,1543,1543,0,0,0,0,0,0,0,0,0,0
1682164164.70028591,90128934,1544,1544,1543,1543,0,0,0,0,0,0,0,0,0,0
1682164164.80024600,90228894,1544,1544,1544,1543,0,0,0,0,0,0,0,0,0,0
1682164164.90020609,90328854,1544,1544,1543,1544,0,0,0,0,0,0,0,0,0,0
1682164165.00016594,90428814,1544,1544,1543,1543,0,0,0,0,0,0,0,0,0,0
1682164165.10012603,90528774,1544,1544,1544,1544,0,0,0,0,0,0,0,0,0,0
1682164165.20008612,90628734,1544,1545,1544,1544,0,0,0,0,0,0,0,0,0,0
1682164165.30004597,90728694,1544,1544,1544,1544,0,0,0,0,0,0,0,0,0,0
1682164165.40000606,90828654,1544,1544,1544,1544,0,0,0,0,0,0,0,0,0,0
1682164165.49996591,90928614,1544,1543,1543,1544,0,0,0,0,0,0,0,0,0,0
1682164165.59992599,91028574,1545,1544,1544,1544,0,0,0,0,0,0,0,0,0,0
1682164165.69988608,91128534,1544,1544,1544,1545,0,0,0,0,0,0,0,0,0,0
1682164165.79984593,91228494,1544,1544,1544,1544,0,0,0,0,0,0,0,0,0,0
1682164165.89980602,91328454,1543,1543,1543,1544,0,0,0,0,0,0,0,0,0,0
1682164165.99976611,91428414,1544,1544,1544,1544,0,0,0,0,0,0,0,0,0,0
1682164166.09972596,91528374,1544,1543,1544,1543,0,0,0,0,0,0,0,0,0,0
1682164166.19968605,91628334,1544,1544,1544,1544,0,0,0,0,0,0,0,0,0,0
1682164166.29964590,91728294,1544,1544,1544,1545,0,0,0,0,0,0,0,0,0,0
1682164166.39960599,91828254,1544,1545,1544,1545,0,0,0,0,0,0,0,0,0,0
1682164166.49956608,91928214,1544,1544,1544,1544,0,0,0,0,0,0,0,0,0,0
1682164166.59952593,92028174,1545,1545,1545,1544,0,0,0,0,0,0,0,0,0,0
1682164166.70031905,92128967,1545,1545,1545,1544,0,0,0,0,0,0,0,0,0,0
1682164166.80027890,92228927,1545,1545,1545,1545,0,0,0,0,0,0,0,0,0,0
1682164166.90023899,92328887,1545,1544,1544,1545,0,0,0,0,0,0,0,0,0,0
1682164167.00019908,92428847,1544,1544,1544,1544,0,0,0,0,0,0,0,0,0,0
1682164167.10015893,92528807,1545,1544,1544,1545,0,0,0,0,0,0,0,0,0,0
1682164167.20011902,92628767,1544,1545,1545,1544,0,0,0,0,0,0,0,0,0,0
1682164167.30007911,92728727,1545,1545,1544,1545,0,0,0,0,0,0,0,0,0,0
1682164167.40003896,92828687,1545,1545,1545,1545,0,0,0,0,0,0,0,0,0,0
1682164167.49999905,92928647,1545,1545,1545,1545,0,0,0,0,0,0,0,0,0,0
1682164167.59995890,93028607,1544,1545,1545,1544,0,0,0,0,0,0,0,0,0,0
1682164167.69991899,93128567,1544,1544,1544,1544,0,0,0,0,0,0,0,0,0,0
1682164167.79987907,93228527,1544,1544,1544,1544,0,0,0,0,0,0,0,0,0,0
1682164167.89983892,93328487,1544,1544,1545,1544,0,0,0,0,0,0,0,0,0,0
1682164167.99979901,93428447,1544,1544,1544,1544,0,0,0,0,0,0,0,0,0,0
1682164168.09975910,93528407,1544,1544,1544,1544,0,0,0,0,0,0,0,0,0,0
1682164168.19971895,93628367,1544,1544,1544,1544,0,0,0,0,0,0,0,0,0,0
1682164168.29967904,93728327,1544,1544,1544,1545,0,0,0,0,0,0,0,0,0,0
1682164168.39963889,93828287,1545,1545,1545,1545,0,0,0,0,0,0,0,0,0,0
1682164168.49959898,93928247,1544,1544,1544,1544,0,0,0,0,0,0,0,0,0,0
1682164168.59955907,94028207,1544,1544,1544,1544,0,0,0,0,0,0,0,0,0,0
1682164168.69951892,94128167,1544,1544,1544,1544,0,0,0,0,0,0,0,0,0,0
1682164168.80031204,94228960,1544,1544,1544,1544,0,0,0,0,0,0,0,0,0,0
1682164168.90027189,94328920,1545,1544,1544,1545,0,0,0,0,0,0,0,0,0,0
1682164169.00023198,94428880,1545,1545,1545,1545,0,0,0,0,0,0,0,0,0,0
1682164169.10019207,94528840,1545,1544,1544,1545,0,0,0,0,0,0,0,0,0,0
1682164169.20015192,94628800,1544,1545,1544,1545,0,0,0,0,0,0,0,0,0,0
1682164169.30011201,94728760,1545,1545,1544,1545,0,0,0,0,0,0,0,0,0,0
1682164169.40007210,94828720,1544,1544,1544,1544,0,0,0,0,0,0,0,0,0,0
1682164169.50003195,94928680,1544,1544,1544,1543,0,0,0,0,0,0,0,0,0,0
1682164169.59999204,95028640,1544,1543,1544,1543,0,0,0,0,0,0,0,0,0,0
1682164169.69995189,95128600,1544,1544,1544,1544,0,0,0,0,0,0,0,0,0,0
1682164169.79991198,95228560,1544,1545,1545,1545,0,0,0,0,0,0,0,0,0,0
1682164169.89987206,95328520,1544,1544,1544,1545,0,0,0,0,0,0,0,0,0,0
1682164169.99983191,95428480,1545,1545,1545,1545,0,0,0,0,0,0,0,0,0,0
1682164170.09979200,95528440,1544,1544,1544,1544,0,0,0,0,0,0,0,0,0,0
1682164170.19975209,95628400,1544,1544,1544,1544,0,0,0,0,0,0,0,0,0,0
1682164170.29971194,95728360,1545,1544,1544,1544,0,0,0,0,0,0,0,0,0,0
1682164170.39967203,95828320,1546,1546,1546,1546,0,0,0,0,0,0,0,0,0,0
1682164170.49963212,95928280,1545,1545,1545,1545,0,0,0,0,0,0,0,0,0,0
1682164170.59959197,96028240,1544,1545,1545,1544,0,0,0,0,0,0,0,0,0,0
1682164170.69955206,96128200,1544,1544,1544,1544,0,0,0,0,0,0,0,0,0,0
1682164170.79951191,96228160,1544,1544,1544,1544,0,0,0,0,0,0,0,0,0,0
1682164170.90030503,96328953,1544,1544,1544,1544,0,0,0,0,0,0,0,0,0,0
1682164171.00026512,96428913,1423,1423,1385,1385,0,0,0,0,0,0,0,0,0,0
1682164171.10022497,96528873,1339,1339,1264,1265,0,0,0,0,0,0,0,0,0,0
1682164171.20018506,96628833,1312,1312,1222,1222,0,0,0,0,0,0,0,0,0,0
1682164171.30014491,96728793,1300,1299,1201,1201,0,0,0,0,0,0,0,0,0,0
1682164171.40010500,96828753,1276,1275,1161,1160,0,0,0,0,0,0,0,0,0,0
1682164171.50006509,96928713,1231,1230,1150,1150,0,0,0,0,0,0,0,0,0,0
1682164171.60002494,97028673,1127,1126,1150,1150,0,0,0,0,0,0,0,0,0,0
1682164171.69998503,97128633,1127,1126,1150,1150,0,0,0,0,0,0,0,0,0,0
1682164171.79994512,97228593,1127,1126,1150,1150,0,0,0,0,0,0,0,0,0,0
1682164171.89990497,97328553,1127,1117,1150,1162,0,0,0,0,0,0,0,0,0,0
1682164171.99986506,97428513,1127,1115,1150,1165,0,0,0,0,0,0,0,0,0,0
1682164172.09982491,97528473,1127,1120,1150,1159,0,0,0,0,0,0,0,0,0,0
1682164172.19978499,97628433,1127,1121,1150,1158,0,0,0,0,0,0,0,0,0,0
1682164172.29974508,97728393,1127,1121,1150,1158,0,0,0,0,0,0,0,0,0,0
1682164172.39970493,97828353,1127,1120,1150,1158,0,0,0,0,0,0,0,0,0,0
1682164172.49966502,97928313,1127,1120,1150,1158,0,0,0,0,0,0,0,0,0,0
1682164172.59962511,98028273,1127,1120,1150,1158,0,0,0,0,0,0,0,0,0,0
1682164172.69958496,98128233,1124,1127,1153,1150,0,0,0,0,0,0,0,0,0,0
1682164172.79954505,98228193,1127,1126,1150,1150,0,0,0,0,0,0,0,0,0,0
1682164172.90033793,98328986,1127,1125,1150,1151,0,0,0,0,0,0,0,0,0,0
1682164173.00029802,98428946,1127,1125,1150,1151,0,0,0,0,0,0,0,0,0,0
1682164173.10025811,98528906,1127,1125,1150,1151,0,0,0,0,0,0,0,0,0,0
1682164173.20021796,98628866,1000,1000,1000,1000,0,0,0,0,0,0,0,0,0,0
1682164173.30017805,98728826,1000,1000,1000,1000,0,0,0,0,0,0,0,0,0,0
1682164173.40013790,98828786,1000,1000,1000,1000,0,0,0,0,0,0,0,0,0,0
1682164173.50009799,98928746,1000,1000,1000,1000,0,0,0,0,0,0,0,0,0,0
1682164173.60005808,99028706,1000,1000,1000,1000,0,0,0,0,0,0,0,0,0,0
1682164173.70001793,99128666,1000,1000,1000,1000,0,0,0,0,0,0,0,0,0,0
1682164173.79997802,99228626,1000,1000,1000,1000,0,0,0,0,0,0,0,0,0,0
1682164173.89993811,99328586,1000,1000,1000,1000,0,0,0,0,0,0,0,0,0,0
1682164173.99989796,99428546,1000,1000,1000,1000,0,0,0,0,0,0,0,0,0,0
1682164174.09985805,99528506,1000,1000,1000,1000,0,0,0,0,0,0,0,0,0,0
1682164174.19981790,99628466,1000,1000,1000,1000,0,0,0,0,0,0,0,0,0,0
1682164174.29977798,99728426,1000,1000,1000,1000,0,0,0,0,0,0,0,0,0,0
1682164174.39973807,99828386,1000,1000,1000,1000,0,0,0,0,0,0,0,0,0,0
1682164174.49969792,99928346,1000,1000,1000,1000,0,0,0,0,0,0,0,0,0,0
1682164174.59965801,100028306,1000,1000,1000,1000,0,0,0,0,0,0,0,0,0,0
1682164174.69961810,100128266,1000,1000,1000,1000,0,0,0,0,0,0,0,0,0,0
1682164174.79957795,100228226,1000,1000,1000,1000,0,0,0,0,0,0,0,0,0,0
1682164174.89953804,100328186,1000,1000,1000,1000,0,0,0,0,0,0,0,0,0,0
1682164175.00033092,100428979,1000,1000,1000,1000,0,0,0,0,0,0,0,0,0,0
1682164175.10029101,100528939,1000,1000,1000,1000,0,0,0,0,0,0,0,0,0,0
1682164175.20025110,100628899,1000,1000,1000,1000,0,0,0,0,0,0,0,0,0,0
1682164175.30021095,100728859,1000,1000,1000,1000,0,0,0,0,0,0,0,0,0,0
1682164175.40017104,100828819,1000,1000,1000,1000,0,0,0,0,0,0,0,0,0,0
1682164175.50013089,100928779,1000,1000,1000,1000,0,0,0,0,0,0,0,0,0,0
1682164175.60009098,101028739,1000,1000,1000,1000,0,0,0,0,0,0,0,0,0,0
1682164175.70005107,101128699,1000,1000,1000,1000,0,0,0,0,0,0,0,0,0,0
1682164175.80001092,101228659,1000,1000,1000,1000,0,0,0,0,0,0,0,0,0,0
1682164175.89997101,101328619,1000,1000,1000,1000,0,0,0,0,0,0,0,0,0,0
1682164175.99993110,101428579,1000,1000,1000,1000,0,0,0,0,0,0,0,0,0,0
1682164176.09989095,101528539,1000,1000,1000,1000,0,0,0,0,0,0,0,0,0,0
1682164176.19985104,101628499,1000,1000,1000,1000,0,0,0,0,0,0,0,0,0,0
1682164176.29981089,101728459,1000,1000,1000,1000,0,0,0,0,0,0,0,0,0,0
1682164176.39977098,101828419,1000,1000,1000,1000,0,0,0,0,0,0,0,0,0,0
1682164176.49973106,101928379,1000,1000,1000,1000,0,0,0,0,0,0,0,0,0,0
1682164176.59969091,102028339,1000,1000,1000,1000,0,0,0,0,0,0,0,0,0,0
1682164176.69965100,102128299,1000,1000,1000,1000,0,0,0,0,0,0,0,0,0,0
1682164176.79961109,102228259,1000,1000,1000,1000,0,0,0,0,0,0,0,0,0,0
1682164176.89957094,102328219,1000,1000,1000,1000,0,0,0,0,0,0,0,0,0,0
1682164176.99953103,102428179,1000,1000,1000,1000,0,0,0,0,0,0,0,0,0,0
1682164177.10032392,102528972,1000,1000,1000,1000,0,0,0,0,0,0,0,0,0,0
1682164177.20028400,102628932,1000,1000,1000,1000,0,0,0,0,0,0,0,0,0,0
1682164177.30024409,102728892,1000,1000,1000,1000,0,0,0,0,0,0,0,0,0,0
1682164177.40020394,102828852,1000,1000,1000,1000,0,0,0,0,0,0,0,0,0,0
1682164177.50016403,102928812,1000,1000,1000,1000,0,0,0,0,0,0,0,0,0,0
1682164177.60012412,103028772,1000,1000,1000,1000,0,0,0,0,0,0,0,0,0,0
1682164177.70008397,103128732,1000,1000,1000,1000,0,0,0,0,0,0,0,0,0,0
1682164177.80004406,103228692,1000,1000,1000,1000,0,0,0,0,0,0,0,0,0,0
1682164177.90000391,103328652,1000,1000,1000,1000,0,0,0,0,0,0,0,0,0,0
1682164177.99996400,103428612,1000,1000,1000,1000,0,0,0,0,0,0,0,0,0,0
1682164178.09992409,103528572,1000,1000,1000,1000,0,0,0,0,0,0,0,0,0,0
1682164178.19988394,103628532,1000,1000,1000,1000,0,0,0,0,0,0,0,0,0,0
1682164178.29984403,103728492,1000,1000,1000,1000,0,0,0,0,0,0,0,0,0,0
1682164178.39980412,103828452,1000,1000,1000,1000,0,0,0,0,0,0,0,0,0,0
1682164178.49976397,103928412,1000,1000,1000,1000,0,0,0,0,0,0,0,0,0,0
1682164178.59972405,104028372,1000,1000,1000,1000,0,0,0,0,0,0,0,0,0,0
1682164178.69968390,104128332,1000,1000,1000,1000,0,0,0,0,0,0,0,0,0,0
1682164178.79964399,104228292,1000,1000,1000,1000,0,0,0,0,0,0,0,0,0,0
1682164178.89960408,104328252,1000,1000,1000,1000,0,0,0,0,0,0,0,0,0,0
1682164178.99956393,104428212,1000,1000,1000,1000,0,0,0,0,0,0,0,0,0,0
1682164179.09952402,104528172,1000,1000,1000,1000,0,0,0,0,0,0,0,0,0,0
1682164179.20031691,104628965,1000,1000,1000,1000,0,0,0,0,0,0,0,0,0,0
1682164179.30027699,104728925,1000,1000,1000,1000,0,0,0,0,0,0,0,0,0,0
1682164179.40023708,104828885,1000,1000,1000,1000,0,0,0,0,0,0,0,0,0,0
1682164179.50019693,104928845,1000,1000,1000,1000,0,0,0,0,0,0,0,0,0,0
1682164179.60015702,105028805,1000,1000,1000,1000,0,0,0,0,0,0,0,0,0,0
1682164179.70011711,105128765,1000,1000,1000,1000,0,0,0,0,0,0,0,0,0,0
1682164179.80007696,105228725,1000,1000,1000,1000,0,0,0,0,0,0,0,0,0,0
1682164179.90003705,105328685,1000,1000,1000,1000,0,0,0,0,0,0,0,0,0,0
1682164179.99999690,105428645,1000,1000,1000,1000,0,0,0,0,0,0,0,0,0,0
1682164180.09995699,105528605,1000,1000,1000,1000,0,0,0,0,0,0,0,0,0,0
1682164180.19991708,105628565,1000,1000,1000,1000,0,0,0,0,0,0,0,0,0,0
1682164180.29987693,105728525,1000,1000,1000,1000,0,0,0,0,0,0,0,0,0,0
1682164180.39983702,105828485,1000,1000,1000,1000,0,0,0,0,0,0,0,0,0,0
1682164180.49979711,105928445,1000,1000,1000,1000,0,0,0,0,0,0,0,0,0,0
1682164180.59975696,106028405,1000,1000,1000,1000,0,0,0,0,0,0,0,0,0,0
1682164180.69971704,106128365,1000,1000,1000,1000,0,0,0,0,0,0,0,0,0,0
1682164180.79967690,106228325,1000,1000,1000,1000,0,0,0,0,0,0,0,0,0,0
1682164180.89963698,106328285,1000,1000,1000,1000,0,0,0,0,0,0,0,0,0,0
1682164180.99959707,106428245,1000,1000,1000,1000,0,0,0,0,0,0,0,0,0,0
1682164181.09955692,106528205,1000,1000,1000,1000,0,0,0,0,0,0,0,0,0,0
1682164181.19951701,106628165,1000,1000,1000,1000,0,0,0,0,0,0,0,0,0,0
1682164181.30030990,106728958,1000,1000,1000,1000,0,0,0,0,0,0,0,0,0,0
1682164181.40026999,106828918,1000,1000,1000,1000,0,0,0,0,0,0,0,0,0,0
1682164181.50023007,106928878,1000,1000,1000,1000,0,0,0,0,0,0,0,0,0,0
1682164181.60018992,107028838,1000,1000,1000,1000,0,0,0,0,0,0,0,0,0,0
1682164181.70015001,107128798,1000,1000,1000,1000,0,0,0,0,0,0,0,0,0,0
1682164181.80011010,107228758,1000,1000,1000,1000,0,0,0,0,0,0,0,0,0,0
1682164181.90006995,107328718,1000,1000,1000,1000,0,0,0,0,0,0,0,0,0,0
1682164182.00003004,107428678,1000,1000,1000,1000,0,0,0,0,0,0,0,0,0,0
1682164182.09998989,107528638,1000,1000,1000,1000,0,0,0,0,0,0,0,0,0,0
1682164182.19994998,107628598,1000,1000,1000,1000,0,0,0,0,0,0,0,0,0,0
