timestamp,TimeUS,C1,C2,C3,C4,C5,C6,C7,C8,C9,C10,C11,C12,C13,C14
1684044847.30004001,81528209,1000,1000,1000,1000,0,0,0,0,0,0,0,0,0,0
1684044847.40000010,81628169,1000,1000,1000,1000,0,0,0,0,0,0,0,0,0,0
1684044847.50079298,81728962,1000,1000,1000,1000,0,0,0,0,0,0,0,0,0,0
1684044847.60075307,81828922,1000,1000,1000,1000,0,0,0,0,0,0,0,0,0,0
1684044847.70071292,81928882,1000,1000,1000,1000,0,0,0,0,0,0,0,0,0,0
1684044847.80067301,82028842,1000,1000,1000,1000,0,0,0,0,0,0,0,0,0,0
1684044847.90063310,82128802,1000,1000,1000,1000,0,0,0,0,0,0,0,0,0,0
1684044848.00059295,82228762,1000,1000,1000,1000,0,0,0,0,0,0,0,0,0,0
1684044848.10055304,82328722,1000,1000,1000,1000,0,0,0,0,0,0,0,0,0,0
1684044848.20051312,82428682,1000,1000,1000,1000,0,0,0,0,0,0,0,0,0,0
1684044848.30047297,82528642,1000,1000,1000,1000,0,0,0,0,0,0,0,0,0,0
1684044848.40043306,82628602,1000,1000,1000,1000,0,0,0,0,0,0,0,0,0,0
1684044848.50039315,82728562,1000,1000,1000,1000,0,0,0,0,0,0,0,0,0,0
1684044848.60035300,82828522,1000,1000,1000,1000,0,0,0,0,0,0,0,0,0,0
1684044848.70031309,82928482,1000,1000,1000,1000,0,0,0,0,0,0,0,0,0,0
1684044848.80027294,83028442,1000,1000,1000,1000,0,0,0,0,0,0,0,0,0,0
1684044848.90023303,83128402,1000,1000,1000,1000,0,0,0,0,0,0,0,0,0,0
1684044849.00019312,83228362,1000,1000,1000,1000,0,0,0,0,0,0,0,0,0,0
1684044849.10015297,83328322,1000,1000,1000,1000,0,0,0,0,0,0,0,0,0,0
1684044849.20011306,83428282,1000,1000,1000,1000,0,0,0,0,0,0,0,0,0,0
1684044849.30007315,83528242,1027,1027,1027,1027,0,0,0,0,0,0,0,0,0,0
1684044849.40003300,83628202,1057,1057,1057,1057,0,0,0,0,0,0,0,0,0,0
1684044849.49999309,83728162,1087,1087,1087,1087,0,0,0,0,0,0,0,0,0,0
1684044849.60078597,83828955,1116,1116,1116,1116,0,0,0,0,0,0,0,0,0,0
1684044849.70074606,83928915,1146,1146,1146,1146,0,0,0,0,0,0,0,0,0,0
1684044849.80070615,84028875,1380,1371,1372,1381,0,0,0,0,0,0,0,0,0,0
1684044849.90066600,84128835,1565,1556,1557,1565,0,0,0,0,0,0,0,0,0,0
1684044850.00062609,84228795,1714,1707,1707,1714,0,0,0,0,0,0,0,0,0,0
1684044850.10058594,84328755,1843,1836,1836,1844,0,0,0,0,0,0,0,0,0,0
1684044850.20054603,84428715,1892,1885,1885,1893,0,0,0,0,0,0,0,0,0,0
1684044850.30050611,84528675,1824,1822,1823,1824,0,0,0,0,0,0,0,0,0,0
1684044850.40046597,84628635,1696,1696,1697,1696,0,0,0,0,0,0,0,0,0,0
1684044850.50042605,84728595,1629,1632,1632,1630,0,0,0,0,0,0,0,0,0,0
1684044850.60038614,84828555,1621,1625,1624,1621,0,0,0,0,0,0,0,0,0,0
1684044850.70034599,84928515,1629,1632,1632,1629,0,0,0,0,0,0,0,0,0,0
1684044850.80030608,85028475,1635,1636,1636,1635,0,0,0,0,0,0,0,0,0,0
1684044850.90026593,85128435,1631,1630,1630,1630,0,0,0,0,0,0,0,0,0,0
1684044851.00022602,85228395,1623,1622,1622,1623,0,0,0,0,0,0,0,0,0,0
1684044851.10018611,85328355,1617,1616,1615,1617,0,0,0,0,0,0,0,0,0,0
1684044851.20014596,85428315,1615,1613,1613,1614,0,0,0,0,0,0,0,0,0,0
1684044851.30010605,85528275,1614,1612,1613,1613,0,0,0,0,0,0,0,0,0,0
1684044851.40006614,85628235,1615,1615,1615,1615,0,0,0,0,0,0,0,0,0,0
1684044851.50002599,85728195,1616,1617,1617,1617,0,0,0,0,0,0,0,0,0,0
1684044851.59998608,85828155,1594,1595,1594,1594,0,0,0,0,0,0,0,0,0,0
1684044851.70077896,85928948,1575,1575,1574,1577,0,0,0,0,0,0,0,0,0,0
1684044851.80073905,86028908,1564,1564,1561,1566,0,0,0,0,0,0,0,0,0,0
1684044851.90069914,86128868,1553,1553,1550,1556,0,0,0,0,0,0,0,0,0,0
1684044852.00065899,86228828,1544,1543,1542,1544,0,0,0,0,0,0,0,0,0,0
1684044852.10061908,86328788,1535,1535,1536,1535,0,0,0,0,0,0,0,0,0,0
1684044852.20057893,86428748,1528,1528,1530,1527,0,0,0,0,0,0,0,0,0,0
1684044852.30053902,86528708,1521,1520,1521,1520,0,0,0,0,0,0,0,0,0,0
1684044852.40049911,86628668,1517,1517,1518,1517,0,0,0,0,0,0,0,0,0,0
1684044852.50045896,86728628,1517,1517,1517,1517,0,0,0,0,0,0,0,0,0,0
1684044852.60041904,86828588,1518,1518,1518,1519,0,0,0,0,0,0,0,0,0,0
1684044852.70037913,86928548,1520,1520,1520,1521,0,0,0,0,0,0,0,0,0,0
1684044852.80033898,87028508,1521,1521,1521,1521,0,0,0,0,0,0,0,0,0,0
1684044852.90029907,87128468,1530,1530,1533,1527,0,0,0,0,0,0,0,0,0,0
1684044853.00025892,87228428,1538,1538,1543,1532,0,0,0,0,0,0,0,0,0,0
1684044853.10021901,87328388,1543,1544,1545,1542,0,0,0,0,0,0,0,0,0,0
1684044853.20017910,87428348,1548,1548,1545,1550,0,0,0,0,0,0,0,0,0,0
1684044853.30013895,87528308,1551,1550,1546,1555,0,0,0,0,0,0,0,0,0,0
1684044853.40009904,87628268,1551,1552,1547,1556,0,0,0,0,0,0,0,0,0,0
1684044853.50005913,87728228,1554,1554,1551,1557,0,0,0,0,0,0,0,0,0,0
1684044853.60001898,87828188,1558,1558,1557,1559,0,0,0,0,0,0,0,0,0,0
1684044853.70081210,87928981,1561,1561,1563,1559,0,0,0,0,0,0,0,0,0,0
1684044853.80077195,88028941,1563,1563,1566,1560,0,0,0,0,0,0,0,0,0,0
1684044853.90073204,88128901,1566,1566,1568,1563,0,0,0,0,0,0,0,0,0,0
1684044854.00069213,88228861,1566,1567,1568,1565,0,0,0,0,0,0,0,0,0,0
1684044854.10065198,88328821,1566,1567,1566,1567,0,0,0,0,0,0,0,0,0,0
1684044854.20061207,88428781,1567,1567,1566,1568,0,0,0,0,0,0,0,0,0,0
1684044854.30057192,88528741,1564,1563,1569,1572,0,0,0,0,0,0,0,0,0,0
1684044854.40053201,88628701,1563,1562,1568,1572,0,0,0,0,0,0,0,0,0,0
1684044854.50049210,88728661,1564,1564,1568,1571,0,0,0,0,0,0,0,0,0,0
1684044854.60045195,88828621,1564,1565,1568,1569,0,0,0,0,0,0,0,0,0,0
1684044854.70041203,88928581,1566,1567,1569,1568,0,0,0,0,0,0,0,0,0,0
1684044854.80037212,89028541,1568,1568,1568,1566,0,0,0,0,0,0,0,0,0,0
1684044854.90033197,89128501,1571,1570,1568,1567,0,0,0,0,0,0,0,0,0,0
1684044855.00029206,89228461,1571,1571,1567,1566,0,0,0,0,0,0,0,0,0,0
1684044855.10025215,89328421,1572,1572,1567,1567,0,0,0,0,0,0,0,0,0,0
1684044855.20021200,89428381,1572,1572,1568,1568,0,0,0,0,0,0,0,0,0,0
1684044855.30017209,89528341,1572,1572,1568,1568,0,0,0,0,0,0,0,0,0,0
1684044855.40013194,89628301,1573,1573,1569,1570,0,0,0,0,0,0,0,0,0,0
1684044855.50009203,89728261,1572,1572,1570,1571,0,0,0,0,0,0,0,0,0,0
1684044855.60005212,89828221,1572,1572,1571,1571,0,0,0,0,0,0,0,0,0,0
1684044855.70001197,89928181,1573,1572,1573,1572,0,0,0,0,0,0,0,0,0,0
1684044855.80080509,90028974,1574,1573,1575,1573,0,0,0,0,0,0,0,0,0,0
1684044855.90076494,90128934,1574,1574,1576,1575,0,0,0,0,0,0,0,0,0,0
1684044856.00072503,90228894,1575,1575,1577,1576,0,0,0,0,0,0,0,0,0,0
1684044856.10068512,90328854,1575,1576,1577,1577,0,0,0,0,0,0,0,0,0,0
1684044856.20064497,90428814,1576,1576,1577,1578,0,0,0,0,0,0,0,0,0,0
1684044856.30060506,90528774,1576,1575,1577,1577,0,0,0,0,0,0,0,0,0,0
1684044856.40056515,90628734,1575,1575,1576,1576,0,0,0,0,0,0,0,0,0,0
1684044856.50052500,90728694,1577,1577,1577,1578,0,0,0,0,0,0,0,0,0,0
1684044856.60048509,90828654,1577,1578,1578,1578,0,0,0,0,0,0,0,0,0,0
1684044856.70044494,90928614,1577,1578,1578,1577,0,0,0,0,0,0,0,0,0,0
1684044856.80040503,91028574,1578,1578,1578,1577,0,0,0,0,0,0,0,0,0,0
1684044856.90036511,91128534,1578,1577,1577,1577,0,0,0,0,0,0,0,0,0,0
1684044857.00032496,91228494,1578,1578,1577,1577,0,0,0,0,0,0,0,0,0,0
1684044857.10028505,91328454,1578,1578,1577,1578,0,0,0,0,0,0,0,0,0,0
1684044857.20024514,91428414,1578,1578,1578,1577,0,0,0,0,0,0,0,0,0,0
1684044857.30020499,91528374,1579,1578,1578,1578,0,0,0,0,0,0,0,0,0,0
1684044857.40016508,91628334,1578,1578,1577,1578,0,0,0,0,0,0,0,0,0,0
1684044857.50012493,91728294,1578,1578,1578,1578,0,0,0,0,0,0,0,0,0,0
1684044857.60008502,91828254,1578,1578,1578,1578,0,0,0,0,0,0,0,0,0,0
1684044857.70004511,91928214,1579,1579,1579,1579,0,0,0,0,0,0,0,0,0,0
1684044857.80000496,92028174,1580,1580,1581,1580,0,0,0,0,0,0,0,0,0,0
1684044857.90079808,92128967,1580,1580,1581,1580,0,0,0,0,0,0,0,0,0,0
1684044858.00075793,92228927,1579,1579,1580,1580,0,0,0,0,0,0,0,0,0,0
1684044858.10071802,92328887,1579,1580,1580,1580,0,0,0,0,0,0,0,0,0,0
1684044858.20067811,92428847,1580,1580,1580,1580,0,0,0,0,0,0,0,0,0,0
1684044858.30063796,92528807,1579,1579,1579,1580,0,0,0,0,0,0,0,0,0,0
1684044858.40059805,92628767,1580,1580,1581,1581,0,0,0,0,0,0,0,0,0,0
1684044858.50055814,92728727,1579,1579,1579,1579,0,0,0,0,0,0,0,0,0,0
1684044858.60051799,92828687,1580,1580,1580,1580,0,0,0,0,0,0,0,0,0,0
1684044858.70047808,92928647,1579,1579,1579,1579,0,0,0,0,0,0,0,0,0,0
1684044858.80043793,93028607,1580,1580,1580,1580,0,0,0,0,0,0,0,0,0,0
1684044858.90039802,93128567,1580,1580,1580,1581,0,0,0,0,0,0,0,0,0,0
1684044859.00035810,93228527,1579,1579,1579,1579,0,0,0,0,0,0,0,0,0,0
1684044859.10031796,93328487,1580,1580,1580,1580,0,0,0,0,0,0,0,0,0,0
1684044859.20027804,93428447,1580,1580,1580,1580,0,0,0,0,0,0,0,0,0,0
1684044859.30023813,93528407,1580,1580,1580,1580,0,0,0,0,0,0,0,0,0,0
1684044859.40019798,93628367,1580,1580,1580,1580,0,0,0,0,0,0,0,0,0,0
1684044859.50015807,93728327,1580,1579,1580,1580,0,0,0,0,0,0,0,0,0,0
1684044859.60011792,93828287,1579,1579,1579,1579,0,0,0,0,0,0,0,0,0,0
1684044859.70007801,93928247,1579,1580,1580,1580,0,0,0,0,0,0,0,0,0,0
1684044859.80003810,94028207,1580,1580,1580,1580,0,0,0,0,0,0,0,0,0,0
1684044859.89999795,94128167,1580,1580,1580,1580,0,0,0,0,0,0,0,0,0,0
1684044860.00079107,94228960,1580,1580,1580,1580,0,0,0,0,0,0,0,0,0,0
1684044860.10075092,94328920,1581,1581,1581,1581,0,0,0,0,0,0,0,0,0,0
1684044860.20071101,94428880,1580,1580,1580,1580,0,0,0,0,0,0,0,0,0,0
1684044860.30067110,94528840,1580,1580,1581,1580,0,0,0,0,0,0,0,0,0,0
1684044860.40063095,94628800,1580,1580,1580,1580,0,0,0,0,0,0,0,0,0,0
1684044860.50059104,94728760,1581,1581,1584,1578,0,0,0,0,0,0,0,0,0,0
1684044860.60055113,94828720,1580,1583,1588,1573,0,0,0,0,0,0,0,0,0,0
1684044860.70051098,94928680,1579,1582,1581,1574,0,0,0,0,0,0,0,0,0,0
1684044860.80047107,95028640,1578,1581,1572,1573,0,0,0,0,0,0,0,0,0,0
1684044860.90043092,95128600,1577,1579,1564,1570,0,0,0,0,0,0,0,0,0,0
1684044861.00039101,95228560,1577,1578,1558,1565,0,0,0,0,0,0,0,0,0,0
1684044861.10035110,95328520,1579,1578,1556,1561,0,0,0,0,0,0,0,0,0,0
1684044861.20031095,95428480,1579,1578,1555,1556,0,0,0,0,0,0,0,0,0,0
1684044861.30027103,95528440,1580,1578,1555,1555,0,0,0,0,0,0,0,0,0,0
1684044861.40023112,95628400,1579,1578,1555,1553,0,0,0,0,0,0,0,0,0,0
1684044861.50019097,95728360,1578,1578,1555,1553,0,0,0,0,0,0,0,0,0,0
1684044861.60015106,95828320,1576,1577,1555,1553,0,0,0,0,0,0,0,0,0,0
1684044861.70011115,95928280,1576,1577,1555,1554,0,0,0,0,0,0,0,0,0,0
1684044861.80007100,96028240,1574,1576,1553,1553,0,0,0,0,0,0,0,0,0,0
1684044861.90003109,96128200,1574,1576,1551,1553,0,0,0,0,0,0,0,0,0,0
1684044861.99999094,96228160,1576,1577,1550,1551,0,0,0,0,0,0,0,0,0,0
1684044862.10078406,96328953,1577,1578,1549,1548,0,0,0,0,0,0,0,0,0,0
1684044862.20074415,96428913,1579,1580,1546,1546,0,0,0,0,0,0,0,0,0,0
1684044862.30070400,96528873,1582,1583,1544,1543,0,0,0,0,0,0,0,0,0,0
1684044862.40066409,96628833,1585,1586,1541,1541,0,0,0,0,0,0,0,0,0,0
1684044862.50062394,96728793,1589,1589,1539,1539,0,0,0,0,0,0,0,0,0,0
1684044862.60058403,96828753,1592,1592,1536,1536,0,0,0,0,0,0,0,0,0,0
1684044862.70054412,96928713,1594,1593,1535,1536,0,0,0,0,0,0,0,0,0,0
1684044862.80050397,97028673,1595,1594,1535,1536,0,0,0,0,0,0,0,0,0,0
1684044862.90046406,97128633,1594,1594,1535,1537,0,0,0,0,0,0,0,0,0,0
1684044863.00042415,97228593,1592,1592,1537,1539,0,0,0,0,0,0,0,0,0,0
1684044863.10038400,97328553,1590,1589,1541,1545,0,0,0,0,0,0,0,0,0,0
1684044863.20034409,97428513,1586,1583,1549,1552,0,0,0,0,0,0,0,0,0,0
1684044863.30030394,97528473,1578,1575,1559,1561,0,0,0,0,0,0,0,0,0,0
1684044863.40026402,97628433,1569,1566,1571,1573,0,0,0,0,0,0,0,0,0,0
1684044863.50022411,97728393,1558,1553,1583,1584,0,0,0,0,0,0,0,0,0,0
1684044863.60018396,97828353,1547,1544,1595,1595,0,0,0,0,0,0,0,0,0,0
1684044863.70014405,97928313,1537,1536,1604,1604,0,0,0,0,0,0,0,0,0,0
1684044863.80010414,98028273,1531,1532,1612,1611,0,0,0,0,0,0,0,0,0,0
1684044863.90006399,98128233,1529,1530,1615,1614,0,0,0,0,0,0,0,0,0,0
1684044864.00002408,98228193,1530,1532,1614,1613,0,0,0,0,0,0,0,0,0,0
1684044864.10081697,98328986,1535,1537,1611,1611,0,0,0,0,0,0,0,0,0,0
1684044864.20077705,98428946,1543,1545,1606,1606,0,0,0,0,0,0,0,0,0,0
1684044864.30073714,98528906,1551,1552,1598,1599,0,0,0,0,0,0,0,0,0,0
1684044864.40069699,98628866,1560,1560,1591,1591,0,0,0,0,0,0,0,0,0,0
1684044864.50065708,98728826,1569,1568,1584,1584,0,0,0,0,0,0,0,0,0,0
1684044864.60061693,98828786,1576,1575,1578,1577,0,0,0,0,0,0,0,0,0,0
1684044864.70057702,98928746,1581,1580,1572,1571,0,0,0,0,0,0,0,0,0,0
1684044864.80053711,99028706,1585,1584,1568,1568,0,0,0,0,0,0,0,0,0,0
1684044864.90049696,99128666,1587,1585,1566,1566,0,0,0,0,0,0,0,0,0,0
1684044865.00045705,99228626,1588,1586,1566,1567,0,0,0,0,0,0,0,0,0,0
1684044865.10041714,99328586,1587,1586,1568,1568,0,0,0,0,0,0,0,0,0,0
1684044865.20037699,99428546,1585,1585,1571,1571,0,0,0,0,0,0,0,0,0,0
1684044865.30033708,99528506,1582,1582,1573,1573,0,0,0,0,0,0,0,0,0,0
1684044865.40029693,99628466,1579,1580,1576,1576,0,0,0,0,0,0,0,0,0,0
1684044865.50025702,99728426,1575,1576,1578,1578,0,0,0,0,0,0,0,0,0,0
1684044865.60021710,99828386,1574,1574,1581,1581,0,0,0,0,0,0,0,0,0,0
1684044865.70017695,99928346,1572,1573,1582,1582,0,0,0,0,0,0,0,0,0,0
1684044865.80013704,100028306,1572,1572,1583,1583,0,0,0,0,0,0,0,0,0,0
1684044865.90009713,100128266,1572,1573,1583,1583,0,0,0,0,0,0,0,0,0,0
1684044866.00005698,100228226,1572,1573,1583,1583,0,0,0,0,0,0,0,0,0,0
1684044866.10001707,100328186,1574,1574,1583,1582,0,0,0,0,0,0,0,0,0,0
1684044866.20080996,100428979,1575,1575,1581,1581,0,0,0,0,0,0,0,0,0,0
1684044866.30077004,100528939,1578,1578,1581,1581,0,0,0,0,0,0,0,0,0,0
1684044866.40073013,100628899,1578,1579,1579,1579,0,0,0,0,0,0,0,0,0,0
1684044866.50068998,100728859,1580,1580,1579,1579,0,0,0,0,0,0,0,0,0,0
1684044866.60065007,100828819,1582,1581,1578,1578,0,0,0,0,0,0,0,0,0,0
1684044866.70060992,100928779,1582,1582,1579,1578,0,0,0,0,0,0,0,0,0,0
1684044866.80057001,101028739,1582,1582,1578,1578,0,0,0,0,0,0,0,0,0,0
1684044866.90053010,101128699,1582,1582,1578,1578,0,0,0,0,0,0,0,0,0,0
1684044867.00048995,101228659,1582,1582,1578,1578,0,0,0,0,0,0,0,0,0,0
1684044867.10045004,101328619,1581,1582,1579,1579,0,0,0,0,0,0,0,0,0,0
1684044867.20041013,101428579,1656,1656,1563,1561,0,0,0,0,0,0,0,0,0,0
1684044867.30036998,101528539,1628,1626,1557,1555,0,0,0,0,0,0,0,0,0,0
1684044867.40033007,101628499,1605,1603,1563,1563,0,0,0,0,0,0,0,0,0,0
1684044867.50028992,101728459,1583,1582,1571,1574,0,0,0,0,0,0,0,0,0,0
1684044867.60025001,101828419,1565,1565,1581,1583,0,0,0,0,0,0,0,0,0,0
1684044867.70021009,101928379,1553,1554,1589,1590,0,0,0,0,0,0,0,0,0,0
1684044867.80016994,102028339,1548,1550,1594,1594,0,0,0,0,0,0,0,0,0,0
1684044867.90013003,102128299,1548,1551,1595,1594,0,0,0,0,0,0,0,0,0,0
1684044868.00009012,102228259,1552,1555,1595,1594,0,0,0,0,0,0,0,0,0,0
1684044868.10004997,102328219,1557,1560,1594,1593,0,0,0,0,0,0,0,0,0,0
1684044868.20001006,102428179,1562,1563,1590,1590,0,0,0,0,0,0,0,0,0,0
1684044868.30080295,102528972,1567,1568,1586,1587,0,0,0,0,0,0,0,0,0,0
1684044868.40076303,102628932,1572,1572,1584,1584,0,0,0,0,0,0,0,0,0,0
1684044868.50072312,102728892,1576,1576,1584,1577,0,0,0,0,0,0,0,0,0,0
1684044868.60068297,102828852,1580,1584,1586,1571,0,0,0,0,0,0,0,0,0,0
1684044868.70064306,102928812,1582,1587,1577,1570,0,0,0,0,0,0,0,0,0,0
1684044868.80060315,103028772,1584,1587,1567,1568,0,0,0,0,0,0,0,0,0,0
1684044868.90056300,103128732,1585,1585,1557,1563,0,0,0,0,0,0,0,0,0,0
1684044869.00052309,103228692,1587,1587,1551,1558,0,0,0,0,0,0,0,0,0,0
1684044869.10048294,103328652,1589,1586,1547,1553,0,0,0,0,0,0,0,0,0,0
1684044869.20044303,103428612,1590,1587,1548,1550,0,0,0,0,0,0,0,0,0,0
1684044869.30040312,103528572,1589,1586,1549,1548,0,0,0,0,0,0,0,0,0,0
1684044869.40036297,103628532,1587,1586,1552,1549,0,0,0,0,0,0,0,0,0,0
1684044869.50032306,103728492,1582,1583,1553,1550,0,0,0,0,0,0,0,0,0,0
1684044869.60028315,103828452,1580,1582,1555,1553,0,0,0,0,0,0,0,0,0,0
1684044869.70024300,103928412,1577,1579,1555,1555,0,0,0,0,0,0,0,0,0,0
1684044869.80020308,104028372,1575,1578,1555,1556,0,0,0,0,0,0,0,0,0,0
1684044869.90016294,104128332,1575,1577,1555,1556,0,0,0,0,0,0,0,0,0,0
1684044870.00012302,104228292,1576,1577,1554,1554,0,0,0,0,0,0,0,0,0,0
1684044870.10008311,104328252,1579,1579,1553,1553,0,0,0,0,0,0,0,0,0,0
1684044870.20004296,104428212,1580,1581,1550,1550,0,0,0,0,0,0,0,0,0,0
1684044870.30000305,104528172,1583,1583,1548,1547,0,0,0,0,0,0,0,0,0,0
1684044870.40079594,104628965,1586,1587,1546,1546,0,0,0,0,0,0,0,0,0,0
1684044870.50075603,104728925,1588,1590,1543,1543,0,0,0,0,0,0,0,0,0,0
1684044870.60071611,104828885,1591,1593,1541,1541,0,0,0,0,0,0,0,0,0,0
1684044870.70067596,104928845,1594,1594,1539,1540,0,0,0,0,0,0,0,0,0,0
1684044870.80063605,105028805,1596,1595,1540,1542,0,0,0,0,0,0,0,0,0,0
1684044870.90059614,105128765,1594,1591,1543,1545,0,0,0,0,0,0,0,0,0,0
1684044871.00055599,105228725,1591,1587,1550,1552,0,0,0,0,0,0,0,0,0,0
1684044871.10051608,105328685,1584,1580,1558,1560,0,0,0,0,0,0,0,0,0,0
1684044871.20047593,105428645,1574,1570,1568,1570,0,0,0,0,0,0,0,0,0,0
1684044871.30043602,105528605,1565,1561,1580,1581,0,0,0,0,0,0,0,0,0,0
1684044871.40039611,105628565,1554,1551,1590,1590,0,0,0,0,0,0,0,0,0,0
1684044871.50035596,105728525,1545,1544,1598,1598,0,0,0,0,0,0,0,0,0,0
1684044871.60031605,105828485,1542,1543,1605,1604,0,0,0,0,0,0,0,0,0,0
1684044871.70027614,105928445,1541,1542,1607,1606,0,0,0,0,0,0,0,0,0,0
1684044871.80023599,106028405,1543,1545,1608,1607,0,0,0,0,0,0,0,0,0,0
1684044871.90019608,106128365,1546,1547,1606,1605,0,0,0,0,0,0,0,0,0,0
1684044872.00015593,106228325,1550,1551,1603,1602,0,0,0,0,0,0,0,0,0,0
1684044872.10011601,106328285,1555,1555,1600,1599,0,0,0,0,0,0,0,0,0,0
1684044872.20007610,106428245,1559,1560,1596,1595,0,0,0,0,0,0,0,0,0,0
1684044872.30003595,106528205,1564,1564,1591,1590,0,0,0,0,0,0,0,0,0,0
1684044872.39999604,106628165,1570,1569,1587,1587,0,0,0,0,0,0,0,0,0,0
1684044872.50078893,106728958,1573,1573,1582,1582,0,0,0,0,0,0,0,0,0,0
1684044872.60074902,106828918,1577,1577,1578,1578,0,0,0,0,0,0,0,0,0,0
1684044872.70070910,106928878,1580,1579,1573,1574,0,0,0,0,0,0,0,0,0,0
1684044872.80066895,107028838,1583,1582,1571,1571,0,0,0,0,0,0,0,0,0,0
1684044872.90062904,107128798,1584,1583,1570,1570,0,0,0,0,0,0,0,0,0,0
1684044873.00058913,107228758,1584,1583,1570,1570,0,0,0,0,0,0,0,0,0,0
1684044873.10054898,107328718,1583,1582,1570,1570,0,0,0,0,0,0,0,0,0,0
1684044873.20050907,107428678,1581,1581,1572,1572,0,0,0,0,0,0,0,0,0,0
1684044873.30046892,107528638,1580,1580,1575,1574,0,0,0,0,0,0,0,0,0,0
1684044873.40042901,107628598,1577,1577,1577,1577,0,0,0,0,0,0,0,0,0,0
1684044873.50038910,107728558,1576,1576,1579,1579,0,0,0,0,0,0,0,0,0,0
1684044873.60034895,107828518,1574,1575,1580,1581,0,0,0,0,0,0,0,0,0,0
1684044873.70030904,107928478,1575,1575,1583,1583,0,0,0,0,0,0,0,0,0,0
1684044873.80026913,108028438,1574,1575,1583,1583,0,0,0,0,0,0,0,0,0,0
1684044873.90022898,108128398,1574,1574,1582,1583,0,0,0,0,0,0,0,0,0,0
1684044874.00018907,108228358,1575,1575,1582,1582,0,0,0,0,0,0,0,0,0,0
1684044874.10014915,108328318,1576,1577,1582,1583,0,0,0,0,0,0,0,0,0,0
1684044874.20010900,108428278,1577,1578,1582,1581,0,0,0,0,0,0,0,0,0,0
1684044874.30006909,108528238,1578,1578,1580,1580,0,0,0,0,0,0,0,0,0,0
1684044874.40002894,108628198,1580,1580,1580,1580,0,0,0,0,0,0,0,0,0,0
1684044874.49998903,108728158,1581,1581,1579,1580,0,0,0,0,0,0,0,0,0,0
1684044874.60078192,108828951,1581,1581,1579,1579,0,0,0,0,0,0,0,0,0,0
1684044874.70074201,108928911,1581,1581,1579,1579,0,0,0,0,0,0,0,0,0,0
1684044874.80070210,109028871,1582,1582,1579,1579,0,0,0,0,0,0,0,0,0,0
1684044874.90066195,109128831,1581,1581,1579,1578,0,0,0,0,0,0,0,0,0,0
1684044875.00062203,109228791,1580,1581,1579,1579,0,0,0,0,0,0,0,0,0,0
1684044875.10058212,109328751,1580,1580,1579,1580,0,0,0,0,0,0,0,0,0,0
1684044875.20054197,109428711,1581,1580,1580,1580,0,0,0,0,0,0,0,0,0,0
1684044875.30050206,109528671,1580,1580,1580,1580,0,0,0,0,0,0,0,0,0,0
1684044875.40046215,109628631,1580,1580,1581,1580,0,0,0,0,0,0,0,0,0,0
1684044875.50042200,109728591,1579,1580,1581,1581,0,0,0,0,0,0,0,0,0,0
1684044875.60038209,109828551,1579,1579,1580,1581,0,0,0,0,0,0,0,0,0,0
1684044875.70034194,109928511,1579,1580,1581,1581,0,0,0,0,0,0,0,0,0,0
1684044875.80030203,110028471,1580,1580,1581,1581,0,0,0,0,0,0,0,0,0,0
1684044875.90026212,110128431,1580,1580,1581,1581,0,0,0,0,0,0,0,0,0,0
1684044876.00022197,110228391,1580,1580,1581,1581,0,0,0,0,0,0,0,0,0,0
1684044876.10018206,110328351,1581,1581,1581,1581,0,0,0,0,0,0,0,0,0,0
1684044876.20014215,110428311,1581,1581,1581,1581,0,0,0,0,0,0,0,0,0,0
1684044876.30010200,110528271,1581,1581,1581,1581,0,0,0,0,0,0,0,0,0,0
1684044876.40006208,110628231,1582,1583,1582,1582,0,0,0,0,0,0,0,0,0,0
1684044876.50002193,110728191,1582,1582,1581,1581,0,0,0,0,0,0,0,0,0,0
1684044876.60081506,110828984,1581,1582,1585,1577,0,0,0,0,0,0,0,0,0,0
1684044876.70077515,110928944,1580,1583,1587,1572,0,0,0,0,0,0,0,0,0,0
1684044876.80073500,111028904,1579,1583,1580,1572,0,0,0,0,0,0,0,0,0,0
1684044876.90069509,111128864,1579,1582,1571,1572,0,0,0,0,0,0,0,0,0,0
1684044877.00065494,111228824,1578,1580,1563,1569,0,0,0,0,0,0,0,0,0,0
1684044877.10061502,111328784,1578,1579,1557,1564,0,0,0,0,0,0,0,0,0,0
1684044877.20057511,111428744,1579,1578,1554,1559,0,0,0,0,0,0,0,0,0,0
1684044877.30053496,111528704,1581,1579,1554,1556,0,0,0,0,0,0,0,0,0,0
1684044877.40049505,111628664,1581,1579,1555,1553,0,0,0,0,0,0,0,0,0,0
1684044877.50045514,111728624,1579,1579,1555,1552,0,0,0,0,0,0,0,0,0,0
1684044877.60041499,111828584,1578,1578,1555,1552,0,0,0,0,0,0,0,0,0,0
1684044877.70037508,111928544,1577,1578,1555,1553,0,0,0,0,0,0,0,0,0,0
1684044877.80033493,112028504,1576,1578,1555,1554,0,0,0,0,0,0,0,0,0,0
1684044877.90029502,112128464,1575,1576,1553,1553,0,0,0,0,0,0,0,0,0,0
1684044878.00025511,112228424,1575,1577,1552,1553,0,0,0,0,0,0,0,0,0,0
1684044878.10021496,112328384,1577,1578,1551,1552,0,0,0,0,0,0,0,0,0,0
1684044878.20017505,112428344,1579,1581,1551,1551,0,0,0,0,0,0,0,0,0,0
1684044878.30013514,112528304,1581,1581,1547,1547,0,0,0,0,0,0,0,0,0,0
1684044878.40009499,112628264,1584,1584,1545,1545,0,0,0,0,0,0,0,0,0,0
1684044878.50005507,112728224,1587,1587,1544,1543,0,0,0,0,0,0,0,0,0,0
1684044878.60001493,112828184,1589,1590,1541,1541,0,0,0,0,0,0,0,0,0,0
1684044878.70080805,112928977,1591,1592,1539,1540,0,0,0,0,0,0,0,0,0,0
1684044878.80076814,113028937,1592,1594,1537,1538,0,0,0,0,0,0,0,0,0,0
1684044878.90072799,113128897,1594,1595,1536,1538,0,0,0,0,0,0,0,0,0,0
1684044879.00068808,113228857,1594,1594,1538,1539,0,0,0,0,0,0,0,0,0,0
1684044879.10064793,113328817,1594,1592,1542,1544,0,0,0,0,0,0,0,0,0,0
1684044879.20060802,113428777,1589,1586,1547,1550,0,0,0,0,0,0,0,0,0,0
1684044879.30056810,113528737,1583,1579,1556,1559,0,0,0,0,0,0,0,0,0,0
1684044879.40052795,113628697,1574,1569,1567,1569,0,0,0,0,0,0,0,0,0,0
1684044879.50048804,113728657,1563,1559,1579,1581,0,0,0,0,0,0,0,0,0,0
1684044879.60044813,113828617,1551,1549,1590,1591,0,0,0,0,0,0,0,0,0,0
1684044879.70040798,113928577,1542,1541,1601,1601,0,0,0,0,0,0,0,0,0,0
1684044879.80036807,114028537,1535,1536,1608,1608,0,0,0,0,0,0,0,0,0,0
1684044879.90032792,114128497,1534,1535,1613,1612,0,0,0,0,0,0,0,0,0,0
1684044880.00028801,114228457,1536,1538,1613,1612,0,0,0,0,0,0,0,0,0,0
1684044880.10024810,114328417,1540,1542,1610,1610,0,0,0,0,0,0,0,0,0,0
1684044880.20020795,114428377,1547,1548,1606,1606,0,0,0,0,0,0,0,0,0,0
1684044880.30016804,114528337,1553,1553,1600,1600,0,0,0,0,0,0,0,0,0,0
1684044880.40012813,114628297,1560,1561,1595,1594,0,0,0,0,0,0,0,0,0,0
1684044880.50008798,114728257,1567,1566,1587,1587,0,0,0,0,0,0,0,0,0,0
1684044880.60004807,114828217,1573,1573,1581,1580,0,0,0,0,0,0,0,0,0,0
1684044880.70000815,114928177,1579,1578,1575,1575,0,0,0,0,0,0,0,0,0,0
1684044880.80080104,115028970,1583,1582,1571,1571,0,0,0,0,0,0,0,0,0,0
1684044880.90076113,115128930,1586,1584,1569,1570,0,0,0,0,0,0,0,0,0,0
1684044881.00072098,115228890,1586,1584,1568,1568,0,0,0,0,0,0,0,0,0,0
1684044881.10068107,115328850,1585,1584,1569,1569,0,0,0,0,0,0,0,0,0,0
1684044881.20064092,115428810,1583,1582,1570,1571,0,0,0,0,0,0,0,0,0,0
1684044881.30060101,115528770,1581,1581,1573,1573,0,0,0,0,0,0,0,0,0,0
1684044881.40056109,115628730,1578,1578,1575,1575,0,0,0,0,0,0,0,0,0,0
1684044881.50052094,115728690,1576,1576,1578,1578,0,0,0,0,0,0,0,0,0,0
1684044881.60048103,115828650,1573,1574,1579,1579,0,0,0,0,0,0,0,0,0,0
1684044881.70044112,115928610,1573,1573,1581,1581,0,0,0,0,0,0,0,0,0,0
1684044881.80040097,116028570,1572,1573,1582,1582,0,0,0,0,0,0,0,0,0,0
1684044881.90036106,116128530,1574,1574,1584,1583,0,0,0,0,0,0,0,0,0,0
1684044882.00032115,116228490,1574,1574,1583,1583,0,0,0,0,0,0,0,0,0,0
1684044882.10028100,116328450,1575,1576,1583,1583,0,0,0,0,0,0,0,0,0,0
1684044882.20024109,116428410,1576,1577,1582,1582,0,0,0,0,0,0,0,0,0,0
1684044882.30020094,116528370,1577,1578,1581,1581,0,0,0,0,0,0,0,0,0,0
1684044882.40016103,116628330,1580,1579,1580,1580,0,0,0,0,0,0,0,0,0,0
1684044882.50012112,116728290,1580,1579,1578,1579,0,0,0,0,0,0,0,0,0,0
1684044882.60008097,116828250,1581,1580,1578,1578,0,0,0,0,0,0,0,0,0,0
1684044882.70004106,116928210,1581,1581,1578,1578,0,0,0,0,0,0,0,0,0,0
1684044882.80000114,117028170,1580,1580,1576,1577,0,0,0,0,0,0,0,0,0,0
1684044882.90079403,117128963,1580,1580,1577,1577,0,0,0,0,0,0,0,0,0,0
1684044883.00075412,117228923,1581,1580,1578,1578,0,0,0,0,0,0,0,0,0,0
1684044883.10071397,117328883,1580,1580,1578,1578,0,0,0,0,0,0,0,0,0,0
1684044883.20067406,117428843,1580,1579,1579,1578,0,0,0,0,0,0,0,0,0,0
1684044883.30063415,117528803,1580,1580,1580,1580,0,0,0,0,0,0,0,0,0,0
1684044883.40059400,117628763,1579,1580,1580,1580,0,0,0,0,0,0,0,0,0,0
1684044883.50055408,117728723,1580,1580,1581,1581,0,0,0,0,0,0,0,0,0,0
1684044883.60051394,117828683,1579,1579,1581,1581,0,0,0,0,0,0,0,0,0,0
1684044883.70047402,117928643,1580,1580,1582,1582,0,0,0,0,0,0,0,0,0,0
1684044883.80043411,118028603,1580,1580,1581,1581,0,0,0,0,0,0,0,0,0,0
1684044883.90039396,118128563,1580,1581,1581,1582,0,0,0,0,0,0,0,0,0,0
1684044884.00035405,118228523,1580,1579,1580,1581,0,0,0,0,0,0,0,0,0,0
1684044884.10031414,118328483,1580,1580,1581,1581,0,0,0,0,0,0,0,0,0,0
1684044884.20027399,118428443,1581,1581,1581,1581,0,0,0,0,0,0,0,0,0,0
1684044884.30023408,118528403,1580,1580,1580,1580,0,0,0,0,0,0,0,0,0,0
1684044884.40019393,118628363,1581,1582,1582,1580,0,0,0,0,0,0,0,0,0,0
1684044884.50015402,118728323,1582,1583,1588,1573,0,0,0,0,0,0,0,0,0,0
1684044884.60011411,118828283,1580,1581,1584,1573,0,0,0,0,0,0,0,0,0,0
1684044884.70007396,118928243,1578,1578,1578,1575,0,0,0,0,0,0,0,0,0,0
1684044884.80003405,119028203,1574,1574,1571,1576,0,0,0,0,0,0,0,0,0,0
1684044884.89999413,119128163,1570,1570,1566,1574,0,0,0,0,0,0,0,0,0,0
1684044885.00078702,119228956,1568,1568,1565,1572,0,0,0,0,0,0,0,0,0,0
1684044885.10074711,119328916,1567,1567,1565,1569,0,0,0,0,0,0,0,0,0,0
1684044885.20070696,119428876,1566,1566,1566,1566,0,0,0,0,0,0,0,0,0,0
1684044885.30066705,119528836,1567,1566,1567,1565,0,0,0,0,0,0,0,0,0,0
1684044885.40062714,119628796,1566,1565,1567,1564,0,0,0,0,0,0,0,0,0,0
1684044885.50058699,119728756,1565,1566,1567,1565,0,0,0,0,0,0,0,0,0,0
1684044885.60054708,119828716,1564,1565,1565,1564,0,0,0,0,0,0,0,0,0,0
1684044885.70050693,119928676,1564,1564,1564,1564,0,0,0,0,0,0,0,0,0,0
1684044885.80046701,120028636,1562,1562,1563,1562,0,0,0,0,0,0,0,0,0,0
1684044885.90042710,120128596,1561,1561,1561,1562,0,0,0,0,0,0,0,0,0,0
1684044886.00038695,120228556,1560,1561,1560,1561,0,0,0,0,0,0,0,0,0,0
1684044886.10034704,120328516,1561,1561,1561,1561,0,0,0,0,0,0,0,0,0,0
1684044886.20030713,120428476,1562,1562,1562,1561,0,0,0,0,0,0,0,0,0,0
1684044886.30026698,120528436,1561,1561,1561,1560,0,0,0,0,0,0,0,0,0,0
1684044886.40022707,120628396,1559,1559,1559,1558,0,0,0,0,0,0,0,0,0,0
1684044886.50018692,120728356,1557,1558,1558,1557,0,0,0,0,0,0,0,0,0,0
1684044886.60014701,120828316,1557,1556,1557,1556,0,0,0,0,0,0,0,0,0,0
1684044886.70010710,120928276,1556,1556,1557,1556,0,0,0,0,0,0,0,0,0,0
1684044886.80006695,121028236,1555,1556,1556,1555,0,0,0,0,0,0,0,0,0,0
1684044886.90002704,121128196,1556,1557,1557,1556,0,0,0,0,0,0,0,0,0,0
1684044886.99998713,121228156,1558,1557,1558,1556,0,0,0,0,0,0,0,0,0,0
1684044887.10078001,121328949,1557,1557,1558,1556,0,0,0,0,0,0,0,0,0,0
1684044887.20074010,121428909,1558,1558,1559,1557,0,0,0,0,0,0,0,0,0,0
1684044887.30069995,121528869,1560,1559,1558,1560,0,0,0,0,0,0,0,0,0,0
1684044887.40066004,121628829,1560,1560,1557,1562,0,0,0,0,0,0,0,0,0,0
1684044887.50062013,121728789,1561,1561,1557,1564,0,0,0,0,0,0,0,0,0,0
1684044887.60057998,121828749,1562,1562,1559,1564,0,0,0,0,0,0,0,0,0,0
1684044887.70054007,121928709,1563,1563,1561,1564,0,0,0,0,0,0,0,0,0,0
1684044887.80050015,122028669,1562,1563,1563,1561,0,0,0,0,0,0,0,0,0,0
1684044887.90046000,122128629,1563,1563,1563,1564,0,0,0,0,0,0,0,0,0,0
1684044888.00042009,122228589,1558,1559,1559,1559,0,0,0,0,0,0,0,0,0,0
1684044888.10037994,122328549,1555,1555,1555,1557,0,0,0,0,0,0,0,0,0,0
1684044888.20034003,122428509,1549,1548,1550,1551,0,0,0,0,0,0,0,0,0,0
1684044888.30030012,122528469,1543,1542,1544,1545,0,0,0,0,0,0,0,0,0,0
1684044888.40025997,122628429,1535,1535,1538,1537,0,0,0,0,0,0,0,0,0,0
1684044888.50022006,122728389,1526,1526,1529,1529,0,0,0,0,0,0,0,0,0,0
1684044888.60018015,122828349,1520,1521,1523,1523,0,0,0,0,0,0,0,0,0,0
1684044888.70014000,122928309,1519,1520,1520,1520,0,0,0,0,0,0,0,0,0,0
1684044888.80010009,123028269,1520,1520,1520,1519,0,0,0,0,0,0,0,0,0,0
1684044888.90005994,123128229,1523,1522,1520,1521,0,0,0,0,0,0,0,0,0,0
1684044889.00002003,123228189,1526,1526,1523,1523,0,0,0,0,0,0,0,0,0,0
1684044889.10081315,123328982,1531,1530,1526,1527,0,0,0,0,0,0,0,0,0,0
1684044889.20077300,123428942,1535,1535,1531,1532,0,0,0,0,0,0,0,0,0,0
1684044889.30073309,123528902,1539,1539,1536,1536,0,0,0,0,0,0,0,0,0,0
1684044889.40069294,123628862,1542,1542,1540,1539,0,0,0,0,0,0,0,0,0,0
1684044889.50065303,123728822,1542,1543,1541,1541,0,0,0,0,0,0,0,0,0,0
1684044889.60061312,123828782,1544,1544,1544,1544,0,0,0,0,0,0,0,0,0,0
1684044889.70057297,123928742,1545,1545,1546,1546,0,0,0,0,0,0,0,0,0,0
1684044889.80053306,124028702,1544,1544,1546,1546,0,0,0,0,0,0,0,0,0,0
1684044889.90049314,124128662,1546,1545,1547,1547,0,0,0,0,0,0,0,0,0,0
1684044890.00045300,124228622,1545,1545,1548,1547,0,0,0,0,0,0,0,0,0,0
1684044890.10041308,124328582,1545,1545,1547,1546,0,0,0,0,0,0,0,0,0,0
1684044890.20037293,124428542,1545,1546,1547,1547,0,0,0,0,0,0,0,0,0,0
1684044890.30033302,124528502,1545,1545,1547,1546,0,0,0,0,0,0,0,0,0,0
1684044890.40029311,124628462,1546,1546,1547,1546,0,0,0,0,0,0,0,0,0,0
1684044890.50025296,124728422,1546,1545,1546,1546,0,0,0,0,0,0,0,0,0,0
1684044890.60021305,124828382,1545,1545,1545,1545,0,0,0,0,0,0,0,0,0,0
1684044890.70017314,124928342,1544,1544,1544,1544,0,0,0,0,0,0,0,0,0,0
1684044890.80013299,125028302,1544,1545,1544,1544,0,0,0,0,0,0,0,0,0,0
1684044890.90009308,125128262,1545,1545,1544,1544,0,0,0,0,0,0,0,0,0,0
1684044891.00005293,125228222,1545,1545,1544,1544,0,0,0,0,0,0,0,0,0,0
1684044891.10001302,125328182,1546,1545,1544,1544,0,0,0,0,0,0,0,0,0,0
1684044891.20080614,125428975,1544,1545,1544,1544,0,0,0,0,0,0,0,0,0,0
1684044891.30076599,125528935,1544,1544,1544,1544,0,0,0,0,0,0,0,0,0,0
1684044891.40072608,125628895,1544,1544,1544,1544,0,0,0,0,0,0,0,0,0,0
1684044891.50068593,125728855,1544,1544,1544,1543,0,0,0,0,0,0,0,0,0,0
1684044891.60064602,125828815,1543,1543,1544,1544,0,0,0,0,0,0,0,0,0,0
1684044891.70060611,125928775,1544,1544,1544,1544,0,0,0,0,0,0,0,0,0,0
1684044891.80056596,126028735,1544,1544,1544,1544,0,0,0,0,0,0,0,0,0,0
1684044891.90052605,126128695,1544,1544,1544,1544,0,0,0,0,0,0,0,0,0,0
1684044892.00048614,126228655,1544,1544,1544,1544,0,0,0,0,0,0,0,0,0,0
1684044892.10044599,126328615,1545,1544,1544,1545,0,0,0,0,0,0,0,0,0,0
1684044892.20040607,126428575,1544,1544,1544,1544,0,0,0,0,0,0,0,0,0,0
1684044892.30036592,126528535,1544,1544,1544,1544,0,0,0,0,0,0,0,0,0,0
1684044892.40032601,126628495,1546,1545,1546,1545,0,0,0,0,0,0,0,0,0,0
1684044892.50028610,126728455,1545,1545,1545,1545,0,0,0,0,0,0,0,0,0,0
1684044892.60024595,126828415,1544,1545,1544,1545,0,0,0,0,0,0,0,0,0,0
1684044892.70020604,126928375,1544,1544,1544,1545,0,0,0,0,0,0,0,0,0,0
1684044892.80016613,127028335,1545,1545,1545,1545,0,0,0,0,0,0,0,0,0,0
1684044892.90012598,127128295,1545,1545,1545,1545,0,0,0,0,0,0,0,0,0,0
1684044893.00008607,127228255,1545,1545,1545,1544,0,0,0,0,0,0,0,0,0,0
1684044893.10004592,127328215,1543,1543,1543,1543,0,0,0,0,0,0,0,0,0,0
1684044893.20000601,127428175,1544,1544,1544,1544,0,0,0,0,0,0,0,0,0,0
1684044893.30079913,127528968,1544,1543,1544,1544,0,0,0,0,0,0,0,0,0,0
1684044893.40075898,127628928,1544,1544,1544,1544,0,0,0,0,0,0,0,0,0,0
1684044893.50071907,127728888,1545,1544,1544,1544,0,0,0,0,0,0,0,0,0,0
1684044893.60067892,127828848,1544,1545,1545,1544,0,0,0,0,0,0,0,0,0,0
1684044893.70063901,127928808,1544,1544,1544,1545,0,0,0,0,0,0,0,0,0,0
1684044893.80059910,128028768,1543,1544,1543,1543,0,0,0,0,0,0,0,0,0,0
1684044893.90055895,128128728,1544,1544,1544,1544,0,0,0,0,0,0,0,0,0,0
1684044894.00051904,128228688,1544,1544,1544,1544,0,0,0,0,0,0,0,0,0,0
1684044894.10047913,128328648,1544,1543,1543,1544,0,0,0,0,0,0,0,0,0,0
1684044894.20043898,128428608,1544,1544,1544,1544,0,0,0,0,0,0,0,0,0,0
1684044894.30039907,128528568,1544,1543,1544,1543,0,0,0,0,0,0,0,0,0,0
1684044894.40035915,128628528,1544,1544,1544,1544,0,0,0,0,0,0,0,0,0,0
1684044894.50031900,128728488,1544,1544,1544,1544,0,0,0,0,0,0,0,0,0,0
1684044894.60027909,128828448,1544,1544,1544,1544,0,0,0,0,0,0,0,0,0,0
1684044894.70023894,128928408,1544,1543,1543,1543,0,0,0,0,0,0,0,0,0,0
1684044894.80019903,129028368,1543,1544,1544,1544,0,0,0,0,0,0,0,0,0,0
1684044894.90015912,129128328,1544,1544,1544,1545,0,0,0,0,0,0,0,0,0,0
1684044895.00011897,129228288,1544,1544,1544,1543,0,0,0,0,0,0,0,0,0,0
1684044895.10007906,129328248,1545,1544,1545,1544,0,0,0,0,0,0,0,0,0,0
1684044895.20003915,129428208,1545,1545,1545,1545,0,0,0,0,0,0,0,0,0,0
1684044895.29999900,129528168,1544,1544,1544,1545,0,0,0,0,0,0,0,0,0,0
1684044895.40079212,129628961,1544,1545,1545,1545,0,0,0,0,0,0,0,0,0,0
1684044895.50075197,129728921,1545,1545,1544,1545,0,0,0,0,0,0,0,0,0,0
1684044895.60071206,129828881,1544,1544,1544,1544,0,0,0,0,0,0,0,0,0,0
1684044895.70067215,129928841,1544,1544,1544,1544,0,0,0,0,0,0,0,0,0,0
1684044895.80063200,130028801,1543,1543,1543,1544,0,0,0,0,0,0,0,0,0,0
1684044895.90059209,130128761,1545,1544,1545,1545,0,0,0,0,0,0,0,0,0,0
1684044896.00055194,130228721,1543,1545,1544,1544,0,0,0,0,0,0,0,0,0,0
1684044896.10051203,130328681,1544,1544,1544,1544,0,0,0,0,0,0,0,0,0,0
1684044896.20047212,130428641,1544,1544,1544,1544,0,0,0,0,0,0,0,0,0,0
1684044896.30043197,130528601,1545,1544,1544,1544,0,0,0,0,0,0,0,0,0,0
1684044896.40039206,130628561,1544,1544,1544,1544,0,0,0,0,0,0,0,0,0,0
1684044896.50035214,130728521,1545,1545,1545,1545,0,0,0,0,0,0,0,0,0,0
1684044896.60031199,130828481,1545,1546,1546,1545,0,0,0,0,0,0,0,0,0,0
1684044896.70027208,130928441,1544,1545,1544,1544,0,0,0,0,0,0,0,0,0,0
1684044896.80023193,131028401,1544,1544,1544,1544,0,0,0,0,0,0,0,0,0,0
1684044896.90019202,131128361,1543,1543,1543,1543,0,0,0,0,0,0,0,0,0,0
1684044897.00015211,131228321,1545,1545,1545,1545,0,0,0,0,0,0,0,0,0,0
1684044897.10011196,131328281,1544,1544,1544,1544,0,0,0,0,0,0,0,0,0,0
1684044897.20007205,131428241,1544,1544,1545,1544,0,0,0,0,0,0,0,0,0,0
1684044897.30003214,131528201,1544,1544,1544,1544,0,0,0,0,0,0,0,0,0,0
1684044897.39999199,131628161,1543,1544,1544,1544,0,0,0,0,0,0,0,0,0,0
1684044897.50078511,131728954,1544,1544,1544,1545,0,0,0,0,0,0,0,0,0,0
1684044897.60074496,131828914,1544,1544,1544,1544,0,0,0,0,0,0,0,0,0,0
1684044897.70070505,131928874,1545,1544,1544,1544,0,0,0,0,0,0,0,0,0,0
1684044897.80066514,132028834,1545,1545,1545,1545,0,0,0,0,0,0,0,0,0,0
1684044897.90062499,132128794,1545,1544,1544,1545,0,0,0,0,0,0,0,0,0,0
1684044898.00058508,132228754,1544,1545,1545,1545,0,0,0,0,0,0,0,0,0,0
1684044898.10054493,132328714,1545,1545,1545,1545,0,0,0,0,0,0,0,0,0,0
1684044898.20050502,132428674,1544,1545,1545,1544,0,0,0,0,0,0,0,0,0,0
1684044898.30046511,132528634,1543,1543,1543,1544,0,0,0,0,0,0,0,0,0,0
1684044898.40042496,132628594,1428,1428,1445,1444,0,0,0,0,0,0,0,0,0,0
1684044898.50038505,132728554,1248,1247,1303,1302,0,0,0,0,0,0,0,0,0,0
1684044898.60034513,132828514,1247,1247,1304,1301,0,0,0,0,0,0,0,0,0,0
1684044898.70030499,132928474,1247,1247,1303,1301,0,0,0,0,0,0,0,0,0,0
1684044898.80026507,133028434,1247,1247,1303,1301,0,0,0,0,0,0,0,0,0,0
1684044898.90022492,133128394,1247,1247,1303,1301,0,0,0,0,0,0,0,0,0,0
1684044899.00018501,133228354,1247,1248,1304,1301,0,0,0,0,0,0,0,0,0,0
1684044899.10014510,133328314,1285,1247,1285,1316,0,0,0,0,0,0,0,0,0,0
1684044899.20010495,133428274,1271,1247,1297,1315,0,0,0,0,0,0,0,0,0,0
1684044899.30006504,133528234,1265,1247,1302,1315,0,0,0,0,0,0,0,0,0,0
1684044899.40002513,133628194,1264,1247,1302,1315,0,0,0,0,0,0,0,0,0,0
1684044899.49998498,133728154,1265,1247,1302,1315,0,0,0,0,0,0,0,0,0,0
1684044899.60077810,133828947,1266,1247,1301,1315,0,0,0,0,0,0,0,0,0,0
1684044899.70073795,133928907,1267,1247,1300,1315,0,0,0,0,0,0,0,0,0,0
1684044899.80069804,134028867,1266,1247,1300,1315,0,0,0,0,0,0,0,0,0,0
1684044899.90065813,134128827,1248,1247,1302,1303,0,0,0,0,0,0,0,0,0,0
1684044900.00061798,134228787,1250,1247,1302,1304,0,0,0,0,0,0,0,0,0,0
1684044900.10057807,134328747,1251,1247,1302,1305,0,0,0,0,0,0,0,0,0,0
1684044900.20053792,134428707,1252,1247,1302,1306,0,0,0,0,0,0,0,0,0,0
1684044900.30049801,134528667,1250,1247,1249,1252,0,0,0,0,0,0,0,0,0,0
1684044900.40045810,134628627,1000,1000,1000,1000,0,0,0,0,0,0,0,0,0,0
1684044900.50041795,134728587,1000,1000,1000,1000,0,0,0,0,0,0,0,0,0,0
1684044900.60037804,134828547,1000,1000,1000,1000,0,0,0,0,0,0,0,0,0,0
1684044900.70033813,134928507,1000,1000,1000,1000,0,0,0,0,0,0,0,0,0,0
1684044900.80029798,135028467,1000,1000,1000,1000,0,0,0,0,0,0,0,0,0,0
1684044900.90025806,135128427,1000,1000,1000,1000,0,0,0,0,0,0,0,0,0,0
1684044901.00021815,135228387,1000,1000,1000,1000,0,0,0,0,0,0,0,0,0,0
1684044901.10017800,135328347,1000,1000,1000,1000,0,0,0,0,0,0,0,0,0,0
1684044901.20013809,135428307,1000,1000,1000,1000,0,0,0,0,0,0,0,0,0,0
1684044901.30009794,135528267,1000,1000,1000,1000,0,0,0,0,0,0,0,0,0,0
1684044901.40005803,135628227,1000,1000,1000,1000,0,0,0,0,0,0,0,0,0,0
1684044901.50001812,135728187,1000,1000,1000,1000,0,0,0,0,0,0,0,0,0,0
1684044901.60081100,135828980,1000,1000,1000,1000,0,0,0,0,0,0,0,0,0,0
1684044901.70077109,135928940,1000,1000,1000,1000,0,0,0,0,0,0,0,0,0,0
1684044901.80073094,136028900,1000,1000,1000,1000,0,0,0,0,0,0,0,0,0,0
1684044901.90069103,136128860,1000,1000,1000,1000,0,0,0,0,0,0,0,0,0,0
1684044902.00065112,136228820,1000,1000,1000,1000,0,0,0,0,0,0,0,0,0,0
1684044902.10061097,136328780,1000,1000,1000,1000,0,0,0,0,0,0,0,0,0,0
1684044902.20057106,136428740,1000,1000,1000,1000,0,0,0,0,0,0,0,0,0,0
1684044902.30053115,136528700,1000,1000,1000,1000,0,0,0,0,0,0,0,0,0,0
1684044902.40049100,136628660,1000,1000,1000,1000,0,0,0,0,0,0,0,0,0,0
1684044902.50045109,136728620,1000,1000,1000,1000,0,0,0,0,0,0,0,0,0,0
1684044902.60041094,136828580,1000,1000,1000,1000,0,0,0,0,0,0,0,0,0,0
1684044902.70037103,136928540,1000,1000,1000,1000,0,0,0,0,0,0,0,0,0,0
1684044902.80033112,137028500,1000,1000,1000,1000,0,0,0,0,0,0,0,0,0,0
1684044902.90029097,137128460,1000,1000,1000,1000,0,0,0,0,0,0,0,0,0,0
1684044903.00025105,137228420,1000,1000,1000,1000,0,0,0,0,0,0,0,0,0,0
1684044903.10021114,137328380,1000,1000,1000,1000,0,0,0,0,0,0,0,0,0,0
1684044903.20017099,137428340,1000,1000,1000,1000,0,0,0,0,0,0,0,0,0,0
1684044903.30013108,137528300,1000,1000,1000,1000,0,0,0,0,0,0,0,0,0,0
1684044903.40009093,137628260,1000,1000,1000,1000,0,0,0,0,0,0,0,0,0,0
1684044903.50005102,137728220,1000,1000,1000,1000,0,0,0,0,0,0,0,0,0,0
1684044903.60001111,137828180,1000,1000,1000,1000,0,0,0,0,0,0,0,0,0,0
1684044903.70080400,137928973,1000,1000,1000,1000,0,0,0,0,0,0,0,0,0,0
1684044903.80076408,138028933,1000,1000,1000,1000,0,0,0,0,0,0,0,0,0,0
1684044903.90072393,138128893,1000,1000,1000,1000,0,0,0,0,0,0,0,0,0,0
1684044904.00068402,138228853,1000,1000,1000,1000,0,0,0,0,0,0,0,0,0,0
1684044904.10064411,138328813,1000,1000,1000,1000,0,0,0,0,0,0,0,0,0,0
1684044904.20060396,138428773,1000,1000,1000,1000,0,0,0,0,0,0,0,0,0,0
1684044904.30056405,138528733,1000,1000,1000,1000,0,0,0,0,0,0,0,0,0,0
1684044904.40052414,138628693,1000,1000,1000,1000,0,0,0,0,0,0,0,0,0,0
1684044904.50048399,138728653,1000,1000,1000,1000,0,0,0,0,0,0,0,0,0,0
1684044904.60044408,138828613,1000,1000,1000,1000,0,0,0,0,0,0,0,0,0,0
1684044904.70040393,138928573,1000,1000,1000,1000,0,0,0,0,0,0,0,0,0,0
1684044904.80036402,139028533,1000,1000,1000,1000,0,0,0,0,0,0,0,0,0,0
1684044904.90032411,139128493,1000,1000,1000,1000,0,0,0,0,0,0,0,0,0,0
1684044905.00028396,139228453,1000,1000,1000,1000,0,0,0,0,0,0,0,0,0,0
1684044905.10024405,139328413,1000,1000,1000,1000,0,0,0,0,0,0,0,0,0,0
1684044905.20020413,139428373,1000,1000,1000,1000,0,0,0,0,0,0,0,0,0,0
1684044905.30016398,139528333,1000,1000,1000,1000,0,0,0,0,0,0,0,0,0,0
1684044905.40012407,139628293,1000,1000,1000,1000,0,0,0,0,0,0,0,0,0,0
1684044905.50008392,139728253,1000,1000,1000,1000,0,0,0,0,0,0,0,0,0,0
1684044905.60004401,139828213,1000,1000,1000,1000,0,0,0,0,0,0,0,0,0,0
1684044905.70000410,139928173,1000,1000,1000,1000,0,0,0,0,0,0,0,0,0,0
1684044905.80079699,140028966,1000,1000,1000,1000,0,0,0,0,0,0,0,0,0,0
1684044905.90075707,140128926,1000,1000,1000,1000,0,0,0,0,0,0,0,0,0,0
1684044906.00071692,140228886,1000,1000,1000,1000,0,0,0,0,0,0,0,0,0,0
1684044906.10067701,140328846,1000,1000,1000,1000,0,0,0,0,0,0,0,0,0,0
1684044906.20063710,140428806,1000,1000,1000,1000,0,0,0,0,0,0,0,0,0,0
1684044906.30059695,140528766,1000,1000,1000,1000,0,0,0,0,0,0,0,0,0,0
1684044906.40055704,140628726,1000,1000,1000,1000,0,0,0,0,0,0,0,0,0,0
1684044906.50051713,140728686,1000,1000,1000,1000,0,0,0,0,0,0,0,0,0,0
1684044906.60047698,140828646,1000,1000,1000,1000,0,0,0,0,0,0,0,0,0,0
1684044906.70043707,140928606,1000,1000,1000,1000,0,0,0,0,0,0,0,0,0,0
1684044906.80039692,141028566,1000,1000,1000,1000,0,0,0,0,0,0,0,0,0,0
1684044906.90035701,141128526,1000,1000,1000,1000,0,0,0,0,0,0,0,0,0,0
1684044907.00031710,141228486,1000,1000,1000,1000,0,0,0,0,0,0,0,0,0,0
1684044907.10027695,141328446,1000,1000,1000,1000,0,0,0,0,0,0,0,0,0,0
1684044907.20023704,141428406,1000,1000,1000,1000,0,0,0,0,0,0,0,0,0,0
1684044907.30019712,141528366,1000,1000,1000,1000,0,0,0,0,0,0,0,0,0,0
1684044907.40015697,141628326,1000,1000,1000,1000,0,0,0,0,0,0,0,0,0,0
1684044907.50011706,141728286,1000,1000,1000,1000,0,0,0,0,0,0,0,0,0,0
1684044907.60007715,141828246,1000,1000,1000,1000,0,0,0,0,0,0,0,0,0,0
1684044907.70003700,141928206,1000,1000,1000,1000,0,0,0,0,0,0,0,0,0,0
1684044907.79999709,142028166,1000,1000,1000,1000,0,0,0,0,0,0,0,0,0,0
1684044907.90078998,142128959,1000,1000,1000,1000,0,0,0,0,0,0,0,0,0,0
1684044908.00075006,142228919,1000,1000,1000,1000,0,0,0,0,0,0,0,0,0,0
1684044908.10071015,142328879,1000,1000,1000,1000,0,0,0,0,0,0,0,0,0,0
1684044908.20067000,142428839,1000,1000,1000,1000,0,0,0,0,0,0,0,0,0,0
1684044908.30063009,142528799,1000,1000,1000,1000,0,0,0,0,0,0,0,0,0,0
1684044908.40058994,142628759,1000,1000,1000,1000,0,0,0,0,0,0,0,0,0,0
1684044908.50055003,142728719,1000,1000,1000,1000,0,0,0,0,0,0,0,0,0,0
1684044908.60051012,142828679,1000,1000,1000,1000,0,0,0,0,0,0,0,0,0,0
1684044908.70046997,142928639,1000,1000,1000,1000,0,0,0,0,0,0,0,0,0,0
1684044908.80043006,143028599,1000,1000,1000,1000,0,0,0,0,0,0,0,0,0,0
1684044908.90039015,143128559,1000,1000,1000,1000,0,0,0,0,0,0,0,0,0,0
1684044909.00035000,143228519,1000,1000,1000,1000,0,0,0,0,0,0,0,0,0,0
1684044909.10031009,143328479,1000,1000,1000,1000,0,0,0,0,0,0,0,0,0,0
1684044909.20026994,143428439,1000,1000,1000,1000,0,0,0,0,0,0,0,0,0,0
1684044909.30023003,143528399,1000,1000,1000,1000,0,0,0,0,0,0,0,0,0,0
1684044909.40019011,143628359,1000,1000,1000,1000,0,0,0,0,0,0,0,0,0,0
1684044909.50014997,143728319,1000,1000,1000,1000,0,0,0,0,0,0,0,0,0,0
1684044909.60011005,143828279,1000,1000,1000,1000,0,0,0,0,0,0,0,0,0,0
1684044909.70007014,143928239,1000,1000,1000,1000,0,0,0,0,0,0,0,0,0,0
1684044909.80002999,144028199,1000,1000,1000,1000,0,0,0,0,0,0,0,0,0,0
1684044909.89999008,144128159,1000,1000,1000,1000,0,0,0,0,0,0,0,0,0,0
1684044910.00078297,144228952,1000,1000,1000,1000,0,0,0,0,0,0,0,0,0,0
1684044910.10074306,144328912,1000,1000,1000,1000,0,0,0,0,0,0,0,0,0,0
1684044910.20070314,144428872,1000,1000,1000,1000,0,0,0,0,0,0,0,0,0,0
1684044910.30066299,144528832,1000,1000,1000,1000,0,0,0,0,0,0,0,0,0,0
1684044910.40062308,144628792,1000,1000,1000,1000,0,0,0,0,0,0,0,0,0,0
1684044910.50058293,144728752,1000,1000,1000,1000,0,0,0,0,0,0,0,0,0,0
1684044910.60054302,144828712,1000,1000,1000,1000,0,0,0,0,0,0,0,0,0,0
1684044910.70050311,144928672,1000,1000,1000,1000,0,0,0,0,0,0,0,0,0,0
1684044910.80046296,145028632,1000,1000,1000,1000,0,0,0,0,0,0,0,0,0,0
1684044910.90042305,145128592,1000,1000,1000,1000,0,0,0,0,0,0,0,0,0,0
1684044911.00038314,145228552,1000,1000,1000,1000,0,0,0,0,0,0,0,0,0,0
1684044911.10034299,145328512,1000,1000,1000,1000,0,0,0,0,0,0,0,0,0,0
1684044911.20030308,145428472,1000,1000,1000,1000,0,0,0,0,0,0,0,0,0,0
1684044911.30026293,145528432,1000,1000,1000,1000,0,0,0,0,0,0,0,0,0,0
1684044911.40022302,145628392,1000,1000,1000,1000,0,0,0,0,0,0,0,0,0,0
1684044911.50018311,145728352,1000,1000,1000,1000,0,0,0,0,0,0,0,0,0,0
1684044911.60014296,145828312,1000,1000,1000,1000,0,0,0,0,0,0,0,0,0,0
1684044911.70010304,145928272,1000,1000,1000,1000,0,0,0,0,0,0,0,0,0,0
1684044911.80006313,146028232,1000,1000,1000,1000,0,0,0,0,0,0,0,0,0,0
1684044911.90002298,146128192,1000,1000,1000,1000,0,0,0,0,0,0,0,0,0,0
1684044912.00081611,146228985,1000,1000,1000,1000,0,0,0,0,0,0,0,0,0,0
1684044912.10077596,146328945,1000,1000,1000,1000,0,0,0,0,0,0,0,0,0,0
1684044912.20073605,146428905,1000,1000,1000,1000,0,0,0,0,0,0,0,0,0,0
1684044912.30069613,146528865,1000,1000,1000,1000,0,0,0,0,0,0,0,0,0,0
1684044912.40065598,146628825,1000,1000,1000,1000,0,0,0,0,0,0,0,0,0,0
1684044912.50061607,146728785,1000,1000,1000,1000,0,0,0,0,0,0,0,0,0,0
1684044912.60057592,146828745,1000,1000,1000,1000,0,0,0,0,0,0,0,0,0,0
1684044912.70053601,146928705,1000,1000,1000,1000,0,0,0,0,0,0,0,0,0,0
1684044912.80049610,147028665,1000,1000,1000,1000,0,0,0,0,0,0,0,0,0,0
1684044912.90045595,147128625,1000,1000,1000,1000,0,0,0,0,0,0,0,0,0,0
1684044913.00041604,147228585,1000,1000,1000,1000,0,0,0,0,0,0,0,0,0,0
1684044913.10037613,147328545,1000,1000,1000,1000,0,0,0,0,0,0,0,0,0,0
1684044913.20033598,147428505,1000,1000,1000,1000,0,0,0,0,0,0,0,0,0,0
1684044913.30029607,147528465,1000,1000,1000,1000,0,0,0,0,0,0,0,0,0,0
1684044913.40025592,147628425,1000,1000,1000,1000,0,0,0,0,0,0,0,0,0,0
1684044913.50021601,147728385,1000,1000,1000,1000,0,0,0,0,0,0,0,0,0,0
1684044913.60017610,147828345,1000,1000,1000,1000,0,0,0,0,0,0,0,0,0,0
1684044913.70013595,147928305,1000,1000,1000,1000,0,0,0,0,0,0,0,0,0,0
1684044913.80009604,148028265,1000,1000,1000,1000,0,0,0,0,0,0,0,0,0,0
1684044913.90005612,148128225,1000,1000,1000,1000,0,0,0,0,0,0,0,0,0,0
1684044914.00001597,148228185,1000,1000,1000,1000,0,0,0,0,0,0,0,0,0,0
1684044914.10080910,148328978,1000,1000,1000,1000,0,0,0,0,0,0,0,0,0,0
1684044914.20076895,148428938,1000,1000,1000,1000,0,0,0,0,0,0,0,0,0,0
1684044914.30072904,148528898,1000,1000,1000,1000,0,0,0,0,0,0,0,0,0,0
1684044914.40068913,148628858,1000,1000,1000,1000,0,0,0,0,0,0,0,0,0,0
1684044914.50064898,148728818,1000,1000,1000,1000,0,0,0,0,0,0,0,0,0,0
1684044914.60060906,148828778,1000,1000,1000,1000,0,0,0,0,0,0,0,0,0,0
1684044914.70056915,148928738,1000,1000,1000,1000,0,0,0,0,0,0,0,0,0,0
1684044914.80052900,149028698,1000,1000,1000,1000,0,0,0,0,0,0,0,0,0,0
1684044914.90048909,149128658,1000,1000,1000,1000,0,0,0,0,0,0,0,0,0,0
1684044915.00044894,149228618,1000,1000,1000,1000,0,0,0,0,0,0,0,0,0,0
1684044915.10040903,149328578,1000,1000,1000,1000,0,0,0,0,0,0,0,0,0,0
1684044915.20036912,149428538,1000,1000,1000,1000,0,0,0,0,0,0,0,0,0,0
1684044915.30032897,149528498,1000,1000,1000,1000,0,0,0,0,0,0,0,0,0,0
