timestamp,TimeUS,C1,C2,C3,C4,C5,C6,C7,C8,C9,C10,C11,C12,C13,C14
1683128974.90003991,42928655,1000,1000,1000,1000,0,0,0,0,0,0,0,0,0,0
1683128975.00000000,43028615,1000,1000,1000,1000,0,0,0,0,0,0,0,0,0,0
1683128975.09996009,43128575,1000,1000,1000,1000,0,0,0,0,0,0,0,0,0,0
1683128975.19991994,43228535,1000,1000,1000,1000,0,0,0,0,0,0,0,0,0,0
1683128975.29988003,43328495,1000,1000,1000,1000,0,0,0,0,0,0,0,0,0,0
1683128975.39984012,43428455,1000,1000,1000,1000,0,0,0,0,0,0,0,0,0,0
1683128975.49979997,43528415,1000,1000,1000,1000,0,0,0,0,0,0,0,0,0,0
1683128975.59976006,43628375,1000,1000,1000,1000,0,0,0,0,0,0,0,0,0,0
1683128975.69971991,43728335,1000,1000,1000,1000,0,0,0,0,0,0,0,0,0,0
1683128975.79967999,43828295,1000,1000,1000,1000,0,0,0,0,0,0,0,0,0,0
1683128975.89964008,43928255,1000,1000,1000,1000,0,0,0,0,0,0,0,0,0,0
1683128975.99959993,44028215,1000,1000,1000,1000,0,0,0,0,0,0,0,0,0,0
1683128976.09956002,44128175,1000,1000,1000,1000,0,0,0,0,0,0,0,0,0,0
1683128976.20035291,44228968,1000,1000,1000,1000,0,0,0,0,0,0,0,0,0,0
1683128976.30031300,44328928,1000,1000,1000,1000,0,0,0,0,0,0,0,0,0,0
1683128976.40027308,44428888,1000,1000,1000,1000,0,0,0,0,0,0,0,0,0,0
1683128976.50023293,44528848,1000,1000,1000,1000,0,0,0,0,0,0,0,0,0,0
1683128976.60019302,44628808,1000,1000,1000,1000,0,0,0,0,0,0,0,0,0,0
1683128976.70015311,44728768,1000,1000,1000,1000,0,0,0,0,0,0,0,0,0,0
1683128976.80011296,44828728,1000,1000,1000,1000,0,0,0,0,0,0,0,0,0,0
1683128976.90007305,44928688,1003,1003,1003,1003,0,0,0,0,0,0,0,0,0,0
1683128977.00003290,45028648,1033,1033,1033,1033,0,0,0,0,0,0,0,0,0,0
1683128977.09999299,45128608,1063,1063,1063,1063,0,0,0,0,0,0,0,0,0,0
1683128977.19995308,45228568,1093,1093,1093,1093,0,0,0,0,0,0,0,0,0,0
1683128977.29991293,45328528,1122,1122,1122,1122,0,0,0,0,0,0,0,0,0,0
1683128977.39987302,45428488,1177,1169,1170,1178,0,0,0,0,0,0,0,0,0,0
1683128977.49983311,45528448,1419,1414,1414,1420,0,0,0,0,0,0,0,0,0,0
1683128977.59979296,45628408,1595,1590,1591,1595,0,0,0,0,0,0,0,0,0,0
1683128977.69975305,45728368,1740,1735,1736,1740,0,0,0,0,0,0,0,0,0,0
1683128977.79971290,45828328,1866,1862,1862,1866,0,0,0,0,0,0,0,0,0,0
1683128977.89967299,45928288,1917,1914,1914,1918,0,0,0,0,0,0,0,0,0,0
1683128977.99963307,46028248,1805,1804,1802,1807,0,0,0,0,0,0,0,0,0,0
1683128978.09959292,46128208,1682,1682,1681,1683,0,0,0,0,0,0,0,0,0,0
1683128978.19955301,46228168,1624,1624,1624,1624,0,0,0,0,0,0,0,0,0,0
1683128978.30034590,46328961,1614,1615,1616,1614,0,0,0,0,0,0,0,0,0,0
1683128978.40030599,46428921,1619,1621,1621,1619,0,0,0,0,0,0,0,0,0,0
1683128978.50026608,46528881,1620,1621,1621,1620,0,0,0,0,0,0,0,0,0,0
1683128978.60022593,46628841,1614,1614,1614,1614,0,0,0,0,0,0,0,0,0,0
1683128978.70018601,46728801,1610,1609,1609,1610,0,0,0,0,0,0,0,0,0,0
1683128978.80014610,46828761,1608,1607,1606,1608,0,0,0,0,0,0,0,0,0,0
1683128978.90010595,46928721,1609,1609,1608,1609,0,0,0,0,0,0,0,0,0,0
1683128979.00006604,47028681,1611,1611,1611,1611,0,0,0,0,0,0,0,0,0,0
1683128979.10002589,47128641,1613,1614,1615,1612,0,0,0,0,0,0,0,0,0,0
1683128979.19998598,47228601,1617,1617,1618,1615,0,0,0,0,0,0,0,0,0,0
1683128979.29994607,47328561,1584,1585,1591,1578,0,0,0,0,0,0,0,0,0,0
1683128979.39990592,47428521,1570,1571,1576,1565,0,0,0,0,0,0,0,0,0,0
1683128979.49986601,47528481,1560,1560,1561,1559,0,0,0,0,0,0,0,0,0,0
1683128979.59982610,47628441,1551,1551,1545,1556,0,0,0,0,0,0,0,0,0,0
1683128979.69978595,47728401,1543,1543,1535,1552,0,0,0,0,0,0,0,0,0,0
1683128979.79974604,47828361,1536,1536,1529,1543,0,0,0,0,0,0,0,0,0,0
1683128979.89970589,47928321,1531,1531,1527,1535,0,0,0,0,0,0,0,0,0,0
1683128979.99966598,48028281,1527,1527,1526,1528,0,0,0,0,0,0,0,0,0,0
1683128980.09962606,48128241,1528,1528,1529,1527,0,0,0,0,0,0,0,0,0,0
1683128980.19958591,48228201,1529,1530,1532,1527,0,0,0,0,0,0,0,0,0,0
1683128980.29954600,48328161,1534,1533,1537,1531,0,0,0,0,0,0,0,0,0,0
1683128980.40033889,48428954,1536,1537,1540,1534,0,0,0,0,0,0,0,0,0,0
1683128980.50029898,48528914,1540,1540,1542,1538,0,0,0,0,0,0,0,0,0,0
1683128980.60025907,48628874,1543,1543,1544,1543,0,0,0,0,0,0,0,0,0,0
1683128980.70021892,48728834,1547,1546,1546,1547,0,0,0,0,0,0,0,0,0,0
1683128980.80017900,48828794,1549,1549,1549,1550,0,0,0,0,0,0,0,0,0,0
1683128980.90013909,48928754,1553,1552,1552,1553,0,0,0,0,0,0,0,0,0,0
1683128981.00009894,49028714,1554,1554,1553,1555,0,0,0,0,0,0,0,0,0,0
1683128981.10005903,49128674,1550,1550,1561,1564,0,0,0,0,0,0,0,0,0,0
1683128981.20001912,49228634,1552,1553,1564,1566,0,0,0,0,0,0,0,0,0,0
1683128981.29997897,49328594,1556,1557,1564,1564,0,0,0,0,0,0,0,0,0,0
1683128981.39993906,49428554,1561,1561,1565,1564,0,0,0,0,0,0,0,0,0,0
1683128981.49989891,49528514,1563,1563,1563,1562,0,0,0,0,0,0,0,0,0,0
1683128981.59985900,49628474,1568,1568,1564,1563,0,0,0,0,0,0,0,0,0,0
1683128981.69981909,49728434,1571,1570,1564,1564,0,0,0,0,0,0,0,0,0,0
1683128981.79977894,49828394,1572,1572,1565,1565,0,0,0,0,0,0,0,0,0,0
1683128981.89973903,49928354,1573,1573,1566,1566,0,0,0,0,0,0,0,0,0,0
1683128981.99969912,50028314,1574,1573,1567,1567,0,0,0,0,0,0,0,0,0,0
1683128982.09965897,50128274,1574,1574,1569,1569,0,0,0,0,0,0,0,0,0,0
1683128982.19961905,50228234,1573,1573,1570,1570,0,0,0,0,0,0,0,0,0,0
1683128982.29957891,50328194,1573,1573,1571,1572,0,0,0,0,0,0,0,0,0,0
1683128982.39953899,50428154,1572,1573,1573,1573,0,0,0,0,0,0,0,0,0,0
1683128982.50033212,50528947,1574,1574,1576,1575,0,0,0,0,0,0,0,0,0,0
1683128982.60029197,50628907,1574,1574,1577,1576,0,0,0,0,0,0,0,0,0,0
1683128982.70025206,50728867,1573,1573,1576,1575,0,0,0,0,0,0,0,0,0,0
1683128982.80021191,50828827,1573,1573,1576,1576,0,0,0,0,0,0,0,0,0,0
1683128982.90017200,50928787,1574,1574,1577,1577,0,0,0,0,0,0,0,0,0,0
1683128983.00013208,51028747,1574,1575,1577,1577,0,0,0,0,0,0,0,0,0,0
1683128983.10009193,51128707,1575,1575,1577,1577,0,0,0,0,0,0,0,0,0,0
1683128983.20005202,51228667,1575,1576,1577,1577,0,0,0,0,0,0,0,0,0,0
1683128983.30001211,51328627,1577,1576,1577,1577,0,0,0,0,0,0,0,0,0,0
1683128983.39997196,51428587,1577,1577,1576,1576,0,0,0,0,0,0,0,0,0,0
1683128983.49993205,51528547,1577,1576,1576,1576,0,0,0,0,0,0,0,0,0,0
1683128983.59989190,51628507,1577,1577,1576,1575,0,0,0,0,0,0,0,0,0,0
1683128983.69985199,51728467,1578,1578,1576,1577,0,0,0,0,0,0,0,0,0,0
1683128983.79981208,51828427,1579,1579,1577,1577,0,0,0,0,0,0,0,0,0,0
1683128983.89977193,51928387,1579,1579,1578,1578,0,0,0,0,0,0,0,0,0,0
1683128983.99973202,52028347,1579,1579,1578,1578,0,0,0,0,0,0,0,0,0,0
1683128984.09969211,52128307,1580,1580,1579,1579,0,0,0,0,0,0,0,0,0,0
1683128984.19965196,52228267,1579,1579,1579,1579,0,0,0,0,0,0,0,0,0,0
1683128984.29961205,52328227,1578,1578,1578,1578,0,0,0,0,0,0,0,0,0,0
1683128984.39957190,52428187,1579,1578,1579,1579,0,0,0,0,0,0,0,0,0,0
1683128984.50036502,52528980,1578,1577,1578,1578,0,0,0,0,0,0,0,0,0,0
1683128984.60032511,52628940,1579,1578,1579,1579,0,0,0,0,0,0,0,0,0,0
1683128984.70028496,52728900,1578,1578,1579,1579,0,0,0,0,0,0,0,0,0,0
1683128984.80024505,52828860,1579,1579,1580,1580,0,0,0,0,0,0,0,0,0,0
1683128984.90020490,52928820,1580,1580,1580,1580,0,0,0,0,0,0,0,0,0,0
1683128985.00016499,53028780,1580,1580,1580,1580,0,0,0,0,0,0,0,0,0,0
1683128985.10012507,53128740,1580,1580,1580,1580,0,0,0,0,0,0,0,0,0,0
1683128985.20008492,53228700,1579,1579,1579,1580,0,0,0,0,0,0,0,0,0,0
1683128985.30004501,53328660,1580,1580,1580,1580,0,0,0,0,0,0,0,0,0,0
1683128985.40000510,53428620,1580,1580,1580,1580,0,0,0,0,0,0,0,0,0,0
1683128985.49996495,53528580,1580,1580,1579,1580,0,0,0,0,0,0,0,0,0,0
1683128985.59992504,53628540,1580,1580,1580,1580,0,0,0,0,0,0,0,0,0,0
1683128985.69988489,53728500,1580,1580,1580,1579,0,0,0,0,0,0,0,0,0,0
1683128985.79984498,53828460,1579,1579,1579,1579,0,0,0,0,0,0,0,0,0,0
1683128985.89980507,53928420,1580,1581,1580,1580,0,0,0,0,0,0,0,0,0,0
1683128985.99976492,54028380,1580,1581,1580,1580,0,0,0,0,0,0,0,0,0,0
1683128986.09972501,54128340,1581,1581,1580,1581,0,0,0,0,0,0,0,0,0,0
1683128986.19968510,54228300,1580,1580,1580,1580,0,0,0,0,0,0,0,0,0,0
1683128986.29964495,54328260,1580,1580,1580,1580,0,0,0,0,0,0,0,0,0,0
1683128986.39960504,54428220,1580,1580,1580,1580,0,0,0,0,0,0,0,0,0,0
1683128986.49956489,54528180,1581,1581,1581,1581,0,0,0,0,0,0,0,0,0,0
1683128986.60035801,54628973,1581,1581,1581,1581,0,0,0,0,0,0,0,0,0,0
1683128986.70031810,54728933,1581,1581,1581,1581,0,0,0,0,0,0,0,0,0,0
1683128986.80027795,54828893,1581,1581,1581,1581,0,0,0,0,0,0,0,0,0,0
1683128986.90023804,54928853,1582,1582,1581,1582,0,0,0,0,0,0,0,0,0,0
1683128987.00019789,55028813,1582,1582,1582,1582,0,0,0,0,0,0,0,0,0,0
1683128987.10015798,55128773,1582,1582,1582,1582,0,0,0,0,0,0,0,0,0,0
1683128987.20011806,55228733,1581,1582,1582,1581,0,0,0,0,0,0,0,0,0,0
1683128987.30007792,55328693,1581,1582,1588,1574,0,0,0,0,0,0,0,0,0,0
1683128987.40003800,55428653,1579,1582,1585,1573,0,0,0,0,0,0,0,0,0,0
1683128987.49999809,55528613,1579,1582,1577,1574,0,0,0,0,0,0,0,0,0,0
1683128987.59995794,55628573,1577,1579,1567,1571,0,0,0,0,0,0,0,0,0,0
1683128987.69991803,55728533,1576,1578,1560,1567,0,0,0,0,0,0,0,0,0,0
1683128987.79987812,55828493,1577,1577,1556,1562,0,0,0,0,0,0,0,0,0,0
1683128987.89983797,55928453,1578,1577,1554,1558,0,0,0,0,0,0,0,0,0,0
1683128987.99979806,56028413,1579,1578,1555,1555,0,0,0,0,0,0,0,0,0,0
1683128988.09975791,56128373,1578,1576,1554,1553,0,0,0,0,0,0,0,0,0,0
1683128988.19971800,56228333,1577,1577,1556,1553,0,0,0,0,0,0,0,0,0,0
1683128988.29967809,56328293,1576,1577,1556,1553,0,0,0,0,0,0,0,0,0,0
1683128988.39963794,56428253,1575,1577,1555,1554,0,0,0,0,0,0,0,0,0,0
1683128988.49959803,56528213,1574,1576,1554,1553,0,0,0,0,0,0,0,0,0,0
1683128988.59955812,56628173,1574,1575,1552,1552,0,0,0,0,0,0,0,0,0,0
1683128988.70035100,56728966,1575,1576,1551,1552,0,0,0,0,0,0,0,0,0,0
1683128988.80031109,56828926,1577,1578,1551,1550,0,0,0,0,0,0,0,0,0,0
1683128988.90027094,56928886,1579,1580,1548,1548,0,0,0,0,0,0,0,0,0,0
1683128989.00023103,57028846,1581,1582,1546,1545,0,0,0,0,0,0,0,0,0,0
1683128989.10019112,57128806,1584,1584,1543,1543,0,0,0,0,0,0,0,0,0,0
1683128989.20015097,57228766,1586,1588,1540,1540,0,0,0,0,0,0,0,0,0,0
1683128989.30011106,57328726,1590,1591,1538,1538,0,0,0,0,0,0,0,0,0,0
1683128989.40007091,57428686,1593,1593,1535,1536,0,0,0,0,0,0,0,0,0,0
1683128989.50003099,57528646,1595,1595,1535,1536,0,0,0,0,0,0,0,0,0,0
1683128989.59999108,57628606,1594,1595,1535,1536,0,0,0,0,0,0,0,0,0,0
1683128989.69995093,57728566,1594,1594,1536,1539,0,0,0,0,0,0,0,0,0,0
1683128989.79991102,57828526,1593,1592,1539,1542,0,0,0,0,0,0,0,0,0,0
1683128989.89987111,57928486,1589,1587,1544,1548,0,0,0,0,0,0,0,0,0,0
1683128989.99983096,58028446,1582,1580,1552,1554,0,0,0,0,0,0,0,0,0,0
1683128990.09979105,58128406,1575,1572,1563,1565,0,0,0,0,0,0,0,0,0,0
1683128990.19975090,58228366,1565,1561,1575,1576,0,0,0,0,0,0,0,0,0,0
1683128990.29971099,58328326,1555,1551,1588,1589,0,0,0,0,0,0,0,0,0,0
1683128990.39967108,58428286,1543,1541,1598,1598,0,0,0,0,0,0,0,0,0,0
1683128990.49963093,58528246,1536,1535,1608,1607,0,0,0,0,0,0,0,0,0,0
1683128990.59959102,58628206,1531,1532,1614,1613,0,0,0,0,0,0,0,0,0,0
1683128990.69955111,58728166,1529,1531,1615,1615,0,0,0,0,0,0,0,0,0,0
1683128990.80034399,58828959,1531,1533,1613,1612,0,0,0,0,0,0,0,0,0,0
1683128990.90030408,58928919,1537,1539,1609,1609,0,0,0,0,0,0,0,0,0,0
1683128991.00026393,59028879,1546,1547,1603,1604,0,0,0,0,0,0,0,0,0,0
1683128991.10022402,59128839,1553,1554,1596,1596,0,0,0,0,0,0,0,0,0,0
1683128991.20018411,59228799,1562,1562,1588,1588,0,0,0,0,0,0,0,0,0,0
1683128991.30014396,59328759,1570,1570,1582,1580,0,0,0,0,0,0,0,0,0,0
1683128991.40010405,59428719,1578,1577,1576,1574,0,0,0,0,0,0,0,0,0,0
1683128991.50006390,59528679,1583,1582,1571,1570,0,0,0,0,0,0,0,0,0,0
1683128991.60002398,59628639,1586,1584,1567,1567,0,0,0,0,0,0,0,0,0,0
1683128991.69998407,59728599,1587,1585,1566,1566,0,0,0,0,0,0,0,0,0,0
1683128991.79994392,59828559,1587,1586,1566,1567,0,0,0,0,0,0,0,0,0,0
1683128991.89990401,59928519,1585,1585,1568,1568,0,0,0,0,0,0,0,0,0,0
1683128991.99986410,60028479,1584,1583,1571,1571,0,0,0,0,0,0,0,0,0,0
1683128992.09982395,60128439,1580,1580,1573,1573,0,0,0,0,0,0,0,0,0,0
1683128992.19978404,60228399,1577,1577,1576,1575,0,0,0,0,0,0,0,0,0,0
1683128992.29974389,60328359,1574,1575,1579,1578,0,0,0,0,0,0,0,0,0,0
1683128992.39970398,60428319,1573,1574,1581,1581,0,0,0,0,0,0,0,0,0,0
1683128992.49966407,60528279,1571,1572,1582,1581,0,0,0,0,0,0,0,0,0,0
1683128992.59962392,60628239,1572,1572,1583,1583,0,0,0,0,0,0,0,0,0,0
1683128992.69958401,60728199,1572,1573,1584,1584,0,0,0,0,0,0,0,0,0,0
1683128992.79954410,60828159,1573,1574,1583,1583,0,0,0,0,0,0,0,0,0,0
1683128992.90033698,60928952,1264,1266,1623,1629,0,0,0,0,0,0,0,0,0,0
1683128993.00029707,61028912,1363,1371,1659,1667,0,0,0,0,0,0,0,0,0,0
1683128993.10025692,61128872,1437,1447,1651,1649,0,0,0,0,0,0,0,0,0,0
1683128993.20021701,61228832,1501,1510,1638,1629,0,0,0,0,0,0,0,0,0,0
1683128993.30017710,61328792,1552,1555,1630,1618,0,0,0,0,0,0,0,0,0,0
1683128993.40013695,61428752,1588,1574,1608,1598,0,0,0,0,0,0,0,0,0,0
1683128993.50009704,61528712,1588,1569,1532,1535,0,0,0,0,0,0,0,0,0,0
1683128993.60005689,61628672,1588,1573,1468,1484,0,0,0,0,0,0,0,0,0,0
1683128993.70001698,61728632,1588,1585,1472,1487,0,0,0,0,0,0,0,0,0,0
1683128993.79997706,61828592,1581,1588,1489,1495,0,0,0,0,0,0,0,0,0,0
1683128993.89993691,61928552,1577,1588,1509,1507,0,0,0,0,0,0,0,0,0,0
1683128993.99989700,62028512,1579,1588,1529,1523,0,0,0,0,0,0,0,0,0,0
1683128994.09985709,62128472,1584,1588,1545,1540,0,0,0,0,0,0,0,0,0,0
1683128994.19981694,62228432,1588,1587,1555,1553,0,0,0,0,0,0,0,0,0,0
1683128994.29977703,62328392,1588,1584,1558,1559,0,0,0,0,0,0,0,0,0,0
1683128994.39973712,62428352,1588,1584,1561,1563,0,0,0,0,0,0,0,0,0,0
1683128994.49969697,62528312,1588,1581,1566,1561,0,0,0,0,0,0,0,0,0,0
1683128994.59965706,62628272,1588,1580,1570,1566,0,0,0,0,0,0,0,0,0,0
1683128994.69961691,62728232,1588,1582,1572,1572,0,0,0,0,0,0,0,0,0,0
1683128994.79957700,62828192,1588,1584,1575,1576,0,0,0,0,0,0,0,0,0,0
1683128994.90037012,62928985,1588,1584,1574,1577,0,0,0,0,0,0,0,0,0,0
1683128995.00032997,63028945,1588,1587,1575,1578,0,0,0,0,0,0,0,0,0,0
1683128995.10029006,63128905,1585,1588,1575,1576,0,0,0,0,0,0,0,0,0,0
1683128995.20024991,63228865,1582,1588,1571,1574,0,0,0,0,0,0,0,0,0,0
1683128995.30021000,63328825,1580,1588,1572,1572,0,0,0,0,0,0,0,0,0,0
1683128995.40017009,63428785,1582,1588,1574,1571,0,0,0,0,0,0,0,0,0,0
1683128995.50012994,63528745,1584,1588,1576,1572,0,0,0,0,0,0,0,0,0,0
1683128995.60009003,63628705,1586,1588,1577,1574,0,0,0,0,0,0,0,0,0,0
1683128995.70005012,63728665,1588,1587,1577,1574,0,0,0,0,0,0,0,0,0,0
1683128995.80000997,63828625,1588,1587,1575,1574,0,0,0,0,0,0,0,0,0,0
1683128995.89997005,63928585,1588,1587,1575,1574,0,0,0,0,0,0,0,0,0,0
1683128995.99992990,64028545,1588,1585,1571,1573,0,0,0,0,0,0,0,0,0,0
1683128996.09988999,64128505,1588,1587,1571,1573,0,0,0,0,0,0,0,0,0,0
1683128996.19985008,64228465,1587,1588,1572,1573,0,0,0,0,0,0,0,0,0,0
1683128996.29980993,64328425,1586,1588,1572,1572,0,0,0,0,0,0,0,0,0,0
1683128996.39977002,64428385,1587,1588,1573,1572,0,0,0,0,0,0,0,0,0,0
1683128996.49973011,64528345,1587,1588,1573,1572,0,0,0,0,0,0,0,0,0,0
1683128996.59968996,64628305,1588,1587,1573,1572,0,0,0,0,0,0,0,0,0,0
1683128996.69965005,64728265,1587,1588,1572,1572,0,0,0,0,0,0,0,0,0,0
1683128996.79960990,64828225,1588,1587,1572,1572,0,0,0,0,0,0,0,0,0,0
1683128996.89956999,64928185,1588,1584,1573,1566,0,0,0,0,0,0,0,0,0,0
1683128997.00036311,65028978,1588,1582,1571,1566,0,0,0,0,0,0,0,0,0,0
1683128997.10032296,65128938,1588,1581,1568,1567,0,0,0,0,0,0,0,0,0,0
1683128997.20028305,65228898,1588,1582,1567,1569,0,0,0,0,0,0,0,0,0,0
1683128997.30024290,65328858,1588,1585,1568,1571,0,0,0,0,0,0,0,0,0,0
1683128997.40020299,65428818,1587,1588,1570,1571,0,0,0,0,0,0,0,0,0,0
1683128997.50016308,65528778,1586,1588,1569,1568,0,0,0,0,0,0,0,0,0,0
1683128997.60012293,65628738,1585,1588,1570,1567,0,0,0,0,0,0,0,0,0,0
1683128997.70008302,65728698,1586,1588,1571,1567,0,0,0,0,0,0,0,0,0,0
1683128997.80004311,65828658,1587,1588,1571,1567,0,0,0,0,0,0,0,0,0,0
1683128997.90000296,65928618,1588,1587,1569,1567,0,0,0,0,0,0,0,0,0,0
1683128997.99996305,66028578,1588,1587,1568,1568,0,0,0,0,0,0,0,0,0,0
1683128998.09992290,66128538,1588,1587,1568,1569,0,0,0,0,0,0,0,0,0,0
1683128998.19988298,66228498,1587,1588,1567,1569,0,0,0,0,0,0,0,0,0,0
1683128998.29984307,66328458,1586,1588,1566,1569,0,0,0,0,0,0,0,0,0,0
1683128998.39980292,66428418,1585,1588,1566,1568,0,0,0,0,0,0,0,0,0,0
1683128998.49976301,66528378,1584,1588,1566,1568,0,0,0,0,0,0,0,0,0,0
1683128998.59972310,66628338,1584,1588,1566,1567,0,0,0,0,0,0,0,0,0,0
1683128998.69968295,66728298,1584,1588,1566,1567,0,0,0,0,0,0,0,0,0,0
1683128998.79964304,66828258,1585,1588,1566,1567,0,0,0,0,0,0,0,0,0,0
1683128998.89960289,66928218,1586,1588,1566,1567,0,0,0,0,0,0,0,0,0,0
1683128998.99956298,67028178,1587,1588,1565,1566,0,0,0,0,0,0,0,0,0,0
1683128999.10035610,67128971,1587,1588,1565,1566,0,0,0,0,0,0,0,0,0,0
1683128999.20031595,67228931,1587,1588,1564,1565,0,0,0,0,0,0,0,0,0,0
1683128999.30027604,67328891,1588,1587,1563,1563,0,0,0,0,0,0,0,0,0,0
1683128999.40023589,67428851,1583,1583,1556,1557,0,0,0,0,0,0,0,0,0,0
1683128999.50019598,67528811,1579,1580,1550,1551,0,0,0,0,0,0,0,0,0,0
1683128999.60015607,67628771,1576,1577,1547,1548,0,0,0,0,0,0,0,0,0,0
1683128999.70011592,67728731,1575,1575,1546,1546,0,0,0,0,0,0,0,0,0,0
1683128999.80007601,67828691,1575,1575,1546,1546,0,0,0,0,0,0,0,0,0,0
1683128999.90003610,67928651,1575,1574,1546,1546,0,0,0,0,0,0,0,0,0,0
1683128999.99999595,68028611,1575,1574,1547,1547,0,0,0,0,0,0,0,0,0,0
1683129000.09995604,68128571,1576,1575,1549,1550,0,0,0,0,0,0,0,0,0,0
1683129000.19991589,68228531,1576,1576,1550,1551,0,0,0,0,0,0,0,0,0,0
1683129000.29987597,68328491,1577,1577,1554,1553,0,0,0,0,0,0,0,0,0,0
1683129000.39983606,68428451,1578,1577,1555,1556,0,0,0,0,0,0,0,0,0,0
1683129000.49979591,68528411,1579,1579,1558,1558,0,0,0,0,0,0,0,0,0,0
1683129000.59975600,68628371,1580,1580,1560,1561,0,0,0,0,0,0,0,0,0,0
1683129000.69971609,68728331,1582,1582,1562,1562,0,0,0,0,0,0,0,0,0,0
1683129000.79967594,68828291,1582,1582,1563,1563,0,0,0,0,0,0,0,0,0,0
1683129000.89963603,68928251,1584,1583,1565,1565,0,0,0,0,0,0,0,0,0,0
1683129000.99959612,69028211,1586,1585,1568,1567,0,0,0,0,0,0,0,0,0,0
1683129001.09955597,69128171,1587,1580,1573,1571,0,0,0,0,0,0,0,0,0,0
1683129001.20034909,69228964,1572,1562,1595,1594,0,0,0,0,0,0,0,0,0,0
1683129001.30030894,69328924,1554,1546,1611,1612,0,0,0,0,0,0,0,0,0,0
1683129001.40026903,69428884,1541,1538,1617,1620,0,0,0,0,0,0,0,0,0,0
1683129001.50022912,69528844,1532,1536,1618,1621,0,0,0,0,0,0,0,0,0,0
1683129001.60018897,69628804,1529,1537,1617,1618,0,0,0,0,0,0,0,0,0,0
1683129001.70014906,69728764,1530,1541,1615,1615,0,0,0,0,0,0,0,0,0,0
1683129001.80010891,69828724,1535,1545,1612,1609,0,0,0,0,0,0,0,0,0,0
1683129001.90006900,69928684,1543,1550,1607,1604,0,0,0,0,0,0,0,0,0,0
1683129002.00002909,70028644,1552,1555,1601,1598,0,0,0,0,0,0,0,0,0,0
1683129002.09998894,70128604,1560,1559,1593,1591,0,0,0,0,0,0,0,0,0,0
1683129002.19994903,70228564,1568,1565,1586,1586,0,0,0,0,0,0,0,0,0,0
1683129002.29990911,70328524,1573,1569,1578,1579,0,0,0,0,0,0,0,0,0,0
1683129002.39986897,70428484,1578,1574,1575,1576,0,0,0,0,0,0,0,0,0,0
1683129002.49982905,70528444,1581,1579,1572,1573,0,0,0,0,0,0,0,0,0,0
1683129002.59978890,70628404,1584,1583,1571,1572,0,0,0,0,0,0,0,0,0,0
1683129002.69974899,70728364,1585,1585,1569,1569,0,0,0,0,0,0,0,0,0,0
1683129002.79970908,70828324,1587,1587,1570,1570,0,0,0,0,0,0,0,0,0,0
1683129002.89966893,70928284,1587,1588,1570,1569,0,0,0,0,0,0,0,0,0,0
1683129002.99962902,71028244,1588,1587,1570,1569,0,0,0,0,0,0,0,0,0,0
1683129003.09958911,71128204,1588,1587,1570,1570,0,0,0,0,0,0,0,0,0,0
1683129003.19954896,71228164,1588,1587,1571,1571,0,0,0,0,0,0,0,0,0,0
1683129003.30034208,71328957,1588,1586,1572,1573,0,0,0,0,0,0,0,0,0,0
1683129003.40030193,71428917,1588,1587,1574,1575,0,0,0,0,0,0,0,0,0,0
1683129003.50026202,71528877,1586,1586,1575,1576,0,0,0,0,0,0,0,0,0,0
1683129003.60022211,71628837,1584,1585,1575,1576,0,0,0,0,0,0,0,0,0,0
1683129003.70018196,71728797,1583,1584,1575,1576,0,0,0,0,0,0,0,0,0,0
1683129003.80014205,71828757,1582,1583,1577,1577,0,0,0,0,0,0,0,0,0,0
1683129003.90010190,71928717,1582,1582,1578,1577,0,0,0,0,0,0,0,0,0,0
1683129004.00006199,72028677,1582,1581,1579,1578,0,0,0,0,0,0,0,0,0,0
1683129004.10002208,72128637,1581,1581,1580,1580,0,0,0,0,0,0,0,0,0,0
1683129004.19998193,72228597,1581,1580,1580,1580,0,0,0,0,0,0,0,0,0,0
1683129004.29994202,72328557,1580,1580,1580,1580,0,0,0,0,0,0,0,0,0,0
1683129004.39990211,72428517,1579,1579,1581,1581,0,0,0,0,0,0,0,0,0,0
1683129004.49986196,72528477,1579,1579,1581,1581,0,0,0,0,0,0,0,0,0,0
1683129004.59982204,72628437,1578,1579,1581,1581,0,0,0,0,0,0,0,0,0,0
1683129004.69978189,72728397,1578,1579,1581,1581,0,0,0,0,0,0,0,0,0,0
1683129004.79974198,72828357,1578,1578,1580,1580,0,0,0,0,0,0,0,0,0,0
1683129004.89970207,72928317,1578,1578,1580,1581,0,0,0,0,0,0,0,0,0,0
1683129004.99966192,73028277,1578,1578,1580,1580,0,0,0,0,0,0,0,0,0,0
1683129005.09962201,73128237,1579,1579,1581,1581,0,0,0,0,0,0,0,0,0,0
1683129005.19958210,73228197,1580,1580,1587,1576,0,0,0,0,0,0,0,0,0,0
1683129005.29954195,73328157,1580,1579,1586,1573,0,0,0,0,0,0,0,0,0,0
1683129005.40033507,73428950,1579,1578,1579,1573,0,0,0,0,0,0,0,0,0,0
1683129005.50029492,73528910,1578,1577,1570,1572,0,0,0,0,0,0,0,0,0,0
1683129005.60025501,73628870,1576,1577,1563,1569,0,0,0,0,0,0,0,0,0,0
1683129005.70021510,73728830,1575,1577,1559,1565,0,0,0,0,0,0,0,0,0,0
1683129005.80017495,73828790,1574,1576,1557,1561,0,0,0,0,0,0,0,0,0,0
1683129005.90013504,73928750,1574,1576,1557,1558,0,0,0,0,0,0,0,0,0,0
1683129006.00009489,74028710,1574,1575,1557,1556,0,0,0,0,0,0,0,0,0,0
1683129006.10005498,74128670,1575,1575,1557,1555,0,0,0,0,0,0,0,0,0,0
1683129006.20001507,74228630,1575,1575,1556,1554,0,0,0,0,0,0,0,0,0,0
1683129006.29997492,74328590,1575,1574,1555,1553,0,0,0,0,0,0,0,0,0,0
1683129006.39993501,74428550,1575,1575,1554,1553,0,0,0,0,0,0,0,0,0,0
1683129006.49989510,74528510,1575,1575,1552,1552,0,0,0,0,0,0,0,0,0,0
1683129006.59985495,74628470,1574,1576,1550,1551,0,0,0,0,0,0,0,0,0,0
1683129006.69981503,74728430,1575,1576,1549,1549,0,0,0,0,0,0,0,0,0,0
1683129006.79977489,74828390,1576,1578,1549,1549,0,0,0,0,0,0,0,0,0,0
1683129006.89973497,74928350,1577,1579,1548,1547,0,0,0,0,0,0,0,0,0,0
1683129006.99969506,75028310,1579,1579,1545,1544,0,0,0,0,0,0,0,0,0,0
1683129007.09965491,75128270,1581,1582,1544,1543,0,0,0,0,0,0,0,0,0,0
1683129007.19961500,75228230,1582,1583,1541,1541,0,0,0,0,0,0,0,0,0,0
1683129007.29957509,75328190,1585,1585,1541,1541,0,0,0,0,0,0,0,0,0,0
1683129007.40036798,75428983,1587,1587,1539,1540,0,0,0,0,0,0,0,0,0,0
1683129007.50032806,75528943,1588,1587,1537,1539,0,0,0,0,0,0,0,0,0,0
1683129007.60028791,75628903,1587,1588,1538,1539,0,0,0,0,0,0,0,0,0,0
1683129007.70024800,75728863,1588,1587,1540,1542,0,0,0,0,0,0,0,0,0,0
1683129007.80020809,75828823,1588,1587,1545,1547,0,0,0,0,0,0,0,0,0,0
1683129007.90016794,75928783,1587,1587,1550,1552,0,0,0,0,0,0,0,0,0,0
1683129008.00012803,76028743,1583,1583,1553,1556,0,0,0,0,0,0,0,0,0,0
1683129008.10008812,76128703,1579,1578,1557,1560,0,0,0,0,0,0,0,0,0,0
1683129008.20004797,76228663,1575,1573,1564,1567,0,0,0,0,0,0,0,0,0,0
1683129008.30000806,76328623,1569,1566,1571,1573,0,0,0,0,0,0,0,0,0,0
1683129008.39996791,76428583,1562,1559,1579,1580,0,0,0,0,0,0,0,0,0,0
1683129008.49992800,76528543,1556,1553,1588,1588,0,0,0,0,0,0,0,0,0,0
1683129008.59988809,76628503,1547,1546,1595,1595,0,0,0,0,0,0,0,0,0,0
1683129008.69984794,76728463,1540,1540,1603,1602,0,0,0,0,0,0,0,0,0,0
1683129008.79980803,76828423,1535,1535,1607,1606,0,0,0,0,0,0,0,0,0,0
1683129008.89976811,76928383,1532,1534,1609,1608,0,0,0,0,0,0,0,0,0,0
1683129008.99972796,77028343,1533,1535,1608,1607,0,0,0,0,0,0,0,0,0,0
1683129009.09968805,77128303,1536,1538,1604,1604,0,0,0,0,0,0,0,0,0,0
1683129009.19964790,77228263,1541,1544,1599,1599,0,0,0,0,0,0,0,0,0,0
1683129009.29960799,77328223,1549,1550,1593,1593,0,0,0,0,0,0,0,0,0,0
1683129009.39956808,77428183,1557,1558,1587,1586,0,0,0,0,0,0,0,0,0,0
1683129009.50036097,77528976,1565,1565,1581,1579,0,0,0,0,0,0,0,0,0,0
1683129009.60032105,77628936,1573,1571,1576,1575,0,0,0,0,0,0,0,0,0,0
1683129009.70028090,77728896,1579,1577,1571,1570,0,0,0,0,0,0,0,0,0,0
1683129009.80024099,77828856,1584,1582,1568,1568,0,0,0,0,0,0,0,0,0,0
1683129009.90020108,77928816,1587,1585,1567,1567,0,0,0,0,0,0,0,0,0,0
1683129010.00016093,78028776,1588,1587,1567,1566,0,0,0,0,0,0,0,0,0,0
1683129010.10012102,78128736,1588,1587,1568,1567,0,0,0,0,0,0,0,0,0,0
1683129010.20008111,78228696,1588,1587,1570,1570,0,0,0,0,0,0,0,0,0,0
1683129010.30004096,78328656,1586,1586,1571,1572,0,0,0,0,0,0,0,0,0,0
1683129010.40000105,78428616,1585,1584,1572,1574,0,0,0,0,0,0,0,0,0,0
1683129010.49996090,78528576,1583,1583,1574,1576,0,0,0,0,0,0,0,0,0,0
1683129010.59992099,78628536,1581,1581,1576,1577,0,0,0,0,0,0,0,0,0,0
1683129010.69988108,78728496,1579,1579,1578,1578,0,0,0,0,0,0,0,0,0,0
1683129010.79984093,78828456,1577,1578,1580,1580,0,0,0,0,0,0,0,0,0,0
1683129010.89980102,78928416,1576,1577,1581,1581,0,0,0,0,0,0,0,0,0,0
1683129010.99976110,79028376,1575,1577,1583,1582,0,0,0,0,0,0,0,0,0,0
1683129011.09972095,79128336,1575,1575,1584,1583,0,0,0,0,0,0,0,0,0,0
1683129011.19968104,79228296,1574,1575,1583,1583,0,0,0,0,0,0,0,0,0,0
1683129011.29964089,79328256,1575,1575,1583,1583,0,0,0,0,0,0,0,0,0,0
1683129011.39960098,79428216,1575,1575,1583,1583,0,0,0,0,0,0,0,0,0,0
1683129011.49956107,79528176,1576,1576,1582,1582,0,0,0,0,0,0,0,0,0,0
1683129011.60035396,79628969,1577,1578,1582,1582,0,0,0,0,0,0,0,0,0,0
1683129011.70031404,79728929,1578,1578,1580,1580,0,0,0,0,0,0,0,0,0,0
1683129011.80027390,79828889,1579,1579,1579,1579,0,0,0,0,0,0,0,0,0,0
1683129011.90023398,79928849,1580,1581,1579,1579,0,0,0,0,0,0,0,0,0,0
1683129012.00019407,80028809,1581,1581,1579,1579,0,0,0,0,0,0,0,0,0,0
1683129012.10015392,80128769,1582,1582,1578,1579,0,0,0,0,0,0,0,0,0,0
1683129012.20011401,80228729,1583,1583,1579,1579,0,0,0,0,0,0,0,0,0,0
1683129012.30007410,80328689,1583,1583,1579,1579,0,0,0,0,0,0,0,0,0,0
1683129012.40003395,80428649,1582,1582,1579,1578,0,0,0,0,0,0,0,0,0,0
1683129012.49999404,80528609,1582,1582,1579,1579,0,0,0,0,0,0,0,0,0,0
1683129012.59995389,80628569,1582,1582,1579,1579,0,0,0,0,0,0,0,0,0,0
1683129012.69991398,80728529,1581,1581,1579,1579,0,0,0,0,0,0,0,0,0,0
1683129012.79987407,80828489,1582,1582,1581,1581,0,0,0,0,0,0,0,0,0,0
1683129012.89983392,80928449,1581,1581,1580,1580,0,0,0,0,0,0,0,0,0,0
1683129012.99979401,81028409,1580,1581,1581,1581,0,0,0,0,0,0,0,0,0,0
1683129013.09975410,81128369,1581,1581,1582,1582,0,0,0,0,0,0,0,0,0,0
1683129013.19971395,81228329,1581,1581,1582,1582,0,0,0,0,0,0,0,0,0,0
1683129013.29967403,81328289,1581,1581,1582,1583,0,0,0,0,0,0,0,0,0,0
1683129013.39963388,81428249,1581,1581,1583,1583,0,0,0,0,0,0,0,0,0,0
1683129013.49959397,81528209,1581,1581,1587,1577,0,0,0,0,0,0,0,0,0,0
1683129013.59955406,81628169,1581,1580,1588,1574,0,0,0,0,0,0,0,0,0,0
1683129013.70034695,81728962,1580,1578,1581,1575,0,0,0,0,0,0,0,0,0,0
1683129013.80030704,81828922,1577,1575,1573,1575,0,0,0,0,0,0,0,0,0,0
1683129013.90026689,81928882,1573,1572,1566,1573,0,0,0,0,0,0,0,0,0,0
1683129014.00022697,82028842,1571,1571,1564,1571,0,0,0,0,0,0,0,0,0,0
1683129014.10018706,82128802,1569,1569,1564,1569,0,0,0,0,0,0,0,0,0,0
1683129014.20014691,82228762,1567,1568,1565,1566,0,0,0,0,0,0,0,0,0,0
1683129014.30010700,82328722,1565,1566,1565,1564,0,0,0,0,0,0,0,0,0,0
1683129014.40006709,82428682,1566,1566,1567,1565,0,0,0,0,0,0,0,0,0,0
1683129014.50002694,82528642,1565,1565,1567,1564,0,0,0,0,0,0,0,0,0,0
1683129014.59998703,82628602,1565,1564,1567,1565,0,0,0,0,0,0,0,0,0,0
1683129014.69994712,82728562,1564,1563,1565,1564,0,0,0,0,0,0,0,0,0,0
1683129014.79990697,82828522,1563,1563,1565,1564,0,0,0,0,0,0,0,0,0,0
1683129014.89986706,82928482,1562,1562,1563,1564,0,0,0,0,0,0,0,0,0,0
1683129014.99982691,83028442,1562,1562,1563,1563,0,0,0,0,0,0,0,0,0,0
1683129015.09978700,83128402,1561,1561,1562,1563,0,0,0,0,0,0,0,0,0,0
1683129015.19974709,83228362,1560,1561,1562,1562,0,0,0,0,0,0,0,0,0,0
1683129015.29970694,83328322,1561,1561,1562,1561,0,0,0,0,0,0,0,0,0,0
1683129015.39966702,83428282,1560,1560,1561,1560,0,0,0,0,0,0,0,0,0,0
1683129015.49962711,83528242,1560,1560,1560,1559,0,0,0,0,0,0,0,0,0,0
1683129015.59958696,83628202,1560,1560,1560,1559,0,0,0,0,0,0,0,0,0,0
1683129015.69954705,83728162,1560,1560,1560,1559,0,0,0,0,0,0,0,0,0,0
1683129015.80033994,83828955,1559,1559,1560,1558,0,0,0,0,0,0,0,0,0,0
1683129015.90030003,83928915,1559,1559,1559,1558,0,0,0,0,0,0,0,0,0,0
1683129016.00026011,84028875,1560,1559,1560,1559,0,0,0,0,0,0,0,0,0,0
1683129016.10021996,84128835,1560,1559,1560,1558,0,0,0,0,0,0,0,0,0,0
1683129016.20018005,84228795,1559,1559,1560,1558,0,0,0,0,0,0,0,0,0,0
1683129016.30013990,84328755,1560,1559,1561,1558,0,0,0,0,0,0,0,0,0,0
1683129016.40009999,84428715,1561,1560,1561,1561,0,0,0,0,0,0,0,0,0,0
1683129016.50006008,84528675,1560,1560,1559,1563,0,0,0,0,0,0,0,0,0,0
1683129016.60001993,84628635,1561,1561,1558,1565,0,0,0,0,0,0,0,0,0,0
1683129016.69998002,84728595,1561,1562,1559,1566,0,0,0,0,0,0,0,0,0,0
1683129016.79994011,84828555,1560,1562,1559,1563,0,0,0,0,0,0,0,0,0,0
1683129016.89989996,84928515,1561,1562,1561,1562,0,0,0,0,0,0,0,0,0,0
1683129016.99986005,85028475,1560,1561,1562,1558,0,0,0,0,0,0,0,0,0,0
1683129017.09981990,85128435,1561,1561,1562,1558,0,0,0,0,0,0,0,0,0,0
1683129017.19977999,85228395,1561,1560,1561,1559,0,0,0,0,0,0,0,0,0,0
1683129017.29974008,85328355,1560,1559,1556,1562,0,0,0,0,0,0,0,0,0,0
1683129017.39969993,85428315,1556,1556,1551,1557,0,0,0,0,0,0,0,0,0,0
1683129017.49966002,85528275,1552,1552,1548,1551,0,0,0,0,0,0,0,0,0,0
1683129017.59962010,85628235,1547,1547,1543,1543,0,0,0,0,0,0,0,0,0,0
1683129017.69957995,85728195,1541,1541,1537,1536,0,0,0,0,0,0,0,0,0,0
1683129017.79954004,85828155,1535,1535,1531,1528,0,0,0,0,0,0,0,0,0,0
1683129017.90033293,85928948,1528,1528,1522,1521,0,0,0,0,0,0,0,0,0,0
1683129018.00029302,86028908,1522,1523,1518,1517,0,0,0,0,0,0,0,0,0,0
1683129018.10025311,86128868,1520,1520,1518,1518,0,0,0,0,0,0,0,0,0,0
1683129018.20021296,86228828,1519,1519,1520,1521,0,0,0,0,0,0,0,0,0,0
1683129018.30017304,86328788,1519,1519,1523,1524,0,0,0,0,0,0,0,0,0,0
1683129018.40013289,86428748,1521,1520,1527,1527,0,0,0,0,0,0,0,0,0,0
1683129018.50009298,86528708,1523,1523,1532,1532,0,0,0,0,0,0,0,0,0,0
1683129018.60005307,86628668,1527,1527,1537,1538,0,0,0,0,0,0,0,0,0,0
1683129018.70001292,86728628,1531,1531,1542,1541,0,0,0,0,0,0,0,0,0,0
1683129018.79997301,86828588,1535,1535,1544,1543,0,0,0,0,0,0,0,0,0,0
1683129018.89993310,86928548,1537,1537,1544,1543,0,0,0,0,0,0,0,0,0,0
1683129018.99989295,87028508,1541,1541,1545,1545,0,0,0,0,0,0,0,0,0,0
1683129019.09985304,87128468,1544,1544,1546,1545,0,0,0,0,0,0,0,0,0,0
1683129019.19981289,87228428,1545,1546,1545,1545,0,0,0,0,0,0,0,0,0,0
1683129019.29977298,87328388,1548,1548,1545,1545,0,0,0,0,0,0,0,0,0,0
1683129019.39973307,87428348,1549,1549,1545,1545,0,0,0,0,0,0,0,0,0,0
1683129019.49969292,87528308,1550,1549,1544,1544,0,0,0,0,0,0,0,0,0,0
1683129019.59965301,87628268,1550,1550,1544,1544,0,0,0,0,0,0,0,0,0,0
1683129019.69961309,87728228,1550,1550,1543,1544,0,0,0,0,0,0,0,0,0,0
1683129019.79957294,87828188,1549,1549,1544,1544,0,0,0,0,0,0,0,0,0,0
1683129019.90036607,87928981,1549,1548,1544,1544,0,0,0,0,0,0,0,0,0,0
1683129020.00032592,88028941,1547,1547,1543,1544,0,0,0,0,0,0,0,0,0,0
1683129020.10028601,88128901,1546,1546,1544,1544,0,0,0,0,0,0,0,0,0,0
1683129020.20024610,88228861,1545,1546,1545,1544,0,0,0,0,0,0,0,0,0,0
1683129020.30020595,88328821,1545,1545,1545,1545,0,0,0,0,0,0,0,0,0,0
1683129020.40016603,88428781,1544,1544,1545,1545,0,0,0,0,0,0,0,0,0,0
1683129020.50012589,88528741,1544,1543,1546,1546,0,0,0,0,0,0,0,0,0,0
1683129020.60008597,88628701,1543,1544,1546,1546,0,0,0,0,0,0,0,0,0,0
1683129020.70004606,88728661,1543,1543,1545,1546,0,0,0,0,0,0,0,0,0,0
1683129020.80000591,88828621,1542,1543,1545,1545,0,0,0,0,0,0,0,0,0,0
1683129020.89996600,88928581,1543,1543,1545,1546,0,0,0,0,0,0,0,0,0,0
1683129020.99992609,89028541,1543,1542,1545,1544,0,0,0,0,0,0,0,0,0,0
1683129021.09988594,89128501,1543,1543,1544,1544,0,0,0,0,0,0,0,0,0,0
1683129021.19984603,89228461,1543,1543,1544,1543,0,0,0,0,0,0,0,0,0,0
1683129021.29980612,89328421,1543,1543,1543,1544,0,0,0,0,0,0,0,0,0,0
1683129021.39976597,89428381,1543,1544,1543,1543,0,0,0,0,0,0,0,0,0,0
1683129021.49972606,89528341,1544,1543,1543,1543,0,0,0,0,0,0,0,0,0,0
1683129021.59968591,89628301,1543,1543,1543,1542,0,0,0,0,0,0,0,0,0,0
1683129021.69964600,89728261,1543,1543,1542,1542,0,0,0,0,0,0,0,0,0,0
1683129021.79960608,89828221,1543,1543,1542,1542,0,0,0,0,0,0,0,0,0,0
1683129021.89956594,89928181,1544,1544,1543,1543,0,0,0,0,0,0,0,0,0,0
1683129022.00035906,90028974,1544,1544,1544,1543,0,0,0,0,0,0,0,0,0,0
1683129022.10031891,90128934,1544,1544,1543,1544,0,0,0,0,0,0,0,0,0,0
1683129022.20027900,90228894,1544,1544,1544,1544,0,0,0,0,0,0,0,0,0,0
1683129022.30023909,90328854,1544,1544,1545,1544,0,0,0,0,0,0,0,0,0,0
1683129022.40019894,90428814,1545,1545,1545,1545,0,0,0,0,0,0,0,0,0,0
1683129022.50015903,90528774,1544,1544,1544,1545,0,0,0,0,0,0,0,0,0,0
1683129022.60011911,90628734,1544,1545,1545,1545,0,0,0,0,0,0,0,0,0,0
1683129022.70007896,90728694,1544,1544,1545,1544,0,0,0,0,0,0,0,0,0,0
1683129022.80003905,90828654,1544,1544,1544,1544,0,0,0,0,0,0,0,0,0,0
1683129022.89999890,90928614,1544,1543,1543,1544,0,0,0,0,0,0,0,0,0,0
1683129022.99995899,91028574,1544,1544,1544,1543,0,0,0,0,0,0,0,0,0,0
1683129023.09991908,91128534,1544,1544,1544,1545,0,0,0,0,0,0,0,0,0,0
1683129023.19987893,91228494,1544,1544,1544,1544,0,0,0,0,0,0,0,0,0,0
1683129023.29983902,91328454,1545,1545,1545,1545,0,0,0,0,0,0,0,0,0,0
1683129023.39979911,91428414,1544,1544,1544,1544,0,0,0,0,0,0,0,0,0,0
1683129023.49975896,91528374,1544,1544,1544,1544,0,0,0,0,0,0,0,0,0,0
1683129023.59971905,91628334,1544,1545,1545,1544,0,0,0,0,0,0,0,0,0,0
1683129023.69967890,91728294,1545,1545,1545,1545,0,0,0,0,0,0,0,0,0,0
1683129023.79963899,91828254,1544,1545,1545,1545,0,0,0,0,0,0,0,0,0,0
1683129023.89959908,91928214,1544,1544,1544,1545,0,0,0,0,0,0,0,0,0,0
1683129023.99955893,92028174,1545,1545,1544,1545,0,0,0,0,0,0,0,0,0,0
1683129024.10035205,92128967,1545,1544,1544,1544,0,0,0,0,0,0,0,0,0,0
1683129024.20031190,92228927,1544,1544,1543,1543,0,0,0,0,0,0,0,0,0,0
1683129024.30027199,92328887,1543,1543,1542,1542,0,0,0,0,0,0,0,0,0,0
1683129024.40023208,92428847,1543,1544,1543,1543,0,0,0,0,0,0,0,0,0,0
1683129024.50019193,92528807,1543,1543,1543,1543,0,0,0,0,0,0,0,0,0,0
1683129024.60015202,92628767,1544,1544,1545,1544,0,0,0,0,0,0,0,0,0,0
1683129024.70011210,92728727,1544,1544,1545,1544,0,0,0,0,0,0,0,0,0,0
1683129024.80007195,92828687,1545,1544,1545,1545,0,0,0,0,0,0,0,0,0,0
1683129024.90003204,92928647,1545,1544,1545,1545,0,0,0,0,0,0,0,0,0,0
1683129024.99999189,93028607,1544,1545,1545,1545,0,0,0,0,0,0,0,0,0,0
1683129025.09995198,93128567,1545,1545,1545,1545,0,0,0,0,0,0,0,0,0,0
1683129025.19991207,93228527,1544,1545,1544,1545,0,0,0,0,0,0,0,0,0,0
1683129025.29987192,93328487,1545,1545,1545,1545,0,0,0,0,0,0,0,0,0,0
1683129025.39983201,93428447,1545,1544,1544,1544,0,0,0,0,0,0,0,0,0,0
1683129025.49979210,93528407,1545,1545,1545,1545,0,0,0,0,0,0,0,0,0,0
1683129025.59975195,93628367,1544,1544,1544,1544,0,0,0,0,0,0,0,0,0,0
1683129025.69971204,93728327,1544,1545,1544,1544,0,0,0,0,0,0,0,0,0,0
1683129025.79967189,93828287,1544,1545,1544,1544,0,0,0,0,0,0,0,0,0,0
1683129025.89963198,93928247,1545,1544,1544,1544,0,0,0,0,0,0,0,0,0,0
1683129025.99959207,94028207,1544,1544,1544,1544,0,0,0,0,0,0,0,0,0,0
1683129026.09955192,94128167,1545,1544,1544,1544,0,0,0,0,0,0,0,0,0,0
1683129026.20034504,94228960,1544,1544,1543,1544,0,0,0,0,0,0,0,0,0,0
1683129026.30030489,94328920,1544,1545,1544,1544,0,0,0,0,0,0,0,0,0,0
1683129026.40026498,94428880,1544,1545,1545,1545,0,0,0,0,0,0,0,0,0,0
1683129026.50022507,94528840,1545,1545,1545,1546,0,0,0,0,0,0,0,0,0,0
1683129026.60018492,94628800,1545,1545,1545,1545,0,0,0,0,0,0,0,0,0,0
1683129026.70014501,94728760,1545,1545,1545,1546,0,0,0,0,0,0,0,0,0,0
1683129026.80010509,94828720,1545,1545,1545,1545,0,0,0,0,0,0,0,0,0,0
1683129026.90006495,94928680,1544,1544,1544,1544,0,0,0,0,0,0,0,0,0,0
1683129027.00002503,95028640,1544,1544,1545,1544,0,0,0,0,0,0,0,0,0,0
1683129027.09998488,95128600,1544,1544,1544,1544,0,0,0,0,0,0,0,0,0,0
1683129027.19994497,95228560,1544,1544,1544,1544,0,0,0,0,0,0,0,0,0,0
1683129027.29990506,95328520,1544,1544,1544,1544,0,0,0,0,0,0,0,0,0,0
1683129027.39986491,95428480,1544,1544,1544,1544,0,0,0,0,0,0,0,0,0,0
1683129027.49982500,95528440,1545,1545,1544,1545,0,0,0,0,0,0,0,0,0,0
1683129027.59978509,95628400,1544,1544,1544,1544,0,0,0,0,0,0,0,0,0,0
1683129027.69974494,95728360,1441,1440,1383,1384,0,0,0,0,0,0,0,0,0,0
1683129027.79970503,95828320,1372,1371,1260,1262,0,0,0,0,0,0,0,0,0,0
1683129027.89966512,95928280,1351,1350,1218,1221,0,0,0,0,0,0,0,0,0,0
1683129027.99962497,96028240,1342,1341,1200,1201,0,0,0,0,0,0,0,0,0,0
1683129028.09958506,96128200,1322,1321,1158,1159,0,0,0,0,0,0,0,0,0,0
1683129028.19954491,96228160,1272,1271,1150,1150,0,0,0,0,0,0,0,0,0,0
1683129028.30033803,96328953,1184,1182,1150,1151,0,0,0,0,0,0,0,0,0,0
1683129028.40029812,96428913,1088,1086,1150,1150,0,0,0,0,0,0,0,0,0,0
1683129028.50025797,96528873,978,976,1150,1151,0,0,0,0,0,0,0,0,0,0
1683129028.60021806,96628833,971,969,1150,1150,0,0,0,0,0,0,0,0,0,0
1683129028.70017791,96728793,971,969,1150,1150,0,0,0,0,0,0,0,0,0,0
1683129028.80013800,96828753,971,966,1150,1154,0,0,0,0,0,0,0,0,0,0
1683129028.90009809,96928713,970,957,1150,1168,0,0,0,0,0,0,0,0,0,0
1683129029.00005794,97028673,970,962,1150,1161,0,0,0,0,0,0,0,0,0,0
1683129029.10001802,97128633,970,963,1150,1159,0,0,0,0,0,0,0,0,0,0
1683129029.19997811,97228593,970,963,1150,1159,0,0,0,0,0,0,0,0,0,0
1683129029.29993796,97328553,970,963,1150,1159,0,0,0,0,0,0,0,0,0,0
1683129029.39989805,97428513,970,963,1150,1159,0,0,0,0,0,0,0,0,0,0
1683129029.49985790,97528473,970,963,1150,1160,0,0,0,0,0,0,0,0,0,0
1683129029.59981799,97628433,964,971,1157,1150,0,0,0,0,0,0,0,0,0,0
1683129029.69977808,97728393,970,969,1150,1151,0,0,0,0,0,0,0,0,0,0
1683129029.79973793,97828353,970,968,1150,1152,0,0,0,0,0,0,0,0,0,0
1683129029.89969802,97928313,970,968,1150,1152,0,0,0,0,0,0,0,0,0,0
1683129029.99965811,98028273,970,968,1150,1152,0,0,0,0,0,0,0,0,0,0
1683129030.09961796,98128233,785,785,1147,1147,0,0,0,0,0,0,0,0,0,0
1683129030.19957805,98228193,1000,1000,1000,1000,0,0,0,0,0,0,0,0,0,0
1683129030.30037093,98328986,1000,1000,1000,1000,0,0,0,0,0,0,0,0,0,0
1683129030.40033102,98428946,1000,1000,1000,1000,0,0,0,0,0,0,0,0,0,0
1683129030.50029111,98528906,1000,1000,1000,1000,0,0,0,0,0,0,0,0,0,0
1683129030.60025096,98628866,1000,1000,1000,1000,0,0,0,0,0,0,0,0,0,0
1683129030.70021105,98728826,1000,1000,1000,1000,0,0,0,0,0,0,0,0,0,0
1683129030.80017090,98828786,1000,1000,1000,1000,0,0,0,0,0,0,0,0,0,0
1683129030.90013099,98928746,1000,1000,1000,1000,0,0,0,0,0,0,0,0,0,0
1683129031.00009108,99028706,1000,1000,1000,1000,0,0,0,0,0,0,0,0,0,0
1683129031.10005093,99128666,1000,1000,1000,1000,0,0,0,0,0,0,0,0,0,0
1683129031.20001101,99228626,1000,1000,1000,1000,0,0,0,0,0,0,0,0,0,0
1683129031.29997110,99328586,1000,1000,1000,1000,0,0,0,0,0,0,0,0,0,0
1683129031.39993095,99428546,1000,1000,1000,1000,0,0,0,0,0,0,0,0,0,0
1683129031.49989104,99528506,1000,1000,1000,1000,0,0,0,0,0,0,0,0,0,0
1683129031.59985089,99628466,1000,1000,1000,1000,0,0,0,0,0,0,0,0,0,0
1683129031.69981098,99728426,1000,1000,1000,1000,0,0,0,0,0,0,0,0,0,0
1683129031.79977107,99828386,1000,1000,1000,1000,0,0,0,0,0,0,0,0,0,0
1683129031.89973092,99928346,1000,1000,1000,1000,0,0,0,0,0,0,0,0,0,0
1683129031.99969101,100028306,1000,1000,1000,1000,0,0,0,0,0,0,0,0,0,0
1683129032.09965110,100128266,1000,1000,1000,1000,0,0,0,0,0,0,0,0,0,0
1683129032.19961095,100228226,1000,1000,1000,1000,0,0,0,0,0,0,0,0,0,0
1683129032.29957104,100328186,1000,1000,1000,1000,0,0,0,0,0,0,0,0,0,0
1683129032.40036392,100428979,1000,1000,1000,1000,0,0,0,0,0,0,0,0,0,0
1683129032.50032401,100528939,1000,1000,1000,1000,0,0,0,0,0,0,0,0,0,0
1683129032.60028410,100628899,1000,1000,1000,1000,0,0,0,0,0,0,0,0,0,0
1683129032.70024395,100728859,1000,1000,1000,1000,0,0,0,0,0,0,0,0,0,0
1683129032.80020404,100828819,1000,1000,1000,1000,0,0,0,0,0,0,0,0,0,0
1683129032.90016389,100928779,1000,1000,1000,1000,0,0,0,0,0,0,0,0,0,0
1683129033.00012398,101028739,1000,1000,1000,1000,0,0,0,0,0,0,0,0,0,0
1683129033.10008407,101128699,1000,1000,1000,1000,0,0,0,0,0,0,0,0,0,0
1683129033.20004392,101228659,1000,1000,1000,1000,0,0,0,0,0,0,0,0,0,0
1683129033.30000401,101328619,1000,1000,1000,1000,0,0,0,0,0,0,0,0,0,0
1683129033.39996409,101428579,1000,1000,1000,1000,0,0,0,0,0,0,0,0,0,0
1683129033.49992394,101528539,1000,1000,1000,1000,0,0,0,0,0,0,0,0,0,0
1683129033.59988403,101628499,1000,1000,1000,1000,0,0,0,0,0,0,0,0,0,0
1683129033.69984388,101728459,1000,1000,1000,1000,0,0,0,0,0,0,0,0,0,0
1683129033.79980397,101828419,1000,1000,1000,1000,0,0,0,0,0,0,0,0,0,0
1683129033.89976406,101928379,1000,1000,1000,1000,0,0,0,0,0,0,0,0,0,0
1683129033.99972391,102028339,1000,1000,1000,1000,0,0,0,0,0,0,0,0,0,0
1683129034.09968400,102128299,1000,1000,1000,1000,0,0,0,0,0,0,0,0,0,0
1683129034.19964409,102228259,1000,1000,1000,1000,0,0,0,0,0,0,0,0,0,0
1683129034.29960394,102328219,1000,1000,1000,1000,0,0,0,0,0,0,0,0,0,0
1683129034.39956403,102428179,1000,1000,1000,1000,0,0,0,0,0,0,0,0,0,0
1683129034.50035691,102528972,1000,1000,1000,1000,0,0,0,0,0,0,0,0,0,0
1683129034.60031700,102628932,1000,1000,1000,1000,0,0,0,0,0,0,0,0,0,0
1683129034.70027709,102728892,1000,1000,1000,1000,0,0,0,0,0,0,0,0,0,0
1683129034.80023694,102828852,1000,1000,1000,1000,0,0,0,0,0,0,0,0,0,0
1683129034.90019703,102928812,1000,1000,1000,1000,0,0,0,0,0,0,0,0,0,0
1683129035.00015712,103028772,1000,1000,1000,1000,0,0,0,0,0,0,0,0,0,0
1683129035.10011697,103128732,1000,1000,1000,1000,0,0,0,0,0,0,0,0,0,0
1683129035.20007706,103228692,1000,1000,1000,1000,0,0,0,0,0,0,0,0,0,0
1683129035.30003691,103328652,1000,1000,1000,1000,0,0,0,0,0,0,0,0,0,0
1683129035.39999700,103428612,1000,1000,1000,1000,0,0,0,0,0,0,0,0,0,0
1683129035.49995708,103528572,1000,1000,1000,1000,0,0,0,0,0,0,0,0,0,0
1683129035.59991693,103628532,1000,1000,1000,1000,0,0,0,0,0,0,0,0,0,0
1683129035.69987702,103728492,1000,1000,1000,1000,0,0,0,0,0,0,0,0,0,0
1683129035.79983711,103828452,1000,1000,1000,1000,0,0,0,0,0,0,0,0,0,0
1683129035.89979696,103928412,1000,1000,1000,1000,0,0,0,0,0,0,0,0,0,0
1683129035.99975705,104028372,1000,1000,1000,1000,0,0,0,0,0,0,0,0,0,0
1683129036.09971690,104128332,1000,1000,1000,1000,0,0,0,0,0,0,0,0,0,0
1683129036.19967699,104228292,1000,1000,1000,1000,0,0,0,0,0,0,0,0,0,0
1683129036.29963708,104328252,1000,1000,1000,1000,0,0,0,0,0,0,0,0,0,0
1683129036.39959693,104428212,1000,1000,1000,1000,0,0,0,0,0,0,0,0,0,0
1683129036.49955702,104528172,1000,1000,1000,1000,0,0,0,0,0,0,0,0,0,0
1683129036.60034990,104628965,1000,1000,1000,1000,0,0,0,0,0,0,0,0,0,0
1683129036.70030999,104728925,1000,1000,1000,1000,0,0,0,0,0,0,0,0,0,0
1683129036.80027008,104828885,1000,1000,1000,1000,0,0,0,0,0,0,0,0,0,0
1683129036.90022993,104928845,1000,1000,1000,1000,0,0,0,0,0,0,0,0,0,0
1683129037.00019002,105028805,1000,1000,1000,1000,0,0,0,0,0,0,0,0,0,0
1683129037.10015011,105128765,1000,1000,1000,1000,0,0,0,0,0,0,0,0,0,0
1683129037.20010996,105228725,1000,1000,1000,1000,0,0,0,0,0,0,0,0,0,0
1683129037.30007005,105328685,1000,1000,1000,1000,0,0,0,0,0,0,0,0,0,0
1683129037.40002990,105428645,1000,1000,1000,1000,0,0,0,0,0,0,0,0,0,0
1683129037.49998999,105528605,1000,1000,1000,1000,0,0,0,0,0,0,0,0,0,0
1683129037.59995008,105628565,1000,1000,1000,1000,0,0,0,0,0,0,0,0,0,0
1683129037.69990993,105728525,1000,1000,1000,1000,0,0,0,0,0,0,0,0,0,0
1683129037.79987001,105828485,1000,1000,1000,1000,0,0,0,0,0,0,0,0,0,0
1683129037.89983010,105928445,1000,1000,1000,1000,0,0,0,0,0,0,0,0,0,0
1683129037.99978995,106028405,1000,1000,1000,1000,0,0,0,0,0,0,0,0,0,0
1683129038.09975004,106128365,1000,1000,1000,1000,0,0,0,0,0,0,0,0,0,0
1683129038.19970989,106228325,1000,1000,1000,1000,0,0,0,0,0,0,0,0,0,0
1683129038.29966998,106328285,1000,1000,1000,1000,0,0,0,0,0,0,0,0,0,0
1683129038.39963007,106428245,1000,1000,1000,1000,0,0,0,0,0,0,0,0,0,0
1683129038.49958992,106528205,1000,1000,1000,1000,0,0,0,0,0,0,0,0,0,0
1683129038.59955001,106628165,1000,1000,1000,1000,0,0,0,0,0,0,0,0,0,0
1683129038.70034289,106728958,1000,1000,1000,1000,0,0,0,0,0,0,0,0,0,0
1683129038.80030298,106828918,1000,1000,1000,1000,0,0,0,0,0,0,0,0,0,0
1683129038.90026307,106928878,1000,1000,1000,1000,0,0,0,0,0,0,0,0,0,0
1683129039.00022292,107028838,1000,1000,1000,1000,0,0,0,0,0,0,0,0,0,0
1683129039.10018301,107128798,1000,1000,1000,1000,0,0,0,0,0,0,0,0,0,0
1683129039.20014310,107228758,1000,1000,1000,1000,0,0,0,0,0,0,0,0,0,0
1683129039.30010295,107328718,1000,1000,1000,1000,0,0,0,0,0,0,0,0,0,0
1683129039.40006304,107428678,1000,1000,1000,1000,0,0,0,0,0,0,0,0,0,0
1683129039.50002289,107528638,1000,1000,1000,1000,0,0,0,0,0,0,0,0,0,0
1683129039.59998298,107628598,1000,1000,1000,1000,0,0,0,0,0,0,0,0,0,0
1683129039.69994307,107728558,1000,1000,1000,1000,0,0,0,0,0,0,0,0,0,0
