timestamp,TimeUS,C1,C2,C3,C4,C5,C6,C7,C8,C9,C10,C11,C12,C13,C14
1684143628.10004020,62928985,1000,1000,1000,1000,0,0,0,0,0,0,0,0,0,0
1684143628.20000005,63028945,1000,1000,1000,1000,0,0,0,0,0,0,0,0,0,0
1684143628.29996014,63128905,1000,1000,1000,1000,0,0,0,0,0,0,0,0,0,0
1684143628.39991999,63228865,1000,1000,1000,1000,0,0,0,0,0,0,0,0,0,0
1684143628.49988008,63328825,1000,1000,1000,1000,0,0,0,0,0,0,0,0,0,0
1684143628.59984016,63428785,1000,1000,1000,1000,0,0,0,0,0,0,0,0,0,0
1684143628.69980001,63528745,1000,1000,1000,1000,0,0,0,0,0,0,0,0,0,0
1684143628.79976010,63628705,1000,1000,1000,1000,0,0,0,0,0,0,0,0,0,0
1684143628.89972019,63728665,1000,1000,1000,1000,0,0,0,0,0,0,0,0,0,0
1684143628.99968004,63828625,1000,1000,1000,1000,0,0,0,0,0,0,0,0,0,0
1684143629.09964013,63928585,1000,1000,1000,1000,0,0,0,0,0,0,0,0,0,0
1684143629.19959998,64028545,1000,1000,1000,1000,0,0,0,0,0,0,0,0,0,0
1684143629.29956007,64128505,1000,1000,1000,1000,0,0,0,0,0,0,0,0,0,0
1684143629.39952016,64228465,1000,1000,1000,1000,0,0,0,0,0,0,0,0,0,0
1684143629.49948001,64328425,1000,1000,1000,1000,0,0,0,0,0,0,0,0,0,0
1684143629.59944010,64428385,1000,1000,1000,1000,0,0,0,0,0,0,0,0,0,0
1684143629.69940019,64528345,1000,1000,1000,1000,0,0,0,0,0,0,0,0,0,0
1684143629.79936004,64628305,1000,1000,1000,1000,0,0,0,0,0,0,0,0,0,0
1684143629.89932013,64728265,1000,1000,1000,1000,0,0,0,0,0,0,0,0,0,0
1684143629.99927998,64828225,1000,1000,1000,1000,0,0,0,0,0,0,0,0,0,0
1684143630.09924006,64928185,1024,1024,1024,1024,0,0,0,0,0,0,0,0,0,0
1684143630.20003319,65028978,1054,1054,1054,1054,0,0,0,0,0,0,0,0,0,0
1684143630.29999304,65128938,1084,1084,1084,1084,0,0,0,0,0,0,0,0,0,0
1684143630.39995313,65228898,1114,1114,1114,1114,0,0,0,0,0,0,0,0,0,0
1684143630.49991298,65328858,1144,1144,1144,1144,0,0,0,0,0,0,0,0,0,0
1684143630.59987307,65428818,1363,1356,1356,1364,0,0,0,0,0,0,0,0,0,0
1684143630.69983315,65528778,1551,1545,1545,1552,0,0,0,0,0,0,0,0,0,0
1684143630.79979300,65628738,1703,1697,1697,1703,0,0,0,0,0,0,0,0,0,0
1684143630.89975309,65728698,1833,1828,1828,1834,0,0,0,0,0,0,0,0,0,0
1684143630.99971318,65828658,1884,1880,1879,1885,0,0,0,0,0,0,0,0,0,0
1684143631.09967303,65928618,1827,1824,1823,1829,0,0,0,0,0,0,0,0,0,0
1684143631.19963312,66028578,1696,1696,1695,1698,0,0,0,0,0,0,0,0,0,0
1684143631.29959297,66128538,1623,1625,1624,1624,0,0,0,0,0,0,0,0,0,0
1684143631.39955306,66228498,1609,1611,1611,1609,0,0,0,0,0,0,0,0,0,0
1684143631.49951315,66328458,1618,1619,1620,1617,0,0,0,0,0,0,0,0,0,0
1684143631.59947300,66428418,1625,1625,1626,1624,0,0,0,0,0,0,0,0,0,0
1684143631.69943309,66528378,1623,1623,1623,1622,0,0,0,0,0,0,0,0,0,0
1684143631.79939318,66628338,1616,1616,1616,1616,0,0,0,0,0,0,0,0,0,0
1684143631.89935303,66728298,1615,1613,1613,1615,0,0,0,0,0,0,0,0,0,0
1684143631.99931312,66828258,1615,1614,1613,1615,0,0,0,0,0,0,0,0,0,0
1684143632.09927297,66928218,1617,1616,1616,1616,0,0,0,0,0,0,0,0,0,0
1684143632.19923306,67028178,1618,1619,1619,1618,0,0,0,0,0,0,0,0,0,0
1684143632.30002618,67128971,1621,1621,1622,1620,0,0,0,0,0,0,0,0,0,0
1684143632.39998603,67228931,1599,1600,1604,1595,0,0,0,0,0,0,0,0,0,0
1684143632.49994612,67328891,1581,1582,1589,1574,0,0,0,0,0,0,0,0,0,0
1684143632.59990597,67428851,1569,1569,1572,1566,0,0,0,0,0,0,0,0,0,0
1684143632.69986606,67528811,1559,1559,1558,1560,0,0,0,0,0,0,0,0,0,0
1684143632.79982615,67628771,1550,1550,1544,1557,0,0,0,0,0,0,0,0,0,0
1684143632.89978600,67728731,1544,1543,1535,1553,0,0,0,0,0,0,0,0,0,0
1684143632.99974608,67828691,1537,1536,1530,1543,0,0,0,0,0,0,0,0,0,0
1684143633.09970617,67928651,1531,1531,1528,1534,0,0,0,0,0,0,0,0,0,0
1684143633.19966602,68028611,1529,1528,1528,1529,0,0,0,0,0,0,0,0,0,0
1684143633.29962611,68128571,1528,1528,1530,1526,0,0,0,0,0,0,0,0,0,0
1684143633.39958596,68228531,1530,1530,1533,1527,0,0,0,0,0,0,0,0,0,0
1684143633.49954605,68328491,1533,1533,1536,1530,0,0,0,0,0,0,0,0,0,0
1684143633.59950614,68428451,1535,1536,1538,1533,0,0,0,0,0,0,0,0,0,0
1684143633.69946599,68528411,1540,1540,1542,1538,0,0,0,0,0,0,0,0,0,0
1684143633.79942608,68628371,1543,1544,1544,1543,0,0,0,0,0,0,0,0,0,0
1684143633.89938617,68728331,1547,1547,1547,1547,0,0,0,0,0,0,0,0,0,0
1684143633.99934602,68828291,1550,1550,1549,1550,0,0,0,0,0,0,0,0,0,0
1684143634.09930611,68928251,1552,1552,1552,1553,0,0,0,0,0,0,0,0,0,0
1684143634.19926620,69028211,1555,1554,1554,1556,0,0,0,0,0,0,0,0,0,0
1684143634.29922605,69128171,1553,1553,1558,1560,0,0,0,0,0,0,0,0,0,0
1684143634.40001917,69228964,1554,1554,1562,1563,0,0,0,0,0,0,0,0,0,0
1684143634.49997902,69328924,1557,1556,1563,1564,0,0,0,0,0,0,0,0,0,0
1684143634.59993911,69428884,1559,1560,1564,1565,0,0,0,0,0,0,0,0,0,0
1684143634.69989920,69528844,1563,1563,1565,1565,0,0,0,0,0,0,0,0,0,0
1684143634.79985905,69628804,1565,1565,1565,1565,0,0,0,0,0,0,0,0,0,0
1684143634.89981914,69728764,1567,1567,1565,1565,0,0,0,0,0,0,0,0,0,0
1684143634.99977899,69828724,1569,1569,1566,1565,0,0,0,0,0,0,0,0,0,0
1684143635.09973907,69928684,1570,1570,1566,1566,0,0,0,0,0,0,0,0,0,0
1684143635.19969916,70028644,1572,1572,1567,1567,0,0,0,0,0,0,0,0,0,0
1684143635.29965901,70128604,1573,1572,1568,1569,0,0,0,0,0,0,0,0,0,0
1684143635.39961910,70228564,1573,1574,1570,1570,0,0,0,0,0,0,0,0,0,0
1684143635.49957919,70328524,1574,1573,1571,1571,0,0,0,0,0,0,0,0,0,0
1684143635.59953904,70428484,1574,1574,1572,1572,0,0,0,0,0,0,0,0,0,0
1684143635.69949913,70528444,1574,1575,1574,1573,0,0,0,0,0,0,0,0,0,0
1684143635.79945898,70628404,1574,1575,1575,1574,0,0,0,0,0,0,0,0,0,0
1684143635.89941907,70728364,1574,1574,1576,1574,0,0,0,0,0,0,0,0,0,0
1684143635.99937916,70828324,1575,1575,1576,1575,0,0,0,0,0,0,0,0,0,0
1684143636.09933901,70928284,1575,1574,1576,1576,0,0,0,0,0,0,0,0,0,0
1684143636.19929910,71028244,1575,1575,1577,1577,0,0,0,0,0,0,0,0,0,0
1684143636.29925919,71128204,1576,1575,1577,1577,0,0,0,0,0,0,0,0,0,0
1684143636.39921904,71228164,1575,1575,1576,1576,0,0,0,0,0,0,0,0,0,0
1684143636.50001216,71328957,1575,1576,1577,1576,0,0,0,0,0,0,0,0,0,0
1684143636.59997201,71428917,1575,1577,1576,1577,0,0,0,0,0,0,0,0,0,0
1684143636.69993210,71528877,1577,1577,1577,1577,0,0,0,0,0,0,0,0,0,0
1684143636.79989219,71628837,1577,1577,1577,1577,0,0,0,0,0,0,0,0,0,0
1684143636.89985204,71728797,1577,1577,1576,1576,0,0,0,0,0,0,0,0,0,0
1684143636.99981213,71828757,1578,1578,1577,1577,0,0,0,0,0,0,0,0,0,0
1684143637.09977198,71928717,1578,1578,1577,1577,0,0,0,0,0,0,0,0,0,0
1684143637.19973207,72028677,1578,1578,1578,1577,0,0,0,0,0,0,0,0,0,0
1684143637.29969215,72128637,1578,1578,1578,1578,0,0,0,0,0,0,0,0,0,0
1684143637.39965200,72228597,1579,1579,1578,1578,0,0,0,0,0,0,0,0,0,0
1684143637.49961209,72328557,1579,1578,1578,1579,0,0,0,0,0,0,0,0,0,0
1684143637.59957218,72428517,1578,1578,1578,1578,0,0,0,0,0,0,0,0,0,0
1684143637.69953203,72528477,1578,1578,1579,1579,0,0,0,0,0,0,0,0,0,0
1684143637.79949212,72628437,1578,1579,1579,1579,0,0,0,0,0,0,0,0,0,0
1684143637.89945197,72728397,1578,1579,1579,1579,0,0,0,0,0,0,0,0,0,0
1684143637.99941206,72828357,1578,1579,1580,1579,0,0,0,0,0,0,0,0,0,0
1684143638.09937215,72928317,1579,1579,1580,1580,0,0,0,0,0,0,0,0,0,0
1684143638.19933200,73028277,1578,1578,1578,1579,0,0,0,0,0,0,0,0,0,0
1684143638.29929209,73128237,1578,1578,1578,1579,0,0,0,0,0,0,0,0,0,0
1684143638.39925218,73228197,1579,1579,1579,1579,0,0,0,0,0,0,0,0,0,0
1684143638.49921203,73328157,1579,1579,1579,1579,0,0,0,0,0,0,0,0,0,0
1684143638.60000515,73428950,1580,1580,1579,1579,0,0,0,0,0,0,0,0,0,0
1684143638.69996500,73528910,1580,1580,1580,1579,0,0,0,0,0,0,0,0,0,0
1684143638.79992509,73628870,1580,1580,1580,1580,0,0,0,0,0,0,0,0,0,0
1684143638.89988518,73728830,1580,1581,1581,1580,0,0,0,0,0,0,0,0,0,0
1684143638.99984503,73828790,1580,1580,1580,1580,0,0,0,0,0,0,0,0,0,0
1684143639.09980512,73928750,1579,1579,1579,1580,0,0,0,0,0,0,0,0,0,0
1684143639.19976497,74028710,1580,1580,1580,1580,0,0,0,0,0,0,0,0,0,0
1684143639.29972506,74128670,1580,1580,1580,1580,0,0,0,0,0,0,0,0,0,0
1684143639.39968514,74228630,1581,1580,1581,1580,0,0,0,0,0,0,0,0,0,0
1684143639.49964499,74328590,1581,1580,1580,1580,0,0,0,0,0,0,0,0,0,0
1684143639.59960508,74428550,1580,1580,1581,1580,0,0,0,0,0,0,0,0,0,0
1684143639.69956517,74528510,1580,1580,1580,1580,0,0,0,0,0,0,0,0,0,0
1684143639.79952502,74628470,1580,1580,1579,1580,0,0,0,0,0,0,0,0,0,0
1684143639.89948511,74728430,1580,1580,1580,1580,0,0,0,0,0,0,0,0,0,0
1684143639.99944496,74828390,1581,1581,1581,1581,0,0,0,0,0,0,0,0,0,0
1684143640.09940505,74928350,1581,1580,1581,1581,0,0,0,0,0,0,0,0,0,0
1684143640.19936514,75028310,1581,1581,1582,1581,0,0,0,0,0,0,0,0,0,0
1684143640.29932499,75128270,1581,1581,1581,1581,0,0,0,0,0,0,0,0,0,0
1684143640.39928508,75228230,1582,1582,1582,1582,0,0,0,0,0,0,0,0,0,0
1684143640.49924517,75328190,1581,1582,1587,1576,0,0,0,0,0,0,0,0,0,0
1684143640.60003805,75428983,1581,1583,1588,1574,0,0,0,0,0,0,0,0,0,0
1684143640.69999814,75528943,1579,1582,1580,1574,0,0,0,0,0,0,0,0,0,0
1684143640.79995799,75628903,1578,1581,1571,1573,0,0,0,0,0,0,0,0,0,0
1684143640.89991808,75728863,1577,1579,1563,1570,0,0,0,0,0,0,0,0,0,0
1684143640.99987817,75828823,1577,1578,1557,1564,0,0,0,0,0,0,0,0,0,0
1684143641.09983802,75928783,1578,1577,1555,1560,0,0,0,0,0,0,0,0,0,0
1684143641.19979811,76028743,1579,1577,1554,1556,0,0,0,0,0,0,0,0,0,0
1684143641.29975820,76128703,1580,1578,1556,1555,0,0,0,0,0,0,0,0,0,0
1684143641.39971805,76228663,1579,1577,1556,1553,0,0,0,0,0,0,0,0,0,0
1684143641.49967813,76328623,1578,1578,1556,1554,0,0,0,0,0,0,0,0,0,0
1684143641.59963799,76428583,1575,1576,1555,1553,0,0,0,0,0,0,0,0,0,0
1684143641.69959807,76528543,1573,1575,1553,1553,0,0,0,0,0,0,0,0,0,0
1684143641.79955816,76628503,1574,1576,1553,1553,0,0,0,0,0,0,0,0,0,0
1684143641.89951801,76728463,1575,1577,1552,1552,0,0,0,0,0,0,0,0,0,0
1684143641.99947810,76828423,1576,1578,1551,1551,0,0,0,0,0,0,0,0,0,0
1684143642.09943819,76928383,1578,1579,1549,1549,0,0,0,0,0,0,0,0,0,0
1684143642.19939804,77028343,1580,1580,1546,1546,0,0,0,0,0,0,0,0,0,0
1684143642.29935813,77128303,1583,1584,1544,1544,0,0,0,0,0,0,0,0,0,0
1684143642.39931798,77228263,1586,1587,1541,1540,0,0,0,0,0,0,0,0,0,0
1684143642.49927807,77328223,1589,1590,1539,1538,0,0,0,0,0,0,0,0,0,0
1684143642.59923816,77428183,1592,1593,1536,1536,0,0,0,0,0,0,0,0,0,0
1684143642.70003104,77528976,1594,1594,1534,1535,0,0,0,0,0,0,0,0,0,0
1684143642.79999113,77628936,1595,1595,1534,1535,0,0,0,0,0,0,0,0,0,0
1684143642.89995098,77728896,1594,1594,1535,1537,0,0,0,0,0,0,0,0,0,0
1684143642.99991107,77828856,1593,1593,1538,1540,0,0,0,0,0,0,0,0,0,0
1684143643.09987116,77928816,1589,1589,1542,1545,0,0,0,0,0,0,0,0,0,0
1684143643.19983101,78028776,1585,1583,1550,1553,0,0,0,0,0,0,0,0,0,0
1684143643.29979110,78128736,1579,1575,1560,1563,0,0,0,0,0,0,0,0,0,0
1684143643.39975119,78228696,1569,1565,1571,1574,0,0,0,0,0,0,0,0,0,0
1684143643.49971104,78328656,1558,1554,1584,1585,0,0,0,0,0,0,0,0,0,0
1684143643.59967113,78428616,1548,1545,1596,1596,0,0,0,0,0,0,0,0,0,0
1684143643.69963098,78528576,1538,1536,1605,1605,0,0,0,0,0,0,0,0,0,0
1684143643.79959106,78628536,1531,1532,1612,1611,0,0,0,0,0,0,0,0,0,0
1684143643.89955115,78728496,1528,1530,1615,1614,0,0,0,0,0,0,0,0,0,0
1684143643.99951100,78828456,1530,1533,1615,1614,0,0,0,0,0,0,0,0,0,0
1684143644.09947109,78928416,1535,1537,1611,1611,0,0,0,0,0,0,0,0,0,0
1684143644.19943118,79028376,1542,1544,1605,1605,0,0,0,0,0,0,0,0,0,0
1684143644.29939103,79128336,1550,1552,1599,1599,0,0,0,0,0,0,0,0,0,0
1684143644.39935112,79228296,1559,1559,1591,1590,0,0,0,0,0,0,0,0,0,0
1684143644.49931097,79328256,1569,1568,1584,1583,0,0,0,0,0,0,0,0,0,0
1684143644.59927106,79428216,1576,1575,1577,1577,0,0,0,0,0,0,0,0,0,0
1684143644.69923115,79528176,1582,1581,1573,1572,0,0,0,0,0,0,0,0,0,0
1684143644.80002403,79628969,1586,1584,1569,1568,0,0,0,0,0,0,0,0,0,0
1684143644.89998412,79728929,1588,1587,1567,1567,0,0,0,0,0,0,0,0,0,0
1684143644.99994397,79828889,1588,1587,1567,1567,0,0,0,0,0,0,0,0,0,0
1684143645.09990406,79928849,1588,1586,1569,1569,0,0,0,0,0,0,0,0,0,0
1684143645.19986415,80028809,1585,1584,1570,1570,0,0,0,0,0,0,0,0,0,0
1684143645.29982400,80128769,1582,1581,1572,1573,0,0,0,0,0,0,0,0,0,0
1684143645.39978409,80228729,1579,1580,1576,1576,0,0,0,0,0,0,0,0,0,0
1684143645.49974418,80328689,1439,1440,1601,1604,0,0,0,0,0,0,0,0,0,0
1684143645.59970403,80428649,1482,1486,1618,1620,0,0,0,0,0,0,0,0,0,0
1684143645.69966412,80528609,1517,1522,1614,1612,0,0,0,0,0,0,0,0,0,0
1684143645.79962397,80628569,1549,1554,1603,1599,0,0,0,0,0,0,0,0,0,0
1684143645.89958405,80728529,1577,1579,1592,1588,0,0,0,0,0,0,0,0,0,0
1684143645.99954414,80828489,1596,1595,1582,1580,0,0,0,0,0,0,0,0,0,0
1684143646.09950399,80928449,1609,1605,1577,1577,0,0,0,0,0,0,0,0,0,0
1684143646.19946408,81028409,1615,1610,1572,1574,0,0,0,0,0,0,0,0,0,0
1684143646.29942417,81128369,1619,1614,1571,1574,0,0,0,0,0,0,0,0,0,0
1684143646.39938402,81228329,1617,1614,1570,1572,0,0,0,0,0,0,0,0,0,0
1684143646.49934411,81328289,1614,1613,1569,1572,0,0,0,0,0,0,0,0,0,0
1684143646.59930396,81428249,1611,1611,1570,1572,0,0,0,0,0,0,0,0,0,0
1684143646.69926405,81528209,1607,1608,1571,1571,0,0,0,0,0,0,0,0,0,0
1684143646.79922414,81628169,1603,1605,1571,1570,0,0,0,0,0,0,0,0,0,0
1684143646.90001702,81728962,1600,1601,1572,1571,0,0,0,0,0,0,0,0,0,0
1684143646.99997711,81828922,1596,1596,1573,1572,0,0,0,0,0,0,0,0,0,0
1684143647.09993696,81928882,1593,1592,1574,1574,0,0,0,0,0,0,0,0,0,0
1684143647.19989705,82028842,1589,1588,1575,1574,0,0,0,0,0,0,0,0,0,0
1684143647.29985714,82128802,1587,1585,1576,1576,0,0,0,0,0,0,0,0,0,0
1684143647.39981699,82228762,1583,1583,1577,1577,0,0,0,0,0,0,0,0,0,0
1684143647.49977708,82328722,1581,1581,1577,1578,0,0,0,0,0,0,0,0,0,0
1684143647.59973717,82428682,1579,1579,1578,1577,0,0,0,0,0,0,0,0,0,0
1684143647.69969702,82528642,1578,1578,1579,1579,0,0,0,0,0,0,0,0,0,0
1684143647.79965711,82628602,1577,1578,1580,1579,0,0,0,0,0,0,0,0,0,0
1684143647.89961720,82728562,1577,1578,1581,1580,0,0,0,0,0,0,0,0,0,0
1684143647.99957705,82828522,1577,1578,1582,1581,0,0,0,0,0,0,0,0,0,0
1684143648.09953713,82928482,1577,1577,1582,1581,0,0,0,0,0,0,0,0,0,0
1684143648.19949698,83028442,1577,1578,1582,1581,0,0,0,0,0,0,0,0,0,0
1684143648.29945707,83128402,1578,1578,1582,1582,0,0,0,0,0,0,0,0,0,0
1684143648.39941716,83228362,1577,1577,1581,1581,0,0,0,0,0,0,0,0,0,0
1684143648.49937701,83328322,1578,1578,1585,1578,0,0,0,0,0,0,0,0,0,0
1684143648.59933710,83428282,1580,1578,1588,1573,0,0,0,0,0,0,0,0,0,0
1684143648.69929719,83528242,1580,1578,1581,1574,0,0,0,0,0,0,0,0,0,0
1684143648.79925704,83628202,1578,1577,1571,1572,0,0,0,0,0,0,0,0,0,0
1684143648.89921713,83728162,1575,1577,1563,1569,0,0,0,0,0,0,0,0,0,0
1684143649.00001001,83828955,1573,1576,1558,1564,0,0,0,0,0,0,0,0,0,0
1684143649.09997010,83928915,1573,1576,1557,1561,0,0,0,0,0,0,0,0,0,0
1684143649.19993019,84028875,1574,1576,1556,1558,0,0,0,0,0,0,0,0,0,0
1684143649.29989004,84128835,1574,1575,1556,1555,0,0,0,0,0,0,0,0,0,0
1684143649.39985013,84228795,1575,1576,1556,1555,0,0,0,0,0,0,0,0,0,0
1684143649.49980998,84328755,1575,1576,1556,1553,0,0,0,0,0,0,0,0,0,0
1684143649.59977007,84428715,1576,1575,1554,1553,0,0,0,0,0,0,0,0,0,0
1684143649.69973016,84528675,1575,1575,1552,1551,0,0,0,0,0,0,0,0,0,0
1684143649.79969001,84628635,1575,1576,1550,1551,0,0,0,0,0,0,0,0,0,0
1684143649.89965010,84728595,1575,1576,1549,1549,0,0,0,0,0,0,0,0,0,0
1684143649.99961019,84828555,1575,1576,1546,1546,0,0,0,0,0,0,0,0,0,0
1684143650.09957004,84928515,1576,1578,1544,1544,0,0,0,0,0,0,0,0,0,0
1684143650.19953012,85028475,1579,1580,1544,1543,0,0,0,0,0,0,0,0,0,0
1684143650.29948997,85128435,1581,1582,1542,1541,0,0,0,0,0,0,0,0,0,0
1684143650.39945006,85228395,1583,1584,1541,1540,0,0,0,0,0,0,0,0,0,0
1684143650.49941015,85328355,1585,1586,1538,1538,0,0,0,0,0,0,0,0,0,0
1684143650.59937000,85428315,1587,1587,1536,1536,0,0,0,0,0,0,0,0,0,0
1684143650.69933009,85528275,1589,1588,1536,1536,0,0,0,0,0,0,0,0,0,0
1684143650.79929018,85628235,1591,1590,1537,1538,0,0,0,0,0,0,0,0,0,0
1684143650.89925003,85728195,1590,1589,1538,1540,0,0,0,0,0,0,0,0,0,0
1684143650.99921012,85828155,1589,1588,1540,1542,0,0,0,0,0,0,0,0,0,0
1684143651.10000300,85928948,1586,1585,1544,1546,0,0,0,0,0,0,0,0,0,0
1684143651.19996309,86028908,1583,1582,1548,1552,0,0,0,0,0,0,0,0,0,0
1684143651.29992318,86128868,1579,1577,1555,1558,0,0,0,0,0,0,0,0,0,0
1684143651.39988303,86228828,1573,1572,1561,1565,0,0,0,0,0,0,0,0,0,0
1684143651.49984312,86328788,1567,1565,1569,1572,0,0,0,0,0,0,0,0,0,0
1684143651.59980297,86428748,1559,1557,1577,1579,0,0,0,0,0,0,0,0,0,0
1684143651.69976306,86528708,1553,1550,1586,1587,0,0,0,0,0,0,0,0,0,0
1684143651.79972315,86628668,1546,1544,1595,1595,0,0,0,0,0,0,0,0,0,0
1684143651.89968300,86728628,1538,1537,1603,1602,0,0,0,0,0,0,0,0,0,0
1684143651.99964309,86828588,1533,1533,1609,1608,0,0,0,0,0,0,0,0,0,0
1684143652.09960318,86928548,1530,1532,1611,1610,0,0,0,0,0,0,0,0,0,0
1684143652.19956303,87028508,1531,1533,1610,1609,0,0,0,0,0,0,0,0,0,0
1684143652.29952312,87128468,1535,1537,1607,1606,0,0,0,0,0,0,0,0,0,0
1684143652.39948297,87228428,1541,1544,1601,1601,0,0,0,0,0,0,0,0,0,0
1684143652.49944305,87328388,1550,1551,1594,1594,0,0,0,0,0,0,0,0,0,0
1684143652.59940314,87428348,1558,1559,1586,1587,0,0,0,0,0,0,0,0,0,0
1684143652.69936299,87528308,1567,1567,1580,1579,0,0,0,0,0,0,0,0,0,0
1684143652.79932308,87628268,1576,1575,1575,1574,0,0,0,0,0,0,0,0,0,0
1684143652.89928317,87728228,1582,1580,1570,1569,0,0,0,0,0,0,0,0,0,0
1684143652.99924302,87828188,1586,1584,1568,1568,0,0,0,0,0,0,0,0,0,0
1684143653.10003614,87928981,1588,1586,1567,1566,0,0,0,0,0,0,0,0,0,0
1684143653.19999599,88028941,1588,1587,1567,1567,0,0,0,0,0,0,0,0,0,0
1684143653.29995608,88128901,1587,1586,1568,1568,0,0,0,0,0,0,0,0,0,0
1684143653.39991617,88228861,1586,1586,1570,1571,0,0,0,0,0,0,0,0,0,0
1684143653.49987602,88328821,1585,1585,1572,1572,0,0,0,0,0,0,0,0,0,0
1684143653.59983611,88428781,1583,1583,1574,1574,0,0,0,0,0,0,0,0,0,0
1684143653.69979596,88528741,1581,1581,1576,1576,0,0,0,0,0,0,0,0,0,0
1684143653.79975605,88628701,1579,1580,1578,1578,0,0,0,0,0,0,0,0,0,0
1684143653.89971614,88728661,1578,1579,1580,1580,0,0,0,0,0,0,0,0,0,0
1684143653.99967599,88828621,1577,1577,1582,1581,0,0,0,0,0,0,0,0,0,0
1684143654.09963608,88928581,1576,1576,1582,1582,0,0,0,0,0,0,0,0,0,0
1684143654.19959617,89028541,1575,1575,1583,1582,0,0,0,0,0,0,0,0,0,0
1684143654.29955602,89128501,1575,1575,1583,1583,0,0,0,0,0,0,0,0,0,0
1684143654.39951611,89228461,1575,1575,1582,1582,0,0,0,0,0,0,0,0,0,0
1684143654.49947619,89328421,1575,1576,1583,1583,0,0,0,0,0,0,0,0,0,0
1684143654.59943604,89428381,1575,1576,1581,1581,0,0,0,0,0,0,0,0,0,0
1684143654.69939613,89528341,1577,1577,1581,1581,0,0,0,0,0,0,0,0,0,0
1684143654.79935598,89628301,1578,1578,1580,1580,0,0,0,0,0,0,0,0,0,0
1684143654.89931607,89728261,1578,1579,1579,1579,0,0,0,0,0,0,0,0,0,0
1684143654.99927616,89828221,1581,1580,1579,1579,0,0,0,0,0,0,0,0,0,0
1684143655.09923601,89928181,1581,1581,1579,1578,0,0,0,0,0,0,0,0,0,0
1684143655.20002913,90028974,1581,1582,1579,1578,0,0,0,0,0,0,0,0,0,0
1684143655.29998899,90128934,1582,1582,1579,1579,0,0,0,0,0,0,0,0,0,0
1684143655.39994907,90228894,1582,1582,1578,1578,0,0,0,0,0,0,0,0,0,0
1684143655.49990916,90328854,1583,1582,1579,1579,0,0,0,0,0,0,0,0,0,0
1684143655.59986901,90428814,1582,1582,1579,1579,0,0,0,0,0,0,0,0,0,0
1684143655.69982910,90528774,1582,1582,1580,1580,0,0,0,0,0,0,0,0,0,0
1684143655.79978919,90628734,1582,1582,1580,1580,0,0,0,0,0,0,0,0,0,0
1684143655.89974904,90728694,1580,1581,1580,1580,0,0,0,0,0,0,0,0,0,0
1684143655.99970913,90828654,1581,1581,1581,1580,0,0,0,0,0,0,0,0,0,0
1684143656.09966898,90928614,1580,1580,1581,1581,0,0,0,0,0,0,0,0,0,0
1684143656.19962907,91028574,1580,1580,1580,1581,0,0,0,0,0,0,0,0,0,0
1684143656.29958916,91128534,1580,1580,1581,1581,0,0,0,0,0,0,0,0,0,0
1684143656.39954901,91228494,1580,1580,1582,1582,0,0,0,0,0,0,0,0,0,0
1684143656.49950910,91328454,1580,1580,1581,1581,0,0,0,0,0,0,0,0,0,0
1684143656.59946918,91428414,1579,1579,1580,1580,0,0,0,0,0,0,0,0,0,0
1684143656.69942904,91528374,1581,1581,1582,1581,0,0,0,0,0,0,0,0,0,0
1684143656.79938912,91628334,1581,1581,1582,1582,0,0,0,0,0,0,0,0,0,0
1684143656.89934897,91728294,1581,1581,1581,1581,0,0,0,0,0,0,0,0,0,0
1684143656.99930906,91828254,1582,1582,1582,1582,0,0,0,0,0,0,0,0,0,0
1684143657.09926915,91928214,1582,1582,1584,1580,0,0,0,0,0,0,0,0,0,0
1684143657.19922900,92028174,1582,1582,1588,1573,0,0,0,0,0,0,0,0,0,0
1684143657.30002213,92128967,1581,1582,1583,1573,0,0,0,0,0,0,0,0,0,0
1684143657.39998198,92228927,1580,1581,1574,1573,0,0,0,0,0,0,0,0,0,0
1684143657.49994206,92328887,1579,1581,1566,1571,0,0,0,0,0,0,0,0,0,0
1684143657.59990215,92428847,1578,1580,1560,1566,0,0,0,0,0,0,0,0,0,0
1684143657.69986200,92528807,1578,1579,1556,1561,0,0,0,0,0,0,0,0,0,0
1684143657.79982209,92628767,1578,1578,1555,1557,0,0,0,0,0,0,0,0,0,0
1684143657.89978218,92728727,1579,1579,1555,1556,0,0,0,0,0,0,0,0,0,0
1684143657.99974203,92828687,1579,1578,1556,1554,0,0,0,0,0,0,0,0,0,0
1684143658.09970212,92928647,1579,1578,1556,1554,0,0,0,0,0,0,0,0,0,0
1684143658.19966197,93028607,1578,1578,1556,1555,0,0,0,0,0,0,0,0,0,0
1684143658.29962206,93128567,1576,1578,1556,1555,0,0,0,0,0,0,0,0,0,0
1684143658.39958215,93228527,1575,1576,1554,1554,0,0,0,0,0,0,0,0,0,0
1684143658.49954200,93328487,1574,1576,1552,1553,0,0,0,0,0,0,0,0,0,0
1684143658.59950209,93428447,1574,1576,1551,1551,0,0,0,0,0,0,0,0,0,0
1684143658.69946218,93528407,1575,1576,1549,1549,0,0,0,0,0,0,0,0,0,0
1684143658.79942203,93628367,1577,1578,1548,1548,0,0,0,0,0,0,0,0,0,0
1684143658.89938211,93728327,1579,1580,1546,1545,0,0,0,0,0,0,0,0,0,0
1684143658.99934196,93828287,1581,1582,1544,1543,0,0,0,0,0,0,0,0,0,0
1684143659.09930205,93928247,1584,1584,1541,1541,0,0,0,0,0,0,0,0,0,0
1684143659.19926214,94028207,1586,1587,1539,1539,0,0,0,0,0,0,0,0,0,0
1684143659.29922199,94128167,1589,1589,1538,1539,0,0,0,0,0,0,0,0,0,0
1684143659.40001512,94228960,1591,1591,1539,1540,0,0,0,0,0,0,0,0,0,0
1684143659.49997497,94328920,1592,1592,1539,1541,0,0,0,0,0,0,0,0,0,0
1684143659.59993505,94428880,1591,1592,1540,1542,0,0,0,0,0,0,0,0,0,0
1684143659.69989514,94528840,1591,1590,1542,1545,0,0,0,0,0,0,0,0,0,0
1684143659.79985499,94628800,1588,1587,1546,1550,0,0,0,0,0,0,0,0,0,0
1684143659.89981508,94728760,1585,1583,1553,1556,0,0,0,0,0,0,0,0,0,0
1684143659.99977517,94828720,1579,1576,1562,1565,0,0,0,0,0,0,0,0,0,0
1684143660.09973502,94928680,1570,1567,1572,1574,0,0,0,0,0,0,0,0,0,0
1684143660.19969511,95028640,1560,1556,1582,1583,0,0,0,0,0,0,0,0,0,0
1684143660.29965496,95128600,1550,1547,1593,1593,0,0,0,0,0,0,0,0,0,0
1684143660.39961505,95228560,1542,1541,1602,1602,0,0,0,0,0,0,0,0,0,0
1684143660.49957514,95328520,1536,1536,1609,1607,0,0,0,0,0,0,0,0,0,0
1684143660.59953499,95428480,1533,1534,1612,1611,0,0,0,0,0,0,0,0,0,0
1684143660.69949508,95528440,1533,1535,1612,1611,0,0,0,0,0,0,0,0,0,0
1684143660.79945517,95628400,1536,1538,1609,1609,0,0,0,0,0,0,0,0,0,0
1684143660.89941502,95728360,1541,1543,1604,1604,0,0,0,0,0,0,0,0,0,0
1684143660.99937510,95828320,1549,1550,1598,1598,0,0,0,0,0,0,0,0,0,0
1684143661.09933519,95928280,1556,1557,1591,1591,0,0,0,0,0,0,0,0,0,0
1684143661.19929504,96028240,1565,1565,1585,1584,0,0,0,0,0,0,0,0,0,0
1684143661.29925513,96128200,1572,1572,1579,1578,0,0,0,0,0,0,0,0,0,0
1684143661.39921498,96228160,1579,1578,1574,1574,0,0,0,0,0,0,0,0,0,0
1684143661.50000811,96328953,1585,1583,1571,1571,0,0,0,0,0,0,0,0,0,0
1684143661.59996819,96428913,1587,1585,1567,1568,0,0,0,0,0,0,0,0,0,0
1684143661.69992805,96528873,1589,1587,1567,1567,0,0,0,0,0,0,0,0,0,0
1684143661.79988813,96628833,1589,1588,1567,1568,0,0,0,0,0,0,0,0,0,0
1684143661.89984798,96728793,1587,1587,1569,1569,0,0,0,0,0,0,0,0,0,0
1684143661.99980807,96828753,1586,1585,1572,1572,0,0,0,0,0,0,0,0,0,0
1684143662.09976816,96928713,1583,1583,1574,1574,0,0,0,0,0,0,0,0,0,0
1684143662.19972801,97028673,1581,1581,1577,1578,0,0,0,0,0,0,0,0,0,0
1684143662.29968810,97128633,1578,1578,1579,1579,0,0,0,0,0,0,0,0,0,0
1684143662.39964819,97228593,1575,1576,1581,1581,0,0,0,0,0,0,0,0,0,0
1684143662.49960804,97328553,1573,1574,1583,1582,0,0,0,0,0,0,0,0,0,0
1684143662.59956813,97428513,1573,1573,1583,1583,0,0,0,0,0,0,0,0,0,0
1684143662.69952798,97528473,1572,1573,1584,1584,0,0,0,0,0,0,0,0,0,0
1684143662.79948807,97628433,1572,1573,1583,1583,0,0,0,0,0,0,0,0,0,0
1684143662.89944816,97728393,1574,1574,1583,1583,0,0,0,0,0,0,0,0,0,0
1684143662.99940801,97828353,1575,1575,1582,1582,0,0,0,0,0,0,0,0,0,0
1684143663.09936810,97928313,1576,1576,1580,1580,0,0,0,0,0,0,0,0,0,0
1684143663.19932818,98028273,1578,1578,1579,1580,0,0,0,0,0,0,0,0,0,0
1684143663.29928803,98128233,1579,1579,1579,1579,0,0,0,0,0,0,0,0,0,0
1684143663.39924812,98228193,1580,1580,1579,1578,0,0,0,0,0,0,0,0,0,0
1684143663.50004101,98328986,1581,1581,1577,1578,0,0,0,0,0,0,0,0,0,0
1684143663.60000110,98428946,1582,1582,1578,1578,0,0,0,0,0,0,0,0,0,0
1684143663.69996119,98528906,1582,1582,1577,1578,0,0,0,0,0,0,0,0,0,0
1684143663.79992104,98628866,1582,1582,1577,1578,0,0,0,0,0,0,0,0,0,0
1684143663.89988112,98728826,1582,1581,1577,1578,0,0,0,0,0,0,0,0,0,0
1684143663.99984097,98828786,1581,1581,1578,1578,0,0,0,0,0,0,0,0,0,0
1684143664.09980106,98928746,1581,1581,1579,1579,0,0,0,0,0,0,0,0,0,0
1684143664.19976115,99028706,1580,1581,1580,1579,0,0,0,0,0,0,0,0,0,0
1684143664.29972100,99128666,1580,1580,1579,1580,0,0,0,0,0,0,0,0,0,0
1684143664.39968109,99228626,1580,1579,1580,1580,0,0,0,0,0,0,0,0,0,0
1684143664.49964118,99328586,1580,1580,1581,1581,0,0,0,0,0,0,0,0,0,0
1684143664.59960103,99428546,1579,1580,1581,1581,0,0,0,0,0,0,0,0,0,0
1684143664.69956112,99528506,1579,1579,1581,1581,0,0,0,0,0,0,0,0,0,0
1684143664.79952097,99628466,1580,1580,1582,1582,0,0,0,0,0,0,0,0,0,0
1684143664.89948106,99728426,1580,1580,1581,1581,0,0,0,0,0,0,0,0,0,0
1684143664.99944115,99828386,1580,1580,1581,1581,0,0,0,0,0,0,0,0,0,0
1684143665.09940100,99928346,1580,1580,1581,1581,0,0,0,0,0,0,0,0,0,0
1684143665.19936109,100028306,1580,1580,1585,1575,0,0,0,0,0,0,0,0,0,0
1684143665.29932117,100128266,1581,1580,1587,1572,0,0,0,0,0,0,0,0,0,0
1684143665.39928102,100228226,1579,1578,1580,1574,0,0,0,0,0,0,0,0,0,0
1684143665.49924111,100328186,1577,1576,1573,1575,0,0,0,0,0,0,0,0,0,0
1684143665.60003400,100428979,1573,1572,1567,1573,0,0,0,0,0,0,0,0,0,0
1684143665.69999409,100528939,1571,1570,1564,1572,0,0,0,0,0,0,0,0,0,0
1684143665.79995418,100628899,1568,1569,1564,1569,0,0,0,0,0,0,0,0,0,0
1684143665.89991403,100728859,1567,1568,1565,1567,0,0,0,0,0,0,0,0,0,0
1684143665.99987411,100828819,1566,1567,1566,1565,0,0,0,0,0,0,0,0,0,0
1684143666.09983397,100928779,1566,1566,1568,1565,0,0,0,0,0,0,0,0,0,0
1684143666.19979405,101028739,1566,1565,1568,1565,0,0,0,0,0,0,0,0,0,0
1684143666.29975414,101128699,1565,1565,1567,1565,0,0,0,0,0,0,0,0,0,0
1684143666.39971399,101228659,1563,1563,1565,1564,0,0,0,0,0,0,0,0,0,0
1684143666.49967408,101328619,1563,1563,1565,1565,0,0,0,0,0,0,0,0,0,0
1684143666.59963417,101428579,1562,1562,1563,1564,0,0,0,0,0,0,0,0,0,0
1684143666.69959402,101528539,1562,1562,1563,1564,0,0,0,0,0,0,0,0,0,0
1684143666.79955411,101628499,1561,1561,1562,1562,0,0,0,0,0,0,0,0,0,0
1684143666.89951396,101728459,1562,1561,1562,1562,0,0,0,0,0,0,0,0,0,0
1684143666.99947405,101828419,1561,1561,1562,1561,0,0,0,0,0,0,0,0,0,0
1684143667.09943414,101928379,1561,1561,1562,1561,0,0,0,0,0,0,0,0,0,0
1684143667.19939399,102028339,1560,1560,1559,1559,0,0,0,0,0,0,0,0,0,0
1684143667.29935408,102128299,1560,1560,1559,1559,0,0,0,0,0,0,0,0,0,0
1684143667.39931417,102228259,1559,1559,1558,1558,0,0,0,0,0,0,0,0,0,0
1684143667.49927402,102328219,1559,1559,1559,1558,0,0,0,0,0,0,0,0,0,0
1684143667.59923410,102428179,1559,1559,1560,1558,0,0,0,0,0,0,0,0,0,0
1684143667.70002699,102528972,1559,1558,1559,1558,0,0,0,0,0,0,0,0,0,0
1684143667.79998708,102628932,1559,1559,1560,1558,0,0,0,0,0,0,0,0,0,0
1684143667.89994717,102728892,1559,1559,1561,1558,0,0,0,0,0,0,0,0,0,0
1684143667.99990702,102828852,1559,1558,1560,1558,0,0,0,0,0,0,0,0,0,0
1684143668.09986711,102928812,1559,1559,1558,1561,0,0,0,0,0,0,0,0,0,0
1684143668.19982719,103028772,1560,1560,1557,1563,0,0,0,0,0,0,0,0,0,0
1684143668.29978704,103128732,1560,1560,1557,1564,0,0,0,0,0,0,0,0,0,0
1684143668.39974713,103228692,1559,1560,1558,1561,0,0,0,0,0,0,0,0,0,0
1684143668.49970698,103328652,1558,1558,1557,1557,0,0,0,0,0,0,0,0,0,0
1684143668.59966707,103428612,1559,1559,1558,1559,0,0,0,0,0,0,0,0,0,0
1684143668.69962716,103528572,1556,1557,1554,1557,0,0,0,0,0,0,0,0,0,0
1684143668.79958701,103628532,1552,1552,1550,1551,0,0,0,0,0,0,0,0,0,0
1684143668.89954710,103728492,1547,1547,1545,1546,0,0,0,0,0,0,0,0,0,0
1684143668.99950719,103828452,1541,1542,1539,1538,0,0,0,0,0,0,0,0,0,0
1684143669.09946704,103928412,1535,1535,1533,1532,0,0,0,0,0,0,0,0,0,0
1684143669.19942713,104028372,1529,1528,1526,1525,0,0,0,0,0,0,0,0,0,0
1684143669.29938698,104128332,1523,1523,1520,1520,0,0,0,0,0,0,0,0,0,0
1684143669.39934707,104228292,1520,1521,1519,1519,0,0,0,0,0,0,0,0,0,0
1684143669.49930716,104328252,1519,1519,1520,1520,0,0,0,0,0,0,0,0,0,0
1684143669.59926701,104428212,1521,1520,1522,1523,0,0,0,0,0,0,0,0,0,0
1684143669.69922709,104528172,1522,1523,1526,1526,0,0,0,0,0,0,0,0,0,0
1684143669.80001998,104628965,1526,1526,1530,1531,0,0,0,0,0,0,0,0,0,0
1684143669.89998007,104728925,1531,1531,1536,1536,0,0,0,0,0,0,0,0,0,0
1684143669.99994016,104828885,1534,1534,1540,1539,0,0,0,0,0,0,0,0,0,0
1684143670.09990001,104928845,1538,1538,1542,1542,0,0,0,0,0,0,0,0,0,0
1684143670.19986010,105028805,1541,1540,1543,1544,0,0,0,0,0,0,0,0,0,0
1684143670.29982018,105128765,1543,1543,1545,1545,0,0,0,0,0,0,0,0,0,0
1684143670.39978004,105228725,1544,1545,1545,1545,0,0,0,0,0,0,0,0,0,0
1684143670.49974012,105328685,1545,1545,1544,1543,0,0,0,0,0,0,0,0,0,0
1684143670.59969997,105428645,1547,1548,1545,1545,0,0,0,0,0,0,0,0,0,0
1684143670.69966006,105528605,1549,1549,1546,1546,0,0,0,0,0,0,0,0,0,0
1684143670.79962015,105628565,1549,1549,1546,1546,0,0,0,0,0,0,0,0,0,0
1684143670.89958000,105728525,1548,1548,1545,1545,0,0,0,0,0,0,0,0,0,0
1684143670.99954009,105828485,1547,1548,1545,1544,0,0,0,0,0,0,0,0,0,0
1684143671.09950018,105928445,1547,1547,1545,1545,0,0,0,0,0,0,0,0,0,0
1684143671.19946003,106028405,1548,1548,1546,1545,0,0,0,0,0,0,0,0,0,0
1684143671.29942012,106128365,1547,1546,1546,1545,0,0,0,0,0,0,0,0,0,0
1684143671.39937997,106228325,1545,1545,1545,1544,0,0,0,0,0,0,0,0,0,0
1684143671.49934006,106328285,1545,1545,1545,1545,0,0,0,0,0,0,0,0,0,0
1684143671.59930015,106428245,1544,1544,1544,1545,0,0,0,0,0,0,0,0,0,0
1684143671.69926000,106528205,1544,1544,1545,1545,0,0,0,0,0,0,0,0,0,0
1684143671.79922009,106628165,1543,1544,1545,1545,0,0,0,0,0,0,0,0,0,0
1684143671.90001297,106728958,1544,1544,1545,1545,0,0,0,0,0,0,0,0,0,0
1684143671.99997306,106828918,1543,1543,1545,1544,0,0,0,0,0,0,0,0,0,0
1684143672.09993315,106928878,1543,1543,1544,1544,0,0,0,0,0,0,0,0,0,0
1684143672.19989300,107028838,1543,1543,1544,1543,0,0,0,0,0,0,0,0,0,0
1684143672.29985309,107128798,1544,1543,1544,1544,0,0,0,0,0,0,0,0,0,0
1684143672.39981318,107228758,1544,1544,1544,1545,0,0,0,0,0,0,0,0,0,0
1684143672.49977303,107328718,1544,1544,1544,1544,0,0,0,0,0,0,0,0,0,0
1684143672.59973311,107428678,1544,1545,1544,1544,0,0,0,0,0,0,0,0,0,0
1684143672.69969296,107528638,1545,1545,1545,1545,0,0,0,0,0,0,0,0,0,0
1684143672.79965305,107628598,1544,1545,1544,1544,0,0,0,0,0,0,0,0,0,0
1684143672.89961314,107728558,1545,1544,1544,1544,0,0,0,0,0,0,0,0,0,0
1684143672.99957299,107828518,1544,1544,1544,1544,0,0,0,0,0,0,0,0,0,0
1684143673.09953308,107928478,1545,1544,1544,1544,0,0,0,0,0,0,0,0,0,0
1684143673.19949317,108028438,1545,1544,1544,1544,0,0,0,0,0,0,0,0,0,0
1684143673.29945302,108128398,1544,1544,1544,1544,0,0,0,0,0,0,0,0,0,0
1684143673.39941311,108228358,1544,1544,1544,1544,0,0,0,0,0,0,0,0,0,0
1684143673.49937320,108328318,1543,1544,1543,1544,0,0,0,0,0,0,0,0,0,0
1684143673.59933305,108428278,1545,1545,1545,1545,0,0,0,0,0,0,0,0,0,0
1684143673.69929314,108528238,1544,1544,1544,1544,0,0,0,0,0,0,0,0,0,0
1684143673.79925299,108628198,1544,1544,1545,1544,0,0,0,0,0,0,0,0,0,0
1684143673.89921308,108728158,1544,1544,1544,1544,0,0,0,0,0,0,0,0,0,0
1684143674.00000596,108828951,1544,1544,1544,1544,0,0,0,0,0,0,0,0,0,0
1684143674.09996605,108928911,1544,1544,1544,1545,0,0,0,0,0,0,0,0,0,0
1684143674.19992614,109028871,1544,1544,1545,1544,0,0,0,0,0,0,0,0,0,0
1684143674.29988599,109128831,1544,1544,1544,1544,0,0,0,0,0,0,0,0,0,0
1684143674.39984608,109228791,1544,1544,1544,1544,0,0,0,0,0,0,0,0,0,0
1684143674.49980617,109328751,1544,1544,1544,1544,0,0,0,0,0,0,0,0,0,0
1684143674.59976602,109428711,1544,1544,1544,1544,0,0,0,0,0,0,0,0,0,0
1684143674.69972610,109528671,1544,1544,1544,1544,0,0,0,0,0,0,0,0,0,0
1684143674.79968619,109628631,1544,1544,1544,1544,0,0,0,0,0,0,0,0,0,0
1684143674.89964604,109728591,1544,1544,1544,1544,0,0,0,0,0,0,0,0,0,0
1684143674.99960613,109828551,1544,1544,1545,1544,0,0,0,0,0,0,0,0,0,0
1684143675.09956598,109928511,1544,1544,1544,1544,0,0,0,0,0,0,0,0,0,0
1684143675.19952607,110028471,1544,1544,1543,1543,0,0,0,0,0,0,0,0,0,0
1684143675.29948616,110128431,1545,1545,1544,1545,0,0,0,0,0,0,0,0,0,0
1684143675.39944601,110228391,1544,1545,1544,1544,0,0,0,0,0,0,0,0,0,0
1684143675.49940610,110328351,1545,1545,1545,1545,0,0,0,0,0,0,0,0,0,0
1684143675.59936619,110428311,1544,1545,1545,1544,0,0,0,0,0,0,0,0,0,0
1684143675.69932604,110528271,1545,1544,1544,1545,0,0,0,0,0,0,0,0,0,0
1684143675.79928613,110628231,1545,1545,1545,1545,0,0,0,0,0,0,0,0,0,0
1684143675.89924598,110728191,1545,1544,1545,1544,0,0,0,0,0,0,0,0,0,0
1684143676.00003910,110828984,1545,1544,1545,1545,0,0,0,0,0,0,0,0,0,0
1684143676.09999919,110928944,1544,1544,1544,1544,0,0,0,0,0,0,0,0,0,0
1684143676.19995904,111028904,1544,1545,1545,1544,0,0,0,0,0,0,0,0,0,0
1684143676.29991913,111128864,1544,1544,1544,1544,0,0,0,0,0,0,0,0,0,0
1684143676.39987898,111228824,1544,1544,1544,1543,0,0,0,0,0,0,0,0,0,0
1684143676.49983907,111328784,1544,1544,1543,1544,0,0,0,0,0,0,0,0,0,0
1684143676.59979916,111428744,1544,1544,1544,1544,0,0,0,0,0,0,0,0,0,0
1684143676.69975901,111528704,1545,1544,1544,1545,0,0,0,0,0,0,0,0,0,0
1684143676.79971910,111628664,1545,1545,1545,1545,0,0,0,0,0,0,0,0,0,0
1684143676.89967918,111728624,1545,1544,1544,1545,0,0,0,0,0,0,0,0,0,0
1684143676.99963903,111828584,1545,1545,1545,1545,0,0,0,0,0,0,0,0,0,0
1684143677.09959912,111928544,1544,1544,1543,1544,0,0,0,0,0,0,0,0,0,0
1684143677.19955897,112028504,1544,1544,1544,1544,0,0,0,0,0,0,0,0,0,0
1684143677.29951906,112128464,1544,1544,1544,1544,0,0,0,0,0,0,0,0,0,0
1684143677.39947915,112228424,1544,1544,1544,1544,0,0,0,0,0,0,0,0,0,0
1684143677.49943900,112328384,1543,1543,1543,1543,0,0,0,0,0,0,0,0,0,0
1684143677.59939909,112428344,1543,1544,1544,1544,0,0,0,0,0,0,0,0,0,0
1684143677.69935918,112528304,1544,1544,1544,1544,0,0,0,0,0,0,0,0,0,0
1684143677.79931903,112628264,1543,1544,1543,1543,0,0,0,0,0,0,0,0,0,0
1684143677.89927912,112728224,1543,1543,1543,1543,0,0,0,0,0,0,0,0,0,0
1684143677.99923897,112828184,1543,1544,1544,1544,0,0,0,0,0,0,0,0,0,0
1684143678.10003209,112928977,1545,1545,1545,1545,0,0,0,0,0,0,0,0,0,0
1684143678.19999218,113028937,1544,1544,1544,1544,0,0,0,0,0,0,0,0,0,0
1684143678.29995203,113128897,1545,1545,1545,1545,0,0,0,0,0,0,0,0,0,0
1684143678.39991212,113228857,1544,1545,1545,1545,0,0,0,0,0,0,0,0,0,0
1684143678.49987197,113328817,1545,1544,1545,1545,0,0,0,0,0,0,0,0,0,0
1684143678.59983206,113428777,1544,1544,1544,1544,0,0,0,0,0,0,0,0,0,0
1684143678.69979215,113528737,1544,1544,1544,1544,0,0,0,0,0,0,0,0,0,0
1684143678.79975200,113628697,1544,1544,1544,1544,0,0,0,0,0,0,0,0,0,0
1684143678.89971209,113728657,1544,1544,1544,1545,0,0,0,0,0,0,0,0,0,0
1684143678.99967217,113828617,1512,1512,1505,1504,0,0,0,0,0,0,0,0,0,0
1684143679.09963202,113928577,1372,1373,1325,1323,0,0,0,0,0,0,0,0,0,0
1684143679.19959211,114028537,1312,1314,1241,1237,0,0,0,0,0,0,0,0,0,0
1684143679.29955196,114128497,1296,1297,1215,1213,0,0,0,0,0,0,0,0,0,0
1684143679.39951205,114228457,1281,1282,1193,1190,0,0,0,0,0,0,0,0,0,0
1684143679.49947214,114328417,1256,1257,1152,1150,0,0,0,0,0,0,0,0,0,0
1684143679.59943199,114428377,1161,1161,1152,1150,0,0,0,0,0,0,0,0,0,0
1684143679.69939208,114528337,1140,1140,1151,1150,0,0,0,0,0,0,0,0,0,0
1684143679.79935217,114628297,1139,1140,1152,1150,0,0,0,0,0,0,0,0,0,0
1684143679.89931202,114728257,1140,1140,1151,1150,0,0,0,0,0,0,0,0,0,0
1684143679.99927211,114828217,1140,1127,1150,1168,0,0,0,0,0,0,0,0,0,0
1684143680.09923220,114928177,1141,1132,1150,1160,0,0,0,0,0,0,0,0,0,0
1684143680.20002508,115028970,1141,1134,1150,1158,0,0,0,0,0,0,0,0,0,0
1684143680.29998517,115128930,1141,1134,1150,1158,0,0,0,0,0,0,0,0,0,0
1684143680.39994502,115228890,1141,1134,1150,1158,0,0,0,0,0,0,0,0,0,0
1684143680.49990511,115328850,1141,1134,1150,1158,0,0,0,0,0,0,0,0,0,0
1684143680.59986496,115428810,1141,1134,1150,1159,0,0,0,0,0,0,0,0,0,0
1684143680.69982505,115528770,1141,1137,1150,1154,0,0,0,0,0,0,0,0,0,0
1684143680.79978514,115628730,1141,1140,1150,1150,0,0,0,0,0,0,0,0,0,0
1684143680.89974499,115728690,1141,1139,1150,1151,0,0,0,0,0,0,0,0,0,0
1684143680.99970508,115828650,1141,1139,1150,1151,0,0,0,0,0,0,0,0,0,0
1684143681.09966516,115928610,1141,1139,1150,1151,0,0,0,0,0,0,0,0,0,0
1684143681.19962502,116028570,983,983,1150,1150,0,0,0,0,0,0,0,0,0,0
1684143681.29958510,116128530,1000,1000,1000,1000,0,0,0,0,0,0,0,0,0,0
1684143681.39954519,116228490,1000,1000,1000,1000,0,0,0,0,0,0,0,0,0,0
1684143681.49950504,116328450,1000,1000,1000,1000,0,0,0,0,0,0,0,0,0,0
1684143681.59946513,116428410,1000,1000,1000,1000,0,0,0,0,0,0,0,0,0,0
1684143681.69942498,116528370,1000,1000,1000,1000,0,0,0,0,0,0,0,0,0,0
1684143681.79938507,116628330,1000,1000,1000,1000,0,0,0,0,0,0,0,0,0,0
1684143681.89934516,116728290,1000,1000,1000,1000,0,0,0,0,0,0,0,0,0,0
1684143681.99930501,116828250,1000,1000,1000,1000,0,0,0,0,0,0,0,0,0,0
1684143682.09926510,116928210,1000,1000,1000,1000,0,0,0,0,0,0,0,0,0,0
1684143682.19922519,117028170,1000,1000,1000,1000,0,0,0,0,0,0,0,0,0,0
1684143682.30001807,117128963,1000,1000,1000,1000,0,0,0,0,0,0,0,0,0,0
1684143682.39997816,117228923,1000,1000,1000,1000,0,0,0,0,0,0,0,0,0,0
1684143682.49993801,117328883,1000,1000,1000,1000,0,0,0,0,0,0,0,0,0,0
1684143682.59989810,117428843,1000,1000,1000,1000,0,0,0,0,0,0,0,0,0,0
1684143682.69985819,117528803,1000,1000,1000,1000,0,0,0,0,0,0,0,0,0,0
1684143682.79981804,117628763,1000,1000,1000,1000,0,0,0,0,0,0,0,0,0,0
1684143682.89977813,117728723,1000,1000,1000,1000,0,0,0,0,0,0,0,0,0,0
1684143682.99973798,117828683,1000,1000,1000,1000,0,0,0,0,0,0,0,0,0,0
1684143683.09969807,117928643,1000,1000,1000,1000,0,0,0,0,0,0,0,0,0,0
1684143683.19965816,118028603,1000,1000,1000,1000,0,0,0,0,0,0,0,0,0,0
1684143683.29961801,118128563,1000,1000,1000,1000,0,0,0,0,0,0,0,0,0,0
1684143683.39957809,118228523,1000,1000,1000,1000,0,0,0,0,0,0,0,0,0,0
1684143683.49953818,118328483,1000,1000,1000,1000,0,0,0,0,0,0,0,0,0,0
1684143683.59949803,118428443,1000,1000,1000,1000,0,0,0,0,0,0,0,0,0,0
1684143683.69945812,118528403,1000,1000,1000,1000,0,0,0,0,0,0,0,0,0,0
1684143683.79941797,118628363,1000,1000,1000,1000,0,0,0,0,0,0,0,0,0,0
1684143683.89937806,118728323,1000,1000,1000,1000,0,0,0,0,0,0,0,0,0,0
1684143683.99933815,118828283,1000,1000,1000,1000,0,0,0,0,0,0,0,0,0,0
1684143684.09929800,118928243,1000,1000,1000,1000,0,0,0,0,0,0,0,0,0,0
1684143684.19925809,119028203,1000,1000,1000,1000,0,0,0,0,0,0,0,0,0,0
1684143684.29921818,119128163,1000,1000,1000,1000,0,0,0,0,0,0,0,0,0,0
1684143684.40001106,119228956,1000,1000,1000,1000,0,0,0,0,0,0,0,0,0,0
1684143684.49997115,119328916,1000,1000,1000,1000,0,0,0,0,0,0,0,0,0,0
1684143684.59993100,119428876,1000,1000,1000,1000,0,0,0,0,0,0,0,0,0,0
1684143684.69989109,119528836,1000,1000,1000,1000,0,0,0,0,0,0,0,0,0,0
1684143684.79985118,119628796,1000,1000,1000,1000,0,0,0,0,0,0,0,0,0,0
1684143684.89981103,119728756,1000,1000,1000,1000,0,0,0,0,0,0,0,0,0,0
1684143684.99977112,119828716,1000,1000,1000,1000,0,0,0,0,0,0,0,0,0,0
1684143685.09973097,119928676,1000,1000,1000,1000,0,0,0,0,0,0,0,0,0,0
1684143685.19969106,120028636,1000,1000,1000,1000,0,0,0,0,0,0,0,0,0,0
1684143685.29965115,120128596,1000,1000,1000,1000,0,0,0,0,0,0,0,0,0,0
1684143685.39961100,120228556,1000,1000,1000,1000,0,0,0,0,0,0,0,0,0,0
1684143685.49957108,120328516,1000,1000,1000,1000,0,0,0,0,0,0,0,0,0,0
1684143685.59953117,120428476,1000,1000,1000,1000,0,0,0,0,0,0,0,0,0,0
1684143685.69949102,120528436,1000,1000,1000,1000,0,0,0,0,0,0,0,0,0,0
1684143685.79945111,120628396,1000,1000,1000,1000,0,0,0,0,0,0,0,0,0,0
1684143685.89941096,120728356,1000,1000,1000,1000,0,0,0,0,0,0,0,0,0,0
1684143685.99937105,120828316,1000,1000,1000,1000,0,0,0,0,0,0,0,0,0,0
1684143686.09933114,120928276,1000,1000,1000,1000,0,0,0,0,0,0,0,0,0,0
1684143686.19929099,121028236,1000,1000,1000,1000,0,0,0,0,0,0,0,0,0,0
1684143686.29925108,121128196,1000,1000,1000,1000,0,0,0,0,0,0,0,0,0,0
1684143686.39921117,121228156,1000,1000,1000,1000,0,0,0,0,0,0,0,0,0,0
1684143686.50000405,121328949,1000,1000,1000,1000,0,0,0,0,0,0,0,0,0,0
1684143686.59996414,121428909,1000,1000,1000,1000,0,0,0,0,0,0,0,0,0,0
1684143686.69992399,121528869,1000,1000,1000,1000,0,0,0,0,0,0,0,0,0,0
1684143686.79988408,121628829,1000,1000,1000,1000,0,0,0,0,0,0,0,0,0,0
1684143686.89984417,121728789,1000,1000,1000,1000,0,0,0,0,0,0,0,0,0,0
1684143686.99980402,121828749,1000,1000,1000,1000,0,0,0,0,0,0,0,0,0,0
1684143687.09976411,121928709,1000,1000,1000,1000,0,0,0,0,0,0,0,0,0,0
1684143687.19972420,122028669,1000,1000,1000,1000,0,0,0,0,0,0,0,0,0,0
1684143687.29968405,122128629,1000,1000,1000,1000,0,0,0,0,0,0,0,0,0,0
1684143687.39964414,122228589,1000,1000,1000,1000,0,0,0,0,0,0,0,0,0,0
1684143687.49960399,122328549,1000,1000,1000,1000,0,0,0,0,0,0,0,0,0,0
1684143687.59956408,122428509,1000,1000,1000,1000,0,0,0,0,0,0,0,0,0,0
1684143687.69952416,122528469,1000,1000,1000,1000,0,0,0,0,0,0,0,0,0,0
1684143687.79948401,122628429,1000,1000,1000,1000,0,0,0,0,0,0,0,0,0,0
1684143687.89944410,122728389,1000,1000,1000,1000,0,0,0,0,0,0,0,0,0,0
1684143687.99940419,122828349,1000,1000,1000,1000,0,0,0,0,0,0,0,0,0,0
1684143688.09936404,122928309,1000,1000,1000,1000,0,0,0,0,0,0,0,0,0,0
1684143688.19932413,123028269,1000,1000,1000,1000,0,0,0,0,0,0,0,0,0,0
1684143688.29928398,123128229,1000,1000,1000,1000,0,0,0,0,0,0,0,0,0,0
1684143688.39924407,123228189,1000,1000,1000,1000,0,0,0,0,0,0,0,0,0,0
1684143688.50003719,123328982,1000,1000,1000,1000,0,0,0,0,0,0,0,0,0,0
1684143688.59999704,123428942,1000,1000,1000,1000,0,0,0,0,0,0,0,0,0,0
1684143688.69995713,123528902,1000,1000,1000,1000,0,0,0,0,0,0,0,0,0,0
1684143688.79991698,123628862,1000,1000,1000,1000,0,0,0,0,0,0,0,0,0,0
1684143688.89987707,123728822,1000,1000,1000,1000,0,0,0,0,0,0,0,0,0,0
1684143688.99983716,123828782,1000,1000,1000,1000,0,0,0,0,0,0,0,0,0,0
1684143689.09979701,123928742,1000,1000,1000,1000,0,0,0,0,0,0,0,0,0,0
1684143689.19975710,124028702,1000,1000,1000,1000,0,0,0,0,0,0,0,0,0,0
1684143689.29971719,124128662,1000,1000,1000,1000,0,0,0,0,0,0,0,0,0,0
1684143689.39967704,124228622,1000,1000,1000,1000,0,0,0,0,0,0,0,0,0,0
1684143689.49963713,124328582,1000,1000,1000,1000,0,0,0,0,0,0,0,0,0,0
1684143689.59959698,124428542,1000,1000,1000,1000,0,0,0,0,0,0,0,0,0,0
