timestamp,TimeUS,C1,C2,C3,C4,C5,C6,C7,C8,C9,C10,C11,C12,C13,C14
1684080795.89920712,44128175,1000,1000,1000,1000,0,0,0,0,0,0,0,0,0,0
1684080796.00000000,44228968,1000,1000,1000,1000,0,0,0,0,0,0,0,0,0,0
1684080796.09996009,44328928,1000,1000,1000,1000,0,0,0,0,0,0,0,0,0,0
1684080796.19992018,44428888,1000,1000,1000,1000,0,0,0,0,0,0,0,0,0,0
1684080796.29988003,44528848,1000,1000,1000,1000,0,0,0,0,0,0,0,0,0,0
1684080796.39984012,44628808,1000,1000,1000,1000,0,0,0,0,0,0,0,0,0,0
1684080796.49980021,44728768,1000,1000,1000,1000,0,0,0,0,0,0,0,0,0,0
1684080796.59976006,44828728,1000,1000,1000,1000,0,0,0,0,0,0,0,0,0,0
1684080796.69972014,44928688,1000,1000,1000,1000,0,0,0,0,0,0,0,0,0,0
1684080796.79967999,45028648,1000,1000,1000,1000,0,0,0,0,0,0,0,0,0,0
1684080796.89964008,45128608,1000,1000,1000,1000,0,0,0,0,0,0,0,0,0,0
1684080796.99960017,45228568,1000,1000,1000,1000,0,0,0,0,0,0,0,0,0,0
1684080797.09956002,45328528,1000,1000,1000,1000,0,0,0,0,0,0,0,0,0,0
1684080797.19952011,45428488,1000,1000,1000,1000,0,0,0,0,0,0,0,0,0,0
1684080797.29948020,45528448,1000,1000,1000,1000,0,0,0,0,0,0,0,0,0,0
1684080797.39944005,45628408,1000,1000,1000,1000,0,0,0,0,0,0,0,0,0,0
1684080797.49940014,45728368,1000,1000,1000,1000,0,0,0,0,0,0,0,0,0,0
1684080797.59935999,45828328,1000,1000,1000,1000,0,0,0,0,0,0,0,0,0,0
1684080797.69932008,45928288,1000,1000,1000,1000,0,0,0,0,0,0,0,0,0,0
1684080797.79928017,46028248,1000,1000,1000,1000,0,0,0,0,0,0,0,0,0,0
1684080797.89924002,46128208,1022,1022,1022,1022,0,0,0,0,0,0,0,0,0,0
1684080797.99920011,46228168,1052,1052,1052,1052,0,0,0,0,0,0,0,0,0,0
1684080798.09999299,46328961,1082,1082,1082,1082,0,0,0,0,0,0,0,0,0,0
1684080798.19995308,46428921,1100,1100,1100,1100,0,0,0,0,0,0,0,0,0,0
1684080798.29991317,46528881,1100,1100,1100,1100,0,0,0,0,0,0,0,0,0,0
1684080798.39987302,46628841,1100,1100,1100,1100,0,0,0,0,0,0,0,0,0,0
1684080798.49983311,46728801,1100,1100,1100,1100,0,0,0,0,0,0,0,0,0,0
1684080798.59979320,46828761,1100,1100,1100,1100,0,0,0,0,0,0,0,0,0,0
1684080798.69975305,46928721,1100,1100,1100,1100,0,0,0,0,0,0,0,0,0,0
1684080798.79971313,47028681,1100,1100,1100,1100,0,0,0,0,0,0,0,0,0,0
1684080798.89967299,47128641,1100,1100,1100,1100,0,0,0,0,0,0,0,0,0,0
1684080798.99963307,47228601,1100,1100,1100,1100,0,0,0,0,0,0,0,0,0,0
1684080799.09959316,47328561,1100,1100,1100,1100,0,0,0,0,0,0,0,0,0,0
1684080799.19955301,47428521,1100,1100,1100,1100,0,0,0,0,0,0,0,0,0,0
1684080799.29951310,47528481,1100,1100,1100,1100,0,0,0,0,0,0,0,0,0,0
1684080799.39947319,47628441,1100,1100,1100,1100,0,0,0,0,0,0,0,0,0,0
1684080799.49943304,47728401,1100,1100,1100,1100,0,0,0,0,0,0,0,0,0,0
1684080799.59939313,47828361,1100,1100,1100,1100,0,0,0,0,0,0,0,0,0,0
1684080799.69935298,47928321,1100,1100,1100,1100,0,0,0,0,0,0,0,0,0,0
1684080799.79931307,48028281,1100,1100,1100,1100,0,0,0,0,0,0,0,0,0,0
1684080799.89927316,48128241,1100,1100,1100,1100,0,0,0,0,0,0,0,0,0,0
1684080799.99923301,48228201,1100,1100,1100,1100,0,0,0,0,0,0,0,0,0,0
1684080800.09919310,48328161,1113,1113,1113,1113,0,0,0,0,0,0,0,0,0,0
1684080800.19998598,48428954,1143,1143,1143,1143,0,0,0,0,0,0,0,0,0,0
1684080800.29994607,48528914,1190,1185,1185,1190,0,0,0,0,0,0,0,0,0,0
1684080800.39990616,48628874,1220,1215,1215,1220,0,0,0,0,0,0,0,0,0,0
1684080800.49986601,48728834,1259,1254,1254,1259,0,0,0,0,0,0,0,0,0,0
1684080800.59982610,48828794,1307,1302,1302,1307,0,0,0,0,0,0,0,0,0,0
1684080800.69978619,48928754,1356,1350,1350,1356,0,0,0,0,0,0,0,0,0,0
1684080800.79974604,49028714,1406,1400,1400,1406,0,0,0,0,0,0,0,0,0,0
1684080800.89970613,49128674,1457,1452,1451,1458,0,0,0,0,0,0,0,0,0,0
1684080800.99966621,49228634,1510,1504,1504,1510,0,0,0,0,0,0,0,0,0,0
1684080801.09962606,49328594,1564,1558,1558,1564,0,0,0,0,0,0,0,0,0,0
1684080801.19958615,49428554,1606,1600,1600,1606,0,0,0,0,0,0,0,0,0,0
1684080801.29954600,49528514,1637,1630,1630,1638,0,0,0,0,0,0,0,0,0,0
1684080801.39950609,49628474,1671,1664,1664,1672,0,0,0,0,0,0,0,0,0,0
1684080801.49946618,49728434,1706,1699,1699,1707,0,0,0,0,0,0,0,0,0,0
1684080801.59942603,49828394,1744,1736,1736,1745,0,0,0,0,0,0,0,0,0,0
1684080801.69938612,49928354,1778,1771,1771,1779,0,0,0,0,0,0,0,0,0,0
1684080801.79934621,50028314,1693,1691,1692,1694,0,0,0,0,0,0,0,0,0,0
1684080801.89930606,50128274,1576,1578,1578,1576,0,0,0,0,0,0,0,0,0,0
1684080801.99926615,50228234,1556,1559,1559,1557,0,0,0,0,0,0,0,0,0,0
1684080802.09922600,50328194,1591,1593,1594,1591,0,0,0,0,0,0,0,0,0,0
1684080802.19918609,50428154,1626,1629,1629,1627,0,0,0,0,0,0,0,0,0,0
1684080802.29997921,50528947,1644,1645,1645,1643,0,0,0,0,0,0,0,0,0,0
1684080802.39993906,50628907,1645,1646,1646,1645,0,0,0,0,0,0,0,0,0,0
1684080802.49989915,50728867,1642,1640,1640,1642,0,0,0,0,0,0,0,0,0,0
1684080802.59985900,50828827,1638,1636,1636,1637,0,0,0,0,0,0,0,0,0,0
1684080802.69981909,50928787,1635,1634,1634,1635,0,0,0,0,0,0,0,0,0,0
1684080802.79977918,51028747,1634,1634,1633,1634,0,0,0,0,0,0,0,0,0,0
1684080802.89973903,51128707,1634,1634,1634,1634,0,0,0,0,0,0,0,0,0,0
1684080802.99969912,51228667,1633,1634,1634,1633,0,0,0,0,0,0,0,0,0,0
1684080803.09965920,51328627,1633,1633,1633,1633,0,0,0,0,0,0,0,0,0,0
1684080803.19961905,51428587,1604,1604,1605,1603,0,0,0,0,0,0,0,0,0,0
1684080803.29957914,51528547,1587,1587,1587,1587,0,0,0,0,0,0,0,0,0,0
1684080803.39953899,51628507,1575,1574,1574,1575,0,0,0,0,0,0,0,0,0,0
1684080803.49949908,51728467,1566,1565,1564,1566,0,0,0,0,0,0,0,0,0,0
1684080803.59945917,51828427,1559,1558,1554,1563,0,0,0,0,0,0,0,0,0,0
1684080803.69941902,51928387,1553,1553,1548,1557,0,0,0,0,0,0,0,0,0,0
1684080803.79937911,52028347,1550,1549,1546,1552,0,0,0,0,0,0,0,0,0,0
1684080803.89933920,52128307,1547,1547,1546,1548,0,0,0,0,0,0,0,0,0,0
1684080803.99929905,52228267,1546,1546,1547,1545,0,0,0,0,0,0,0,0,0,0
1684080804.09925914,52328227,1546,1546,1548,1544,0,0,0,0,0,0,0,0,0,0
1684080804.19921899,52428187,1548,1548,1551,1545,0,0,0,0,0,0,0,0,0,0
1684080804.30001211,52528980,1549,1549,1552,1546,0,0,0,0,0,0,0,0,0,0
1684080804.39997220,52628940,1542,1542,1551,1534,0,0,0,0,0,0,0,0,0,0
1684080804.49993205,52728900,1541,1541,1546,1537,0,0,0,0,0,0,0,0,0,0
1684080804.59989214,52828860,1540,1541,1539,1543,0,0,0,0,0,0,0,0,0,0
1684080804.69985199,52928820,1541,1541,1536,1547,0,0,0,0,0,0,0,0,0,0
1684080804.79981208,53028780,1543,1542,1536,1549,0,0,0,0,0,0,0,0,0,0
1684080804.89977217,53128740,1544,1544,1539,1549,0,0,0,0,0,0,0,0,0,0
1684080804.99973202,53228700,1547,1547,1544,1549,0,0,0,0,0,0,0,0,0,0
1684080805.09969211,53328660,1550,1550,1551,1549,0,0,0,0,0,0,0,0,0,0
1684080805.19965219,53428620,1553,1553,1556,1550,0,0,0,0,0,0,0,0,0,0
1684080805.29961205,53528580,1557,1557,1560,1553,0,0,0,0,0,0,0,0,0,0
1684080805.39957213,53628540,1559,1558,1561,1556,0,0,0,0,0,0,0,0,0,0
1684080805.49953198,53728500,1560,1560,1561,1560,0,0,0,0,0,0,0,0,0,0
1684080805.59949207,53828460,1561,1559,1562,1564,0,0,0,0,0,0,0,0,0,0
1684080805.69945216,53928420,1555,1555,1568,1571,0,0,0,0,0,0,0,0,0,0
1684080805.79941201,54028380,1555,1556,1567,1570,0,0,0,0,0,0,0,0,0,0
1684080805.89937210,54128340,1559,1560,1567,1569,0,0,0,0,0,0,0,0,0,0
1684080805.99933219,54228300,1563,1563,1566,1567,0,0,0,0,0,0,0,0,0,0
1684080806.09929204,54328260,1565,1566,1565,1565,0,0,0,0,0,0,0,0,0,0
1684080806.19925213,54428220,1569,1569,1564,1564,0,0,0,0,0,0,0,0,0,0
1684080806.29921198,54528180,1571,1571,1565,1563,0,0,0,0,0,0,0,0,0,0
1684080806.40000510,54628973,1573,1573,1565,1564,0,0,0,0,0,0,0,0,0,0
1684080806.49996519,54728933,1574,1574,1565,1565,0,0,0,0,0,0,0,0,0,0
1684080806.59992504,54828893,1574,1573,1565,1566,0,0,0,0,0,0,0,0,0,0
1684080806.69988513,54928853,1573,1572,1566,1567,0,0,0,0,0,0,0,0,0,0
1684080806.79984498,55028813,1573,1573,1568,1568,0,0,0,0,0,0,0,0,0,0
1684080806.89980507,55128773,1572,1573,1570,1571,0,0,0,0,0,0,0,0,0,0
1684080806.99976516,55228733,1572,1572,1572,1572,0,0,0,0,0,0,0,0,0,0
1684080807.09972501,55328693,1573,1573,1575,1574,0,0,0,0,0,0,0,0,0,0
1684080807.19968510,55428653,1572,1573,1576,1574,0,0,0,0,0,0,0,0,0,0
1684080807.29964519,55528613,1573,1573,1577,1575,0,0,0,0,0,0,0,0,0,0
1684080807.39960504,55628573,1573,1574,1577,1576,0,0,0,0,0,0,0,0,0,0
1684080807.49956512,55728533,1574,1574,1577,1577,0,0,0,0,0,0,0,0,0,0
1684080807.59952521,55828493,1575,1575,1577,1577,0,0,0,0,0,0,0,0,0,0
1684080807.69948506,55928453,1576,1575,1577,1577,0,0,0,0,0,0,0,0,0,0
1684080807.79944515,56028413,1577,1577,1578,1578,0,0,0,0,0,0,0,0,0,0
1684080807.89940500,56128373,1577,1577,1577,1577,0,0,0,0,0,0,0,0,0,0
1684080807.99936509,56228333,1578,1577,1577,1577,0,0,0,0,0,0,0,0,0,0
1684080808.09932518,56328293,1577,1577,1576,1576,0,0,0,0,0,0,0,0,0,0
1684080808.19928503,56428253,1577,1577,1576,1576,0,0,0,0,0,0,0,0,0,0
1684080808.29924512,56528213,1577,1578,1576,1576,0,0,0,0,0,0,0,0,0,0
1684080808.39920521,56628173,1577,1577,1576,1576,0,0,0,0,0,0,0,0,0,0
1684080808.49999809,56728966,1578,1577,1577,1576,0,0,0,0,0,0,0,0,0,0
1684080808.59995818,56828926,1578,1578,1577,1577,0,0,0,0,0,0,0,0,0,0
1684080808.69991803,56928886,1577,1577,1577,1577,0,0,0,0,0,0,0,0,0,0
1684080808.79987812,57028846,1577,1577,1577,1577,0,0,0,0,0,0,0,0,0,0
1684080808.89983821,57128806,1578,1578,1578,1578,0,0,0,0,0,0,0,0,0,0
1684080808.99979806,57228766,1578,1578,1579,1578,0,0,0,0,0,0,0,0,0,0
1684080809.09975815,57328726,1579,1578,1579,1579,0,0,0,0,0,0,0,0,0,0
1684080809.19971800,57428686,1579,1579,1579,1579,0,0,0,0,0,0,0,0,0,0
1684080809.29967809,57528646,1579,1579,1580,1580,0,0,0,0,0,0,0,0,0,0
1684080809.39963818,57628606,1579,1579,1580,1580,0,0,0,0,0,0,0,0,0,0
1684080809.49959803,57728566,1579,1579,1579,1579,0,0,0,0,0,0,0,0,0,0
1684080809.59955812,57828526,1579,1579,1579,1579,0,0,0,0,0,0,0,0,0,0
1684080809.69951820,57928486,1579,1579,1579,1580,0,0,0,0,0,0,0,0,0,0
1684080809.79947805,58028446,1579,1579,1579,1579,0,0,0,0,0,0,0,0,0,0
1684080809.89943814,58128406,1579,1579,1579,1579,0,0,0,0,0,0,0,0,0,0
1684080809.99939799,58228366,1580,1580,1579,1579,0,0,0,0,0,0,0,0,0,0
1684080810.09935808,58328326,1580,1580,1580,1580,0,0,0,0,0,0,0,0,0,0
1684080810.19931817,58428286,1581,1580,1581,1580,0,0,0,0,0,0,0,0,0,0
1684080810.29927802,58528246,1580,1580,1580,1580,0,0,0,0,0,0,0,0,0,0
1684080810.39923811,58628206,1580,1581,1581,1580,0,0,0,0,0,0,0,0,0,0
1684080810.49919820,58728166,1581,1581,1581,1581,0,0,0,0,0,0,0,0,0,0
1684080810.59999108,58828959,1580,1580,1580,1580,0,0,0,0,0,0,0,0,0,0
1684080810.69995117,58928919,1579,1579,1579,1580,0,0,0,0,0,0,0,0,0,0
1684080810.79991102,59028879,1580,1580,1580,1580,0,0,0,0,0,0,0,0,0,0
1684080810.89987111,59128839,1580,1580,1580,1580,0,0,0,0,0,0,0,0,0,0
1684080810.99983120,59228799,1581,1581,1581,1581,0,0,0,0,0,0,0,0,0,0
1684080811.09979105,59328759,1581,1580,1581,1581,0,0,0,0,0,0,0,0,0,0
1684080811.19975114,59428719,1580,1580,1580,1581,0,0,0,0,0,0,0,0,0,0
1684080811.29971099,59528679,1581,1581,1581,1581,0,0,0,0,0,0,0,0,0,0
1684080811.39967108,59628639,1580,1580,1580,1580,0,0,0,0,0,0,0,0,0,0
1684080811.49963117,59728599,1581,1581,1581,1581,0,0,0,0,0,0,0,0,0,0
1684080811.59959102,59828559,1581,1581,1581,1581,0,0,0,0,0,0,0,0,0,0
1684080811.69955111,59928519,1581,1580,1580,1580,0,0,0,0,0,0,0,0,0,0
1684080811.79951119,60028479,1581,1580,1581,1581,0,0,0,0,0,0,0,0,0,0
1684080811.89947104,60128439,1581,1581,1583,1579,0,0,0,0,0,0,0,0,0,0
1684080811.99943113,60228399,1580,1582,1588,1573,0,0,0,0,0,0,0,0,0,0
1684080812.09939098,60328359,1580,1583,1583,1574,0,0,0,0,0,0,0,0,0,0
1684080812.19935107,60428319,1578,1581,1574,1573,0,0,0,0,0,0,0,0,0,0
1684080812.29931116,60528279,1577,1580,1566,1571,0,0,0,0,0,0,0,0,0,0
1684080812.39927101,60628239,1578,1580,1561,1568,0,0,0,0,0,0,0,0,0,0
1684080812.49923110,60728199,1578,1578,1557,1562,0,0,0,0,0,0,0,0,0,0
1684080812.59919119,60828159,1580,1578,1556,1559,0,0,0,0,0,0,0,0,0,0
1684080812.69998407,60928952,1580,1578,1556,1556,0,0,0,0,0,0,0,0,0,0
1684080812.79994416,61028912,1580,1579,1557,1555,0,0,0,0,0,0,0,0,0,0
1684080812.89990401,61128872,1578,1578,1556,1554,0,0,0,0,0,0,0,0,0,0
1684080812.99986410,61228832,1575,1577,1555,1553,0,0,0,0,0,0,0,0,0,0
1684080813.09982419,61328792,1574,1576,1554,1553,0,0,0,0,0,0,0,0,0,0
1684080813.19978404,61428752,1574,1576,1554,1553,0,0,0,0,0,0,0,0,0,0
1684080813.29974413,61528712,1575,1576,1553,1553,0,0,0,0,0,0,0,0,0,0
1684080813.39970398,61628672,1575,1577,1551,1552,0,0,0,0,0,0,0,0,0,0
1684080813.49966407,61728632,1577,1578,1550,1550,0,0,0,0,0,0,0,0,0,0
1684080813.59962416,61828592,1578,1579,1547,1547,0,0,0,0,0,0,0,0,0,0
1684080813.69958401,61928552,1581,1582,1544,1544,0,0,0,0,0,0,0,0,0,0
1684080813.79954410,62028512,1584,1585,1542,1541,0,0,0,0,0,0,0,0,0,0
1684080813.89950418,62128472,1587,1588,1539,1539,0,0,0,0,0,0,0,0,0,0
1684080813.99946404,62228432,1590,1590,1537,1537,0,0,0,0,0,0,0,0,0,0
1684080814.09942412,62328392,1593,1593,1535,1536,0,0,0,0,0,0,0,0,0,0
1684080814.19938421,62428352,1594,1594,1534,1535,0,0,0,0,0,0,0,0,0,0
1684080814.29934406,62528312,1594,1594,1534,1536,0,0,0,0,0,0,0,0,0,0
1684080814.39930415,62628272,1594,1594,1537,1539,0,0,0,0,0,0,0,0,0,0
1684080814.49926400,62728232,1592,1591,1540,1543,0,0,0,0,0,0,0,0,0,0
1684080814.59922409,62828192,1587,1585,1546,1548,0,0,0,0,0,0,0,0,0,0
1684080814.70001721,62928985,1581,1578,1554,1557,0,0,0,0,0,0,0,0,0,0
1684080814.79997706,63028945,1573,1569,1565,1568,0,0,0,0,0,0,0,0,0,0
1684080814.89993715,63128905,1563,1558,1577,1578,0,0,0,0,0,0,0,0,0,0
1684080814.99989700,63228865,1551,1548,1588,1589,0,0,0,0,0,0,0,0,0,0
1684080815.09985709,63328825,1541,1539,1600,1600,0,0,0,0,0,0,0,0,0,0
1684080815.19981718,63428785,1533,1534,1608,1607,0,0,0,0,0,0,0,0,0,0
1684080815.29977703,63528745,1529,1530,1613,1612,0,0,0,0,0,0,0,0,0,0
1684080815.39973712,63628705,1529,1531,1614,1613,0,0,0,0,0,0,0,0,0,0
1684080815.49969721,63728665,1532,1534,1612,1612,0,0,0,0,0,0,0,0,0,0
1684080815.59965706,63828625,1538,1540,1607,1607,0,0,0,0,0,0,0,0,0,0
1684080815.69961715,63928585,1545,1546,1600,1600,0,0,0,0,0,0,0,0,0,0
1684080815.79957700,64028545,1556,1557,1595,1595,0,0,0,0,0,0,0,0,0,0
1684080815.89953709,64128505,1564,1564,1587,1586,0,0,0,0,0,0,0,0,0,0
1684080815.99949718,64228465,1573,1573,1581,1581,0,0,0,0,0,0,0,0,0,0
1684080816.09945703,64328425,1579,1578,1575,1574,0,0,0,0,0,0,0,0,0,0
1684080816.19941711,64428385,1583,1582,1570,1569,0,0,0,0,0,0,0,0,0,0
1684080816.29937720,64528345,1587,1585,1568,1568,0,0,0,0,0,0,0,0,0,0
1684080816.39933705,64628305,1587,1586,1566,1566,0,0,0,0,0,0,0,0,0,0
1684080816.49929714,64728265,1586,1586,1567,1567,0,0,0,0,0,0,0,0,0,0
1684080816.59925699,64828225,1585,1585,1569,1570,0,0,0,0,0,0,0,0,0,0
1684080816.69921708,64928185,1582,1582,1571,1571,0,0,0,0,0,0,0,0,0,0
1684080816.80001020,65028978,1582,1581,1576,1575,0,0,0,0,0,0,0,0,0,0
1684080816.89997005,65128938,1578,1578,1578,1577,0,0,0,0,0,0,0,0,0,0
1684080816.99993014,65228898,1576,1576,1580,1580,0,0,0,0,0,0,0,0,0,0
1684080817.09988999,65328858,1491,1492,1594,1596,0,0,0,0,0,0,0,0,0,0
1684080817.19985008,65428818,1518,1520,1604,1606,0,0,0,0,0,0,0,0,0,0
1684080817.29981017,65528778,1540,1543,1602,1602,0,0,0,0,0,0,0,0,0,0
1684080817.39977002,65628738,1561,1564,1597,1594,0,0,0,0,0,0,0,0,0,0
1684080817.49973011,65728698,1578,1579,1586,1583,0,0,0,0,0,0,0,0,0,0
1684080817.59969020,65828658,1593,1593,1577,1576,0,0,0,0,0,0,0,0,0,0
1684080817.69965005,65928618,1603,1601,1571,1571,0,0,0,0,0,0,0,0,0,0
1684080817.79961014,66028578,1608,1605,1568,1568,0,0,0,0,0,0,0,0,0,0
1684080817.89956999,66128538,1610,1606,1567,1569,0,0,0,0,0,0,0,0,0,0
1684080817.99953008,66228498,1608,1605,1567,1569,0,0,0,0,0,0,0,0,0,0
1684080818.09949017,66328458,1605,1603,1568,1570,0,0,0,0,0,0,0,0,0,0
1684080818.19945002,66428418,1600,1600,1571,1571,0,0,0,0,0,0,0,0,0,0
1684080818.29941010,66528378,1596,1596,1573,1573,0,0,0,0,0,0,0,0,0,0
1684080818.39937019,66628338,1593,1593,1575,1575,0,0,0,0,0,0,0,0,0,0
1684080818.49933004,66728298,1588,1588,1576,1576,0,0,0,0,0,0,0,0,0,0
1684080818.59929013,66828258,1585,1585,1580,1579,0,0,0,0,0,0,0,0,0,0
1684080818.69924998,66928218,1581,1582,1580,1580,0,0,0,0,0,0,0,0,0,0
1684080818.79921007,67028178,1579,1579,1583,1582,0,0,0,0,0,0,0,0,0,0
1684080818.90000319,67128971,1577,1577,1584,1584,0,0,0,0,0,0,0,0,0,0
1684080818.99996305,67228931,1574,1575,1584,1584,0,0,0,0,0,0,0,0,0,0
1684080819.09992313,67328891,1575,1575,1586,1586,0,0,0,0,0,0,0,0,0,0
1684080819.19988298,67428851,1573,1574,1585,1585,0,0,0,0,0,0,0,0,0,0
1684080819.29984307,67528811,1574,1575,1586,1585,0,0,0,0,0,0,0,0,0,0
1684080819.39980316,67628771,1574,1575,1585,1584,0,0,0,0,0,0,0,0,0,0
1684080819.49976301,67728731,1576,1576,1584,1584,0,0,0,0,0,0,0,0,0,0
1684080819.59972310,67828691,1576,1576,1582,1582,0,0,0,0,0,0,0,0,0,0
1684080819.69968319,67928651,1578,1578,1581,1581,0,0,0,0,0,0,0,0,0,0
1684080819.79964304,68028611,1581,1580,1580,1581,0,0,0,0,0,0,0,0,0,0
1684080819.89960313,68128571,1581,1581,1580,1579,0,0,0,0,0,0,0,0,0,0
1684080819.99956298,68228531,1583,1583,1586,1571,0,0,0,0,0,0,0,0,0,0
1684080820.09952307,68328491,1583,1584,1581,1570,0,0,0,0,0,0,0,0,0,0
1684080820.19948316,68428451,1582,1583,1572,1568,0,0,0,0,0,0,0,0,0,0
1684080820.29944301,68528411,1580,1582,1563,1567,0,0,0,0,0,0,0,0,0,0
1684080820.39940310,68628371,1578,1581,1556,1563,0,0,0,0,0,0,0,0,0,0
1684080820.49936318,68728331,1578,1579,1552,1558,0,0,0,0,0,0,0,0,0,0
1684080820.59932303,68828291,1579,1579,1552,1556,0,0,0,0,0,0,0,0,0,0
1684080820.69928312,68928251,1579,1578,1553,1553,0,0,0,0,0,0,0,0,0,0
1684080820.79924321,69028211,1580,1579,1555,1553,0,0,0,0,0,0,0,0,0,0
1684080820.89920306,69128171,1579,1578,1555,1553,0,0,0,0,0,0,0,0,0,0
1684080820.99999619,69228964,1578,1578,1555,1553,0,0,0,0,0,0,0,0,0,0
1684080821.09995604,69328924,1577,1577,1554,1553,0,0,0,0,0,0,0,0,0,0
1684080821.19991612,69428884,1576,1577,1553,1552,0,0,0,0,0,0,0,0,0,0
1684080821.29987621,69528844,1576,1577,1551,1552,0,0,0,0,0,0,0,0,0,0
1684080821.39983606,69628804,1576,1578,1550,1551,0,0,0,0,0,0,0,0,0,0
1684080821.49979615,69728764,1577,1578,1548,1549,0,0,0,0,0,0,0,0,0,0
1684080821.59975600,69828724,1578,1580,1547,1547,0,0,0,0,0,0,0,0,0,0
1684080821.69971609,69928684,1580,1581,1544,1544,0,0,0,0,0,0,0,0,0,0
1684080821.79967618,70028644,1582,1583,1543,1542,0,0,0,0,0,0,0,0,0,0
1684080821.89963603,70128604,1584,1585,1541,1541,0,0,0,0,0,0,0,0,0,0
1684080821.99959612,70228564,1587,1587,1540,1540,0,0,0,0,0,0,0,0,0,0
1684080822.09955621,70328524,1588,1588,1539,1539,0,0,0,0,0,0,0,0,0,0
1684080822.19951606,70428484,1590,1590,1540,1541,0,0,0,0,0,0,0,0,0,0
1684080822.29947615,70528444,1590,1590,1540,1542,0,0,0,0,0,0,0,0,0,0
1684080822.39943600,70628404,1590,1590,1542,1545,0,0,0,0,0,0,0,0,0,0
1684080822.49939609,70728364,1588,1587,1545,1548,0,0,0,0,0,0,0,0,0,0
1684080822.59935617,70828324,1584,1582,1550,1553,0,0,0,0,0,0,0,0,0,0
1684080822.69931602,70928284,1579,1577,1558,1561,0,0,0,0,0,0,0,0,0,0
1684080822.79927611,71028244,1572,1569,1567,1569,0,0,0,0,0,0,0,0,0,0
1684080822.89923620,71128204,1564,1560,1579,1580,0,0,0,0,0,0,0,0,0,0
1684080822.99919605,71228164,1553,1550,1589,1590,0,0,0,0,0,0,0,0,0,0
1684080823.09998918,71328957,1544,1542,1599,1599,0,0,0,0,0,0,0,0,0,0
1684080823.19994903,71428917,1537,1538,1607,1607,0,0,0,0,0,0,0,0,0,0
1684080823.29990911,71528877,1533,1534,1610,1610,0,0,0,0,0,0,0,0,0,0
1684080823.39986920,71628837,1532,1535,1611,1611,0,0,0,0,0,0,0,0,0,0
1684080823.49982905,71728797,1535,1537,1609,1609,0,0,0,0,0,0,0,0,0,0
1684080823.59978914,71828757,1540,1543,1605,1605,0,0,0,0,0,0,0,0,0,0
1684080823.69974899,71928717,1548,1550,1600,1599,0,0,0,0,0,0,0,0,0,0
1684080823.79970908,72028677,1556,1556,1592,1591,0,0,0,0,0,0,0,0,0,0
1684080823.89966917,72128637,1564,1564,1585,1585,0,0,0,0,0,0,0,0,0,0
1684080823.99962902,72228597,1572,1572,1580,1579,0,0,0,0,0,0,0,0,0,0
1684080824.09958911,72328557,1578,1577,1574,1574,0,0,0,0,0,0,0,0,0,0
1684080824.19954920,72428517,1583,1581,1569,1570,0,0,0,0,0,0,0,0,0,0
1684080824.29950905,72528477,1586,1585,1567,1568,0,0,0,0,0,0,0,0,0,0
1684080824.39946914,72628437,1587,1586,1566,1567,0,0,0,0,0,0,0,0,0,0
1684080824.49942899,72728397,1587,1586,1566,1567,0,0,0,0,0,0,0,0,0,0
1684080824.59938908,72828357,1586,1585,1568,1568,0,0,0,0,0,0,0,0,0,0
1684080824.69934916,72928317,1585,1585,1573,1572,0,0,0,0,0,0,0,0,0,0
1684080824.79930902,73028277,1582,1582,1575,1574,0,0,0,0,0,0,0,0,0,0
1684080824.89926910,73128237,1579,1580,1577,1577,0,0,0,0,0,0,0,0,0,0
1684080824.99922919,73228197,1577,1578,1579,1579,0,0,0,0,0,0,0,0,0,0
1684080825.09918904,73328157,1576,1576,1582,1582,0,0,0,0,0,0,0,0,0,0
1684080825.19998217,73428950,1574,1575,1583,1583,0,0,0,0,0,0,0,0,0,0
1684080825.29994202,73528910,1574,1574,1584,1584,0,0,0,0,0,0,0,0,0,0
1684080825.39990211,73628870,1573,1573,1583,1584,0,0,0,0,0,0,0,0,0,0
1684080825.49986219,73728830,1574,1574,1584,1584,0,0,0,0,0,0,0,0,0,0
1684080825.59982204,73828790,1574,1575,1583,1582,0,0,0,0,0,0,0,0,0,0
1684080825.69978213,73928750,1575,1576,1581,1581,0,0,0,0,0,0,0,0,0,0
1684080825.79974198,74028710,1576,1577,1580,1580,0,0,0,0,0,0,0,0,0,0
1684080825.89970207,74128670,1578,1578,1579,1579,0,0,0,0,0,0,0,0,0,0
1684080825.99966216,74228630,1580,1579,1578,1578,0,0,0,0,0,0,0,0,0,0
1684080826.09962201,74328590,1581,1580,1578,1578,0,0,0,0,0,0,0,0,0,0
1684080826.19958210,74428550,1582,1581,1578,1578,0,0,0,0,0,0,0,0,0,0
1684080826.29954219,74528510,1582,1582,1577,1577,0,0,0,0,0,0,0,0,0,0
1684080826.39950204,74628470,1582,1582,1578,1578,0,0,0,0,0,0,0,0,0,0
1684080826.49946213,74728430,1582,1582,1578,1578,0,0,0,0,0,0,0,0,0,0
1684080826.59942198,74828390,1582,1582,1578,1578,0,0,0,0,0,0,0,0,0,0
1684080826.69938207,74928350,1582,1582,1580,1580,0,0,0,0,0,0,0,0,0,0
1684080826.79934216,75028310,1581,1581,1580,1580,0,0,0,0,0,0,0,0,0,0
1684080826.89930201,75128270,1581,1581,1580,1581,0,0,0,0,0,0,0,0,0,0
1684080826.99926209,75228230,1580,1580,1581,1581,0,0,0,0,0,0,0,0,0,0
1684080827.09922218,75328190,1580,1580,1581,1581,0,0,0,0,0,0,0,0,0,0
1684080827.20001507,75428983,1579,1579,1581,1580,0,0,0,0,0,0,0,0,0,0
1684080827.29997516,75528943,1580,1580,1581,1581,0,0,0,0,0,0,0,0,0,0
1684080827.39993501,75628903,1580,1581,1582,1582,0,0,0,0,0,0,0,0,0,0
1684080827.49989510,75728863,1580,1580,1582,1582,0,0,0,0,0,0,0,0,0,0
1684080827.59985518,75828823,1580,1580,1581,1581,0,0,0,0,0,0,0,0,0,0
1684080827.69981503,75928783,1579,1580,1580,1580,0,0,0,0,0,0,0,0,0,0
1684080827.79977512,76028743,1581,1581,1581,1581,0,0,0,0,0,0,0,0,0,0
1684080827.89973521,76128703,1580,1580,1579,1580,0,0,0,0,0,0,0,0,0,0
1684080827.99969506,76228663,1582,1581,1581,1581,0,0,0,0,0,0,0,0,0,0
1684080828.09965515,76328623,1581,1581,1581,1580,0,0,0,0,0,0,0,0,0,0
1684080828.19961500,76428583,1581,1581,1581,1580,0,0,0,0,0,0,0,0,0,0
1684080828.29957509,76528543,1581,1581,1585,1575,0,0,0,0,0,0,0,0,0,0
1684080828.39953518,76628503,1581,1582,1586,1572,0,0,0,0,0,0,0,0,0,0
1684080828.49949503,76728463,1580,1582,1579,1573,0,0,0,0,0,0,0,0,0,0
1684080828.59945512,76828423,1579,1581,1570,1572,0,0,0,0,0,0,0,0,0,0
1684080828.69941521,76928383,1577,1579,1562,1568,0,0,0,0,0,0,0,0,0,0
1684080828.79937506,77028343,1576,1578,1557,1564,0,0,0,0,0,0,0,0,0,0
1684080828.89933515,77128303,1578,1579,1556,1560,0,0,0,0,0,0,0,0,0,0
1684080828.99929500,77228263,1579,1578,1555,1557,0,0,0,0,0,0,0,0,0,0
1684080829.09925508,77328223,1579,1578,1555,1554,0,0,0,0,0,0,0,0,0,0
1684080829.19921517,77428183,1579,1577,1556,1553,0,0,0,0,0,0,0,0,0,0
1684080829.30000806,77528976,1576,1576,1555,1552,0,0,0,0,0,0,0,0,0,0
1684080829.39996815,77628936,1575,1576,1555,1553,0,0,0,0,0,0,0,0,0,0
1684080829.49992800,77728896,1575,1576,1555,1554,0,0,0,0,0,0,0,0,0,0
1684080829.59988809,77828856,1574,1576,1553,1554,0,0,0,0,0,0,0,0,0,0
1684080829.69984818,77928816,1574,1576,1552,1553,0,0,0,0,0,0,0,0,0,0
1684080829.79980803,78028776,1574,1575,1549,1550,0,0,0,0,0,0,0,0,0,0
1684080829.89976811,78128736,1577,1578,1549,1549,0,0,0,0,0,0,0,0,0,0
1684080829.99972820,78228696,1661,1661,1532,1531,0,0,0,0,0,0,0,0,0,0
1684080830.09968805,78328656,1637,1636,1521,1520,0,0,0,0,0,0,0,0,0,0
1684080830.19964814,78428616,1616,1616,1522,1524,0,0,0,0,0,0,0,0,0,0
1684080830.29960799,78528576,1598,1599,1529,1532,0,0,0,0,0,0,0,0,0,0
1684080830.39956808,78628536,1582,1583,1537,1539,0,0,0,0,0,0,0,0,0,0
1684080830.49952817,78728496,1569,1571,1544,1546,0,0,0,0,0,0,0,0,0,0
1684080830.59948802,78828456,1560,1561,1549,1551,0,0,0,0,0,0,0,0,0,0
1684080830.69944811,78928416,1556,1557,1555,1556,0,0,0,0,0,0,0,0,0,0
1684080830.79940820,79028376,1554,1555,1558,1559,0,0,0,0,0,0,0,0,0,0
1684080830.89936805,79128336,1555,1554,1560,1561,0,0,0,0,0,0,0,0,0,0
1684080830.99932814,79228296,1557,1556,1563,1564,0,0,0,0,0,0,0,0,0,0
1684080831.09928799,79328256,1559,1556,1567,1568,0,0,0,0,0,0,0,0,0,0
1684080831.19924808,79428216,1558,1555,1571,1572,0,0,0,0,0,0,0,0,0,0
1684080831.29920816,79528176,1556,1552,1577,1577,0,0,0,0,0,0,0,0,0,0
1684080831.40000105,79628969,1554,1550,1584,1584,0,0,0,0,0,0,0,0,0,0
1684080831.49996114,79728929,1551,1548,1590,1590,0,0,0,0,0,0,0,0,0,0
1684080831.59992099,79828889,1548,1547,1595,1594,0,0,0,0,0,0,0,0,0,0
1684080831.69988108,79928849,1547,1547,1599,1598,0,0,0,0,0,0,0,0,0,0
1684080831.79984117,80028809,1546,1548,1599,1599,0,0,0,0,0,0,0,0,0,0
1684080831.89980102,80128769,1549,1550,1600,1600,0,0,0,0,0,0,0,0,0,0
1684080831.99976110,80228729,1550,1552,1599,1599,0,0,0,0,0,0,0,0,0,0
1684080832.09972119,80328689,1554,1555,1597,1596,0,0,0,0,0,0,0,0,0,0
1684080832.19968104,80428649,1558,1558,1594,1594,0,0,0,0,0,0,0,0,0,0
1684080832.29964113,80528609,1562,1561,1591,1590,0,0,0,0,0,0,0,0,0,0
1684080832.39960098,80628569,1565,1565,1587,1587,0,0,0,0,0,0,0,0,0,0
1684080832.49956107,80728529,1570,1570,1585,1584,0,0,0,0,0,0,0,0,0,0
1684080832.59952116,80828489,1573,1574,1581,1581,0,0,0,0,0,0,0,0,0,0
1684080832.69948101,80928449,1577,1578,1579,1578,0,0,0,0,0,0,0,0,0,0
1684080832.79944110,81028409,1580,1580,1575,1576,0,0,0,0,0,0,0,0,0,0
1684080832.89940119,81128369,1583,1582,1572,1573,0,0,0,0,0,0,0,0,0,0
1684080832.99936104,81228329,1584,1583,1571,1571,0,0,0,0,0,0,0,0,0,0
1684080833.09932113,81328289,1584,1583,1571,1570,0,0,0,0,0,0,0,0,0,0
1684080833.19928098,81428249,1583,1582,1571,1570,0,0,0,0,0,0,0,0,0,0
1684080833.29924107,81528209,1582,1581,1573,1572,0,0,0,0,0,0,0,0,0,0
1684080833.39920115,81628169,1580,1581,1575,1574,0,0,0,0,0,0,0,0,0,0
1684080833.49999404,81728962,1578,1578,1576,1576,0,0,0,0,0,0,0,0,0,0
1684080833.59995413,81828922,1577,1577,1577,1578,0,0,0,0,0,0,0,0,0,0
1684080833.69991398,81928882,1576,1576,1580,1580,0,0,0,0,0,0,0,0,0,0
1684080833.79987407,82028842,1575,1575,1581,1581,0,0,0,0,0,0,0,0,0,0
1684080833.89983416,82128802,1575,1576,1582,1582,0,0,0,0,0,0,0,0,0,0
1684080833.99979401,82228762,1575,1576,1583,1583,0,0,0,0,0,0,0,0,0,0
1684080834.09975410,82328722,1575,1576,1582,1582,0,0,0,0,0,0,0,0,0,0
1684080834.19971418,82428682,1575,1576,1581,1582,0,0,0,0,0,0,0,0,0,0
1684080834.29967403,82528642,1576,1576,1580,1581,0,0,0,0,0,0,0,0,0,0
1684080834.39963412,82628602,1578,1578,1581,1581,0,0,0,0,0,0,0,0,0,0
1684080834.49959421,82728562,1579,1579,1580,1580,0,0,0,0,0,0,0,0,0,0
1684080834.59955406,82828522,1579,1578,1579,1578,0,0,0,0,0,0,0,0,0,0
1684080834.69951415,82928482,1581,1581,1579,1579,0,0,0,0,0,0,0,0,0,0
1684080834.79947400,83028442,1581,1581,1579,1579,0,0,0,0,0,0,0,0,0,0
1684080834.89943409,83128402,1582,1582,1579,1579,0,0,0,0,0,0,0,0,0,0
1684080834.99939418,83228362,1580,1580,1577,1577,0,0,0,0,0,0,0,0,0,0
1684080835.09935403,83328322,1581,1581,1578,1578,0,0,0,0,0,0,0,0,0,0
1684080835.19931412,83428282,1581,1580,1579,1578,0,0,0,0,0,0,0,0,0,0
1684080835.29927421,83528242,1581,1581,1579,1579,0,0,0,0,0,0,0,0,0,0
1684080835.39923406,83628202,1580,1580,1579,1579,0,0,0,0,0,0,0,0,0,0
1684080835.49919415,83728162,1580,1580,1580,1580,0,0,0,0,0,0,0,0,0,0
1684080835.59998703,83828955,1579,1579,1580,1579,0,0,0,0,0,0,0,0,0,0
1684080835.69994712,83928915,1580,1580,1581,1581,0,0,0,0,0,0,0,0,0,0
1684080835.79990721,84028875,1580,1580,1581,1581,0,0,0,0,0,0,0,0,0,0
1684080835.89986706,84128835,1580,1580,1581,1581,0,0,0,0,0,0,0,0,0,0
1684080835.99982715,84228795,1579,1579,1580,1581,0,0,0,0,0,0,0,0,0,0
1684080836.09978700,84328755,1580,1580,1581,1581,0,0,0,0,0,0,0,0,0,0
1684080836.19974709,84428715,1581,1581,1582,1581,0,0,0,0,0,0,0,0,0,0
1684080836.29970717,84528675,1580,1580,1582,1578,0,0,0,0,0,0,0,0,0,0
1684080836.39966702,84628635,1580,1582,1588,1573,0,0,0,0,0,0,0,0,0,0
1684080836.49962711,84728595,1579,1580,1583,1573,0,0,0,0,0,0,0,0,0,0
1684080836.59958720,84828555,1577,1578,1577,1576,0,0,0,0,0,0,0,0,0,0
1684080836.69954705,84928515,1575,1575,1571,1576,0,0,0,0,0,0,0,0,0,0
1684080836.79950714,85028475,1571,1570,1566,1573,0,0,0,0,0,0,0,0,0,0
1684080836.89946699,85128435,1570,1569,1565,1572,0,0,0,0,0,0,0,0,0,0
1684080836.99942708,85228395,1568,1567,1565,1568,0,0,0,0,0,0,0,0,0,0
1684080837.09938717,85328355,1568,1567,1567,1567,0,0,0,0,0,0,0,0,0,0
1684080837.19934702,85428315,1566,1566,1567,1565,0,0,0,0,0,0,0,0,0,0
1684080837.29930711,85528275,1566,1566,1567,1565,0,0,0,0,0,0,0,0,0,0
1684080837.39926720,85628235,1564,1565,1566,1564,0,0,0,0,0,0,0,0,0,0
1684080837.49922705,85728195,1564,1564,1566,1565,0,0,0,0,0,0,0,0,0,0
1684080837.59918714,85828155,1563,1563,1564,1564,0,0,0,0,0,0,0,0,0,0
1684080837.69998002,85928948,1563,1563,1564,1564,0,0,0,0,0,0,0,0,0,0
1684080837.79994011,86028908,1562,1562,1563,1563,0,0,0,0,0,0,0,0,0,0
1684080837.89990020,86128868,1561,1561,1561,1562,0,0,0,0,0,0,0,0,0,0
1684080837.99986005,86228828,1560,1560,1560,1560,0,0,0,0,0,0,0,0,0,0
1684080838.09982014,86328788,1561,1561,1561,1561,0,0,0,0,0,0,0,0,0,0
1684080838.19977999,86428748,1560,1560,1560,1559,0,0,0,0,0,0,0,0,0,0
1684080838.29974008,86528708,1560,1559,1560,1559,0,0,0,0,0,0,0,0,0,0
1684080838.39970016,86628668,1559,1559,1559,1558,0,0,0,0,0,0,0,0,0,0
1684080838.49966002,86728628,1558,1558,1558,1557,0,0,0,0,0,0,0,0,0,0
1684080838.59962010,86828588,1557,1558,1558,1557,0,0,0,0,0,0,0,0,0,0
1684080838.69958019,86928548,1558,1558,1558,1557,0,0,0,0,0,0,0,0,0,0
1684080838.79954004,87028508,1558,1558,1559,1558,0,0,0,0,0,0,0,0,0,0
1684080838.89950013,87128468,1558,1558,1558,1557,0,0,0,0,0,0,0,0,0,0
1684080838.99945998,87228428,1559,1559,1561,1558,0,0,0,0,0,0,0,0,0,0
1684080839.09942007,87328388,1559,1560,1561,1558,0,0,0,0,0,0,0,0,0,0
1684080839.19938016,87428348,1559,1560,1559,1560,0,0,0,0,0,0,0,0,0,0
1684080839.29934001,87528308,1560,1560,1557,1563,0,0,0,0,0,0,0,0,0,0
1684080839.39930010,87628268,1561,1561,1558,1564,0,0,0,0,0,0,0,0,0,0
1684080839.49926019,87728228,1562,1561,1559,1564,0,0,0,0,0,0,0,0,0,0
1684080839.59922004,87828188,1561,1560,1559,1561,0,0,0,0,0,0,0,0,0,0
1684080839.70001316,87928981,1561,1561,1561,1561,0,0,0,0,0,0,0,0,0,0
1684080839.79997301,88028941,1559,1558,1558,1559,0,0,0,0,0,0,0,0,0,0
1684080839.89993310,88128901,1556,1555,1555,1556,0,0,0,0,0,0,0,0,0,0
1684080839.99989319,88228861,1550,1550,1550,1550,0,0,0,0,0,0,0,0,0,0
1684080840.09985304,88328821,1544,1544,1544,1544,0,0,0,0,0,0,0,0,0,0
1684080840.19981313,88428781,1537,1538,1538,1537,0,0,0,0,0,0,0,0,0,0
1684080840.29977298,88528741,1529,1530,1529,1530,0,0,0,0,0,0,0,0,0,0
1684080840.39973307,88628701,1522,1522,1522,1523,0,0,0,0,0,0,0,0,0,0
1684080840.49969316,88728661,1520,1520,1520,1521,0,0,0,0,0,0,0,0,0,0
1684080840.59965301,88828621,1518,1519,1519,1519,0,0,0,0,0,0,0,0,0,0
1684080840.69961309,88928581,1520,1520,1520,1520,0,0,0,0,0,0,0,0,0,0
1684080840.79957318,89028541,1523,1523,1523,1523,0,0,0,0,0,0,0,0,0,0
1684080840.89953303,89128501,1526,1526,1526,1526,0,0,0,0,0,0,0,0,0,0
1684080840.99949312,89228461,1531,1531,1531,1531,0,0,0,0,0,0,0,0,0,0
1684080841.09945321,89328421,1535,1535,1535,1536,0,0,0,0,0,0,0,0,0,0
1684080841.19941306,89428381,1539,1539,1539,1539,0,0,0,0,0,0,0,0,0,0
1684080841.29937315,89528341,1542,1542,1542,1542,0,0,0,0,0,0,0,0,0,0
1684080841.39933300,89628301,1544,1544,1544,1544,0,0,0,0,0,0,0,0,0,0
1684080841.49929309,89728261,1545,1545,1545,1545,0,0,0,0,0,0,0,0,0,0
1684080841.59925318,89828221,1546,1546,1546,1546,0,0,0,0,0,0,0,0,0,0
1684080841.69921303,89928181,1546,1546,1546,1546,0,0,0,0,0,0,0,0,0,0
1684080841.80000615,90028974,1546,1547,1547,1546,0,0,0,0,0,0,0,0,0,0
1684080841.89996600,90128934,1547,1547,1548,1547,0,0,0,0,0,0,0,0,0,0
1684080841.99992609,90228894,1547,1547,1547,1547,0,0,0,0,0,0,0,0,0,0
1684080842.09988618,90328854,1547,1546,1547,1546,0,0,0,0,0,0,0,0,0,0
1684080842.19984603,90428814,1545,1546,1546,1546,0,0,0,0,0,0,0,0,0,0
1684080842.29980612,90528774,1545,1545,1545,1545,0,0,0,0,0,0,0,0,0,0
1684080842.39976621,90628734,1545,1545,1545,1545,0,0,0,0,0,0,0,0,0,0
1684080842.49972606,90728694,1544,1544,1544,1544,0,0,0,0,0,0,0,0,0,0
1684080842.59968615,90828654,1544,1544,1544,1544,0,0,0,0,0,0,0,0,0,0
1684080842.69964600,90928614,1545,1544,1545,1544,0,0,0,0,0,0,0,0,0,0
1684080842.79960608,91028574,1545,1545,1545,1545,0,0,0,0,0,0,0,0,0,0
1684080842.89956617,91128534,1544,1545,1545,1544,0,0,0,0,0,0,0,0,0,0
1684080842.99952602,91228494,1544,1544,1544,1544,0,0,0,0,0,0,0,0,0,0
1684080843.09948611,91328454,1544,1544,1544,1544,0,0,0,0,0,0,0,0,0,0
1684080843.19944620,91428414,1543,1544,1543,1544,0,0,0,0,0,0,0,0,0,0
1684080843.29940605,91528374,1544,1543,1543,1544,0,0,0,0,0,0,0,0,0,0
1684080843.39936614,91628334,1544,1544,1544,1544,0,0,0,0,0,0,0,0,0,0
1684080843.49932599,91728294,1544,1545,1544,1545,0,0,0,0,0,0,0,0,0,0
1684080843.59928608,91828254,1544,1544,1544,1544,0,0,0,0,0,0,0,0,0,0
1684080843.69924617,91928214,1544,1544,1544,1544,0,0,0,0,0,0,0,0,0,0
1684080843.79920602,92028174,1545,1545,1545,1545,0,0,0,0,0,0,0,0,0,0
1684080843.89999914,92128967,1544,1544,1544,1544,0,0,0,0,0,0,0,0,0,0
1684080843.99995899,92228927,1544,1544,1544,1544,0,0,0,0,0,0,0,0,0,0
1684080844.09991908,92328887,1544,1544,1545,1544,0,0,0,0,0,0,0,0,0,0
1684080844.19987917,92428847,1544,1544,1544,1544,0,0,0,0,0,0,0,0,0,0
1684080844.29983902,92528807,1544,1544,1544,1544,0,0,0,0,0,0,0,0,0,0
1684080844.39979911,92628767,1544,1544,1544,1544,0,0,0,0,0,0,0,0,0,0
1684080844.49975920,92728727,1545,1545,1545,1545,0,0,0,0,0,0,0,0,0,0
1684080844.59971905,92828687,1544,1544,1544,1544,0,0,0,0,0,0,0,0,0,0
1684080844.69967914,92928647,1544,1544,1544,1544,0,0,0,0,0,0,0,0,0,0
1684080844.79963899,93028607,1544,1544,1544,1544,0,0,0,0,0,0,0,0,0,0
1684080844.89959908,93128567,1544,1543,1543,1544,0,0,0,0,0,0,0,0,0,0
1684080844.99955916,93228527,1544,1544,1545,1544,0,0,0,0,0,0,0,0,0,0
1684080845.09951901,93328487,1544,1544,1544,1545,0,0,0,0,0,0,0,0,0,0
1684080845.19947910,93428447,1544,1545,1545,1544,0,0,0,0,0,0,0,0,0,0
1684080845.29943919,93528407,1545,1544,1544,1545,0,0,0,0,0,0,0,0,0,0
1684080845.39939904,93628367,1544,1544,1545,1544,0,0,0,0,0,0,0,0,0,0
1684080845.49935913,93728327,1544,1544,1544,1544,0,0,0,0,0,0,0,0,0,0
1684080845.59931898,93828287,1544,1544,1544,1544,0,0,0,0,0,0,0,0,0,0
1684080845.69927907,93928247,1545,1545,1545,1545,0,0,0,0,0,0,0,0,0,0
1684080845.79923916,94028207,1545,1545,1545,1545,0,0,0,0,0,0,0,0,0,0
1684080845.89919901,94128167,1545,1545,1545,1545,0,0,0,0,0,0,0,0,0,0
1684080845.99999213,94228960,1545,1545,1546,1545,0,0,0,0,0,0,0,0,0,0
1684080846.09995198,94328920,1545,1545,1544,1545,0,0,0,0,0,0,0,0,0,0
1684080846.19991207,94428880,1544,1544,1543,1544,0,0,0,0,0,0,0,0,0,0
1684080846.29987216,94528840,1545,1545,1544,1545,0,0,0,0,0,0,0,0,0,0
1684080846.39983201,94628800,1544,1544,1544,1544,0,0,0,0,0,0,0,0,0,0
1684080846.49979210,94728760,1543,1543,1544,1544,0,0,0,0,0,0,0,0,0,0
1684080846.59975219,94828720,1543,1543,1544,1543,0,0,0,0,0,0,0,0,0,0
1684080846.69971204,94928680,1544,1544,1544,1544,0,0,0,0,0,0,0,0,0,0
1684080846.79967213,95028640,1544,1544,1544,1544,0,0,0,0,0,0,0,0,0,0
1684080846.89963198,95128600,1544,1543,1544,1544,0,0,0,0,0,0,0,0,0,0
1684080846.99959207,95228560,1544,1544,1544,1544,0,0,0,0,0,0,0,0,0,0
1684080847.09955215,95328520,1544,1543,1544,1544,0,0,0,0,0,0,0,0,0,0
1684080847.19951200,95428480,1544,1544,1544,1544,0,0,0,0,0,0,0,0,0,0
1684080847.29947209,95528440,1544,1544,1544,1543,0,0,0,0,0,0,0,0,0,0
1684080847.39943218,95628400,1544,1544,1544,1544,0,0,0,0,0,0,0,0,0,0
1684080847.49939203,95728360,1544,1544,1544,1544,0,0,0,0,0,0,0,0,0,0
1684080847.59935212,95828320,1544,1544,1544,1544,0,0,0,0,0,0,0,0,0,0
1684080847.69931221,95928280,1545,1544,1544,1545,0,0,0,0,0,0,0,0,0,0
1684080847.79927206,96028240,1545,1545,1545,1545,0,0,0,0,0,0,0,0,0,0
1684080847.89923215,96128200,1545,1545,1545,1545,0,0,0,0,0,0,0,0,0,0
1684080847.99919200,96228160,1545,1545,1545,1545,0,0,0,0,0,0,0,0,0,0
1684080848.09998512,96328953,1545,1545,1545,1545,0,0,0,0,0,0,0,0,0,0
1684080848.19994521,96428913,1544,1545,1545,1544,0,0,0,0,0,0,0,0,0,0
1684080848.29990506,96528873,1545,1544,1545,1545,0,0,0,0,0,0,0,0,0,0
1684080848.39986515,96628833,1544,1545,1544,1545,0,0,0,0,0,0,0,0,0,0
1684080848.49982500,96728793,1545,1544,1544,1545,0,0,0,0,0,0,0,0,0,0
1684080848.59978509,96828753,1544,1544,1544,1544,0,0,0,0,0,0,0,0,0,0
1684080848.69974518,96928713,1545,1545,1544,1545,0,0,0,0,0,0,0,0,0,0
1684080848.79970503,97028673,1544,1545,1544,1544,0,0,0,0,0,0,0,0,0,0
1684080848.89966512,97128633,1543,1544,1543,1544,0,0,0,0,0,0,0,0,0,0
1684080848.99962521,97228593,1544,1544,1544,1544,0,0,0,0,0,0,0,0,0,0
1684080849.09958506,97328553,1544,1543,1544,1544,0,0,0,0,0,0,0,0,0,0
1684080849.19954515,97428513,1545,1545,1545,1545,0,0,0,0,0,0,0,0,0,0
1684080849.29950500,97528473,1544,1544,1544,1544,0,0,0,0,0,0,0,0,0,0
1684080849.39946508,97628433,1545,1545,1545,1544,0,0,0,0,0,0,0,0,0,0
1684080849.49942517,97728393,1544,1544,1543,1544,0,0,0,0,0,0,0,0,0,0
1684080849.59938502,97828353,1545,1545,1544,1545,0,0,0,0,0,0,0,0,0,0
1684080849.69934511,97928313,1545,1545,1544,1545,0,0,0,0,0,0,0,0,0,0
1684080849.79930520,98028273,1544,1544,1544,1544,0,0,0,0,0,0,0,0,0,0
1684080849.89926505,98128233,1545,1545,1545,1545,0,0,0,0,0,0,0,0,0,0
1684080849.99922514,98228193,1545,1544,1545,1544,0,0,0,0,0,0,0,0,0,0
1684080850.10001802,98328986,1545,1545,1544,1545,0,0,0,0,0,0,0,0,0,0
1684080850.19997811,98428946,1489,1489,1489,1489,0,0,0,0,0,0,0,0,0,0
1684080850.29993820,98528906,1315,1312,1312,1315,0,0,0,0,0,0,0,0,0,0
1684080850.39989805,98628866,1235,1232,1233,1235,0,0,0,0,0,0,0,0,0,0
1684080850.49985814,98728826,1211,1207,1209,1211,0,0,0,0,0,0,0,0,0,0
1684080850.59981799,98828786,1187,1184,1186,1187,0,0,0,0,0,0,0,0,0,0
1684080850.69977808,98928746,1154,1150,1152,1154,0,0,0,0,0,0,0,0,0,0
1684080850.79973817,99028706,1153,1150,1153,1154,0,0,0,0,0,0,0,0,0,0
1684080850.89969802,99128666,1171,1150,1152,1173,0,0,0,0,0,0,0,0,0,0
1684080850.99965811,99228626,1179,1150,1152,1181,0,0,0,0,0,0,0,0,0,0
1684080851.09961820,99328586,1173,1150,1153,1175,0,0,0,0,0,0,0,0,0,0
1684080851.19957805,99428546,1173,1150,1154,1174,0,0,0,0,0,0,0,0,0,0
1684080851.29953814,99528506,1174,1150,1154,1176,0,0,0,0,0,0,0,0,0,0
1684080851.39949799,99628466,1176,1150,1154,1177,0,0,0,0,0,0,0,0,0,0
1684080851.49945807,99728426,1178,1150,1155,1179,0,0,0,0,0,0,0,0,0,0
1684080851.59941816,99828386,1179,1150,1155,1180,0,0,0,0,0,0,0,0,0,0
1684080851.69937801,99928346,1158,1150,1155,1160,0,0,0,0,0,0,0,0,0,0
1684080851.79933810,100028306,1167,1150,1155,1169,0,0,0,0,0,0,0,0,0,0
1684080851.89929819,100128266,1168,1150,1155,1171,0,0,0,0,0,0,0,0,0,0
1684080851.99925804,100228226,1169,1150,1155,1171,0,0,0,0,0,0,0,0,0,0
1684080852.09921813,100328186,1169,1150,1156,1172,0,0,0,0,0,0,0,0,0,0
1684080852.20001101,100428979,1000,1000,1000,1000,0,0,0,0,0,0,0,0,0,0
1684080852.29997110,100528939,1000,1000,1000,1000,0,0,0,0,0,0,0,0,0,0
1684080852.39993119,100628899,1000,1000,1000,1000,0,0,0,0,0,0,0,0,0,0
1684080852.49989104,100728859,1000,1000,1000,1000,0,0,0,0,0,0,0,0,0,0
1684080852.59985113,100828819,1000,1000,1000,1000,0,0,0,0,0,0,0,0,0,0
1684080852.69981098,100928779,1000,1000,1000,1000,0,0,0,0,0,0,0,0,0,0
1684080852.79977107,101028739,1000,1000,1000,1000,0,0,0,0,0,0,0,0,0,0
1684080852.89973116,101128699,1000,1000,1000,1000,0,0,0,0,0,0,0,0,0,0
1684080852.99969101,101228659,1000,1000,1000,1000,0,0,0,0,0,0,0,0,0,0
1684080853.09965110,101328619,1000,1000,1000,1000,0,0,0,0,0,0,0,0,0,0
1684080853.19961119,101428579,1000,1000,1000,1000,0,0,0,0,0,0,0,0,0,0
1684080853.29957104,101528539,1000,1000,1000,1000,0,0,0,0,0,0,0,0,0,0
1684080853.39953113,101628499,1000,1000,1000,1000,0,0,0,0,0,0,0,0,0,0
1684080853.49949098,101728459,1000,1000,1000,1000,0,0,0,0,0,0,0,0,0,0
1684080853.59945107,101828419,1000,1000,1000,1000,0,0,0,0,0,0,0,0,0,0
1684080853.69941115,101928379,1000,1000,1000,1000,0,0,0,0,0,0,0,0,0,0
1684080853.79937100,102028339,1000,1000,1000,1000,0,0,0,0,0,0,0,0,0,0
1684080853.89933109,102128299,1000,1000,1000,1000,0,0,0,0,0,0,0,0,0,0
1684080853.99929118,102228259,1000,1000,1000,1000,0,0,0,0,0,0,0,0,0,0
1684080854.09925103,102328219,1000,1000,1000,1000,0,0,0,0,0,0,0,0,0,0
1684080854.19921112,102428179,1000,1000,1000,1000,0,0,0,0,0,0,0,0,0,0
1684080854.30000401,102528972,1000,1000,1000,1000,0,0,0,0,0,0,0,0,0,0
1684080854.39996409,102628932,1000,1000,1000,1000,0,0,0,0,0,0,0,0,0,0
1684080854.49992418,102728892,1000,1000,1000,1000,0,0,0,0,0,0,0,0,0,0
1684080854.59988403,102828852,1000,1000,1000,1000,0,0,0,0,0,0,0,0,0,0
1684080854.69984412,102928812,1000,1000,1000,1000,0,0,0,0,0,0,0,0,0,0
1684080854.79980421,103028772,1000,1000,1000,1000,0,0,0,0,0,0,0,0,0,0
1684080854.89976406,103128732,1000,1000,1000,1000,0,0,0,0,0,0,0,0,0,0
1684080854.99972415,103228692,1000,1000,1000,1000,0,0,0,0,0,0,0,0,0,0
1684080855.09968400,103328652,1000,1000,1000,1000,0,0,0,0,0,0,0,0,0,0
1684080855.19964409,103428612,1000,1000,1000,1000,0,0,0,0,0,0,0,0,0,0
1684080855.29960418,103528572,1000,1000,1000,1000,0,0,0,0,0,0,0,0,0,0
1684080855.39956403,103628532,1000,1000,1000,1000,0,0,0,0,0,0,0,0,0,0
1684080855.49952412,103728492,1000,1000,1000,1000,0,0,0,0,0,0,0,0,0,0
1684080855.59948421,103828452,1000,1000,1000,1000,0,0,0,0,0,0,0,0,0,0
1684080855.69944406,103928412,1000,1000,1000,1000,0,0,0,0,0,0,0,0,0,0
1684080855.79940414,104028372,1000,1000,1000,1000,0,0,0,0,0,0,0,0,0,0
1684080855.89936399,104128332,1000,1000,1000,1000,0,0,0,0,0,0,0,0,0,0
1684080855.99932408,104228292,1000,1000,1000,1000,0,0,0,0,0,0,0,0,0,0
1684080856.09928417,104328252,1000,1000,1000,1000,0,0,0,0,0,0,0,0,0,0
1684080856.19924402,104428212,1000,1000,1000,1000,0,0,0,0,0,0,0,0,0,0
1684080856.29920411,104528172,1000,1000,1000,1000,0,0,0,0,0,0,0,0,0,0
1684080856.39999700,104628965,1000,1000,1000,1000,0,0,0,0,0,0,0,0,0,0
1684080856.49995708,104728925,1000,1000,1000,1000,0,0,0,0,0,0,0,0,0,0
1684080856.59991717,104828885,1000,1000,1000,1000,0,0,0,0,0,0,0,0,0,0
1684080856.69987702,104928845,1000,1000,1000,1000,0,0,0,0,0,0,0,0,0,0
1684080856.79983711,105028805,1000,1000,1000,1000,0,0,0,0,0,0,0,0,0,0
1684080856.89979720,105128765,1000,1000,1000,1000,0,0,0,0,0,0,0,0,0,0
1684080856.99975705,105228725,1000,1000,1000,1000,0,0,0,0,0,0,0,0,0,0
1684080857.09971714,105328685,1000,1000,1000,1000,0,0,0,0,0,0,0,0,0,0
1684080857.19967699,105428645,1000,1000,1000,1000,0,0,0,0,0,0,0,0,0,0
1684080857.29963708,105528605,1000,1000,1000,1000,0,0,0,0,0,0,0,0,0,0
1684080857.39959717,105628565,1000,1000,1000,1000,0,0,0,0,0,0,0,0,0,0
1684080857.49955702,105728525,1000,1000,1000,1000,0,0,0,0,0,0,0,0,0,0
1684080857.59951711,105828485,1000,1000,1000,1000,0,0,0,0,0,0,0,0,0,0
1684080857.69947720,105928445,1000,1000,1000,1000,0,0,0,0,0,0,0,0,0,0
1684080857.79943705,106028405,1000,1000,1000,1000,0,0,0,0,0,0,0,0,0,0
1684080857.89939713,106128365,1000,1000,1000,1000,0,0,0,0,0,0,0,0,0,0
1684080857.99935699,106228325,1000,1000,1000,1000,0,0,0,0,0,0,0,0,0,0
1684080858.09931707,106328285,1000,1000,1000,1000,0,0,0,0,0,0,0,0,0,0
1684080858.19927716,106428245,1000,1000,1000,1000,0,0,0,0,0,0,0,0,0,0
1684080858.29923701,106528205,1000,1000,1000,1000,0,0,0,0,0,0,0,0,0,0
1684080858.39919710,106628165,1000,1000,1000,1000,0,0,0,0,0,0,0,0,0,0
1684080858.49998999,106728958,1000,1000,1000,1000,0,0,0,0,0,0,0,0,0,0
1684080858.59995008,106828918,1000,1000,1000,1000,0,0,0,0,0,0,0,0,0,0
1684080858.69991016,106928878,1000,1000,1000,1000,0,0,0,0,0,0,0,0,0,0
1684080858.79987001,107028838,1000,1000,1000,1000,0,0,0,0,0,0,0,0,0,0
1684080858.89983010,107128798,1000,1000,1000,1000,0,0,0,0,0,0,0,0,0,0
1684080858.99979019,107228758,1000,1000,1000,1000,0,0,0,0,0,0,0,0,0,0
1684080859.09975004,107328718,1000,1000,1000,1000,0,0,0,0,0,0,0,0,0,0
1684080859.19971013,107428678,1000,1000,1000,1000,0,0,0,0,0,0,0,0,0,0
1684080859.29966998,107528638,1000,1000,1000,1000,0,0,0,0,0,0,0,0,0,0
1684080859.39963007,107628598,1000,1000,1000,1000,0,0,0,0,0,0,0,0,0,0
1684080859.49959016,107728558,1000,1000,1000,1000,0,0,0,0,0,0,0,0,0,0
1684080859.59955001,107828518,1000,1000,1000,1000,0,0,0,0,0,0,0,0,0,0
1684080859.69951010,107928478,1000,1000,1000,1000,0,0,0,0,0,0,0,0,0,0
1684080859.79947019,108028438,1000,1000,1000,1000,0,0,0,0,0,0,0,0,0,0
1684080859.89943004,108128398,1000,1000,1000,1000,0,0,0,0,0,0,0,0,0,0
1684080859.99939013,108228358,1000,1000,1000,1000,0,0,0,0,0,0,0,0,0,0
1684080860.09935021,108328318,1000,1000,1000,1000,0,0,0,0,0,0,0,0,0,0
1684080860.19931006,108428278,1000,1000,1000,1000,0,0,0,0,0,0,0,0,0,0
1684080860.29927015,108528238,1000,1000,1000,1000,0,0,0,0,0,0,0,0,0,0
1684080860.39923000,108628198,1000,1000,1000,1000,0,0,0,0,0,0,0,0,0,0
1684080860.49919009,108728158,1000,1000,1000,1000,0,0,0,0,0,0,0,0,0,0
1684080860.59998298,108828951,1000,1000,1000,1000,0,0,0,0,0,0,0,0,0,0
1684080860.69994307,108928911,1000,1000,1000,1000,0,0,0,0,0,0,0,0,0,0
1684080860.79990315,109028871,1000,1000,1000,1000,0,0,0,0,0,0,0,0,0,0
1684080860.89986300,109128831,1000,1000,1000,1000,0,0,0,0,0,0,0,0,0,0
1684080860.99982309,109228791,1000,1000,1000,1000,0,0,0,0,0,0,0,0,0,0
1684080861.09978318,109328751,1000,1000,1000,1000,0,0,0,0,0,0,0,0,0,0
1684080861.19974303,109428711,1000,1000,1000,1000,0,0,0,0,0,0,0,0,0,0
1684080861.29970312,109528671,1000,1000,1000,1000,0,0,0,0,0,0,0,0,0,0
1684080861.39966321,109628631,1000,1000,1000,1000,0,0,0,0,0,0,0,0,0,0
1684080861.49962306,109728591,1000,1000,1000,1000,0,0,0,0,0,0,0,0,0,0
1684080861.59958315,109828551,1000,1000,1000,1000,0,0,0,0,0,0,0,0,0,0
1684080861.69954300,109928511,1000,1000,1000,1000,0,0,0,0,0,0,0,0,0,0
1684080861.79950309,110028471,1000,1000,1000,1000,0,0,0,0,0,0,0,0,0,0
1684080861.89946318,110128431,1000,1000,1000,1000,0,0,0,0,0,0,0,0,0,0
1684080861.99942303,110228391,1000,1000,1000,1000,0,0,0,0,0,0,0,0,0,0
1684080862.09938312,110328351,1000,1000,1000,1000,0,0,0,0,0,0,0,0,0,0
1684080862.19934320,110428311,1000,1000,1000,1000,0,0,0,0,0,0,0,0,0,0
1684080862.29930305,110528271,1000,1000,1000,1000,0,0,0,0,0,0,0,0,0,0
1684080862.39926314,110628231,1000,1000,1000,1000,0,0,0,0,0,0,0,0,0,0
1684080862.49922299,110728191,1000,1000,1000,1000,0,0,0,0,0,0,0,0,0,0
1684080862.60001612,110828984,1000,1000,1000,1000,0,0,0,0,0,0,0,0,0,0
1684080862.69997621,110928944,1000,1000,1000,1000,0,0,0,0,0,0,0,0,0,0
1684080862.79993606,111028904,1000,1000,1000,1000,0,0,0,0,0,0,0,0,0,0
1684080862.89989614,111128864,1000,1000,1000,1000,0,0,0,0,0,0,0,0,0,0
1684080862.99985600,111228824,1000,1000,1000,1000,0,0,0,0,0,0,0,0,0,0
1684080863.09981608,111328784,1000,1000,1000,1000,0,0,0,0,0,0,0,0,0,0
1684080863.19977617,111428744,1000,1000,1000,1000,0,0,0,0,0,0,0,0,0,0
1684080863.29973602,111528704,1000,1000,1000,1000,0,0,0,0,0,0,0,0,0,0
1684080863.39969611,111628664,1000,1000,1000,1000,0,0,0,0,0,0,0,0,0,0
1684080863.49965620,111728624,1000,1000,1000,1000,0,0,0,0,0,0,0,0,0,0
1684080863.59961605,111828584,1000,1000,1000,1000,0,0,0,0,0,0,0,0,0,0
1684080863.69957614,111928544,1000,1000,1000,1000,0,0,0,0,0,0,0,0,0,0
1684080863.79953599,112028504,1000,1000,1000,1000,0,0,0,0,0,0,0,0,0,0
1684080863.89949608,112128464,1000,1000,1000,1000,0,0,0,0,0,0,0,0,0,0
1684080863.99945617,112228424,1000,1000,1000,1000,0,0,0,0,0,0,0,0,0,0
1684080864.09941602,112328384,1000,1000,1000,1000,0,0,0,0,0,0,0,0,0,0
1684080864.19937611,112428344,1000,1000,1000,1000,0,0,0,0,0,0,0,0,0,0
1684080864.29933619,112528304,1000,1000,1000,1000,0,0,0,0,0,0,0,0,0,0
1684080864.39929605,112628264,1000,1000,1000,1000,0,0,0,0,0,0,0,0,0,0
1684080864.49925613,112728224,1000,1000,1000,1000,0,0,0,0,0,0,0,0,0,0
1684080864.59921598,112828184,1000,1000,1000,1000,0,0,0,0,0,0,0,0,0,0
1684080864.70000911,112928977,1000,1000,1000,1000,0,0,0,0,0,0,0,0,0,0
1684080864.79996920,113028937,1000,1000,1000,1000,0,0,0,0,0,0,0,0,0,0
1684080864.89992905,113128897,1000,1000,1000,1000,0,0,0,0,0,0,0,0,0,0
1684080864.99988914,113228857,1000,1000,1000,1000,0,0,0,0,0,0,0,0,0,0
1684080865.09984899,113328817,1000,1000,1000,1000,0,0,0,0,0,0,0,0,0,0
1684080865.19980907,113428777,1000,1000,1000,1000,0,0,0,0,0,0,0,0,0,0
1684080865.29976916,113528737,1000,1000,1000,1000,0,0,0,0,0,0,0,0,0,0
1684080865.39972901,113628697,1000,1000,1000,1000,0,0,0,0,0,0,0,0,0,0
1684080865.49968910,113728657,1000,1000,1000,1000,0,0,0,0,0,0,0,0,0,0
1684080865.59964919,113828617,1000,1000,1000,1000,0,0,0,0,0,0,0,0,0,0
1684080865.69960904,113928577,1000,1000,1000,1000,0,0,0,0,0,0,0,0,0,0
1684080865.79956913,114028537,1000,1000,1000,1000,0,0,0,0,0,0,0,0,0,0
1684080865.89952898,114128497,1000,1000,1000,1000,0,0,0,0,0,0,0,0,0,0
1684080865.99948907,114228457,1000,1000,1000,1000,0,0,0,0,0,0,0,0,0,0
1684080866.09944916,114328417,1000,1000,1000,1000,0,0,0,0,0,0,0,0,0,0
1684080866.19940901,114428377,1000,1000,1000,1000,0,0,0,0,0,0,0,0,0,0
1684080866.29936910,114528337,1000,1000,1000,1000,0,0,0,0,0,0,0,0,0,0
1684080866.39932919,114628297,1000,1000,1000,1000,0,0,0,0,0,0,0,0,0,0
1684080866.49928904,114728257,1000,1000,1000,1000,0,0,0,0,0,0,0,0,0,0
1684080866.59924912,114828217,1000,1000,1000,1000,0,0,0,0,0,0,0,0,0,0
1684080866.69920921,114928177,1000,1000,1000,1000,0,0,0,0,0,0,0,0,0,0
1684080866.80000210,115028970,1000,1000,1000,1000,0,0,0,0,0,0,0,0,0,0
1684080866.89996219,115128930,1000,1000,1000,1000,0,0,0,0,0,0,0,0,0,0
1684080866.99992204,115228890,1000,1000,1000,1000,0,0,0,0,0,0,0,0,0,0
1684080867.09988213,115328850,1000,1000,1000,1000,0,0,0,0,0,0,0,0,0,0
