TimeUS,M1,M2,M3,M4,TimeUS,C1,C2,C3,C4
82603612,1000,1000,1000,1000,82628602,1000,1000,1000,1000
82606111,1000,1000,1000,1000,82728562,1000,1000,1000,1000
82608610,1000,1000,1000,1000,82828522,1000,1000,1000,1000
82611109,1000,1000,1000,1000,82928482,1000,1000,1000,1000
82613608,1000,1000,1000,1000,83028442,1000,1000,1000,1000
82616107,1000,1000,1000,1000,83128402,1000,1000,1000,1000
82618606,1000,1000,1000,1000,83228362,1000,1000,1000,1000
82621105,1000,1000,1000,1000,83328322,1000,1000,1000,1000
82623604,1000,1000,1000,1000,83428282,1000,1000,1000,1000
82626103,1000,1000,1000,1000,83528242,1000,1000,1000,1000
82628602,1000,1000,1000,1000,83628202,1000,1000,1000,1000
82631101,1000,1000,1000,1000,83728162,1000,1000,1000,1000
82633600,1000,1000,1000,1000,83828955,1000,1000,1000,1000
82636099,1000,1000,1000,1000,83928915,1000,1000,1000,1000
82638598,1000,1000,1000,1000,84028875,1000,1000,1000,1000
82641097,1000,1000,1000,1000,84128835,1000,1000,1000,1000
82643596,1000,1000,1000,1000,84228795,1000,1000,1000,1000
82646095,1000,1000,1000,1000,84328755,1000,1000,1000,1000
82648594,1000,1000,1000,1000,84428715,1000,1000,1000,1000
82651093,1000,1000,1000,1000,84528675,1000,1000,1000,1000
82653592,1000,1000,1000,1000,84628635,1007,1007,1007,1007
82656091,1000,1000,1000,1000,84728595,1037,1037,1037,1037
82658590,1000,1000,1000,1000,84828555,1067,1067,1067,1067
82661089,1000,1000,1000,1000,84928515,1097,1097,1097,1097
82663588,1000,1000,1000,1000,85028475,1127,1127,1127,1127
82666087,1000,1000,1000,1000,85128435,1224,1212,1213,1225
82668586,1000,1000,1000,1000,85228395,1450,1441,1442,1451
82671085,1000,1000,1000,1000,85328355,1620,1612,1612,1620
82673584,1000,1000,1000,1000,85428315,1761,1754,1754,1762
82676083,1000,1000,1000,1000,85528275,1885,1878,1878,1886
82678582,1000,1000,1000,1000,85628235,1894,1890,1890,1895
82681081,1000,1000,1000,1000,85728195,1780,1778,1779,1780
82683580,1000,1000,1000,1000,85828155,1670,1671,1672,1670
82686079,1000,1000,1000,1000,85928948,1627,1630,1630,1627
82688578,1000,1000,1000,1000,86028908,1628,1632,1632,1628
82691077,1000,1000,1000,1000,86128868,1637,1639,1639,1637
82693576,1000,1000,1000,1000,86228828,1638,1638,1638,1638
82696075,1000,1000,1000,1000,86328788,1631,1630,1630,1631
82698574,1000,1000,1000,1000,86428748,1624,1622,1622,1624
82701073,1000,1000,1000,1000,86528708,1603,1602,1598,1607
82703572,1000,1000,1000,1000,86628668,1592,1591,1581,1600
82706071,1000,1000,1000,1000,86728628,1588,1586,1580,1594
82708570,1000,1000,1000,1000,86828588,1587,1587,1585,1588
82711069,1000,1000,1000,1000,86928548,1590,1590,1592,1588
82713568,1000,1000,1000,1000,87028508,1595,1596,1599,1591
82716067,1000,1000,1000,1000,87128468,1572,1573,1590,1555
82718566,1000,1000,1000,1000,87228428,1562,1564,1580,1547
82721065,1000,1000,1000,1000,87328388,1552,1552,1556,1550
82723564,1000,1000,1000,1000,87428348,1543,1543,1537,1552
82726063,1000,1000,1000,1000,87528308,1536,1536,1525,1548
82728562,1000,1000,1000,1000,87628268,1530,1530,1519,1541
82731061,1000,1000,1000,1000,87728228,1528,1527,1520,1534
82733560,1000,1000,1000,1000,87828188,1528,1528,1525,1529
82736059,1000,1000,1000,1000,87928981,1530,1529,1530,1528
82738558,1000,1000,1000,1000,88028941,1534,1534,1537,1530
82741057,1000,1000,1000,1000,88128901,1537,1537,1541,1532
82743556,1000,1000,1000,1000,88228861,1541,1542,1545,1537
82746055,1000,1000,1000,1000,88328821,1545,1545,1547,1542
82748554,1000,1000,1000,1000,88428781,1547,1547,1547,1547
82751053,1000,1000,1000,1000,88528741,1550,1550,1549,1551
82753552,1000,1000,1000,1000,88628701,1552,1552,1550,1554
82756051,1000,1000,1000,1000,88728661,1552,1552,1555,1559
82758550,1000,1000,1000,1000,88828621,1554,1553,1559,1561
82761049,1000,1000,1000,1000,88928581,1556,1556,1561,1562
82763548,1000,1000,1000,1000,89028541,1558,1558,1563,1562
82766047,1000,1000,1000,1000,89128501,1561,1562,1564,1564
82768546,1000,1000,1000,1000,89228461,1564,1565,1566,1565
82771045,1000,1000,1000,1000,89328421,1567,1567,1566,1565
82773544,1000,1000,1000,1000,89428381,1569,1569,1567,1566
82776043,1000,1000,1000,1000,89528341,1570,1570,1567,1567
82778542,1000,1000,1000,1000,89628301,1571,1572,1568,1568
82781041,1000,1000,1000,1000,89728261,1573,1573,1569,1570
82783540,1000,1000,1000,1000,89828221,1573,1573,1569,1570
82786039,1000,1000,1000,1000,89928181,1575,1574,1571,1572
82788538,1000,1000,1000,1000,90028974,1575,1575,1573,1572
82791037,1000,1000,1000,1000,90128934,1576,1576,1575,1574
82793536,1000,1000,1000,1000,90228894,1576,1576,1576,1574
82796035,1000,1000,1000,1000,90328854,1576,1576,1577,1575
82798534,1000,1000,1000,1000,90428814,1575,1576,1577,1576
82801033,1000,1000,1000,1000,90528774,1575,1575,1576,1576
82803532,1000,1000,1000,1000,90628734,1575,1576,1577,1577
82806031,1000,1000,1000,1000,90728694,1575,1575,1576,1577
82808530,1000,1000,1000,1000,90828654,1576,1577,1577,1578
82811029,1000,1000,1000,1000,90928614,1577,1576,1577,1577
82813528,1000,1000,1000,1000,91028574,1577,1577,1577,1577
82816027,1000,1000,1000,1000,91128534,1578,1577,1578,1577
82818526,1000,1000,1000,1000,91228494,1578,1578,1578,1578
82821025,1000,1000,1000,1000,91328454,1578,1577,1577,1577
82823524,1000,1000,1000,1000,91428414,1578,1578,1578,1577
82826023,1000,1000,1000,1000,91528374,1579,1578,1578,1578
82828522,1000,1000,1000,1000,91628334,1578,1578,1578,1577
82831021,1000,1000,1000,1000,91728294,1579,1579,1578,1579
82833520,1000,1000,1000,1000,91828254,1579,1579,1578,1579
82836019,1000,1000,1000,1000,91928214,1579,1579,1579,1579
82838518,1000,1000,1000,1000,92028174,1579,1579,1579,1579
82841017,1000,1000,1000,1000,92128967,1579,1580,1579,1579
82843516,1000,1000,1000,1000,92228927,1579,1579,1579,1580
82846015,1000,1000,1000,1000,92328887,1580,1580,1580,1580
82848514,1000,1000,1000,1000,92428847,1579,1580,1580,1580
82851013,1000,1000,1000,1000,92528807,1579,1579,1579,1580
82853512,1000,1000,1000,1000,92628767,1579,1579,1580,1580
82856011,1000,1000,1000,1000,92728727,1579,1579,1579,1579
82858510,1000,1000,1000,1000,92828687,1579,1579,1579,1579
82861009,1000,1000,1000,1000,92928647,1579,1579,1579,1579
82863508,1000,1000,1000,1000,93028607,1579,1579,1579,1579
82866007,1000,1000,1000,1000,93128567,1580,1580,1580,1580
82868506,1000,1000,1000,1000,93228527,1580,1580,1580,1580
82871005,1000,1000,1000,1000,93328487,1579,1579,1579,1579
82873504,1000,1000,1000,1000,93428447,1580,1580,1579,1580
82876003,1000,1000,1000,1000,93528407,1579,1579,1579,1580
82878502,1000,1000,1000,1000,93628367,1579,1579,1579,1579
82881001,1000,1000,1000,1000,93728327,1580,1580,1580,1580
82883500,1000,1000,1000,1000,93828287,1580,1580,1580,1580
82885999,1000,1000,1000,1000,93928247,1581,1581,1581,1581
82888498,1000,1000,1000,1000,94028207,1581,1581,1581,1581
82890997,1000,1000,1000,1000,94128167,1580,1580,1580,1580
82893496,1000,1000,1000,1000,94228960,1580,1580,1580,1581
82895995,1000,1000,1000,1000,94328920,1580,1580,1580,1580
82898494,1000,1000,1000,1000,94428880,1581,1580,1580,1581
82900993,1000,1000,1000,1000,94528840,1581,1580,1581,1581
82903492,1000,1000,1000,1000,94628800,1581,1581,1581,1581
82905991,1000,1000,1000,1000,94728760,1581,1581,1582,1581
82908490,1000,1000,1000,1000,94828720,1581,1581,1581,1581
82910989,1000,1000,1000,1000,94928680,1581,1582,1585,1578
82913488,1000,1000,1000,1000,95028640,1580,1582,1588,1572
82915987,1000,1000,1000,1000,95128600,1579,1582,1581,1574
82918486,1000,1000,1000,1000,95228560,1578,1581,1573,1573
82920985,1000,1000,1000,1000,95328520,1577,1580,1564,1570
82923484,1000,1000,1000,1000,95428480,1577,1579,1559,1566
82925983,1000,1000,1000,1000,95528440,1579,1579,1556,1561
82928482,1000,1000,1000,1000,95628400,1580,1578,1555,1557
82930981,1000,1000,1000,1000,95728360,1580,1577,1555,1554
82933480,1000,1000,1000,1000,95828320,1579,1577,1555,1553
82935979,1000,1000,1000,1000,95928280,1577,1577,1555,1553
82938478,1000,1000,1000,1000,96028240,1576,1577,1555,1553
82940977,1000,1000,1000,1000,96128200,1576,1577,1554,1554
82943476,1000,1000,1000,1000,96228160,1574,1576,1553,1552
82945975,1000,1000,1000,1000,96328953,1574,1576,1551,1551
82948474,1000,1000,1000,1000,96428913,1576,1577,1550,1551
82950973,1000,1000,1000,1000,96528873,1577,1578,1548,1549
82953472,1000,1000,1000,1000,96628833,1580,1581,1547,1547
82955971,1000,1000,1000,1000,96728793,1582,1584,1544,1544
82958470,1000,1000,1000,1000,96828753,1585,1586,1541,1541
82960969,1000,1000,1000,1000,96928713,1589,1589,1538,1538
82963468,1000,1000,1000,1000,97028673,1592,1592,1536,1536
82965967,1000,1000,1000,1000,97128633,1594,1594,1535,1535
82968466,1000,1000,1000,1000,97228593,1595,1595,1535,1536
82970965,1000,1000,1000,1000,97328553,1595,1594,1535,1537
82973464,1000,1000,1000,1000,97428513,1594,1594,1538,1541
82975963,1000,1000,1000,1000,97528473,1591,1590,1542,1545
82978462,1000,1000,1000,1000,97628433,1586,1583,1549,1551
82980961,1000,1000,1000,1000,97728393,1579,1575,1559,1562
82983460,1000,1000,1000,1000,97828353,1569,1564,1569,1572
82985959,1000,1000,1000,1000,97928313,1558,1553,1583,1583
82988458,1000,1000,1000,1000,98028273,1546,1543,1595,1595
82990957,1000,1000,1000,1000,98128233,1537,1536,1605,1605
82993456,1000,1000,1000,1000,98228193,1531,1532,1612,1612
82995955,1000,1000,1000,1000,98328986,1528,1530,1616,1615
82998454,1000,1000,1000,1000,98428946,1530,1532,1616,1615
83000953,1000,1000,1000,1000,98528906,1534,1537,1612,1611
83003452,1000,1000,1000,1000,98628866,1542,1544,1606,1606
83005951,1000,1000,1000,1000,98728826,1551,1551,1599,1599
83008450,1000,1000,1000,1000,98828786,1561,1561,1592,1592
83010949,1000,1000,1000,1000,98928746,1569,1568,1584,1583
83013448,1000,1000,1000,1000,99028706,1575,1575,1576,1576
83015947,1000,1000,1000,1000,99128666,1582,1581,1572,1572
83018446,1000,1000,1000,1000,99228626,1585,1585,1568,1568
83020945,1000,1000,1000,1000,99328586,1588,1586,1566,1566
83023444,1000,1000,1000,1000,99428546,1588,1587,1566,1566
83025943,1000,1000,1000,1000,99528506,1586,1585,1567,1567
83028442,1000,1000,1000,1000,99628466,1585,1584,1569,1570
83030941,1000,1000,1000,1000,99728426,1582,1581,1572,1572
83033440,1000,1000,1000,1000,99828386,1579,1579,1575,1575
83035939,1000,1000,1000,1000,99928346,1576,1577,1578,1578
83038438,1000,1000,1000,1000,100028306,1574,1575,1581,1581
83040937,1000,1000,1000,1000,100128266,1573,1573,1583,1582
83043436,1000,1000,1000,1000,100228226,1572,1573,1584,1583
83045935,1000,1000,1000,1000,100328186,1572,1572,1583,1583
83048434,1000,1000,1000,1000,100428979,1573,1573,1584,1583
83050933,1000,1000,1000,1000,100528939,1511,1512,1595,1597
83053432,1000,1000,1000,1000,100628899,1532,1535,1598,1600
83055931,1000,1000,1000,1000,100728859,1551,1554,1594,1593
83058430,1000,1000,1000,1000,100828819,1570,1572,1588,1586
83060929,1000,1000,1000,1000,100928779,1585,1585,1579,1578
83063428,1000,1000,1000,1000,101028739,1597,1596,1573,1571
83065927,1000,1000,1000,1000,101128699,1605,1603,1569,1568
83068426,1000,1000,1000,1000,101228659,1607,1604,1565,1566
83070925,1000,1000,1000,1000,101328619,1608,1605,1566,1567
83073424,1000,1000,1000,1000,101428579,1605,1602,1567,1568
83075923,1000,1000,1000,1000,101528539,1601,1600,1569,1570
83078422,1000,1000,1000,1000,101628499,1596,1596,1572,1572
83080921,1000,1000,1000,1000,101728459,1594,1594,1577,1577
83083420,1000,1000,1000,1000,101828419,1588,1589,1578,1578
83085919,1000,1000,1000,1000,101928379,1583,1585,1580,1581
83088418,1000,1000,1000,1000,102028339,1580,1581,1583,1583
83090917,1000,1000,1000,1000,102128299,1577,1577,1585,1584
83093416,1000,1000,1000,1000,102228259,1575,1575,1587,1586
83095915,1000,1000,1000,1000,102328219,1573,1573,1587,1587
83098414,1000,1000,1000,1000,102428179,1572,1573,1587,1587
83100913,1000,1000,1000,1000,102528972,1572,1572,1587,1587
83103412,1000,1000,1000,1000,102628932,1574,1574,1586,1586
83105911,1000,1000,1000,1000,102728892,1575,1576,1584,1585
83108410,1000,1000,1000,1000,102828852,1577,1577,1582,1582
83110909,1000,1000,1000,1000,102928812,1578,1579,1584,1576
83113408,1000,1000,1000,1000,103028772,1580,1582,1585,1570
83115907,1000,1000,1000,1000,103128732,1582,1583,1577,1568
83118406,1000,1000,1000,1000,103228692,1582,1584,1567,1567
83120905,1000,1000,1000,1000,103328652,1581,1582,1558,1563
83123404,1000,1000,1000,1000,103428612,1582,1582,1552,1559
83125903,1000,1000,1000,1000,103528572,1581,1581,1549,1554
83128402,1000,1000,1000,1000,103628532,1580,1580,1549,1551
83130901,1000,1000,1000,1000,103728492,1580,1580,1551,1550
83133400,1000,1000,1000,1000,103828452,1580,1580,1554,1551
83135899,1000,1000,1000,1000,103928412,1580,1580,1555,1553
83138398,1000,1000,1000,1000,104028372,1577,1579,1555,1553
83140897,1000,1000,1000,1000,104128332,1576,1577,1554,1553
83143396,1000,1000,1000,1000,104228292,1576,1577,1554,1554
83145895,1000,1000,1000,1000,104328252,1575,1576,1551,1552
83148394,1000,1000,1000,1000,104428212,1576,1578,1551,1551
83150893,1000,1000,1000,1000,104528172,1577,1578,1550,1549
83153392,1000,1000,1000,1000,104628965,1580,1581,1548,1548
83155891,1000,1000,1000,1000,104728925,1582,1583,1546,1546
83158390,1000,1000,1000,1000,104828885,1584,1585,1544,1544
83160889,1000,1000,1000,1000,104928845,1586,1587,1542,1542
83163388,1000,1000,1000,1000,105028805,1588,1589,1541,1542
83165887,1000,1000,1000,1000,105128765,1589,1590,1539,1541
83168386,1000,1000,1000,1000,105228725,1590,1591,1540,1541
83170885,1000,1000,1000,1000,105328685,1590,1590,1541,1542
83173384,1000,1000,1000,1000,105428645,1589,1589,1544,1546
83175883,1000,1000,1000,1000,105528605,1586,1584,1548,1551
83178382,1000,1000,1000,1000,105628565,1581,1578,1555,1558
83180881,1000,1000,1000,1000,105728525,1575,1571,1565,1568
83183380,1000,1000,1000,1000,105828485,1566,1562,1576,1578
83185879,1000,1000,1000,1000,105928445,1555,1552,1587,1588
83188378,1000,1000,1000,1000,106028405,1546,1545,1597,1598
83190877,1000,1000,1000,1000,106128365,1539,1539,1605,1605
83193376,1000,1000,1000,1000,106228325,1536,1537,1610,1610
83195875,1000,1000,1000,1000,106328285,1535,1536,1611,1610
83198374,1000,1000,1000,1000,106428245,1536,1539,1610,1609
83200873,1000,1000,1000,1000,106528205,1542,1543,1606,1606
83203372,1000,1000,1000,1000,106628165,1549,1550,1601,1601
83205871,1000,1000,1000,1000,106728958,1557,1557,1595,1594
83208370,1000,1000,1000,1000,106828918,1564,1564,1588,1586
83210869,1000,1000,1000,1000,106928878,1571,1571,1581,1580
83213368,1000,1000,1000,1000,107028838,1577,1577,1575,1575
83215867,1000,1000,1000,1000,107128798,1582,1581,1571,1572
83218366,1000,1000,1000,1000,107228758,1586,1585,1569,1570
83220865,1000,1000,1000,1000,107328718,1588,1587,1568,1568
83223364,1000,1000,1000,1000,107428678,1587,1586,1568,1567
83225863,1000,1000,1000,1000,107528638,1586,1585,1569,1569
83228362,1000,1000,1000,1000,107628598,1585,1585,1573,1572
83230861,1000,1000,1000,1000,107728558,1582,1582,1574,1574
83233360,1000,1000,1000,1000,107828518,1580,1580,1577,1577
83235859,1000,1000,1000,1000,107928478,1577,1578,1580,1580
83238358,1000,1000,1000,1000,108028438,1575,1576,1581,1581
83240857,1000,1000,1000,1000,108128398,1574,1574,1583,1583
83243356,1000,1000,1000,1000,108228358,1573,1574,1584,1583
83245855,1000,1000,1000,1000,108328318,1573,1574,1584,1584
83248354,1000,1000,1000,1000,108428278,1574,1575,1584,1584
83250853,1000,1000,1000,1000,108528238,1574,1575,1583,1583
83253352,1000,1000,1000,1000,108628198,1577,1577,1583,1582
83255851,1000,1000,1000,1000,108728158,1578,1577,1581,1581
83258350,1000,1000,1000,1000,108828951,1579,1579,1580,1580
83260849,1000,1000,1000,1000,108928911,1580,1580,1579,1579
83263348,1000,1000,1000,1000,109028871,1580,1580,1578,1578
83265847,1000,1000,1000,1000,109128831,1580,1580,1576,1576
83268346,1000,1000,1000,1000,109228791,1581,1581,1577,1577
83270845,1000,1000,1000,1000,109328751,1582,1582,1578,1578
83273344,1000,1000,1000,1000,109428711,1582,1582,1578,1578
83275843,1000,1000,1000,1000,109528671,1581,1581,1579,1578
83278342,1000,1000,1000,1000,109628631,1581,1581,1579,1579
83280841,1000,1000,1000,1000,109728591,1581,1582,1580,1580
83283340,1000,1000,1000,1000,109828551,1581,1581,1581,1581
83285839,1000,1000,1000,1000,109928511,1581,1581,1582,1582
83288338,1000,1000,1000,1000,110028471,1580,1580,1580,1581
83290837,1000,1000,1000,1000,110128431,1579,1579,1580,1580
83293336,1000,1000,1000,1000,110228391,1580,1580,1581,1581
83295835,1000,1000,1000,1000,110328351,1580,1579,1581,1581
83298334,1000,1000,1000,1000,110428311,1580,1580,1582,1581
83300833,1000,1000,1000,1000,110528271,1580,1580,1581,1581
83303332,1000,1000,1000,1000,110628231,1580,1580,1581,1580
83305831,1000,1000,1000,1000,110728191,1580,1581,1582,1581
83308330,1000,1000,1000,1000,110828984,1581,1581,1581,1581
83310829,1000,1000,1000,1000,110928944,1582,1581,1581,1581
83313328,1000,1000,1000,1000,111028904,1582,1582,1582,1582
83315827,1000,1000,1000,1000,111128864,1582,1582,1581,1581
83318326,1000,1000,1000,1000,111228824,1582,1584,1588,1574
83320825,1000,1000,1000,1000,111328784,1581,1583,1584,1572
83323324,1000,1000,1000,1000,111428744,1579,1582,1574,1572
83325823,1000,1000,1000,1000,111528704,1578,1580,1566,1570
83328322,1000,1000,1000,1000,111628664,1578,1580,1560,1567
83330821,1000,1000,1000,1000,111728624,1579,1580,1556,1562
83333320,1000,1000,1000,1000,111828584,1579,1579,1555,1558
83335819,1000,1000,1000,1000,111928544,1580,1578,1554,1555
83338318,1000,1000,1000,1000,112028504,1580,1579,1556,1554
83340817,1000,1000,1000,1000,112128464,1579,1579,1556,1554
83343316,1000,1000,1000,1000,112228424,1578,1578,1556,1554
83345815,1000,1000,1000,1000,112328384,1576,1577,1555,1554
83348314,1000,1000,1000,1000,112428344,1575,1577,1554,1554
83350813,1000,1000,1000,1000,112528304,1574,1576,1552,1553
83353312,1000,1000,1000,1000,112628264,1576,1577,1552,1552
83355811,1000,1000,1000,1000,112728224,1576,1578,1550,1551
83358310,1000,1000,1000,1000,112828184,1578,1579,1548,1548
83360809,1000,1000,1000,1000,112928977,1580,1580,1546,1546
83363308,1000,1000,1000,1000,113028937,1582,1584,1544,1544
83365807,1000,1000,1000,1000,113128897,1585,1585,1541,1541
83368306,1000,1000,1000,1000,113228857,1588,1588,1540,1540
83370805,1000,1000,1000,1000,113328817,1590,1590,1538,1539
83373304,1000,1000,1000,1000,113428777,1592,1592,1537,1539
83375803,1000,1000,1000,1000,113528737,1592,1593,1537,1540
83378302,1000,1000,1000,1000,113628697,1593,1593,1539,1542
83380801,1000,1000,1000,1000,113728657,1590,1589,1541,1544
83383300,1000,1000,1000,1000,113828617,1587,1585,1547,1550
83385799,1000,1000,1000,1000,113928577,1582,1578,1556,1558
83388298,1000,1000,1000,1000,114028537,1575,1571,1566,1569
83390797,1000,1000,1000,1000,114128497,1564,1560,1577,1579
83393296,1000,1000,1000,1000,114228457,1555,1551,1589,1590
83395795,1000,1000,1000,1000,114328417,1545,1543,1598,1598
83398294,1000,1000,1000,1000,114428377,1538,1538,1606,1606
83400793,1000,1000,1000,1000,114528337,1535,1535,1612,1610
83403292,1000,1000,1000,1000,114628297,1534,1536,1613,1612
83405791,1000,1000,1000,1000,114728257,1535,1538,1611,1610
83408290,1000,1000,1000,1000,114828217,1540,1542,1606,1607
83410789,1000,1000,1000,1000,114928177,1548,1550,1602,1602
83413288,1000,1000,1000,1000,115028970,1555,1555,1594,1593
83415787,1000,1000,1000,1000,115128930,1563,1563,1587,1586
83418286,1000,1000,1000,1000,115228890,1570,1570,1580,1580
83420785,1000,1000,1000,1000,115328850,1577,1576,1575,1575
83423284,1000,1000,1000,1000,115428810,1583,1582,1572,1571
83425783,1000,1000,1000,1000,115528770,1586,1584,1568,1568
83428282,1000,1000,1000,1000,115628730,1587,1586,1567,1567
83430781,1000,1000,1000,1000,115728690,1587,1586,1567,1567
83433280,1000,1000,1000,1000,115828650,1586,1586,1569,1569
83435779,1000,1000,1000,1000,115928610,1585,1584,1571,1571
83438278,1000,1000,1000,1000,116028570,1582,1582,1574,1574
83440777,1000,1000,1000,1000,116128530,1580,1580,1577,1577
83443276,1000,1000,1000,1000,116228490,1577,1578,1579,1579
83445775,1000,1000,1000,1000,116328450,1575,1575,1581,1581
83448274,1000,1000,1000,1000,116428410,1574,1575,1583,1583
83450773,1000,1000,1000,1000,116528370,1573,1574,1584,1584
83453272,1000,1000,1000,1000,116628330,1572,1573,1583,1583
83455771,1000,1000,1000,1000,116728290,1572,1573,1583,1582
83458270,1000,1000,1000,1000,116828250,1574,1575,1583,1583
83460769,1000,1000,1000,1000,116928210,1575,1576,1582,1582
83463268,1000,1000,1000,1000,117028170,1577,1577,1580,1581
83465767,1000,1000,1000,1000,117128963,1578,1578,1580,1580
83468266,1000,1000,1000,1000,117228923,1579,1579,1579,1578
83470765,1000,1000,1000,1000,117328883,1580,1580,1577,1577
83473264,1000,1000,1000,1000,117428843,1581,1581,1578,1578
83475763,1000,1000,1000,1000,117528803,1581,1581,1577,1577
83478262,1000,1000,1000,1000,117628763,1581,1581,1577,1577
83480761,1000,1000,1000,1000,117728723,1582,1581,1578,1578
83483260,1000,1000,1000,1000,117828683,1581,1581,1579,1578
83485759,1000,1000,1000,1000,117928643,1581,1582,1579,1580
83488258,1000,1000,1000,1000,118028603,1580,1581,1580,1579
83490757,1000,1000,1000,1000,118128563,1581,1581,1581,1581
83493256,1000,1000,1000,1000,118228523,1581,1581,1582,1582
83495755,1000,1000,1000,1000,118328483,1580,1580,1582,1581
83498254,1000,1000,1000,1000,118428443,1580,1580,1582,1581
83500753,1000,1000,1000,1000,118528403,1581,1581,1582,1582
83503252,1000,1000,1000,1000,118628363,1580,1580,1581,1582
83505751,1000,1000,1000,1000,118728323,1579,1579,1581,1581
83508250,1000,1000,1000,1000,118828283,1580,1581,1581,1582
83510749,1000,1000,1000,1000,118928243,1580,1580,1581,1581
83513248,1000,1000,1000,1000,119028203,1580,1580,1581,1580
83515747,1000,1000,1000,1000,119128163,1581,1581,1584,1577
83518246,1000,1000,1000,1000,119228956,1581,1581,1587,1572
83520745,1000,1000,1000,1000,119328916,1579,1579,1581,1573
83523244,1000,1000,1000,1000,119428876,1577,1576,1574,1575
83525743,1000,1000,1000,1000,119528836,1574,1573,1569,1574
83528242,1000,1000,1000,1000,119628796,1571,1571,1566,1573
83530741,1000,1000,1000,1000,119728756,1569,1568,1564,1570
83533240,1000,1000,1000,1000,119828716,1567,1567,1565,1567
83535739,1000,1000,1000,1000,119928676,1567,1567,1567,1566
83538238,1000,1000,1000,1000,120028636,1566,1567,1568,1565
83540737,1000,1000,1000,1000,120128596,1565,1566,1568,1565
83543236,1000,1000,1000,1000,120228556,1565,1565,1567,1565
83545735,1000,1000,1000,1000,120328516,1565,1564,1566,1566
83548234,1000,1000,1000,1000,120428476,1563,1563,1564,1564
83550733,1000,1000,1000,1000,120528436,1562,1562,1563,1564
83553232,1000,1000,1000,1000,120628396,1562,1562,1563,1564
83555731,1000,1000,1000,1000,120728356,1562,1562,1562,1562
83558230,1000,1000,1000,1000,120828316,1562,1561,1562,1561
83560729,1000,1000,1000,1000,120928276,1561,1561,1562,1561
83563228,1000,1000,1000,1000,121028236,1560,1561,1561,1560
83565727,1000,1000,1000,1000,121128196,1559,1559,1559,1559
83568226,1000,1000,1000,1000,121228156,1558,1559,1559,1558
83570725,1000,1000,1000,1000,121328949,1558,1558,1558,1557
83573224,1000,1000,1000,1000,121428909,1557,1557,1558,1556
83575723,1000,1000,1000,1000,121528869,1558,1557,1557,1557
83578222,1000,1000,1000,1000,121628829,1557,1557,1558,1556
83580721,1000,1000,1000,1000,121728789,1558,1558,1559,1557
83583220,1000,1000,1000,1000,121828749,1559,1558,1560,1557
83585719,1000,1000,1000,1000,121928709,1559,1558,1560,1558
83588218,1000,1000,1000,1000,122028669,1560,1559,1559,1561
83590717,1000,1000,1000,1000,122128629,1560,1561,1558,1564
83593216,1000,1000,1000,1000,122228589,1560,1561,1558,1564
83595715,1000,1000,1000,1000,122328549,1561,1563,1559,1565
83598214,1000,1000,1000,1000,122428509,1562,1563,1561,1564
83600713,1000,1000,1000,1000,122528469,1563,1563,1563,1562
83603212,1000,1000,1000,1000,122628429,1562,1562,1564,1560
83605711,1000,1000,1000,1000,122728389,1561,1561,1562,1558
83608210,1000,1000,1000,1000,122828349,1561,1561,1559,1562
83610709,1000,1000,1000,1000,122928309,1557,1556,1553,1559
83613208,1000,1000,1000,1000,123028269,1553,1553,1550,1554
83615707,1000,1000,1000,1000,123128229,1548,1548,1546,1548
83618206,1000,1000,1000,1000,123228189,1541,1541,1540,1539
83620705,1000,1000,1000,1000,123328982,1534,1534,1534,1532
83623204,1000,1000,1000,1000,123428942,1526,1526,1525,1524
83625703,1000,1000,1000,1000,123528902,1522,1522,1521,1521
83628202,1000,1000,1000,1000,123628862,1519,1519,1519,1519
83630701,1000,1000,1000,1000,123728822,1519,1519,1520,1520
83633200,1000,1000,1000,1000,123828782,1520,1520,1521,1522
83635699,1000,1000,1000,1000,123928742,1524,1524,1525,1526
83638198,1000,1000,1000,1000,124028702,1527,1527,1529,1530
83640697,1000,1000,1000,1000,124128662,1532,1532,1534,1535
83643196,1000,1000,1000,1000,124228622,1535,1535,1537,1537
83645695,1000,1000,1000,1000,124328582,1539,1539,1541,1541
83648194,1000,1000,1000,1000,124428542,1541,1541,1543,1542
83650693,1000,1000,1000,1000,124528502,1543,1543,1544,1543
83653192,1000,1000,1000,1000,124628462,1545,1545,1545,1544
83655691,1000,1000,1000,1000,124728422,1547,1547,1546,1546
83658190,1000,1000,1000,1000,124828382,1547,1546,1545,1545
83660689,1000,1000,1000,1000,124928342,1547,1547,1546,1546
83663188,1000,1000,1000,1000,125028302,1546,1547,1545,1545
83665687,1000,1000,1000,1000,125128262,1547,1547,1546,1546
83668186,1000,1000,1000,1000,125228222,1547,1548,1547,1546
83670685,1000,1000,1000,1000,125328182,1548,1548,1547,1546
83673184,1000,1000,1000,1000,125428975,1546,1546,1545,1545
83675683,1000,1000,1000,1000,125528935,1546,1546,1545,1545
83678182,1000,1000,1000,1000,125628895,1545,1545,1545,1545
83680681,1000,1000,1000,1000,125728855,1545,1544,1545,1545
83683180,1000,1000,1000,1000,125828815,1545,1546,1546,1546
83685679,1000,1000,1000,1000,125928775,1544,1544,1545,1545
83688178,1000,1000,1000,1000,126028735,1544,1544,1545,1545
83690677,1000,1000,1000,1000,126128695,1544,1544,1544,1545
83693176,1000,1000,1000,1000,126228655,1544,1544,1545,1545
83695675,1000,1000,1000,1000,126328615,1544,1544,1545,1544
83698174,1000,1000,1000,1000,126428575,1544,1545,1545,1544
83700673,1000,1000,1000,1000,126528535,1544,1544,1544,1544
83703172,1000,1000,1000,1000,126628495,1544,1543,1543,1543
83705671,1000,1000,1000,1000,126728455,1545,1544,1545,1544
83708170,1000,1000,1000,1000,126828415,1544,1544,1544,1544
83710669,1000,1000,1000,1000,126928375,1545,1545,1544,1545
83713168,1000,1000,1000,1000,127028335,1545,1545,1545,1544
83715667,1000,1000,1000,1000,127128295,1544,1544,1544,1544
83718166,1000,1000,1000,1000,127228255,1544,1544,1544,1544
83720665,1000,1000,1000,1000,127328215,1545,1544,1544,1544
83723164,1000,1000,1000,1000,127428175,1545,1545,1545,1544
83725663,1000,1000,1000,1000,127528968,1544,1544,1544,1544
83728162,1000,1000,1000,1000,127628928,1545,1545,1545,1545
83730661,1000,1000,1000,1000,127728888,1544,1543,1544,1544
83733160,1000,1000,1000,1000,127828848,1545,1545,1545,1545
83735659,1000,1000,1000,1000,127928808,1545,1545,1544,1545
83738158,1000,1000,1000,1000,128028768,1544,1545,1544,1544
83740657,1000,1000,1000,1000,128128728,1545,1544,1544,1545
83743156,1000,1000,1000,1000,128228688,1545,1544,1545,1544
83745655,1000,1000,1000,1000,128328648,1545,1545,1545,1545
83748154,1000,1000,1000,1000,128428608,1545,1545,1545,1545
83751486,1000,1000,1000,1000,128528568,1544,1544,1544,1545
83753985,1000,1000,1000,1000,128628528,1544,1544,1544,1544
83756484,1000,1000,1000,1000,128728488,1545,1544,1544,1544
83758983,1000,1000,1000,1000,128828448,1544,1544,1545,1544
83761482,1000,1000,1000,1000,128928408,1544,1544,1544,1544
83763981,1000,1000,1000,1000,129028368,1545,1545,1544,1545
83766480,1000,1000,1000,1000,129128328,1544,1544,1543,1544
83768979,1000,1000,1000,1000,129228288,1545,1544,1544,1544
83771478,1000,1000,1000,1000,129328248,1545,1544,1544,1545
83773977,1000,1000,1000,1000,129428208,1544,1545,1545,1545
83776476,1000,1000,1000,1000,129528168,1544,1544,1544,1544
83778975,1000,1000,1000,1000,129628961,1543,1544,1544,1543
83781474,1000,1000,1000,1000,129728921,1544,1544,1544,1544
83783973,1000,1000,1000,1000,129828881,1544,1544,1544,1544
83786472,1000,1000,1000,1000,129928841,1545,1545,1545,1545
83788971,1000,1000,1000,1000,130028801,1545,1545,1545,1545
83791470,1000,1000,1000,1000,130128761,1546,1544,1545,1546
83793969,1000,1000,1000,1000,130228721,1544,1545,1545,1544
83796468,1000,1000,1000,1000,130328681,1545,1544,1544,1545
83798967,1000,1000,1000,1000,130428641,1544,1544,1544,1544
83801466,1000,1000,1000,1000,130528601,1545,1545,1545,1545
83803965,1000,1000,1000,1000,130628561,1544,1545,1545,1544
83806464,1000,1000,1000,1000,130728521,1544,1544,1544,1544
83808963,1000,1000,1000,1000,130828481,1544,1544,1544,1543
83811462,1000,1000,1000,1000,130928441,1545,1545,1545,1545
83813961,1000,1000,1000,1000,131028401,1544,1544,1544,1544
83816460,1000,1000,1000,1000,131128361,1545,1545,1545,1545
83818959,1000,1000,1000,1000,131228321,1544,1544,1545,1544
83821458,1000,1000,1000,1000,131328281,1545,1545,1544,1545
83823957,1000,1000,1000,1000,131428241,1544,1545,1545,1545
83826456,1000,1000,1000,1000,131528201,1545,1544,1544,1544
83828955,1000,1000,1000,1000,131628161,1544,1545,1544,1544
83831454,1000,1000,1000,1000,131728954,1544,1544,1544,1545
83833953,1000,1000,1000,1000,131828914,1544,1545,1545,1545
83836452,1000,1000,1000,1000,131928874,1545,1544,1544,1544
83838951,1000,1000,1000,1000,132028834,1544,1544,1544,1544
83841450,1000,1000,1000,1000,132128794,1544,1543,1543,1544
83843949,1000,1000,1000,1000,132228754,1544,1544,1544,1544
83846448,1000,1000,1000,1000,132328714,1544,1545,1545,1544
83848947,1000,1000,1000,1000,132428674,1544,1544,1544,1544
83851446,1000,1000,1000,1000,132528634,1544,1544,1544,1545
83853945,1000,1000,1000,1000,132628594,1544,1544,1545,1544
83856444,1000,1000,1000,1000,132728554,1545,1544,1544,1544
83858943,1000,1000,1000,1000,132828514,1545,1545,1545,1545
83861442,1000,1000,1000,1000,132928474,1544,1544,1544,1545
83863941,1000,1000,1000,1000,133028434,1544,1545,1545,1544
83866440,1000,1000,1000,1000,133128394,1545,1544,1544,1545
83868939,1000,1000,1000,1000,133228354,1541,1540,1540,1540
83871438,1000,1000,1000,1000,133328314,1375,1376,1354,1354
83873937,1000,1000,1000,1000,133428274,1287,1290,1250,1249
83876436,1000,1000,1000,1000,133528234,1262,1263,1217,1217
83878935,1000,1000,1000,1000,133628194,1247,1248,1199,1198
83881434,1000,1000,1000,1000,133728154,1212,1212,1152,1152
83883933,1000,1000,1000,1000,133828947,1211,1212,1152,1150
83886432,1000,1000,1000,1000,133928907,1210,1211,1151,1150
83888931,1000,1000,1000,1000,134028867,1210,1212,1152,1150
83891430,1000,1000,1000,1000,134128827,1238,1206,1150,1193
83893929,1000,1000,1000,1000,134228787,1230,1210,1150,1177
83896428,1000,1000,1000,1000,134328747,1227,1210,1150,1173
83898927,1000,1000,1000,1000,134428707,1228,1210,1150,1174
83901426,1000,1000,1000,1000,134528667,1230,1210,1150,1177
83903925,1000,1000,1000,1000,134628627,1232,1210,1150,1179
83906424,1000,1000,1000,1000,134728587,1234,1210,1150,1182
83908923,1000,1000,1000,1000,134828547,1235,1209,1150,1184
83911422,1000,1000,1000,1000,134928507,1221,1209,1150,1165
83913921,1000,1000,1000,1000,135028467,1222,1209,1150,1167
83916420,1000,1000,1000,1000,135128427,1223,1209,1150,1168
83918919,1000,1000,1000,1000,135228387,1224,1209,1150,1169
83921418,1000,1000,1000,1000,135328347,1146,1138,1150,1159
83923917,1000,1000,1000,1000,135428307,1000,1000,1000,1000
83926416,1000,1000,1000,1000,135528267,1000,1000,1000,1000
83928915,1000,1000,1000,1000,135628227,1000,1000,1000,1000
83931414,1000,1000,1000,1000,135728187,1000,1000,1000,1000
83933913,1000,1000,1000,1000,135828980,1000,1000,1000,1000
83936412,1000,1000,1000,1000,135928940,1000,1000,1000,1000
83938911,1000,1000,1000,1000,136028900,1000,1000,1000,1000
83941410,1000,1000,1000,1000,136128860,1000,1000,1000,1000
83943909,1000,1000,1000,1000,136228820,1000,1000,1000,1000
83946408,1000,1000,1000,1000,136328780,1000,1000,1000,1000
83948907,1000,1000,1000,1000,136428740,1000,1000,1000,1000
83951406,1000,1000,1000,1000,136528700,1000,1000,1000,1000
83953905,1000,1000,1000,1000,136628660,1000,1000,1000,1000
83956404,1000,1000,1000,1000,136728620,1000,1000,1000,1000
83958903,1000,1000,1000,1000,136828580,1000,1000,1000,1000
83961402,1000,1000,1000,1000,136928540,1000,1000,1000,1000
83963901,1000,1000,1000,1000,137028500,1000,1000,1000,1000
83966400,1000,1000,1000,1000,137128460,1000,1000,1000,1000
83968899,1000,1000,1000,1000,137228420,1000,1000,1000,1000
83971398,1000,1000,1000,1000,137328380,1000,1000,1000,1000
83973897,1000,1000,1000,1000,137428340,1000,1000,1000,1000
83976396,1000,1000,1000,1000,137528300,1000,1000,1000,1000
83978895,1000,1000,1000,1000,137628260,1000,1000,1000,1000
83981394,1000,1000,1000,1000,137728220,1000,1000,1000,1000
83983893,1000,1000,1000,1000,137828180,1000,1000,1000,1000
83986392,1000,1000,1000,1000,137928973,1000,1000,1000,1000
83988891,1000,1000,1000,1000,138028933,1000,1000,1000,1000
83991390,1000,1000,1000,1000,138128893,1000,1000,1000,1000
83993889,1000,1000,1000,1000,138228853,1000,1000,1000,1000
83996388,1000,1000,1000,1000,138328813,1000,1000,1000,1000
83998887,1000,1000,1000,1000,138428773,1000,1000,1000,1000
84001386,1000,1000,1000,1000,138528733,1000,1000,1000,1000
84003885,1000,1000,1000,1000,138628693,1000,1000,1000,1000
84006384,1000,1000,1000,1000,138728653,1000,1000,1000,1000
84008883,1000,1000,1000,1000,138828613,1000,1000,1000,1000
84011382,1000,1000,1000,1000,138928573,1000,1000,1000,1000
84013881,1000,1000,1000,1000,139028533,1000,1000,1000,1000
84016380,1000,1000,1000,1000,139128493,1000,1000,1000,1000
84018879,1000,1000,1000,1000,139228453,1000,1000,1000,1000
84021378,1000,1000,1000,1000,139328413,1000,1000,1000,1000
84023877,1000,1000,1000,1000,139428373,1000,1000,1000,1000
84026376,1000,1000,1000,1000,139528333,1000,1000,1000,1000
84028875,1000,1000,1000,1000,139628293,1000,1000,1000,1000
84031374,1000,1000,1000,1000,139728253,1000,1000,1000,1000
84033873,1000,1000,1000,1000,139828213,1000,1000,1000,1000
84036372,1000,1000,1000,1000,139928173,1000,1000,1000,1000
84038871,1000,1000,1000,1000,140028966,1000,1000,1000,1000
84041370,1000,1000,1000,1000,140128926,1000,1000,1000,1000
84043869,1000,1000,1000,1000,140228886,1000,1000,1000,1000
84046368,1000,1000,1000,1000,140328846,1000,1000,1000,1000
84048867,1000,1000,1000,1000,140428806,1000,1000,1000,1000
84051366,1000,1000,1000,1000,140528766,1000,1000,1000,1000
84053865,1000,1000,1000,1000,140628726,1000,1000,1000,1000
84056364,1000,1000,1000,1000,140728686,1000,1000,1000,1000
84058863,1000,1000,1000,1000,140828646,1000,1000,1000,1000
84061362,1000,1000,1000,1000,140928606,1000,1000,1000,1000
84063861,1000,1000,1000,1000,141028566,1000,1000,1000,1000
84066360,1000,1000,1000,1000,141128526,1000,1000,1000,1000
84068859,1000,1000,1000,1000,141228486,1000,1000,1000,1000
84071358,1000,1000,1000,1000,141328446,1000,1000,1000,1000
84073857,1000,1000,1000,1000,141428406,1000,1000,1000,1000
84076356,1000,1000,1000,1000,141528366,1000,1000,1000,1000
84078855,1000,1000,1000,1000,141628326,1000,1000,1000,1000
84081354,1000,1000,1000,1000,141728286,1000,1000,1000,1000
84083853,1000,1000,1000,1000,141828246,1000,1000,1000,1000
84086352,1000,1000,1000,1000,141928206,1000,1000,1000,1000
84088851,1000,1000,1000,1000,142028166,1000,1000,1000,1000
84091350,1000,1000,1000,1000,142128959,1000,1000,1000,1000
84093849,1000,1000,1000,1000,142228919,1000,1000,1000,1000
84096348,1000,1000,1000,1000,142328879,1000,1000,1000,1000
84098847,1000,1000,1000,1000,142428839,1000,1000,1000,1000
84101346,1000,1000,1000,1000,142528799,1000,1000,1000,1000
84103845,1000,1000,1000,1000,142628759,1000,1000,1000,1000
84106344,1000,1000,1000,1000,142728719,1000,1000,1000,1000
84108843,1000,1000,1000,1000,142828679,1000,1000,1000,1000
84111342,1000,1000,1000,1000,142928639,1000,1000,1000,1000
84113841,1000,1000,1000,1000,143028599,1000,1000,1000,1000
84116340,1000,1000,1000,1000,143128559,1000,1000,1000,1000
84118839,1000,1000,1000,1000,143228519,1000,1000,1000,1000
84121338,1000,1000,1000,1000,143328479,1000,1000,1000,1000
84123837,1000,1000,1000,1000,143428439,1000,1000,1000,1000
84126336,1000,1000,1000,1000,143528399,1000,1000,1000,1000
84128835,1000,1000,1000,1000,143628359,1000,1000,1000,1000
84131334,1000,1000,1000,1000,143728319,1000,1000,1000,1000
84133833,1000,1000,1000,1000,143828279,1000,1000,1000,1000
84136332,1000,1000,1000,1000,143928239,1000,1000,1000,1000
84138831,1000,1000,1000,1000,144028199,1000,1000,1000,1000
84141330,1000,1000,1000,1000,144128159,1000,1000,1000,1000
84143829,1000,1000,1000,1000,144228952,1000,1000,1000,1000
84146328,1000,1000,1000,1000,144328912,1000,1000,1000,1000
84148827,1000,1000,1000,1000,144428872,1000,1000,1000,1000
84151326,1000,1000,1000,1000,144528832,1000,1000,1000,1000
84153825,1000,1000,1000,1000,144628792,1000,1000,1000,1000
84156324,1000,1000,1000,1000,144728752,1000,1000,1000,1000
84158823,1000,1000,1000,1000,144828712,1000,1000,1000,1000
84161322,1000,1000,1000,1000,144928672,1000,1000,1000,1000
84163821,1000,1000,1000,1000,145028632,1000,1000,1000,1000
84166320,1000,1000,1000,1000,145128592,1000,1000,1000,1000
84168819,1000,1000,1000,1000,145228552,1000,1000,1000,1000
84171318,1000,1000,1000,1000,145328512,1000,1000,1000,1000
84173817,1000,1000,1000,1000,145428472,1000,1000,1000,1000
84176316,1000,1000,1000,1000,145528432,1000,1000,1000,1000
84178815,1000,1000,1000,1000,145628392,1000,1000,1000,1000
84181314,1000,1000,1000,1000,145728352,1000,1000,1000,1000
84183813,1000,1000,1000,1000,145828312,1000,1000,1000,1000
84186312,1000,1000,1000,1000,145928272,1000,1000,1000,1000
84188811,1000,1000,1000,1000,146028232,1000,1000,1000,1000
84191310,1000,1000,1000,1000,146128192,1000,1000,1000,1000
84193809,1000,1000,1000,1000,146228985,1000,1000,1000,1000
84196308,1000,1000,1000,1000,146328945,1000,1000,1000,1000
84198807,1000,1000,1000,1000,146428905,1000,1000,1000,1000
84201306,1000,1000,1000,1000,146528865,1000,1000,1000,1000
84203805,1000,1000,1000,1000,146628825,1000,1000,1000,1000
84206304,1000,1000,1000,1000,146728785,1000,1000,1000,1000
84208803,1000,1000,1000,1000,146828745,1000,1000,1000,1000
84211302,1000,1000,1000,1000,146928705,1000,1000,1000,1000
84213801,1000,1000,1000,1000,147028665,1000,1000,1000,1000
84216300,1000,1000,1000,1000,147128625,1000,1000,1000,1000
84218799,1000,1000,1000,1000,147228585,1000,1000,1000,1000
84221298,1000,1000,1000,1000,147328545,1000,1000,1000,1000
84223797,1000,1000,1000,1000,147428505,1000,1000,1000,1000
84226296,1000,1000,1000,1000,147528465,1000,1000,1000,1000
84228795,1000,1000,1000,1000,147628425,1000,1000,1000,1000
84231294,1000,1000,1000,1000,147728385,1000,1000,1000,1000
84233793,1000,1000,1000,1000,147828345,1000,1000,1000,1000
84236292,1000,1000,1000,1000,147928305,1000,1000,1000,1000
84238791,1000,1000,1000,1000,148028265,1000,1000,1000,1000
84241290,1000,1000,1000,1000,148128225,1000,1000,1000,1000
84243789,1000,1000,1000,1000,148228185,1000,1000,1000,1000
84246288,1000,1000,1000,1000,148328978,1000,1000,1000,1000
84248787,1000,1000,1000,1000,148428938,1000,1000,1000,1000
84251286,1000,1000,1000,1000,148528898,1000,1000,1000,1000
84253785,1000,1000,1000,1000,148628858,1000,1000,1000,1000
84256284,1000,1000,1000,1000,148728818,1000,1000,1000,1000
84258783,1000,1000,1000,1000,148828778,1000,1000,1000,1000
84261282,1000,1000,1000,1000,148928738,1000,1000,1000,1000
84263781,1000,1000,1000,1000,149028698,1000,1000,1000,1000
84266280,1000,1000,1000,1000,149128658,1000,1000,1000,1000
84268779,1000,1000,1000,1000,149228618,1000,1000,1000,1000
84271278,1000,1000,1000,1000,149328578,1000,1000,1000,1000
84273777,1000,1000,1000,1000,149428538,1000,1000,1000,1000
84276276,1000,1000,1000,1000,149528498,1000,1000,1000,1000
84278775,1000,1000,1000,1000,149628458,1000,1000,1000,1000
84281274,1000,1000,1000,1000,149728418,1000,1000,1000,1000
84283773,1000,1000,1000,1000,149828378,1000,1000,1000,1000
84286272,1000,1000,1000,1000,149928338,1000,1000,1000,1000
84288771,1000,1000,1000,1000,150028298,1000,1000,1000,1000
84291270,1000,1000,1000,1000,150128258,1000,1000,1000,1000
84293769,1000,1000,1000,1000,150228218,1000,1000,1000,1000
84296268,1000,1000,1000,1000,150328178,1000,1000,1000,1000
84298767,1000,1000,1000,1000,,,,,
84301266,1000,1000,1000,1000,,,,,
84303765,1000,1000,1000,1000,,,,,
84306264,1000,1000,1000,1000,,,,,
84308763,1000,1000,1000,1000,,,,,
84311262,1000,1000,1000,1000,,,,,
84313761,1000,1000,1000,1000,,,,,
84316260,1000,1000,1000,1000,,,,,
84318759,1000,1000,1000,1000,,,,,
84321258,1000,1000,1000,1000,,,,,
84323757,1000,1000,1000,1000,,,,,
84326256,1000,1000,1000,1000,,,,,
84328755,1000,1000,1000,1000,,,,,
84331254,1000,1000,1000,1000,,,,,
84333753,1000,1000,1000,1000,,,,,
84336252,1000,1000,1000,1000,,,,,
84338751,1000,1000,1000,1000,,,,,
84341250,1000,1000,1000,1000,,,,,
84343749,1000,1000,1000,1000,,,,,
84346248,1000,1000,1000,1000,,,,,
84348747,1000,1000,1000,1000,,,,,
84351246,1000,1000,1000,1000,,,,,
84353745,1000,1000,1000,1000,,,,,
84356244,1000,1000,1000,1000,,,,,
84358743,1000,1000,1000,1000,,,,,
84361242,1000,1000,1000,1000,,,,,
84363741,1000,1000,1000,1000,,,,,
84366240,1000,1000,1000,1000,,,,,
84368739,1000,1000,1000,1000,,,,,
84371238,1000,1000,1000,1000,,,,,
84373737,1000,1000,1000,1000,,,,,
84376236,1000,1000,1000,1000,,,,,
84378735,1000,1000,1000,1000,,,,,
84381234,1000,1000,1000,1000,,,,,
84383733,1000,1000,1000,1000,,,,,
84386232,1000,1000,1000,1000,,,,,
84388731,1000,1000,1000,1000,,,,,
84391230,1000,1000,1000,1000,,,,,
84393729,1000,1000,1000,1000,,,,,
84396228,1000,1000,1000,1000,,,,,
84398727,1000,1000,1000,1000,,,,,
84401226,1000,1000,1000,1000,,,,,
84403725,1000,1000,1000,1000,,,,,
84406224,1000,1000,1000,1000,,,,,
84408723,1000,1000,1000,1000,,,,,
84411222,1000,1000,1000,1000,,,,,
84413721,1000,1000,1000,1000,,,,,
84416220,1000,1000,1000,1000,,,,,
84418719,1000,1000,1000,1000,,,,,
84421218,1000,1000,1000,1000,,,,,
84423717,1000,1000,1000,1000,,,,,
84426216,1000,1000,1000,1000,,,,,
84428715,1000,1000,1000,1000,,,,,
84431214,1000,1000,1000,1000,,,,,
84433713,1000,1000,1000,1000,,,,,
84436212,1000,1000,1000,1000,,,,,
84438711,1000,1000,1000,1000,,,,,
84441210,1000,1000,1000,1000,,,,,
84443709,1000,1000,1000,1000,,,,,
84446208,1000,1000,1000,1000,,,,,
84448707,1000,1000,1000,1000,,,,,
84451206,1000,1000,1000,1000,,,,,
84453705,1000,1000,1000,1000,,,,,
84456204,1000,1000,1000,1000,,,,,
84458703,1000,1000,1000,1000,,,,,
84461202,1000,1000,1000,1000,,,,,
84463701,1000,1000,1000,1000,,,,,
84466200,1000,1000,1000,1000,,,,,
84468699,1000,1000,1000,1000,,,,,
84471198,1000,1000,1000,1000,,,,,
84473697,1000,1000,1000,1000,,,,,
84476196,1000,1000,1000,1000,,,,,
84478695,1000,1000,1000,1000,,,,,
84481194,1000,1000,1000,1000,,,,,
84483693,1000,1000,1000,1000,,,,,
84486192,1000,1000,1000,1000,,,,,
84488691,1000,1000,1000,1000,,,,,
84491190,1000,1000,1000,1000,,,,,
84493689,1000,1000,1000,1000,,,,,
84496188,1000,1000,1000,1000,,,,,
84498687,1000,1000,1000,1000,,,,,
84501186,1000,1000,1000,1000,,,,,
84503685,1000,1000,1000,1000,,,,,
84506184,1000,1000,1000,1000,,,,,
84508683,1000,1000,1000,1000,,,,,
84511182,1000,1000,1000,1000,,,,,
84513681,1000,1000,1000,1000,,,,,
84516180,1000,1000,1000,1000,,,,,
84518679,1000,1000,1000,1000,,,,,
84521178,1000,1000,1000,1000,,,,,
84523677,1000,1000,1000,1000,,,,,
84526176,1000,1000,1000,1000,,,,,
84528675,1000,1000,1000,1000,,,,,
84531174,1000,1000,1000,1000,,,,,
84533673,1000,1000,1000,1000,,,,,
84536172,1000,1000,1000,1000,,,,,
84538671,1000,1000,1000,1000,,,,,
84541170,1000,1000,1000,1000,,,,,
84543669,1000,1000,1000,1000,,,,,
84546168,1000,1000,1000,1000,,,,,
84548667,1000,1000,1000,1000,,,,,
84551166,1000,1000,1000,1000,,,,,
84553665,1000,1000,1000,1000,,,,,
84556164,1000,1000,1000,1000,,,,,
84558663,1000,1000,1000,1000,,,,,
84561162,1000,1000,1000,1000,,,,,
84563661,1000,1000,1000,1000,,,,,
84566160,1000,1000,1000,1000,,,,,
84568659,1000,1000,1000,1000,,,,,
84571158,1000,1000,1000,1000,,,,,
84573657,1000,1000,1000,1000,,,,,
84576156,1000,1000,1000,1000,,,,,
84578655,1000,1000,1000,1000,,,,,
84581154,1000,1000,1000,1000,,,,,
84583653,1000,1000,1000,1000,,,,,
84586152,1000,1000,1000,1000,,,,,
84588651,1000,1000,1000,1000,,,,,
84591150,1000,1000,1000,1000,,,,,
84593649,1000,1000,1000,1000,,,,,
84596148,1000,1000,1000,1000,,,,,
84598647,1000,1000,1000,1000,,,,,
84601146,1000,1000,1000,1000,,,,,
84603645,1000,1000,1000,1000,,,,,
84606144,1000,1000,1000,1000,,,,,
84608643,1000,1000,1000,1000,,,,,
84611142,1001,1001,1001,1001,,,,,
84613641,1002,1002,1002,1002,,,,,
84616140,1003,1003,1003,1003,,,,,
84618639,1003,1003,1003,1003,,,,,
84621138,1004,1004,1004,1004,,,,,
84623637,1005,1005,1005,1005,,,,,
84626136,1006,1006,1006,1006,,,,,
84628635,1006,1006,1006,1006,,,,,
84631134,1007,1007,1007,1007,,,,,
84633633,1008,1008,1008,1008,,,,,
84636132,1009,1009,1009,1009,,,,,
84638631,1009,1009,1009,1009,,,,,
84641130,1010,1010,1010,1010,,,,,
84643629,1011,1011,1011,1011,,,,,
84646128,1012,1012,1012,1012,,,,,
84648627,1012,1012,1012,1012,,,,,
84651126,1013,1013,1013,1013,,,,,
84653625,1014,1014,1014,1014,,,,,
84656124,1015,1015,1015,1015,,,,,
84658623,1015,1015,1015,1015,,,,,
84661122,1016,1016,1016,1016,,,,,
84663621,1017,1017,1017,1017,,,,,
84666120,1018,1018,1018,1018,,,,,
84668619,1018,1018,1018,1018,,,,,
84671118,1019,1019,1019,1019,,,,,
84673617,1020,1020,1020,1020,,,,,
84676116,1021,1021,1021,1021,,,,,
84678615,1021,1021,1021,1021,,,,,
84681114,1022,1022,1022,1022,,,,,
84683613,1023,1023,1023,1023,,,,,
84686112,1024,1024,1024,1024,,,,,
84688611,1024,1024,1024,1024,,,,,
84691110,1025,1025,1025,1025,,,,,
84693609,1026,1026,1026,1026,,,,,
84696108,1027,1027,1027,1027,,,,,
84698607,1027,1027,1027,1027,,,,,
84701106,1028,1028,1028,1028,,,,,
84703605,1029,1029,1029,1029,,,,,
84706104,1030,1030,1030,1030,,,,,
84708603,1030,1030,1030,1030,,,,,
84711102,1031,1031,1031,1031,,,,,
84713601,1032,1032,1032,1032,,,,,
84716100,1033,1033,1033,1033,,,,,
84718599,1033,1033,1033,1033,,,,,
84721098,1034,1034,1034,1034,,,,,
84723597,1035,1035,1035,1035,,,,,
84726096,1036,1036,1036,1036,,,,,
84728595,1036,1036,1036,1036,,,,,
84731094,1037,1037,1037,1037,,,,,
84733593,1038,1038,1038,1038,,,,,
84736092,1039,1039,1039,1039,,,,,
84738591,1039,1039,1039,1039,,,,,
84741090,1040,1040,1040,1040,,,,,
84743589,1041,1041,1041,1041,,,,,
84746088,1042,1042,1042,1042,,,,,
84748587,1042,1042,1042,1042,,,,,
84751086,1043,1043,1043,1043,,,,,
84753585,1044,1044,1044,1044,,,,,
84756084,1045,1045,1045,1045,,,,,
84758583,1045,1045,1045,1045,,,,,
84761082,1046,1046,1046,1046,,,,,
84763581,1047,1047,1047,1047,,,,,
84766080,1048,1048,1048,1048,,,,,
84768579,1048,1048,1048,1048,,,,,
84771078,1049,1049,1049,1049,,,,,
84773577,1050,1050,1050,1050,,,,,
84776076,1051,1051,1051,1051,,,,,
84778575,1051,1051,1051,1051,,,,,
84781074,1052,1052,1052,1052,,,,,
84783573,1053,1053,1053,1053,,,,,
84786072,1054,1054,1054,1054,,,,,
84788571,1054,1054,1054,1054,,,,,
84791070,1055,1055,1055,1055,,,,,
84793569,1056,1056,1056,1056,,,,,
84796068,1057,1057,1057,1057,,,,,
84798567,1057,1057,1057,1057,,,,,
84801066,1058,1058,1058,1058,,,,,
84803565,1059,1059,1059,1059,,,,,
84806064,1060,1060,1060,1060,,,,,
84808563,1060,1060,1060,1060,,,,,
84811062,1061,1061,1061,1061,,,,,
84813561,1062,1062,1062,1062,,,,,
84816060,1063,1063,1063,1063,,,,,
84818559,1063,1063,1063,1063,,,,,
84821058,1064,1064,1064,1064,,,,,
84823557,1065,1065,1065,1065,,,,,
84826056,1066,1066,1066,1066,,,,,
84828555,1066,1066,1066,1066,,,,,
84831054,1067,1067,1067,1067,,,,,
84833553,1068,1068,1068,1068,,,,,
84836052,1069,1069,1069,1069,,,,,
84838551,1069,1069,1069,1069,,,,,
84841050,1070,1070,1070,1070,,,,,
84843549,1071,1071,1071,1071,,,,,
84846048,1072,1072,1072,1072,,,,,
84848547,1072,1072,1072,1072,,,,,
84851046,1073,1073,1073,1073,,,,,
84853545,1074,1074,1074,1074,,,,,
84856044,1075,1075,1075,1075,,,,,
84858543,1075,1075,1075,1075,,,,,
84861042,1076,1076,1076,1076,,,,,
84863541,1077,1077,1077,1077,,,,,
84866040,1078,1078,1078,1078,,,,,
84868539,1078,1078,1078,1078,,,,,
84871038,1079,1079,1079,1079,,,,,
84873537,1080,1080,1080,1080,,,,,
84876036,1081,1081,1081,1081,,,,,
84878535,1081,1081,1081,1081,,,,,
84881034,1082,1082,1082,1082,,,,,
84883533,1083,1083,1083,1083,,,,,
84886032,1084,1084,1084,1084,,,,,
84888531,1084,1084,1084,1084,,,,,
84891030,1085,1085,1085,1085,,,,,
84893529,1086,1086,1086,1086,,,,,
84896028,1087,1087,1087,1087,,,,,
84898527,1087,1087,1087,1087,,,,,
84901026,1088,1088,1088,1088,,,,,
84903525,1089,1089,1089,1089,,,,,
84906024,1090,1090,1090,1090,,,,,
84908523,1090,1090,1090,1090,,,,,
84911022,1091,1091,1091,1091,,,,,
84913521,1092,1092,1092,1092,,,,,
84916020,1093,1093,1093,1093,,,,,
84918519,1093,1093,1093,1093,,,,,
84921018,1094,1094,1094,1094,,,,,
84923517,1095,1095,1095,1095,,,,,
84926016,1096,1096,1096,1096,,,,,
84928515,1096,1096,1096,1096,,,,,
84931014,1097,1097,1097,1097,,,,,
84933513,1098,1098,1098,1098,,,,,
84936012,1099,1099,1099,1099,,,,,
84938511,1099,1099,1099,1099,,,,,
84941010,1100,1100,1100,1100,,,,,
84943509,1101,1101,1101,1101,,,,,
84946008,1101,1101,1101,1101,,,,,
84948507,1102,1102,1102,1102,,,,,
84951006,1103,1103,1103,1103,,,,,
84953505,1104,1104,1104,1104,,,,,
84956004,1104,1104,1104,1104,,,,,
84958503,1105,1105,1105,1105,,,,,
84961002,1106,1106,1106,1106,,,,,
84963501,1107,1107,1107,1107,,,,,
84966000,1107,1107,1107,1107,,,,,
84968499,1108,1108,1108,1108,,,,,
84970998,1109,1109,1109,1109,,,,,
84973497,1110,1110,1110,1110,,,,,
84975996,1110,1110,1110,1110,,,,,
84978495,1111,1111,1111,1111,,,,,
84980994,1112,1112,1112,1112,,,,,
84983493,1113,1113,1113,1113,,,,,
84985992,1113,1113,1113,1113,,,,,
84988491,1114,1114,1114,1114,,,,,
84990990,1115,1115,1115,1115,,,,,
84993489,1116,1116,1116,1116,,,,,
84995988,1116,1116,1116,1116,,,,,
84998487,1117,1117,1117,1117,,,,,
85000986,1118,1118,1118,1118,,,,,
85003485,1119,1119,1119,1119,,,,,
85005984,1119,1119,1119,1119,,,,,
85008483,1120,1120,1120,1120,,,,,
85010982,1121,1121,1121,1121,,,,,
85013481,1122,1122,1122,1122,,,,,
85015980,1122,1122,1122,1122,,,,,
85018479,1123,1123,1123,1123,,,,,
85020978,1124,1124,1124,1124,,,,,
85023477,1125,1125,1125,1125,,,,,
85025976,1125,1125,1125,1125,,,,,
85028475,1126,1126,1126,1126,,,,,
85030974,1127,1127,1127,1127,,,,,
85033473,1128,1128,1128,1128,,,,,
85035972,1128,1128,1128,1128,,,,,
85038471,1129,1129,1129,1129,,,,,
85040970,1130,1130,1130,1130,,,,,
85043469,1131,1131,1131,1131,,,,,
85045968,1131,1131,1131,1131,,,,,
85048467,1132,1132,1132,1132,,,,,
85050966,1133,1133,1133,1133,,,,,
85053465,1134,1134,1134,1134,,,,,
85055964,1134,1134,1134,1134,,,,,
85058463,1135,1135,1135,1135,,,,,
85060962,1136,1136,1136,1136,,,,,
85063461,1137,1137,1137,1137,,,,,
85065960,1137,1137,1137,1137,,,,,
85068459,1138,1138,1138,1138,,,,,
85070958,1139,1139,1139,1139,,,,,
85073457,1140,1140,1140,1140,,,,,
85075956,1140,1140,1140,1140,,,,,
85078455,1141,1141,1141,1141,,,,,
85080954,1142,1142,1142,1142,,,,,
85083453,1143,1143,1143,1143,,,,,
85085952,1143,1143,1143,1143,,,,,
85088451,1144,1144,1144,1144,,,,,
85090950,1145,1145,1145,1145,,,,,
85093449,1146,1146,1146,1146,,,,,
85095948,1146,1146,1146,1146,,,,,
85098447,1147,1147,1147,1147,,,,,
85100946,1148,1148,1148,1148,,,,,
85103445,1149,1149,1149,1149,,,,,
85105944,1149,1149,1149,1149,,,,,
85108443,1150,1150,1150,1150,,,,,
85110942,1164,1150,1151,1165,,,,,
85113441,1172,1159,1159,1173,,,,,
85115940,1180,1167,1167,1181,,,,,
85118439,1188,1174,1175,1188,,,,,
85120938,1195,1182,1183,1196,,,,,
85123437,1203,1190,1191,1203,,,,,
85125936,1210,1197,1198,1210,,,,,
85128435,1217,1204,1205,1218,,,,,
85130934,1224,1212,1213,1225,,,,,
85133433,1231,1219,1220,1232,,,,,
85135932,1238,1226,1227,1238,,,,,
85138431,1245,1233,1234,1245,,,,,
85140930,1251,1240,1240,1252,,,,,
85143429,1258,1246,1247,1258,,,,,
85145928,1264,1253,1254,1265,,,,,
85148427,1271,1259,1260,1271,,,,,
85150926,1277,1266,1267,1278,,,,,
85153425,1283,1272,1273,1284,,,,,
85155924,1290,1279,1279,1290,,,,,
85158423,1296,1285,1286,1296,,,,,
85160922,1302,1291,1292,1302,,,,,
85163421,1308,1297,1298,1308,,,,,
85165920,1314,1303,1304,1314,,,,,
85168419,1320,1309,1310,1320,,,,,
85170918,1325,1315,1316,1326,,,,,
85173417,1331,1321,1322,1332,,,,,
85175916,1337,1326,1327,1337,,,,,
85178415,1342,1332,1333,1343,,,,,
85180914,1348,1338,1339,1348,,,,,
85183413,1354,1343,1344,1354,,,,,
85185912,1359,1349,1350,1359,,,,,
85188411,1364,1354,1355,1365,,,,,
85190910,1370,1360,1361,1370,,,,,
85193409,1375,1365,1366,1375,,,,,
85195908,1380,1371,1372,1381,,,,,
85198407,1386,1376,1377,1386,,,,,
85200906,1391,1381,1382,1391,,,,,
85203405,1396,1387,1387,1396,,,,,
85205904,1401,1392,1392,1402,,,,,
85208403,1406,1397,1398,1407,,,,,
85210902,1411,1402,1403,1412,,,,,
85213401,1416,1407,1408,1417,,,,,
85215900,1421,1412,1413,1422,,,,,
85218399,1426,1417,1418,1427,,,,,
85220898,1431,1422,1423,1431,,,,,
85223397,1436,1427,1428,1436,,,,,
85225896,1441,1432,1432,1441,,,,,
85228395,1446,1437,1437,1446,,,,,
85230894,1450,1441,1442,1451,,,,,
85233393,1455,1446,1447,1455,,,,,
85235892,1460,1451,1452,1460,,,,,
85238391,1464,1456,1456,1465,,,,,
85240890,1469,1460,1461,1470,,,,,
85243389,1474,1465,1465,1474,,,,,
85245888,1478,1470,1470,1479,,,,,
85248387,1483,1474,1475,1483,,,,,
85250886,1487,1479,1479,1488,,,,,
85253385,1492,1483,1484,1492,,,,,
85255884,1496,1488,1488,1497,,,,,
85258383,1501,1492,1493,1501,,,,,
85260882,1505,1497,1497,1506,,,,,
85263381,1510,1501,1502,1510,,,,,
85265880,1514,1505,1506,1514,,,,,
85268379,1518,1510,1510,1519,,,,,
85270878,1523,1514,1515,1523,,,,,
85273377,1527,1518,1519,1527,,,,,
85275876,1531,1523,1523,1532,,,,,
85278375,1535,1527,1527,1536,,,,,
85280874,1540,1531,1532,1540,,,,,
85283373,1544,1535,1536,1544,,,,,
85285872,1548,1540,1540,1548,,,,,
85288371,1552,1544,1544,1553,,,,,
85290870,1556,1548,1548,1557,,,,,
85293369,1560,1552,1553,1561,,,,,
85295868,1565,1556,1557,1565,,,,,
85298367,1569,1560,1561,1569,,,,,
85300866,1573,1564,1565,1573,,,,,
85303365,1577,1568,1569,1577,,,,,
85305864,1581,1572,1573,1581,,,,,
85308363,1585,1576,1577,1585,,,,,
85310862,1589,1580,1581,1589,,,,,
85313361,1593,1584,1585,1593,,,,,
85315860,1597,1588,1589,1597,,,,,
85318359,1601,1592,1593,1601,,,,,
85320858,1604,1596,1597,1605,,,,,
85323357,1608,1600,1601,1609,,,,,
85325856,1612,1604,1605,1613,,,,,
85328355,1616,1608,1608,1616,,,,,
85330854,1620,1612,1612,1620,,,,,
85333353,1624,1616,1616,1624,,,,,
85335852,1628,1619,1620,1628,,,,,
85338351,1631,1623,1624,1632,,,,,
85340850,1635,1627,1627,1635,,,,,
85343349,1639,1631,1631,1639,,,,,
85345848,1643,1634,1635,1643,,,,,
85348347,1646,1638,1639,1647,,,,,
85350846,1650,1642,1642,1650,,,,,
85353345,1654,1646,1646,1654,,,,,
85355844,1657,1649,1650,1658,,,,,
85358343,1661,1653,1653,1661,,,,,
85360842,1665,1657,1657,1665,,,,,
85363341,1668,1660,1661,1669,,,,,
85365840,1672,1664,1664,1672,,,,,
85368339,1675,1668,1668,1676,,,,,
85370838,1679,1671,1672,1679,,,,,
85373337,1682,1675,1675,1683,,,,,
85375836,1686,1678,1679,1687,,,,,
85378335,1690,1682,1682,1690,,,,,
85380834,1693,1686,1686,1694,,,,,
85383333,1697,1689,1689,1697,,,,,
85385832,1700,1693,1693,1701,,,,,
85388331,1704,1696,1696,1704,,,,,
85390830,1707,1700,1700,1708,,,,,
85393329,1710,1703,1703,1711,,,,,
85395828,1714,1707,1707,1715,,,,,
85398327,1717,1710,1710,1718,,,,,
85400826,1721,1713,1714,1722,,,,,
85403325,1724,1717,1717,1725,,,,,
85405824,1728,1720,1720,1728,,,,,
85408323,1731,1724,1724,1732,,,,,
85410822,1734,1727,1727,1735,,,,,
85413321,1738,1730,1731,1738,,,,,
85415820,1741,1734,1734,1742,,,,,
85418319,1745,1737,1737,1745,,,,,
85420818,1748,1741,1741,1748,,,,,
85423317,1751,1744,1744,1752,,,,,
85425816,1754,1747,1747,1755,,,,,
85428315,1758,1751,1751,1758,,,,,
85430814,1761,1754,1754,1762,,,,,
85433313,1764,1757,1757,1765,,,,,
85435812,1768,1760,1761,1768,,,,,
85438311,1771,1764,1764,1771,,,,,
85440810,1774,1767,1767,1775,,,,,
85443309,1777,1770,1771,1778,,,,,
85445808,1781,1773,1774,1781,,,,,
85448307,1784,1777,1777,1784,,,,,
85450806,1787,1780,1780,1787,,,,,
85453305,1790,1783,1784,1791,,,,,
85455804,1793,1786,1787,1794,,,,,
85458303,1797,1789,1790,1797,,,,,
85460802,1800,1793,1793,1800,,,,,
85463301,1803,1796,1796,1803,,,,,
85465800,1806,1799,1799,1806,,,,,
85468299,1809,1802,1803,1810,,,,,
85470798,1813,1805,1806,1813,,,,,
85473297,1816,1808,1809,1816,,,,,
85475796,1819,1811,1812,1819,,,,,
85478295,1822,1814,1815,1822,,,,,
85480794,1825,1818,1818,1825,,,,,
85483293,1828,1821,1821,1828,,,,,
85485792,1831,1824,1824,1831,,,,,
85488291,1834,1827,1827,1834,,,,,
85490790,1837,1830,1831,1837,,,,,
85493289,1840,1833,1834,1841,,,,,
85495788,1843,1836,1837,1844,,,,,
85498287,1847,1839,1840,1847,,,,,
85500786,1850,1842,1843,1850,,,,,
85503285,1853,1845,1846,1853,,,,,
85505784,1856,1848,1849,1856,,,,,
85508283,1859,1851,1852,1859,,,,,
85510782,1862,1854,1855,1862,,,,,
85513281,1865,1857,1858,1865,,,,,
85515780,1868,1860,1861,1868,,,,,
85518279,1871,1863,1864,1871,,,,,
85520778,1874,1866,1867,1874,,,,,
85523277,1876,1869,1869,1877,,,,,
85525776,1879,1872,1872,1880,,,,,
85528275,1882,1875,1875,1883,,,,,
85530774,1885,1878,1878,1886,,,,,
85533273,1888,1881,1881,1888,,,,,
85535772,1891,1884,1884,1891,,,,,
85538271,1894,1887,1887,1894,,,,,
85540770,1897,1890,1890,1897,,,,,
85543269,1900,1892,1893,1900,,,,,
85545768,1903,1895,1896,1903,,,,,
85548267,1906,1898,1899,1906,,,,,
85550766,1908,1901,1901,1908,,,,,
85553265,1907,1900,1900,1908,,,,,
85555764,1906,1899,1899,1907,,,,,
85558263,1905,1898,1899,1906,,,,,
85560762,1905,1897,1898,1905,,,,,
85563261,1904,1896,1897,1904,,,,,
85565760,1903,1896,1896,1903,,,,,
85568259,1902,1895,1895,1903,,,,,
85570758,1902,1894,1895,1902,,,,,
85573257,1901,1894,1894,1901,,,,,
85575756,1900,1893,1893,1901,,,,,
85578255,1900,1893,1893,1900,,,,,
85580754,1900,1892,1893,1900,,,,,
85583253,1899,1892,1892,1900,,,,,
85585752,1899,1892,1892,1900,,,,,
85588251,1899,1892,1892,1899,,,,,
85590750,1899,1891,1892,1899,,,,,
85593249,1899,1891,1892,1899,,,,,
85595748,1899,1891,1892,1899,,,,,
85598247,1899,1892,1892,1899,,,,,
85600746,1899,1892,1892,1899,,,,,
85603245,1899,1892,1893,1899,,,,,
85605744,1899,1892,1893,1899,,,,,
85608243,1899,1893,1893,1899,,,,,
85610742,1899,1893,1893,1899,,,,,
85613241,1899,1893,1893,1899,,,,,
85615740,1899,1893,1893,1899,,,,,
85618239,1898,1893,1893,1899,,,,,
85620738,1898,1892,1893,1898,,,,,
85623237,1897,1892,1892,1897,,,,,
85625736,1896,1891,1892,1897,,,,,
85628235,1895,1890,1891,1896,,,,,
85630734,1894,1890,1890,1895,,,,,
85633233,1893,1888,1889,1894,,,,,
85635732,1892,1887,1888,1892,,,,,
85638231,1890,1886,1886,1891,,,,,
85640730,1889,1884,1885,1889,,,,,
85643229,1887,1883,1883,1887,,,,,
85645728,1885,1881,1881,1885,,,,,
85648227,1883,1879,1879,1884,,,,,
85650726,1881,1877,1877,1881,,,,,
85653225,1879,1875,1875,1879,,,,,
85655724,1876,1872,1873,1877,,,,,
85658223,1874,1870,1870,1874,,,,,
85660722,1871,1868,1868,1872,,,,,
85663221,1869,1865,1865,1869,,,,,
85665720,1866,1862,1863,1867,,,,,
85668219,1863,1860,1860,1864,,,,,
85670718,1860,1857,1857,1861,,,,,
85673217,1857,1854,1854,1858,,,,,
85675716,1854,1851,1851,1855,,,,,
85678215,1851,1848,1848,1852,,,,,
85680714,1848,1845,1845,1848,,,,,
85683213,1845,1841,1842,1845,,,,,
85685712,1841,1838,1839,1842,,,,,
85688211,1838,1835,1835,1839,,,,,
85690710,1835,1832,1832,1835,,,,,
85693209,1831,1828,1829,1832,,,,,
85695708,1828,1825,1825,1828,,,,,
85698207,1825,1822,1822,1825,,,,,
85700706,1821,1818,1819,1822,,,,,
85703205,1818,1815,1815,1818,,,,,
85705704,1814,1811,1812,1815,,,,,
85708203,1811,1808,1809,1811,,,,,
85710702,1807,1805,1805,1808,,,,,
85713201,1804,1801,1802,1804,,,,,
85715700,1800,1798,1799,1801,,,,,
85718199,1797,1795,1795,1797,,,,,
85720698,1794,1791,1792,1794,,,,,
85723197,1790,1788,1789,1791,,,,,
85725696,1787,1785,1785,1787,,,,,
85728195,1783,1781,1782,1784,,,,,
85730694,1780,1778,1779,1780,,,,,
85733193,1777,1775,1775,1777,,,,,
85735692,1773,1772,1772,1774,,,,,
85738191,1770,1768,1769,1770,,,,,
85740690,1767,1765,1766,1767,,,,,
85743189,1763,1762,1762,1764,,,,,
85745688,1760,1759,1759,1760,,,,,
85748187,1757,1756,1756,1757,,,,,
85750686,1754,1752,1753,1754,,,,,
85753185,1750,1749,1750,1751,,,,,
85755684,1747,1746,1747,1747,,,,,
85758183,1744,1743,1744,1744,,,,,
85760682,1741,1740,1741,1741,,,,,
85763181,1738,1737,1738,1738,,,,,
85765680,1735,1734,1735,1735,,,,,
85768179,1732,1731,1732,1732,,,,,
85770678,1729,1728,1729,1729,,,,,
85773177,1726,1725,1726,1726,,,,,
85775676,1723,1723,1723,1723,,,,,
