timestamp,TimeUS,C1,C2,C3,C4,C5,C6,C7,C8,C9,C10,C11,C12,C13,C14
1684081882.30004001,117328883,1000,1000,1000,1000,0,0,0,0,0,0,0,0,0,0
1684081882.40000010,117428843,1000,1000,1000,1000,0,0,0,0,0,0,0,0,0,0
1684081882.49996018,117528803,1000,1000,1000,1000,0,0,0,0,0,0,0,0,0,0
1684081882.59992003,117628763,1000,1000,1000,1000,0,0,0,0,0,0,0,0,0,0
1684081882.69988012,117728723,1000,1000,1000,1000,0,0,0,0,0,0,0,0,0,0
1684081882.79983997,117828683,1000,1000,1000,1000,0,0,0,0,0,0,0,0,0,0
1684081882.89980006,117928643,1000,1000,1000,1000,0,0,0,0,0,0,0,0,0,0
1684081882.99976015,118028603,1000,1000,1000,1000,0,0,0,0,0,0,0,0,0,0
1684081883.09972000,118128563,1000,1000,1000,1000,0,0,0,0,0,0,0,0,0,0
1684081883.19968009,118228523,1000,1000,1000,1000,0,0,0,0,0,0,0,0,0,0
1684081883.29964018,118328483,1000,1000,1000,1000,0,0,0,0,0,0,0,0,0,0
1684081883.39960003,118428443,1000,1000,1000,1000,0,0,0,0,0,0,0,0,0,0
1684081883.49956012,118528403,1000,1000,1000,1000,0,0,0,0,0,0,0,0,0,0
1684081883.59951997,118628363,1000,1000,1000,1000,0,0,0,0,0,0,0,0,0,0
1684081883.69948006,118728323,1000,1000,1000,1000,0,0,0,0,0,0,0,0,0,0
1684081883.79944015,118828283,1000,1000,1000,1000,0,0,0,0,0,0,0,0,0,0
1684081883.89940000,118928243,1000,1000,1000,1000,0,0,0,0,0,0,0,0,0,0
1684081883.99936008,119028203,1000,1000,1000,1000,0,0,0,0,0,0,0,0,0,0
1684081884.09932017,119128163,1000,1000,1000,1000,0,0,0,0,0,0,0,0,0,0
1684081884.20011306,119228956,1000,1000,1000,1000,0,0,0,0,0,0,0,0,0,0
1684081884.30007315,119328916,1021,1021,1021,1021,0,0,0,0,0,0,0,0,0,0
1684081884.40003300,119428876,1051,1051,1051,1051,0,0,0,0,0,0,0,0,0,0
1684081884.49999309,119528836,1081,1081,1081,1081,0,0,0,0,0,0,0,0,0,0
1684081884.59995317,119628796,1111,1111,1111,1111,0,0,0,0,0,0,0,0,0,0
1684081884.69991302,119728756,1141,1141,1141,1141,0,0,0,0,0,0,0,0,0,0
1684081884.79987311,119828716,1344,1330,1331,1345,0,0,0,0,0,0,0,0,0,0
1684081884.89983296,119928676,1537,1525,1526,1538,0,0,0,0,0,0,0,0,0,0
1684081884.99979305,120028636,1691,1681,1681,1691,0,0,0,0,0,0,0,0,0,0
1684081885.09975314,120128596,1823,1813,1813,1824,0,0,0,0,0,0,0,0,0,0
1684081885.19971299,120228556,1843,1831,1832,1843,0,0,0,0,0,0,0,0,0,0
1684081885.29967308,120328516,1835,1829,1830,1836,0,0,0,0,0,0,0,0,0,0
1684081885.39963317,120428476,1707,1707,1708,1707,0,0,0,0,0,0,0,0,0,0
1684081885.49959302,120528436,1622,1625,1625,1622,0,0,0,0,0,0,0,0,0,0
1684081885.59955311,120628396,1607,1611,1611,1607,0,0,0,0,0,0,0,0,0,0
1684081885.69951296,120728356,1623,1627,1627,1623,0,0,0,0,0,0,0,0,0,0
1684081885.79947305,120828316,1637,1639,1639,1636,0,0,0,0,0,0,0,0,0,0
1684081885.89943314,120928276,1638,1638,1638,1637,0,0,0,0,0,0,0,0,0,0
1684081885.99939299,121028236,1633,1632,1632,1633,0,0,0,0,0,0,0,0,0,0
1684081886.09935308,121128196,1627,1625,1624,1627,0,0,0,0,0,0,0,0,0,0
1684081886.19931316,121228156,1623,1622,1621,1623,0,0,0,0,0,0,0,0,0,0
1684081886.30010605,121328949,1622,1620,1620,1622,0,0,0,0,0,0,0,0,0,0
1684081886.40006614,121428909,1598,1600,1600,1598,0,0,0,0,0,0,0,0,0,0
1684081886.50002599,121528869,1579,1579,1578,1579,0,0,0,0,0,0,0,0,0,0
1684081886.59998608,121628829,1572,1570,1568,1573,0,0,0,0,0,0,0,0,0,0
1684081886.69994617,121728789,1568,1565,1558,1574,0,0,0,0,0,0,0,0,0,0
1684081886.79990602,121828749,1564,1563,1557,1568,0,0,0,0,0,0,0,0,0,0
1684081886.89986610,121928709,1562,1562,1559,1564,0,0,0,0,0,0,0,0,0,0
1684081886.99982619,122028669,1563,1564,1564,1562,0,0,0,0,0,0,0,0,0,0
1684081887.09978604,122128629,1564,1564,1567,1561,0,0,0,0,0,0,0,0,0,0
1684081887.19974613,122228589,1566,1567,1571,1563,0,0,0,0,0,0,0,0,0,0
1684081887.29970598,122328549,1557,1558,1566,1549,0,0,0,0,0,0,0,0,0,0
1684081887.39966607,122428509,1546,1547,1558,1536,0,0,0,0,0,0,0,0,0,0
1684081887.49962616,122528469,1541,1541,1545,1539,0,0,0,0,0,0,0,0,0,0
1684081887.59958601,122628429,1537,1537,1534,1542,0,0,0,0,0,0,0,0,0,0
1684081887.69954610,122728389,1536,1535,1528,1544,0,0,0,0,0,0,0,0,0,0
1684081887.79950619,122828349,1537,1535,1529,1543,0,0,0,0,0,0,0,0,0,0
1684081887.89946604,122928309,1538,1537,1533,1542,0,0,0,0,0,0,0,0,0,0
1684081887.99942613,123028269,1540,1541,1539,1541,0,0,0,0,0,0,0,0,0,0
1684081888.09938598,123128229,1544,1544,1545,1542,0,0,0,0,0,0,0,0,0,0
1684081888.19934607,123228189,1547,1548,1551,1543,0,0,0,0,0,0,0,0,0,0
1684081888.30013919,123328982,1551,1551,1554,1547,0,0,0,0,0,0,0,0,0,0
1684081888.40009904,123428942,1554,1554,1556,1551,0,0,0,0,0,0,0,0,0,0
1684081888.50005913,123528902,1555,1555,1555,1555,0,0,0,0,0,0,0,0,0,0
1684081888.60001898,123628862,1557,1556,1556,1558,0,0,0,0,0,0,0,0,0,0
1684081888.69997907,123728822,1555,1554,1558,1563,0,0,0,0,0,0,0,0,0,0
1684081888.79993916,123828782,1556,1556,1561,1564,0,0,0,0,0,0,0,0,0,0
1684081888.89989901,123928742,1559,1559,1564,1566,0,0,0,0,0,0,0,0,0,0
1684081888.99985909,124028702,1561,1561,1565,1566,0,0,0,0,0,0,0,0,0,0
1684081889.09981918,124128662,1562,1563,1565,1565,0,0,0,0,0,0,0,0,0,0
1684081889.19977903,124228622,1566,1567,1567,1566,0,0,0,0,0,0,0,0,0,0
1684081889.29973912,124328582,1568,1567,1566,1566,0,0,0,0,0,0,0,0,0,0
1684081889.39969897,124428542,1569,1570,1567,1566,0,0,0,0,0,0,0,0,0,0
1684081889.49965906,124528502,1571,1570,1567,1567,0,0,0,0,0,0,0,0,0,0
1684081889.59961915,124628462,1572,1572,1568,1568,0,0,0,0,0,0,0,0,0,0
1684081889.69957900,124728422,1573,1573,1568,1568,0,0,0,0,0,0,0,0,0,0
1684081889.79953909,124828382,1573,1573,1569,1569,0,0,0,0,0,0,0,0,0,0
1684081889.89949918,124928342,1574,1573,1570,1570,0,0,0,0,0,0,0,0,0,0
1684081889.99945903,125028302,1574,1574,1572,1571,0,0,0,0,0,0,0,0,0,0
1684081890.09941912,125128262,1575,1575,1574,1573,0,0,0,0,0,0,0,0,0,0
1684081890.19937897,125228222,1574,1574,1574,1573,0,0,0,0,0,0,0,0,0,0
1684081890.29933906,125328182,1575,1574,1575,1574,0,0,0,0,0,0,0,0,0,0
1684081890.40013218,125428975,1575,1575,1577,1575,0,0,0,0,0,0,0,0,0,0
1684081890.50009203,125528935,1575,1574,1576,1576,0,0,0,0,0,0,0,0,0,0
1684081890.60005212,125628895,1575,1575,1577,1577,0,0,0,0,0,0,0,0,0,0
1684081890.70001197,125728855,1575,1576,1577,1577,0,0,0,0,0,0,0,0,0,0
1684081890.79997206,125828815,1575,1575,1576,1576,0,0,0,0,0,0,0,0,0,0
1684081890.89993215,125928775,1575,1575,1576,1576,0,0,0,0,0,0,0,0,0,0
1684081890.99989200,126028735,1576,1576,1576,1577,0,0,0,0,0,0,0,0,0,0
1684081891.09985209,126128695,1577,1577,1577,1577,0,0,0,0,0,0,0,0,0,0
1684081891.19981217,126228655,1577,1577,1577,1577,0,0,0,0,0,0,0,0,0,0
1684081891.29977202,126328615,1578,1578,1578,1578,0,0,0,0,0,0,0,0,0,0
1684081891.39973211,126428575,1578,1579,1579,1578,0,0,0,0,0,0,0,0,0,0
1684081891.49969196,126528535,1578,1577,1577,1577,0,0,0,0,0,0,0,0,0,0
1684081891.59965205,126628495,1578,1578,1578,1578,0,0,0,0,0,0,0,0,0,0
1684081891.69961214,126728455,1579,1579,1579,1579,0,0,0,0,0,0,0,0,0,0
1684081891.79957199,126828415,1579,1579,1579,1579,0,0,0,0,0,0,0,0,0,0
1684081891.89953208,126928375,1579,1578,1578,1579,0,0,0,0,0,0,0,0,0,0
1684081891.99949217,127028335,1579,1579,1579,1579,0,0,0,0,0,0,0,0,0,0
1684081892.09945202,127128295,1578,1578,1578,1579,0,0,0,0,0,0,0,0,0,0
1684081892.19941211,127228255,1579,1579,1579,1579,0,0,0,0,0,0,0,0,0,0
1684081892.29937196,127328215,1579,1579,1579,1579,0,0,0,0,0,0,0,0,0,0
1684081892.39933205,127428175,1578,1579,1579,1579,0,0,0,0,0,0,0,0,0,0
1684081892.50012517,127528968,1579,1579,1580,1580,0,0,0,0,0,0,0,0,0,0
1684081892.60008502,127628928,1579,1579,1580,1579,0,0,0,0,0,0,0,0,0,0
1684081892.70004511,127728888,1580,1579,1580,1580,0,0,0,0,0,0,0,0,0,0
1684081892.80000496,127828848,1581,1581,1581,1581,0,0,0,0,0,0,0,0,0,0
1684081892.89996505,127928808,1579,1579,1579,1579,0,0,0,0,0,0,0,0,0,0
1684081892.99992514,128028768,1579,1580,1579,1580,0,0,0,0,0,0,0,0,0,0
1684081893.09988499,128128728,1580,1580,1580,1580,0,0,0,0,0,0,0,0,0,0
1684081893.19984508,128228688,1580,1581,1581,1580,0,0,0,0,0,0,0,0,0,0
1684081893.29980516,128328648,1580,1580,1580,1580,0,0,0,0,0,0,0,0,0,0
1684081893.39976501,128428608,1580,1580,1579,1580,0,0,0,0,0,0,0,0,0,0
1684081893.49972510,128528568,1580,1580,1580,1580,0,0,0,0,0,0,0,0,0,0
1684081893.59968519,128628528,1580,1580,1580,1580,0,0,0,0,0,0,0,0,0,0
1684081893.69964504,128728488,1580,1580,1580,1580,0,0,0,0,0,0,0,0,0,0
1684081893.79960513,128828448,1579,1579,1580,1579,0,0,0,0,0,0,0,0,0,0
1684081893.89956498,128928408,1580,1580,1580,1580,0,0,0,0,0,0,0,0,0,0
1684081893.99952507,129028368,1581,1581,1581,1581,0,0,0,0,0,0,0,0,0,0
1684081894.09948516,129128328,1580,1580,1581,1580,0,0,0,0,0,0,0,0,0,0
1684081894.19944501,129228288,1581,1580,1581,1581,0,0,0,0,0,0,0,0,0,0
1684081894.29940510,129328248,1580,1580,1580,1581,0,0,0,0,0,0,0,0,0,0
1684081894.39936519,129428208,1580,1580,1580,1580,0,0,0,0,0,0,0,0,0,0
1684081894.49932504,129528168,1581,1580,1580,1581,0,0,0,0,0,0,0,0,0,0
1684081894.60011816,129628961,1580,1580,1580,1580,0,0,0,0,0,0,0,0,0,0
1684081894.70007801,129728921,1580,1580,1580,1580,0,0,0,0,0,0,0,0,0,0
1684081894.80003810,129828881,1580,1580,1580,1580,0,0,0,0,0,0,0,0,0,0
1684081894.89999819,129928841,1580,1580,1582,1578,0,0,0,0,0,0,0,0,0,0
1684081894.99995804,130028801,1580,1582,1587,1572,0,0,0,0,0,0,0,0,0,0
1684081895.09991813,130128761,1578,1581,1581,1572,0,0,0,0,0,0,0,0,0,0
1684081895.19987798,130228721,1577,1580,1572,1571,0,0,0,0,0,0,0,0,0,0
1684081895.29983807,130328681,1576,1579,1564,1569,0,0,0,0,0,0,0,0,0,0
1684081895.39979815,130428641,1577,1579,1559,1566,0,0,0,0,0,0,0,0,0,0
1684081895.49975801,130528601,1579,1579,1557,1562,0,0,0,0,0,0,0,0,0,0
1684081895.59971809,130628561,1580,1579,1555,1558,0,0,0,0,0,0,0,0,0,0
1684081895.69967818,130728521,1580,1579,1555,1555,0,0,0,0,0,0,0,0,0,0
1684081895.79963803,130828481,1580,1579,1556,1553,0,0,0,0,0,0,0,0,0,0
1684081895.89959812,130928441,1579,1578,1555,1553,0,0,0,0,0,0,0,0,0,0
1684081895.99955797,131028401,1578,1579,1556,1554,0,0,0,0,0,0,0,0,0,0
1684081896.09951806,131128361,1577,1578,1554,1554,0,0,0,0,0,0,0,0,0,0
1684081896.19947815,131228321,1576,1578,1553,1554,0,0,0,0,0,0,0,0,0,0
1684081896.29943800,131328281,1576,1577,1552,1553,0,0,0,0,0,0,0,0,0,0
1684081896.39939809,131428241,1576,1578,1550,1550,0,0,0,0,0,0,0,0,0,0
1684081896.49935818,131528201,1579,1580,1550,1549,0,0,0,0,0,0,0,0,0,0
1684081896.59931803,131628161,1580,1582,1547,1547,0,0,0,0,0,0,0,0,0,0
1684081896.70011115,131728954,1583,1584,1545,1544,0,0,0,0,0,0,0,0,0,0
1684081896.80007100,131828914,1586,1586,1542,1541,0,0,0,0,0,0,0,0,0,0
1684081896.90003109,131928874,1588,1588,1538,1538,0,0,0,0,0,0,0,0,0,0
1684081896.99999118,132028834,1592,1592,1537,1537,0,0,0,0,0,0,0,0,0,0
1684081897.09995103,132128794,1594,1593,1535,1536,0,0,0,0,0,0,0,0,0,0
1684081897.19991112,132228754,1595,1595,1535,1536,0,0,0,0,0,0,0,0,0,0
1684081897.29987097,132328714,1594,1594,1535,1537,0,0,0,0,0,0,0,0,0,0
1684081897.39983106,132428674,1594,1593,1538,1541,0,0,0,0,0,0,0,0,0,0
1684081897.49979115,132528634,1591,1590,1543,1546,0,0,0,0,0,0,0,0,0,0
1684081897.59975100,132628594,1586,1584,1550,1553,0,0,0,0,0,0,0,0,0,0
1684081897.69971108,132728554,1579,1575,1561,1564,0,0,0,0,0,0,0,0,0,0
1684081897.79967117,132828514,1568,1564,1572,1574,0,0,0,0,0,0,0,0,0,0
1684081897.89963102,132928474,1557,1553,1585,1586,0,0,0,0,0,0,0,0,0,0
1684081897.99959111,133028434,1546,1543,1597,1597,0,0,0,0,0,0,0,0,0,0
1684081898.09955096,133128394,1537,1535,1606,1606,0,0,0,0,0,0,0,0,0,0
1684081898.19951105,133228354,1531,1532,1613,1612,0,0,0,0,0,0,0,0,0,0
1684081898.29947114,133328314,1528,1530,1616,1614,0,0,0,0,0,0,0,0,0,0
1684081898.39943099,133428274,1215,1218,1616,1616,0,0,0,0,0,0,0,0,0,0
1684081898.49939108,133528234,1329,1335,1675,1681,0,0,0,0,0,0,0,0,0,0
1684081898.59935117,133628194,1404,1413,1670,1670,0,0,0,0,0,0,0,0,0,0
1684081898.69931102,133728154,1471,1481,1647,1641,0,0,0,0,0,0,0,0,0,0
1684081898.80010414,133828947,1531,1536,1622,1612,0,0,0,0,0,0,0,0,0,0
1684081898.90006399,133928907,1575,1573,1608,1599,0,0,0,0,0,0,0,0,0,0
1684081899.00002408,134028867,1608,1594,1597,1592,0,0,0,0,0,0,0,0,0,0
1684081899.09998417,134128827,1633,1616,1570,1574,0,0,0,0,0,0,0,0,0,0
1684081899.19994402,134228787,1633,1619,1513,1525,0,0,0,0,0,0,0,0,0,0
1684081899.29990411,134328747,1633,1629,1514,1527,0,0,0,0,0,0,0,0,0,0
1684081899.39986396,134428707,1627,1633,1532,1538,0,0,0,0,0,0,0,0,0,0
1684081899.49982405,134528667,1624,1633,1551,1551,0,0,0,0,0,0,0,0,0,0
1684081899.59978414,134628627,1625,1633,1571,1567,0,0,0,0,0,0,0,0,0,0
1684081899.69974399,134728587,1618,1623,1572,1568,0,0,0,0,0,0,0,0,0,0
1684081899.79970407,134828547,1617,1619,1579,1576,0,0,0,0,0,0,0,0,0,0
1684081899.89966416,134928507,1618,1616,1583,1583,0,0,0,0,0,0,0,0,0,0
1684081899.99962401,135028467,1617,1614,1586,1586,0,0,0,0,0,0,0,0,0,0
1684081900.09958410,135128427,1615,1611,1585,1587,0,0,0,0,0,0,0,0,0,0
1684081900.19954419,135228387,1611,1609,1584,1586,0,0,0,0,0,0,0,0,0,0
1684081900.29950404,135328347,1606,1606,1582,1582,0,0,0,0,0,0,0,0,0,0
1684081900.39946413,135428307,1602,1603,1580,1580,0,0,0,0,0,0,0,0,0,0
1684081900.49942398,135528267,1599,1600,1579,1578,0,0,0,0,0,0,0,0,0,0
1684081900.59938407,135628227,1596,1597,1577,1575,0,0,0,0,0,0,0,0,0,0
1684081900.69934416,135728187,1594,1594,1575,1573,0,0,0,0,0,0,0,0,0,0
1684081900.80013704,135828980,1592,1591,1573,1571,0,0,0,0,0,0,0,0,0,0
1684081900.90009713,135928940,1591,1590,1571,1571,0,0,0,0,0,0,0,0,0,0
1684081901.00005698,136028900,1589,1588,1570,1570,0,0,0,0,0,0,0,0,0,0
1684081901.10001707,136128860,1588,1588,1569,1569,0,0,0,0,0,0,0,0,0,0
1684081901.19997716,136228820,1587,1587,1569,1568,0,0,0,0,0,0,0,0,0,0
1684081901.29993701,136328780,1586,1586,1569,1568,0,0,0,0,0,0,0,0,0,0
1684081901.39989710,136428740,1586,1586,1568,1568,0,0,0,0,0,0,0,0,0,0
1684081901.49985719,136528700,1586,1586,1568,1569,0,0,0,0,0,0,0,0,0,0
1684081901.59981704,136628660,1585,1586,1568,1568,0,0,0,0,0,0,0,0,0,0
1684081901.69977713,136728620,1586,1586,1569,1568,0,0,0,0,0,0,0,0,0,0
1684081901.79973698,136828580,1587,1587,1570,1570,0,0,0,0,0,0,0,0,0,0
1684081901.89969707,136928540,1587,1587,1570,1569,0,0,0,0,0,0,0,0,0,0
1684081901.99965715,137028500,1587,1587,1569,1569,0,0,0,0,0,0,0,0,0,0
1684081902.09961700,137128460,1587,1587,1569,1569,0,0,0,0,0,0,0,0,0,0
1684081902.19957709,137228420,1587,1585,1570,1570,0,0,0,0,0,0,0,0,0,0
1684081902.29953718,137328380,1580,1577,1581,1581,0,0,0,0,0,0,0,0,0,0
1684081902.39949703,137428340,1568,1565,1594,1595,0,0,0,0,0,0,0,0,0,0
1684081902.49945712,137528300,1555,1554,1604,1605,0,0,0,0,0,0,0,0,0,0
1684081902.59941697,137628260,1548,1549,1607,1609,0,0,0,0,0,0,0,0,0,0
1684081902.69937706,137728220,1546,1550,1606,1608,0,0,0,0,0,0,0,0,0,0
1684081902.79933715,137828180,1548,1553,1604,1604,0,0,0,0,0,0,0,0,0,0
1684081902.90013003,137928973,1553,1556,1605,1593,0,0,0,0,0,0,0,0,0,0
1684081903.00009012,138028933,1560,1559,1601,1586,0,0,0,0,0,0,0,0,0,0
1684081903.10004997,138128893,1566,1562,1589,1583,0,0,0,0,0,0,0,0,0,0
1684081903.20001006,138228853,1571,1567,1573,1575,0,0,0,0,0,0,0,0,0,0
1684081903.29997015,138328813,1579,1576,1557,1563,0,0,0,0,0,0,0,0,0,0
1684081903.39993000,138428773,1585,1585,1545,1550,0,0,0,0,0,0,0,0,0,0
1684081903.49989009,138528733,1590,1591,1537,1539,0,0,0,0,0,0,0,0,0,0
1684081903.59985018,138628693,1595,1597,1536,1535,0,0,0,0,0,0,0,0,0,0
1684081903.69981003,138728653,1595,1597,1536,1532,0,0,0,0,0,0,0,0,0,0
1684081903.79977012,138828613,1594,1595,1539,1536,0,0,0,0,0,0,0,0,0,0
1684081903.89972997,138928573,1590,1591,1543,1541,0,0,0,0,0,0,0,0,0,0
1684081903.99969006,139028533,1584,1585,1547,1547,0,0,0,0,0,0,0,0,0,0
1684081904.09965014,139128493,1579,1579,1552,1552,0,0,0,0,0,0,0,0,0,0
1684081904.19960999,139228453,1573,1574,1556,1557,0,0,0,0,0,0,0,0,0,0
1684081904.29957008,139328413,1568,1569,1559,1560,0,0,0,0,0,0,0,0,0,0
1684081904.39953017,139428373,1566,1567,1561,1561,0,0,0,0,0,0,0,0,0,0
1684081904.49949002,139528333,1564,1566,1559,1559,0,0,0,0,0,0,0,0,0,0
1684081904.59945011,139628293,1567,1568,1557,1555,0,0,0,0,0,0,0,0,0,0
1684081904.69940996,139728253,1570,1571,1551,1550,0,0,0,0,0,0,0,0,0,0
1684081904.79937005,139828213,1575,1576,1545,1544,0,0,0,0,0,0,0,0,0,0
1684081904.89933014,139928173,1581,1581,1540,1539,0,0,0,0,0,0,0,0,0,0
1684081905.00012302,140028966,1585,1585,1535,1535,0,0,0,0,0,0,0,0,0,0
1684081905.10008311,140128926,1589,1588,1533,1534,0,0,0,0,0,0,0,0,0,0
1684081905.20004296,140228886,1591,1590,1534,1536,0,0,0,0,0,0,0,0,0,0
1684081905.30000305,140328846,1589,1588,1536,1539,0,0,0,0,0,0,0,0,0,0
1684081905.39996314,140428806,1587,1587,1540,1542,0,0,0,0,0,0,0,0,0,0
1684081905.49992299,140528766,1586,1586,1543,1546,0,0,0,0,0,0,0,0,0,0
1684081905.59988308,140628726,1583,1582,1547,1550,0,0,0,0,0,0,0,0,0,0
1684081905.69984317,140728686,1576,1575,1555,1557,0,0,0,0,0,0,0,0,0,0
1684081905.79980302,140828646,1570,1568,1564,1568,0,0,0,0,0,0,0,0,0,0
1684081905.89976311,140928606,1563,1562,1572,1575,0,0,0,0,0,0,0,0,0,0
1684081905.99972296,141028566,1558,1557,1578,1580,0,0,0,0,0,0,0,0,0,0
1684081906.09968305,141128526,1553,1552,1581,1583,0,0,0,0,0,0,0,0,0,0
1684081906.19964314,141228486,1550,1550,1585,1586,0,0,0,0,0,0,0,0,0,0
1684081906.29960299,141328446,1548,1548,1588,1587,0,0,0,0,0,0,0,0,0,0
1684081906.39956307,141428406,1547,1547,1591,1590,0,0,0,0,0,0,0,0,0,0
1684081906.49952316,141528366,1546,1546,1593,1591,0,0,0,0,0,0,0,0,0,0
1684081906.59948301,141628326,1547,1547,1594,1593,0,0,0,0,0,0,0,0,0,0
1684081906.69944310,141728286,1548,1548,1592,1592,0,0,0,0,0,0,0,0,0,0
1684081906.79940319,141828246,1551,1551,1593,1593,0,0,0,0,0,0,0,0,0,0
1684081906.89936304,141928206,1552,1552,1590,1590,0,0,0,0,0,0,0,0,0,0
1684081906.99932313,142028166,1555,1555,1588,1588,0,0,0,0,0,0,0,0,0,0
1684081907.10011601,142128959,1557,1559,1585,1585,0,0,0,0,0,0,0,0,0,0
1684081907.20007610,142228919,1561,1562,1584,1584,0,0,0,0,0,0,0,0,0,0
1684081907.30003619,142328879,1565,1566,1582,1581,0,0,0,0,0,0,0,0,0,0
1684081907.39999604,142428839,1569,1569,1581,1580,0,0,0,0,0,0,0,0,0,0
1684081907.49995613,142528799,1573,1572,1580,1579,0,0,0,0,0,0,0,0,0,0
1684081907.59991598,142628759,1576,1575,1579,1578,0,0,0,0,0,0,0,0,0,0
1684081907.69987607,142728719,1578,1577,1578,1577,0,0,0,0,0,0,0,0,0,0
1684081907.79983616,142828679,1579,1579,1576,1577,0,0,0,0,0,0,0,0,0,0
1684081907.89979601,142928639,1581,1580,1575,1576,0,0,0,0,0,0,0,0,0,0
1684081907.99975610,143028599,1582,1581,1575,1575,0,0,0,0,0,0,0,0,0,0
1684081908.09971619,143128559,1582,1582,1574,1575,0,0,0,0,0,0,0,0,0,0
1684081908.19967604,143228519,1582,1583,1575,1575,0,0,0,0,0,0,0,0,0,0
1684081908.29963613,143328479,1582,1583,1575,1575,0,0,0,0,0,0,0,0,0,0
1684081908.39959598,143428439,1582,1582,1575,1574,0,0,0,0,0,0,0,0,0,0
1684081908.49955606,143528399,1582,1582,1575,1575,0,0,0,0,0,0,0,0,0,0
1684081908.59951615,143628359,1582,1582,1576,1576,0,0,0,0,0,0,0,0,0,0
1684081908.69947600,143728319,1582,1582,1576,1577,0,0,0,0,0,0,0,0,0,0
1684081908.79943609,143828279,1582,1582,1578,1577,0,0,0,0,0,0,0,0,0,0
1684081908.89939618,143928239,1582,1581,1577,1577,0,0,0,0,0,0,0,0,0,0
1684081908.99935603,144028199,1581,1581,1578,1578,0,0,0,0,0,0,0,0,0,0
1684081909.09931612,144128159,1581,1581,1579,1578,0,0,0,0,0,0,0,0,0,0
1684081909.20010900,144228952,1581,1581,1580,1579,0,0,0,0,0,0,0,0,0,0
1684081909.30006909,144328912,1580,1581,1579,1579,0,0,0,0,0,0,0,0,0,0
1684081909.40002918,144428872,1579,1580,1579,1579,0,0,0,0,0,0,0,0,0,0
1684081909.49998903,144528832,1580,1580,1580,1580,0,0,0,0,0,0,0,0,0,0
1684081909.59994912,144628792,1579,1580,1580,1580,0,0,0,0,0,0,0,0,0,0
1684081909.69990897,144728752,1579,1579,1580,1580,0,0,0,0,0,0,0,0,0,0
1684081909.79986906,144828712,1579,1579,1580,1580,0,0,0,0,0,0,0,0,0,0
1684081909.89982915,144928672,1579,1579,1580,1580,0,0,0,0,0,0,0,0,0,0
1684081909.99978900,145028632,1579,1579,1579,1579,0,0,0,0,0,0,0,0,0,0
1684081910.09974909,145128592,1579,1579,1579,1579,0,0,0,0,0,0,0,0,0,0
1684081910.19970918,145228552,1580,1579,1580,1580,0,0,0,0,0,0,0,0,0,0
1684081910.29966903,145328512,1580,1579,1580,1580,0,0,0,0,0,0,0,0,0,0
1684081910.39962912,145428472,1580,1580,1580,1580,0,0,0,0,0,0,0,0,0,0
1684081910.49958897,145528432,1580,1581,1580,1581,0,0,0,0,0,0,0,0,0,0
1684081910.59954906,145628392,1580,1581,1581,1581,0,0,0,0,0,0,0,0,0,0
1684081910.69950914,145728352,1581,1581,1581,1580,0,0,0,0,0,0,0,0,0,0
1684081910.79946899,145828312,1581,1581,1581,1581,0,0,0,0,0,0,0,0,0,0
1684081910.89942908,145928272,1581,1581,1581,1581,0,0,0,0,0,0,0,0,0,0
1684081910.99938917,146028232,1582,1581,1581,1582,0,0,0,0,0,0,0,0,0,0
1684081911.09934902,146128192,1582,1581,1581,1581,0,0,0,0,0,0,0,0,0,0
1684081911.20014215,146228985,1581,1582,1581,1582,0,0,0,0,0,0,0,0,0,0
1684081911.30010200,146328945,1582,1581,1581,1581,0,0,0,0,0,0,0,0,0,0
1684081911.40006208,146428905,1581,1581,1581,1581,0,0,0,0,0,0,0,0,0,0
1684081911.50002217,146528865,1832,1829,1516,1506,0,0,0,0,0,0,0,0,0,0
1684081911.59998202,146628825,1765,1757,1499,1494,0,0,0,0,0,0,0,0,0,0
1684081911.69994211,146728785,1695,1684,1515,1519,0,0,0,0,0,0,0,0,0,0
1684081911.79990196,146828745,1619,1613,1552,1545,0,0,0,0,0,0,0,0,0,0
1684081911.89986205,146928705,1554,1560,1575,1570,0,0,0,0,0,0,0,0,0,0
1684081911.99982214,147028665,1516,1530,1583,1585,0,0,0,0,0,0,0,0,0,0
1684081912.09978199,147128625,1495,1513,1584,1592,0,0,0,0,0,0,0,0,0,0
1684081912.19974208,147228585,1476,1486,1598,1609,0,0,0,0,0,0,0,0,0,0
1684081912.29970217,147328545,1458,1457,1618,1627,0,0,0,0,0,0,0,0,0,0
1684081912.39966202,147428505,1456,1455,1622,1628,0,0,0,0,0,0,0,0,0,0
1684081912.49962211,147528465,1476,1473,1614,1616,0,0,0,0,0,0,0,0,0,0
1684081912.59958196,147628425,1494,1491,1604,1603,0,0,0,0,0,0,0,0,0,0
1684081912.69954205,147728385,1509,1509,1597,1594,0,0,0,0,0,0,0,0,0,0
1684081912.79950213,147828345,1522,1527,1589,1584,0,0,0,0,0,0,0,0,0,0
1684081912.89946198,147928305,1547,1554,1569,1565,0,0,0,0,0,0,0,0,0,0
1684081912.99942207,148028265,1577,1584,1542,1539,0,0,0,0,0,0,0,0,0,0
1684081913.09938216,148128225,1600,1603,1523,1522,0,0,0,0,0,0,0,0,0,0
1684081913.19934201,148228185,1611,1611,1514,1514,0,0,0,0,0,0,0,0,0,0
1684081913.30013514,148328978,1618,1615,1515,1515,0,0,0,0,0,0,0,0,0,0
1684081913.40009499,148428938,1618,1614,1518,1518,0,0,0,0,0,0,0,0,0,0
1684081913.50005507,148528898,1616,1612,1523,1522,0,0,0,0,0,0,0,0,0,0
1684081913.60001516,148628858,1613,1611,1528,1527,0,0,0,0,0,0,0,0,0,0
1684081913.69997501,148728818,1609,1608,1533,1532,0,0,0,0,0,0,0,0,0,0
1684081913.79993510,148828778,1604,1606,1536,1536,0,0,0,0,0,0,0,0,0,0
1684081913.89989519,148928738,1601,1603,1539,1539,0,0,0,0,0,0,0,0,0,0
1684081913.99985504,149028698,1599,1600,1542,1543,0,0,0,0,0,0,0,0,0,0
1684081914.09981513,149128658,1597,1596,1545,1547,0,0,0,0,0,0,0,0,0,0
1684081914.19977498,149228618,1593,1593,1548,1550,0,0,0,0,0,0,0,0,0,0
1684081914.29973507,149328578,1591,1589,1552,1555,0,0,0,0,0,0,0,0,0,0
1684081914.39969516,149428538,1587,1585,1557,1558,0,0,0,0,0,0,0,0,0,0
1684081914.49965501,149528498,1583,1580,1563,1564,0,0,0,0,0,0,0,0,0,0
1684081914.59961510,149628458,1578,1575,1570,1571,0,0,0,0,0,0,0,0,0,0
1684081914.69957519,149728418,1572,1568,1577,1577,0,0,0,0,0,0,0,0,0,0
1684081914.79953504,149828378,1565,1563,1585,1584,0,0,0,0,0,0,0,0,0,0
1684081914.89949512,149928338,1554,1552,1596,1594,0,0,0,0,0,0,0,0,0,0
1684081914.99945498,150028298,1540,1540,1611,1609,0,0,0,0,0,0,0,0,0,0
1684081915.09941506,150128258,1530,1531,1622,1621,0,0,0,0,0,0,0,0,0,0
1684081915.19937515,150228218,1524,1527,1628,1627,0,0,0,0,0,0,0,0,0,0
1684081915.29933500,150328178,1525,1527,1626,1627,0,0,0,0,0,0,0,0,0,0
1684081915.40012813,150428971,1532,1534,1620,1621,0,0,0,0,0,0,0,0,0,0
1684081915.50008798,150528931,1542,1543,1609,1611,0,0,0,0,0,0,0,0,0,0
1684081915.60004807,150628891,1555,1556,1596,1598,0,0,0,0,0,0,0,0,0,0
1684081915.70000815,150728851,1568,1568,1584,1585,0,0,0,0,0,0,0,0,0,0
1684081915.79996800,150828811,1578,1577,1574,1574,0,0,0,0,0,0,0,0,0,0
1684081915.89992809,150928771,1583,1582,1571,1570,0,0,0,0,0,0,0,0,0,0
1684081915.99988818,151028731,1584,1583,1569,1568,0,0,0,0,0,0,0,0,0,0
1684081916.09984803,151128691,1584,1583,1570,1569,0,0,0,0,0,0,0,0,0,0
1684081916.19980812,151228651,1583,1582,1571,1571,0,0,0,0,0,0,0,0,0,0
1684081916.29976797,151328611,1581,1580,1573,1573,0,0,0,0,0,0,0,0,0,0
1684081916.39972806,151428571,1579,1579,1575,1575,0,0,0,0,0,0,0,0,0,0
1684081916.49968815,151528531,1577,1576,1575,1576,0,0,0,0,0,0,0,0,0,0
1684081916.59964800,151628491,1576,1576,1577,1578,0,0,0,0,0,0,0,0,0,0
1684081916.69960809,151728451,1576,1575,1579,1579,0,0,0,0,0,0,0,0,0,0
1684081916.79956818,151828411,1575,1574,1580,1579,0,0,0,0,0,0,0,0,0,0
1684081916.89952803,151928371,1574,1574,1580,1580,0,0,0,0,0,0,0,0,0,0
1684081916.99948812,152028331,1574,1574,1581,1581,0,0,0,0,0,0,0,0,0,0
1684081917.09944797,152128291,1573,1573,1580,1580,0,0,0,0,0,0,0,0,0,0
1684081917.19940805,152228251,1573,1574,1580,1581,0,0,0,0,0,0,0,0,0,0
1684081917.29936814,152328211,1573,1574,1580,1580,0,0,0,0,0,0,0,0,0,0
1684081917.39932799,152428171,1574,1574,1580,1580,0,0,0,0,0,0,0,0,0,0
1684081917.50012112,152528964,1575,1575,1580,1580,0,0,0,0,0,0,0,0,0,0
1684081917.60008097,152628924,1575,1575,1580,1580,0,0,0,0,0,0,0,0,0,0
1684081917.70004106,152728884,1575,1575,1579,1579,0,0,0,0,0,0,0,0,0,0
1684081917.80000114,152828844,1575,1575,1578,1579,0,0,0,0,0,0,0,0,0,0
1684081917.89996099,152928804,1576,1576,1578,1579,0,0,0,0,0,0,0,0,0,0
1684081917.99992108,153028764,1576,1577,1578,1579,0,0,0,0,0,0,0,0,0,0
1684081918.09988117,153128724,1576,1577,1578,1578,0,0,0,0,0,0,0,0,0,0
1684081918.19984102,153228684,1577,1577,1578,1578,0,0,0,0,0,0,0,0,0,0
1684081918.29980111,153328644,1577,1577,1577,1578,0,0,0,0,0,0,0,0,0,0
1684081918.39976096,153428604,1578,1578,1577,1578,0,0,0,0,0,0,0,0,0,0
1684081918.49972105,153528564,1578,1578,1578,1578,0,0,0,0,0,0,0,0,0,0
1684081918.59968114,153628524,1579,1578,1578,1578,0,0,0,0,0,0,0,0,0,0
1684081918.69964099,153728484,1579,1579,1578,1578,0,0,0,0,0,0,0,0,0,0
1684081918.79960108,153828444,1579,1579,1578,1578,0,0,0,0,0,0,0,0,0,0
1684081918.89956117,153928404,1580,1580,1579,1579,0,0,0,0,0,0,0,0,0,0
1684081918.99952102,154028364,1579,1579,1579,1579,0,0,0,0,0,0,0,0,0,0
1684081919.09948111,154128324,1580,1580,1579,1579,0,0,0,0,0,0,0,0,0,0
1684081919.19944096,154228284,1580,1580,1580,1580,0,0,0,0,0,0,0,0,0,0
1684081919.29940104,154328244,1581,1581,1580,1580,0,0,0,0,0,0,0,0,0,0
1684081919.39936113,154428204,1581,1581,1581,1581,0,0,0,0,0,0,0,0,0,0
1684081919.49932098,154528164,1580,1580,1580,1580,0,0,0,0,0,0,0,0,0,0
1684081919.60011411,154628957,1580,1580,1580,1580,0,0,0,0,0,0,0,0,0,0
1684081919.70007396,154728917,1580,1580,1579,1580,0,0,0,0,0,0,0,0,0,0
1684081919.80003405,154828877,1581,1580,1580,1581,0,0,0,0,0,0,0,0,0,0
1684081919.89999413,154928837,1580,1579,1580,1579,0,0,0,0,0,0,0,0,0,0
1684081919.99995399,155028797,1580,1581,1582,1578,0,0,0,0,0,0,0,0,0,0
1684081920.09991407,155128757,1580,1584,1587,1572,0,0,0,0,0,0,0,0,0,0
1684081920.19987416,155228717,1578,1582,1582,1573,0,0,0,0,0,0,0,0,0,0
1684081920.29983401,155328677,1575,1578,1575,1575,0,0,0,0,0,0,0,0,0,0
1684081920.39979410,155428637,1573,1573,1569,1575,0,0,0,0,0,0,0,0,0,0
1684081920.49975419,155528597,1571,1569,1565,1572,0,0,0,0,0,0,0,0,0,0
1684081920.59971404,155628557,1570,1567,1564,1570,0,0,0,0,0,0,0,0,0,0
1684081920.69967413,155728517,1569,1566,1566,1568,0,0,0,0,0,0,0,0,0,0
1684081920.79963398,155828477,1568,1566,1567,1566,0,0,0,0,0,0,0,0,0,0
1684081920.89959407,155928437,1568,1566,1568,1565,0,0,0,0,0,0,0,0,0,0
1684081920.99955416,156028397,1567,1567,1569,1566,0,0,0,0,0,0,0,0,0,0
1684081921.09951401,156128357,1564,1566,1567,1565,0,0,0,0,0,0,0,0,0,0
1684081921.19947410,156228317,1564,1565,1566,1565,0,0,0,0,0,0,0,0,0,0
1684081921.29943419,156328277,1563,1565,1565,1565,0,0,0,0,0,0,0,0,0,0
1684081921.39939404,156428237,1564,1564,1565,1565,0,0,0,0,0,0,0,0,0,0
1684081921.49935412,156528197,1563,1562,1563,1563,0,0,0,0,0,0,0,0,0,0
1684081921.59931397,156628157,1563,1562,1563,1563,0,0,0,0,0,0,0,0,0,0
1684081921.70010710,156728950,1561,1560,1562,1561,0,0,0,0,0,0,0,0,0,0
1684081921.80006719,156828910,1561,1560,1562,1560,0,0,0,0,0,0,0,0,0,0
1684081921.90002704,156928870,1559,1559,1560,1560,0,0,0,0,0,0,0,0,0,0
1684081921.99998713,157028830,1558,1559,1559,1559,0,0,0,0,0,0,0,0,0,0
1684081922.09994698,157128790,1558,1558,1558,1558,0,0,0,0,0,0,0,0,0,0
1684081922.19990706,157228750,1558,1558,1559,1557,0,0,0,0,0,0,0,0,0,0
1684081922.29986715,157328710,1558,1558,1558,1557,0,0,0,0,0,0,0,0,0,0
1684081922.39982700,157428670,1558,1558,1559,1558,0,0,0,0,0,0,0,0,0,0
1684081922.49978709,157528630,1558,1559,1559,1558,0,0,0,0,0,0,0,0,0,0
1684081922.59974718,157628590,1558,1559,1559,1557,0,0,0,0,0,0,0,0,0,0
1684081922.69970703,157728550,1558,1560,1560,1558,0,0,0,0,0,0,0,0,0,0
1684081922.79966712,157828510,1559,1560,1559,1559,0,0,0,0,0,0,0,0,0,0
1684081922.89962697,157928470,1560,1560,1557,1562,0,0,0,0,0,0,0,0,0,0
1684081922.99958706,158028430,1561,1560,1557,1563,0,0,0,0,0,0,0,0,0,0
1684081923.09954715,158128390,1563,1561,1559,1565,0,0,0,0,0,0,0,0,0,0
1684081923.19950700,158228350,1563,1561,1560,1564,0,0,0,0,0,0,0,0,0,0
1684081923.29946709,158328310,1563,1562,1562,1563,0,0,0,0,0,0,0,0,0,0
1684081923.39942718,158428270,1561,1561,1563,1559,0,0,0,0,0,0,0,0,0,0
1684081923.49938703,158528230,1560,1561,1562,1559,0,0,0,0,0,0,0,0,0,0
1684081923.59934711,158628190,1559,1560,1558,1561,0,0,0,0,0,0,0,0,0,0
1684081923.70014000,158728983,1557,1557,1555,1560,0,0,0,0,0,0,0,0,0,0
1684081923.80010009,158828943,1551,1551,1550,1553,0,0,0,0,0,0,0,0,0,0
1684081923.90006018,158928903,1546,1545,1545,1547,0,0,0,0,0,0,0,0,0,0
1684081924.00002003,159028863,1539,1539,1540,1539,0,0,0,0,0,0,0,0,0,0
1684081924.09998012,159128823,1532,1532,1533,1532,0,0,0,0,0,0,0,0,0,0
1684081924.19993997,159228783,1524,1524,1525,1524,0,0,0,0,0,0,0,0,0,0
1684081924.29990005,159328743,1519,1520,1520,1520,0,0,0,0,0,0,0,0,0,0
1684081924.39986014,159428703,1518,1519,1519,1519,0,0,0,0,0,0,0,0,0,0
1684081924.49981999,159528663,1519,1519,1519,1520,0,0,0,0,0,0,0,0,0,0
1684081924.59978008,159628623,1521,1521,1521,1522,0,0,0,0,0,0,0,0,0,0
1684081924.69974017,159728583,1524,1524,1524,1524,0,0,0,0,0,0,0,0,0,0
1684081924.79970002,159828543,1529,1530,1529,1529,0,0,0,0,0,0,0,0,0,0
1684081924.89966011,159928503,1535,1535,1534,1535,0,0,0,0,0,0,0,0,0,0
1684081924.99961996,160028463,1538,1538,1538,1538,0,0,0,0,0,0,0,0,0,0
1684081925.09958005,160128423,1541,1541,1541,1541,0,0,0,0,0,0,0,0,0,0
1684081925.19954014,160228383,1542,1542,1542,1542,0,0,0,0,0,0,0,0,0,0
1684081925.29949999,160328343,1544,1544,1544,1543,0,0,0,0,0,0,0,0,0,0
1684081925.39946008,160428303,1545,1545,1545,1544,0,0,0,0,0,0,0,0,0,0
1684081925.49942017,160528263,1546,1546,1546,1546,0,0,0,0,0,0,0,0,0,0
1684081925.59938002,160628223,1545,1546,1546,1546,0,0,0,0,0,0,0,0,0,0
1684081925.69934011,160728183,1546,1546,1546,1546,0,0,0,0,0,0,0,0,0,0
1684081925.80013299,160828976,1546,1546,1546,1546,0,0,0,0,0,0,0,0,0,0
1684081925.90009308,160928936,1545,1545,1545,1546,0,0,0,0,0,0,0,0,0,0
1684081926.00005317,161028896,1545,1545,1546,1545,0,0,0,0,0,0,0,0,0,0
1684081926.10001302,161128856,1546,1546,1546,1546,0,0,0,0,0,0,0,0,0,0
1684081926.19997311,161228816,1545,1545,1545,1545,0,0,0,0,0,0,0,0,0,0
1684081926.29993296,161328776,1544,1545,1545,1544,0,0,0,0,0,0,0,0,0,0
1684081926.39989305,161428736,1545,1545,1545,1545,0,0,0,0,0,0,0,0,0,0
1684081926.49985313,161528696,1544,1544,1544,1544,0,0,0,0,0,0,0,0,0,0
1684081926.59981298,161628656,1544,1545,1545,1545,0,0,0,0,0,0,0,0,0,0
1684081926.69977307,161728616,1545,1544,1544,1545,0,0,0,0,0,0,0,0,0,0
1684081926.79973316,161828576,1545,1545,1545,1545,0,0,0,0,0,0,0,0,0,0
1684081926.89969301,161928536,1544,1544,1544,1544,0,0,0,0,0,0,0,0,0,0
1684081926.99965310,162028496,1544,1544,1545,1544,0,0,0,0,0,0,0,0,0,0
1684081927.09961319,162128456,1545,1544,1544,1545,0,0,0,0,0,0,0,0,0,0
1684081927.19957304,162228416,1544,1544,1545,1544,0,0,0,0,0,0,0,0,0,0
1684081927.29953313,162328376,1544,1545,1545,1545,0,0,0,0,0,0,0,0,0,0
1684081927.39949298,162428336,1543,1544,1544,1544,0,0,0,0,0,0,0,0,0,0
1684081927.49945307,162528296,1544,1544,1545,1544,0,0,0,0,0,0,0,0,0,0
1684081927.59941316,162628256,1544,1545,1545,1545,0,0,0,0,0,0,0,0,0,0
1684081927.69937301,162728216,1544,1544,1544,1544,0,0,0,0,0,0,0,0,0,0
1684081927.79933310,162828176,1544,1543,1544,1544,0,0,0,0,0,0,0,0,0,0
1684081927.90012598,162928969,1544,1544,1544,1545,0,0,0,0,0,0,0,0,0,0
1684081928.00008607,163028929,1545,1544,1545,1545,0,0,0,0,0,0,0,0,0,0
1684081928.10004616,163128889,1544,1544,1544,1544,0,0,0,0,0,0,0,0,0,0
1684081928.20000601,163228849,1544,1544,1545,1544,0,0,0,0,0,0,0,0,0,0
1684081928.29996610,163328809,1543,1543,1543,1543,0,0,0,0,0,0,0,0,0,0
1684081928.39992619,163428769,1544,1544,1544,1544,0,0,0,0,0,0,0,0,0,0
1684081928.49988604,163528729,1545,1545,1544,1545,0,0,0,0,0,0,0,0,0,0
1684081928.59984612,163628689,1544,1544,1544,1544,0,0,0,0,0,0,0,0,0,0
1684081928.69980597,163728649,1544,1544,1544,1544,0,0,0,0,0,0,0,0,0,0
1684081928.79976606,163828609,1544,1544,1545,1544,0,0,0,0,0,0,0,0,0,0
1684081928.89972615,163928569,1544,1544,1544,1544,0,0,0,0,0,0,0,0,0,0
1684081928.99968600,164028529,1544,1544,1544,1544,0,0,0,0,0,0,0,0,0,0
1684081929.09964609,164128489,1545,1544,1544,1544,0,0,0,0,0,0,0,0,0,0
1684081929.19960618,164228449,1544,1544,1544,1544,0,0,0,0,0,0,0,0,0,0
1684081929.29956603,164328409,1545,1544,1544,1545,0,0,0,0,0,0,0,0,0,0
1684081929.39952612,164428369,1545,1545,1545,1545,0,0,0,0,0,0,0,0,0,0
1684081929.49948597,164528329,1544,1544,1544,1544,0,0,0,0,0,0,0,0,0,0
1684081929.59944606,164628289,1544,1545,1544,1544,0,0,0,0,0,0,0,0,0,0
1684081929.69940615,164728249,1544,1544,1544,1544,0,0,0,0,0,0,0,0,0,0
1684081929.79936600,164828209,1543,1544,1544,1543,0,0,0,0,0,0,0,0,0,0
1684081929.89932609,164928169,1543,1543,1543,1543,0,0,0,0,0,0,0,0,0,0
1684081930.00011897,165028962,1543,1543,1543,1543,0,0,0,0,0,0,0,0,0,0
1684081930.10007906,165128922,1544,1543,1544,1544,0,0,0,0,0,0,0,0,0,0
1684081930.20003915,165228882,1543,1544,1544,1543,0,0,0,0,0,0,0,0,0,0
1684081930.29999900,165328842,1544,1543,1543,1544,0,0,0,0,0,0,0,0,0,0
1684081930.39995909,165428802,1544,1544,1544,1544,0,0,0,0,0,0,0,0,0,0
1684081930.49991918,165528762,1544,1544,1544,1544,0,0,0,0,0,0,0,0,0,0
1684081930.59987903,165628722,1545,1545,1545,1545,0,0,0,0,0,0,0,0,0,0
1684081930.69983912,165728682,1545,1545,1545,1545,0,0,0,0,0,0,0,0,0,0
1684081930.79979897,165828642,1544,1544,1545,1544,0,0,0,0,0,0,0,0,0,0
1684081930.89975905,165928602,1545,1544,1545,1545,0,0,0,0,0,0,0,0,0,0
1684081930.99971914,166028562,1544,1544,1544,1544,0,0,0,0,0,0,0,0,0,0
1684081931.09967899,166128522,1545,1545,1545,1545,0,0,0,0,0,0,0,0,0,0
1684081931.19963908,166228482,1544,1544,1544,1544,0,0,0,0,0,0,0,0,0,0
1684081931.29959917,166328442,1544,1544,1544,1544,0,0,0,0,0,0,0,0,0,0
1684081931.33958316,166368426,1544,1544,1544,1543,0,0,0,0,0,0,0,0,0,0
1684081931.43954301,166468386,1544,1543,1543,1543,0,0,0,0,0,0,0,0,0,0
1684081931.53950310,166568346,1544,1543,1544,1544,0,0,0,0,0,0,0,0,0,0
1684081931.63946319,166668306,1544,1544,1544,1545,0,0,0,0,0,0,0,0,0,0
1684081931.73942304,166768266,1543,1544,1544,1544,0,0,0,0,0,0,0,0,0,0
1684081931.83938313,166868226,1543,1543,1543,1543,0,0,0,0,0,0,0,0,0,0
1684081931.93934298,166968186,1544,1544,1544,1544,0,0,0,0,0,0,0,0,0,0
1684081932.04013610,167068979,1544,1544,1544,1545,0,0,0,0,0,0,0,0,0,0
1684081932.14009619,167168939,1544,1545,1544,1545,0,0,0,0,0,0,0,0,0,0
1684081932.24005604,167268899,1544,1544,1544,1544,0,0,0,0,0,0,0,0,0,0
1684081932.34001613,167368859,1544,1544,1544,1543,0,0,0,0,0,0,0,0,0,0
1684081932.43997598,167468819,1544,1544,1545,1544,0,0,0,0,0,0,0,0,0,0
1684081932.53993607,167568779,1545,1544,1545,1545,0,0,0,0,0,0,0,0,0,0
1684081932.63989615,167668739,1544,1545,1545,1545,0,0,0,0,0,0,0,0,0,0
1684081932.73985600,167768699,1544,1544,1544,1545,0,0,0,0,0,0,0,0,0,0
1684081932.83981609,167868659,1544,1544,1544,1544,0,0,0,0,0,0,0,0,0,0
1684081932.93977618,167968619,1544,1544,1544,1545,0,0,0,0,0,0,0,0,0,0
1684081933.03973603,168068579,1544,1544,1544,1545,0,0,0,0,0,0,0,0,0,0
1684081933.13969612,168168539,1545,1544,1544,1544,0,0,0,0,0,0,0,0,0,0
1684081933.23965597,168268499,1545,1545,1545,1545,0,0,0,0,0,0,0,0,0,0
1684081933.33961606,168368459,1545,1545,1545,1544,0,0,0,0,0,0,0,0,0,0
1684081933.43957615,168468419,1545,1545,1545,1544,0,0,0,0,0,0,0,0,0,0
1684081933.53953600,168568379,1544,1544,1545,1544,0,0,0,0,0,0,0,0,0,0
1684081933.63949609,168668339,1544,1544,1544,1544,0,0,0,0,0,0,0,0,0,0
1684081933.73945618,168768299,1544,1544,1545,1544,0,0,0,0,0,0,0,0,0,0
1684081933.83941603,168868259,1545,1545,1544,1545,0,0,0,0,0,0,0,0,0,0
1684081933.93937612,168968219,1545,1545,1545,1545,0,0,0,0,0,0,0,0,0,0
1684081934.03933597,169068179,1466,1465,1466,1466,0,0,0,0,0,0,0,0,0,0
1684081934.14012909,169168972,1303,1299,1303,1302,0,0,0,0,0,0,0,0,0,0
1684081934.24008918,169268932,1233,1229,1234,1233,0,0,0,0,0,0,0,0,0,0
1684081934.34004903,169368892,1214,1209,1214,1215,0,0,0,0,0,0,0,0,0,0
1684081934.44000912,169468852,1186,1182,1188,1188,0,0,0,0,0,0,0,0,0,0
1684081934.53996897,169568812,1154,1150,1157,1157,0,0,0,0,0,0,0,0,0,0
1684081934.63992906,169668772,1154,1150,1158,1158,0,0,0,0,0,0,0,0,0,0
1684081934.73988914,169768732,1155,1150,1159,1159,0,0,0,0,0,0,0,0,0,0
1684081934.83984900,169868692,1206,1150,1154,1214,0,0,0,0,0,0,0,0,0,0
1684081934.93980908,169968652,1192,1150,1159,1199,0,0,0,0,0,0,0,0,0,0
1684081935.03976917,170068612,1188,1150,1161,1194,0,0,0,0,0,0,0,0,0,0
1684081935.13972902,170168572,1190,1150,1161,1196,0,0,0,0,0,0,0,0,0,0
1684081935.23968911,170268532,1193,1150,1162,1199,0,0,0,0,0,0,0,0,0,0
1684081935.33964896,170368492,1196,1150,1163,1203,0,0,0,0,0,0,0,0,0,0
1684081935.43960905,170468452,1199,1150,1163,1207,0,0,0,0,0,0,0,0,0,0
1684081935.53956914,170568412,1202,1150,1164,1211,0,0,0,0,0,0,0,0,0,0
1684081935.63952899,170668372,1178,1150,1165,1187,0,0,0,0,0,0,0,0,0,0
1684081935.73948908,170768332,1180,1150,1165,1190,0,0,0,0,0,0,0,0,0,0
1684081935.83944917,170868292,1182,1150,1165,1192,0,0,0,0,0,0,0,0,0,0
1684081935.93940902,170968252,1183,1150,1166,1194,0,0,0,0,0,0,0,0,0,0
1684081936.03936911,171068212,1183,1150,1167,1195,0,0,0,0,0,0,0,0,0,0
1684081936.13932896,171168172,1000,1000,1000,1000,0,0,0,0,0,0,0,0,0,0
1684081936.24012208,171268965,1000,1000,1000,1000,0,0,0,0,0,0,0,0,0,0
1684081936.34008217,171368925,1000,1000,1000,1000,0,0,0,0,0,0,0,0,0,0
1684081936.44004202,171468885,1000,1000,1000,1000,0,0,0,0,0,0,0,0,0,0
1684081936.54000211,171568845,1000,1000,1000,1000,0,0,0,0,0,0,0,0,0,0
1684081936.63996196,171668805,1000,1000,1000,1000,0,0,0,0,0,0,0,0,0,0
1684081936.73992205,171768765,1000,1000,1000,1000,0,0,0,0,0,0,0,0,0,0
1684081936.83988214,171868725,1000,1000,1000,1000,0,0,0,0,0,0,0,0,0,0
1684081936.93984199,171968685,1000,1000,1000,1000,0,0,0,0,0,0,0,0,0,0
1684081937.03980207,172068645,1000,1000,1000,1000,0,0,0,0,0,0,0,0,0,0
1684081937.13976216,172168605,1000,1000,1000,1000,0,0,0,0,0,0,0,0,0,0
1684081937.23972201,172268565,1000,1000,1000,1000,0,0,0,0,0,0,0,0,0,0
1684081937.33968210,172368525,1000,1000,1000,1000,0,0,0,0,0,0,0,0,0,0
1684081937.43964219,172468485,1000,1000,1000,1000,0,0,0,0,0,0,0,0,0,0
1684081937.53960204,172568445,1000,1000,1000,1000,0,0,0,0,0,0,0,0,0,0
1684081937.63956213,172668405,1000,1000,1000,1000,0,0,0,0,0,0,0,0,0,0
1684081937.73952198,172768365,1000,1000,1000,1000,0,0,0,0,0,0,0,0,0,0
1684081937.83948207,172868325,1000,1000,1000,1000,0,0,0,0,0,0,0,0,0,0
1684081937.93944216,172968285,1000,1000,1000,1000,0,0,0,0,0,0,0,0,0,0
1684081938.03940201,173068245,1000,1000,1000,1000,0,0,0,0,0,0,0,0,0,0
1684081938.13936210,173168205,1000,1000,1000,1000,0,0,0,0,0,0,0,0,0,0
1684081938.23932219,173268165,1000,1000,1000,1000,0,0,0,0,0,0,0,0,0,0
1684081938.34011507,173368958,1000,1000,1000,1000,0,0,0,0,0,0,0,0,0,0
1684081938.44007516,173468918,1000,1000,1000,1000,0,0,0,0,0,0,0,0,0,0
1684081938.54003501,173568878,1000,1000,1000,1000,0,0,0,0,0,0,0,0,0,0
1684081938.63999510,173668838,1000,1000,1000,1000,0,0,0,0,0,0,0,0,0,0
1684081938.73995519,173768798,1000,1000,1000,1000,0,0,0,0,0,0,0,0,0,0
1684081938.83991504,173868758,1000,1000,1000,1000,0,0,0,0,0,0,0,0,0,0
1684081938.93987513,173968718,1000,1000,1000,1000,0,0,0,0,0,0,0,0,0,0
1684081939.03983498,174068678,1000,1000,1000,1000,0,0,0,0,0,0,0,0,0,0
1684081939.13979506,174168638,1000,1000,1000,1000,0,0,0,0,0,0,0,0,0,0
1684081939.23975515,174268598,1000,1000,1000,1000,0,0,0,0,0,0,0,0,0,0
1684081939.33971500,174368558,1000,1000,1000,1000,0,0,0,0,0,0,0,0,0,0
1684081939.43967509,174468518,1000,1000,1000,1000,0,0,0,0,0,0,0,0,0,0
1684081939.53963518,174568478,1000,1000,1000,1000,0,0,0,0,0,0,0,0,0,0
1684081939.63959503,174668438,1000,1000,1000,1000,0,0,0,0,0,0,0,0,0,0
1684081939.73955512,174768398,1000,1000,1000,1000,0,0,0,0,0,0,0,0,0,0
1684081939.83951497,174868358,1000,1000,1000,1000,0,0,0,0,0,0,0,0,0,0
1684081939.93947506,174968318,1000,1000,1000,1000,0,0,0,0,0,0,0,0,0,0
1684081940.03943515,175068278,1000,1000,1000,1000,0,0,0,0,0,0,0,0,0,0
1684081940.13939500,175168238,1000,1000,1000,1000,0,0,0,0,0,0,0,0,0,0
1684081940.23935509,175268198,1000,1000,1000,1000,0,0,0,0,0,0,0,0,0,0
1684081940.33931518,175368158,1000,1000,1000,1000,0,0,0,0,0,0,0,0,0,0
1684081940.44010806,175468951,1000,1000,1000,1000,0,0,0,0,0,0,0,0,0,0
1684081940.54006815,175568911,1000,1000,1000,1000,0,0,0,0,0,0,0,0,0,0
1684081940.64002800,175668871,1000,1000,1000,1000,0,0,0,0,0,0,0,0,0,0
1684081940.73998809,175768831,1000,1000,1000,1000,0,0,0,0,0,0,0,0,0,0
1684081940.83994818,175868791,1000,1000,1000,1000,0,0,0,0,0,0,0,0,0,0
1684081940.93990803,175968751,1000,1000,1000,1000,0,0,0,0,0,0,0,0,0,0
1684081941.03986812,176068711,1000,1000,1000,1000,0,0,0,0,0,0,0,0,0,0
1684081941.13982797,176168671,1000,1000,1000,1000,0,0,0,0,0,0,0,0,0,0
1684081941.23978806,176268631,1000,1000,1000,1000,0,0,0,0,0,0,0,0,0,0
1684081941.33974814,176368591,1000,1000,1000,1000,0,0,0,0,0,0,0,0,0,0
1684081941.43970799,176468551,1000,1000,1000,1000,0,0,0,0,0,0,0,0,0,0
1684081941.53966808,176568511,1000,1000,1000,1000,0,0,0,0,0,0,0,0,0,0
1684081941.63962817,176668471,1000,1000,1000,1000,0,0,0,0,0,0,0,0,0,0
1684081941.73958802,176768431,1000,1000,1000,1000,0,0,0,0,0,0,0,0,0,0
1684081941.83954811,176868391,1000,1000,1000,1000,0,0,0,0,0,0,0,0,0,0
1684081941.93950796,176968351,1000,1000,1000,1000,0,0,0,0,0,0,0,0,0,0
1684081942.03946805,177068311,1000,1000,1000,1000,0,0,0,0,0,0,0,0,0,0
1684081942.13942814,177168271,1000,1000,1000,1000,0,0,0,0,0,0,0,0,0,0
1684081942.23938799,177268231,1000,1000,1000,1000,0,0,0,0,0,0,0,0,0,0
1684081942.33934808,177368191,1000,1000,1000,1000,0,0,0,0,0,0,0,0,0,0
1684081942.44014096,177468984,1000,1000,1000,1000,0,0,0,0,0,0,0,0,0,0
1684081942.54010105,177568944,1000,1000,1000,1000,0,0,0,0,0,0,0,0,0,0
1684081942.64006114,177668904,1000,1000,1000,1000,0,0,0,0,0,0,0,0,0,0
1684081942.74002099,177768864,1000,1000,1000,1000,0,0,0,0,0,0,0,0,0,0
1684081942.83998108,177868824,1000,1000,1000,1000,0,0,0,0,0,0,0,0,0,0
1684081942.93994117,177968784,1000,1000,1000,1000,0,0,0,0,0,0,0,0,0,0
1684081943.03990102,178068744,1000,1000,1000,1000,0,0,0,0,0,0,0,0,0,0
1684081943.13986111,178168704,1000,1000,1000,1000,0,0,0,0,0,0,0,0,0,0
1684081943.23982096,178268664,1000,1000,1000,1000,0,0,0,0,0,0,0,0,0,0
1684081943.33978105,178368624,1000,1000,1000,1000,0,0,0,0,0,0,0,0,0,0
1684081943.43974113,178468584,1000,1000,1000,1000,0,0,0,0,0,0,0,0,0,0
1684081943.53970098,178568544,1000,1000,1000,1000,0,0,0,0,0,0,0,0,0,0
1684081943.63966107,178668504,1000,1000,1000,1000,0,0,0,0,0,0,0,0,0,0
1684081943.73962116,178768464,1000,1000,1000,1000,0,0,0,0,0,0,0,0,0,0
1684081943.83958101,178868424,1000,1000,1000,1000,0,0,0,0,0,0,0,0,0,0
1684081943.93954110,178968384,1000,1000,1000,1000,0,0,0,0,0,0,0,0,0,0
1684081944.03950119,179068344,1000,1000,1000,1000,0,0,0,0,0,0,0,0,0,0
1684081944.13946104,179168304,1000,1000,1000,1000,0,0,0,0,0,0,0,0,0,0
1684081944.23942113,179268264,1000,1000,1000,1000,0,0,0,0,0,0,0,0,0,0
1684081944.33938098,179368224,1000,1000,1000,1000,0,0,0,0,0,0,0,0,0,0
1684081944.43934107,179468184,1000,1000,1000,1000,0,0,0,0,0,0,0,0,0,0
1684081944.54013419,179568977,1000,1000,1000,1000,0,0,0,0,0,0,0,0,0,0
1684081944.64009404,179668937,1000,1000,1000,1000,0,0,0,0,0,0,0,0,0,0
1684081944.74005413,179768897,1000,1000,1000,1000,0,0,0,0,0,0,0,0,0,0
1684081944.84001398,179868857,1000,1000,1000,1000,0,0,0,0,0,0,0,0,0,0
1684081944.93997407,179968817,1000,1000,1000,1000,0,0,0,0,0,0,0,0,0,0
1684081945.03993416,180068777,1000,1000,1000,1000,0,0,0,0,0,0,0,0,0,0
1684081945.13989401,180168737,1000,1000,1000,1000,0,0,0,0,0,0,0,0,0,0
1684081945.23985410,180268697,1000,1000,1000,1000,0,0,0,0,0,0,0,0,0,0
1684081945.33981419,180368657,1000,1000,1000,1000,0,0,0,0,0,0,0,0,0,0
1684081945.43977404,180468617,1000,1000,1000,1000,0,0,0,0,0,0,0,0,0,0
1684081945.53973413,180568577,1000,1000,1000,1000,0,0,0,0,0,0,0,0,0,0
1684081945.63969398,180668537,1000,1000,1000,1000,0,0,0,0,0,0,0,0,0,0
1684081945.73965406,180768497,1000,1000,1000,1000,0,0,0,0,0,0,0,0,0,0
1684081945.83961415,180868457,1000,1000,1000,1000,0,0,0,0,0,0,0,0,0,0
1684081945.93957400,180968417,1000,1000,1000,1000,0,0,0,0,0,0,0,0,0,0
1684081946.03953409,181068377,1000,1000,1000,1000,0,0,0,0,0,0,0,0,0,0
1684081946.13949418,181168337,1000,1000,1000,1000,0,0,0,0,0,0,0,0,0,0
1684081946.23945403,181268297,1000,1000,1000,1000,0,0,0,0,0,0,0,0,0,0
1684081946.33941412,181368257,1000,1000,1000,1000,0,0,0,0,0,0,0,0,0,0
1684081946.43937397,181468217,1000,1000,1000,1000,0,0,0,0,0,0,0,0,0,0
1684081946.53933406,181568177,1000,1000,1000,1000,0,0,0,0,0,0,0,0,0,0
1684081946.64012718,181668970,1000,1000,1000,1000,0,0,0,0,0,0,0,0,0,0
1684081946.74008703,181768930,1000,1000,1000,1000,0,0,0,0,0,0,0,0,0,0
1684081946.84004712,181868890,1000,1000,1000,1000,0,0,0,0,0,0,0,0,0,0
1684081946.94000697,181968850,1000,1000,1000,1000,0,0,0,0,0,0,0,0,0,0
1684081947.03996706,182068810,1000,1000,1000,1000,0,0,0,0,0,0,0,0,0,0
1684081947.13992715,182168770,1000,1000,1000,1000,0,0,0,0,0,0,0,0,0,0
1684081947.23988700,182268730,1000,1000,1000,1000,0,0,0,0,0,0,0,0,0,0
1684081947.33984709,182368690,1000,1000,1000,1000,0,0,0,0,0,0,0,0,0,0
1684081947.43980718,182468650,1000,1000,1000,1000,0,0,0,0,0,0,0,0,0,0
1684081947.53976703,182568610,1000,1000,1000,1000,0,0,0,0,0,0,0,0,0,0
1684081947.63972712,182668570,1000,1000,1000,1000,0,0,0,0,0,0,0,0,0,0
1684081947.73968697,182768530,1000,1000,1000,1000,0,0,0,0,0,0,0,0,0,0
1684081947.83964705,182868490,1000,1000,1000,1000,0,0,0,0,0,0,0,0,0,0
1684081947.93960714,182968450,1000,1000,1000,1000,0,0,0,0,0,0,0,0,0,0
1684081948.03956699,183068410,1000,1000,1000,1000,0,0,0,0,0,0,0,0,0,0
1684081948.13952708,183168370,1000,1000,1000,1000,0,0,0,0,0,0,0,0,0,0
1684081948.23948717,183268330,1000,1000,1000,1000,0,0,0,0,0,0,0,0,0,0
1684081948.33944702,183368290,1000,1000,1000,1000,0,0,0,0,0,0,0,0,0,0
1684081948.43940711,183468250,1000,1000,1000,1000,0,0,0,0,0,0,0,0,0,0
1684081948.53936696,183568210,1000,1000,1000,1000,0,0,0,0,0,0,0,0,0,0
1684081948.63932705,183668170,1000,1000,1000,1000,0,0,0,0,0,0,0,0,0,0
1684081948.74012017,183768963,1000,1000,1000,1000,0,0,0,0,0,0,0,0,0,0
1684081948.84008002,183868923,1000,1000,1000,1000,0,0,0,0,0,0,0,0,0,0
1684081948.94004011,183968883,1000,1000,1000,1000,0,0,0,0,0,0,0,0,0,0
1684081949.03999996,184068843,1000,1000,1000,1000,0,0,0,0,0,0,0,0,0,0
1684081949.13996005,184168803,1000,1000,1000,1000,0,0,0,0,0,0,0,0,0,0
1684081949.23992014,184268763,1000,1000,1000,1000,0,0,0,0,0,0,0,0,0,0
1684081949.33987999,184368723,1000,1000,1000,1000,0,0,0,0,0,0,0,0,0,0
1684081949.43984008,184468683,1000,1000,1000,1000,0,0,0,0,0,0,0,0,0,0
1684081949.53980017,184568643,1000,1000,1000,1000,0,0,0,0,0,0,0,0,0,0
1684081949.63976002,184668603,1000,1000,1000,1000,0,0,0,0,0,0,0,0,0,0
1684081949.73972011,184768563,1000,1000,1000,1000,0,0,0,0,0,0,0,0,0,0
1684081949.83967996,184868523,1000,1000,1000,1000,0,0,0,0,0,0,0,0,0,0
1684081949.93964005,184968483,1000,1000,1000,1000,0,0,0,0,0,0,0,0,0,0
1684081950.03960013,185068443,1000,1000,1000,1000,0,0,0,0,0,0,0,0,0,0
1684081950.13955998,185168403,1000,1000,1000,1000,0,0,0,0,0,0,0,0,0,0
1684081950.23952007,185268363,1000,1000,1000,1000,0,0,0,0,0,0,0,0,0,0
1684081950.33948016,185368323,1000,1000,1000,1000,0,0,0,0,0,0,0,0,0,0
1684081950.43944001,185468283,1000,1000,1000,1000,0,0,0,0,0,0,0,0,0,0
1684081950.53940010,185568243,1000,1000,1000,1000,0,0,0,0,0,0,0,0,0,0
1684081950.63936019,185668203,1000,1000,1000,1000,0,0,0,0,0,0,0,0,0,0
1684081950.73932004,185768163,1000,1000,1000,1000,0,0,0,0,0,0,0,0,0,0
1684081950.84011316,185868956,1000,1000,1000,1000,0,0,0,0,0,0,0,0,0,0
1684081950.94007301,185968916,1000,1000,1000,1000,0,0,0,0,0,0,0,0,0,0
1684081951.04003310,186068876,1000,1000,1000,1000,0,0,0,0,0,0,0,0,0,0
