TimeUS,M1,M2,M3,M4,TimeUS,C1,C2,C3,C4
52648932,1000,1000,1000,1000,52728900,1000,1000,1000,1000
52651431,1000,1000,1000,1000,52828860,1000,1000,1000,1000
52653930,1000,1000,1000,1000,52928820,1000,1000,1000,1000
52656429,1000,1000,1000,1000,53028780,1000,1000,1000,1000
52658928,1000,1000,1000,1000,53128740,1000,1000,1000,1000
52661427,1000,1000,1000,1000,53228700,1000,1000,1000,1000
52663926,1000,1000,1000,1000,53328660,1000,1000,1000,1000
52666425,1000,1000,1000,1000,53428620,1000,1000,1000,1000
52668924,1000,1000,1000,1000,53528580,1000,1000,1000,1000
52671423,1000,1000,1000,1000,53628540,1000,1000,1000,1000
52673922,1000,1000,1000,1000,53728500,1000,1000,1000,1000
52676421,1000,1000,1000,1000,53828460,1000,1000,1000,1000
52678920,1000,1000,1000,1000,53928420,1000,1000,1000,1000
52681419,1000,1000,1000,1000,54028380,1000,1000,1000,1000
52683918,1000,1000,1000,1000,54128340,1000,1000,1000,1000
52686417,1000,1000,1000,1000,54228300,1000,1000,1000,1000
52688916,1000,1000,1000,1000,54328260,1000,1000,1000,1000
52691415,1000,1000,1000,1000,54428220,1000,1000,1000,1000
52693914,1000,1000,1000,1000,54528180,1000,1000,1000,1000
52696413,1000,1000,1000,1000,54628973,1000,1000,1000,1000
52698912,1000,1000,1000,1000,54728933,1024,1024,1024,1024
52701411,1000,1000,1000,1000,54828893,1054,1054,1054,1054
52703910,1000,1000,1000,1000,54928853,1084,1084,1084,1084
52706409,1000,1000,1000,1000,55028813,1113,1113,1113,1113
52708908,1000,1000,1000,1000,55128773,1143,1143,1143,1143
52711407,1000,1000,1000,1000,55228733,1357,1351,1352,1357
52713906,1000,1000,1000,1000,55328693,1546,1541,1542,1547
52716405,1000,1000,1000,1000,55428653,1699,1694,1694,1699
52718904,1000,1000,1000,1000,55528613,1830,1825,1826,1830
52721403,1000,1000,1000,1000,55628573,1889,1884,1884,1889
52723902,1000,1000,1000,1000,55728533,1839,1837,1837,1839
52726401,1000,1000,1000,1000,55828493,1712,1712,1712,1712
52728900,1000,1000,1000,1000,55928453,1638,1638,1637,1640
52731399,1000,1000,1000,1000,56028413,1623,1626,1620,1629
52733898,1000,1000,1000,1000,56128373,1631,1634,1630,1635
52736397,1000,1000,1000,1000,56228333,1637,1639,1639,1638
52738896,1000,1000,1000,1000,56328293,1636,1637,1639,1634
52741395,1000,1000,1000,1000,56428253,1630,1629,1632,1626
52743894,1000,1000,1000,1000,56528213,1624,1622,1626,1620
52746393,1000,1000,1000,1000,56628173,1620,1619,1621,1618
52748892,1000,1000,1000,1000,56728966,1619,1618,1619,1618
52751391,1000,1000,1000,1000,56828926,1615,1615,1615,1614
52753890,1000,1000,1000,1000,56928886,1585,1586,1592,1579
52756389,1000,1000,1000,1000,57028846,1572,1573,1577,1568
52758888,1000,1000,1000,1000,57128806,1562,1562,1562,1562
52761387,1000,1000,1000,1000,57228766,1553,1553,1550,1556
52763886,1000,1000,1000,1000,57328726,1547,1545,1539,1553
52766385,1000,1000,1000,1000,57428686,1539,1539,1531,1547
52768884,1000,1000,1000,1000,57528646,1534,1533,1528,1539
52771383,1000,1000,1000,1000,57628606,1528,1528,1525,1530
52773882,1000,1000,1000,1000,57728566,1526,1526,1526,1526
52776381,1000,1000,1000,1000,57828526,1526,1526,1528,1524
52778880,1000,1000,1000,1000,57928486,1530,1529,1532,1527
52781379,1000,1000,1000,1000,58028446,1532,1533,1536,1530
52783878,1000,1000,1000,1000,58128406,1536,1536,1538,1534
52786377,1000,1000,1000,1000,58228366,1540,1541,1542,1539
52788876,1000,1000,1000,1000,58328326,1544,1544,1545,1544
52791375,1000,1000,1000,1000,58428286,1547,1547,1547,1548
52793874,1000,1000,1000,1000,58528246,1550,1550,1550,1551
52796373,1000,1000,1000,1000,58628206,1553,1553,1552,1554
52798872,1000,1000,1000,1000,58728166,1555,1555,1554,1556
52801371,1000,1000,1000,1000,58828959,1554,1554,1558,1561
52803870,1000,1000,1000,1000,58928919,1556,1556,1563,1564
52806369,1000,1000,1000,1000,59028879,1558,1558,1565,1565
52808868,1000,1000,1000,1000,59128839,1560,1560,1565,1565
52811367,1000,1000,1000,1000,59228799,1563,1563,1565,1566
52813866,1000,1000,1000,1000,59328759,1565,1565,1565,1565
52816365,1000,1000,1000,1000,59428719,1567,1567,1565,1565
52818864,1000,1000,1000,1000,59528679,1569,1569,1566,1566
52821363,1000,1000,1000,1000,59628639,1571,1570,1566,1566
52823862,1000,1000,1000,1000,59728599,1572,1571,1566,1566
52826361,1000,1000,1000,1000,59828559,1573,1573,1568,1568
52828860,1000,1000,1000,1000,59928519,1573,1573,1569,1569
52831359,1000,1000,1000,1000,60028479,1573,1573,1570,1571
52833858,1000,1000,1000,1000,60128439,1573,1574,1572,1572
52836357,1000,1000,1000,1000,60228399,1573,1573,1573,1573
52838856,1000,1000,1000,1000,60328359,1574,1574,1575,1574
52841355,1000,1000,1000,1000,60428319,1574,1574,1576,1575
52843854,1000,1000,1000,1000,60528279,1576,1576,1578,1577
52846353,1000,1000,1000,1000,60628239,1576,1576,1578,1577
52848852,1000,1000,1000,1000,60728199,1575,1576,1577,1577
52851351,1000,1000,1000,1000,60828159,1576,1576,1577,1578
52853850,1000,1000,1000,1000,60928952,1577,1577,1578,1578
52856349,1000,1000,1000,1000,61028912,1577,1577,1577,1578
52858848,1000,1000,1000,1000,61128872,1577,1577,1577,1577
52861347,1000,1000,1000,1000,61228832,1577,1577,1576,1577
52863846,1000,1000,1000,1000,61328792,1578,1577,1577,1577
52866345,1000,1000,1000,1000,61428752,1578,1577,1577,1577
52868844,1000,1000,1000,1000,61528712,1579,1578,1578,1578
52871343,1000,1000,1000,1000,61628672,1578,1578,1577,1577
52873842,1000,1000,1000,1000,61728632,1578,1578,1578,1578
52876341,1000,1000,1000,1000,61828592,1578,1578,1578,1577
52878840,1000,1000,1000,1000,61928552,1579,1580,1579,1579
52881339,1000,1000,1000,1000,62028512,1579,1579,1579,1579
52883838,1000,1000,1000,1000,62128472,1579,1578,1578,1578
52886337,1000,1000,1000,1000,62228432,1578,1578,1578,1578
52888836,1000,1000,1000,1000,62328392,1578,1579,1579,1579
52891335,1000,1000,1000,1000,62428352,1578,1579,1578,1579
52893834,1000,1000,1000,1000,62528312,1578,1578,1578,1578
52896333,1000,1000,1000,1000,62628272,1579,1579,1580,1579
52898832,1000,1000,1000,1000,62728232,1578,1578,1578,1579
52901331,1000,1000,1000,1000,62828192,1579,1579,1579,1579
52903830,1000,1000,1000,1000,62928985,1578,1579,1579,1579
52906329,1000,1000,1000,1000,63028945,1580,1580,1580,1580
52908828,1000,1000,1000,1000,63128905,1579,1579,1579,1579
52911327,1000,1000,1000,1000,63228865,1580,1580,1580,1580
52913826,1000,1000,1000,1000,63328825,1579,1580,1579,1580
52916325,1000,1000,1000,1000,63428785,1581,1580,1580,1581
52918824,1000,1000,1000,1000,63528745,1580,1580,1580,1580
52921323,1000,1000,1000,1000,63628705,1580,1580,1580,1580
52923822,1000,1000,1000,1000,63728665,1581,1581,1580,1581
52926321,1000,1000,1000,1000,63828625,1581,1580,1580,1581
52928820,1000,1000,1000,1000,63928585,1579,1579,1580,1579
52931319,1000,1000,1000,1000,64028545,1581,1581,1582,1581
52933818,1000,1000,1000,1000,64128505,1580,1581,1581,1581
52936317,1000,1000,1000,1000,64228465,1581,1581,1581,1581
52938816,1000,1000,1000,1000,64328425,1581,1581,1581,1581
52941315,1000,1000,1000,1000,64428385,1580,1580,1580,1580
52943814,1000,1000,1000,1000,64528345,1581,1580,1580,1581
52946313,1000,1000,1000,1000,64628305,1580,1580,1580,1580
52948812,1000,1000,1000,1000,64728265,1580,1579,1580,1580
52951311,1000,1000,1000,1000,64828225,1581,1581,1581,1581
52953810,1000,1000,1000,1000,64928185,1581,1580,1581,1580
52956309,1000,1000,1000,1000,65028978,1581,1582,1588,1574
52958808,1000,1000,1000,1000,65128938,1580,1582,1586,1573
52961307,1000,1000,1000,1000,65228898,1579,1581,1578,1573
52963806,1000,1000,1000,1000,65328858,1577,1580,1569,1572
52966305,1000,1000,1000,1000,65428818,1577,1579,1561,1569
52968804,1000,1000,1000,1000,65528778,1577,1578,1556,1564
52971303,1000,1000,1000,1000,65628738,1579,1578,1556,1560
52973802,1000,1000,1000,1000,65728698,1579,1577,1555,1556
52976301,1000,1000,1000,1000,65828658,1580,1578,1556,1555
52978800,1000,1000,1000,1000,65928618,1578,1577,1556,1553
52981299,1000,1000,1000,1000,66028578,1577,1578,1556,1554
52983798,1000,1000,1000,1000,66128538,1575,1577,1555,1554
52986297,1000,1000,1000,1000,66228498,1574,1576,1554,1553
52988796,1000,1000,1000,1000,66328458,1575,1576,1553,1553
52991295,1000,1000,1000,1000,66428418,1574,1576,1551,1551
52993794,1000,1000,1000,1000,66528378,1575,1577,1550,1550
52996293,1000,1000,1000,1000,66628338,1578,1579,1548,1548
52998792,1000,1000,1000,1000,66728298,1580,1581,1546,1546
53001291,1000,1000,1000,1000,66828258,1583,1584,1543,1542
53003790,1000,1000,1000,1000,66928218,1587,1587,1540,1540
53006289,1000,1000,1000,1000,67028178,1589,1590,1537,1537
53008788,1000,1000,1000,1000,67128971,1592,1592,1535,1535
53011287,1000,1000,1000,1000,67228931,1594,1594,1534,1535
53013786,1000,1000,1000,1000,67328891,1594,1594,1534,1535
53016285,1000,1000,1000,1000,67428851,1594,1594,1536,1537
53018784,1000,1000,1000,1000,67528811,1592,1591,1538,1540
53021283,1000,1000,1000,1000,67628771,1589,1588,1544,1546
53023782,1000,1000,1000,1000,67728731,1584,1582,1551,1555
53026281,1000,1000,1000,1000,67828691,1576,1573,1560,1563
53028780,1000,1000,1000,1000,67928651,1568,1563,1573,1576
53031279,1000,1000,1000,1000,68028611,1556,1553,1585,1587
53033778,1000,1000,1000,1000,68128571,1545,1543,1597,1597
53036277,1000,1000,1000,1000,68228531,1535,1535,1606,1605
53038776,1000,1000,1000,1000,68328491,1530,1531,1612,1611
53041275,1000,1000,1000,1000,68428451,1528,1530,1615,1614
53043774,1000,1000,1000,1000,68528411,1531,1533,1614,1613
53046273,1000,1000,1000,1000,68628371,1537,1539,1611,1611
53048772,1000,1000,1000,1000,68728331,1543,1545,1604,1605
53051271,1000,1000,1000,1000,68828291,1551,1552,1597,1597
53053770,1000,1000,1000,1000,68928251,1562,1562,1591,1590
53056269,1000,1000,1000,1000,69028211,1336,1336,1587,1586
53058768,1000,1000,1000,1000,69128171,1423,1426,1627,1631
53061267,1000,1000,1000,1000,69228964,1479,1484,1621,1619
53063766,1000,1000,1000,1000,69328924,1530,1535,1606,1600
53066265,1000,1000,1000,1000,69428884,1569,1571,1593,1586
53068764,1000,1000,1000,1000,69528844,1596,1593,1584,1580
53071263,1000,1000,1000,1000,69628804,1614,1608,1580,1578
53073762,1000,1000,1000,1000,69728764,1629,1620,1569,1571
53076261,1000,1000,1000,1000,69828724,1648,1642,1546,1552
53078760,1000,1000,1000,1000,69928684,1662,1657,1528,1535
53081259,1000,1000,1000,1000,70028644,1657,1656,1531,1538
53083758,1000,1000,1000,1000,70128604,1646,1649,1541,1545
53086257,1000,1000,1000,1000,70228564,1636,1641,1551,1552
53088756,1000,1000,1000,1000,70328524,1627,1631,1557,1556
53091255,1000,1000,1000,1000,70428484,1620,1623,1563,1559
53093754,1000,1000,1000,1000,70528444,1615,1612,1569,1565
53096253,1000,1000,1000,1000,70628404,1602,1595,1582,1580
53098752,1000,1000,1000,1000,70728364,1584,1576,1597,1597
53101251,1000,1000,1000,1000,70828324,1566,1563,1608,1609
53103750,1000,1000,1000,1000,70928284,1555,1555,1611,1613
53106249,1000,1000,1000,1000,71028244,1550,1555,1611,1611
53108748,1000,1000,1000,1000,71128204,1549,1555,1606,1605
53111247,1000,1000,1000,1000,71228164,1551,1558,1601,1599
53113746,1000,1000,1000,1000,71328957,1557,1562,1597,1594
53116245,1000,1000,1000,1000,71428917,1563,1565,1592,1589
53118744,1000,1000,1000,1000,71528877,1568,1568,1586,1584
53121243,1000,1000,1000,1000,71628837,1574,1572,1582,1581
53123742,1000,1000,1000,1000,71728797,1577,1575,1578,1578
53126241,1000,1000,1000,1000,71828757,1580,1578,1575,1576
53128740,1000,1000,1000,1000,71928717,1583,1582,1571,1573
53131239,1000,1000,1000,1000,72028677,1588,1588,1567,1568
53133738,1000,1000,1000,1000,72128637,1592,1592,1564,1564
53136237,1000,1000,1000,1000,72228597,1594,1595,1562,1562
53138736,1000,1000,1000,1000,72328557,1595,1595,1563,1563
53141235,1000,1000,1000,1000,72428517,1594,1594,1566,1566
53143734,1000,1000,1000,1000,72528477,1591,1590,1570,1570
53146233,1000,1000,1000,1000,72628437,1586,1585,1574,1574
53148732,1000,1000,1000,1000,72728397,1582,1581,1579,1579
53151231,1000,1000,1000,1000,72828357,1579,1579,1582,1583
53153730,1000,1000,1000,1000,72928317,1577,1577,1583,1583
53156229,1000,1000,1000,1000,73028277,1577,1576,1589,1578
53158728,1000,1000,1000,1000,73128237,1579,1576,1590,1577
53161227,1000,1000,1000,1000,73228197,1578,1575,1581,1576
53163726,1000,1000,1000,1000,73328157,1577,1574,1572,1574
53166225,1000,1000,1000,1000,73428950,1574,1574,1564,1569
53168724,1000,1000,1000,1000,73528910,1572,1576,1560,1564
53171223,1000,1000,1000,1000,73628870,1571,1576,1558,1559
53173722,1000,1000,1000,1000,73728830,1573,1576,1558,1557
53176221,1000,1000,1000,1000,73828790,1574,1576,1558,1555
53178720,1000,1000,1000,1000,73928750,1575,1575,1556,1554
53181219,1000,1000,1000,1000,74028710,1575,1575,1555,1553
53183718,1000,1000,1000,1000,74128670,1575,1575,1553,1552
53186217,1000,1000,1000,1000,74228630,1575,1574,1550,1550
53188716,1000,1000,1000,1000,74328590,1575,1575,1548,1549
53191215,1000,1000,1000,1000,74428550,1575,1576,1547,1547
53193714,1000,1000,1000,1000,74528510,1575,1577,1544,1545
53196213,1000,1000,1000,1000,74628470,1576,1578,1543,1543
53198712,1000,1000,1000,1000,74728430,1579,1580,1543,1541
53201211,1000,1000,1000,1000,74828390,1580,1582,1540,1539
53203710,1000,1000,1000,1000,74928350,1583,1584,1539,1539
53206209,1000,1000,1000,1000,75028310,1585,1586,1537,1537
53208708,1000,1000,1000,1000,75128270,1588,1588,1536,1537
53211207,1000,1000,1000,1000,75228230,1590,1590,1536,1537
53213706,1000,1000,1000,1000,75328190,1590,1590,1536,1538
53216205,1000,1000,1000,1000,75428983,1590,1590,1538,1541
53218704,1000,1000,1000,1000,75528943,1589,1588,1541,1544
53221203,1000,1000,1000,1000,75628903,1587,1585,1546,1549
53223702,1000,1000,1000,1000,75728863,1582,1581,1550,1553
53226201,1000,1000,1000,1000,75828823,1576,1575,1555,1559
53228700,1000,1000,1000,1000,75928783,1571,1570,1562,1566
53231199,1000,1000,1000,1000,76028743,1565,1564,1569,1572
53233698,1000,1000,1000,1000,76128703,1559,1558,1575,1577
53236197,1000,1000,1000,1000,76228663,1553,1553,1582,1582
53238696,1000,1000,1000,1000,76328623,1548,1547,1588,1587
53241195,1000,1000,1000,1000,76428583,1544,1543,1593,1592
53243694,1000,1000,1000,1000,76528543,1540,1540,1597,1596
53246193,1000,1000,1000,1000,76628503,1538,1538,1600,1599
53248692,1000,1000,1000,1000,76728463,1536,1537,1602,1602
53251191,1000,1000,1000,1000,76828423,1537,1539,1604,1603
53253690,1000,1000,1000,1000,76928383,1540,1542,1602,1602
53256189,1000,1000,1000,1000,77028343,1544,1546,1598,1598
53258688,1000,1000,1000,1000,77128303,1550,1552,1593,1593
53261187,1000,1000,1000,1000,77228263,1557,1558,1587,1587
53263686,1000,1000,1000,1000,77328223,1565,1565,1582,1582
53266185,1000,1000,1000,1000,77428183,1571,1571,1578,1577
53268684,1000,1000,1000,1000,77528976,1576,1575,1575,1574
53271183,1000,1000,1000,1000,77628936,1581,1579,1574,1573
53273682,1000,1000,1000,1000,77728896,1584,1583,1573,1572
53276181,1000,1000,1000,1000,77828856,1586,1584,1572,1572
53278680,1000,1000,1000,1000,77928816,1586,1585,1571,1572
53281179,1000,1000,1000,1000,78028776,1585,1584,1570,1571
53283678,1000,1000,1000,1000,78128736,1584,1584,1571,1571
53286177,1000,1000,1000,1000,78228696,1584,1583,1572,1573
53288676,1000,1000,1000,1000,78328656,1583,1583,1574,1574
53291175,1000,1000,1000,1000,78428616,1582,1582,1575,1575
53293674,1000,1000,1000,1000,78528576,1581,1582,1576,1576
53296173,1000,1000,1000,1000,78628536,1581,1582,1578,1578
53298672,1000,1000,1000,1000,78728496,1580,1580,1578,1578
53301171,1000,1000,1000,1000,78828456,1580,1580,1579,1580
53303670,1000,1000,1000,1000,78928416,1579,1579,1580,1580
53306169,1000,1000,1000,1000,79028376,1578,1578,1580,1580
53308668,1000,1000,1000,1000,79128336,1578,1578,1581,1581
53311167,1000,1000,1000,1000,79228296,1577,1577,1580,1580
53313666,1000,1000,1000,1000,79328256,1578,1578,1582,1582
53316165,1000,1000,1000,1000,79428216,1579,1579,1582,1582
53318664,1000,1000,1000,1000,79528176,1579,1579,1581,1582
53321163,1000,1000,1000,1000,79628969,1578,1578,1580,1580
53323662,1000,1000,1000,1000,79728929,1578,1578,1580,1580
53326161,1000,1000,1000,1000,79828889,1578,1578,1579,1580
53328660,1000,1000,1000,1000,79928849,1579,1579,1580,1580
53331159,1000,1000,1000,1000,80028809,1580,1580,1580,1579
53333658,1000,1000,1000,1000,80128769,1580,1580,1580,1580
53336157,1000,1000,1000,1000,80228729,1580,1581,1580,1580
53338656,1000,1000,1000,1000,80328689,1581,1581,1580,1579
53341155,1000,1000,1000,1000,80428649,1582,1581,1580,1580
53343654,1000,1000,1000,1000,80528609,1582,1581,1580,1581
53346153,1000,1000,1000,1000,80628569,1582,1582,1581,1580
53348652,1000,1000,1000,1000,80728529,1582,1582,1581,1580
53351151,1000,1000,1000,1000,80828489,1581,1582,1580,1580
53353650,1000,1000,1000,1000,80928449,1581,1581,1580,1580
53356149,1000,1000,1000,1000,81028409,1582,1582,1581,1581
53358648,1000,1000,1000,1000,81128369,1581,1581,1580,1580
53361147,1000,1000,1000,1000,81228329,1581,1581,1581,1581
53363646,1000,1000,1000,1000,81328289,1582,1581,1582,1581
53366145,1000,1000,1000,1000,81428249,1582,1582,1581,1582
53368644,1000,1000,1000,1000,81528209,1582,1582,1582,1582
53371143,1000,1000,1000,1000,81628169,1582,1582,1582,1582
53373642,1000,1000,1000,1000,81728962,1581,1582,1582,1581
53376141,1000,1000,1000,1000,81828922,1582,1582,1586,1578
53378640,1000,1000,1000,1000,81928882,1582,1582,1589,1574
53381139,1000,1000,1000,1000,82028842,1580,1581,1581,1573
53383638,1000,1000,1000,1000,82128802,1578,1579,1571,1571
53386137,1000,1000,1000,1000,82228762,1576,1579,1563,1569
53388636,1000,1000,1000,1000,82328722,1576,1578,1558,1565
53391135,1000,1000,1000,1000,82428682,1576,1578,1556,1561
53393634,1000,1000,1000,1000,82528642,1577,1577,1556,1557
53396133,1000,1000,1000,1000,82628602,1577,1577,1556,1556
53398632,1000,1000,1000,1000,82728562,1577,1576,1556,1554
53401131,1000,1000,1000,1000,82828522,1577,1576,1556,1554
53403630,1000,1000,1000,1000,82928482,1576,1576,1556,1554
53406129,1000,1000,1000,1000,83028442,1576,1576,1555,1554
53408628,1000,1000,1000,1000,83128402,1575,1576,1553,1553
53411127,1000,1000,1000,1000,83228362,1575,1577,1552,1552
53413626,1000,1000,1000,1000,83328322,1575,1577,1551,1551
53416125,1000,1000,1000,1000,83428282,1577,1578,1550,1550
53418624,1000,1000,1000,1000,83528242,1578,1579,1548,1548
53421123,1000,1000,1000,1000,83628202,1580,1581,1546,1546
53423622,1000,1000,1000,1000,83728162,1581,1582,1543,1543
53426121,1000,1000,1000,1000,83828955,1584,1585,1542,1541
53428620,1000,1000,1000,1000,83928915,1587,1587,1541,1540
53431119,1000,1000,1000,1000,84028875,1588,1588,1538,1538
53433618,1000,1000,1000,1000,84128835,1590,1590,1538,1539
53436117,1000,1000,1000,1000,84228795,1591,1590,1538,1540
53438616,1000,1000,1000,1000,84328755,1591,1590,1540,1543
53441115,1000,1000,1000,1000,84428715,1589,1589,1541,1544
53443614,1000,1000,1000,1000,84528675,1587,1586,1545,1548
53446113,1000,1000,1000,1000,84628635,1584,1582,1551,1554
53448612,1000,1000,1000,1000,84728595,1579,1576,1559,1561
53451111,1000,1000,1000,1000,84828555,1572,1568,1568,1571
53453610,1000,1000,1000,1000,84928515,1564,1560,1581,1582
53456109,1000,1000,1000,1000,85028475,1553,1551,1591,1592
53458608,1000,1000,1000,1000,85128435,1545,1543,1601,1601
53461107,1000,1000,1000,1000,85228395,1537,1537,1607,1607
53463606,1000,1000,1000,1000,85328355,1533,1534,1612,1611
53466105,1000,1000,1000,1000,85428315,1532,1533,1612,1612
53468604,1000,1000,1000,1000,85528275,1532,1535,1609,1609
53471103,1000,1000,1000,1000,85628235,1537,1540,1605,1605
53473602,1000,1000,1000,1000,85728195,1543,1545,1598,1598
53476101,1000,1000,1000,1000,85828155,1552,1553,1592,1592
53478600,1000,1000,1000,1000,85928948,1561,1561,1587,1586
53481099,1000,1000,1000,1000,86028908,1569,1568,1580,1579
53483598,1000,1000,1000,1000,86128868,1575,1574,1573,1572
53486097,1000,1000,1000,1000,86228828,1581,1580,1569,1569
53488596,1000,1000,1000,1000,86328788,1585,1583,1566,1566
53491095,1000,1000,1000,1000,86428748,1588,1586,1565,1565
53493594,1000,1000,1000,1000,86528708,1588,1587,1565,1566
53496093,1000,1000,1000,1000,86628668,1587,1586,1566,1566
53498592,1000,1000,1000,1000,86728628,1586,1585,1568,1568
53501091,1000,1000,1000,1000,86828588,1584,1584,1572,1573
53503590,1000,1000,1000,1000,86928548,1582,1582,1575,1575
53506089,1000,1000,1000,1000,87028508,1579,1579,1578,1578
53508588,1000,1000,1000,1000,87128468,1578,1578,1581,1581
53511087,1000,1000,1000,1000,87228428,1575,1576,1583,1582
53513586,1000,1000,1000,1000,87328388,1574,1574,1584,1583
53516085,1000,1000,1000,1000,87428348,1574,1575,1585,1585
53518584,1000,1000,1000,1000,87528308,1573,1574,1584,1585
53521083,1000,1000,1000,1000,87628268,1573,1575,1584,1584
53523582,1000,1000,1000,1000,87728228,1575,1576,1584,1584
53526081,1000,1000,1000,1000,87828188,1575,1575,1581,1581
53528580,1000,1000,1000,1000,87928981,1577,1577,1581,1580
53531079,1000,1000,1000,1000,88028941,1578,1578,1579,1579
53533578,1000,1000,1000,1000,88128901,1580,1580,1579,1580
53536077,1000,1000,1000,1000,88228861,1581,1581,1578,1579
53538576,1000,1000,1000,1000,88328821,1581,1581,1577,1577
53541075,1000,1000,1000,1000,88428781,1583,1582,1578,1578
53543574,1000,1000,1000,1000,88528741,1582,1583,1578,1578
53546073,1000,1000,1000,1000,88628701,1583,1583,1578,1578
53548572,1000,1000,1000,1000,88728661,1582,1582,1579,1579
53551071,1000,1000,1000,1000,88828621,1582,1582,1579,1579
53553570,1000,1000,1000,1000,88928581,1581,1581,1579,1579
53556069,1000,1000,1000,1000,89028541,1580,1580,1579,1579
53558568,1000,1000,1000,1000,89128501,1581,1581,1580,1581
53561067,1000,1000,1000,1000,89228461,1580,1580,1580,1580
53563566,1000,1000,1000,1000,89328421,1580,1579,1581,1581
53566065,1000,1000,1000,1000,89428381,1580,1580,1581,1581
53568564,1000,1000,1000,1000,89528341,1579,1579,1581,1581
53571063,1000,1000,1000,1000,89628301,1579,1580,1581,1581
53573562,1000,1000,1000,1000,89728261,1580,1579,1581,1581
53576061,1000,1000,1000,1000,89828221,1580,1580,1581,1581
53578560,1000,1000,1000,1000,89928181,1581,1581,1583,1580
53581059,1000,1000,1000,1000,90028974,1581,1581,1589,1574
53583558,1000,1000,1000,1000,90128934,1580,1580,1584,1574
53586057,1000,1000,1000,1000,90228894,1578,1578,1576,1575
53588556,1000,1000,1000,1000,90328854,1575,1574,1569,1574
53591055,1000,1000,1000,1000,90428814,1572,1572,1565,1573
53593554,1000,1000,1000,1000,90528774,1570,1570,1564,1571
53596053,1000,1000,1000,1000,90628734,1568,1569,1565,1567
53598552,1000,1000,1000,1000,90728694,1567,1568,1566,1566
53601051,1000,1000,1000,1000,90828654,1566,1567,1568,1565
53603550,1000,1000,1000,1000,90928614,1566,1566,1568,1565
53606049,1000,1000,1000,1000,91028574,1565,1565,1567,1565
53608548,1000,1000,1000,1000,91128534,1564,1564,1566,1565
53611047,1000,1000,1000,1000,91228494,1563,1563,1565,1564
53613546,1000,1000,1000,1000,91328454,1562,1562,1563,1564
53616045,1000,1000,1000,1000,91428414,1561,1561,1563,1563
53618544,1000,1000,1000,1000,91528374,1561,1561,1562,1562
53621043,1000,1000,1000,1000,91628334,1560,1560,1562,1561
53623542,1000,1000,1000,1000,91728294,1560,1560,1561,1561
53626041,1000,1000,1000,1000,91828254,1560,1560,1560,1560
53628540,1000,1000,1000,1000,91928214,1560,1560,1560,1559
53631039,1000,1000,1000,1000,92028174,1559,1559,1559,1558
53633538,1000,1000,1000,1000,92128967,1559,1559,1559,1558
53636037,1000,1000,1000,1000,92228927,1559,1559,1559,1558
53638536,1000,1000,1000,1000,92328887,1559,1559,1559,1559
53641035,1000,1000,1000,1000,92428847,1558,1558,1558,1557
53643534,1000,1000,1000,1000,92528807,1557,1556,1557,1555
53646033,1000,1000,1000,1000,92628767,1555,1555,1556,1552
53648532,1000,1000,1000,1000,92728727,1555,1554,1555,1553
53651031,1000,1000,1000,1000,92828687,1553,1552,1551,1553
53653530,1000,1000,1000,1000,92928647,1550,1551,1547,1552
53656029,1000,1000,1000,1000,93028607,1546,1547,1542,1548
53658528,1000,1000,1000,1000,93128567,1541,1541,1536,1542
53661027,1000,1000,1000,1000,93228527,1535,1535,1531,1533
53663526,1000,1000,1000,1000,93328487,1528,1528,1524,1525
53666025,1000,1000,1000,1000,93428447,1524,1524,1521,1520
53668524,1000,1000,1000,1000,93528407,1522,1522,1520,1520
53671023,1000,1000,1000,1000,93628367,1521,1521,1522,1521
53673522,1000,1000,1000,1000,93728327,1522,1521,1523,1524
53676021,1000,1000,1000,1000,93828287,1524,1524,1528,1528
53678520,1000,1000,1000,1000,93928247,1528,1527,1532,1534
53681019,1000,1000,1000,1000,94028207,1532,1532,1538,1539
53683518,1000,1000,1000,1000,94128167,1535,1535,1541,1542
53686017,1000,1000,1000,1000,94228960,1539,1539,1544,1545
53688516,1000,1000,1000,1000,94328920,1541,1541,1545,1545
53691015,1000,1000,1000,1000,94428880,1544,1544,1546,1546
53693514,1000,1000,1000,1000,94528840,1545,1545,1545,1545
53696013,1000,1000,1000,1000,94628800,1547,1547,1546,1545
53698512,1000,1000,1000,1000,94728760,1547,1547,1545,1544
53701011,1000,1000,1000,1000,94828720,1548,1549,1545,1545
53703510,1000,1000,1000,1000,94928680,1549,1549,1545,1545
53706009,1000,1000,1000,1000,95028640,1549,1549,1545,1545
53708508,1000,1000,1000,1000,95128600,1549,1549,1545,1545
53711007,1000,1000,1000,1000,95228560,1548,1548,1545,1546
53713506,1000,1000,1000,1000,95328520,1547,1547,1544,1544
53716005,1000,1000,1000,1000,95428480,1547,1547,1546,1545
53718504,1000,1000,1000,1000,95528440,1546,1545,1545,1545
53721003,1000,1000,1000,1000,95628400,1545,1545,1545,1545
53723502,1000,1000,1000,1000,95728360,1544,1545,1545,1545
53726001,1000,1000,1000,1000,95828320,1544,1544,1546,1545
53728500,1000,1000,1000,1000,95928280,1544,1544,1545,1545
53730999,1000,1000,1000,1000,96028240,1543,1543,1545,1544
53733498,1000,1000,1000,1000,96128200,1544,1544,1546,1546
53735997,1000,1000,1000,1000,96228160,1543,1543,1545,1545
53738496,1000,1000,1000,1000,96328953,1544,1543,1545,1545
53740995,1000,1000,1000,1000,96428913,1543,1544,1544,1544
53743494,1000,1000,1000,1000,96528873,1544,1543,1544,1544
53745993,1000,1000,1000,1000,96628833,1544,1543,1544,1544
53748492,1000,1000,1000,1000,96728793,1545,1544,1545,1544
53750991,1000,1000,1000,1000,96828753,1544,1545,1544,1544
53753490,1000,1000,1000,1000,96928713,1544,1544,1544,1543
53755989,1000,1000,1000,1000,97028673,1544,1545,1544,1544
53758488,1000,1000,1000,1000,97128633,1544,1544,1543,1543
53760987,1000,1000,1000,1000,97228593,1544,1544,1543,1543
53763486,1000,1000,1000,1000,97328553,1544,1544,1543,1544
53765985,1000,1000,1000,1000,97428513,1545,1545,1545,1545
53768484,1000,1000,1000,1000,97528473,1545,1545,1544,1545
53770983,1000,1000,1000,1000,97628433,1544,1544,1544,1544
53773482,1000,1000,1000,1000,97728393,1545,1544,1545,1544
53775981,1000,1000,1000,1000,97828353,1545,1545,1545,1545
53778480,1000,1000,1000,1000,97928313,1545,1544,1545,1545
53780979,1000,1000,1000,1000,98028273,1544,1545,1544,1545
53783478,1000,1000,1000,1000,98128233,1545,1545,1545,1546
53785977,1000,1000,1000,1000,98228193,1545,1545,1545,1545
53788476,1000,1000,1000,1000,98328986,1545,1545,1545,1545
53790975,1000,1000,1000,1000,98428946,1544,1544,1544,1544
53793474,1000,1000,1000,1000,98528906,1545,1544,1544,1545
53795973,1000,1000,1000,1000,98628866,1544,1544,1544,1544
53798472,1000,1000,1000,1000,98728826,1544,1544,1544,1544
53800971,1000,1000,1000,1000,98828786,1543,1544,1543,1543
53803470,1000,1000,1000,1000,98928746,1544,1544,1544,1543
53805969,1000,1000,1000,1000,99028706,1543,1544,1543,1544
53808468,1000,1000,1000,1000,99128666,1544,1544,1543,1544
53810967,1000,1000,1000,1000,99228626,1544,1544,1544,1544
53813466,1000,1000,1000,1000,99328586,1544,1544,1544,1544
53815965,1000,1000,1000,1000,99428546,1544,1544,1544,1544
53818464,1000,1000,1000,1000,99528506,1544,1544,1544,1544
53820963,1000,1000,1000,1000,99628466,1543,1544,1544,1544
53823462,1000,1000,1000,1000,99728426,1544,1544,1544,1544
53825961,1000,1000,1000,1000,99828386,1544,1544,1544,1544
53828460,1000,1000,1000,1000,99928346,1544,1544,1544,1544
53830959,1000,1000,1000,1000,100028306,1544,1544,1544,1544
53833458,1000,1000,1000,1000,100128266,1544,1544,1545,1544
53835957,1000,1000,1000,1000,100228226,1544,1545,1544,1544
53838456,1000,1000,1000,1000,100328186,1544,1545,1544,1544
53840955,1000,1000,1000,1000,100428979,1544,1544,1544,1544
53843454,1000,1000,1000,1000,100528939,1545,1544,1544,1544
53845953,1000,1000,1000,1000,100628899,1544,1544,1544,1545
53848452,1000,1000,1000,1000,100728859,1545,1544,1544,1545
53850951,1000,1000,1000,1000,100828819,1545,1545,1545,1545
53853450,1000,1000,1000,1000,100928779,1545,1545,1545,1545
53855949,1000,1000,1000,1000,101028739,1545,1545,1545,1545
53858448,1000,1000,1000,1000,101128699,1545,1545,1545,1545
53860947,1000,1000,1000,1000,101228659,1545,1545,1545,1545
53863446,1000,1000,1000,1000,101328619,1545,1545,1545,1545
53865945,1000,1000,1000,1000,101428579,1544,1544,1544,1544
53868444,1000,1000,1000,1000,101528539,1544,1544,1544,1544
53870943,1000,1000,1000,1000,101628499,1544,1544,1544,1543
53873442,1000,1000,1000,1000,101728459,1544,1544,1544,1544
53875941,1000,1000,1000,1000,101828419,1545,1545,1545,1545
53878440,1000,1000,1000,1000,101928379,1544,1544,1545,1545
53880939,1000,1000,1000,1000,102028339,1544,1544,1544,1545
53883438,1000,1000,1000,1000,102128299,1545,1544,1545,1545
53885937,1000,1000,1000,1000,102228259,1544,1544,1545,1544
53888436,1000,1000,1000,1000,102328219,1544,1544,1544,1544
53890935,1000,1000,1000,1000,102428179,1544,1544,1544,1544
53893434,1000,1000,1000,1000,102528972,1544,1544,1544,1544
53895933,1000,1000,1000,1000,102628932,1544,1544,1544,1544
53898432,1000,1000,1000,1000,102728892,1544,1544,1544,1544
53900931,1000,1000,1000,1000,102828852,1544,1544,1545,1544
53903430,1000,1000,1000,1000,102928812,1544,1544,1545,1544
53905929,1000,1000,1000,1000,103028772,1544,1545,1545,1544
53908428,1000,1000,1000,1000,103128732,1454,1454,1423,1422
53910927,1000,1000,1000,1000,103228692,1358,1360,1281,1282
53913426,1000,1000,1000,1000,103328652,1326,1326,1227,1229
53915925,1000,1000,1000,1000,103428612,1314,1315,1208,1207
53918424,1000,1000,1000,1000,103528572,1295,1294,1171,1171
53920923,1000,1000,1000,1000,103628532,1269,1269,1151,1150
53923422,1000,1000,1000,1000,103728492,1141,1140,1150,1150
53925921,1000,1000,1000,1000,103828452,1075,1075,1150,1150
53928420,1000,1000,1000,1000,103928412,1076,1075,1150,1150
53930919,1000,1000,1000,1000,104028372,1075,1075,1150,1150
53933418,1000,1000,1000,1000,104128332,1075,1061,1150,1170
53935917,1000,1000,1000,1000,104228292,1075,1066,1150,1163
53938416,1000,1000,1000,1000,104328252,1075,1069,1150,1159
53940915,1000,1000,1000,1000,104428212,1075,1069,1150,1158
53943414,1000,1000,1000,1000,104528172,1075,1069,1150,1158
53945913,1000,1000,1000,1000,104628965,1075,1069,1150,1158
53948412,1000,1000,1000,1000,104728925,1075,1068,1150,1159
53950911,1000,1000,1000,1000,104828885,1075,1068,1150,1159
53953410,1000,1000,1000,1000,104928845,1075,1075,1150,1150
53955909,1000,1000,1000,1000,105028805,1075,1074,1150,1151
53958408,1000,1000,1000,1000,105128765,1076,1074,1150,1151
53960907,1000,1000,1000,1000,105228725,1075,1074,1150,1151
53963406,1000,1000,1000,1000,105328685,1075,1074,1150,1152
53965905,1000,1000,1000,1000,105428645,1000,1000,1000,1000
53968404,1000,1000,1000,1000,105528605,1000,1000,1000,1000
53970903,1000,1000,1000,1000,105628565,1000,1000,1000,1000
53973402,1000,1000,1000,1000,105728525,1000,1000,1000,1000
53975901,1000,1000,1000,1000,105828485,1000,1000,1000,1000
53978400,1000,1000,1000,1000,105928445,1000,1000,1000,1000
53980899,1000,1000,1000,1000,106028405,1000,1000,1000,1000
53983398,1000,1000,1000,1000,106128365,1000,1000,1000,1000
53985897,1000,1000,1000,1000,106228325,1000,1000,1000,1000
53988396,1000,1000,1000,1000,106328285,1000,1000,1000,1000
53990895,1000,1000,1000,1000,106428245,1000,1000,1000,1000
53993394,1000,1000,1000,1000,106528205,1000,1000,1000,1000
53995893,1000,1000,1000,1000,106628165,1000,1000,1000,1000
53998392,1000,1000,1000,1000,106728958,1000,1000,1000,1000
54000891,1000,1000,1000,1000,106828918,1000,1000,1000,1000
54003390,1000,1000,1000,1000,106928878,1000,1000,1000,1000
54005889,1000,1000,1000,1000,107028838,1000,1000,1000,1000
54008388,1000,1000,1000,1000,107128798,1000,1000,1000,1000
54010887,1000,1000,1000,1000,107228758,1000,1000,1000,1000
54013386,1000,1000,1000,1000,107328718,1000,1000,1000,1000
54015885,1000,1000,1000,1000,107428678,1000,1000,1000,1000
54018384,1000,1000,1000,1000,107528638,1000,1000,1000,1000
54020883,1000,1000,1000,1000,107628598,1000,1000,1000,1000
54023382,1000,1000,1000,1000,107728558,1000,1000,1000,1000
54025881,1000,1000,1000,1000,107828518,1000,1000,1000,1000
54028380,1000,1000,1000,1000,107928478,1000,1000,1000,1000
54030879,1000,1000,1000,1000,108028438,1000,1000,1000,1000
54033378,1000,1000,1000,1000,108128398,1000,1000,1000,1000
54035877,1000,1000,1000,1000,108228358,1000,1000,1000,1000
54038376,1000,1000,1000,1000,108328318,1000,1000,1000,1000
54040875,1000,1000,1000,1000,108428278,1000,1000,1000,1000
54043374,1000,1000,1000,1000,108528238,1000,1000,1000,1000
54045873,1000,1000,1000,1000,108628198,1000,1000,1000,1000
54048372,1000,1000,1000,1000,108728158,1000,1000,1000,1000
54050871,1000,1000,1000,1000,108828951,1000,1000,1000,1000
54053370,1000,1000,1000,1000,108928911,1000,1000,1000,1000
54055869,1000,1000,1000,1000,109028871,1000,1000,1000,1000
54058368,1000,1000,1000,1000,109128831,1000,1000,1000,1000
54060867,1000,1000,1000,1000,109228791,1000,1000,1000,1000
54063366,1000,1000,1000,1000,109328751,1000,1000,1000,1000
54065865,1000,1000,1000,1000,109428711,1000,1000,1000,1000
54068364,1000,1000,1000,1000,109528671,1000,1000,1000,1000
54070863,1000,1000,1000,1000,109628631,1000,1000,1000,1000
54073362,1000,1000,1000,1000,109728591,1000,1000,1000,1000
54075861,1000,1000,1000,1000,109828551,1000,1000,1000,1000
54078360,1000,1000,1000,1000,109928511,1000,1000,1000,1000
54080859,1000,1000,1000,1000,110028471,1000,1000,1000,1000
54083358,1000,1000,1000,1000,110128431,1000,1000,1000,1000
54085857,1000,1000,1000,1000,110228391,1000,1000,1000,1000
54088356,1000,1000,1000,1000,110328351,1000,1000,1000,1000
54090855,1000,1000,1000,1000,110428311,1000,1000,1000,1000
54093354,1000,1000,1000,1000,110528271,1000,1000,1000,1000
54095853,1000,1000,1000,1000,110628231,1000,1000,1000,1000
54098352,1000,1000,1000,1000,110728191,1000,1000,1000,1000
54100851,1000,1000,1000,1000,110828984,1000,1000,1000,1000
54103350,1000,1000,1000,1000,110928944,1000,1000,1000,1000
54105849,1000,1000,1000,1000,111028904,1000,1000,1000,1000
54108348,1000,1000,1000,1000,111128864,1000,1000,1000,1000
54110847,1000,1000,1000,1000,111228824,1000,1000,1000,1000
54113346,1000,1000,1000,1000,111328784,1000,1000,1000,1000
54115845,1000,1000,1000,1000,111428744,1000,1000,1000,1000
54118344,1000,1000,1000,1000,111528704,1000,1000,1000,1000
54120843,1000,1000,1000,1000,111628664,1000,1000,1000,1000
54123342,1000,1000,1000,1000,111728624,1000,1000,1000,1000
54125841,1000,1000,1000,1000,111828584,1000,1000,1000,1000
54128340,1000,1000,1000,1000,111928544,1000,1000,1000,1000
54130839,1000,1000,1000,1000,112028504,1000,1000,1000,1000
54133338,1000,1000,1000,1000,112128464,1000,1000,1000,1000
54135837,1000,1000,1000,1000,112228424,1000,1000,1000,1000
54138336,1000,1000,1000,1000,112328384,1000,1000,1000,1000
54140835,1000,1000,1000,1000,112428344,1000,1000,1000,1000
54143334,1000,1000,1000,1000,112528304,1000,1000,1000,1000
54145833,1000,1000,1000,1000,112628264,1000,1000,1000,1000
54148332,1000,1000,1000,1000,112728224,1000,1000,1000,1000
54150831,1000,1000,1000,1000,112828184,1000,1000,1000,1000
54153330,1000,1000,1000,1000,112928977,1000,1000,1000,1000
54155829,1000,1000,1000,1000,113028937,1000,1000,1000,1000
54158328,1000,1000,1000,1000,113128897,1000,1000,1000,1000
54160827,1000,1000,1000,1000,113228857,1000,1000,1000,1000
54163326,1000,1000,1000,1000,113328817,1000,1000,1000,1000
54165825,1000,1000,1000,1000,113428777,1000,1000,1000,1000
54168324,1000,1000,1000,1000,113528737,1000,1000,1000,1000
54170823,1000,1000,1000,1000,113628697,1000,1000,1000,1000
54173322,1000,1000,1000,1000,113728657,1000,1000,1000,1000
54175821,1000,1000,1000,1000,113828617,1000,1000,1000,1000
54178320,1000,1000,1000,1000,113928577,1000,1000,1000,1000
54180819,1000,1000,1000,1000,114028537,1000,1000,1000,1000
54183318,1000,1000,1000,1000,114128497,1000,1000,1000,1000
54185817,1000,1000,1000,1000,114228457,1000,1000,1000,1000
54188316,1000,1000,1000,1000,,,,,
54190815,1000,1000,1000,1000,,,,,
54193314,1000,1000,1000,1000,,,,,
54195813,1000,1000,1000,1000,,,,,
54198312,1000,1000,1000,1000,,,,,
54200811,1000,1000,1000,1000,,,,,
54203310,1000,1000,1000,1000,,,,,
54205809,1000,1000,1000,1000,,,,,
54208308,1000,1000,1000,1000,,,,,
54210807,1000,1000,1000,1000,,,,,
54213306,1000,1000,1000,1000,,,,,
54215805,1000,1000,1000,1000,,,,,
54218304,1000,1000,1000,1000,,,,,
54220803,1000,1000,1000,1000,,,,,
54223302,1000,1000,1000,1000,,,,,
54225801,1000,1000,1000,1000,,,,,
54228300,1000,1000,1000,1000,,,,,
54230799,1000,1000,1000,1000,,,,,
54233298,1000,1000,1000,1000,,,,,
54235797,1000,1000,1000,1000,,,,,
54238296,1000,1000,1000,1000,,,,,
54240795,1000,1000,1000,1000,,,,,
54243294,1000,1000,1000,1000,,,,,
54245793,1000,1000,1000,1000,,,,,
54248292,1000,1000,1000,1000,,,,,
54250791,1000,1000,1000,1000,,,,,
54253290,1000,1000,1000,1000,,,,,
54255789,1000,1000,1000,1000,,,,,
54258288,1000,1000,1000,1000,,,,,
54260787,1000,1000,1000,1000,,,,,
54263286,1000,1000,1000,1000,,,,,
54265785,1000,1000,1000,1000,,,,,
54268284,1000,1000,1000,1000,,,,,
54270783,1000,1000,1000,1000,,,,,
54273282,1000,1000,1000,1000,,,,,
54275781,1000,1000,1000,1000,,,,,
54278280,1000,1000,1000,1000,,,,,
54280779,1000,1000,1000,1000,,,,,
54283278,1000,1000,1000,1000,,,,,
54285777,1000,1000,1000,1000,,,,,
54288276,1000,1000,1000,1000,,,,,
54290775,1000,1000,1000,1000,,,,,
54293274,1000,1000,1000,1000,,,,,
54295773,1000,1000,1000,1000,,,,,
54298272,1000,1000,1000,1000,,,,,
54300771,1000,1000,1000,1000,,,,,
54303270,1000,1000,1000,1000,,,,,
54305769,1000,1000,1000,1000,,,,,
54308268,1000,1000,1000,1000,,,,,
54310767,1000,1000,1000,1000,,,,,
54313266,1000,1000,1000,1000,,,,,
54315765,1000,1000,1000,1000,,,,,
54318264,1000,1000,1000,1000,,,,,
54320763,1000,1000,1000,1000,,,,,
54323262,1000,1000,1000,1000,,,,,
54325761,1000,1000,1000,1000,,,,,
54328260,1000,1000,1000,1000,,,,,
54330759,1000,1000,1000,1000,,,,,
54333258,1000,1000,1000,1000,,,,,
54335757,1000,1000,1000,1000,,,,,
54338256,1000,1000,1000,1000,,,,,
54340755,1000,1000,1000,1000,,,,,
54343254,1000,1000,1000,1000,,,,,
54345753,1000,1000,1000,1000,,,,,
54348252,1000,1000,1000,1000,,,,,
54350751,1000,1000,1000,1000,,,,,
54353250,1000,1000,1000,1000,,,,,
54355749,1000,1000,1000,1000,,,,,
54358248,1000,1000,1000,1000,,,,,
54360747,1000,1000,1000,1000,,,,,
54363246,1000,1000,1000,1000,,,,,
54365745,1000,1000,1000,1000,,,,,
54368244,1000,1000,1000,1000,,,,,
54370743,1000,1000,1000,1000,,,,,
54373242,1000,1000,1000,1000,,,,,
54375741,1000,1000,1000,1000,,,,,
54378240,1000,1000,1000,1000,,,,,
54380739,1000,1000,1000,1000,,,,,
54383238,1000,1000,1000,1000,,,,,
54385737,1000,1000,1000,1000,,,,,
54388236,1000,1000,1000,1000,,,,,
54390735,1000,1000,1000,1000,,,,,
54393234,1000,1000,1000,1000,,,,,
54395733,1000,1000,1000,1000,,,,,
54398232,1000,1000,1000,1000,,,,,
54400731,1000,1000,1000,1000,,,,,
54403230,1000,1000,1000,1000,,,,,
54405729,1000,1000,1000,1000,,,,,
54408228,1000,1000,1000,1000,,,,,
54410727,1000,1000,1000,1000,,,,,
54413226,1000,1000,1000,1000,,,,,
54415725,1000,1000,1000,1000,,,,,
54418224,1000,1000,1000,1000,,,,,
54420723,1000,1000,1000,1000,,,,,
54423222,1000,1000,1000,1000,,,,,
54425721,1000,1000,1000,1000,,,,,
54428220,1000,1000,1000,1000,,,,,
54430719,1000,1000,1000,1000,,,,,
54433218,1000,1000,1000,1000,,,,,
54435717,1000,1000,1000,1000,,,,,
54438216,1000,1000,1000,1000,,,,,
54440715,1000,1000,1000,1000,,,,,
54443214,1000,1000,1000,1000,,,,,
54445713,1000,1000,1000,1000,,,,,
54448212,1000,1000,1000,1000,,,,,
54450711,1000,1000,1000,1000,,,,,
54453210,1000,1000,1000,1000,,,,,
54455709,1000,1000,1000,1000,,,,,
54458208,1000,1000,1000,1000,,,,,
54460707,1000,1000,1000,1000,,,,,
54463206,1000,1000,1000,1000,,,,,
54465705,1000,1000,1000,1000,,,,,
54468204,1000,1000,1000,1000,,,,,
54470703,1000,1000,1000,1000,,,,,
54473202,1000,1000,1000,1000,,,,,
54475701,1000,1000,1000,1000,,,,,
54478200,1000,1000,1000,1000,,,,,
54480699,1000,1000,1000,1000,,,,,
54483198,1000,1000,1000,1000,,,,,
54485697,1000,1000,1000,1000,,,,,
54488196,1000,1000,1000,1000,,,,,
54490695,1000,1000,1000,1000,,,,,
54493194,1000,1000,1000,1000,,,,,
54495693,1000,1000,1000,1000,,,,,
54498192,1000,1000,1000,1000,,,,,
54500691,1000,1000,1000,1000,,,,,
54503190,1000,1000,1000,1000,,,,,
54505689,1000,1000,1000,1000,,,,,
54508188,1000,1000,1000,1000,,,,,
54510687,1000,1000,1000,1000,,,,,
54513186,1000,1000,1000,1000,,,,,
54515685,1000,1000,1000,1000,,,,,
54518184,1000,1000,1000,1000,,,,,
54520683,1000,1000,1000,1000,,,,,
54523182,1000,1000,1000,1000,,,,,
54525681,1000,1000,1000,1000,,,,,
54528180,1000,1000,1000,1000,,,,,
54530679,1000,1000,1000,1000,,,,,
54533178,1000,1000,1000,1000,,,,,
54535677,1000,1000,1000,1000,,,,,
54538176,1000,1000,1000,1000,,,,,
54540675,1000,1000,1000,1000,,,,,
54543174,1000,1000,1000,1000,,,,,
54545673,1000,1000,1000,1000,,,,,
54548172,1000,1000,1000,1000,,,,,
54550671,1000,1000,1000,1000,,,,,
54553170,1000,1000,1000,1000,,,,,
54555669,1000,1000,1000,1000,,,,,
54558168,1000,1000,1000,1000,,,,,
54560667,1000,1000,1000,1000,,,,,
54563166,1000,1000,1000,1000,,,,,
54565665,1000,1000,1000,1000,,,,,
54568164,1000,1000,1000,1000,,,,,
54570663,1000,1000,1000,1000,,,,,
54573162,1000,1000,1000,1000,,,,,
54575661,1000,1000,1000,1000,,,,,
54578160,1000,1000,1000,1000,,,,,
54580659,1000,1000,1000,1000,,,,,
54583158,1000,1000,1000,1000,,,,,
54585657,1000,1000,1000,1000,,,,,
54588156,1000,1000,1000,1000,,,,,
54590655,1000,1000,1000,1000,,,,,
54593154,1000,1000,1000,1000,,,,,
54596486,1000,1000,1000,1000,,,,,
54598985,1000,1000,1000,1000,,,,,
54601484,1000,1000,1000,1000,,,,,
54603983,1000,1000,1000,1000,,,,,
54606482,1000,1000,1000,1000,,,,,
54608981,1000,1000,1000,1000,,,,,
54611480,1000,1000,1000,1000,,,,,
54613979,1000,1000,1000,1000,,,,,
54616478,1000,1000,1000,1000,,,,,
54618977,1000,1000,1000,1000,,,,,
54621476,1000,1000,1000,1000,,,,,
54623975,1000,1000,1000,1000,,,,,
54626474,1000,1000,1000,1000,,,,,
54628973,1000,1000,1000,1000,,,,,
54631472,1000,1000,1000,1000,,,,,
54633971,1000,1000,1000,1000,,,,,
54636470,1000,1000,1000,1000,,,,,
54638969,1000,1000,1000,1000,,,,,
54641468,1000,1000,1000,1000,,,,,
54643967,1000,1000,1000,1000,,,,,
54646466,1000,1000,1000,1000,,,,,
54648965,1000,1000,1000,1000,,,,,
54651464,1000,1000,1000,1000,,,,,
54653963,1000,1000,1000,1000,,,,,
54656462,1001,1001,1001,1001,,,,,
54658961,1002,1002,1002,1002,,,,,
54661460,1003,1003,1003,1003,,,,,
54663959,1003,1003,1003,1003,,,,,
54666458,1004,1004,1004,1004,,,,,
54668957,1005,1005,1005,1005,,,,,
54671456,1006,1006,1006,1006,,,,,
54673955,1006,1006,1006,1006,,,,,
54676454,1007,1007,1007,1007,,,,,
54678953,1008,1008,1008,1008,,,,,
54681452,1009,1009,1009,1009,,,,,
54683951,1009,1009,1009,1009,,,,,
54686450,1010,1010,1010,1010,,,,,
54688949,1011,1011,1011,1011,,,,,
54691448,1012,1012,1012,1012,,,,,
54693947,1012,1012,1012,1012,,,,,
54696446,1013,1013,1013,1013,,,,,
54698945,1014,1014,1014,1014,,,,,
54701444,1015,1015,1015,1015,,,,,
54703943,1015,1015,1015,1015,,,,,
54706442,1016,1016,1016,1016,,,,,
54708941,1017,1017,1017,1017,,,,,
54711440,1018,1018,1018,1018,,,,,
54713939,1018,1018,1018,1018,,,,,
54716438,1019,1019,1019,1019,,,,,
54718937,1020,1020,1020,1020,,,,,
54721436,1021,1021,1021,1021,,,,,
54723935,1021,1021,1021,1021,,,,,
54726434,1022,1022,1022,1022,,,,,
54728933,1023,1023,1023,1023,,,,,
54731432,1024,1024,1024,1024,,,,,
54733931,1024,1024,1024,1024,,,,,
54736430,1025,1025,1025,1025,,,,,
54738929,1026,1026,1026,1026,,,,,
54741428,1027,1027,1027,1027,,,,,
54743927,1027,1027,1027,1027,,,,,
54746426,1028,1028,1028,1028,,,,,
54748925,1029,1029,1029,1029,,,,,
54751424,1030,1030,1030,1030,,,,,
54753923,1030,1030,1030,1030,,,,,
54756422,1031,1031,1031,1031,,,,,
54758921,1032,1032,1032,1032,,,,,
54761420,1033,1033,1033,1033,,,,,
54763919,1033,1033,1033,1033,,,,,
54766418,1034,1034,1034,1034,,,,,
54768917,1035,1035,1035,1035,,,,,
54771416,1036,1036,1036,1036,,,,,
54773915,1036,1036,1036,1036,,,,,
54776414,1037,1037,1037,1037,,,,,
54778913,1038,1038,1038,1038,,,,,
54781412,1039,1039,1039,1039,,,,,
54783911,1039,1039,1039,1039,,,,,
54786410,1040,1040,1040,1040,,,,,
54788909,1041,1041,1041,1041,,,,,
54791408,1042,1042,1042,1042,,,,,
54793907,1042,1042,1042,1042,,,,,
54796406,1043,1043,1043,1043,,,,,
54798905,1044,1044,1044,1044,,,,,
54801404,1045,1045,1045,1045,,,,,
54803903,1045,1045,1045,1045,,,,,
54806402,1046,1046,1046,1046,,,,,
54808901,1047,1047,1047,1047,,,,,
54811400,1048,1048,1048,1048,,,,,
54813899,1048,1048,1048,1048,,,,,
54816398,1049,1049,1049,1049,,,,,
54818897,1050,1050,1050,1050,,,,,
54821396,1051,1051,1051,1051,,,,,
54823895,1051,1051,1051,1051,,,,,
54826394,1052,1052,1052,1052,,,,,
54828893,1053,1053,1053,1053,,,,,
54831392,1054,1054,1054,1054,,,,,
54833891,1054,1054,1054,1054,,,,,
54836390,1055,1055,1055,1055,,,,,
54838889,1056,1056,1056,1056,,,,,
54841388,1057,1057,1057,1057,,,,,
54843887,1057,1057,1057,1057,,,,,
54846386,1058,1058,1058,1058,,,,,
54848885,1059,1059,1059,1059,,,,,
54851384,1060,1060,1060,1060,,,,,
54853883,1060,1060,1060,1060,,,,,
54856382,1061,1061,1061,1061,,,,,
54858881,1062,1062,1062,1062,,,,,
54861380,1063,1063,1063,1063,,,,,
54863879,1063,1063,1063,1063,,,,,
54866378,1064,1064,1064,1064,,,,,
54868877,1065,1065,1065,1065,,,,,
54871376,1066,1066,1066,1066,,,,,
54873875,1066,1066,1066,1066,,,,,
54876374,1067,1067,1067,1067,,,,,
54878873,1068,1068,1068,1068,,,,,
54881372,1069,1069,1069,1069,,,,,
54883871,1069,1069,1069,1069,,,,,
54886370,1070,1070,1070,1070,,,,,
54888869,1071,1071,1071,1071,,,,,
54891368,1072,1072,1072,1072,,,,,
54893867,1072,1072,1072,1072,,,,,
54896366,1073,1073,1073,1073,,,,,
54898865,1074,1074,1074,1074,,,,,
54901364,1075,1075,1075,1075,,,,,
54903863,1075,1075,1075,1075,,,,,
54906362,1076,1076,1076,1076,,,,,
54908861,1077,1077,1077,1077,,,,,
54911360,1078,1078,1078,1078,,,,,
54913859,1078,1078,1078,1078,,,,,
54916358,1079,1079,1079,1079,,,,,
54918857,1080,1080,1080,1080,,,,,
54921356,1081,1081,1081,1081,,,,,
54923855,1081,1081,1081,1081,,,,,
54926354,1082,1082,1082,1082,,,,,
54928853,1083,1083,1083,1083,,,,,
54931352,1084,1084,1084,1084,,,,,
54933851,1084,1084,1084,1084,,,,,
54936350,1085,1085,1085,1085,,,,,
54938849,1086,1086,1086,1086,,,,,
54941348,1087,1087,1087,1087,,,,,
54943847,1087,1087,1087,1087,,,,,
54946346,1088,1088,1088,1088,,,,,
54948845,1089,1089,1089,1089,,,,,
54951344,1090,1090,1090,1090,,,,,
54953843,1090,1090,1090,1090,,,,,
54956342,1091,1091,1091,1091,,,,,
54958841,1092,1092,1092,1092,,,,,
54961340,1093,1093,1093,1093,,,,,
54963839,1093,1093,1093,1093,,,,,
54966338,1094,1094,1094,1094,,,,,
54968837,1095,1095,1095,1095,,,,,
54971336,1096,1096,1096,1096,,,,,
54973835,1096,1096,1096,1096,,,,,
54976334,1097,1097,1097,1097,,,,,
54978833,1098,1098,1098,1098,,,,,
54981332,1099,1099,1099,1099,,,,,
54983831,1099,1099,1099,1099,,,,,
54986330,1100,1100,1100,1100,,,,,
54988829,1101,1101,1101,1101,,,,,
54991328,1101,1101,1101,1101,,,,,
54993827,1102,1102,1102,1102,,,,,
54996326,1103,1103,1103,1103,,,,,
54998825,1104,1104,1104,1104,,,,,
55001324,1104,1104,1104,1104,,,,,
55003823,1105,1105,1105,1105,,,,,
55006322,1106,1106,1106,1106,,,,,
55008821,1107,1107,1107,1107,,,,,
55011320,1107,1107,1107,1107,,,,,
55013819,1108,1108,1108,1108,,,,,
55016318,1109,1109,1109,1109,,,,,
55018817,1110,1110,1110,1110,,,,,
55021316,1110,1110,1110,1110,,,,,
55023815,1111,1111,1111,1111,,,,,
55026314,1112,1112,1112,1112,,,,,
55028813,1113,1113,1113,1113,,,,,
55031312,1113,1113,1113,1113,,,,,
55033811,1114,1114,1114,1114,,,,,
55036310,1115,1115,1115,1115,,,,,
55038809,1116,1116,1116,1116,,,,,
55041308,1116,1116,1116,1116,,,,,
55043807,1117,1117,1117,1117,,,,,
55046306,1118,1118,1118,1118,,,,,
55048805,1119,1119,1119,1119,,,,,
55051304,1119,1119,1119,1119,,,,,
55053803,1120,1120,1120,1120,,,,,
55056302,1121,1121,1121,1121,,,,,
55058801,1122,1122,1122,1122,,,,,
55061300,1122,1122,1122,1122,,,,,
55063799,1123,1123,1123,1123,,,,,
55066298,1124,1124,1124,1124,,,,,
55068797,1125,1125,1125,1125,,,,,
55071296,1125,1125,1125,1125,,,,,
55073795,1126,1126,1126,1126,,,,,
55076294,1127,1127,1127,1127,,,,,
55078793,1128,1128,1128,1128,,,,,
55081292,1128,1128,1128,1128,,,,,
55083791,1129,1129,1129,1129,,,,,
55086290,1130,1130,1130,1130,,,,,
55088789,1131,1131,1131,1131,,,,,
55091288,1131,1131,1131,1131,,,,,
55093787,1132,1132,1132,1132,,,,,
55096286,1133,1133,1133,1133,,,,,
55098785,1134,1134,1134,1134,,,,,
55101284,1134,1134,1134,1134,,,,,
55103783,1135,1135,1135,1135,,,,,
55106282,1136,1136,1136,1136,,,,,
55108781,1137,1137,1137,1137,,,,,
55111280,1137,1137,1137,1137,,,,,
55113779,1138,1138,1138,1138,,,,,
55116278,1139,1139,1139,1139,,,,,
55118777,1140,1140,1140,1140,,,,,
55121276,1140,1140,1140,1140,,,,,
55123775,1141,1141,1141,1141,,,,,
55126274,1142,1142,1142,1142,,,,,
55128773,1143,1143,1143,1143,,,,,
55131272,1143,1143,1143,1143,,,,,
55133771,1144,1144,1144,1144,,,,,
55136270,1145,1145,1145,1145,,,,,
55138769,1146,1146,1146,1146,,,,,
55141268,1146,1146,1146,1146,,,,,
55143767,1147,1147,1147,1147,,,,,
55146266,1148,1148,1148,1148,,,,,
55148765,1149,1149,1149,1149,,,,,
55151264,1149,1149,1149,1149,,,,,
55153763,1150,1150,1150,1150,,,,,
55156262,1162,1153,1154,1162,,,,,
55158761,1170,1161,1162,1170,,,,,
55161260,1178,1169,1170,1178,,,,,
55163759,1185,1177,1178,1186,,,,,
55166258,1193,1185,1185,1193,,,,,
55168757,1200,1192,1193,1201,,,,,
55171256,1207,1200,1200,1208,,,,,
55173755,1215,1207,1208,1215,,,,,
55176254,1222,1214,1215,1222,,,,,
55178753,1229,1221,1222,1229,,,,,
55181252,1236,1228,1229,1236,,,,,
55183751,1242,1235,1236,1243,,,,,
55186250,1249,1242,1242,1250,,,,,
55188749,1256,1249,1249,1256,,,,,
55191248,1262,1255,1256,1263,,,,,
55193747,1269,1262,1262,1269,,,,,
55196246,1275,1268,1269,1275,,,,,
55198745,1281,1275,1275,1282,,,,,
55201244,1288,1281,1281,1288,,,,,
55203743,1294,1287,1288,1294,,,,,
55206242,1300,1293,1294,1300,,,,,
55208741,1306,1299,1300,1306,,,,,
55211240,1312,1305,1306,1312,,,,,
55213739,1318,1311,1312,1318,,,,,
55216238,1323,1317,1318,1324,,,,,
55218737,1329,1323,1323,1330,,,,,
55221236,1335,1329,1329,1335,,,,,
55223735,1341,1334,1335,1341,,,,,
55226234,1346,1340,1340,1346,,,,,
55228733,1352,1345,1346,1352,,,,,
55231232,1357,1351,1352,1357,,,,,
55233731,1363,1357,1357,1363,,,,,
55236230,1368,1362,1362,1368,,,,,
55238729,1373,1367,1368,1374,,,,,
55241228,1379,1373,1373,1379,,,,,
55243727,1384,1378,1378,1384,,,,,
55246226,1389,1383,1384,1389,,,,,
55248725,1394,1388,1389,1395,,,,,
55251224,1399,1394,1394,1400,,,,,
55253723,1405,1399,1399,1405,,,,,
55256222,1410,1404,1404,1410,,,,,
55258721,1415,1409,1409,1415,,,,,
55261220,1420,1414,1414,1420,,,,,
55263719,1425,1419,1419,1425,,,,,
55266218,1429,1424,1424,1430,,,,,
55268717,1434,1429,1429,1435,,,,,
55271216,1439,1434,1434,1440,,,,,
55273715,1444,1438,1439,1444,,,,,
55276214,1449,1443,1443,1449,,,,,
55278713,1453,1448,1448,1454,,,,,
55281212,1458,1453,1453,1459,,,,,
55283711,1463,1457,1458,1463,,,,,
55286210,1468,1462,1462,1468,,,,,
55288709,1472,1467,1467,1472,,,,,
55291208,1477,1471,1472,1477,,,,,
55293707,1481,1476,1476,1482,,,,,
55296206,1486,1480,1481,1486,,,,,
55298705,1490,1485,1485,1491,,,,,
55301204,1495,1489,1490,1495,,,,,
55303703,1499,1494,1494,1500,,,,,
55306202,1504,1498,1499,1504,,,,,
55308701,1508,1503,1503,1508,,,,,
55311200,1512,1507,1507,1513,,,,,
55313699,1517,1511,1512,1517,,,,,
55316198,1521,1516,1516,1521,,,,,
55318697,1525,1520,1520,1526,,,,,
55321196,1530,1524,1525,1530,,,,,
55323695,1534,1529,1529,1534,,,,,
55326194,1538,1533,1533,1539,,,,,
55328693,1542,1537,1537,1543,,,,,
55331192,1546,1541,1542,1547,,,,,
55333691,1551,1546,1546,1551,,,,,
55336190,1555,1550,1550,1555,,,,,
55338689,1559,1554,1554,1559,,,,,
55341188,1563,1558,1558,1563,,,,,
55343687,1567,1562,1562,1568,,,,,
55346186,1571,1566,1566,1572,,,,,
55348685,1575,1570,1570,1576,,,,,
55351184,1579,1574,1574,1580,,,,,
55353683,1583,1578,1578,1584,,,,,
55356182,1587,1582,1582,1588,,,,,
55358681,1591,1586,1586,1592,,,,,
55361180,1595,1590,1590,1596,,,,,
55363679,1599,1594,1594,1600,,,,,
55366178,1603,1598,1598,1603,,,,,
55368677,1607,1602,1602,1607,,,,,
55371176,1611,1606,1606,1611,,,,,
55373675,1615,1610,1610,1615,,,,,
55376174,1618,1613,1613,1619,,,,,
55378673,1622,1617,1617,1623,,,,,
55381172,1626,1621,1621,1626,,,,,
55383671,1630,1625,1625,1630,,,,,
55386170,1634,1629,1629,1634,,,,,
55388669,1637,1632,1632,1638,,,,,
55391168,1641,1636,1636,1641,,,,,
55393667,1645,1640,1640,1645,,,,,
55396166,1648,1644,1644,1649,,,,,
55398665,1652,1647,1647,1653,,,,,
55401164,1656,1651,1651,1656,,,,,
55403663,1659,1655,1655,1660,,,,,
55406162,1663,1658,1658,1664,,,,,
55408661,1667,1662,1662,1667,,,,,
55411160,1670,1666,1666,1671,,,,,
55413659,1674,1669,1669,1674,,,,,
55416158,1678,1673,1673,1678,,,,,
55418657,1681,1676,1677,1681,,,,,
55421156,1685,1680,1680,1685,,,,,
55423655,1688,1683,1684,1689,,,,,
55426154,1692,1687,1687,1692,,,,,
55428653,1695,1691,1691,1696,,,,,
55431152,1699,1694,1694,1699,,,,,
55433651,1702,1698,1698,1703,,,,,
55436150,1706,1701,1701,1706,,,,,
55438649,1709,1705,1705,1710,,,,,
55441148,1713,1708,1708,1713,,,,,
55443647,1716,1712,1712,1716,,,,,
55446146,1719,1715,1715,1720,,,,,
55448645,1723,1718,1719,1723,,,,,
55451144,1726,1722,1722,1727,,,,,
55453643,1730,1725,1725,1730,,,,,
55456142,1733,1729,1729,1733,,,,,
55458641,1736,1732,1732,1737,,,,,
55461140,1740,1735,1736,1740,,,,,
55463639,1743,1739,1739,1744,,,,,
55466138,1746,1742,1742,1747,,,,,
55468637,1750,1745,1746,1750,,,,,
55471136,1753,1749,1749,1753,,,,,
55473635,1756,1752,1752,1757,,,,,
55476134,1760,1755,1756,1760,,,,,
55478633,1763,1759,1759,1763,,,,,
55481132,1766,1762,1762,1767,,,,,
55483631,1769,1765,1765,1770,,,,,
55486130,1773,1769,1769,1773,,,,,
55488629,1776,1772,1772,1776,,,,,
55491128,1779,1775,1775,1780,,,,,
55493627,1782,1778,1778,1783,,,,,
55496126,1786,1781,1782,1786,,,,,
55498625,1789,1785,1785,1789,,,,,
55501124,1792,1788,1788,1792,,,,,
55503623,1795,1791,1791,1796,,,,,
55506122,1798,1794,1794,1799,,,,,
55508621,1802,1797,1798,1802,,,,,
55511120,1805,1800,1801,1805,,,,,
55513619,1808,1804,1804,1808,,,,,
55516118,1811,1807,1807,1811,,,,,
55518617,1814,1810,1810,1814,,,,,
55521116,1817,1813,1813,1818,,,,,
55523615,1820,1816,1816,1821,,,,,
55526114,1824,1819,1819,1824,,,,,
55528613,1827,1822,1823,1827,,,,,
55531112,1830,1825,1826,1830,,,,,
55533611,1833,1828,1829,1833,,,,,
55536110,1836,1832,1832,1836,,,,,
55538609,1839,1835,1835,1839,,,,,
55541108,1842,1838,1838,1842,,,,,
55543607,1845,1841,1841,1845,,,,,
55546106,1848,1844,1844,1848,,,,,
55548605,1851,1847,1847,1851,,,,,
55551104,1854,1850,1850,1854,,,,,
55553603,1857,1853,1853,1857,,,,,
55556102,1860,1856,1856,1860,,,,,
55558601,1863,1859,1859,1863,,,,,
55561100,1866,1862,1862,1866,,,,,
55563599,1869,1865,1865,1869,,,,,
55566098,1872,1868,1868,1872,,,,,
55568597,1875,1871,1871,1875,,,,,
55571096,1878,1873,1874,1878,,,,,
55573595,1881,1876,1877,1881,,,,,
55576094,1884,1879,1880,1884,,,,,
55578593,1887,1882,1883,1887,,,,,
55581092,1890,1885,1885,1890,,,,,
55583591,1893,1888,1888,1893,,,,,
55586090,1896,1891,1891,1896,,,,,
55588589,1898,1894,1894,1899,,,,,
55591088,1897,1893,1893,1898,,,,,
55593587,1896,1892,1892,1897,,,,,
55596086,1895,1891,1891,1896,,,,,
55598585,1895,1890,1890,1895,,,,,
55601084,1894,1889,1889,1894,,,,,
55603583,1893,1888,1889,1893,,,,,
55606082,1892,1888,1888,1892,,,,,
55608581,1892,1887,1887,1892,,,,,
55611080,1891,1886,1887,1891,,,,,
55613579,1890,1886,1886,1890,,,,,
55616078,1890,1885,1886,1890,,,,,
55618577,1889,1885,1885,1890,,,,,
55621076,1889,1884,1885,1889,,,,,
55623575,1889,1884,1884,1889,,,,,
55626074,1889,1884,1884,1889,,,,,
55628573,1889,1884,1884,1889,,,,,
55631072,1889,1884,1884,1889,,,,,
55633571,1889,1884,1884,1889,,,,,
55636070,1889,1884,1884,1889,,,,,
55638569,1889,1884,1884,1889,,,,,
55641068,1889,1884,1885,1889,,,,,
55643567,1889,1885,1885,1890,,,,,
55646066,1890,1885,1885,1890,,,,,
55648565,1890,1885,1885,1890,,,,,
55651064,1890,1886,1886,1890,,,,,
55653563,1890,1886,1886,1891,,,,,
55656062,1891,1886,1887,1891,,,,,
55658561,1891,1887,1887,1891,,,,,
55661060,1891,1887,1887,1891,,,,,
55663559,1891,1887,1887,1891,,,,,
55666058,1891,1887,1887,1891,,,,,
55668557,1890,1887,1887,1891,,,,,
55671056,1890,1886,1887,1890,,,,,
55673555,1889,1886,1886,1890,,,,,
55676054,1888,1885,1885,1889,,,,,
55678553,1887,1884,1884,1888,,,,,
55681052,1886,1883,1883,1887,,,,,
55683551,1885,1882,1882,1885,,,,,
55686050,1884,1881,1881,1884,,,,,
55688549,1882,1879,1879,1882,,,,,
55691048,1880,1877,1878,1881,,,,,
55693547,1878,1876,1876,1879,,,,,
55696046,1877,1874,1874,1877,,,,,
55698545,1874,1872,1872,1875,,,,,
55701044,1872,1869,1870,1873,,,,,
55703543,1870,1867,1867,1870,,,,,
55706042,1868,1865,1865,1868,,,,,
55708541,1865,1862,1863,1865,,,,,
55711040,1862,1860,1860,1863,,,,,
55713539,1860,1857,1857,1860,,,,,
55716038,1857,1854,1855,1857,,,,,
55718537,1854,1852,1852,1854,,,,,
55721036,1851,1849,1849,1852,,,,,
55723535,1848,1846,1846,1849,,,,,
55726034,1845,1843,1843,1846,,,,,
55728533,1842,1840,1840,1842,,,,,
55731032,1839,1837,1837,1839,,,,,
55733531,1836,1834,1834,1836,,,,,
55736030,1833,1830,1831,1833,,,,,
55738529,1829,1827,1828,1830,,,,,
55741028,1826,1824,1824,1826,,,,,
55743527,1823,1821,1821,1823,,,,,
55746026,1820,1818,1818,1820,,,,,
55748525,1816,1814,1815,1817,,,,,
55751024,1813,1811,1811,1813,,,,,
55753523,1810,1808,1808,1810,,,,,
55756022,1806,1804,1805,1806,,,,,
55758521,1803,1801,1801,1803,,,,,
55761020,1799,1798,1798,1800,,,,,
55763519,1796,1795,1795,1796,,,,,
55766018,1793,1791,1791,1793,,,,,
55768517,1789,1788,1788,1789,,,,,
55771016,1786,1784,1785,1786,,,,,
55773515,1782,1781,1781,1783,,,,,
55776014,1779,1778,1778,1779,,,,,
55778513,1775,1774,1775,1776,,,,,
55781012,1772,1771,1771,1773,,,,,
55783511,1769,1768,1768,1769,,,,,
55786010,1766,1765,1765,1766,,,,,
55788509,1762,1762,1762,1763,,,,,
55791008,1759,1758,1759,1759,,,,,
55793507,1756,1755,1755,1756,,,,,
55796006,1753,1752,1752,1753,,,,,
55798505,1749,1749,1749,1750,,,,,
55801004,1746,1746,1746,1747,,,,,
55803503,1743,1743,1743,1744,,,,,
55806002,1740,1740,1740,1741,,,,,
55808501,1737,1737,1737,1737,,,,,
55811000,1734,1734,1734,1734,,,,,
55813499,1731,1731,1731,1731,,,,,
55815998,1728,1728,1728,1728,,,,,
55818497,1725,1725,1725,1726,,,,,
55820996,1723,1723,1723,1723,,,,,
55823495,1720,1720,1720,1720,,,,,
55825994,1717,1717,1717,1717,,,,,
55828493,1714,1714,1715,1714,,,,,
55830992,1712,1712,1712,1712,,,,,
55833491,1709,1709,1709,1709,,,,,
55835990,1706,1706,1707,1706,,,,,
55838489,1704,1704,1704,1704,,,,,
55840988,1701,1701,1702,1701,,,,,
55843487,1698,1699,1699,1699,,,,,
55845986,1696,1697,1697,1696,,,,,
55848485,1694,1694,1694,1694,,,,,
55850984,1691,1692,1692,1691,,,,,
55853483,1689,1689,1690,1689,,,,,
55855982,1687,1687,1688,1687,,,,,
55858481,1684,1685,1685,1685,,,,,
55860980,1682,1683,1683,1682,,,,,
55863479,1680,1681,1681,1680,,,,,
55865978,1678,1679,1679,1678,,,,,
55868477,1676,1677,1677,1676,,,,,
55870976,1674,1675,1675,1674,,,,,
55873475,1672,1673,1674,1672,,,,,
55875974,1670,1671,1672,1671,,,,,
55878473,1669,1670,1670,1669,,,,,
55880972,1667,1668,1668,1667,,,,,
55883471,1665,1666,1667,1665,,,,,
55885970,1665,1663,1663,1665,,,,,
55888469,1663,1661,1661,1664,,,,,
55890968,1662,1658,1659,1662,,,,,
55893467,1661,1657,1657,1661,,,,,
55895966,1659,1655,1655,1659,,,,,
55898465,1657,1653,1653,1658,,,,,
55900964,1655,1652,1652,1656,,,,,
55903463,1654,1651,1651,1654,,,,,
55905962,1652,1649,1649,1652,,,,,
55908461,1650,1648,1648,1651,,,,,
55910960,1648,1647,1647,1649,,,,,
55913459,1647,1646,1645,1648,,,,,
55915958,1645,1645,1644,1646,,,,,
55918457,1644,1643,1643,1645,,,,,
55920956,1642,1642,1642,1644,,,,,
55923455,1641,1641,1640,1643,,,,,
55925954,1640,1640,1639,1641,,,,,
55928453,1639,1639,1638,1640,,,,,
55930952,1638,1638,1637,1640,,,,,
55933451,1637,1637,1636,1639,,,,,
55935950,1636,1636,1634,1638,,,,,
55938449,1635,1635,1633,1637,,,,,
55940948,1634,1635,1632,1636,,,,,
55943447,1633,1634,1631,1636,,,,,
55945946,1632,1633,1631,1635,,,,,
55948445,1631,1633,1630,1635,,,,,
55950944,1631,1632,1629,1634,,,,,
55953443,1630,1631,1628,1633,,,,,
55955942,1629,1631,1628,1633,,,,,
