timestamp,TimeUS,C1,C2,C3,C4,C5,C6,C7,C8,C9,C10,C11,C12,C13,C14
1684047416.59999990,67828691,1000,1000,1000,1000,0,0,0,0,0,0,0,0,0,0
1684047416.69995999,67928651,1000,1000,1000,1000,0,0,0,0,0,0,0,0,0,0
1684047416.79991984,68028611,1000,1000,1000,1000,0,0,0,0,0,0,0,0,0,0
1684047416.89987993,68128571,1000,1000,1000,1000,0,0,0,0,0,0,0,0,0,0
1684047416.99983978,68228531,1000,1000,1000,1000,0,0,0,0,0,0,0,0,0,0
1684047417.09979987,68328491,1000,1000,1000,1000,0,0,0,0,0,0,0,0,0,0
1684047417.19975996,68428451,1000,1000,1000,1000,0,0,0,0,0,0,0,0,0,0
1684047417.29971981,68528411,1000,1000,1000,1000,0,0,0,0,0,0,0,0,0,0
1684047417.39967990,68628371,1000,1000,1000,1000,0,0,0,0,0,0,0,0,0,0
1684047417.49963999,68728331,1000,1000,1000,1000,0,0,0,0,0,0,0,0,0,0
1684047417.59959984,68828291,1000,1000,1000,1000,0,0,0,0,0,0,0,0,0,0
1684047417.69955993,68928251,1000,1000,1000,1000,0,0,0,0,0,0,0,0,0,0
1684047417.79952002,69028211,1000,1000,1000,1000,0,0,0,0,0,0,0,0,0,0
1684047417.89947987,69128171,1000,1000,1000,1000,0,0,0,0,0,0,0,0,0,0
1684047418.00027299,69228964,1000,1000,1000,1000,0,0,0,0,0,0,0,0,0,0
1684047418.10023284,69328924,1000,1000,1000,1000,0,0,0,0,0,0,0,0,0,0
1684047418.20019293,69428884,1000,1000,1000,1000,0,0,0,0,0,0,0,0,0,0
1684047418.30015302,69528844,1000,1000,1000,1000,0,0,0,0,0,0,0,0,0,0
1684047418.40011287,69628804,1000,1000,1000,1000,0,0,0,0,0,0,0,0,0,0
1684047418.50007296,69728764,1000,1000,1000,1000,0,0,0,0,0,0,0,0,0,0
1684047418.60003281,69828724,1015,1015,1015,1015,0,0,0,0,0,0,0,0,0,0
1684047418.69999290,69928684,1045,1045,1045,1045,0,0,0,0,0,0,0,0,0,0
1684047418.79995298,70028644,1075,1075,1075,1075,0,0,0,0,0,0,0,0,0,0
1684047418.89991283,70128604,1105,1105,1105,1105,0,0,0,0,0,0,0,0,0,0
1684047418.99987292,70228564,1135,1135,1135,1135,0,0,0,0,0,0,0,0,0,0
1684047419.09983301,70328524,1295,1286,1286,1295,0,0,0,0,0,0,0,0,0,0
1684047419.19979286,70428484,1500,1493,1494,1500,0,0,0,0,0,0,0,0,0,0
1684047419.29975295,70528444,1660,1654,1654,1660,0,0,0,0,0,0,0,0,0,0
1684047419.39971280,70628404,1796,1790,1790,1797,0,0,0,0,0,0,0,0,0,0
1684047419.49967289,70728364,1917,1910,1911,1916,0,0,0,0,0,0,0,0,0,0
1684047419.59963298,70828324,1895,1892,1892,1895,0,0,0,0,0,0,0,0,0,0
1684047419.69959283,70928284,1763,1762,1762,1764,0,0,0,0,0,0,0,0,0,0
1684047419.79955292,71028244,1667,1669,1669,1667,0,0,0,0,0,0,0,0,0,0
1684047419.89951301,71128204,1637,1640,1640,1637,0,0,0,0,0,0,0,0,0,0
1684047419.99947286,71228164,1638,1640,1641,1638,0,0,0,0,0,0,0,0,0,0
1684047420.10026598,71328957,1642,1643,1643,1641,0,0,0,0,0,0,0,0,0,0
1684047420.20022583,71428917,1638,1638,1638,1637,0,0,0,0,0,0,0,0,0,0
1684047420.30018592,71528877,1626,1622,1621,1627,0,0,0,0,0,0,0,0,0,0
1684047420.40014601,71628837,1602,1601,1591,1611,0,0,0,0,0,0,0,0,0,0
1684047420.50010586,71728797,1592,1592,1583,1601,0,0,0,0,0,0,0,0,0,0
1684047420.60006595,71828757,1590,1590,1586,1593,0,0,0,0,0,0,0,0,0,0
1684047420.70002580,71928717,1593,1592,1593,1591,0,0,0,0,0,0,0,0,0,0
1684047420.79998589,72028677,1598,1598,1601,1594,0,0,0,0,0,0,0,0,0,0
1684047420.89994597,72128637,1577,1578,1594,1561,0,0,0,0,0,0,0,0,0,0
1684047420.99990582,72228597,1565,1567,1586,1547,0,0,0,0,0,0,0,0,0,0
1684047421.09986591,72328557,1555,1556,1565,1547,0,0,0,0,0,0,0,0,0,0
1684047421.19982600,72428517,1545,1545,1541,1551,0,0,0,0,0,0,0,0,0,0
1684047421.29978585,72528477,1540,1538,1528,1551,0,0,0,0,0,0,0,0,0,0
1684047421.39974594,72628437,1532,1531,1519,1544,0,0,0,0,0,0,0,0,0,0
1684047421.49970579,72728397,1527,1526,1517,1535,0,0,0,0,0,0,0,0,0,0
1684047421.59966588,72828357,1525,1525,1521,1528,0,0,0,0,0,0,0,0,0,0
1684047421.69962597,72928317,1526,1526,1526,1525,0,0,0,0,0,0,0,0,0,0
1684047421.79958582,73028277,1529,1530,1532,1527,0,0,0,0,0,0,0,0,0,0
1684047421.89954591,73128237,1533,1533,1537,1529,0,0,0,0,0,0,0,0,0,0
1684047421.99950600,73228197,1538,1538,1542,1534,0,0,0,0,0,0,0,0,0,0
1684047422.09946585,73328157,1541,1541,1544,1538,0,0,0,0,0,0,0,0,0,0
1684047422.20025897,73428950,1546,1546,1547,1544,0,0,0,0,0,0,0,0,0,0
1684047422.30021882,73528910,1548,1548,1548,1548,0,0,0,0,0,0,0,0,0,0
1684047422.40017891,73628870,1549,1550,1549,1550,0,0,0,0,0,0,0,0,0,0
1684047422.50013900,73728830,1553,1553,1551,1555,0,0,0,0,0,0,0,0,0,0
1684047422.60009885,73828790,1554,1553,1556,1560,0,0,0,0,0,0,0,0,0,0
1684047422.70005894,73928750,1554,1554,1560,1562,0,0,0,0,0,0,0,0,0,0
1684047422.80001879,74028710,1555,1556,1562,1563,0,0,0,0,0,0,0,0,0,0
1684047422.89997888,74128670,1558,1559,1564,1564,0,0,0,0,0,0,0,0,0,0
1684047422.99993896,74228630,1562,1563,1566,1565,0,0,0,0,0,0,0,0,0,0
1684047423.09989882,74328590,1565,1565,1566,1566,0,0,0,0,0,0,0,0,0,0
1684047423.19985890,74428550,1567,1567,1566,1566,0,0,0,0,0,0,0,0,0,0
1684047423.29981899,74528510,1568,1568,1566,1566,0,0,0,0,0,0,0,0,0,0
1684047423.39977884,74628470,1570,1570,1567,1567,0,0,0,0,0,0,0,0,0,0
1684047423.49973893,74728430,1572,1572,1568,1568,0,0,0,0,0,0,0,0,0,0
1684047423.59969878,74828390,1573,1572,1568,1568,0,0,0,0,0,0,0,0,0,0
1684047423.69965887,74928350,1573,1573,1569,1570,0,0,0,0,0,0,0,0,0,0
1684047423.79961896,75028310,1574,1574,1571,1571,0,0,0,0,0,0,0,0,0,0
1684047423.89957881,75128270,1575,1575,1573,1573,0,0,0,0,0,0,0,0,0,0
1684047423.99953890,75228230,1574,1575,1574,1573,0,0,0,0,0,0,0,0,0,0
1684047424.09949899,75328190,1574,1574,1575,1573,0,0,0,0,0,0,0,0,0,0
1684047424.20029187,75428983,1574,1574,1575,1574,0,0,0,0,0,0,0,0,0,0
1684047424.30025196,75528943,1575,1575,1576,1575,0,0,0,0,0,0,0,0,0,0
1684047424.40021181,75628903,1575,1574,1576,1575,0,0,0,0,0,0,0,0,0,0
1684047424.50017190,75728863,1575,1574,1576,1576,0,0,0,0,0,0,0,0,0,0
1684047424.60013199,75828823,1575,1576,1577,1576,0,0,0,0,0,0,0,0,0,0
1684047424.70009184,75928783,1575,1575,1576,1576,0,0,0,0,0,0,0,0,0,0
1684047424.80005193,76028743,1576,1576,1576,1577,0,0,0,0,0,0,0,0,0,0
1684047424.90001202,76128703,1577,1576,1577,1577,0,0,0,0,0,0,0,0,0,0
1684047424.99997187,76228663,1576,1577,1576,1576,0,0,0,0,0,0,0,0,0,0
1684047425.09993196,76328623,1577,1577,1577,1577,0,0,0,0,0,0,0,0,0,0
1684047425.19989181,76428583,1578,1578,1578,1578,0,0,0,0,0,0,0,0,0,0
1684047425.29985189,76528543,1578,1579,1578,1578,0,0,0,0,0,0,0,0,0,0
1684047425.39981198,76628503,1578,1578,1577,1577,0,0,0,0,0,0,0,0,0,0
1684047425.49977183,76728463,1579,1579,1578,1579,0,0,0,0,0,0,0,0,0,0
1684047425.59973192,76828423,1579,1578,1578,1578,0,0,0,0,0,0,0,0,0,0
1684047425.69969201,76928383,1578,1577,1577,1577,0,0,0,0,0,0,0,0,0,0
1684047425.79965186,77028343,1578,1579,1578,1579,0,0,0,0,0,0,0,0,0,0
1684047425.89961195,77128303,1579,1579,1579,1579,0,0,0,0,0,0,0,0,0,0
1684047425.99957180,77228263,1578,1578,1578,1578,0,0,0,0,0,0,0,0,0,0
1684047426.09953189,77328223,1578,1578,1579,1578,0,0,0,0,0,0,0,0,0,0
1684047426.19949198,77428183,1578,1578,1579,1578,0,0,0,0,0,0,0,0,0,0
1684047426.30028486,77528976,1579,1579,1579,1579,0,0,0,0,0,0,0,0,0,0
1684047426.40024495,77628936,1579,1579,1580,1579,0,0,0,0,0,0,0,0,0,0
1684047426.50020480,77728896,1579,1579,1579,1579,0,0,0,0,0,0,0,0,0,0
1684047426.60016489,77828856,1579,1579,1579,1580,0,0,0,0,0,0,0,0,0,0
1684047426.70012498,77928816,1580,1580,1580,1580,0,0,0,0,0,0,0,0,0,0
1684047426.80008483,78028776,1579,1580,1580,1579,0,0,0,0,0,0,0,0,0,0
1684047426.90004492,78128736,1581,1580,1580,1581,0,0,0,0,0,0,0,0,0,0
1684047427.00000501,78228696,1580,1580,1580,1580,0,0,0,0,0,0,0,0,0,0
1684047427.09996486,78328656,1581,1580,1581,1581,0,0,0,0,0,0,0,0,0,0
1684047427.19992495,78428616,1581,1581,1581,1580,0,0,0,0,0,0,0,0,0,0
1684047427.29988480,78528576,1581,1581,1581,1581,0,0,0,0,0,0,0,0,0,0
1684047427.39984488,78628536,1581,1581,1581,1581,0,0,0,0,0,0,0,0,0,0
1684047427.49980497,78728496,1580,1580,1580,1580,0,0,0,0,0,0,0,0,0,0
1684047427.59976482,78828456,1580,1580,1580,1580,0,0,0,0,0,0,0,0,0,0
1684047427.69972491,78928416,1579,1579,1580,1579,0,0,0,0,0,0,0,0,0,0
1684047427.79968500,79028376,1579,1579,1579,1579,0,0,0,0,0,0,0,0,0,0
1684047427.89964485,79128336,1579,1580,1580,1580,0,0,0,0,0,0,0,0,0,0
1684047427.99960494,79228296,1581,1581,1581,1581,0,0,0,0,0,0,0,0,0,0
1684047428.09956479,79328256,1581,1581,1581,1581,0,0,0,0,0,0,0,0,0,0
1684047428.19952488,79428216,1580,1580,1580,1580,0,0,0,0,0,0,0,0,0,0
1684047428.29948497,79528176,1581,1581,1581,1581,0,0,0,0,0,0,0,0,0,0
1684047428.40027785,79628969,1581,1581,1581,1581,0,0,0,0,0,0,0,0,0,0
1684047428.50023794,79728929,1581,1580,1581,1581,0,0,0,0,0,0,0,0,0,0
1684047428.60019779,79828889,1581,1581,1580,1581,0,0,0,0,0,0,0,0,0,0
1684047428.70015788,79928849,1581,1581,1581,1581,0,0,0,0,0,0,0,0,0,0
1684047428.80011797,80028809,1582,1582,1586,1578,0,0,0,0,0,0,0,0,0,0
1684047428.90007782,80128769,1581,1583,1588,1573,0,0,0,0,0,0,0,0,0,0
1684047429.00003791,80228729,1579,1581,1581,1573,0,0,0,0,0,0,0,0,0,0
1684047429.09999800,80328689,1577,1580,1571,1572,0,0,0,0,0,0,0,0,0,0
1684047429.19995785,80428649,1576,1579,1564,1570,0,0,0,0,0,0,0,0,0,0
1684047429.29991794,80528609,1576,1578,1558,1565,0,0,0,0,0,0,0,0,0,0
1684047429.39987779,80628569,1578,1578,1555,1561,0,0,0,0,0,0,0,0,0,0
1684047429.49983788,80728529,1580,1578,1555,1557,0,0,0,0,0,0,0,0,0,0
1684047429.59979796,80828489,1580,1578,1556,1554,0,0,0,0,0,0,0,0,0,0
1684047429.69975781,80928449,1580,1579,1557,1554,0,0,0,0,0,0,0,0,0,0
1684047429.79971790,81028409,1577,1577,1555,1552,0,0,0,0,0,0,0,0,0,0
1684047429.89967799,81128369,1575,1576,1554,1552,0,0,0,0,0,0,0,0,0,0
1684047429.99963784,81228329,1576,1577,1555,1554,0,0,0,0,0,0,0,0,0,0
1684047430.09959793,81328289,1575,1576,1553,1553,0,0,0,0,0,0,0,0,0,0
1684047430.19955778,81428249,1575,1577,1552,1553,0,0,0,0,0,0,0,0,0,0
1684047430.29951787,81528209,1576,1578,1551,1552,0,0,0,0,0,0,0,0,0,0
1684047430.39947796,81628169,1577,1579,1548,1548,0,0,0,0,0,0,0,0,0,0
1684047430.50027084,81728962,1579,1580,1546,1546,0,0,0,0,0,0,0,0,0,0
1684047430.60023093,81828922,1583,1584,1545,1544,0,0,0,0,0,0,0,0,0,0
1684047430.70019078,81928882,1585,1585,1541,1541,0,0,0,0,0,0,0,0,0,0
1684047430.80015087,82028842,1588,1589,1539,1538,0,0,0,0,0,0,0,0,0,0
1684047430.90011096,82128802,1592,1591,1537,1537,0,0,0,0,0,0,0,0,0,0
1684047431.00007081,82228762,1593,1593,1534,1535,0,0,0,0,0,0,0,0,0,0
1684047431.10003090,82328722,1593,1594,1533,1535,0,0,0,0,0,0,0,0,0,0
1684047431.19999099,82428682,1594,1595,1535,1537,0,0,0,0,0,0,0,0,0,0
1684047431.29995084,82528642,1594,1594,1537,1540,0,0,0,0,0,0,0,0,0,0
1684047431.39991093,82628602,1591,1590,1542,1545,0,0,0,0,0,0,0,0,0,0
1684047431.49987102,82728562,1587,1584,1549,1551,0,0,0,0,0,0,0,0,0,0
1684047431.59983087,82828522,1579,1575,1557,1560,0,0,0,0,0,0,0,0,0,0
1684047431.69979095,82928482,1570,1565,1569,1571,0,0,0,0,0,0,0,0,0,0
1684047431.79975080,83028442,1558,1555,1581,1583,0,0,0,0,0,0,0,0,0,0
1684047431.89971089,83128402,1549,1545,1594,1595,0,0,0,0,0,0,0,0,0,0
1684047431.99967098,83228362,1537,1536,1603,1603,0,0,0,0,0,0,0,0,0,0
1684047432.09963083,83328322,1532,1532,1612,1610,0,0,0,0,0,0,0,0,0,0
1684047432.19959092,83428282,1528,1530,1615,1614,0,0,0,0,0,0,0,0,0,0
1684047432.29955101,83528242,1531,1532,1615,1615,0,0,0,0,0,0,0,0,0,0
1684047432.39951086,83628202,1534,1536,1612,1611,0,0,0,0,0,0,0,0,0,0
1684047432.49947095,83728162,1541,1542,1606,1606,0,0,0,0,0,0,0,0,0,0
1684047432.60026383,83828955,1549,1551,1600,1600,0,0,0,0,0,0,0,0,0,0
1684047432.70022392,83928915,1558,1559,1592,1591,0,0,0,0,0,0,0,0,0,0
1684047432.80018401,84028875,1567,1567,1584,1584,0,0,0,0,0,0,0,0,0,0
1684047432.90014386,84128835,1574,1574,1577,1577,0,0,0,0,0,0,0,0,0,0
1684047433.00010395,84228795,1581,1580,1572,1572,0,0,0,0,0,0,0,0,0,0
1684047433.10006380,84328755,1585,1583,1568,1568,0,0,0,0,0,0,0,0,0,0
1684047433.20002389,84428715,1587,1586,1566,1566,0,0,0,0,0,0,0,0,0,0
1684047433.29998398,84528675,1588,1586,1566,1566,0,0,0,0,0,0,0,0,0,0
1684047433.39994383,84628635,1586,1585,1566,1567,0,0,0,0,0,0,0,0,0,0
1684047433.49990392,84728595,1585,1584,1569,1569,0,0,0,0,0,0,0,0,0,0
1684047433.59986401,84828555,1582,1582,1572,1572,0,0,0,0,0,0,0,0,0,0
1684047433.69982386,84928515,1579,1579,1575,1575,0,0,0,0,0,0,0,0,0,0
1684047433.79978395,85028475,1576,1576,1578,1577,0,0,0,0,0,0,0,0,0,0
1684047433.89974380,85128435,1574,1575,1581,1580,0,0,0,0,0,0,0,0,0,0
1684047433.99970388,85228395,1572,1573,1582,1582,0,0,0,0,0,0,0,0,0,0
1684047434.09966397,85328355,1573,1574,1584,1585,0,0,0,0,0,0,0,0,0,0
1684047434.19962382,85428315,1572,1573,1584,1584,0,0,0,0,0,0,0,0,0,0
1684047434.29958391,85528275,1573,1573,1584,1583,0,0,0,0,0,0,0,0,0,0
1684047434.39954400,85628235,1574,1574,1582,1583,0,0,0,0,0,0,0,0,0,0
1684047434.49950385,85728195,1575,1575,1581,1581,0,0,0,0,0,0,0,0,0,0
1684047434.59946394,85828155,1576,1577,1580,1580,0,0,0,0,0,0,0,0,0,0
1684047434.70025682,85928948,1578,1577,1579,1579,0,0,0,0,0,0,0,0,0,0
1684047434.80021691,86028908,1579,1579,1578,1578,0,0,0,0,0,0,0,0,0,0
1684047434.90017700,86128868,1580,1580,1577,1578,0,0,0,0,0,0,0,0,0,0
1684047435.00013685,86228828,1582,1582,1578,1578,0,0,0,0,0,0,0,0,0,0
1684047435.10009694,86328788,1582,1582,1578,1577,0,0,0,0,0,0,0,0,0,0
1684047435.20005679,86428748,1582,1581,1577,1577,0,0,0,0,0,0,0,0,0,0
1684047435.30001688,86528708,1582,1582,1578,1578,0,0,0,0,0,0,0,0,0,0
1684047435.39997697,86628668,1581,1581,1578,1578,0,0,0,0,0,0,0,0,0,0
1684047435.49993682,86728628,1581,1580,1579,1579,0,0,0,0,0,0,0,0,0,0
1684047435.59989691,86828588,1580,1580,1579,1579,0,0,0,0,0,0,0,0,0,0
1684047435.69985700,86928548,1580,1581,1581,1581,0,0,0,0,0,0,0,0,0,0
1684047435.79981685,87028508,1579,1579,1581,1580,0,0,0,0,0,0,0,0,0,0
1684047435.89977694,87128468,1579,1579,1581,1581,0,0,0,0,0,0,0,0,0,0
1684047435.99973679,87228428,1580,1581,1582,1582,0,0,0,0,0,0,0,0,0,0
1684047436.09969687,87328388,1579,1580,1582,1582,0,0,0,0,0,0,0,0,0,0
1684047436.19965696,87428348,1580,1580,1582,1582,0,0,0,0,0,0,0,0,0,0
1684047436.29961681,87528308,1580,1580,1582,1581,0,0,0,0,0,0,0,0,0,0
1684047436.39957690,87628268,1580,1580,1581,1581,0,0,0,0,0,0,0,0,0,0
1684047436.49953699,87728228,1580,1580,1580,1580,0,0,0,0,0,0,0,0,0,0
1684047436.59949684,87828188,1580,1580,1580,1581,0,0,0,0,0,0,0,0,0,0
1684047436.70028996,87928981,1581,1581,1580,1581,0,0,0,0,0,0,0,0,0,0
1684047436.80024981,88028941,1580,1581,1583,1576,0,0,0,0,0,0,0,0,0,0
1684047436.90020990,88128901,1581,1584,1587,1571,0,0,0,0,0,0,0,0,0,0
1684047437.00016999,88228861,1581,1585,1580,1571,0,0,0,0,0,0,0,0,0,0
1684047437.10012984,88328821,1581,1583,1570,1571,0,0,0,0,0,0,0,0,0,0
1684047437.20008993,88428781,1580,1582,1562,1568,0,0,0,0,0,0,0,0,0,0
1684047437.30004978,88528741,1580,1581,1556,1563,0,0,0,0,0,0,0,0,0,0
1684047437.40000987,88628701,1581,1581,1554,1559,0,0,0,0,0,0,0,0,0,0
1684047437.49996996,88728661,1582,1580,1553,1555,0,0,0,0,0,0,0,0,0,0
1684047437.59992981,88828621,1582,1580,1553,1553,0,0,0,0,0,0,0,0,0,0
1684047437.69988990,88928581,1581,1580,1554,1552,0,0,0,0,0,0,0,0,0,0
1684047437.79984999,89028541,1579,1579,1555,1552,0,0,0,0,0,0,0,0,0,0
1684047437.89980984,89128501,1578,1579,1555,1553,0,0,0,0,0,0,0,0,0,0
1684047437.99976993,89228461,1577,1579,1555,1554,0,0,0,0,0,0,0,0,0,0
1684047438.09973001,89328421,1576,1578,1553,1554,0,0,0,0,0,0,0,0,0,0
1684047438.19968987,89428381,1577,1578,1553,1553,0,0,0,0,0,0,0,0,0,0
1684047438.29964995,89528341,1578,1579,1551,1551,0,0,0,0,0,0,0,0,0,0
1684047438.39960980,89628301,1579,1580,1550,1549,0,0,0,0,0,0,0,0,0,0
1684047438.49956989,89728261,1582,1582,1549,1548,0,0,0,0,0,0,0,0,0,0
1684047438.59952998,89828221,1582,1584,1545,1545,0,0,0,0,0,0,0,0,0,0
1684047438.69948983,89928181,1586,1587,1545,1545,0,0,0,0,0,0,0,0,0,0
1684047438.80028296,90028974,1588,1588,1542,1543,0,0,0,0,0,0,0,0,0,0
1684047438.90024281,90128934,1589,1590,1540,1540,0,0,0,0,0,0,0,0,0,0
1684047439.00020289,90228894,1592,1593,1539,1540,0,0,0,0,0,0,0,0,0,0
1684047439.10016298,90328854,1593,1593,1540,1541,0,0,0,0,0,0,0,0,0,0
1684047439.20012283,90428814,1591,1591,1541,1544,0,0,0,0,0,0,0,0,0,0
1684047439.30008292,90528774,1590,1587,1547,1549,0,0,0,0,0,0,0,0,0,0
1684047439.40004301,90628734,1584,1581,1554,1556,0,0,0,0,0,0,0,0,0,0
1684047439.50000286,90728694,1577,1573,1564,1566,0,0,0,0,0,0,0,0,0,0
1684047439.59996295,90828654,1568,1564,1574,1576,0,0,0,0,0,0,0,0,0,0
1684047439.69992280,90928614,1559,1556,1586,1587,0,0,0,0,0,0,0,0,0,0
1684047439.79988289,91028574,1549,1547,1595,1595,0,0,0,0,0,0,0,0,0,0
1684047439.89984298,91128534,1542,1541,1603,1603,0,0,0,0,0,0,0,0,0,0
1684047439.99980283,91228494,1537,1538,1608,1607,0,0,0,0,0,0,0,0,0,0
1684047440.09976292,91328454,1537,1538,1611,1610,0,0,0,0,0,0,0,0,0,0
1684047440.19972301,91428414,1538,1541,1610,1609,0,0,0,0,0,0,0,0,0,0
1684047440.29968286,91528374,1543,1545,1607,1607,0,0,0,0,0,0,0,0,0,0
1684047440.39964294,91628334,1550,1551,1602,1601,0,0,0,0,0,0,0,0,0,0
1684047440.49960279,91728294,1558,1558,1597,1596,0,0,0,0,0,0,0,0,0,0
1684047440.59956288,91828254,1564,1564,1589,1589,0,0,0,0,0,0,0,0,0,0
1684047440.69952297,91928214,1572,1571,1584,1583,0,0,0,0,0,0,0,0,0,0
1684047440.79948282,92028174,1577,1576,1577,1577,0,0,0,0,0,0,0,0,0,0
1684047440.90027595,92128967,1581,1580,1573,1573,0,0,0,0,0,0,0,0,0,0
1684047441.00023580,92228927,1584,1583,1570,1570,0,0,0,0,0,0,0,0,0,0
1684047441.10019588,92328887,1586,1585,1569,1569,0,0,0,0,0,0,0,0,0,0
1684047441.20015597,92428847,1586,1585,1569,1570,0,0,0,0,0,0,0,0,0,0
1684047441.30011582,92528807,1585,1583,1570,1570,0,0,0,0,0,0,0,0,0,0
1684047441.40007591,92628767,1583,1582,1572,1572,0,0,0,0,0,0,0,0,0,0
1684047441.50003600,92728727,1581,1580,1575,1575,0,0,0,0,0,0,0,0,0,0
1684047441.59999585,92828687,1578,1579,1577,1577,0,0,0,0,0,0,0,0,0,0
1684047441.69995594,92928647,1576,1577,1580,1580,0,0,0,0,0,0,0,0,0,0
1684047441.79991579,93028607,1575,1576,1582,1582,0,0,0,0,0,0,0,0,0,0
1684047441.89987588,93128567,1574,1575,1584,1583,0,0,0,0,0,0,0,0,0,0
1684047441.99983597,93228527,1574,1574,1584,1584,0,0,0,0,0,0,0,0,0,0
1684047442.09979582,93328487,1573,1573,1583,1583,0,0,0,0,0,0,0,0,0,0
1684047442.19975591,93428447,1573,1574,1582,1583,0,0,0,0,0,0,0,0,0,0
1684047442.29971600,93528407,1575,1575,1581,1582,0,0,0,0,0,0,0,0,0,0
1684047442.39967585,93628367,1575,1575,1580,1580,0,0,0,0,0,0,0,0,0,0
1684047442.49963593,93728327,1577,1577,1580,1580,0,0,0,0,0,0,0,0,0,0
1684047442.59959579,93828287,1578,1579,1579,1579,0,0,0,0,0,0,0,0,0,0
1684047442.69955587,93928247,1580,1580,1579,1578,0,0,0,0,0,0,0,0,0,0
1684047442.79951596,94028207,1582,1581,1579,1578,0,0,0,0,0,0,0,0,0,0
1684047442.89947581,94128167,1582,1581,1579,1578,0,0,0,0,0,0,0,0,0,0
1684047443.00026894,94228960,1582,1582,1578,1578,0,0,0,0,0,0,0,0,0,0
1684047443.10022879,94328920,1581,1581,1578,1578,0,0,0,0,0,0,0,0,0,0
1684047443.20018888,94428880,1581,1581,1578,1578,0,0,0,0,0,0,0,0,0,0
1684047443.30014896,94528840,1581,1581,1579,1579,0,0,0,0,0,0,0,0,0,0
1684047443.40010881,94628800,1581,1581,1580,1581,0,0,0,0,0,0,0,0,0,0
1684047443.50006890,94728760,1581,1581,1580,1580,0,0,0,0,0,0,0,0,0,0
1684047443.60002899,94828720,1580,1581,1581,1581,0,0,0,0,0,0,0,0,0,0
1684047443.69998884,94928680,1581,1581,1582,1582,0,0,0,0,0,0,0,0,0,0
1684047443.79994893,95028640,1581,1581,1582,1582,0,0,0,0,0,0,0,0,0,0
1684047443.89990878,95128600,1580,1580,1581,1581,0,0,0,0,0,0,0,0,0,0
1684047443.99986887,95228560,1580,1580,1581,1581,0,0,0,0,0,0,0,0,0,0
1684047444.09982896,95328520,1580,1580,1581,1582,0,0,0,0,0,0,0,0,0,0
1684047444.19978881,95428480,1581,1580,1581,1582,0,0,0,0,0,0,0,0,0,0
1684047444.29974890,95528440,1581,1581,1582,1582,0,0,0,0,0,0,0,0,0,0
1684047444.39970899,95628400,1580,1581,1581,1581,0,0,0,0,0,0,0,0,0,0
1684047444.49966884,95728360,1580,1581,1581,1580,0,0,0,0,0,0,0,0,0,0
1684047444.59962893,95828320,1581,1581,1581,1581,0,0,0,0,0,0,0,0,0,0
1684047444.69958901,95928280,1580,1581,1580,1580,0,0,0,0,0,0,0,0,0,0
1684047444.79954886,96028240,1582,1581,1581,1581,0,0,0,0,0,0,0,0,0,0
1684047444.89950895,96128200,1581,1581,1582,1579,0,0,0,0,0,0,0,0,0,0
1684047444.99946880,96228160,1581,1583,1587,1572,0,0,0,0,0,0,0,0,0,0
1684047445.10026193,96328953,1580,1583,1582,1573,0,0,0,0,0,0,0,0,0,0
1684047445.20022202,96428913,1580,1583,1574,1573,0,0,0,0,0,0,0,0,0,0
1684047445.30018187,96528873,1579,1581,1566,1571,0,0,0,0,0,0,0,0,0,0
1684047445.40014195,96628833,1579,1580,1559,1567,0,0,0,0,0,0,0,0,0,0
1684047445.50010180,96728793,1579,1579,1556,1562,0,0,0,0,0,0,0,0,0,0
1684047445.60006189,96828753,1580,1579,1555,1557,0,0,0,0,0,0,0,0,0,0
1684047445.70002198,96928713,1580,1579,1555,1554,0,0,0,0,0,0,0,0,0,0
1684047445.79998183,97028673,1580,1579,1556,1554,0,0,0,0,0,0,0,0,0,0
1684047445.89994192,97128633,1579,1579,1556,1554,0,0,0,0,0,0,0,0,0,0
1684047445.99990201,97228593,1578,1578,1556,1554,0,0,0,0,0,0,0,0,0,0
1684047446.09986186,97328553,1576,1578,1555,1554,0,0,0,0,0,0,0,0,0,0
1684047446.19982195,97428513,1576,1578,1555,1555,0,0,0,0,0,0,0,0,0,0
1684047446.29978180,97528473,1577,1578,1554,1555,0,0,0,0,0,0,0,0,0,0
1684047446.39974189,97628433,1576,1578,1552,1552,0,0,0,0,0,0,0,0,0,0
1684047446.49970198,97728393,1578,1579,1551,1551,0,0,0,0,0,0,0,0,0,0
1684047446.59966183,97828353,1580,1581,1549,1549,0,0,0,0,0,0,0,0,0,0
1684047446.69962192,97928313,1583,1583,1546,1547,0,0,0,0,0,0,0,0,0,0
1684047446.79958200,98028273,1585,1586,1545,1544,0,0,0,0,0,0,0,0,0,0
1684047446.89954185,98128233,1587,1587,1541,1542,0,0,0,0,0,0,0,0,0,0
1684047446.99950194,98228193,1589,1590,1539,1539,0,0,0,0,0,0,0,0,0,0
1684047447.10029483,98328986,1591,1591,1538,1538,0,0,0,0,0,0,0,0,0,0
1684047447.20025492,98428946,1592,1593,1537,1538,0,0,0,0,0,0,0,0,0,0
1684047447.30021501,98528906,1594,1594,1538,1540,0,0,0,0,0,0,0,0,0,0
1684047447.40017486,98628866,1593,1593,1540,1542,0,0,0,0,0,0,0,0,0,0
1684047447.50013494,98728826,1591,1589,1544,1547,0,0,0,0,0,0,0,0,0,0
1684047447.60009480,98828786,1587,1584,1551,1553,0,0,0,0,0,0,0,0,0,0
1684047447.70005488,98928746,1580,1575,1559,1562,0,0,0,0,0,0,0,0,0,0
1684047447.80001497,99028706,1571,1566,1571,1573,0,0,0,0,0,0,0,0,0,0
1684047447.89997482,99128666,1560,1556,1583,1583,0,0,0,0,0,0,0,0,0,0
1684047447.99993491,99228626,1549,1547,1594,1594,0,0,0,0,0,0,0,0,0,0
1684047448.09989500,99328586,1540,1539,1603,1603,0,0,0,0,0,0,0,0,0,0
1684047448.19985485,99428546,1534,1535,1609,1609,0,0,0,0,0,0,0,0,0,0
1684047448.29981494,99528506,1532,1534,1612,1612,0,0,0,0,0,0,0,0,0,0
1684047448.39977479,99628466,1534,1536,1613,1612,0,0,0,0,0,0,0,0,0,0
1684047448.49973488,99728426,1539,1541,1611,1610,0,0,0,0,0,0,0,0,0,0
1684047448.59969497,99828386,1545,1547,1605,1605,0,0,0,0,0,0,0,0,0,0
1684047448.69965482,99928346,1553,1554,1599,1598,0,0,0,0,0,0,0,0,0,0
1684047448.79961491,100028306,1561,1561,1592,1591,0,0,0,0,0,0,0,0,0,0
1684047448.89957500,100128266,1569,1569,1585,1584,0,0,0,0,0,0,0,0,0,0
1684047448.99953485,100228226,1576,1575,1578,1578,0,0,0,0,0,0,0,0,0,0
1684047449.09949493,100328186,1582,1581,1574,1574,0,0,0,0,0,0,0,0,0,0
1684047449.20028782,100428979,1585,1584,1570,1570,0,0,0,0,0,0,0,0,0,0
1684047449.30024791,100528939,1587,1586,1568,1568,0,0,0,0,0,0,0,0,0,0
1684047449.40020800,100628899,1587,1586,1568,1568,0,0,0,0,0,0,0,0,0,0
1684047449.50016785,100728859,1586,1585,1568,1569,0,0,0,0,0,0,0,0,0,0
1684047449.60012794,100828819,1583,1582,1570,1569,0,0,0,0,0,0,0,0,0,0
1684047449.70008779,100928779,1581,1581,1573,1573,0,0,0,0,0,0,0,0,0,0
1684047449.80004787,101028739,1579,1579,1576,1576,0,0,0,0,0,0,0,0,0,0
1684047449.90000796,101128699,1576,1576,1578,1578,0,0,0,0,0,0,0,0,0,0
1684047449.99996781,101228659,1574,1575,1581,1581,0,0,0,0,0,0,0,0,0,0
1684047450.09992790,101328619,1574,1575,1583,1583,0,0,0,0,0,0,0,0,0,0
1684047450.19988799,101428579,1572,1573,1583,1583,0,0,0,0,0,0,0,0,0,0
1684047450.29984784,101528539,1574,1574,1585,1584,0,0,0,0,0,0,0,0,0,0
1684047450.39980793,101628499,1573,1574,1583,1583,0,0,0,0,0,0,0,0,0,0
1684047450.49976778,101728459,1575,1575,1583,1583,0,0,0,0,0,0,0,0,0,0
1684047450.59972787,101828419,1576,1576,1582,1581,0,0,0,0,0,0,0,0,0,0
1684047450.69968796,101928379,1576,1576,1580,1580,0,0,0,0,0,0,0,0,0,0
1684047450.79964781,102028339,1578,1578,1579,1579,0,0,0,0,0,0,0,0,0,0
1684047450.89960790,102128299,1579,1579,1578,1578,0,0,0,0,0,0,0,0,0,0
1684047450.99956799,102228259,1581,1580,1578,1578,0,0,0,0,0,0,0,0,0,0
1684047451.09952784,102328219,1581,1580,1577,1577,0,0,0,0,0,0,0,0,0,0
1684047451.19948792,102428179,1581,1581,1577,1577,0,0,0,0,0,0,0,0,0,0
1684047451.30028081,102528972,1581,1581,1577,1577,0,0,0,0,0,0,0,0,0,0
1684047451.40024090,102628932,1581,1581,1578,1577,0,0,0,0,0,0,0,0,0,0
1684047451.50020099,102728892,1581,1581,1578,1579,0,0,0,0,0,0,0,0,0,0
1684047451.60016084,102828852,1580,1580,1579,1579,0,0,0,0,0,0,0,0,0,0
1684047451.70012093,102928812,1581,1580,1580,1580,0,0,0,0,0,0,0,0,0,0
1684047451.80008101,103028772,1580,1580,1581,1581,0,0,0,0,0,0,0,0,0,0
1684047451.90004086,103128732,1579,1580,1580,1581,0,0,0,0,0,0,0,0,0,0
1684047452.00000095,103228692,1579,1580,1581,1581,0,0,0,0,0,0,0,0,0,0
1684047452.09996080,103328652,1579,1579,1580,1580,0,0,0,0,0,0,0,0,0,0
1684047452.19992089,103428612,1579,1579,1581,1581,0,0,0,0,0,0,0,0,0,0
1684047452.29988098,103528572,1580,1579,1581,1581,0,0,0,0,0,0,0,0,0,0
1684047452.39984083,103628532,1579,1580,1581,1581,0,0,0,0,0,0,0,0,0,0
1684047452.49980092,103728492,1580,1580,1581,1581,0,0,0,0,0,0,0,0,0,0
1684047452.59976101,103828452,1579,1580,1580,1580,0,0,0,0,0,0,0,0,0,0
1684047452.69972086,103928412,1580,1581,1581,1581,0,0,0,0,0,0,0,0,0,0
1684047452.79968095,104028372,1581,1581,1581,1580,0,0,0,0,0,0,0,0,0,0
1684047452.89964080,104128332,1581,1582,1587,1573,0,0,0,0,0,0,0,0,0,0
1684047452.99960089,104228292,1580,1581,1584,1573,0,0,0,0,0,0,0,0,0,0
1684047453.09956098,104328252,1577,1577,1576,1574,0,0,0,0,0,0,0,0,0,0
1684047453.19952083,104428212,1574,1574,1570,1574,0,0,0,0,0,0,0,0,0,0
1684047453.29948092,104528172,1572,1571,1566,1573,0,0,0,0,0,0,0,0,0,0
1684047453.40027380,104628965,1568,1568,1564,1570,0,0,0,0,0,0,0,0,0,0
1684047453.50023389,104728925,1567,1567,1564,1568,0,0,0,0,0,0,0,0,0,0
1684047453.60019398,104828885,1566,1566,1566,1566,0,0,0,0,0,0,0,0,0,0
1684047453.70015383,104928845,1566,1566,1568,1566,0,0,0,0,0,0,0,0,0,0
1684047453.80011392,105028805,1565,1566,1568,1565,0,0,0,0,0,0,0,0,0,0
1684047453.90007401,105128765,1565,1565,1567,1564,0,0,0,0,0,0,0,0,0,0
1684047454.00003386,105228725,1564,1564,1565,1564,0,0,0,0,0,0,0,0,0,0
1684047454.09999394,105328685,1564,1564,1565,1564,0,0,0,0,0,0,0,0,0,0
1684047454.19995379,105428645,1563,1563,1564,1564,0,0,0,0,0,0,0,0,0,0
1684047454.29991388,105528605,1563,1562,1562,1563,0,0,0,0,0,0,0,0,0,0
1684047454.39987397,105628565,1562,1563,1562,1563,0,0,0,0,0,0,0,0,0,0
1684047454.49983382,105728525,1562,1561,1561,1562,0,0,0,0,0,0,0,0,0,0
1684047454.59979391,105828485,1561,1561,1562,1561,0,0,0,0,0,0,0,0,0,0
1684047454.69975400,105928445,1561,1561,1561,1560,0,0,0,0,0,0,0,0,0,0
1684047454.79971385,106028405,1560,1559,1560,1558,0,0,0,0,0,0,0,0,0,0
1684047454.89967394,106128365,1557,1558,1558,1557,0,0,0,0,0,0,0,0,0,0
1684047454.99963379,106228325,1557,1556,1557,1556,0,0,0,0,0,0,0,0,0,0
1684047455.09959388,106328285,1557,1556,1556,1556,0,0,0,0,0,0,0,0,0,0
1684047455.19955397,106428245,1557,1557,1557,1556,0,0,0,0,0,0,0,0,0,0
1684047455.29951382,106528205,1557,1557,1557,1556,0,0,0,0,0,0,0,0,0,0
1684047455.39947391,106628165,1557,1557,1558,1556,0,0,0,0,0,0,0,0,0,0
1684047455.50026679,106728958,1557,1557,1558,1556,0,0,0,0,0,0,0,0,0,0
1684047455.60022688,106828918,1557,1557,1559,1556,0,0,0,0,0,0,0,0,0,0
1684047455.70018697,106928878,1559,1558,1558,1560,0,0,0,0,0,0,0,0,0,0
1684047455.80014682,107028838,1558,1558,1556,1561,0,0,0,0,0,0,0,0,0,0
1684047455.90010691,107128798,1561,1561,1558,1564,0,0,0,0,0,0,0,0,0,0
1684047456.00006700,107228758,1560,1561,1558,1564,0,0,0,0,0,0,0,0,0,0
1684047456.10002685,107328718,1563,1563,1561,1565,0,0,0,0,0,0,0,0,0,0
1684047456.19998693,107428678,1562,1562,1561,1562,0,0,0,0,0,0,0,0,0,0
1684047456.29994678,107528638,1564,1563,1565,1562,0,0,0,0,0,0,0,0,0,0
1684047456.39990687,107628598,1562,1563,1564,1560,0,0,0,0,0,0,0,0,0,0
1684047456.49986696,107728558,1561,1562,1560,1562,0,0,0,0,0,0,0,0,0,0
1684047456.59982681,107828518,1558,1558,1556,1560,0,0,0,0,0,0,0,0,0,0
1684047456.69978690,107928478,1554,1553,1552,1555,0,0,0,0,0,0,0,0,0,0
1684047456.79974699,108028438,1547,1547,1546,1547,0,0,0,0,0,0,0,0,0,0
1684047456.89970684,108128398,1542,1541,1541,1541,0,0,0,0,0,0,0,0,0,0
1684047456.99966693,108228358,1534,1534,1534,1534,0,0,0,0,0,0,0,0,0,0
1684047457.09962702,108328318,1526,1526,1527,1526,0,0,0,0,0,0,0,0,0,0
1684047457.19958687,108428278,1521,1521,1522,1521,0,0,0,0,0,0,0,0,0,0
1684047457.29954696,108528238,1519,1519,1519,1519,0,0,0,0,0,0,0,0,0,0
1684047457.39950681,108628198,1519,1520,1520,1520,0,0,0,0,0,0,0,0,0,0
1684047457.49946690,108728158,1522,1522,1522,1522,0,0,0,0,0,0,0,0,0,0
1684047457.60025978,108828951,1525,1525,1525,1525,0,0,0,0,0,0,0,0,0,0
1684047457.70021987,108928911,1530,1530,1530,1530,0,0,0,0,0,0,0,0,0,0
1684047457.80017996,109028871,1534,1534,1534,1534,0,0,0,0,0,0,0,0,0,0
1684047457.90013981,109128831,1538,1538,1538,1538,0,0,0,0,0,0,0,0,0,0
1684047458.00009990,109228791,1541,1541,1541,1541,0,0,0,0,0,0,0,0,0,0
1684047458.10005999,109328751,1543,1543,1543,1543,0,0,0,0,0,0,0,0,0,0
1684047458.20001984,109428711,1545,1545,1545,1545,0,0,0,0,0,0,0,0,0,0
1684047458.29997993,109528671,1545,1545,1545,1544,0,0,0,0,0,0,0,0,0,0
1684047458.39994001,109628631,1546,1546,1546,1546,0,0,0,0,0,0,0,0,0,0
1684047458.49989986,109728591,1546,1546,1546,1545,0,0,0,0,0,0,0,0,0,0
1684047458.59985995,109828551,1546,1546,1546,1546,0,0,0,0,0,0,0,0,0,0
1684047458.69981980,109928511,1546,1545,1546,1546,0,0,0,0,0,0,0,0,0,0
1684047458.79977989,110028471,1546,1546,1546,1546,0,0,0,0,0,0,0,0,0,0
1684047458.89973998,110128431,1546,1546,1546,1546,0,0,0,0,0,0,0,0,0,0
1684047458.99969983,110228391,1545,1546,1546,1546,0,0,0,0,0,0,0,0,0,0
1684047459.09965992,110328351,1545,1545,1545,1545,0,0,0,0,0,0,0,0,0,0
1684047459.19962001,110428311,1545,1546,1546,1545,0,0,0,0,0,0,0,0,0,0
1684047459.29957986,110528271,1545,1544,1545,1544,0,0,0,0,0,0,0,0,0,0
1684047459.39953995,110628231,1545,1545,1545,1544,0,0,0,0,0,0,0,0,0,0
1684047459.49949980,110728191,1545,1544,1544,1544,0,0,0,0,0,0,0,0,0,0
1684047459.60029292,110828984,1544,1545,1545,1545,0,0,0,0,0,0,0,0,0,0
1684047459.70025301,110928944,1544,1544,1544,1544,0,0,0,0,0,0,0,0,0,0
1684047459.80021286,111028904,1543,1544,1543,1544,0,0,0,0,0,0,0,0,0,0
1684047459.90017295,111128864,1544,1544,1544,1544,0,0,0,0,0,0,0,0,0,0
1684047460.00013280,111228824,1544,1544,1545,1544,0,0,0,0,0,0,0,0,0,0
1684047460.10009289,111328784,1544,1544,1544,1544,0,0,0,0,0,0,0,0,0,0
1684047460.20005298,111428744,1544,1544,1545,1544,0,0,0,0,0,0,0,0,0,0
1684047460.30001283,111528704,1545,1545,1545,1545,0,0,0,0,0,0,0,0,0,0
1684047460.39997292,111628664,1544,1544,1544,1544,0,0,0,0,0,0,0,0,0,0
1684047460.49993300,111728624,1544,1544,1544,1544,0,0,0,0,0,0,0,0,0,0
1684047460.59989285,111828584,1544,1544,1544,1544,0,0,0,0,0,0,0,0,0,0
1684047460.69985294,111928544,1544,1543,1544,1543,0,0,0,0,0,0,0,0,0,0
1684047460.79981279,112028504,1544,1544,1544,1543,0,0,0,0,0,0,0,0,0,0
1684047460.89977288,112128464,1544,1544,1544,1544,0,0,0,0,0,0,0,0,0,0
1684047460.99973297,112228424,1544,1544,1543,1543,0,0,0,0,0,0,0,0,0,0
1684047461.09969282,112328384,1544,1544,1544,1544,0,0,0,0,0,0,0,0,0,0
1684047461.19965291,112428344,1544,1544,1544,1544,0,0,0,0,0,0,0,0,0,0
1684047461.29961300,112528304,1544,1544,1544,1544,0,0,0,0,0,0,0,0,0,0
1684047461.39957285,112628264,1544,1544,1544,1545,0,0,0,0,0,0,0,0,0,0
1684047461.49953294,112728224,1544,1544,1544,1545,0,0,0,0,0,0,0,0,0,0
1684047461.59949279,112828184,1544,1544,1544,1543,0,0,0,0,0,0,0,0,0,0
1684047461.70028591,112928977,1544,1544,1544,1544,0,0,0,0,0,0,0,0,0,0
1684047461.80024600,113028937,1544,1544,1544,1544,0,0,0,0,0,0,0,0,0,0
1684047461.90020585,113128897,1544,1543,1544,1544,0,0,0,0,0,0,0,0,0,0
1684047462.00016594,113228857,1543,1543,1543,1543,0,0,0,0,0,0,0,0,0,0
1684047462.10012579,113328817,1544,1544,1543,1544,0,0,0,0,0,0,0,0,0,0
1684047462.20008588,113428777,1544,1544,1544,1544,0,0,0,0,0,0,0,0,0,0
1684047462.30004597,113528737,1545,1545,1544,1545,0,0,0,0,0,0,0,0,0,0
1684047462.40000582,113628697,1544,1544,1544,1544,0,0,0,0,0,0,0,0,0,0
1684047462.49996591,113728657,1544,1544,1544,1544,0,0,0,0,0,0,0,0,0,0
1684047462.59992599,113828617,1544,1544,1544,1543,0,0,0,0,0,0,0,0,0,0
1684047462.69988585,113928577,1544,1544,1544,1544,0,0,0,0,0,0,0,0,0,0
1684047462.79984593,114028537,1544,1545,1544,1544,0,0,0,0,0,0,0,0,0,0
1684047462.89980578,114128497,1545,1545,1545,1545,0,0,0,0,0,0,0,0,0,0
1684047462.99976587,114228457,1544,1544,1544,1544,0,0,0,0,0,0,0,0,0,0
1684047463.09972596,114328417,1545,1545,1544,1545,0,0,0,0,0,0,0,0,0,0
1684047463.19968581,114428377,1544,1544,1544,1544,0,0,0,0,0,0,0,0,0,0
1684047463.29964590,114528337,1544,1544,1544,1544,0,0,0,0,0,0,0,0,0,0
1684047463.39960599,114628297,1544,1544,1544,1544,0,0,0,0,0,0,0,0,0,0
1684047463.49956584,114728257,1544,1544,1544,1544,0,0,0,0,0,0,0,0,0,0
1684047463.59952593,114828217,1545,1544,1545,1544,0,0,0,0,0,0,0,0,0,0
1684047463.69948602,114928177,1544,1544,1544,1544,0,0,0,0,0,0,0,0,0,0
1684047463.80027890,115028970,1544,1544,1544,1544,0,0,0,0,0,0,0,0,0,0
1684047463.90023899,115128930,1544,1544,1544,1544,0,0,0,0,0,0,0,0,0,0
1684047464.00019884,115228890,1544,1545,1545,1544,0,0,0,0,0,0,0,0,0,0
1684047464.10015893,115328850,1543,1544,1543,1544,0,0,0,0,0,0,0,0,0,0
1684047464.20011878,115428810,1545,1544,1544,1545,0,0,0,0,0,0,0,0,0,0
1684047464.30007887,115528770,1544,1544,1544,1544,0,0,0,0,0,0,0,0,0,0
1684047464.40003896,115628730,1544,1544,1544,1544,0,0,0,0,0,0,0,0,0,0
1684047464.49999881,115728690,1545,1544,1544,1545,0,0,0,0,0,0,0,0,0,0
1684047464.59995890,115828650,1544,1544,1544,1544,0,0,0,0,0,0,0,0,0,0
1684047464.69991899,115928610,1545,1544,1545,1545,0,0,0,0,0,0,0,0,0,0
1684047464.79987884,116028570,1544,1545,1545,1544,0,0,0,0,0,0,0,0,0,0
1684047464.89983892,116128530,1545,1544,1545,1545,0,0,0,0,0,0,0,0,0,0
1684047464.99979901,116228490,1544,1544,1544,1544,0,0,0,0,0,0,0,0,0,0
1684047465.09975886,116328450,1544,1544,1544,1544,0,0,0,0,0,0,0,0,0,0
1684047465.19971895,116428410,1544,1544,1544,1544,0,0,0,0,0,0,0,0,0,0
1684047465.29967880,116528370,1544,1543,1544,1544,0,0,0,0,0,0,0,0,0,0
1684047465.39963889,116628330,1544,1544,1544,1544,0,0,0,0,0,0,0,0,0,0
1684047465.49959898,116728290,1544,1544,1544,1544,0,0,0,0,0,0,0,0,0,0
1684047465.59955883,116828250,1544,1545,1545,1545,0,0,0,0,0,0,0,0,0,0
1684047465.69951892,116928210,1544,1544,1544,1544,0,0,0,0,0,0,0,0,0,0
1684047465.79947901,117028170,1544,1544,1544,1543,0,0,0,0,0,0,0,0,0,0
1684047465.90027189,117128963,1543,1543,1543,1543,0,0,0,0,0,0,0,0,0,0
1684047466.00023198,117228923,1544,1544,1544,1544,0,0,0,0,0,0,0,0,0,0
1684047466.10019183,117328883,1544,1543,1543,1544,0,0,0,0,0,0,0,0,0,0
1684047466.20015192,117428843,1544,1544,1544,1544,0,0,0,0,0,0,0,0,0,0
1684047466.30011201,117528803,1544,1544,1544,1544,0,0,0,0,0,0,0,0,0,0
1684047466.40007186,117628763,1544,1544,1544,1544,0,0,0,0,0,0,0,0,0,0
1684047466.50003195,117728723,1544,1544,1544,1544,0,0,0,0,0,0,0,0,0,0
1684047466.59999180,117828683,1543,1544,1544,1544,0,0,0,0,0,0,0,0,0,0
1684047466.69995189,117928643,1544,1544,1544,1544,0,0,0,0,0,0,0,0,0,0
1684047466.79991198,118028603,1544,1544,1544,1544,0,0,0,0,0,0,0,0,0,0
1684047466.89987183,118128563,1545,1545,1545,1545,0,0,0,0,0,0,0,0,0,0
1684047466.99983191,118228523,1392,1391,1392,1392,0,0,0,0,0,0,0,0,0,0
1684047467.09979200,118328483,1263,1262,1262,1263,0,0,0,0,0,0,0,0,0,0
1684047467.19975185,118428443,1216,1215,1216,1216,0,0,0,0,0,0,0,0,0,0
1684047467.29971194,118528403,1197,1194,1195,1196,0,0,0,0,0,0,0,0,0,0
1684047467.39967179,118628363,1157,1155,1156,1156,0,0,0,0,0,0,0,0,0,0
1684047467.49963188,118728323,1153,1150,1151,1152,0,0,0,0,0,0,0,0,0,0
1684047467.59959197,118828283,1152,1150,1152,1151,0,0,0,0,0,0,0,0,0,0
1684047467.69955182,118928243,1191,1150,1151,1192,0,0,0,0,0,0,0,0,0,0
1684047467.79951191,119028203,1179,1150,1152,1179,0,0,0,0,0,0,0,0,0,0
1684047467.89947200,119128163,1175,1150,1152,1175,0,0,0,0,0,0,0,0,0,0
1684047468.00026488,119228956,1176,1150,1152,1176,0,0,0,0,0,0,0,0,0,0
1684047468.10022497,119328916,1179,1150,1152,1178,0,0,0,0,0,0,0,0,0,0
1684047468.20018482,119428876,1181,1150,1152,1180,0,0,0,0,0,0,0,0,0,0
1684047468.30014491,119528836,1183,1150,1152,1183,0,0,0,0,0,0,0,0,0,0
1684047468.40010500,119628796,1185,1150,1152,1184,0,0,0,0,0,0,0,0,0,0
1684047468.50006485,119728756,1168,1150,1152,1168,0,0,0,0,0,0,0,0,0,0
1684047468.60002494,119828716,1170,1150,1152,1170,0,0,0,0,0,0,0,0,0,0
1684047468.69998479,119928676,1171,1150,1152,1171,0,0,0,0,0,0,0,0,0,0
1684047468.79994488,120028636,1172,1150,1152,1172,0,0,0,0,0,0,0,0,0,0
1684047468.89990497,120128596,1172,1150,1152,1172,0,0,0,0,0,0,0,0,0,0
1684047468.99986482,120228556,1000,1000,1000,1000,0,0,0,0,0,0,0,0,0,0
1684047469.09982491,120328516,1000,1000,1000,1000,0,0,0,0,0,0,0,0,0,0
1684047469.19978499,120428476,1000,1000,1000,1000,0,0,0,0,0,0,0,0,0,0
1684047469.29974484,120528436,1000,1000,1000,1000,0,0,0,0,0,0,0,0,0,0
1684047469.39970493,120628396,1000,1000,1000,1000,0,0,0,0,0,0,0,0,0,0
1684047469.49966478,120728356,1000,1000,1000,1000,0,0,0,0,0,0,0,0,0,0
1684047469.59962487,120828316,1000,1000,1000,1000,0,0,0,0,0,0,0,0,0,0
1684047469.69958496,120928276,1000,1000,1000,1000,0,0,0,0,0,0,0,0,0,0
1684047469.79954481,121028236,1000,1000,1000,1000,0,0,0,0,0,0,0,0,0,0
1684047469.89950490,121128196,1000,1000,1000,1000,0,0,0,0,0,0,0,0,0,0
1684047469.99946499,121228156,1000,1000,1000,1000,0,0,0,0,0,0,0,0,0,0
1684047470.10025787,121328949,1000,1000,1000,1000,0,0,0,0,0,0,0,0,0,0
1684047470.20021796,121428909,1000,1000,1000,1000,0,0,0,0,0,0,0,0,0,0
1684047470.30017781,121528869,1000,1000,1000,1000,0,0,0,0,0,0,0,0,0,0
1684047470.40013790,121628829,1000,1000,1000,1000,0,0,0,0,0,0,0,0,0,0
1684047470.50009799,121728789,1000,1000,1000,1000,0,0,0,0,0,0,0,0,0,0
1684047470.60005784,121828749,1000,1000,1000,1000,0,0,0,0,0,0,0,0,0,0
1684047470.70001793,121928709,1000,1000,1000,1000,0,0,0,0,0,0,0,0,0,0
1684047470.79997802,122028669,1000,1000,1000,1000,0,0,0,0,0,0,0,0,0,0
1684047470.89993787,122128629,1000,1000,1000,1000,0,0,0,0,0,0,0,0,0,0
1684047470.99989796,122228589,1000,1000,1000,1000,0,0,0,0,0,0,0,0,0,0
1684047471.09985781,122328549,1000,1000,1000,1000,0,0,0,0,0,0,0,0,0,0
1684047471.19981790,122428509,1000,1000,1000,1000,0,0,0,0,0,0,0,0,0,0
1684047471.29977798,122528469,1000,1000,1000,1000,0,0,0,0,0,0,0,0,0,0
1684047471.39973783,122628429,1000,1000,1000,1000,0,0,0,0,0,0,0,0,0,0
1684047471.49969792,122728389,1000,1000,1000,1000,0,0,0,0,0,0,0,0,0,0
1684047471.59965801,122828349,1000,1000,1000,1000,0,0,0,0,0,0,0,0,0,0
1684047471.69961786,122928309,1000,1000,1000,1000,0,0,0,0,0,0,0,0,0,0
1684047471.79957795,123028269,1000,1000,1000,1000,0,0,0,0,0,0,0,0,0,0
1684047471.89953780,123128229,1000,1000,1000,1000,0,0,0,0,0,0,0,0,0,0
1684047471.99949789,123228189,1000,1000,1000,1000,0,0,0,0,0,0,0,0,0,0
1684047472.10029101,123328982,1000,1000,1000,1000,0,0,0,0,0,0,0,0,0,0
1684047472.20025086,123428942,1000,1000,1000,1000,0,0,0,0,0,0,0,0,0,0
1684047472.30021095,123528902,1000,1000,1000,1000,0,0,0,0,0,0,0,0,0,0
1684047472.40017080,123628862,1000,1000,1000,1000,0,0,0,0,0,0,0,0,0,0
1684047472.50013089,123728822,1000,1000,1000,1000,0,0,0,0,0,0,0,0,0,0
1684047472.60009098,123828782,1000,1000,1000,1000,0,0,0,0,0,0,0,0,0,0
1684047472.70005083,123928742,1000,1000,1000,1000,0,0,0,0,0,0,0,0,0,0
1684047472.80001092,124028702,1000,1000,1000,1000,0,0,0,0,0,0,0,0,0,0
1684047472.89997101,124128662,1000,1000,1000,1000,0,0,0,0,0,0,0,0,0,0
1684047472.99993086,124228622,1000,1000,1000,1000,0,0,0,0,0,0,0,0,0,0
1684047473.09989095,124328582,1000,1000,1000,1000,0,0,0,0,0,0,0,0,0,0
1684047473.19985080,124428542,1000,1000,1000,1000,0,0,0,0,0,0,0,0,0,0
1684047473.29981089,124528502,1000,1000,1000,1000,0,0,0,0,0,0,0,0,0,0
1684047473.39977098,124628462,1000,1000,1000,1000,0,0,0,0,0,0,0,0,0,0
1684047473.49973083,124728422,1000,1000,1000,1000,0,0,0,0,0,0,0,0,0,0
1684047473.59969091,124828382,1000,1000,1000,1000,0,0,0,0,0,0,0,0,0,0
1684047473.69965100,124928342,1000,1000,1000,1000,0,0,0,0,0,0,0,0,0,0
1684047473.79961085,125028302,1000,1000,1000,1000,0,0,0,0,0,0,0,0,0,0
1684047473.89957094,125128262,1000,1000,1000,1000,0,0,0,0,0,0,0,0,0,0
1684047473.99953079,125228222,1000,1000,1000,1000,0,0,0,0,0,0,0,0,0,0
1684047474.09949088,125328182,1000,1000,1000,1000,0,0,0,0,0,0,0,0,0,0
1684047474.20028400,125428975,1000,1000,1000,1000,0,0,0,0,0,0,0,0,0,0
1684047474.30024385,125528935,1000,1000,1000,1000,0,0,0,0,0,0,0,0,0,0
1684047474.40020394,125628895,1000,1000,1000,1000,0,0,0,0,0,0,0,0,0,0
1684047474.50016379,125728855,1000,1000,1000,1000,0,0,0,0,0,0,0,0,0,0
1684047474.60012388,125828815,1000,1000,1000,1000,0,0,0,0,0,0,0,0,0,0
1684047474.70008397,125928775,1000,1000,1000,1000,0,0,0,0,0,0,0,0,0,0
1684047474.80004382,126028735,1000,1000,1000,1000,0,0,0,0,0,0,0,0,0,0
1684047474.90000391,126128695,1000,1000,1000,1000,0,0,0,0,0,0,0,0,0,0
1684047474.99996400,126228655,1000,1000,1000,1000,0,0,0,0,0,0,0,0,0,0
1684047475.09992385,126328615,1000,1000,1000,1000,0,0,0,0,0,0,0,0,0,0
1684047475.19988394,126428575,1000,1000,1000,1000,0,0,0,0,0,0,0,0,0,0
1684047475.29984379,126528535,1000,1000,1000,1000,0,0,0,0,0,0,0,0,0,0
1684047475.39980388,126628495,1000,1000,1000,1000,0,0,0,0,0,0,0,0,0,0
1684047475.49976397,126728455,1000,1000,1000,1000,0,0,0,0,0,0,0,0,0,0
1684047475.59972382,126828415,1000,1000,1000,1000,0,0,0,0,0,0,0,0,0,0
1684047475.69968390,126928375,1000,1000,1000,1000,0,0,0,0,0,0,0,0,0,0
1684047475.79964399,127028335,1000,1000,1000,1000,0,0,0,0,0,0,0,0,0,0
1684047475.89960384,127128295,1000,1000,1000,1000,0,0,0,0,0,0,0,0,0,0
1684047475.99956393,127228255,1000,1000,1000,1000,0,0,0,0,0,0,0,0,0,0
1684047476.09952378,127328215,1000,1000,1000,1000,0,0,0,0,0,0,0,0,0,0
1684047476.19948387,127428175,1000,1000,1000,1000,0,0,0,0,0,0,0,0,0,0
1684047476.30027699,127528968,1000,1000,1000,1000,0,0,0,0,0,0,0,0,0,0
1684047476.40023685,127628928,1000,1000,1000,1000,0,0,0,0,0,0,0,0,0,0
1684047476.50019693,127728888,1000,1000,1000,1000,0,0,0,0,0,0,0,0,0,0
1684047476.60015678,127828848,1000,1000,1000,1000,0,0,0,0,0,0,0,0,0,0
1684047476.70011687,127928808,1000,1000,1000,1000,0,0,0,0,0,0,0,0,0,0
1684047476.80007696,128028768,1000,1000,1000,1000,0,0,0,0,0,0,0,0,0,0
1684047476.90003681,128128728,1000,1000,1000,1000,0,0,0,0,0,0,0,0,0,0
1684047476.99999690,128228688,1000,1000,1000,1000,0,0,0,0,0,0,0,0,0,0
1684047477.09995699,128328648,1000,1000,1000,1000,0,0,0,0,0,0,0,0,0,0
1684047477.19991684,128428608,1000,1000,1000,1000,0,0,0,0,0,0,0,0,0,0
1684047477.29987693,128528568,1000,1000,1000,1000,0,0,0,0,0,0,0,0,0,0
1684047477.39983702,128628528,1000,1000,1000,1000,0,0,0,0,0,0,0,0,0,0
1684047477.49979687,128728488,1000,1000,1000,1000,0,0,0,0,0,0,0,0,0,0
1684047477.59975696,128828448,1000,1000,1000,1000,0,0,0,0,0,0,0,0,0,0
1684047477.69971681,128928408,1000,1000,1000,1000,0,0,0,0,0,0,0,0,0,0
1684047477.79967690,129028368,1000,1000,1000,1000,0,0,0,0,0,0,0,0,0,0
1684047477.89963698,129128328,1000,1000,1000,1000,0,0,0,0,0,0,0,0,0,0
1684047477.99959683,129228288,1000,1000,1000,1000,0,0,0,0,0,0,0,0,0,0
1684047478.09955692,129328248,1000,1000,1000,1000,0,0,0,0,0,0,0,0,0,0
1684047478.19951701,129428208,1000,1000,1000,1000,0,0,0,0,0,0,0,0,0,0
1684047478.29947686,129528168,1000,1000,1000,1000,0,0,0,0,0,0,0,0,0,0
1684047478.40026999,129628961,1000,1000,1000,1000,0,0,0,0,0,0,0,0,0,0
1684047478.50022984,129728921,1000,1000,1000,1000,0,0,0,0,0,0,0,0,0,0
1684047478.60018992,129828881,1000,1000,1000,1000,0,0,0,0,0,0,0,0,0,0
1684047478.70015001,129928841,1000,1000,1000,1000,0,0,0,0,0,0,0,0,0,0
1684047478.80010986,130028801,1000,1000,1000,1000,0,0,0,0,0,0,0,0,0,0
1684047478.90006995,130128761,1000,1000,1000,1000,0,0,0,0,0,0,0,0,0,0
1684047479.00002980,130228721,1000,1000,1000,1000,0,0,0,0,0,0,0,0,0,0
1684047479.09998989,130328681,1000,1000,1000,1000,0,0,0,0,0,0,0,0,0,0
1684047479.19994998,130428641,1000,1000,1000,1000,0,0,0,0,0,0,0,0,0,0
1684047479.29990983,130528601,1000,1000,1000,1000,0,0,0,0,0,0,0,0,0,0
1684047479.39986992,130628561,1000,1000,1000,1000,0,0,0,0,0,0,0,0,0,0
1684047479.49983001,130728521,1000,1000,1000,1000,0,0,0,0,0,0,0,0,0,0
1684047479.59978986,130828481,1000,1000,1000,1000,0,0,0,0,0,0,0,0,0,0
1684047479.69974995,130928441,1000,1000,1000,1000,0,0,0,0,0,0,0,0,0,0
1684047479.79970980,131028401,1000,1000,1000,1000,0,0,0,0,0,0,0,0,0,0
1684047479.89966989,131128361,1000,1000,1000,1000,0,0,0,0,0,0,0,0,0,0
1684047479.99962997,131228321,1000,1000,1000,1000,0,0,0,0,0,0,0,0,0,0
1684047480.09958982,131328281,1000,1000,1000,1000,0,0,0,0,0,0,0,0,0,0
1684047480.19954991,131428241,1000,1000,1000,1000,0,0,0,0,0,0,0,0,0,0
1684047480.29951000,131528201,1000,1000,1000,1000,0,0,0,0,0,0,0,0,0,0
1684047480.39946985,131628161,1000,1000,1000,1000,0,0,0,0,0,0,0,0,0,0
1684047480.50026298,131728954,1000,1000,1000,1000,0,0,0,0,0,0,0,0,0,0
1684047480.60022283,131828914,1000,1000,1000,1000,0,0,0,0,0,0,0,0,0,0
1684047480.70018291,131928874,1000,1000,1000,1000,0,0,0,0,0,0,0,0,0,0
1684047480.80014300,132028834,1000,1000,1000,1000,0,0,0,0,0,0,0,0,0,0
1684047480.90010285,132128794,1000,1000,1000,1000,0,0,0,0,0,0,0,0,0,0
1684047481.00006294,132228754,1000,1000,1000,1000,0,0,0,0,0,0,0,0,0,0
1684047481.10002279,132328714,1000,1000,1000,1000,0,0,0,0,0,0,0,0,0,0
1684047481.19998288,132428674,1000,1000,1000,1000,0,0,0,0,0,0,0,0,0,0
1684047481.29994297,132528634,1000,1000,1000,1000,0,0,0,0,0,0,0,0,0,0
1684047481.39990282,132628594,1000,1000,1000,1000,0,0,0,0,0,0,0,0,0,0
1684047481.49986291,132728554,1000,1000,1000,1000,0,0,0,0,0,0,0,0,0,0
1684047481.59982300,132828514,1000,1000,1000,1000,0,0,0,0,0,0,0,0,0,0
1684047481.69978285,132928474,1000,1000,1000,1000,0,0,0,0,0,0,0,0,0,0
1684047481.79974294,133028434,1000,1000,1000,1000,0,0,0,0,0,0,0,0,0,0
1684047481.89970279,133128394,1000,1000,1000,1000,0,0,0,0,0,0,0,0,0,0
1684047481.99966288,133228354,1000,1000,1000,1000,0,0,0,0,0,0,0,0,0,0
1684047482.09962296,133328314,1000,1000,1000,1000,0,0,0,0,0,0,0,0,0,0
1684047482.19958282,133428274,1000,1000,1000,1000,0,0,0,0,0,0,0,0,0,0
1684047482.29954290,133528234,1000,1000,1000,1000,0,0,0,0,0,0,0,0,0,0
1684047482.39950299,133628194,1000,1000,1000,1000,0,0,0,0,0,0,0,0,0,0
1684047482.49946284,133728154,1000,1000,1000,1000,0,0,0,0,0,0,0,0,0,0
1684047482.60025597,133828947,1000,1000,1000,1000,0,0,0,0,0,0,0,0,0,0
1684047482.70021582,133928907,1000,1000,1000,1000,0,0,0,0,0,0,0,0,0,0
1684047482.80017591,134028867,1000,1000,1000,1000,0,0,0,0,0,0,0,0,0,0
1684047482.90013599,134128827,1000,1000,1000,1000,0,0,0,0,0,0,0,0,0,0
1684047483.00009584,134228787,1000,1000,1000,1000,0,0,0,0,0,0,0,0,0,0
1684047483.10005593,134328747,1000,1000,1000,1000,0,0,0,0,0,0,0,0,0,0
1684047483.20001578,134428707,1000,1000,1000,1000,0,0,0,0,0,0,0,0,0,0
1684047483.29997587,134528667,1000,1000,1000,1000,0,0,0,0,0,0,0,0,0,0
1684047483.39993596,134628627,1000,1000,1000,1000,0,0,0,0,0,0,0,0,0,0
1684047483.49989581,134728587,1000,1000,1000,1000,0,0,0,0,0,0,0,0,0,0
1684047483.59985590,134828547,1000,1000,1000,1000,0,0,0,0,0,0,0,0,0,0
1684047483.69981599,134928507,1000,1000,1000,1000,0,0,0,0,0,0,0,0,0,0
1684047483.79977584,135028467,1000,1000,1000,1000,0,0,0,0,0,0,0,0,0,0
1684047483.89973593,135128427,1000,1000,1000,1000,0,0,0,0,0,0,0,0,0,0
