timestamp,TimeUS,C1,C2,C3,C4,C5,C6,C7,C8,C9,C10,C11,C12,C13,C14
1683035194.70004010,77928816,1000,1000,1000,1000,0,0,0,0,0,0,0,0,0,0
1683035194.79999995,78028776,1000,1000,1000,1000,0,0,0,0,0,0,0,0,0,0
1683035194.89996004,78128736,1000,1000,1000,1000,0,0,0,0,0,0,0,0,0,0
1683035194.99992013,78228696,1000,1000,1000,1000,0,0,0,0,0,0,0,0,0,0
1683035195.09987998,78328656,1000,1000,1000,1000,0,0,0,0,0,0,0,0,0,0
1683035195.19984007,78428616,1000,1000,1000,1000,0,0,0,0,0,0,0,0,0,0
1683035195.29979992,78528576,1000,1000,1000,1000,0,0,0,0,0,0,0,0,0,0
1683035195.39976001,78628536,1000,1000,1000,1000,0,0,0,0,0,0,0,0,0,0
1683035195.49972010,78728496,1000,1000,1000,1000,0,0,0,0,0,0,0,0,0,0
1683035195.59967995,78828456,1000,1000,1000,1000,0,0,0,0,0,0,0,0,0,0
1683035195.69964004,78928416,1000,1000,1000,1000,0,0,0,0,0,0,0,0,0,0
1683035195.79960012,79028376,1000,1000,1000,1000,0,0,0,0,0,0,0,0,0,0
1683035195.89955997,79128336,1000,1000,1000,1000,0,0,0,0,0,0,0,0,0,0
1683035195.99952006,79228296,1000,1000,1000,1000,0,0,0,0,0,0,0,0,0,0
1683035196.09947991,79328256,1000,1000,1000,1000,0,0,0,0,0,0,0,0,0,0
1683035196.19944000,79428216,1000,1000,1000,1000,0,0,0,0,0,0,0,0,0,0
1683035196.29940009,79528176,1000,1000,1000,1000,0,0,0,0,0,0,0,0,0,0
1683035196.40019298,79628969,1000,1000,1000,1000,0,0,0,0,0,0,0,0,0,0
1683035196.50015306,79728929,1000,1000,1000,1000,0,0,0,0,0,0,0,0,0,0
1683035196.60011292,79828889,1000,1000,1000,1000,0,0,0,0,0,0,0,0,0,0
1683035196.70007300,79928849,1006,1006,1006,1006,0,0,0,0,0,0,0,0,0,0
1683035196.80003309,80028809,1036,1036,1036,1036,0,0,0,0,0,0,0,0,0,0
1683035196.89999294,80128769,1066,1066,1066,1066,0,0,0,0,0,0,0,0,0,0
1683035196.99995303,80228729,1096,1096,1096,1096,0,0,0,0,0,0,0,0,0,0
1683035197.09991312,80328689,1126,1126,1126,1126,0,0,0,0,0,0,0,0,0,0
1683035197.19987297,80428649,1217,1205,1206,1217,0,0,0,0,0,0,0,0,0,0
1683035197.29983306,80528609,1446,1437,1437,1446,0,0,0,0,0,0,0,0,0,0
1683035197.39979291,80628569,1616,1608,1609,1616,0,0,0,0,0,0,0,0,0,0
1683035197.49975300,80728529,1758,1750,1751,1758,0,0,0,0,0,0,0,0,0,0
1683035197.59971309,80828489,1882,1875,1875,1883,0,0,0,0,0,0,0,0,0,0
1683035197.69967294,80928449,1907,1902,1903,1908,0,0,0,0,0,0,0,0,0,0
1683035197.79963303,81028409,1793,1791,1792,1793,0,0,0,0,0,0,0,0,0,0
1683035197.89959311,81128369,1683,1685,1685,1684,0,0,0,0,0,0,0,0,0,0
1683035197.99955297,81228329,1639,1643,1643,1640,0,0,0,0,0,0,0,0,0,0
1683035198.09951305,81328289,1636,1636,1633,1639,0,0,0,0,0,0,0,0,0,0
1683035198.19947290,81428249,1638,1643,1635,1646,0,0,0,0,0,0,0,0,0,0
1683035198.29943299,81528209,1636,1640,1635,1641,0,0,0,0,0,0,0,0,0,0
1683035198.39939308,81628169,1632,1634,1633,1632,0,0,0,0,0,0,0,0,0,0
1683035198.50018597,81728962,1625,1625,1628,1622,0,0,0,0,0,0,0,0,0,0
1683035198.60014606,81828922,1622,1620,1625,1617,0,0,0,0,0,0,0,0,0,0
1683035198.70010591,81928882,1621,1618,1623,1616,0,0,0,0,0,0,0,0,0,0
1683035198.80006599,82028842,1607,1605,1611,1601,0,0,0,0,0,0,0,0,0,0
1683035198.90002608,82128802,1583,1582,1593,1572,0,0,0,0,0,0,0,0,0,0
1683035198.99998593,82228762,1570,1570,1575,1565,0,0,0,0,0,0,0,0,0,0
1683035199.09994602,82328722,1559,1560,1557,1561,0,0,0,0,0,0,0,0,0,0
1683035199.19990611,82428682,1549,1550,1543,1555,0,0,0,0,0,0,0,0,0,0
1683035199.29986596,82528642,1543,1543,1533,1552,0,0,0,0,0,0,0,0,0,0
1683035199.39982605,82628602,1537,1537,1528,1546,0,0,0,0,0,0,0,0,0,0
1683035199.49978614,82728562,1532,1531,1526,1537,0,0,0,0,0,0,0,0,0,0
1683035199.59974599,82828522,1527,1526,1524,1528,0,0,0,0,0,0,0,0,0,0
1683035199.69970608,82928482,1525,1524,1525,1523,0,0,0,0,0,0,0,0,0,0
1683035199.79966593,83028442,1525,1525,1527,1523,0,0,0,0,0,0,0,0,0,0
1683035199.89962602,83128402,1529,1528,1531,1526,0,0,0,0,0,0,0,0,0,0
1683035199.99958611,83228362,1531,1532,1535,1529,0,0,0,0,0,0,0,0,0,0
1683035200.09954596,83328322,1535,1536,1538,1534,0,0,0,0,0,0,0,0,0,0
1683035200.19950604,83428282,1540,1539,1542,1539,0,0,0,0,0,0,0,0,0,0
1683035200.29946613,83528242,1543,1543,1544,1543,0,0,0,0,0,0,0,0,0,0
1683035200.39942598,83628202,1546,1546,1546,1546,0,0,0,0,0,0,0,0,0,0
1683035200.49938607,83728162,1549,1549,1549,1550,0,0,0,0,0,0,0,0,0,0
1683035200.60017896,83828955,1552,1552,1552,1553,0,0,0,0,0,0,0,0,0,0
1683035200.70013905,83928915,1556,1555,1554,1557,0,0,0,0,0,0,0,0,0,0
1683035200.80009913,84028875,1560,1560,1552,1555,0,0,0,0,0,0,0,0,0,0
1683035200.90005898,84128835,1563,1562,1555,1556,0,0,0,0,0,0,0,0,0,0
1683035201.00001907,84228795,1562,1562,1560,1560,0,0,0,0,0,0,0,0,0,0
1683035201.09997892,84328755,1561,1560,1564,1564,0,0,0,0,0,0,0,0,0,0
1683035201.19993901,84428715,1560,1560,1567,1566,0,0,0,0,0,0,0,0,0,0
1683035201.29989910,84528675,1560,1561,1570,1569,0,0,0,0,0,0,0,0,0,0
1683035201.39985895,84628635,1562,1563,1571,1570,0,0,0,0,0,0,0,0,0,0
1683035201.49981904,84728595,1564,1565,1572,1571,0,0,0,0,0,0,0,0,0,0
1683035201.59977913,84828555,1566,1567,1572,1572,0,0,0,0,0,0,0,0,0,0
1683035201.69973898,84928515,1568,1568,1571,1571,0,0,0,0,0,0,0,0,0,0
1683035201.79969907,85028475,1570,1570,1570,1571,0,0,0,0,0,0,0,0,0,0
1683035201.89965892,85128435,1572,1572,1571,1571,0,0,0,0,0,0,0,0,0,0
1683035201.99961901,85228395,1574,1574,1571,1570,0,0,0,0,0,0,0,0,0,0
1683035202.09957910,85328355,1575,1575,1571,1571,0,0,0,0,0,0,0,0,0,0
1683035202.19953895,85428315,1576,1576,1572,1571,0,0,0,0,0,0,0,0,0,0
1683035202.29949903,85528275,1577,1576,1572,1571,0,0,0,0,0,0,0,0,0,0
1683035202.39945912,85628235,1578,1578,1574,1573,0,0,0,0,0,0,0,0,0,0
1683035202.49941897,85728195,1578,1578,1574,1573,0,0,0,0,0,0,0,0,0,0
1683035202.59937906,85828155,1577,1577,1574,1574,0,0,0,0,0,0,0,0,0,0
1683035202.70017195,85928948,1576,1576,1574,1574,0,0,0,0,0,0,0,0,0,0
1683035202.80013204,86028908,1575,1576,1575,1576,0,0,0,0,0,0,0,0,0,0
1683035202.90009212,86128868,1576,1576,1576,1577,0,0,0,0,0,0,0,0,0,0
1683035203.00005198,86228828,1575,1575,1577,1577,0,0,0,0,0,0,0,0,0,0
1683035203.10001206,86328788,1576,1576,1577,1577,0,0,0,0,0,0,0,0,0,0
1683035203.19997191,86428748,1576,1576,1578,1578,0,0,0,0,0,0,0,0,0,0
1683035203.29993200,86528708,1576,1576,1578,1578,0,0,0,0,0,0,0,0,0,0
1683035203.39989209,86628668,1577,1577,1579,1579,0,0,0,0,0,0,0,0,0,0
1683035203.49985194,86728628,1578,1578,1579,1579,0,0,0,0,0,0,0,0,0,0
1683035203.59981203,86828588,1578,1578,1579,1579,0,0,0,0,0,0,0,0,0,0
1683035203.69977212,86928548,1579,1579,1579,1579,0,0,0,0,0,0,0,0,0,0
1683035203.79973197,87028508,1579,1579,1579,1578,0,0,0,0,0,0,0,0,0,0
1683035203.89969206,87128468,1580,1580,1579,1580,0,0,0,0,0,0,0,0,0,0
1683035203.99965191,87228428,1579,1579,1578,1578,0,0,0,0,0,0,0,0,0,0
1683035204.09961200,87328388,1579,1579,1578,1579,0,0,0,0,0,0,0,0,0,0
1683035204.19957209,87428348,1580,1579,1579,1579,0,0,0,0,0,0,0,0,0,0
1683035204.29953194,87528308,1580,1579,1578,1578,0,0,0,0,0,0,0,0,0,0
1683035204.39949203,87628268,1579,1579,1579,1578,0,0,0,0,0,0,0,0,0,0
1683035204.49945211,87728228,1578,1578,1578,1578,0,0,0,0,0,0,0,0,0,0
1683035204.59941196,87828188,1578,1579,1578,1578,0,0,0,0,0,0,0,0,0,0
1683035204.70020509,87928981,1579,1579,1579,1579,0,0,0,0,0,0,0,0,0,0
1683035204.80016494,88028941,1579,1579,1579,1580,0,0,0,0,0,0,0,0,0,0
1683035204.90012503,88128901,1578,1579,1579,1579,0,0,0,0,0,0,0,0,0,0
1683035205.00008512,88228861,1579,1579,1579,1579,0,0,0,0,0,0,0,0,0,0
1683035205.10004497,88328821,1580,1579,1580,1580,0,0,0,0,0,0,0,0,0,0
1683035205.20000505,88428781,1580,1580,1580,1580,0,0,0,0,0,0,0,0,0,0
1683035205.29996490,88528741,1580,1580,1580,1580,0,0,0,0,0,0,0,0,0,0
1683035205.39992499,88628701,1580,1580,1580,1581,0,0,0,0,0,0,0,0,0,0
1683035205.49988508,88728661,1581,1581,1581,1581,0,0,0,0,0,0,0,0,0,0
1683035205.59984493,88828621,1580,1580,1580,1580,0,0,0,0,0,0,0,0,0,0
1683035205.69980502,88928581,1580,1580,1580,1580,0,0,0,0,0,0,0,0,0,0
1683035205.79976511,89028541,1580,1579,1580,1579,0,0,0,0,0,0,0,0,0,0
1683035205.89972496,89128501,1581,1581,1581,1581,0,0,0,0,0,0,0,0,0,0
1683035205.99968505,89228461,1580,1580,1580,1581,0,0,0,0,0,0,0,0,0,0
1683035206.09964514,89328421,1581,1581,1581,1581,0,0,0,0,0,0,0,0,0,0
1683035206.19960499,89428381,1582,1581,1582,1581,0,0,0,0,0,0,0,0,0,0
1683035206.29956508,89528341,1582,1582,1582,1581,0,0,0,0,0,0,0,0,0,0
1683035206.39952493,89628301,1581,1581,1582,1581,0,0,0,0,0,0,0,0,0,0
1683035206.49948502,89728261,1580,1581,1580,1581,0,0,0,0,0,0,0,0,0,0
1683035206.59944510,89828221,1581,1581,1580,1581,0,0,0,0,0,0,0,0,0,0
1683035206.69940495,89928181,1581,1580,1580,1581,0,0,0,0,0,0,0,0,0,0
1683035206.80019808,90028974,1581,1581,1581,1580,0,0,0,0,0,0,0,0,0,0
1683035206.90015793,90128934,1581,1581,1581,1581,0,0,0,0,0,0,0,0,0,0
1683035207.00011802,90228894,1580,1581,1587,1574,0,0,0,0,0,0,0,0,0,0
1683035207.10007811,90328854,1581,1583,1587,1574,0,0,0,0,0,0,0,0,0,0
1683035207.20003796,90428814,1579,1582,1578,1574,0,0,0,0,0,0,0,0,0,0
1683035207.29999804,90528774,1577,1580,1568,1572,0,0,0,0,0,0,0,0,0,0
1683035207.39995813,90628734,1577,1579,1562,1568,0,0,0,0,0,0,0,0,0,0
1683035207.49991798,90728694,1577,1578,1556,1563,0,0,0,0,0,0,0,0,0,0
1683035207.59987807,90828654,1578,1577,1555,1559,0,0,0,0,0,0,0,0,0,0
1683035207.69983792,90928614,1579,1577,1554,1555,0,0,0,0,0,0,0,0,0,0
1683035207.79979801,91028574,1578,1577,1554,1553,0,0,0,0,0,0,0,0,0,0
1683035207.89975810,91128534,1577,1577,1554,1552,0,0,0,0,0,0,0,0,0,0
1683035207.99971795,91228494,1576,1577,1555,1552,0,0,0,0,0,0,0,0,0,0
1683035208.09967804,91328454,1576,1576,1554,1553,0,0,0,0,0,0,0,0,0,0
1683035208.19963813,91428414,1575,1577,1553,1553,0,0,0,0,0,0,0,0,0,0
1683035208.29959798,91528374,1575,1577,1553,1554,0,0,0,0,0,0,0,0,0,0
1683035208.39955807,91628334,1576,1577,1552,1552,0,0,0,0,0,0,0,0,0,0
1683035208.49951792,91728294,1577,1578,1550,1550,0,0,0,0,0,0,0,0,0,0
1683035208.59947801,91828254,1579,1580,1549,1549,0,0,0,0,0,0,0,0,0,0
1683035208.69943810,91928214,1582,1582,1546,1546,0,0,0,0,0,0,0,0,0,0
1683035208.79939795,92028174,1584,1585,1543,1543,0,0,0,0,0,0,0,0,0,0
1683035208.90019107,92128967,1587,1587,1540,1540,0,0,0,0,0,0,0,0,0,0
1683035209.00015092,92228927,1590,1591,1538,1537,0,0,0,0,0,0,0,0,0,0
1683035209.10011101,92328887,1594,1594,1536,1536,0,0,0,0,0,0,0,0,0,0
1683035209.20007110,92428847,1595,1595,1534,1535,0,0,0,0,0,0,0,0,0,0
1683035209.30003095,92528807,1595,1594,1534,1536,0,0,0,0,0,0,0,0,0,0
1683035209.39999104,92628767,1595,1594,1535,1538,0,0,0,0,0,0,0,0,0,0
1683035209.49995112,92728727,1593,1592,1539,1542,0,0,0,0,0,0,0,0,0,0
1683035209.59991097,92828687,1588,1587,1544,1547,0,0,0,0,0,0,0,0,0,0
1683035209.69987106,92928647,1583,1580,1552,1555,0,0,0,0,0,0,0,0,0,0
1683035209.79983091,93028607,1575,1571,1563,1565,0,0,0,0,0,0,0,0,0,0
1683035209.89979100,93128567,1564,1560,1575,1576,0,0,0,0,0,0,0,0,0,0
1683035209.99975109,93228527,1553,1550,1587,1589,0,0,0,0,0,0,0,0,0,0
1683035210.09971094,93328487,1542,1539,1598,1599,0,0,0,0,0,0,0,0,0,0
1683035210.19967103,93428447,1534,1533,1608,1607,0,0,0,0,0,0,0,0,0,0
1683035210.29963112,93528407,1529,1529,1613,1612,0,0,0,0,0,0,0,0,0,0
1683035210.39959097,93628367,1527,1529,1615,1614,0,0,0,0,0,0,0,0,0,0
1683035210.49955106,93728327,1530,1532,1613,1613,0,0,0,0,0,0,0,0,0,0
1683035210.59951091,93828287,1537,1539,1610,1610,0,0,0,0,0,0,0,0,0,0
1683035210.69947100,93928247,1544,1546,1603,1603,0,0,0,0,0,0,0,0,0,0
1683035210.79943109,94028207,1553,1554,1595,1596,0,0,0,0,0,0,0,0,0,0
1683035210.89939094,94128167,1563,1563,1589,1588,0,0,0,0,0,0,0,0,0,0
1683035211.00018406,94228960,1571,1572,1582,1581,0,0,0,0,0,0,0,0,0,0
1683035211.10014391,94328920,1578,1577,1575,1574,0,0,0,0,0,0,0,0,0,0
1683035211.20010400,94428880,1583,1582,1570,1569,0,0,0,0,0,0,0,0,0,0
1683035211.30006409,94528840,1587,1584,1566,1566,0,0,0,0,0,0,0,0,0,0
1683035211.40002394,94628800,1588,1586,1565,1565,0,0,0,0,0,0,0,0,0,0
1683035211.49998403,94728760,1588,1587,1566,1567,0,0,0,0,0,0,0,0,0,0
1683035211.59994411,94828720,1586,1585,1568,1568,0,0,0,0,0,0,0,0,0,0
1683035211.69990396,94928680,1584,1583,1571,1571,0,0,0,0,0,0,0,0,0,0
1683035211.79986405,95028640,1580,1580,1573,1573,0,0,0,0,0,0,0,0,0,0
1683035211.89982390,95128600,1578,1578,1577,1576,0,0,0,0,0,0,0,0,0,0
1683035211.99978399,95228560,1575,1576,1580,1579,0,0,0,0,0,0,0,0,0,0
1683035212.09974408,95328520,1573,1574,1582,1581,0,0,0,0,0,0,0,0,0,0
1683035212.19970393,95428480,1573,1574,1583,1583,0,0,0,0,0,0,0,0,0,0
1683035212.29966402,95528440,1572,1573,1584,1584,0,0,0,0,0,0,0,0,0,0
1683035212.39962411,95628400,1572,1573,1583,1584,0,0,0,0,0,0,0,0,0,0
1683035212.49958396,95728360,1572,1573,1582,1582,0,0,0,0,0,0,0,0,0,0
1683035212.59954405,95828320,1573,1573,1581,1581,0,0,0,0,0,0,0,0,0,0
1683035212.69950414,95928280,1575,1575,1580,1580,0,0,0,0,0,0,0,0,0,0
1683035212.79946399,96028240,1577,1577,1579,1580,0,0,0,0,0,0,0,0,0,0
1683035212.89942408,96128200,1578,1578,1578,1578,0,0,0,0,0,0,0,0,0,0
1683035212.99938393,96228160,1338,1339,1622,1628,0,0,0,0,0,0,0,0,0,0
1683035213.10017705,96328953,1414,1420,1643,1648,0,0,0,0,0,0,0,0,0,0
1683035213.20013714,96428913,1475,1485,1635,1632,0,0,0,0,0,0,0,0,0,0
1683035213.30009699,96528873,1528,1535,1622,1614,0,0,0,0,0,0,0,0,0,0
1683035213.40005708,96628833,1568,1570,1613,1603,0,0,0,0,0,0,0,0,0,0
1683035213.50001693,96728793,1600,1592,1605,1599,0,0,0,0,0,0,0,0,0,0
1683035213.59997702,96828753,1630,1615,1589,1588,0,0,0,0,0,0,0,0,0,0
1683035213.69993711,96928713,1650,1637,1556,1564,0,0,0,0,0,0,0,0,0,0
1683035213.79989696,97028673,1650,1641,1527,1540,0,0,0,0,0,0,0,0,0,0
1683035213.89985704,97128633,1649,1650,1544,1555,0,0,0,0,0,0,0,0,0,0
1683035213.99981713,97228593,1643,1650,1560,1565,0,0,0,0,0,0,0,0,0,0
1683035214.09977698,97328553,1641,1650,1579,1577,0,0,0,0,0,0,0,0,0,0
1683035214.19973707,97428513,1637,1644,1589,1583,0,0,0,0,0,0,0,0,0,0
1683035214.29969692,97528473,1629,1631,1584,1580,0,0,0,0,0,0,0,0,0,0
1683035214.39965701,97628433,1622,1622,1582,1579,0,0,0,0,0,0,0,0,0,0
1683035214.49961710,97728393,1617,1614,1578,1578,0,0,0,0,0,0,0,0,0,0
1683035214.59957695,97828353,1612,1609,1576,1577,0,0,0,0,0,0,0,0,0,0
1683035214.69953704,97928313,1607,1604,1574,1575,0,0,0,0,0,0,0,0,0,0
1683035214.79949713,98028273,1601,1600,1571,1572,0,0,0,0,0,0,0,0,0,0
1683035214.89945698,98128233,1595,1596,1568,1568,0,0,0,0,0,0,0,0,0,0
1683035214.99941707,98228193,1594,1591,1574,1562,0,0,0,0,0,0,0,0,0,0
1683035215.10020995,98328986,1593,1586,1572,1563,0,0,0,0,0,0,0,0,0,0
1683035215.20017004,98428946,1589,1583,1566,1563,0,0,0,0,0,0,0,0,0,0
1683035215.30013013,98528906,1584,1580,1558,1560,0,0,0,0,0,0,0,0,0,0
1683035215.40008998,98628866,1578,1579,1553,1557,0,0,0,0,0,0,0,0,0,0
1683035215.50005007,98728826,1575,1578,1551,1553,0,0,0,0,0,0,0,0,0,0
1683035215.60000992,98828786,1572,1577,1551,1550,0,0,0,0,0,0,0,0,0,0
1683035215.69997001,98928746,1571,1576,1550,1548,0,0,0,0,0,0,0,0,0,0
1683035215.79993010,99028706,1571,1573,1550,1546,0,0,0,0,0,0,0,0,0,0
1683035215.89988995,99128666,1572,1573,1551,1548,0,0,0,0,0,0,0,0,0,0
1683035215.99985003,99228626,1572,1572,1550,1548,0,0,0,0,0,0,0,0,0,0
1683035216.09981012,99328586,1572,1571,1549,1548,0,0,0,0,0,0,0,0,0,0
1683035216.19976997,99428546,1571,1571,1549,1548,0,0,0,0,0,0,0,0,0,0
1683035216.29973006,99528506,1571,1571,1548,1548,0,0,0,0,0,0,0,0,0,0
1683035216.39968991,99628466,1570,1571,1548,1548,0,0,0,0,0,0,0,0,0,0
1683035216.49965000,99728426,1570,1571,1547,1548,0,0,0,0,0,0,0,0,0,0
1683035216.59961009,99828386,1569,1571,1548,1548,0,0,0,0,0,0,0,0,0,0
1683035216.69956994,99928346,1570,1572,1549,1548,0,0,0,0,0,0,0,0,0,0
1683035216.79953003,100028306,1571,1572,1550,1549,0,0,0,0,0,0,0,0,0,0
1683035216.89949012,100128266,1572,1573,1551,1550,0,0,0,0,0,0,0,0,0,0
1683035216.99944997,100228226,1572,1573,1551,1551,0,0,0,0,0,0,0,0,0,0
1683035217.09941006,100328186,1573,1573,1551,1551,0,0,0,0,0,0,0,0,0,0
1683035217.20020294,100428979,1573,1573,1550,1552,0,0,0,0,0,0,0,0,0,0
1683035217.30016303,100528939,1574,1574,1550,1553,0,0,0,0,0,0,0,0,0,0
1683035217.40012312,100628899,1576,1575,1552,1554,0,0,0,0,0,0,0,0,0,0
1683035217.50008297,100728859,1576,1576,1552,1555,0,0,0,0,0,0,0,0,0,0
1683035217.60004306,100828819,1577,1577,1553,1555,0,0,0,0,0,0,0,0,0,0
1683035217.70000291,100928779,1578,1578,1553,1555,0,0,0,0,0,0,0,0,0,0
1683035217.79996300,101028739,1578,1578,1552,1555,0,0,0,0,0,0,0,0,0,0
1683035217.89992309,101128699,1578,1578,1552,1555,0,0,0,0,0,0,0,0,0,0
1683035217.99988294,101228659,1579,1580,1554,1557,0,0,0,0,0,0,0,0,0,0
1683035218.09984303,101328619,1578,1579,1554,1555,0,0,0,0,0,0,0,0,0,0
1683035218.19980311,101428579,1579,1578,1556,1558,0,0,0,0,0,0,0,0,0,0
1683035218.29976296,101528539,1571,1566,1569,1571,0,0,0,0,0,0,0,0,0,0
1683035218.39972305,101628499,1558,1553,1586,1588,0,0,0,0,0,0,0,0,0,0
1683035218.49968290,101728459,1548,1544,1596,1598,0,0,0,0,0,0,0,0,0,0
1683035218.59964299,101828419,1541,1540,1602,1602,0,0,0,0,0,0,0,0,0,0
1683035218.69960308,101928379,1538,1540,1605,1604,0,0,0,0,0,0,0,0,0,0
1683035218.79956293,102028339,1538,1541,1605,1603,0,0,0,0,0,0,0,0,0,0
1683035218.89952302,102128299,1540,1543,1604,1602,0,0,0,0,0,0,0,0,0,0
1683035218.99948311,102228259,1544,1547,1602,1600,0,0,0,0,0,0,0,0,0,0
1683035219.09944296,102328219,1548,1550,1598,1596,0,0,0,0,0,0,0,0,0,0
1683035219.19940305,102428179,1554,1555,1594,1593,0,0,0,0,0,0,0,0,0,0
1683035219.30019593,102528972,1559,1560,1590,1589,0,0,0,0,0,0,0,0,0,0
1683035219.40015602,102628932,1565,1564,1586,1586,0,0,0,0,0,0,0,0,0,0
1683035219.50011611,102728892,1569,1568,1583,1583,0,0,0,0,0,0,0,0,0,0
1683035219.60007596,102828852,1572,1571,1579,1579,0,0,0,0,0,0,0,0,0,0
1683035219.70003605,102928812,1575,1575,1577,1577,0,0,0,0,0,0,0,0,0,0
1683035219.79999614,103028772,1578,1577,1575,1575,0,0,0,0,0,0,0,0,0,0
1683035219.89995599,103128732,1581,1580,1574,1575,0,0,0,0,0,0,0,0,0,0
1683035219.99991608,103228692,1582,1582,1573,1573,0,0,0,0,0,0,0,0,0,0
1683035220.09987593,103328652,1582,1582,1572,1572,0,0,0,0,0,0,0,0,0,0
1683035220.19983602,103428612,1584,1584,1573,1573,0,0,0,0,0,0,0,0,0,0
1683035220.29979610,103528572,1585,1585,1573,1573,0,0,0,0,0,0,0,0,0,0
1683035220.39975595,103628532,1585,1584,1573,1573,0,0,0,0,0,0,0,0,0,0
1683035220.49971604,103728492,1585,1584,1573,1573,0,0,0,0,0,0,0,0,0,0
1683035220.59967613,103828452,1585,1585,1575,1575,0,0,0,0,0,0,0,0,0,0
1683035220.69963598,103928412,1585,1585,1576,1576,0,0,0,0,0,0,0,0,0,0
1683035220.79959607,104028372,1584,1584,1576,1576,0,0,0,0,0,0,0,0,0,0
1683035220.89955592,104128332,1583,1583,1575,1576,0,0,0,0,0,0,0,0,0,0
1683035220.99951601,104228292,1583,1583,1576,1576,0,0,0,0,0,0,0,0,0,0
1683035221.09947610,104328252,1583,1582,1577,1577,0,0,0,0,0,0,0,0,0,0
1683035221.19943595,104428212,1582,1582,1578,1578,0,0,0,0,0,0,0,0,0,0
1683035221.29939604,104528172,1582,1583,1579,1578,0,0,0,0,0,0,0,0,0,0
1683035221.40018892,104628965,1581,1582,1579,1579,0,0,0,0,0,0,0,0,0,0
1683035221.50014901,104728925,1581,1582,1580,1579,0,0,0,0,0,0,0,0,0,0
1683035221.60010910,104828885,1581,1581,1579,1579,0,0,0,0,0,0,0,0,0,0
1683035221.70006895,104928845,1580,1580,1579,1579,0,0,0,0,0,0,0,0,0,0
1683035221.80002904,105028805,1580,1581,1580,1580,0,0,0,0,0,0,0,0,0,0
1683035221.89998913,105128765,1580,1580,1580,1580,0,0,0,0,0,0,0,0,0,0
1683035221.99994898,105228725,1580,1580,1580,1580,0,0,0,0,0,0,0,0,0,0
1683035222.09990907,105328685,1580,1580,1580,1580,0,0,0,0,0,0,0,0,0,0
1683035222.19986892,105428645,1580,1580,1580,1580,0,0,0,0,0,0,0,0,0,0
1683035222.29982901,105528605,1580,1580,1580,1581,0,0,0,0,0,0,0,0,0,0
1683035222.39978909,105628565,1580,1580,1580,1580,0,0,0,0,0,0,0,0,0,0
1683035222.49974895,105728525,1580,1580,1580,1580,0,0,0,0,0,0,0,0,0,0
1683035222.59970903,105828485,1579,1579,1579,1579,0,0,0,0,0,0,0,0,0,0
1683035222.69966912,105928445,1579,1579,1579,1579,0,0,0,0,0,0,0,0,0,0
1683035222.79962897,106028405,1580,1580,1581,1580,0,0,0,0,0,0,0,0,0,0
1683035222.89958906,106128365,1580,1580,1581,1581,0,0,0,0,0,0,0,0,0,0
1683035222.99954891,106228325,1580,1580,1580,1580,0,0,0,0,0,0,0,0,0,0
1683035223.09950900,106328285,1580,1580,1580,1580,0,0,0,0,0,0,0,0,0,0
1683035223.19946909,106428245,1581,1581,1581,1581,0,0,0,0,0,0,0,0,0,0
1683035223.29942894,106528205,1580,1581,1580,1580,0,0,0,0,0,0,0,0,0,0
1683035223.39938903,106628165,1581,1581,1581,1581,0,0,0,0,0,0,0,0,0,0
1683035223.50018191,106728958,1580,1580,1580,1580,0,0,0,0,0,0,0,0,0,0
1683035223.60014200,106828918,1581,1581,1582,1579,0,0,0,0,0,0,0,0,0,0
1683035223.70010209,106928878,1581,1580,1587,1573,0,0,0,0,0,0,0,0,0,0
1683035223.80006194,107028838,1581,1580,1582,1573,0,0,0,0,0,0,0,0,0,0
1683035223.90002203,107128798,1579,1578,1572,1572,0,0,0,0,0,0,0,0,0,0
1683035223.99998212,107228758,1576,1578,1565,1569,0,0,0,0,0,0,0,0,0,0
1683035224.09994197,107328718,1575,1577,1559,1566,0,0,0,0,0,0,0,0,0,0
1683035224.19990206,107428678,1574,1576,1556,1561,0,0,0,0,0,0,0,0,0,0
1683035224.29986191,107528638,1575,1577,1557,1559,0,0,0,0,0,0,0,0,0,0
1683035224.39982200,107628598,1575,1576,1558,1557,0,0,0,0,0,0,0,0,0,0
1683035224.49978209,107728558,1575,1576,1558,1556,0,0,0,0,0,0,0,0,0,0
1683035224.59974194,107828518,1576,1575,1557,1555,0,0,0,0,0,0,0,0,0,0
1683035224.69970202,107928478,1576,1576,1556,1555,0,0,0,0,0,0,0,0,0,0
1683035224.79966211,108028438,1576,1576,1556,1555,0,0,0,0,0,0,0,0,0,0
1683035224.89962196,108128398,1576,1576,1554,1554,0,0,0,0,0,0,0,0,0,0
1683035224.99958205,108228358,1576,1577,1552,1552,0,0,0,0,0,0,0,0,0,0
1683035225.09954214,108328318,1576,1578,1551,1552,0,0,0,0,0,0,0,0,0,0
1683035225.19950199,108428278,1577,1579,1550,1550,0,0,0,0,0,0,0,0,0,0
1683035225.29946208,108528238,1578,1579,1547,1547,0,0,0,0,0,0,0,0,0,0
1683035225.39942193,108628198,1579,1580,1545,1545,0,0,0,0,0,0,0,0,0,0
1683035225.49938202,108728158,1581,1581,1543,1543,0,0,0,0,0,0,0,0,0,0
1683035225.60017490,108828951,1583,1584,1542,1542,0,0,0,0,0,0,0,0,0,0
1683035225.70013499,108928911,1584,1585,1539,1540,0,0,0,0,0,0,0,0,0,0
1683035225.80009508,109028871,1587,1588,1540,1540,0,0,0,0,0,0,0,0,0,0
1683035225.90005493,109128831,1589,1588,1539,1540,0,0,0,0,0,0,0,0,0,0
1683035226.00001502,109228791,1589,1589,1539,1540,0,0,0,0,0,0,0,0,0,0
1683035226.09997511,109328751,1589,1588,1541,1542,0,0,0,0,0,0,0,0,0,0
1683035226.19993496,109428711,1588,1587,1543,1546,0,0,0,0,0,0,0,0,0,0
1683035226.29989505,109528671,1585,1585,1545,1549,0,0,0,0,0,0,0,0,0,0
1683035226.39985514,109628631,1583,1582,1550,1554,0,0,0,0,0,0,0,0,0,0
1683035226.49981499,109728591,1579,1578,1557,1559,0,0,0,0,0,0,0,0,0,0
1683035226.59977508,109828551,1574,1572,1563,1566,0,0,0,0,0,0,0,0,0,0
1683035226.69973493,109928511,1568,1565,1572,1573,0,0,0,0,0,0,0,0,0,0
1683035226.79969501,110028471,1561,1558,1579,1581,0,0,0,0,0,0,0,0,0,0
1683035226.89965510,110128431,1554,1551,1589,1589,0,0,0,0,0,0,0,0,0,0
1683035226.99961495,110228391,1545,1544,1598,1597,0,0,0,0,0,0,0,0,0,0
1683035227.09957504,110328351,1539,1538,1604,1604,0,0,0,0,0,0,0,0,0,0
1683035227.19953513,110428311,1533,1535,1608,1608,0,0,0,0,0,0,0,0,0,0
1683035227.29949498,110528271,1532,1533,1610,1608,0,0,0,0,0,0,0,0,0,0
1683035227.39945507,110628231,1534,1536,1608,1608,0,0,0,0,0,0,0,0,0,0
1683035227.49941492,110728191,1538,1540,1604,1604,0,0,0,0,0,0,0,0,0,0
1683035227.60020804,110828984,1544,1546,1599,1599,0,0,0,0,0,0,0,0,0,0
1683035227.70016813,110928944,1552,1553,1593,1593,0,0,0,0,0,0,0,0,0,0
1683035227.80012798,111028904,1559,1560,1586,1585,0,0,0,0,0,0,0,0,0,0
1683035227.90008807,111128864,1567,1566,1579,1578,0,0,0,0,0,0,0,0,0,0
1683035228.00004792,111228824,1575,1574,1574,1574,0,0,0,0,0,0,0,0,0,0
1683035228.10000801,111328784,1581,1579,1570,1569,0,0,0,0,0,0,0,0,0,0
1683035228.19996810,111428744,1586,1584,1568,1568,0,0,0,0,0,0,0,0,0,0
1683035228.29992795,111528704,1588,1587,1567,1567,0,0,0,0,0,0,0,0,0,0
1683035228.39988804,111628664,1588,1587,1567,1567,0,0,0,0,0,0,0,0,0,0
1683035228.49984813,111728624,1588,1587,1568,1568,0,0,0,0,0,0,0,0,0,0
1683035228.59980798,111828584,1587,1587,1570,1570,0,0,0,0,0,0,0,0,0,0
1683035228.69976807,111928544,1586,1586,1573,1573,0,0,0,0,0,0,0,0,0,0
1683035228.79972792,112028504,1584,1584,1574,1575,0,0,0,0,0,0,0,0,0,0
1683035228.89968801,112128464,1582,1582,1576,1576,0,0,0,0,0,0,0,0,0,0
1683035228.99964809,112228424,1581,1581,1580,1579,0,0,0,0,0,0,0,0,0,0
1683035229.09960794,112328384,1579,1579,1581,1580,0,0,0,0,0,0,0,0,0,0
1683035229.19956803,112428344,1577,1578,1582,1582,0,0,0,0,0,0,0,0,0,0
1683035229.29952812,112528304,1576,1576,1583,1583,0,0,0,0,0,0,0,0,0,0
1683035229.39948797,112628264,1576,1576,1585,1585,0,0,0,0,0,0,0,0,0,0
1683035229.49944806,112728224,1575,1575,1585,1585,0,0,0,0,0,0,0,0,0,0
1683035229.59940791,112828184,1574,1575,1584,1584,0,0,0,0,0,0,0,0,0,0
1683035229.70020103,112928977,1575,1576,1583,1583,0,0,0,0,0,0,0,0,0,0
1683035229.80016112,113028937,1576,1577,1583,1582,0,0,0,0,0,0,0,0,0,0
1683035229.90012097,113128897,1577,1577,1581,1581,0,0,0,0,0,0,0,0,0,0
1683035230.00008106,113228857,1579,1578,1580,1580,0,0,0,0,0,0,0,0,0,0
1683035230.10004091,113328817,1579,1579,1579,1579,0,0,0,0,0,0,0,0,0,0
1683035230.20000100,113428777,1580,1580,1578,1578,0,0,0,0,0,0,0,0,0,0
1683035230.29996109,113528737,1581,1580,1577,1578,0,0,0,0,0,0,0,0,0,0
1683035230.39992094,113628697,1581,1582,1578,1578,0,0,0,0,0,0,0,0,0,0
1683035230.49988103,113728657,1581,1581,1576,1577,0,0,0,0,0,0,0,0,0,0
1683035230.59984112,113828617,1581,1582,1577,1577,0,0,0,0,0,0,0,0,0,0
1683035230.69980097,113928577,1581,1582,1578,1578,0,0,0,0,0,0,0,0,0,0
1683035230.79976106,114028537,1582,1582,1579,1579,0,0,0,0,0,0,0,0,0,0
1683035230.89972091,114128497,1582,1582,1580,1580,0,0,0,0,0,0,0,0,0,0
1683035230.99968100,114228457,1582,1581,1580,1580,0,0,0,0,0,0,0,0,0,0
1683035231.09964108,114328417,1581,1581,1581,1581,0,0,0,0,0,0,0,0,0,0
1683035231.19960093,114428377,1581,1581,1582,1581,0,0,0,0,0,0,0,0,0,0
1683035231.29956102,114528337,1581,1581,1582,1582,0,0,0,0,0,0,0,0,0,0
1683035231.39952111,114628297,1581,1581,1582,1582,0,0,0,0,0,0,0,0,0,0
1683035231.49948096,114728257,1580,1580,1580,1581,0,0,0,0,0,0,0,0,0,0
1683035231.59944105,114828217,1580,1581,1581,1582,0,0,0,0,0,0,0,0,0,0
1683035231.69940114,114928177,1581,1581,1582,1582,0,0,0,0,0,0,0,0,0,0
1683035231.80019403,115028970,1580,1580,1582,1581,0,0,0,0,0,0,0,0,0,0
1683035231.90015411,115128930,1581,1581,1588,1575,0,0,0,0,0,0,0,0,0,0
1683035232.00011396,115228890,1581,1580,1587,1574,0,0,0,0,0,0,0,0,0,0
1683035232.10007405,115328850,1579,1578,1579,1575,0,0,0,0,0,0,0,0,0,0
1683035232.20003390,115428810,1575,1575,1571,1574,0,0,0,0,0,0,0,0,0,0
1683035232.29999399,115528770,1573,1572,1566,1573,0,0,0,0,0,0,0,0,0,0
1683035232.39995408,115628730,1570,1570,1564,1571,0,0,0,0,0,0,0,0,0,0
1683035232.49991393,115728690,1568,1569,1564,1568,0,0,0,0,0,0,0,0,0,0
1683035232.59987402,115828650,1567,1568,1566,1566,0,0,0,0,0,0,0,0,0,0
1683035232.69983411,115928610,1566,1567,1566,1565,0,0,0,0,0,0,0,0,0,0
1683035232.79979396,116028570,1566,1566,1568,1565,0,0,0,0,0,0,0,0,0,0
1683035232.89975405,116128530,1565,1565,1567,1564,0,0,0,0,0,0,0,0,0,0
1683035232.99971414,116228490,1564,1564,1566,1565,0,0,0,0,0,0,0,0,0,0
1683035233.09967399,116328450,1564,1563,1565,1565,0,0,0,0,0,0,0,0,0,0
1683035233.19963408,116428410,1563,1563,1564,1565,0,0,0,0,0,0,0,0,0,0
1683035233.29959393,116528370,1562,1561,1563,1564,0,0,0,0,0,0,0,0,0,0
1683035233.39955401,116628330,1561,1561,1562,1562,0,0,0,0,0,0,0,0,0,0
1683035233.49951410,116728290,1560,1560,1561,1561,0,0,0,0,0,0,0,0,0,0
1683035233.59947395,116828250,1560,1560,1561,1560,0,0,0,0,0,0,0,0,0,0
1683035233.69943404,116928210,1560,1560,1560,1560,0,0,0,0,0,0,0,0,0,0
1683035233.79939413,117028170,1560,1560,1561,1560,0,0,0,0,0,0,0,0,0,0
1683035233.90018702,117128963,1559,1559,1560,1559,0,0,0,0,0,0,0,0,0,0
1683035234.00014710,117228923,1559,1559,1559,1558,0,0,0,0,0,0,0,0,0,0
1683035234.10010695,117328883,1559,1559,1559,1558,0,0,0,0,0,0,0,0,0,0
1683035234.20006704,117428843,1559,1559,1559,1558,0,0,0,0,0,0,0,0,0,0
1683035234.30002713,117528803,1560,1559,1560,1559,0,0,0,0,0,0,0,0,0,0
1683035234.39998698,117628763,1559,1559,1560,1558,0,0,0,0,0,0,0,0,0,0
1683035234.49994707,117728723,1559,1559,1559,1558,0,0,0,0,0,0,0,0,0,0
1683035234.59990692,117828683,1559,1558,1560,1557,0,0,0,0,0,0,0,0,0,0
1683035234.69986701,117928643,1559,1558,1559,1558,0,0,0,0,0,0,0,0,0,0
1683035234.79982710,118028603,1559,1559,1558,1561,0,0,0,0,0,0,0,0,0,0
1683035234.89978695,118128563,1559,1560,1557,1563,0,0,0,0,0,0,0,0,0,0
1683035234.99974704,118228523,1560,1561,1558,1564,0,0,0,0,0,0,0,0,0,0
1683035235.09970713,118328483,1560,1561,1558,1563,0,0,0,0,0,0,0,0,0,0
1683035235.19966698,118428443,1561,1562,1561,1562,0,0,0,0,0,0,0,0,0,0
1683035235.29962707,118528403,1560,1560,1561,1559,0,0,0,0,0,0,0,0,0,0
1683035235.39958692,118628363,1559,1559,1560,1556,0,0,0,0,0,0,0,0,0,0
1683035235.49954700,118728323,1559,1558,1558,1557,0,0,0,0,0,0,0,0,0,0
1683035235.59950709,118828283,1558,1558,1555,1559,0,0,0,0,0,0,0,0,0,0
1683035235.69946694,118928243,1555,1555,1550,1556,0,0,0,0,0,0,0,0,0,0
1683035235.79942703,119028203,1551,1551,1547,1550,0,0,0,0,0,0,0,0,0,0
1683035235.89938712,119128163,1546,1547,1542,1543,0,0,0,0,0,0,0,0,0,0
1683035236.00018001,119228956,1540,1540,1536,1535,0,0,0,0,0,0,0,0,0,0
1683035236.10014009,119328916,1533,1533,1529,1527,0,0,0,0,0,0,0,0,0,0
1683035236.20009995,119428876,1526,1526,1522,1520,0,0,0,0,0,0,0,0,0,0
1683035236.30006003,119528836,1522,1522,1518,1518,0,0,0,0,0,0,0,0,0,0
1683035236.40002012,119628796,1519,1519,1518,1518,0,0,0,0,0,0,0,0,0,0
1683035236.49997997,119728756,1519,1519,1520,1521,0,0,0,0,0,0,0,0,0,0
1683035236.59994006,119828716,1520,1520,1524,1525,0,0,0,0,0,0,0,0,0,0
1683035236.69989991,119928676,1522,1521,1528,1529,0,0,0,0,0,0,0,0,0,0
1683035236.79986000,120028636,1525,1525,1533,1534,0,0,0,0,0,0,0,0,0,0
1683035236.89982009,120128596,1530,1529,1539,1539,0,0,0,0,0,0,0,0,0,0
1683035236.99977994,120228556,1533,1533,1542,1542,0,0,0,0,0,0,0,0,0,0
1683035237.09974003,120328516,1536,1536,1543,1543,0,0,0,0,0,0,0,0,0,0
1683035237.19970012,120428476,1539,1539,1544,1544,0,0,0,0,0,0,0,0,0,0
1683035237.29965997,120528436,1542,1542,1545,1544,0,0,0,0,0,0,0,0,0,0
1683035237.39962006,120628396,1544,1545,1545,1545,0,0,0,0,0,0,0,0,0,0
1683035237.49957991,120728356,1546,1546,1544,1544,0,0,0,0,0,0,0,0,0,0
1683035237.59954000,120828316,1548,1548,1545,1545,0,0,0,0,0,0,0,0,0,0
1683035237.69950008,120928276,1549,1549,1544,1544,0,0,0,0,0,0,0,0,0,0
1683035237.79945993,121028236,1549,1549,1544,1544,0,0,0,0,0,0,0,0,0,0
1683035237.89942002,121128196,1549,1549,1544,1543,0,0,0,0,0,0,0,0,0,0
1683035237.99938011,121228156,1549,1549,1544,1544,0,0,0,0,0,0,0,0,0,0
1683035238.10017300,121328949,1548,1548,1544,1544,0,0,0,0,0,0,0,0,0,0
1683035238.20013309,121428909,1548,1547,1544,1544,0,0,0,0,0,0,0,0,0,0
1683035238.30009294,121528869,1547,1546,1544,1544,0,0,0,0,0,0,0,0,0,0
1683035238.40005302,121628829,1546,1546,1545,1544,0,0,0,0,0,0,0,0,0,0
1683035238.50001311,121728789,1545,1545,1545,1545,0,0,0,0,0,0,0,0,0,0
1683035238.59997296,121828749,1544,1545,1546,1545,0,0,0,0,0,0,0,0,0,0
1683035238.69993305,121928709,1544,1544,1546,1546,0,0,0,0,0,0,0,0,0,0
1683035238.79989314,122028669,1544,1544,1546,1546,0,0,0,0,0,0,0,0,0,0
1683035238.89985299,122128629,1544,1543,1546,1546,0,0,0,0,0,0,0,0,0,0
1683035238.99981308,122228589,1543,1542,1544,1545,0,0,0,0,0,0,0,0,0,0
1683035239.09977293,122328549,1543,1543,1544,1545,0,0,0,0,0,0,0,0,0,0
1683035239.19973302,122428509,1543,1543,1545,1545,0,0,0,0,0,0,0,0,0,0
1683035239.29969311,122528469,1543,1543,1544,1544,0,0,0,0,0,0,0,0,0,0
1683035239.39965296,122628429,1543,1543,1545,1544,0,0,0,0,0,0,0,0,0,0
1683035239.49961305,122728389,1544,1543,1544,1543,0,0,0,0,0,0,0,0,0,0
1683035239.59957314,122828349,1544,1544,1544,1544,0,0,0,0,0,0,0,0,0,0
1683035239.69953299,122928309,1545,1544,1544,1545,0,0,0,0,0,0,0,0,0,0
1683035239.79949307,123028269,1544,1544,1543,1543,0,0,0,0,0,0,0,0,0,0
1683035239.89945292,123128229,1545,1545,1543,1544,0,0,0,0,0,0,0,0,0,0
1683035239.99941301,123228189,1544,1545,1543,1544,0,0,0,0,0,0,0,0,0,0
1683035240.10020614,123328982,1545,1545,1544,1544,0,0,0,0,0,0,0,0,0,0
1683035240.20016599,123428942,1545,1545,1544,1544,0,0,0,0,0,0,0,0,0,0
1683035240.30012608,123528902,1545,1544,1544,1544,0,0,0,0,0,0,0,0,0,0
1683035240.40008593,123628862,1545,1545,1544,1544,0,0,0,0,0,0,0,0,0,0
1683035240.50004601,123728822,1545,1545,1544,1544,0,0,0,0,0,0,0,0,0,0
1683035240.60000610,123828782,1544,1545,1544,1545,0,0,0,0,0,0,0,0,0,0
1683035240.69996595,123928742,1545,1544,1544,1545,0,0,0,0,0,0,0,0,0,0
1683035240.79992604,124028702,1544,1544,1544,1545,0,0,0,0,0,0,0,0,0,0
1683035240.89988613,124128662,1544,1544,1544,1544,0,0,0,0,0,0,0,0,0,0
1683035240.99984598,124228622,1544,1544,1544,1544,0,0,0,0,0,0,0,0,0,0
1683035241.09980607,124328582,1544,1544,1544,1544,0,0,0,0,0,0,0,0,0,0
1683035241.19976592,124428542,1544,1544,1544,1544,0,0,0,0,0,0,0,0,0,0
1683035241.29972601,124528502,1544,1543,1543,1544,0,0,0,0,0,0,0,0,0,0
1683035241.39968610,124628462,1543,1544,1543,1544,0,0,0,0,0,0,0,0,0,0
1683035241.49964595,124728422,1544,1543,1543,1544,0,0,0,0,0,0,0,0,0,0
1683035241.59960604,124828382,1544,1544,1544,1544,0,0,0,0,0,0,0,0,0,0
1683035241.69956613,124928342,1545,1544,1544,1544,0,0,0,0,0,0,0,0,0,0
1683035241.79952598,125028302,1544,1544,1544,1544,0,0,0,0,0,0,0,0,0,0
1683035241.89948606,125128262,1545,1544,1544,1545,0,0,0,0,0,0,0,0,0,0
1683035241.99944592,125228222,1544,1545,1545,1544,0,0,0,0,0,0,0,0,0,0
1683035242.09940600,125328182,1544,1544,1544,1544,0,0,0,0,0,0,0,0,0,0
1683035242.20019913,125428975,1543,1544,1544,1544,0,0,0,0,0,0,0,0,0,0
1683035242.30015898,125528935,1544,1544,1543,1543,0,0,0,0,0,0,0,0,0,0
1683035242.40011907,125628895,1544,1544,1544,1544,0,0,0,0,0,0,0,0,0,0
1683035242.50007892,125728855,1544,1543,1543,1543,0,0,0,0,0,0,0,0,0,0
1683035242.60003901,125828815,1544,1544,1544,1544,0,0,0,0,0,0,0,0,0,0
1683035242.69999909,125928775,1544,1543,1543,1544,0,0,0,0,0,0,0,0,0,0
1683035242.79995894,126028735,1544,1544,1544,1544,0,0,0,0,0,0,0,0,0,0
1683035242.89991903,126128695,1544,1544,1545,1544,0,0,0,0,0,0,0,0,0,0
1683035242.99987912,126228655,1544,1545,1545,1545,0,0,0,0,0,0,0,0,0,0
1683035243.09983897,126328615,1545,1545,1545,1545,0,0,0,0,0,0,0,0,0,0
1683035243.19979906,126428575,1544,1544,1544,1545,0,0,0,0,0,0,0,0,0,0
1683035243.29975891,126528535,1545,1545,1545,1545,0,0,0,0,0,0,0,0,0,0
1683035243.39971900,126628495,1544,1544,1544,1544,0,0,0,0,0,0,0,0,0,0
1683035243.49967909,126728455,1544,1544,1544,1545,0,0,0,0,0,0,0,0,0,0
1683035243.59963894,126828415,1544,1544,1544,1544,0,0,0,0,0,0,0,0,0,0
1683035243.69959903,126928375,1544,1544,1544,1544,0,0,0,0,0,0,0,0,0,0
1683035243.79955912,127028335,1544,1545,1544,1544,0,0,0,0,0,0,0,0,0,0
1683035243.89951897,127128295,1545,1544,1544,1544,0,0,0,0,0,0,0,0,0,0
1683035243.99947906,127228255,1544,1544,1544,1544,0,0,0,0,0,0,0,0,0,0
1683035244.09943891,127328215,1544,1544,1544,1544,0,0,0,0,0,0,0,0,0,0
1683035244.19939899,127428175,1545,1544,1545,1544,0,0,0,0,0,0,0,0,0,0
1683035244.30019212,127528968,1545,1544,1544,1544,0,0,0,0,0,0,0,0,0,0
1683035244.40015197,127628928,1545,1544,1544,1545,0,0,0,0,0,0,0,0,0,0
1683035244.50011206,127728888,1544,1544,1544,1544,0,0,0,0,0,0,0,0,0,0
1683035244.60007191,127828848,1545,1544,1545,1545,0,0,0,0,0,0,0,0,0,0
1683035244.70003200,127928808,1544,1544,1544,1544,0,0,0,0,0,0,0,0,0,0
1683035244.79999208,128028768,1544,1545,1545,1544,0,0,0,0,0,0,0,0,0,0
1683035244.89995193,128128728,1544,1544,1544,1544,0,0,0,0,0,0,0,0,0,0
1683035244.99991202,128228688,1543,1544,1544,1543,0,0,0,0,0,0,0,0,0,0
1683035245.09987211,128328648,1544,1544,1544,1544,0,0,0,0,0,0,0,0,0,0
1683035245.19983196,128428608,1544,1545,1544,1544,0,0,0,0,0,0,0,0,0,0
1683035245.29979205,128528568,1544,1544,1544,1545,0,0,0,0,0,0,0,0,0,0
1683035245.39975214,128628528,1545,1544,1544,1544,0,0,0,0,0,0,0,0,0,0
1683035245.49971199,128728488,1545,1544,1545,1545,0,0,0,0,0,0,0,0,0,0
1683035245.59967208,128828448,1545,1545,1545,1545,0,0,0,0,0,0,0,0,0,0
1683035245.69963193,128928408,1545,1545,1545,1545,0,0,0,0,0,0,0,0,0,0
1683035245.79959202,129028368,1544,1544,1544,1543,0,0,0,0,0,0,0,0,0,0
1683035245.89955211,129128328,1545,1544,1545,1545,0,0,0,0,0,0,0,0,0,0
1683035245.99951196,129228288,1444,1444,1399,1399,0,0,0,0,0,0,0,0,0,0
1683035246.09947205,129328248,1363,1364,1265,1269,0,0,0,0,0,0,0,0,0,0
1683035246.19943213,129428208,1336,1337,1217,1220,0,0,0,0,0,0,0,0,0,0
1683035246.29939198,129528168,1326,1326,1197,1200,0,0,0,0,0,0,0,0,0,0
1683035246.40018511,129628961,1307,1308,1159,1161,0,0,0,0,0,0,0,0,0,0
1683035246.50014496,129728921,1254,1255,1150,1153,0,0,0,0,0,0,0,0,0,0
1683035246.60010505,129828881,1156,1158,1150,1152,0,0,0,0,0,0,0,0,0,0
1683035246.70006514,129928841,1044,1045,1150,1152,0,0,0,0,0,0,0,0,0,0
1683035246.80002499,130028801,1019,1021,1150,1151,0,0,0,0,0,0,0,0,0,0
1683035246.89998507,130128761,1019,1020,1150,1152,0,0,0,0,0,0,0,0,0,0
1683035246.99994493,130228721,1019,1021,1150,1151,0,0,0,0,0,0,0,0,0,0
1683035247.09990501,130328681,1021,1003,1150,1174,0,0,0,0,0,0,0,0,0,0
1683035247.19986510,130428641,1020,1010,1150,1165,0,0,0,0,0,0,0,0,0,0
1683035247.29982495,130528601,1020,1012,1150,1163,0,0,0,0,0,0,0,0,0,0
1683035247.39978504,130628561,1020,1013,1150,1162,0,0,0,0,0,0,0,0,0,0
1683035247.49974513,130728521,1020,1012,1150,1163,0,0,0,0,0,0,0,0,0,0
1683035247.59970498,130828481,1020,1012,1150,1163,0,0,0,0,0,0,0,0,0,0
1683035247.69966507,130928441,1020,1011,1150,1164,0,0,0,0,0,0,0,0,0,0
1683035247.79962492,131028401,1020,1011,1150,1163,0,0,0,0,0,0,0,0,0,0
1683035247.89958501,131128361,1021,1020,1150,1151,0,0,0,0,0,0,0,0,0,0
1683035247.99954510,131228321,1021,1019,1150,1152,0,0,0,0,0,0,0,0,0,0
1683035248.09950495,131328281,1021,1019,1150,1153,0,0,0,0,0,0,0,0,0,0
1683035248.19946504,131428241,1021,1019,1150,1153,0,0,0,0,0,0,0,0,0,0
1683035248.29942513,131528201,881,881,1150,1150,0,0,0,0,0,0,0,0,0,0
1683035248.39938498,131628161,1000,1000,1000,1000,0,0,0,0,0,0,0,0,0,0
1683035248.50017810,131728954,1000,1000,1000,1000,0,0,0,0,0,0,0,0,0,0
1683035248.60013795,131828914,1000,1000,1000,1000,0,0,0,0,0,0,0,0,0,0
1683035248.70009804,131928874,1000,1000,1000,1000,0,0,0,0,0,0,0,0,0,0
1683035248.80005813,132028834,1000,1000,1000,1000,0,0,0,0,0,0,0,0,0,0
1683035248.90001798,132128794,1000,1000,1000,1000,0,0,0,0,0,0,0,0,0,0
1683035248.99997807,132228754,1000,1000,1000,1000,0,0,0,0,0,0,0,0,0,0
1683035249.09993792,132328714,1000,1000,1000,1000,0,0,0,0,0,0,0,0,0,0
1683035249.19989800,132428674,1000,1000,1000,1000,0,0,0,0,0,0,0,0,0,0
1683035249.29985809,132528634,1000,1000,1000,1000,0,0,0,0,0,0,0,0,0,0
1683035249.39981794,132628594,1000,1000,1000,1000,0,0,0,0,0,0,0,0,0,0
1683035249.49977803,132728554,1000,1000,1000,1000,0,0,0,0,0,0,0,0,0,0
1683035249.59973812,132828514,1000,1000,1000,1000,0,0,0,0,0,0,0,0,0,0
1683035249.69969797,132928474,1000,1000,1000,1000,0,0,0,0,0,0,0,0,0,0
1683035249.79965806,133028434,1000,1000,1000,1000,0,0,0,0,0,0,0,0,0,0
1683035249.89961791,133128394,1000,1000,1000,1000,0,0,0,0,0,0,0,0,0,0
1683035249.99957800,133228354,1000,1000,1000,1000,0,0,0,0,0,0,0,0,0,0
1683035250.09953809,133328314,1000,1000,1000,1000,0,0,0,0,0,0,0,0,0,0
1683035250.19949794,133428274,1000,1000,1000,1000,0,0,0,0,0,0,0,0,0,0
1683035250.29945803,133528234,1000,1000,1000,1000,0,0,0,0,0,0,0,0,0,0
1683035250.39941812,133628194,1000,1000,1000,1000,0,0,0,0,0,0,0,0,0,0
1683035250.49937797,133728154,1000,1000,1000,1000,0,0,0,0,0,0,0,0,0,0
1683035250.60017109,133828947,1000,1000,1000,1000,0,0,0,0,0,0,0,0,0,0
1683035250.70013094,133928907,1000,1000,1000,1000,0,0,0,0,0,0,0,0,0,0
1683035250.80009103,134028867,1000,1000,1000,1000,0,0,0,0,0,0,0,0,0,0
1683035250.90005112,134128827,1000,1000,1000,1000,0,0,0,0,0,0,0,0,0,0
1683035251.00001097,134228787,1000,1000,1000,1000,0,0,0,0,0,0,0,0,0,0
1683035251.09997106,134328747,1000,1000,1000,1000,0,0,0,0,0,0,0,0,0,0
1683035251.19993091,134428707,1000,1000,1000,1000,0,0,0,0,0,0,0,0,0,0
1683035251.29989100,134528667,1000,1000,1000,1000,0,0,0,0,0,0,0,0,0,0
1683035251.39985108,134628627,1000,1000,1000,1000,0,0,0,0,0,0,0,0,0,0
1683035251.49981093,134728587,1000,1000,1000,1000,0,0,0,0,0,0,0,0,0,0
1683035251.59977102,134828547,1000,1000,1000,1000,0,0,0,0,0,0,0,0,0,0
1683035251.69973111,134928507,1000,1000,1000,1000,0,0,0,0,0,0,0,0,0,0
1683035251.79969096,135028467,1000,1000,1000,1000,0,0,0,0,0,0,0,0,0,0
1683035251.89965105,135128427,1000,1000,1000,1000,0,0,0,0,0,0,0,0,0,0
1683035251.99961114,135228387,1000,1000,1000,1000,0,0,0,0,0,0,0,0,0,0
1683035252.09957099,135328347,1000,1000,1000,1000,0,0,0,0,0,0,0,0,0,0
1683035252.19953108,135428307,1000,1000,1000,1000,0,0,0,0,0,0,0,0,0,0
1683035252.29949093,135528267,1000,1000,1000,1000,0,0,0,0,0,0,0,0,0,0
1683035252.39945102,135628227,1000,1000,1000,1000,0,0,0,0,0,0,0,0,0,0
1683035252.49941111,135728187,1000,1000,1000,1000,0,0,0,0,0,0,0,0,0,0
1683035252.60020399,135828980,1000,1000,1000,1000,0,0,0,0,0,0,0,0,0,0
1683035252.70016408,135928940,1000,1000,1000,1000,0,0,0,0,0,0,0,0,0,0
1683035252.80012393,136028900,1000,1000,1000,1000,0,0,0,0,0,0,0,0,0,0
1683035252.90008402,136128860,1000,1000,1000,1000,0,0,0,0,0,0,0,0,0,0
1683035253.00004411,136228820,1000,1000,1000,1000,0,0,0,0,0,0,0,0,0,0
1683035253.10000396,136328780,1000,1000,1000,1000,0,0,0,0,0,0,0,0,0,0
1683035253.19996405,136428740,1000,1000,1000,1000,0,0,0,0,0,0,0,0,0,0
1683035253.29992414,136528700,1000,1000,1000,1000,0,0,0,0,0,0,0,0,0,0
1683035253.39988399,136628660,1000,1000,1000,1000,0,0,0,0,0,0,0,0,0,0
1683035253.49984407,136728620,1000,1000,1000,1000,0,0,0,0,0,0,0,0,0,0
1683035253.59980392,136828580,1000,1000,1000,1000,0,0,0,0,0,0,0,0,0,0
1683035253.69976401,136928540,1000,1000,1000,1000,0,0,0,0,0,0,0,0,0,0
1683035253.79972410,137028500,1000,1000,1000,1000,0,0,0,0,0,0,0,0,0,0
1683035253.89968395,137128460,1000,1000,1000,1000,0,0,0,0,0,0,0,0,0,0
1683035253.99964404,137228420,1000,1000,1000,1000,0,0,0,0,0,0,0,0,0,0
1683035254.09960413,137328380,1000,1000,1000,1000,0,0,0,0,0,0,0,0,0,0
1683035254.19956398,137428340,1000,1000,1000,1000,0,0,0,0,0,0,0,0,0,0
1683035254.29952407,137528300,1000,1000,1000,1000,0,0,0,0,0,0,0,0,0,0
1683035254.39948392,137628260,1000,1000,1000,1000,0,0,0,0,0,0,0,0,0,0
1683035254.49944401,137728220,1000,1000,1000,1000,0,0,0,0,0,0,0,0,0,0
1683035254.59940410,137828180,1000,1000,1000,1000,0,0,0,0,0,0,0,0,0,0
1683035254.70019698,137928973,1000,1000,1000,1000,0,0,0,0,0,0,0,0,0,0
1683035254.80015707,138028933,1000,1000,1000,1000,0,0,0,0,0,0,0,0,0,0
1683035254.90011692,138128893,1000,1000,1000,1000,0,0,0,0,0,0,0,0,0,0
1683035255.00007701,138228853,1000,1000,1000,1000,0,0,0,0,0,0,0,0,0,0
1683035255.10003710,138328813,1000,1000,1000,1000,0,0,0,0,0,0,0,0,0,0
1683035255.19999695,138428773,1000,1000,1000,1000,0,0,0,0,0,0,0,0,0,0
1683035255.29995704,138528733,1000,1000,1000,1000,0,0,0,0,0,0,0,0,0,0
1683035255.39991713,138628693,1000,1000,1000,1000,0,0,0,0,0,0,0,0,0,0
1683035255.49987698,138728653,1000,1000,1000,1000,0,0,0,0,0,0,0,0,0,0
1683035255.59983706,138828613,1000,1000,1000,1000,0,0,0,0,0,0,0,0,0,0
1683035255.69979692,138928573,1000,1000,1000,1000,0,0,0,0,0,0,0,0,0,0
1683035255.79975700,139028533,1000,1000,1000,1000,0,0,0,0,0,0,0,0,0,0
1683035255.89971709,139128493,1000,1000,1000,1000,0,0,0,0,0,0,0,0,0,0
1683035255.99967694,139228453,1000,1000,1000,1000,0,0,0,0,0,0,0,0,0,0
1683035256.09963703,139328413,1000,1000,1000,1000,0,0,0,0,0,0,0,0,0,0
1683035256.19959712,139428373,1000,1000,1000,1000,0,0,0,0,0,0,0,0,0,0
1683035256.29955697,139528333,1000,1000,1000,1000,0,0,0,0,0,0,0,0,0,0
1683035256.39951706,139628293,1000,1000,1000,1000,0,0,0,0,0,0,0,0,0,0
1683035256.49947691,139728253,1000,1000,1000,1000,0,0,0,0,0,0,0,0,0,0
1683035256.59943700,139828213,1000,1000,1000,1000,0,0,0,0,0,0,0,0,0,0
1683035256.69939709,139928173,1000,1000,1000,1000,0,0,0,0,0,0,0,0,0,0
1683035256.80018997,140028966,1000,1000,1000,1000,0,0,0,0,0,0,0,0,0,0
1683035256.90015006,140128926,1000,1000,1000,1000,0,0,0,0,0,0,0,0,0,0
1683035257.00010991,140228886,1000,1000,1000,1000,0,0,0,0,0,0,0,0,0,0
1683035257.10007000,140328846,1000,1000,1000,1000,0,0,0,0,0,0,0,0,0,0
1683035257.20003009,140428806,1000,1000,1000,1000,0,0,0,0,0,0,0,0,0,0
1683035257.29998994,140528766,1000,1000,1000,1000,0,0,0,0,0,0,0,0,0,0
1683035257.39995003,140628726,1000,1000,1000,1000,0,0,0,0,0,0,0,0,0,0
1683035257.49991012,140728686,1000,1000,1000,1000,0,0,0,0,0,0,0,0,0,0
1683035257.59986997,140828646,1000,1000,1000,1000,0,0,0,0,0,0,0,0,0,0
1683035257.69983006,140928606,1000,1000,1000,1000,0,0,0,0,0,0,0,0,0,0
1683035257.79978991,141028566,1000,1000,1000,1000,0,0,0,0,0,0,0,0,0,0
1683035257.89974999,141128526,1000,1000,1000,1000,0,0,0,0,0,0,0,0,0,0
1683035257.99971008,141228486,1000,1000,1000,1000,0,0,0,0,0,0,0,0,0,0
1683035258.09966993,141328446,1000,1000,1000,1000,0,0,0,0,0,0,0,0,0,0
1683035258.19963002,141428406,1000,1000,1000,1000,0,0,0,0,0,0,0,0,0,0
1683035258.29959011,141528366,1000,1000,1000,1000,0,0,0,0,0,0,0,0,0,0
1683035258.39954996,141628326,1000,1000,1000,1000,0,0,0,0,0,0,0,0,0,0
1683035258.49951005,141728286,1000,1000,1000,1000,0,0,0,0,0,0,0,0,0,0
1683035258.59947014,141828246,1000,1000,1000,1000,0,0,0,0,0,0,0,0,0,0
1683035258.69942999,141928206,1000,1000,1000,1000,0,0,0,0,0,0,0,0,0,0
1683035258.79939008,142028166,1000,1000,1000,1000,0,0,0,0,0,0,0,0,0,0
1683035258.90018296,142128959,1000,1000,1000,1000,0,0,0,0,0,0,0,0,0,0
1683035259.00014305,142228919,1000,1000,1000,1000,0,0,0,0,0,0,0,0,0,0
1683035259.10010314,142328879,1000,1000,1000,1000,0,0,0,0,0,0,0,0,0,0
1683035259.20006299,142428839,1000,1000,1000,1000,0,0,0,0,0,0,0,0,0,0
1683035259.30002308,142528799,1000,1000,1000,1000,0,0,0,0,0,0,0,0,0,0
1683035259.39998293,142628759,1000,1000,1000,1000,0,0,0,0,0,0,0,0,0,0
1683035259.49994302,142728719,1000,1000,1000,1000,0,0,0,0,0,0,0,0,0,0
1683035259.59990311,142828679,1000,1000,1000,1000,0,0,0,0,0,0,0,0,0,0
1683035259.69986296,142928639,1000,1000,1000,1000,0,0,0,0,0,0,0,0,0,0
1683035259.79982305,143028599,1000,1000,1000,1000,0,0,0,0,0,0,0,0,0,0
1683035259.89978313,143128559,1000,1000,1000,1000,0,0,0,0,0,0,0,0,0,0
1683035259.99974298,143228519,1000,1000,1000,1000,0,0,0,0,0,0,0,0,0,0
1683035260.09970307,143328479,1000,1000,1000,1000,0,0,0,0,0,0,0,0,0,0
1683035260.19966292,143428439,1000,1000,1000,1000,0,0,0,0,0,0,0,0,0,0
1683035260.29962301,143528399,1000,1000,1000,1000,0,0,0,0,0,0,0,0,0,0
1683035260.39958310,143628359,1000,1000,1000,1000,0,0,0,0,0,0,0,0,0,0
1683035260.49954295,143728319,1000,1000,1000,1000,0,0,0,0,0,0,0,0,0,0
1683035260.59950304,143828279,1000,1000,1000,1000,0,0,0,0,0,0,0,0,0,0
1683035260.69946313,143928239,1000,1000,1000,1000,0,0,0,0,0,0,0,0,0,0
1683035260.79942298,144028199,1000,1000,1000,1000,0,0,0,0,0,0,0,0,0,0
1683035260.89938307,144128159,1000,1000,1000,1000,0,0,0,0,0,0,0,0,0,0
1683035261.00017595,144228952,1000,1000,1000,1000,0,0,0,0,0,0,0,0,0,0
1683035261.10013604,144328912,1000,1000,1000,1000,0,0,0,0,0,0,0,0,0,0
1683035261.20009613,144428872,1000,1000,1000,1000,0,0,0,0,0,0,0,0,0,0
