TimeUS,M1,M2,M3,M4,TimeUS,C1,C2,C3,C4
58480765,1000,1000,1000,1000,58528246,1000,1000,1000,1000
58483264,1000,1000,1000,1000,58628206,1000,1000,1000,1000
58485763,1000,1000,1000,1000,58728166,1000,1000,1000,1000
58488262,1000,1000,1000,1000,58828959,1000,1000,1000,1000
58490761,1000,1000,1000,1000,58928919,1000,1000,1000,1000
58493260,1000,1000,1000,1000,59028879,1000,1000,1000,1000
58495759,1000,1000,1000,1000,59128839,1000,1000,1000,1000
58498258,1000,1000,1000,1000,59228799,1000,1000,1000,1000
58500757,1000,1000,1000,1000,59328759,1000,1000,1000,1000
58503256,1000,1000,1000,1000,59428719,1000,1000,1000,1000
58505755,1000,1000,1000,1000,59528679,1000,1000,1000,1000
58508254,1000,1000,1000,1000,59628639,1000,1000,1000,1000
58510753,1000,1000,1000,1000,59728599,1000,1000,1000,1000
58513252,1000,1000,1000,1000,59828559,1000,1000,1000,1000
58515751,1000,1000,1000,1000,59928519,1000,1000,1000,1000
58518250,1000,1000,1000,1000,60028479,1000,1000,1000,1000
58520749,1000,1000,1000,1000,60128439,1000,1000,1000,1000
58523248,1000,1000,1000,1000,60228399,1000,1000,1000,1000
58525747,1000,1000,1000,1000,60328359,1000,1000,1000,1000
58528246,1000,1000,1000,1000,60428319,1000,1000,1000,1000
58530745,1000,1000,1000,1000,60528279,1014,1014,1014,1014
58533244,1000,1000,1000,1000,60628239,1044,1044,1044,1044
58535743,1000,1000,1000,1000,60728199,1074,1074,1074,1074
58538242,1000,1000,1000,1000,60828159,1104,1104,1104,1104
58540741,1000,1000,1000,1000,60928952,1134,1134,1134,1134
58543240,1000,1000,1000,1000,61028912,1282,1274,1275,1282
58545739,1000,1000,1000,1000,61128872,1491,1485,1485,1491
58548238,1000,1000,1000,1000,61228832,1653,1647,1648,1652
58550737,1000,1000,1000,1000,61328792,1789,1784,1785,1789
58553236,1000,1000,1000,1000,61428752,1911,1905,1905,1910
58555735,1000,1000,1000,1000,61528712,1880,1876,1877,1879
58558234,1000,1000,1000,1000,61628672,1751,1751,1751,1751
58560733,1000,1000,1000,1000,61728632,1653,1655,1655,1654
58563232,1000,1000,1000,1000,61828592,1622,1623,1621,1624
58565731,1000,1000,1000,1000,61928552,1625,1628,1622,1631
58568230,1000,1000,1000,1000,62028512,1631,1634,1630,1636
58570729,1000,1000,1000,1000,62128472,1631,1633,1632,1632
58573228,1000,1000,1000,1000,62228432,1625,1625,1628,1623
58575727,1000,1000,1000,1000,62328392,1620,1618,1622,1615
58578226,1000,1000,1000,1000,62428352,1616,1614,1618,1612
58580725,1000,1000,1000,1000,62528312,1615,1614,1617,1612
58583224,1000,1000,1000,1000,62628272,1616,1616,1617,1615
58585723,1000,1000,1000,1000,62728232,1611,1611,1611,1611
58588222,1000,1000,1000,1000,62828192,1582,1583,1588,1576
58590721,1000,1000,1000,1000,62928985,1568,1569,1573,1564
58593220,1000,1000,1000,1000,63028945,1558,1558,1558,1558
58595719,1000,1000,1000,1000,63128905,1550,1550,1545,1554
58598218,1000,1000,1000,1000,63228865,1542,1542,1534,1551
58600717,1000,1000,1000,1000,63328825,1536,1535,1528,1543
58603216,1000,1000,1000,1000,63428785,1531,1530,1526,1534
58605715,1000,1000,1000,1000,63528745,1526,1526,1524,1527
58608214,1000,1000,1000,1000,63628705,1527,1526,1527,1525
58610713,1000,1000,1000,1000,63728665,1528,1528,1530,1526
58613212,1000,1000,1000,1000,63828625,1531,1531,1534,1528
58615711,1000,1000,1000,1000,63928585,1535,1535,1538,1532
58618210,1000,1000,1000,1000,64028545,1538,1538,1541,1536
58620709,1000,1000,1000,1000,64128505,1542,1542,1544,1541
58623208,1000,1000,1000,1000,64228465,1545,1545,1545,1545
58625707,1000,1000,1000,1000,64328425,1548,1548,1548,1549
58628206,1000,1000,1000,1000,64428385,1551,1552,1551,1552
58630705,1000,1000,1000,1000,64528345,1554,1553,1552,1555
58633204,1000,1000,1000,1000,64628305,1555,1555,1555,1558
58635703,1000,1000,1000,1000,64728265,1557,1556,1559,1560
58638202,1000,1000,1000,1000,64828225,1558,1558,1562,1562
58640701,1000,1000,1000,1000,64928185,1559,1559,1564,1563
58643200,1000,1000,1000,1000,65028978,1561,1562,1566,1565
58645699,1000,1000,1000,1000,65128938,1563,1563,1566,1566
58648198,1000,1000,1000,1000,65228898,1565,1566,1567,1567
58650697,1000,1000,1000,1000,65328858,1567,1567,1567,1567
58653196,1000,1000,1000,1000,65428818,1569,1569,1568,1568
58655695,1000,1000,1000,1000,65528778,1571,1571,1569,1569
58658194,1000,1000,1000,1000,65628738,1572,1572,1569,1569
58660693,1000,1000,1000,1000,65728698,1573,1573,1570,1570
58663192,1000,1000,1000,1000,65828658,1574,1574,1571,1571
58665691,1000,1000,1000,1000,65928618,1574,1574,1572,1571
58668190,1000,1000,1000,1000,66028578,1576,1575,1573,1573
58670689,1000,1000,1000,1000,66128538,1575,1576,1575,1573
58673188,1000,1000,1000,1000,66228498,1576,1576,1575,1574
58675687,1000,1000,1000,1000,66328458,1576,1575,1575,1575
58678186,1000,1000,1000,1000,66428418,1576,1576,1577,1576
58680685,1000,1000,1000,1000,66528378,1576,1576,1577,1577
58683184,1000,1000,1000,1000,66628338,1577,1577,1577,1578
58685683,1000,1000,1000,1000,66728298,1576,1577,1577,1578
58688182,1000,1000,1000,1000,66828258,1576,1576,1576,1577
58690681,1000,1000,1000,1000,66928218,1576,1576,1577,1577
58693180,1000,1000,1000,1000,67028178,1576,1576,1577,1577
58695679,1000,1000,1000,1000,67128971,1577,1577,1578,1578
58698178,1000,1000,1000,1000,67228931,1578,1578,1578,1578
58700677,1000,1000,1000,1000,67328891,1578,1578,1578,1578
58703176,1000,1000,1000,1000,67428851,1578,1578,1578,1578
58705675,1000,1000,1000,1000,67528811,1578,1578,1578,1578
58708174,1000,1000,1000,1000,67628771,1578,1578,1578,1577
58710673,1000,1000,1000,1000,67728731,1578,1578,1577,1577
58713172,1000,1000,1000,1000,67828691,1578,1579,1578,1578
58715671,1000,1000,1000,1000,67928651,1579,1579,1578,1579
58718170,1000,1000,1000,1000,68028611,1578,1578,1578,1578
58720669,1000,1000,1000,1000,68128571,1579,1578,1578,1578
58723168,1000,1000,1000,1000,68228531,1578,1579,1578,1579
58725667,1000,1000,1000,1000,68328491,1578,1578,1578,1578
58728166,1000,1000,1000,1000,68428451,1580,1579,1580,1579
58730665,1000,1000,1000,1000,68528411,1580,1580,1580,1580
58733164,1000,1000,1000,1000,68628371,1580,1580,1581,1580
58735663,1000,1000,1000,1000,68728331,1579,1579,1579,1580
58738162,1000,1000,1000,1000,68828291,1579,1580,1580,1579
58740661,1000,1000,1000,1000,68928251,1579,1579,1579,1579
58743160,1000,1000,1000,1000,69028211,1580,1580,1580,1580
58745659,1000,1000,1000,1000,69128171,1579,1579,1579,1580
58748158,1000,1000,1000,1000,69228964,1579,1579,1579,1579
58750657,1000,1000,1000,1000,69328924,1580,1580,1580,1580
58753156,1000,1000,1000,1000,69428884,1580,1580,1580,1579
58755655,1000,1000,1000,1000,69528844,1580,1580,1580,1580
58758154,1000,1000,1000,1000,69628804,1580,1580,1580,1580
58761486,1000,1000,1000,1000,69728764,1581,1580,1580,1581
58763985,1000,1000,1000,1000,69828724,1581,1581,1581,1581
58766484,1000,1000,1000,1000,69928684,1581,1582,1582,1581
58768983,1000,1000,1000,1000,70028644,1580,1581,1581,1580
58771482,1000,1000,1000,1000,70128604,1580,1580,1580,1581
58773981,1000,1000,1000,1000,70228564,1581,1581,1581,1581
58776480,1000,1000,1000,1000,70328524,1581,1581,1581,1581
58778979,1000,1000,1000,1000,70428484,1580,1580,1580,1580
58781478,1000,1000,1000,1000,70528444,1581,1581,1581,1581
58783977,1000,1000,1000,1000,70628404,1580,1580,1580,1580
58786476,1000,1000,1000,1000,70728364,1580,1580,1581,1580
58788975,1000,1000,1000,1000,70828324,1580,1581,1587,1574
58791474,1000,1000,1000,1000,70928284,1579,1581,1585,1572
58793973,1000,1000,1000,1000,71028244,1578,1581,1578,1573
58796472,1000,1000,1000,1000,71128204,1577,1579,1568,1571
58798971,1000,1000,1000,1000,71228164,1576,1578,1560,1568
58801470,1000,1000,1000,1000,71328957,1577,1577,1556,1564
58803969,1000,1000,1000,1000,71428917,1579,1578,1555,1559
58806468,1000,1000,1000,1000,71528877,1579,1577,1554,1555
58808967,1000,1000,1000,1000,71628837,1580,1578,1555,1554
58811466,1000,1000,1000,1000,71728797,1579,1579,1557,1554
58813965,1000,1000,1000,1000,71828757,1578,1579,1557,1554
58816464,1000,1000,1000,1000,71928717,1577,1578,1556,1555
58818963,1000,1000,1000,1000,72028677,1576,1577,1555,1554
58821462,1000,1000,1000,1000,72128637,1575,1577,1553,1553
58823961,1000,1000,1000,1000,72228597,1575,1577,1552,1552
58826460,1000,1000,1000,1000,72328557,1576,1578,1550,1551
58828959,1000,1000,1000,1000,72428517,1578,1579,1548,1547
58831458,1000,1000,1000,1000,72528477,1581,1582,1546,1546
58833957,1000,1000,1000,1000,72628437,1583,1584,1543,1542
58836456,1000,1000,1000,1000,72728397,1587,1587,1541,1540
58838955,1000,1000,1000,1000,72828357,1589,1590,1538,1537
58841454,1000,1000,1000,1000,72928317,1593,1593,1536,1537
58843953,1000,1000,1000,1000,73028277,1594,1593,1534,1535
58846452,1000,1000,1000,1000,73128237,1594,1594,1534,1536
58848951,1000,1000,1000,1000,73228197,1594,1594,1535,1538
58851450,1000,1000,1000,1000,73328157,1592,1591,1538,1540
58853949,1000,1000,1000,1000,73428950,1589,1587,1543,1546
58856448,1000,1000,1000,1000,73528910,1583,1580,1551,1554
58858947,1000,1000,1000,1000,73628870,1575,1572,1561,1564
58861446,1000,1000,1000,1000,73728830,1564,1561,1573,1575
58863945,1000,1000,1000,1000,73828790,1554,1551,1586,1587
58866444,1000,1000,1000,1000,73928750,1544,1541,1598,1598
58868943,1000,1000,1000,1000,74028710,1536,1535,1608,1607
58871442,1000,1000,1000,1000,74128670,1530,1531,1613,1612
58873941,1000,1000,1000,1000,74228630,1529,1530,1616,1614
58876440,1000,1000,1000,1000,74328590,1531,1533,1614,1613
58878939,1000,1000,1000,1000,74428550,1536,1538,1609,1609
58881438,1000,1000,1000,1000,74528510,1544,1546,1603,1604
58883937,1000,1000,1000,1000,74628470,1553,1554,1596,1597
58886436,1000,1000,1000,1000,74728430,1561,1562,1589,1588
58888935,1000,1000,1000,1000,74828390,1570,1570,1581,1581
58891434,1000,1000,1000,1000,74928350,1578,1577,1576,1575
58893933,1000,1000,1000,1000,75028310,1583,1581,1571,1570
58896432,1000,1000,1000,1000,75128270,1587,1586,1569,1568
58898931,1000,1000,1000,1000,75228230,1589,1587,1567,1567
58901430,1000,1000,1000,1000,75328190,1589,1587,1567,1567
58903929,1000,1000,1000,1000,75428983,1319,1318,1575,1577
58906428,1000,1000,1000,1000,75528943,1407,1411,1630,1637
58908927,1000,1000,1000,1000,75628903,1462,1470,1630,1630
58911426,1000,1000,1000,1000,75728863,1514,1521,1622,1616
58913925,1000,1000,1000,1000,75828823,1553,1557,1612,1604
58916424,1000,1000,1000,1000,75928783,1583,1582,1603,1597
58918923,1000,1000,1000,1000,76028743,1606,1598,1596,1592
58921422,1000,1000,1000,1000,76128703,1630,1619,1575,1577
58923921,1000,1000,1000,1000,76228663,1651,1643,1548,1556
58926420,1000,1000,1000,1000,76328623,1660,1652,1539,1549
58928919,1000,1000,1000,1000,76428583,1651,1651,1545,1554
58931418,1000,1000,1000,1000,76528543,1639,1646,1554,1557
58933917,1000,1000,1000,1000,76628503,1630,1638,1562,1560
58936416,1000,1000,1000,1000,76728463,1623,1629,1567,1563
58938915,1000,1000,1000,1000,76828423,1619,1621,1571,1567
58941414,1000,1000,1000,1000,76928383,1614,1613,1572,1569
58943913,1000,1000,1000,1000,77028343,1611,1608,1572,1571
58946412,1000,1000,1000,1000,77128303,1607,1604,1572,1572
58948911,1000,1000,1000,1000,77228263,1604,1601,1571,1573
58951410,1000,1000,1000,1000,77328223,1599,1598,1570,1571
58953909,1000,1000,1000,1000,77428183,1596,1596,1570,1570
58956408,1000,1000,1000,1000,77528976,1593,1594,1569,1569
58958907,1000,1000,1000,1000,77628936,1589,1588,1572,1571
58961406,1000,1000,1000,1000,77728896,1579,1577,1585,1584
58963905,1000,1000,1000,1000,77828856,1567,1564,1600,1599
58966404,1000,1000,1000,1000,77928816,1554,1553,1607,1608
58968903,1000,1000,1000,1000,78028776,1548,1550,1610,1611
58971402,1000,1000,1000,1000,78128736,1547,1551,1608,1609
58973901,1000,1000,1000,1000,78228696,1549,1554,1604,1604
58976400,1000,1000,1000,1000,78328656,1554,1559,1600,1598
58978899,1000,1000,1000,1000,78428616,1561,1564,1595,1593
58981398,1000,1000,1000,1000,78528576,1568,1569,1590,1587
58983897,1000,1000,1000,1000,78628536,1578,1577,1582,1579
58986396,1000,1000,1000,1000,78728496,1588,1585,1572,1571
58988895,1000,1000,1000,1000,78828456,1596,1589,1570,1559
58991394,1000,1000,1000,1000,78928416,1602,1593,1563,1556
58993893,1000,1000,1000,1000,79028376,1601,1594,1552,1554
58996392,1000,1000,1000,1000,79128336,1597,1594,1546,1553
58998891,1000,1000,1000,1000,79228296,1591,1594,1546,1551
59001390,1000,1000,1000,1000,79328256,1586,1592,1550,1552
59003889,1000,1000,1000,1000,79428216,1581,1587,1555,1553
59006388,1000,1000,1000,1000,79528176,1576,1581,1559,1555
59008887,1000,1000,1000,1000,79628969,1572,1574,1563,1559
59011386,1000,1000,1000,1000,79728929,1569,1569,1565,1562
59013885,1000,1000,1000,1000,79828889,1566,1565,1565,1564
59016384,1000,1000,1000,1000,79928849,1564,1563,1565,1565
59018883,1000,1000,1000,1000,80028809,1563,1562,1561,1563
59021382,1000,1000,1000,1000,80128769,1563,1565,1558,1559
59023881,1000,1000,1000,1000,80228729,1567,1569,1554,1554
59026380,1000,1000,1000,1000,80328689,1571,1573,1548,1548
59028879,1000,1000,1000,1000,80428649,1575,1577,1541,1539
59031378,1000,1000,1000,1000,80528609,1581,1582,1536,1534
59033877,1000,1000,1000,1000,80628569,1586,1587,1531,1529
59036376,1000,1000,1000,1000,80728529,1590,1590,1527,1527
59038875,1000,1000,1000,1000,80828489,1593,1594,1526,1526
59041374,1000,1000,1000,1000,80928449,1593,1593,1528,1530
59043873,1000,1000,1000,1000,81028409,1591,1592,1533,1536
59046372,1000,1000,1000,1000,81128369,1589,1590,1538,1540
59048871,1000,1000,1000,1000,81228329,1587,1588,1541,1543
59051370,1000,1000,1000,1000,81328289,1586,1586,1543,1546
59053869,1000,1000,1000,1000,81428249,1585,1584,1545,1547
59056368,1000,1000,1000,1000,81528209,1585,1583,1546,1549
59058867,1000,1000,1000,1000,81628169,1582,1580,1550,1554
59061366,1000,1000,1000,1000,81728962,1574,1571,1561,1564
59063865,1000,1000,1000,1000,81828922,1564,1561,1570,1574
59066364,1000,1000,1000,1000,81928882,1556,1553,1578,1582
59068863,1000,1000,1000,1000,82028842,1548,1547,1584,1587
59071362,1000,1000,1000,1000,82128802,1544,1544,1591,1591
59073861,1000,1000,1000,1000,82228762,1539,1540,1595,1593
59076360,1000,1000,1000,1000,82328722,1537,1538,1597,1595
59078859,1000,1000,1000,1000,82428682,1537,1538,1598,1597
59081358,1000,1000,1000,1000,82528642,1538,1539,1600,1598
59083857,1000,1000,1000,1000,82628602,1540,1541,1598,1597
59086356,1000,1000,1000,1000,82728562,1543,1543,1596,1596
59088855,1000,1000,1000,1000,82828522,1547,1548,1593,1594
59091354,1000,1000,1000,1000,82928482,1551,1552,1589,1590
59093853,1000,1000,1000,1000,83028442,1556,1557,1586,1586
59096352,1000,1000,1000,1000,83128402,1561,1562,1582,1582
59098851,1000,1000,1000,1000,83228362,1566,1566,1579,1579
59101350,1000,1000,1000,1000,83328322,1571,1571,1578,1577
59103849,1000,1000,1000,1000,83428282,1575,1574,1576,1574
59106348,1000,1000,1000,1000,83528242,1578,1577,1575,1574
59108847,1000,1000,1000,1000,83628202,1581,1580,1574,1573
59111346,1000,1000,1000,1000,83728162,1583,1581,1573,1573
59113845,1000,1000,1000,1000,83828955,1583,1582,1573,1573
59116344,1000,1000,1000,1000,83928915,1584,1583,1572,1573
59118843,1000,1000,1000,1000,84028875,1584,1584,1573,1574
59121342,1000,1000,1000,1000,84128835,1583,1583,1573,1574
59123841,1000,1000,1000,1000,84228795,1583,1583,1573,1574
59126340,1000,1000,1000,1000,84328755,1581,1581,1573,1572
59128839,1000,1000,1000,1000,84428715,1582,1581,1574,1574
59131338,1000,1000,1000,1000,84528675,1582,1582,1576,1576
59133837,1000,1000,1000,1000,84628635,1581,1581,1576,1576
59136336,1000,1000,1000,1000,84728595,1580,1580,1577,1576
59138835,1000,1000,1000,1000,84828555,1580,1580,1577,1577
59141334,1000,1000,1000,1000,84928515,1579,1580,1578,1578
59143833,1000,1000,1000,1000,85028475,1579,1579,1579,1579
59146332,1000,1000,1000,1000,85128435,1579,1579,1579,1579
59148831,1000,1000,1000,1000,85228395,1579,1579,1580,1579
59151330,1000,1000,1000,1000,85328355,1579,1579,1580,1580
59153829,1000,1000,1000,1000,85428315,1579,1579,1579,1580
59156328,1000,1000,1000,1000,85528275,1579,1579,1579,1580
59158827,1000,1000,1000,1000,85628235,1578,1579,1579,1580
59161326,1000,1000,1000,1000,85728195,1579,1579,1580,1580
59163825,1000,1000,1000,1000,85828155,1579,1579,1580,1579
59166324,1000,1000,1000,1000,85928948,1578,1579,1579,1579
59168823,1000,1000,1000,1000,86028908,1579,1579,1579,1579
59171322,1000,1000,1000,1000,86128868,1579,1579,1579,1579
59173821,1000,1000,1000,1000,86228828,1579,1579,1579,1579
59176320,1000,1000,1000,1000,86328788,1580,1579,1580,1579
59178819,1000,1000,1000,1000,86428748,1580,1580,1580,1580
59181318,1000,1000,1000,1000,86528708,1580,1580,1579,1579
59183817,1000,1000,1000,1000,86628668,1580,1580,1580,1580
59186316,1000,1000,1000,1000,86728628,1581,1581,1580,1580
59188815,1000,1000,1000,1000,86828588,1581,1580,1580,1580
59191314,1000,1000,1000,1000,86928548,1581,1581,1579,1580
59193813,1000,1000,1000,1000,87028508,1581,1581,1580,1580
59196312,1000,1000,1000,1000,87128468,1581,1582,1581,1581
59198811,1000,1000,1000,1000,87228428,1581,1581,1581,1581
59201310,1000,1000,1000,1000,87328388,1581,1581,1581,1580
59203809,1000,1000,1000,1000,87428348,1581,1581,1580,1580
59206308,1000,1000,1000,1000,87528308,1582,1581,1581,1581
59208807,1000,1000,1000,1000,87628268,1581,1581,1581,1581
59211306,1000,1000,1000,1000,87728228,1581,1582,1581,1581
59213805,1000,1000,1000,1000,87828188,1582,1581,1586,1576
59216304,1000,1000,1000,1000,87928981,1582,1582,1588,1573
59218803,1000,1000,1000,1000,88028941,1580,1581,1580,1573
59221302,1000,1000,1000,1000,88128901,1579,1580,1572,1574
59223801,1000,1000,1000,1000,88228861,1577,1579,1564,1570
59226300,1000,1000,1000,1000,88328821,1576,1578,1559,1565
59228799,1000,1000,1000,1000,88428781,1576,1577,1557,1561
59231298,1000,1000,1000,1000,88528741,1577,1577,1557,1558
59233797,1000,1000,1000,1000,88628701,1577,1577,1558,1557
59236296,1000,1000,1000,1000,88728661,1577,1577,1558,1556
59238795,1000,1000,1000,1000,88828621,1577,1577,1557,1555
59241294,1000,1000,1000,1000,88928581,1576,1576,1556,1554
59243793,1000,1000,1000,1000,89028541,1576,1576,1554,1553
59246292,1000,1000,1000,1000,89128501,1575,1576,1552,1552
59248791,1000,1000,1000,1000,89228461,1575,1576,1551,1551
59251290,1000,1000,1000,1000,89328421,1575,1577,1549,1550
59253789,1000,1000,1000,1000,89428381,1576,1578,1548,1548
59256288,1000,1000,1000,1000,89528341,1577,1579,1546,1546
59258787,1000,1000,1000,1000,89628301,1579,1581,1544,1544
59261286,1000,1000,1000,1000,89728261,1581,1583,1543,1542
59263785,1000,1000,1000,1000,89828221,1584,1584,1541,1541
59266284,1000,1000,1000,1000,89928181,1586,1586,1539,1539
59268783,1000,1000,1000,1000,90028974,1588,1588,1538,1538
59271282,1000,1000,1000,1000,90128934,1589,1588,1538,1539
59273781,1000,1000,1000,1000,90228894,1590,1589,1539,1541
59276280,1000,1000,1000,1000,90328854,1590,1589,1541,1544
59278779,1000,1000,1000,1000,90428814,1589,1588,1544,1547
59281278,1000,1000,1000,1000,90528774,1587,1586,1548,1552
59283777,1000,1000,1000,1000,90628734,1582,1582,1553,1556
59286276,1000,1000,1000,1000,90728694,1577,1575,1560,1562
59288775,1000,1000,1000,1000,90828654,1571,1568,1569,1571
59291274,1000,1000,1000,1000,90928614,1563,1559,1578,1579
59293773,1000,1000,1000,1000,91028574,1554,1551,1589,1590
59296272,1000,1000,1000,1000,91128534,1544,1542,1598,1598
59298771,1000,1000,1000,1000,91228494,1537,1536,1606,1605
59301270,1000,1000,1000,1000,91328454,1533,1533,1610,1609
59303769,1000,1000,1000,1000,91428414,1531,1533,1611,1611
59306268,1000,1000,1000,1000,91528374,1533,1535,1610,1609
59308767,1000,1000,1000,1000,91628334,1537,1540,1606,1606
59311266,1000,1000,1000,1000,91728294,1544,1546,1601,1600
59313765,1000,1000,1000,1000,91828254,1552,1553,1595,1594
59316264,1000,1000,1000,1000,91928214,1560,1560,1587,1586
59318763,1000,1000,1000,1000,92028174,1568,1568,1581,1580
59321262,1000,1000,1000,1000,92128967,1576,1574,1575,1574
59323761,1000,1000,1000,1000,92228927,1581,1580,1570,1570
59326260,1000,1000,1000,1000,92328887,1586,1584,1567,1567
59328759,1000,1000,1000,1000,92428847,1589,1588,1567,1567
59331258,1000,1000,1000,1000,92528807,1591,1589,1567,1567
59333757,1000,1000,1000,1000,92628767,1590,1589,1568,1568
59336256,1000,1000,1000,1000,92728727,1588,1588,1570,1570
59338755,1000,1000,1000,1000,92828687,1586,1586,1572,1572
59341254,1000,1000,1000,1000,92928647,1584,1584,1575,1575
59343753,1000,1000,1000,1000,93028607,1581,1581,1577,1578
59346252,1000,1000,1000,1000,93128567,1578,1579,1580,1579
59348751,1000,1000,1000,1000,93228527,1577,1578,1583,1583
59351250,1000,1000,1000,1000,93328487,1575,1576,1584,1585
59353749,1000,1000,1000,1000,93428447,1574,1575,1585,1585
59356248,1000,1000,1000,1000,93528407,1573,1574,1584,1584
59358747,1000,1000,1000,1000,93628367,1573,1574,1584,1584
59361246,1000,1000,1000,1000,93728327,1574,1574,1583,1583
59363745,1000,1000,1000,1000,93828287,1574,1575,1581,1582
59366244,1000,1000,1000,1000,93928247,1576,1576,1581,1580
59368743,1000,1000,1000,1000,94028207,1578,1578,1580,1580
59371242,1000,1000,1000,1000,94128167,1579,1579,1580,1579
59373741,1000,1000,1000,1000,94228960,1580,1581,1579,1579
59376240,1000,1000,1000,1000,94328920,1582,1581,1578,1578
59378739,1000,1000,1000,1000,94428880,1582,1582,1577,1577
59381238,1000,1000,1000,1000,94528840,1583,1582,1578,1578
59383737,1000,1000,1000,1000,94628800,1583,1583,1578,1579
59386236,1000,1000,1000,1000,94728760,1583,1582,1579,1578
59388735,1000,1000,1000,1000,94828720,1583,1582,1579,1579
59391234,1000,1000,1000,1000,94928680,1582,1582,1579,1580
59393733,1000,1000,1000,1000,95028640,1582,1582,1580,1580
59396232,1000,1000,1000,1000,95128600,1581,1581,1581,1581
59398731,1000,1000,1000,1000,95228560,1581,1581,1581,1581
59401230,1000,1000,1000,1000,95328520,1581,1581,1582,1582
59403729,1000,1000,1000,1000,95428480,1580,1581,1582,1582
59406228,1000,1000,1000,1000,95528440,1580,1580,1581,1582
59408727,1000,1000,1000,1000,95628400,1580,1580,1581,1581
59411226,1000,1000,1000,1000,95728360,1580,1580,1582,1581
59413725,1000,1000,1000,1000,95828320,1580,1580,1581,1581
59416224,1000,1000,1000,1000,95928280,1580,1580,1581,1581
59418723,1000,1000,1000,1000,96028240,1581,1580,1588,1573
59421222,1000,1000,1000,1000,96128200,1581,1579,1585,1574
59423721,1000,1000,1000,1000,96228160,1577,1577,1576,1574
59426220,1000,1000,1000,1000,96328953,1575,1574,1570,1574
59428719,1000,1000,1000,1000,96428913,1571,1572,1565,1571
59431218,1000,1000,1000,1000,96528873,1569,1570,1563,1570
59433717,1000,1000,1000,1000,96628833,1568,1569,1564,1568
59436216,1000,1000,1000,1000,96728793,1567,1567,1565,1566
59438715,1000,1000,1000,1000,96828753,1566,1566,1566,1564
59441214,1000,1000,1000,1000,96928713,1565,1565,1566,1564
59443713,1000,1000,1000,1000,97028673,1564,1564,1567,1564
59446212,1000,1000,1000,1000,97128633,1563,1563,1565,1564
59448711,1000,1000,1000,1000,97228593,1564,1564,1567,1565
59451210,1000,1000,1000,1000,97328553,1563,1563,1564,1565
59453709,1000,1000,1000,1000,97428513,1562,1562,1563,1564
59456208,1000,1000,1000,1000,97528473,1561,1561,1562,1563
59458707,1000,1000,1000,1000,97628433,1561,1561,1562,1562
59461206,1000,1000,1000,1000,97728393,1561,1560,1561,1561
59463705,1000,1000,1000,1000,97828353,1560,1560,1561,1560
59466204,1000,1000,1000,1000,97928313,1559,1559,1559,1559
59468703,1000,1000,1000,1000,98028273,1559,1559,1559,1558
59471202,1000,1000,1000,1000,98128233,1559,1559,1558,1558
59473701,1000,1000,1000,1000,98228193,1559,1559,1559,1558
59476200,1000,1000,1000,1000,98328986,1558,1559,1558,1557
59478699,1000,1000,1000,1000,98428946,1559,1559,1559,1558
59481198,1000,1000,1000,1000,98528906,1559,1558,1559,1557
59483697,1000,1000,1000,1000,98628866,1559,1558,1559,1557
59486196,1000,1000,1000,1000,98728826,1558,1558,1560,1557
59488695,1000,1000,1000,1000,98828786,1559,1559,1560,1559
59491194,1000,1000,1000,1000,98928746,1559,1559,1557,1561
59493693,1000,1000,1000,1000,99028706,1558,1558,1556,1561
59496192,1000,1000,1000,1000,99128666,1559,1559,1557,1562
59498691,1000,1000,1000,1000,99228626,1559,1559,1556,1562
59501190,1000,1000,1000,1000,99328586,1556,1557,1554,1558
59503689,1000,1000,1000,1000,99428546,1552,1553,1550,1551
59506188,1000,1000,1000,1000,99528506,1547,1547,1544,1543
59508687,1000,1000,1000,1000,99628466,1541,1541,1537,1535
59511186,1000,1000,1000,1000,99728426,1535,1535,1530,1529
59513685,1000,1000,1000,1000,99828386,1527,1527,1522,1521
59516184,1000,1000,1000,1000,99928346,1524,1523,1519,1519
59518683,1000,1000,1000,1000,100028306,1521,1521,1519,1520
59521182,1000,1000,1000,1000,100128266,1520,1520,1520,1521
59523681,1000,1000,1000,1000,100228226,1520,1521,1523,1524
59526180,1000,1000,1000,1000,100328186,1522,1522,1528,1529
59528679,1000,1000,1000,1000,100428979,1525,1526,1533,1534
59531178,1000,1000,1000,1000,100528939,1530,1531,1539,1540
59533677,1000,1000,1000,1000,100628899,1534,1534,1542,1542
59536176,1000,1000,1000,1000,100728859,1537,1537,1544,1543
59538675,1000,1000,1000,1000,100828819,1540,1539,1545,1544
59541174,1000,1000,1000,1000,100928779,1542,1542,1545,1544
59543673,1000,1000,1000,1000,101028739,1544,1544,1545,1545
59546172,1000,1000,1000,1000,101128699,1546,1547,1545,1545
59548671,1000,1000,1000,1000,101228659,1548,1548,1544,1545
59551170,1000,1000,1000,1000,101328619,1548,1549,1545,1545
59553669,1000,1000,1000,1000,101428579,1549,1550,1545,1545
59556168,1000,1000,1000,1000,101528539,1549,1550,1545,1544
59558667,1000,1000,1000,1000,101628499,1549,1549,1545,1544
59561166,1000,1000,1000,1000,101728459,1549,1548,1544,1544
59563665,1000,1000,1000,1000,101828419,1548,1548,1545,1544
59566164,1000,1000,1000,1000,101928379,1547,1547,1545,1545
59568663,1000,1000,1000,1000,102028339,1546,1546,1545,1545
59571162,1000,1000,1000,1000,102128299,1546,1545,1545,1546
59573661,1000,1000,1000,1000,102228259,1545,1545,1545,1545
59576160,1000,1000,1000,1000,102328219,1544,1544,1546,1546
59578659,1000,1000,1000,1000,102428179,1544,1544,1546,1546
59581158,1000,1000,1000,1000,102528972,1543,1543,1545,1545
59583657,1000,1000,1000,1000,102628932,1543,1543,1545,1544
59586156,1000,1000,1000,1000,102728892,1543,1543,1545,1545
59588655,1000,1000,1000,1000,102828852,1544,1543,1544,1545
59591154,1000,1000,1000,1000,102928812,1544,1543,1544,1544
59593653,1000,1000,1000,1000,103028772,1543,1543,1544,1544
59596152,1000,1000,1000,1000,103128732,1544,1544,1544,1544
59598651,1000,1000,1000,1000,103228692,1544,1544,1544,1544
59601150,1000,1000,1000,1000,103328652,1544,1544,1544,1544
59603649,1000,1000,1000,1000,103428612,1544,1544,1544,1543
59606148,1000,1000,1000,1000,103528572,1544,1544,1543,1543
59608647,1000,1000,1000,1000,103628532,1544,1544,1543,1543
59611146,1000,1000,1000,1000,103728492,1544,1544,1543,1543
59613645,1000,1000,1000,1000,103828452,1544,1544,1543,1543
59616144,1000,1000,1000,1000,103928412,1543,1543,1543,1543
59618643,1000,1000,1000,1000,104028372,1543,1543,1543,1543
59621142,1000,1000,1000,1000,104128332,1543,1543,1543,1543
59623641,1000,1000,1000,1000,104228292,1544,1544,1544,1544
59626140,1000,1000,1000,1000,104328252,1544,1544,1544,1544
59628639,1000,1000,1000,1000,104428212,1544,1544,1544,1545
59631138,1000,1000,1000,1000,104528172,1544,1544,1544,1545
59633637,1000,1000,1000,1000,104628965,1544,1544,1544,1545
59636136,1000,1000,1000,1000,104728925,1544,1544,1544,1545
59638635,1000,1000,1000,1000,104828885,1544,1544,1545,1545
59641134,1000,1000,1000,1000,104928845,1544,1544,1544,1544
59643633,1000,1000,1000,1000,105028805,1544,1544,1544,1544
59646132,1000,1000,1000,1000,105128765,1544,1544,1544,1544
59648631,1000,1000,1000,1000,105228725,1544,1544,1544,1544
59651130,1000,1000,1000,1000,105328685,1545,1544,1544,1544
59653629,1000,1000,1000,1000,105428645,1545,1545,1545,1544
59656128,1000,1000,1000,1000,105528605,1544,1544,1544,1544
59658627,1000,1000,1000,1000,105628565,1544,1544,1543,1544
59661126,1000,1000,1000,1000,105728525,1545,1544,1544,1544
59663625,1000,1000,1000,1000,105828485,1544,1545,1544,1545
59666124,1000,1000,1000,1000,105928445,1544,1544,1544,1544
59668623,1000,1000,1000,1000,106028405,1544,1544,1544,1544
59671122,1000,1000,1000,1000,106128365,1545,1544,1544,1545
59673621,1000,1000,1000,1000,106228325,1544,1544,1545,1544
59676120,1000,1000,1000,1000,106328285,1544,1544,1544,1544
59678619,1000,1000,1000,1000,106428245,1544,1544,1544,1544
59681118,1000,1000,1000,1000,106528205,1544,1544,1543,1544
59683617,1000,1000,1000,1000,106628165,1544,1544,1544,1544
59686116,1000,1000,1000,1000,106728958,1544,1544,1544,1544
59688615,1000,1000,1000,1000,106828918,1544,1544,1544,1544
59691114,1000,1000,1000,1000,106928878,1545,1544,1545,1545
59693613,1000,1000,1000,1000,107028838,1545,1544,1545,1545
59696112,1000,1000,1000,1000,107128798,1544,1544,1544,1545
59698611,1000,1000,1000,1000,107228758,1544,1544,1544,1544
59701110,1000,1000,1000,1000,107328718,1544,1544,1544,1544
59703609,1000,1000,1000,1000,107428678,1545,1545,1546,1545
59706108,1000,1000,1000,1000,107528638,1545,1544,1544,1545
59708607,1000,1000,1000,1000,107628598,1545,1545,1545,1546
59711106,1000,1000,1000,1000,107728558,1544,1544,1544,1544
59713605,1000,1000,1000,1000,107828518,1544,1545,1544,1544
59716104,1000,1000,1000,1000,107928478,1544,1545,1544,1544
59718603,1000,1000,1000,1000,108028438,1544,1545,1545,1544
59721102,1000,1000,1000,1000,108128398,1545,1545,1545,1545
59723601,1000,1000,1000,1000,108228358,1544,1544,1544,1544
59726100,1000,1000,1000,1000,108328318,1544,1543,1544,1544
59728599,1000,1000,1000,1000,108428278,1544,1545,1545,1544
59731098,1000,1000,1000,1000,108528238,1544,1544,1544,1545
59733597,1000,1000,1000,1000,108628198,1544,1545,1544,1544
59736096,1000,1000,1000,1000,108728158,1544,1544,1544,1544
59738595,1000,1000,1000,1000,108828951,1544,1544,1544,1544
59741094,1000,1000,1000,1000,108928911,1544,1543,1543,1544
59743593,1000,1000,1000,1000,109028871,1544,1544,1544,1544
59746092,1000,1000,1000,1000,109128831,1544,1544,1544,1544
59748591,1000,1000,1000,1000,109228791,1544,1545,1545,1545
59751090,1000,1000,1000,1000,109328751,1545,1544,1545,1545
59753589,1000,1000,1000,1000,109428711,1544,1545,1545,1544
59756088,1000,1000,1000,1000,109528671,1544,1544,1544,1544
59758587,1000,1000,1000,1000,109628631,1461,1461,1428,1427
59761086,1000,1000,1000,1000,109728591,1367,1367,1284,1280
59763585,1000,1000,1000,1000,109828551,1334,1334,1227,1223
59766084,1000,1000,1000,1000,109928511,1323,1323,1206,1204
59768583,1000,1000,1000,1000,110028471,1306,1306,1174,1171
59771082,1000,1000,1000,1000,110128431,1272,1271,1152,1150
59773581,1000,1000,1000,1000,110228391,1174,1174,1153,1150
59776080,1000,1000,1000,1000,110328351,1062,1061,1152,1150
59778579,1000,1000,1000,1000,110428311,1049,1049,1152,1150
59781078,1000,1000,1000,1000,110528271,1049,1049,1152,1150
59783577,1000,1000,1000,1000,110628231,1050,1049,1150,1150
59786076,1000,1000,1000,1000,110728191,1050,1035,1150,1170
59788575,1000,1000,1000,1000,110828984,1050,1041,1150,1161
59791074,1000,1000,1000,1000,110928944,1050,1043,1150,1159
59793573,1000,1000,1000,1000,111028904,1050,1043,1150,1158
59796072,1000,1000,1000,1000,111128864,1050,1043,1150,1159
59798571,1000,1000,1000,1000,111228824,1050,1043,1150,1159
59801070,1000,1000,1000,1000,111328784,1050,1042,1150,1160
59803569,1000,1000,1000,1000,111428744,1045,1050,1156,1150
59806068,1000,1000,1000,1000,111528704,1050,1049,1150,1151
59808567,1000,1000,1000,1000,111628664,1050,1049,1150,1151
59811066,1000,1000,1000,1000,111728624,1050,1048,1150,1152
59813565,1000,1000,1000,1000,111828584,1050,1048,1150,1152
59816064,1000,1000,1000,1000,111928544,873,873,1149,1149
59818563,1000,1000,1000,1000,112028504,1000,1000,1000,1000
59821062,1000,1000,1000,1000,112128464,1000,1000,1000,1000
59823561,1000,1000,1000,1000,112228424,1000,1000,1000,1000
59826060,1000,1000,1000,1000,112328384,1000,1000,1000,1000
59828559,1000,1000,1000,1000,112428344,1000,1000,1000,1000
59831058,1000,1000,1000,1000,112528304,1000,1000,1000,1000
59833557,1000,1000,1000,1000,112628264,1000,1000,1000,1000
59836056,1000,1000,1000,1000,112728224,1000,1000,1000,1000
59838555,1000,1000,1000,1000,112828184,1000,1000,1000,1000
59841054,1000,1000,1000,1000,112928977,1000,1000,1000,1000
59843553,1000,1000,1000,1000,113028937,1000,1000,1000,1000
59846052,1000,1000,1000,1000,113128897,1000,1000,1000,1000
59848551,1000,1000,1000,1000,113228857,1000,1000,1000,1000
59851050,1000,1000,1000,1000,113328817,1000,1000,1000,1000
59853549,1000,1000,1000,1000,113428777,1000,1000,1000,1000
59856048,1000,1000,1000,1000,113528737,1000,1000,1000,1000
59858547,1000,1000,1000,1000,113628697,1000,1000,1000,1000
59861046,1000,1000,1000,1000,113728657,1000,1000,1000,1000
59863545,1000,1000,1000,1000,113828617,1000,1000,1000,1000
59866044,1000,1000,1000,1000,113928577,1000,1000,1000,1000
59868543,1000,1000,1000,1000,114028537,1000,1000,1000,1000
59871042,1000,1000,1000,1000,114128497,1000,1000,1000,1000
59873541,1000,1000,1000,1000,114228457,1000,1000,1000,1000
59876040,1000,1000,1000,1000,114328417,1000,1000,1000,1000
59878539,1000,1000,1000,1000,114428377,1000,1000,1000,1000
59881038,1000,1000,1000,1000,114528337,1000,1000,1000,1000
59883537,1000,1000,1000,1000,114628297,1000,1000,1000,1000
59886036,1000,1000,1000,1000,114728257,1000,1000,1000,1000
59888535,1000,1000,1000,1000,114828217,1000,1000,1000,1000
59891034,1000,1000,1000,1000,114928177,1000,1000,1000,1000
59893533,1000,1000,1000,1000,115028970,1000,1000,1000,1000
59896032,1000,1000,1000,1000,115128930,1000,1000,1000,1000
59898531,1000,1000,1000,1000,115228890,1000,1000,1000,1000
59901030,1000,1000,1000,1000,115328850,1000,1000,1000,1000
59903529,1000,1000,1000,1000,115428810,1000,1000,1000,1000
59906028,1000,1000,1000,1000,115528770,1000,1000,1000,1000
59908527,1000,1000,1000,1000,115628730,1000,1000,1000,1000
59911026,1000,1000,1000,1000,115728690,1000,1000,1000,1000
59913525,1000,1000,1000,1000,115828650,1000,1000,1000,1000
59916024,1000,1000,1000,1000,115928610,1000,1000,1000,1000
59918523,1000,1000,1000,1000,116028570,1000,1000,1000,1000
59921022,1000,1000,1000,1000,116128530,1000,1000,1000,1000
59923521,1000,1000,1000,1000,116228490,1000,1000,1000,1000
59926020,1000,1000,1000,1000,116328450,1000,1000,1000,1000
59928519,1000,1000,1000,1000,116428410,1000,1000,1000,1000
59931018,1000,1000,1000,1000,116528370,1000,1000,1000,1000
59933517,1000,1000,1000,1000,116628330,1000,1000,1000,1000
59936016,1000,1000,1000,1000,116728290,1000,1000,1000,1000
59938515,1000,1000,1000,1000,116828250,1000,1000,1000,1000
59941014,1000,1000,1000,1000,116928210,1000,1000,1000,1000
59943513,1000,1000,1000,1000,117028170,1000,1000,1000,1000
59946012,1000,1000,1000,1000,117128963,1000,1000,1000,1000
59948511,1000,1000,1000,1000,117228923,1000,1000,1000,1000
59951010,1000,1000,1000,1000,117328883,1000,1000,1000,1000
59953509,1000,1000,1000,1000,117428843,1000,1000,1000,1000
59956008,1000,1000,1000,1000,117528803,1000,1000,1000,1000
59958507,1000,1000,1000,1000,117628763,1000,1000,1000,1000
59961006,1000,1000,1000,1000,117728723,1000,1000,1000,1000
59963505,1000,1000,1000,1000,117828683,1000,1000,1000,1000
59966004,1000,1000,1000,1000,117928643,1000,1000,1000,1000
59968503,1000,1000,1000,1000,118028603,1000,1000,1000,1000
59971002,1000,1000,1000,1000,118128563,1000,1000,1000,1000
59973501,1000,1000,1000,1000,118228523,1000,1000,1000,1000
59976000,1000,1000,1000,1000,118328483,1000,1000,1000,1000
59978499,1000,1000,1000,1000,118428443,1000,1000,1000,1000
59980998,1000,1000,1000,1000,118528403,1000,1000,1000,1000
59983497,1000,1000,1000,1000,118628363,1000,1000,1000,1000
59985996,1000,1000,1000,1000,118728323,1000,1000,1000,1000
59988495,1000,1000,1000,1000,118828283,1000,1000,1000,1000
59990994,1000,1000,1000,1000,118928243,1000,1000,1000,1000
59993493,1000,1000,1000,1000,119028203,1000,1000,1000,1000
59995992,1000,1000,1000,1000,119128163,1000,1000,1000,1000
59998491,1000,1000,1000,1000,119228956,1000,1000,1000,1000
60000990,1000,1000,1000,1000,119328916,1000,1000,1000,1000
60003489,1000,1000,1000,1000,119428876,1000,1000,1000,1000
60005988,1000,1000,1000,1000,119528836,1000,1000,1000,1000
60008487,1000,1000,1000,1000,119628796,1000,1000,1000,1000
60010986,1000,1000,1000,1000,119728756,1000,1000,1000,1000
60013485,1000,1000,1000,1000,119828716,1000,1000,1000,1000
60015984,1000,1000,1000,1000,119928676,1000,1000,1000,1000
60018483,1000,1000,1000,1000,120028636,1000,1000,1000,1000
60020982,1000,1000,1000,1000,120128596,1000,1000,1000,1000
60023481,1000,1000,1000,1000,120228556,1000,1000,1000,1000
60025980,1000,1000,1000,1000,120328516,1000,1000,1000,1000
60028479,1000,1000,1000,1000,120428476,1000,1000,1000,1000
60030978,1000,1000,1000,1000,120528436,1000,1000,1000,1000
60033477,1000,1000,1000,1000,120628396,1000,1000,1000,1000
60035976,1000,1000,1000,1000,120728356,1000,1000,1000,1000
60038475,1000,1000,1000,1000,120828316,1000,1000,1000,1000
60040974,1000,1000,1000,1000,120928276,1000,1000,1000,1000
60043473,1000,1000,1000,1000,121028236,1000,1000,1000,1000
60045972,1000,1000,1000,1000,121128196,1000,1000,1000,1000
60048471,1000,1000,1000,1000,121228156,1000,1000,1000,1000
60050970,1000,1000,1000,1000,121328949,1000,1000,1000,1000
60053469,1000,1000,1000,1000,121428909,1000,1000,1000,1000
60055968,1000,1000,1000,1000,121528869,1000,1000,1000,1000
60058467,1000,1000,1000,1000,121628829,1000,1000,1000,1000
60060966,1000,1000,1000,1000,121728789,1000,1000,1000,1000
60063465,1000,1000,1000,1000,121828749,1000,1000,1000,1000
60065964,1000,1000,1000,1000,121928709,1000,1000,1000,1000
60068463,1000,1000,1000,1000,122028669,1000,1000,1000,1000
60070962,1000,1000,1000,1000,122128629,1000,1000,1000,1000
60073461,1000,1000,1000,1000,122228589,1000,1000,1000,1000
60075960,1000,1000,1000,1000,122328549,1000,1000,1000,1000
60078459,1000,1000,1000,1000,122428509,1000,1000,1000,1000
60080958,1000,1000,1000,1000,122528469,1000,1000,1000,1000
60083457,1000,1000,1000,1000,122628429,1000,1000,1000,1000
60085956,1000,1000,1000,1000,122728389,1000,1000,1000,1000
60088455,1000,1000,1000,1000,122828349,1000,1000,1000,1000
60090954,1000,1000,1000,1000,122928309,1000,1000,1000,1000
60093453,1000,1000,1000,1000,123028269,1000,1000,1000,1000
60095952,1000,1000,1000,1000,123128229,1000,1000,1000,1000
60098451,1000,1000,1000,1000,123228189,1000,1000,1000,1000
60100950,1000,1000,1000,1000,123328982,1000,1000,1000,1000
60103449,1000,1000,1000,1000,123428942,1000,1000,1000,1000
60105948,1000,1000,1000,1000,123528902,1000,1000,1000,1000
60108447,1000,1000,1000,1000,123628862,1000,1000,1000,1000
60110946,1000,1000,1000,1000,123728822,1000,1000,1000,1000
60113445,1000,1000,1000,1000,123828782,1000,1000,1000,1000
60115944,1000,1000,1000,1000,123928742,1000,1000,1000,1000
60118443,1000,1000,1000,1000,124028702,1000,1000,1000,1000
60120942,1000,1000,1000,1000,124128662,1000,1000,1000,1000
60123441,1000,1000,1000,1000,124228622,1000,1000,1000,1000
60125940,1000,1000,1000,1000,124328582,1000,1000,1000,1000
60128439,1000,1000,1000,1000,124428542,1000,1000,1000,1000
60130938,1000,1000,1000,1000,124528502,1000,1000,1000,1000
60133437,1000,1000,1000,1000,124628462,1000,1000,1000,1000
60135936,1000,1000,1000,1000,124728422,1000,1000,1000,1000
60138435,1000,1000,1000,1000,124828382,1000,1000,1000,1000
60140934,1000,1000,1000,1000,124928342,1000,1000,1000,1000
60143433,1000,1000,1000,1000,125028302,1000,1000,1000,1000
60145932,1000,1000,1000,1000,125128262,1000,1000,1000,1000
60148431,1000,1000,1000,1000,125228222,1000,1000,1000,1000
60150930,1000,1000,1000,1000,125328182,1000,1000,1000,1000
60153429,1000,1000,1000,1000,125428975,1000,1000,1000,1000
60155928,1000,1000,1000,1000,125528935,1000,1000,1000,1000
60158427,1000,1000,1000,1000,125628895,1000,1000,1000,1000
60160926,1000,1000,1000,1000,125728855,1000,1000,1000,1000
60163425,1000,1000,1000,1000,125828815,1000,1000,1000,1000
60165924,1000,1000,1000,1000,125928775,1000,1000,1000,1000
60168423,1000,1000,1000,1000,126028735,1000,1000,1000,1000
60170922,1000,1000,1000,1000,126128695,1000,1000,1000,1000
60173421,1000,1000,1000,1000,126228655,1000,1000,1000,1000
60175920,1000,1000,1000,1000,126328615,1000,1000,1000,1000
60178419,1000,1000,1000,1000,126428575,1000,1000,1000,1000
60180918,1000,1000,1000,1000,126528535,1000,1000,1000,1000
60183417,1000,1000,1000,1000,126628495,1000,1000,1000,1000
60185916,1000,1000,1000,1000,126728455,1000,1000,1000,1000
60188415,1000,1000,1000,1000,126828415,1000,1000,1000,1000
60190914,1000,1000,1000,1000,,,,,
60193413,1000,1000,1000,1000,,,,,
60195912,1000,1000,1000,1000,,,,,
60198411,1000,1000,1000,1000,,,,,
60200910,1000,1000,1000,1000,,,,,
60203409,1000,1000,1000,1000,,,,,
60205908,1000,1000,1000,1000,,,,,
60208407,1000,1000,1000,1000,,,,,
60210906,1000,1000,1000,1000,,,,,
60213405,1000,1000,1000,1000,,,,,
60215904,1000,1000,1000,1000,,,,,
60218403,1000,1000,1000,1000,,,,,
60220902,1000,1000,1000,1000,,,,,
60223401,1000,1000,1000,1000,,,,,
60225900,1000,1000,1000,1000,,,,,
60228399,1000,1000,1000,1000,,,,,
60230898,1000,1000,1000,1000,,,,,
60233397,1000,1000,1000,1000,,,,,
60235896,1000,1000,1000,1000,,,,,
60238395,1000,1000,1000,1000,,,,,
60240894,1000,1000,1000,1000,,,,,
60243393,1000,1000,1000,1000,,,,,
60245892,1000,1000,1000,1000,,,,,
60248391,1000,1000,1000,1000,,,,,
60250890,1000,1000,1000,1000,,,,,
60253389,1000,1000,1000,1000,,,,,
60255888,1000,1000,1000,1000,,,,,
60258387,1000,1000,1000,1000,,,,,
60260886,1000,1000,1000,1000,,,,,
60263385,1000,1000,1000,1000,,,,,
60265884,1000,1000,1000,1000,,,,,
60268383,1000,1000,1000,1000,,,,,
60270882,1000,1000,1000,1000,,,,,
60273381,1000,1000,1000,1000,,,,,
60275880,1000,1000,1000,1000,,,,,
60278379,1000,1000,1000,1000,,,,,
60280878,1000,1000,1000,1000,,,,,
60283377,1000,1000,1000,1000,,,,,
60285876,1000,1000,1000,1000,,,,,
60288375,1000,1000,1000,1000,,,,,
60290874,1000,1000,1000,1000,,,,,
60293373,1000,1000,1000,1000,,,,,
60295872,1000,1000,1000,1000,,,,,
60298371,1000,1000,1000,1000,,,,,
60300870,1000,1000,1000,1000,,,,,
60303369,1000,1000,1000,1000,,,,,
60305868,1000,1000,1000,1000,,,,,
60308367,1000,1000,1000,1000,,,,,
60310866,1000,1000,1000,1000,,,,,
60313365,1000,1000,1000,1000,,,,,
60315864,1000,1000,1000,1000,,,,,
60318363,1000,1000,1000,1000,,,,,
60320862,1000,1000,1000,1000,,,,,
60323361,1000,1000,1000,1000,,,,,
60325860,1000,1000,1000,1000,,,,,
60328359,1000,1000,1000,1000,,,,,
60330858,1000,1000,1000,1000,,,,,
60333357,1000,1000,1000,1000,,,,,
60335856,1000,1000,1000,1000,,,,,
60338355,1000,1000,1000,1000,,,,,
60340854,1000,1000,1000,1000,,,,,
60343353,1000,1000,1000,1000,,,,,
60345852,1000,1000,1000,1000,,,,,
60348351,1000,1000,1000,1000,,,,,
60350850,1000,1000,1000,1000,,,,,
60353349,1000,1000,1000,1000,,,,,
60355848,1000,1000,1000,1000,,,,,
60358347,1000,1000,1000,1000,,,,,
60360846,1000,1000,1000,1000,,,,,
60363345,1000,1000,1000,1000,,,,,
60365844,1000,1000,1000,1000,,,,,
60368343,1000,1000,1000,1000,,,,,
60370842,1000,1000,1000,1000,,,,,
60373341,1000,1000,1000,1000,,,,,
60375840,1000,1000,1000,1000,,,,,
60378339,1000,1000,1000,1000,,,,,
60380838,1000,1000,1000,1000,,,,,
60383337,1000,1000,1000,1000,,,,,
60385836,1000,1000,1000,1000,,,,,
60388335,1000,1000,1000,1000,,,,,
60390834,1000,1000,1000,1000,,,,,
60393333,1000,1000,1000,1000,,,,,
60395832,1000,1000,1000,1000,,,,,
60398331,1000,1000,1000,1000,,,,,
60400830,1000,1000,1000,1000,,,,,
60403329,1000,1000,1000,1000,,,,,
60405828,1000,1000,1000,1000,,,,,
60408327,1000,1000,1000,1000,,,,,
60410826,1000,1000,1000,1000,,,,,
60413325,1000,1000,1000,1000,,,,,
60415824,1000,1000,1000,1000,,,,,
60418323,1000,1000,1000,1000,,,,,
60420822,1000,1000,1000,1000,,,,,
60423321,1000,1000,1000,1000,,,,,
60425820,1000,1000,1000,1000,,,,,
60428319,1000,1000,1000,1000,,,,,
60430818,1000,1000,1000,1000,,,,,
60433317,1000,1000,1000,1000,,,,,
60435816,1000,1000,1000,1000,,,,,
60438315,1000,1000,1000,1000,,,,,
60440814,1000,1000,1000,1000,,,,,
60443313,1000,1000,1000,1000,,,,,
60445812,1000,1000,1000,1000,,,,,
60448311,1000,1000,1000,1000,,,,,
60450810,1000,1000,1000,1000,,,,,
60453309,1000,1000,1000,1000,,,,,
60455808,1000,1000,1000,1000,,,,,
60458307,1000,1000,1000,1000,,,,,
60460806,1000,1000,1000,1000,,,,,
60463305,1000,1000,1000,1000,,,,,
60465804,1000,1000,1000,1000,,,,,
60468303,1000,1000,1000,1000,,,,,
60470802,1000,1000,1000,1000,,,,,
60473301,1000,1000,1000,1000,,,,,
60475800,1000,1000,1000,1000,,,,,
60478299,1000,1000,1000,1000,,,,,
60480798,1000,1000,1000,1000,,,,,
60483297,1000,1000,1000,1000,,,,,
60485796,1000,1000,1000,1000,,,,,
60488295,1001,1001,1001,1001,,,,,
60490794,1002,1002,1002,1002,,,,,
60493293,1003,1003,1003,1003,,,,,
60495792,1003,1003,1003,1003,,,,,
60498291,1004,1004,1004,1004,,,,,
60500790,1005,1005,1005,1005,,,,,
60503289,1006,1006,1006,1006,,,,,
60505788,1006,1006,1006,1006,,,,,
60508287,1007,1007,1007,1007,,,,,
60510786,1008,1008,1008,1008,,,,,
60513285,1009,1009,1009,1009,,,,,
60515784,1009,1009,1009,1009,,,,,
60518283,1010,1010,1010,1010,,,,,
60520782,1011,1011,1011,1011,,,,,
60523281,1012,1012,1012,1012,,,,,
60525780,1012,1012,1012,1012,,,,,
60528279,1013,1013,1013,1013,,,,,
60530778,1014,1014,1014,1014,,,,,
60533277,1015,1015,1015,1015,,,,,
60535776,1015,1015,1015,1015,,,,,
60538275,1016,1016,1016,1016,,,,,
60540774,1017,1017,1017,1017,,,,,
60543273,1018,1018,1018,1018,,,,,
60545772,1018,1018,1018,1018,,,,,
60548271,1019,1019,1019,1019,,,,,
60550770,1020,1020,1020,1020,,,,,
60553269,1021,1021,1021,1021,,,,,
60555768,1021,1021,1021,1021,,,,,
60558267,1022,1022,1022,1022,,,,,
60560766,1023,1023,1023,1023,,,,,
60563265,1024,1024,1024,1024,,,,,
60565764,1024,1024,1024,1024,,,,,
60568263,1025,1025,1025,1025,,,,,
60570762,1026,1026,1026,1026,,,,,
60573261,1027,1027,1027,1027,,,,,
60575760,1027,1027,1027,1027,,,,,
60578259,1028,1028,1028,1028,,,,,
60580758,1029,1029,1029,1029,,,,,
60583257,1030,1030,1030,1030,,,,,
60585756,1030,1030,1030,1030,,,,,
60588255,1031,1031,1031,1031,,,,,
60590754,1032,1032,1032,1032,,,,,
60593253,1033,1033,1033,1033,,,,,
60595752,1033,1033,1033,1033,,,,,
60598251,1034,1034,1034,1034,,,,,
60600750,1035,1035,1035,1035,,,,,
60603249,1036,1036,1036,1036,,,,,
60605748,1036,1036,1036,1036,,,,,
60608247,1037,1037,1037,1037,,,,,
60610746,1038,1038,1038,1038,,,,,
60613245,1039,1039,1039,1039,,,,,
60615744,1039,1039,1039,1039,,,,,
60618243,1040,1040,1040,1040,,,,,
60620742,1041,1041,1041,1041,,,,,
60623241,1042,1042,1042,1042,,,,,
60625740,1042,1042,1042,1042,,,,,
60628239,1043,1043,1043,1043,,,,,
60630738,1044,1044,1044,1044,,,,,
60633237,1045,1045,1045,1045,,,,,
60635736,1045,1045,1045,1045,,,,,
60638235,1046,1046,1046,1046,,,,,
60640734,1047,1047,1047,1047,,,,,
60643233,1048,1048,1048,1048,,,,,
60645732,1048,1048,1048,1048,,,,,
60648231,1049,1049,1049,1049,,,,,
60650730,1050,1050,1050,1050,,,,,
60653229,1051,1051,1051,1051,,,,,
60655728,1051,1051,1051,1051,,,,,
60658227,1052,1052,1052,1052,,,,,
60660726,1053,1053,1053,1053,,,,,
60663225,1054,1054,1054,1054,,,,,
60665724,1054,1054,1054,1054,,,,,
60668223,1055,1055,1055,1055,,,,,
60670722,1056,1056,1056,1056,,,,,
60673221,1057,1057,1057,1057,,,,,
60675720,1057,1057,1057,1057,,,,,
60678219,1058,1058,1058,1058,,,,,
60680718,1059,1059,1059,1059,,,,,
60683217,1060,1060,1060,1060,,,,,
60685716,1060,1060,1060,1060,,,,,
60688215,1061,1061,1061,1061,,,,,
60690714,1062,1062,1062,1062,,,,,
60693213,1063,1063,1063,1063,,,,,
60695712,1063,1063,1063,1063,,,,,
60698211,1064,1064,1064,1064,,,,,
60700710,1065,1065,1065,1065,,,,,
60703209,1066,1066,1066,1066,,,,,
60705708,1066,1066,1066,1066,,,,,
60708207,1067,1067,1067,1067,,,,,
60710706,1068,1068,1068,1068,,,,,
60713205,1069,1069,1069,1069,,,,,
60715704,1069,1069,1069,1069,,,,,
60718203,1070,1070,1070,1070,,,,,
60720702,1071,1071,1071,1071,,,,,
60723201,1072,1072,1072,1072,,,,,
60725700,1072,1072,1072,1072,,,,,
60728199,1073,1073,1073,1073,,,,,
60730698,1074,1074,1074,1074,,,,,
60733197,1075,1075,1075,1075,,,,,
60735696,1075,1075,1075,1075,,,,,
60738195,1076,1076,1076,1076,,,,,
60740694,1077,1077,1077,1077,,,,,
60743193,1078,1078,1078,1078,,,,,
60745692,1078,1078,1078,1078,,,,,
60748191,1079,1079,1079,1079,,,,,
60750690,1080,1080,1080,1080,,,,,
60753189,1081,1081,1081,1081,,,,,
60755688,1081,1081,1081,1081,,,,,
60758187,1082,1082,1082,1082,,,,,
60760686,1083,1083,1083,1083,,,,,
60763185,1084,1084,1084,1084,,,,,
60765684,1084,1084,1084,1084,,,,,
60768183,1085,1085,1085,1085,,,,,
60770682,1086,1086,1086,1086,,,,,
60773181,1087,1087,1087,1087,,,,,
60775680,1087,1087,1087,1087,,,,,
60778179,1088,1088,1088,1088,,,,,
60780678,1089,1089,1089,1089,,,,,
60783177,1090,1090,1090,1090,,,,,
60785676,1090,1090,1090,1090,,,,,
60788175,1091,1091,1091,1091,,,,,
60790674,1092,1092,1092,1092,,,,,
60793173,1093,1093,1093,1093,,,,,
60795672,1093,1093,1093,1093,,,,,
60798171,1094,1094,1094,1094,,,,,
60800670,1095,1095,1095,1095,,,,,
60803169,1096,1096,1096,1096,,,,,
60805668,1096,1096,1096,1096,,,,,
60808167,1097,1097,1097,1097,,,,,
60810666,1098,1098,1098,1098,,,,,
60813165,1099,1099,1099,1099,,,,,
60815664,1099,1099,1099,1099,,,,,
60818163,1100,1100,1100,1100,,,,,
60820662,1101,1101,1101,1101,,,,,
60823161,1101,1101,1101,1101,,,,,
60825660,1102,1102,1102,1102,,,,,
60828159,1103,1103,1103,1103,,,,,
60830658,1104,1104,1104,1104,,,,,
60833157,1104,1104,1104,1104,,,,,
60835656,1105,1105,1105,1105,,,,,
60838155,1106,1106,1106,1106,,,,,
60840654,1107,1107,1107,1107,,,,,
60843986,1107,1107,1107,1107,,,,,
60846485,1108,1108,1108,1108,,,,,
60848984,1109,1109,1109,1109,,,,,
60851483,1110,1110,1110,1110,,,,,
60853982,1110,1110,1110,1110,,,,,
60856481,1111,1111,1111,1111,,,,,
60858980,1112,1112,1112,1112,,,,,
60861479,1113,1113,1113,1113,,,,,
60863978,1113,1113,1113,1113,,,,,
60866477,1114,1114,1114,1114,,,,,
60868976,1115,1115,1115,1115,,,,,
60871475,1116,1116,1116,1116,,,,,
60873974,1116,1116,1116,1116,,,,,
60876473,1117,1117,1117,1117,,,,,
60878972,1118,1118,1118,1118,,,,,
60881471,1119,1119,1119,1119,,,,,
60883970,1119,1119,1119,1119,,,,,
60886469,1120,1120,1120,1120,,,,,
60888968,1121,1121,1121,1121,,,,,
60891467,1122,1122,1122,1122,,,,,
60893966,1122,1122,1122,1122,,,,,
60896465,1123,1123,1123,1123,,,,,
60898964,1124,1124,1124,1124,,,,,
60901463,1125,1125,1125,1125,,,,,
60903962,1125,1125,1125,1125,,,,,
60906461,1126,1126,1126,1126,,,,,
60908960,1127,1127,1127,1127,,,,,
60911459,1128,1128,1128,1128,,,,,
60913958,1128,1128,1128,1128,,,,,
60916457,1129,1129,1129,1129,,,,,
60918956,1130,1130,1130,1130,,,,,
60921455,1131,1131,1131,1131,,,,,
60923954,1131,1131,1131,1131,,,,,
60926453,1132,1132,1132,1132,,,,,
60928952,1133,1133,1133,1133,,,,,
60931451,1134,1134,1134,1134,,,,,
60933950,1134,1134,1134,1134,,,,,
60936449,1135,1135,1135,1135,,,,,
60938948,1136,1136,1136,1136,,,,,
60941447,1137,1137,1137,1137,,,,,
60943946,1137,1137,1137,1137,,,,,
60946445,1138,1138,1138,1138,,,,,
60948944,1139,1139,1139,1139,,,,,
60951443,1140,1140,1140,1140,,,,,
60953942,1140,1140,1140,1140,,,,,
60956441,1141,1141,1141,1141,,,,,
60958940,1142,1142,1142,1142,,,,,
60961439,1143,1143,1143,1143,,,,,
60963938,1143,1143,1143,1143,,,,,
60966437,1144,1144,1144,1144,,,,,
60968936,1145,1145,1145,1145,,,,,
60971435,1146,1146,1146,1146,,,,,
60973934,1146,1146,1146,1146,,,,,
60976433,1147,1147,1147,1147,,,,,
60978932,1148,1148,1148,1148,,,,,
60981431,1149,1149,1149,1149,,,,,
60983930,1149,1149,1149,1149,,,,,
60986429,1150,1150,1150,1150,,,,,
60988928,1162,1153,1154,1162,,,,,
60991427,1170,1161,1162,1170,,,,,
60993926,1178,1169,1170,1178,,,,,
60996425,1186,1176,1178,1186,,,,,
60998924,1193,1184,1185,1193,,,,,
61001423,1201,1192,1193,1201,,,,,
61003922,1208,1199,1200,1208,,,,,
61006421,1215,1206,1208,1215,,,,,
61008920,1222,1214,1215,1222,,,,,
61011419,1229,1221,1222,1229,,,,,
61013918,1236,1228,1229,1236,,,,,
61016417,1243,1235,1236,1243,,,,,
61018916,1250,1241,1242,1250,,,,,
61021415,1256,1248,1249,1256,,,,,
61023914,1263,1255,1256,1263,,,,,
61026413,1269,1261,1262,1269,,,,,
61028912,1276,1268,1269,1276,,,,,
61031411,1282,1274,1275,1282,,,,,
61033910,1288,1280,1281,1288,,,,,
61036409,1294,1287,1287,1294,,,,,
61038908,1300,1293,1294,1300,,,,,
61041407,1306,1299,1300,1306,,,,,
61043906,1312,1305,1306,1312,,,,,
61046405,1318,1311,1312,1318,,,,,
61048904,1324,1317,1317,1324,,,,,
61051403,1330,1322,1323,1330,,,,,
61053902,1335,1328,1329,1335,,,,,
61056401,1341,1334,1335,1341,,,,,
61058900,1347,1339,1340,1347,,,,,
61061399,1352,1345,1346,1352,,,,,
61063898,1358,1351,1351,1358,,,,,
61066397,1363,1356,1357,1363,,,,,
61068896,1368,1362,1362,1368,,,,,
61071395,1374,1367,1368,1374,,,,,
61073894,1379,1372,1373,1379,,,,,
61076393,1384,1378,1378,1384,,,,,
61078892,1390,1383,1384,1390,,,,,
61081391,1395,1388,1389,1395,,,,,
61083890,1400,1393,1394,1400,,,,,
61086389,1405,1398,1399,1405,,,,,
61088888,1410,1403,1404,1410,,,,,
61091387,1415,1408,1409,1415,,,,,
61093886,1420,1413,1414,1420,,,,,
61096385,1425,1418,1419,1425,,,,,
61098884,1430,1423,1424,1430,,,,,
61101383,1435,1428,1429,1435,,,,,
61103882,1440,1433,1434,1440,,,,,
61106381,1444,1438,1439,1444,,,,,
61108880,1449,1443,1443,1449,,,,,
61111379,1454,1448,1448,1454,,,,,
61113878,1459,1452,1453,1459,,,,,
61116377,1463,1457,1458,1463,,,,,
61118876,1468,1462,1462,1468,,,,,
61121375,1472,1466,1467,1473,,,,,
61123874,1477,1471,1471,1477,,,,,
61126373,1482,1476,1476,1482,,,,,
61128872,1486,1480,1481,1486,,,,,
61131371,1491,1485,1485,1491,,,,,
61133870,1495,1489,1490,1495,,,,,
61136369,1499,1494,1494,1500,,,,,
61138868,1504,1498,1499,1504,,,,,
61141367,1508,1502,1503,1509,,,,,
61143866,1513,1507,1507,1513,,,,,
61146365,1517,1511,1512,1517,,,,,
61148864,1521,1516,1516,1522,,,,,
61151363,1526,1520,1520,1526,,,,,
61153862,1530,1524,1525,1530,,,,,
61156361,1534,1528,1529,1534,,,,,
61158860,1538,1533,1533,1539,,,,,
61161359,1543,1537,1537,1543,,,,,
61163858,1547,1541,1542,1547,,,,,
61166357,1551,1545,1546,1551,,,,,
61168856,1555,1549,1550,1555,,,,,
61171355,1559,1554,1554,1559,,,,,
61173854,1563,1558,1558,1563,,,,,
61176353,1567,1562,1562,1567,,,,,
61178852,1571,1566,1566,1571,,,,,
61181351,1575,1570,1570,1576,,,,,
61183850,1579,1574,1574,1580,,,,,
61186349,1583,1578,1578,1584,,,,,
61188848,1587,1582,1582,1587,,,,,
61191347,1591,1586,1586,1591,,,,,
61193846,1595,1590,1590,1595,,,,,
61196345,1599,1594,1594,1599,,,,,
61198844,1603,1598,1598,1603,,,,,
61201343,1607,1601,1602,1607,,,,,
61203842,1611,1605,1606,1611,,,,,
61206341,1615,1609,1610,1615,,,,,
61208840,1619,1613,1614,1619,,,,,
61211339,1623,1617,1618,1622,,,,,
61213838,1626,1621,1621,1626,,,,,
61216337,1630,1624,1625,1630,,,,,
61218836,1634,1628,1629,1634,,,,,
61221335,1638,1632,1633,1638,,,,,
61223834,1641,1636,1636,1641,,,,,
61226333,1645,1639,1640,1645,,,,,
61228832,1649,1643,1644,1649,,,,,
61231331,1653,1647,1648,1652,,,,,
61233830,1656,1651,1651,1656,,,,,
61236329,1660,1654,1655,1660,,,,,
61238828,1664,1658,1659,1663,,,,,
61241327,1667,1661,1662,1667,,,,,
61243826,1671,1665,1666,1671,,,,,
61246325,1674,1669,1670,1674,,,,,
61248824,1678,1672,1673,1678,,,,,
61251323,1682,1676,1677,1681,,,,,
61253822,1685,1679,1680,1685,,,,,
61256321,1689,1683,1684,1688,,,,,
61258820,1692,1687,1687,1692,,,,,
61261319,1696,1690,1691,1695,,,,,
61263818,1699,1694,1695,1699,,,,,
61266317,1703,1697,1698,1702,,,,,
61268816,1706,1701,1702,1706,,,,,
61271315,1710,1704,1705,1709,,,,,
61273814,1713,1708,1708,1713,,,,,
61276313,1716,1711,1712,1716,,,,,
61278812,1720,1715,1715,1720,,,,,
61281311,1723,1718,1719,1723,,,,,
61283810,1727,1721,1722,1726,,,,,
61286309,1730,1725,1726,1730,,,,,
61288808,1733,1728,1729,1733,,,,,
61291307,1737,1732,1732,1737,,,,,
61293806,1740,1735,1736,1740,,,,,
61296305,1744,1738,1739,1743,,,,,
61298804,1747,1742,1742,1747,,,,,
61301303,1750,1745,1746,1750,,,,,
61303802,1753,1748,1749,1753,,,,,
61306301,1757,1752,1752,1757,,,,,
61308800,1760,1755,1756,1760,,,,,
61311299,1763,1758,1759,1763,,,,,
61313798,1767,1762,1762,1767,,,,,
61316297,1770,1765,1765,1770,,,,,
61318796,1773,1768,1769,1773,,,,,
61321295,1776,1771,1772,1776,,,,,
61323794,1780,1775,1775,1780,,,,,
61326293,1783,1778,1778,1783,,,,,
61328792,1786,1781,1782,1786,,,,,
61331291,1789,1784,1785,1789,,,,,
61333790,1793,1787,1788,1793,,,,,
61336289,1796,1790,1791,1796,,,,,
61338788,1799,1794,1794,1799,,,,,
61341287,1802,1797,1797,1802,,,,,
61343786,1805,1800,1800,1805,,,,,
61346285,1808,1803,1804,1809,,,,,
61348784,1812,1806,1807,1812,,,,,
61351283,1815,1809,1810,1815,,,,,
61353782,1818,1812,1813,1818,,,,,
61356281,1821,1815,1816,1821,,,,,
61358780,1824,1819,1819,1824,,,,,
61361279,1827,1822,1822,1827,,,,,
61363778,1830,1825,1825,1830,,,,,
61366277,1833,1828,1828,1833,,,,,
61368776,1837,1831,1831,1836,,,,,
61371275,1840,1834,1834,1840,,,,,
61373774,1843,1837,1838,1843,,,,,
61376273,1846,1840,1841,1846,,,,,
61378772,1849,1843,1844,1849,,,,,
61381271,1852,1846,1847,1852,,,,,
61383770,1855,1849,1850,1855,,,,,
61386269,1858,1852,1853,1858,,,,,
61388768,1861,1855,1856,1861,,,,,
61391267,1864,1858,1859,1864,,,,,
61393766,1867,1861,1862,1867,,,,,
61396265,1870,1864,1865,1870,,,,,
61398764,1873,1867,1868,1873,,,,,
61401263,1876,1870,1871,1876,,,,,
61403762,1879,1873,1873,1878,,,,,
61406261,1882,1876,1876,1881,,,,,
61408760,1885,1879,1879,1884,,,,,
61411259,1887,1882,1882,1887,,,,,
61413758,1890,1884,1885,1890,,,,,
61416257,1893,1887,1888,1893,,,,,
61418756,1896,1890,1891,1896,,,,,
61421255,1899,1893,1894,1899,,,,,
61423754,1902,1896,1897,1902,,,,,
61426253,1905,1899,1900,1905,,,,,
61428752,1908,1902,1903,1908,,,,,
61431251,1911,1905,1905,1910,,,,,
61433750,1912,1907,1907,1912,,,,,
61436249,1911,1906,1906,1911,,,,,
61438748,1911,1905,1906,1911,,,,,
61441247,1910,1904,1905,1910,,,,,
61443746,1909,1903,1904,1909,,,,,
61446245,1908,1903,1903,1908,,,,,
61448744,1908,1902,1902,1908,,,,,
61451243,1907,1901,1902,1907,,,,,
61453742,1906,1900,1901,1906,,,,,
61456241,1906,1900,1900,1906,,,,,
61458740,1905,1899,1900,1905,,,,,
61461239,1904,1899,1899,1904,,,,,
61463738,1904,1898,1899,1904,,,,,
61466237,1904,1898,1898,1904,,,,,
61468736,1903,1897,1898,1903,,,,,
61471235,1903,1897,1898,1903,,,,,
61473734,1903,1897,1898,1903,,,,,
61476233,1903,1897,1898,1903,,,,,
61478732,1903,1897,1898,1903,,,,,
61481231,1903,1897,1898,1903,,,,,
61483730,1903,1897,1898,1903,,,,,
61486229,1903,1898,1898,1903,,,,,
61488728,1902,1898,1898,1902,,,,,
61491227,1902,1897,1898,1902,,,,,
61493726,1902,1897,1898,1902,,,,,
61496225,1901,1897,1897,1901,,,,,
61498724,1900,1896,1897,1900,,,,,
61501223,1900,1896,1896,1900,,,,,
61503722,1899,1895,1895,1899,,,,,
61506221,1898,1894,1894,1898,,,,,
61508720,1896,1893,1893,1896,,,,,
61511219,1895,1891,1892,1895,,,,,
61513718,1893,1890,1891,1893,,,,,
61516217,1892,1888,1889,1892,,,,,
61518716,1890,1887,1887,1890,,,,,
61521215,1888,1885,1885,1888,,,,,
61523714,1886,1883,1883,1886,,,,,
61526213,1884,1881,1881,1884,,,,,
61528712,1882,1879,1879,1882,,,,,
61531211,1880,1876,1877,1879,,,,,
61533710,1877,1874,1875,1877,,,,,
61536209,1875,1871,1872,1874,,,,,
61538708,1872,1869,1870,1872,,,,,
61541207,1869,1866,1867,1869,,,,,
61543706,1867,1863,1864,1866,,,,,
61546205,1864,1861,1861,1863,,,,,
61548704,1861,1858,1859,1861,,,,,
61551203,1858,1855,1856,1858,,,,,
61553702,1855,1852,1853,1855,,,,,
61556201,1852,1849,1850,1851,,,,,
61558700,1848,1846,1846,1848,,,,,
61561199,1845,1843,1843,1845,,,,,
61563698,1842,1840,1840,1842,,,,,
61566197,1839,1836,1837,1839,,,,,
61568696,1835,1833,1834,1835,,,,,
61571195,1832,1830,1830,1832,,,,,
61573694,1829,1827,1827,1829,,,,,
61576193,1825,1823,1824,1825,,,,,
61578692,1822,1820,1821,1822,,,,,
61581191,1819,1817,1817,1819,,,,,
61583690,1815,1813,1814,1815,,,,,
61586189,1812,1810,1811,1812,,,,,
61588688,1808,1807,1807,1808,,,,,
61591187,1805,1803,1804,1805,,,,,
61593686,1801,1800,1801,1801,,,,,
61596185,1798,1797,1797,1798,,,,,
61598684,1794,1793,1794,1794,,,,,
61601183,1791,1790,1790,1791,,,,,
61603682,1788,1787,1787,1788,,,,,
61606181,1784,1783,1784,1784,,,,,
61608680,1781,1780,1780,1781,,,,,
61611179,1777,1777,1777,1777,,,,,
61613678,1774,1773,1774,1774,,,,,
61616177,1771,1770,1770,1771,,,,,
61618676,1767,1767,1767,1767,,,,,
61621175,1764,1763,1764,1764,,,,,
61623674,1761,1760,1761,1761,,,,,
61626173,1757,1757,1757,1757,,,,,
61628672,1754,1754,1754,1754,,,,,
61631171,1751,1751,1751,1751,,,,,
61633670,1747,1747,1748,1748,,,,,
61636169,1744,1744,1744,1745,,,,,
61638668,1741,1741,1741,1741,,,,,
61641167,1738,1738,1738,1738,,,,,
61643666,1734,1735,1735,1735,,,,,
61646165,1731,1732,1732,1732,,,,,
61648664,1728,1729,1729,1729,,,,,
61651163,1725,1726,1726,1726,,,,,
61653662,1723,1723,1723,1723,,,,,
61656161,1720,1720,1720,1720,,,,,
61658660,1717,1718,1718,1717,,,,,
