TimeUS,M1,M2,M3,M4,TimeUS,C1,C2,C3,C4
43318499,1000,1000,1000,1000,43328495,1000,1000,1000,1000
43320998,1000,1000,1000,1000,43428455,1000,1000,1000,1000
43323497,1000,1000,1000,1000,43528415,1000,1000,1000,1000
43325996,1000,1000,1000,1000,43628375,1000,1000,1000,1000
43328495,1000,1000,1000,1000,43728335,1000,1000,1000,1000
43330994,1000,1000,1000,1000,43828295,1000,1000,1000,1000
43333493,1000,1000,1000,1000,43928255,1000,1000,1000,1000
43335992,1000,1000,1000,1000,44028215,1000,1000,1000,1000
43338491,1000,1000,1000,1000,44128175,1000,1000,1000,1000
43340990,1000,1000,1000,1000,44228968,1000,1000,1000,1000
43343489,1000,1000,1000,1000,44328928,1000,1000,1000,1000
43345988,1000,1000,1000,1000,44428888,1000,1000,1000,1000
43348487,1000,1000,1000,1000,44528848,1000,1000,1000,1000
43350986,1000,1000,1000,1000,44628808,1000,1000,1000,1000
43353485,1000,1000,1000,1000,44728768,1000,1000,1000,1000
43355984,1000,1000,1000,1000,44828728,1000,1000,1000,1000
43358483,1000,1000,1000,1000,44928688,1000,1000,1000,1000
43360982,1000,1000,1000,1000,45028648,1000,1000,1000,1000
43363481,1000,1000,1000,1000,45128608,1000,1000,1000,1000
43365980,1000,1000,1000,1000,45228568,1000,1000,1000,1000
43368479,1000,1000,1000,1000,45328528,1003,1003,1003,1003
43370978,1000,1000,1000,1000,45428488,1033,1033,1033,1033
43373477,1000,1000,1000,1000,45528448,1063,1063,1063,1063
43375976,1000,1000,1000,1000,45628408,1093,1093,1093,1093
43378475,1000,1000,1000,1000,45728368,1122,1122,1122,1122
43380974,1000,1000,1000,1000,45828328,1177,1170,1171,1177
43383473,1000,1000,1000,1000,45928288,1419,1414,1415,1419
43385972,1000,1000,1000,1000,46028248,1594,1591,1591,1595
43388471,1000,1000,1000,1000,46128208,1740,1736,1736,1740
43390970,1000,1000,1000,1000,46228168,1865,1862,1862,1866
43393469,1000,1000,1000,1000,46328961,1883,1880,1880,1884
43395968,1000,1000,1000,1000,46428921,1794,1792,1793,1794
43398467,1000,1000,1000,1000,46528881,1673,1673,1673,1673
43400966,1000,1000,1000,1000,46628841,1620,1622,1622,1620
43403465,1000,1000,1000,1000,46728801,1620,1622,1622,1620
43405964,1000,1000,1000,1000,46828761,1632,1633,1634,1632
43408463,1000,1000,1000,1000,46928721,1636,1636,1636,1636
43410962,1000,1000,1000,1000,47028681,1632,1631,1631,1631
43413461,1000,1000,1000,1000,47128641,1625,1624,1624,1625
43415960,1000,1000,1000,1000,47228601,1618,1617,1617,1618
43418459,1000,1000,1000,1000,47328561,1616,1615,1615,1616
43420958,1000,1000,1000,1000,47428521,1587,1587,1587,1587
43423457,1000,1000,1000,1000,47528481,1580,1579,1573,1586
43425956,1000,1000,1000,1000,47628441,1576,1575,1568,1583
43428455,1000,1000,1000,1000,47728401,1573,1573,1568,1577
43430954,1000,1000,1000,1000,47828361,1573,1573,1573,1574
43433453,1000,1000,1000,1000,47928321,1575,1575,1577,1573
43435952,1000,1000,1000,1000,48028281,1578,1579,1582,1574
43438451,1000,1000,1000,1000,48128241,1564,1564,1576,1552
43440950,1000,1000,1000,1000,48228201,1554,1554,1566,1542
43443449,1000,1000,1000,1000,48328161,1546,1546,1550,1543
43445948,1000,1000,1000,1000,48428954,1537,1537,1532,1543
43448447,1000,1000,1000,1000,48528914,1533,1533,1524,1542
43450946,1000,1000,1000,1000,48628874,1532,1532,1523,1540
43453445,1000,1000,1000,1000,48728834,1533,1533,1528,1538
43455944,1000,1000,1000,1000,48828794,1534,1534,1533,1535
43458443,1000,1000,1000,1000,48928754,1538,1538,1541,1535
43460942,1000,1000,1000,1000,49028714,1541,1541,1545,1537
43463441,1000,1000,1000,1000,49128674,1545,1545,1549,1541
43465940,1000,1000,1000,1000,49228634,1548,1548,1550,1546
43468439,1000,1000,1000,1000,49328594,1551,1550,1551,1551
43470938,1000,1000,1000,1000,49428554,1547,1547,1557,1560
43473437,1000,1000,1000,1000,49528514,1548,1549,1558,1562
43475936,1000,1000,1000,1000,49628474,1553,1554,1560,1563
43478435,1000,1000,1000,1000,49728434,1557,1557,1560,1561
43480934,1000,1000,1000,1000,49828394,1561,1561,1561,1561
43483433,1000,1000,1000,1000,49928354,1564,1564,1561,1560
43485932,1000,1000,1000,1000,50028314,1567,1568,1562,1561
43488431,1000,1000,1000,1000,50128274,1570,1569,1563,1562
43490930,1000,1000,1000,1000,50228234,1572,1571,1564,1564
43493429,1000,1000,1000,1000,50328194,1572,1571,1565,1565
43495928,1000,1000,1000,1000,50428154,1573,1573,1567,1568
43498427,1000,1000,1000,1000,50528947,1573,1573,1569,1570
43500926,1000,1000,1000,1000,50628907,1572,1573,1570,1570
43503425,1000,1000,1000,1000,50728867,1572,1573,1572,1573
43505924,1000,1000,1000,1000,50828827,1573,1573,1574,1573
43508423,1000,1000,1000,1000,50928787,1574,1574,1576,1575
43510922,1000,1000,1000,1000,51028747,1573,1574,1577,1575
43513421,1000,1000,1000,1000,51128707,1574,1575,1578,1576
43515920,1000,1000,1000,1000,51228667,1575,1575,1578,1577
43518419,1000,1000,1000,1000,51328627,1575,1575,1577,1577
43520918,1000,1000,1000,1000,51428587,1575,1575,1576,1576
43523417,1000,1000,1000,1000,51528547,1576,1576,1576,1576
43525916,1000,1000,1000,1000,51628507,1576,1576,1576,1576
43528415,1000,1000,1000,1000,51728467,1576,1576,1575,1576
43530914,1000,1000,1000,1000,51828427,1576,1576,1575,1575
43533413,1000,1000,1000,1000,51928387,1577,1577,1576,1576
43535912,1000,1000,1000,1000,52028347,1577,1577,1576,1576
43538411,1000,1000,1000,1000,52128307,1578,1578,1577,1577
43540910,1000,1000,1000,1000,52228267,1577,1578,1577,1576
43543409,1000,1000,1000,1000,52328227,1578,1578,1578,1577
43545908,1000,1000,1000,1000,52428187,1578,1577,1577,1577
43548407,1000,1000,1000,1000,52528980,1578,1577,1577,1578
43550906,1000,1000,1000,1000,52628940,1579,1579,1579,1579
43553405,1000,1000,1000,1000,52728900,1578,1578,1578,1579
43555904,1000,1000,1000,1000,52828860,1578,1578,1578,1579
43558403,1000,1000,1000,1000,52928820,1578,1578,1578,1579
43560902,1000,1000,1000,1000,53028780,1579,1579,1579,1579
43563401,1000,1000,1000,1000,53128740,1578,1578,1579,1579
43565900,1000,1000,1000,1000,53228700,1579,1579,1579,1579
43568399,1000,1000,1000,1000,53328660,1580,1580,1580,1580
43570898,1000,1000,1000,1000,53428620,1580,1580,1580,1580
43573397,1000,1000,1000,1000,53528580,1580,1580,1580,1580
43575896,1000,1000,1000,1000,53628540,1580,1580,1579,1580
43578395,1000,1000,1000,1000,53728500,1580,1580,1580,1580
43580894,1000,1000,1000,1000,53828460,1579,1579,1579,1579
43583393,1000,1000,1000,1000,53928420,1580,1580,1580,1580
43585892,1000,1000,1000,1000,54028380,1579,1578,1578,1578
43588391,1000,1000,1000,1000,54128340,1580,1580,1580,1580
43590890,1000,1000,1000,1000,54228300,1581,1581,1581,1580
43593389,1000,1000,1000,1000,54328260,1581,1580,1580,1580
43595888,1000,1000,1000,1000,54428220,1581,1581,1581,1581
43598387,1000,1000,1000,1000,54528180,1581,1581,1581,1581
43600886,1000,1000,1000,1000,54628973,1580,1580,1580,1580
43603385,1000,1000,1000,1000,54728933,1580,1580,1579,1580
43605884,1000,1000,1000,1000,54828893,1580,1580,1580,1581
43608383,1000,1000,1000,1000,54928853,1581,1581,1581,1581
43610882,1000,1000,1000,1000,55028813,1580,1580,1581,1580
43613381,1000,1000,1000,1000,55128773,1580,1580,1581,1581
43615880,1000,1000,1000,1000,55228733,1581,1581,1581,1581
43618379,1000,1000,1000,1000,55328693,1581,1581,1581,1581
43620878,1000,1000,1000,1000,55428653,1582,1582,1582,1582
43623377,1000,1000,1000,1000,55528613,1581,1581,1581,1581
43625876,1000,1000,1000,1000,55628573,1581,1581,1581,1581
43628375,1000,1000,1000,1000,55728533,1582,1582,1588,1575
43630874,1000,1000,1000,1000,55828493,1581,1583,1587,1574
43633373,1000,1000,1000,1000,55928453,1579,1582,1578,1574
43635872,1000,1000,1000,1000,56028413,1577,1580,1569,1572
43638371,1000,1000,1000,1000,56128373,1576,1579,1562,1569
43640870,1000,1000,1000,1000,56228333,1577,1577,1557,1563
43643369,1000,1000,1000,1000,56328293,1579,1577,1555,1559
43645868,1000,1000,1000,1000,56428253,1579,1578,1556,1557
43648367,1000,1000,1000,1000,56528213,1578,1578,1556,1554
43650866,1000,1000,1000,1000,56628173,1578,1577,1556,1553
43653365,1000,1000,1000,1000,56728966,1577,1577,1556,1553
43655864,1000,1000,1000,1000,56828926,1576,1576,1555,1554
43658363,1000,1000,1000,1000,56928886,1575,1576,1554,1554
43660862,1000,1000,1000,1000,57028846,1574,1576,1552,1553
43663361,1000,1000,1000,1000,57128806,1575,1576,1552,1552
43665860,1000,1000,1000,1000,57228766,1576,1577,1550,1550
43668359,1000,1000,1000,1000,57328726,1577,1578,1548,1548
43670858,1000,1000,1000,1000,57428686,1581,1581,1547,1546
43673357,1000,1000,1000,1000,57528646,1582,1583,1543,1543
43675856,1000,1000,1000,1000,57628606,1585,1586,1540,1540
43678355,1000,1000,1000,1000,57728566,1588,1588,1537,1537
43680854,1000,1000,1000,1000,57828526,1591,1592,1536,1536
43683353,1000,1000,1000,1000,57928486,1593,1593,1534,1534
43685852,1000,1000,1000,1000,58028446,1594,1594,1535,1535
43688351,1000,1000,1000,1000,58128406,1594,1594,1536,1537
43690850,1000,1000,1000,1000,58228366,1593,1593,1539,1541
43693349,1000,1000,1000,1000,58328326,1590,1589,1543,1547
43695848,1000,1000,1000,1000,58428286,1585,1583,1550,1554
43698347,1000,1000,1000,1000,58528246,1578,1574,1560,1562
43700846,1000,1000,1000,1000,58628206,1568,1564,1571,1573
43703345,1000,1000,1000,1000,58728166,1556,1552,1582,1584
43705844,1000,1000,1000,1000,58828959,1545,1543,1595,1595
43708343,1000,1000,1000,1000,58928919,1536,1535,1605,1604
43710842,1000,1000,1000,1000,59028879,1530,1531,1611,1610
43713341,1000,1000,1000,1000,59128839,1529,1530,1615,1614
43715840,1000,1000,1000,1000,59228799,1530,1533,1614,1613
43718339,1000,1000,1000,1000,59328759,1535,1537,1610,1610
43720838,1000,1000,1000,1000,59428719,1541,1544,1603,1604
43723337,1000,1000,1000,1000,59528679,1551,1552,1597,1598
43725836,1000,1000,1000,1000,59628639,1560,1560,1589,1590
43728335,1000,1000,1000,1000,59728599,1568,1567,1582,1581
43730834,1000,1000,1000,1000,59828559,1576,1575,1577,1576
43733333,1000,1000,1000,1000,59928519,1581,1580,1571,1570
43735832,1000,1000,1000,1000,60028479,1585,1584,1568,1567
43738331,1000,1000,1000,1000,60128439,1587,1585,1566,1566
43740830,1000,1000,1000,1000,60228399,1587,1586,1566,1566
43743329,1000,1000,1000,1000,60328359,1587,1586,1568,1569
43745828,1000,1000,1000,1000,60428319,1586,1585,1571,1572
43748327,1000,1000,1000,1000,60528279,1582,1582,1573,1574
43750826,1000,1000,1000,1000,60628239,1580,1580,1577,1577
43753325,1000,1000,1000,1000,60728199,1577,1577,1579,1579
43755824,1000,1000,1000,1000,60828159,1550,1551,1585,1585
43758323,1000,1000,1000,1000,60928952,1557,1558,1589,1590
43760822,1000,1000,1000,1000,61028912,1563,1564,1589,1589
43763321,1000,1000,1000,1000,61128872,1569,1570,1587,1586
43765820,1000,1000,1000,1000,61228832,1575,1575,1584,1583
43768319,1000,1000,1000,1000,61328792,1580,1580,1580,1580
43770818,1000,1000,1000,1000,61428752,1584,1584,1578,1578
43773317,1000,1000,1000,1000,61528712,1586,1585,1574,1575
43775816,1000,1000,1000,1000,61628672,1587,1586,1572,1572
43778315,1000,1000,1000,1000,61728632,1588,1587,1572,1573
43780814,1000,1000,1000,1000,61828592,1587,1587,1572,1573
43783313,1000,1000,1000,1000,61928552,1586,1585,1574,1573
43785812,1000,1000,1000,1000,62028512,1585,1584,1575,1575
43788311,1000,1000,1000,1000,62128472,1583,1583,1577,1577
43790810,1000,1000,1000,1000,62228432,1580,1580,1578,1578
43793309,1000,1000,1000,1000,62328392,1579,1580,1580,1580
43795808,1000,1000,1000,1000,62428352,1578,1579,1582,1582
43798307,1000,1000,1000,1000,62528312,1577,1578,1583,1583
43800806,1000,1000,1000,1000,62628272,1576,1577,1583,1583
43803305,1000,1000,1000,1000,62728232,1576,1577,1583,1583
43805804,1000,1000,1000,1000,62828192,1577,1576,1582,1582
43808303,1000,1000,1000,1000,62928985,1578,1578,1583,1582
43810802,1000,1000,1000,1000,63028945,1579,1579,1581,1581
43813301,1000,1000,1000,1000,63128905,1580,1580,1582,1581
43815800,1000,1000,1000,1000,63228865,1581,1581,1581,1581
43818299,1000,1000,1000,1000,63328825,1581,1582,1580,1580
43820798,1000,1000,1000,1000,63428785,1581,1581,1578,1578
43823297,1000,1000,1000,1000,63528745,1581,1581,1578,1578
43825796,1000,1000,1000,1000,63628705,1581,1581,1578,1579
43828295,1000,1000,1000,1000,63728665,1582,1582,1583,1576
43830794,1000,1000,1000,1000,63828625,1581,1583,1585,1570
43833293,1000,1000,1000,1000,63928585,1580,1583,1579,1570
43835792,1000,1000,1000,1000,64028545,1579,1582,1570,1570
43838291,1000,1000,1000,1000,64128505,1579,1581,1562,1569
43840790,1000,1000,1000,1000,64228465,1579,1580,1557,1564
43843289,1000,1000,1000,1000,64328425,1580,1580,1555,1560
43845788,1000,1000,1000,1000,64428385,1581,1579,1554,1556
43848287,1000,1000,1000,1000,64528345,1582,1579,1555,1555
43850786,1000,1000,1000,1000,64628305,1580,1579,1555,1553
43853285,1000,1000,1000,1000,64728265,1579,1579,1556,1553
43855784,1000,1000,1000,1000,64828225,1576,1577,1554,1552
43858283,1000,1000,1000,1000,64928185,1576,1577,1553,1553
43860782,1000,1000,1000,1000,65028978,1576,1578,1553,1553
43863281,1000,1000,1000,1000,65128938,1577,1578,1553,1553
43865780,1000,1000,1000,1000,65228898,1577,1578,1551,1550
43868279,1000,1000,1000,1000,65328858,1578,1580,1548,1549
43870778,1000,1000,1000,1000,65428818,1579,1580,1545,1545
43873277,1000,1000,1000,1000,65528778,1582,1583,1544,1544
43875776,1000,1000,1000,1000,65628738,1585,1586,1543,1542
43878275,1000,1000,1000,1000,65728698,1588,1587,1541,1541
43880774,1000,1000,1000,1000,65828658,1589,1590,1540,1540
43883273,1000,1000,1000,1000,65928618,1592,1592,1540,1541
43885772,1000,1000,1000,1000,66028578,1592,1593,1539,1541
43888271,1000,1000,1000,1000,66128538,1591,1591,1540,1543
43890770,1000,1000,1000,1000,66228498,1589,1588,1545,1547
43893269,1000,1000,1000,1000,66328458,1586,1583,1551,1554
43895768,1000,1000,1000,1000,66428418,1580,1576,1560,1562
43898267,1000,1000,1000,1000,66528378,1571,1567,1570,1572
43900766,1000,1000,1000,1000,66628338,1560,1557,1580,1582
43903265,1000,1000,1000,1000,66728298,1551,1549,1591,1592
43905764,1000,1000,1000,1000,66828258,1543,1542,1600,1600
43908263,1000,1000,1000,1000,66928218,1538,1538,1607,1606
43910762,1000,1000,1000,1000,67028178,1535,1537,1610,1609
43913261,1000,1000,1000,1000,67128971,1536,1538,1611,1610
43915760,1000,1000,1000,1000,67228931,1540,1542,1608,1608
43918259,1000,1000,1000,1000,67328891,1546,1547,1604,1604
43920758,1000,1000,1000,1000,67428851,1553,1554,1598,1598
43923257,1000,1000,1000,1000,67528811,1560,1561,1592,1591
43925756,1000,1000,1000,1000,67628771,1568,1568,1585,1585
43928255,1000,1000,1000,1000,67728731,1574,1574,1579,1579
43930754,1000,1000,1000,1000,67828691,1580,1578,1574,1574
43933253,1000,1000,1000,1000,67928651,1583,1582,1571,1570
43935752,1000,1000,1000,1000,68028611,1586,1584,1568,1569
43938251,1000,1000,1000,1000,68128571,1586,1585,1568,1568
43940750,1000,1000,1000,1000,68228531,1585,1584,1568,1568
43943249,1000,1000,1000,1000,68328491,1584,1584,1570,1571
43945748,1000,1000,1000,1000,68428451,1582,1582,1573,1574
43948247,1000,1000,1000,1000,68528411,1580,1580,1576,1575
43950746,1000,1000,1000,1000,68628371,1577,1578,1578,1578
43953245,1000,1000,1000,1000,68728331,1576,1576,1581,1580
43955744,1000,1000,1000,1000,68828291,1575,1575,1583,1583
43958243,1000,1000,1000,1000,68928251,1574,1574,1584,1584
43960742,1000,1000,1000,1000,69028211,1573,1574,1584,1584
43963241,1000,1000,1000,1000,69128171,1574,1575,1584,1584
43965740,1000,1000,1000,1000,69228964,1575,1575,1584,1583
43968239,1000,1000,1000,1000,69328924,1576,1576,1582,1582
43970738,1000,1000,1000,1000,69428884,1577,1577,1581,1581
43973237,1000,1000,1000,1000,69528844,1578,1578,1580,1580
43975736,1000,1000,1000,1000,69628804,1579,1579,1579,1579
43978235,1000,1000,1000,1000,69728764,1580,1580,1578,1578
43980734,1000,1000,1000,1000,69828724,1581,1581,1578,1578
43983233,1000,1000,1000,1000,69928684,1582,1582,1578,1578
43985732,1000,1000,1000,1000,70028644,1582,1582,1578,1579
43988231,1000,1000,1000,1000,70128604,1582,1581,1578,1578
43990730,1000,1000,1000,1000,70228564,1582,1581,1579,1579
43993229,1000,1000,1000,1000,70328524,1581,1581,1579,1579
43995728,1000,1000,1000,1000,70428484,1581,1581,1580,1580
43998227,1000,1000,1000,1000,70528444,1580,1581,1580,1580
44000726,1000,1000,1000,1000,70628404,1579,1579,1580,1580
44003225,1000,1000,1000,1000,70728364,1579,1579,1580,1580
44005724,1000,1000,1000,1000,70828324,1579,1579,1580,1580
44008223,1000,1000,1000,1000,70928284,1580,1580,1581,1582
44010722,1000,1000,1000,1000,71028244,1580,1580,1581,1581
44013221,1000,1000,1000,1000,71128204,1579,1580,1581,1581
44015720,1000,1000,1000,1000,71228164,1581,1580,1582,1581
44018219,1000,1000,1000,1000,71328957,1580,1580,1581,1581
44020718,1000,1000,1000,1000,71428917,1581,1581,1581,1581
44023217,1000,1000,1000,1000,71528877,1581,1581,1581,1581
44025716,1000,1000,1000,1000,71628837,1580,1580,1580,1580
44028215,1000,1000,1000,1000,71728797,1581,1581,1580,1580
44030714,1000,1000,1000,1000,71828757,1580,1580,1579,1579
44033213,1000,1000,1000,1000,71928717,1580,1581,1583,1576
44035712,1000,1000,1000,1000,72028677,1581,1583,1586,1572
44038211,1000,1000,1000,1000,72128637,1580,1582,1580,1572
44040710,1000,1000,1000,1000,72228597,1578,1581,1571,1571
44043209,1000,1000,1000,1000,72328557,1578,1580,1563,1569
44045708,1000,1000,1000,1000,72428517,1577,1578,1557,1565
44048207,1000,1000,1000,1000,72528477,1579,1578,1555,1560
44050706,1000,1000,1000,1000,72628437,1580,1579,1555,1557
44053205,1000,1000,1000,1000,72728397,1580,1578,1555,1555
44055704,1000,1000,1000,1000,72828357,1579,1578,1556,1554
44058203,1000,1000,1000,1000,72928317,1578,1578,1556,1554
44060702,1000,1000,1000,1000,73028277,1576,1578,1556,1554
44063201,1000,1000,1000,1000,73128237,1576,1577,1555,1554
44065700,1000,1000,1000,1000,73228197,1575,1577,1554,1554
44068199,1000,1000,1000,1000,73328157,1575,1576,1552,1553
44070698,1000,1000,1000,1000,73428950,1576,1577,1551,1552
44073197,1000,1000,1000,1000,73528910,1577,1579,1550,1550
44075696,1000,1000,1000,1000,73628870,1579,1580,1548,1548
44078195,1000,1000,1000,1000,73728830,1581,1582,1545,1545
44080694,1000,1000,1000,1000,73828790,1583,1584,1542,1542
44083193,1000,1000,1000,1000,73928750,1586,1586,1540,1540
44085692,1000,1000,1000,1000,74028710,1589,1589,1539,1539
44088191,1000,1000,1000,1000,74128670,1591,1591,1538,1539
44090690,1000,1000,1000,1000,74228630,1592,1592,1537,1538
44093189,1000,1000,1000,1000,74328590,1592,1593,1538,1539
44095688,1000,1000,1000,1000,74428550,1592,1593,1540,1542
44098187,1000,1000,1000,1000,74528510,1591,1589,1545,1548
44100686,1000,1000,1000,1000,74628470,1587,1584,1551,1554
44103185,1000,1000,1000,1000,74728430,1580,1576,1560,1563
44105684,1000,1000,1000,1000,74828390,1571,1567,1571,1573
44108183,1000,1000,1000,1000,74928350,1561,1557,1583,1584
44110682,1000,1000,1000,1000,75028310,1550,1547,1592,1593
44113181,1000,1000,1000,1000,75128270,1542,1541,1602,1602
44115680,1000,1000,1000,1000,75228230,1537,1537,1609,1609
44118179,1000,1000,1000,1000,75328190,1533,1534,1612,1611
44120678,1000,1000,1000,1000,75428983,1534,1536,1613,1612
44123177,1000,1000,1000,1000,75528943,1537,1539,1609,1608
44125676,1000,1000,1000,1000,75628903,1544,1547,1605,1605
44128175,1000,1000,1000,1000,75728863,1551,1552,1598,1598
44130674,1000,1000,1000,1000,75828823,1560,1560,1592,1591
44133173,1000,1000,1000,1000,75928783,1568,1568,1585,1584
44135672,1000,1000,1000,1000,76028743,1574,1574,1578,1578
44138171,1000,1000,1000,1000,76128703,1579,1578,1573,1573
44140670,1000,1000,1000,1000,76228663,1584,1582,1569,1569
44143169,1000,1000,1000,1000,76328623,1585,1583,1566,1566
44145668,1000,1000,1000,1000,76428583,1587,1585,1567,1567
44148167,1000,1000,1000,1000,76528543,1586,1585,1568,1569
44150666,1000,1000,1000,1000,76628503,1583,1583,1569,1570
44153165,1000,1000,1000,1000,76728463,1582,1582,1573,1572
44155664,1000,1000,1000,1000,76828423,1580,1580,1577,1576
44158163,1000,1000,1000,1000,76928383,1577,1578,1578,1578
44160662,1000,1000,1000,1000,77028343,1575,1576,1580,1580
44163161,1000,1000,1000,1000,77128303,1575,1575,1583,1583
44165660,1000,1000,1000,1000,77228263,1574,1574,1584,1584
44168159,1000,1000,1000,1000,77328223,1573,1574,1584,1584
44170658,1000,1000,1000,1000,77428183,1573,1574,1584,1583
44173157,1000,1000,1000,1000,77528976,1575,1575,1584,1583
44175656,1000,1000,1000,1000,77628936,1576,1576,1583,1583
44178155,1000,1000,1000,1000,77728896,1577,1577,1581,1582
44180654,1000,1000,1000,1000,77828856,1578,1578,1580,1580
44183986,1000,1000,1000,1000,77928816,1580,1580,1580,1579
44186485,1000,1000,1000,1000,78028776,1580,1580,1578,1578
44188984,1000,1000,1000,1000,78128736,1581,1581,1578,1577
44191483,1000,1000,1000,1000,78228696,1582,1582,1578,1578
44193982,1000,1000,1000,1000,78328656,1582,1581,1578,1578
44196481,1000,1000,1000,1000,78428616,1582,1581,1578,1578
44198980,1000,1000,1000,1000,78528576,1582,1581,1578,1579
44201479,1000,1000,1000,1000,78628536,1581,1582,1579,1579
44203978,1000,1000,1000,1000,78728496,1580,1580,1579,1579
44206477,1000,1000,1000,1000,78828456,1579,1579,1578,1579
44208976,1000,1000,1000,1000,78928416,1579,1579,1580,1580
44211475,1000,1000,1000,1000,79028376,1579,1579,1580,1580
44213974,1000,1000,1000,1000,79128336,1580,1580,1581,1581
44216473,1000,1000,1000,1000,79228296,1579,1580,1581,1581
44218972,1000,1000,1000,1000,79328256,1580,1580,1582,1582
44221471,1000,1000,1000,1000,79428216,1580,1580,1582,1582
44223970,1000,1000,1000,1000,79528176,1580,1580,1581,1581
44226469,1000,1000,1000,1000,79628969,1581,1581,1581,1581
44228968,1000,1000,1000,1000,79728929,1581,1580,1581,1581
44231467,1000,1000,1000,1000,79828889,1581,1581,1581,1581
44233966,1000,1000,1000,1000,79928849,1580,1581,1586,1573
44236465,1000,1000,1000,1000,80028809,1580,1581,1586,1572
44238964,1000,1000,1000,1000,80128769,1578,1578,1578,1573
44241463,1000,1000,1000,1000,80228729,1575,1574,1571,1574
44243962,1000,1000,1000,1000,80328689,1572,1571,1566,1574
44246461,1000,1000,1000,1000,80428649,1570,1569,1564,1572
44248960,1000,1000,1000,1000,80528609,1568,1568,1565,1570
44251459,1000,1000,1000,1000,80628569,1566,1566,1565,1567
44253958,1000,1000,1000,1000,80728529,1566,1567,1567,1566
44256457,1000,1000,1000,1000,80828489,1566,1566,1568,1565
44258956,1000,1000,1000,1000,80928449,1565,1565,1567,1564
44261455,1000,1000,1000,1000,81028409,1564,1564,1566,1564
44263954,1000,1000,1000,1000,81128369,1564,1563,1565,1565
44266453,1000,1000,1000,1000,81228329,1563,1563,1564,1564
44268952,1000,1000,1000,1000,81328289,1561,1561,1562,1562
44271451,1000,1000,1000,1000,81428249,1561,1561,1562,1562
44273950,1000,1000,1000,1000,81528209,1561,1561,1561,1562
44276449,1000,1000,1000,1000,81628169,1561,1561,1561,1560
44278948,1000,1000,1000,1000,81728962,1560,1560,1560,1560
44281447,1000,1000,1000,1000,81828922,1559,1559,1560,1559
44283946,1000,1000,1000,1000,81928882,1558,1558,1558,1557
44286445,1000,1000,1000,1000,82028842,1558,1558,1558,1557
44288944,1000,1000,1000,1000,82128802,1558,1558,1558,1557
44291443,1000,1000,1000,1000,82228762,1558,1558,1559,1557
44293942,1000,1000,1000,1000,82328722,1557,1557,1557,1556
44296441,1000,1000,1000,1000,82428682,1557,1558,1558,1557
44298940,1000,1000,1000,1000,82528642,1558,1558,1559,1557
44301439,1000,1000,1000,1000,82628602,1559,1559,1561,1557
44303938,1000,1000,1000,1000,82728562,1559,1559,1559,1559
44306437,1000,1000,1000,1000,82828522,1560,1559,1558,1562
44308936,1000,1000,1000,1000,82928482,1561,1561,1558,1564
44311435,1000,1000,1000,1000,83028442,1560,1560,1558,1563
44313934,1000,1000,1000,1000,83128402,1562,1562,1560,1565
44316433,1000,1000,1000,1000,83228362,1561,1562,1561,1562
44318932,1000,1000,1000,1000,83328322,1561,1561,1562,1560
44321431,1000,1000,1000,1000,83428282,1559,1559,1561,1556
44323930,1000,1000,1000,1000,83528242,1558,1558,1560,1556
44326429,1000,1000,1000,1000,83628202,1559,1558,1557,1560
44328928,1000,1000,1000,1000,83728162,1556,1557,1553,1559
44331427,1000,1000,1000,1000,83828955,1552,1552,1549,1554
44333926,1000,1000,1000,1000,83928915,1547,1547,1546,1548
44336425,1000,1000,1000,1000,84028875,1542,1542,1542,1541
44338924,1000,1000,1000,1000,84128835,1534,1534,1535,1533
44341423,1000,1000,1000,1000,84228795,1527,1528,1528,1526
44343922,1000,1000,1000,1000,84328755,1522,1522,1523,1521
44346421,1000,1000,1000,1000,84428715,1521,1521,1521,1520
44348920,1000,1000,1000,1000,84528675,1521,1520,1520,1521
44351419,1000,1000,1000,1000,84628635,1522,1522,1522,1523
44353918,1000,1000,1000,1000,84728595,1525,1525,1525,1526
44356417,1000,1000,1000,1000,84828555,1528,1528,1529,1529
44358916,1000,1000,1000,1000,84928515,1534,1533,1535,1535
44361415,1000,1000,1000,1000,85028475,1537,1537,1538,1538
44363914,1000,1000,1000,1000,85128435,1539,1540,1541,1540
44366413,1000,1000,1000,1000,85228395,1543,1543,1543,1543
44368912,1000,1000,1000,1000,85328355,1544,1544,1544,1544
44371411,1000,1000,1000,1000,85428315,1545,1545,1545,1544
44373910,1000,1000,1000,1000,85528275,1546,1546,1545,1545
44376409,1000,1000,1000,1000,85628235,1547,1547,1547,1546
44378908,1000,1000,1000,1000,85728195,1548,1548,1547,1547
44381407,1000,1000,1000,1000,85828155,1548,1548,1547,1547
44383906,1000,1000,1000,1000,85928948,1547,1546,1546,1546
44386405,1000,1000,1000,1000,86028908,1547,1546,1546,1546
44388904,1000,1000,1000,1000,86128868,1547,1546,1546,1546
44391403,1000,1000,1000,1000,86228828,1546,1546,1545,1545
44393902,1000,1000,1000,1000,86328788,1545,1546,1546,1546
44396401,1000,1000,1000,1000,86428748,1545,1545,1545,1545
44398900,1000,1000,1000,1000,86528708,1546,1545,1546,1546
44401399,1000,1000,1000,1000,86628668,1544,1544,1545,1544
44403898,1000,1000,1000,1000,86728628,1544,1544,1544,1544
44406397,1000,1000,1000,1000,86828588,1544,1544,1544,1544
44408896,1000,1000,1000,1000,86928548,1544,1544,1544,1544
44411395,1000,1000,1000,1000,87028508,1544,1543,1544,1544
44413894,1000,1000,1000,1000,87128468,1543,1543,1543,1543
44416393,1000,1000,1000,1000,87228428,1543,1543,1543,1544
44418892,1000,1000,1000,1000,87328388,1543,1544,1544,1543
44421391,1000,1000,1000,1000,87428348,1544,1544,1544,1543
44423890,1000,1000,1000,1000,87528308,1544,1543,1544,1544
44426389,1000,1000,1000,1000,87628268,1544,1544,1544,1544
44428888,1000,1000,1000,1000,87728228,1543,1544,1543,1543
44431387,1000,1000,1000,1000,87828188,1543,1543,1543,1543
44433886,1000,1000,1000,1000,87928981,1545,1544,1544,1544
44436385,1000,1000,1000,1000,88028941,1544,1544,1544,1544
44438884,1000,1000,1000,1000,88128901,1544,1543,1543,1544
44441383,1000,1000,1000,1000,88228861,1545,1545,1545,1545
44443882,1000,1000,1000,1000,88328821,1545,1545,1545,1545
44446381,1000,1000,1000,1000,88428781,1544,1545,1545,1544
44448880,1000,1000,1000,1000,88528741,1545,1545,1544,1545
44451379,1000,1000,1000,1000,88628701,1545,1545,1545,1545
44453878,1000,1000,1000,1000,88728661,1544,1544,1544,1544
44456377,1000,1000,1000,1000,88828621,1544,1544,1544,1544
44458876,1000,1000,1000,1000,88928581,1544,1543,1544,1544
44461375,1000,1000,1000,1000,89028541,1543,1544,1544,1543
44463874,1000,1000,1000,1000,89128501,1544,1544,1545,1544
44466373,1000,1000,1000,1000,89228461,1544,1544,1544,1544
44468872,1000,1000,1000,1000,89328421,1544,1544,1544,1545
44471371,1000,1000,1000,1000,89428381,1543,1544,1543,1544
44473870,1000,1000,1000,1000,89528341,1544,1544,1544,1544
44476369,1000,1000,1000,1000,89628301,1543,1543,1543,1543
44478868,1000,1000,1000,1000,89728261,1544,1543,1543,1543
44481367,1000,1000,1000,1000,89828221,1543,1544,1544,1543
44483866,1000,1000,1000,1000,89928181,1545,1544,1545,1545
44486365,1000,1000,1000,1000,90028974,1545,1545,1545,1545
44488864,1000,1000,1000,1000,90128934,1544,1544,1544,1544
44491363,1000,1000,1000,1000,90228894,1544,1545,1544,1545
44493862,1000,1000,1000,1000,90328854,1545,1544,1544,1544
44496361,1000,1000,1000,1000,90428814,1545,1545,1545,1545
44498860,1000,1000,1000,1000,90528774,1546,1545,1545,1545
44501359,1000,1000,1000,1000,90628734,1545,1544,1545,1545
44503858,1000,1000,1000,1000,90728694,1545,1545,1545,1545
44506357,1000,1000,1000,1000,90828654,1544,1545,1544,1544
44508856,1000,1000,1000,1000,90928614,1544,1544,1544,1544
44511355,1000,1000,1000,1000,91028574,1544,1545,1545,1545
44513854,1000,1000,1000,1000,91128534,1545,1544,1544,1545
44516353,1000,1000,1000,1000,91228494,1545,1544,1545,1544
44518852,1000,1000,1000,1000,91328454,1544,1544,1544,1544
44521351,1000,1000,1000,1000,91428414,1545,1545,1545,1545
44523850,1000,1000,1000,1000,91528374,1545,1545,1545,1545
44526349,1000,1000,1000,1000,91628334,1544,1544,1544,1543
44528848,1000,1000,1000,1000,91728294,1544,1544,1544,1544
44531347,1000,1000,1000,1000,91828254,1544,1543,1544,1544
44533846,1000,1000,1000,1000,91928214,1544,1543,1544,1544
44536345,1000,1000,1000,1000,92028174,1544,1544,1544,1544
44538844,1000,1000,1000,1000,92128967,1544,1543,1543,1543
44541343,1000,1000,1000,1000,92228927,1544,1544,1544,1544
44543842,1000,1000,1000,1000,92328887,1544,1544,1544,1544
44546341,1000,1000,1000,1000,92428847,1544,1544,1544,1544
44548840,1000,1000,1000,1000,92528807,1544,1544,1544,1544
44551339,1000,1000,1000,1000,92628767,1545,1545,1545,1545
44553838,1000,1000,1000,1000,92728727,1544,1544,1544,1544
44556337,1000,1000,1000,1000,92828687,1544,1544,1545,1544
44558836,1000,1000,1000,1000,92928647,1545,1545,1545,1545
44561335,1000,1000,1000,1000,93028607,1545,1544,1544,1545
44563834,1000,1000,1000,1000,93128567,1545,1544,1544,1545
44566333,1000,1000,1000,1000,93228527,1544,1545,1545,1544
44568832,1000,1000,1000,1000,93328487,1545,1544,1544,1545
44571331,1000,1000,1000,1000,93428447,1544,1545,1545,1545
44573830,1000,1000,1000,1000,93528407,1545,1545,1544,1545
44576329,1000,1000,1000,1000,93628367,1544,1544,1544,1545
44578828,1000,1000,1000,1000,93728327,1545,1545,1545,1545
44581327,1000,1000,1000,1000,93828287,1544,1544,1544,1544
44583826,1000,1000,1000,1000,93928247,1545,1545,1545,1545
44586325,1000,1000,1000,1000,94028207,1473,1473,1471,1470
44588824,1000,1000,1000,1000,94128167,1316,1315,1306,1302
44591323,1000,1000,1000,1000,94228960,1249,1248,1234,1228
44593822,1000,1000,1000,1000,94328920,1229,1227,1211,1206
44596321,1000,1000,1000,1000,94428880,1205,1203,1185,1179
44598820,1000,1000,1000,1000,94528840,1179,1177,1156,1150
44601319,1000,1000,1000,1000,94628800,1179,1178,1157,1150
44603818,1000,1000,1000,1000,94728760,1180,1177,1158,1150
44606317,1000,1000,1000,1000,94828720,1201,1174,1150,1179
44608816,1000,1000,1000,1000,94928680,1192,1172,1150,1166
44611315,1000,1000,1000,1000,95028640,1189,1171,1150,1162
44613814,1000,1000,1000,1000,95128600,1190,1171,1150,1162
44616313,1000,1000,1000,1000,95228560,1191,1171,1150,1163
44618812,1000,1000,1000,1000,95328520,1192,1171,1150,1165
44621311,1000,1000,1000,1000,95428480,1194,1170,1150,1166
44623810,1000,1000,1000,1000,95528440,1196,1170,1150,1168
44626309,1000,1000,1000,1000,95628400,1185,1172,1150,1158
44628808,1000,1000,1000,1000,95728360,1186,1172,1150,1159
44631307,1000,1000,1000,1000,95828320,1186,1171,1150,1159
44633806,1000,1000,1000,1000,95928280,1187,1171,1150,1160
44636305,1000,1000,1000,1000,96028240,1170,1158,1150,1157
44638804,1000,1000,1000,1000,96128200,1000,1000,1000,1000
44641303,1000,1000,1000,1000,96228160,1000,1000,1000,1000
44643802,1000,1000,1000,1000,96328953,1000,1000,1000,1000
44646301,1000,1000,1000,1000,96428913,1000,1000,1000,1000
44648800,1000,1000,1000,1000,96528873,1000,1000,1000,1000
44651299,1000,1000,1000,1000,96628833,1000,1000,1000,1000
44653798,1000,1000,1000,1000,96728793,1000,1000,1000,1000
44656297,1000,1000,1000,1000,96828753,1000,1000,1000,1000
44658796,1000,1000,1000,1000,96928713,1000,1000,1000,1000
44661295,1000,1000,1000,1000,97028673,1000,1000,1000,1000
44663794,1000,1000,1000,1000,97128633,1000,1000,1000,1000
44666293,1000,1000,1000,1000,97228593,1000,1000,1000,1000
44668792,1000,1000,1000,1000,97328553,1000,1000,1000,1000
44671291,1000,1000,1000,1000,97428513,1000,1000,1000,1000
44673790,1000,1000,1000,1000,97528473,1000,1000,1000,1000
44676289,1000,1000,1000,1000,97628433,1000,1000,1000,1000
44678788,1000,1000,1000,1000,97728393,1000,1000,1000,1000
44681287,1000,1000,1000,1000,97828353,1000,1000,1000,1000
44683786,1000,1000,1000,1000,97928313,1000,1000,1000,1000
44686285,1000,1000,1000,1000,98028273,1000,1000,1000,1000
44688784,1000,1000,1000,1000,98128233,1000,1000,1000,1000
44691283,1000,1000,1000,1000,98228193,1000,1000,1000,1000
44693782,1000,1000,1000,1000,98328986,1000,1000,1000,1000
44696281,1000,1000,1000,1000,98428946,1000,1000,1000,1000
44698780,1000,1000,1000,1000,98528906,1000,1000,1000,1000
44701279,1000,1000,1000,1000,98628866,1000,1000,1000,1000
44703778,1000,1000,1000,1000,98728826,1000,1000,1000,1000
44706277,1000,1000,1000,1000,98828786,1000,1000,1000,1000
44708776,1000,1000,1000,1000,98928746,1000,1000,1000,1000
44711275,1000,1000,1000,1000,99028706,1000,1000,1000,1000
44713774,1000,1000,1000,1000,99128666,1000,1000,1000,1000
44716273,1000,1000,1000,1000,99228626,1000,1000,1000,1000
44718772,1000,1000,1000,1000,99328586,1000,1000,1000,1000
44721271,1000,1000,1000,1000,99428546,1000,1000,1000,1000
44723770,1000,1000,1000,1000,99528506,1000,1000,1000,1000
44726269,1000,1000,1000,1000,99628466,1000,1000,1000,1000
44728768,1000,1000,1000,1000,99728426,1000,1000,1000,1000
44731267,1000,1000,1000,1000,99828386,1000,1000,1000,1000
44733766,1000,1000,1000,1000,99928346,1000,1000,1000,1000
44736265,1000,1000,1000,1000,100028306,1000,1000,1000,1000
44738764,1000,1000,1000,1000,100128266,1000,1000,1000,1000
44741263,1000,1000,1000,1000,100228226,1000,1000,1000,1000
44743762,1000,1000,1000,1000,100328186,1000,1000,1000,1000
44746261,1000,1000,1000,1000,100428979,1000,1000,1000,1000
44748760,1000,1000,1000,1000,100528939,1000,1000,1000,1000
44751259,1000,1000,1000,1000,100628899,1000,1000,1000,1000
44753758,1000,1000,1000,1000,100728859,1000,1000,1000,1000
44756257,1000,1000,1000,1000,100828819,1000,1000,1000,1000
44758756,1000,1000,1000,1000,100928779,1000,1000,1000,1000
44761255,1000,1000,1000,1000,101028739,1000,1000,1000,1000
44763754,1000,1000,1000,1000,101128699,1000,1000,1000,1000
44766253,1000,1000,1000,1000,101228659,1000,1000,1000,1000
44768752,1000,1000,1000,1000,101328619,1000,1000,1000,1000
44771251,1000,1000,1000,1000,101428579,1000,1000,1000,1000
44773750,1000,1000,1000,1000,101528539,1000,1000,1000,1000
44776249,1000,1000,1000,1000,101628499,1000,1000,1000,1000
44778748,1000,1000,1000,1000,101728459,1000,1000,1000,1000
44781247,1000,1000,1000,1000,101828419,1000,1000,1000,1000
44783746,1000,1000,1000,1000,101928379,1000,1000,1000,1000
44786245,1000,1000,1000,1000,102028339,1000,1000,1000,1000
44788744,1000,1000,1000,1000,102128299,1000,1000,1000,1000
44791243,1000,1000,1000,1000,102228259,1000,1000,1000,1000
44793742,1000,1000,1000,1000,102328219,1000,1000,1000,1000
44796241,1000,1000,1000,1000,102428179,1000,1000,1000,1000
44798740,1000,1000,1000,1000,102528972,1000,1000,1000,1000
44801239,1000,1000,1000,1000,102628932,1000,1000,1000,1000
44803738,1000,1000,1000,1000,102728892,1000,1000,1000,1000
44806237,1000,1000,1000,1000,102828852,1000,1000,1000,1000
44808736,1000,1000,1000,1000,102928812,1000,1000,1000,1000
44811235,1000,1000,1000,1000,103028772,1000,1000,1000,1000
44813734,1000,1000,1000,1000,103128732,1000,1000,1000,1000
44816233,1000,1000,1000,1000,103228692,1000,1000,1000,1000
44818732,1000,1000,1000,1000,103328652,1000,1000,1000,1000
44821231,1000,1000,1000,1000,103428612,1000,1000,1000,1000
44823730,1000,1000,1000,1000,103528572,1000,1000,1000,1000
44826229,1000,1000,1000,1000,103628532,1000,1000,1000,1000
44828728,1000,1000,1000,1000,103728492,1000,1000,1000,1000
44831227,1000,1000,1000,1000,103828452,1000,1000,1000,1000
44833726,1000,1000,1000,1000,103928412,1000,1000,1000,1000
44836225,1000,1000,1000,1000,104028372,1000,1000,1000,1000
44838724,1000,1000,1000,1000,104128332,1000,1000,1000,1000
44841223,1000,1000,1000,1000,104228292,1000,1000,1000,1000
44843722,1000,1000,1000,1000,104328252,1000,1000,1000,1000
44846221,1000,1000,1000,1000,104428212,1000,1000,1000,1000
44848720,1000,1000,1000,1000,104528172,1000,1000,1000,1000
44851219,1000,1000,1000,1000,104628965,1000,1000,1000,1000
44853718,1000,1000,1000,1000,104728925,1000,1000,1000,1000
44856217,1000,1000,1000,1000,104828885,1000,1000,1000,1000
44858716,1000,1000,1000,1000,104928845,1000,1000,1000,1000
44861215,1000,1000,1000,1000,105028805,1000,1000,1000,1000
44863714,1000,1000,1000,1000,105128765,1000,1000,1000,1000
44866213,1000,1000,1000,1000,105228725,1000,1000,1000,1000
44868712,1000,1000,1000,1000,105328685,1000,1000,1000,1000
44871211,1000,1000,1000,1000,105428645,1000,1000,1000,1000
44873710,1000,1000,1000,1000,105528605,1000,1000,1000,1000
44876209,1000,1000,1000,1000,105628565,1000,1000,1000,1000
44878708,1000,1000,1000,1000,105728525,1000,1000,1000,1000
44881207,1000,1000,1000,1000,105828485,1000,1000,1000,1000
44883706,1000,1000,1000,1000,105928445,1000,1000,1000,1000
44886205,1000,1000,1000,1000,106028405,1000,1000,1000,1000
44888704,1000,1000,1000,1000,106128365,1000,1000,1000,1000
44891203,1000,1000,1000,1000,106228325,1000,1000,1000,1000
44893702,1000,1000,1000,1000,106328285,1000,1000,1000,1000
44896201,1000,1000,1000,1000,106428245,1000,1000,1000,1000
44898700,1000,1000,1000,1000,106528205,1000,1000,1000,1000
44901199,1000,1000,1000,1000,106628165,1000,1000,1000,1000
44903698,1000,1000,1000,1000,106728958,1000,1000,1000,1000
44906197,1000,1000,1000,1000,106828918,1000,1000,1000,1000
44908696,1000,1000,1000,1000,106928878,1000,1000,1000,1000
44911195,1000,1000,1000,1000,107028838,1000,1000,1000,1000
44913694,1000,1000,1000,1000,107128798,1000,1000,1000,1000
44916193,1000,1000,1000,1000,107228758,1000,1000,1000,1000
44918692,1000,1000,1000,1000,107328718,1000,1000,1000,1000
44921191,1000,1000,1000,1000,107428678,1000,1000,1000,1000
44923690,1000,1000,1000,1000,107528638,1000,1000,1000,1000
44926189,1000,1000,1000,1000,107628598,1000,1000,1000,1000
44928688,1000,1000,1000,1000,107728558,1000,1000,1000,1000
44931187,1000,1000,1000,1000,107828518,1000,1000,1000,1000
44933686,1000,1000,1000,1000,107928478,1000,1000,1000,1000
44936185,1000,1000,1000,1000,108028438,1000,1000,1000,1000
44938684,1000,1000,1000,1000,108128398,1000,1000,1000,1000
44941183,1000,1000,1000,1000,108228358,1000,1000,1000,1000
44943682,1000,1000,1000,1000,108328318,1000,1000,1000,1000
44946181,1000,1000,1000,1000,108428278,1000,1000,1000,1000
44948680,1000,1000,1000,1000,108528238,1000,1000,1000,1000
44951179,1000,1000,1000,1000,108628198,1000,1000,1000,1000
44953678,1000,1000,1000,1000,108728158,1000,1000,1000,1000
44956177,1000,1000,1000,1000,108828951,1000,1000,1000,1000
44958676,1000,1000,1000,1000,108928911,1000,1000,1000,1000
44961175,1000,1000,1000,1000,109028871,1000,1000,1000,1000
44963674,1000,1000,1000,1000,109128831,1000,1000,1000,1000
44966173,1000,1000,1000,1000,,,,,
44968672,1000,1000,1000,1000,,,,,
44971171,1000,1000,1000,1000,,,,,
44973670,1000,1000,1000,1000,,,,,
44976169,1000,1000,1000,1000,,,,,
44978668,1000,1000,1000,1000,,,,,
44981167,1000,1000,1000,1000,,,,,
44983666,1000,1000,1000,1000,,,,,
44986165,1000,1000,1000,1000,,,,,
44988664,1000,1000,1000,1000,,,,,
44991163,1000,1000,1000,1000,,,,,
44993662,1000,1000,1000,1000,,,,,
44996161,1000,1000,1000,1000,,,,,
44998660,1000,1000,1000,1000,,,,,
45001159,1000,1000,1000,1000,,,,,
45003658,1000,1000,1000,1000,,,,,
45006157,1000,1000,1000,1000,,,,,
45008656,1000,1000,1000,1000,,,,,
45011155,1000,1000,1000,1000,,,,,
45013654,1000,1000,1000,1000,,,,,
45016153,1000,1000,1000,1000,,,,,
45018652,1000,1000,1000,1000,,,,,
45021151,1000,1000,1000,1000,,,,,
45023650,1000,1000,1000,1000,,,,,
45026149,1000,1000,1000,1000,,,,,
45028648,1000,1000,1000,1000,,,,,
45031147,1000,1000,1000,1000,,,,,
45033646,1000,1000,1000,1000,,,,,
45036145,1000,1000,1000,1000,,,,,
45038644,1000,1000,1000,1000,,,,,
45041143,1000,1000,1000,1000,,,,,
45043642,1000,1000,1000,1000,,,,,
45046141,1000,1000,1000,1000,,,,,
45048640,1000,1000,1000,1000,,,,,
45051139,1000,1000,1000,1000,,,,,
45053638,1000,1000,1000,1000,,,,,
45056137,1000,1000,1000,1000,,,,,
45058636,1000,1000,1000,1000,,,,,
45061135,1000,1000,1000,1000,,,,,
45063634,1000,1000,1000,1000,,,,,
45066133,1000,1000,1000,1000,,,,,
45068632,1000,1000,1000,1000,,,,,
45071131,1000,1000,1000,1000,,,,,
45073630,1000,1000,1000,1000,,,,,
45076129,1000,1000,1000,1000,,,,,
45078628,1000,1000,1000,1000,,,,,
45081127,1000,1000,1000,1000,,,,,
45083626,1000,1000,1000,1000,,,,,
45086125,1000,1000,1000,1000,,,,,
45088624,1000,1000,1000,1000,,,,,
45091123,1000,1000,1000,1000,,,,,
45093622,1000,1000,1000,1000,,,,,
45096121,1000,1000,1000,1000,,,,,
45098620,1000,1000,1000,1000,,,,,
45101119,1000,1000,1000,1000,,,,,
45103618,1000,1000,1000,1000,,,,,
45106117,1000,1000,1000,1000,,,,,
45108616,1000,1000,1000,1000,,,,,
45111115,1000,1000,1000,1000,,,,,
45113614,1000,1000,1000,1000,,,,,
45116113,1000,1000,1000,1000,,,,,
45118612,1000,1000,1000,1000,,,,,
45121111,1000,1000,1000,1000,,,,,
45123610,1000,1000,1000,1000,,,,,
45126109,1000,1000,1000,1000,,,,,
45128608,1000,1000,1000,1000,,,,,
45131107,1000,1000,1000,1000,,,,,
45133606,1000,1000,1000,1000,,,,,
45136105,1000,1000,1000,1000,,,,,
45138604,1000,1000,1000,1000,,,,,
45141103,1000,1000,1000,1000,,,,,
45143602,1000,1000,1000,1000,,,,,
45146101,1000,1000,1000,1000,,,,,
45148600,1000,1000,1000,1000,,,,,
45151099,1000,1000,1000,1000,,,,,
45153598,1000,1000,1000,1000,,,,,
45156097,1000,1000,1000,1000,,,,,
45158596,1000,1000,1000,1000,,,,,
45161095,1000,1000,1000,1000,,,,,
45163594,1000,1000,1000,1000,,,,,
45166093,1000,1000,1000,1000,,,,,
45168592,1000,1000,1000,1000,,,,,
45171091,1000,1000,1000,1000,,,,,
45173590,1000,1000,1000,1000,,,,,
45176089,1000,1000,1000,1000,,,,,
45178588,1000,1000,1000,1000,,,,,
45181087,1000,1000,1000,1000,,,,,
45183586,1000,1000,1000,1000,,,,,
45186085,1000,1000,1000,1000,,,,,
45188584,1000,1000,1000,1000,,,,,
45191083,1000,1000,1000,1000,,,,,
45193582,1000,1000,1000,1000,,,,,
45196081,1000,1000,1000,1000,,,,,
45198580,1000,1000,1000,1000,,,,,
45201079,1000,1000,1000,1000,,,,,
45203578,1000,1000,1000,1000,,,,,
45206077,1000,1000,1000,1000,,,,,
45208576,1000,1000,1000,1000,,,,,
45211075,1000,1000,1000,1000,,,,,
45213574,1000,1000,1000,1000,,,,,
45216073,1000,1000,1000,1000,,,,,
45218572,1000,1000,1000,1000,,,,,
45221071,1000,1000,1000,1000,,,,,
45223570,1000,1000,1000,1000,,,,,
45226069,1000,1000,1000,1000,,,,,
45228568,1000,1000,1000,1000,,,,,
45231067,1000,1000,1000,1000,,,,,
45233566,1000,1000,1000,1000,,,,,
45236065,1000,1000,1000,1000,,,,,
45238564,1000,1000,1000,1000,,,,,
45241063,1000,1000,1000,1000,,,,,
45243562,1000,1000,1000,1000,,,,,
45246061,1000,1000,1000,1000,,,,,
45248560,1000,1000,1000,1000,,,,,
45251059,1000,1000,1000,1000,,,,,
45253558,1000,1000,1000,1000,,,,,
45256057,1000,1000,1000,1000,,,,,
45258556,1000,1000,1000,1000,,,,,
45261055,1000,1000,1000,1000,,,,,
45263554,1000,1000,1000,1000,,,,,
45266053,1000,1000,1000,1000,,,,,
45268552,1000,1000,1000,1000,,,,,
45271051,1000,1000,1000,1000,,,,,
45273550,1000,1000,1000,1000,,,,,
45276049,1000,1000,1000,1000,,,,,
45278548,1000,1000,1000,1000,,,,,
45281047,1000,1000,1000,1000,,,,,
45283546,1000,1000,1000,1000,,,,,
45286045,1000,1000,1000,1000,,,,,
45288544,1000,1000,1000,1000,,,,,
45291043,1000,1000,1000,1000,,,,,
45293542,1000,1000,1000,1000,,,,,
45296041,1000,1000,1000,1000,,,,,
45298540,1000,1000,1000,1000,,,,,
45301039,1000,1000,1000,1000,,,,,
45303538,1000,1000,1000,1000,,,,,
45306037,1000,1000,1000,1000,,,,,
45308536,1000,1000,1000,1000,,,,,
45311035,1000,1000,1000,1000,,,,,
45313534,1000,1000,1000,1000,,,,,
45316033,1000,1000,1000,1000,,,,,
45318532,1000,1000,1000,1000,,,,,
45321031,1000,1000,1000,1000,,,,,
45323530,1000,1000,1000,1000,,,,,
45326029,1001,1001,1001,1001,,,,,
45328528,1002,1002,1002,1002,,,,,
45331027,1003,1003,1003,1003,,,,,
45333526,1003,1003,1003,1003,,,,,
45336025,1004,1004,1004,1004,,,,,
45338524,1005,1005,1005,1005,,,,,
45341023,1006,1006,1006,1006,,,,,
45343522,1006,1006,1006,1006,,,,,
45346021,1007,1007,1007,1007,,,,,
45348520,1008,1008,1008,1008,,,,,
45351019,1009,1009,1009,1009,,,,,
45353518,1009,1009,1009,1009,,,,,
45356017,1010,1010,1010,1010,,,,,
45358516,1011,1011,1011,1011,,,,,
45361015,1012,1012,1012,1012,,,,,
45363514,1012,1012,1012,1012,,,,,
45366013,1013,1013,1013,1013,,,,,
45368512,1014,1014,1014,1014,,,,,
45371011,1015,1015,1015,1015,,,,,
45373510,1015,1015,1015,1015,,,,,
45376009,1016,1016,1016,1016,,,,,
45378508,1017,1017,1017,1017,,,,,
45381007,1018,1018,1018,1018,,,,,
45383506,1018,1018,1018,1018,,,,,
45386005,1019,1019,1019,1019,,,,,
45388504,1020,1020,1020,1020,,,,,
45391003,1021,1021,1021,1021,,,,,
45393502,1021,1021,1021,1021,,,,,
45396001,1022,1022,1022,1022,,,,,
45398500,1023,1023,1023,1023,,,,,
45400999,1024,1024,1024,1024,,,,,
45403498,1024,1024,1024,1024,,,,,
45405997,1025,1025,1025,1025,,,,,
45408496,1026,1026,1026,1026,,,,,
45410995,1027,1027,1027,1027,,,,,
45413494,1027,1027,1027,1027,,,,,
45415993,1028,1028,1028,1028,,,,,
45418492,1029,1029,1029,1029,,,,,
45420991,1030,1030,1030,1030,,,,,
45423490,1030,1030,1030,1030,,,,,
45425989,1031,1031,1031,1031,,,,,
45428488,1032,1032,1032,1032,,,,,
45430987,1033,1033,1033,1033,,,,,
45433486,1033,1033,1033,1033,,,,,
45435985,1034,1034,1034,1034,,,,,
45438484,1035,1035,1035,1035,,,,,
45440983,1036,1036,1036,1036,,,,,
45443482,1036,1036,1036,1036,,,,,
45445981,1037,1037,1037,1037,,,,,
45448480,1038,1038,1038,1038,,,,,
45450979,1039,1039,1039,1039,,,,,
45453478,1039,1039,1039,1039,,,,,
45455977,1040,1040,1040,1040,,,,,
45458476,1041,1041,1041,1041,,,,,
45460975,1042,1042,1042,1042,,,,,
45463474,1042,1042,1042,1042,,,,,
45465973,1043,1043,1043,1043,,,,,
45468472,1044,1044,1044,1044,,,,,
45470971,1045,1045,1045,1045,,,,,
45473470,1045,1045,1045,1045,,,,,
45475969,1046,1046,1046,1046,,,,,
45478468,1047,1047,1047,1047,,,,,
45480967,1048,1048,1048,1048,,,,,
45483466,1048,1048,1048,1048,,,,,
45485965,1049,1049,1049,1049,,,,,
45488464,1050,1050,1050,1050,,,,,
45490963,1051,1051,1051,1051,,,,,
45493462,1051,1051,1051,1051,,,,,
45495961,1052,1052,1052,1052,,,,,
45498460,1053,1053,1053,1053,,,,,
45500959,1054,1054,1054,1054,,,,,
45503458,1054,1054,1054,1054,,,,,
45505957,1055,1055,1055,1055,,,,,
45508456,1056,1056,1056,1056,,,,,
45510955,1057,1057,1057,1057,,,,,
45513454,1057,1057,1057,1057,,,,,
45515953,1058,1058,1058,1058,,,,,
45518452,1059,1059,1059,1059,,,,,
45520951,1060,1060,1060,1060,,,,,
45523450,1060,1060,1060,1060,,,,,
45525949,1061,1061,1061,1061,,,,,
45528448,1062,1062,1062,1062,,,,,
45530947,1063,1063,1063,1063,,,,,
45533446,1063,1063,1063,1063,,,,,
45535945,1064,1064,1064,1064,,,,,
45538444,1065,1065,1065,1065,,,,,
45540943,1066,1066,1066,1066,,,,,
45543442,1066,1066,1066,1066,,,,,
45545941,1067,1067,1067,1067,,,,,
45548440,1068,1068,1068,1068,,,,,
45550939,1069,1069,1069,1069,,,,,
45553438,1069,1069,1069,1069,,,,,
45555937,1070,1070,1070,1070,,,,,
45558436,1071,1071,1071,1071,,,,,
45560935,1072,1072,1072,1072,,,,,
45563434,1072,1072,1072,1072,,,,,
45565933,1073,1073,1073,1073,,,,,
45568432,1074,1074,1074,1074,,,,,
45570931,1075,1075,1075,1075,,,,,
45573430,1075,1075,1075,1075,,,,,
45575929,1076,1076,1076,1076,,,,,
45578428,1077,1077,1077,1077,,,,,
45580927,1078,1078,1078,1078,,,,,
45583426,1078,1078,1078,1078,,,,,
45585925,1079,1079,1079,1079,,,,,
45588424,1080,1080,1080,1080,,,,,
45590923,1081,1081,1081,1081,,,,,
45593422,1081,1081,1081,1081,,,,,
45595921,1082,1082,1082,1082,,,,,
45598420,1083,1083,1083,1083,,,,,
45600919,1084,1084,1084,1084,,,,,
45603418,1084,1084,1084,1084,,,,,
45605917,1085,1085,1085,1085,,,,,
45608416,1086,1086,1086,1086,,,,,
45610915,1087,1087,1087,1087,,,,,
45613414,1087,1087,1087,1087,,,,,
45615913,1088,1088,1088,1088,,,,,
45618412,1089,1089,1089,1089,,,,,
45620911,1090,1090,1090,1090,,,,,
45623410,1090,1090,1090,1090,,,,,
45625909,1091,1091,1091,1091,,,,,
45628408,1092,1092,1092,1092,,,,,
45630907,1093,1093,1093,1093,,,,,
45633406,1093,1093,1093,1093,,,,,
45635905,1094,1094,1094,1094,,,,,
45638404,1095,1095,1095,1095,,,,,
45640903,1096,1096,1096,1096,,,,,
45643402,1096,1096,1096,1096,,,,,
45645901,1097,1097,1097,1097,,,,,
45648400,1098,1098,1098,1098,,,,,
45650899,1099,1099,1099,1099,,,,,
45653398,1099,1099,1099,1099,,,,,
45655897,1100,1100,1100,1100,,,,,
45658396,1101,1101,1101,1101,,,,,
45660895,1101,1101,1101,1101,,,,,
45663394,1102,1102,1102,1102,,,,,
45665893,1103,1103,1103,1103,,,,,
45668392,1104,1104,1104,1104,,,,,
45670891,1104,1104,1104,1104,,,,,
45673390,1105,1105,1105,1105,,,,,
45675889,1106,1106,1106,1106,,,,,
45678388,1107,1107,1107,1107,,,,,
45680887,1107,1107,1107,1107,,,,,
45683386,1108,1108,1108,1108,,,,,
45685885,1109,1109,1109,1109,,,,,
45688384,1110,1110,1110,1110,,,,,
45690883,1110,1110,1110,1110,,,,,
45693382,1111,1111,1111,1111,,,,,
45695881,1112,1112,1112,1112,,,,,
45698380,1113,1113,1113,1113,,,,,
45700879,1113,1113,1113,1113,,,,,
45703378,1114,1114,1114,1114,,,,,
45705877,1115,1115,1115,1115,,,,,
45708376,1116,1116,1116,1116,,,,,
45710875,1116,1116,1116,1116,,,,,
45713374,1117,1117,1117,1117,,,,,
45715873,1118,1118,1118,1118,,,,,
45718372,1119,1119,1119,1119,,,,,
45720871,1119,1119,1119,1119,,,,,
45723370,1120,1120,1120,1120,,,,,
45725869,1121,1121,1121,1121,,,,,
45728368,1122,1122,1122,1122,,,,,
45730867,1122,1122,1122,1122,,,,,
45733366,1123,1123,1123,1123,,,,,
45735865,1124,1124,1124,1124,,,,,
45738364,1125,1125,1125,1125,,,,,
45740863,1125,1125,1125,1125,,,,,
45743362,1126,1126,1126,1126,,,,,
45745861,1127,1127,1127,1127,,,,,
45748360,1128,1128,1128,1128,,,,,
45750859,1128,1128,1128,1128,,,,,
45753358,1129,1129,1129,1129,,,,,
45755857,1130,1130,1130,1130,,,,,
45758356,1131,1131,1131,1131,,,,,
45760855,1131,1131,1131,1131,,,,,
45763354,1132,1132,1132,1132,,,,,
45765853,1133,1133,1133,1133,,,,,
45768352,1134,1134,1134,1134,,,,,
45770851,1134,1134,1134,1134,,,,,
45773350,1135,1135,1135,1135,,,,,
45775849,1136,1136,1136,1136,,,,,
45778348,1137,1137,1137,1137,,,,,
45780847,1137,1137,1137,1137,,,,,
45783346,1138,1138,1138,1138,,,,,
45785845,1139,1139,1139,1139,,,,,
45788344,1140,1140,1140,1140,,,,,
45790843,1140,1140,1140,1140,,,,,
45793342,1141,1141,1141,1141,,,,,
45795841,1142,1142,1142,1142,,,,,
45798340,1143,1143,1143,1143,,,,,
45800839,1143,1143,1143,1143,,,,,
45803338,1144,1144,1144,1144,,,,,
45805837,1145,1145,1145,1145,,,,,
45808336,1146,1146,1146,1146,,,,,
45810835,1146,1146,1146,1146,,,,,
45813334,1147,1147,1147,1147,,,,,
45815833,1148,1148,1148,1148,,,,,
45818332,1149,1149,1149,1149,,,,,
45820831,1149,1149,1149,1149,,,,,
45823330,1150,1150,1150,1150,,,,,
45825829,1161,1154,1155,1161,,,,,
45828328,1169,1162,1163,1169,,,,,
45830827,1177,1170,1171,1177,,,,,
45833326,1185,1178,1179,1185,,,,,
45835825,1192,1186,1186,1192,,,,,
45838324,1200,1193,1194,1200,,,,,
45840823,1207,1200,1201,1207,,,,,
45843322,1214,1208,1208,1214,,,,,
45845821,1221,1215,1216,1221,,,,,
45848320,1228,1222,1223,1228,,,,,
45850819,1235,1229,1230,1235,,,,,
45853318,1242,1236,1236,1242,,,,,
45855817,1249,1243,1243,1249,,,,,
45858316,1255,1249,1250,1255,,,,,
45860815,1262,1256,1256,1262,,,,,
45863314,1268,1262,1263,1268,,,,,
45865813,1275,1269,1269,1275,,,,,
45868312,1281,1275,1276,1281,,,,,
45870811,1287,1281,1282,1287,,,,,
45873310,1293,1288,1288,1293,,,,,
45875809,1299,1294,1294,1299,,,,,
45878308,1305,1300,1300,1305,,,,,
45880807,1311,1306,1306,1311,,,,,
45883306,1317,1312,1312,1317,,,,,
45885805,1323,1318,1318,1323,,,,,
45888304,1329,1323,1324,1329,,,,,
45890803,1334,1329,1330,1335,,,,,
45893302,1340,1335,1335,1340,,,,,
45895801,1346,1340,1341,1346,,,,,
45898300,1351,1346,1347,1351,,,,,
45900799,1357,1352,1352,1357,,,,,
45903298,1362,1357,1358,1362,,,,,
45905797,1368,1362,1363,1368,,,,,
45908296,1373,1368,1368,1373,,,,,
45910795,1378,1373,1374,1378,,,,,
45913294,1384,1378,1379,1384,,,,,
45915793,1389,1384,1384,1389,,,,,
45918292,1394,1389,1389,1394,,,,,
45920791,1399,1394,1395,1399,,,,,
45923290,1404,1399,1400,1404,,,,,
45925789,1409,1404,1405,1409,,,,,
45928288,1414,1409,1410,1414,,,,,
45930787,1419,1414,1415,1419,,,,,
45933286,1424,1419,1420,1424,,,,,
45935785,1429,1424,1425,1429,,,,,
45938284,1434,1429,1430,1434,,,,,
45940783,1439,1434,1434,1439,,,,,
45943282,1443,1439,1439,1444,,,,,
45945781,1448,1444,1444,1448,,,,,
45948280,1453,1449,1449,1453,,,,,
45950779,1458,1453,1454,1458,,,,,
45953278,1462,1458,1458,1463,,,,,
45955777,1467,1463,1463,1467,,,,,
45958276,1472,1467,1468,1472,,,,,
45960775,1476,1472,1472,1476,,,,,
45963274,1481,1477,1477,1481,,,,,
45965773,1485,1481,1481,1486,,,,,
45968272,1490,1486,1486,1490,,,,,
45970771,1494,1490,1490,1495,,,,,
45973270,1499,1495,1495,1499,,,,,
45975769,1503,1499,1499,1503,,,,,
45978268,1507,1503,1504,1508,,,,,
45980767,1512,1508,1508,1512,,,,,
45983266,1516,1512,1512,1516,,,,,
45985765,1520,1517,1517,1521,,,,,
45988264,1525,1521,1521,1525,,,,,
45990763,1529,1525,1525,1529,,,,,
45993262,1533,1529,1530,1534,,,,,
45995761,1537,1534,1534,1538,,,,,
45998260,1542,1538,1538,1542,,,,,
46000759,1546,1542,1542,1546,,,,,
46003258,1550,1546,1546,1550,,,,,
46005757,1554,1550,1551,1554,,,,,
46008256,1558,1555,1555,1559,,,,,
46010755,1562,1559,1559,1563,,,,,
46013254,1566,1563,1563,1567,,,,,
46015753,1570,1567,1567,1571,,,,,
46018252,1575,1571,1571,1575,,,,,
46020751,1579,1575,1575,1579,,,,,
46023250,1583,1579,1579,1583,,,,,
46025749,1587,1583,1583,1587,,,,,
46028248,1591,1587,1587,1591,,,,,
46030747,1594,1591,1591,1595,,,,,
46033246,1598,1595,1595,1599,,,,,
46035745,1602,1599,1599,1603,,,,,
46038244,1606,1602,1603,1607,,,,,
46040743,1610,1606,1606,1610,,,,,
46043242,1614,1610,1610,1614,,,,,
46045741,1618,1614,1614,1618,,,,,
46048240,1622,1618,1618,1622,,,,,
46050739,1625,1622,1622,1626,,,,,
46053238,1629,1625,1625,1630,,,,,
46055737,1633,1629,1629,1633,,,,,
46058236,1637,1633,1633,1637,,,,,
46060735,1641,1637,1637,1641,,,,,
46063234,1644,1640,1640,1645,,,,,
46065733,1648,1644,1644,1648,,,,,
46068232,1652,1648,1648,1652,,,,,
46070731,1655,1651,1652,1656,,,,,
46073230,1659,1655,1655,1659,,,,,
46075729,1663,1659,1659,1663,,,,,
46078228,1666,1662,1662,1667,,,,,
46080727,1670,1666,1666,1670,,,,,
46083226,1673,1670,1670,1674,,,,,
46085725,1677,1673,1673,1678,,,,,
46088224,1681,1677,1677,1681,,,,,
46090723,1684,1680,1680,1685,,,,,
46093222,1688,1684,1684,1688,,,,,
46095721,1691,1688,1687,1692,,,,,
46098220,1695,1691,1691,1695,,,,,
46100719,1698,1695,1694,1699,,,,,
46103218,1702,1698,1698,1702,,,,,
46105717,1705,1702,1701,1706,,,,,
46108216,1709,1705,1705,1709,,,,,
46110715,1712,1708,1708,1713,,,,,
46113214,1716,1712,1712,1716,,,,,
46115713,1719,1715,1715,1720,,,,,
46118212,1723,1719,1719,1723,,,,,
46120711,1726,1722,1722,1727,,,,,
46123210,1729,1726,1726,1730,,,,,
46125709,1733,1729,1729,1733,,,,,
46128208,1736,1732,1732,1737,,,,,
46130707,1740,1736,1736,1740,,,,,
46133206,1743,1739,1739,1743,,,,,
46135705,1746,1742,1742,1747,,,,,
46138204,1750,1746,1746,1750,,,,,
46140703,1753,1749,1749,1753,,,,,
46143202,1756,1752,1753,1756,,,,,
46145701,1759,1756,1756,1760,,,,,
46148200,1763,1759,1759,1763,,,,,
46150699,1766,1762,1762,1766,,,,,
46153198,1769,1765,1766,1769,,,,,
46155697,1773,1769,1769,1773,,,,,
46158196,1776,1772,1772,1776,,,,,
46160695,1779,1775,1776,1779,,,,,
46163194,1782,1778,1779,1782,,,,,
46165693,1785,1782,1782,1786,,,,,
46168192,1789,1785,1785,1789,,,,,
46170691,1792,1788,1788,1792,,,,,
46173190,1795,1791,1792,1795,,,,,
46175689,1798,1795,1795,1798,,,,,
46178188,1801,1798,1798,1801,,,,,
46180687,1804,1801,1801,1805,,,,,
46183186,1807,1804,1804,1808,,,,,
46185685,1811,1807,1807,1811,,,,,
46188184,1814,1810,1811,1814,,,,,
46190683,1817,1814,1814,1817,,,,,
46193182,1820,1817,1817,1820,,,,,
46195681,1823,1820,1820,1823,,,,,
46198180,1826,1823,1823,1826,,,,,
46200679,1829,1826,1826,1830,,,,,
46203178,1832,1829,1829,1833,,,,,
46205677,1835,1832,1832,1836,,,,,
46208176,1838,1835,1835,1839,,,,,
46210675,1841,1838,1838,1842,,,,,
46213174,1844,1841,1841,1845,,,,,
46215673,1847,1844,1844,1848,,,,,
46218172,1850,1847,1847,1851,,,,,
46220671,1853,1850,1850,1854,,,,,
46223170,1856,1853,1853,1857,,,,,
46225669,1859,1856,1856,1860,,,,,
46228168,1862,1859,1859,1863,,,,,
46230667,1865,1862,1862,1866,,,,,
46233166,1868,1865,1865,1869,,,,,
46235665,1871,1868,1868,1872,,,,,
46238164,1874,1871,1871,1875,,,,,
46240663,1877,1874,1874,1878,,,,,
46243162,1880,1877,1877,1881,,,,,
46245661,1883,1880,1880,1884,,,,,
46248160,1886,1883,1883,1887,,,,,
46250659,1889,1886,1886,1889,,,,,
46253158,1890,1887,1887,1891,,,,,
46255657,1889,1886,1886,1889,,,,,
46258156,1888,1885,1885,1888,,,,,
46260655,1887,1884,1884,1887,,,,,
46263154,1886,1883,1883,1886,,,,,
46266486,1885,1882,1882,1885,,,,,
46268985,1884,1881,1881,1885,,,,,
46271484,1884,1880,1880,1884,,,,,
46273983,1883,1879,1880,1883,,,,,
46276482,1882,1879,1879,1882,,,,,
46278981,1882,1878,1878,1882,,,,,
46281480,1881,1878,1878,1881,,,,,
46283979,1881,1877,1877,1881,,,,,
46286478,1880,1877,1877,1880,,,,,
46288977,1880,1876,1877,1880,,,,,
46291476,1880,1876,1876,1880,,,,,
46293975,1880,1876,1876,1880,,,,,
46296474,1880,1876,1876,1880,,,,,
46298973,1880,1876,1876,1880,,,,,
46301472,1880,1876,1876,1880,,,,,
46303971,1880,1876,1876,1880,,,,,
46306470,1880,1876,1877,1880,,,,,
46308969,1880,1877,1877,1880,,,,,
46311468,1881,1877,1877,1881,,,,,
46313967,1881,1877,1878,1881,,,,,
46316466,1881,1878,1878,1882,,,,,
46318965,1882,1878,1878,1882,,,,,
46321464,1882,1879,1879,1882,,,,,
46323963,1883,1879,1879,1883,,,,,
46326462,1883,1880,1880,1883,,,,,
46328961,1883,1880,1880,1883,,,,,
46331460,1883,1880,1880,1884,,,,,
46333959,1884,1880,1881,1884,,,,,
46336458,1884,1880,1881,1884,,,,,
46338957,1883,1880,1881,1883,,,,,
46341456,1883,1880,1880,1883,,,,,
46343955,1883,1880,1880,1883,,,,,
46346454,1882,1879,1880,1882,,,,,
46348953,1881,1878,1879,1881,,,,,
46351452,1880,1878,1878,1880,,,,,
46353951,1879,1877,1877,1879,,,,,
46356450,1878,1875,1876,1878,,,,,
46358949,1876,1874,1874,1876,,,,,
46361448,1875,1872,1873,1875,,,,,
46363947,1873,1871,1871,1873,,,,,
46366446,1871,1869,1869,1871,,,,,
46368945,1869,1867,1867,1869,,,,,
46371444,1867,1865,1865,1867,,,,,
46373943,1865,1862,1863,1865,,,,,
46376442,1862,1860,1860,1862,,,,,
46378941,1860,1858,1858,1860,,,,,
46381440,1857,1855,1855,1857,,,,,
46383939,1854,1852,1853,1854,,,,,
46386438,1852,1850,1850,1852,,,,,
46388937,1849,1847,1847,1849,,,,,
46391436,1846,1844,1844,1846,,,,,
46393935,1843,1841,1841,1843,,,,,
46396434,1840,1838,1838,1840,,,,,
46398933,1837,1835,1835,1837,,,,,
46401432,1834,1832,1832,1833,,,,,
46403931,1830,1829,1829,1830,,,,,
46406430,1827,1825,1826,1827,,,,,
46408929,1824,1822,1823,1824,,,,,
46411428,1821,1819,1819,1821,,,,,
46413927,1817,1816,1816,1817,,,,,
46416426,1814,1812,1813,1814,,,,,
46418925,1811,1809,1810,1811,,,,,
46421424,1807,1806,1806,1807,,,,,
46423923,1804,1802,1803,1804,,,,,
46426422,1800,1799,1800,1800,,,,,
46428921,1797,1796,1796,1797,,,,,
46431420,1794,1792,1793,1794,,,,,
46433919,1790,1789,1789,1790,,,,,
46436418,1787,1785,1786,1787,,,,,
46438917,1783,1782,1782,1783,,,,,
46441416,1780,1779,1779,1780,,,,,
46443915,1776,1775,1776,1776,,,,,
46446414,1773,1772,1772,1773,,,,,
46448913,1769,1769,1769,1770,,,,,
46451412,1766,1765,1765,1766,,,,,
46453911,1763,1762,1762,1763,,,,,
46456410,1759,1759,1759,1760,,,,,
46458909,1756,1756,1756,1756,,,,,
46461408,1753,1752,1752,1753,,,,,
46463907,1750,1749,1749,1750,,,,,
46466406,1746,1746,1746,1747,,,,,
46468905,1743,1743,1743,1744,,,,,
46471404,1740,1740,1740,1741,,,,,
46473903,1737,1737,1737,1737,,,,,
46476402,1734,1734,1734,1734,,,,,
46478901,1731,1731,1731,1731,,,,,
46481400,1728,1728,1728,1728,,,,,
46483899,1725,1725,1725,1725,,,,,
46486398,1722,1722,1722,1722,,,,,
46488897,1719,1719,1719,1719,,,,,
46491396,1716,1716,1716,1716,,,,,
46493895,1713,1713,1713,1713,,,,,
46496394,1710,1710,1710,1710,,,,,
46498893,1707,1707,1707,1707,,,,,
46501392,1704,1704,1704,1704,,,,,
46503891,1701,1701,1701,1701,,,,,
46506390,1698,1698,1698,1699,,,,,
46508889,1696,1696,1696,1696,,,,,
46511388,1693,1693,1693,1693,,,,,
46513887,1690,1690,1690,1691,,,,,
46516386,1688,1688,1688,1688,,,,,
46518885,1685,1685,1685,1685,,,,,
46521384,1682,1683,1683,1683,,,,,
46523883,1680,1680,1680,1680,,,,,
46526382,1677,1678,1678,1678,,,,,
46528881,1675,1676,1676,1676,,,,,
46531380,1673,1673,1673,1673,,,,,
46533879,1671,1671,1671,1671,,,,,
46536378,1668,1669,1669,1669,,,,,
46538877,1666,1667,1667,1667,,,,,
46541376,1664,1665,1665,1665,,,,,
46543875,1662,1663,1663,1663,,,,,
46546374,1660,1661,1661,1661,,,,,
46548873,1658,1659,1659,1659,,,,,
46551372,1656,1657,1657,1657,,,,,
46553871,1655,1656,1655,1655,,,,,
