timestamp,TimeUS,C1,C2,C3,C4,C5,C6,C7,C8,C9,C10,C11,C12,C13,C14
1684169728.20000005,45628408,1000,1000,1000,1000,0,0,0,0,0,0,0,0,0,0
1684169728.29996014,45728368,1000,1000,1000,1000,0,0,0,0,0,0,0,0,0,0
1684169728.39991999,45828328,1000,1000,1000,1000,0,0,0,0,0,0,0,0,0,0
1684169728.49988008,45928288,1000,1000,1000,1000,0,0,0,0,0,0,0,0,0,0
1684169728.59984016,46028248,1000,1000,1000,1000,0,0,0,0,0,0,0,0,0,0
1684169728.69980001,46128208,1000,1000,1000,1000,0,0,0,0,0,0,0,0,0,0
1684169728.79976010,46228168,1000,1000,1000,1000,0,0,0,0,0,0,0,0,0,0
1684169728.90055299,46328961,1000,1000,1000,1000,0,0,0,0,0,0,0,0,0,0
1684169729.00051308,46428921,1000,1000,1000,1000,0,0,0,0,0,0,0,0,0,0
1684169729.10047317,46528881,1000,1000,1000,1000,0,0,0,0,0,0,0,0,0,0
1684169729.20043302,46628841,1000,1000,1000,1000,0,0,0,0,0,0,0,0,0,0
1684169729.30039310,46728801,1000,1000,1000,1000,0,0,0,0,0,0,0,0,0,0
1684169729.40035319,46828761,1000,1000,1000,1000,0,0,0,0,0,0,0,0,0,0
1684169729.50031304,46928721,1000,1000,1000,1000,0,0,0,0,0,0,0,0,0,0
1684169729.60027313,47028681,1000,1000,1000,1000,0,0,0,0,0,0,0,0,0,0
1684169729.70023298,47128641,1000,1000,1000,1000,0,0,0,0,0,0,0,0,0,0
1684169729.80019307,47228601,1000,1000,1000,1000,0,0,0,0,0,0,0,0,0,0
1684169729.90015316,47328561,1000,1000,1000,1000,0,0,0,0,0,0,0,0,0,0
1684169730.00011301,47428521,1000,1000,1000,1000,0,0,0,0,0,0,0,0,0,0
1684169730.10007310,47528481,1000,1000,1000,1000,0,0,0,0,0,0,0,0,0,0
1684169730.20003319,47628441,1023,1023,1023,1023,0,0,0,0,0,0,0,0,0,0
1684169730.29999304,47728401,1053,1053,1053,1053,0,0,0,0,0,0,0,0,0,0
1684169730.39995313,47828361,1083,1083,1083,1083,0,0,0,0,0,0,0,0,0,0
1684169730.49991298,47928321,1113,1113,1113,1113,0,0,0,0,0,0,0,0,0,0
1684169730.59987307,48028281,1143,1143,1143,1143,0,0,0,0,0,0,0,0,0,0
1684169730.69983315,48128241,1351,1346,1347,1351,0,0,0,0,0,0,0,0,0,0
1684169730.79979300,48228201,1542,1538,1538,1542,0,0,0,0,0,0,0,0,0,0
1684169730.89975309,48328161,1695,1691,1691,1695,0,0,0,0,0,0,0,0,0,0
1684169731.00054598,48428954,1826,1823,1823,1826,0,0,0,0,0,0,0,0,0,0
1684169731.10050607,48528914,1867,1863,1863,1867,0,0,0,0,0,0,0,0,0,0
1684169731.20046616,48628874,1834,1833,1833,1835,0,0,0,0,0,0,0,0,0,0
1684169731.30042601,48728834,1708,1708,1708,1708,0,0,0,0,0,0,0,0,0,0
1684169731.40038610,48828794,1636,1633,1633,1637,0,0,0,0,0,0,0,0,0,0
1684169731.50034618,48928754,1619,1620,1616,1624,0,0,0,0,0,0,0,0,0,0
1684169731.60030603,49028714,1629,1631,1627,1634,0,0,0,0,0,0,0,0,0,0
1684169731.70026612,49128674,1638,1640,1638,1640,0,0,0,0,0,0,0,0,0,0
1684169731.80022621,49228634,1638,1638,1639,1637,0,0,0,0,0,0,0,0,0,0
1684169731.90018606,49328594,1633,1632,1635,1630,0,0,0,0,0,0,0,0,0,0
1684169732.00014615,49428554,1626,1625,1629,1622,0,0,0,0,0,0,0,0,0,0
1684169732.10010600,49528514,1623,1622,1625,1620,0,0,0,0,0,0,0,0,0,0
1684169732.20006609,49628474,1623,1622,1624,1621,0,0,0,0,0,0,0,0,0,0
1684169732.30002618,49728434,1622,1623,1622,1622,0,0,0,0,0,0,0,0,0,0
1684169732.39998603,49828394,1595,1596,1600,1591,0,0,0,0,0,0,0,0,0,0
1684169732.49994612,49928354,1579,1580,1586,1574,0,0,0,0,0,0,0,0,0,0
1684169732.59990621,50028314,1568,1568,1570,1567,0,0,0,0,0,0,0,0,0,0
1684169732.69986606,50128274,1558,1558,1556,1561,0,0,0,0,0,0,0,0,0,0
1684169732.79982615,50228234,1550,1550,1545,1555,0,0,0,0,0,0,0,0,0,0
1684169732.89978600,50328194,1543,1542,1534,1551,0,0,0,0,0,0,0,0,0,0
1684169732.99974608,50428154,1537,1536,1530,1543,0,0,0,0,0,0,0,0,0,0
1684169733.10053921,50528947,1532,1531,1528,1535,0,0,0,0,0,0,0,0,0,0
1684169733.20049906,50628907,1527,1527,1527,1528,0,0,0,0,0,0,0,0,0,0
1684169733.30045915,50728867,1527,1527,1529,1526,0,0,0,0,0,0,0,0,0,0
1684169733.40041900,50828827,1528,1528,1531,1526,0,0,0,0,0,0,0,0,0,0
1684169733.50037909,50928787,1531,1532,1534,1529,0,0,0,0,0,0,0,0,0,0
1684169733.60033917,51028747,1535,1535,1537,1533,0,0,0,0,0,0,0,0,0,0
1684169733.70029902,51128707,1539,1538,1540,1537,0,0,0,0,0,0,0,0,0,0
1684169733.80025911,51228667,1542,1542,1543,1541,0,0,0,0,0,0,0,0,0,0
1684169733.90021920,51328627,1545,1545,1545,1545,0,0,0,0,0,0,0,0,0,0
1684169734.00017905,51428587,1549,1549,1548,1549,0,0,0,0,0,0,0,0,0,0
1684169734.10013914,51528547,1551,1551,1551,1551,0,0,0,0,0,0,0,0,0,0
1684169734.20009899,51628507,1554,1554,1553,1555,0,0,0,0,0,0,0,0,0,0
1684169734.30005908,51728467,1554,1554,1557,1560,0,0,0,0,0,0,0,0,0,0
1684169734.40001917,51828427,1553,1553,1562,1563,0,0,0,0,0,0,0,0,0,0
1684169734.49997902,51928387,1554,1554,1563,1563,0,0,0,0,0,0,0,0,0,0
1684169734.59993911,52028347,1558,1558,1564,1564,0,0,0,0,0,0,0,0,0,0
1684169734.69989920,52128307,1562,1562,1565,1564,0,0,0,0,0,0,0,0,0,0
1684169734.79985905,52228267,1564,1565,1564,1564,0,0,0,0,0,0,0,0,0,0
1684169734.89981914,52328227,1567,1567,1565,1564,0,0,0,0,0,0,0,0,0,0
1684169734.99977899,52428187,1569,1569,1565,1564,0,0,0,0,0,0,0,0,0,0
1684169735.10057211,52528980,1571,1571,1566,1565,0,0,0,0,0,0,0,0,0,0
1684169735.20053220,52628940,1573,1573,1567,1567,0,0,0,0,0,0,0,0,0,0
1684169735.30049205,52728900,1574,1574,1569,1569,0,0,0,0,0,0,0,0,0,0
1684169735.40045214,52828860,1573,1574,1569,1570,0,0,0,0,0,0,0,0,0,0
1684169735.50041199,52928820,1573,1573,1570,1570,0,0,0,0,0,0,0,0,0,0
1684169735.60037208,53028780,1573,1574,1571,1572,0,0,0,0,0,0,0,0,0,0
1684169735.70033216,53128740,1574,1574,1574,1573,0,0,0,0,0,0,0,0,0,0
1684169735.80029202,53228700,1574,1574,1575,1573,0,0,0,0,0,0,0,0,0,0
1684169735.90025210,53328660,1574,1574,1576,1574,0,0,0,0,0,0,0,0,0,0
1684169736.00021219,53428620,1574,1574,1576,1575,0,0,0,0,0,0,0,0,0,0
1684169736.10017204,53528580,1574,1574,1576,1576,0,0,0,0,0,0,0,0,0,0
1684169736.20013213,53628540,1573,1574,1575,1575,0,0,0,0,0,0,0,0,0,0
1684169736.30009198,53728500,1574,1574,1575,1576,0,0,0,0,0,0,0,0,0,0
1684169736.40005207,53828460,1574,1574,1576,1576,0,0,0,0,0,0,0,0,0,0
1684169736.50001216,53928420,1575,1574,1575,1576,0,0,0,0,0,0,0,0,0,0
1684169736.59997201,54028380,1575,1576,1576,1576,0,0,0,0,0,0,0,0,0,0
1684169736.69993210,54128340,1577,1576,1577,1577,0,0,0,0,0,0,0,0,0,0
1684169736.79989219,54228300,1577,1577,1577,1577,0,0,0,0,0,0,0,0,0,0
1684169736.89985204,54328260,1578,1578,1577,1577,0,0,0,0,0,0,0,0,0,0
1684169736.99981213,54428220,1577,1578,1577,1577,0,0,0,0,0,0,0,0,0,0
1684169737.09977198,54528180,1578,1578,1577,1577,0,0,0,0,0,0,0,0,0,0
1684169737.20056510,54628973,1578,1578,1577,1577,0,0,0,0,0,0,0,0,0,0
1684169737.30052519,54728933,1579,1578,1578,1578,0,0,0,0,0,0,0,0,0,0
1684169737.40048504,54828893,1578,1578,1578,1578,0,0,0,0,0,0,0,0,0,0
1684169737.50044513,54928853,1578,1578,1578,1578,0,0,0,0,0,0,0,0,0,0
1684169737.60040498,55028813,1579,1579,1579,1578,0,0,0,0,0,0,0,0,0,0
1684169737.70036507,55128773,1579,1579,1579,1579,0,0,0,0,0,0,0,0,0,0
1684169737.80032516,55228733,1579,1579,1579,1579,0,0,0,0,0,0,0,0,0,0
1684169737.90028501,55328693,1578,1578,1579,1578,0,0,0,0,0,0,0,0,0,0
1684169738.00024509,55428653,1578,1579,1579,1579,0,0,0,0,0,0,0,0,0,0
1684169738.10020518,55528613,1578,1578,1578,1579,0,0,0,0,0,0,0,0,0,0
1684169738.20016503,55628573,1578,1578,1578,1579,0,0,0,0,0,0,0,0,0,0
1684169738.30012512,55728533,1579,1579,1579,1579,0,0,0,0,0,0,0,0,0,0
1684169738.40008521,55828493,1578,1579,1579,1579,0,0,0,0,0,0,0,0,0,0
1684169738.50004506,55928453,1579,1579,1579,1579,0,0,0,0,0,0,0,0,0,0
1684169738.60000515,56028413,1580,1580,1580,1580,0,0,0,0,0,0,0,0,0,0
1684169738.69996500,56128373,1580,1580,1580,1579,0,0,0,0,0,0,0,0,0,0
1684169738.79992509,56228333,1580,1580,1580,1580,0,0,0,0,0,0,0,0,0,0
1684169738.89988518,56328293,1580,1579,1580,1580,0,0,0,0,0,0,0,0,0,0
1684169738.99984503,56428253,1580,1579,1579,1579,0,0,0,0,0,0,0,0,0,0
1684169739.09980512,56528213,1580,1580,1580,1580,0,0,0,0,0,0,0,0,0,0
1684169739.19976521,56628173,1579,1580,1579,1580,0,0,0,0,0,0,0,0,0,0
1684169739.30055809,56728966,1580,1579,1580,1580,0,0,0,0,0,0,0,0,0,0
1684169739.40051818,56828926,1580,1580,1580,1580,0,0,0,0,0,0,0,0,0,0
1684169739.50047803,56928886,1580,1580,1580,1580,0,0,0,0,0,0,0,0,0,0
1684169739.60043812,57028846,1582,1581,1581,1581,0,0,0,0,0,0,0,0,0,0
1684169739.70039821,57128806,1581,1581,1581,1582,0,0,0,0,0,0,0,0,0,0
1684169739.80035806,57228766,1581,1582,1581,1581,0,0,0,0,0,0,0,0,0,0
1684169739.90031815,57328726,1581,1581,1581,1581,0,0,0,0,0,0,0,0,0,0
1684169740.00027800,57428686,1580,1581,1580,1580,0,0,0,0,0,0,0,0,0,0
1684169740.10023808,57528646,1582,1581,1581,1581,0,0,0,0,0,0,0,0,0,0
1684169740.20019817,57628606,1581,1581,1581,1581,0,0,0,0,0,0,0,0,0,0
1684169740.30015802,57728566,1582,1582,1582,1582,0,0,0,0,0,0,0,0,0,0
1684169740.40011811,57828526,1581,1581,1582,1582,0,0,0,0,0,0,0,0,0,0
1684169740.50007820,57928486,1581,1581,1584,1577,0,0,0,0,0,0,0,0,0,0
1684169740.60003805,58028446,1580,1582,1588,1573,0,0,0,0,0,0,0,0,0,0
1684169740.69999814,58128406,1580,1583,1582,1574,0,0,0,0,0,0,0,0,0,0
1684169740.79995799,58228366,1578,1580,1573,1573,0,0,0,0,0,0,0,0,0,0
1684169740.89991808,58328326,1576,1579,1564,1570,0,0,0,0,0,0,0,0,0,0
1684169740.99987817,58428286,1577,1579,1559,1566,0,0,0,0,0,0,0,0,0,0
1684169741.09983802,58528246,1578,1578,1556,1561,0,0,0,0,0,0,0,0,0,0
1684169741.19979811,58628206,1579,1578,1556,1558,0,0,0,0,0,0,0,0,0,0
1684169741.29975820,58728166,1579,1577,1555,1555,0,0,0,0,0,0,0,0,0,0
1684169741.40055108,58828959,1579,1578,1556,1554,0,0,0,0,0,0,0,0,0,0
1684169741.50051117,58928919,1577,1577,1556,1554,0,0,0,0,0,0,0,0,0,0
1684169741.60047102,59028879,1576,1577,1556,1554,0,0,0,0,0,0,0,0,0,0
1684169741.70043111,59128839,1576,1577,1556,1555,0,0,0,0,0,0,0,0,0,0
1684169741.80039120,59228799,1575,1577,1555,1554,0,0,0,0,0,0,0,0,0,0
1684169741.90035105,59328759,1575,1576,1553,1553,0,0,0,0,0,0,0,0,0,0
1684169742.00031114,59428719,1576,1577,1551,1551,0,0,0,0,0,0,0,0,0,0
1684169742.10027099,59528679,1576,1578,1548,1549,0,0,0,0,0,0,0,0,0,0
1684169742.20023108,59628639,1578,1580,1546,1546,0,0,0,0,0,0,0,0,0,0
1684169742.30019116,59728599,1581,1582,1543,1544,0,0,0,0,0,0,0,0,0,0
1684169742.40015101,59828559,1585,1586,1542,1541,0,0,0,0,0,0,0,0,0,0
1684169742.50011110,59928519,1588,1588,1539,1538,0,0,0,0,0,0,0,0,0,0
1684169742.60007119,60028479,1590,1591,1536,1535,0,0,0,0,0,0,0,0,0,0
1684169742.70003104,60128439,1593,1593,1534,1534,0,0,0,0,0,0,0,0,0,0
1684169742.79999113,60228399,1594,1594,1533,1534,0,0,0,0,0,0,0,0,0,0
1684169742.89995098,60328359,1595,1595,1535,1537,0,0,0,0,0,0,0,0,0,0
1684169742.99991107,60428319,1593,1594,1537,1539,0,0,0,0,0,0,0,0,0,0
1684169743.09987116,60528279,1590,1590,1540,1543,0,0,0,0,0,0,0,0,0,0
1684169743.19983101,60628239,1586,1585,1546,1550,0,0,0,0,0,0,0,0,0,0
1684169743.29979110,60728199,1580,1577,1555,1558,0,0,0,0,0,0,0,0,0,0
1684169743.39975119,60828159,1571,1567,1566,1568,0,0,0,0,0,0,0,0,0,0
1684169743.50054407,60928952,1561,1556,1578,1579,0,0,0,0,0,0,0,0,0,0
1684169743.60050416,61028912,1550,1546,1591,1591,0,0,0,0,0,0,0,0,0,0
1684169743.70046401,61128872,1540,1538,1602,1602,0,0,0,0,0,0,0,0,0,0
1684169743.80042410,61228832,1533,1532,1610,1609,0,0,0,0,0,0,0,0,0,0
1684169743.90038419,61328792,1529,1530,1615,1614,0,0,0,0,0,0,0,0,0,0
1684169744.00034404,61428752,1528,1530,1614,1614,0,0,0,0,0,0,0,0,0,0
1684169744.10030413,61528712,1531,1534,1611,1611,0,0,0,0,0,0,0,0,0,0
1684169744.20026398,61628672,1539,1542,1608,1608,0,0,0,0,0,0,0,0,0,0
1684169744.30022407,61728632,1546,1548,1600,1600,0,0,0,0,0,0,0,0,0,0
1684169744.40018415,61828592,1556,1556,1593,1593,0,0,0,0,0,0,0,0,0,0
1684169744.50014400,61928552,1565,1565,1586,1585,0,0,0,0,0,0,0,0,0,0
1684169744.60010409,62028512,1573,1572,1579,1578,0,0,0,0,0,0,0,0,0,0
1684169744.70006418,62128472,1580,1579,1573,1573,0,0,0,0,0,0,0,0,0,0
1684169744.80002403,62228432,1584,1582,1568,1568,0,0,0,0,0,0,0,0,0,0
1684169744.89998412,62328392,1586,1585,1566,1566,0,0,0,0,0,0,0,0,0,0
1684169744.99994421,62428352,1588,1587,1566,1566,0,0,0,0,0,0,0,0,0,0
1684169745.09990406,62528312,1588,1587,1567,1567,0,0,0,0,0,0,0,0,0,0
1684169745.19986415,62628272,1585,1584,1568,1569,0,0,0,0,0,0,0,0,0,0
1684169745.29982400,62728232,1583,1583,1572,1572,0,0,0,0,0,0,0,0,0,0
1684169745.39978409,62828192,1580,1580,1575,1575,0,0,0,0,0,0,0,0,0,0
1684169745.50057721,62928985,1577,1577,1578,1577,0,0,0,0,0,0,0,0,0,0
1684169745.60053706,63028945,1575,1575,1580,1580,0,0,0,0,0,0,0,0,0,0
1684169745.70049715,63128905,1650,1649,1560,1558,0,0,0,0,0,0,0,0,0,0
1684169745.80045700,63228865,1621,1620,1561,1559,0,0,0,0,0,0,0,0,0,0
1684169745.90041709,63328825,1595,1593,1567,1568,0,0,0,0,0,0,0,0,0,0
1684169746.00037718,63428785,1573,1572,1577,1579,0,0,0,0,0,0,0,0,0,0
1684169746.10033703,63528745,1556,1556,1586,1588,0,0,0,0,0,0,0,0,0,0
1684169746.20029712,63628705,1547,1549,1592,1592,0,0,0,0,0,0,0,0,0,0
1684169746.30025721,63728665,1543,1546,1593,1592,0,0,0,0,0,0,0,0,0,0
1684169746.40021706,63828625,1546,1549,1594,1593,0,0,0,0,0,0,0,0,0,0
1684169746.50017715,63928585,1551,1553,1592,1592,0,0,0,0,0,0,0,0,0,0
1684169746.60013700,64028545,1556,1557,1590,1590,0,0,0,0,0,0,0,0,0,0
1684169746.70009708,64128505,1560,1562,1586,1586,0,0,0,0,0,0,0,0,0,0
1684169746.80005717,64228465,1566,1567,1584,1584,0,0,0,0,0,0,0,0,0,0
1684169746.90001702,64328425,1572,1571,1581,1582,0,0,0,0,0,0,0,0,0,0
1684169746.99997711,64428385,1576,1575,1579,1579,0,0,0,0,0,0,0,0,0,0
1684169747.09993720,64528345,1579,1578,1577,1576,0,0,0,0,0,0,0,0,0,0
1684169747.19989705,64628305,1582,1582,1576,1575,0,0,0,0,0,0,0,0,0,0
1684169747.29985714,64728265,1585,1584,1575,1574,0,0,0,0,0,0,0,0,0,0
1684169747.39981699,64828225,1587,1586,1575,1575,0,0,0,0,0,0,0,0,0,0
1684169747.49977708,64928185,1587,1586,1574,1574,0,0,0,0,0,0,0,0,0,0
1684169747.60057020,65028978,1587,1586,1575,1574,0,0,0,0,0,0,0,0,0,0
1684169747.70053005,65128938,1586,1586,1575,1575,0,0,0,0,0,0,0,0,0,0
1684169747.80049014,65228898,1585,1585,1576,1577,0,0,0,0,0,0,0,0,0,0
1684169747.90044999,65328858,1583,1583,1577,1578,0,0,0,0,0,0,0,0,0,0
1684169748.00041008,65428818,1583,1582,1580,1579,0,0,0,0,0,0,0,0,0,0
1684169748.10037017,65528778,1581,1581,1581,1581,0,0,0,0,0,0,0,0,0,0
1684169748.20033002,65628738,1579,1580,1581,1581,0,0,0,0,0,0,0,0,0,0
1684169748.30029011,65728698,1578,1579,1582,1583,0,0,0,0,0,0,0,0,0,0
1684169748.40025020,65828658,1578,1578,1583,1582,0,0,0,0,0,0,0,0,0,0
1684169748.50021005,65928618,1578,1578,1583,1583,0,0,0,0,0,0,0,0,0,0
1684169748.60017014,66028578,1577,1582,1589,1575,0,0,0,0,0,0,0,0,0,0
1684169748.70012999,66128538,1577,1583,1584,1573,0,0,0,0,0,0,0,0,0,0
1684169748.80009007,66228498,1577,1581,1575,1572,0,0,0,0,0,0,0,0,0,0
1684169748.90005016,66328458,1578,1580,1565,1570,0,0,0,0,0,0,0,0,0,0
1684169749.00001001,66428418,1580,1580,1558,1566,0,0,0,0,0,0,0,0,0,0
1684169749.09997010,66528378,1581,1580,1553,1560,0,0,0,0,0,0,0,0,0,0
1684169749.19993019,66628338,1583,1581,1551,1555,0,0,0,0,0,0,0,0,0,0
1684169749.29989004,66728298,1584,1581,1552,1551,0,0,0,0,0,0,0,0,0,0
1684169749.39985013,66828258,1584,1582,1552,1550,0,0,0,0,0,0,0,0,0,0
1684169749.49980998,66928218,1582,1582,1553,1550,0,0,0,0,0,0,0,0,0,0
1684169749.59977007,67028178,1581,1582,1554,1551,0,0,0,0,0,0,0,0,0,0
1684169749.70056319,67128971,1579,1581,1554,1553,0,0,0,0,0,0,0,0,0,0
1684169749.80052304,67228931,1578,1580,1554,1553,0,0,0,0,0,0,0,0,0,0
1684169749.90048313,67328891,1577,1579,1552,1553,0,0,0,0,0,0,0,0,0,0
1684169750.00044298,67428851,1578,1579,1551,1553,0,0,0,0,0,0,0,0,0,0
1684169750.10040307,67528811,1579,1580,1551,1551,0,0,0,0,0,0,0,0,0,0
1684169750.20036316,67628771,1581,1582,1550,1549,0,0,0,0,0,0,0,0,0,0
1684169750.30032301,67728731,1585,1585,1549,1549,0,0,0,0,0,0,0,0,0,0
1684169750.40028310,67828691,1585,1587,1546,1546,0,0,0,0,0,0,0,0,0,0
1684169750.50024319,67928651,1588,1590,1542,1543,0,0,0,0,0,0,0,0,0,0
1684169750.60020304,68028611,1592,1593,1540,1541,0,0,0,0,0,0,0,0,0,0
1684169750.70016313,68128571,1595,1594,1539,1540,0,0,0,0,0,0,0,0,0,0
1684169750.80012298,68228531,1594,1593,1539,1541,0,0,0,0,0,0,0,0,0,0
1684169750.90008307,68328491,1594,1591,1544,1546,0,0,0,0,0,0,0,0,0,0
1684169751.00004315,68428451,1589,1587,1550,1552,0,0,0,0,0,0,0,0,0,0
1684169751.10000300,68528411,1583,1579,1559,1561,0,0,0,0,0,0,0,0,0,0
1684169751.19996309,68628371,1573,1570,1569,1570,0,0,0,0,0,0,0,0,0,0
1684169751.29992318,68728331,1564,1561,1581,1581,0,0,0,0,0,0,0,0,0,0
1684169751.39988303,68828291,1555,1553,1592,1592,0,0,0,0,0,0,0,0,0,0
1684169751.49984312,68928251,1548,1547,1600,1600,0,0,0,0,0,0,0,0,0,0
1684169751.59980321,69028211,1543,1544,1605,1604,0,0,0,0,0,0,0,0,0,0
1684169751.69976306,69128171,1542,1544,1607,1607,0,0,0,0,0,0,0,0,0,0
1684169751.80055618,69228964,1545,1546,1608,1608,0,0,0,0,0,0,0,0,0,0
1684169751.90051603,69328924,1547,1548,1606,1605,0,0,0,0,0,0,0,0,0,0
1684169752.00047612,69428884,1550,1552,1603,1602,0,0,0,0,0,0,0,0,0,0
1684169752.10043621,69528844,1555,1556,1599,1598,0,0,0,0,0,0,0,0,0,0
1684169752.20039606,69628804,1560,1561,1594,1594,0,0,0,0,0,0,0,0,0,0
1684169752.30035615,69728764,1564,1564,1589,1589,0,0,0,0,0,0,0,0,0,0
1684169752.40031600,69828724,1570,1570,1585,1585,0,0,0,0,0,0,0,0,0,0
1684169752.50027609,69928684,1575,1574,1581,1581,0,0,0,0,0,0,0,0,0,0
1684169752.60023618,70028644,1579,1579,1577,1577,0,0,0,0,0,0,0,0,0,0
1684169752.70019603,70128604,1582,1581,1574,1574,0,0,0,0,0,0,0,0,0,0
1684169752.80015612,70228564,1583,1582,1571,1571,0,0,0,0,0,0,0,0,0,0
1684169752.90011621,70328524,1585,1584,1570,1571,0,0,0,0,0,0,0,0,0,0
1684169753.00007606,70428484,1584,1583,1570,1571,0,0,0,0,0,0,0,0,0,0
1684169753.10003614,70528444,1584,1583,1573,1573,0,0,0,0,0,0,0,0,0,0
1684169753.19999599,70628404,1582,1582,1575,1575,0,0,0,0,0,0,0,0,0,0
1684169753.29995608,70728364,1579,1579,1576,1576,0,0,0,0,0,0,0,0,0,0
1684169753.39991617,70828324,1578,1578,1580,1579,0,0,0,0,0,0,0,0,0,0
1684169753.49987602,70928284,1576,1577,1581,1581,0,0,0,0,0,0,0,0,0,0
1684169753.59983611,71028244,1574,1574,1581,1582,0,0,0,0,0,0,0,0,0,0
1684169753.69979620,71128204,1573,1574,1582,1583,0,0,0,0,0,0,0,0,0,0
1684169753.79975605,71228164,1574,1574,1583,1583,0,0,0,0,0,0,0,0,0,0
1684169753.90054917,71328957,1574,1575,1583,1583,0,0,0,0,0,0,0,0,0,0
1684169754.00050902,71428917,1576,1576,1583,1583,0,0,0,0,0,0,0,0,0,0
1684169754.10046911,71528877,1577,1578,1582,1582,0,0,0,0,0,0,0,0,0,0
1684169754.20042920,71628837,1578,1578,1581,1580,0,0,0,0,0,0,0,0,0,0
1684169754.30038905,71728797,1579,1579,1580,1580,0,0,0,0,0,0,0,0,0,0
1684169754.40034914,71828757,1580,1580,1579,1579,0,0,0,0,0,0,0,0,0,0
1684169754.50030899,71928717,1580,1580,1578,1579,0,0,0,0,0,0,0,0,0,0
1684169754.60026908,72028677,1581,1580,1578,1578,0,0,0,0,0,0,0,0,0,0
1684169754.70022917,72128637,1581,1580,1578,1578,0,0,0,0,0,0,0,0,0,0
1684169754.80018902,72228597,1581,1581,1578,1578,0,0,0,0,0,0,0,0,0,0
1684169754.90014911,72328557,1581,1581,1579,1578,0,0,0,0,0,0,0,0,0,0
1684169755.00010920,72428517,1581,1581,1580,1579,0,0,0,0,0,0,0,0,0,0
1684169755.10006905,72528477,1580,1581,1579,1580,0,0,0,0,0,0,0,0,0,0
1684169755.20002913,72628437,1580,1580,1580,1580,0,0,0,0,0,0,0,0,0,0
1684169755.29998899,72728397,1580,1580,1580,1580,0,0,0,0,0,0,0,0,0,0
1684169755.39994907,72828357,1581,1580,1581,1581,0,0,0,0,0,0,0,0,0,0
1684169755.49990916,72928317,1581,1581,1582,1582,0,0,0,0,0,0,0,0,0,0
1684169755.59986901,73028277,1580,1580,1582,1581,0,0,0,0,0,0,0,0,0,0
1684169755.69982910,73128237,1580,1580,1582,1581,0,0,0,0,0,0,0,0,0,0
1684169755.79978919,73228197,1580,1580,1581,1582,0,0,0,0,0,0,0,0,0,0
1684169755.89974904,73328157,1579,1580,1580,1581,0,0,0,0,0,0,0,0,0,0
1684169756.00054216,73428950,1579,1580,1581,1581,0,0,0,0,0,0,0,0,0,0
1684169756.10050201,73528910,1580,1580,1580,1581,0,0,0,0,0,0,0,0,0,0
1684169756.20046210,73628870,1581,1581,1581,1580,0,0,0,0,0,0,0,0,0,0
1684169756.30042219,73728830,1581,1581,1581,1581,0,0,0,0,0,0,0,0,0,0
1684169756.40038204,73828790,1580,1580,1580,1580,0,0,0,0,0,0,0,0,0,0
1684169756.50034213,73928750,1581,1582,1581,1581,0,0,0,0,0,0,0,0,0,0
1684169756.60030198,74028710,1580,1582,1586,1572,0,0,0,0,0,0,0,0,0,0
1684169756.70026207,74128670,1580,1584,1584,1572,0,0,0,0,0,0,0,0,0,0
1684169756.80022216,74228630,1579,1583,1575,1572,0,0,0,0,0,0,0,0,0,0
1684169756.90018201,74328590,1577,1580,1566,1571,0,0,0,0,0,0,0,0,0,0
1684169757.00014210,74428550,1578,1579,1560,1567,0,0,0,0,0,0,0,0,0,0
1684169757.10010219,74528510,1579,1578,1555,1562,0,0,0,0,0,0,0,0,0,0
1684169757.20006204,74628470,1580,1578,1554,1558,0,0,0,0,0,0,0,0,0,0
1684169757.30002213,74728430,1581,1578,1555,1555,0,0,0,0,0,0,0,0,0,0
1684169757.39998198,74828390,1580,1579,1555,1553,0,0,0,0,0,0,0,0,0,0
1684169757.49994206,74928350,1579,1579,1556,1553,0,0,0,0,0,0,0,0,0,0
1684169757.59990215,75028310,1577,1578,1556,1554,0,0,0,0,0,0,0,0,0,0
1684169757.69986200,75128270,1576,1578,1555,1554,0,0,0,0,0,0,0,0,0,0
1684169757.79982209,75228230,1575,1577,1554,1554,0,0,0,0,0,0,0,0,0,0
1684169757.89978218,75328190,1576,1578,1554,1555,0,0,0,0,0,0,0,0,0,0
1684169758.00057507,75428983,1576,1577,1551,1552,0,0,0,0,0,0,0,0,0,0
1684169758.10053515,75528943,1577,1578,1550,1551,0,0,0,0,0,0,0,0,0,0
1684169758.20049500,75628903,1579,1581,1549,1548,0,0,0,0,0,0,0,0,0,0
1684169758.30045509,75728863,1582,1583,1546,1546,0,0,0,0,0,0,0,0,0,0
1684169758.40041518,75828823,1585,1586,1544,1544,0,0,0,0,0,0,0,0,0,0
1684169758.50037503,75928783,1588,1588,1541,1541,0,0,0,0,0,0,0,0,0,0
1684169758.60033512,76028743,1590,1590,1539,1539,0,0,0,0,0,0,0,0,0,0
1684169758.70029521,76128703,1591,1592,1537,1538,0,0,0,0,0,0,0,0,0,0
1684169758.80025506,76228663,1593,1595,1536,1538,0,0,0,0,0,0,0,0,0,0
1684169758.90021515,76328623,1593,1594,1536,1537,0,0,0,0,0,0,0,0,0,0
1684169759.00017500,76428583,1594,1593,1538,1540,0,0,0,0,0,0,0,0,0,0
1684169759.10013509,76528543,1592,1590,1542,1545,0,0,0,0,0,0,0,0,0,0
1684169759.20009518,76628503,1587,1583,1549,1552,0,0,0,0,0,0,0,0,0,0
1684169759.30005503,76728463,1578,1574,1558,1561,0,0,0,0,0,0,0,0,0,0
1684169759.40001512,76828423,1567,1564,1569,1571,0,0,0,0,0,0,0,0,0,0
1684169759.49997520,76928383,1558,1554,1583,1584,0,0,0,0,0,0,0,0,0,0
1684169759.59993505,77028343,1547,1545,1595,1595,0,0,0,0,0,0,0,0,0,0
1684169759.69989514,77128303,1538,1538,1604,1603,0,0,0,0,0,0,0,0,0,0
1684169759.79985499,77228263,1533,1534,1611,1610,0,0,0,0,0,0,0,0,0,0
1684169759.89981508,77328223,1532,1534,1612,1612,0,0,0,0,0,0,0,0,0,0
1684169759.99977517,77428183,1536,1538,1612,1611,0,0,0,0,0,0,0,0,0,0
1684169760.10056806,77528976,1542,1543,1609,1608,0,0,0,0,0,0,0,0,0,0
1684169760.20052814,77628936,1547,1549,1603,1603,0,0,0,0,0,0,0,0,0,0
1684169760.30048800,77728896,1555,1556,1598,1598,0,0,0,0,0,0,0,0,0,0
1684169760.40044808,77828856,1561,1562,1591,1590,0,0,0,0,0,0,0,0,0,0
1684169760.50040817,77928816,1570,1570,1585,1584,0,0,0,0,0,0,0,0,0,0
1684169760.60036802,78028776,1577,1576,1579,1579,0,0,0,0,0,0,0,0,0,0
1684169760.70032811,78128736,1582,1581,1574,1574,0,0,0,0,0,0,0,0,0,0
1684169760.80028820,78228696,1584,1583,1569,1570,0,0,0,0,0,0,0,0,0,0
1684169760.90024805,78328656,1587,1586,1569,1570,0,0,0,0,0,0,0,0,0,0
1684169761.00020814,78428616,1586,1585,1568,1568,0,0,0,0,0,0,0,0,0,0
1684169761.10016799,78528576,1586,1584,1570,1570,0,0,0,0,0,0,0,0,0,0
1684169761.20012808,78628536,1583,1582,1572,1572,0,0,0,0,0,0,0,0,0,0
1684169761.30008817,78728496,1580,1580,1574,1574,0,0,0,0,0,0,0,0,0,0
1684169761.40004802,78828456,1577,1577,1576,1577,0,0,0,0,0,0,0,0,0,0
1684169761.50000811,78928416,1575,1576,1579,1579,0,0,0,0,0,0,0,0,0,0
1684169761.59996819,79028376,1573,1574,1581,1581,0,0,0,0,0,0,0,0,0,0
1684169761.69992805,79128336,1573,1573,1582,1582,0,0,0,0,0,0,0,0,0,0
1684169761.79988813,79228296,1573,1573,1583,1583,0,0,0,0,0,0,0,0,0,0
1684169761.89984798,79328256,1574,1574,1584,1583,0,0,0,0,0,0,0,0,0,0
1684169761.99980807,79428216,1573,1574,1582,1582,0,0,0,0,0,0,0,0,0,0
1684169762.09976816,79528176,1575,1576,1582,1582,0,0,0,0,0,0,0,0,0,0
1684169762.20056105,79628969,1576,1577,1581,1581,0,0,0,0,0,0,0,0,0,0
1684169762.30052114,79728929,1577,1577,1579,1579,0,0,0,0,0,0,0,0,0,0
1684169762.40048099,79828889,1580,1579,1579,1579,0,0,0,0,0,0,0,0,0,0
1684169762.50044107,79928849,1580,1580,1578,1578,0,0,0,0,0,0,0,0,0,0
1684169762.60040116,80028809,1581,1580,1578,1578,0,0,0,0,0,0,0,0,0,0
1684169762.70036101,80128769,1582,1581,1578,1578,0,0,0,0,0,0,0,0,0,0
1684169762.80032110,80228729,1581,1581,1578,1577,0,0,0,0,0,0,0,0,0,0
1684169762.90028119,80328689,1580,1581,1578,1578,0,0,0,0,0,0,0,0,0,0
1684169763.00024104,80428649,1580,1580,1578,1578,0,0,0,0,0,0,0,0,0,0
1684169763.10020113,80528609,1580,1580,1578,1579,0,0,0,0,0,0,0,0,0,0
1684169763.20016098,80628569,1579,1578,1578,1578,0,0,0,0,0,0,0,0,0,0
1684169763.30012107,80728529,1579,1579,1580,1579,0,0,0,0,0,0,0,0,0,0
1684169763.40008116,80828489,1580,1580,1581,1580,0,0,0,0,0,0,0,0,0,0
1684169763.50004101,80928449,1579,1579,1580,1580,0,0,0,0,0,0,0,0,0,0
1684169763.60000110,81028409,1579,1579,1581,1581,0,0,0,0,0,0,0,0,0,0
1684169763.69996119,81128369,1579,1580,1581,1581,0,0,0,0,0,0,0,0,0,0
1684169763.79992104,81228329,1580,1580,1581,1581,0,0,0,0,0,0,0,0,0,0
1684169763.89988112,81328289,1579,1580,1581,1581,0,0,0,0,0,0,0,0,0,0
1684169763.99984097,81428249,1580,1580,1581,1580,0,0,0,0,0,0,0,0,0,0
1684169764.09980106,81528209,1580,1580,1580,1581,0,0,0,0,0,0,0,0,0,0
1684169764.19976115,81628169,1581,1581,1581,1581,0,0,0,0,0,0,0,0,0,0
1684169764.30055404,81728962,1582,1582,1581,1582,0,0,0,0,0,0,0,0,0,0
1684169764.40051413,81828922,1582,1582,1581,1581,0,0,0,0,0,0,0,0,0,0
1684169764.50047398,81928882,1581,1583,1587,1573,0,0,0,0,0,0,0,0,0,0
1684169764.60043406,82028842,1580,1581,1585,1573,0,0,0,0,0,0,0,0,0,0
1684169764.70039415,82128802,1578,1578,1578,1576,0,0,0,0,0,0,0,0,0,0
1684169764.80035400,82228762,1575,1574,1572,1576,0,0,0,0,0,0,0,0,0,0
1684169764.90031409,82328722,1571,1570,1567,1574,0,0,0,0,0,0,0,0,0,0
1684169765.00027418,82428682,1569,1568,1565,1572,0,0,0,0,0,0,0,0,0,0
1684169765.10023403,82528642,1568,1568,1566,1570,0,0,0,0,0,0,0,0,0,0
1684169765.20019412,82628602,1566,1567,1566,1567,0,0,0,0,0,0,0,0,0,0
1684169765.30015421,82728562,1566,1566,1567,1565,0,0,0,0,0,0,0,0,0,0
1684169765.40011406,82828522,1566,1566,1567,1565,0,0,0,0,0,0,0,0,0,0
1684169765.50007415,82928482,1566,1565,1567,1565,0,0,0,0,0,0,0,0,0,0
1684169765.60003400,83028442,1565,1566,1566,1565,0,0,0,0,0,0,0,0,0,0
1684169765.69999409,83128402,1564,1564,1564,1563,0,0,0,0,0,0,0,0,0,0
1684169765.79995418,83228362,1564,1564,1564,1564,0,0,0,0,0,0,0,0,0,0
1684169765.89991403,83328322,1563,1563,1563,1563,0,0,0,0,0,0,0,0,0,0
1684169765.99987411,83428282,1561,1561,1561,1562,0,0,0,0,0,0,0,0,0,0
1684169766.09983420,83528242,1561,1561,1561,1561,0,0,0,0,0,0,0,0,0,0
1684169766.19979405,83628202,1562,1561,1562,1561,0,0,0,0,0,0,0,0,0,0
1684169766.29975414,83728162,1560,1560,1560,1560,0,0,0,0,0,0,0,0,0,0
1684169766.40054703,83828955,1559,1559,1559,1558,0,0,0,0,0,0,0,0,0,0
1684169766.50050712,83928915,1557,1557,1558,1557,0,0,0,0,0,0,0,0,0,0
1684169766.60046721,84028875,1556,1556,1557,1556,0,0,0,0,0,0,0,0,0,0
1684169766.70042706,84128835,1557,1557,1557,1557,0,0,0,0,0,0,0,0,0,0
1684169766.80038714,84228795,1557,1557,1558,1556,0,0,0,0,0,0,0,0,0,0
1684169766.90034699,84328755,1556,1556,1556,1555,0,0,0,0,0,0,0,0,0,0
1684169767.00030708,84428715,1557,1557,1558,1556,0,0,0,0,0,0,0,0,0,0
1684169767.10026717,84528675,1558,1558,1558,1556,0,0,0,0,0,0,0,0,0,0
1684169767.20022702,84628635,1559,1559,1560,1557,0,0,0,0,0,0,0,0,0,0
1684169767.30018711,84728595,1558,1558,1557,1559,0,0,0,0,0,0,0,0,0,0
1684169767.40014720,84828555,1560,1560,1557,1562,0,0,0,0,0,0,0,0,0,0
1684169767.50010705,84928515,1560,1560,1557,1563,0,0,0,0,0,0,0,0,0,0
1684169767.60006714,85028475,1561,1561,1558,1563,0,0,0,0,0,0,0,0,0,0
1684169767.70002699,85128435,1563,1563,1561,1564,0,0,0,0,0,0,0,0,0,0
1684169767.79998708,85228395,1562,1561,1562,1562,0,0,0,0,0,0,0,0,0,0
1684169767.89994717,85328355,1561,1561,1563,1560,0,0,0,0,0,0,0,0,0,0
1684169767.99990702,85428315,1559,1559,1562,1558,0,0,0,0,0,0,0,0,0,0
1684169768.09986711,85528275,1558,1558,1558,1560,0,0,0,0,0,0,0,0,0,0
1684169768.19982719,85628235,1557,1557,1555,1561,0,0,0,0,0,0,0,0,0,0
1684169768.29978704,85728195,1553,1553,1552,1557,0,0,0,0,0,0,0,0,0,0
1684169768.39974713,85828155,1547,1546,1547,1549,0,0,0,0,0,0,0,0,0,0
1684169768.50054002,85928948,1541,1541,1543,1543,0,0,0,0,0,0,0,0,0,0
1684169768.60050011,86028908,1535,1534,1537,1536,0,0,0,0,0,0,0,0,0,0
1684169768.70046020,86128868,1527,1527,1530,1528,0,0,0,0,0,0,0,0,0,0
1684169768.80042005,86228828,1521,1521,1523,1522,0,0,0,0,0,0,0,0,0,0
1684169768.90038013,86328788,1520,1520,1520,1520,0,0,0,0,0,0,0,0,0,0
1684169769.00033998,86428748,1521,1521,1520,1520,0,0,0,0,0,0,0,0,0,0
1684169769.10030007,86528708,1523,1523,1521,1521,0,0,0,0,0,0,0,0,0,0
1684169769.20026016,86628668,1526,1527,1523,1524,0,0,0,0,0,0,0,0,0,0
1684169769.30022001,86728628,1531,1531,1527,1527,0,0,0,0,0,0,0,0,0,0
1684169769.40018010,86828588,1535,1535,1531,1531,0,0,0,0,0,0,0,0,0,0
1684169769.50014019,86928548,1540,1540,1536,1537,0,0,0,0,0,0,0,0,0,0
1684169769.60010004,87028508,1542,1541,1539,1539,0,0,0,0,0,0,0,0,0,0
1684169769.70006013,87128468,1543,1543,1542,1542,0,0,0,0,0,0,0,0,0,0
1684169769.80001998,87228428,1544,1544,1544,1544,0,0,0,0,0,0,0,0,0,0
1684169769.89998007,87328388,1544,1544,1545,1545,0,0,0,0,0,0,0,0,0,0
1684169769.99994016,87428348,1544,1544,1546,1546,0,0,0,0,0,0,0,0,0,0
1684169770.09990001,87528308,1545,1545,1548,1547,0,0,0,0,0,0,0,0,0,0
1684169770.19986010,87628268,1545,1546,1547,1547,0,0,0,0,0,0,0,0,0,0
1684169770.29982018,87728228,1545,1545,1547,1547,0,0,0,0,0,0,0,0,0,0
1684169770.39978004,87828188,1545,1545,1547,1547,0,0,0,0,0,0,0,0,0,0
1684169770.50057316,87928981,1545,1545,1546,1546,0,0,0,0,0,0,0,0,0,0
1684169770.60053301,88028941,1545,1545,1546,1546,0,0,0,0,0,0,0,0,0,0
1684169770.70049310,88128901,1546,1546,1546,1546,0,0,0,0,0,0,0,0,0,0
1684169770.80045319,88228861,1547,1546,1546,1546,0,0,0,0,0,0,0,0,0,0
1684169770.90041304,88328821,1546,1546,1546,1545,0,0,0,0,0,0,0,0,0,0
1684169771.00037313,88428781,1545,1545,1544,1544,0,0,0,0,0,0,0,0,0,0
1684169771.10033298,88528741,1545,1545,1544,1544,0,0,0,0,0,0,0,0,0,0
1684169771.20029306,88628701,1545,1546,1544,1544,0,0,0,0,0,0,0,0,0,0
1684169771.30025315,88728661,1544,1543,1543,1543,0,0,0,0,0,0,0,0,0,0
1684169771.40021300,88828621,1544,1543,1543,1543,0,0,0,0,0,0,0,0,0,0
1684169771.50017309,88928581,1543,1544,1543,1544,0,0,0,0,0,0,0,0,0,0
1684169771.60013318,89028541,1544,1544,1543,1544,0,0,0,0,0,0,0,0,0,0
1684169771.70009303,89128501,1544,1543,1543,1544,0,0,0,0,0,0,0,0,0,0
1684169771.80005312,89228461,1543,1543,1544,1543,0,0,0,0,0,0,0,0,0,0
1684169771.90001321,89328421,1544,1544,1544,1544,0,0,0,0,0,0,0,0,0,0
1684169771.99997306,89428381,1544,1544,1544,1544,0,0,0,0,0,0,0,0,0,0
1684169772.09993315,89528341,1544,1543,1544,1544,0,0,0,0,0,0,0,0,0,0
1684169772.19989300,89628301,1543,1543,1543,1544,0,0,0,0,0,0,0,0,0,0
1684169772.29985309,89728261,1543,1543,1543,1543,0,0,0,0,0,0,0,0,0,0
1684169772.39981318,89828221,1544,1544,1544,1544,0,0,0,0,0,0,0,0,0,0
1684169772.49977303,89928181,1544,1543,1543,1544,0,0,0,0,0,0,0,0,0,0
1684169772.60056615,90028974,1543,1543,1543,1543,0,0,0,0,0,0,0,0,0,0
1684169772.70052600,90128934,1544,1544,1544,1544,0,0,0,0,0,0,0,0,0,0
1684169772.80048609,90228894,1544,1544,1544,1544,0,0,0,0,0,0,0,0,0,0
1684169772.90044618,90328854,1545,1544,1544,1544,0,0,0,0,0,0,0,0,0,0
1684169773.00040603,90428814,1544,1544,1544,1544,0,0,0,0,0,0,0,0,0,0
1684169773.10036612,90528774,1544,1544,1544,1544,0,0,0,0,0,0,0,0,0,0
1684169773.20032620,90628734,1543,1544,1544,1543,0,0,0,0,0,0,0,0,0,0
1684169773.30028605,90728694,1544,1544,1544,1544,0,0,0,0,0,0,0,0,0,0
1684169773.40024614,90828654,1544,1545,1545,1545,0,0,0,0,0,0,0,0,0,0
1684169773.50020599,90928614,1545,1544,1544,1545,0,0,0,0,0,0,0,0,0,0
1684169773.60016608,91028574,1544,1544,1544,1544,0,0,0,0,0,0,0,0,0,0
1684169773.70012617,91128534,1544,1544,1544,1544,0,0,0,0,0,0,0,0,0,0
1684169773.80008602,91228494,1544,1544,1544,1544,0,0,0,0,0,0,0,0,0,0
1684169773.90004611,91328454,1544,1545,1545,1544,0,0,0,0,0,0,0,0,0,0
1684169774.00000620,91428414,1544,1544,1544,1544,0,0,0,0,0,0,0,0,0,0
1684169774.09996605,91528374,1544,1543,1544,1543,0,0,0,0,0,0,0,0,0,0
1684169774.19992614,91628334,1544,1544,1544,1544,0,0,0,0,0,0,0,0,0,0
1684169774.29988599,91728294,1544,1544,1543,1544,0,0,0,0,0,0,0,0,0,0
1684169774.39984608,91828254,1544,1544,1544,1544,0,0,0,0,0,0,0,0,0,0
1684169774.49980617,91928214,1545,1544,1544,1544,0,0,0,0,0,0,0,0,0,0
1684169774.59976602,92028174,1545,1545,1545,1545,0,0,0,0,0,0,0,0,0,0
1684169774.70055914,92128967,1544,1545,1544,1544,0,0,0,0,0,0,0,0,0,0
1684169774.80051899,92228927,1545,1545,1545,1545,0,0,0,0,0,0,0,0,0,0
1684169774.90047908,92328887,1545,1544,1545,1545,0,0,0,0,0,0,0,0,0,0
1684169775.00043917,92428847,1545,1545,1545,1545,0,0,0,0,0,0,0,0,0,0
1684169775.10039902,92528807,1545,1545,1545,1545,0,0,0,0,0,0,0,0,0,0
1684169775.20035911,92628767,1544,1544,1544,1544,0,0,0,0,0,0,0,0,0,0
1684169775.30031919,92728727,1545,1545,1545,1545,0,0,0,0,0,0,0,0,0,0
1684169775.40027905,92828687,1544,1544,1544,1544,0,0,0,0,0,0,0,0,0,0
1684169775.50023913,92928647,1543,1543,1543,1544,0,0,0,0,0,0,0,0,0,0
1684169775.60019898,93028607,1544,1544,1544,1544,0,0,0,0,0,0,0,0,0,0
1684169775.70015907,93128567,1544,1544,1545,1544,0,0,0,0,0,0,0,0,0,0
1684169775.80011916,93228527,1543,1543,1544,1544,0,0,0,0,0,0,0,0,0,0
1684169775.90007901,93328487,1544,1544,1544,1544,0,0,0,0,0,0,0,0,0,0
1684169776.00003910,93428447,1543,1543,1543,1543,0,0,0,0,0,0,0,0,0,0
1684169776.09999919,93528407,1545,1545,1544,1545,0,0,0,0,0,0,0,0,0,0
1684169776.19995904,93628367,1544,1545,1544,1544,0,0,0,0,0,0,0,0,0,0
1684169776.29991913,93728327,1544,1545,1544,1544,0,0,0,0,0,0,0,0,0,0
1684169776.39987898,93828287,1544,1544,1544,1544,0,0,0,0,0,0,0,0,0,0
1684169776.49983907,93928247,1544,1544,1544,1544,0,0,0,0,0,0,0,0,0,0
1684169776.59979916,94028207,1545,1545,1545,1545,0,0,0,0,0,0,0,0,0,0
1684169776.69975901,94128167,1545,1544,1544,1545,0,0,0,0,0,0,0,0,0,0
1684169776.80055213,94228960,1544,1543,1543,1544,0,0,0,0,0,0,0,0,0,0
1684169776.90051198,94328920,1544,1544,1544,1544,0,0,0,0,0,0,0,0,0,0
1684169777.00047207,94428880,1543,1544,1544,1544,0,0,0,0,0,0,0,0,0,0
1684169777.10043216,94528840,1543,1544,1544,1544,0,0,0,0,0,0,0,0,0,0
1684169777.20039201,94628800,1543,1544,1544,1543,0,0,0,0,0,0,0,0,0,0
1684169777.30035210,94728760,1545,1544,1544,1544,0,0,0,0,0,0,0,0,0,0
1684169777.40031219,94828720,1544,1544,1544,1544,0,0,0,0,0,0,0,0,0,0
1684169777.50027204,94928680,1544,1543,1543,1544,0,0,0,0,0,0,0,0,0,0
1684169777.60023212,95028640,1544,1544,1544,1544,0,0,0,0,0,0,0,0,0,0
1684169777.70019197,95128600,1543,1544,1544,1544,0,0,0,0,0,0,0,0,0,0
1684169777.80015206,95228560,1543,1544,1544,1543,0,0,0,0,0,0,0,0,0,0
1684169777.90011215,95328520,1544,1544,1544,1544,0,0,0,0,0,0,0,0,0,0
1684169778.00007200,95428480,1544,1544,1544,1543,0,0,0,0,0,0,0,0,0,0
1684169778.10003209,95528440,1545,1545,1545,1545,0,0,0,0,0,0,0,0,0,0
1684169778.19999218,95628400,1545,1545,1545,1545,0,0,0,0,0,0,0,0,0,0
1684169778.29995203,95728360,1545,1545,1544,1545,0,0,0,0,0,0,0,0,0,0
1684169778.39991212,95828320,1545,1545,1544,1545,0,0,0,0,0,0,0,0,0,0
1684169778.49987221,95928280,1544,1543,1544,1544,0,0,0,0,0,0,0,0,0,0
1684169778.59983206,96028240,1357,1355,1389,1389,0,0,0,0,0,0,0,0,0,0
1684169778.69979215,96128200,1262,1258,1316,1318,0,0,0,0,0,0,0,0,0,0
1684169778.79975200,96228160,1261,1258,1316,1317,0,0,0,0,0,0,0,0,0,0
1684169778.90054512,96328953,1262,1258,1316,1318,0,0,0,0,0,0,0,0,0,0
1684169779.00050521,96428913,1261,1258,1316,1317,0,0,0,0,0,0,0,0,0,0
1684169779.10046506,96528873,1262,1258,1296,1297,0,0,0,0,0,0,0,0,0,0
1684169779.20042515,96628833,1263,1258,1295,1297,0,0,0,0,0,0,0,0,0,0
1684169779.30038500,96728793,1279,1258,1281,1299,0,0,0,0,0,0,0,0,0,0
1684169779.40034509,96828753,1272,1258,1287,1298,0,0,0,0,0,0,0,0,0,0
1684169779.50030518,96928713,1270,1258,1289,1298,0,0,0,0,0,0,0,0,0,0
1684169779.60026503,97028673,1270,1258,1290,1298,0,0,0,0,0,0,0,0,0,0
1684169779.70022511,97128633,1271,1258,1289,1298,0,0,0,0,0,0,0,0,0,0
1684169779.80018520,97228593,1271,1258,1289,1298,0,0,0,0,0,0,0,0,0,0
1684169779.90014505,97328553,1271,1258,1289,1298,0,0,0,0,0,0,0,0,0,0
1684169780.00010514,97428513,1258,1260,1299,1296,0,0,0,0,0,0,0,0,0,0
1684169780.10006499,97528473,1260,1258,1297,1298,0,0,0,0,0,0,0,0,0,0
1684169780.20002508,97628433,1261,1258,1296,1298,0,0,0,0,0,0,0,0,0,0
1684169780.29998517,97728393,1261,1258,1296,1298,0,0,0,0,0,0,0,0,0,0
1684169780.39994502,97828353,1262,1258,1296,1298,0,0,0,0,0,0,0,0,0,0
1684169780.49990511,97928313,1258,1258,1150,1150,0,0,0,0,0,0,0,0,0,0
1684169780.59986520,98028273,1000,1000,1000,1000,0,0,0,0,0,0,0,0,0,0
1684169780.69982505,98128233,1000,1000,1000,1000,0,0,0,0,0,0,0,0,0,0
1684169780.79978514,98228193,1000,1000,1000,1000,0,0,0,0,0,0,0,0,0,0
1684169780.90057802,98328986,1000,1000,1000,1000,0,0,0,0,0,0,0,0,0,0
1684169781.00053811,98428946,1000,1000,1000,1000,0,0,0,0,0,0,0,0,0,0
1684169781.10049820,98528906,1000,1000,1000,1000,0,0,0,0,0,0,0,0,0,0
1684169781.20045805,98628866,1000,1000,1000,1000,0,0,0,0,0,0,0,0,0,0
1684169781.30041814,98728826,1000,1000,1000,1000,0,0,0,0,0,0,0,0,0,0
1684169781.40037799,98828786,1000,1000,1000,1000,0,0,0,0,0,0,0,0,0,0
1684169781.50033808,98928746,1000,1000,1000,1000,0,0,0,0,0,0,0,0,0,0
1684169781.60029817,99028706,1000,1000,1000,1000,0,0,0,0,0,0,0,0,0,0
1684169781.70025802,99128666,1000,1000,1000,1000,0,0,0,0,0,0,0,0,0,0
1684169781.80021811,99228626,1000,1000,1000,1000,0,0,0,0,0,0,0,0,0,0
1684169781.90017819,99328586,1000,1000,1000,1000,0,0,0,0,0,0,0,0,0,0
1684169782.00013804,99428546,1000,1000,1000,1000,0,0,0,0,0,0,0,0,0,0
1684169782.10009813,99528506,1000,1000,1000,1000,0,0,0,0,0,0,0,0,0,0
1684169782.20005798,99628466,1000,1000,1000,1000,0,0,0,0,0,0,0,0,0,0
1684169782.30001807,99728426,1000,1000,1000,1000,0,0,0,0,0,0,0,0,0,0
1684169782.39997816,99828386,1000,1000,1000,1000,0,0,0,0,0,0,0,0,0,0
1684169782.49993801,99928346,1000,1000,1000,1000,0,0,0,0,0,0,0,0,0,0
1684169782.59989810,100028306,1000,1000,1000,1000,0,0,0,0,0,0,0,0,0,0
1684169782.69985819,100128266,1000,1000,1000,1000,0,0,0,0,0,0,0,0,0,0
1684169782.79981804,100228226,1000,1000,1000,1000,0,0,0,0,0,0,0,0,0,0
1684169782.89977813,100328186,1000,1000,1000,1000,0,0,0,0,0,0,0,0,0,0
1684169783.00057101,100428979,1000,1000,1000,1000,0,0,0,0,0,0,0,0,0,0
1684169783.10053110,100528939,1000,1000,1000,1000,0,0,0,0,0,0,0,0,0,0
1684169783.20049119,100628899,1000,1000,1000,1000,0,0,0,0,0,0,0,0,0,0
1684169783.30045104,100728859,1000,1000,1000,1000,0,0,0,0,0,0,0,0,0,0
1684169783.40041113,100828819,1000,1000,1000,1000,0,0,0,0,0,0,0,0,0,0
1684169783.50037098,100928779,1000,1000,1000,1000,0,0,0,0,0,0,0,0,0,0
1684169783.60033107,101028739,1000,1000,1000,1000,0,0,0,0,0,0,0,0,0,0
1684169783.70029116,101128699,1000,1000,1000,1000,0,0,0,0,0,0,0,0,0,0
1684169783.80025101,101228659,1000,1000,1000,1000,0,0,0,0,0,0,0,0,0,0
1684169783.90021110,101328619,1000,1000,1000,1000,0,0,0,0,0,0,0,0,0,0
1684169784.00017118,101428579,1000,1000,1000,1000,0,0,0,0,0,0,0,0,0,0
1684169784.10013103,101528539,1000,1000,1000,1000,0,0,0,0,0,0,0,0,0,0
1684169784.20009112,101628499,1000,1000,1000,1000,0,0,0,0,0,0,0,0,0,0
1684169784.30005097,101728459,1000,1000,1000,1000,0,0,0,0,0,0,0,0,0,0
1684169784.40001106,101828419,1000,1000,1000,1000,0,0,0,0,0,0,0,0,0,0
1684169784.49997115,101928379,1000,1000,1000,1000,0,0,0,0,0,0,0,0,0,0
1684169784.59993100,102028339,1000,1000,1000,1000,0,0,0,0,0,0,0,0,0,0
1684169784.69989109,102128299,1000,1000,1000,1000,0,0,0,0,0,0,0,0,0,0
1684169784.79985118,102228259,1000,1000,1000,1000,0,0,0,0,0,0,0,0,0,0
1684169784.89981103,102328219,1000,1000,1000,1000,0,0,0,0,0,0,0,0,0,0
1684169784.99977112,102428179,1000,1000,1000,1000,0,0,0,0,0,0,0,0,0,0
1684169785.10056400,102528972,1000,1000,1000,1000,0,0,0,0,0,0,0,0,0,0
1684169785.20052409,102628932,1000,1000,1000,1000,0,0,0,0,0,0,0,0,0,0
1684169785.30048418,102728892,1000,1000,1000,1000,0,0,0,0,0,0,0,0,0,0
1684169785.40044403,102828852,1000,1000,1000,1000,0,0,0,0,0,0,0,0,0,0
1684169785.50040412,102928812,1000,1000,1000,1000,0,0,0,0,0,0,0,0,0,0
1684169785.60036421,103028772,1000,1000,1000,1000,0,0,0,0,0,0,0,0,0,0
1684169785.70032406,103128732,1000,1000,1000,1000,0,0,0,0,0,0,0,0,0,0
1684169785.80028415,103228692,1000,1000,1000,1000,0,0,0,0,0,0,0,0,0,0
1684169785.90024400,103328652,1000,1000,1000,1000,0,0,0,0,0,0,0,0,0,0
1684169786.00020409,103428612,1000,1000,1000,1000,0,0,0,0,0,0,0,0,0,0
1684169786.10016418,103528572,1000,1000,1000,1000,0,0,0,0,0,0,0,0,0,0
1684169786.20012403,103628532,1000,1000,1000,1000,0,0,0,0,0,0,0,0,0,0
1684169786.30008411,103728492,1000,1000,1000,1000,0,0,0,0,0,0,0,0,0,0
1684169786.40004420,103828452,1000,1000,1000,1000,0,0,0,0,0,0,0,0,0,0
1684169786.50000405,103928412,1000,1000,1000,1000,0,0,0,0,0,0,0,0,0,0
1684169786.59996414,104028372,1000,1000,1000,1000,0,0,0,0,0,0,0,0,0,0
1684169786.69992399,104128332,1000,1000,1000,1000,0,0,0,0,0,0,0,0,0,0
1684169786.79988408,104228292,1000,1000,1000,1000,0,0,0,0,0,0,0,0,0,0
1684169786.89984417,104328252,1000,1000,1000,1000,0,0,0,0,0,0,0,0,0,0
1684169786.99980402,104428212,1000,1000,1000,1000,0,0,0,0,0,0,0,0,0,0
1684169787.09976411,104528172,1000,1000,1000,1000,0,0,0,0,0,0,0,0,0,0
1684169787.20055699,104628965,1000,1000,1000,1000,0,0,0,0,0,0,0,0,0,0
1684169787.30051708,104728925,1000,1000,1000,1000,0,0,0,0,0,0,0,0,0,0
1684169787.40047717,104828885,1000,1000,1000,1000,0,0,0,0,0,0,0,0,0,0
1684169787.50043702,104928845,1000,1000,1000,1000,0,0,0,0,0,0,0,0,0,0
1684169787.60039711,105028805,1000,1000,1000,1000,0,0,0,0,0,0,0,0,0,0
1684169787.70035720,105128765,1000,1000,1000,1000,0,0,0,0,0,0,0,0,0,0
1684169787.80031705,105228725,1000,1000,1000,1000,0,0,0,0,0,0,0,0,0,0
1684169787.90027714,105328685,1000,1000,1000,1000,0,0,0,0,0,0,0,0,0,0
1684169788.00023699,105428645,1000,1000,1000,1000,0,0,0,0,0,0,0,0,0,0
1684169788.10019708,105528605,1000,1000,1000,1000,0,0,0,0,0,0,0,0,0,0
1684169788.20015717,105628565,1000,1000,1000,1000,0,0,0,0,0,0,0,0,0,0
1684169788.30011702,105728525,1000,1000,1000,1000,0,0,0,0,0,0,0,0,0,0
1684169788.40007710,105828485,1000,1000,1000,1000,0,0,0,0,0,0,0,0,0,0
1684169788.50003719,105928445,1000,1000,1000,1000,0,0,0,0,0,0,0,0,0,0
1684169788.59999704,106028405,1000,1000,1000,1000,0,0,0,0,0,0,0,0,0,0
1684169788.69995713,106128365,1000,1000,1000,1000,0,0,0,0,0,0,0,0,0,0
1684169788.79991698,106228325,1000,1000,1000,1000,0,0,0,0,0,0,0,0,0,0
1684169788.89987707,106328285,1000,1000,1000,1000,0,0,0,0,0,0,0,0,0,0
1684169788.99983716,106428245,1000,1000,1000,1000,0,0,0,0,0,0,0,0,0,0
1684169789.09979701,106528205,1000,1000,1000,1000,0,0,0,0,0,0,0,0,0,0
1684169789.19975710,106628165,1000,1000,1000,1000,0,0,0,0,0,0,0,0,0,0
1684169789.30054998,106728958,1000,1000,1000,1000,0,0,0,0,0,0,0,0,0,0
