TimeUS,M1,M2,M3,M4,TimeUS,C1,C2,C3,C4
56946379,1000,1000,1000,1000,57028846,1000,1000,1000,1000
56948878,1000,1000,1000,1000,57128806,1000,1000,1000,1000
56951377,1000,1000,1000,1000,57228766,1000,1000,1000,1000
56953876,1000,1000,1000,1000,57328726,1000,1000,1000,1000
56956375,1000,1000,1000,1000,57428686,1000,1000,1000,1000
56958874,1000,1000,1000,1000,57528646,1000,1000,1000,1000
56961373,1000,1000,1000,1000,57628606,1000,1000,1000,1000
56963872,1000,1000,1000,1000,57728566,1000,1000,1000,1000
56966371,1000,1000,1000,1000,57828526,1000,1000,1000,1000
56968870,1000,1000,1000,1000,57928486,1000,1000,1000,1000
56971369,1000,1000,1000,1000,58028446,1000,1000,1000,1000
56973868,1000,1000,1000,1000,58128406,1000,1000,1000,1000
56976367,1000,1000,1000,1000,58228366,1000,1000,1000,1000
56978866,1000,1000,1000,1000,58328326,1000,1000,1000,1000
56981365,1000,1000,1000,1000,58428286,1000,1000,1000,1000
56983864,1000,1000,1000,1000,58528246,1000,1000,1000,1000
56986363,1000,1000,1000,1000,58628206,1000,1000,1000,1000
56988862,1000,1000,1000,1000,58728166,1000,1000,1000,1000
56991361,1000,1000,1000,1000,58828959,1000,1000,1000,1000
56993860,1000,1000,1000,1000,58928919,1000,1000,1000,1000
56996359,1000,1000,1000,1000,59028879,1024,1024,1024,1024
56998858,1000,1000,1000,1000,59128839,1054,1054,1054,1054
57001357,1000,1000,1000,1000,59228799,1084,1084,1084,1084
57003856,1000,1000,1000,1000,59328759,1114,1114,1114,1114
57006355,1000,1000,1000,1000,59428719,1144,1144,1144,1144
57008854,1000,1000,1000,1000,59528679,1363,1356,1357,1363
57011353,1000,1000,1000,1000,59628639,1551,1545,1546,1551
57013852,1000,1000,1000,1000,59728599,1703,1697,1697,1703
57016351,1000,1000,1000,1000,59828559,1833,1828,1828,1834
57018850,1000,1000,1000,1000,59928519,1913,1907,1909,1913
57021349,1000,1000,1000,1000,60028479,1849,1847,1847,1849
57023848,1000,1000,1000,1000,60128439,1722,1722,1722,1722
57026347,1000,1000,1000,1000,60228399,1651,1653,1653,1652
57028846,1000,1000,1000,1000,60328359,1638,1640,1640,1638
57031345,1000,1000,1000,1000,60428319,1642,1641,1639,1644
57033844,1000,1000,1000,1000,60528279,1638,1640,1632,1646
57036343,1000,1000,1000,1000,60628239,1632,1634,1628,1638
57038842,1000,1000,1000,1000,60728199,1625,1626,1625,1626
57041341,1000,1000,1000,1000,60828159,1622,1621,1624,1619
57043840,1000,1000,1000,1000,60928952,1620,1618,1624,1614
57046339,1000,1000,1000,1000,61028912,1620,1619,1624,1615
57048838,1000,1000,1000,1000,61128872,1590,1589,1603,1575
57051337,1000,1000,1000,1000,61228832,1575,1575,1586,1565
57053836,1000,1000,1000,1000,61328792,1564,1564,1565,1562
57056335,1000,1000,1000,1000,61428752,1553,1553,1548,1558
57058834,1000,1000,1000,1000,61528712,1545,1546,1537,1554
57061333,1000,1000,1000,1000,61628672,1539,1539,1528,1549
57063832,1000,1000,1000,1000,61728632,1534,1533,1525,1541
57066331,1000,1000,1000,1000,61828592,1529,1529,1525,1532
57068830,1000,1000,1000,1000,61928552,1525,1524,1524,1524
57071329,1000,1000,1000,1000,62028512,1525,1525,1527,1523
57073828,1000,1000,1000,1000,62128472,1528,1527,1530,1525
57076327,1000,1000,1000,1000,62228432,1530,1531,1533,1528
57078826,1000,1000,1000,1000,62328392,1535,1534,1537,1533
57081325,1000,1000,1000,1000,62428352,1538,1538,1540,1537
57083824,1000,1000,1000,1000,62528312,1542,1542,1543,1541
57086323,1000,1000,1000,1000,62628272,1544,1545,1545,1545
57088822,1000,1000,1000,1000,62728232,1549,1548,1549,1549
57091321,1000,1000,1000,1000,62828192,1551,1551,1551,1552
57093820,1000,1000,1000,1000,62928985,1554,1554,1554,1555
57096319,1000,1000,1000,1000,63028945,1557,1557,1555,1558
57098818,1000,1000,1000,1000,63128905,1558,1558,1557,1559
57101317,1000,1000,1000,1000,63228865,1558,1558,1560,1561
57103816,1000,1000,1000,1000,63328825,1559,1559,1563,1564
57106315,1000,1000,1000,1000,63428785,1561,1561,1566,1565
57108814,1000,1000,1000,1000,63528745,1562,1562,1567,1566
57111313,1000,1000,1000,1000,63628705,1565,1566,1569,1569
57113812,1000,1000,1000,1000,63728665,1567,1567,1569,1569
57116311,1000,1000,1000,1000,63828625,1569,1569,1570,1570
57118810,1000,1000,1000,1000,63928585,1569,1568,1568,1569
57121309,1000,1000,1000,1000,64028545,1571,1571,1569,1570
57123808,1000,1000,1000,1000,64128505,1572,1572,1569,1570
57126307,1000,1000,1000,1000,64228465,1573,1573,1570,1570
57128806,1000,1000,1000,1000,64328425,1574,1574,1571,1571
57131305,1000,1000,1000,1000,64428385,1573,1574,1571,1570
57133804,1000,1000,1000,1000,64528345,1575,1574,1573,1572
57136303,1000,1000,1000,1000,64628305,1575,1575,1574,1573
57138802,1000,1000,1000,1000,64728265,1575,1575,1575,1574
57141301,1000,1000,1000,1000,64828225,1575,1575,1575,1574
57143800,1000,1000,1000,1000,64928185,1575,1575,1575,1575
57146299,1000,1000,1000,1000,65028978,1576,1576,1576,1576
57148798,1000,1000,1000,1000,65128938,1576,1576,1576,1576
57151297,1000,1000,1000,1000,65228898,1576,1576,1576,1577
57153796,1000,1000,1000,1000,65328858,1576,1576,1576,1577
57156295,1000,1000,1000,1000,65428818,1576,1576,1577,1577
57158794,1000,1000,1000,1000,65528778,1576,1576,1577,1577
57161293,1000,1000,1000,1000,65628738,1576,1577,1577,1577
57163792,1000,1000,1000,1000,65728698,1578,1578,1578,1578
57166291,1000,1000,1000,1000,65828658,1578,1578,1578,1578
57168790,1000,1000,1000,1000,65928618,1578,1578,1578,1578
57171289,1000,1000,1000,1000,66028578,1579,1579,1579,1578
57173788,1000,1000,1000,1000,66128538,1579,1578,1578,1578
57176287,1000,1000,1000,1000,66228498,1578,1578,1578,1578
57178786,1000,1000,1000,1000,66328458,1578,1578,1578,1578
57181285,1000,1000,1000,1000,66428418,1579,1579,1579,1579
57183784,1000,1000,1000,1000,66528378,1578,1579,1578,1579
57186283,1000,1000,1000,1000,66628338,1578,1578,1578,1578
57188782,1000,1000,1000,1000,66728298,1579,1579,1579,1579
57191281,1000,1000,1000,1000,66828258,1579,1579,1579,1578
57193780,1000,1000,1000,1000,66928218,1580,1579,1580,1579
57196279,1000,1000,1000,1000,67028178,1580,1580,1580,1580
57198778,1000,1000,1000,1000,67128971,1580,1579,1580,1580
57201277,1000,1000,1000,1000,67228931,1579,1580,1580,1580
57203776,1000,1000,1000,1000,67328891,1579,1579,1579,1580
57206275,1000,1000,1000,1000,67428851,1579,1580,1580,1580
57208774,1000,1000,1000,1000,67528811,1580,1579,1580,1580
57211273,1000,1000,1000,1000,67628771,1580,1580,1580,1580
57213772,1000,1000,1000,1000,67728731,1580,1579,1580,1580
57216271,1000,1000,1000,1000,67828691,1580,1580,1580,1580
57218770,1000,1000,1000,1000,67928651,1580,1580,1581,1580
57221269,1000,1000,1000,1000,68028611,1581,1581,1581,1581
57223768,1000,1000,1000,1000,68128571,1580,1580,1580,1580
57226267,1000,1000,1000,1000,68228531,1580,1580,1580,1580
57228766,1000,1000,1000,1000,68328491,1580,1580,1580,1580
57231265,1000,1000,1000,1000,68428451,1580,1579,1580,1580
57233764,1000,1000,1000,1000,68528411,1580,1581,1580,1580
57236263,1000,1000,1000,1000,68628371,1580,1580,1580,1580
57238762,1000,1000,1000,1000,68728331,1579,1580,1579,1580
57241261,1000,1000,1000,1000,68828291,1579,1579,1579,1579
57243760,1000,1000,1000,1000,68928251,1579,1579,1579,1580
57246259,1000,1000,1000,1000,69028211,1580,1581,1581,1580
57248758,1000,1000,1000,1000,69128171,1581,1581,1581,1581
57251257,1000,1000,1000,1000,69228964,1581,1581,1585,1577
57253756,1000,1000,1000,1000,69328924,1580,1582,1588,1573
57256255,1000,1000,1000,1000,69428884,1579,1582,1582,1573
57258754,1000,1000,1000,1000,69528844,1578,1581,1573,1573
57261253,1000,1000,1000,1000,69628804,1577,1580,1565,1571
57263752,1000,1000,1000,1000,69728764,1577,1578,1558,1566
57266251,1000,1000,1000,1000,69828724,1579,1578,1556,1562
57268750,1000,1000,1000,1000,69928684,1580,1578,1556,1558
57271249,1000,1000,1000,1000,70028644,1579,1578,1555,1555
57273748,1000,1000,1000,1000,70128604,1579,1578,1556,1554
57276247,1000,1000,1000,1000,70228564,1577,1577,1556,1553
57278746,1000,1000,1000,1000,70328524,1576,1577,1556,1554
57281245,1000,1000,1000,1000,70428484,1575,1576,1555,1553
57283744,1000,1000,1000,1000,70528444,1575,1576,1553,1553
57286243,1000,1000,1000,1000,70628404,1575,1576,1552,1552
57288742,1000,1000,1000,1000,70728364,1576,1577,1551,1552
57291241,1000,1000,1000,1000,70828324,1578,1579,1550,1550
57293740,1000,1000,1000,1000,70928284,1580,1581,1547,1547
57296239,1000,1000,1000,1000,71028244,1582,1583,1544,1544
57298738,1000,1000,1000,1000,71128204,1585,1586,1541,1541
57301237,1000,1000,1000,1000,71228164,1588,1589,1538,1538
57303736,1000,1000,1000,1000,71328957,1592,1592,1537,1537
57306235,1000,1000,1000,1000,71428917,1594,1594,1534,1534
57308734,1000,1000,1000,1000,71528877,1596,1594,1534,1535
57311233,1000,1000,1000,1000,71628837,1595,1595,1535,1536
57313732,1000,1000,1000,1000,71728797,1594,1594,1537,1539
57316231,1000,1000,1000,1000,71828757,1591,1590,1540,1544
57318730,1000,1000,1000,1000,71928717,1587,1585,1547,1551
57321229,1000,1000,1000,1000,72028677,1580,1577,1557,1560
57323728,1000,1000,1000,1000,72128637,1571,1567,1567,1570
57326227,1000,1000,1000,1000,72228597,1559,1556,1580,1581
57328726,1000,1000,1000,1000,72328557,1548,1545,1592,1592
57331225,1000,1000,1000,1000,72428517,1539,1537,1603,1603
57333724,1000,1000,1000,1000,72528477,1532,1532,1611,1611
57336223,1000,1000,1000,1000,72628437,1528,1530,1616,1615
57338722,1000,1000,1000,1000,72728397,1529,1531,1616,1615
57341221,1000,1000,1000,1000,72828357,1533,1535,1612,1612
57343720,1000,1000,1000,1000,72928317,1539,1541,1607,1607
57346219,1000,1000,1000,1000,73028277,1547,1549,1600,1600
57348718,1000,1000,1000,1000,73128237,1556,1557,1592,1592
57351217,1000,1000,1000,1000,73228197,1566,1566,1585,1585
57353716,1000,1000,1000,1000,73328157,1574,1573,1578,1577
57356215,1000,1000,1000,1000,73428950,1581,1580,1573,1572
57358714,1000,1000,1000,1000,73528910,1585,1584,1569,1568
57361213,1000,1000,1000,1000,73628870,1588,1587,1567,1567
57363712,1000,1000,1000,1000,73728830,1589,1587,1566,1567
57366211,1000,1000,1000,1000,73828790,1588,1587,1567,1567
57368710,1000,1000,1000,1000,73928750,1586,1585,1570,1570
57371209,1000,1000,1000,1000,74028710,1583,1582,1572,1572
57373708,1000,1000,1000,1000,74128670,1580,1580,1575,1576
57376207,1000,1000,1000,1000,74228630,1578,1579,1579,1579
57378706,1000,1000,1000,1000,74328590,1574,1575,1580,1580
57381205,1000,1000,1000,1000,74428550,1573,1574,1583,1583
57383704,1000,1000,1000,1000,74528510,1572,1573,1583,1583
57386203,1000,1000,1000,1000,74628470,1573,1573,1584,1585
57388702,1000,1000,1000,1000,74728430,1573,1574,1584,1584
57391201,1000,1000,1000,1000,74828390,1575,1575,1584,1584
57393700,1000,1000,1000,1000,74928350,1575,1575,1582,1582
57396199,1000,1000,1000,1000,75028310,1583,1583,1581,1580
57398698,1000,1000,1000,1000,75128270,1581,1581,1578,1578
57401197,1000,1000,1000,1000,75228230,1581,1581,1577,1578
57403696,1000,1000,1000,1000,75328190,1580,1579,1576,1577
57406195,1000,1000,1000,1000,75428983,1579,1579,1577,1576
57408694,1000,1000,1000,1000,75528943,1580,1580,1578,1578
57411193,1000,1000,1000,1000,75628903,1579,1579,1578,1578
57413692,1000,1000,1000,1000,75728863,1579,1580,1579,1579
57416191,1000,1000,1000,1000,75828823,1579,1579,1579,1580
57418690,1000,1000,1000,1000,75928783,1578,1579,1580,1580
57421189,1000,1000,1000,1000,76028743,1579,1579,1580,1580
57423688,1000,1000,1000,1000,76128703,1578,1578,1580,1580
57426187,1000,1000,1000,1000,76228663,1579,1579,1580,1580
57428686,1000,1000,1000,1000,76328623,1579,1580,1581,1581
57431185,1000,1000,1000,1000,76428583,1580,1580,1581,1581
57433684,1000,1000,1000,1000,76528543,1580,1580,1580,1581
57436183,1000,1000,1000,1000,76628503,1580,1581,1580,1581
57438682,1000,1000,1000,1000,76728463,1580,1580,1580,1580
57441181,1000,1000,1000,1000,76828423,1580,1580,1580,1580
57443680,1000,1000,1000,1000,76928383,1580,1580,1580,1580
57446179,1000,1000,1000,1000,77028343,1581,1581,1580,1580
57448678,1000,1000,1000,1000,77128303,1582,1582,1581,1581
57451177,1000,1000,1000,1000,77228263,1581,1582,1582,1579
57453676,1000,1000,1000,1000,77328223,1582,1585,1588,1573
57456175,1000,1000,1000,1000,77428183,1581,1585,1582,1572
57458674,1000,1000,1000,1000,77528976,1580,1583,1572,1571
57461173,1000,1000,1000,1000,77628936,1580,1581,1563,1569
57463672,1000,1000,1000,1000,77728896,1580,1581,1557,1565
57466171,1000,1000,1000,1000,77828856,1581,1581,1554,1560
57468670,1000,1000,1000,1000,77928816,1582,1580,1553,1556
57471169,1000,1000,1000,1000,78028776,1582,1580,1554,1552
57473668,1000,1000,1000,1000,78128736,1581,1580,1554,1552
57476167,1000,1000,1000,1000,78228696,1578,1579,1554,1551
57478666,1000,1000,1000,1000,78328656,1577,1578,1554,1552
57481165,1000,1000,1000,1000,78428616,1576,1578,1553,1552
57483664,1000,1000,1000,1000,78528576,1577,1577,1554,1553
57486163,1000,1000,1000,1000,78628536,1577,1578,1553,1553
57488662,1000,1000,1000,1000,78728496,1577,1579,1551,1551
57491161,1000,1000,1000,1000,78828456,1579,1580,1550,1550
57493660,1000,1000,1000,1000,78928416,1581,1582,1549,1549
57496159,1000,1000,1000,1000,79028376,1584,1585,1547,1548
57498658,1000,1000,1000,1000,79128336,1585,1585,1544,1544
57501157,1000,1000,1000,1000,79228296,1587,1588,1543,1543
57503656,1000,1000,1000,1000,79328256,1590,1591,1541,1542
57506155,1000,1000,1000,1000,79428216,1591,1593,1539,1540
57508654,1000,1000,1000,1000,79528176,1593,1593,1540,1540
57511153,1000,1000,1000,1000,79628969,1593,1592,1542,1544
57513652,1000,1000,1000,1000,79728929,1591,1588,1546,1549
57516151,1000,1000,1000,1000,79828889,1587,1583,1553,1556
57518650,1000,1000,1000,1000,79928849,1580,1575,1562,1565
57521149,1000,1000,1000,1000,80028809,1571,1567,1574,1575
57523648,1000,1000,1000,1000,80128769,1561,1558,1585,1586
57526147,1000,1000,1000,1000,80228729,1550,1549,1594,1594
57528646,1000,1000,1000,1000,80328689,1542,1542,1602,1602
57531145,1000,1000,1000,1000,80428649,1537,1538,1607,1607
57533644,1000,1000,1000,1000,80528609,1537,1538,1610,1610
57536143,1000,1000,1000,1000,80628569,1539,1541,1610,1610
57538642,1000,1000,1000,1000,80728529,1543,1545,1608,1607
57541141,1000,1000,1000,1000,80828489,1549,1551,1604,1602
57543640,1000,1000,1000,1000,80928449,1556,1557,1598,1596
57546139,1000,1000,1000,1000,81028409,1564,1564,1591,1590
57548638,1000,1000,1000,1000,81128369,1570,1569,1583,1583
57551137,1000,1000,1000,1000,81228329,1575,1574,1577,1577
57553636,1000,1000,1000,1000,81328289,1580,1579,1572,1573
57556135,1000,1000,1000,1000,81428249,1583,1583,1570,1571
57558634,1000,1000,1000,1000,81528209,1585,1584,1569,1568
57561133,1000,1000,1000,1000,81628169,1586,1585,1569,1569
57563632,1000,1000,1000,1000,81728962,1584,1583,1569,1569
57566131,1000,1000,1000,1000,81828922,1583,1582,1572,1572
57568630,1000,1000,1000,1000,81928882,1580,1580,1574,1574
57571129,1000,1000,1000,1000,82028842,1578,1578,1576,1576
57573628,1000,1000,1000,1000,82128802,1577,1577,1580,1580
57576127,1000,1000,1000,1000,82228762,1574,1574,1580,1580
57578626,1000,1000,1000,1000,82328722,1574,1574,1582,1582
57581125,1000,1000,1000,1000,82428682,1574,1575,1584,1584
57583624,1000,1000,1000,1000,82528642,1574,1575,1585,1584
57586123,1000,1000,1000,1000,82628602,1574,1575,1584,1583
57588622,1000,1000,1000,1000,82728562,1576,1576,1583,1583
57591121,1000,1000,1000,1000,82828522,1576,1576,1581,1582
57593620,1000,1000,1000,1000,82928482,1578,1577,1581,1581
57596119,1000,1000,1000,1000,83028442,1579,1579,1580,1580
57598618,1000,1000,1000,1000,83128402,1581,1581,1580,1580
57601117,1000,1000,1000,1000,83228362,1581,1581,1579,1579
57603616,1000,1000,1000,1000,83328322,1582,1581,1578,1578
57606115,1000,1000,1000,1000,83428282,1582,1581,1578,1578
57608614,1000,1000,1000,1000,83528242,1582,1582,1579,1579
57611113,1000,1000,1000,1000,83628202,1582,1582,1579,1579
57613612,1000,1000,1000,1000,83728162,1581,1581,1579,1579
57616111,1000,1000,1000,1000,83828955,1581,1582,1580,1580
57618610,1000,1000,1000,1000,83928915,1580,1580,1579,1580
57621109,1000,1000,1000,1000,84028875,1579,1579,1580,1579
57623608,1000,1000,1000,1000,84128835,1579,1579,1580,1580
57626107,1000,1000,1000,1000,84228795,1580,1580,1581,1581
57628606,1000,1000,1000,1000,84328755,1580,1580,1581,1581
57631105,1000,1000,1000,1000,84428715,1580,1580,1581,1581
57633604,1000,1000,1000,1000,84528675,1580,1580,1581,1581
57636103,1000,1000,1000,1000,84628635,1579,1580,1581,1581
57638602,1000,1000,1000,1000,84728595,1580,1581,1581,1581
57641101,1000,1000,1000,1000,84828555,1580,1580,1581,1580
57643600,1000,1000,1000,1000,84928515,1580,1580,1580,1580
57646099,1000,1000,1000,1000,85028475,1581,1581,1581,1580
57648598,1000,1000,1000,1000,85128435,1582,1582,1581,1582
57651097,1000,1000,1000,1000,85228395,1582,1582,1581,1582
57653596,1000,1000,1000,1000,85328355,1581,1581,1581,1581
57656095,1000,1000,1000,1000,85428315,1581,1582,1587,1573
57658594,1000,1000,1000,1000,85528275,1580,1582,1583,1572
57661093,1000,1000,1000,1000,85628235,1579,1582,1575,1573
57663592,1000,1000,1000,1000,85728195,1577,1580,1566,1570
57666091,1000,1000,1000,1000,85828155,1577,1579,1560,1566
57668590,1000,1000,1000,1000,85928948,1578,1578,1555,1561
57671089,1000,1000,1000,1000,86028908,1580,1579,1555,1558
57673588,1000,1000,1000,1000,86128868,1579,1578,1553,1554
57676087,1000,1000,1000,1000,86228828,1580,1578,1555,1553
57678586,1000,1000,1000,1000,86328788,1579,1578,1556,1553
57681085,1000,1000,1000,1000,86428748,1577,1577,1555,1553
57683584,1000,1000,1000,1000,86528708,1575,1577,1554,1553
57686083,1000,1000,1000,1000,86628668,1574,1576,1554,1553
57688582,1000,1000,1000,1000,86728628,1575,1577,1553,1553
57691081,1000,1000,1000,1000,86828588,1575,1577,1552,1552
57693580,1000,1000,1000,1000,86928548,1577,1578,1550,1551
57696079,1000,1000,1000,1000,87028508,1579,1580,1549,1549
57698578,1000,1000,1000,1000,87128468,1581,1582,1546,1546
57701077,1000,1000,1000,1000,87228428,1583,1584,1544,1543
57703576,1000,1000,1000,1000,87328388,1586,1587,1542,1542
57706075,1000,1000,1000,1000,87428348,1589,1590,1540,1541
57708574,1000,1000,1000,1000,87528308,1591,1591,1538,1539
57711073,1000,1000,1000,1000,87628268,1591,1592,1537,1538
57713572,1000,1000,1000,1000,87728228,1593,1594,1537,1539
57716071,1000,1000,1000,1000,87828188,1593,1593,1539,1541
57718570,1000,1000,1000,1000,87928981,1592,1590,1543,1546
57721069,1000,1000,1000,1000,88028941,1587,1585,1549,1551
57723568,1000,1000,1000,1000,88128901,1580,1576,1556,1559
57726067,1000,1000,1000,1000,88228861,1572,1568,1567,1569
57728566,1000,1000,1000,1000,88328821,1562,1558,1579,1580
57731065,1000,1000,1000,1000,88428781,1552,1549,1590,1591
57733564,1000,1000,1000,1000,88528741,1542,1541,1600,1599
57736063,1000,1000,1000,1000,88628701,1537,1537,1608,1607
57738562,1000,1000,1000,1000,88728661,1534,1535,1612,1611
57741061,1000,1000,1000,1000,88828621,1534,1536,1613,1612
57743560,1000,1000,1000,1000,88928581,1537,1539,1610,1610
57746059,1000,1000,1000,1000,89028541,1542,1545,1605,1605
57748558,1000,1000,1000,1000,89128501,1550,1551,1599,1599
57751057,1000,1000,1000,1000,89228461,1558,1559,1593,1593
57753556,1000,1000,1000,1000,89328421,1566,1566,1587,1586
57756055,1000,1000,1000,1000,89428381,1574,1573,1580,1580
57758554,1000,1000,1000,1000,89528341,1580,1579,1575,1575
57761053,1000,1000,1000,1000,89628301,1584,1582,1571,1571
57763552,1000,1000,1000,1000,89728261,1586,1584,1568,1568
57766051,1000,1000,1000,1000,89828221,1586,1585,1567,1567
57768550,1000,1000,1000,1000,89928181,1586,1585,1567,1568
57771049,1000,1000,1000,1000,90028974,1584,1584,1570,1570
57773548,1000,1000,1000,1000,90128934,1582,1581,1572,1572
57776047,1000,1000,1000,1000,90228894,1579,1579,1575,1575
57778546,1000,1000,1000,1000,90328854,1577,1577,1577,1577
57781045,1000,1000,1000,1000,90428814,1575,1576,1580,1580
57783544,1000,1000,1000,1000,90528774,1573,1574,1581,1581
57786043,1000,1000,1000,1000,90628734,1572,1573,1582,1582
57788542,1000,1000,1000,1000,90728694,1572,1572,1582,1583
57791041,1000,1000,1000,1000,90828654,1573,1574,1583,1583
57793540,1000,1000,1000,1000,90928614,1574,1575,1583,1583
57796039,1000,1000,1000,1000,91028574,1574,1575,1581,1581
57798538,1000,1000,1000,1000,91128534,1576,1576,1581,1581
57801037,1000,1000,1000,1000,91228494,1578,1578,1580,1580
57803536,1000,1000,1000,1000,91328454,1580,1580,1580,1580
57806035,1000,1000,1000,1000,91428414,1581,1581,1580,1579
57808534,1000,1000,1000,1000,91528374,1582,1581,1578,1578
57811033,1000,1000,1000,1000,91628334,1581,1581,1578,1577
57813532,1000,1000,1000,1000,91728294,1582,1582,1578,1578
57816031,1000,1000,1000,1000,91828254,1581,1581,1577,1577
57818530,1000,1000,1000,1000,91928214,1581,1581,1578,1578
57821029,1000,1000,1000,1000,92028174,1581,1581,1579,1579
57823528,1000,1000,1000,1000,92128967,1580,1581,1580,1580
57826027,1000,1000,1000,1000,92228927,1579,1579,1579,1579
57828526,1000,1000,1000,1000,92328887,1578,1578,1579,1579
57831025,1000,1000,1000,1000,92428847,1579,1579,1580,1580
57833524,1000,1000,1000,1000,92528807,1580,1580,1582,1582
57836023,1000,1000,1000,1000,92628767,1579,1580,1581,1581
57838522,1000,1000,1000,1000,92728727,1579,1580,1581,1581
57841021,1000,1000,1000,1000,92828687,1579,1580,1581,1581
57843520,1000,1000,1000,1000,92928647,1580,1579,1580,1580
57846019,1000,1000,1000,1000,93028607,1581,1581,1581,1581
57848518,1000,1000,1000,1000,93128567,1582,1581,1581,1581
57851017,1000,1000,1000,1000,93228527,1581,1581,1581,1581
57853516,1000,1000,1000,1000,93328487,1581,1582,1585,1575
57856015,1000,1000,1000,1000,93428447,1581,1582,1586,1573
57858514,1000,1000,1000,1000,93528407,1579,1579,1580,1574
57861013,1000,1000,1000,1000,93628367,1575,1575,1573,1575
57863512,1000,1000,1000,1000,93728327,1573,1573,1569,1575
57866011,1000,1000,1000,1000,93828287,1570,1569,1565,1572
57868510,1000,1000,1000,1000,93928247,1569,1568,1565,1570
57871009,1000,1000,1000,1000,94028207,1567,1567,1566,1567
57873508,1000,1000,1000,1000,94128167,1566,1566,1567,1566
57876007,1000,1000,1000,1000,94228960,1565,1565,1567,1564
57878506,1000,1000,1000,1000,94328920,1564,1565,1566,1564
57881005,1000,1000,1000,1000,94428880,1564,1564,1566,1563
57883504,1000,1000,1000,1000,94528840,1564,1563,1565,1564
57886003,1000,1000,1000,1000,94628800,1563,1562,1563,1563
57888502,1000,1000,1000,1000,94728760,1564,1563,1564,1564
57891001,1000,1000,1000,1000,94828720,1562,1563,1563,1563
57893500,1000,1000,1000,1000,94928680,1562,1562,1562,1562
57895999,1000,1000,1000,1000,95028640,1560,1560,1560,1560
57898498,1000,1000,1000,1000,95128600,1561,1561,1561,1561
57900997,1000,1000,1000,1000,95228560,1560,1561,1561,1560
57903496,1000,1000,1000,1000,95328520,1559,1559,1559,1559
57905995,1000,1000,1000,1000,95428480,1558,1558,1558,1557
57908494,1000,1000,1000,1000,95528440,1558,1558,1558,1558
57910993,1000,1000,1000,1000,95628400,1557,1557,1558,1556
57913492,1000,1000,1000,1000,95728360,1556,1556,1557,1555
57915991,1000,1000,1000,1000,95828320,1558,1558,1558,1557
57918490,1000,1000,1000,1000,95928280,1557,1558,1559,1556
57920989,1000,1000,1000,1000,96028240,1558,1558,1560,1557
57923488,1000,1000,1000,1000,96128200,1558,1558,1559,1558
57925987,1000,1000,1000,1000,96228160,1560,1560,1558,1562
57928486,1000,1000,1000,1000,96328953,1561,1560,1557,1564
57930985,1000,1000,1000,1000,96428913,1561,1561,1558,1564
57933484,1000,1000,1000,1000,96528873,1562,1562,1560,1564
57935983,1000,1000,1000,1000,96628833,1561,1562,1560,1562
57938482,1000,1000,1000,1000,96728793,1562,1562,1562,1561
57940981,1000,1000,1000,1000,96828753,1560,1560,1562,1558
57943480,1000,1000,1000,1000,96928713,1560,1560,1559,1561
57945979,1000,1000,1000,1000,97028673,1558,1557,1556,1559
57948478,1000,1000,1000,1000,97128633,1553,1552,1551,1554
57950977,1000,1000,1000,1000,97228593,1548,1548,1547,1549
57953476,1000,1000,1000,1000,97328553,1541,1541,1541,1541
57955975,1000,1000,1000,1000,97428513,1535,1535,1535,1535
57958474,1000,1000,1000,1000,97528473,1527,1527,1528,1526
57960973,1000,1000,1000,1000,97628433,1521,1521,1521,1521
57963472,1000,1000,1000,1000,97728393,1519,1519,1519,1519
57965971,1000,1000,1000,1000,97828353,1520,1520,1520,1520
57968470,1000,1000,1000,1000,97928313,1522,1522,1522,1522
57970969,1000,1000,1000,1000,98028273,1525,1525,1525,1525
57973468,1000,1000,1000,1000,98128233,1528,1528,1528,1528
57975967,1000,1000,1000,1000,98228193,1533,1533,1533,1533
57978466,1000,1000,1000,1000,98328986,1537,1537,1537,1537
57980965,1000,1000,1000,1000,98428946,1540,1540,1539,1540
57983464,1000,1000,1000,1000,98528906,1542,1542,1542,1542
57985963,1000,1000,1000,1000,98628866,1543,1543,1544,1543
57988462,1000,1000,1000,1000,98728826,1545,1545,1545,1545
57990961,1000,1000,1000,1000,98828786,1546,1545,1546,1545
57993460,1000,1000,1000,1000,98928746,1545,1546,1546,1546
57995959,1000,1000,1000,1000,99028706,1546,1546,1546,1546
57998458,1000,1000,1000,1000,99128666,1546,1546,1546,1547
58000957,1000,1000,1000,1000,99228626,1546,1546,1546,1546
58003456,1000,1000,1000,1000,99328586,1547,1546,1546,1546
58005955,1000,1000,1000,1000,99428546,1547,1547,1547,1547
58008454,1000,1000,1000,1000,99528506,1546,1545,1546,1545
58010953,1000,1000,1000,1000,99628466,1545,1545,1545,1545
58013452,1000,1000,1000,1000,99728426,1544,1545,1545,1545
58015951,1000,1000,1000,1000,99828386,1545,1546,1545,1545
58018450,1000,1000,1000,1000,99928346,1545,1545,1545,1545
58020949,1000,1000,1000,1000,100028306,1545,1545,1545,1545
58023448,1000,1000,1000,1000,100128266,1546,1545,1545,1545
58025947,1000,1000,1000,1000,100228226,1545,1545,1545,1545
58028446,1000,1000,1000,1000,100328186,1545,1545,1545,1544
58030945,1000,1000,1000,1000,100428979,1544,1544,1544,1544
58033444,1000,1000,1000,1000,100528939,1544,1543,1544,1544
58035943,1000,1000,1000,1000,100628899,1544,1544,1544,1544
58038442,1000,1000,1000,1000,100728859,1544,1544,1544,1544
58040941,1000,1000,1000,1000,100828819,1544,1545,1544,1545
58043440,1000,1000,1000,1000,100928779,1544,1544,1544,1544
58045939,1000,1000,1000,1000,101028739,1544,1544,1544,1544
58048438,1000,1000,1000,1000,101128699,1544,1543,1544,1543
58050937,1000,1000,1000,1000,101228659,1543,1544,1544,1543
58053436,1000,1000,1000,1000,101328619,1543,1543,1543,1544
58055935,1000,1000,1000,1000,101428579,1544,1544,1544,1544
58058434,1000,1000,1000,1000,101528539,1544,1543,1544,1544
58060933,1000,1000,1000,1000,101628499,1543,1543,1543,1543
58063432,1000,1000,1000,1000,101728459,1543,1543,1543,1543
58065931,1000,1000,1000,1000,101828419,1544,1544,1544,1544
58068430,1000,1000,1000,1000,101928379,1544,1545,1544,1545
58070929,1000,1000,1000,1000,102028339,1545,1544,1545,1544
58073428,1000,1000,1000,1000,102128299,1544,1544,1544,1544
58075927,1000,1000,1000,1000,102228259,1544,1544,1544,1544
58078426,1000,1000,1000,1000,102328219,1545,1545,1545,1545
58080925,1000,1000,1000,1000,102428179,1544,1544,1544,1544
58083424,1000,1000,1000,1000,102528972,1545,1545,1544,1545
58085923,1000,1000,1000,1000,102628932,1544,1545,1545,1545
58088422,1000,1000,1000,1000,102728892,1545,1545,1545,1545
58090921,1000,1000,1000,1000,102828852,1545,1545,1545,1545
58093420,1000,1000,1000,1000,102928812,1545,1544,1545,1545
58095919,1000,1000,1000,1000,103028772,1544,1544,1544,1544
58098418,1000,1000,1000,1000,103128732,1544,1543,1543,1543
58100917,1000,1000,1000,1000,103228692,1543,1544,1544,1544
58103416,1000,1000,1000,1000,103328652,1544,1544,1544,1544
58105915,1000,1000,1000,1000,103428612,1544,1544,1544,1544
58108414,1000,1000,1000,1000,103528572,1545,1544,1544,1545
58110913,1000,1000,1000,1000,103628532,1544,1544,1544,1544
58113412,1000,1000,1000,1000,103728492,1543,1543,1543,1544
58115911,1000,1000,1000,1000,103828452,1544,1544,1544,1544
58118410,1000,1000,1000,1000,103928412,1544,1544,1544,1544
58120909,1000,1000,1000,1000,104028372,1544,1544,1544,1543
58123408,1000,1000,1000,1000,104128332,1544,1543,1543,1544
58125907,1000,1000,1000,1000,104228292,1543,1544,1544,1544
58128406,1000,1000,1000,1000,104328252,1544,1544,1544,1544
58130905,1000,1000,1000,1000,104428212,1544,1544,1543,1544
58133404,1000,1000,1000,1000,104528172,1545,1544,1544,1545
58135903,1000,1000,1000,1000,104628965,1545,1545,1545,1545
58138402,1000,1000,1000,1000,104728925,1545,1545,1545,1545
58140901,1000,1000,1000,1000,104828885,1545,1545,1545,1545
58143400,1000,1000,1000,1000,104928845,1545,1544,1544,1545
58145899,1000,1000,1000,1000,105028805,1544,1544,1545,1544
58148398,1000,1000,1000,1000,105128765,1544,1544,1544,1544
58150897,1000,1000,1000,1000,105228725,1544,1544,1544,1544
58153396,1000,1000,1000,1000,105328685,1545,1544,1545,1545
58155895,1000,1000,1000,1000,105428645,1544,1544,1544,1544
58158394,1000,1000,1000,1000,105528605,1544,1544,1544,1544
58160893,1000,1000,1000,1000,105628565,1544,1545,1544,1544
58163392,1000,1000,1000,1000,105728525,1545,1545,1545,1545
58165891,1000,1000,1000,1000,105828485,1544,1544,1544,1544
58168390,1000,1000,1000,1000,105928445,1544,1543,1543,1543
58170889,1000,1000,1000,1000,106028405,1543,1543,1543,1543
58173388,1000,1000,1000,1000,106128365,1544,1543,1543,1544
58175887,1000,1000,1000,1000,106228325,1544,1544,1545,1544
58178386,1000,1000,1000,1000,106328285,1543,1543,1544,1543
58180885,1000,1000,1000,1000,106428245,1545,1545,1545,1544
58183384,1000,1000,1000,1000,106528205,1545,1545,1545,1545
58185883,1000,1000,1000,1000,106628165,1544,1545,1545,1544
58188382,1000,1000,1000,1000,106728958,1545,1544,1544,1545
58190881,1000,1000,1000,1000,106828918,1545,1545,1545,1545
58193380,1000,1000,1000,1000,106928878,1545,1545,1545,1545
58195879,1000,1000,1000,1000,107028838,1545,1544,1545,1545
58198378,1000,1000,1000,1000,107128798,1545,1545,1545,1545
58200877,1000,1000,1000,1000,107228758,1545,1545,1546,1545
58203376,1000,1000,1000,1000,107328718,1542,1539,1540,1541
58205875,1000,1000,1000,1000,107428678,1354,1354,1356,1357
58208374,1000,1000,1000,1000,107528638,1248,1247,1251,1252
58210873,1000,1000,1000,1000,107628598,1212,1212,1217,1217
58213372,1000,1000,1000,1000,107728558,1189,1188,1194,1195
58215871,1000,1000,1000,1000,107828518,1157,1157,1163,1164
58218370,1000,1000,1000,1000,107928478,1157,1157,1163,1164
58220869,1000,1000,1000,1000,108028438,1157,1157,1164,1164
58223368,1000,1000,1000,1000,108128398,1189,1157,1164,1195
58225867,1000,1000,1000,1000,108228358,1185,1157,1164,1192
58228366,1000,1000,1000,1000,108328318,1179,1157,1164,1185
58230865,1000,1000,1000,1000,108428278,1178,1157,1164,1184
58233364,1000,1000,1000,1000,108528238,1180,1157,1164,1186
58235863,1000,1000,1000,1000,108628198,1181,1157,1164,1188
58238362,1000,1000,1000,1000,108728158,1184,1157,1164,1190
58240861,1000,1000,1000,1000,108828951,1185,1157,1164,1192
58243360,1000,1000,1000,1000,108928911,1169,1157,1164,1176
58245859,1000,1000,1000,1000,109028871,1173,1157,1164,1180
58248358,1000,1000,1000,1000,109128831,1174,1157,1164,1181
58250857,1000,1000,1000,1000,109228791,1175,1157,1164,1181
58253356,1000,1000,1000,1000,109328751,1175,1157,1164,1182
58255855,1000,1000,1000,1000,109428711,1000,1000,1000,1000
58258354,1000,1000,1000,1000,109528671,1000,1000,1000,1000
58260853,1000,1000,1000,1000,109628631,1000,1000,1000,1000
58263352,1000,1000,1000,1000,109728591,1000,1000,1000,1000
58265851,1000,1000,1000,1000,109828551,1000,1000,1000,1000
58268350,1000,1000,1000,1000,109928511,1000,1000,1000,1000
58270849,1000,1000,1000,1000,110028471,1000,1000,1000,1000
58273348,1000,1000,1000,1000,110128431,1000,1000,1000,1000
58275847,1000,1000,1000,1000,110228391,1000,1000,1000,1000
58278346,1000,1000,1000,1000,110328351,1000,1000,1000,1000
58280845,1000,1000,1000,1000,110428311,1000,1000,1000,1000
58283344,1000,1000,1000,1000,110528271,1000,1000,1000,1000
58285843,1000,1000,1000,1000,110628231,1000,1000,1000,1000
58288342,1000,1000,1000,1000,110728191,1000,1000,1000,1000
58290841,1000,1000,1000,1000,110828984,1000,1000,1000,1000
58293340,1000,1000,1000,1000,110928944,1000,1000,1000,1000
58295839,1000,1000,1000,1000,111028904,1000,1000,1000,1000
58298338,1000,1000,1000,1000,111128864,1000,1000,1000,1000
58300837,1000,1000,1000,1000,111228824,1000,1000,1000,1000
58303336,1000,1000,1000,1000,111328784,1000,1000,1000,1000
58305835,1000,1000,1000,1000,111428744,1000,1000,1000,1000
58308334,1000,1000,1000,1000,111528704,1000,1000,1000,1000
58310833,1000,1000,1000,1000,111628664,1000,1000,1000,1000
58313332,1000,1000,1000,1000,111728624,1000,1000,1000,1000
58315831,1000,1000,1000,1000,111828584,1000,1000,1000,1000
58318330,1000,1000,1000,1000,111928544,1000,1000,1000,1000
58320829,1000,1000,1000,1000,112028504,1000,1000,1000,1000
58323328,1000,1000,1000,1000,112128464,1000,1000,1000,1000
58325827,1000,1000,1000,1000,112228424,1000,1000,1000,1000
58328326,1000,1000,1000,1000,112328384,1000,1000,1000,1000
58330825,1000,1000,1000,1000,112428344,1000,1000,1000,1000
58333324,1000,1000,1000,1000,112528304,1000,1000,1000,1000
58335823,1000,1000,1000,1000,112628264,1000,1000,1000,1000
58338322,1000,1000,1000,1000,112728224,1000,1000,1000,1000
58340821,1000,1000,1000,1000,112828184,1000,1000,1000,1000
58343320,1000,1000,1000,1000,112928977,1000,1000,1000,1000
58345819,1000,1000,1000,1000,113028937,1000,1000,1000,1000
58348318,1000,1000,1000,1000,113128897,1000,1000,1000,1000
58350817,1000,1000,1000,1000,113228857,1000,1000,1000,1000
58353316,1000,1000,1000,1000,113328817,1000,1000,1000,1000
58355815,1000,1000,1000,1000,113428777,1000,1000,1000,1000
58358314,1000,1000,1000,1000,113528737,1000,1000,1000,1000
58360813,1000,1000,1000,1000,113628697,1000,1000,1000,1000
58363312,1000,1000,1000,1000,113728657,1000,1000,1000,1000
58365811,1000,1000,1000,1000,113828617,1000,1000,1000,1000
58368310,1000,1000,1000,1000,113928577,1000,1000,1000,1000
58370809,1000,1000,1000,1000,114028537,1000,1000,1000,1000
58373308,1000,1000,1000,1000,114128497,1000,1000,1000,1000
58375807,1000,1000,1000,1000,114228457,1000,1000,1000,1000
58378306,1000,1000,1000,1000,114328417,1000,1000,1000,1000
58380805,1000,1000,1000,1000,114428377,1000,1000,1000,1000
58383304,1000,1000,1000,1000,114528337,1000,1000,1000,1000
58385803,1000,1000,1000,1000,114628297,1000,1000,1000,1000
58388302,1000,1000,1000,1000,114728257,1000,1000,1000,1000
58390801,1000,1000,1000,1000,114828217,1000,1000,1000,1000
58393300,1000,1000,1000,1000,114928177,1000,1000,1000,1000
58395799,1000,1000,1000,1000,115028970,1000,1000,1000,1000
58398298,1000,1000,1000,1000,115128930,1000,1000,1000,1000
58400797,1000,1000,1000,1000,115228890,1000,1000,1000,1000
58403296,1000,1000,1000,1000,115328850,1000,1000,1000,1000
58405795,1000,1000,1000,1000,115428810,1000,1000,1000,1000
58408294,1000,1000,1000,1000,115528770,1000,1000,1000,1000
58410793,1000,1000,1000,1000,115628730,1000,1000,1000,1000
58413292,1000,1000,1000,1000,115728690,1000,1000,1000,1000
58415791,1000,1000,1000,1000,115828650,1000,1000,1000,1000
58418290,1000,1000,1000,1000,115928610,1000,1000,1000,1000
58420789,1000,1000,1000,1000,116028570,1000,1000,1000,1000
58423288,1000,1000,1000,1000,116128530,1000,1000,1000,1000
58425787,1000,1000,1000,1000,116228490,1000,1000,1000,1000
58428286,1000,1000,1000,1000,116328450,1000,1000,1000,1000
58430785,1000,1000,1000,1000,116428410,1000,1000,1000,1000
58433284,1000,1000,1000,1000,116528370,1000,1000,1000,1000
58435783,1000,1000,1000,1000,116628330,1000,1000,1000,1000
58438282,1000,1000,1000,1000,116728290,1000,1000,1000,1000
58440781,1000,1000,1000,1000,116828250,1000,1000,1000,1000
58443280,1000,1000,1000,1000,116928210,1000,1000,1000,1000
58445779,1000,1000,1000,1000,117028170,1000,1000,1000,1000
58448278,1000,1000,1000,1000,117128963,1000,1000,1000,1000
58450777,1000,1000,1000,1000,117228923,1000,1000,1000,1000
58453276,1000,1000,1000,1000,117328883,1000,1000,1000,1000
58455775,1000,1000,1000,1000,117428843,1000,1000,1000,1000
58458274,1000,1000,1000,1000,117528803,1000,1000,1000,1000
58460773,1000,1000,1000,1000,117628763,1000,1000,1000,1000
58463272,1000,1000,1000,1000,117728723,1000,1000,1000,1000
58465771,1000,1000,1000,1000,117828683,1000,1000,1000,1000
58468270,1000,1000,1000,1000,117928643,1000,1000,1000,1000
58470769,1000,1000,1000,1000,118028603,1000,1000,1000,1000
58473268,1000,1000,1000,1000,118128563,1000,1000,1000,1000
58475767,1000,1000,1000,1000,118228523,1000,1000,1000,1000
58478266,1000,1000,1000,1000,118328483,1000,1000,1000,1000
58480765,1000,1000,1000,1000,118428443,1000,1000,1000,1000
58483264,1000,1000,1000,1000,118528403,1000,1000,1000,1000
58485763,1000,1000,1000,1000,118628363,1000,1000,1000,1000
58488262,1000,1000,1000,1000,118728323,1000,1000,1000,1000
58490761,1000,1000,1000,1000,118828283,1000,1000,1000,1000
58493260,1000,1000,1000,1000,118928243,1000,1000,1000,1000
58495759,1000,1000,1000,1000,119028203,1000,1000,1000,1000
58498258,1000,1000,1000,1000,119128163,1000,1000,1000,1000
58500757,1000,1000,1000,1000,119228956,1000,1000,1000,1000
58503256,1000,1000,1000,1000,119328916,1000,1000,1000,1000
58505755,1000,1000,1000,1000,119428876,1000,1000,1000,1000
58508254,1000,1000,1000,1000,119528836,1000,1000,1000,1000
58510753,1000,1000,1000,1000,119628796,1000,1000,1000,1000
58513252,1000,1000,1000,1000,119728756,1000,1000,1000,1000
58515751,1000,1000,1000,1000,119828716,1000,1000,1000,1000
58518250,1000,1000,1000,1000,119928676,1000,1000,1000,1000
58520749,1000,1000,1000,1000,120028636,1000,1000,1000,1000
58523248,1000,1000,1000,1000,120128596,1000,1000,1000,1000
58525747,1000,1000,1000,1000,120228556,1000,1000,1000,1000
58528246,1000,1000,1000,1000,120328516,1000,1000,1000,1000
58530745,1000,1000,1000,1000,120428476,1000,1000,1000,1000
58533244,1000,1000,1000,1000,120528436,1000,1000,1000,1000
58535743,1000,1000,1000,1000,120628396,1000,1000,1000,1000
58538242,1000,1000,1000,1000,120728356,1000,1000,1000,1000
58540741,1000,1000,1000,1000,,,,,
58543240,1000,1000,1000,1000,,,,,
58545739,1000,1000,1000,1000,,,,,
58548238,1000,1000,1000,1000,,,,,
58550737,1000,1000,1000,1000,,,,,
58553236,1000,1000,1000,1000,,,,,
58555735,1000,1000,1000,1000,,,,,
58558234,1000,1000,1000,1000,,,,,
58560733,1000,1000,1000,1000,,,,,
58563232,1000,1000,1000,1000,,,,,
58565731,1000,1000,1000,1000,,,,,
58568230,1000,1000,1000,1000,,,,,
58570729,1000,1000,1000,1000,,,,,
58573228,1000,1000,1000,1000,,,,,
58575727,1000,1000,1000,1000,,,,,
58578226,1000,1000,1000,1000,,,,,
58580725,1000,1000,1000,1000,,,,,
58583224,1000,1000,1000,1000,,,,,
58585723,1000,1000,1000,1000,,,,,
58588222,1000,1000,1000,1000,,,,,
58590721,1000,1000,1000,1000,,,,,
58593220,1000,1000,1000,1000,,,,,
58595719,1000,1000,1000,1000,,,,,
58598218,1000,1000,1000,1000,,,,,
58600717,1000,1000,1000,1000,,,,,
58603216,1000,1000,1000,1000,,,,,
58605715,1000,1000,1000,1000,,,,,
58608214,1000,1000,1000,1000,,,,,
58610713,1000,1000,1000,1000,,,,,
58613212,1000,1000,1000,1000,,,,,
58615711,1000,1000,1000,1000,,,,,
58618210,1000,1000,1000,1000,,,,,
58620709,1000,1000,1000,1000,,,,,
58623208,1000,1000,1000,1000,,,,,
58625707,1000,1000,1000,1000,,,,,
58628206,1000,1000,1000,1000,,,,,
58630705,1000,1000,1000,1000,,,,,
58633204,1000,1000,1000,1000,,,,,
58635703,1000,1000,1000,1000,,,,,
58638202,1000,1000,1000,1000,,,,,
58640701,1000,1000,1000,1000,,,,,
58643200,1000,1000,1000,1000,,,,,
58645699,1000,1000,1000,1000,,,,,
58648198,1000,1000,1000,1000,,,,,
58650697,1000,1000,1000,1000,,,,,
58653196,1000,1000,1000,1000,,,,,
58655695,1000,1000,1000,1000,,,,,
58658194,1000,1000,1000,1000,,,,,
58660693,1000,1000,1000,1000,,,,,
58663192,1000,1000,1000,1000,,,,,
58665691,1000,1000,1000,1000,,,,,
58668190,1000,1000,1000,1000,,,,,
58670689,1000,1000,1000,1000,,,,,
58673188,1000,1000,1000,1000,,,,,
58675687,1000,1000,1000,1000,,,,,
58678186,1000,1000,1000,1000,,,,,
58680685,1000,1000,1000,1000,,,,,
58683184,1000,1000,1000,1000,,,,,
58685683,1000,1000,1000,1000,,,,,
58688182,1000,1000,1000,1000,,,,,
58690681,1000,1000,1000,1000,,,,,
58693180,1000,1000,1000,1000,,,,,
58695679,1000,1000,1000,1000,,,,,
58698178,1000,1000,1000,1000,,,,,
58700677,1000,1000,1000,1000,,,,,
58703176,1000,1000,1000,1000,,,,,
58705675,1000,1000,1000,1000,,,,,
58708174,1000,1000,1000,1000,,,,,
58710673,1000,1000,1000,1000,,,,,
58713172,1000,1000,1000,1000,,,,,
58715671,1000,1000,1000,1000,,,,,
58718170,1000,1000,1000,1000,,,,,
58720669,1000,1000,1000,1000,,,,,
58723168,1000,1000,1000,1000,,,,,
58725667,1000,1000,1000,1000,,,,,
58728166,1000,1000,1000,1000,,,,,
58730665,1000,1000,1000,1000,,,,,
58733164,1000,1000,1000,1000,,,,,
58735663,1000,1000,1000,1000,,,,,
58738162,1000,1000,1000,1000,,,,,
58740661,1000,1000,1000,1000,,,,,
58743160,1000,1000,1000,1000,,,,,
58745659,1000,1000,1000,1000,,,,,
58748158,1000,1000,1000,1000,,,,,
58750657,1000,1000,1000,1000,,,,,
58753156,1000,1000,1000,1000,,,,,
58755655,1000,1000,1000,1000,,,,,
58758154,1000,1000,1000,1000,,,,,
58761486,1000,1000,1000,1000,,,,,
58763985,1000,1000,1000,1000,,,,,
58766484,1000,1000,1000,1000,,,,,
58768983,1000,1000,1000,1000,,,,,
58771482,1000,1000,1000,1000,,,,,
58773981,1000,1000,1000,1000,,,,,
58776480,1000,1000,1000,1000,,,,,
58778979,1000,1000,1000,1000,,,,,
58781478,1000,1000,1000,1000,,,,,
58783977,1000,1000,1000,1000,,,,,
58786476,1000,1000,1000,1000,,,,,
58788975,1000,1000,1000,1000,,,,,
58791474,1000,1000,1000,1000,,,,,
58793973,1000,1000,1000,1000,,,,,
58796472,1000,1000,1000,1000,,,,,
58798971,1000,1000,1000,1000,,,,,
58801470,1000,1000,1000,1000,,,,,
58803969,1000,1000,1000,1000,,,,,
58806468,1000,1000,1000,1000,,,,,
58808967,1000,1000,1000,1000,,,,,
58811466,1000,1000,1000,1000,,,,,
58813965,1000,1000,1000,1000,,,,,
58816464,1000,1000,1000,1000,,,,,
58818963,1000,1000,1000,1000,,,,,
58821462,1000,1000,1000,1000,,,,,
58823961,1000,1000,1000,1000,,,,,
58826460,1000,1000,1000,1000,,,,,
58828959,1000,1000,1000,1000,,,,,
58831458,1000,1000,1000,1000,,,,,
58833957,1000,1000,1000,1000,,,,,
58836456,1000,1000,1000,1000,,,,,
58838955,1000,1000,1000,1000,,,,,
58841454,1000,1000,1000,1000,,,,,
58843953,1000,1000,1000,1000,,,,,
58846452,1000,1000,1000,1000,,,,,
58848951,1000,1000,1000,1000,,,,,
58851450,1000,1000,1000,1000,,,,,
58853949,1000,1000,1000,1000,,,,,
58856448,1000,1000,1000,1000,,,,,
58858947,1000,1000,1000,1000,,,,,
58861446,1000,1000,1000,1000,,,,,
58863945,1000,1000,1000,1000,,,,,
58866444,1000,1000,1000,1000,,,,,
58868943,1000,1000,1000,1000,,,,,
58871442,1000,1000,1000,1000,,,,,
58873941,1000,1000,1000,1000,,,,,
58876440,1000,1000,1000,1000,,,,,
58878939,1000,1000,1000,1000,,,,,
58881438,1000,1000,1000,1000,,,,,
58883937,1000,1000,1000,1000,,,,,
58886436,1000,1000,1000,1000,,,,,
58888935,1000,1000,1000,1000,,,,,
58891434,1000,1000,1000,1000,,,,,
58893933,1000,1000,1000,1000,,,,,
58896432,1000,1000,1000,1000,,,,,
58898931,1000,1000,1000,1000,,,,,
58901430,1000,1000,1000,1000,,,,,
58903929,1000,1000,1000,1000,,,,,
58906428,1000,1000,1000,1000,,,,,
58908927,1000,1000,1000,1000,,,,,
58911426,1000,1000,1000,1000,,,,,
58913925,1000,1000,1000,1000,,,,,
58916424,1000,1000,1000,1000,,,,,
58918923,1000,1000,1000,1000,,,,,
58921422,1000,1000,1000,1000,,,,,
58923921,1000,1000,1000,1000,,,,,
58926420,1000,1000,1000,1000,,,,,
58928919,1000,1000,1000,1000,,,,,
58931418,1000,1000,1000,1000,,,,,
58933917,1000,1000,1000,1000,,,,,
58936416,1000,1000,1000,1000,,,,,
58938915,1000,1000,1000,1000,,,,,
58941414,1000,1000,1000,1000,,,,,
58943913,1000,1000,1000,1000,,,,,
58946412,1000,1000,1000,1000,,,,,
58948911,1000,1000,1000,1000,,,,,
58951410,1000,1000,1000,1000,,,,,
58953909,1001,1001,1001,1001,,,,,
58956408,1002,1002,1002,1002,,,,,
58958907,1003,1003,1003,1003,,,,,
58961406,1003,1003,1003,1003,,,,,
58963905,1004,1004,1004,1004,,,,,
58966404,1005,1005,1005,1005,,,,,
58968903,1006,1006,1006,1006,,,,,
58971402,1006,1006,1006,1006,,,,,
58973901,1007,1007,1007,1007,,,,,
58976400,1008,1008,1008,1008,,,,,
58978899,1009,1009,1009,1009,,,,,
58981398,1009,1009,1009,1009,,,,,
58983897,1010,1010,1010,1010,,,,,
58986396,1011,1011,1011,1011,,,,,
58988895,1012,1012,1012,1012,,,,,
58991394,1012,1012,1012,1012,,,,,
58993893,1013,1013,1013,1013,,,,,
58996392,1014,1014,1014,1014,,,,,
58998891,1015,1015,1015,1015,,,,,
59001390,1015,1015,1015,1015,,,,,
59003889,1016,1016,1016,1016,,,,,
59006388,1017,1017,1017,1017,,,,,
59008887,1018,1018,1018,1018,,,,,
59011386,1018,1018,1018,1018,,,,,
59013885,1019,1019,1019,1019,,,,,
59016384,1020,1020,1020,1020,,,,,
59018883,1021,1021,1021,1021,,,,,
59021382,1021,1021,1021,1021,,,,,
59023881,1022,1022,1022,1022,,,,,
59026380,1023,1023,1023,1023,,,,,
59028879,1024,1024,1024,1024,,,,,
59031378,1024,1024,1024,1024,,,,,
59033877,1025,1025,1025,1025,,,,,
59036376,1026,1026,1026,1026,,,,,
59038875,1027,1027,1027,1027,,,,,
59041374,1027,1027,1027,1027,,,,,
59043873,1028,1028,1028,1028,,,,,
59046372,1029,1029,1029,1029,,,,,
59048871,1030,1030,1030,1030,,,,,
59051370,1030,1030,1030,1030,,,,,
59053869,1031,1031,1031,1031,,,,,
59056368,1032,1032,1032,1032,,,,,
59058867,1033,1033,1033,1033,,,,,
59061366,1033,1033,1033,1033,,,,,
59063865,1034,1034,1034,1034,,,,,
59066364,1035,1035,1035,1035,,,,,
59068863,1036,1036,1036,1036,,,,,
59071362,1036,1036,1036,1036,,,,,
59073861,1037,1037,1037,1037,,,,,
59076360,1038,1038,1038,1038,,,,,
59078859,1039,1039,1039,1039,,,,,
59081358,1039,1039,1039,1039,,,,,
59083857,1040,1040,1040,1040,,,,,
59086356,1041,1041,1041,1041,,,,,
59088855,1042,1042,1042,1042,,,,,
59091354,1042,1042,1042,1042,,,,,
59093853,1043,1043,1043,1043,,,,,
59096352,1044,1044,1044,1044,,,,,
59098851,1045,1045,1045,1045,,,,,
59101350,1045,1045,1045,1045,,,,,
59103849,1046,1046,1046,1046,,,,,
59106348,1047,1047,1047,1047,,,,,
59108847,1048,1048,1048,1048,,,,,
59111346,1048,1048,1048,1048,,,,,
59113845,1049,1049,1049,1049,,,,,
59116344,1050,1050,1050,1050,,,,,
59118843,1051,1051,1051,1051,,,,,
59121342,1051,1051,1051,1051,,,,,
59123841,1052,1052,1052,1052,,,,,
59126340,1053,1053,1053,1053,,,,,
59128839,1054,1054,1054,1054,,,,,
59131338,1054,1054,1054,1054,,,,,
59133837,1055,1055,1055,1055,,,,,
59136336,1056,1056,1056,1056,,,,,
59138835,1057,1057,1057,1057,,,,,
59141334,1057,1057,1057,1057,,,,,
59143833,1058,1058,1058,1058,,,,,
59146332,1059,1059,1059,1059,,,,,
59148831,1060,1060,1060,1060,,,,,
59151330,1060,1060,1060,1060,,,,,
59153829,1061,1061,1061,1061,,,,,
59156328,1062,1062,1062,1062,,,,,
59158827,1063,1063,1063,1063,,,,,
59161326,1063,1063,1063,1063,,,,,
59163825,1064,1064,1064,1064,,,,,
59166324,1065,1065,1065,1065,,,,,
59168823,1066,1066,1066,1066,,,,,
59171322,1066,1066,1066,1066,,,,,
59173821,1067,1067,1067,1067,,,,,
59176320,1068,1068,1068,1068,,,,,
59178819,1069,1069,1069,1069,,,,,
59181318,1069,1069,1069,1069,,,,,
59183817,1070,1070,1070,1070,,,,,
59186316,1071,1071,1071,1071,,,,,
59188815,1072,1072,1072,1072,,,,,
59191314,1072,1072,1072,1072,,,,,
59193813,1073,1073,1073,1073,,,,,
59196312,1074,1074,1074,1074,,,,,
59198811,1075,1075,1075,1075,,,,,
59201310,1075,1075,1075,1075,,,,,
59203809,1076,1076,1076,1076,,,,,
59206308,1077,1077,1077,1077,,,,,
59208807,1078,1078,1078,1078,,,,,
59211306,1078,1078,1078,1078,,,,,
59213805,1079,1079,1079,1079,,,,,
59216304,1080,1080,1080,1080,,,,,
59218803,1081,1081,1081,1081,,,,,
59221302,1081,1081,1081,1081,,,,,
59223801,1082,1082,1082,1082,,,,,
59226300,1083,1083,1083,1083,,,,,
59228799,1084,1084,1084,1084,,,,,
59231298,1084,1084,1084,1084,,,,,
59233797,1085,1085,1085,1085,,,,,
59236296,1086,1086,1086,1086,,,,,
59238795,1087,1087,1087,1087,,,,,
59241294,1087,1087,1087,1087,,,,,
59243793,1088,1088,1088,1088,,,,,
59246292,1089,1089,1089,1089,,,,,
59248791,1090,1090,1090,1090,,,,,
59251290,1090,1090,1090,1090,,,,,
59253789,1091,1091,1091,1091,,,,,
59256288,1092,1092,1092,1092,,,,,
59258787,1093,1093,1093,1093,,,,,
59261286,1093,1093,1093,1093,,,,,
59263785,1094,1094,1094,1094,,,,,
59266284,1095,1095,1095,1095,,,,,
59268783,1096,1096,1096,1096,,,,,
59271282,1096,1096,1096,1096,,,,,
59273781,1097,1097,1097,1097,,,,,
59276280,1098,1098,1098,1098,,,,,
59278779,1099,1099,1099,1099,,,,,
59281278,1099,1099,1099,1099,,,,,
59283777,1100,1100,1100,1100,,,,,
59286276,1101,1101,1101,1101,,,,,
59288775,1101,1101,1101,1101,,,,,
59291274,1102,1102,1102,1102,,,,,
59293773,1103,1103,1103,1103,,,,,
59296272,1104,1104,1104,1104,,,,,
59298771,1104,1104,1104,1104,,,,,
59301270,1105,1105,1105,1105,,,,,
59303769,1106,1106,1106,1106,,,,,
59306268,1107,1107,1107,1107,,,,,
59308767,1107,1107,1107,1107,,,,,
59311266,1108,1108,1108,1108,,,,,
59313765,1109,1109,1109,1109,,,,,
59316264,1110,1110,1110,1110,,,,,
59318763,1110,1110,1110,1110,,,,,
59321262,1111,1111,1111,1111,,,,,
59323761,1112,1112,1112,1112,,,,,
59326260,1113,1113,1113,1113,,,,,
59328759,1113,1113,1113,1113,,,,,
59331258,1114,1114,1114,1114,,,,,
59333757,1115,1115,1115,1115,,,,,
59336256,1116,1116,1116,1116,,,,,
59338755,1116,1116,1116,1116,,,,,
59341254,1117,1117,1117,1117,,,,,
59343753,1118,1118,1118,1118,,,,,
59346252,1119,1119,1119,1119,,,,,
59348751,1119,1119,1119,1119,,,,,
59351250,1120,1120,1120,1120,,,,,
59353749,1121,1121,1121,1121,,,,,
59356248,1122,1122,1122,1122,,,,,
59358747,1122,1122,1122,1122,,,,,
59361246,1123,1123,1123,1123,,,,,
59363745,1124,1124,1124,1124,,,,,
59366244,1125,1125,1125,1125,,,,,
59368743,1125,1125,1125,1125,,,,,
59371242,1126,1126,1126,1126,,,,,
59373741,1127,1127,1127,1127,,,,,
59376240,1128,1128,1128,1128,,,,,
59378739,1128,1128,1128,1128,,,,,
59381238,1129,1129,1129,1129,,,,,
59383737,1130,1130,1130,1130,,,,,
59386236,1131,1131,1131,1131,,,,,
59388735,1131,1131,1131,1131,,,,,
59391234,1132,1132,1132,1132,,,,,
59393733,1133,1133,1133,1133,,,,,
59396232,1134,1134,1134,1134,,,,,
59398731,1134,1134,1134,1134,,,,,
59401230,1135,1135,1135,1135,,,,,
59403729,1136,1136,1136,1136,,,,,
59406228,1137,1137,1137,1137,,,,,
59408727,1137,1137,1137,1137,,,,,
59411226,1138,1138,1138,1138,,,,,
59413725,1139,1139,1139,1139,,,,,
59416224,1140,1140,1140,1140,,,,,
59418723,1140,1140,1140,1140,,,,,
59421222,1141,1141,1141,1141,,,,,
59423721,1142,1142,1142,1142,,,,,
59426220,1143,1143,1143,1143,,,,,
59428719,1143,1143,1143,1143,,,,,
59431218,1144,1144,1144,1144,,,,,
59433717,1145,1145,1145,1145,,,,,
59436216,1146,1146,1146,1146,,,,,
59438715,1146,1146,1146,1146,,,,,
59441214,1147,1147,1147,1147,,,,,
59443713,1148,1148,1148,1148,,,,,
59446212,1149,1149,1149,1149,,,,,
59448711,1149,1149,1149,1149,,,,,
59451210,1150,1150,1150,1150,,,,,
59453709,1162,1153,1154,1162,,,,,
59456208,1170,1161,1162,1170,,,,,
59458707,1178,1169,1170,1178,,,,,
59461206,1185,1177,1178,1186,,,,,
59463705,1193,1184,1185,1194,,,,,
59466204,1200,1192,1193,1201,,,,,
59468703,1208,1199,1200,1208,,,,,
59471202,1215,1207,1207,1215,,,,,
59473701,1222,1214,1215,1223,,,,,
59476200,1229,1221,1222,1229,,,,,
59478699,1236,1228,1229,1236,,,,,
59481198,1243,1235,1236,1243,,,,,
59483697,1249,1241,1242,1250,,,,,
59486196,1256,1248,1249,1256,,,,,
59488695,1263,1255,1256,1263,,,,,
59491194,1269,1261,1262,1269,,,,,
59493693,1275,1268,1268,1276,,,,,
59496192,1282,1274,1275,1282,,,,,
59498691,1288,1280,1281,1288,,,,,
59501190,1294,1287,1287,1294,,,,,
59503689,1300,1293,1293,1300,,,,,
59506188,1306,1299,1300,1306,,,,,
59508687,1312,1305,1305,1312,,,,,
59511186,1318,1311,1311,1318,,,,,
59513685,1324,1317,1317,1324,,,,,
59516184,1330,1322,1323,1330,,,,,
59518683,1335,1328,1329,1336,,,,,
59521182,1341,1334,1335,1341,,,,,
59523681,1347,1339,1340,1347,,,,,
59526180,1352,1345,1346,1352,,,,,
59528679,1358,1351,1351,1358,,,,,
59531178,1363,1356,1357,1363,,,,,
59533677,1368,1361,1362,1369,,,,,
59536176,1374,1367,1368,1374,,,,,
59538675,1379,1372,1373,1379,,,,,
59541174,1384,1378,1378,1385,,,,,
59543673,1390,1383,1383,1390,,,,,
59546172,1395,1388,1389,1395,,,,,
59548671,1400,1393,1394,1400,,,,,
59551170,1405,1398,1399,1405,,,,,
59553669,1410,1403,1404,1410,,,,,
59556168,1415,1408,1409,1415,,,,,
59558667,1420,1413,1414,1420,,,,,
59561166,1425,1418,1419,1425,,,,,
59563665,1430,1423,1424,1430,,,,,
59566164,1435,1428,1429,1435,,,,,
59568663,1439,1433,1434,1440,,,,,
59571162,1444,1438,1439,1445,,,,,
59573661,1449,1443,1443,1449,,,,,
59576160,1454,1448,1448,1454,,,,,
59578659,1458,1452,1453,1459,,,,,
59581158,1463,1457,1457,1464,,,,,
59583657,1468,1462,1462,1468,,,,,
59586156,1472,1466,1467,1473,,,,,
59588655,1477,1471,1471,1477,,,,,
59591154,1481,1476,1476,1482,,,,,
59593653,1486,1480,1480,1486,,,,,
59596152,1490,1485,1485,1491,,,,,
59598651,1495,1489,1489,1495,,,,,
59601150,1499,1494,1494,1500,,,,,
59603649,1504,1498,1498,1504,,,,,
59606148,1508,1503,1503,1509,,,,,
59608647,1512,1507,1507,1513,,,,,
59611146,1517,1511,1512,1517,,,,,
59613645,1521,1516,1516,1522,,,,,
59616144,1525,1520,1520,1526,,,,,
59618643,1530,1524,1524,1530,,,,,
59621142,1534,1528,1529,1535,,,,,
59623641,1538,1533,1533,1539,,,,,
59626140,1542,1537,1537,1543,,,,,
59628639,1547,1541,1541,1547,,,,,
59631138,1551,1545,1546,1551,,,,,
59633637,1555,1550,1550,1556,,,,,
59636136,1559,1554,1554,1560,,,,,
59638635,1563,1558,1558,1564,,,,,
59641134,1567,1562,1562,1568,,,,,
59643633,1571,1566,1566,1572,,,,,
59646132,1575,1570,1570,1576,,,,,
59648631,1579,1574,1574,1580,,,,,
59651130,1583,1578,1578,1584,,,,,
59653629,1587,1582,1582,1588,,,,,
59656128,1591,1586,1586,1592,,,,,
59658627,1595,1590,1590,1596,,,,,
59661126,1599,1594,1594,1600,,,,,
59663625,1603,1598,1598,1604,,,,,
59666124,1607,1602,1602,1607,,,,,
59668623,1611,1606,1606,1611,,,,,
59671122,1615,1609,1610,1615,,,,,
59673621,1618,1613,1613,1619,,,,,
59676120,1622,1617,1617,1623,,,,,
59678619,1626,1621,1621,1627,,,,,
59681118,1630,1625,1625,1630,,,,,
59683617,1634,1628,1629,1634,,,,,
59686116,1637,1632,1632,1638,,,,,
59688615,1641,1636,1636,1642,,,,,
59691114,1645,1640,1640,1645,,,,,
59693613,1649,1643,1643,1649,,,,,
59696112,1652,1647,1647,1653,,,,,
59698611,1656,1651,1651,1657,,,,,
59701110,1660,1654,1655,1660,,,,,
59703609,1663,1658,1658,1664,,,,,
59706108,1667,1662,1662,1667,,,,,
59708607,1671,1665,1665,1671,,,,,
59711106,1674,1669,1669,1675,,,,,
59713605,1678,1672,1673,1678,,,,,
59716104,1681,1676,1676,1682,,,,,
59718603,1685,1680,1680,1685,,,,,
59721102,1688,1683,1683,1689,,,,,
59723601,1692,1687,1687,1693,,,,,
59726100,1696,1690,1690,1696,,,,,
59728599,1699,1694,1694,1700,,,,,
59731098,1703,1697,1697,1703,,,,,
59733597,1706,1701,1701,1706,,,,,
59736096,1709,1704,1704,1710,,,,,
59738595,1713,1708,1708,1713,,,,,
59741094,1716,1711,1711,1717,,,,,
59743593,1720,1715,1715,1720,,,,,
59746092,1723,1718,1718,1724,,,,,
59748591,1727,1721,1722,1727,,,,,
59751090,1730,1725,1725,1730,,,,,
59753589,1733,1728,1728,1734,,,,,
59756088,1737,1732,1732,1737,,,,,
59758587,1740,1735,1735,1741,,,,,
59761086,1744,1738,1739,1744,,,,,
59763585,1747,1742,1742,1747,,,,,
59766084,1750,1745,1745,1751,,,,,
59768583,1754,1748,1749,1754,,,,,
59771082,1757,1752,1752,1757,,,,,
59773581,1760,1755,1755,1761,,,,,
59776080,1763,1758,1758,1764,,,,,
59778579,1767,1761,1762,1767,,,,,
59781078,1770,1765,1765,1770,,,,,
59783577,1773,1768,1768,1774,,,,,
59786076,1776,1771,1771,1777,,,,,
59788575,1780,1774,1775,1780,,,,,
59791074,1783,1778,1778,1783,,,,,
59793573,1786,1781,1781,1787,,,,,
59796072,1789,1784,1784,1790,,,,,
59798571,1793,1787,1787,1793,,,,,
59801070,1796,1790,1791,1796,,,,,
59803569,1799,1794,1794,1799,,,,,
59806068,1802,1797,1797,1803,,,,,
59808567,1805,1800,1800,1806,,,,,
59811066,1808,1803,1803,1809,,,,,
59813565,1811,1806,1806,1812,,,,,
59816064,1815,1809,1810,1815,,,,,
59818563,1818,1812,1813,1818,,,,,
59821062,1821,1816,1816,1821,,,,,
59823561,1824,1819,1819,1824,,,,,
59826060,1827,1822,1822,1827,,,,,
59828559,1830,1825,1825,1830,,,,,
59831058,1833,1828,1828,1834,,,,,
59833557,1836,1831,1831,1837,,,,,
59836056,1839,1834,1834,1840,,,,,
59838555,1842,1837,1838,1843,,,,,
59841054,1845,1840,1841,1846,,,,,
59843553,1849,1843,1844,1849,,,,,
59846052,1852,1846,1847,1852,,,,,
59848551,1855,1849,1850,1855,,,,,
59851050,1858,1852,1853,1858,,,,,
59853549,1861,1855,1856,1861,,,,,
59856048,1864,1858,1859,1864,,,,,
59858547,1867,1861,1862,1867,,,,,
59861046,1870,1864,1865,1870,,,,,
59863545,1873,1867,1868,1873,,,,,
59866044,1876,1870,1871,1875,,,,,
59868543,1879,1873,1874,1878,,,,,
59871042,1881,1876,1877,1881,,,,,
59873541,1884,1879,1880,1884,,,,,
59876040,1887,1882,1882,1887,,,,,
59878539,1890,1885,1885,1890,,,,,
59881038,1893,1887,1888,1893,,,,,
59883537,1896,1890,1891,1896,,,,,
59886036,1899,1893,1894,1899,,,,,
59888535,1902,1896,1897,1902,,,,,
59891034,1905,1899,1900,1905,,,,,
59893533,1908,1902,1903,1907,,,,,
59896032,1911,1905,1906,1910,,,,,
59898531,1913,1908,1909,1913,,,,,
59901030,1916,1911,1911,1916,,,,,
59903529,1919,1913,1914,1919,,,,,
59906028,1920,1914,1915,1920,,,,,
59908527,1919,1913,1914,1919,,,,,
59911026,1918,1913,1913,1918,,,,,
59913525,1918,1912,1913,1917,,,,,
59916024,1917,1911,1912,1916,,,,,
59918523,1916,1910,1911,1916,,,,,
59921022,1916,1910,1911,1915,,,,,
59923521,1915,1909,1910,1914,,,,,
59926020,1914,1908,1909,1914,,,,,
59928519,1914,1908,1909,1913,,,,,
59931018,1913,1907,1909,1913,,,,,
59933517,1913,1907,1908,1913,,,,,
59936016,1913,1907,1908,1912,,,,,
59938515,1913,1907,1908,1912,,,,,
59941014,1912,1907,1908,1912,,,,,
59943513,1912,1907,1908,1912,,,,,
59946012,1912,1907,1908,1912,,,,,
59948511,1912,1907,1908,1911,,,,,
59951010,1912,1907,1908,1911,,,,,
59953509,1911,1907,1908,1911,,,,,
59956008,1911,1906,1907,1911,,,,,
59958507,1911,1906,1907,1910,,,,,
59961006,1910,1906,1907,1910,,,,,
59963505,1910,1905,1906,1909,,,,,
59966004,1909,1905,1906,1909,,,,,
59968503,1908,1904,1905,1908,,,,,
59971002,1907,1903,1904,1907,,,,,
59973501,1906,1902,1903,1905,,,,,
59976000,1904,1901,1902,1904,,,,,
59978499,1903,1899,1900,1903,,,,,
59980998,1901,1898,1899,1901,,,,,
59983497,1899,1896,1897,1899,,,,,
59985996,1898,1894,1895,1897,,,,,
59988495,1896,1892,1893,1895,,,,,
59990994,1893,1890,1891,1893,,,,,
59993493,1891,1888,1889,1891,,,,,
59995992,1889,1886,1887,1889,,,,,
59998491,1886,1883,1884,1886,,,,,
60000990,1884,1881,1882,1884,,,,,
60003489,1881,1878,1879,1881,,,,,
60005988,1879,1876,1877,1879,,,,,
60008487,1876,1873,1874,1876,,,,,
60010986,1873,1871,1871,1873,,,,,
60013485,1870,1868,1868,1870,,,,,
60015984,1867,1865,1865,1867,,,,,
60018483,1864,1862,1863,1864,,,,,
60020982,1861,1859,1860,1861,,,,,
60023481,1858,1856,1857,1858,,,,,
60025980,1855,1853,1854,1855,,,,,
60028479,1852,1850,1850,1852,,,,,
60030978,1849,1847,1847,1849,,,,,
60033477,1846,1844,1844,1846,,,,,
60035976,1842,1841,1841,1843,,,,,
60038475,1839,1837,1838,1839,,,,,
60040974,1836,1834,1834,1836,,,,,
60043473,1832,1831,1831,1833,,,,,
60045972,1829,1828,1828,1829,,,,,
60048471,1826,1824,1825,1826,,,,,
60050970,1822,1821,1821,1823,,,,,
60053469,1819,1818,1818,1819,,,,,
60055968,1816,1815,1815,1816,,,,,
60058467,1812,1811,1811,1813,,,,,
60060966,1809,1808,1808,1809,,,,,
60063465,1805,1804,1805,1806,,,,,
60065964,1802,1801,1801,1802,,,,,
60068463,1799,1798,1798,1799,,,,,
60070962,1795,1795,1795,1796,,,,,
60073461,1792,1791,1791,1792,,,,,
60075960,1789,1788,1788,1789,,,,,
60078459,1785,1785,1785,1786,,,,,
60080958,1782,1781,1782,1782,,,,,
60083457,1779,1778,1778,1779,,,,,
60085956,1775,1775,1775,1776,,,,,
60088455,1772,1772,1772,1773,,,,,
60090954,1769,1769,1769,1770,,,,,
60093453,1766,1766,1766,1766,,,,,
60095952,1763,1762,1762,1763,,,,,
60098451,1759,1759,1759,1760,,,,,
60100950,1756,1756,1756,1757,,,,,
60103449,1753,1753,1753,1754,,,,,
60105948,1750,1750,1750,1751,,,,,
60108447,1747,1747,1747,1748,,,,,
60110946,1744,1744,1744,1745,,,,,
60113445,1741,1742,1741,1742,,,,,
60115944,1739,1739,1739,1739,,,,,
60118443,1736,1736,1736,1736,,,,,
60120942,1733,1733,1733,1733,,,,,
60123441,1730,1730,1730,1731,,,,,
60125940,1727,1728,1728,1728,,,,,
60128439,1724,1725,1725,1725,,,,,
60130938,1722,1722,1722,1722,,,,,
60133437,1719,1720,1720,1720,,,,,
60135936,1717,1717,1717,1717,,,,,
60138435,1714,1714,1715,1714,,,,,
60140934,1712,1712,1712,1712,,,,,
60143433,1709,1710,1710,1710,,,,,
60145932,1707,1707,1707,1707,,,,,
60148431,1704,1705,1705,1705,,,,,
60150930,1702,1703,1703,1703,,,,,
60153429,1700,1700,1701,1700,,,,,
60155928,1698,1698,1698,1698,,,,,
60158427,1695,1696,1696,1696,,,,,
60160926,1693,1694,1694,1694,,,,,
60163425,1691,1692,1692,1692,,,,,
60165924,1689,1690,1690,1690,,,,,
60168423,1687,1688,1688,1687,,,,,
60170922,1685,1686,1686,1686,,,,,
60173421,1683,1684,1684,1684,,,,,
60175920,1681,1682,1683,1682,,,,,
60178419,1679,1681,1681,1680,,,,,
60180918,1678,1679,1679,1678,,,,,
60183417,1676,1677,1677,1676,,,,,
60185916,1674,1676,1676,1675,,,,,
60188415,1673,1674,1674,1673,,,,,
60190914,1671,1672,1672,1672,,,,,
60193413,1669,1671,1671,1670,,,,,
60195912,1668,1669,1669,1668,,,,,
60198411,1666,1668,1668,1667,,,,,
60200910,1665,1667,1667,1665,,,,,
60203409,1664,1665,1665,1664,,,,,
60205908,1662,1664,1664,1663,,,,,
60208407,1661,1663,1663,1661,,,,,
60210906,1660,1661,1661,1660,,,,,
