timestamp,TimeUS,C1,C2,C3,C4,C5,C6,C7,C8,C9,C10,C11,C12,C13,C14
1682164575.70004010,53128740,1000,1000,1000,1000,0,0,0,0,0,0,0,0,0,0
1682164575.79999995,53228700,1000,1000,1000,1000,0,0,0,0,0,0,0,0,0,0
1682164575.89996004,53328660,1000,1000,1000,1000,0,0,0,0,0,0,0,0,0,0
1682164575.99992013,53428620,1000,1000,1000,1000,0,0,0,0,0,0,0,0,0,0
1682164576.09987998,53528580,1000,1000,1000,1000,0,0,0,0,0,0,0,0,0,0
1682164576.19984007,53628540,1000,1000,1000,1000,0,0,0,0,0,0,0,0,0,0
1682164576.29979992,53728500,1000,1000,1000,1000,0,0,0,0,0,0,0,0,0,0
1682164576.39976001,53828460,1000,1000,1000,1000,0,0,0,0,0,0,0,0,0,0
1682164576.49972010,53928420,1000,1000,1000,1000,0,0,0,0,0,0,0,0,0,0
1682164576.59967995,54028380,1000,1000,1000,1000,0,0,0,0,0,0,0,0,0,0
1682164576.69964004,54128340,1000,1000,1000,1000,0,0,0,0,0,0,0,0,0,0
1682164576.79960012,54228300,1000,1000,1000,1000,0,0,0,0,0,0,0,0,0,0
1682164576.89955997,54328260,1000,1000,1000,1000,0,0,0,0,0,0,0,0,0,0
1682164576.99952006,54428220,1000,1000,1000,1000,0,0,0,0,0,0,0,0,0,0
1682164577.09947991,54528180,1000,1000,1000,1000,0,0,0,0,0,0,0,0,0,0
1682164577.20027304,54628973,1000,1000,1000,1000,0,0,0,0,0,0,0,0,0,0
1682164577.30023313,54728933,1000,1000,1000,1000,0,0,0,0,0,0,0,0,0,0
1682164577.40019298,54828893,1000,1000,1000,1000,0,0,0,0,0,0,0,0,0,0
1682164577.50015306,54928853,1000,1000,1000,1000,0,0,0,0,0,0,0,0,0,0
1682164577.60011292,55028813,1000,1000,1000,1000,0,0,0,0,0,0,0,0,0,0
1682164577.70007300,55128773,1024,1024,1024,1024,0,0,0,0,0,0,0,0,0,0
1682164577.80003309,55228733,1054,1054,1054,1054,0,0,0,0,0,0,0,0,0,0
1682164577.89999294,55328693,1084,1084,1084,1084,0,0,0,0,0,0,0,0,0,0
1682164577.99995303,55428653,1100,1100,1100,1100,0,0,0,0,0,0,0,0,0,0
1682164578.09991312,55528613,1100,1100,1100,1100,0,0,0,0,0,0,0,0,0,0
1682164578.19987297,55628573,1100,1100,1100,1100,0,0,0,0,0,0,0,0,0,0
1682164578.29983306,55728533,1100,1100,1100,1100,0,0,0,0,0,0,0,0,0,0
1682164578.39979315,55828493,1100,1100,1100,1100,0,0,0,0,0,0,0,0,0,0
1682164578.49975300,55928453,1100,1100,1100,1100,0,0,0,0,0,0,0,0,0,0
1682164578.59971309,56028413,1100,1100,1100,1100,0,0,0,0,0,0,0,0,0,0
1682164578.69967294,56128373,1100,1100,1100,1100,0,0,0,0,0,0,0,0,0,0
1682164578.79963303,56228333,1100,1100,1100,1100,0,0,0,0,0,0,0,0,0,0
1682164578.89959311,56328293,1100,1100,1100,1100,0,0,0,0,0,0,0,0,0,0
1682164578.99955297,56428253,1100,1100,1100,1100,0,0,0,0,0,0,0,0,0,0
1682164579.09951305,56528213,1100,1100,1100,1100,0,0,0,0,0,0,0,0,0,0
1682164579.19947314,56628173,1100,1100,1100,1100,0,0,0,0,0,0,0,0,0,0
1682164579.30026603,56728966,1100,1100,1100,1100,0,0,0,0,0,0,0,0,0,0
1682164579.40022612,56828926,1100,1100,1100,1100,0,0,0,0,0,0,0,0,0,0
1682164579.50018597,56928886,1100,1100,1100,1100,0,0,0,0,0,0,0,0,0,0
1682164579.60014606,57028846,1100,1100,1100,1100,0,0,0,0,0,0,0,0,0,0
1682164579.70010614,57128806,1100,1100,1100,1100,0,0,0,0,0,0,0,0,0,0
1682164579.80006599,57228766,1100,1100,1100,1100,0,0,0,0,0,0,0,0,0,0
1682164579.90002608,57328726,1100,1100,1100,1100,0,0,0,0,0,0,0,0,0,0
1682164579.99998593,57428686,1100,1100,1100,1100,0,0,0,0,0,0,0,0,0,0
1682164580.09994602,57528646,1100,1100,1100,1100,0,0,0,0,0,0,0,0,0,0
1682164580.19990611,57628606,1100,1100,1100,1100,0,0,0,0,0,0,0,0,0,0
1682164580.29986596,57728566,1100,1100,1100,1100,0,0,0,0,0,0,0,0,0,0
1682164580.39982605,57828526,1100,1100,1100,1100,0,0,0,0,0,0,0,0,0,0
1682164580.49978614,57928486,1100,1100,1100,1100,0,0,0,0,0,0,0,0,0,0
1682164580.59974599,58028446,1100,1100,1100,1100,0,0,0,0,0,0,0,0,0,0
1682164580.69970608,58128406,1100,1100,1100,1100,0,0,0,0,0,0,0,0,0,0
1682164580.79966593,58228366,1100,1100,1100,1100,0,0,0,0,0,0,0,0,0,0
1682164580.89962602,58328326,1100,1100,1100,1100,0,0,0,0,0,0,0,0,0,0
1682164580.99958611,58428286,1104,1104,1104,1104,0,0,0,0,0,0,0,0,0,0
1682164581.09954596,58528246,1134,1134,1134,1134,0,0,0,0,0,0,0,0,0,0
1682164581.19950604,58628206,1183,1176,1176,1183,0,0,0,0,0,0,0,0,0,0
1682164581.29946613,58728166,1210,1202,1203,1210,0,0,0,0,0,0,0,0,0,0
1682164581.40025902,58828959,1245,1238,1238,1246,0,0,0,0,0,0,0,0,0,0
1682164581.50021911,58928919,1291,1283,1283,1291,0,0,0,0,0,0,0,0,0,0
1682164581.60017896,59028879,1339,1331,1331,1339,0,0,0,0,0,0,0,0,0,0
1682164581.70013905,59128839,1388,1380,1380,1388,0,0,0,0,0,0,0,0,0,0
1682164581.80009913,59228799,1438,1430,1430,1438,0,0,0,0,0,0,0,0,0,0
1682164581.90005898,59328759,1490,1481,1482,1490,0,0,0,0,0,0,0,0,0,0
1682164582.00001907,59428719,1543,1535,1535,1543,0,0,0,0,0,0,0,0,0,0
1682164582.09997892,59528679,1593,1585,1585,1593,0,0,0,0,0,0,0,0,0,0
1682164582.19993901,59628639,1626,1616,1617,1625,0,0,0,0,0,0,0,0,0,0
1682164582.29989910,59728599,1657,1647,1648,1657,0,0,0,0,0,0,0,0,0,0
1682164582.39985895,59828559,1693,1683,1683,1693,0,0,0,0,0,0,0,0,0,0
1682164582.49981904,59928519,1730,1719,1719,1730,0,0,0,0,0,0,0,0,0,0
1682164582.59977913,60028479,1766,1755,1756,1766,0,0,0,0,0,0,0,0,0,0
1682164582.69973898,60128439,1755,1750,1750,1755,0,0,0,0,0,0,0,0,0,0
1682164582.79969907,60228399,1616,1615,1616,1615,0,0,0,0,0,0,0,0,0,0
1682164582.89965892,60328359,1554,1557,1557,1554,0,0,0,0,0,0,0,0,0,0
1682164582.99961901,60428319,1572,1576,1576,1573,0,0,0,0,0,0,0,0,0,0
1682164583.09957910,60528279,1611,1614,1614,1611,0,0,0,0,0,0,0,0,0,0
1682164583.19953895,60628239,1638,1640,1640,1638,0,0,0,0,0,0,0,0,0,0
1682164583.29949903,60728199,1646,1646,1646,1646,0,0,0,0,0,0,0,0,0,0
1682164583.39945912,60828159,1643,1641,1641,1643,0,0,0,0,0,0,0,0,0,0
1682164583.50025201,60928952,1638,1636,1636,1638,0,0,0,0,0,0,0,0,0,0
1682164583.60021210,61028912,1636,1634,1634,1636,0,0,0,0,0,0,0,0,0,0
1682164583.70017195,61128872,1635,1634,1634,1635,0,0,0,0,0,0,0,0,0,0
1682164583.80013204,61228832,1635,1635,1635,1635,0,0,0,0,0,0,0,0,0,0
1682164583.90009212,61328792,1620,1622,1619,1623,0,0,0,0,0,0,0,0,0,0
1682164584.00005198,61428752,1608,1609,1600,1616,0,0,0,0,0,0,0,0,0,0
1682164584.10001206,61528712,1603,1602,1596,1609,0,0,0,0,0,0,0,0,0,0
1682164584.19997191,61628672,1601,1600,1597,1603,0,0,0,0,0,0,0,0,0,0
1682164584.29993200,61728632,1601,1600,1601,1600,0,0,0,0,0,0,0,0,0,0
1682164584.39989209,61828592,1602,1603,1605,1600,0,0,0,0,0,0,0,0,0,0
1682164584.49985194,61928552,1594,1595,1602,1588,0,0,0,0,0,0,0,0,0,0
1682164584.59981203,62028512,1576,1577,1595,1559,0,0,0,0,0,0,0,0,0,0
1682164584.69977212,62128472,1564,1564,1575,1556,0,0,0,0,0,0,0,0,0,0
1682164584.79973197,62228432,1553,1554,1552,1557,0,0,0,0,0,0,0,0,0,0
1682164584.89969206,62328392,1545,1545,1536,1555,0,0,0,0,0,0,0,0,0,0
1682164584.99965215,62428352,1538,1538,1527,1549,0,0,0,0,0,0,0,0,0,0
1682164585.09961200,62528312,1533,1533,1524,1541,0,0,0,0,0,0,0,0,0,0
1682164585.19957209,62628272,1531,1531,1527,1535,0,0,0,0,0,0,0,0,0,0
1682164585.29953194,62728232,1532,1531,1531,1531,0,0,0,0,0,0,0,0,0,0
1682164585.39949203,62828192,1534,1534,1537,1531,0,0,0,0,0,0,0,0,0,0
1682164585.50028515,62928985,1538,1538,1542,1533,0,0,0,0,0,0,0,0,0,0
1682164585.60024500,63028945,1541,1541,1545,1536,0,0,0,0,0,0,0,0,0,0
1682164585.70020509,63128905,1544,1544,1547,1541,0,0,0,0,0,0,0,0,0,0
1682164585.80016494,63228865,1547,1547,1548,1546,0,0,0,0,0,0,0,0,0,0
1682164585.90012503,63328825,1549,1550,1548,1550,0,0,0,0,0,0,0,0,0,0
1682164586.00008512,63428785,1551,1552,1549,1553,0,0,0,0,0,0,0,0,0,0
1682164586.10004497,63528745,1550,1549,1555,1560,0,0,0,0,0,0,0,0,0,0
1682164586.20000505,63628705,1550,1551,1559,1562,0,0,0,0,0,0,0,0,0,0
1682164586.29996514,63728665,1554,1554,1561,1563,0,0,0,0,0,0,0,0,0,0
1682164586.39992499,63828625,1557,1558,1563,1563,0,0,0,0,0,0,0,0,0,0
1682164586.49988508,63928585,1561,1562,1564,1564,0,0,0,0,0,0,0,0,0,0
1682164586.59984493,64028545,1565,1566,1566,1564,0,0,0,0,0,0,0,0,0,0
1682164586.69980502,64128505,1568,1568,1565,1565,0,0,0,0,0,0,0,0,0,0
1682164586.79976511,64228465,1569,1569,1564,1564,0,0,0,0,0,0,0,0,0,0
1682164586.89972496,64328425,1572,1572,1567,1567,0,0,0,0,0,0,0,0,0,0
1682164586.99968505,64428385,1573,1573,1567,1567,0,0,0,0,0,0,0,0,0,0
1682164587.09964514,64528345,1573,1573,1567,1568,0,0,0,0,0,0,0,0,0,0
1682164587.19960499,64628305,1573,1573,1568,1569,0,0,0,0,0,0,0,0,0,0
1682164587.29956508,64728265,1574,1574,1570,1571,0,0,0,0,0,0,0,0,0,0
1682164587.39952493,64828225,1573,1573,1571,1571,0,0,0,0,0,0,0,0,0,0
1682164587.49948502,64928185,1574,1574,1573,1572,0,0,0,0,0,0,0,0,0,0
1682164587.60027814,65028978,1574,1574,1575,1573,0,0,0,0,0,0,0,0,0,0
1682164587.70023799,65128938,1574,1574,1576,1574,0,0,0,0,0,0,0,0,0,0
1682164587.80019808,65228898,1574,1574,1576,1575,0,0,0,0,0,0,0,0,0,0
1682164587.90015793,65328858,1574,1574,1576,1576,0,0,0,0,0,0,0,0,0,0
1682164588.00011802,65428818,1574,1575,1576,1577,0,0,0,0,0,0,0,0,0,0
1682164588.10007811,65528778,1575,1575,1577,1577,0,0,0,0,0,0,0,0,0,0
1682164588.20003796,65628738,1575,1575,1577,1577,0,0,0,0,0,0,0,0,0,0
1682164588.29999804,65728698,1576,1576,1577,1578,0,0,0,0,0,0,0,0,0,0
1682164588.39995813,65828658,1575,1576,1576,1576,0,0,0,0,0,0,0,0,0,0
1682164588.49991798,65928618,1576,1576,1577,1576,0,0,0,0,0,0,0,0,0,0
1682164588.59987807,66028578,1577,1577,1576,1576,0,0,0,0,0,0,0,0,0,0
1682164588.69983792,66128538,1577,1577,1576,1577,0,0,0,0,0,0,0,0,0,0
1682164588.79979801,66228498,1578,1577,1577,1577,0,0,0,0,0,0,0,0,0,0
1682164588.89975810,66328458,1578,1578,1577,1577,0,0,0,0,0,0,0,0,0,0
1682164588.99971795,66428418,1578,1578,1578,1577,0,0,0,0,0,0,0,0,0,0
1682164589.09967804,66528378,1578,1578,1578,1577,0,0,0,0,0,0,0,0,0,0
1682164589.19963813,66628338,1579,1579,1578,1578,0,0,0,0,0,0,0,0,0,0
1682164589.29959798,66728298,1579,1579,1579,1578,0,0,0,0,0,0,0,0,0,0
1682164589.39955807,66828258,1579,1579,1579,1579,0,0,0,0,0,0,0,0,0,0
1682164589.49951792,66928218,1579,1579,1579,1579,0,0,0,0,0,0,0,0,0,0
1682164589.59947801,67028178,1579,1579,1579,1579,0,0,0,0,0,0,0,0,0,0
1682164589.70027113,67128971,1579,1579,1579,1579,0,0,0,0,0,0,0,0,0,0
1682164589.80023098,67228931,1579,1579,1580,1580,0,0,0,0,0,0,0,0,0,0
1682164589.90019107,67328891,1579,1580,1580,1580,0,0,0,0,0,0,0,0,0,0
1682164590.00015092,67428851,1580,1580,1580,1580,0,0,0,0,0,0,0,0,0,0
1682164590.10011101,67528811,1579,1579,1579,1579,0,0,0,0,0,0,0,0,0,0
1682164590.20007110,67628771,1579,1579,1580,1579,0,0,0,0,0,0,0,0,0,0
1682164590.30003095,67728731,1580,1580,1579,1580,0,0,0,0,0,0,0,0,0,0
1682164590.39999104,67828691,1580,1580,1579,1580,0,0,0,0,0,0,0,0,0,0
1682164590.49995112,67928651,1579,1579,1579,1579,0,0,0,0,0,0,0,0,0,0
1682164590.59991097,68028611,1580,1580,1580,1580,0,0,0,0,0,0,0,0,0,0
1682164590.69987106,68128571,1580,1580,1580,1580,0,0,0,0,0,0,0,0,0,0
1682164590.79983091,68228531,1580,1580,1581,1580,0,0,0,0,0,0,0,0,0,0
1682164590.89979100,68328491,1580,1579,1579,1580,0,0,0,0,0,0,0,0,0,0
1682164590.99975109,68428451,1580,1580,1580,1580,0,0,0,0,0,0,0,0,0,0
1682164591.09971094,68528411,1580,1580,1580,1580,0,0,0,0,0,0,0,0,0,0
1682164591.19967103,68628371,1580,1580,1580,1580,0,0,0,0,0,0,0,0,0,0
1682164591.29963112,68728331,1580,1580,1580,1580,0,0,0,0,0,0,0,0,0,0
1682164591.39959097,68828291,1580,1581,1581,1581,0,0,0,0,0,0,0,0,0,0
1682164591.49955106,68928251,1580,1580,1580,1580,0,0,0,0,0,0,0,0,0,0
1682164591.59951115,69028211,1580,1580,1580,1580,0,0,0,0,0,0,0,0,0,0
1682164591.69947100,69128171,1580,1580,1580,1580,0,0,0,0,0,0,0,0,0,0
1682164591.80026412,69228964,1581,1580,1581,1581,0,0,0,0,0,0,0,0,0,0
1682164591.90022397,69328924,1581,1581,1581,1581,0,0,0,0,0,0,0,0,0,0
1682164592.00018406,69428884,1581,1582,1582,1582,0,0,0,0,0,0,0,0,0,0
1682164592.10014415,69528844,1581,1581,1581,1581,0,0,0,0,0,0,0,0,0,0
1682164592.20010400,69628804,1581,1581,1581,1581,0,0,0,0,0,0,0,0,0,0
1682164592.30006409,69728764,1581,1581,1582,1580,0,0,0,0,0,0,0,0,0,0
1682164592.40002394,69828724,1581,1582,1588,1573,0,0,0,0,0,0,0,0,0,0
1682164592.49998403,69928684,1579,1582,1583,1573,0,0,0,0,0,0,0,0,0,0
1682164592.59994411,70028644,1578,1581,1574,1573,0,0,0,0,0,0,0,0,0,0
1682164592.69990396,70128604,1577,1580,1566,1571,0,0,0,0,0,0,0,0,0,0
1682164592.79986405,70228564,1577,1579,1560,1567,0,0,0,0,0,0,0,0,0,0
1682164592.89982414,70328524,1578,1578,1556,1562,0,0,0,0,0,0,0,0,0,0
1682164592.99978399,70428484,1579,1578,1556,1559,0,0,0,0,0,0,0,0,0,0
1682164593.09974408,70528444,1580,1578,1556,1555,0,0,0,0,0,0,0,0,0,0
1682164593.19970393,70628404,1579,1577,1556,1554,0,0,0,0,0,0,0,0,0,0
1682164593.29966402,70728364,1577,1577,1556,1553,0,0,0,0,0,0,0,0,0,0
1682164593.39962411,70828324,1576,1578,1556,1554,0,0,0,0,0,0,0,0,0,0
1682164593.49958396,70928284,1575,1577,1554,1554,0,0,0,0,0,0,0,0,0,0
1682164593.59954405,71028244,1575,1577,1554,1554,0,0,0,0,0,0,0,0,0,0
1682164593.69950414,71128204,1575,1576,1552,1553,0,0,0,0,0,0,0,0,0,0
1682164593.79946399,71228164,1576,1577,1552,1552,0,0,0,0,0,0,0,0,0,0
1682164593.90025711,71328957,1576,1578,1550,1550,0,0,0,0,0,0,0,0,0,0
1682164594.00021696,71428917,1579,1579,1547,1547,0,0,0,0,0,0,0,0,0,0
1682164594.10017705,71528877,1582,1582,1545,1545,0,0,0,0,0,0,0,0,0,0
1682164594.20013714,71628837,1584,1585,1542,1541,0,0,0,0,0,0,0,0,0,0
1682164594.30009699,71728797,1587,1588,1539,1538,0,0,0,0,0,0,0,0,0,0
1682164594.40005708,71828757,1590,1591,1537,1536,0,0,0,0,0,0,0,0,0,0
1682164594.50001693,71928717,1593,1594,1535,1536,0,0,0,0,0,0,0,0,0,0
1682164594.59997702,72028677,1595,1595,1535,1535,0,0,0,0,0,0,0,0,0,0
1682164594.69993711,72128637,1595,1595,1534,1536,0,0,0,0,0,0,0,0,0,0
1682164594.79989696,72228597,1594,1594,1536,1539,0,0,0,0,0,0,0,0,0,0
1682164594.89985704,72328557,1593,1591,1541,1543,0,0,0,0,0,0,0,0,0,0
1682164594.99981713,72428517,1588,1587,1546,1549,0,0,0,0,0,0,0,0,0,0
1682164595.09977698,72528477,1582,1579,1555,1557,0,0,0,0,0,0,0,0,0,0
1682164595.19973707,72628437,1572,1569,1564,1567,0,0,0,0,0,0,0,0,0,0
1682164595.29969692,72728397,1561,1558,1577,1579,0,0,0,0,0,0,0,0,0,0
1682164595.39965701,72828357,1550,1547,1589,1590,0,0,0,0,0,0,0,0,0,0
1682164595.49961710,72928317,1541,1539,1601,1601,0,0,0,0,0,0,0,0,0,0
1682164595.59957695,73028277,1533,1532,1609,1608,0,0,0,0,0,0,0,0,0,0
1682164595.69953704,73128237,1529,1529,1614,1613,0,0,0,0,0,0,0,0,0,0
1682164595.79949713,73228197,1529,1531,1616,1615,0,0,0,0,0,0,0,0,0,0
1682164595.89945698,73328157,1532,1535,1613,1613,0,0,0,0,0,0,0,0,0,0
1682164596.00025010,73428950,1538,1540,1608,1608,0,0,0,0,0,0,0,0,0,0
1682164596.10020995,73528910,1545,1547,1601,1601,0,0,0,0,0,0,0,0,0,0
1682164596.20017004,73628870,1555,1556,1594,1594,0,0,0,0,0,0,0,0,0,0
1682164596.30013013,73728830,1565,1565,1587,1587,0,0,0,0,0,0,0,0,0,0
1682164596.40008998,73828790,1573,1572,1580,1579,0,0,0,0,0,0,0,0,0,0
1682164596.50005007,73928750,1579,1578,1573,1573,0,0,0,0,0,0,0,0,0,0
1682164596.60000992,74028710,1584,1583,1570,1569,0,0,0,0,0,0,0,0,0,0
1682164596.69997001,74128670,1587,1585,1566,1566,0,0,0,0,0,0,0,0,0,0
1682164596.79993010,74228630,1587,1586,1565,1565,0,0,0,0,0,0,0,0,0,0
1682164596.89988995,74328590,1587,1585,1566,1566,0,0,0,0,0,0,0,0,0,0
1682164596.99985003,74428550,1585,1584,1568,1568,0,0,0,0,0,0,0,0,0,0
1682164597.09981012,74528510,1583,1583,1572,1572,0,0,0,0,0,0,0,0,0,0
1682164597.19976997,74628470,1580,1580,1574,1574,0,0,0,0,0,0,0,0,0,0
1682164597.29973006,74728430,1577,1577,1577,1577,0,0,0,0,0,0,0,0,0,0
1682164597.39968991,74828390,1575,1575,1580,1580,0,0,0,0,0,0,0,0,0,0
1682164597.49965000,74928350,1323,1325,1621,1625,0,0,0,0,0,0,0,0,0,0
1682164597.59961009,75028310,1402,1408,1649,1654,0,0,0,0,0,0,0,0,0,0
1682164597.69956994,75128270,1463,1473,1642,1640,0,0,0,0,0,0,0,0,0,0
1682164597.79953003,75228230,1517,1525,1627,1620,0,0,0,0,0,0,0,0,0,0
1682164597.89949012,75328190,1560,1563,1616,1607,0,0,0,0,0,0,0,0,0,0
1682164598.00028300,75428983,1592,1589,1608,1601,0,0,0,0,0,0,0,0,0,0
1682164598.10024309,75528943,1621,1607,1592,1590,0,0,0,0,0,0,0,0,0,0
1682164598.20020294,75628903,1647,1633,1567,1573,0,0,0,0,0,0,0,0,0,0
1682164598.30016303,75728863,1650,1639,1527,1539,0,0,0,0,0,0,0,0,0,0
1682164598.40012312,75828823,1650,1648,1539,1550,0,0,0,0,0,0,0,0,0,0
1682164598.50008297,75928783,1644,1650,1556,1562,0,0,0,0,0,0,0,0,0,0
1682164598.60004306,76028743,1641,1650,1575,1574,0,0,0,0,0,0,0,0,0,0
1682164598.70000315,76128703,1632,1639,1577,1573,0,0,0,0,0,0,0,0,0,0
1682164598.79996300,76228663,1624,1629,1576,1573,0,0,0,0,0,0,0,0,0,0
1682164598.89992309,76328623,1619,1620,1576,1573,0,0,0,0,0,0,0,0,0,0
1682164598.99988294,76428583,1615,1613,1577,1574,0,0,0,0,0,0,0,0,0,0
1682164599.09984303,76528543,1611,1608,1575,1575,0,0,0,0,0,0,0,0,0,0
1682164599.19980311,76628503,1607,1604,1574,1575,0,0,0,0,0,0,0,0,0,0
1682164599.29976296,76728463,1602,1600,1571,1573,0,0,0,0,0,0,0,0,0,0
1682164599.39972305,76828423,1597,1597,1570,1570,0,0,0,0,0,0,0,0,0,0
1682164599.49968314,76928383,1594,1595,1569,1569,0,0,0,0,0,0,0,0,0,0
1682164599.59964299,77028343,1592,1593,1570,1569,0,0,0,0,0,0,0,0,0,0
1682164599.69960308,77128303,1590,1591,1569,1568,0,0,0,0,0,0,0,0,0,0
1682164599.79956293,77228263,1588,1589,1569,1567,0,0,0,0,0,0,0,0,0,0
1682164599.89952302,77328223,1588,1588,1568,1568,0,0,0,0,0,0,0,0,0,0
1682164599.99948311,77428183,1589,1588,1569,1569,0,0,0,0,0,0,0,0,0,0
1682164600.10027599,77528976,1588,1587,1569,1569,0,0,0,0,0,0,0,0,0,0
1682164600.20023608,77628936,1588,1587,1569,1569,0,0,0,0,0,0,0,0,0,0
1682164600.30019593,77728896,1588,1587,1569,1569,0,0,0,0,0,0,0,0,0,0
1682164600.40015602,77828856,1590,1585,1575,1563,0,0,0,0,0,0,0,0,0,0
1682164600.50011611,77928816,1590,1583,1572,1564,0,0,0,0,0,0,0,0,0,0
1682164600.60007596,78028776,1583,1576,1572,1571,0,0,0,0,0,0,0,0,0,0
1682164600.70003605,78128736,1570,1567,1577,1579,0,0,0,0,0,0,0,0,0,0
1682164600.79999614,78228696,1555,1558,1582,1586,0,0,0,0,0,0,0,0,0,0
1682164600.89995599,78328656,1545,1551,1586,1590,0,0,0,0,0,0,0,0,0,0
1682164600.99991608,78428616,1540,1548,1588,1589,0,0,0,0,0,0,0,0,0,0
1682164601.09987593,78528576,1541,1548,1587,1584,0,0,0,0,0,0,0,0,0,0
1682164601.19983602,78628536,1545,1550,1581,1577,0,0,0,0,0,0,0,0,0,0
1682164601.29979610,78728496,1552,1554,1573,1569,0,0,0,0,0,0,0,0,0,0
1682164601.39975595,78828456,1561,1560,1562,1559,0,0,0,0,0,0,0,0,0,0
1682164601.49971604,78928416,1570,1567,1551,1550,0,0,0,0,0,0,0,0,0,0
1682164601.59967613,79028376,1578,1576,1543,1543,0,0,0,0,0,0,0,0,0,0
1682164601.69963598,79128336,1584,1582,1534,1535,0,0,0,0,0,0,0,0,0,0
1682164601.79959607,79228296,1587,1587,1530,1531,0,0,0,0,0,0,0,0,0,0
1682164601.89955592,79328256,1589,1590,1528,1528,0,0,0,0,0,0,0,0,0,0
1682164601.99951601,79428216,1589,1592,1529,1528,0,0,0,0,0,0,0,0,0,0
1682164602.09947610,79528176,1588,1591,1532,1531,0,0,0,0,0,0,0,0,0,0
1682164602.20026898,79628969,1586,1588,1536,1535,0,0,0,0,0,0,0,0,0,0
1682164602.30022907,79728929,1584,1585,1539,1539,0,0,0,0,0,0,0,0,0,0
1682164602.40018892,79828889,1582,1583,1542,1542,0,0,0,0,0,0,0,0,0,0
1682164602.50014901,79928849,1581,1580,1544,1544,0,0,0,0,0,0,0,0,0,0
1682164602.60010910,80028809,1580,1579,1545,1547,0,0,0,0,0,0,0,0,0,0
1682164602.70006895,80128769,1580,1579,1547,1549,0,0,0,0,0,0,0,0,0,0
1682164602.80002904,80228729,1579,1579,1547,1549,0,0,0,0,0,0,0,0,0,0
1682164602.89998913,80328689,1580,1579,1549,1551,0,0,0,0,0,0,0,0,0,0
1682164602.99994898,80428649,1580,1579,1549,1553,0,0,0,0,0,0,0,0,0,0
1682164603.09990907,80528609,1580,1579,1550,1553,0,0,0,0,0,0,0,0,0,0
1682164603.19986892,80628569,1580,1579,1550,1553,0,0,0,0,0,0,0,0,0,0
1682164603.29982901,80728529,1580,1579,1551,1553,0,0,0,0,0,0,0,0,0,0
1682164603.39978909,80828489,1579,1579,1551,1553,0,0,0,0,0,0,0,0,0,0
1682164603.49974895,80928449,1575,1573,1557,1560,0,0,0,0,0,0,0,0,0,0
1682164603.59970903,81028409,1564,1561,1572,1576,0,0,0,0,0,0,0,0,0,0
1682164603.69966912,81128369,1553,1551,1585,1588,0,0,0,0,0,0,0,0,0,0
1682164603.79962897,81228329,1545,1543,1593,1594,0,0,0,0,0,0,0,0,0,0
1682164603.89958906,81328289,1539,1539,1598,1597,0,0,0,0,0,0,0,0,0,0
1682164603.99954891,81428249,1536,1538,1601,1598,0,0,0,0,0,0,0,0,0,0
1682164604.09950900,81528209,1536,1538,1601,1599,0,0,0,0,0,0,0,0,0,0
1682164604.19946909,81628169,1537,1538,1599,1597,0,0,0,0,0,0,0,0,0,0
1682164604.30026197,81728962,1540,1542,1598,1597,0,0,0,0,0,0,0,0,0,0
1682164604.40022206,81828922,1544,1545,1595,1594,0,0,0,0,0,0,0,0,0,0
1682164604.50018191,81928882,1548,1549,1591,1591,0,0,0,0,0,0,0,0,0,0
1682164604.60014200,82028842,1553,1554,1588,1588,0,0,0,0,0,0,0,0,0,0
1682164604.70010209,82128802,1558,1559,1584,1585,0,0,0,0,0,0,0,0,0,0
1682164604.80006194,82228762,1563,1563,1581,1581,0,0,0,0,0,0,0,0,0,0
1682164604.90002203,82328722,1568,1568,1580,1579,0,0,0,0,0,0,0,0,0,0
1682164604.99998212,82428682,1572,1572,1578,1578,0,0,0,0,0,0,0,0,0,0
1682164605.09994197,82528642,1575,1575,1576,1575,0,0,0,0,0,0,0,0,0,0
1682164605.19990206,82628602,1578,1577,1574,1574,0,0,0,0,0,0,0,0,0,0
1682164605.29986215,82728562,1581,1580,1575,1574,0,0,0,0,0,0,0,0,0,0
1682164605.39982200,82828522,1582,1581,1573,1573,0,0,0,0,0,0,0,0,0,0
1682164605.49978209,82928482,1584,1583,1574,1574,0,0,0,0,0,0,0,0,0,0
1682164605.59974194,83028442,1584,1583,1573,1573,0,0,0,0,0,0,0,0,0,0
1682164605.69970202,83128402,1584,1583,1573,1573,0,0,0,0,0,0,0,0,0,0
1682164605.79966211,83228362,1584,1584,1574,1574,0,0,0,0,0,0,0,0,0,0
1682164605.89962196,83328322,1584,1584,1574,1574,0,0,0,0,0,0,0,0,0,0
1682164605.99958205,83428282,1584,1584,1575,1575,0,0,0,0,0,0,0,0,0,0
1682164606.09954214,83528242,1583,1583,1575,1575,0,0,0,0,0,0,0,0,0,0
1682164606.19950199,83628202,1582,1583,1575,1575,0,0,0,0,0,0,0,0,0,0
1682164606.29946208,83728162,1582,1582,1576,1576,0,0,0,0,0,0,0,0,0,0
1682164606.40025496,83828955,1582,1582,1577,1576,0,0,0,0,0,0,0,0,0,0
1682164606.50021505,83928915,1581,1581,1577,1577,0,0,0,0,0,0,0,0,0,0
1682164606.60017514,84028875,1581,1581,1578,1578,0,0,0,0,0,0,0,0,0,0
1682164606.70013499,84128835,1580,1580,1578,1578,0,0,0,0,0,0,0,0,0,0
1682164606.80009508,84228795,1580,1581,1579,1578,0,0,0,0,0,0,0,0,0,0
1682164606.90005493,84328755,1580,1580,1578,1578,0,0,0,0,0,0,0,0,0,0
1682164607.00001502,84428715,1580,1580,1579,1579,0,0,0,0,0,0,0,0,0,0
1682164607.09997511,84528675,1580,1580,1579,1579,0,0,0,0,0,0,0,0,0,0
1682164607.19993496,84628635,1580,1580,1580,1580,0,0,0,0,0,0,0,0,0,0
1682164607.29989505,84728595,1580,1580,1580,1580,0,0,0,0,0,0,0,0,0,0
1682164607.39985514,84828555,1580,1580,1581,1581,0,0,0,0,0,0,0,0,0,0
1682164607.49981499,84928515,1580,1580,1580,1581,0,0,0,0,0,0,0,0,0,0
1682164607.59977508,85028475,1580,1580,1581,1581,0,0,0,0,0,0,0,0,0,0
1682164607.69973493,85128435,1579,1580,1580,1580,0,0,0,0,0,0,0,0,0,0
1682164607.79969501,85228395,1580,1580,1580,1580,0,0,0,0,0,0,0,0,0,0
1682164607.89965510,85328355,1581,1581,1581,1581,0,0,0,0,0,0,0,0,0,0
1682164607.99961495,85428315,1581,1580,1581,1580,0,0,0,0,0,0,0,0,0,0
1682164608.09957504,85528275,1580,1580,1580,1580,0,0,0,0,0,0,0,0,0,0
1682164608.19953513,85628235,1581,1580,1580,1581,0,0,0,0,0,0,0,0,0,0
1682164608.29949498,85728195,1581,1580,1580,1580,0,0,0,0,0,0,0,0,0,0
1682164608.39945507,85828155,1580,1580,1580,1580,0,0,0,0,0,0,0,0,0,0
1682164608.50024796,85928948,1580,1580,1579,1579,0,0,0,0,0,0,0,0,0,0
1682164608.60020804,86028908,1580,1581,1580,1580,0,0,0,0,0,0,0,0,0,0
1682164608.70016813,86128868,1581,1581,1580,1580,0,0,0,0,0,0,0,0,0,0
1682164608.80012798,86228828,1581,1582,1581,1581,0,0,0,0,0,0,0,0,0,0
1682164608.90008807,86328788,1582,1582,1582,1581,0,0,0,0,0,0,0,0,0,0
1682164609.00004792,86428748,1582,1582,1582,1582,0,0,0,0,0,0,0,0,0,0
1682164609.10000801,86528708,1581,1581,1581,1581,0,0,0,0,0,0,0,0,0,0
1682164609.19996810,86628668,1582,1581,1581,1581,0,0,0,0,0,0,0,0,0,0
1682164609.29992795,86728628,1582,1582,1581,1581,0,0,0,0,0,0,0,0,0,0
1682164609.39988804,86828588,1582,1581,1587,1575,0,0,0,0,0,0,0,0,0,0
1682164609.49984813,86928548,1582,1581,1586,1574,0,0,0,0,0,0,0,0,0,0
1682164609.59980798,87028508,1580,1581,1577,1574,0,0,0,0,0,0,0,0,0,0
1682164609.69976807,87128468,1578,1579,1568,1572,0,0,0,0,0,0,0,0,0,0
1682164609.79972792,87228428,1575,1578,1561,1567,0,0,0,0,0,0,0,0,0,0
1682164609.89968801,87328388,1575,1577,1558,1563,0,0,0,0,0,0,0,0,0,0
1682164609.99964809,87428348,1575,1577,1557,1560,0,0,0,0,0,0,0,0,0,0
1682164610.09960794,87528308,1576,1577,1558,1557,0,0,0,0,0,0,0,0,0,0
1682164610.19956803,87628268,1575,1575,1556,1555,0,0,0,0,0,0,0,0,0,0
1682164610.29952812,87728228,1576,1575,1557,1555,0,0,0,0,0,0,0,0,0,0
1682164610.39948797,87828188,1576,1576,1556,1554,0,0,0,0,0,0,0,0,0,0
1682164610.50028110,87928981,1576,1576,1556,1555,0,0,0,0,0,0,0,0,0,0
1682164610.60024095,88028941,1576,1576,1555,1554,0,0,0,0,0,0,0,0,0,0
1682164610.70020103,88128901,1575,1576,1553,1553,0,0,0,0,0,0,0,0,0,0
1682164610.80016112,88228861,1575,1576,1550,1551,0,0,0,0,0,0,0,0,0,0
1682164610.90012097,88328821,1576,1577,1549,1549,0,0,0,0,0,0,0,0,0,0
1682164611.00008106,88428781,1577,1579,1548,1548,0,0,0,0,0,0,0,0,0,0
1682164611.10004091,88528741,1578,1580,1546,1545,0,0,0,0,0,0,0,0,0,0
1682164611.20000100,88628701,1580,1581,1545,1544,0,0,0,0,0,0,0,0,0,0
1682164611.29996109,88728661,1582,1583,1543,1543,0,0,0,0,0,0,0,0,0,0
1682164611.39992094,88828621,1584,1585,1541,1540,0,0,0,0,0,0,0,0,0,0
1682164611.49988103,88928581,1587,1586,1539,1540,0,0,0,0,0,0,0,0,0,0
1682164611.59984112,89028541,1589,1588,1539,1539,0,0,0,0,0,0,0,0,0,0
1682164611.69980097,89128501,1590,1589,1539,1540,0,0,0,0,0,0,0,0,0,0
1682164611.79976106,89228461,1590,1590,1541,1541,0,0,0,0,0,0,0,0,0,0
1682164611.89972115,89328421,1589,1589,1542,1544,0,0,0,0,0,0,0,0,0,0
1682164611.99968100,89428381,1588,1588,1545,1548,0,0,0,0,0,0,0,0,0,0
1682164612.09964108,89528341,1585,1584,1548,1551,0,0,0,0,0,0,0,0,0,0
1682164612.19960093,89628301,1581,1580,1553,1556,0,0,0,0,0,0,0,0,0,0
1682164612.29956102,89728261,1576,1574,1560,1563,0,0,0,0,0,0,0,0,0,0
1682164612.39952111,89828221,1570,1568,1569,1571,0,0,0,0,0,0,0,0,0,0
1682164612.49948096,89928181,1563,1560,1577,1579,0,0,0,0,0,0,0,0,0,0
1682164612.60027409,90028974,1555,1552,1588,1588,0,0,0,0,0,0,0,0,0,0
1682164612.70023394,90128934,1546,1544,1598,1597,0,0,0,0,0,0,0,0,0,0
1682164612.80019403,90228894,1539,1538,1606,1605,0,0,0,0,0,0,0,0,0,0
1682164612.90015411,90328854,1533,1534,1610,1610,0,0,0,0,0,0,0,0,0,0
1682164613.00011396,90428814,1532,1533,1612,1611,0,0,0,0,0,0,0,0,0,0
1682164613.10007405,90528774,1533,1535,1611,1610,0,0,0,0,0,0,0,0,0,0
1682164613.20003414,90628734,1536,1539,1606,1606,0,0,0,0,0,0,0,0,0,0
1682164613.29999399,90728694,1542,1544,1600,1600,0,0,0,0,0,0,0,0,0,0
1682164613.39995408,90828654,1550,1551,1594,1593,0,0,0,0,0,0,0,0,0,0
1682164613.49991393,90928614,1558,1559,1587,1586,0,0,0,0,0,0,0,0,0,0
1682164613.59987402,91028574,1566,1566,1580,1579,0,0,0,0,0,0,0,0,0,0
1682164613.69983411,91128534,1574,1573,1574,1574,0,0,0,0,0,0,0,0,0,0
1682164613.79979396,91228494,1580,1579,1570,1569,0,0,0,0,0,0,0,0,0,0
1682164613.89975405,91328454,1585,1584,1567,1567,0,0,0,0,0,0,0,0,0,0
1682164613.99971414,91428414,1588,1586,1565,1565,0,0,0,0,0,0,0,0,0,0
1682164614.09967399,91528374,1589,1587,1565,1565,0,0,0,0,0,0,0,0,0,0
1682164614.19963408,91628334,1589,1588,1567,1567,0,0,0,0,0,0,0,0,0,0
1682164614.29959393,91728294,1587,1586,1569,1568,0,0,0,0,0,0,0,0,0,0
1682164614.39955401,91828254,1586,1586,1572,1572,0,0,0,0,0,0,0,0,0,0
1682164614.49951410,91928214,1584,1584,1575,1575,0,0,0,0,0,0,0,0,0,0
1682164614.59947395,92028174,1582,1582,1576,1577,0,0,0,0,0,0,0,0,0,0
1682164614.70026708,92128967,1580,1581,1579,1579,0,0,0,0,0,0,0,0,0,0
1682164614.80022693,92228927,1577,1578,1581,1581,0,0,0,0,0,0,0,0,0,0
1682164614.90018702,92328887,1576,1576,1583,1583,0,0,0,0,0,0,0,0,0,0
1682164615.00014710,92428847,1574,1575,1584,1584,0,0,0,0,0,0,0,0,0,0
1682164615.10010695,92528807,1574,1574,1584,1584,0,0,0,0,0,0,0,0,0,0
1682164615.20006704,92628767,1574,1574,1585,1584,0,0,0,0,0,0,0,0,0,0
1682164615.30002713,92728727,1574,1574,1584,1583,0,0,0,0,0,0,0,0,0,0
1682164615.39998698,92828687,1575,1575,1583,1583,0,0,0,0,0,0,0,0,0,0
1682164615.49994707,92928647,1576,1576,1581,1581,0,0,0,0,0,0,0,0,0,0
1682164615.59990692,93028607,1577,1577,1581,1581,0,0,0,0,0,0,0,0,0,0
1682164615.69986701,93128567,1578,1578,1580,1580,0,0,0,0,0,0,0,0,0,0
1682164615.79982710,93228527,1579,1579,1579,1579,0,0,0,0,0,0,0,0,0,0
1682164615.89978695,93328487,1580,1580,1578,1578,0,0,0,0,0,0,0,0,0,0
1682164615.99974704,93428447,1582,1581,1578,1578,0,0,0,0,0,0,0,0,0,0
1682164616.09970713,93528407,1582,1581,1577,1577,0,0,0,0,0,0,0,0,0,0
1682164616.19966698,93628367,1582,1582,1577,1577,0,0,0,0,0,0,0,0,0,0
1682164616.29962707,93728327,1582,1582,1578,1578,0,0,0,0,0,0,0,0,0,0
1682164616.39958692,93828287,1582,1582,1578,1578,0,0,0,0,0,0,0,0,0,0
1682164616.49954700,93928247,1582,1582,1579,1579,0,0,0,0,0,0,0,0,0,0
1682164616.59950709,94028207,1582,1582,1580,1580,0,0,0,0,0,0,0,0,0,0
1682164616.69946694,94128167,1581,1582,1580,1581,0,0,0,0,0,0,0,0,0,0
1682164616.80026007,94228960,1581,1581,1581,1581,0,0,0,0,0,0,0,0,0,0
1682164616.90021992,94328920,1581,1580,1581,1581,0,0,0,0,0,0,0,0,0,0
1682164617.00018001,94428880,1581,1581,1582,1582,0,0,0,0,0,0,0,0,0,0
1682164617.10014009,94528840,1581,1581,1582,1582,0,0,0,0,0,0,0,0,0,0
1682164617.20009995,94628800,1580,1581,1582,1582,0,0,0,0,0,0,0,0,0,0
1682164617.30006003,94728760,1580,1580,1581,1582,0,0,0,0,0,0,0,0,0,0
1682164617.40002012,94828720,1581,1581,1582,1582,0,0,0,0,0,0,0,0,0,0
1682164617.49997997,94928680,1581,1581,1582,1582,0,0,0,0,0,0,0,0,0,0
1682164617.59994006,95028640,1582,1582,1589,1576,0,0,0,0,0,0,0,0,0,0
1682164617.69989991,95128600,1581,1581,1587,1574,0,0,0,0,0,0,0,0,0,0
1682164617.79986000,95228560,1580,1578,1580,1575,0,0,0,0,0,0,0,0,0,0
1682164617.89982009,95328520,1576,1575,1571,1574,0,0,0,0,0,0,0,0,0,0
1682164617.99977994,95428480,1573,1573,1566,1573,0,0,0,0,0,0,0,0,0,0
1682164618.09974003,95528440,1570,1570,1564,1570,0,0,0,0,0,0,0,0,0,0
1682164618.19970012,95628400,1568,1569,1564,1568,0,0,0,0,0,0,0,0,0,0
1682164618.29965997,95728360,1567,1569,1566,1567,0,0,0,0,0,0,0,0,0,0
1682164618.39962006,95828320,1566,1568,1567,1566,0,0,0,0,0,0,0,0,0,0
1682164618.49958014,95928280,1566,1566,1568,1565,0,0,0,0,0,0,0,0,0,0
1682164618.59954000,96028240,1565,1565,1567,1564,0,0,0,0,0,0,0,0,0,0
1682164618.69950008,96128200,1565,1564,1567,1565,0,0,0,0,0,0,0,0,0,0
1682164618.79945993,96228160,1564,1564,1566,1565,0,0,0,0,0,0,0,0,0,0
1682164618.90025306,96328953,1564,1563,1565,1565,0,0,0,0,0,0,0,0,0,0
1682164619.00021315,96428913,1563,1562,1564,1564,0,0,0,0,0,0,0,0,0,0
1682164619.10017300,96528873,1563,1563,1564,1564,0,0,0,0,0,0,0,0,0,0
1682164619.20013309,96628833,1561,1561,1562,1562,0,0,0,0,0,0,0,0,0,0
1682164619.30009294,96728793,1561,1562,1563,1563,0,0,0,0,0,0,0,0,0,0
1682164619.40005302,96828753,1561,1562,1562,1562,0,0,0,0,0,0,0,0,0,0
1682164619.50001311,96928713,1562,1561,1562,1561,0,0,0,0,0,0,0,0,0,0
1682164619.59997296,97028673,1561,1561,1561,1561,0,0,0,0,0,0,0,0,0,0
1682164619.69993305,97128633,1562,1561,1562,1561,0,0,0,0,0,0,0,0,0,0
1682164619.79989314,97228593,1561,1561,1561,1560,0,0,0,0,0,0,0,0,0,0
1682164619.89985299,97328553,1561,1561,1561,1560,0,0,0,0,0,0,0,0,0,0
1682164619.99981308,97428513,1561,1560,1560,1559,0,0,0,0,0,0,0,0,0,0
1682164620.09977293,97528473,1561,1560,1561,1559,0,0,0,0,0,0,0,0,0,0
1682164620.19973302,97628433,1560,1560,1561,1559,0,0,0,0,0,0,0,0,0,0
1682164620.29969311,97728393,1560,1560,1561,1559,0,0,0,0,0,0,0,0,0,0
1682164620.39965296,97828353,1560,1559,1560,1558,0,0,0,0,0,0,0,0,0,0
1682164620.49961305,97928313,1560,1559,1558,1561,0,0,0,0,0,0,0,0,0,0
1682164620.59957314,98028273,1560,1560,1557,1563,0,0,0,0,0,0,0,0,0,0
1682164620.69953299,98128233,1560,1561,1558,1564,0,0,0,0,0,0,0,0,0,0
1682164620.79949307,98228193,1560,1560,1559,1563,0,0,0,0,0,0,0,0,0,0
1682164620.90028596,98328986,1558,1559,1559,1559,0,0,0,0,0,0,0,0,0,0
1682164621.00024605,98428946,1558,1559,1559,1558,0,0,0,0,0,0,0,0,0,0
1682164621.10020614,98528906,1558,1558,1556,1558,0,0,0,0,0,0,0,0,0,0
1682164621.20016599,98628866,1554,1555,1552,1554,0,0,0,0,0,0,0,0,0,0
1682164621.30012608,98728826,1551,1551,1548,1549,0,0,0,0,0,0,0,0,0,0
1682164621.40008593,98828786,1545,1546,1542,1542,0,0,0,0,0,0,0,0,0,0
1682164621.50004601,98928746,1541,1540,1536,1536,0,0,0,0,0,0,0,0,0,0
1682164621.60000610,99028706,1535,1534,1530,1529,0,0,0,0,0,0,0,0,0,0
1682164621.69996595,99128666,1527,1527,1522,1522,0,0,0,0,0,0,0,0,0,0
1682164621.79992604,99228626,1523,1523,1519,1519,0,0,0,0,0,0,0,0,0,0
1682164621.89988613,99328586,1520,1520,1518,1519,0,0,0,0,0,0,0,0,0,0
1682164621.99984598,99428546,1519,1519,1520,1520,0,0,0,0,0,0,0,0,0,0
1682164622.09980607,99528506,1520,1520,1523,1524,0,0,0,0,0,0,0,0,0,0
1682164622.19976592,99628466,1522,1522,1528,1528,0,0,0,0,0,0,0,0,0,0
1682164622.29972601,99728426,1525,1525,1533,1533,0,0,0,0,0,0,0,0,0,0
1682164622.39968610,99828386,1529,1529,1538,1538,0,0,0,0,0,0,0,0,0,0
1682164622.49964595,99928346,1533,1533,1542,1542,0,0,0,0,0,0,0,0,0,0
1682164622.59960604,100028306,1536,1536,1544,1544,0,0,0,0,0,0,0,0,0,0
1682164622.69956613,100128266,1539,1539,1545,1545,0,0,0,0,0,0,0,0,0,0
1682164622.79952598,100228226,1542,1543,1546,1546,0,0,0,0,0,0,0,0,0,0
1682164622.89948606,100328186,1545,1544,1545,1545,0,0,0,0,0,0,0,0,0,0
1682164623.00027895,100428979,1546,1546,1544,1544,0,0,0,0,0,0,0,0,0,0
1682164623.10023904,100528939,1548,1548,1544,1544,0,0,0,0,0,0,0,0,0,0
1682164623.20019913,100628899,1548,1548,1543,1543,0,0,0,0,0,0,0,0,0,0
1682164623.30015898,100728859,1549,1549,1543,1543,0,0,0,0,0,0,0,0,0,0
1682164623.40011907,100828819,1549,1549,1544,1544,0,0,0,0,0,0,0,0,0,0
1682164623.50007892,100928779,1549,1549,1544,1544,0,0,0,0,0,0,0,0,0,0
1682164623.60003901,101028739,1549,1549,1544,1544,0,0,0,0,0,0,0,0,0,0
1682164623.69999909,101128699,1548,1548,1545,1545,0,0,0,0,0,0,0,0,0,0
1682164623.79995894,101228659,1547,1547,1545,1544,0,0,0,0,0,0,0,0,0,0
1682164623.89991903,101328619,1546,1546,1544,1545,0,0,0,0,0,0,0,0,0,0
1682164623.99987912,101428579,1545,1546,1545,1546,0,0,0,0,0,0,0,0,0,0
1682164624.09983897,101528539,1544,1544,1545,1545,0,0,0,0,0,0,0,0,0,0
1682164624.19979906,101628499,1544,1544,1546,1546,0,0,0,0,0,0,0,0,0,0
1682164624.29975891,101728459,1544,1544,1547,1546,0,0,0,0,0,0,0,0,0,0
1682164624.39971900,101828419,1543,1543,1546,1546,0,0,0,0,0,0,0,0,0,0
1682164624.49967909,101928379,1543,1543,1546,1546,0,0,0,0,0,0,0,0,0,0
1682164624.59963894,102028339,1543,1543,1545,1545,0,0,0,0,0,0,0,0,0,0
1682164624.69959903,102128299,1543,1543,1545,1545,0,0,0,0,0,0,0,0,0,0
1682164624.79955912,102228259,1543,1543,1544,1545,0,0,0,0,0,0,0,0,0,0
1682164624.89951897,102328219,1543,1543,1543,1543,0,0,0,0,0,0,0,0,0,0
1682164624.99947906,102428179,1544,1543,1543,1544,0,0,0,0,0,0,0,0,0,0
1682164625.10027194,102528972,1544,1543,1543,1543,0,0,0,0,0,0,0,0,0,0
1682164625.20023203,102628932,1543,1544,1543,1543,0,0,0,0,0,0,0,0,0,0
1682164625.30019212,102728892,1544,1544,1543,1544,0,0,0,0,0,0,0,0,0,0
1682164625.40015197,102828852,1544,1545,1544,1544,0,0,0,0,0,0,0,0,0,0
1682164625.50011206,102928812,1545,1545,1544,1544,0,0,0,0,0,0,0,0,0,0
1682164625.60007215,103028772,1545,1545,1545,1544,0,0,0,0,0,0,0,0,0,0
1682164625.70003200,103128732,1544,1545,1544,1543,0,0,0,0,0,0,0,0,0,0
1682164625.79999208,103228692,1545,1545,1544,1544,0,0,0,0,0,0,0,0,0,0
1682164625.89995193,103328652,1544,1543,1542,1543,0,0,0,0,0,0,0,0,0,0
1682164625.99991202,103428612,1544,1544,1543,1544,0,0,0,0,0,0,0,0,0,0
1682164626.09987211,103528572,1545,1544,1544,1545,0,0,0,0,0,0,0,0,0,0
1682164626.19983196,103628532,1544,1544,1544,1544,0,0,0,0,0,0,0,0,0,0
1682164626.29979205,103728492,1544,1544,1544,1544,0,0,0,0,0,0,0,0,0,0
1682164626.39975214,103828452,1544,1544,1545,1544,0,0,0,0,0,0,0,0,0,0
1682164626.49971199,103928412,1543,1544,1544,1544,0,0,0,0,0,0,0,0,0,0
1682164626.59967208,104028372,1543,1544,1544,1544,0,0,0,0,0,0,0,0,0,0
1682164626.69963193,104128332,1543,1543,1543,1543,0,0,0,0,0,0,0,0,0,0
1682164626.79959202,104228292,1543,1543,1543,1543,0,0,0,0,0,0,0,0,0,0
1682164626.89955211,104328252,1543,1543,1544,1544,0,0,0,0,0,0,0,0,0,0
1682164626.99951196,104428212,1544,1544,1544,1544,0,0,0,0,0,0,0,0,0,0
1682164627.09947205,104528172,1545,1544,1544,1545,0,0,0,0,0,0,0,0,0,0
1682164627.20026493,104628965,1544,1544,1544,1545,0,0,0,0,0,0,0,0,0,0
1682164627.30022502,104728925,1545,1544,1545,1545,0,0,0,0,0,0,0,0,0,0
1682164627.40018511,104828885,1544,1544,1544,1544,0,0,0,0,0,0,0,0,0,0
1682164627.50014496,104928845,1544,1544,1544,1544,0,0,0,0,0,0,0,0,0,0
1682164627.60010505,105028805,1544,1545,1544,1544,0,0,0,0,0,0,0,0,0,0
1682164627.70006514,105128765,1545,1545,1544,1544,0,0,0,0,0,0,0,0,0,0
1682164627.80002499,105228725,1544,1544,1544,1544,0,0,0,0,0,0,0,0,0,0
1682164627.89998507,105328685,1545,1544,1544,1544,0,0,0,0,0,0,0,0,0,0
1682164627.99994493,105428645,1545,1545,1545,1545,0,0,0,0,0,0,0,0,0,0
1682164628.09990501,105528605,1545,1545,1545,1545,0,0,0,0,0,0,0,0,0,0
1682164628.19986510,105628565,1544,1544,1543,1544,0,0,0,0,0,0,0,0,0,0
1682164628.29982495,105728525,1544,1545,1544,1545,0,0,0,0,0,0,0,0,0,0
1682164628.39978504,105828485,1544,1544,1544,1544,0,0,0,0,0,0,0,0,0,0
1682164628.49974513,105928445,1544,1544,1544,1544,0,0,0,0,0,0,0,0,0,0
1682164628.59970498,106028405,1544,1544,1544,1544,0,0,0,0,0,0,0,0,0,0
1682164628.69966507,106128365,1544,1544,1545,1545,0,0,0,0,0,0,0,0,0,0
1682164628.79962492,106228325,1544,1544,1544,1545,0,0,0,0,0,0,0,0,0,0
1682164628.89958501,106328285,1544,1544,1544,1545,0,0,0,0,0,0,0,0,0,0
1682164628.99954510,106428245,1544,1544,1544,1545,0,0,0,0,0,0,0,0,0,0
1682164629.09950495,106528205,1544,1544,1544,1544,0,0,0,0,0,0,0,0,0,0
1682164629.19946504,106628165,1544,1545,1545,1544,0,0,0,0,0,0,0,0,0,0
1682164629.30025792,106728958,1544,1544,1544,1544,0,0,0,0,0,0,0,0,0,0
1682164629.40021801,106828918,1544,1545,1545,1544,0,0,0,0,0,0,0,0,0,0
1682164629.50017810,106928878,1544,1544,1544,1544,0,0,0,0,0,0,0,0,0,0
1682164629.60013795,107028838,1544,1544,1544,1544,0,0,0,0,0,0,0,0,0,0
1682164629.70009804,107128798,1545,1544,1544,1545,0,0,0,0,0,0,0,0,0,0
1682164629.80005813,107228758,1544,1544,1544,1544,0,0,0,0,0,0,0,0,0,0
1682164629.90001798,107328718,1545,1544,1544,1545,0,0,0,0,0,0,0,0,0,0
1682164629.99997807,107428678,1544,1544,1544,1544,0,0,0,0,0,0,0,0,0,0
1682164630.09993792,107528638,1544,1544,1544,1544,0,0,0,0,0,0,0,0,0,0
1682164630.19989800,107628598,1544,1545,1545,1544,0,0,0,0,0,0,0,0,0,0
1682164630.29985809,107728558,1544,1544,1543,1544,0,0,0,0,0,0,0,0,0,0
1682164630.39981794,107828518,1544,1544,1545,1544,0,0,0,0,0,0,0,0,0,0
1682164630.49977803,107928478,1544,1544,1544,1544,0,0,0,0,0,0,0,0,0,0
1682164630.59973812,108028438,1544,1544,1545,1544,0,0,0,0,0,0,0,0,0,0
1682164630.69969797,108128398,1544,1543,1543,1543,0,0,0,0,0,0,0,0,0,0
1682164630.79965806,108228358,1544,1544,1544,1544,0,0,0,0,0,0,0,0,0,0
1682164630.89961815,108328318,1544,1544,1544,1544,0,0,0,0,0,0,0,0,0,0
1682164630.99957800,108428278,1543,1543,1543,1544,0,0,0,0,0,0,0,0,0,0
1682164631.09953809,108528238,1544,1544,1544,1544,0,0,0,0,0,0,0,0,0,0
1682164631.19949794,108628198,1544,1544,1544,1544,0,0,0,0,0,0,0,0,0,0
1682164631.29945803,108728158,1544,1544,1544,1545,0,0,0,0,0,0,0,0,0,0
1682164631.40025091,108828951,1545,1545,1545,1545,0,0,0,0,0,0,0,0,0,0
1682164631.50021100,108928911,1475,1476,1447,1446,0,0,0,0,0,0,0,0,0,0
1682164631.60017109,109028871,1374,1376,1289,1287,0,0,0,0,0,0,0,0,0,0
1682164631.70013094,109128831,1338,1339,1224,1221,0,0,0,0,0,0,0,0,0,0
1682164631.80009103,109228791,1326,1328,1202,1199,0,0,0,0,0,0,0,0,0,0
1682164631.90005112,109328751,1310,1311,1167,1165,0,0,0,0,0,0,0,0,0,0
1682164632.00001097,109428711,1264,1266,1152,1150,0,0,0,0,0,0,0,0,0,0
1682164632.09997106,109528671,1165,1167,1152,1150,0,0,0,0,0,0,0,0,0,0
1682164632.19993114,109628631,1053,1055,1152,1150,0,0,0,0,0,0,0,0,0,0
1682164632.29989100,109728591,1014,1015,1151,1150,0,0,0,0,0,0,0,0,0,0
1682164632.39985108,109828551,1014,1015,1152,1150,0,0,0,0,0,0,0,0,0,0
1682164632.49981093,109928511,1014,1015,1151,1150,0,0,0,0,0,0,0,0,0,0
1682164632.59977102,110028471,1016,1000,1150,1169,0,0,0,0,0,0,0,0,0,0
1682164632.69973111,110128431,1016,1007,1150,1161,0,0,0,0,0,0,0,0,0,0
1682164632.79969096,110228391,1015,1009,1150,1158,0,0,0,0,0,0,0,0,0,0
1682164632.89965105,110328351,1015,1009,1150,1158,0,0,0,0,0,0,0,0,0,0
1682164632.99961114,110428311,1015,1009,1150,1158,0,0,0,0,0,0,0,0,0,0
1682164633.09957099,110528271,1015,1009,1150,1158,0,0,0,0,0,0,0,0,0,0
1682164633.19953108,110628231,1015,1009,1150,1159,0,0,0,0,0,0,0,0,0,0
1682164633.29949093,110728191,1015,1008,1150,1159,0,0,0,0,0,0,0,0,0,0
1682164633.40028405,110828984,1015,1015,1150,1150,0,0,0,0,0,0,0,0,0,0
1682164633.50024414,110928944,1015,1014,1150,1151,0,0,0,0,0,0,0,0,0,0
1682164633.60020399,111028904,1015,1014,1150,1151,0,0,0,0,0,0,0,0,0,0
1682164633.70016408,111128864,1015,1014,1150,1152,0,0,0,0,0,0,0,0,0,0
1682164633.80012393,111228824,953,951,1150,1151,0,0,0,0,0,0,0,0,0,0
1682164633.90008402,111328784,1000,1000,1000,1000,0,0,0,0,0,0,0,0,0,0
1682164634.00004411,111428744,1000,1000,1000,1000,0,0,0,0,0,0,0,0,0,0
1682164634.10000396,111528704,1000,1000,1000,1000,0,0,0,0,0,0,0,0,0,0
1682164634.19996405,111628664,1000,1000,1000,1000,0,0,0,0,0,0,0,0,0,0
1682164634.29992414,111728624,1000,1000,1000,1000,0,0,0,0,0,0,0,0,0,0
1682164634.39988399,111828584,1000,1000,1000,1000,0,0,0,0,0,0,0,0,0,0
1682164634.49984407,111928544,1000,1000,1000,1000,0,0,0,0,0,0,0,0,0,0
1682164634.59980392,112028504,1000,1000,1000,1000,0,0,0,0,0,0,0,0,0,0
1682164634.69976401,112128464,1000,1000,1000,1000,0,0,0,0,0,0,0,0,0,0
1682164634.79972410,112228424,1000,1000,1000,1000,0,0,0,0,0,0,0,0,0,0
1682164634.89968395,112328384,1000,1000,1000,1000,0,0,0,0,0,0,0,0,0,0
1682164634.99964404,112428344,1000,1000,1000,1000,0,0,0,0,0,0,0,0,0,0
1682164635.09960413,112528304,1000,1000,1000,1000,0,0,0,0,0,0,0,0,0,0
1682164635.19956398,112628264,1000,1000,1000,1000,0,0,0,0,0,0,0,0,0,0
1682164635.29952407,112728224,1000,1000,1000,1000,0,0,0,0,0,0,0,0,0,0
1682164635.39948392,112828184,1000,1000,1000,1000,0,0,0,0,0,0,0,0,0,0
1682164635.50027704,112928977,1000,1000,1000,1000,0,0,0,0,0,0,0,0,0,0
1682164635.60023713,113028937,1000,1000,1000,1000,0,0,0,0,0,0,0,0,0,0
1682164635.70019698,113128897,1000,1000,1000,1000,0,0,0,0,0,0,0,0,0,0
1682164635.80015707,113228857,1000,1000,1000,1000,0,0,0,0,0,0,0,0,0,0
1682164635.90011692,113328817,1000,1000,1000,1000,0,0,0,0,0,0,0,0,0,0
1682164636.00007701,113428777,1000,1000,1000,1000,0,0,0,0,0,0,0,0,0,0
1682164636.10003710,113528737,1000,1000,1000,1000,0,0,0,0,0,0,0,0,0,0
1682164636.19999695,113628697,1000,1000,1000,1000,0,0,0,0,0,0,0,0,0,0
1682164636.29995704,113728657,1000,1000,1000,1000,0,0,0,0,0,0,0,0,0,0
1682164636.39991713,113828617,1000,1000,1000,1000,0,0,0,0,0,0,0,0,0,0
1682164636.49987698,113928577,1000,1000,1000,1000,0,0,0,0,0,0,0,0,0,0
1682164636.59983706,114028537,1000,1000,1000,1000,0,0,0,0,0,0,0,0,0,0
1682164636.69979692,114128497,1000,1000,1000,1000,0,0,0,0,0,0,0,0,0,0
1682164636.79975700,114228457,1000,1000,1000,1000,0,0,0,0,0,0,0,0,0,0
1682164636.89971709,114328417,1000,1000,1000,1000,0,0,0,0,0,0,0,0,0,0
1682164636.99967694,114428377,1000,1000,1000,1000,0,0,0,0,0,0,0,0,0,0
1682164637.09963703,114528337,1000,1000,1000,1000,0,0,0,0,0,0,0,0,0,0
1682164637.19959712,114628297,1000,1000,1000,1000,0,0,0,0,0,0,0,0,0,0
1682164637.29955697,114728257,1000,1000,1000,1000,0,0,0,0,0,0,0,0,0,0
1682164637.39951706,114828217,1000,1000,1000,1000,0,0,0,0,0,0,0,0,0,0
1682164637.49947715,114928177,1000,1000,1000,1000,0,0,0,0,0,0,0,0,0,0
1682164637.60027003,115028970,1000,1000,1000,1000,0,0,0,0,0,0,0,0,0,0
1682164637.70023012,115128930,1000,1000,1000,1000,0,0,0,0,0,0,0,0,0,0
1682164637.80018997,115228890,1000,1000,1000,1000,0,0,0,0,0,0,0,0,0,0
1682164637.90015006,115328850,1000,1000,1000,1000,0,0,0,0,0,0,0,0,0,0
1682164638.00010991,115428810,1000,1000,1000,1000,0,0,0,0,0,0,0,0,0,0
1682164638.10007000,115528770,1000,1000,1000,1000,0,0,0,0,0,0,0,0,0,0
1682164638.20003009,115628730,1000,1000,1000,1000,0,0,0,0,0,0,0,0,0,0
1682164638.29998994,115728690,1000,1000,1000,1000,0,0,0,0,0,0,0,0,0,0
1682164638.39995003,115828650,1000,1000,1000,1000,0,0,0,0,0,0,0,0,0,0
1682164638.49991012,115928610,1000,1000,1000,1000,0,0,0,0,0,0,0,0,0,0
1682164638.59986997,116028570,1000,1000,1000,1000,0,0,0,0,0,0,0,0,0,0
1682164638.69983006,116128530,1000,1000,1000,1000,0,0,0,0,0,0,0,0,0,0
1682164638.79979014,116228490,1000,1000,1000,1000,0,0,0,0,0,0,0,0,0,0
1682164638.89974999,116328450,1000,1000,1000,1000,0,0,0,0,0,0,0,0,0,0
1682164638.99971008,116428410,1000,1000,1000,1000,0,0,0,0,0,0,0,0,0,0
1682164639.09966993,116528370,1000,1000,1000,1000,0,0,0,0,0,0,0,0,0,0
1682164639.19963002,116628330,1000,1000,1000,1000,0,0,0,0,0,0,0,0,0,0
1682164639.29959011,116728290,1000,1000,1000,1000,0,0,0,0,0,0,0,0,0,0
1682164639.39954996,116828250,1000,1000,1000,1000,0,0,0,0,0,0,0,0,0,0
1682164639.49951005,116928210,1000,1000,1000,1000,0,0,0,0,0,0,0,0,0,0
1682164639.59947014,117028170,1000,1000,1000,1000,0,0,0,0,0,0,0,0,0,0
1682164639.70026302,117128963,1000,1000,1000,1000,0,0,0,0,0,0,0,0,0,0
1682164639.80022311,117228923,1000,1000,1000,1000,0,0,0,0,0,0,0,0,0,0
1682164639.90018296,117328883,1000,1000,1000,1000,0,0,0,0,0,0,0,0,0,0
1682164640.00014305,117428843,1000,1000,1000,1000,0,0,0,0,0,0,0,0,0,0
1682164640.10010314,117528803,1000,1000,1000,1000,0,0,0,0,0,0,0,0,0,0
1682164640.20006299,117628763,1000,1000,1000,1000,0,0,0,0,0,0,0,0,0,0
1682164640.30002308,117728723,1000,1000,1000,1000,0,0,0,0,0,0,0,0,0,0
1682164640.39998293,117828683,1000,1000,1000,1000,0,0,0,0,0,0,0,0,0,0
1682164640.49994302,117928643,1000,1000,1000,1000,0,0,0,0,0,0,0,0,0,0
1682164640.59990311,118028603,1000,1000,1000,1000,0,0,0,0,0,0,0,0,0,0
1682164640.69986296,118128563,1000,1000,1000,1000,0,0,0,0,0,0,0,0,0,0
1682164640.79982305,118228523,1000,1000,1000,1000,0,0,0,0,0,0,0,0,0,0
1682164640.89978313,118328483,1000,1000,1000,1000,0,0,0,0,0,0,0,0,0,0
1682164640.99974298,118428443,1000,1000,1000,1000,0,0,0,0,0,0,0,0,0,0
1682164641.09970307,118528403,1000,1000,1000,1000,0,0,0,0,0,0,0,0,0,0
1682164641.19966292,118628363,1000,1000,1000,1000,0,0,0,0,0,0,0,0,0,0
1682164641.29962301,118728323,1000,1000,1000,1000,0,0,0,0,0,0,0,0,0,0
1682164641.39958310,118828283,1000,1000,1000,1000,0,0,0,0,0,0,0,0,0,0
1682164641.49954295,118928243,1000,1000,1000,1000,0,0,0,0,0,0,0,0,0,0
1682164641.59950304,119028203,1000,1000,1000,1000,0,0,0,0,0,0,0,0,0,0
1682164641.69946313,119128163,1000,1000,1000,1000,0,0,0,0,0,0,0,0,0,0
1682164641.80025601,119228956,1000,1000,1000,1000,0,0,0,0,0,0,0,0,0,0
1682164641.90021610,119328916,1000,1000,1000,1000,0,0,0,0,0,0,0,0,0,0
1682164642.00017595,119428876,1000,1000,1000,1000,0,0,0,0,0,0,0,0,0,0
1682164642.10013604,119528836,1000,1000,1000,1000,0,0,0,0,0,0,0,0,0,0
1682164642.20009613,119628796,1000,1000,1000,1000,0,0,0,0,0,0,0,0,0,0
1682164642.30005598,119728756,1000,1000,1000,1000,0,0,0,0,0,0,0,0,0,0
1682164642.40001607,119828716,1000,1000,1000,1000,0,0,0,0,0,0,0,0,0,0
1682164642.49997592,119928676,1000,1000,1000,1000,0,0,0,0,0,0,0,0,0,0
1682164642.59993601,120028636,1000,1000,1000,1000,0,0,0,0,0,0,0,0,0,0
1682164642.69989610,120128596,1000,1000,1000,1000,0,0,0,0,0,0,0,0,0,0
1682164642.79985595,120228556,1000,1000,1000,1000,0,0,0,0,0,0,0,0,0,0
1682164642.89981604,120328516,1000,1000,1000,1000,0,0,0,0,0,0,0,0,0,0
1682164642.99977612,120428476,1000,1000,1000,1000,0,0,0,0,0,0,0,0,0,0
1682164643.09973598,120528436,1000,1000,1000,1000,0,0,0,0,0,0,0,0,0,0
