TimeUS,M1,M2,M3,M4,TimeUS,C1,C2,C3,C4
42786212,1000,1000,1000,1000,42828695,1000,1000,1000,1000
42788711,1000,1000,1000,1000,42928655,1000,1000,1000,1000
42791210,1000,1000,1000,1000,43028615,1000,1000,1000,1000
42793709,1000,1000,1000,1000,43128575,1000,1000,1000,1000
42796208,1000,1000,1000,1000,43228535,1000,1000,1000,1000
42798707,1000,1000,1000,1000,43328495,1000,1000,1000,1000
42801206,1000,1000,1000,1000,43428455,1000,1000,1000,1000
42803705,1000,1000,1000,1000,43528415,1000,1000,1000,1000
42806204,1000,1000,1000,1000,43628375,1000,1000,1000,1000
42808703,1000,1000,1000,1000,43728335,1000,1000,1000,1000
42811202,1000,1000,1000,1000,43828295,1000,1000,1000,1000
42813701,1000,1000,1000,1000,43928255,1000,1000,1000,1000
42816200,1000,1000,1000,1000,44028215,1000,1000,1000,1000
42818699,1000,1000,1000,1000,44128175,1000,1000,1000,1000
42821198,1000,1000,1000,1000,44228968,1000,1000,1000,1000
42823697,1000,1000,1000,1000,44328928,1000,1000,1000,1000
42826196,1000,1000,1000,1000,44428888,1000,1000,1000,1000
42828695,1000,1000,1000,1000,44528848,1000,1000,1000,1000
42831194,1000,1000,1000,1000,44628808,1000,1000,1000,1000
42833693,1000,1000,1000,1000,44728768,1000,1000,1000,1000
42836192,1000,1000,1000,1000,44828728,1012,1012,1012,1012
42838691,1000,1000,1000,1000,44928688,1042,1042,1042,1042
42841190,1000,1000,1000,1000,45028648,1072,1072,1072,1072
42843689,1000,1000,1000,1000,45128608,1102,1102,1102,1102
42846188,1000,1000,1000,1000,45228568,1132,1132,1132,1132
42848687,1000,1000,1000,1000,45328528,1269,1262,1262,1269
42851186,1000,1000,1000,1000,45428488,1481,1476,1476,1481
42853685,1000,1000,1000,1000,45528448,1645,1640,1640,1645
42856184,1000,1000,1000,1000,45628408,1782,1778,1779,1783
42858683,1000,1000,1000,1000,45728368,1902,1898,1897,1903
42861182,1000,1000,1000,1000,45828328,1871,1869,1868,1873
42863681,1000,1000,1000,1000,45928288,1743,1742,1741,1744
42866180,1000,1000,1000,1000,46028248,1640,1641,1641,1641
42868679,1000,1000,1000,1000,46128208,1607,1608,1608,1608
42871178,1000,1000,1000,1000,46228168,1609,1611,1611,1609
42873677,1000,1000,1000,1000,46328961,1616,1617,1617,1616
42876176,1000,1000,1000,1000,46428921,1616,1617,1617,1616
42878675,1000,1000,1000,1000,46528881,1612,1611,1612,1611
42881174,1000,1000,1000,1000,46628841,1609,1608,1608,1609
42883673,1000,1000,1000,1000,46728801,1609,1608,1608,1609
42886172,1000,1000,1000,1000,46828761,1610,1610,1609,1611
42888671,1000,1000,1000,1000,46928721,1614,1614,1614,1613
42891170,1000,1000,1000,1000,47028681,1617,1617,1617,1616
42893669,1000,1000,1000,1000,47128641,1619,1620,1620,1618
42896168,1000,1000,1000,1000,47228601,1607,1607,1609,1605
42898667,1000,1000,1000,1000,47328561,1582,1583,1589,1576
42901166,1000,1000,1000,1000,47428521,1571,1571,1575,1567
42903665,1000,1000,1000,1000,47528481,1559,1559,1559,1560
42906164,1000,1000,1000,1000,47628441,1551,1550,1543,1558
42908663,1000,1000,1000,1000,47728401,1543,1542,1534,1551
42911162,1000,1000,1000,1000,47828361,1536,1535,1530,1541
42913661,1000,1000,1000,1000,47928321,1530,1529,1527,1532
42916160,1000,1000,1000,1000,48028281,1528,1528,1528,1528
42918659,1000,1000,1000,1000,48128241,1527,1528,1530,1526
42921158,1000,1000,1000,1000,48228201,1531,1531,1534,1528
42923657,1000,1000,1000,1000,48328161,1534,1534,1537,1531
42926156,1000,1000,1000,1000,48428954,1538,1538,1540,1536
42928655,1000,1000,1000,1000,48528914,1541,1540,1542,1540
42931154,1000,1000,1000,1000,48628874,1544,1545,1545,1544
42933653,1000,1000,1000,1000,48728834,1548,1547,1547,1548
42936152,1000,1000,1000,1000,48828794,1551,1551,1550,1551
42938651,1000,1000,1000,1000,48928754,1553,1553,1552,1554
42941150,1000,1000,1000,1000,49028714,1554,1552,1556,1558
42943649,1000,1000,1000,1000,49128674,1551,1550,1563,1565
42946148,1000,1000,1000,1000,49228634,1553,1554,1565,1566
42948647,1000,1000,1000,1000,49328594,1557,1558,1565,1565
42951146,1000,1000,1000,1000,49428554,1562,1562,1565,1565
42953645,1000,1000,1000,1000,49528514,1565,1566,1564,1563
42956144,1000,1000,1000,1000,49628474,1569,1569,1564,1564
42958643,1000,1000,1000,1000,49728434,1571,1570,1563,1563
42961142,1000,1000,1000,1000,49828394,1573,1572,1565,1565
42963641,1000,1000,1000,1000,49928354,1574,1573,1566,1565
42966140,1000,1000,1000,1000,50028314,1573,1573,1566,1567
42968639,1000,1000,1000,1000,50128274,1573,1573,1568,1568
42971138,1000,1000,1000,1000,50228234,1573,1573,1570,1570
42973637,1000,1000,1000,1000,50328194,1573,1573,1572,1572
42976136,1000,1000,1000,1000,50428154,1572,1573,1573,1572
42978635,1000,1000,1000,1000,50528947,1572,1573,1574,1573
42981134,1000,1000,1000,1000,50628907,1572,1573,1575,1574
42983633,1000,1000,1000,1000,50728867,1574,1573,1577,1575
42986132,1000,1000,1000,1000,50828827,1574,1574,1578,1576
42988631,1000,1000,1000,1000,50928787,1575,1574,1577,1577
42991130,1000,1000,1000,1000,51028747,1576,1576,1578,1578
42993629,1000,1000,1000,1000,51128707,1575,1576,1577,1577
42996128,1000,1000,1000,1000,51228667,1576,1575,1576,1577
42998627,1000,1000,1000,1000,51328627,1577,1577,1577,1578
43001126,1000,1000,1000,1000,51428587,1577,1577,1577,1576
43003625,1000,1000,1000,1000,51528547,1577,1577,1577,1576
43006124,1000,1000,1000,1000,51628507,1577,1577,1577,1576
43008623,1000,1000,1000,1000,51728467,1577,1577,1576,1576
43011122,1000,1000,1000,1000,51828427,1578,1578,1577,1577
43013621,1000,1000,1000,1000,51928387,1577,1577,1576,1576
43016120,1000,1000,1000,1000,52028347,1579,1578,1578,1577
43018619,1000,1000,1000,1000,52128307,1578,1578,1578,1578
43021118,1000,1000,1000,1000,52228267,1579,1579,1579,1579
43023617,1000,1000,1000,1000,52328227,1579,1578,1578,1579
43026116,1000,1000,1000,1000,52428187,1578,1578,1579,1579
43028615,1000,1000,1000,1000,52528980,1578,1579,1579,1579
43031114,1000,1000,1000,1000,52628940,1578,1578,1579,1578
43033613,1000,1000,1000,1000,52728900,1578,1578,1579,1579
43036112,1000,1000,1000,1000,52828860,1578,1579,1579,1579
43038611,1000,1000,1000,1000,52928820,1579,1579,1579,1579
43041110,1000,1000,1000,1000,53028780,1579,1579,1579,1579
43043609,1000,1000,1000,1000,53128740,1579,1579,1579,1579
43046108,1000,1000,1000,1000,53228700,1580,1580,1580,1580
43048607,1000,1000,1000,1000,53328660,1581,1581,1581,1581
43051106,1000,1000,1000,1000,53428620,1581,1580,1581,1580
43053605,1000,1000,1000,1000,53528580,1581,1580,1580,1580
43056104,1000,1000,1000,1000,53628540,1580,1580,1580,1581
43058603,1000,1000,1000,1000,53728500,1581,1581,1580,1581
43061102,1000,1000,1000,1000,53828460,1580,1580,1580,1580
43063601,1000,1000,1000,1000,53928420,1580,1581,1581,1580
43066100,1000,1000,1000,1000,54028380,1580,1580,1581,1580
43068599,1000,1000,1000,1000,54128340,1581,1581,1581,1581
43071098,1000,1000,1000,1000,54228300,1581,1581,1581,1581
43073597,1000,1000,1000,1000,54328260,1580,1580,1580,1581
43076096,1000,1000,1000,1000,54428220,1581,1581,1581,1581
43078595,1000,1000,1000,1000,54528180,1580,1580,1581,1581
43081094,1000,1000,1000,1000,54628973,1580,1580,1580,1580
43083593,1000,1000,1000,1000,54728933,1580,1580,1580,1581
43086092,1000,1000,1000,1000,54828893,1581,1581,1581,1581
43088591,1000,1000,1000,1000,54928853,1581,1581,1581,1581
43091090,1000,1000,1000,1000,55028813,1581,1581,1581,1581
43093589,1000,1000,1000,1000,55128773,1581,1581,1581,1581
43096088,1000,1000,1000,1000,55228733,1582,1582,1583,1580
43098587,1000,1000,1000,1000,55328693,1580,1582,1588,1573
43101086,1000,1000,1000,1000,55428653,1579,1582,1583,1573
43103585,1000,1000,1000,1000,55528613,1579,1581,1575,1573
43106084,1000,1000,1000,1000,55628573,1578,1580,1567,1571
43108583,1000,1000,1000,1000,55728533,1577,1579,1560,1567
43111082,1000,1000,1000,1000,55828493,1578,1578,1557,1562
43113581,1000,1000,1000,1000,55928453,1578,1577,1555,1558
43116080,1000,1000,1000,1000,56028413,1579,1577,1555,1556
43118579,1000,1000,1000,1000,56128373,1579,1578,1556,1554
43121078,1000,1000,1000,1000,56228333,1578,1578,1557,1554
43123577,1000,1000,1000,1000,56328293,1576,1577,1556,1554
43126076,1000,1000,1000,1000,56428253,1576,1577,1555,1555
43128575,1000,1000,1000,1000,56528213,1575,1576,1554,1554
43131074,1000,1000,1000,1000,56628173,1574,1576,1553,1553
43133573,1000,1000,1000,1000,56728966,1576,1577,1552,1552
43136072,1000,1000,1000,1000,56828926,1576,1578,1550,1550
43138571,1000,1000,1000,1000,56928886,1579,1581,1548,1548
43141070,1000,1000,1000,1000,57028846,1581,1583,1546,1545
43143569,1000,1000,1000,1000,57128806,1584,1585,1542,1542
43146068,1000,1000,1000,1000,57228766,1588,1588,1539,1539
43148567,1000,1000,1000,1000,57328726,1590,1590,1536,1536
43151066,1000,1000,1000,1000,57428686,1593,1593,1534,1535
43153565,1000,1000,1000,1000,57528646,1595,1594,1534,1535
43156064,1000,1000,1000,1000,57628606,1595,1595,1535,1536
43158563,1000,1000,1000,1000,57728566,1595,1595,1536,1539
43161062,1000,1000,1000,1000,57828526,1592,1592,1539,1542
43163561,1000,1000,1000,1000,57928486,1588,1586,1545,1548
43166060,1000,1000,1000,1000,58028446,1583,1580,1554,1557
43168559,1000,1000,1000,1000,58128406,1575,1570,1564,1567
43171058,1000,1000,1000,1000,58228366,1564,1559,1576,1578
43173557,1000,1000,1000,1000,58328326,1552,1548,1589,1590
43176056,1000,1000,1000,1000,58428286,1541,1539,1600,1600
43178555,1000,1000,1000,1000,58528246,1533,1532,1608,1608
43181054,1000,1000,1000,1000,58628206,1528,1529,1614,1613
43183553,1000,1000,1000,1000,58728166,1527,1530,1616,1614
43186052,1000,1000,1000,1000,58828959,1531,1534,1614,1613
43188551,1000,1000,1000,1000,58928919,1537,1539,1608,1609
43191050,1000,1000,1000,1000,59028879,1546,1547,1602,1603
43193549,1000,1000,1000,1000,59128839,1555,1555,1594,1595
43196048,1000,1000,1000,1000,59228799,1564,1563,1587,1587
43198547,1000,1000,1000,1000,59328759,1571,1571,1580,1579
43201046,1000,1000,1000,1000,59428719,1577,1577,1574,1572
43203545,1000,1000,1000,1000,59528679,1584,1582,1570,1569
43206044,1000,1000,1000,1000,59628639,1587,1586,1567,1567
43208543,1000,1000,1000,1000,59728599,1588,1587,1566,1566
43211042,1000,1000,1000,1000,59828559,1588,1587,1567,1567
43213541,1000,1000,1000,1000,59928519,1585,1584,1567,1568
43216040,1000,1000,1000,1000,60028479,1583,1583,1571,1571
43218539,1000,1000,1000,1000,60128439,1581,1581,1574,1574
43221038,1000,1000,1000,1000,60228399,1578,1578,1577,1577
43223537,1000,1000,1000,1000,60328359,1575,1576,1580,1580
43226036,1000,1000,1000,1000,60428319,1573,1573,1581,1581
43228535,1000,1000,1000,1000,60528279,1572,1572,1583,1583
43231034,1000,1000,1000,1000,60628239,1572,1573,1584,1584
43233533,1000,1000,1000,1000,60728199,1572,1573,1584,1584
43236032,1000,1000,1000,1000,60828159,1573,1574,1583,1583
43238531,1000,1000,1000,1000,60928952,1575,1575,1582,1582
43241030,1000,1000,1000,1000,61028912,1576,1576,1581,1580
43243529,1000,1000,1000,1000,61128872,1577,1576,1579,1579
43246028,1000,1000,1000,1000,61228832,1578,1579,1578,1578
43248527,1000,1000,1000,1000,61328792,1580,1580,1578,1577
43251026,1000,1000,1000,1000,61428752,1581,1580,1577,1577
43253525,1000,1000,1000,1000,61528712,1582,1581,1577,1577
43256024,1000,1000,1000,1000,61628672,1581,1581,1577,1577
43258523,1000,1000,1000,1000,61728632,1582,1582,1578,1578
43261022,1000,1000,1000,1000,61828592,1582,1582,1578,1578
43263521,1000,1000,1000,1000,61928552,1581,1581,1578,1578
43266020,1000,1000,1000,1000,62028512,1581,1581,1580,1580
43268519,1000,1000,1000,1000,62128472,1581,1581,1581,1580
43271018,1000,1000,1000,1000,62228432,1580,1580,1581,1581
43273517,1000,1000,1000,1000,62328392,1579,1579,1580,1580
43276016,1000,1000,1000,1000,62428352,1579,1579,1580,1581
43278515,1000,1000,1000,1000,62528312,1578,1579,1580,1580
43281014,1000,1000,1000,1000,62628272,1579,1579,1580,1580
43283513,1000,1000,1000,1000,62728232,1580,1580,1581,1581
43286012,1000,1000,1000,1000,62828192,1580,1579,1580,1581
43288511,1000,1000,1000,1000,62928985,1581,1581,1581,1581
43291010,1000,1000,1000,1000,63028945,1581,1581,1582,1581
43293509,1000,1000,1000,1000,63128905,1581,1581,1581,1581
43296008,1000,1000,1000,1000,63228865,1581,1581,1581,1580
43298507,1000,1000,1000,1000,63328825,1582,1584,1588,1574
43301006,1000,1000,1000,1000,63428785,1581,1584,1584,1572
43303505,1000,1000,1000,1000,63528745,1580,1584,1576,1572
43306004,1000,1000,1000,1000,63628705,1579,1581,1566,1569
43308503,1000,1000,1000,1000,63728665,1579,1581,1559,1566
43311002,1000,1000,1000,1000,63828625,1580,1579,1554,1561
43313501,1000,1000,1000,1000,63928585,1580,1579,1552,1556
43316000,1000,1000,1000,1000,64028545,1581,1580,1553,1554
43318499,1000,1000,1000,1000,64128505,1580,1579,1553,1552
43320998,1000,1000,1000,1000,64228465,1580,1580,1554,1552
43323497,1000,1000,1000,1000,64328425,1579,1579,1555,1553
43325996,1000,1000,1000,1000,64428385,1577,1579,1555,1554
43328495,1000,1000,1000,1000,64528345,1577,1578,1554,1554
43330994,1000,1000,1000,1000,64628305,1576,1577,1553,1553
43333493,1000,1000,1000,1000,64728265,1577,1578,1552,1553
43335992,1000,1000,1000,1000,64828225,1577,1579,1550,1550
43338491,1000,1000,1000,1000,64928185,1579,1580,1548,1549
43340990,1000,1000,1000,1000,65028978,1581,1583,1546,1546
43343489,1000,1000,1000,1000,65128938,1584,1585,1545,1545
43345988,1000,1000,1000,1000,65228898,1586,1587,1543,1543
43348487,1000,1000,1000,1000,65328858,1589,1589,1542,1542
43350986,1000,1000,1000,1000,65428818,1591,1592,1540,1541
43353485,1000,1000,1000,1000,65528778,1592,1592,1538,1540
43355984,1000,1000,1000,1000,65628738,1593,1593,1539,1542
43358483,1000,1000,1000,1000,65728698,1592,1590,1542,1545
43360982,1000,1000,1000,1000,65828658,1588,1585,1548,1550
43363481,1000,1000,1000,1000,65928618,1583,1579,1556,1558
43365980,1000,1000,1000,1000,66028578,1575,1570,1566,1568
43368479,1000,1000,1000,1000,66128538,1564,1561,1577,1578
43370978,1000,1000,1000,1000,66228498,1556,1553,1589,1590
43373477,1000,1000,1000,1000,66328458,1548,1545,1598,1599
43375976,1000,1000,1000,1000,66428418,1540,1540,1606,1605
43378475,1000,1000,1000,1000,66528378,1536,1537,1610,1609
43380974,1000,1000,1000,1000,66628338,1536,1538,1612,1611
43383473,1000,1000,1000,1000,66728298,1538,1541,1610,1609
43385972,1000,1000,1000,1000,66828258,1544,1546,1606,1606
43388471,1000,1000,1000,1000,66928218,1551,1552,1601,1600
43390970,1000,1000,1000,1000,67028178,1558,1559,1594,1593
43393469,1000,1000,1000,1000,67128971,1566,1566,1587,1587
43395968,1000,1000,1000,1000,67228931,1572,1572,1580,1580
43398467,1000,1000,1000,1000,67328891,1578,1577,1575,1575
43400966,1000,1000,1000,1000,67428851,1582,1581,1571,1571
43403465,1000,1000,1000,1000,67528811,1585,1584,1569,1569
43405964,1000,1000,1000,1000,67628771,1586,1585,1569,1568
43408463,1000,1000,1000,1000,67728731,1586,1585,1569,1568
43410962,1000,1000,1000,1000,67828691,1584,1583,1570,1570
43413461,1000,1000,1000,1000,67928651,1583,1582,1573,1573
43415960,1000,1000,1000,1000,68028611,1581,1580,1575,1576
43418459,1000,1000,1000,1000,68128571,1577,1578,1577,1578
43420958,1000,1000,1000,1000,68228531,1575,1575,1579,1579
43423457,1000,1000,1000,1000,68328491,1573,1574,1581,1581
43425956,1000,1000,1000,1000,68428451,1572,1573,1582,1582
43428455,1000,1000,1000,1000,68528411,1573,1574,1583,1583
43430954,1000,1000,1000,1000,68628371,1573,1573,1583,1583
43433453,1000,1000,1000,1000,68728331,1574,1574,1583,1583
43435952,1000,1000,1000,1000,68828291,1576,1576,1583,1583
43438451,1000,1000,1000,1000,68928251,1577,1577,1581,1581
43440950,1000,1000,1000,1000,69028211,1578,1578,1581,1580
43443449,1000,1000,1000,1000,69128171,1579,1579,1579,1579
43445948,1000,1000,1000,1000,69228964,1580,1580,1578,1579
43448447,1000,1000,1000,1000,69328924,1581,1581,1578,1578
43450946,1000,1000,1000,1000,69428884,1582,1581,1578,1578
43453445,1000,1000,1000,1000,69528844,1583,1582,1579,1579
43455944,1000,1000,1000,1000,69628804,1583,1582,1579,1579
43458443,1000,1000,1000,1000,69728764,1582,1582,1579,1579
43460942,1000,1000,1000,1000,69828724,1583,1582,1581,1580
43463441,1000,1000,1000,1000,69928684,1581,1582,1580,1581
43465940,1000,1000,1000,1000,70028644,1581,1581,1580,1581
43468439,1000,1000,1000,1000,70128604,1580,1580,1580,1580
43470938,1000,1000,1000,1000,70228564,1580,1580,1581,1581
43473437,1000,1000,1000,1000,70328524,1580,1580,1581,1581
43475936,1000,1000,1000,1000,70428484,1580,1580,1581,1581
43478435,1000,1000,1000,1000,70528444,1580,1580,1582,1581
43480934,1000,1000,1000,1000,70628404,1579,1580,1581,1581
43483433,1000,1000,1000,1000,70728364,1580,1580,1581,1581
43485932,1000,1000,1000,1000,70828324,1580,1580,1581,1581
43488431,1000,1000,1000,1000,70928284,1581,1580,1580,1580
43490930,1000,1000,1000,1000,71028244,1581,1581,1580,1580
43493429,1000,1000,1000,1000,71128204,1581,1581,1581,1581
43495928,1000,1000,1000,1000,71228164,1581,1581,1580,1581
43498427,1000,1000,1000,1000,71328957,1581,1581,1581,1581
43500926,1000,1000,1000,1000,71428917,1582,1582,1583,1579
43503425,1000,1000,1000,1000,71528877,1581,1583,1587,1572
43505924,1000,1000,1000,1000,71628837,1579,1583,1582,1572
43508423,1000,1000,1000,1000,71728797,1578,1581,1573,1572
43510922,1000,1000,1000,1000,71828757,1576,1579,1564,1569
43513421,1000,1000,1000,1000,71928717,1577,1579,1559,1566
43515920,1000,1000,1000,1000,72028677,1578,1578,1556,1561
43518419,1000,1000,1000,1000,72128637,1579,1578,1554,1557
43520918,1000,1000,1000,1000,72228597,1579,1578,1555,1554
43523417,1000,1000,1000,1000,72328557,1579,1578,1555,1554
43525916,1000,1000,1000,1000,72428517,1578,1578,1556,1554
43528415,1000,1000,1000,1000,72528477,1578,1578,1557,1555
43530914,1000,1000,1000,1000,72628437,1577,1578,1557,1555
43533413,1000,1000,1000,1000,72728397,1576,1578,1555,1554
43535912,1000,1000,1000,1000,72828357,1575,1577,1553,1553
43538411,1000,1000,1000,1000,72928317,1575,1577,1551,1552
43540910,1000,1000,1000,1000,73028277,1576,1577,1549,1550
43543409,1000,1000,1000,1000,73128237,1579,1580,1548,1549
43545908,1000,1000,1000,1000,73228197,1582,1582,1546,1546
43548407,1000,1000,1000,1000,73328157,1584,1585,1544,1543
43550906,1000,1000,1000,1000,73428950,1586,1587,1541,1540
43553405,1000,1000,1000,1000,73528910,1589,1589,1539,1539
43555904,1000,1000,1000,1000,73628870,1591,1591,1537,1538
43558403,1000,1000,1000,1000,73728830,1593,1593,1537,1538
43560902,1000,1000,1000,1000,73828790,1594,1595,1538,1540
43563401,1000,1000,1000,1000,73928750,1593,1593,1539,1542
43565900,1000,1000,1000,1000,74028710,1591,1590,1543,1546
43568399,1000,1000,1000,1000,74128670,1587,1584,1549,1552
43570898,1000,1000,1000,1000,74228630,1581,1578,1558,1561
43573397,1000,1000,1000,1000,74328590,1572,1568,1568,1570
43575896,1000,1000,1000,1000,74428550,1562,1558,1580,1581
43578395,1000,1000,1000,1000,74528510,1552,1549,1592,1592
43580894,1000,1000,1000,1000,74628470,1542,1540,1600,1600
43583393,1000,1000,1000,1000,74728430,1535,1535,1608,1607
43585892,1000,1000,1000,1000,74828390,1532,1533,1612,1610
43588391,1000,1000,1000,1000,74928350,1533,1535,1613,1612
43590890,1000,1000,1000,1000,75028310,1536,1539,1610,1610
43593389,1000,1000,1000,1000,75128270,1544,1545,1607,1607
43595888,1000,1000,1000,1000,75228230,1551,1552,1600,1600
43598387,1000,1000,1000,1000,75328190,1559,1559,1593,1592
43600886,1000,1000,1000,1000,75428983,1567,1567,1587,1586
43603385,1000,1000,1000,1000,75528943,1574,1573,1579,1578
43605884,1000,1000,1000,1000,75628903,1580,1579,1574,1574
43608383,1000,1000,1000,1000,75728863,1584,1582,1570,1570
43610882,1000,1000,1000,1000,75828823,1586,1585,1568,1568
43613381,1000,1000,1000,1000,75928783,1586,1585,1567,1567
43615880,1000,1000,1000,1000,76028743,1585,1584,1567,1567
43618379,1000,1000,1000,1000,76128703,1585,1584,1570,1570
43620878,1000,1000,1000,1000,76228663,1583,1582,1573,1573
43623377,1000,1000,1000,1000,76328623,1580,1580,1576,1575
43625876,1000,1000,1000,1000,76428583,1577,1577,1578,1578
43628375,1000,1000,1000,1000,76528543,1576,1576,1581,1580
43630874,1000,1000,1000,1000,76628503,1573,1573,1581,1581
43633373,1000,1000,1000,1000,76728463,1572,1573,1582,1582
43635872,1000,1000,1000,1000,76828423,1572,1573,1583,1583
43638371,1000,1000,1000,1000,76928383,1573,1574,1583,1583
43640870,1000,1000,1000,1000,77028343,1574,1574,1583,1583
43643369,1000,1000,1000,1000,77128303,1575,1575,1582,1582
43645868,1000,1000,1000,1000,77228263,1577,1577,1581,1581
43648367,1000,1000,1000,1000,77328223,1578,1578,1580,1580
43650866,1000,1000,1000,1000,77428183,1580,1579,1579,1580
43653365,1000,1000,1000,1000,77528976,1580,1580,1578,1578
43655864,1000,1000,1000,1000,77628936,1581,1581,1578,1578
43658363,1000,1000,1000,1000,77728896,1582,1582,1578,1578
43660862,1000,1000,1000,1000,77828856,1582,1582,1579,1578
43663361,1000,1000,1000,1000,77928816,1582,1582,1579,1578
43665860,1000,1000,1000,1000,78028776,1582,1582,1579,1579
43668359,1000,1000,1000,1000,78128736,1582,1581,1579,1580
43670858,1000,1000,1000,1000,78228696,1581,1581,1580,1580
43673357,1000,1000,1000,1000,78328656,1580,1580,1580,1580
43675856,1000,1000,1000,1000,78428616,1580,1580,1581,1580
43678355,1000,1000,1000,1000,78528576,1579,1580,1581,1581
43680854,1000,1000,1000,1000,78628536,1579,1579,1581,1581
43683353,1000,1000,1000,1000,78728496,1579,1579,1580,1581
43685852,1000,1000,1000,1000,78828456,1579,1579,1581,1580
43688351,1000,1000,1000,1000,78928416,1579,1579,1581,1581
43690850,1000,1000,1000,1000,79028376,1580,1580,1581,1580
43693349,1000,1000,1000,1000,79128336,1580,1580,1580,1580
43695848,1000,1000,1000,1000,79228296,1580,1580,1580,1580
43698347,1000,1000,1000,1000,79328256,1580,1581,1580,1580
43700846,1000,1000,1000,1000,79428216,1581,1582,1585,1575
43703345,1000,1000,1000,1000,79528176,1580,1580,1585,1572
43705844,1000,1000,1000,1000,79628969,1579,1579,1580,1574
43708343,1000,1000,1000,1000,79728929,1576,1575,1573,1575
43710842,1000,1000,1000,1000,79828889,1573,1573,1568,1575
43713341,1000,1000,1000,1000,79928849,1570,1570,1565,1572
43715840,1000,1000,1000,1000,80028809,1568,1568,1565,1569
43718339,1000,1000,1000,1000,80128769,1566,1567,1565,1567
43720838,1000,1000,1000,1000,80228729,1566,1566,1567,1566
43723337,1000,1000,1000,1000,80328689,1565,1565,1566,1564
43725836,1000,1000,1000,1000,80428649,1564,1564,1566,1564
43728335,1000,1000,1000,1000,80528609,1565,1565,1566,1564
43730834,1000,1000,1000,1000,80628569,1564,1564,1565,1564
43733333,1000,1000,1000,1000,80728529,1563,1563,1563,1564
43735832,1000,1000,1000,1000,80828489,1563,1563,1563,1563
43738331,1000,1000,1000,1000,80928449,1562,1562,1562,1563
43740830,1000,1000,1000,1000,81028409,1561,1561,1562,1561
43743329,1000,1000,1000,1000,81128369,1561,1561,1561,1561
43745828,1000,1000,1000,1000,81228329,1560,1561,1561,1560
43748327,1000,1000,1000,1000,81328289,1560,1559,1559,1559
43750826,1000,1000,1000,1000,81428249,1559,1559,1559,1558
43753325,1000,1000,1000,1000,81528209,1558,1558,1558,1557
43755824,1000,1000,1000,1000,81628169,1558,1558,1558,1557
43758323,1000,1000,1000,1000,81728962,1558,1558,1558,1557
43760822,1000,1000,1000,1000,81828922,1558,1558,1559,1558
43763321,1000,1000,1000,1000,81928882,1559,1558,1559,1557
43765820,1000,1000,1000,1000,82028842,1558,1558,1559,1557
43768319,1000,1000,1000,1000,82128802,1558,1558,1559,1556
43770818,1000,1000,1000,1000,82228762,1559,1559,1559,1559
43773317,1000,1000,1000,1000,82328722,1559,1559,1557,1561
43775816,1000,1000,1000,1000,82428682,1560,1560,1558,1563
43778315,1000,1000,1000,1000,82528642,1561,1561,1558,1564
43780814,1000,1000,1000,1000,82628602,1561,1561,1559,1563
43783313,1000,1000,1000,1000,82728562,1562,1562,1561,1564
43785812,1000,1000,1000,1000,82828522,1561,1561,1562,1560
43788311,1000,1000,1000,1000,82928482,1562,1562,1563,1560
43790810,1000,1000,1000,1000,83028442,1560,1560,1561,1559
43793309,1000,1000,1000,1000,83128402,1559,1559,1557,1561
43795808,1000,1000,1000,1000,83228362,1555,1555,1552,1557
43798307,1000,1000,1000,1000,83328322,1550,1550,1549,1552
43800806,1000,1000,1000,1000,83428282,1545,1545,1544,1545
43803305,1000,1000,1000,1000,83528242,1537,1537,1538,1537
43805804,1000,1000,1000,1000,83628202,1531,1531,1532,1530
43808303,1000,1000,1000,1000,83728162,1523,1523,1524,1523
43810802,1000,1000,1000,1000,83828955,1520,1520,1520,1520
43813301,1000,1000,1000,1000,83928915,1520,1519,1520,1520
43815800,1000,1000,1000,1000,84028875,1520,1520,1520,1520
43818299,1000,1000,1000,1000,84128835,1522,1523,1523,1523
43820798,1000,1000,1000,1000,84228795,1526,1526,1526,1526
43823297,1000,1000,1000,1000,84328755,1530,1530,1530,1530
43825796,1000,1000,1000,1000,84428715,1535,1536,1536,1535
43828295,1000,1000,1000,1000,84528675,1539,1539,1539,1538
43830794,1000,1000,1000,1000,84628635,1541,1541,1541,1541
43833293,1000,1000,1000,1000,84728595,1543,1543,1543,1543
43835792,1000,1000,1000,1000,84828555,1544,1544,1544,1544
43838291,1000,1000,1000,1000,84928515,1545,1545,1546,1545
43840790,1000,1000,1000,1000,85028475,1545,1545,1545,1545
43843289,1000,1000,1000,1000,85128435,1546,1546,1546,1545
43845788,1000,1000,1000,1000,85228395,1546,1545,1546,1545
43848287,1000,1000,1000,1000,85328355,1546,1546,1546,1547
43850786,1000,1000,1000,1000,85428315,1546,1546,1546,1546
43853285,1000,1000,1000,1000,85528275,1546,1546,1547,1546
43855784,1000,1000,1000,1000,85628235,1545,1546,1545,1545
43858283,1000,1000,1000,1000,85728195,1545,1545,1545,1545
43860782,1000,1000,1000,1000,85828155,1546,1546,1545,1546
43863281,1000,1000,1000,1000,85928948,1546,1546,1546,1546
43865780,1000,1000,1000,1000,86028908,1545,1545,1545,1544
43868279,1000,1000,1000,1000,86128868,1546,1546,1546,1546
43870778,1000,1000,1000,1000,86228828,1545,1545,1545,1545
43873277,1000,1000,1000,1000,86328788,1545,1545,1545,1545
43875776,1000,1000,1000,1000,86428748,1544,1544,1544,1544
43878275,1000,1000,1000,1000,86528708,1544,1544,1544,1544
43880774,1000,1000,1000,1000,86628668,1544,1544,1544,1544
43883273,1000,1000,1000,1000,86728628,1544,1544,1544,1544
43885772,1000,1000,1000,1000,86828588,1543,1543,1543,1543
43888271,1000,1000,1000,1000,86928548,1544,1543,1543,1543
43890770,1000,1000,1000,1000,87028508,1544,1543,1543,1543
43893269,1000,1000,1000,1000,87128468,1544,1544,1544,1544
43895768,1000,1000,1000,1000,87228428,1544,1543,1543,1543
43898267,1000,1000,1000,1000,87328388,1544,1544,1544,1544
43900766,1000,1000,1000,1000,87428348,1544,1544,1544,1544
43903265,1000,1000,1000,1000,87528308,1544,1544,1544,1544
43905764,1000,1000,1000,1000,87628268,1544,1544,1544,1544
43908263,1000,1000,1000,1000,87728228,1544,1545,1545,1545
43910762,1000,1000,1000,1000,87828188,1544,1544,1544,1544
43913261,1000,1000,1000,1000,87928981,1544,1544,1544,1545
43915760,1000,1000,1000,1000,88028941,1545,1545,1545,1545
43918259,1000,1000,1000,1000,88128901,1544,1544,1545,1544
43920758,1000,1000,1000,1000,88228861,1544,1545,1545,1544
43923257,1000,1000,1000,1000,88328821,1545,1545,1545,1545
43925756,1000,1000,1000,1000,88428781,1544,1544,1544,1544
43928255,1000,1000,1000,1000,88528741,1545,1544,1544,1544
43930754,1000,1000,1000,1000,88628701,1544,1544,1544,1544
43933253,1000,1000,1000,1000,88728661,1545,1544,1545,1544
43935752,1000,1000,1000,1000,88828621,1544,1544,1544,1544
43938251,1000,1000,1000,1000,88928581,1544,1544,1544,1544
43940750,1000,1000,1000,1000,89028541,1544,1544,1544,1544
43943249,1000,1000,1000,1000,89128501,1545,1545,1545,1545
43945748,1000,1000,1000,1000,89228461,1545,1544,1545,1544
43948247,1000,1000,1000,1000,89328421,1544,1544,1544,1544
43950746,1000,1000,1000,1000,89428381,1544,1544,1544,1543
43953245,1000,1000,1000,1000,89528341,1544,1544,1544,1544
43955744,1000,1000,1000,1000,89628301,1543,1543,1543,1543
43958243,1000,1000,1000,1000,89728261,1544,1543,1544,1543
43960742,1000,1000,1000,1000,89828221,1544,1544,1544,1544
43963241,1000,1000,1000,1000,89928181,1545,1544,1544,1545
43965740,1000,1000,1000,1000,90028974,1543,1544,1543,1544
43968239,1000,1000,1000,1000,90128934,1544,1545,1545,1545
43970738,1000,1000,1000,1000,90228894,1543,1543,1543,1543
43973237,1000,1000,1000,1000,90328854,1544,1544,1544,1544
43975736,1000,1000,1000,1000,90428814,1543,1543,1543,1543
43978235,1000,1000,1000,1000,90528774,1544,1544,1544,1544
43980734,1000,1000,1000,1000,90628734,1543,1543,1543,1543
43983233,1000,1000,1000,1000,90728694,1544,1543,1543,1543
43985732,1000,1000,1000,1000,90828654,1544,1544,1544,1544
43988231,1000,1000,1000,1000,90928614,1543,1544,1543,1544
43990730,1000,1000,1000,1000,91028574,1544,1544,1544,1544
43993229,1000,1000,1000,1000,91128534,1543,1543,1543,1543
43995728,1000,1000,1000,1000,91228494,1544,1544,1544,1544
43998227,1000,1000,1000,1000,91328454,1544,1543,1544,1544
44000726,1000,1000,1000,1000,91428414,1544,1544,1545,1544
44003225,1000,1000,1000,1000,91528374,1544,1544,1545,1544
44005724,1000,1000,1000,1000,91628334,1543,1544,1544,1544
44008223,1000,1000,1000,1000,91728294,1544,1544,1544,1544
44010722,1000,1000,1000,1000,91828254,1545,1545,1545,1545
44013221,1000,1000,1000,1000,91928214,1544,1544,1544,1544
44015720,1000,1000,1000,1000,92028174,1544,1545,1545,1544
44018219,1000,1000,1000,1000,92128967,1545,1545,1545,1545
44020718,1000,1000,1000,1000,92228927,1544,1545,1545,1545
44023217,1000,1000,1000,1000,92328887,1544,1544,1544,1544
44025716,1000,1000,1000,1000,92428847,1544,1544,1544,1544
44028215,1000,1000,1000,1000,92528807,1544,1544,1544,1544
44030714,1000,1000,1000,1000,92628767,1545,1545,1545,1545
44033213,1000,1000,1000,1000,92728727,1545,1544,1544,1544
44035712,1000,1000,1000,1000,92828687,1545,1545,1545,1545
44038211,1000,1000,1000,1000,92928647,1545,1545,1545,1545
44040710,1000,1000,1000,1000,93028607,1545,1545,1545,1544
44043209,1000,1000,1000,1000,93128567,1544,1544,1544,1544
44045708,1000,1000,1000,1000,93228527,1544,1544,1544,1544
44048207,1000,1000,1000,1000,93328487,1544,1544,1544,1544
44050706,1000,1000,1000,1000,93428447,1545,1545,1545,1545
44053205,1000,1000,1000,1000,93528407,1542,1543,1543,1542
44055704,1000,1000,1000,1000,93628367,1356,1356,1357,1356
44058203,1000,1000,1000,1000,93728327,1251,1248,1250,1249
44060702,1000,1000,1000,1000,93828287,1215,1215,1216,1215
44063201,1000,1000,1000,1000,93928247,1193,1192,1193,1193
44065700,1000,1000,1000,1000,94028207,1150,1150,1151,1150
44068199,1000,1000,1000,1000,94128167,1151,1150,1151,1150
44070698,1000,1000,1000,1000,94228960,1151,1150,1151,1150
44073197,1000,1000,1000,1000,94328920,1179,1150,1151,1179
44075696,1000,1000,1000,1000,94428880,1170,1150,1151,1169
44078195,1000,1000,1000,1000,94528840,1168,1150,1151,1168
44080694,1000,1000,1000,1000,94628800,1169,1150,1151,1168
44083193,1000,1000,1000,1000,94728760,1171,1150,1151,1170
44085692,1000,1000,1000,1000,94828720,1172,1150,1151,1172
44088191,1000,1000,1000,1000,94928680,1175,1150,1152,1174
44090690,1000,1000,1000,1000,95028640,1167,1150,1152,1166
44093189,1000,1000,1000,1000,95128600,1163,1150,1151,1163
44095688,1000,1000,1000,1000,95228560,1164,1150,1151,1164
44098187,1000,1000,1000,1000,95328520,1165,1150,1151,1165
44100686,1000,1000,1000,1000,95428480,1166,1150,1151,1165
44103185,1000,1000,1000,1000,95528440,1150,1150,1150,1150
44105684,1000,1000,1000,1000,95628400,1000,1000,1000,1000
44108183,1000,1000,1000,1000,95728360,1000,1000,1000,1000
44110682,1000,1000,1000,1000,95828320,1000,1000,1000,1000
44113181,1000,1000,1000,1000,95928280,1000,1000,1000,1000
44115680,1000,1000,1000,1000,96028240,1000,1000,1000,1000
44118179,1000,1000,1000,1000,96128200,1000,1000,1000,1000
44120678,1000,1000,1000,1000,96228160,1000,1000,1000,1000
44123177,1000,1000,1000,1000,96328953,1000,1000,1000,1000
44125676,1000,1000,1000,1000,96428913,1000,1000,1000,1000
44128175,1000,1000,1000,1000,96528873,1000,1000,1000,1000
44130674,1000,1000,1000,1000,96628833,1000,1000,1000,1000
44133173,1000,1000,1000,1000,96728793,1000,1000,1000,1000
44135672,1000,1000,1000,1000,96828753,1000,1000,1000,1000
44138171,1000,1000,1000,1000,96928713,1000,1000,1000,1000
44140670,1000,1000,1000,1000,97028673,1000,1000,1000,1000
44143169,1000,1000,1000,1000,97128633,1000,1000,1000,1000
44145668,1000,1000,1000,1000,97228593,1000,1000,1000,1000
44148167,1000,1000,1000,1000,97328553,1000,1000,1000,1000
44150666,1000,1000,1000,1000,97428513,1000,1000,1000,1000
44153165,1000,1000,1000,1000,97528473,1000,1000,1000,1000
44155664,1000,1000,1000,1000,97628433,1000,1000,1000,1000
44158163,1000,1000,1000,1000,97728393,1000,1000,1000,1000
44160662,1000,1000,1000,1000,97828353,1000,1000,1000,1000
44163161,1000,1000,1000,1000,97928313,1000,1000,1000,1000
44165660,1000,1000,1000,1000,98028273,1000,1000,1000,1000
44168159,1000,1000,1000,1000,98128233,1000,1000,1000,1000
44170658,1000,1000,1000,1000,98228193,1000,1000,1000,1000
44173157,1000,1000,1000,1000,98328986,1000,1000,1000,1000
44175656,1000,1000,1000,1000,98428946,1000,1000,1000,1000
44178155,1000,1000,1000,1000,98528906,1000,1000,1000,1000
44180654,1000,1000,1000,1000,98628866,1000,1000,1000,1000
44183986,1000,1000,1000,1000,98728826,1000,1000,1000,1000
44186485,1000,1000,1000,1000,98828786,1000,1000,1000,1000
44188984,1000,1000,1000,1000,98928746,1000,1000,1000,1000
44191483,1000,1000,1000,1000,99028706,1000,1000,1000,1000
44193982,1000,1000,1000,1000,99128666,1000,1000,1000,1000
44196481,1000,1000,1000,1000,99228626,1000,1000,1000,1000
44198980,1000,1000,1000,1000,99328586,1000,1000,1000,1000
44201479,1000,1000,1000,1000,99428546,1000,1000,1000,1000
44203978,1000,1000,1000,1000,99528506,1000,1000,1000,1000
44206477,1000,1000,1000,1000,99628466,1000,1000,1000,1000
44208976,1000,1000,1000,1000,99728426,1000,1000,1000,1000
44211475,1000,1000,1000,1000,99828386,1000,1000,1000,1000
44213974,1000,1000,1000,1000,99928346,1000,1000,1000,1000
44216473,1000,1000,1000,1000,100028306,1000,1000,1000,1000
44218972,1000,1000,1000,1000,100128266,1000,1000,1000,1000
44221471,1000,1000,1000,1000,100228226,1000,1000,1000,1000
44223970,1000,1000,1000,1000,100328186,1000,1000,1000,1000
44226469,1000,1000,1000,1000,100428979,1000,1000,1000,1000
44228968,1000,1000,1000,1000,100528939,1000,1000,1000,1000
44231467,1000,1000,1000,1000,100628899,1000,1000,1000,1000
44233966,1000,1000,1000,1000,100728859,1000,1000,1000,1000
44236465,1000,1000,1000,1000,100828819,1000,1000,1000,1000
44238964,1000,1000,1000,1000,100928779,1000,1000,1000,1000
44241463,1000,1000,1000,1000,101028739,1000,1000,1000,1000
44243962,1000,1000,1000,1000,101128699,1000,1000,1000,1000
44246461,1000,1000,1000,1000,101228659,1000,1000,1000,1000
44248960,1000,1000,1000,1000,101328619,1000,1000,1000,1000
44251459,1000,1000,1000,1000,101428579,1000,1000,1000,1000
44253958,1000,1000,1000,1000,101528539,1000,1000,1000,1000
44256457,1000,1000,1000,1000,101628499,1000,1000,1000,1000
44258956,1000,1000,1000,1000,101728459,1000,1000,1000,1000
44261455,1000,1000,1000,1000,101828419,1000,1000,1000,1000
44263954,1000,1000,1000,1000,101928379,1000,1000,1000,1000
44266453,1000,1000,1000,1000,102028339,1000,1000,1000,1000
44268952,1000,1000,1000,1000,102128299,1000,1000,1000,1000
44271451,1000,1000,1000,1000,102228259,1000,1000,1000,1000
44273950,1000,1000,1000,1000,102328219,1000,1000,1000,1000
44276449,1000,1000,1000,1000,102428179,1000,1000,1000,1000
44278948,1000,1000,1000,1000,102528972,1000,1000,1000,1000
44281447,1000,1000,1000,1000,102628932,1000,1000,1000,1000
44283946,1000,1000,1000,1000,102728892,1000,1000,1000,1000
44286445,1000,1000,1000,1000,102828852,1000,1000,1000,1000
44288944,1000,1000,1000,1000,102928812,1000,1000,1000,1000
44291443,1000,1000,1000,1000,103028772,1000,1000,1000,1000
44293942,1000,1000,1000,1000,103128732,1000,1000,1000,1000
44296441,1000,1000,1000,1000,103228692,1000,1000,1000,1000
44298940,1000,1000,1000,1000,103328652,1000,1000,1000,1000
44301439,1000,1000,1000,1000,103428612,1000,1000,1000,1000
44303938,1000,1000,1000,1000,103528572,1000,1000,1000,1000
44306437,1000,1000,1000,1000,103628532,1000,1000,1000,1000
44308936,1000,1000,1000,1000,103728492,1000,1000,1000,1000
44311435,1000,1000,1000,1000,103828452,1000,1000,1000,1000
44313934,1000,1000,1000,1000,103928412,1000,1000,1000,1000
44316433,1000,1000,1000,1000,104028372,1000,1000,1000,1000
44318932,1000,1000,1000,1000,104128332,1000,1000,1000,1000
44321431,1000,1000,1000,1000,104228292,1000,1000,1000,1000
44323930,1000,1000,1000,1000,104328252,1000,1000,1000,1000
44326429,1000,1000,1000,1000,104428212,1000,1000,1000,1000
44328928,1000,1000,1000,1000,104528172,1000,1000,1000,1000
44331427,1000,1000,1000,1000,104628965,1000,1000,1000,1000
44333926,1000,1000,1000,1000,104728925,1000,1000,1000,1000
44336425,1000,1000,1000,1000,104828885,1000,1000,1000,1000
44338924,1000,1000,1000,1000,104928845,1000,1000,1000,1000
44341423,1000,1000,1000,1000,105028805,1000,1000,1000,1000
44343922,1000,1000,1000,1000,105128765,1000,1000,1000,1000
44346421,1000,1000,1000,1000,105228725,1000,1000,1000,1000
44348920,1000,1000,1000,1000,105328685,1000,1000,1000,1000
44351419,1000,1000,1000,1000,105428645,1000,1000,1000,1000
44353918,1000,1000,1000,1000,105528605,1000,1000,1000,1000
44356417,1000,1000,1000,1000,105628565,1000,1000,1000,1000
44358916,1000,1000,1000,1000,105728525,1000,1000,1000,1000
44361415,1000,1000,1000,1000,105828485,1000,1000,1000,1000
44363914,1000,1000,1000,1000,105928445,1000,1000,1000,1000
44366413,1000,1000,1000,1000,106028405,1000,1000,1000,1000
44368912,1000,1000,1000,1000,106128365,1000,1000,1000,1000
44371411,1000,1000,1000,1000,106228325,1000,1000,1000,1000
44373910,1000,1000,1000,1000,106328285,1000,1000,1000,1000
44376409,1000,1000,1000,1000,106428245,1000,1000,1000,1000
44378908,1000,1000,1000,1000,106528205,1000,1000,1000,1000
44381407,1000,1000,1000,1000,106628165,1000,1000,1000,1000
44383906,1000,1000,1000,1000,106728958,1000,1000,1000,1000
44386405,1000,1000,1000,1000,106828918,1000,1000,1000,1000
44388904,1000,1000,1000,1000,106928878,1000,1000,1000,1000
44391403,1000,1000,1000,1000,107028838,1000,1000,1000,1000
44393902,1000,1000,1000,1000,107128798,1000,1000,1000,1000
44396401,1000,1000,1000,1000,107228758,1000,1000,1000,1000
44398900,1000,1000,1000,1000,107328718,1000,1000,1000,1000
44401399,1000,1000,1000,1000,107428678,1000,1000,1000,1000
44403898,1000,1000,1000,1000,107528638,1000,1000,1000,1000
44406397,1000,1000,1000,1000,107628598,1000,1000,1000,1000
44408896,1000,1000,1000,1000,107728558,1000,1000,1000,1000
44411395,1000,1000,1000,1000,107828518,1000,1000,1000,1000
44413894,1000,1000,1000,1000,107928478,1000,1000,1000,1000
44416393,1000,1000,1000,1000,108028438,1000,1000,1000,1000
44418892,1000,1000,1000,1000,108128398,1000,1000,1000,1000
44421391,1000,1000,1000,1000,108228358,1000,1000,1000,1000
44423890,1000,1000,1000,1000,108328318,1000,1000,1000,1000
44426389,1000,1000,1000,1000,108428278,1000,1000,1000,1000
44428888,1000,1000,1000,1000,108528238,1000,1000,1000,1000
44431387,1000,1000,1000,1000,108628198,1000,1000,1000,1000
44433886,1000,1000,1000,1000,108728158,1000,1000,1000,1000
44436385,1000,1000,1000,1000,108828951,1000,1000,1000,1000
44438884,1000,1000,1000,1000,108928911,1000,1000,1000,1000
44441383,1000,1000,1000,1000,109028871,1000,1000,1000,1000
44443882,1000,1000,1000,1000,109128831,1000,1000,1000,1000
44446381,1000,1000,1000,1000,109228791,1000,1000,1000,1000
44448880,1000,1000,1000,1000,109328751,1000,1000,1000,1000
44451379,1000,1000,1000,1000,109428711,1000,1000,1000,1000
44453878,1000,1000,1000,1000,109528671,1000,1000,1000,1000
44456377,1000,1000,1000,1000,109628631,1000,1000,1000,1000
44458876,1000,1000,1000,1000,109728591,1000,1000,1000,1000
44461375,1000,1000,1000,1000,109828551,1000,1000,1000,1000
44463874,1000,1000,1000,1000,109928511,1000,1000,1000,1000
44466373,1000,1000,1000,1000,110028471,1000,1000,1000,1000
44468872,1000,1000,1000,1000,110128431,1000,1000,1000,1000
44471371,1000,1000,1000,1000,110228391,1000,1000,1000,1000
44473870,1000,1000,1000,1000,110328351,1000,1000,1000,1000
44476369,1000,1000,1000,1000,110428311,1000,1000,1000,1000
44478868,1000,1000,1000,1000,110528271,1000,1000,1000,1000
44481367,1000,1000,1000,1000,,,,,
44483866,1000,1000,1000,1000,,,,,
44486365,1000,1000,1000,1000,,,,,
44488864,1000,1000,1000,1000,,,,,
44491363,1000,1000,1000,1000,,,,,
44493862,1000,1000,1000,1000,,,,,
44496361,1000,1000,1000,1000,,,,,
44498860,1000,1000,1000,1000,,,,,
44501359,1000,1000,1000,1000,,,,,
44503858,1000,1000,1000,1000,,,,,
44506357,1000,1000,1000,1000,,,,,
44508856,1000,1000,1000,1000,,,,,
44511355,1000,1000,1000,1000,,,,,
44513854,1000,1000,1000,1000,,,,,
44516353,1000,1000,1000,1000,,,,,
44518852,1000,1000,1000,1000,,,,,
44521351,1000,1000,1000,1000,,,,,
44523850,1000,1000,1000,1000,,,,,
44526349,1000,1000,1000,1000,,,,,
44528848,1000,1000,1000,1000,,,,,
44531347,1000,1000,1000,1000,,,,,
44533846,1000,1000,1000,1000,,,,,
44536345,1000,1000,1000,1000,,,,,
44538844,1000,1000,1000,1000,,,,,
44541343,1000,1000,1000,1000,,,,,
44543842,1000,1000,1000,1000,,,,,
44546341,1000,1000,1000,1000,,,,,
44548840,1000,1000,1000,1000,,,,,
44551339,1000,1000,1000,1000,,,,,
44553838,1000,1000,1000,1000,,,,,
44556337,1000,1000,1000,1000,,,,,
44558836,1000,1000,1000,1000,,,,,
44561335,1000,1000,1000,1000,,,,,
44563834,1000,1000,1000,1000,,,,,
44566333,1000,1000,1000,1000,,,,,
44568832,1000,1000,1000,1000,,,,,
44571331,1000,1000,1000,1000,,,,,
44573830,1000,1000,1000,1000,,,,,
44576329,1000,1000,1000,1000,,,,,
44578828,1000,1000,1000,1000,,,,,
44581327,1000,1000,1000,1000,,,,,
44583826,1000,1000,1000,1000,,,,,
44586325,1000,1000,1000,1000,,,,,
44588824,1000,1000,1000,1000,,,,,
44591323,1000,1000,1000,1000,,,,,
44593822,1000,1000,1000,1000,,,,,
44596321,1000,1000,1000,1000,,,,,
44598820,1000,1000,1000,1000,,,,,
44601319,1000,1000,1000,1000,,,,,
44603818,1000,1000,1000,1000,,,,,
44606317,1000,1000,1000,1000,,,,,
44608816,1000,1000,1000,1000,,,,,
44611315,1000,1000,1000,1000,,,,,
44613814,1000,1000,1000,1000,,,,,
44616313,1000,1000,1000,1000,,,,,
44618812,1000,1000,1000,1000,,,,,
44621311,1000,1000,1000,1000,,,,,
44623810,1000,1000,1000,1000,,,,,
44626309,1000,1000,1000,1000,,,,,
44628808,1000,1000,1000,1000,,,,,
44631307,1000,1000,1000,1000,,,,,
44633806,1000,1000,1000,1000,,,,,
44636305,1000,1000,1000,1000,,,,,
44638804,1000,1000,1000,1000,,,,,
44641303,1000,1000,1000,1000,,,,,
44643802,1000,1000,1000,1000,,,,,
44646301,1000,1000,1000,1000,,,,,
44648800,1000,1000,1000,1000,,,,,
44651299,1000,1000,1000,1000,,,,,
44653798,1000,1000,1000,1000,,,,,
44656297,1000,1000,1000,1000,,,,,
44658796,1000,1000,1000,1000,,,,,
44661295,1000,1000,1000,1000,,,,,
44663794,1000,1000,1000,1000,,,,,
44666293,1000,1000,1000,1000,,,,,
44668792,1000,1000,1000,1000,,,,,
44671291,1000,1000,1000,1000,,,,,
44673790,1000,1000,1000,1000,,,,,
44676289,1000,1000,1000,1000,,,,,
44678788,1000,1000,1000,1000,,,,,
44681287,1000,1000,1000,1000,,,,,
44683786,1000,1000,1000,1000,,,,,
44686285,1000,1000,1000,1000,,,,,
44688784,1000,1000,1000,1000,,,,,
44691283,1000,1000,1000,1000,,,,,
44693782,1000,1000,1000,1000,,,,,
44696281,1000,1000,1000,1000,,,,,
44698780,1000,1000,1000,1000,,,,,
44701279,1000,1000,1000,1000,,,,,
44703778,1000,1000,1000,1000,,,,,
44706277,1000,1000,1000,1000,,,,,
44708776,1000,1000,1000,1000,,,,,
44711275,1000,1000,1000,1000,,,,,
44713774,1000,1000,1000,1000,,,,,
44716273,1000,1000,1000,1000,,,,,
44718772,1000,1000,1000,1000,,,,,
44721271,1000,1000,1000,1000,,,,,
44723770,1000,1000,1000,1000,,,,,
44726269,1000,1000,1000,1000,,,,,
44728768,1000,1000,1000,1000,,,,,
44731267,1000,1000,1000,1000,,,,,
44733766,1000,1000,1000,1000,,,,,
44736265,1000,1000,1000,1000,,,,,
44738764,1000,1000,1000,1000,,,,,
44741263,1000,1000,1000,1000,,,,,
44743762,1000,1000,1000,1000,,,,,
44746261,1000,1000,1000,1000,,,,,
44748760,1000,1000,1000,1000,,,,,
44751259,1000,1000,1000,1000,,,,,
44753758,1000,1000,1000,1000,,,,,
44756257,1000,1000,1000,1000,,,,,
44758756,1000,1000,1000,1000,,,,,
44761255,1000,1000,1000,1000,,,,,
44763754,1000,1000,1000,1000,,,,,
44766253,1000,1000,1000,1000,,,,,
44768752,1000,1000,1000,1000,,,,,
44771251,1000,1000,1000,1000,,,,,
44773750,1000,1000,1000,1000,,,,,
44776249,1000,1000,1000,1000,,,,,
44778748,1000,1000,1000,1000,,,,,
44781247,1000,1000,1000,1000,,,,,
44783746,1000,1000,1000,1000,,,,,
44786245,1000,1000,1000,1000,,,,,
44788744,1000,1000,1000,1000,,,,,
44791243,1000,1000,1000,1000,,,,,
44793742,1001,1001,1001,1001,,,,,
44796241,1002,1002,1002,1002,,,,,
44798740,1003,1003,1003,1003,,,,,
44801239,1003,1003,1003,1003,,,,,
44803738,1004,1004,1004,1004,,,,,
44806237,1005,1005,1005,1005,,,,,
44808736,1006,1006,1006,1006,,,,,
44811235,1006,1006,1006,1006,,,,,
44813734,1007,1007,1007,1007,,,,,
44816233,1008,1008,1008,1008,,,,,
44818732,1009,1009,1009,1009,,,,,
44821231,1009,1009,1009,1009,,,,,
44823730,1010,1010,1010,1010,,,,,
44826229,1011,1011,1011,1011,,,,,
44828728,1012,1012,1012,1012,,,,,
44831227,1012,1012,1012,1012,,,,,
44833726,1013,1013,1013,1013,,,,,
44836225,1014,1014,1014,1014,,,,,
44838724,1015,1015,1015,1015,,,,,
44841223,1015,1015,1015,1015,,,,,
44843722,1016,1016,1016,1016,,,,,
44846221,1017,1017,1017,1017,,,,,
44848720,1018,1018,1018,1018,,,,,
44851219,1018,1018,1018,1018,,,,,
44853718,1019,1019,1019,1019,,,,,
44856217,1020,1020,1020,1020,,,,,
44858716,1021,1021,1021,1021,,,,,
44861215,1021,1021,1021,1021,,,,,
44863714,1022,1022,1022,1022,,,,,
44866213,1023,1023,1023,1023,,,,,
44868712,1024,1024,1024,1024,,,,,
44871211,1024,1024,1024,1024,,,,,
44873710,1025,1025,1025,1025,,,,,
44876209,1026,1026,1026,1026,,,,,
44878708,1027,1027,1027,1027,,,,,
44881207,1027,1027,1027,1027,,,,,
44883706,1028,1028,1028,1028,,,,,
44886205,1029,1029,1029,1029,,,,,
44888704,1030,1030,1030,1030,,,,,
44891203,1030,1030,1030,1030,,,,,
44893702,1031,1031,1031,1031,,,,,
44896201,1032,1032,1032,1032,,,,,
44898700,1033,1033,1033,1033,,,,,
44901199,1033,1033,1033,1033,,,,,
44903698,1034,1034,1034,1034,,,,,
44906197,1035,1035,1035,1035,,,,,
44908696,1036,1036,1036,1036,,,,,
44911195,1036,1036,1036,1036,,,,,
44913694,1037,1037,1037,1037,,,,,
44916193,1038,1038,1038,1038,,,,,
44918692,1039,1039,1039,1039,,,,,
44921191,1039,1039,1039,1039,,,,,
44923690,1040,1040,1040,1040,,,,,
44926189,1041,1041,1041,1041,,,,,
44928688,1042,1042,1042,1042,,,,,
44931187,1042,1042,1042,1042,,,,,
44933686,1043,1043,1043,1043,,,,,
44936185,1044,1044,1044,1044,,,,,
44938684,1045,1045,1045,1045,,,,,
44941183,1045,1045,1045,1045,,,,,
44943682,1046,1046,1046,1046,,,,,
44946181,1047,1047,1047,1047,,,,,
44948680,1048,1048,1048,1048,,,,,
44951179,1048,1048,1048,1048,,,,,
44953678,1049,1049,1049,1049,,,,,
44956177,1050,1050,1050,1050,,,,,
44958676,1051,1051,1051,1051,,,,,
44961175,1051,1051,1051,1051,,,,,
44963674,1052,1052,1052,1052,,,,,
44966173,1053,1053,1053,1053,,,,,
44968672,1054,1054,1054,1054,,,,,
44971171,1054,1054,1054,1054,,,,,
44973670,1055,1055,1055,1055,,,,,
44976169,1056,1056,1056,1056,,,,,
44978668,1057,1057,1057,1057,,,,,
44981167,1057,1057,1057,1057,,,,,
44983666,1058,1058,1058,1058,,,,,
44986165,1059,1059,1059,1059,,,,,
44988664,1060,1060,1060,1060,,,,,
44991163,1060,1060,1060,1060,,,,,
44993662,1061,1061,1061,1061,,,,,
44996161,1062,1062,1062,1062,,,,,
44998660,1063,1063,1063,1063,,,,,
45001159,1063,1063,1063,1063,,,,,
45003658,1064,1064,1064,1064,,,,,
45006157,1065,1065,1065,1065,,,,,
45008656,1066,1066,1066,1066,,,,,
45011155,1066,1066,1066,1066,,,,,
45013654,1067,1067,1067,1067,,,,,
45016153,1068,1068,1068,1068,,,,,
45018652,1069,1069,1069,1069,,,,,
45021151,1069,1069,1069,1069,,,,,
45023650,1070,1070,1070,1070,,,,,
45026149,1071,1071,1071,1071,,,,,
45028648,1072,1072,1072,1072,,,,,
45031147,1072,1072,1072,1072,,,,,
45033646,1073,1073,1073,1073,,,,,
45036145,1074,1074,1074,1074,,,,,
45038644,1075,1075,1075,1075,,,,,
45041143,1075,1075,1075,1075,,,,,
45043642,1076,1076,1076,1076,,,,,
45046141,1077,1077,1077,1077,,,,,
45048640,1078,1078,1078,1078,,,,,
45051139,1078,1078,1078,1078,,,,,
45053638,1079,1079,1079,1079,,,,,
45056137,1080,1080,1080,1080,,,,,
45058636,1081,1081,1081,1081,,,,,
45061135,1081,1081,1081,1081,,,,,
45063634,1082,1082,1082,1082,,,,,
45066133,1083,1083,1083,1083,,,,,
45068632,1084,1084,1084,1084,,,,,
45071131,1084,1084,1084,1084,,,,,
45073630,1085,1085,1085,1085,,,,,
45076129,1086,1086,1086,1086,,,,,
45078628,1087,1087,1087,1087,,,,,
45081127,1087,1087,1087,1087,,,,,
45083626,1088,1088,1088,1088,,,,,
45086125,1089,1089,1089,1089,,,,,
45088624,1090,1090,1090,1090,,,,,
45091123,1090,1090,1090,1090,,,,,
45093622,1091,1091,1091,1091,,,,,
45096121,1092,1092,1092,1092,,,,,
45098620,1093,1093,1093,1093,,,,,
45101119,1093,1093,1093,1093,,,,,
45103618,1094,1094,1094,1094,,,,,
45106117,1095,1095,1095,1095,,,,,
45108616,1096,1096,1096,1096,,,,,
45111115,1096,1096,1096,1096,,,,,
45113614,1097,1097,1097,1097,,,,,
45116113,1098,1098,1098,1098,,,,,
45118612,1099,1099,1099,1099,,,,,
45121111,1099,1099,1099,1099,,,,,
45123610,1100,1100,1100,1100,,,,,
45126109,1101,1101,1101,1101,,,,,
45128608,1101,1101,1101,1101,,,,,
45131107,1102,1102,1102,1102,,,,,
45133606,1103,1103,1103,1103,,,,,
45136105,1104,1104,1104,1104,,,,,
45138604,1104,1104,1104,1104,,,,,
45141103,1105,1105,1105,1105,,,,,
45143602,1106,1106,1106,1106,,,,,
45146101,1107,1107,1107,1107,,,,,
45148600,1107,1107,1107,1107,,,,,
45151099,1108,1108,1108,1108,,,,,
45153598,1109,1109,1109,1109,,,,,
45156097,1110,1110,1110,1110,,,,,
45158596,1110,1110,1110,1110,,,,,
45161095,1111,1111,1111,1111,,,,,
45163594,1112,1112,1112,1112,,,,,
45166093,1113,1113,1113,1113,,,,,
45168592,1113,1113,1113,1113,,,,,
45171091,1114,1114,1114,1114,,,,,
45173590,1115,1115,1115,1115,,,,,
45176089,1116,1116,1116,1116,,,,,
45178588,1116,1116,1116,1116,,,,,
45181087,1117,1117,1117,1117,,,,,
45183586,1118,1118,1118,1118,,,,,
45186085,1119,1119,1119,1119,,,,,
45188584,1119,1119,1119,1119,,,,,
45191083,1120,1120,1120,1120,,,,,
45193582,1121,1121,1121,1121,,,,,
45196081,1122,1122,1122,1122,,,,,
45198580,1122,1122,1122,1122,,,,,
45201079,1123,1123,1123,1123,,,,,
45203578,1124,1124,1124,1124,,,,,
45206077,1125,1125,1125,1125,,,,,
45208576,1125,1125,1125,1125,,,,,
45211075,1126,1126,1126,1126,,,,,
45213574,1127,1127,1127,1127,,,,,
45216073,1128,1128,1128,1128,,,,,
45218572,1128,1128,1128,1128,,,,,
45221071,1129,1129,1129,1129,,,,,
45223570,1130,1130,1130,1130,,,,,
45226069,1131,1131,1131,1131,,,,,
45228568,1131,1131,1131,1131,,,,,
45231067,1132,1132,1132,1132,,,,,
45233566,1133,1133,1133,1133,,,,,
45236065,1134,1134,1134,1134,,,,,
45238564,1134,1134,1134,1134,,,,,
45241063,1135,1135,1135,1135,,,,,
45243562,1136,1136,1136,1136,,,,,
45246061,1137,1137,1137,1137,,,,,
45248560,1137,1137,1137,1137,,,,,
45251059,1138,1138,1138,1138,,,,,
45253558,1139,1139,1139,1139,,,,,
45256057,1140,1140,1140,1140,,,,,
45258556,1140,1140,1140,1140,,,,,
45261055,1141,1141,1141,1141,,,,,
45263554,1142,1142,1142,1142,,,,,
45266053,1143,1143,1143,1143,,,,,
45268552,1143,1143,1143,1143,,,,,
45271051,1144,1144,1144,1144,,,,,
45273550,1145,1145,1145,1145,,,,,
45276049,1146,1146,1146,1146,,,,,
45278548,1146,1146,1146,1146,,,,,
45281047,1147,1147,1147,1147,,,,,
45283546,1148,1148,1148,1148,,,,,
45286045,1149,1149,1149,1149,,,,,
45288544,1149,1149,1149,1149,,,,,
45291043,1150,1150,1150,1150,,,,,
45293542,1161,1153,1154,1162,,,,,
45296041,1169,1162,1162,1170,,,,,
45298540,1177,1169,1170,1178,,,,,
45301039,1185,1177,1178,1185,,,,,
45303538,1192,1185,1186,1193,,,,,
45306037,1200,1193,1193,1200,,,,,
45308536,1207,1200,1201,1208,,,,,
45311035,1214,1207,1208,1215,,,,,
45313534,1222,1214,1215,1222,,,,,
45316033,1229,1221,1222,1229,,,,,
45318532,1235,1228,1229,1236,,,,,
45321031,1242,1235,1236,1243,,,,,
45323530,1249,1242,1243,1249,,,,,
45326029,1256,1249,1249,1256,,,,,
45328528,1262,1255,1256,1263,,,,,
45331027,1269,1262,1262,1269,,,,,
45333526,1275,1268,1269,1275,,,,,
45336025,1281,1275,1275,1282,,,,,
45338524,1287,1281,1281,1288,,,,,
45341023,1294,1287,1288,1294,,,,,
45343522,1300,1293,1294,1300,,,,,
45346021,1306,1299,1300,1306,,,,,
45348520,1312,1305,1306,1312,,,,,
45351019,1317,1311,1312,1318,,,,,
45353518,1323,1317,1318,1324,,,,,
45356017,1329,1323,1323,1329,,,,,
45358516,1335,1329,1329,1335,,,,,
45361015,1340,1334,1335,1341,,,,,
45363514,1346,1340,1341,1346,,,,,
45366013,1351,1346,1346,1352,,,,,
45368512,1357,1351,1352,1357,,,,,
45371011,1362,1357,1357,1363,,,,,
45373510,1368,1362,1363,1368,,,,,
45376009,1373,1368,1368,1374,,,,,
45378508,1378,1373,1373,1379,,,,,
45381007,1384,1378,1379,1384,,,,,
45383506,1389,1383,1384,1389,,,,,
45386005,1394,1389,1389,1395,,,,,
45388504,1399,1394,1394,1400,,,,,
45391003,1404,1399,1399,1405,,,,,
45393502,1409,1404,1404,1410,,,,,
45396001,1414,1409,1410,1415,,,,,
45398500,1419,1414,1415,1420,,,,,
45400999,1424,1419,1420,1425,,,,,
45403498,1429,1424,1424,1430,,,,,
45405997,1434,1429,1429,1434,,,,,
45408496,1439,1434,1434,1439,,,,,
45410995,1444,1439,1439,1444,,,,,
45413494,1448,1443,1444,1449,,,,,
45415993,1453,1448,1449,1454,,,,,
45418492,1458,1453,1453,1458,,,,,
45420991,1463,1458,1458,1463,,,,,
45423490,1467,1462,1463,1468,,,,,
45425989,1472,1467,1467,1472,,,,,
45428488,1476,1472,1472,1477,,,,,
45430987,1481,1476,1476,1481,,,,,
45433486,1485,1481,1481,1486,,,,,
45435985,1490,1485,1486,1490,,,,,
45438484,1494,1490,1490,1495,,,,,
45440983,1499,1494,1494,1499,,,,,
45443482,1503,1499,1499,1504,,,,,
45445981,1508,1503,1503,1508,,,,,
45448480,1512,1507,1508,1513,,,,,
45450979,1516,1512,1512,1517,,,,,
45453478,1521,1516,1516,1521,,,,,
45455977,1525,1520,1521,1526,,,,,
45458476,1529,1525,1525,1530,,,,,
45460975,1534,1529,1529,1534,,,,,
45463474,1538,1533,1533,1538,,,,,
45465973,1542,1537,1538,1543,,,,,
45468472,1546,1542,1542,1547,,,,,
45470971,1550,1546,1546,1551,,,,,
45473470,1555,1550,1550,1555,,,,,
45475969,1559,1554,1554,1559,,,,,
45478468,1563,1558,1558,1563,,,,,
45480967,1567,1562,1562,1567,,,,,
45483466,1571,1566,1566,1572,,,,,
45485965,1575,1570,1570,1576,,,,,
45488464,1579,1574,1574,1580,,,,,
45490963,1583,1578,1578,1584,,,,,
45493462,1587,1582,1582,1588,,,,,
45495961,1591,1586,1586,1592,,,,,
45498460,1595,1590,1590,1596,,,,,
45500959,1599,1594,1594,1599,,,,,
45503458,1603,1598,1598,1603,,,,,
45505957,1607,1602,1602,1607,,,,,
45508456,1610,1606,1606,1611,,,,,
45510955,1614,1610,1610,1615,,,,,
45513454,1618,1614,1614,1619,,,,,
45515953,1622,1617,1617,1623,,,,,
45518452,1626,1621,1621,1626,,,,,
45520951,1630,1625,1625,1630,,,,,
45523450,1633,1629,1629,1634,,,,,
45525949,1637,1632,1633,1638,,,,,
45528448,1641,1636,1636,1641,,,,,
45530947,1645,1640,1640,1645,,,,,
45533446,1648,1644,1644,1649,,,,,
45535945,1652,1647,1648,1652,,,,,
45538444,1656,1651,1651,1656,,,,,
45540943,1659,1655,1655,1660,,,,,
45543442,1663,1658,1659,1663,,,,,
45545941,1667,1662,1662,1667,,,,,
45548440,1670,1666,1666,1671,,,,,
45550939,1674,1669,1670,1674,,,,,
45553438,1677,1673,1673,1678,,,,,
45555937,1681,1676,1677,1681,,,,,
45558436,1685,1680,1680,1685,,,,,
45560935,1688,1684,1684,1688,,,,,
45563434,1692,1687,1687,1692,,,,,
45565933,1695,1691,1691,1695,,,,,
45568432,1699,1694,1695,1699,,,,,
45570931,1702,1698,1698,1702,,,,,
45573430,1706,1701,1702,1706,,,,,
45575929,1709,1705,1705,1709,,,,,
45578428,1713,1708,1709,1713,,,,,
45580927,1716,1712,1712,1716,,,,,
45583426,1719,1715,1715,1720,,,,,
45585925,1723,1718,1719,1723,,,,,
45588424,1726,1722,1722,1726,,,,,
45590923,1730,1725,1726,1730,,,,,
45593422,1733,1729,1729,1733,,,,,
45595921,1736,1732,1732,1737,,,,,
45598420,1740,1735,1736,1740,,,,,
45600919,1743,1739,1739,1743,,,,,
45603418,1746,1742,1743,1747,,,,,
45605917,1750,1745,1746,1750,,,,,
45608416,1753,1749,1749,1753,,,,,
45610915,1756,1752,1752,1757,,,,,
45613414,1760,1755,1756,1760,,,,,
45615913,1763,1759,1759,1763,,,,,
45618412,1766,1762,1762,1766,,,,,
45620911,1770,1765,1766,1770,,,,,
45623410,1773,1768,1769,1773,,,,,
45625909,1776,1772,1772,1776,,,,,
45628408,1779,1775,1775,1779,,,,,
45630907,1782,1778,1779,1783,,,,,
45633406,1786,1781,1782,1786,,,,,
45635905,1789,1785,1785,1789,,,,,
45638404,1792,1788,1788,1792,,,,,
45640903,1795,1791,1791,1795,,,,,
45643402,1799,1794,1795,1799,,,,,
45645901,1802,1797,1798,1802,,,,,
45648400,1805,1800,1801,1805,,,,,
45650899,1808,1803,1804,1808,,,,,
45653398,1811,1807,1807,1811,,,,,
45655897,1814,1810,1811,1814,,,,,
45658396,1817,1813,1814,1817,,,,,
45660895,1820,1817,1817,1820,,,,,
45663394,1823,1820,1820,1823,,,,,
45665893,1826,1823,1823,1826,,,,,
45668392,1829,1826,1826,1829,,,,,
45670891,1832,1829,1829,1832,,,,,
45673390,1835,1832,1832,1836,,,,,
45675889,1838,1835,1835,1839,,,,,
45678388,1841,1838,1838,1842,,,,,
45680887,1844,1841,1841,1845,,,,,
45683386,1848,1844,1844,1848,,,,,
45685885,1851,1847,1847,1851,,,,,
45688384,1854,1850,1850,1854,,,,,
45690883,1857,1853,1853,1857,,,,,
45693382,1860,1856,1856,1860,,,,,
45695881,1863,1859,1859,1863,,,,,
45698380,1866,1862,1862,1866,,,,,
45700879,1869,1865,1865,1869,,,,,
45703378,1872,1868,1868,1872,,,,,
45705877,1875,1871,1871,1875,,,,,
45708376,1878,1874,1874,1878,,,,,
45710875,1881,1877,1877,1881,,,,,
45713374,1883,1880,1880,1884,,,,,
45715873,1886,1883,1882,1887,,,,,
45718372,1889,1886,1885,1890,,,,,
45720871,1892,1889,1888,1893,,,,,
45723370,1895,1891,1891,1896,,,,,
45725869,1898,1894,1894,1899,,,,,
45728368,1901,1897,1897,1902,,,,,
45730867,1902,1898,1897,1903,,,,,
45733366,1900,1897,1896,1902,,,,,
45735865,1899,1896,1895,1900,,,,,
45738364,1898,1894,1894,1899,,,,,
45740863,1897,1893,1892,1898,,,,,
45743362,1896,1892,1891,1897,,,,,
45745861,1895,1891,1890,1896,,,,,
45748360,1894,1890,1889,1895,,,,,
45750859,1893,1889,1888,1894,,,,,
45753358,1892,1888,1887,1893,,,,,
45755857,1891,1887,1886,1893,,,,,
45758356,1890,1887,1886,1892,,,,,
45760855,1890,1886,1885,1891,,,,,
45763354,1889,1886,1884,1891,,,,,
45765853,1889,1885,1884,1891,,,,,
45768352,1888,1885,1883,1890,,,,,
45770851,1888,1884,1883,1890,,,,,
45773350,1888,1884,1883,1890,,,,,
45775849,1887,1884,1882,1890,,,,,
45778348,1887,1884,1882,1890,,,,,
45780847,1887,1884,1882,1890,,,,,
45783346,1887,1884,1882,1889,,,,,
45785845,1887,1884,1882,1889,,,,,
45788344,1887,1884,1882,1889,,,,,
45790843,1887,1884,1883,1889,,,,,
45793342,1887,1884,1883,1889,,,,,
45795841,1887,1884,1883,1889,,,,,
45798340,1886,1884,1882,1889,,,,,
45800839,1886,1884,1882,1888,,,,,
45803338,1885,1883,1882,1888,,,,,
45805837,1885,1883,1881,1887,,,,,
45808336,1884,1882,1880,1886,,,,,
45810835,1883,1881,1880,1885,,,,,
45813334,1882,1880,1879,1884,,,,,
45815833,1881,1879,1878,1883,,,,,
45818332,1880,1878,1876,1882,,,,,
45820831,1878,1876,1875,1880,,,,,
45823330,1877,1875,1873,1879,,,,,
45825829,1875,1873,1872,1877,,,,,
45828328,1873,1871,1870,1875,,,,,
45830827,1871,1869,1868,1873,,,,,
45833326,1869,1867,1866,1871,,,,,
45835825,1867,1865,1864,1869,,,,,
45838324,1864,1863,1861,1866,,,,,
45840823,1862,1860,1859,1864,,,,,
45843322,1859,1858,1856,1861,,,,,
45845821,1857,1855,1854,1859,,,,,
45848320,1854,1853,1851,1856,,,,,
45850819,1851,1850,1848,1853,,,,,
45853318,1848,1847,1846,1850,,,,,
45855817,1846,1844,1843,1847,,,,,
45858316,1843,1841,1840,1844,,,,,
45860815,1839,1838,1837,1841,,,,,
45863314,1836,1835,1834,1838,,,,,
45865813,1833,1832,1830,1835,,,,,
45868312,1830,1828,1827,1832,,,,,
45870811,1827,1825,1824,1828,,,,,
45873310,1823,1822,1820,1825,,,,,
45875809,1820,1818,1817,1822,,,,,
45878308,1816,1815,1814,1818,,,,,
45880807,1813,1811,1810,1815,,,,,
45883306,1810,1808,1807,1811,,,,,
45885805,1806,1804,1803,1808,,,,,
45888304,1802,1801,1800,1804,,,,,
45890803,1799,1797,1796,1801,,,,,
45893302,1795,1794,1793,1797,,,,,
45895801,1792,1790,1789,1793,,,,,
45898300,1788,1787,1786,1790,,,,,
45900799,1785,1783,1782,1786,,,,,
45903298,1781,1780,1779,1783,,,,,
45905797,1777,1776,1775,1779,,,,,
45908296,1774,1773,1771,1776,,,,,
45910795,1770,1769,1768,1772,,,,,
45913294,1767,1766,1765,1768,,,,,
45915793,1763,1762,1761,1765,,,,,
45918292,1760,1759,1758,1761,,,,,
45920791,1756,1755,1754,1758,,,,,
45923290,1753,1752,1751,1755,,,,,
45925789,1750,1748,1747,1751,,,,,
45928288,1746,1745,1744,1748,,,,,
45930787,1743,1742,1741,1744,,,,,
45933286,1739,1738,1737,1741,,,,,
45935785,1736,1735,1734,1738,,,,,
45938284,1733,1732,1731,1734,,,,,
45940783,1730,1729,1728,1731,,,,,
45943282,1726,1726,1725,1728,,,,,
45945781,1723,1723,1722,1725,,,,,
45948280,1720,1720,1719,1722,,,,,
45950779,1717,1717,1716,1719,,,,,
45953278,1714,1714,1713,1716,,,,,
45955777,1711,1711,1710,1712,,,,,
45958276,1708,1708,1707,1709,,,,,
45960775,1705,1705,1704,1706,,,,,
45963274,1702,1702,1701,1704,,,,,
45965773,1699,1699,1698,1701,,,,,
45968272,1696,1696,1695,1698,,,,,
45970771,1694,1694,1693,1695,,,,,
45973270,1691,1691,1690,1692,,,,,
45975769,1688,1688,1688,1690,,,,,
45978268,1686,1686,1685,1687,,,,,
45980767,1683,1683,1683,1685,,,,,
45983266,1681,1681,1680,1682,,,,,
45985765,1678,1678,1678,1680,,,,,
