timestamp,TimeUS,C1,C2,C3,C4,C5,C6,C7,C8,C9,C10,C11,C12,C13,C14
1684059014.14002419,249168626,1000,1000,1000,1000,0,0,0,0,0,0,0,0,0,0
1684059014.23998404,249268586,1000,1000,1000,1000,0,0,0,0,0,0,0,0,0,0
1684059014.33994412,249368546,1000,1000,1000,1000,0,0,0,0,0,0,0,0,0,0
1684059014.43990421,249468506,1000,1000,1000,1000,0,0,0,0,0,0,0,0,0,0
1684059014.53986406,249568466,1000,1000,1000,1000,0,0,0,0,0,0,0,0,0,0
1684059014.63982415,249668426,1000,1000,1000,1000,0,0,0,0,0,0,0,0,0,0
1684059014.73978400,249768386,1000,1000,1000,1000,0,0,0,0,0,0,0,0,0,0
1684059014.83974409,249868346,1000,1000,1000,1000,0,0,0,0,0,0,0,0,0,0
1684059014.93970418,249968306,1000,1000,1000,1000,0,0,0,0,0,0,0,0,0,0
1684059015.03966403,250068266,1000,1000,1000,1000,0,0,0,0,0,0,0,0,0,0
1684059015.13962412,250168226,1000,1000,1000,1000,0,0,0,0,0,0,0,0,0,0
1684059015.23958421,250268186,1000,1000,1000,1000,0,0,0,0,0,0,0,0,0,0
1684059015.34037709,250368979,1000,1000,1000,1000,0,0,0,0,0,0,0,0,0,0
1684059015.44033718,250468939,1000,1000,1000,1000,0,0,0,0,0,0,0,0,0,0
1684059015.54029703,250568899,1000,1000,1000,1000,0,0,0,0,0,0,0,0,0,0
1684059015.64025712,250668859,1000,1000,1000,1000,0,0,0,0,0,0,0,0,0,0
1684059015.74021721,250768819,1000,1000,1000,1000,0,0,0,0,0,0,0,0,0,0
1684059015.84017706,250868779,1000,1000,1000,1000,0,0,0,0,0,0,0,0,0,0
1684059015.94013715,250968739,1000,1000,1000,1000,0,0,0,0,0,0,0,0,0,0
1684059016.04009700,251068699,1000,1000,1000,1000,0,0,0,0,0,0,0,0,0,0
1684059016.14005709,251168659,1019,1019,1019,1019,0,0,0,0,0,0,0,0,0,0
1684059016.24001718,251268619,1049,1049,1049,1049,0,0,0,0,0,0,0,0,0,0
1684059016.33997703,251368579,1079,1079,1079,1079,0,0,0,0,0,0,0,0,0,0
1684059016.43993711,251468539,1100,1100,1100,1100,0,0,0,0,0,0,0,0,0,0
1684059016.53989720,251568499,1100,1100,1100,1100,0,0,0,0,0,0,0,0,0,0
1684059016.63985705,251668459,1100,1100,1100,1100,0,0,0,0,0,0,0,0,0,0
1684059016.73981714,251768419,1100,1100,1100,1100,0,0,0,0,0,0,0,0,0,0
1684059016.83977723,251868379,1100,1100,1100,1100,0,0,0,0,0,0,0,0,0,0
1684059016.93973708,251968339,1100,1100,1100,1100,0,0,0,0,0,0,0,0,0,0
1684059017.03969717,252068299,1100,1100,1100,1100,0,0,0,0,0,0,0,0,0,0
1684059017.13965702,252168259,1100,1100,1100,1100,0,0,0,0,0,0,0,0,0,0
1684059017.23961711,252268219,1100,1100,1100,1100,0,0,0,0,0,0,0,0,0,0
1684059017.33957720,252368179,1100,1100,1100,1100,0,0,0,0,0,0,0,0,0,0
1684059017.44037008,252468972,1100,1100,1100,1100,0,0,0,0,0,0,0,0,0,0
1684059017.54033017,252568932,1100,1100,1100,1100,0,0,0,0,0,0,0,0,0,0
1684059017.64029002,252668892,1100,1100,1100,1100,0,0,0,0,0,0,0,0,0,0
1684059017.74025011,252768852,1100,1100,1100,1100,0,0,0,0,0,0,0,0,0,0
1684059017.84021020,252868812,1100,1100,1100,1100,0,0,0,0,0,0,0,0,0,0
1684059017.94017005,252968772,1100,1100,1100,1100,0,0,0,0,0,0,0,0,0,0
1684059018.04013014,253068732,1100,1100,1100,1100,0,0,0,0,0,0,0,0,0,0
1684059018.14009023,253168692,1100,1100,1100,1100,0,0,0,0,0,0,0,0,0,0
1684059018.24005008,253268652,1100,1100,1100,1100,0,0,0,0,0,0,0,0,0,0
1684059018.34001017,253368612,1100,1100,1100,1100,0,0,0,0,0,0,0,0,0,0
1684059018.43997002,253468572,1100,1100,1100,1100,0,0,0,0,0,0,0,0,0,0
1684059018.53993011,253568532,1100,1100,1100,1100,0,0,0,0,0,0,0,0,0,0
1684059018.63989019,253668492,1100,1100,1100,1100,0,0,0,0,0,0,0,0,0,0
1684059018.73985004,253768452,1100,1100,1100,1100,0,0,0,0,0,0,0,0,0,0
1684059018.83981013,253868412,1100,1100,1100,1100,0,0,0,0,0,0,0,0,0,0
1684059018.93977022,253968372,1100,1100,1100,1100,0,0,0,0,0,0,0,0,0,0
1684059019.03973007,254068332,1100,1100,1100,1100,0,0,0,0,0,0,0,0,0,0
1684059019.13969016,254168292,1100,1100,1100,1100,0,0,0,0,0,0,0,0,0,0
1684059019.23965001,254268252,1100,1100,1100,1100,0,0,0,0,0,0,0,0,0,0
1684059019.33961010,254368212,1100,1100,1100,1100,0,0,0,0,0,0,0,0,0,0
1684059019.43957019,254468172,1100,1100,1100,1100,0,0,0,0,0,0,0,0,0,0
1684059019.54036307,254568965,1120,1120,1120,1120,0,0,0,0,0,0,0,0,0,0
1684059019.64032316,254668925,1150,1150,1150,1150,0,0,0,0,0,0,0,0,0,0
1684059019.74028301,254768885,1208,1176,1177,1210,0,0,0,0,0,0,0,0,0,0
1684059019.84024310,254868845,1240,1206,1207,1241,0,0,0,0,0,0,0,0,0,0
1684059019.94020319,254968805,1282,1246,1247,1283,0,0,0,0,0,0,0,0,0,0
1684059020.04016304,255068765,1329,1294,1294,1331,0,0,0,0,0,0,0,0,0,0
1684059020.14012313,255168725,1378,1341,1342,1379,0,0,0,0,0,0,0,0,0,0
1684059020.24008322,255268685,1427,1391,1391,1429,0,0,0,0,0,0,0,0,0,0
1684059020.34004307,255368645,1479,1441,1441,1481,0,0,0,0,0,0,0,0,0,0
1684059020.44000316,255468605,1532,1493,1494,1533,0,0,0,0,0,0,0,0,0,0
1684059020.53996301,255568565,1585,1546,1547,1587,0,0,0,0,0,0,0,0,0,0
1684059020.63992310,255668525,1625,1585,1585,1626,0,0,0,0,0,0,0,0,0,0
1684059020.73988318,255768485,1657,1614,1615,1658,0,0,0,0,0,0,0,0,0,0
1684059020.83984303,255868445,1692,1648,1648,1693,0,0,0,0,0,0,0,0,0,0
1684059020.93980312,255968405,1727,1681,1682,1728,0,0,0,0,0,0,0,0,0,0
1684059021.03976321,256068365,1764,1717,1719,1765,0,0,0,0,0,0,0,0,0,0
1684059021.13972306,256168325,1796,1758,1758,1798,0,0,0,0,0,0,0,0,0,0
1684059021.23968315,256268285,1687,1676,1678,1688,0,0,0,0,0,0,0,0,0,0
1684059021.33964300,256368245,1568,1577,1578,1569,0,0,0,0,0,0,0,0,0,0
1684059021.43960309,256468205,1551,1568,1569,1551,0,0,0,0,0,0,0,0,0,0
1684059021.53956318,256568165,1588,1606,1605,1588,0,0,0,0,0,0,0,0,0,0
1684059021.64035606,256668958,1625,1639,1637,1625,0,0,0,0,0,0,0,0,0,0
1684059021.74031615,256768918,1645,1649,1649,1644,0,0,0,0,0,0,0,0,0,0
1684059021.84027600,256868878,1648,1644,1645,1647,0,0,0,0,0,0,0,0,0,0
1684059021.94023609,256968838,1644,1636,1636,1645,0,0,0,0,0,0,0,0,0,0
1684059022.04019618,257068798,1641,1632,1632,1641,0,0,0,0,0,0,0,0,0,0
1684059022.14015603,257168758,1639,1632,1632,1639,0,0,0,0,0,0,0,0,0,0
1684059022.24011612,257268718,1638,1634,1634,1637,0,0,0,0,0,0,0,0,0,0
1684059022.34007621,257368678,1617,1622,1618,1621,0,0,0,0,0,0,0,0,0,0
1684059022.44003606,257468638,1614,1610,1602,1619,0,0,0,0,0,0,0,0,0,0
1684059022.53999615,257568598,1612,1605,1598,1613,0,0,0,0,0,0,0,0,0,0
1684059022.63995600,257668558,1610,1605,1600,1608,0,0,0,0,0,0,0,0,0,0
1684059022.73991609,257768518,1609,1606,1606,1605,0,0,0,0,0,0,0,0,0,0
1684059022.83987617,257868478,1610,1610,1612,1606,0,0,0,0,0,0,0,0,0,0
1684059022.93983603,257968438,1605,1609,1613,1601,0,0,0,0,0,0,0,0,0,0
1684059023.03979611,258068398,1579,1584,1602,1565,0,0,0,0,0,0,0,0,0,0
1684059023.13975620,258168358,1567,1571,1587,1560,0,0,0,0,0,0,0,0,0,0
1684059023.23971605,258268318,1556,1558,1563,1562,0,0,0,0,0,0,0,0,0,0
1684059023.33967614,258368278,1548,1548,1543,1562,0,0,0,0,0,0,0,0,0,0
1684059023.43963623,258468238,1543,1541,1531,1556,0,0,0,0,0,0,0,0,0,0
1684059023.53959608,258568198,1536,1534,1525,1545,0,0,0,0,0,0,0,0,0,0
1684059023.63955617,258668158,1533,1531,1525,1536,0,0,0,0,0,0,0,0,0,0
1684059023.74034905,258768951,1532,1531,1528,1530,0,0,0,0,0,0,0,0,0,0
1684059023.84030914,258868911,1533,1533,1532,1528,0,0,0,0,0,0,0,0,0,0
1684059023.94026923,258968871,1534,1534,1537,1528,0,0,0,0,0,0,0,0,0,0
1684059024.04022908,259068831,1538,1538,1541,1532,0,0,0,0,0,0,0,0,0,0
1684059024.14018917,259168791,1541,1541,1543,1537,0,0,0,0,0,0,0,0,0,0
1684059024.24014902,259268751,1543,1544,1545,1542,0,0,0,0,0,0,0,0,0,0
1684059024.34010911,259368711,1546,1546,1547,1546,0,0,0,0,0,0,0,0,0,0
1684059024.44006920,259468671,1549,1550,1549,1551,0,0,0,0,0,0,0,0,0,0
1684059024.54002905,259568631,1551,1552,1551,1553,0,0,0,0,0,0,0,0,0,0
1684059024.63998914,259668591,1553,1553,1553,1555,0,0,0,0,0,0,0,0,0,0
1684059024.73994923,259768551,1555,1555,1555,1556,0,0,0,0,0,0,0,0,0,0
1684059024.83990908,259868511,1557,1557,1557,1558,0,0,0,0,0,0,0,0,0,0
1684059024.93986917,259968471,1558,1558,1560,1561,0,0,0,0,0,0,0,0,0,0
1684059025.03982902,260068431,1558,1558,1562,1563,0,0,0,0,0,0,0,0,0,0
1684059025.13978910,260168391,1559,1559,1565,1566,0,0,0,0,0,0,0,0,0,0
1684059025.23974919,260268351,1560,1561,1567,1567,0,0,0,0,0,0,0,0,0,0
1684059025.33970904,260368311,1562,1562,1567,1567,0,0,0,0,0,0,0,0,0,0
1684059025.43966913,260468271,1564,1565,1568,1568,0,0,0,0,0,0,0,0,0,0
1684059025.53962922,260568231,1566,1567,1567,1567,0,0,0,0,0,0,0,0,0,0
1684059025.63958907,260668191,1568,1569,1567,1567,0,0,0,0,0,0,0,0,0,0
1684059025.74038219,260768984,1570,1570,1567,1567,0,0,0,0,0,0,0,0,0,0
1684059025.84034204,260868944,1572,1572,1567,1567,0,0,0,0,0,0,0,0,0,0
1684059025.94030213,260968904,1573,1573,1567,1568,0,0,0,0,0,0,0,0,0,0
1684059026.04026222,261068864,1574,1574,1568,1568,0,0,0,0,0,0,0,0,0,0
1684059026.14022207,261168824,1574,1574,1569,1569,0,0,0,0,0,0,0,0,0,0
1684059026.24018216,261268784,1575,1575,1570,1571,0,0,0,0,0,0,0,0,0,0
1684059026.34014201,261368744,1575,1575,1572,1572,0,0,0,0,0,0,0,0,0,0
1684059026.44010210,261468704,1575,1575,1574,1573,0,0,0,0,0,0,0,0,0,0
1684059026.54006219,261568664,1575,1576,1576,1575,0,0,0,0,0,0,0,0,0,0
1684059026.64002204,261668624,1575,1575,1576,1575,0,0,0,0,0,0,0,0,0,0
1684059026.73998213,261768584,1575,1575,1577,1576,0,0,0,0,0,0,0,0,0,0
1684059026.83994222,261868544,1575,1575,1577,1577,0,0,0,0,0,0,0,0,0,0
1684059026.93990207,261968504,1576,1576,1578,1578,0,0,0,0,0,0,0,0,0,0
1684059027.03986216,262068464,1576,1576,1578,1578,0,0,0,0,0,0,0,0,0,0
1684059027.13982201,262168424,1576,1577,1578,1578,0,0,0,0,0,0,0,0,0,0
1684059027.23978209,262268384,1577,1576,1577,1577,0,0,0,0,0,0,0,0,0,0
1684059027.33974218,262368344,1577,1577,1578,1577,0,0,0,0,0,0,0,0,0,0
1684059027.43970203,262468304,1577,1576,1576,1577,0,0,0,0,0,0,0,0,0,0
1684059027.53966212,262568264,1577,1578,1577,1577,0,0,0,0,0,0,0,0,0,0
1684059027.63962221,262668224,1578,1578,1577,1577,0,0,0,0,0,0,0,0,0,0
1684059027.73958206,262768184,1578,1578,1578,1577,0,0,0,0,0,0,0,0,0,0
1684059027.84037519,262868977,1578,1578,1578,1578,0,0,0,0,0,0,0,0,0,0
1684059027.94033504,262968937,1579,1578,1578,1578,0,0,0,0,0,0,0,0,0,0
1684059028.04029512,263068897,1579,1579,1578,1578,0,0,0,0,0,0,0,0,0,0
1684059028.14025521,263168857,1579,1579,1579,1579,0,0,0,0,0,0,0,0,0,0
1684059028.24021506,263268817,1579,1579,1579,1579,0,0,0,0,0,0,0,0,0,0
1684059028.34017515,263368777,1579,1579,1579,1579,0,0,0,0,0,0,0,0,0,0
1684059028.44013500,263468737,1580,1580,1580,1580,0,0,0,0,0,0,0,0,0,0
1684059028.54009509,263568697,1580,1580,1581,1580,0,0,0,0,0,0,0,0,0,0
1684059028.64005518,263668657,1579,1579,1580,1580,0,0,0,0,0,0,0,0,0,0
1684059028.74001503,263768617,1579,1579,1580,1580,0,0,0,0,0,0,0,0,0,0
1684059028.83997512,263868577,1579,1579,1579,1579,0,0,0,0,0,0,0,0,0,0
1684059028.93993521,263968537,1578,1579,1580,1579,0,0,0,0,0,0,0,0,0,0
1684059029.03989506,264068497,1580,1580,1580,1581,0,0,0,0,0,0,0,0,0,0
1684059029.13985515,264168457,1580,1579,1580,1580,0,0,0,0,0,0,0,0,0,0
1684059029.23981500,264268417,1581,1580,1580,1580,0,0,0,0,0,0,0,0,0,0
1684059029.33977509,264368377,1580,1580,1581,1580,0,0,0,0,0,0,0,0,0,0
1684059029.43973517,264468337,1581,1580,1581,1581,0,0,0,0,0,0,0,0,0,0
1684059029.53969502,264568297,1580,1580,1580,1580,0,0,0,0,0,0,0,0,0,0
1684059029.63965511,264668257,1580,1580,1580,1580,0,0,0,0,0,0,0,0,0,0
1684059029.73961520,264768217,1580,1580,1580,1580,0,0,0,0,0,0,0,0,0,0
1684059029.83957505,264868177,1580,1580,1580,1581,0,0,0,0,0,0,0,0,0,0
1684059029.94036818,264968970,1580,1581,1581,1581,0,0,0,0,0,0,0,0,0,0
1684059030.04032803,265068930,1580,1580,1580,1580,0,0,0,0,0,0,0,0,0,0
1684059030.14028811,265168890,1580,1580,1580,1580,0,0,0,0,0,0,0,0,0,0
1684059030.24024820,265268850,1581,1581,1581,1581,0,0,0,0,0,0,0,0,0,0
1684059030.34020805,265368810,1581,1581,1581,1581,0,0,0,0,0,0,0,0,0,0
1684059030.44016814,265468770,1581,1580,1581,1580,0,0,0,0,0,0,0,0,0,0
1684059030.54012823,265568730,1580,1581,1581,1580,0,0,0,0,0,0,0,0,0,0
1684059030.64008808,265668690,1581,1580,1581,1581,0,0,0,0,0,0,0,0,0,0
1684059030.74004817,265768650,1581,1581,1581,1582,0,0,0,0,0,0,0,0,0,0
1684059030.84000802,265868610,1581,1581,1582,1581,0,0,0,0,0,0,0,0,0,0
1684059030.93996811,265968570,1582,1582,1583,1582,0,0,0,0,0,0,0,0,0,0
1684059031.03992820,266068530,1580,1580,1581,1581,0,0,0,0,0,0,0,0,0,0
1684059031.13988805,266168490,1580,1582,1587,1574,0,0,0,0,0,0,0,0,0,0
1684059031.23984814,266268450,1580,1583,1585,1572,0,0,0,0,0,0,0,0,0,0
1684059031.33980823,266368410,1579,1582,1577,1573,0,0,0,0,0,0,0,0,0,0
1684059031.43976808,266468370,1578,1581,1567,1571,0,0,0,0,0,0,0,0,0,0
1684059031.53972816,266568330,1578,1580,1560,1567,0,0,0,0,0,0,0,0,0,0
1684059031.63968801,266668290,1579,1580,1555,1562,0,0,0,0,0,0,0,0,0,0
1684059031.73964810,266768250,1581,1580,1554,1557,0,0,0,0,0,0,0,0,0,0
1684059031.83960819,266868210,1582,1580,1553,1554,0,0,0,0,0,0,0,0,0,0
1684059031.93956804,266968170,1581,1580,1553,1551,0,0,0,0,0,0,0,0,0,0
1684059032.04036117,267068963,1580,1579,1553,1550,0,0,0,0,0,0,0,0,0,0
1684059032.14032102,267168923,1579,1580,1553,1551,0,0,0,0,0,0,0,0,0,0
1684059032.24028111,267268883,1578,1580,1553,1552,0,0,0,0,0,0,0,0,0,0
1684059032.34024119,267368843,1578,1580,1553,1552,0,0,0,0,0,0,0,0,0,0
1684059032.44020104,267468803,1578,1579,1551,1551,0,0,0,0,0,0,0,0,0,0
1684059032.54016113,267568763,1579,1581,1551,1551,0,0,0,0,0,0,0,0,0,0
1684059032.64012122,267668723,1581,1582,1549,1549,0,0,0,0,0,0,0,0,0,0
1684059032.74008107,267768683,1584,1584,1547,1547,0,0,0,0,0,0,0,0,0,0
1684059032.84004116,267868643,1586,1587,1544,1544,0,0,0,0,0,0,0,0,0,0
1684059032.94000101,267968603,1588,1589,1542,1542,0,0,0,0,0,0,0,0,0,0
1684059033.03996110,268068563,1590,1591,1538,1537,0,0,0,0,0,0,0,0,0,0
1684059033.13992119,268168523,1593,1593,1537,1537,0,0,0,0,0,0,0,0,0,0
1684059033.23988104,268268483,1595,1595,1535,1537,0,0,0,0,0,0,0,0,0,0
1684059033.33984113,268368443,1596,1597,1536,1538,0,0,0,0,0,0,0,0,0,0
1684059033.43980122,268468403,1597,1596,1538,1540,0,0,0,0,0,0,0,0,0,0
1684059033.53976107,268568363,1594,1593,1542,1545,0,0,0,0,0,0,0,0,0,0
1684059033.63972116,268668323,1590,1587,1548,1551,0,0,0,0,0,0,0,0,0,0
1684059033.73968101,268768283,1583,1579,1557,1560,0,0,0,0,0,0,0,0,0,0
1684059033.83964109,268868243,1573,1569,1568,1571,0,0,0,0,0,0,0,0,0,0
1684059033.93960118,268968203,1561,1558,1581,1582,0,0,0,0,0,0,0,0,0,0
1684059034.03956103,269068163,1549,1546,1593,1594,0,0,0,0,0,0,0,0,0,0
1684059034.14035416,269168956,1540,1538,1604,1604,0,0,0,0,0,0,0,0,0,0
1684059034.24031401,269268916,1533,1533,1612,1611,0,0,0,0,0,0,0,0,0,0
1684059034.34027410,269368876,1529,1531,1617,1615,0,0,0,0,0,0,0,0,0,0
1684059034.44023418,269468836,1529,1532,1617,1615,0,0,0,0,0,0,0,0,0,0
1684059034.54019403,269568796,1532,1535,1612,1612,0,0,0,0,0,0,0,0,0,0
1684059034.64015412,269668756,1541,1543,1608,1608,0,0,0,0,0,0,0,0,0,0
1684059034.74011421,269768716,1548,1550,1601,1601,0,0,0,0,0,0,0,0,0,0
1684059034.84007406,269868676,1557,1558,1593,1592,0,0,0,0,0,0,0,0,0,0
1684059034.94003415,269968636,1567,1567,1586,1585,0,0,0,0,0,0,0,0,0,0
1684059035.03999400,270068596,1574,1573,1578,1577,0,0,0,0,0,0,0,0,0,0
1684059035.13995409,270168556,1580,1579,1572,1572,0,0,0,0,0,0,0,0,0,0
1684059035.23991418,270268516,1585,1584,1568,1568,0,0,0,0,0,0,0,0,0,0
1684059035.33987403,270368476,1588,1586,1566,1566,0,0,0,0,0,0,0,0,0,0
1684059035.43983412,270468436,1254,1252,1566,1566,0,0,0,0,0,0,0,0,0,0
1684059035.53979421,270568396,1358,1362,1636,1645,0,0,0,0,0,0,0,0,0,0
1684059035.63975406,270668356,1428,1436,1641,1642,0,0,0,0,0,0,0,0,0,0
1684059035.73971415,270768316,1488,1497,1632,1625,0,0,0,0,0,0,0,0,0,0
1684059035.83967400,270868276,1537,1541,1624,1614,0,0,0,0,0,0,0,0,0,0
1684059035.93963408,270968236,1574,1572,1617,1609,0,0,0,0,0,0,0,0,0,0
1684059036.03959417,271068196,1611,1597,1602,1599,0,0,0,0,0,0,0,0,0,0
1684059036.13955402,271168156,1615,1601,1537,1544,0,0,0,0,0,0,0,0,0,0
1684059036.24034715,271268949,1615,1605,1498,1513,0,0,0,0,0,0,0,0,0,0
1684059036.34030700,271368909,1613,1615,1512,1524,0,0,0,0,0,0,0,0,0,0
1684059036.44026709,271468869,1607,1615,1528,1532,0,0,0,0,0,0,0,0,0,0
1684059036.54022717,271568829,1606,1615,1547,1544,0,0,0,0,0,0,0,0,0,0
1684059036.64018703,271668789,1609,1615,1565,1559,0,0,0,0,0,0,0,0,0,0
1684059036.74014711,271768749,1613,1615,1578,1574,0,0,0,0,0,0,0,0,0,0
1684059036.84010720,271868709,1615,1613,1585,1582,0,0,0,0,0,0,0,0,0,0
1684059036.94006705,271968669,1615,1611,1587,1588,0,0,0,0,0,0,0,0,0,0
1684059037.04002714,272068629,1615,1611,1589,1592,0,0,0,0,0,0,0,0,0,0
1684059037.13998723,272168589,1615,1613,1593,1595,0,0,0,0,0,0,0,0,0,0
1684059037.23994708,272268549,1614,1615,1597,1598,0,0,0,0,0,0,0,0,0,0
1684059037.33990717,272368509,1614,1615,1599,1598,0,0,0,0,0,0,0,0,0,0
1684059037.43986702,272468469,1614,1615,1600,1599,0,0,0,0,0,0,0,0,0,0
1684059037.53982711,272568429,1609,1610,1595,1593,0,0,0,0,0,0,0,0,0,0
1684059037.63978720,272668389,1606,1606,1591,1589,0,0,0,0,0,0,0,0,0,0
1684059037.73974705,272768349,1603,1604,1587,1586,0,0,0,0,0,0,0,0,0,0
1684059037.83970714,272868309,1600,1601,1584,1583,0,0,0,0,0,0,0,0,0,0
1684059037.93966722,272968269,1598,1599,1581,1580,0,0,0,0,0,0,0,0,0,0
1684059038.03962708,273068229,1597,1596,1579,1578,0,0,0,0,0,0,0,0,0,0
1684059038.13958716,273168189,1594,1594,1575,1575,0,0,0,0,0,0,0,0,0,0
1684059038.24038005,273268982,1591,1591,1572,1572,0,0,0,0,0,0,0,0,0,0
1684059038.34034014,273368942,1589,1590,1570,1570,0,0,0,0,0,0,0,0,0,0
1684059038.44030023,273468902,1588,1588,1568,1569,0,0,0,0,0,0,0,0,0,0
1684059038.54026008,273568862,1586,1586,1566,1567,0,0,0,0,0,0,0,0,0,0
1684059038.64022017,273668822,1585,1585,1566,1566,0,0,0,0,0,0,0,0,0,0
1684059038.74018002,273768782,1585,1585,1567,1566,0,0,0,0,0,0,0,0,0,0
1684059038.84014010,273868742,1584,1584,1566,1566,0,0,0,0,0,0,0,0,0,0
1684059038.94010019,273968702,1587,1583,1570,1564,0,0,0,0,0,0,0,0,0,0
1684059039.04006004,274068662,1589,1579,1572,1564,0,0,0,0,0,0,0,0,0,0
1684059039.14002013,274168622,1587,1579,1567,1566,0,0,0,0,0,0,0,0,0,0
1684059039.23998022,274268582,1583,1579,1562,1565,0,0,0,0,0,0,0,0,0,0
1684059039.33994007,274368542,1578,1579,1557,1561,0,0,0,0,0,0,0,0,0,0
1684059039.43990016,274468502,1574,1578,1555,1556,0,0,0,0,0,0,0,0,0,0
1684059039.53986001,274568462,1572,1577,1554,1552,0,0,0,0,0,0,0,0,0,0
1684059039.63982010,274668422,1572,1577,1555,1551,0,0,0,0,0,0,0,0,0,0
1684059039.73978019,274768382,1572,1575,1554,1550,0,0,0,0,0,0,0,0,0,0
1684059039.83974004,274868342,1573,1574,1553,1550,0,0,0,0,0,0,0,0,0,0
1684059039.93970013,274968302,1573,1573,1552,1551,0,0,0,0,0,0,0,0,0,0
1684059040.03966022,275068262,1573,1573,1551,1551,0,0,0,0,0,0,0,0,0,0
1684059040.13962007,275168222,1572,1573,1550,1550,0,0,0,0,0,0,0,0,0,0
1684059040.23958015,275268182,1572,1573,1550,1550,0,0,0,0,0,0,0,0,0,0
1684059040.34037304,275368975,1572,1573,1550,1550,0,0,0,0,0,0,0,0,0,0
1684059040.44033313,275468935,1572,1573,1550,1550,0,0,0,0,0,0,0,0,0,0
1684059040.54029322,275568895,1571,1574,1551,1550,0,0,0,0,0,0,0,0,0,0
1684059040.64025307,275668855,1572,1574,1551,1550,0,0,0,0,0,0,0,0,0,0
1684059040.74021316,275768815,1571,1573,1550,1549,0,0,0,0,0,0,0,0,0,0
1684059040.84017301,275868775,1571,1572,1549,1549,0,0,0,0,0,0,0,0,0,0
1684059040.94013309,275968735,1572,1573,1550,1550,0,0,0,0,0,0,0,0,0,0
1684059041.04009318,276068695,1573,1572,1549,1550,0,0,0,0,0,0,0,0,0,0
1684059041.14005303,276168655,1574,1574,1551,1552,0,0,0,0,0,0,0,0,0,0
1684059041.24001312,276268615,1574,1575,1551,1552,0,0,0,0,0,0,0,0,0,0
1684059041.33997321,276368575,1575,1574,1551,1552,0,0,0,0,0,0,0,0,0,0
1684059041.43993306,276468535,1576,1575,1551,1553,0,0,0,0,0,0,0,0,0,0
1684059041.53989315,276568495,1577,1576,1552,1554,0,0,0,0,0,0,0,0,0,0
1684059041.63985300,276668455,1577,1577,1553,1555,0,0,0,0,0,0,0,0,0,0
1684059041.73981309,276768415,1577,1577,1552,1555,0,0,0,0,0,0,0,0,0,0
1684059041.83977318,276868375,1577,1577,1553,1556,0,0,0,0,0,0,0,0,0,0
1684059041.93973303,276968335,1574,1573,1561,1563,0,0,0,0,0,0,0,0,0,0
1684059042.03969312,277068295,1567,1566,1571,1574,0,0,0,0,0,0,0,0,0,0
1684059042.13965321,277168255,1559,1558,1579,1581,0,0,0,0,0,0,0,0,0,0
1684059042.23961306,277268215,1553,1553,1585,1586,0,0,0,0,0,0,0,0,0,0
1684059042.33957314,277368175,1550,1550,1589,1589,0,0,0,0,0,0,0,0,0,0
1684059042.44036603,277468968,1550,1549,1592,1591,0,0,0,0,0,0,0,0,0,0
1684059042.54032612,277568928,1550,1550,1594,1593,0,0,0,0,0,0,0,0,0,0
1684059042.64028621,277668888,1550,1550,1592,1592,0,0,0,0,0,0,0,0,0,0
1684059042.74024606,277768848,1551,1552,1591,1590,0,0,0,0,0,0,0,0,0,0
1684059042.84020615,277868808,1553,1553,1590,1589,0,0,0,0,0,0,0,0,0,0
1684059042.94016600,277968768,1555,1556,1589,1588,0,0,0,0,0,0,0,0,0,0
1684059043.04012609,278068728,1558,1558,1587,1587,0,0,0,0,0,0,0,0,0,0
1684059043.14008617,278168688,1561,1562,1585,1586,0,0,0,0,0,0,0,0,0,0
1684059043.24004602,278268648,1565,1565,1585,1584,0,0,0,0,0,0,0,0,0,0
1684059043.34000611,278368608,1567,1567,1583,1581,0,0,0,0,0,0,0,0,0,0
1684059043.43996620,278468568,1570,1570,1582,1581,0,0,0,0,0,0,0,0,0,0
1684059043.53992605,278568528,1572,1571,1579,1578,0,0,0,0,0,0,0,0,0,0
1684059043.63988614,278668488,1575,1574,1579,1578,0,0,0,0,0,0,0,0,0,0
1684059043.73984623,278768448,1576,1576,1578,1577,0,0,0,0,0,0,0,0,0,0
1684059043.83980608,278868408,1578,1577,1577,1577,0,0,0,0,0,0,0,0,0,0
1684059043.93976617,278968368,1579,1579,1576,1577,0,0,0,0,0,0,0,0,0,0
1684059044.03972602,279068328,1580,1580,1575,1576,0,0,0,0,0,0,0,0,0,0
1684059044.13968611,279168288,1581,1581,1575,1576,0,0,0,0,0,0,0,0,0,0
1684059044.23964620,279268248,1581,1581,1575,1575,0,0,0,0,0,0,0,0,0,0
1684059044.33960605,279368208,1582,1582,1576,1575,0,0,0,0,0,0,0,0,0,0
1684059044.43956614,279468168,1582,1582,1576,1576,0,0,0,0,0,0,0,0,0,0
1684059044.54035902,279568961,1582,1582,1576,1575,0,0,0,0,0,0,0,0,0,0
1684059044.64031911,279668921,1583,1582,1576,1576,0,0,0,0,0,0,0,0,0,0
1684059044.74027920,279768881,1582,1581,1576,1576,0,0,0,0,0,0,0,0,0,0
1684059044.84023905,279868841,1582,1582,1576,1577,0,0,0,0,0,0,0,0,0,0
1684059044.94019914,279968801,1582,1582,1577,1577,0,0,0,0,0,0,0,0,0,0
1684059045.04015923,280068761,1581,1582,1577,1577,0,0,0,0,0,0,0,0,0,0
1684059045.14011908,280168721,1581,1581,1577,1577,0,0,0,0,0,0,0,0,0,0
1684059045.24007916,280268681,1581,1581,1578,1578,0,0,0,0,0,0,0,0,0,0
1684059045.34003901,280368641,1580,1581,1578,1578,0,0,0,0,0,0,0,0,0,0
1684059045.43999910,280468601,1581,1581,1579,1579,0,0,0,0,0,0,0,0,0,0
1684059045.53995919,280568561,1581,1581,1579,1579,0,0,0,0,0,0,0,0,0,0
1684059045.63991904,280668521,1580,1580,1578,1578,0,0,0,0,0,0,0,0,0,0
1684059045.73987913,280768481,1581,1581,1580,1580,0,0,0,0,0,0,0,0,0,0
1684059045.83983922,280868441,1581,1581,1581,1580,0,0,0,0,0,0,0,0,0,0
1684059045.93979907,280968401,1581,1581,1581,1581,0,0,0,0,0,0,0,0,0,0
1684059046.03975916,281068361,1580,1580,1580,1580,0,0,0,0,0,0,0,0,0,0
1684059046.13971901,281168321,1580,1580,1580,1579,0,0,0,0,0,0,0,0,0,0
1684059046.23967910,281268281,1580,1580,1581,1580,0,0,0,0,0,0,0,0,0,0
1684059046.33963919,281368241,1580,1580,1580,1580,0,0,0,0,0,0,0,0,0,0
1684059046.43959904,281468201,1580,1579,1579,1579,0,0,0,0,0,0,0,0,0,0
1684059046.53955913,281568161,1579,1579,1579,1579,0,0,0,0,0,0,0,0,0,0
1684059046.64035201,281668954,1580,1580,1580,1580,0,0,0,0,0,0,0,0,0,0
1684059046.74031210,281768914,1580,1581,1581,1580,0,0,0,0,0,0,0,0,0,0
1684059046.84027219,281868874,1580,1580,1580,1580,0,0,0,0,0,0,0,0,0,0
1684059046.94023204,281968834,1580,1580,1580,1580,0,0,0,0,0,0,0,0,0,0
1684059047.04019213,282068794,1581,1581,1581,1581,0,0,0,0,0,0,0,0,0,0
1684059047.14015222,282168754,1580,1580,1580,1580,0,0,0,0,0,0,0,0,0,0
1684059047.24011207,282268714,1581,1581,1581,1581,0,0,0,0,0,0,0,0,0,0
1684059047.34007215,282368674,1581,1581,1581,1581,0,0,0,0,0,0,0,0,0,0
1684059047.44003201,282468634,1582,1582,1582,1582,0,0,0,0,0,0,0,0,0,0
1684059047.53999209,282568594,1582,1581,1581,1582,0,0,0,0,0,0,0,0,0,0
1684059047.63995218,282668554,1581,1580,1580,1580,0,0,0,0,0,0,0,0,0,0
1684059047.73991203,282768514,1581,1581,1588,1574,0,0,0,0,0,0,0,0,0,0
1684059047.83987212,282868474,1581,1581,1584,1573,0,0,0,0,0,0,0,0,0,0
1684059047.93983221,282968434,1580,1580,1576,1573,0,0,0,0,0,0,0,0,0,0
1684059048.03979206,283068394,1578,1579,1567,1571,0,0,0,0,0,0,0,0,0,0
1684059048.13975215,283168354,1576,1578,1561,1566,0,0,0,0,0,0,0,0,0,0
1684059048.23971200,283268314,1575,1577,1557,1562,0,0,0,0,0,0,0,0,0,0
1684059048.33967209,283368274,1576,1578,1557,1559,0,0,0,0,0,0,0,0,0,0
1684059048.43963218,283468234,1576,1577,1558,1556,0,0,0,0,0,0,0,0,0,0
1684059048.53959203,283568194,1576,1576,1557,1555,0,0,0,0,0,0,0,0,0,0
1684059048.63955212,283668154,1577,1576,1557,1555,0,0,0,0,0,0,0,0,0,0
1684059048.74034500,283768947,1578,1577,1558,1556,0,0,0,0,0,0,0,0,0,0
1684059048.84030509,283868907,1577,1576,1555,1555,0,0,0,0,0,0,0,0,0,0
1684059048.94026518,283968867,1577,1577,1554,1554,0,0,0,0,0,0,0,0,0,0
1684059049.04022503,284068827,1578,1578,1554,1555,0,0,0,0,0,0,0,0,0,0
1684059049.14018512,284168787,1577,1579,1553,1553,0,0,0,0,0,0,0,0,0,0
1684059049.24014521,284268747,1577,1579,1551,1550,0,0,0,0,0,0,0,0,0,0
1684059049.34010506,284368707,1579,1581,1550,1549,0,0,0,0,0,0,0,0,0,0
1684059049.44006515,284468667,1581,1582,1549,1548,0,0,0,0,0,0,0,0,0,0
1684059049.54002523,284568627,1583,1584,1547,1547,0,0,0,0,0,0,0,0,0,0
1684059049.63998508,284668587,1585,1585,1545,1545,0,0,0,0,0,0,0,0,0,0
1684059049.73994517,284768547,1586,1586,1543,1543,0,0,0,0,0,0,0,0,0,0
1684059049.83990502,284868507,1588,1588,1543,1543,0,0,0,0,0,0,0,0,0,0
1684059049.93986511,284968467,1589,1589,1542,1543,0,0,0,0,0,0,0,0,0,0
1684059050.03982520,285068427,1589,1589,1543,1544,0,0,0,0,0,0,0,0,0,0
1684059050.13978505,285168387,1589,1589,1544,1546,0,0,0,0,0,0,0,0,0,0
1684059050.23974514,285268347,1589,1589,1545,1548,0,0,0,0,0,0,0,0,0,0
1684059050.33970523,285368307,1587,1587,1548,1550,0,0,0,0,0,0,0,0,0,0
1684059050.43966508,285468267,1585,1585,1553,1555,0,0,0,0,0,0,0,0,0,0
1684059050.53962517,285568227,1582,1580,1558,1560,0,0,0,0,0,0,0,0,0,0
1684059050.63958502,285668187,1577,1574,1564,1566,0,0,0,0,0,0,0,0,0,0
1684059050.74037814,285768980,1572,1568,1572,1574,0,0,0,0,0,0,0,0,0,0
1684059050.84033823,285868940,1565,1561,1580,1582,0,0,0,0,0,0,0,0,0,0
1684059050.94029808,285968900,1557,1555,1588,1589,0,0,0,0,0,0,0,0,0,0
1684059051.04025817,286068860,1549,1548,1596,1597,0,0,0,0,0,0,0,0,0,0
1684059051.14021802,286168820,1542,1542,1604,1603,0,0,0,0,0,0,0,0,0,0
1684059051.24017811,286268780,1537,1538,1608,1607,0,0,0,0,0,0,0,0,0,0
1684059051.34013820,286368740,1536,1538,1611,1610,0,0,0,0,0,0,0,0,0,0
1684059051.44009805,286468700,1536,1538,1609,1608,0,0,0,0,0,0,0,0,0,0
1684059051.54005814,286568660,1539,1541,1604,1605,0,0,0,0,0,0,0,0,0,0
1684059051.64001822,286668620,1544,1547,1599,1599,0,0,0,0,0,0,0,0,0,0
1684059051.73997808,286768580,1551,1553,1594,1593,0,0,0,0,0,0,0,0,0,0
1684059051.83993816,286868540,1559,1560,1588,1587,0,0,0,0,0,0,0,0,0,0
1684059051.93989801,286968500,1566,1565,1580,1579,0,0,0,0,0,0,0,0,0,0
1684059052.03985810,287068460,1574,1573,1575,1575,0,0,0,0,0,0,0,0,0,0
1684059052.13981819,287168420,1579,1578,1571,1570,0,0,0,0,0,0,0,0,0,0
1684059052.23977804,287268380,1584,1582,1567,1567,0,0,0,0,0,0,0,0,0,0
1684059052.33973813,287368340,1587,1585,1566,1567,0,0,0,0,0,0,0,0,0,0
1684059052.43969822,287468300,1588,1586,1566,1566,0,0,0,0,0,0,0,0,0,0
1684059052.53965807,287568260,1588,1587,1568,1568,0,0,0,0,0,0,0,0,0,0
1684059052.63961816,287668220,1587,1586,1569,1570,0,0,0,0,0,0,0,0,0,0
1684059052.73957801,287768180,1586,1586,1573,1573,0,0,0,0,0,0,0,0,0,0
1684059052.84037113,287868973,1585,1585,1575,1575,0,0,0,0,0,0,0,0,0,0
1684059052.94033122,287968933,1582,1583,1577,1576,0,0,0,0,0,0,0,0,0,0
1684059053.04029107,288068893,1580,1580,1578,1578,0,0,0,0,0,0,0,0,0,0
1684059053.14025116,288168853,1579,1579,1580,1580,0,0,0,0,0,0,0,0,0,0
1684059053.24021101,288268813,1577,1577,1581,1581,0,0,0,0,0,0,0,0,0,0
1684059053.34017110,288368773,1575,1576,1583,1583,0,0,0,0,0,0,0,0,0,0
1684059053.44013119,288468733,1575,1575,1583,1584,0,0,0,0,0,0,0,0,0,0
1684059053.54009104,288568693,1574,1574,1583,1583,0,0,0,0,0,0,0,0,0,0
1684059053.64005113,288668653,1574,1574,1582,1582,0,0,0,0,0,0,0,0,0,0
1684059053.74001122,288768613,1575,1574,1583,1583,0,0,0,0,0,0,0,0,0,0
1684059053.83997107,288868573,1575,1576,1582,1583,0,0,0,0,0,0,0,0,0,0
1684059053.93993115,288968533,1576,1576,1581,1581,0,0,0,0,0,0,0,0,0,0
1684059054.03989100,289068493,1577,1578,1581,1581,0,0,0,0,0,0,0,0,0,0
1684059054.13985109,289168453,1578,1578,1580,1580,0,0,0,0,0,0,0,0,0,0
1684059054.23981118,289268413,1579,1580,1579,1578,0,0,0,0,0,0,0,0,0,0
1684059054.33977103,289368373,1580,1581,1578,1578,0,0,0,0,0,0,0,0,0,0
1684059054.43973112,289468333,1581,1580,1577,1577,0,0,0,0,0,0,0,0,0,0
1684059054.53969121,289568293,1581,1581,1576,1577,0,0,0,0,0,0,0,0,0,0
1684059054.63965106,289668253,1581,1581,1577,1577,0,0,0,0,0,0,0,0,0,0
1684059054.73961115,289768213,1582,1582,1578,1578,0,0,0,0,0,0,0,0,0,0
1684059054.83957100,289868173,1582,1582,1579,1578,0,0,0,0,0,0,0,0,0,0
1684059054.94036412,289968966,1582,1582,1580,1580,0,0,0,0,0,0,0,0,0,0
1684059055.04032421,290068926,1581,1581,1579,1580,0,0,0,0,0,0,0,0,0,0
1684059055.14028406,290168886,1581,1581,1580,1580,0,0,0,0,0,0,0,0,0,0
1684059055.24024415,290268846,1580,1580,1580,1580,0,0,0,0,0,0,0,0,0,0
1684059055.34020400,290368806,1581,1581,1582,1581,0,0,0,0,0,0,0,0,0,0
1684059055.44016409,290468766,1581,1581,1582,1582,0,0,0,0,0,0,0,0,0,0
1684059055.54012418,290568726,1580,1581,1582,1582,0,0,0,0,0,0,0,0,0,0
1684059055.64008403,290668686,1580,1580,1582,1582,0,0,0,0,0,0,0,0,0,0
1684059055.74004412,290768646,1580,1580,1581,1582,0,0,0,0,0,0,0,0,0,0
1684059055.84000421,290868606,1581,1581,1587,1577,0,0,0,0,0,0,0,0,0,0
1684059055.93996406,290968566,1581,1581,1589,1574,0,0,0,0,0,0,0,0,0,0
1684059056.03992414,291068526,1579,1579,1582,1576,0,0,0,0,0,0,0,0,0,0
1684059056.13988423,291168486,1577,1576,1574,1575,0,0,0,0,0,0,0,0,0,0
1684059056.23984408,291268446,1574,1573,1568,1574,0,0,0,0,0,0,0,0,0,0
1684059056.33980417,291368406,1571,1571,1565,1572,0,0,0,0,0,0,0,0,0,0
1684059056.43976402,291468366,1570,1570,1565,1569,0,0,0,0,0,0,0,0,0,0
1684059056.53972411,291568326,1569,1569,1566,1568,0,0,0,0,0,0,0,0,0,0
1684059056.63968420,291668286,1568,1569,1568,1567,0,0,0,0,0,0,0,0,0,0
1684059056.73964405,291768246,1566,1567,1567,1565,0,0,0,0,0,0,0,0,0,0
1684059056.83960414,291868206,1567,1567,1568,1566,0,0,0,0,0,0,0,0,0,0
1684059056.93956423,291968166,1566,1565,1568,1566,0,0,0,0,0,0,0,0,0,0
1684059057.04035711,292068959,1566,1565,1568,1566,0,0,0,0,0,0,0,0,0,0
1684059057.14031720,292168919,1564,1564,1566,1565,0,0,0,0,0,0,0,0,0,0
1684059057.24027705,292268879,1564,1563,1565,1565,0,0,0,0,0,0,0,0,0,0
1684059057.34023714,292368839,1563,1563,1564,1565,0,0,0,0,0,0,0,0,0,0
1684059057.44019723,292468799,1562,1562,1563,1564,0,0,0,0,0,0,0,0,0,0
1684059057.54015708,292568759,1562,1562,1563,1563,0,0,0,0,0,0,0,0,0,0
1684059057.64011717,292668719,1562,1562,1563,1562,0,0,0,0,0,0,0,0,0,0
1684059057.74007702,292768679,1561,1561,1562,1561,0,0,0,0,0,0,0,0,0,0
1684059057.84003711,292868639,1561,1561,1562,1560,0,0,0,0,0,0,0,0,0,0
1684059057.93999720,292968599,1561,1561,1562,1560,0,0,0,0,0,0,0,0,0,0
1684059058.03995705,293068559,1561,1560,1561,1560,0,0,0,0,0,0,0,0,0,0
1684059058.13991714,293168519,1561,1560,1561,1560,0,0,0,0,0,0,0,0,0,0
1684059058.23987722,293268479,1560,1560,1560,1560,0,0,0,0,0,0,0,0,0,0
1684059058.33983707,293368439,1560,1560,1561,1559,0,0,0,0,0,0,0,0,0,0
1684059058.43979716,293468399,1560,1559,1560,1558,0,0,0,0,0,0,0,0,0,0
1684059058.53975701,293568359,1560,1559,1562,1557,0,0,0,0,0,0,0,0,0,0
1684059058.63971710,293668319,1561,1559,1560,1560,0,0,0,0,0,0,0,0,0,0
1684059058.73967719,293768279,1560,1560,1558,1562,0,0,0,0,0,0,0,0,0,0
1684059058.83963704,293868239,1561,1562,1558,1565,0,0,0,0,0,0,0,0,0,0
1684059058.93959713,293968199,1560,1562,1558,1564,0,0,0,0,0,0,0,0,0,0
1684059059.03955722,294068159,1561,1563,1560,1565,0,0,0,0,0,0,0,0,0,0
1684059059.14035010,294168952,1561,1562,1561,1562,0,0,0,0,0,0,0,0,0,0
1684059059.24031019,294268912,1561,1562,1562,1560,0,0,0,0,0,0,0,0,0,0
1684059059.34027004,294368872,1561,1561,1563,1558,0,0,0,0,0,0,0,0,0,0
1684059059.44023013,294468832,1562,1561,1563,1559,0,0,0,0,0,0,0,0,0,0
1684059059.54019022,294568792,1560,1560,1556,1561,0,0,0,0,0,0,0,0,0,0
1684059059.64015007,294668752,1557,1557,1552,1558,0,0,0,0,0,0,0,0,0,0
1684059059.74011016,294768712,1553,1553,1547,1551,0,0,0,0,0,0,0,0,0,0
1684059059.84007001,294868672,1547,1548,1542,1543,0,0,0,0,0,0,0,0,0,0
1684059059.94003010,294968632,1541,1541,1537,1535,0,0,0,0,0,0,0,0,0,0
1684059060.03999019,295068592,1535,1535,1531,1528,0,0,0,0,0,0,0,0,0,0
1684059060.13995004,295168552,1527,1527,1522,1520,0,0,0,0,0,0,0,0,0,0
1684059060.23991013,295268512,1522,1522,1518,1517,0,0,0,0,0,0,0,0,0,0
1684059060.33987021,295368472,1519,1519,1518,1518,0,0,0,0,0,0,0,0,0,0
1684059060.43983006,295468432,1518,1518,1519,1519,0,0,0,0,0,0,0,0,0,0
1684059060.53979015,295568392,1518,1518,1522,1523,0,0,0,0,0,0,0,0,0,0
1684059060.63975000,295668352,1519,1519,1526,1526,0,0,0,0,0,0,0,0,0,0
1684059060.73971009,295768312,1522,1522,1531,1531,0,0,0,0,0,0,0,0,0,0
1684059060.83967018,295868272,1527,1526,1537,1537,0,0,0,0,0,0,0,0,0,0
1684059060.93963003,295968232,1531,1531,1542,1542,0,0,0,0,0,0,0,0,0,0
1684059061.03959012,296068192,1535,1535,1544,1544,0,0,0,0,0,0,0,0,0,0
1684059061.14038301,296168985,1538,1538,1545,1545,0,0,0,0,0,0,0,0,0,0
1684059061.24034309,296268945,1541,1541,1546,1545,0,0,0,0,0,0,0,0,0,0
1684059061.34030318,296368905,1543,1544,1545,1544,0,0,0,0,0,0,0,0,0,0
1684059061.44026303,296468865,1546,1546,1545,1544,0,0,0,0,0,0,0,0,0,0
1684059061.54022312,296568825,1548,1548,1545,1544,0,0,0,0,0,0,0,0,0,0
1684059061.64018321,296668785,1549,1548,1543,1543,0,0,0,0,0,0,0,0,0,0
1684059061.74014306,296768745,1549,1550,1543,1543,0,0,0,0,0,0,0,0,0,0
1684059061.84010315,296868705,1550,1550,1543,1543,0,0,0,0,0,0,0,0,0,0
1684059061.94006300,296968665,1550,1551,1544,1544,0,0,0,0,0,0,0,0,0,0
1684059062.04002309,297068625,1549,1550,1544,1544,0,0,0,0,0,0,0,0,0,0
1684059062.13998318,297168585,1549,1549,1545,1545,0,0,0,0,0,0,0,0,0,0
1684059062.23994303,297268545,1548,1548,1545,1545,0,0,0,0,0,0,0,0,0,0
1684059062.33990312,297368505,1547,1547,1545,1545,0,0,0,0,0,0,0,0,0,0
1684059062.43986320,297468465,1546,1545,1545,1545,0,0,0,0,0,0,0,0,0,0
1684059062.53982306,297568425,1545,1544,1545,1545,0,0,0,0,0,0,0,0,0,0
1684059062.63978314,297668385,1544,1544,1546,1545,0,0,0,0,0,0,0,0,0,0
1684059062.73974323,297768345,1543,1543,1546,1545,0,0,0,0,0,0,0,0,0,0
1684059062.83970308,297868305,1543,1543,1545,1546,0,0,0,0,0,0,0,0,0,0
1684059062.93966317,297968265,1543,1543,1546,1546,0,0,0,0,0,0,0,0,0,0
1684059063.03962302,298068225,1543,1543,1546,1546,0,0,0,0,0,0,0,0,0,0
1684059063.13958311,298168185,1543,1543,1546,1545,0,0,0,0,0,0,0,0,0,0
1684059063.24037623,298268978,1543,1543,1545,1545,0,0,0,0,0,0,0,0,0,0
1684059063.34033608,298368938,1543,1543,1544,1544,0,0,0,0,0,0,0,0,0,0
1684059063.44029617,298468898,1544,1543,1544,1544,0,0,0,0,0,0,0,0,0,0
1684059063.54025602,298568858,1543,1544,1543,1543,0,0,0,0,0,0,0,0,0,0
1684059063.64021611,298668818,1544,1544,1543,1543,0,0,0,0,0,0,0,0,0,0
1684059063.74017620,298768778,1544,1544,1543,1543,0,0,0,0,0,0,0,0,0,0
1684059063.84013605,298868738,1544,1545,1543,1543,0,0,0,0,0,0,0,0,0,0
1684059063.94009614,298968698,1544,1544,1542,1543,0,0,0,0,0,0,0,0,0,0
1684059064.04005623,299068658,1544,1544,1543,1543,0,0,0,0,0,0,0,0,0,0
1684059064.14001608,299168618,1545,1544,1544,1543,0,0,0,0,0,0,0,0,0,0
1684059064.23997617,299268578,1545,1544,1544,1544,0,0,0,0,0,0,0,0,0,0
1684059064.33993602,299368538,1545,1544,1544,1544,0,0,0,0,0,0,0,0,0,0
1684059064.43989611,299468498,1545,1545,1544,1545,0,0,0,0,0,0,0,0,0,0
1684059064.53985620,299568458,1544,1545,1545,1544,0,0,0,0,0,0,0,0,0,0
1684059064.63981605,299668418,1545,1544,1545,1545,0,0,0,0,0,0,0,0,0,0
1684059064.73977613,299768378,1544,1544,1544,1544,0,0,0,0,0,0,0,0,0,0
1684059064.83973622,299868338,1544,1544,1544,1544,0,0,0,0,0,0,0,0,0,0
1684059064.93969607,299968298,1544,1544,1545,1544,0,0,0,0,0,0,0,0,0,0
1684059065.03965616,300068258,1544,1544,1544,1544,0,0,0,0,0,0,0,0,0,0
1684059065.13961601,300168218,1544,1545,1545,1545,0,0,0,0,0,0,0,0,0,0
1684059065.23957610,300268178,1544,1544,1544,1544,0,0,0,0,0,0,0,0,0,0
1684059065.34036922,300368971,1544,1544,1545,1544,0,0,0,0,0,0,0,0,0,0
1684059065.44032907,300468931,1544,1544,1544,1544,0,0,0,0,0,0,0,0,0,0
1684059065.54028916,300568891,1544,1544,1544,1543,0,0,0,0,0,0,0,0,0,0
1684059065.64024901,300668851,1544,1544,1544,1544,0,0,0,0,0,0,0,0,0,0
1684059065.74020910,300768811,1544,1544,1544,1544,0,0,0,0,0,0,0,0,0,0
1684059065.84016919,300868771,1543,1544,1543,1544,0,0,0,0,0,0,0,0,0,0
1684059065.94012904,300968731,1543,1544,1543,1543,0,0,0,0,0,0,0,0,0,0
1684059066.04008913,301068691,1544,1544,1543,1544,0,0,0,0,0,0,0,0,0,0
1684059066.14004922,301168651,1544,1544,1544,1544,0,0,0,0,0,0,0,0,0,0
1684059066.24000907,301268611,1544,1544,1544,1544,0,0,0,0,0,0,0,0,0,0
1684059066.33996916,301368571,1544,1544,1545,1544,0,0,0,0,0,0,0,0,0,0
1684059066.43992901,301468531,1545,1544,1545,1545,0,0,0,0,0,0,0,0,0,0
1684059066.53988910,301568491,1544,1544,1544,1544,0,0,0,0,0,0,0,0,0,0
1684059066.63984919,301668451,1544,1544,1544,1545,0,0,0,0,0,0,0,0,0,0
1684059066.73980904,301768411,1544,1544,1544,1544,0,0,0,0,0,0,0,0,0,0
1684059066.83976912,301868371,1544,1544,1544,1543,0,0,0,0,0,0,0,0,0,0
1684059066.93972921,301968331,1544,1545,1545,1545,0,0,0,0,0,0,0,0,0,0
1684059067.03968906,302068291,1544,1544,1544,1545,0,0,0,0,0,0,0,0,0,0
1684059067.13964915,302168251,1544,1544,1544,1544,0,0,0,0,0,0,0,0,0,0
1684059067.23960900,302268211,1544,1544,1543,1544,0,0,0,0,0,0,0,0,0,0
1684059067.33956909,302368171,1544,1544,1543,1543,0,0,0,0,0,0,0,0,0,0
1684059067.44036222,302468964,1544,1544,1544,1544,0,0,0,0,0,0,0,0,0,0
1684059067.54032207,302568924,1544,1544,1544,1544,0,0,0,0,0,0,0,0,0,0
1684059067.64028215,302668884,1544,1544,1544,1544,0,0,0,0,0,0,0,0,0,0
1684059067.74024200,302768844,1544,1545,1545,1545,0,0,0,0,0,0,0,0,0,0
1684059067.84020209,302868804,1544,1544,1544,1545,0,0,0,0,0,0,0,0,0,0
1684059067.94016218,302968764,1545,1545,1545,1545,0,0,0,0,0,0,0,0,0,0
1684059068.04012203,303068724,1545,1545,1545,1545,0,0,0,0,0,0,0,0,0,0
1684059068.14008212,303168684,1545,1545,1545,1545,0,0,0,0,0,0,0,0,0,0
1684059068.24004221,303268644,1545,1544,1545,1544,0,0,0,0,0,0,0,0,0,0
1684059068.34000206,303368604,1544,1544,1544,1543,0,0,0,0,0,0,0,0,0,0
1684059068.43996215,303468564,1544,1544,1543,1544,0,0,0,0,0,0,0,0,0,0
1684059068.53992200,303568524,1544,1545,1544,1544,0,0,0,0,0,0,0,0,0,0
1684059068.63988209,303668484,1544,1544,1544,1544,0,0,0,0,0,0,0,0,0,0
1684059068.73984218,303768444,1543,1543,1543,1543,0,0,0,0,0,0,0,0,0,0
1684059068.83980203,303868404,1544,1544,1544,1544,0,0,0,0,0,0,0,0,0,0
1684059068.93976212,303968364,1544,1544,1545,1544,0,0,0,0,0,0,0,0,0,0
1684059069.03972220,304068324,1545,1545,1545,1545,0,0,0,0,0,0,0,0,0,0
1684059069.13968205,304168284,1544,1544,1544,1544,0,0,0,0,0,0,0,0,0,0
1684059069.23964214,304268244,1544,1544,1544,1544,0,0,0,0,0,0,0,0,0,0
1684059069.33960223,304368204,1544,1545,1545,1545,0,0,0,0,0,0,0,0,0,0
1684059069.43956208,304468164,1545,1545,1545,1545,0,0,0,0,0,0,0,0,0,0
1684059069.54035521,304568957,1545,1545,1545,1545,0,0,0,0,0,0,0,0,0,0
1684059069.64031506,304668917,1545,1545,1545,1546,0,0,0,0,0,0,0,0,0,0
1684059069.74027514,304768877,1545,1545,1546,1545,0,0,0,0,0,0,0,0,0,0
1684059069.84023523,304868837,1545,1545,1545,1545,0,0,0,0,0,0,0,0,0,0
1684059069.94019508,304968797,1541,1543,1541,1541,0,0,0,0,0,0,0,0,0,0
1684059070.04015517,305068757,1418,1419,1353,1352,0,0,0,0,0,0,0,0,0,0
1684059070.14011502,305168717,1360,1360,1249,1248,0,0,0,0,0,0,0,0,0,0
1684059070.24007511,305268677,1342,1343,1216,1214,0,0,0,0,0,0,0,0,0,0
1684059070.34003520,305368637,1332,1333,1195,1195,0,0,0,0,0,0,0,0,0,0
1684059070.43999505,305468597,1311,1313,1151,1150,0,0,0,0,0,0,0,0,0,0
1684059070.53995514,305568557,1240,1242,1150,1150,0,0,0,0,0,0,0,0,0,0
1684059070.63991523,305668517,1145,1147,1152,1150,0,0,0,0,0,0,0,0,0,0
1684059070.73987508,305768477,1038,1041,1151,1150,0,0,0,0,0,0,0,0,0,0
1684059070.83983517,305868437,979,982,1151,1150,0,0,0,0,0,0,0,0,0,0
1684059070.93979502,305968397,979,982,1151,1150,0,0,0,0,0,0,0,0,0,0
1684059071.03975511,306068357,979,982,1151,1150,0,0,0,0,0,0,0,0,0,0
1684059071.13971519,306168317,981,944,1150,1197,0,0,0,0,0,0,0,0,0,0
1684059071.23967505,306268277,981,957,1150,1183,0,0,0,0,0,0,0,0,0,0
1684059071.33963513,306368237,980,964,1150,1174,0,0,0,0,0,0,0,0,0,0
1684059071.43959522,306468197,980,965,1150,1172,0,0,0,0,0,0,0,0,0,0
1684059071.53955507,306568157,980,965,1150,1173,0,0,0,0,0,0,0,0,0,0
1684059071.64034820,306668950,980,964,1150,1174,0,0,0,0,0,0,0,0,0,0
1684059071.74030805,306768910,980,964,1150,1175,0,0,0,0,0,0,0,0,0,0
1684059071.84026814,306868870,980,963,1150,1175,0,0,0,0,0,0,0,0,0,0
1684059071.94022822,306968830,981,981,1150,1150,0,0,0,0,0,0,0,0,0,0
1684059072.04018807,307068790,981,979,1150,1153,0,0,0,0,0,0,0,0,0,0
1684059072.14014816,307168750,981,978,1150,1154,0,0,0,0,0,0,0,0,0,0
1684059072.24010801,307268710,981,977,1150,1155,0,0,0,0,0,0,0,0,0,0
1684059072.34006810,307368670,981,977,1150,1155,0,0,0,0,0,0,0,0,0,0
1684059072.44002819,307468630,1000,1000,1000,1000,0,0,0,0,0,0,0,0,0,0
1684059072.53998804,307568590,1000,1000,1000,1000,0,0,0,0,0,0,0,0,0,0
1684059072.63994813,307668550,1000,1000,1000,1000,0,0,0,0,0,0,0,0,0,0
1684059072.73990822,307768510,1000,1000,1000,1000,0,0,0,0,0,0,0,0,0,0
1684059072.83986807,307868470,1000,1000,1000,1000,0,0,0,0,0,0,0,0,0,0
1684059072.93982816,307968430,1000,1000,1000,1000,0,0,0,0,0,0,0,0,0,0
1684059073.03978801,308068390,1000,1000,1000,1000,0,0,0,0,0,0,0,0,0,0
1684059073.13974810,308168350,1000,1000,1000,1000,0,0,0,0,0,0,0,0,0,0
1684059073.23970819,308268310,1000,1000,1000,1000,0,0,0,0,0,0,0,0,0,0
1684059073.33966804,308368270,1000,1000,1000,1000,0,0,0,0,0,0,0,0,0,0
1684059073.43962812,308468230,1000,1000,1000,1000,0,0,0,0,0,0,0,0,0,0
1684059073.53958821,308568190,1000,1000,1000,1000,0,0,0,0,0,0,0,0,0,0
1684059073.64038110,308668983,1000,1000,1000,1000,0,0,0,0,0,0,0,0,0,0
1684059073.74034119,308768943,1000,1000,1000,1000,0,0,0,0,0,0,0,0,0,0
1684059073.84030104,308868903,1000,1000,1000,1000,0,0,0,0,0,0,0,0,0,0
1684059073.94026113,308968863,1000,1000,1000,1000,0,0,0,0,0,0,0,0,0,0
1684059074.04022121,309068823,1000,1000,1000,1000,0,0,0,0,0,0,0,0,0,0
1684059074.14018106,309168783,1000,1000,1000,1000,0,0,0,0,0,0,0,0,0,0
1684059074.24014115,309268743,1000,1000,1000,1000,0,0,0,0,0,0,0,0,0,0
1684059074.34010100,309368703,1000,1000,1000,1000,0,0,0,0,0,0,0,0,0,0
1684059074.44006109,309468663,1000,1000,1000,1000,0,0,0,0,0,0,0,0,0,0
1684059074.54002118,309568623,1000,1000,1000,1000,0,0,0,0,0,0,0,0,0,0
1684059074.63998103,309668583,1000,1000,1000,1000,0,0,0,0,0,0,0,0,0,0
1684059074.73994112,309768543,1000,1000,1000,1000,0,0,0,0,0,0,0,0,0,0
1684059074.83990121,309868503,1000,1000,1000,1000,0,0,0,0,0,0,0,0,0,0
1684059074.93986106,309968463,1000,1000,1000,1000,0,0,0,0,0,0,0,0,0,0
1684059075.03982115,310068423,1000,1000,1000,1000,0,0,0,0,0,0,0,0,0,0
1684059075.13978100,310168383,1000,1000,1000,1000,0,0,0,0,0,0,0,0,0,0
1684059075.23974109,310268343,1000,1000,1000,1000,0,0,0,0,0,0,0,0,0,0
1684059075.33970118,310368303,1000,1000,1000,1000,0,0,0,0,0,0,0,0,0,0
1684059075.43966103,310468263,1000,1000,1000,1000,0,0,0,0,0,0,0,0,0,0
1684059075.53962111,310568223,1000,1000,1000,1000,0,0,0,0,0,0,0,0,0,0
1684059075.63958120,310668183,1000,1000,1000,1000,0,0,0,0,0,0,0,0,0,0
1684059075.74037409,310768976,1000,1000,1000,1000,0,0,0,0,0,0,0,0,0,0
1684059075.84033418,310868936,1000,1000,1000,1000,0,0,0,0,0,0,0,0,0,0
1684059075.94029403,310968896,1000,1000,1000,1000,0,0,0,0,0,0,0,0,0,0
1684059076.04025412,311068856,1000,1000,1000,1000,0,0,0,0,0,0,0,0,0,0
1684059076.14021420,311168816,1000,1000,1000,1000,0,0,0,0,0,0,0,0,0,0
1684059076.24017406,311268776,1000,1000,1000,1000,0,0,0,0,0,0,0,0,0,0
1684059076.34013414,311368736,1000,1000,1000,1000,0,0,0,0,0,0,0,0,0,0
1684059076.44009423,311468696,1000,1000,1000,1000,0,0,0,0,0,0,0,0,0,0
1684059076.54005408,311568656,1000,1000,1000,1000,0,0,0,0,0,0,0,0,0,0
1684059076.64001417,311668616,1000,1000,1000,1000,0,0,0,0,0,0,0,0,0,0
1684059076.73997402,311768576,1000,1000,1000,1000,0,0,0,0,0,0,0,0,0,0
1684059076.83993411,311868536,1000,1000,1000,1000,0,0,0,0,0,0,0,0,0,0
1684059076.93989420,311968496,1000,1000,1000,1000,0,0,0,0,0,0,0,0,0,0
1684059077.03985405,312068456,1000,1000,1000,1000,0,0,0,0,0,0,0,0,0,0
1684059077.13981414,312168416,1000,1000,1000,1000,0,0,0,0,0,0,0,0,0,0
1684059077.23977423,312268376,1000,1000,1000,1000,0,0,0,0,0,0,0,0,0,0
1684059077.33973408,312368336,1000,1000,1000,1000,0,0,0,0,0,0,0,0,0,0
1684059077.43969417,312468296,1000,1000,1000,1000,0,0,0,0,0,0,0,0,0,0
1684059077.53965402,312568256,1000,1000,1000,1000,0,0,0,0,0,0,0,0,0,0
1684059077.63961411,312668216,1000,1000,1000,1000,0,0,0,0,0,0,0,0,0,0
1684059077.73957419,312768176,1000,1000,1000,1000,0,0,0,0,0,0,0,0,0,0
1684059077.84036708,312868969,1000,1000,1000,1000,0,0,0,0,0,0,0,0,0,0
1684059077.94032717,312968929,1000,1000,1000,1000,0,0,0,0,0,0,0,0,0,0
1684059078.04028702,313068889,1000,1000,1000,1000,0,0,0,0,0,0,0,0,0,0
1684059078.14024711,313168849,1000,1000,1000,1000,0,0,0,0,0,0,0,0,0,0
1684059078.24020720,313268809,1000,1000,1000,1000,0,0,0,0,0,0,0,0,0,0
1684059078.34016705,313368769,1000,1000,1000,1000,0,0,0,0,0,0,0,0,0,0
1684059078.44012713,313468729,1000,1000,1000,1000,0,0,0,0,0,0,0,0,0,0
1684059078.54008722,313568689,1000,1000,1000,1000,0,0,0,0,0,0,0,0,0,0
1684059078.64004707,313668649,1000,1000,1000,1000,0,0,0,0,0,0,0,0,0,0
1684059078.74000716,313768609,1000,1000,1000,1000,0,0,0,0,0,0,0,0,0,0
1684059078.83996701,313868569,1000,1000,1000,1000,0,0,0,0,0,0,0,0,0,0
1684059078.93992710,313968529,1000,1000,1000,1000,0,0,0,0,0,0,0,0,0,0
1684059079.03988719,314068489,1000,1000,1000,1000,0,0,0,0,0,0,0,0,0,0
1684059079.13984704,314168449,1000,1000,1000,1000,0,0,0,0,0,0,0,0,0,0
1684059079.23980713,314268409,1000,1000,1000,1000,0,0,0,0,0,0,0,0,0,0
1684059079.33976722,314368369,1000,1000,1000,1000,0,0,0,0,0,0,0,0,0,0
1684059079.43972707,314468329,1000,1000,1000,1000,0,0,0,0,0,0,0,0,0,0
1684059079.53968716,314568289,1000,1000,1000,1000,0,0,0,0,0,0,0,0,0,0
1684059079.63964701,314668249,1000,1000,1000,1000,0,0,0,0,0,0,0,0,0,0
1684059079.73960710,314768209,1000,1000,1000,1000,0,0,0,0,0,0,0,0,0,0
1684059079.83956718,314868169,1000,1000,1000,1000,0,0,0,0,0,0,0,0,0,0
1684059079.94036007,314968962,1000,1000,1000,1000,0,0,0,0,0,0,0,0,0,0
1684059080.04032016,315068922,1000,1000,1000,1000,0,0,0,0,0,0,0,0,0,0
1684059080.14028001,315168882,1000,1000,1000,1000,0,0,0,0,0,0,0,0,0,0
1684059080.24024010,315268842,1000,1000,1000,1000,0,0,0,0,0,0,0,0,0,0
1684059080.34020019,315368802,1000,1000,1000,1000,0,0,0,0,0,0,0,0,0,0
1684059080.44016004,315468762,1000,1000,1000,1000,0,0,0,0,0,0,0,0,0,0
1684059080.54012012,315568722,1000,1000,1000,1000,0,0,0,0,0,0,0,0,0,0
1684059080.64008021,315668682,1000,1000,1000,1000,0,0,0,0,0,0,0,0,0,0
1684059080.74004006,315768642,1000,1000,1000,1000,0,0,0,0,0,0,0,0,0,0
1684059080.84000015,315868602,1000,1000,1000,1000,0,0,0,0,0,0,0,0,0,0
1684059080.93996000,315968562,1000,1000,1000,1000,0,0,0,0,0,0,0,0,0,0
1684059081.03992009,316068522,1000,1000,1000,1000,0,0,0,0,0,0,0,0,0,0
1684059081.13988018,316168482,1000,1000,1000,1000,0,0,0,0,0,0,0,0,0,0
1684059081.23984003,316268442,1000,1000,1000,1000,0,0,0,0,0,0,0,0,0,0
1684059081.33980012,316368402,1000,1000,1000,1000,0,0,0,0,0,0,0,0,0,0
1684059081.43976021,316468362,1000,1000,1000,1000,0,0,0,0,0,0,0,0,0,0
1684059081.53972006,316568322,1000,1000,1000,1000,0,0,0,0,0,0,0,0,0,0
1684059081.63968015,316668282,1000,1000,1000,1000,0,0,0,0,0,0,0,0,0,0
1684059081.73964000,316768242,1000,1000,1000,1000,0,0,0,0,0,0,0,0,0,0
1684059081.83960009,316868202,1000,1000,1000,1000,0,0,0,0,0,0,0,0,0,0
1684059081.93956017,316968162,1000,1000,1000,1000,0,0,0,0,0,0,0,0,0,0
1684059082.04035306,317068955,1000,1000,1000,1000,0,0,0,0,0,0,0,0,0,0
1684059082.14031315,317168915,1000,1000,1000,1000,0,0,0,0,0,0,0,0,0,0
1684059082.24027300,317268875,1000,1000,1000,1000,0,0,0,0,0,0,0,0,0,0
1684059082.34023309,317368835,1000,1000,1000,1000,0,0,0,0,0,0,0,0,0,0
1684059082.44019318,317468795,1000,1000,1000,1000,0,0,0,0,0,0,0,0,0,0
1684059082.54015303,317568755,1000,1000,1000,1000,0,0,0,0,0,0,0,0,0,0
1684059082.64011312,317668715,1000,1000,1000,1000,0,0,0,0,0,0,0,0,0,0
1684059082.74007320,317768675,1000,1000,1000,1000,0,0,0,0,0,0,0,0,0,0
1684059082.84003305,317868635,1000,1000,1000,1000,0,0,0,0,0,0,0,0,0,0
1684059082.93999314,317968595,1000,1000,1000,1000,0,0,0,0,0,0,0,0,0,0
1684059083.03995323,318068555,1000,1000,1000,1000,0,0,0,0,0,0,0,0,0,0
1684059083.13991308,318168515,1000,1000,1000,1000,0,0,0,0,0,0,0,0,0,0
1684059083.23987317,318268475,1000,1000,1000,1000,0,0,0,0,0,0,0,0,0,0
1684059083.33983302,318368435,1000,1000,1000,1000,0,0,0,0,0,0,0,0,0,0
1684059083.43979311,318468395,1000,1000,1000,1000,0,0,0,0,0,0,0,0,0,0
1684059083.53975320,318568355,1000,1000,1000,1000,0,0,0,0,0,0,0,0,0,0
1684059083.63971305,318668315,1000,1000,1000,1000,0,0,0,0,0,0,0,0,0,0
1684059083.73967314,318768275,1000,1000,1000,1000,0,0,0,0,0,0,0,0,0,0
1684059083.83963323,318868235,1000,1000,1000,1000,0,0,0,0,0,0,0,0,0,0
1684059083.93959308,318968195,1000,1000,1000,1000,0,0,0,0,0,0,0,0,0,0
1684059084.03955317,319068155,1000,1000,1000,1000,0,0,0,0,0,0,0,0,0,0
1684059084.14034605,319168948,1000,1000,1000,1000,0,0,0,0,0,0,0,0,0,0
1684059084.24030614,319268908,1000,1000,1000,1000,0,0,0,0,0,0,0,0,0,0
1684059084.34026623,319368868,1000,1000,1000,1000,0,0,0,0,0,0,0,0,0,0
1684059084.44022608,319468828,1000,1000,1000,1000,0,0,0,0,0,0,0,0,0,0
1684059084.54018617,319568788,1000,1000,1000,1000,0,0,0,0,0,0,0,0,0,0
1684059084.64014602,319668748,1000,1000,1000,1000,0,0,0,0,0,0,0,0,0,0
1684059084.74010611,319768708,1000,1000,1000,1000,0,0,0,0,0,0,0,0,0,0
1684059084.84006619,319868668,1000,1000,1000,1000,0,0,0,0,0,0,0,0,0,0
1684059084.94002604,319968628,1000,1000,1000,1000,0,0,0,0,0,0,0,0,0,0
1684059085.03998613,320068588,1000,1000,1000,1000,0,0,0,0,0,0,0,0,0,0
1684059085.13994622,320168548,1000,1000,1000,1000,0,0,0,0,0,0,0,0,0,0
1684059085.23990607,320268508,1000,1000,1000,1000,0,0,0,0,0,0,0,0,0,0
1684059085.33986616,320368468,1000,1000,1000,1000,0,0,0,0,0,0,0,0,0,0
1684059085.43982601,320468428,1000,1000,1000,1000,0,0,0,0,0,0,0,0,0,0
1684059085.53978610,320568388,1000,1000,1000,1000,0,0,0,0,0,0,0,0,0,0
1684059085.63974619,320668348,1000,1000,1000,1000,0,0,0,0,0,0,0,0,0,0
1684059085.73970604,320768308,1000,1000,1000,1000,0,0,0,0,0,0,0,0,0,0
1684059085.83966613,320868268,1000,1000,1000,1000,0,0,0,0,0,0,0,0,0,0
1684059085.93962622,320968228,1000,1000,1000,1000,0,0,0,0,0,0,0,0,0,0
1684059086.03958607,321068188,1000,1000,1000,1000,0,0,0,0,0,0,0,0,0,0
1684059086.14037919,321168981,1000,1000,1000,1000,0,0,0,0,0,0,0,0,0,0
1684059086.24033904,321268941,1000,1000,1000,1000,0,0,0,0,0,0,0,0,0,0
1684059086.34029913,321368901,1000,1000,1000,1000,0,0,0,0,0,0,0,0,0,0
1684059086.44025922,321468861,1000,1000,1000,1000,0,0,0,0,0,0,0,0,0,0
1684059086.54021907,321568821,1000,1000,1000,1000,0,0,0,0,0,0,0,0,0,0
1684059086.64017916,321668781,1000,1000,1000,1000,0,0,0,0,0,0,0,0,0,0
1684059086.74013901,321768741,1000,1000,1000,1000,0,0,0,0,0,0,0,0,0,0
1684059086.84009910,321868701,1000,1000,1000,1000,0,0,0,0,0,0,0,0,0,0
1684059086.94005919,321968661,1000,1000,1000,1000,0,0,0,0,0,0,0,0,0,0
1684059087.04001904,322068621,1000,1000,1000,1000,0,0,0,0,0,0,0,0,0,0
1684059087.13997912,322168581,1000,1000,1000,1000,0,0,0,0,0,0,0,0,0,0
1684059087.23993921,322268541,1000,1000,1000,1000,0,0,0,0,0,0,0,0,0,0
1684059087.33989906,322368501,1000,1000,1000,1000,0,0,0,0,0,0,0,0,0,0
