TimeUS,M1,M2,M3,M4,TimeUS,C1,C2,C3,C4
50648899,1000,1000,1000,1000,50728867,1000,1000,1000,1000
50651398,1000,1000,1000,1000,50828827,1000,1000,1000,1000
50653897,1000,1000,1000,1000,50928787,1000,1000,1000,1000
50656396,1000,1000,1000,1000,51028747,1000,1000,1000,1000
50658895,1000,1000,1000,1000,51128707,1000,1000,1000,1000
50661394,1000,1000,1000,1000,51228667,1000,1000,1000,1000
50663893,1000,1000,1000,1000,51328627,1000,1000,1000,1000
50666392,1000,1000,1000,1000,51428587,1000,1000,1000,1000
50668891,1000,1000,1000,1000,51528547,1000,1000,1000,1000
50671390,1000,1000,1000,1000,51628507,1000,1000,1000,1000
50673889,1000,1000,1000,1000,51728467,1000,1000,1000,1000
50676388,1000,1000,1000,1000,51828427,1000,1000,1000,1000
50678887,1000,1000,1000,1000,51928387,1000,1000,1000,1000
50681386,1000,1000,1000,1000,52028347,1000,1000,1000,1000
50683885,1000,1000,1000,1000,52128307,1000,1000,1000,1000
50686384,1000,1000,1000,1000,52228267,1000,1000,1000,1000
50688883,1000,1000,1000,1000,52328227,1000,1000,1000,1000
50691382,1000,1000,1000,1000,52428187,1000,1000,1000,1000
50693881,1000,1000,1000,1000,52528980,1000,1000,1000,1000
50696380,1000,1000,1000,1000,52628940,1000,1000,1000,1000
50698879,1000,1000,1000,1000,52728900,1024,1024,1024,1024
50701378,1000,1000,1000,1000,52828860,1054,1054,1054,1054
50703877,1000,1000,1000,1000,52928820,1084,1084,1084,1084
50706376,1000,1000,1000,1000,53028780,1113,1113,1113,1113
50708875,1000,1000,1000,1000,53128740,1143,1143,1143,1143
50711374,1000,1000,1000,1000,53228700,1357,1351,1352,1357
50713873,1000,1000,1000,1000,53328660,1546,1541,1542,1547
50716372,1000,1000,1000,1000,53428620,1699,1694,1694,1699
50718871,1000,1000,1000,1000,53528580,1830,1825,1826,1830
50721370,1000,1000,1000,1000,53628540,1900,1896,1897,1900
50723869,1000,1000,1000,1000,53728500,1843,1841,1841,1843
50726368,1000,1000,1000,1000,53828460,1715,1715,1715,1715
50728867,1000,1000,1000,1000,53928420,1643,1645,1645,1643
50731366,1000,1000,1000,1000,54028380,1630,1631,1632,1630
50733865,1000,1000,1000,1000,54128340,1638,1639,1639,1637
50736364,1000,1000,1000,1000,54228300,1640,1642,1642,1641
50738863,1000,1000,1000,1000,54328260,1636,1636,1636,1636
50741362,1000,1000,1000,1000,54428220,1627,1624,1622,1628
50743861,1000,1000,1000,1000,54528180,1604,1603,1594,1612
50746360,1000,1000,1000,1000,54628973,1596,1596,1587,1604
50748859,1000,1000,1000,1000,54728933,1595,1595,1591,1598
50751358,1000,1000,1000,1000,54828893,1597,1597,1597,1596
50753857,1000,1000,1000,1000,54928853,1602,1602,1605,1599
50756356,1000,1000,1000,1000,55028813,1587,1587,1599,1575
50758855,1000,1000,1000,1000,55128773,1572,1572,1592,1553
50761354,1000,1000,1000,1000,55228733,1561,1562,1572,1551
50763853,1000,1000,1000,1000,55328693,1551,1551,1550,1554
50766352,1000,1000,1000,1000,55428653,1543,1543,1532,1555
50768851,1000,1000,1000,1000,55528613,1536,1535,1523,1549
50771350,1000,1000,1000,1000,55628573,1530,1530,1521,1540
50773849,1000,1000,1000,1000,55728533,1527,1526,1521,1531
50776348,1000,1000,1000,1000,55828493,1527,1527,1526,1527
50778847,1000,1000,1000,1000,55928453,1529,1529,1531,1527
50781346,1000,1000,1000,1000,56028413,1532,1533,1536,1529
50783845,1000,1000,1000,1000,56128373,1536,1536,1540,1532
50786344,1000,1000,1000,1000,56228333,1540,1540,1544,1536
50788843,1000,1000,1000,1000,56328293,1544,1544,1546,1542
50791342,1000,1000,1000,1000,56428253,1546,1546,1546,1546
50793841,1000,1000,1000,1000,56528213,1550,1550,1549,1551
50796340,1000,1000,1000,1000,56628173,1552,1552,1550,1554
50798839,1000,1000,1000,1000,56728966,1551,1551,1556,1560
50801338,1000,1000,1000,1000,56828926,1551,1551,1560,1564
50803837,1000,1000,1000,1000,56928886,1555,1555,1564,1565
50806336,1000,1000,1000,1000,57028846,1558,1558,1564,1564
50808835,1000,1000,1000,1000,57128806,1561,1561,1564,1563
50811334,1000,1000,1000,1000,57228766,1564,1564,1565,1563
50813833,1000,1000,1000,1000,57328726,1568,1568,1565,1564
50816332,1000,1000,1000,1000,57428686,1570,1570,1565,1565
50818831,1000,1000,1000,1000,57528646,1572,1572,1566,1566
50821330,1000,1000,1000,1000,57628606,1573,1573,1566,1567
50823829,1000,1000,1000,1000,57728566,1573,1572,1566,1567
50826328,1000,1000,1000,1000,57828526,1573,1573,1568,1568
50828827,1000,1000,1000,1000,57928486,1574,1573,1570,1570
50831326,1000,1000,1000,1000,58028446,1574,1574,1572,1571
50833825,1000,1000,1000,1000,58128406,1574,1574,1574,1573
50836324,1000,1000,1000,1000,58228366,1574,1574,1575,1574
50838823,1000,1000,1000,1000,58328326,1574,1574,1576,1575
50841322,1000,1000,1000,1000,58428286,1574,1574,1577,1576
50843821,1000,1000,1000,1000,58528246,1574,1573,1576,1576
50846320,1000,1000,1000,1000,58628206,1574,1574,1576,1577
50848819,1000,1000,1000,1000,58728166,1574,1573,1575,1576
50851318,1000,1000,1000,1000,58828959,1575,1575,1577,1576
50853817,1000,1000,1000,1000,58928919,1576,1576,1577,1577
50856316,1000,1000,1000,1000,59028879,1576,1576,1577,1576
50858815,1000,1000,1000,1000,59128839,1577,1577,1577,1577
50861314,1000,1000,1000,1000,59228799,1577,1577,1577,1576
50863813,1000,1000,1000,1000,59328759,1577,1577,1576,1576
50866312,1000,1000,1000,1000,59428719,1577,1578,1577,1577
50868811,1000,1000,1000,1000,59528679,1578,1577,1577,1577
50871310,1000,1000,1000,1000,59628639,1578,1578,1577,1577
50873809,1000,1000,1000,1000,59728599,1578,1578,1578,1577
50876308,1000,1000,1000,1000,59828559,1579,1579,1579,1578
50878807,1000,1000,1000,1000,59928519,1579,1578,1578,1579
50881306,1000,1000,1000,1000,60028479,1579,1579,1579,1579
50883805,1000,1000,1000,1000,60128439,1579,1579,1580,1580
50886304,1000,1000,1000,1000,60228399,1578,1579,1579,1579
50888803,1000,1000,1000,1000,60328359,1580,1579,1580,1580
50891302,1000,1000,1000,1000,60428319,1579,1579,1580,1580
50893801,1000,1000,1000,1000,60528279,1579,1579,1579,1579
50896300,1000,1000,1000,1000,60628239,1580,1580,1580,1580
50898799,1000,1000,1000,1000,60728199,1579,1579,1579,1580
50901298,1000,1000,1000,1000,60828159,1580,1580,1580,1580
50903797,1000,1000,1000,1000,60928952,1580,1580,1581,1580
50906296,1000,1000,1000,1000,61028912,1581,1581,1581,1581
50908795,1000,1000,1000,1000,61128872,1580,1580,1580,1581
50911294,1000,1000,1000,1000,61228832,1580,1580,1580,1580
50913793,1000,1000,1000,1000,61328792,1581,1580,1581,1580
50916292,1000,1000,1000,1000,61428752,1580,1580,1580,1580
50918791,1000,1000,1000,1000,61528712,1580,1580,1580,1581
50921290,1000,1000,1000,1000,61628672,1580,1580,1580,1580
50923789,1000,1000,1000,1000,61728632,1581,1581,1581,1580
50926288,1000,1000,1000,1000,61828592,1581,1581,1581,1581
50928787,1000,1000,1000,1000,61928552,1581,1580,1581,1581
50931286,1000,1000,1000,1000,62028512,1580,1580,1580,1580
50933785,1000,1000,1000,1000,62128472,1581,1581,1581,1581
50936284,1000,1000,1000,1000,62228432,1580,1580,1580,1580
50938783,1000,1000,1000,1000,62328392,1581,1581,1581,1581
50941282,1000,1000,1000,1000,62428352,1581,1581,1581,1582
50943781,1000,1000,1000,1000,62528312,1582,1582,1582,1582
50946280,1000,1000,1000,1000,62628272,1582,1582,1582,1582
50948779,1000,1000,1000,1000,62728232,1581,1581,1581,1581
50951278,1000,1000,1000,1000,62828192,1581,1581,1581,1581
50953777,1000,1000,1000,1000,62928985,1580,1580,1582,1578
50956276,1000,1000,1000,1000,63028945,1580,1582,1587,1573
50958775,1000,1000,1000,1000,63128905,1579,1581,1582,1573
50961274,1000,1000,1000,1000,63228865,1578,1581,1574,1573
50963773,1000,1000,1000,1000,63328825,1577,1580,1566,1571
50966272,1000,1000,1000,1000,63428785,1577,1579,1560,1567
50968771,1000,1000,1000,1000,63528745,1578,1579,1557,1563
50971270,1000,1000,1000,1000,63628705,1579,1578,1556,1559
50973769,1000,1000,1000,1000,63728665,1580,1578,1556,1557
50976268,1000,1000,1000,1000,63828625,1580,1578,1557,1555
50978767,1000,1000,1000,1000,63928585,1578,1578,1556,1554
50981266,1000,1000,1000,1000,64028545,1577,1577,1557,1554
50983765,1000,1000,1000,1000,64128505,1576,1577,1556,1554
50986264,1000,1000,1000,1000,64228465,1574,1576,1554,1554
50988763,1000,1000,1000,1000,64328425,1574,1576,1552,1553
50991262,1000,1000,1000,1000,64428385,1576,1577,1552,1552
50993761,1000,1000,1000,1000,64528345,1577,1578,1549,1550
50996260,1000,1000,1000,1000,64628305,1578,1580,1547,1547
50998759,1000,1000,1000,1000,64728265,1581,1582,1545,1544
51001258,1000,1000,1000,1000,64828225,1583,1584,1542,1541
51003757,1000,1000,1000,1000,64928185,1587,1587,1539,1539
51006256,1000,1000,1000,1000,65028978,1590,1591,1537,1537
51008755,1000,1000,1000,1000,65128938,1593,1592,1535,1535
51011254,1000,1000,1000,1000,65228898,1594,1593,1534,1534
51013753,1000,1000,1000,1000,65328858,1595,1594,1535,1536
51016252,1000,1000,1000,1000,65428818,1594,1594,1537,1539
51018751,1000,1000,1000,1000,65528778,1592,1591,1540,1543
51021250,1000,1000,1000,1000,65628738,1587,1586,1545,1548
51023749,1000,1000,1000,1000,65728698,1581,1579,1553,1557
51026248,1000,1000,1000,1000,65828658,1573,1570,1564,1567
51028747,1000,1000,1000,1000,65928618,1563,1559,1576,1578
51031246,1000,1000,1000,1000,66028578,1552,1548,1587,1588
51033745,1000,1000,1000,1000,66128538,1542,1539,1599,1599
51036244,1000,1000,1000,1000,66228498,1533,1533,1607,1606
51038743,1000,1000,1000,1000,66328458,1530,1531,1614,1612
51041242,1000,1000,1000,1000,66428418,1528,1530,1614,1613
51043741,1000,1000,1000,1000,66528378,1532,1534,1614,1613
51046240,1000,1000,1000,1000,66628338,1538,1540,1609,1609
51048739,1000,1000,1000,1000,66728298,1546,1547,1603,1603
51051238,1000,1000,1000,1000,66828258,1555,1556,1596,1596
51053737,1000,1000,1000,1000,66928218,1564,1564,1589,1588
51056236,1000,1000,1000,1000,67028178,1571,1571,1581,1580
51058735,1000,1000,1000,1000,67128971,1578,1578,1575,1574
51061234,1000,1000,1000,1000,67228931,1583,1582,1570,1570
51063733,1000,1000,1000,1000,67328891,1587,1585,1567,1567
51066232,1000,1000,1000,1000,67428851,1588,1586,1565,1566
51068731,1000,1000,1000,1000,67528811,1587,1585,1565,1566
51071230,1000,1000,1000,1000,67628771,1585,1584,1568,1568
51073729,1000,1000,1000,1000,67728731,1583,1582,1570,1570
51076228,1000,1000,1000,1000,67828691,1580,1581,1574,1574
51078727,1000,1000,1000,1000,67928651,1577,1578,1577,1576
51081226,1000,1000,1000,1000,68028611,1575,1576,1580,1579
51083725,1000,1000,1000,1000,68128571,1572,1572,1580,1580
51086224,1000,1000,1000,1000,68228531,1572,1572,1582,1582
51088723,1000,1000,1000,1000,68328491,1572,1572,1583,1583
51091222,1000,1000,1000,1000,68428451,1573,1573,1583,1584
51093721,1000,1000,1000,1000,68528411,1573,1573,1583,1583
51096220,1000,1000,1000,1000,68628371,1573,1574,1581,1581
51098719,1000,1000,1000,1000,68728331,1576,1577,1582,1581
51101218,1000,1000,1000,1000,68828291,1578,1578,1580,1580
51103717,1000,1000,1000,1000,68928251,1578,1579,1579,1578
51106216,1000,1000,1000,1000,69028211,1581,1580,1578,1578
51108715,1000,1000,1000,1000,69128171,1580,1580,1576,1576
51111214,1000,1000,1000,1000,69228964,1581,1581,1577,1576
51113713,1000,1000,1000,1000,69328924,1582,1581,1577,1577
51116212,1000,1000,1000,1000,69428884,1581,1581,1577,1577
51118711,1000,1000,1000,1000,69528844,1288,1288,1584,1584
51121210,1000,1000,1000,1000,69628804,1387,1391,1643,1650
51123709,1000,1000,1000,1000,69728764,1448,1457,1641,1642
51126208,1000,1000,1000,1000,69828724,1505,1514,1630,1623
51128707,1000,1000,1000,1000,69928684,1551,1556,1619,1610
51131206,1000,1000,1000,1000,70028644,1586,1584,1612,1604
51133705,1000,1000,1000,1000,70128604,1616,1603,1601,1597
51136204,1000,1000,1000,1000,70228564,1643,1629,1577,1582
51138703,1000,1000,1000,1000,70328524,1650,1636,1532,1543
51141202,1000,1000,1000,1000,70428484,1650,1645,1534,1547
51143701,1000,1000,1000,1000,70528444,1645,1650,1552,1560
51146200,1000,1000,1000,1000,70628404,1641,1650,1570,1571
51148699,1000,1000,1000,1000,70728364,1641,1650,1588,1585
51151198,1000,1000,1000,1000,70828324,1634,1639,1590,1584
51153697,1000,1000,1000,1000,70928284,1627,1628,1586,1582
51156196,1000,1000,1000,1000,71028244,1623,1616,1587,1575
51158695,1000,1000,1000,1000,71128204,1618,1606,1581,1575
51161194,1000,1000,1000,1000,71228164,1609,1599,1572,1574
51163693,1000,1000,1000,1000,71328957,1598,1594,1562,1568
51166192,1000,1000,1000,1000,71428917,1589,1591,1557,1560
51168691,1000,1000,1000,1000,71528877,1581,1586,1554,1553
51171190,1000,1000,1000,1000,71628837,1576,1582,1552,1549
51173689,1000,1000,1000,1000,71728797,1574,1578,1551,1546
51176188,1000,1000,1000,1000,71828757,1573,1575,1550,1545
51178687,1000,1000,1000,1000,71928717,1820,1818,1490,1483
51181186,1000,1000,1000,1000,72028677,1757,1754,1460,1455
51183685,1000,1000,1000,1000,72128637,1705,1704,1457,1458
51186184,1000,1000,1000,1000,72228597,1657,1658,1464,1467
51188683,1000,1000,1000,1000,72328557,1613,1618,1475,1479
51191182,1000,1000,1000,1000,72428517,1574,1582,1492,1496
51193681,1000,1000,1000,1000,72528477,1540,1546,1516,1521
51196180,1000,1000,1000,1000,72628437,1491,1494,1558,1562
51198679,1000,1000,1000,1000,72728397,1447,1448,1598,1602
51201178,1000,1000,1000,1000,72828357,1433,1434,1619,1622
51203677,1000,1000,1000,1000,72928317,1443,1443,1621,1622
51206176,1000,1000,1000,1000,73028277,1466,1466,1615,1615
51208675,1000,1000,1000,1000,73128237,1488,1489,1602,1601
51211174,1000,1000,1000,1000,73228197,1511,1513,1590,1589
51213673,1000,1000,1000,1000,73328157,1531,1533,1578,1577
51216172,1000,1000,1000,1000,73428950,1549,1551,1569,1568
51218671,1000,1000,1000,1000,73528910,1565,1564,1561,1560
51221170,1000,1000,1000,1000,73628870,1577,1575,1555,1555
51223669,1000,1000,1000,1000,73728830,1586,1583,1550,1550
51226168,1000,1000,1000,1000,73828790,1592,1588,1545,1546
51228667,1000,1000,1000,1000,73928750,1596,1591,1546,1547
51231166,1000,1000,1000,1000,74028710,1595,1591,1550,1552
51233665,1000,1000,1000,1000,74128670,1588,1584,1557,1559
51236164,1000,1000,1000,1000,74228630,1578,1576,1568,1568
51238663,1000,1000,1000,1000,74328590,1568,1567,1579,1579
51241162,1000,1000,1000,1000,74428550,1557,1557,1588,1587
51243661,1000,1000,1000,1000,74528510,1550,1550,1595,1595
51246160,1000,1000,1000,1000,74628470,1546,1547,1600,1600
51248659,1000,1000,1000,1000,74728430,1545,1546,1602,1601
51251158,1000,1000,1000,1000,74828390,1547,1549,1602,1601
51253657,1000,1000,1000,1000,74928350,1549,1551,1599,1599
51256156,1000,1000,1000,1000,75028310,1553,1554,1595,1596
51258655,1000,1000,1000,1000,75128270,1558,1558,1591,1591
51261154,1000,1000,1000,1000,75228230,1563,1563,1588,1587
51263653,1000,1000,1000,1000,75328190,1567,1568,1584,1583
51266152,1000,1000,1000,1000,75428983,1572,1572,1580,1578
51268651,1000,1000,1000,1000,75528943,1577,1577,1576,1575
51271150,1000,1000,1000,1000,75628903,1581,1581,1572,1572
51273649,1000,1000,1000,1000,75728863,1584,1583,1570,1570
51276148,1000,1000,1000,1000,75828823,1587,1586,1570,1570
51278647,1000,1000,1000,1000,75928783,1587,1586,1569,1569
51281146,1000,1000,1000,1000,76028743,1586,1585,1570,1570
51283645,1000,1000,1000,1000,76128703,1585,1584,1572,1572
51286144,1000,1000,1000,1000,76228663,1583,1582,1574,1574
51288643,1000,1000,1000,1000,76328623,1581,1580,1577,1577
51291142,1000,1000,1000,1000,76428583,1578,1578,1578,1579
51293641,1000,1000,1000,1000,76528543,1576,1577,1581,1581
51296140,1000,1000,1000,1000,76628503,1575,1576,1583,1582
51298639,1000,1000,1000,1000,76728463,1575,1575,1583,1583
51301138,1000,1000,1000,1000,76828423,1574,1575,1582,1583
51303637,1000,1000,1000,1000,76928383,1574,1575,1582,1583
51306136,1000,1000,1000,1000,77028343,1575,1576,1582,1582
51308635,1000,1000,1000,1000,77128303,1576,1577,1581,1581
51311134,1000,1000,1000,1000,77228263,1578,1578,1581,1581
51313633,1000,1000,1000,1000,77328223,1579,1579,1580,1580
51316132,1000,1000,1000,1000,77428183,1581,1580,1580,1580
51318631,1000,1000,1000,1000,77528976,1581,1581,1579,1578
51321130,1000,1000,1000,1000,77628936,1582,1582,1579,1579
51323629,1000,1000,1000,1000,77728896,1582,1582,1579,1579
51326128,1000,1000,1000,1000,77828856,1583,1582,1579,1579
51328627,1000,1000,1000,1000,77928816,1582,1582,1578,1579
51331126,1000,1000,1000,1000,78028776,1581,1581,1579,1579
51333625,1000,1000,1000,1000,78128736,1581,1581,1580,1579
51336124,1000,1000,1000,1000,78228696,1580,1580,1580,1580
51338623,1000,1000,1000,1000,78328656,1580,1581,1581,1580
51341122,1000,1000,1000,1000,78428616,1580,1581,1581,1581
51343621,1000,1000,1000,1000,78528576,1580,1580,1581,1581
51346120,1000,1000,1000,1000,78628536,1580,1580,1581,1581
51348619,1000,1000,1000,1000,78728496,1580,1579,1581,1581
51351118,1000,1000,1000,1000,78828456,1580,1581,1581,1582
51353617,1000,1000,1000,1000,78928416,1580,1580,1581,1581
51356116,1000,1000,1000,1000,79028376,1580,1580,1581,1581
51358615,1000,1000,1000,1000,79128336,1580,1581,1581,1581
51361114,1000,1000,1000,1000,79228296,1579,1580,1580,1580
51363613,1000,1000,1000,1000,79328256,1581,1580,1580,1581
51366112,1000,1000,1000,1000,79428216,1581,1581,1581,1581
51368611,1000,1000,1000,1000,79528176,1580,1581,1585,1574
51371110,1000,1000,1000,1000,79628969,1581,1584,1588,1573
51373609,1000,1000,1000,1000,79728929,1579,1583,1579,1573
51376108,1000,1000,1000,1000,79828889,1578,1582,1571,1573
51378607,1000,1000,1000,1000,79928849,1577,1580,1563,1570
51381106,1000,1000,1000,1000,80028809,1577,1578,1557,1564
51383605,1000,1000,1000,1000,80128769,1579,1578,1555,1560
51386104,1000,1000,1000,1000,80228729,1581,1578,1555,1557
51388603,1000,1000,1000,1000,80328689,1581,1579,1556,1555
51391102,1000,1000,1000,1000,80428649,1580,1579,1557,1554
51393601,1000,1000,1000,1000,80528609,1579,1579,1557,1554
51396100,1000,1000,1000,1000,80628569,1577,1579,1557,1554
51398599,1000,1000,1000,1000,80728529,1576,1578,1556,1555
51401098,1000,1000,1000,1000,80828489,1575,1577,1554,1555
51403597,1000,1000,1000,1000,80928449,1575,1576,1552,1553
51406096,1000,1000,1000,1000,81028409,1576,1577,1551,1551
51408595,1000,1000,1000,1000,81128369,1578,1579,1550,1550
51411094,1000,1000,1000,1000,81228329,1580,1581,1548,1547
51413593,1000,1000,1000,1000,81328289,1583,1583,1545,1545
51416092,1000,1000,1000,1000,81428249,1586,1587,1543,1543
51418591,1000,1000,1000,1000,81528209,1587,1588,1540,1539
51421090,1000,1000,1000,1000,81628169,1590,1591,1538,1538
51423589,1000,1000,1000,1000,81728962,1592,1593,1537,1537
51426088,1000,1000,1000,1000,81828922,1594,1595,1536,1538
51428587,1000,1000,1000,1000,81928882,1596,1595,1537,1539
51431086,1000,1000,1000,1000,82028842,1594,1594,1539,1541
51433585,1000,1000,1000,1000,82128802,1592,1590,1544,1547
51436084,1000,1000,1000,1000,82228762,1586,1583,1551,1554
51438583,1000,1000,1000,1000,82328722,1579,1575,1561,1564
51441082,1000,1000,1000,1000,82428682,1569,1565,1573,1575
51443581,1000,1000,1000,1000,82528642,1557,1553,1586,1586
51446080,1000,1000,1000,1000,82628602,1546,1544,1597,1597
51448579,1000,1000,1000,1000,82728562,1538,1538,1606,1606
51451078,1000,1000,1000,1000,82828522,1533,1534,1611,1610
51453577,1000,1000,1000,1000,82928482,1532,1534,1613,1612
51456076,1000,1000,1000,1000,83028442,1534,1536,1611,1610
51458575,1000,1000,1000,1000,83128402,1538,1540,1607,1607
51461074,1000,1000,1000,1000,83228362,1545,1546,1603,1603
51463573,1000,1000,1000,1000,83328322,1553,1553,1598,1598
51466072,1000,1000,1000,1000,83428282,1560,1560,1592,1592
51468571,1000,1000,1000,1000,83528242,1567,1568,1586,1586
51471070,1000,1000,1000,1000,83628202,1573,1573,1579,1578
51473569,1000,1000,1000,1000,83728162,1581,1580,1575,1574
51476068,1000,1000,1000,1000,83828955,1584,1583,1570,1570
51478567,1000,1000,1000,1000,83928915,1586,1585,1566,1567
51481066,1000,1000,1000,1000,84028875,1587,1586,1567,1567
51483565,1000,1000,1000,1000,84128835,1586,1586,1567,1567
51486064,1000,1000,1000,1000,84228795,1585,1584,1570,1569
51488563,1000,1000,1000,1000,84328755,1583,1582,1572,1572
51491062,1000,1000,1000,1000,84428715,1580,1579,1575,1575
51493561,1000,1000,1000,1000,84528675,1578,1577,1578,1578
51496060,1000,1000,1000,1000,84628635,1575,1576,1580,1580
51498559,1000,1000,1000,1000,84728595,1574,1574,1582,1582
51501058,1000,1000,1000,1000,84828555,1572,1573,1583,1582
51503557,1000,1000,1000,1000,84928515,1573,1574,1584,1584
51506056,1000,1000,1000,1000,85028475,1573,1574,1584,1584
51508555,1000,1000,1000,1000,85128435,1573,1574,1582,1583
51511054,1000,1000,1000,1000,85228395,1575,1574,1581,1581
51513553,1000,1000,1000,1000,85328355,1577,1576,1581,1581
51516052,1000,1000,1000,1000,85428315,1578,1578,1580,1580
51518551,1000,1000,1000,1000,85528275,1578,1578,1578,1578
51521050,1000,1000,1000,1000,85628235,1579,1579,1577,1578
51523549,1000,1000,1000,1000,85728195,1581,1581,1577,1578
51526048,1000,1000,1000,1000,85828155,1581,1581,1577,1577
51528547,1000,1000,1000,1000,85928948,1580,1581,1577,1577
51531046,1000,1000,1000,1000,86028908,1581,1581,1577,1577
51533545,1000,1000,1000,1000,86128868,1581,1581,1578,1578
51536044,1000,1000,1000,1000,86228828,1582,1581,1580,1579
51538543,1000,1000,1000,1000,86328788,1581,1580,1579,1580
51541042,1000,1000,1000,1000,86428748,1581,1580,1581,1580
51543541,1000,1000,1000,1000,86528708,1580,1580,1581,1581
51546040,1000,1000,1000,1000,86628668,1579,1580,1581,1581
51548539,1000,1000,1000,1000,86728628,1579,1579,1581,1581
51551038,1000,1000,1000,1000,86828588,1579,1580,1581,1581
51553537,1000,1000,1000,1000,86928548,1580,1579,1581,1582
51556036,1000,1000,1000,1000,87028508,1580,1580,1581,1581
51558535,1000,1000,1000,1000,87128468,1580,1581,1582,1582
51561034,1000,1000,1000,1000,87228428,1579,1579,1580,1580
51563533,1000,1000,1000,1000,87328388,1580,1580,1580,1580
51566032,1000,1000,1000,1000,87428348,1580,1581,1582,1578
51568531,1000,1000,1000,1000,87528308,1580,1581,1586,1572
51571030,1000,1000,1000,1000,87628268,1580,1580,1583,1573
51573529,1000,1000,1000,1000,87728228,1577,1577,1575,1575
51576028,1000,1000,1000,1000,87828188,1574,1574,1569,1575
51578527,1000,1000,1000,1000,87928981,1571,1570,1565,1573
51581026,1000,1000,1000,1000,88028941,1569,1569,1565,1571
51583525,1000,1000,1000,1000,88128901,1567,1567,1565,1568
51586024,1000,1000,1000,1000,88228861,1566,1566,1566,1565
51588523,1000,1000,1000,1000,88328821,1565,1565,1567,1565
51591022,1000,1000,1000,1000,88428781,1565,1565,1567,1564
51593521,1000,1000,1000,1000,88528741,1564,1565,1567,1564
51596020,1000,1000,1000,1000,88628701,1563,1563,1565,1564
51598519,1000,1000,1000,1000,88728661,1563,1563,1564,1564
51601018,1000,1000,1000,1000,88828621,1562,1562,1563,1563
51603517,1000,1000,1000,1000,88928581,1562,1561,1562,1562
51606016,1000,1000,1000,1000,89028541,1562,1562,1562,1563
51608515,1000,1000,1000,1000,89128501,1561,1561,1561,1561
51611014,1000,1000,1000,1000,89228461,1561,1561,1562,1561
51613513,1000,1000,1000,1000,89328421,1560,1560,1560,1559
51616012,1000,1000,1000,1000,89428381,1558,1558,1558,1557
51618511,1000,1000,1000,1000,89528341,1558,1557,1557,1557
51621010,1000,1000,1000,1000,89628301,1557,1557,1557,1556
51623509,1000,1000,1000,1000,89728261,1559,1559,1559,1558
51626008,1000,1000,1000,1000,89828221,1558,1558,1558,1557
51628507,1000,1000,1000,1000,89928181,1558,1558,1558,1557
51631006,1000,1000,1000,1000,90028974,1558,1557,1559,1557
51633505,1000,1000,1000,1000,90128934,1559,1558,1560,1557
51636004,1000,1000,1000,1000,90228894,1558,1559,1560,1558
51638503,1000,1000,1000,1000,90328854,1560,1560,1558,1561
51641002,1000,1000,1000,1000,90428814,1560,1560,1557,1563
51643501,1000,1000,1000,1000,90528774,1560,1560,1557,1564
51646000,1000,1000,1000,1000,90628734,1562,1562,1559,1564
51648499,1000,1000,1000,1000,90728694,1562,1562,1561,1564
51650998,1000,1000,1000,1000,90828654,1562,1562,1563,1562
51653497,1000,1000,1000,1000,90928614,1561,1561,1562,1559
51655996,1000,1000,1000,1000,91028574,1560,1560,1559,1560
51658495,1000,1000,1000,1000,91128534,1557,1557,1556,1559
51660994,1000,1000,1000,1000,91228494,1554,1553,1552,1555
51663493,1000,1000,1000,1000,91328454,1550,1549,1549,1550
51665992,1000,1000,1000,1000,91428414,1543,1542,1542,1543
51668491,1000,1000,1000,1000,91528374,1535,1536,1536,1536
51670990,1000,1000,1000,1000,91628334,1528,1528,1529,1528
51673489,1000,1000,1000,1000,91728294,1521,1522,1522,1521
51675988,1000,1000,1000,1000,91828254,1520,1520,1521,1520
51678487,1000,1000,1000,1000,91928214,1519,1520,1520,1520
51680986,1000,1000,1000,1000,92028174,1520,1521,1520,1521
51683485,1000,1000,1000,1000,92128967,1524,1524,1523,1525
51685984,1000,1000,1000,1000,92228927,1527,1528,1528,1528
51688483,1000,1000,1000,1000,92328887,1533,1533,1533,1533
51690982,1000,1000,1000,1000,92428847,1537,1537,1537,1537
51693481,1000,1000,1000,1000,92528807,1539,1540,1539,1540
51695980,1000,1000,1000,1000,92628767,1542,1542,1542,1542
51698479,1000,1000,1000,1000,92728727,1544,1544,1544,1544
51700978,1000,1000,1000,1000,92828687,1544,1544,1545,1544
51703477,1000,1000,1000,1000,92928647,1545,1545,1545,1545
51705976,1000,1000,1000,1000,93028607,1546,1546,1547,1546
51708475,1000,1000,1000,1000,93128567,1547,1547,1547,1547
51710974,1000,1000,1000,1000,93228527,1547,1547,1546,1546
51713473,1000,1000,1000,1000,93328487,1547,1546,1546,1547
51715972,1000,1000,1000,1000,93428447,1546,1546,1546,1546
51718471,1000,1000,1000,1000,93528407,1546,1546,1546,1546
51720970,1000,1000,1000,1000,93628367,1545,1545,1545,1545
51723469,1000,1000,1000,1000,93728327,1545,1545,1545,1545
51725968,1000,1000,1000,1000,93828287,1545,1545,1545,1545
51728467,1000,1000,1000,1000,93928247,1545,1545,1545,1545
51730966,1000,1000,1000,1000,94028207,1544,1544,1545,1544
51733465,1000,1000,1000,1000,94128167,1545,1545,1545,1545
51735964,1000,1000,1000,1000,94228960,1544,1544,1543,1544
51738463,1000,1000,1000,1000,94328920,1543,1544,1544,1544
51740962,1000,1000,1000,1000,94428880,1543,1544,1543,1543
51743461,1000,1000,1000,1000,94528840,1543,1543,1543,1543
51745960,1000,1000,1000,1000,94628800,1544,1543,1544,1544
51748459,1000,1000,1000,1000,94728760,1544,1543,1543,1543
51750958,1000,1000,1000,1000,94828720,1544,1544,1544,1543
51753457,1000,1000,1000,1000,94928680,1544,1544,1545,1544
51755956,1000,1000,1000,1000,95028640,1544,1544,1544,1544
51758455,1000,1000,1000,1000,95128600,1545,1545,1544,1545
51760954,1000,1000,1000,1000,95228560,1545,1545,1544,1545
51763453,1000,1000,1000,1000,95328520,1545,1545,1544,1545
51765952,1000,1000,1000,1000,95428480,1545,1545,1544,1545
51768451,1000,1000,1000,1000,95528440,1545,1545,1545,1545
51770950,1000,1000,1000,1000,95628400,1544,1544,1544,1544
51773449,1000,1000,1000,1000,95728360,1544,1544,1544,1544
51775948,1000,1000,1000,1000,95828320,1545,1544,1545,1545
51778447,1000,1000,1000,1000,95928280,1544,1544,1544,1544
51780946,1000,1000,1000,1000,96028240,1544,1544,1545,1544
51783445,1000,1000,1000,1000,96128200,1545,1544,1544,1545
51785944,1000,1000,1000,1000,96228160,1544,1545,1544,1545
51788443,1000,1000,1000,1000,96328953,1545,1545,1544,1545
51790942,1000,1000,1000,1000,96428913,1544,1543,1543,1543
51793441,1000,1000,1000,1000,96528873,1545,1544,1544,1544
51795940,1000,1000,1000,1000,96628833,1543,1544,1544,1544
51798439,1000,1000,1000,1000,96728793,1544,1544,1543,1544
51800938,1000,1000,1000,1000,96828753,1543,1544,1543,1543
51803437,1000,1000,1000,1000,96928713,1544,1544,1544,1544
51805936,1000,1000,1000,1000,97028673,1544,1545,1545,1544
51808435,1000,1000,1000,1000,97128633,1544,1543,1544,1544
51810934,1000,1000,1000,1000,97228593,1544,1544,1544,1544
51813433,1000,1000,1000,1000,97328553,1544,1543,1544,1544
51815932,1000,1000,1000,1000,97428513,1543,1544,1544,1544
51818431,1000,1000,1000,1000,97528473,1544,1544,1544,1544
51820930,1000,1000,1000,1000,97628433,1544,1544,1544,1544
51823429,1000,1000,1000,1000,97728393,1545,1545,1545,1545
51825928,1000,1000,1000,1000,97828353,1544,1544,1544,1544
51828427,1000,1000,1000,1000,97928313,1544,1544,1544,1544
51830926,1000,1000,1000,1000,98028273,1544,1545,1544,1544
51833425,1000,1000,1000,1000,98128233,1545,1545,1544,1544
51835924,1000,1000,1000,1000,98228193,1543,1544,1544,1543
51838423,1000,1000,1000,1000,98328986,1544,1544,1544,1544
51840922,1000,1000,1000,1000,98428946,1544,1544,1544,1544
51843421,1000,1000,1000,1000,98528906,1545,1544,1545,1544
51845920,1000,1000,1000,1000,98628866,1544,1544,1544,1544
51848419,1000,1000,1000,1000,98728826,1545,1545,1545,1545
51850918,1000,1000,1000,1000,98828786,1544,1545,1545,1545
51853417,1000,1000,1000,1000,98928746,1544,1543,1544,1544
51855916,1000,1000,1000,1000,99028706,1544,1544,1544,1543
51858415,1000,1000,1000,1000,99128666,1544,1543,1544,1544
51860914,1000,1000,1000,1000,99228626,1544,1543,1544,1543
51863413,1000,1000,1000,1000,99328586,1544,1544,1544,1544
51865912,1000,1000,1000,1000,99428546,1543,1543,1543,1543
51868411,1000,1000,1000,1000,99528506,1544,1544,1544,1544
51870910,1000,1000,1000,1000,99628466,1544,1544,1544,1544
51873409,1000,1000,1000,1000,99728426,1544,1544,1544,1545
51875908,1000,1000,1000,1000,99828386,1545,1545,1545,1544
51878407,1000,1000,1000,1000,99928346,1545,1545,1545,1545
51880906,1000,1000,1000,1000,100028306,1545,1545,1545,1545
51883405,1000,1000,1000,1000,100128266,1544,1545,1545,1545
51885904,1000,1000,1000,1000,100228226,1544,1544,1544,1544
51888403,1000,1000,1000,1000,100328186,1543,1543,1543,1543
51890902,1000,1000,1000,1000,100428979,1544,1544,1544,1544
51893401,1000,1000,1000,1000,100528939,1545,1545,1545,1545
51895900,1000,1000,1000,1000,100628899,1544,1544,1544,1544
51898399,1000,1000,1000,1000,100728859,1544,1545,1545,1545
51900898,1000,1000,1000,1000,100828819,1544,1545,1545,1544
51903397,1000,1000,1000,1000,100928779,1544,1544,1544,1544
51905896,1000,1000,1000,1000,101028739,1545,1545,1545,1545
51908395,1000,1000,1000,1000,101128699,1544,1543,1543,1544
51910894,1000,1000,1000,1000,101228659,1544,1544,1543,1544
51913393,1000,1000,1000,1000,101328619,1544,1543,1543,1543
51915892,1000,1000,1000,1000,101428579,1544,1544,1544,1543
51918391,1000,1000,1000,1000,101528539,1389,1388,1389,1388
51920890,1000,1000,1000,1000,101628499,1263,1263,1265,1262
51923389,1000,1000,1000,1000,101728459,1220,1219,1220,1219
51925888,1000,1000,1000,1000,101828419,1200,1200,1202,1200
51928387,1000,1000,1000,1000,101928379,1160,1158,1161,1158
51930886,1000,1000,1000,1000,102028339,1151,1150,1153,1150
51933385,1000,1000,1000,1000,102128299,1151,1150,1153,1150
51935884,1000,1000,1000,1000,102228259,1184,1150,1150,1186
51938383,1000,1000,1000,1000,102328219,1174,1150,1151,1174
51940882,1000,1000,1000,1000,102428179,1170,1150,1152,1170
51943381,1000,1000,1000,1000,102528972,1171,1150,1152,1171
51945880,1000,1000,1000,1000,102628932,1173,1150,1153,1173
51948379,1000,1000,1000,1000,102728892,1175,1150,1153,1175
51950878,1000,1000,1000,1000,102828852,1177,1150,1153,1177
51953377,1000,1000,1000,1000,102928812,1179,1150,1153,1179
51955876,1000,1000,1000,1000,103028772,1165,1150,1153,1165
51958375,1000,1000,1000,1000,103128732,1166,1150,1153,1167
51960874,1000,1000,1000,1000,103228692,1167,1150,1153,1168
51963373,1000,1000,1000,1000,103328652,1168,1150,1153,1168
51965872,1000,1000,1000,1000,103428612,1168,1150,1153,1169
51968371,1000,1000,1000,1000,103528572,1000,1000,1000,1000
51970870,1000,1000,1000,1000,103628532,1000,1000,1000,1000
51973369,1000,1000,1000,1000,103728492,1000,1000,1000,1000
51975868,1000,1000,1000,1000,103828452,1000,1000,1000,1000
51978367,1000,1000,1000,1000,103928412,1000,1000,1000,1000
51980866,1000,1000,1000,1000,104028372,1000,1000,1000,1000
51983365,1000,1000,1000,1000,104128332,1000,1000,1000,1000
51985864,1000,1000,1000,1000,104228292,1000,1000,1000,1000
51988363,1000,1000,1000,1000,104328252,1000,1000,1000,1000
51990862,1000,1000,1000,1000,104428212,1000,1000,1000,1000
51993361,1000,1000,1000,1000,104528172,1000,1000,1000,1000
51995860,1000,1000,1000,1000,104628965,1000,1000,1000,1000
51998359,1000,1000,1000,1000,104728925,1000,1000,1000,1000
52000858,1000,1000,1000,1000,104828885,1000,1000,1000,1000
52003357,1000,1000,1000,1000,104928845,1000,1000,1000,1000
52005856,1000,1000,1000,1000,105028805,1000,1000,1000,1000
52008355,1000,1000,1000,1000,105128765,1000,1000,1000,1000
52010854,1000,1000,1000,1000,105228725,1000,1000,1000,1000
52013353,1000,1000,1000,1000,105328685,1000,1000,1000,1000
52015852,1000,1000,1000,1000,105428645,1000,1000,1000,1000
52018351,1000,1000,1000,1000,105528605,1000,1000,1000,1000
52020850,1000,1000,1000,1000,105628565,1000,1000,1000,1000
52023349,1000,1000,1000,1000,105728525,1000,1000,1000,1000
52025848,1000,1000,1000,1000,105828485,1000,1000,1000,1000
52028347,1000,1000,1000,1000,105928445,1000,1000,1000,1000
52030846,1000,1000,1000,1000,106028405,1000,1000,1000,1000
52033345,1000,1000,1000,1000,106128365,1000,1000,1000,1000
52035844,1000,1000,1000,1000,106228325,1000,1000,1000,1000
52038343,1000,1000,1000,1000,106328285,1000,1000,1000,1000
52040842,1000,1000,1000,1000,106428245,1000,1000,1000,1000
52043341,1000,1000,1000,1000,106528205,1000,1000,1000,1000
52045840,1000,1000,1000,1000,106628165,1000,1000,1000,1000
52048339,1000,1000,1000,1000,106728958,1000,1000,1000,1000
52050838,1000,1000,1000,1000,106828918,1000,1000,1000,1000
52053337,1000,1000,1000,1000,106928878,1000,1000,1000,1000
52055836,1000,1000,1000,1000,107028838,1000,1000,1000,1000
52058335,1000,1000,1000,1000,107128798,1000,1000,1000,1000
52060834,1000,1000,1000,1000,107228758,1000,1000,1000,1000
52063333,1000,1000,1000,1000,107328718,1000,1000,1000,1000
52065832,1000,1000,1000,1000,107428678,1000,1000,1000,1000
52068331,1000,1000,1000,1000,107528638,1000,1000,1000,1000
52070830,1000,1000,1000,1000,107628598,1000,1000,1000,1000
52073329,1000,1000,1000,1000,107728558,1000,1000,1000,1000
52075828,1000,1000,1000,1000,107828518,1000,1000,1000,1000
52078327,1000,1000,1000,1000,107928478,1000,1000,1000,1000
52080826,1000,1000,1000,1000,108028438,1000,1000,1000,1000
52083325,1000,1000,1000,1000,108128398,1000,1000,1000,1000
52085824,1000,1000,1000,1000,108228358,1000,1000,1000,1000
52088323,1000,1000,1000,1000,108328318,1000,1000,1000,1000
52090822,1000,1000,1000,1000,108428278,1000,1000,1000,1000
52093321,1000,1000,1000,1000,108528238,1000,1000,1000,1000
52095820,1000,1000,1000,1000,108628198,1000,1000,1000,1000
52098319,1000,1000,1000,1000,108728158,1000,1000,1000,1000
52100818,1000,1000,1000,1000,108828951,1000,1000,1000,1000
52103317,1000,1000,1000,1000,108928911,1000,1000,1000,1000
52105816,1000,1000,1000,1000,109028871,1000,1000,1000,1000
52108315,1000,1000,1000,1000,109128831,1000,1000,1000,1000
52110814,1000,1000,1000,1000,109228791,1000,1000,1000,1000
52113313,1000,1000,1000,1000,109328751,1000,1000,1000,1000
52115812,1000,1000,1000,1000,109428711,1000,1000,1000,1000
52118311,1000,1000,1000,1000,109528671,1000,1000,1000,1000
52120810,1000,1000,1000,1000,109628631,1000,1000,1000,1000
52123309,1000,1000,1000,1000,109728591,1000,1000,1000,1000
52125808,1000,1000,1000,1000,109828551,1000,1000,1000,1000
52128307,1000,1000,1000,1000,109928511,1000,1000,1000,1000
52130806,1000,1000,1000,1000,110028471,1000,1000,1000,1000
52133305,1000,1000,1000,1000,110128431,1000,1000,1000,1000
52135804,1000,1000,1000,1000,110228391,1000,1000,1000,1000
52138303,1000,1000,1000,1000,110328351,1000,1000,1000,1000
52140802,1000,1000,1000,1000,110428311,1000,1000,1000,1000
52143301,1000,1000,1000,1000,110528271,1000,1000,1000,1000
52145800,1000,1000,1000,1000,110628231,1000,1000,1000,1000
52148299,1000,1000,1000,1000,110728191,1000,1000,1000,1000
52150798,1000,1000,1000,1000,110828984,1000,1000,1000,1000
52153297,1000,1000,1000,1000,110928944,1000,1000,1000,1000
52155796,1000,1000,1000,1000,111028904,1000,1000,1000,1000
52158295,1000,1000,1000,1000,111128864,1000,1000,1000,1000
52160794,1000,1000,1000,1000,111228824,1000,1000,1000,1000
52163293,1000,1000,1000,1000,111328784,1000,1000,1000,1000
52165792,1000,1000,1000,1000,111428744,1000,1000,1000,1000
52168291,1000,1000,1000,1000,111528704,1000,1000,1000,1000
52170790,1000,1000,1000,1000,111628664,1000,1000,1000,1000
52173289,1000,1000,1000,1000,111728624,1000,1000,1000,1000
52175788,1000,1000,1000,1000,111828584,1000,1000,1000,1000
52178287,1000,1000,1000,1000,111928544,1000,1000,1000,1000
52180786,1000,1000,1000,1000,112028504,1000,1000,1000,1000
52183285,1000,1000,1000,1000,112128464,1000,1000,1000,1000
52185784,1000,1000,1000,1000,112228424,1000,1000,1000,1000
52188283,1000,1000,1000,1000,112328384,1000,1000,1000,1000
52190782,1000,1000,1000,1000,112428344,1000,1000,1000,1000
52193281,1000,1000,1000,1000,112528304,1000,1000,1000,1000
52195780,1000,1000,1000,1000,112628264,1000,1000,1000,1000
52198279,1000,1000,1000,1000,112728224,1000,1000,1000,1000
52200778,1000,1000,1000,1000,112828184,1000,1000,1000,1000
52203277,1000,1000,1000,1000,112928977,1000,1000,1000,1000
52205776,1000,1000,1000,1000,113028937,1000,1000,1000,1000
52208275,1000,1000,1000,1000,113128897,1000,1000,1000,1000
52210774,1000,1000,1000,1000,,,,,
52213273,1000,1000,1000,1000,,,,,
52215772,1000,1000,1000,1000,,,,,
52218271,1000,1000,1000,1000,,,,,
52220770,1000,1000,1000,1000,,,,,
52223269,1000,1000,1000,1000,,,,,
52225768,1000,1000,1000,1000,,,,,
52228267,1000,1000,1000,1000,,,,,
52230766,1000,1000,1000,1000,,,,,
52233265,1000,1000,1000,1000,,,,,
52235764,1000,1000,1000,1000,,,,,
52238263,1000,1000,1000,1000,,,,,
52240762,1000,1000,1000,1000,,,,,
52243261,1000,1000,1000,1000,,,,,
52245760,1000,1000,1000,1000,,,,,
52248259,1000,1000,1000,1000,,,,,
52250758,1000,1000,1000,1000,,,,,
52253257,1000,1000,1000,1000,,,,,
52255756,1000,1000,1000,1000,,,,,
52258255,1000,1000,1000,1000,,,,,
52260754,1000,1000,1000,1000,,,,,
52263253,1000,1000,1000,1000,,,,,
52265752,1000,1000,1000,1000,,,,,
52268251,1000,1000,1000,1000,,,,,
52270750,1000,1000,1000,1000,,,,,
52273249,1000,1000,1000,1000,,,,,
52275748,1000,1000,1000,1000,,,,,
52278247,1000,1000,1000,1000,,,,,
52280746,1000,1000,1000,1000,,,,,
52283245,1000,1000,1000,1000,,,,,
52285744,1000,1000,1000,1000,,,,,
52288243,1000,1000,1000,1000,,,,,
52290742,1000,1000,1000,1000,,,,,
52293241,1000,1000,1000,1000,,,,,
52295740,1000,1000,1000,1000,,,,,
52298239,1000,1000,1000,1000,,,,,
52300738,1000,1000,1000,1000,,,,,
52303237,1000,1000,1000,1000,,,,,
52305736,1000,1000,1000,1000,,,,,
52308235,1000,1000,1000,1000,,,,,
52310734,1000,1000,1000,1000,,,,,
52313233,1000,1000,1000,1000,,,,,
52315732,1000,1000,1000,1000,,,,,
52318231,1000,1000,1000,1000,,,,,
52320730,1000,1000,1000,1000,,,,,
52323229,1000,1000,1000,1000,,,,,
52325728,1000,1000,1000,1000,,,,,
52328227,1000,1000,1000,1000,,,,,
52330726,1000,1000,1000,1000,,,,,
52333225,1000,1000,1000,1000,,,,,
52335724,1000,1000,1000,1000,,,,,
52338223,1000,1000,1000,1000,,,,,
52340722,1000,1000,1000,1000,,,,,
52343221,1000,1000,1000,1000,,,,,
52345720,1000,1000,1000,1000,,,,,
52348219,1000,1000,1000,1000,,,,,
52350718,1000,1000,1000,1000,,,,,
52353217,1000,1000,1000,1000,,,,,
52355716,1000,1000,1000,1000,,,,,
52358215,1000,1000,1000,1000,,,,,
52360714,1000,1000,1000,1000,,,,,
52363213,1000,1000,1000,1000,,,,,
52365712,1000,1000,1000,1000,,,,,
52368211,1000,1000,1000,1000,,,,,
52370710,1000,1000,1000,1000,,,,,
52373209,1000,1000,1000,1000,,,,,
52375708,1000,1000,1000,1000,,,,,
52378207,1000,1000,1000,1000,,,,,
52380706,1000,1000,1000,1000,,,,,
52383205,1000,1000,1000,1000,,,,,
52385704,1000,1000,1000,1000,,,,,
52388203,1000,1000,1000,1000,,,,,
52390702,1000,1000,1000,1000,,,,,
52393201,1000,1000,1000,1000,,,,,
52395700,1000,1000,1000,1000,,,,,
52398199,1000,1000,1000,1000,,,,,
52400698,1000,1000,1000,1000,,,,,
52403197,1000,1000,1000,1000,,,,,
52405696,1000,1000,1000,1000,,,,,
52408195,1000,1000,1000,1000,,,,,
52410694,1000,1000,1000,1000,,,,,
52413193,1000,1000,1000,1000,,,,,
52415692,1000,1000,1000,1000,,,,,
52418191,1000,1000,1000,1000,,,,,
52420690,1000,1000,1000,1000,,,,,
52423189,1000,1000,1000,1000,,,,,
52425688,1000,1000,1000,1000,,,,,
52428187,1000,1000,1000,1000,,,,,
52430686,1000,1000,1000,1000,,,,,
52433185,1000,1000,1000,1000,,,,,
52435684,1000,1000,1000,1000,,,,,
52438183,1000,1000,1000,1000,,,,,
52440682,1000,1000,1000,1000,,,,,
52443181,1000,1000,1000,1000,,,,,
52445680,1000,1000,1000,1000,,,,,
52448179,1000,1000,1000,1000,,,,,
52450678,1000,1000,1000,1000,,,,,
52453177,1000,1000,1000,1000,,,,,
52455676,1000,1000,1000,1000,,,,,
52458175,1000,1000,1000,1000,,,,,
52460674,1000,1000,1000,1000,,,,,
52463173,1000,1000,1000,1000,,,,,
52465672,1000,1000,1000,1000,,,,,
52468171,1000,1000,1000,1000,,,,,
52470670,1000,1000,1000,1000,,,,,
52473169,1000,1000,1000,1000,,,,,
52475668,1000,1000,1000,1000,,,,,
52478167,1000,1000,1000,1000,,,,,
52480666,1000,1000,1000,1000,,,,,
52483165,1000,1000,1000,1000,,,,,
52485664,1000,1000,1000,1000,,,,,
52488163,1000,1000,1000,1000,,,,,
52490662,1000,1000,1000,1000,,,,,
52493161,1000,1000,1000,1000,,,,,
52495660,1000,1000,1000,1000,,,,,
52498159,1000,1000,1000,1000,,,,,
52500658,1000,1000,1000,1000,,,,,
52503157,1000,1000,1000,1000,,,,,
52505656,1000,1000,1000,1000,,,,,
52508155,1000,1000,1000,1000,,,,,
52510654,1000,1000,1000,1000,,,,,
52513986,1000,1000,1000,1000,,,,,
52516485,1000,1000,1000,1000,,,,,
52518984,1000,1000,1000,1000,,,,,
52521483,1000,1000,1000,1000,,,,,
52523982,1000,1000,1000,1000,,,,,
52526481,1000,1000,1000,1000,,,,,
52528980,1000,1000,1000,1000,,,,,
52531479,1000,1000,1000,1000,,,,,
52533978,1000,1000,1000,1000,,,,,
52536477,1000,1000,1000,1000,,,,,
52538976,1000,1000,1000,1000,,,,,
52541475,1000,1000,1000,1000,,,,,
52543974,1000,1000,1000,1000,,,,,
52546473,1000,1000,1000,1000,,,,,
52548972,1000,1000,1000,1000,,,,,
52551471,1000,1000,1000,1000,,,,,
52553970,1000,1000,1000,1000,,,,,
52556469,1000,1000,1000,1000,,,,,
52558968,1000,1000,1000,1000,,,,,
52561467,1000,1000,1000,1000,,,,,
52563966,1000,1000,1000,1000,,,,,
52566465,1000,1000,1000,1000,,,,,
52568964,1000,1000,1000,1000,,,,,
52571463,1000,1000,1000,1000,,,,,
52573962,1000,1000,1000,1000,,,,,
52576461,1000,1000,1000,1000,,,,,
52578960,1000,1000,1000,1000,,,,,
52581459,1000,1000,1000,1000,,,,,
52583958,1000,1000,1000,1000,,,,,
52586457,1000,1000,1000,1000,,,,,
52588956,1000,1000,1000,1000,,,,,
52591455,1000,1000,1000,1000,,,,,
52593954,1000,1000,1000,1000,,,,,
52596453,1000,1000,1000,1000,,,,,
52598952,1000,1000,1000,1000,,,,,
52601451,1000,1000,1000,1000,,,,,
52603950,1000,1000,1000,1000,,,,,
52606449,1000,1000,1000,1000,,,,,
52608948,1000,1000,1000,1000,,,,,
52611447,1000,1000,1000,1000,,,,,
52613946,1000,1000,1000,1000,,,,,
52616445,1000,1000,1000,1000,,,,,
52618944,1000,1000,1000,1000,,,,,
52621443,1000,1000,1000,1000,,,,,
52623942,1000,1000,1000,1000,,,,,
52626441,1000,1000,1000,1000,,,,,
52628940,1000,1000,1000,1000,,,,,
52631439,1000,1000,1000,1000,,,,,
52633938,1000,1000,1000,1000,,,,,
52636437,1000,1000,1000,1000,,,,,
52638936,1000,1000,1000,1000,,,,,
52641435,1000,1000,1000,1000,,,,,
52643934,1000,1000,1000,1000,,,,,
52646433,1000,1000,1000,1000,,,,,
52648932,1000,1000,1000,1000,,,,,
52651431,1000,1000,1000,1000,,,,,
52653930,1000,1000,1000,1000,,,,,
52656429,1001,1001,1001,1001,,,,,
52658928,1002,1002,1002,1002,,,,,
52661427,1003,1003,1003,1003,,,,,
52663926,1003,1003,1003,1003,,,,,
52666425,1004,1004,1004,1004,,,,,
52668924,1005,1005,1005,1005,,,,,
52671423,1006,1006,1006,1006,,,,,
52673922,1006,1006,1006,1006,,,,,
52676421,1007,1007,1007,1007,,,,,
52678920,1008,1008,1008,1008,,,,,
52681419,1009,1009,1009,1009,,,,,
52683918,1009,1009,1009,1009,,,,,
52686417,1010,1010,1010,1010,,,,,
52688916,1011,1011,1011,1011,,,,,
52691415,1012,1012,1012,1012,,,,,
52693914,1012,1012,1012,1012,,,,,
52696413,1013,1013,1013,1013,,,,,
52698912,1014,1014,1014,1014,,,,,
52701411,1015,1015,1015,1015,,,,,
52703910,1015,1015,1015,1015,,,,,
52706409,1016,1016,1016,1016,,,,,
52708908,1017,1017,1017,1017,,,,,
52711407,1018,1018,1018,1018,,,,,
52713906,1018,1018,1018,1018,,,,,
52716405,1019,1019,1019,1019,,,,,
52718904,1020,1020,1020,1020,,,,,
52721403,1021,1021,1021,1021,,,,,
52723902,1021,1021,1021,1021,,,,,
52726401,1022,1022,1022,1022,,,,,
52728900,1023,1023,1023,1023,,,,,
52731399,1024,1024,1024,1024,,,,,
52733898,1024,1024,1024,1024,,,,,
52736397,1025,1025,1025,1025,,,,,
52738896,1026,1026,1026,1026,,,,,
52741395,1027,1027,1027,1027,,,,,
52743894,1027,1027,1027,1027,,,,,
52746393,1028,1028,1028,1028,,,,,
52748892,1029,1029,1029,1029,,,,,
52751391,1030,1030,1030,1030,,,,,
52753890,1030,1030,1030,1030,,,,,
52756389,1031,1031,1031,1031,,,,,
52758888,1032,1032,1032,1032,,,,,
52761387,1033,1033,1033,1033,,,,,
52763886,1033,1033,1033,1033,,,,,
52766385,1034,1034,1034,1034,,,,,
52768884,1035,1035,1035,1035,,,,,
52771383,1036,1036,1036,1036,,,,,
52773882,1036,1036,1036,1036,,,,,
52776381,1037,1037,1037,1037,,,,,
52778880,1038,1038,1038,1038,,,,,
52781379,1039,1039,1039,1039,,,,,
52783878,1039,1039,1039,1039,,,,,
52786377,1040,1040,1040,1040,,,,,
52788876,1041,1041,1041,1041,,,,,
52791375,1042,1042,1042,1042,,,,,
52793874,1042,1042,1042,1042,,,,,
52796373,1043,1043,1043,1043,,,,,
52798872,1044,1044,1044,1044,,,,,
52801371,1045,1045,1045,1045,,,,,
52803870,1045,1045,1045,1045,,,,,
52806369,1046,1046,1046,1046,,,,,
52808868,1047,1047,1047,1047,,,,,
52811367,1048,1048,1048,1048,,,,,
52813866,1048,1048,1048,1048,,,,,
52816365,1049,1049,1049,1049,,,,,
52818864,1050,1050,1050,1050,,,,,
52821363,1051,1051,1051,1051,,,,,
52823862,1051,1051,1051,1051,,,,,
52826361,1052,1052,1052,1052,,,,,
52828860,1053,1053,1053,1053,,,,,
52831359,1054,1054,1054,1054,,,,,
52833858,1054,1054,1054,1054,,,,,
52836357,1055,1055,1055,1055,,,,,
52838856,1056,1056,1056,1056,,,,,
52841355,1057,1057,1057,1057,,,,,
52843854,1057,1057,1057,1057,,,,,
52846353,1058,1058,1058,1058,,,,,
52848852,1059,1059,1059,1059,,,,,
52851351,1060,1060,1060,1060,,,,,
52853850,1060,1060,1060,1060,,,,,
52856349,1061,1061,1061,1061,,,,,
52858848,1062,1062,1062,1062,,,,,
52861347,1063,1063,1063,1063,,,,,
52863846,1063,1063,1063,1063,,,,,
52866345,1064,1064,1064,1064,,,,,
52868844,1065,1065,1065,1065,,,,,
52871343,1066,1066,1066,1066,,,,,
52873842,1066,1066,1066,1066,,,,,
52876341,1067,1067,1067,1067,,,,,
52878840,1068,1068,1068,1068,,,,,
52881339,1069,1069,1069,1069,,,,,
52883838,1069,1069,1069,1069,,,,,
52886337,1070,1070,1070,1070,,,,,
52888836,1071,1071,1071,1071,,,,,
52891335,1072,1072,1072,1072,,,,,
52893834,1072,1072,1072,1072,,,,,
52896333,1073,1073,1073,1073,,,,,
52898832,1074,1074,1074,1074,,,,,
52901331,1075,1075,1075,1075,,,,,
52903830,1075,1075,1075,1075,,,,,
52906329,1076,1076,1076,1076,,,,,
52908828,1077,1077,1077,1077,,,,,
52911327,1078,1078,1078,1078,,,,,
52913826,1078,1078,1078,1078,,,,,
52916325,1079,1079,1079,1079,,,,,
52918824,1080,1080,1080,1080,,,,,
52921323,1081,1081,1081,1081,,,,,
52923822,1081,1081,1081,1081,,,,,
52926321,1082,1082,1082,1082,,,,,
52928820,1083,1083,1083,1083,,,,,
52931319,1084,1084,1084,1084,,,,,
52933818,1084,1084,1084,1084,,,,,
52936317,1085,1085,1085,1085,,,,,
52938816,1086,1086,1086,1086,,,,,
52941315,1087,1087,1087,1087,,,,,
52943814,1087,1087,1087,1087,,,,,
52946313,1088,1088,1088,1088,,,,,
52948812,1089,1089,1089,1089,,,,,
52951311,1090,1090,1090,1090,,,,,
52953810,1090,1090,1090,1090,,,,,
52956309,1091,1091,1091,1091,,,,,
52958808,1092,1092,1092,1092,,,,,
52961307,1093,1093,1093,1093,,,,,
52963806,1093,1093,1093,1093,,,,,
52966305,1094,1094,1094,1094,,,,,
52968804,1095,1095,1095,1095,,,,,
52971303,1096,1096,1096,1096,,,,,
52973802,1096,1096,1096,1096,,,,,
52976301,1097,1097,1097,1097,,,,,
52978800,1098,1098,1098,1098,,,,,
52981299,1099,1099,1099,1099,,,,,
52983798,1099,1099,1099,1099,,,,,
52986297,1100,1100,1100,1100,,,,,
52988796,1101,1101,1101,1101,,,,,
52991295,1101,1101,1101,1101,,,,,
52993794,1102,1102,1102,1102,,,,,
52996293,1103,1103,1103,1103,,,,,
52998792,1104,1104,1104,1104,,,,,
53001291,1104,1104,1104,1104,,,,,
53003790,1105,1105,1105,1105,,,,,
53006289,1106,1106,1106,1106,,,,,
53008788,1107,1107,1107,1107,,,,,
53011287,1107,1107,1107,1107,,,,,
53013786,1108,1108,1108,1108,,,,,
53016285,1109,1109,1109,1109,,,,,
53018784,1110,1110,1110,1110,,,,,
53021283,1110,1110,1110,1110,,,,,
53023782,1111,1111,1111,1111,,,,,
53026281,1112,1112,1112,1112,,,,,
53028780,1113,1113,1113,1113,,,,,
53031279,1113,1113,1113,1113,,,,,
53033778,1114,1114,1114,1114,,,,,
53036277,1115,1115,1115,1115,,,,,
53038776,1116,1116,1116,1116,,,,,
53041275,1116,1116,1116,1116,,,,,
53043774,1117,1117,1117,1117,,,,,
53046273,1118,1118,1118,1118,,,,,
53048772,1119,1119,1119,1119,,,,,
53051271,1119,1119,1119,1119,,,,,
53053770,1120,1120,1120,1120,,,,,
53056269,1121,1121,1121,1121,,,,,
53058768,1122,1122,1122,1122,,,,,
53061267,1122,1122,1122,1122,,,,,
53063766,1123,1123,1123,1123,,,,,
53066265,1124,1124,1124,1124,,,,,
53068764,1125,1125,1125,1125,,,,,
53071263,1125,1125,1125,1125,,,,,
53073762,1126,1126,1126,1126,,,,,
53076261,1127,1127,1127,1127,,,,,
53078760,1128,1128,1128,1128,,,,,
53081259,1128,1128,1128,1128,,,,,
53083758,1129,1129,1129,1129,,,,,
53086257,1130,1130,1130,1130,,,,,
53088756,1131,1131,1131,1131,,,,,
53091255,1131,1131,1131,1131,,,,,
53093754,1132,1132,1132,1132,,,,,
53096253,1133,1133,1133,1133,,,,,
53098752,1134,1134,1134,1134,,,,,
53101251,1134,1134,1134,1134,,,,,
53103750,1135,1135,1135,1135,,,,,
53106249,1136,1136,1136,1136,,,,,
53108748,1137,1137,1137,1137,,,,,
53111247,1137,1137,1137,1137,,,,,
53113746,1138,1138,1138,1138,,,,,
53116245,1139,1139,1139,1139,,,,,
53118744,1140,1140,1140,1140,,,,,
53121243,1140,1140,1140,1140,,,,,
53123742,1141,1141,1141,1141,,,,,
53126241,1142,1142,1142,1142,,,,,
53128740,1143,1143,1143,1143,,,,,
53131239,1143,1143,1143,1143,,,,,
53133738,1144,1144,1144,1144,,,,,
53136237,1145,1145,1145,1145,,,,,
53138736,1146,1146,1146,1146,,,,,
53141235,1146,1146,1146,1146,,,,,
53143734,1147,1147,1147,1147,,,,,
53146233,1148,1148,1148,1148,,,,,
53148732,1149,1149,1149,1149,,,,,
53151231,1149,1149,1149,1149,,,,,
53153730,1150,1150,1150,1150,,,,,
53156229,1161,1153,1154,1162,,,,,
53158728,1169,1162,1162,1170,,,,,
53161227,1177,1170,1170,1178,,,,,
53163726,1185,1177,1178,1185,,,,,
53166225,1193,1185,1186,1193,,,,,
53168724,1200,1193,1193,1200,,,,,
53171223,1207,1200,1201,1208,,,,,
53173722,1214,1207,1208,1215,,,,,
53176221,1222,1214,1215,1222,,,,,
53178720,1229,1222,1222,1229,,,,,
53181219,1235,1229,1229,1236,,,,,
53183718,1242,1235,1236,1243,,,,,
53186217,1249,1242,1243,1249,,,,,
53188716,1256,1249,1249,1256,,,,,
53191215,1262,1255,1256,1262,,,,,
53193714,1268,1262,1262,1269,,,,,
53196213,1275,1268,1269,1275,,,,,
53198712,1281,1275,1275,1282,,,,,
53201211,1287,1281,1282,1288,,,,,
53203710,1293,1287,1288,1294,,,,,
53206209,1300,1293,1294,1300,,,,,
53208708,1306,1299,1300,1306,,,,,
53211207,1312,1305,1306,1312,,,,,
53213706,1317,1311,1312,1318,,,,,
53216205,1323,1317,1318,1324,,,,,
53218704,1329,1323,1323,1329,,,,,
53221203,1335,1329,1329,1335,,,,,
53223702,1340,1334,1335,1341,,,,,
53226201,1346,1340,1341,1346,,,,,
53228700,1352,1346,1346,1352,,,,,
53231199,1357,1351,1352,1357,,,,,
53233698,1362,1357,1357,1363,,,,,
53236197,1368,1362,1363,1368,,,,,
53238696,1373,1368,1368,1374,,,,,
53241195,1379,1373,1373,1379,,,,,
53243694,1384,1378,1379,1384,,,,,
53246193,1389,1383,1384,1389,,,,,
53248692,1394,1389,1389,1394,,,,,
53251191,1399,1394,1394,1400,,,,,
53253690,1404,1399,1399,1405,,,,,
53256189,1409,1404,1404,1410,,,,,
53258688,1415,1409,1409,1415,,,,,
53261187,1419,1414,1414,1420,,,,,
53263686,1424,1419,1419,1425,,,,,
53266185,1429,1424,1424,1430,,,,,
53268684,1434,1429,1429,1434,,,,,
53271183,1439,1434,1434,1439,,,,,
53273682,1444,1439,1439,1444,,,,,
53276181,1449,1443,1444,1449,,,,,
53278680,1453,1448,1448,1454,,,,,
53281179,1458,1453,1453,1458,,,,,
53283678,1463,1457,1458,1463,,,,,
53286177,1467,1462,1463,1468,,,,,
53288676,1472,1467,1467,1472,,,,,
53291175,1477,1471,1472,1477,,,,,
53293674,1481,1476,1476,1481,,,,,
53296173,1486,1481,1481,1486,,,,,
53298672,1490,1485,1485,1490,,,,,
53301171,1495,1490,1490,1495,,,,,
53303670,1499,1494,1494,1499,,,,,
53306169,1504,1498,1499,1504,,,,,
53308668,1508,1503,1503,1508,,,,,
53311167,1512,1507,1508,1513,,,,,
53313666,1517,1512,1512,1517,,,,,
53316165,1521,1516,1516,1521,,,,,
53318664,1525,1520,1521,1526,,,,,
53321163,1530,1525,1525,1530,,,,,
53323662,1534,1529,1529,1534,,,,,
53326161,1538,1533,1533,1538,,,,,
53328660,1542,1537,1538,1543,,,,,
53331159,1546,1541,1542,1547,,,,,
53333658,1551,1546,1546,1551,,,,,
53336157,1555,1550,1550,1555,,,,,
53338656,1559,1554,1554,1559,,,,,
53341155,1563,1558,1558,1563,,,,,
53343654,1567,1562,1562,1567,,,,,
53346153,1571,1566,1566,1571,,,,,
53348652,1575,1570,1570,1575,,,,,
53351151,1579,1574,1574,1579,,,,,
53353650,1583,1578,1578,1583,,,,,
53356149,1587,1582,1582,1587,,,,,
53358648,1591,1586,1586,1591,,,,,
53361147,1595,1590,1590,1595,,,,,
53363646,1599,1594,1594,1599,,,,,
53366145,1603,1598,1598,1603,,,,,
53368644,1607,1602,1602,1607,,,,,
53371143,1611,1606,1606,1611,,,,,
53373642,1614,1610,1610,1615,,,,,
53376141,1618,1614,1614,1619,,,,,
53378640,1622,1617,1618,1622,,,,,
53381139,1626,1621,1621,1626,,,,,
53383638,1630,1625,1625,1630,,,,,
53386137,1633,1629,1629,1634,,,,,
53388636,1637,1633,1633,1638,,,,,
53391135,1641,1636,1636,1641,,,,,
53393634,1645,1640,1640,1645,,,,,
53396133,1648,1644,1644,1649,,,,,
53398632,1652,1647,1648,1652,,,,,
53401131,1656,1651,1651,1656,,,,,
53403630,1659,1655,1655,1660,,,,,
53406129,1663,1658,1659,1663,,,,,
53408628,1667,1662,1662,1667,,,,,
53411127,1670,1666,1666,1671,,,,,
53413626,1674,1669,1670,1674,,,,,
53416125,1677,1673,1673,1678,,,,,
53418624,1681,1676,1677,1681,,,,,
53421123,1685,1680,1680,1685,,,,,
53423622,1688,1684,1684,1688,,,,,
53426121,1692,1687,1687,1692,,,,,
53428620,1695,1691,1691,1695,,,,,
53431119,1699,1694,1694,1699,,,,,
53433618,1702,1698,1698,1702,,,,,
53436117,1706,1701,1701,1706,,,,,
53438616,1709,1705,1705,1709,,,,,
53441115,1713,1708,1708,1713,,,,,
53443614,1716,1711,1712,1716,,,,,
53446113,1720,1715,1715,1720,,,,,
53448612,1723,1718,1719,1723,,,,,
53451111,1726,1722,1722,1726,,,,,
53453610,1730,1725,1726,1730,,,,,
53456109,1733,1729,1729,1733,,,,,
53458608,1737,1732,1732,1737,,,,,
53461107,1740,1735,1736,1740,,,,,
53463606,1743,1739,1739,1743,,,,,
53466105,1747,1742,1743,1747,,,,,
53468604,1750,1745,1746,1750,,,,,
53471103,1753,1749,1749,1753,,,,,
53473602,1757,1752,1753,1756,,,,,
53476101,1760,1755,1756,1760,,,,,
53478600,1763,1759,1759,1763,,,,,
53481099,1766,1762,1762,1766,,,,,
53483598,1770,1765,1766,1770,,,,,
53486097,1773,1768,1769,1773,,,,,
53488596,1776,1772,1772,1776,,,,,
53491095,1779,1775,1775,1779,,,,,
53493594,1783,1778,1779,1783,,,,,
53496093,1786,1781,1782,1786,,,,,
53498592,1789,1784,1785,1789,,,,,
53501091,1792,1788,1788,1792,,,,,
53503590,1795,1791,1791,1795,,,,,
53506089,1799,1794,1795,1798,,,,,
53508588,1802,1797,1798,1802,,,,,
53511087,1805,1800,1801,1805,,,,,
53513586,1808,1804,1804,1808,,,,,
53516085,1811,1807,1807,1811,,,,,
53518584,1814,1810,1810,1814,,,,,
53521083,1817,1813,1813,1817,,,,,
53523582,1820,1816,1817,1820,,,,,
53526081,1824,1819,1820,1824,,,,,
53528580,1827,1822,1823,1827,,,,,
53531079,1830,1825,1826,1830,,,,,
53533578,1833,1828,1829,1833,,,,,
53536077,1836,1832,1832,1836,,,,,
53538576,1839,1835,1835,1839,,,,,
53541075,1842,1838,1838,1842,,,,,
53543574,1845,1841,1841,1845,,,,,
53546073,1848,1844,1844,1848,,,,,
53548572,1851,1847,1847,1851,,,,,
53551071,1854,1850,1850,1854,,,,,
53553570,1857,1853,1853,1857,,,,,
53556069,1860,1856,1856,1860,,,,,
53558568,1863,1859,1859,1863,,,,,
53561067,1866,1862,1862,1866,,,,,
53563566,1869,1865,1865,1869,,,,,
53566065,1872,1868,1868,1872,,,,,
53568564,1875,1871,1871,1875,,,,,
53571063,1878,1874,1874,1878,,,,,
53573562,1881,1877,1877,1881,,,,,
53576061,1884,1880,1880,1884,,,,,
53578560,1887,1882,1883,1887,,,,,
53581059,1890,1885,1886,1889,,,,,
53583558,1892,1888,1889,1892,,,,,
53586057,1895,1891,1892,1895,,,,,
53588556,1898,1894,1895,1898,,,,,
53591055,1901,1897,1898,1901,,,,,
53593554,1904,1900,1900,1904,,,,,
53596053,1907,1903,1903,1907,,,,,
53598552,1910,1906,1906,1910,,,,,
53601051,1909,1905,1905,1909,,,,,
53603550,1908,1904,1904,1908,,,,,
53606049,1907,1903,1903,1907,,,,,
53608548,1906,1902,1903,1906,,,,,
53611047,1905,1901,1902,1905,,,,,
53613546,1904,1900,1901,1904,,,,,
53616045,1904,1900,1900,1904,,,,,
53618544,1903,1899,1899,1903,,,,,
53621043,1902,1898,1899,1902,,,,,
53623542,1902,1898,1898,1902,,,,,
53626041,1901,1897,1897,1901,,,,,
53628540,1901,1897,1897,1901,,,,,
53631039,1900,1896,1897,1900,,,,,
53633538,1900,1896,1896,1900,,,,,
53636037,1900,1896,1896,1900,,,,,
53638536,1900,1896,1896,1900,,,,,
53641035,1900,1895,1896,1900,,,,,
53643534,1900,1896,1896,1900,,,,,
53646033,1900,1896,1896,1900,,,,,
53648532,1900,1896,1896,1900,,,,,
53651031,1900,1896,1896,1900,,,,,
53653530,1900,1896,1897,1900,,,,,
53656029,1900,1896,1897,1900,,,,,
53658528,1900,1896,1897,1900,,,,,
53661027,1899,1896,1896,1899,,,,,
53663526,1899,1896,1896,1899,,,,,
53666025,1899,1895,1896,1899,,,,,
53668524,1898,1895,1895,1898,,,,,
53671023,1897,1894,1895,1897,,,,,
53673522,1896,1894,1894,1896,,,,,
53676021,1895,1893,1893,1895,,,,,
53678520,1894,1891,1892,1894,,,,,
53681019,1893,1890,1891,1893,,,,,
53683518,1891,1889,1889,1891,,,,,
53686017,1890,1887,1888,1890,,,,,
53688516,1888,1885,1886,1888,,,,,
53691015,1886,1883,1884,1886,,,,,
53693514,1884,1881,1882,1884,,,,,
53696013,1882,1879,1880,1882,,,,,
53698512,1880,1877,1878,1880,,,,,
53701011,1877,1875,1875,1877,,,,,
53703510,1875,1872,1873,1875,,,,,
53706009,1872,1870,1870,1872,,,,,
53708508,1870,1867,1868,1870,,,,,
53711007,1867,1865,1865,1867,,,,,
53713506,1864,1862,1862,1864,,,,,
53716005,1861,1859,1859,1861,,,,,
53718504,1858,1856,1856,1859,,,,,
53721003,1855,1853,1853,1856,,,,,
53723502,1852,1850,1851,1853,,,,,
53726001,1849,1847,1847,1849,,,,,
53728500,1846,1844,1844,1846,,,,,
53730999,1843,1841,1841,1843,,,,,
53733498,1840,1838,1838,1840,,,,,
53735997,1836,1835,1835,1837,,,,,
53738496,1833,1831,1832,1833,,,,,
53740995,1830,1828,1828,1830,,,,,
53743494,1826,1825,1825,1827,,,,,
53745993,1823,1822,1822,1823,,,,,
53748492,1820,1818,1818,1820,,,,,
53750991,1816,1815,1815,1817,,,,,
53753490,1813,1812,1812,1813,,,,,
53755989,1809,1808,1808,1810,,,,,
53758488,1806,1805,1805,1807,,,,,
53760987,1803,1802,1802,1803,,,,,
53763486,1799,1799,1798,1800,,,,,
53765985,1796,1795,1795,1797,,,,,
53768484,1793,1792,1792,1793,,,,,
53770983,1789,1789,1789,1790,,,,,
53773482,1786,1785,1785,1787,,,,,
53775981,1783,1782,1782,1783,,,,,
53778480,1779,1779,1779,1780,,,,,
53780979,1776,1776,1775,1777,,,,,
53783478,1773,1772,1772,1774,,,,,
53785977,1770,1769,1769,1770,,,,,
53788476,1766,1766,1766,1767,,,,,
53790975,1763,1763,1762,1764,,,,,
53793474,1760,1760,1759,1761,,,,,
53795973,1756,1756,1756,1757,,,,,
53798472,1753,1753,1753,1754,,,,,
53800971,1750,1750,1750,1751,,,,,
53803470,1747,1747,1747,1748,,,,,
53805969,1744,1744,1744,1745,,,,,
53808468,1741,1741,1740,1742,,,,,
53810967,1738,1738,1737,1738,,,,,
53813466,1735,1735,1734,1735,,,,,
53815965,1732,1732,1732,1732,,,,,
53818464,1729,1729,1729,1729,,,,,
53820963,1726,1726,1726,1727,,,,,
53823462,1723,1723,1723,1724,,,,,
53825961,1720,1720,1720,1721,,,,,
53828460,1717,1718,1718,1718,,,,,
53830959,1715,1715,1715,1715,,,,,
53833458,1712,1712,1712,1713,,,,,
53835957,1709,1710,1710,1710,,,,,
53838456,1707,1707,1707,1707,,,,,
53840955,1704,1705,1705,1705,,,,,
53843454,1702,1702,1702,1702,,,,,
53845953,1699,1700,1700,1700,,,,,
53848452,1697,1697,1697,1697,,,,,
53850951,1694,1695,1695,1695,,,,,
53853450,1692,1692,1692,1692,,,,,
53855949,1690,1690,1690,1690,,,,,
53858448,1687,1688,1688,1688,,,,,
53860947,1685,1686,1686,1686,,,,,
53863446,1683,1684,1684,1683,,,,,
53865945,1681,1682,1682,1681,,,,,
53868444,1679,1680,1680,1679,,,,,
53870943,1677,1678,1678,1678,,,,,
53873442,1675,1676,1676,1676,,,,,
53875941,1673,1674,1674,1674,,,,,
53878440,1671,1672,1672,1672,,,,,
53880939,1670,1671,1671,1670,,,,,
53883438,1668,1669,1669,1668,,,,,
53885937,1666,1667,1667,1667,,,,,
53888436,1665,1666,1666,1665,,,,,
53890935,1663,1664,1664,1664,,,,,
53893434,1662,1663,1663,1662,,,,,
53895933,1660,1661,1661,1661,,,,,
53898432,1659,1660,1660,1659,,,,,
53900931,1657,1659,1659,1658,,,,,
53903430,1656,1657,1657,1656,,,,,
53905929,1655,1656,1656,1655,,,,,
53908428,1653,1655,1655,1654,,,,,
53910927,1652,1654,1654,1653,,,,,
53913426,1651,1652,1652,1651,,,,,
53915925,1650,1651,1651,1650,,,,,
53918424,1649,1650,1650,1649,,,,,
53920923,1647,1649,1649,1648,,,,,
53923422,1646,1648,1648,1647,,,,,
53925921,1645,1647,1647,1645,,,,,
53928420,1644,1646,1646,1644,,,,,
53930919,1643,1645,1645,1643,,,,,
53933418,1642,1644,1644,1642,,,,,
53935917,1641,1643,1643,1641,,,,,
53938416,1640,1642,1642,1640,,,,,
53940915,1639,1641,1641,1639,,,,,
