timestamp,TimeUS,C1,C2,C3,C4,C5,C6,C7,C8,C9,C10,C11,C12,C13,C14
1684162576.10004020,53928420,1000,1000,1000,1000,0,0,0,0,0,0,0,0,0,0
1684162576.20000005,54028380,1000,1000,1000,1000,0,0,0,0,0,0,0,0,0,0
1684162576.29996014,54128340,1000,1000,1000,1000,0,0,0,0,0,0,0,0,0,0
1684162576.39992023,54228300,1000,1000,1000,1000,0,0,0,0,0,0,0,0,0,0
1684162576.49988008,54328260,1000,1000,1000,1000,0,0,0,0,0,0,0,0,0,0
1684162576.59984016,54428220,1000,1000,1000,1000,0,0,0,0,0,0,0,0,0,0
1684162576.69980001,54528180,1000,1000,1000,1000,0,0,0,0,0,0,0,0,0,0
1684162576.80059314,54628973,1000,1000,1000,1000,0,0,0,0,0,0,0,0,0,0
1684162576.90055323,54728933,1000,1000,1000,1000,0,0,0,0,0,0,0,0,0,0
1684162577.00051308,54828893,1000,1000,1000,1000,0,0,0,0,0,0,0,0,0,0
1684162577.10047317,54928853,1000,1000,1000,1000,0,0,0,0,0,0,0,0,0,0
1684162577.20043302,55028813,1000,1000,1000,1000,0,0,0,0,0,0,0,0,0,0
1684162577.30039310,55128773,1000,1000,1000,1000,0,0,0,0,0,0,0,0,0,0
1684162577.40035319,55228733,1000,1000,1000,1000,0,0,0,0,0,0,0,0,0,0
1684162577.50031304,55328693,1000,1000,1000,1000,0,0,0,0,0,0,0,0,0,0
1684162577.60027313,55428653,1000,1000,1000,1000,0,0,0,0,0,0,0,0,0,0
1684162577.70023322,55528613,1000,1000,1000,1000,0,0,0,0,0,0,0,0,0,0
1684162577.80019307,55628573,1000,1000,1000,1000,0,0,0,0,0,0,0,0,0,0
1684162577.90015316,55728533,1000,1000,1000,1000,0,0,0,0,0,0,0,0,0,0
1684162578.00011325,55828493,1000,1000,1000,1000,0,0,0,0,0,0,0,0,0,0
1684162578.10007310,55928453,1003,1003,1003,1003,0,0,0,0,0,0,0,0,0,0
1684162578.20003319,56028413,1033,1033,1033,1033,0,0,0,0,0,0,0,0,0,0
1684162578.29999304,56128373,1063,1063,1063,1063,0,0,0,0,0,0,0,0,0,0
1684162578.39995313,56228333,1093,1093,1093,1093,0,0,0,0,0,0,0,0,0,0
1684162578.49991322,56328293,1123,1123,1123,1123,0,0,0,0,0,0,0,0,0,0
1684162578.59987307,56428253,1185,1177,1178,1185,0,0,0,0,0,0,0,0,0,0
1684162578.69983315,56528213,1425,1419,1419,1425,0,0,0,0,0,0,0,0,0,0
1684162578.79979324,56628173,1599,1594,1594,1599,0,0,0,0,0,0,0,0,0,0
1684162578.90058613,56728966,1744,1738,1739,1744,0,0,0,0,0,0,0,0,0,0
1684162579.00054622,56828926,1870,1864,1865,1869,0,0,0,0,0,0,0,0,0,0
1684162579.10050607,56928886,1907,1904,1904,1907,0,0,0,0,0,0,0,0,0,0
1684162579.20046616,57028846,1798,1797,1795,1799,0,0,0,0,0,0,0,0,0,0
1684162579.30042624,57128806,1677,1677,1675,1680,0,0,0,0,0,0,0,0,0,0
1684162579.40038610,57228766,1623,1624,1622,1625,0,0,0,0,0,0,0,0,0,0
1684162579.50034618,57328726,1617,1619,1618,1618,0,0,0,0,0,0,0,0,0,0
1684162579.60030603,57428686,1624,1625,1626,1623,0,0,0,0,0,0,0,0,0,0
1684162579.70026612,57528646,1625,1626,1627,1624,0,0,0,0,0,0,0,0,0,0
1684162579.80022621,57628606,1621,1620,1621,1619,0,0,0,0,0,0,0,0,0,0
1684162579.90018606,57728566,1617,1615,1616,1615,0,0,0,0,0,0,0,0,0,0
1684162580.00014615,57828526,1613,1613,1612,1614,0,0,0,0,0,0,0,0,0,0
1684162580.10010624,57928486,1613,1613,1612,1613,0,0,0,0,0,0,0,0,0,0
1684162580.20006609,58028446,1614,1614,1614,1614,0,0,0,0,0,0,0,0,0,0
1684162580.30002618,58128406,1617,1616,1617,1615,0,0,0,0,0,0,0,0,0,0
1684162580.39998603,58228366,1595,1596,1600,1591,0,0,0,0,0,0,0,0,0,0
1684162580.49994612,58328326,1577,1578,1585,1570,0,0,0,0,0,0,0,0,0,0
1684162580.59990621,58428286,1566,1566,1570,1563,0,0,0,0,0,0,0,0,0,0
1684162580.69986606,58528246,1556,1556,1555,1557,0,0,0,0,0,0,0,0,0,0
1684162580.79982615,58628206,1548,1547,1541,1555,0,0,0,0,0,0,0,0,0,0
1684162580.89978623,58728166,1541,1540,1532,1549,0,0,0,0,0,0,0,0,0,0
1684162581.00057912,58828959,1535,1535,1528,1541,0,0,0,0,0,0,0,0,0,0
1684162581.10053921,58928919,1530,1529,1526,1533,0,0,0,0,0,0,0,0,0,0
1684162581.20049906,59028879,1526,1526,1526,1526,0,0,0,0,0,0,0,0,0,0
1684162581.30045915,59128839,1527,1528,1529,1526,0,0,0,0,0,0,0,0,0,0
1684162581.40041924,59228799,1529,1530,1533,1527,0,0,0,0,0,0,0,0,0,0
1684162581.50037909,59328759,1532,1533,1536,1530,0,0,0,0,0,0,0,0,0,0
1684162581.60033917,59428719,1537,1537,1540,1535,0,0,0,0,0,0,0,0,0,0
1684162581.70029902,59528679,1540,1541,1543,1539,0,0,0,0,0,0,0,0,0,0
1684162581.80025911,59628639,1544,1544,1545,1544,0,0,0,0,0,0,0,0,0,0
1684162581.90021920,59728599,1548,1547,1547,1548,0,0,0,0,0,0,0,0,0,0
1684162582.00017905,59828559,1550,1550,1550,1551,0,0,0,0,0,0,0,0,0,0
1684162582.10013914,59928519,1553,1552,1552,1554,0,0,0,0,0,0,0,0,0,0
1684162582.20009923,60028479,1555,1555,1553,1556,0,0,0,0,0,0,0,0,0,0
1684162582.30005908,60128439,1552,1552,1560,1562,0,0,0,0,0,0,0,0,0,0
1684162582.40001917,60228399,1554,1555,1563,1565,0,0,0,0,0,0,0,0,0,0
1684162582.49997902,60328359,1558,1558,1565,1565,0,0,0,0,0,0,0,0,0,0
1684162582.59993911,60428319,1560,1561,1565,1564,0,0,0,0,0,0,0,0,0,0
1684162582.69989920,60528279,1564,1564,1565,1565,0,0,0,0,0,0,0,0,0,0
1684162582.79985905,60628239,1566,1566,1565,1564,0,0,0,0,0,0,0,0,0,0
1684162582.89981914,60728199,1568,1568,1565,1564,0,0,0,0,0,0,0,0,0,0
1684162582.99977922,60828159,1570,1570,1565,1565,0,0,0,0,0,0,0,0,0,0
1684162583.10057211,60928952,1572,1571,1566,1566,0,0,0,0,0,0,0,0,0,0
1684162583.20053220,61028912,1572,1572,1566,1567,0,0,0,0,0,0,0,0,0,0
1684162583.30049205,61128872,1573,1572,1568,1568,0,0,0,0,0,0,0,0,0,0
1684162583.40045214,61228832,1574,1574,1570,1571,0,0,0,0,0,0,0,0,0,0
1684162583.50041223,61328792,1574,1574,1572,1572,0,0,0,0,0,0,0,0,0,0
1684162583.60037208,61428752,1574,1574,1573,1572,0,0,0,0,0,0,0,0,0,0
1684162583.70033216,61528712,1574,1574,1575,1574,0,0,0,0,0,0,0,0,0,0
1684162583.80029202,61628672,1574,1574,1575,1574,0,0,0,0,0,0,0,0,0,0
1684162583.90025210,61728632,1574,1574,1577,1576,0,0,0,0,0,0,0,0,0,0
1684162584.00021219,61828592,1573,1574,1576,1575,0,0,0,0,0,0,0,0,0,0
1684162584.10017204,61928552,1574,1574,1576,1576,0,0,0,0,0,0,0,0,0,0
1684162584.20013213,62028512,1574,1575,1576,1576,0,0,0,0,0,0,0,0,0,0
1684162584.30009222,62128472,1574,1575,1576,1576,0,0,0,0,0,0,0,0,0,0
1684162584.40005207,62228432,1576,1577,1577,1578,0,0,0,0,0,0,0,0,0,0
1684162584.50001216,62328392,1576,1576,1576,1577,0,0,0,0,0,0,0,0,0,0
1684162584.59997225,62428352,1578,1577,1577,1577,0,0,0,0,0,0,0,0,0,0
1684162584.69993210,62528312,1577,1576,1576,1576,0,0,0,0,0,0,0,0,0,0
1684162584.79989219,62628272,1578,1578,1577,1577,0,0,0,0,0,0,0,0,0,0
1684162584.89985204,62728232,1578,1578,1577,1577,0,0,0,0,0,0,0,0,0,0
1684162584.99981213,62828192,1578,1577,1577,1576,0,0,0,0,0,0,0,0,0,0
1684162585.10060525,62928985,1578,1579,1578,1578,0,0,0,0,0,0,0,0,0,0
1684162585.20056510,63028945,1578,1579,1578,1578,0,0,0,0,0,0,0,0,0,0
1684162585.30052519,63128905,1578,1578,1578,1578,0,0,0,0,0,0,0,0,0,0
1684162585.40048504,63228865,1578,1578,1578,1578,0,0,0,0,0,0,0,0,0,0
1684162585.50044513,63328825,1578,1579,1579,1579,0,0,0,0,0,0,0,0,0,0
1684162585.60040522,63428785,1578,1578,1578,1578,0,0,0,0,0,0,0,0,0,0
1684162585.70036507,63528745,1578,1578,1579,1579,0,0,0,0,0,0,0,0,0,0
1684162585.80032516,63628705,1578,1577,1578,1578,0,0,0,0,0,0,0,0,0,0
1684162585.90028524,63728665,1578,1578,1579,1579,0,0,0,0,0,0,0,0,0,0
1684162586.00024509,63828625,1577,1578,1578,1577,0,0,0,0,0,0,0,0,0,0
1684162586.10020518,63928585,1579,1578,1579,1579,0,0,0,0,0,0,0,0,0,0
1684162586.20016503,64028545,1578,1578,1579,1579,0,0,0,0,0,0,0,0,0,0
1684162586.30012512,64128505,1579,1578,1579,1579,0,0,0,0,0,0,0,0,0,0
1684162586.40008521,64228465,1579,1579,1579,1579,0,0,0,0,0,0,0,0,0,0
1684162586.50004506,64328425,1579,1578,1578,1578,0,0,0,0,0,0,0,0,0,0
1684162586.60000515,64428385,1579,1579,1579,1579,0,0,0,0,0,0,0,0,0,0
1684162586.69996524,64528345,1579,1579,1579,1579,0,0,0,0,0,0,0,0,0,0
1684162586.79992509,64628305,1580,1580,1580,1580,0,0,0,0,0,0,0,0,0,0
1684162586.89988518,64728265,1581,1581,1581,1581,0,0,0,0,0,0,0,0,0,0
1684162586.99984503,64828225,1581,1581,1581,1580,0,0,0,0,0,0,0,0,0,0
1684162587.09980512,64928185,1581,1581,1581,1581,0,0,0,0,0,0,0,0,0,0
1684162587.20059824,65028978,1580,1580,1580,1580,0,0,0,0,0,0,0,0,0,0
1684162587.30055809,65128938,1581,1581,1581,1581,0,0,0,0,0,0,0,0,0,0
1684162587.40051818,65228898,1580,1580,1580,1580,0,0,0,0,0,0,0,0,0,0
1684162587.50047803,65328858,1581,1581,1581,1581,0,0,0,0,0,0,0,0,0,0
1684162587.60043812,65428818,1580,1580,1580,1580,0,0,0,0,0,0,0,0,0,0
1684162587.70039821,65528778,1581,1581,1581,1581,0,0,0,0,0,0,0,0,0,0
1684162587.80035806,65628738,1580,1580,1580,1580,0,0,0,0,0,0,0,0,0,0
1684162587.90031815,65728698,1581,1581,1581,1581,0,0,0,0,0,0,0,0,0,0
1684162588.00027823,65828658,1581,1581,1581,1581,0,0,0,0,0,0,0,0,0,0
1684162588.10023808,65928618,1581,1580,1581,1580,0,0,0,0,0,0,0,0,0,0
1684162588.20019817,66028578,1580,1580,1580,1580,0,0,0,0,0,0,0,0,0,0
1684162588.30015802,66128538,1581,1581,1581,1582,0,0,0,0,0,0,0,0,0,0
1684162588.40011811,66228498,1581,1581,1581,1581,0,0,0,0,0,0,0,0,0,0
1684162588.50007820,66328458,1581,1582,1588,1574,0,0,0,0,0,0,0,0,0,0
1684162588.60003805,66428418,1579,1582,1585,1573,0,0,0,0,0,0,0,0,0,0
1684162588.69999814,66528378,1578,1582,1576,1574,0,0,0,0,0,0,0,0,0,0
1684162588.79995823,66628338,1578,1580,1568,1572,0,0,0,0,0,0,0,0,0,0
1684162588.89991808,66728298,1576,1578,1560,1567,0,0,0,0,0,0,0,0,0,0
1684162588.99987817,66828258,1578,1578,1557,1563,0,0,0,0,0,0,0,0,0,0
1684162589.09983802,66928218,1580,1578,1556,1559,0,0,0,0,0,0,0,0,0,0
1684162589.19979811,67028178,1580,1579,1556,1556,0,0,0,0,0,0,0,0,0,0
1684162589.30059123,67128971,1580,1578,1556,1555,0,0,0,0,0,0,0,0,0,0
1684162589.40055108,67228931,1579,1579,1557,1555,0,0,0,0,0,0,0,0,0,0
1684162589.50051117,67328891,1579,1579,1557,1556,0,0,0,0,0,0,0,0,0,0
1684162589.60047102,67428851,1577,1578,1556,1555,0,0,0,0,0,0,0,0,0,0
1684162589.70043111,67528811,1576,1578,1555,1555,0,0,0,0,0,0,0,0,0,0
1684162589.80039120,67628771,1575,1577,1553,1553,0,0,0,0,0,0,0,0,0,0
1684162589.90035105,67728731,1576,1577,1552,1553,0,0,0,0,0,0,0,0,0,0
1684162590.00031114,67828691,1576,1578,1550,1550,0,0,0,0,0,0,0,0,0,0
1684162590.10027122,67928651,1578,1579,1547,1547,0,0,0,0,0,0,0,0,0,0
1684162590.20023108,68028611,1581,1582,1545,1545,0,0,0,0,0,0,0,0,0,0
1684162590.30019116,68128571,1584,1585,1543,1543,0,0,0,0,0,0,0,0,0,0
1684162590.40015101,68228531,1588,1588,1541,1540,0,0,0,0,0,0,0,0,0,0
1684162590.50011110,68328491,1590,1591,1538,1538,0,0,0,0,0,0,0,0,0,0
1684162590.60007119,68428451,1593,1594,1536,1536,0,0,0,0,0,0,0,0,0,0
1684162590.70003104,68528411,1595,1595,1535,1536,0,0,0,0,0,0,0,0,0,0
1684162590.79999113,68628371,1596,1595,1535,1537,0,0,0,0,0,0,0,0,0,0
1684162590.89995122,68728331,1594,1593,1536,1538,0,0,0,0,0,0,0,0,0,0
1684162590.99991107,68828291,1591,1591,1539,1541,0,0,0,0,0,0,0,0,0,0
1684162591.09987116,68928251,1587,1586,1544,1547,0,0,0,0,0,0,0,0,0,0
1684162591.19983125,69028211,1582,1580,1553,1556,0,0,0,0,0,0,0,0,0,0
1684162591.29979110,69128171,1574,1570,1563,1565,0,0,0,0,0,0,0,0,0,0
1684162591.40058422,69228964,1564,1561,1575,1577,0,0,0,0,0,0,0,0,0,0
1684162591.50054407,69328924,1553,1549,1587,1589,0,0,0,0,0,0,0,0,0,0
1684162591.60050416,69428884,1543,1541,1599,1600,0,0,0,0,0,0,0,0,0,0
1684162591.70046425,69528844,1535,1534,1608,1607,0,0,0,0,0,0,0,0,0,0
1684162591.80042410,69628804,1531,1532,1614,1613,0,0,0,0,0,0,0,0,0,0
1684162591.90038419,69728764,1530,1531,1616,1615,0,0,0,0,0,0,0,0,0,0
1684162592.00034404,69828724,1532,1535,1614,1613,0,0,0,0,0,0,0,0,0,0
1684162592.10030413,69928684,1537,1539,1609,1608,0,0,0,0,0,0,0,0,0,0
1684162592.20026422,70028644,1545,1547,1603,1604,0,0,0,0,0,0,0,0,0,0
1684162592.30022407,70128604,1554,1555,1595,1596,0,0,0,0,0,0,0,0,0,0
1684162592.40018415,70228564,1563,1563,1588,1588,0,0,0,0,0,0,0,0,0,0
1684162592.50014424,70328524,1570,1570,1580,1580,0,0,0,0,0,0,0,0,0,0
1684162592.60010409,70428484,1577,1576,1574,1574,0,0,0,0,0,0,0,0,0,0
1684162592.70006418,70528444,1583,1581,1570,1569,0,0,0,0,0,0,0,0,0,0
1684162592.80002403,70628404,1585,1584,1567,1566,0,0,0,0,0,0,0,0,0,0
1684162592.89998412,70728364,1588,1586,1566,1566,0,0,0,0,0,0,0,0,0,0
1684162592.99994421,70828324,1587,1586,1566,1567,0,0,0,0,0,0,0,0,0,0
1684162593.09990406,70928284,1586,1585,1568,1569,0,0,0,0,0,0,0,0,0,0
1684162593.19986415,71028244,1404,1403,1573,1574,0,0,0,0,0,0,0,0,0,0
1684162593.29982424,71128204,1463,1465,1613,1617,0,0,0,0,0,0,0,0,0,0
1684162593.39978409,71228164,1500,1506,1614,1614,0,0,0,0,0,0,0,0,0,0
1684162593.50057721,71328957,1536,1541,1607,1603,0,0,0,0,0,0,0,0,0,0
1684162593.60053706,71428917,1565,1569,1596,1591,0,0,0,0,0,0,0,0,0,0
1684162593.70049715,71528877,1588,1588,1587,1583,0,0,0,0,0,0,0,0,0,0
1684162593.80045724,71628837,1604,1601,1582,1580,0,0,0,0,0,0,0,0,0,0
1684162593.90041709,71728797,1612,1607,1576,1577,0,0,0,0,0,0,0,0,0,0
1684162594.00037718,71828757,1617,1612,1573,1576,0,0,0,0,0,0,0,0,0,0
1684162594.10033703,71928717,1618,1614,1572,1575,0,0,0,0,0,0,0,0,0,0
1684162594.20029712,72028677,1617,1615,1570,1574,0,0,0,0,0,0,0,0,0,0
1684162594.30025721,72128637,1620,1620,1563,1566,0,0,0,0,0,0,0,0,0,0
1684162594.40021706,72228597,1620,1622,1557,1559,0,0,0,0,0,0,0,0,0,0
1684162594.50017715,72328557,1619,1620,1558,1558,0,0,0,0,0,0,0,0,0,0
1684162594.60013723,72428517,1614,1613,1561,1561,0,0,0,0,0,0,0,0,0,0
1684162594.70009708,72528477,1606,1605,1569,1569,0,0,0,0,0,0,0,0,0,0
1684162594.80005717,72628437,1596,1594,1577,1576,0,0,0,0,0,0,0,0,0,0
1684162594.90001702,72728397,1587,1586,1583,1583,0,0,0,0,0,0,0,0,0,0
1684162594.99997711,72828357,1580,1580,1585,1585,0,0,0,0,0,0,0,0,0,0
1684162595.09993720,72928317,1576,1577,1587,1587,0,0,0,0,0,0,0,0,0,0
1684162595.19989705,73028277,1574,1575,1587,1587,0,0,0,0,0,0,0,0,0,0
1684162595.29985714,73128237,1573,1575,1586,1586,0,0,0,0,0,0,0,0,0,0
1684162595.39981723,73228197,1574,1575,1586,1585,0,0,0,0,0,0,0,0,0,0
1684162595.49977708,73328157,1574,1575,1586,1585,0,0,0,0,0,0,0,0,0,0
1684162595.60057020,73428950,1575,1576,1584,1583,0,0,0,0,0,0,0,0,0,0
1684162595.70053005,73528910,1575,1576,1583,1582,0,0,0,0,0,0,0,0,0,0
1684162595.80049014,73628870,1577,1578,1583,1582,0,0,0,0,0,0,0,0,0,0
1684162595.90045023,73728830,1577,1578,1581,1581,0,0,0,0,0,0,0,0,0,0
1684162596.00041008,73828790,1579,1578,1580,1580,0,0,0,0,0,0,0,0,0,0
1684162596.10037017,73928750,1579,1579,1579,1579,0,0,0,0,0,0,0,0,0,0
1684162596.20033002,74028710,1580,1580,1578,1579,0,0,0,0,0,0,0,0,0,0
1684162596.30029011,74128670,1580,1580,1578,1578,0,0,0,0,0,0,0,0,0,0
1684162596.40025020,74228630,1581,1581,1578,1578,0,0,0,0,0,0,0,0,0,0
1684162596.50021005,74328590,1583,1581,1585,1572,0,0,0,0,0,0,0,0,0,0
1684162596.60017014,74428550,1583,1580,1583,1571,0,0,0,0,0,0,0,0,0,0
1684162596.70013022,74528510,1582,1580,1575,1571,0,0,0,0,0,0,0,0,0,0
1684162596.80009007,74628470,1579,1578,1565,1569,0,0,0,0,0,0,0,0,0,0
1684162596.90005016,74728430,1576,1578,1559,1565,0,0,0,0,0,0,0,0,0,0
1684162597.00001001,74828390,1574,1578,1557,1561,0,0,0,0,0,0,0,0,0,0
1684162597.09997010,74928350,1574,1578,1556,1559,0,0,0,0,0,0,0,0,0,0
1684162597.19993019,75028310,1574,1576,1556,1555,0,0,0,0,0,0,0,0,0,0
1684162597.29989004,75128270,1575,1576,1556,1554,0,0,0,0,0,0,0,0,0,0
1684162597.39985013,75228230,1575,1575,1556,1553,0,0,0,0,0,0,0,0,0,0
1684162597.49981022,75328190,1575,1574,1554,1552,0,0,0,0,0,0,0,0,0,0
1684162597.60060310,75428983,1575,1574,1553,1552,0,0,0,0,0,0,0,0,0,0
1684162597.70056319,75528943,1575,1575,1552,1552,0,0,0,0,0,0,0,0,0,0
1684162597.80052304,75628903,1575,1576,1551,1552,0,0,0,0,0,0,0,0,0,0
1684162597.90048313,75728863,1575,1577,1549,1550,0,0,0,0,0,0,0,0,0,0
1684162598.00044322,75828823,1575,1577,1547,1546,0,0,0,0,0,0,0,0,0,0
1684162598.10040307,75928783,1577,1579,1546,1545,0,0,0,0,0,0,0,0,0,0
1684162598.20036316,76028743,1579,1580,1544,1543,0,0,0,0,0,0,0,0,0,0
1684162598.30032325,76128703,1581,1582,1542,1541,0,0,0,0,0,0,0,0,0,0
1684162598.40028310,76228663,1584,1584,1540,1539,0,0,0,0,0,0,0,0,0,0
1684162598.50024319,76328623,1586,1586,1538,1538,0,0,0,0,0,0,0,0,0,0
1684162598.60020304,76428583,1589,1588,1537,1537,0,0,0,0,0,0,0,0,0,0
1684162598.70016313,76528543,1590,1590,1536,1537,0,0,0,0,0,0,0,0,0,0
1684162598.80012321,76628503,1591,1591,1536,1538,0,0,0,0,0,0,0,0,0,0
1684162598.90008307,76728463,1590,1589,1537,1539,0,0,0,0,0,0,0,0,0,0
1684162599.00004315,76828423,1589,1588,1541,1544,0,0,0,0,0,0,0,0,0,0
1684162599.10000324,76928383,1587,1586,1546,1549,0,0,0,0,0,0,0,0,0,0
1684162599.19996309,77028343,1582,1581,1550,1553,0,0,0,0,0,0,0,0,0,0
1684162599.29992318,77128303,1578,1576,1556,1560,0,0,0,0,0,0,0,0,0,0
1684162599.39988303,77228263,1571,1570,1562,1565,0,0,0,0,0,0,0,0,0,0
1684162599.49984312,77328223,1566,1563,1571,1574,0,0,0,0,0,0,0,0,0,0
1684162599.59980321,77428183,1558,1556,1578,1580,0,0,0,0,0,0,0,0,0,0
1684162599.70059609,77528976,1552,1550,1588,1588,0,0,0,0,0,0,0,0,0,0
1684162599.80055618,77628936,1544,1543,1595,1594,0,0,0,0,0,0,0,0,0,0
1684162599.90051603,77728896,1538,1537,1602,1601,0,0,0,0,0,0,0,0,0,0
1684162600.00047612,77828856,1533,1533,1608,1606,0,0,0,0,0,0,0,0,0,0
1684162600.10043621,77928816,1530,1532,1610,1610,0,0,0,0,0,0,0,0,0,0
1684162600.20039606,78028776,1531,1533,1609,1609,0,0,0,0,0,0,0,0,0,0
1684162600.30035615,78128736,1536,1538,1607,1606,0,0,0,0,0,0,0,0,0,0
1684162600.40031624,78228696,1541,1543,1600,1601,0,0,0,0,0,0,0,0,0,0
1684162600.50027609,78328656,1549,1551,1593,1594,0,0,0,0,0,0,0,0,0,0
1684162600.60023618,78428616,1558,1559,1586,1586,0,0,0,0,0,0,0,0,0,0
1684162600.70019603,78528576,1567,1567,1580,1579,0,0,0,0,0,0,0,0,0,0
1684162600.80015612,78628536,1574,1573,1574,1573,0,0,0,0,0,0,0,0,0,0
1684162600.90011621,78728496,1581,1580,1571,1570,0,0,0,0,0,0,0,0,0,0
1684162601.00007606,78828456,1585,1583,1568,1568,0,0,0,0,0,0,0,0,0,0
1684162601.10003614,78928416,1587,1586,1568,1568,0,0,0,0,0,0,0,0,0,0
1684162601.19999623,79028376,1587,1586,1567,1567,0,0,0,0,0,0,0,0,0,0
1684162601.29995608,79128336,1588,1586,1569,1569,0,0,0,0,0,0,0,0,0,0
1684162601.39991617,79228296,1587,1586,1571,1571,0,0,0,0,0,0,0,0,0,0
1684162601.49987602,79328256,1585,1584,1572,1572,0,0,0,0,0,0,0,0,0,0
1684162601.59983611,79428216,1584,1584,1574,1575,0,0,0,0,0,0,0,0,0,0
1684162601.69979620,79528176,1582,1582,1576,1576,0,0,0,0,0,0,0,0,0,0
1684162601.80058908,79628969,1581,1582,1578,1578,0,0,0,0,0,0,0,0,0,0
1684162601.90054917,79728929,1579,1580,1579,1579,0,0,0,0,0,0,0,0,0,0
1684162602.00050902,79828889,1578,1578,1580,1580,0,0,0,0,0,0,0,0,0,0
1684162602.10046911,79928849,1576,1577,1580,1580,0,0,0,0,0,0,0,0,0,0
1684162602.20042920,80028809,1576,1576,1581,1581,0,0,0,0,0,0,0,0,0,0
1684162602.30038905,80128769,1575,1575,1581,1581,0,0,0,0,0,0,0,0,0,0
1684162602.40034914,80228729,1575,1576,1582,1582,0,0,0,0,0,0,0,0,0,0
1684162602.50030923,80328689,1576,1577,1583,1583,0,0,0,0,0,0,0,0,0,0
1684162602.60026908,80428649,1576,1577,1582,1582,0,0,0,0,0,0,0,0,0,0
1684162602.70022917,80528609,1577,1577,1581,1581,0,0,0,0,0,0,0,0,0,0
1684162602.80018902,80628569,1577,1577,1580,1580,0,0,0,0,0,0,0,0,0,0
1684162602.90014911,80728529,1579,1579,1580,1580,0,0,0,0,0,0,0,0,0,0
1684162603.00010920,80828489,1579,1579,1579,1580,0,0,0,0,0,0,0,0,0,0
1684162603.10006905,80928449,1580,1580,1580,1580,0,0,0,0,0,0,0,0,0,0
1684162603.20002913,81028409,1581,1580,1579,1579,0,0,0,0,0,0,0,0,0,0
1684162603.29998922,81128369,1581,1581,1579,1579,0,0,0,0,0,0,0,0,0,0
1684162603.39994907,81228329,1581,1581,1578,1578,0,0,0,0,0,0,0,0,0,0
1684162603.49990916,81328289,1582,1581,1579,1578,0,0,0,0,0,0,0,0,0,0
1684162603.59986901,81428249,1582,1581,1579,1579,0,0,0,0,0,0,0,0,0,0
1684162603.69982910,81528209,1581,1582,1579,1579,0,0,0,0,0,0,0,0,0,0
1684162603.79978919,81628169,1582,1582,1579,1580,0,0,0,0,0,0,0,0,0,0
1684162603.90058208,81728962,1581,1581,1580,1580,0,0,0,0,0,0,0,0,0,0
1684162604.00054216,81828922,1581,1581,1580,1580,0,0,0,0,0,0,0,0,0,0
1684162604.10050201,81928882,1582,1581,1582,1581,0,0,0,0,0,0,0,0,0,0
1684162604.20046210,82028842,1581,1581,1581,1581,0,0,0,0,0,0,0,0,0,0
1684162604.30042219,82128802,1581,1582,1582,1582,0,0,0,0,0,0,0,0,0,0
1684162604.40038204,82228762,1580,1581,1582,1582,0,0,0,0,0,0,0,0,0,0
1684162604.50034213,82328722,1581,1581,1582,1582,0,0,0,0,0,0,0,0,0,0
1684162604.60030222,82428682,1580,1580,1581,1581,0,0,0,0,0,0,0,0,0,0
1684162604.70026207,82528642,1580,1580,1581,1581,0,0,0,0,0,0,0,0,0,0
1684162604.80022216,82628602,1581,1581,1581,1581,0,0,0,0,0,0,0,0,0,0
1684162604.90018225,82728562,1582,1581,1581,1581,0,0,0,0,0,0,0,0,0,0
1684162605.00014210,82828522,1582,1581,1582,1582,0,0,0,0,0,0,0,0,0,0
1684162605.10010219,82928482,1582,1582,1582,1582,0,0,0,0,0,0,0,0,0,0
1684162605.20006204,83028442,1581,1582,1587,1575,0,0,0,0,0,0,0,0,0,0
1684162605.30002213,83128402,1581,1582,1585,1573,0,0,0,0,0,0,0,0,0,0
1684162605.39998221,83228362,1580,1581,1577,1573,0,0,0,0,0,0,0,0,0,0
1684162605.49994206,83328322,1578,1580,1568,1571,0,0,0,0,0,0,0,0,0,0
1684162605.59990215,83428282,1576,1578,1560,1566,0,0,0,0,0,0,0,0,0,0
1684162605.69986224,83528242,1577,1578,1556,1563,0,0,0,0,0,0,0,0,0,0
1684162605.79982209,83628202,1578,1579,1556,1559,0,0,0,0,0,0,0,0,0,0
1684162605.89978218,83728162,1578,1578,1556,1556,0,0,0,0,0,0,0,0,0,0
1684162606.00057507,83828955,1578,1577,1555,1554,0,0,0,0,0,0,0,0,0,0
1684162606.10053515,83928915,1578,1577,1556,1553,0,0,0,0,0,0,0,0,0,0
1684162606.20049524,84028875,1577,1577,1556,1554,0,0,0,0,0,0,0,0,0,0
1684162606.30045509,84128835,1576,1576,1555,1554,0,0,0,0,0,0,0,0,0,0
1684162606.40041518,84228795,1576,1577,1556,1555,0,0,0,0,0,0,0,0,0,0
1684162606.50037503,84328755,1576,1577,1555,1554,0,0,0,0,0,0,0,0,0,0
1684162606.60033512,84428715,1575,1577,1552,1553,0,0,0,0,0,0,0,0,0,0
1684162606.70029521,84528675,1576,1578,1551,1551,0,0,0,0,0,0,0,0,0,0
1684162606.80025506,84628635,1577,1579,1549,1550,0,0,0,0,0,0,0,0,0,0
1684162606.90021515,84728595,1580,1581,1548,1548,0,0,0,0,0,0,0,0,0,0
1684162607.00017524,84828555,1582,1582,1545,1545,0,0,0,0,0,0,0,0,0,0
1684162607.10013509,84928515,1584,1584,1543,1543,0,0,0,0,0,0,0,0,0,0
1684162607.20009518,85028475,1764,1765,1535,1535,0,0,0,0,0,0,0,0,0,0
1684162607.30005503,85128435,1712,1710,1493,1492,0,0,0,0,0,0,0,0,0,0
1684162607.40001512,85228395,1673,1671,1496,1498,0,0,0,0,0,0,0,0,0,0
1684162607.49997520,85328355,1632,1631,1509,1514,0,0,0,0,0,0,0,0,0,0
1684162607.59993505,85428315,1593,1594,1528,1534,0,0,0,0,0,0,0,0,0,0
1684162607.69989514,85528275,1561,1561,1549,1554,0,0,0,0,0,0,0,0,0,0
1684162607.79985523,85628235,1537,1536,1565,1568,0,0,0,0,0,0,0,0,0,0
1684162607.89981508,85728195,1527,1525,1576,1578,0,0,0,0,0,0,0,0,0,0
1684162607.99977517,85828155,1521,1518,1582,1582,0,0,0,0,0,0,0,0,0,0
1684162608.10056806,85928948,1520,1517,1589,1587,0,0,0,0,0,0,0,0,0,0
1684162608.20052814,86028908,1520,1518,1593,1591,0,0,0,0,0,0,0,0,0,0
1684162608.30048823,86128868,1523,1521,1597,1595,0,0,0,0,0,0,0,0,0,0
1684162608.40044808,86228828,1524,1524,1599,1597,0,0,0,0,0,0,0,0,0,0
1684162608.50040817,86328788,1527,1528,1600,1599,0,0,0,0,0,0,0,0,0,0
1684162608.60036802,86428748,1531,1532,1600,1600,0,0,0,0,0,0,0,0,0,0
1684162608.70032811,86528708,1536,1537,1601,1601,0,0,0,0,0,0,0,0,0,0
1684162608.80028820,86628668,1539,1540,1600,1601,0,0,0,0,0,0,0,0,0,0
1684162608.90024805,86728628,1546,1546,1599,1599,0,0,0,0,0,0,0,0,0,0
1684162609.00020814,86828588,1551,1551,1596,1597,0,0,0,0,0,0,0,0,0,0
1684162609.10016823,86928548,1557,1557,1595,1595,0,0,0,0,0,0,0,0,0,0
1684162609.20012808,87028508,1563,1563,1594,1593,0,0,0,0,0,0,0,0,0,0
1684162609.30008817,87128468,1566,1567,1592,1590,0,0,0,0,0,0,0,0,0,0
1684162609.40004802,87228428,1569,1571,1588,1588,0,0,0,0,0,0,0,0,0,0
1684162609.50000811,87328388,1573,1574,1587,1586,0,0,0,0,0,0,0,0,0,0
1684162609.59996819,87428348,1576,1576,1583,1584,0,0,0,0,0,0,0,0,0,0
1684162609.69992805,87528308,1578,1577,1581,1581,0,0,0,0,0,0,0,0,0,0
1684162609.79988813,87628268,1580,1578,1579,1579,0,0,0,0,0,0,0,0,0,0
1684162609.89984822,87728228,1581,1580,1578,1577,0,0,0,0,0,0,0,0,0,0
1684162609.99980807,87828188,1582,1581,1577,1576,0,0,0,0,0,0,0,0,0,0
1684162610.10060120,87928981,1582,1581,1576,1575,0,0,0,0,0,0,0,0,0,0
1684162610.20056105,88028941,1583,1582,1576,1576,0,0,0,0,0,0,0,0,0,0
1684162610.30052114,88128901,1583,1582,1575,1575,0,0,0,0,0,0,0,0,0,0
1684162610.40048122,88228861,1583,1582,1576,1575,0,0,0,0,0,0,0,0,0,0
1684162610.50044107,88328821,1581,1581,1575,1575,0,0,0,0,0,0,0,0,0,0
1684162610.60040116,88428781,1581,1581,1576,1576,0,0,0,0,0,0,0,0,0,0
1684162610.70036101,88528741,1581,1581,1576,1577,0,0,0,0,0,0,0,0,0,0
1684162610.80032110,88628701,1580,1580,1577,1577,0,0,0,0,0,0,0,0,0,0
1684162610.90028119,88728661,1578,1578,1576,1576,0,0,0,0,0,0,0,0,0,0
1684162611.00024104,88828621,1578,1578,1577,1577,0,0,0,0,0,0,0,0,0,0
1684162611.10020113,88928581,1578,1578,1578,1578,0,0,0,0,0,0,0,0,0,0
1684162611.20016122,89028541,1578,1578,1579,1579,0,0,0,0,0,0,0,0,0,0
1684162611.30012107,89128501,1578,1578,1580,1580,0,0,0,0,0,0,0,0,0,0
1684162611.40008116,89228461,1577,1578,1580,1579,0,0,0,0,0,0,0,0,0,0
1684162611.50004125,89328421,1578,1578,1580,1580,0,0,0,0,0,0,0,0,0,0
1684162611.60000110,89428381,1578,1578,1581,1580,0,0,0,0,0,0,0,0,0,0
1684162611.69996119,89528341,1577,1577,1579,1579,0,0,0,0,0,0,0,0,0,0
1684162611.79992104,89628301,1577,1577,1579,1580,0,0,0,0,0,0,0,0,0,0
1684162611.89988112,89728261,1578,1578,1579,1580,0,0,0,0,0,0,0,0,0,0
1684162611.99984121,89828221,1579,1578,1580,1580,0,0,0,0,0,0,0,0,0,0
1684162612.09980106,89928181,1579,1579,1580,1580,0,0,0,0,0,0,0,0,0,0
1684162612.20059419,90028974,1579,1579,1580,1580,0,0,0,0,0,0,0,0,0,0
1684162612.30055404,90128934,1581,1580,1581,1581,0,0,0,0,0,0,0,0,0,0
1684162612.40051413,90228894,1580,1580,1580,1580,0,0,0,0,0,0,0,0,0,0
1684162612.50047421,90328854,1580,1581,1580,1580,0,0,0,0,0,0,0,0,0,0
1684162612.60043406,90428814,1581,1581,1580,1580,0,0,0,0,0,0,0,0,0,0
1684162612.70039415,90528774,1580,1581,1580,1580,0,0,0,0,0,0,0,0,0,0
1684162612.80035424,90628734,1580,1581,1580,1580,0,0,0,0,0,0,0,0,0,0
1684162612.90031409,90728694,1581,1581,1580,1581,0,0,0,0,0,0,0,0,0,0
1684162613.00027418,90828654,1581,1581,1580,1581,0,0,0,0,0,0,0,0,0,0
1684162613.10023403,90928614,1582,1581,1581,1581,0,0,0,0,0,0,0,0,0,0
1684162613.20019412,91028574,1582,1582,1582,1579,0,0,0,0,0,0,0,0,0,0
1684162613.30015421,91128534,1581,1583,1587,1572,0,0,0,0,0,0,0,0,0,0
1684162613.40011406,91228494,1579,1581,1582,1573,0,0,0,0,0,0,0,0,0,0
1684162613.50007415,91328454,1577,1579,1576,1575,0,0,0,0,0,0,0,0,0,0
1684162613.60003424,91428414,1573,1574,1569,1574,0,0,0,0,0,0,0,0,0,0
1684162613.69999409,91528374,1571,1571,1566,1573,0,0,0,0,0,0,0,0,0,0
1684162613.79995418,91628334,1570,1569,1565,1571,0,0,0,0,0,0,0,0,0,0
1684162613.89991403,91728294,1568,1566,1566,1568,0,0,0,0,0,0,0,0,0,0
1684162613.99987411,91828254,1568,1566,1567,1567,0,0,0,0,0,0,0,0,0,0
1684162614.09983420,91928214,1567,1565,1568,1565,0,0,0,0,0,0,0,0,0,0
1684162614.19979405,92028174,1566,1566,1568,1565,0,0,0,0,0,0,0,0,0,0
1684162614.30058718,92128967,1563,1564,1566,1564,0,0,0,0,0,0,0,0,0,0
1684162614.40054703,92228927,1563,1564,1565,1564,0,0,0,0,0,0,0,0,0,0
1684162614.50050712,92328887,1562,1563,1564,1564,0,0,0,0,0,0,0,0,0,0
1684162614.60046721,92428847,1562,1562,1562,1564,0,0,0,0,0,0,0,0,0,0
1684162614.70042706,92528807,1562,1562,1563,1563,0,0,0,0,0,0,0,0,0,0
1684162614.80038714,92628767,1562,1561,1562,1562,0,0,0,0,0,0,0,0,0,0
1684162614.90034723,92728727,1561,1560,1561,1561,0,0,0,0,0,0,0,0,0,0
1684162615.00030708,92828687,1560,1560,1561,1560,0,0,0,0,0,0,0,0,0,0
1684162615.10026717,92928647,1561,1561,1561,1560,0,0,0,0,0,0,0,0,0,0
1684162615.20022702,93028607,1559,1560,1560,1559,0,0,0,0,0,0,0,0,0,0
1684162615.30018711,93128567,1558,1558,1559,1558,0,0,0,0,0,0,0,0,0,0
1684162615.40014720,93228527,1558,1558,1558,1557,0,0,0,0,0,0,0,0,0,0
1684162615.50010705,93328487,1558,1559,1558,1558,0,0,0,0,0,0,0,0,0,0
1684162615.60006714,93428447,1558,1558,1558,1558,0,0,0,0,0,0,0,0,0,0
1684162615.70002723,93528407,1558,1558,1558,1557,0,0,0,0,0,0,0,0,0,0
1684162615.79998708,93628367,1558,1558,1558,1556,0,0,0,0,0,0,0,0,0,0
1684162615.89994717,93728327,1558,1558,1559,1556,0,0,0,0,0,0,0,0,0,0
1684162615.99990702,93828287,1557,1558,1559,1556,0,0,0,0,0,0,0,0,0,0
1684162616.09986711,93928247,1558,1559,1558,1560,0,0,0,0,0,0,0,0,0,0
1684162616.19982719,94028207,1559,1560,1557,1562,0,0,0,0,0,0,0,0,0,0
1684162616.29978704,94128167,1561,1560,1557,1563,0,0,0,0,0,0,0,0,0,0
1684162616.40058017,94228960,1562,1561,1559,1564,0,0,0,0,0,0,0,0,0,0
1684162616.50054002,94328920,1563,1561,1560,1564,0,0,0,0,0,0,0,0,0,0
1684162616.60050011,94428880,1563,1562,1562,1563,0,0,0,0,0,0,0,0,0,0
1684162616.70046020,94528840,1562,1561,1563,1560,0,0,0,0,0,0,0,0,0,0
1684162616.80042005,94628800,1560,1561,1563,1559,0,0,0,0,0,0,0,0,0,0
1684162616.90038013,94728760,1559,1561,1560,1560,0,0,0,0,0,0,0,0,0,0
1684162617.00034022,94828720,1559,1559,1556,1562,0,0,0,0,0,0,0,0,0,0
1684162617.10030007,94928680,1555,1555,1552,1558,0,0,0,0,0,0,0,0,0,0
1684162617.20026016,95028640,1551,1550,1549,1552,0,0,0,0,0,0,0,0,0,0
1684162617.30022001,95128600,1545,1544,1545,1545,0,0,0,0,0,0,0,0,0,0
1684162617.40018010,95228560,1538,1538,1539,1538,0,0,0,0,0,0,0,0,0,0
1684162617.50014019,95328520,1531,1531,1532,1530,0,0,0,0,0,0,0,0,0,0
1684162617.60010004,95428480,1523,1523,1524,1522,0,0,0,0,0,0,0,0,0,0
1684162617.70006013,95528440,1519,1520,1520,1519,0,0,0,0,0,0,0,0,0,0
1684162617.80002022,95628400,1519,1519,1519,1519,0,0,0,0,0,0,0,0,0,0
1684162617.89998007,95728360,1520,1521,1520,1521,0,0,0,0,0,0,0,0,0,0
1684162617.99994016,95828320,1524,1524,1523,1524,0,0,0,0,0,0,0,0,0,0
1684162618.09990025,95928280,1527,1527,1526,1527,0,0,0,0,0,0,0,0,0,0
1684162618.19986010,96028240,1531,1531,1531,1531,0,0,0,0,0,0,0,0,0,0
1684162618.29982018,96128200,1536,1536,1536,1536,0,0,0,0,0,0,0,0,0,0
1684162618.39978004,96228160,1539,1539,1539,1539,0,0,0,0,0,0,0,0,0,0
1684162618.50057316,96328953,1542,1542,1542,1542,0,0,0,0,0,0,0,0,0,0
1684162618.60053325,96428913,1544,1544,1544,1544,0,0,0,0,0,0,0,0,0,0
1684162618.70049310,96528873,1544,1545,1545,1544,0,0,0,0,0,0,0,0,0,0
1684162618.80045319,96628833,1546,1546,1546,1546,0,0,0,0,0,0,0,0,0,0
1684162618.90041304,96728793,1546,1545,1546,1546,0,0,0,0,0,0,0,0,0,0
1684162619.00037313,96828753,1546,1546,1546,1546,0,0,0,0,0,0,0,0,0,0
1684162619.10033321,96928713,1545,1545,1545,1545,0,0,0,0,0,0,0,0,0,0
1684162619.20029306,97028673,1547,1546,1547,1546,0,0,0,0,0,0,0,0,0,0
1684162619.30025315,97128633,1546,1546,1546,1546,0,0,0,0,0,0,0,0,0,0
1684162619.40021324,97228593,1546,1546,1546,1547,0,0,0,0,0,0,0,0,0,0
1684162619.50017309,97328553,1546,1546,1546,1546,0,0,0,0,0,0,0,0,0,0
1684162619.60013318,97428513,1545,1546,1546,1545,0,0,0,0,0,0,0,0,0,0
1684162619.70009303,97528473,1546,1546,1546,1546,0,0,0,0,0,0,0,0,0,0
1684162619.80005312,97628433,1545,1545,1546,1545,0,0,0,0,0,0,0,0,0,0
1684162619.90001321,97728393,1546,1545,1546,1546,0,0,0,0,0,0,0,0,0,0
1684162619.99997306,97828353,1545,1545,1546,1545,0,0,0,0,0,0,0,0,0,0
1684162620.09993315,97928313,1545,1545,1545,1544,0,0,0,0,0,0,0,0,0,0
1684162620.19989324,98028273,1544,1545,1545,1544,0,0,0,0,0,0,0,0,0,0
1684162620.29985309,98128233,1544,1544,1543,1545,0,0,0,0,0,0,0,0,0,0
1684162620.39981318,98228193,1544,1545,1545,1545,0,0,0,0,0,0,0,0,0,0
1684162620.50060606,98328986,1544,1545,1545,1545,0,0,0,0,0,0,0,0,0,0
1684162620.60056615,98428946,1544,1545,1545,1545,0,0,0,0,0,0,0,0,0,0
1684162620.70052624,98528906,1544,1543,1543,1544,0,0,0,0,0,0,0,0,0,0
1684162620.80048609,98628866,1544,1544,1544,1544,0,0,0,0,0,0,0,0,0,0
1684162620.90044618,98728826,1544,1543,1544,1544,0,0,0,0,0,0,0,0,0,0
1684162621.00040603,98828786,1544,1544,1544,1544,0,0,0,0,0,0,0,0,0,0
1684162621.10036612,98928746,1545,1544,1544,1545,0,0,0,0,0,0,0,0,0,0
1684162621.20032620,99028706,1545,1545,1545,1545,0,0,0,0,0,0,0,0,0,0
1684162621.30028605,99128666,1544,1544,1544,1544,0,0,0,0,0,0,0,0,0,0
1684162621.40024614,99228626,1544,1544,1544,1544,0,0,0,0,0,0,0,0,0,0
1684162621.50020623,99328586,1544,1544,1544,1544,0,0,0,0,0,0,0,0,0,0
1684162621.60016608,99428546,1543,1544,1544,1543,0,0,0,0,0,0,0,0,0,0
1684162621.70012617,99528506,1545,1544,1544,1545,0,0,0,0,0,0,0,0,0,0
1684162621.80008602,99628466,1544,1544,1544,1544,0,0,0,0,0,0,0,0,0,0
1684162621.90004611,99728426,1544,1544,1544,1544,0,0,0,0,0,0,0,0,0,0
1684162622.00000620,99828386,1544,1544,1544,1544,0,0,0,0,0,0,0,0,0,0
1684162622.09996605,99928346,1544,1545,1545,1545,0,0,0,0,0,0,0,0,0,0
1684162622.19992614,100028306,1544,1544,1545,1544,0,0,0,0,0,0,0,0,0,0
1684162622.29988623,100128266,1545,1544,1544,1545,0,0,0,0,0,0,0,0,0,0
1684162622.39984608,100228226,1544,1544,1544,1544,0,0,0,0,0,0,0,0,0,0
1684162622.49980617,100328186,1544,1544,1544,1544,0,0,0,0,0,0,0,0,0,0
1684162622.60059905,100428979,1545,1544,1545,1544,0,0,0,0,0,0,0,0,0,0
1684162622.70055914,100528939,1545,1544,1544,1545,0,0,0,0,0,0,0,0,0,0
1684162622.80051923,100628899,1544,1545,1544,1544,0,0,0,0,0,0,0,0,0,0
1684162622.90047908,100728859,1544,1545,1544,1545,0,0,0,0,0,0,0,0,0,0
1684162623.00043917,100828819,1544,1544,1544,1544,0,0,0,0,0,0,0,0,0,0
1684162623.10039902,100928779,1545,1545,1545,1545,0,0,0,0,0,0,0,0,0,0
1684162623.20035911,101028739,1545,1545,1545,1545,0,0,0,0,0,0,0,0,0,0
1684162623.30031919,101128699,1544,1544,1544,1544,0,0,0,0,0,0,0,0,0,0
1684162623.40027905,101228659,1544,1544,1545,1544,0,0,0,0,0,0,0,0,0,0
1684162623.50023913,101328619,1545,1544,1545,1545,0,0,0,0,0,0,0,0,0,0
1684162623.60019922,101428579,1544,1544,1544,1544,0,0,0,0,0,0,0,0,0,0
1684162623.70015907,101528539,1544,1544,1544,1544,0,0,0,0,0,0,0,0,0,0
1684162623.80011916,101628499,1544,1544,1544,1544,0,0,0,0,0,0,0,0,0,0
1684162623.90007901,101728459,1544,1544,1544,1544,0,0,0,0,0,0,0,0,0,0
1684162624.00003910,101828419,1544,1544,1544,1544,0,0,0,0,0,0,0,0,0,0
1684162624.09999919,101928379,1544,1544,1544,1544,0,0,0,0,0,0,0,0,0,0
1684162624.19995904,102028339,1544,1544,1544,1544,0,0,0,0,0,0,0,0,0,0
1684162624.29991913,102128299,1544,1544,1544,1545,0,0,0,0,0,0,0,0,0,0
1684162624.39987922,102228259,1545,1545,1545,1545,0,0,0,0,0,0,0,0,0,0
1684162624.49983907,102328219,1544,1544,1544,1544,0,0,0,0,0,0,0,0,0,0
1684162624.59979916,102428179,1545,1545,1545,1545,0,0,0,0,0,0,0,0,0,0
1684162624.70059204,102528972,1544,1545,1544,1545,0,0,0,0,0,0,0,0,0,0
1684162624.80055213,102628932,1544,1544,1545,1544,0,0,0,0,0,0,0,0,0,0
1684162624.90051222,102728892,1544,1544,1544,1544,0,0,0,0,0,0,0,0,0,0
1684162625.00047207,102828852,1544,1545,1544,1544,0,0,0,0,0,0,0,0,0,0
1684162625.10043216,102928812,1545,1544,1544,1544,0,0,0,0,0,0,0,0,0,0
1684162625.20039225,103028772,1544,1544,1545,1545,0,0,0,0,0,0,0,0,0,0
1684162625.30035210,103128732,1544,1544,1544,1544,0,0,0,0,0,0,0,0,0,0
1684162625.40031219,103228692,1544,1544,1544,1544,0,0,0,0,0,0,0,0,0,0
1684162625.50027204,103328652,1543,1543,1543,1543,0,0,0,0,0,0,0,0,0,0
1684162625.60023212,103428612,1544,1544,1544,1544,0,0,0,0,0,0,0,0,0,0
1684162625.70019221,103528572,1544,1544,1544,1544,0,0,0,0,0,0,0,0,0,0
1684162625.80015206,103628532,1543,1544,1543,1544,0,0,0,0,0,0,0,0,0,0
1684162625.90011215,103728492,1544,1544,1544,1544,0,0,0,0,0,0,0,0,0,0
1684162626.00007224,103828452,1545,1545,1545,1545,0,0,0,0,0,0,0,0,0,0
1684162626.10003209,103928412,1544,1544,1544,1544,0,0,0,0,0,0,0,0,0,0
1684162626.19999218,104028372,1544,1545,1545,1544,0,0,0,0,0,0,0,0,0,0
1684162626.29995203,104128332,1544,1544,1544,1544,0,0,0,0,0,0,0,0,0,0
1684162626.39991212,104228292,1543,1543,1544,1543,0,0,0,0,0,0,0,0,0,0
1684162626.49987221,104328252,1544,1544,1543,1545,0,0,0,0,0,0,0,0,0,0
1684162626.59983206,104428212,1544,1544,1544,1544,0,0,0,0,0,0,0,0,0,0
1684162626.69979215,104528172,1544,1544,1544,1544,0,0,0,0,0,0,0,0,0,0
1684162626.80058503,104628965,1544,1544,1544,1544,0,0,0,0,0,0,0,0,0,0
1684162626.90054512,104728925,1544,1544,1544,1544,0,0,0,0,0,0,0,0,0,0
1684162627.00050521,104828885,1544,1545,1545,1545,0,0,0,0,0,0,0,0,0,0
1684162627.10046506,104928845,1545,1544,1544,1544,0,0,0,0,0,0,0,0,0,0
1684162627.20042515,105028805,1545,1545,1545,1544,0,0,0,0,0,0,0,0,0,0
1684162627.30038524,105128765,1545,1544,1545,1544,0,0,0,0,0,0,0,0,0,0
1684162627.40034509,105228725,1545,1545,1545,1546,0,0,0,0,0,0,0,0,0,0
1684162627.50030518,105328685,1396,1394,1396,1396,0,0,0,0,0,0,0,0,0,0
1684162627.60026503,105428645,1265,1263,1266,1265,0,0,0,0,0,0,0,0,0,0
1684162627.70022511,105528605,1219,1216,1219,1219,0,0,0,0,0,0,0,0,0,0
1684162627.80018520,105628565,1199,1197,1201,1200,0,0,0,0,0,0,0,0,0,0
1684162627.90014505,105728525,1159,1156,1160,1160,0,0,0,0,0,0,0,0,0,0
1684162628.00010514,105828485,1152,1150,1155,1153,0,0,0,0,0,0,0,0,0,0
1684162628.10006523,105928445,1153,1150,1155,1155,0,0,0,0,0,0,0,0,0,0
1684162628.20002508,106028405,1186,1150,1155,1189,0,0,0,0,0,0,0,0,0,0
1684162628.29998517,106128365,1176,1150,1157,1179,0,0,0,0,0,0,0,0,0,0
1684162628.39994502,106228325,1173,1150,1158,1175,0,0,0,0,0,0,0,0,0,0
1684162628.49990511,106328285,1174,1150,1158,1177,0,0,0,0,0,0,0,0,0,0
1684162628.59986520,106428245,1176,1150,1159,1179,0,0,0,0,0,0,0,0,0,0
1684162628.69982505,106528205,1178,1150,1159,1182,0,0,0,0,0,0,0,0,0,0
1684162628.79978514,106628165,1180,1150,1160,1184,0,0,0,0,0,0,0,0,0,0
1684162628.90057802,106728958,1182,1150,1160,1186,0,0,0,0,0,0,0,0,0,0
1684162629.00053811,106828918,1167,1150,1160,1172,0,0,0,0,0,0,0,0,0,0
1684162629.10049820,106928878,1168,1150,1160,1174,0,0,0,0,0,0,0,0,0,0
1684162629.20045805,107028838,1169,1150,1161,1175,0,0,0,0,0,0,0,0,0,0
1684162629.30041814,107128798,1170,1150,1161,1176,0,0,0,0,0,0,0,0,0,0
1684162629.40037823,107228758,1170,1150,1161,1177,0,0,0,0,0,0,0,0,0,0
1684162629.50033808,107328718,1000,1000,1000,1000,0,0,0,0,0,0,0,0,0,0
1684162629.60029817,107428678,1000,1000,1000,1000,0,0,0,0,0,0,0,0,0,0
1684162629.70025802,107528638,1000,1000,1000,1000,0,0,0,0,0,0,0,0,0,0
1684162629.80021811,107628598,1000,1000,1000,1000,0,0,0,0,0,0,0,0,0,0
1684162629.90017819,107728558,1000,1000,1000,1000,0,0,0,0,0,0,0,0,0,0
1684162630.00013804,107828518,1000,1000,1000,1000,0,0,0,0,0,0,0,0,0,0
1684162630.10009813,107928478,1000,1000,1000,1000,0,0,0,0,0,0,0,0,0,0
1684162630.20005822,108028438,1000,1000,1000,1000,0,0,0,0,0,0,0,0,0,0
1684162630.30001807,108128398,1000,1000,1000,1000,0,0,0,0,0,0,0,0,0,0
1684162630.39997816,108228358,1000,1000,1000,1000,0,0,0,0,0,0,0,0,0,0
1684162630.49993825,108328318,1000,1000,1000,1000,0,0,0,0,0,0,0,0,0,0
1684162630.59989810,108428278,1000,1000,1000,1000,0,0,0,0,0,0,0,0,0,0
1684162630.69985819,108528238,1000,1000,1000,1000,0,0,0,0,0,0,0,0,0,0
1684162630.79981804,108628198,1000,1000,1000,1000,0,0,0,0,0,0,0,0,0,0
1684162630.89977813,108728158,1000,1000,1000,1000,0,0,0,0,0,0,0,0,0,0
1684162631.00057101,108828951,1000,1000,1000,1000,0,0,0,0,0,0,0,0,0,0
1684162631.10053110,108928911,1000,1000,1000,1000,0,0,0,0,0,0,0,0,0,0
1684162631.20049119,109028871,1000,1000,1000,1000,0,0,0,0,0,0,0,0,0,0
1684162631.30045104,109128831,1000,1000,1000,1000,0,0,0,0,0,0,0,0,0,0
1684162631.40041113,109228791,1000,1000,1000,1000,0,0,0,0,0,0,0,0,0,0
1684162631.50037122,109328751,1000,1000,1000,1000,0,0,0,0,0,0,0,0,0,0
1684162631.60033107,109428711,1000,1000,1000,1000,0,0,0,0,0,0,0,0,0,0
1684162631.70029116,109528671,1000,1000,1000,1000,0,0,0,0,0,0,0,0,0,0
1684162631.80025125,109628631,1000,1000,1000,1000,0,0,0,0,0,0,0,0,0,0
1684162631.90021110,109728591,1000,1000,1000,1000,0,0,0,0,0,0,0,0,0,0
1684162632.00017118,109828551,1000,1000,1000,1000,0,0,0,0,0,0,0,0,0,0
1684162632.10013103,109928511,1000,1000,1000,1000,0,0,0,0,0,0,0,0,0,0
1684162632.20009112,110028471,1000,1000,1000,1000,0,0,0,0,0,0,0,0,0,0
1684162632.30005121,110128431,1000,1000,1000,1000,0,0,0,0,0,0,0,0,0,0
1684162632.40001106,110228391,1000,1000,1000,1000,0,0,0,0,0,0,0,0,0,0
1684162632.49997115,110328351,1000,1000,1000,1000,0,0,0,0,0,0,0,0,0,0
1684162632.59993124,110428311,1000,1000,1000,1000,0,0,0,0,0,0,0,0,0,0
1684162632.69989109,110528271,1000,1000,1000,1000,0,0,0,0,0,0,0,0,0,0
1684162632.79985118,110628231,1000,1000,1000,1000,0,0,0,0,0,0,0,0,0,0
1684162632.89981103,110728191,1000,1000,1000,1000,0,0,0,0,0,0,0,0,0,0
1684162633.00060415,110828984,1000,1000,1000,1000,0,0,0,0,0,0,0,0,0,0
1684162633.10056424,110928944,1000,1000,1000,1000,0,0,0,0,0,0,0,0,0,0
1684162633.20052409,111028904,1000,1000,1000,1000,0,0,0,0,0,0,0,0,0,0
1684162633.30048418,111128864,1000,1000,1000,1000,0,0,0,0,0,0,0,0,0,0
1684162633.40044403,111228824,1000,1000,1000,1000,0,0,0,0,0,0,0,0,0,0
1684162633.50040412,111328784,1000,1000,1000,1000,0,0,0,0,0,0,0,0,0,0
1684162633.60036421,111428744,1000,1000,1000,1000,0,0,0,0,0,0,0,0,0,0
1684162633.70032406,111528704,1000,1000,1000,1000,0,0,0,0,0,0,0,0,0,0
1684162633.80028415,111628664,1000,1000,1000,1000,0,0,0,0,0,0,0,0,0,0
1684162633.90024424,111728624,1000,1000,1000,1000,0,0,0,0,0,0,0,0,0,0
1684162634.00020409,111828584,1000,1000,1000,1000,0,0,0,0,0,0,0,0,0,0
1684162634.10016418,111928544,1000,1000,1000,1000,0,0,0,0,0,0,0,0,0,0
1684162634.20012403,112028504,1000,1000,1000,1000,0,0,0,0,0,0,0,0,0,0
1684162634.30008411,112128464,1000,1000,1000,1000,0,0,0,0,0,0,0,0,0,0
1684162634.40004420,112228424,1000,1000,1000,1000,0,0,0,0,0,0,0,0,0,0
1684162634.50000405,112328384,1000,1000,1000,1000,0,0,0,0,0,0,0,0,0,0
1684162634.59996414,112428344,1000,1000,1000,1000,0,0,0,0,0,0,0,0,0,0
1684162634.69992423,112528304,1000,1000,1000,1000,0,0,0,0,0,0,0,0,0,0
1684162634.79988408,112628264,1000,1000,1000,1000,0,0,0,0,0,0,0,0,0,0
1684162634.89984417,112728224,1000,1000,1000,1000,0,0,0,0,0,0,0,0,0,0
1684162634.99980402,112828184,1000,1000,1000,1000,0,0,0,0,0,0,0,0,0,0
1684162635.10059714,112928977,1000,1000,1000,1000,0,0,0,0,0,0,0,0,0,0
1684162635.20055723,113028937,1000,1000,1000,1000,0,0,0,0,0,0,0,0,0,0
1684162635.30051708,113128897,1000,1000,1000,1000,0,0,0,0,0,0,0,0,0,0
1684162635.40047717,113228857,1000,1000,1000,1000,0,0,0,0,0,0,0,0,0,0
1684162635.50043702,113328817,1000,1000,1000,1000,0,0,0,0,0,0,0,0,0,0
1684162635.60039711,113428777,1000,1000,1000,1000,0,0,0,0,0,0,0,0,0,0
1684162635.70035720,113528737,1000,1000,1000,1000,0,0,0,0,0,0,0,0,0,0
1684162635.80031705,113628697,1000,1000,1000,1000,0,0,0,0,0,0,0,0,0,0
1684162635.90027714,113728657,1000,1000,1000,1000,0,0,0,0,0,0,0,0,0,0
1684162636.00023723,113828617,1000,1000,1000,1000,0,0,0,0,0,0,0,0,0,0
1684162636.10019708,113928577,1000,1000,1000,1000,0,0,0,0,0,0,0,0,0,0
1684162636.20015717,114028537,1000,1000,1000,1000,0,0,0,0,0,0,0,0,0,0
