timestamp,TimeUS,C1,C2,C3,C4,C5,C6,C7,C8,C9,C10,C11,C12,C13,C14
1683128416.59999990,43628375,1000,1000,1000,1000,0,0,0,0,0,0,0,0,0,0
1683128416.69995975,43728335,1000,1000,1000,1000,0,0,0,0,0,0,0,0,0,0
1683128416.79991984,43828295,1000,1000,1000,1000,0,0,0,0,0,0,0,0,0,0
1683128416.89987993,43928255,1000,1000,1000,1000,0,0,0,0,0,0,0,0,0,0
1683128416.99983978,44028215,1000,1000,1000,1000,0,0,0,0,0,0,0,0,0,0
1683128417.09979987,44128175,1000,1000,1000,1000,0,0,0,0,0,0,0,0,0,0
1683128417.20059276,44228968,1000,1000,1000,1000,0,0,0,0,0,0,0,0,0,0
1683128417.30055285,44328928,1000,1000,1000,1000,0,0,0,0,0,0,0,0,0,0
1683128417.40051293,44428888,1000,1000,1000,1000,0,0,0,0,0,0,0,0,0,0
1683128417.50047278,44528848,1000,1000,1000,1000,0,0,0,0,0,0,0,0,0,0
1683128417.60043287,44628808,1000,1000,1000,1000,0,0,0,0,0,0,0,0,0,0
1683128417.70039296,44728768,1000,1000,1000,1000,0,0,0,0,0,0,0,0,0,0
1683128417.80035281,44828728,1000,1000,1000,1000,0,0,0,0,0,0,0,0,0,0
1683128417.90031290,44928688,1000,1000,1000,1000,0,0,0,0,0,0,0,0,0,0
1683128418.00027275,45028648,1000,1000,1000,1000,0,0,0,0,0,0,0,0,0,0
1683128418.10023284,45128608,1000,1000,1000,1000,0,0,0,0,0,0,0,0,0,0
1683128418.20019293,45228568,1000,1000,1000,1000,0,0,0,0,0,0,0,0,0,0
1683128418.30015278,45328528,1000,1000,1000,1000,0,0,0,0,0,0,0,0,0,0
1683128418.40011287,45428488,1000,1000,1000,1000,0,0,0,0,0,0,0,0,0,0
1683128418.50007296,45528448,1000,1000,1000,1000,0,0,0,0,0,0,0,0,0,0
1683128418.60003281,45628408,1003,1003,1003,1003,0,0,0,0,0,0,0,0,0,0
1683128418.69999290,45728368,1033,1033,1033,1033,0,0,0,0,0,0,0,0,0,0
1683128418.79995275,45828328,1063,1063,1063,1063,0,0,0,0,0,0,0,0,0,0
1683128418.89991283,45928288,1093,1093,1093,1093,0,0,0,0,0,0,0,0,0,0
1683128418.99987292,46028248,1122,1122,1122,1122,0,0,0,0,0,0,0,0,0,0
1683128419.09983277,46128208,1177,1170,1171,1177,0,0,0,0,0,0,0,0,0,0
1683128419.19979286,46228168,1419,1415,1415,1419,0,0,0,0,0,0,0,0,0,0
1683128419.30058575,46328961,1595,1591,1591,1595,0,0,0,0,0,0,0,0,0,0
1683128419.40054584,46428921,1739,1736,1736,1740,0,0,0,0,0,0,0,0,0,0
1683128419.50050592,46528881,1866,1862,1862,1866,0,0,0,0,0,0,0,0,0,0
1683128419.60046577,46628841,1900,1897,1897,1901,0,0,0,0,0,0,0,0,0,0
1683128419.70042586,46728801,1802,1801,1801,1802,0,0,0,0,0,0,0,0,0,0
1683128419.80038595,46828761,1684,1685,1685,1684,0,0,0,0,0,0,0,0,0,0
1683128419.90034580,46928721,1632,1633,1634,1632,0,0,0,0,0,0,0,0,0,0
1683128420.00030589,47028681,1628,1630,1630,1628,0,0,0,0,0,0,0,0,0,0
1683128420.10026574,47128641,1637,1637,1638,1636,0,0,0,0,0,0,0,0,0,0
1683128420.20022583,47228601,1639,1638,1638,1638,0,0,0,0,0,0,0,0,0,0
1683128420.30018592,47328561,1632,1632,1632,1632,0,0,0,0,0,0,0,0,0,0
1683128420.40014577,47428521,1624,1623,1623,1624,0,0,0,0,0,0,0,0,0,0
1683128420.50010586,47528481,1618,1618,1617,1618,0,0,0,0,0,0,0,0,0,0
1683128420.60006595,47628441,1615,1615,1614,1615,0,0,0,0,0,0,0,0,0,0
1683128420.70002580,47728401,1615,1615,1614,1615,0,0,0,0,0,0,0,0,0,0
1683128420.79998589,47828361,1598,1598,1598,1598,0,0,0,0,0,0,0,0,0,0
1683128420.89994574,47928321,1577,1577,1577,1577,0,0,0,0,0,0,0,0,0,0
1683128420.99990582,48028281,1565,1565,1565,1565,0,0,0,0,0,0,0,0,0,0
1683128421.09986591,48128241,1556,1555,1556,1556,0,0,0,0,0,0,0,0,0,0
1683128421.19982576,48228201,1548,1548,1547,1548,0,0,0,0,0,0,0,0,0,0
1683128421.29978585,48328161,1541,1541,1539,1543,0,0,0,0,0,0,0,0,0,0
1683128421.40057874,48428954,1535,1535,1532,1537,0,0,0,0,0,0,0,0,0,0
1683128421.50053883,48528914,1530,1530,1527,1533,0,0,0,0,0,0,0,0,0,0
1683128421.60049891,48628874,1526,1525,1523,1528,0,0,0,0,0,0,0,0,0,0
1683128421.70045877,48728834,1526,1526,1524,1527,0,0,0,0,0,0,0,0,0,0
1683128421.80041885,48828794,1526,1526,1527,1526,0,0,0,0,0,0,0,0,0,0
1683128421.90037894,48928754,1530,1530,1532,1528,0,0,0,0,0,0,0,0,0,0
1683128422.00033879,49028714,1534,1534,1536,1531,0,0,0,0,0,0,0,0,0,0
1683128422.10029888,49128674,1538,1538,1539,1536,0,0,0,0,0,0,0,0,0,0
1683128422.20025897,49228634,1542,1542,1542,1541,0,0,0,0,0,0,0,0,0,0
1683128422.30021882,49328594,1544,1544,1550,1538,0,0,0,0,0,0,0,0,0,0
1683128422.40017891,49428554,1547,1547,1551,1542,0,0,0,0,0,0,0,0,0,0
1683128422.50013876,49528514,1549,1549,1548,1550,0,0,0,0,0,0,0,0,0,0
1683128422.60009885,49628474,1551,1550,1546,1555,0,0,0,0,0,0,0,0,0,0
1683128422.70005894,49728434,1551,1551,1545,1556,0,0,0,0,0,0,0,0,0,0
1683128422.80001879,49828394,1552,1552,1547,1557,0,0,0,0,0,0,0,0,0,0
1683128422.89997888,49928354,1554,1554,1552,1556,0,0,0,0,0,0,0,0,0,0
1683128422.99993896,50028314,1556,1555,1556,1555,0,0,0,0,0,0,0,0,0,0
1683128423.09989882,50128274,1558,1558,1561,1555,0,0,0,0,0,0,0,0,0,0
1683128423.19985890,50228234,1561,1561,1564,1557,0,0,0,0,0,0,0,0,0,0
1683128423.29981875,50328194,1562,1563,1565,1560,0,0,0,0,0,0,0,0,0,0
1683128423.39977884,50428154,1563,1563,1564,1562,0,0,0,0,0,0,0,0,0,0
1683128423.50057197,50528947,1563,1562,1563,1564,0,0,0,0,0,0,0,0,0,0
1683128423.60053182,50628907,1558,1558,1569,1573,0,0,0,0,0,0,0,0,0,0
1683128423.70049191,50728867,1558,1558,1569,1573,0,0,0,0,0,0,0,0,0,0
1683128423.80045176,50828827,1561,1562,1568,1571,0,0,0,0,0,0,0,0,0,0
1683128423.90041184,50928787,1563,1563,1566,1567,0,0,0,0,0,0,0,0,0,0
1683128424.00037193,51028747,1567,1567,1566,1566,0,0,0,0,0,0,0,0,0,0
1683128424.10033178,51128707,1569,1569,1565,1564,0,0,0,0,0,0,0,0,0,0
1683128424.20029187,51228667,1571,1571,1565,1564,0,0,0,0,0,0,0,0,0,0
1683128424.30025196,51328627,1572,1572,1564,1564,0,0,0,0,0,0,0,0,0,0
1683128424.40021181,51428587,1574,1573,1565,1565,0,0,0,0,0,0,0,0,0,0
1683128424.50017190,51528547,1574,1573,1566,1566,0,0,0,0,0,0,0,0,0,0
1683128424.60013175,51628507,1573,1573,1567,1568,0,0,0,0,0,0,0,0,0,0
1683128424.70009184,51728467,1574,1573,1569,1570,0,0,0,0,0,0,0,0,0,0
1683128424.80005193,51828427,1573,1573,1570,1571,0,0,0,0,0,0,0,0,0,0
1683128424.90001178,51928387,1573,1573,1573,1573,0,0,0,0,0,0,0,0,0,0
1683128424.99997187,52028347,1574,1574,1576,1574,0,0,0,0,0,0,0,0,0,0
1683128425.09993196,52128307,1574,1574,1577,1575,0,0,0,0,0,0,0,0,0,0
1683128425.19989181,52228267,1574,1574,1578,1577,0,0,0,0,0,0,0,0,0,0
1683128425.29985189,52328227,1574,1574,1577,1577,0,0,0,0,0,0,0,0,0,0
1683128425.39981174,52428187,1575,1575,1578,1578,0,0,0,0,0,0,0,0,0,0
1683128425.50060487,52528980,1575,1575,1577,1578,0,0,0,0,0,0,0,0,0,0
1683128425.60056496,52628940,1576,1576,1578,1578,0,0,0,0,0,0,0,0,0,0
1683128425.70052481,52728900,1576,1576,1577,1577,0,0,0,0,0,0,0,0,0,0
1683128425.80048490,52828860,1578,1578,1578,1578,0,0,0,0,0,0,0,0,0,0
1683128425.90044475,52928820,1577,1577,1577,1577,0,0,0,0,0,0,0,0,0,0
1683128426.00040483,53028780,1578,1578,1577,1577,0,0,0,0,0,0,0,0,0,0
1683128426.10036492,53128740,1578,1578,1577,1577,0,0,0,0,0,0,0,0,0,0
1683128426.20032477,53228700,1578,1578,1576,1577,0,0,0,0,0,0,0,0,0,0
1683128426.30028486,53328660,1579,1579,1578,1578,0,0,0,0,0,0,0,0,0,0
1683128426.40024495,53428620,1579,1579,1578,1578,0,0,0,0,0,0,0,0,0,0
1683128426.50020480,53528580,1579,1579,1578,1578,0,0,0,0,0,0,0,0,0,0
1683128426.60016489,53628540,1578,1578,1578,1578,0,0,0,0,0,0,0,0,0,0
1683128426.70012474,53728500,1578,1579,1578,1579,0,0,0,0,0,0,0,0,0,0
1683128426.80008483,53828460,1579,1579,1579,1579,0,0,0,0,0,0,0,0,0,0
1683128426.90004492,53928420,1579,1578,1579,1579,0,0,0,0,0,0,0,0,0,0
1683128427.00000477,54028380,1578,1578,1579,1579,0,0,0,0,0,0,0,0,0,0
1683128427.09996486,54128340,1578,1578,1579,1579,0,0,0,0,0,0,0,0,0,0
1683128427.19992495,54228300,1578,1578,1579,1578,0,0,0,0,0,0,0,0,0,0
1683128427.29988480,54328260,1579,1579,1579,1579,0,0,0,0,0,0,0,0,0,0
1683128427.39984488,54428220,1580,1580,1580,1580,0,0,0,0,0,0,0,0,0,0
1683128427.49980474,54528180,1580,1579,1580,1580,0,0,0,0,0,0,0,0,0,0
1683128427.60059786,54628973,1579,1579,1579,1579,0,0,0,0,0,0,0,0,0,0
1683128427.70055795,54728933,1579,1579,1579,1579,0,0,0,0,0,0,0,0,0,0
1683128427.80051780,54828893,1579,1580,1579,1579,0,0,0,0,0,0,0,0,0,0
1683128427.90047789,54928853,1580,1580,1580,1580,0,0,0,0,0,0,0,0,0,0
1683128428.00043774,55028813,1580,1580,1580,1580,0,0,0,0,0,0,0,0,0,0
1683128428.10039783,55128773,1579,1580,1579,1579,0,0,0,0,0,0,0,0,0,0
1683128428.20035791,55228733,1581,1580,1580,1580,0,0,0,0,0,0,0,0,0,0
1683128428.30031776,55328693,1581,1580,1580,1581,0,0,0,0,0,0,0,0,0,0
1683128428.40027785,55428653,1580,1580,1580,1580,0,0,0,0,0,0,0,0,0,0
1683128428.50023794,55528613,1579,1579,1580,1580,0,0,0,0,0,0,0,0,0,0
1683128428.60019779,55628573,1579,1580,1580,1580,0,0,0,0,0,0,0,0,0,0
1683128428.70015788,55728533,1580,1580,1580,1581,0,0,0,0,0,0,0,0,0,0
1683128428.80011797,55828493,1580,1581,1581,1581,0,0,0,0,0,0,0,0,0,0
1683128428.90007782,55928453,1581,1581,1582,1581,0,0,0,0,0,0,0,0,0,0
1683128429.00003791,56028413,1581,1581,1581,1581,0,0,0,0,0,0,0,0,0,0
1683128429.09999776,56128373,1581,1581,1581,1581,0,0,0,0,0,0,0,0,0,0
1683128429.19995785,56228333,1581,1581,1581,1581,0,0,0,0,0,0,0,0,0,0
1683128429.29991794,56328293,1581,1581,1581,1581,0,0,0,0,0,0,0,0,0,0
1683128429.39987779,56428253,1581,1581,1581,1581,0,0,0,0,0,0,0,0,0,0
1683128429.49983788,56528213,1581,1581,1581,1581,0,0,0,0,0,0,0,0,0,0
1683128429.59979796,56628173,1582,1582,1582,1581,0,0,0,0,0,0,0,0,0,0
1683128429.70059085,56728966,1580,1580,1580,1580,0,0,0,0,0,0,0,0,0,0
1683128429.80055094,56828926,1581,1580,1582,1579,0,0,0,0,0,0,0,0,0,0
1683128429.90051079,56928886,1581,1582,1588,1573,0,0,0,0,0,0,0,0,0,0
1683128430.00047088,57028846,1579,1582,1583,1573,0,0,0,0,0,0,0,0,0,0
1683128430.10043097,57128806,1577,1580,1574,1573,0,0,0,0,0,0,0,0,0,0
1683128430.20039082,57228766,1576,1579,1565,1571,0,0,0,0,0,0,0,0,0,0
1683128430.30035090,57328726,1575,1577,1558,1566,0,0,0,0,0,0,0,0,0,0
1683128430.40031075,57428686,1577,1577,1556,1561,0,0,0,0,0,0,0,0,0,0
1683128430.50027084,57528646,1578,1577,1555,1558,0,0,0,0,0,0,0,0,0,0
1683128430.60023093,57628606,1579,1577,1555,1555,0,0,0,0,0,0,0,0,0,0
1683128430.70019078,57728566,1579,1577,1556,1554,0,0,0,0,0,0,0,0,0,0
1683128430.80015087,57828526,1577,1577,1556,1553,0,0,0,0,0,0,0,0,0,0
1683128430.90011096,57928486,1576,1577,1555,1553,0,0,0,0,0,0,0,0,0,0
1683128431.00007081,58028446,1575,1576,1555,1553,0,0,0,0,0,0,0,0,0,0
1683128431.10003090,58128406,1574,1575,1553,1553,0,0,0,0,0,0,0,0,0,0
1683128431.19999075,58228366,1575,1576,1552,1553,0,0,0,0,0,0,0,0,0,0
1683128431.29995084,58328326,1575,1576,1551,1551,0,0,0,0,0,0,0,0,0,0
1683128431.39991093,58428286,1577,1578,1550,1550,0,0,0,0,0,0,0,0,0,0
1683128431.49987078,58528246,1579,1580,1548,1548,0,0,0,0,0,0,0,0,0,0
1683128431.59983087,58628206,1581,1582,1546,1545,0,0,0,0,0,0,0,0,0,0
1683128431.69979095,58728166,1584,1585,1543,1543,0,0,0,0,0,0,0,0,0,0
1683128431.80058384,58828959,1588,1588,1540,1540,0,0,0,0,0,0,0,0,0,0
1683128431.90054393,58928919,1591,1591,1538,1537,0,0,0,0,0,0,0,0,0,0
1683128432.00050378,59028879,1593,1593,1536,1535,0,0,0,0,0,0,0,0,0,0
1683128432.10046387,59128839,1595,1594,1535,1535,0,0,0,0,0,0,0,0,0,0
1683128432.20042396,59228799,1594,1594,1534,1535,0,0,0,0,0,0,0,0,0,0
1683128432.30038381,59328759,1594,1594,1537,1539,0,0,0,0,0,0,0,0,0,0
1683128432.40034389,59428719,1592,1591,1539,1543,0,0,0,0,0,0,0,0,0,0
1683128432.50030375,59528679,1588,1586,1545,1548,0,0,0,0,0,0,0,0,0,0
1683128432.60026383,59628639,1582,1579,1554,1556,0,0,0,0,0,0,0,0,0,0
1683128432.70022392,59728599,1573,1569,1563,1566,0,0,0,0,0,0,0,0,0,0
1683128432.80018377,59828559,1564,1559,1576,1578,0,0,0,0,0,0,0,0,0,0
1683128432.90014386,59928519,1552,1548,1588,1589,0,0,0,0,0,0,0,0,0,0
1683128433.00010395,60028479,1541,1539,1599,1599,0,0,0,0,0,0,0,0,0,0
1683128433.10006380,60128439,1534,1533,1608,1607,0,0,0,0,0,0,0,0,0,0
1683128433.20002389,60228399,1528,1530,1613,1612,0,0,0,0,0,0,0,0,0,0
1683128433.29998374,60328359,1528,1531,1615,1614,0,0,0,0,0,0,0,0,0,0
1683128433.39994383,60428319,1531,1534,1613,1612,0,0,0,0,0,0,0,0,0,0
1683128433.49990392,60528279,1538,1539,1608,1608,0,0,0,0,0,0,0,0,0,0
1683128433.59986377,60628239,1545,1547,1601,1602,0,0,0,0,0,0,0,0,0,0
1683128433.69982386,60728199,1554,1555,1594,1594,0,0,0,0,0,0,0,0,0,0
1683128433.79978395,60828159,1564,1564,1588,1587,0,0,0,0,0,0,0,0,0,0
1683128433.90057683,60928952,1572,1572,1581,1580,0,0,0,0,0,0,0,0,0,0
1683128434.00053692,61028912,1579,1578,1575,1574,0,0,0,0,0,0,0,0,0,0
1683128434.10049677,61128872,1583,1582,1569,1569,0,0,0,0,0,0,0,0,0,0
1683128434.20045686,61228832,1587,1585,1567,1567,0,0,0,0,0,0,0,0,0,0
1683128434.30041695,61328792,1588,1586,1566,1566,0,0,0,0,0,0,0,0,0,0
1683128434.40037680,61428752,1588,1586,1567,1568,0,0,0,0,0,0,0,0,0,0
1683128434.50033689,61528712,1585,1585,1568,1569,0,0,0,0,0,0,0,0,0,0
1683128434.60029674,61628672,1582,1582,1570,1570,0,0,0,0,0,0,0,0,0,0
1683128434.70025682,61728632,1580,1580,1574,1574,0,0,0,0,0,0,0,0,0,0
1683128434.80021691,61828592,1578,1578,1577,1577,0,0,0,0,0,0,0,0,0,0
1683128434.90017676,61928552,1574,1575,1579,1579,0,0,0,0,0,0,0,0,0,0
1683128435.00013685,62028512,1573,1574,1581,1581,0,0,0,0,0,0,0,0,0,0
1683128435.10009694,62128472,1572,1573,1583,1582,0,0,0,0,0,0,0,0,0,0
1683128435.20005679,62228432,1572,1573,1584,1584,0,0,0,0,0,0,0,0,0,0
1683128435.30001688,62328392,1572,1574,1584,1584,0,0,0,0,0,0,0,0,0,0
1683128435.39997697,62428352,1574,1574,1583,1583,0,0,0,0,0,0,0,0,0,0
1683128435.49993682,62528312,1575,1575,1582,1582,0,0,0,0,0,0,0,0,0,0
1683128435.59989691,62628272,1576,1576,1580,1580,0,0,0,0,0,0,0,0,0,0
1683128435.69985676,62728232,1578,1578,1580,1580,0,0,0,0,0,0,0,0,0,0
1683128435.79981685,62828192,1579,1579,1579,1579,0,0,0,0,0,0,0,0,0,0
1683128435.90060997,62928985,1580,1580,1578,1578,0,0,0,0,0,0,0,0,0,0
1683128436.00056982,63028945,1581,1581,1577,1577,0,0,0,0,0,0,0,0,0,0
1683128436.10052991,63128905,1582,1582,1577,1577,0,0,0,0,0,0,0,0,0,0
1683128436.20048976,63228865,1581,1582,1577,1577,0,0,0,0,0,0,0,0,0,0
1683128436.30044985,63328825,1582,1582,1578,1577,0,0,0,0,0,0,0,0,0,0
1683128436.40040994,63428785,1581,1581,1578,1578,0,0,0,0,0,0,0,0,0,0
1683128436.50036979,63528745,1581,1581,1579,1579,0,0,0,0,0,0,0,0,0,0
1683128436.60032988,63628705,1580,1580,1579,1579,0,0,0,0,0,0,0,0,0,0
1683128436.70028996,63728665,1580,1580,1580,1580,0,0,0,0,0,0,0,0,0,0
1683128436.80024981,63828625,1579,1579,1580,1579,0,0,0,0,0,0,0,0,0,0
1683128436.90020990,63928585,1348,1351,1638,1646,0,0,0,0,0,0,0,0,0,0
1683128437.00016975,64028545,1418,1426,1648,1652,0,0,0,0,0,0,0,0,0,0
1683128437.10012984,64128505,1480,1490,1638,1633,0,0,0,0,0,0,0,0,0,0
1683128437.20008993,64228465,1533,1540,1626,1617,0,0,0,0,0,0,0,0,0,0
1683128437.30004978,64328425,1574,1574,1619,1609,0,0,0,0,0,0,0,0,0,0
1683128437.40000987,64428385,1608,1596,1610,1603,0,0,0,0,0,0,0,0,0,0
1683128437.49996996,64528345,1636,1619,1584,1586,0,0,0,0,0,0,0,0,0,0
1683128437.59992981,64628305,1636,1620,1522,1534,0,0,0,0,0,0,0,0,0,0
1683128437.69988990,64728265,1636,1630,1516,1531,0,0,0,0,0,0,0,0,0,0
1683128437.79984975,64828225,1631,1636,1534,1543,0,0,0,0,0,0,0,0,0,0
1683128437.89980984,64928185,1631,1636,1562,1552,0,0,0,0,0,0,0,0,0,0
1683128438.00060296,65028978,1635,1636,1585,1574,0,0,0,0,0,0,0,0,0,0
1683128438.10056281,65128938,1636,1634,1594,1590,0,0,0,0,0,0,0,0,0,0
1683128438.20052290,65228898,1636,1633,1599,1600,0,0,0,0,0,0,0,0,0,0
1683128438.30048275,65328858,1635,1633,1603,1606,0,0,0,0,0,0,0,0,0,0
1683128438.40044284,65428818,1619,1619,1587,1588,0,0,0,0,0,0,0,0,0,0
1683128438.50040293,65528778,1607,1609,1576,1576,0,0,0,0,0,0,0,0,0,0
1683128438.60036278,65628738,1598,1600,1568,1566,0,0,0,0,0,0,0,0,0,0
1683128438.70032287,65728698,1592,1593,1563,1561,0,0,0,0,0,0,0,0,0,0
1683128438.80028296,65828658,1585,1585,1556,1553,0,0,0,0,0,0,0,0,0,0
1683128438.90024281,65928618,1580,1580,1552,1549,0,0,0,0,0,0,0,0,0,0
1683128439.00020289,66028578,1575,1574,1547,1545,0,0,0,0,0,0,0,0,0,0
1683128439.10016274,66128538,1572,1572,1545,1544,0,0,0,0,0,0,0,0,0,0
1683128439.20012283,66228498,1569,1569,1544,1543,0,0,0,0,0,0,0,0,0,0
1683128439.30008292,66328458,1567,1568,1543,1542,0,0,0,0,0,0,0,0,0,0
1683128439.40004277,66428418,1566,1566,1543,1542,0,0,0,0,0,0,0,0,0,0
1683128439.50000286,66528378,1566,1566,1543,1543,0,0,0,0,0,0,0,0,0,0
1683128439.59996295,66628338,1565,1566,1544,1543,0,0,0,0,0,0,0,0,0,0
1683128439.69992280,66728298,1566,1566,1545,1545,0,0,0,0,0,0,0,0,0,0
1683128439.79988289,66828258,1566,1566,1546,1546,0,0,0,0,0,0,0,0,0,0
1683128439.89984274,66928218,1567,1567,1548,1548,0,0,0,0,0,0,0,0,0,0
1683128439.99980283,67028178,1567,1568,1548,1548,0,0,0,0,0,0,0,0,0,0
1683128440.10059595,67128971,1568,1569,1549,1550,0,0,0,0,0,0,0,0,0,0
1683128440.20055580,67228931,1569,1570,1550,1552,0,0,0,0,0,0,0,0,0,0
1683128440.30051589,67328891,1570,1571,1552,1552,0,0,0,0,0,0,0,0,0,0
1683128440.40047574,67428851,1571,1573,1553,1554,0,0,0,0,0,0,0,0,0,0
1683128440.50043583,67528811,1572,1575,1555,1556,0,0,0,0,0,0,0,0,0,0
1683128440.60039592,67628771,1573,1576,1555,1556,0,0,0,0,0,0,0,0,0,0
1683128440.70035577,67728731,1574,1576,1555,1556,0,0,0,0,0,0,0,0,0,0
1683128440.80031586,67828691,1577,1579,1557,1559,0,0,0,0,0,0,0,0,0,0
1683128440.90027595,67928651,1579,1580,1557,1559,0,0,0,0,0,0,0,0,0,0
1683128441.00023580,68028611,1580,1581,1557,1559,0,0,0,0,0,0,0,0,0,0
1683128441.10019588,68128571,1580,1582,1557,1559,0,0,0,0,0,0,0,0,0,0
1683128441.20015574,68228531,1582,1583,1557,1559,0,0,0,0,0,0,0,0,0,0
1683128441.30011582,68328491,1583,1584,1558,1559,0,0,0,0,0,0,0,0,0,0
1683128441.40007591,68428451,1585,1585,1560,1561,0,0,0,0,0,0,0,0,0,0
1683128441.50003576,68528411,1587,1586,1562,1563,0,0,0,0,0,0,0,0,0,0
1683128441.59999585,68628371,1588,1587,1563,1564,0,0,0,0,0,0,0,0,0,0
1683128441.69995594,68728331,1589,1588,1565,1565,0,0,0,0,0,0,0,0,0,0
1683128441.79991579,68828291,1590,1588,1566,1566,0,0,0,0,0,0,0,0,0,0
1683128441.89987588,68928251,1590,1588,1567,1568,0,0,0,0,0,0,0,0,0,0
1683128441.99983597,69028211,1591,1589,1569,1569,0,0,0,0,0,0,0,0,0,0
1683128442.09979582,69128171,1590,1589,1570,1570,0,0,0,0,0,0,0,0,0,0
1683128442.20058894,69228964,1590,1589,1571,1571,0,0,0,0,0,0,0,0,0,0
1683128442.30054879,69328924,1590,1589,1572,1572,0,0,0,0,0,0,0,0,0,0
1683128442.40050888,69428884,1589,1589,1572,1571,0,0,0,0,0,0,0,0,0,0
1683128442.50046897,69528844,1589,1589,1572,1571,0,0,0,0,0,0,0,0,0,0
1683128442.60042882,69628804,1589,1589,1572,1572,0,0,0,0,0,0,0,0,0,0
1683128442.70038891,69728764,1590,1590,1573,1573,0,0,0,0,0,0,0,0,0,0
1683128442.80034876,69828724,1589,1583,1579,1577,0,0,0,0,0,0,0,0,0,0
1683128442.90030885,69928684,1572,1564,1599,1598,0,0,0,0,0,0,0,0,0,0
1683128443.00026894,70028644,1555,1549,1613,1614,0,0,0,0,0,0,0,0,0,0
1683128443.10022879,70128604,1542,1542,1617,1619,0,0,0,0,0,0,0,0,0,0
1683128443.20018888,70228564,1537,1542,1618,1620,0,0,0,0,0,0,0,0,0,0
1683128443.30014896,70328524,1536,1544,1617,1618,0,0,0,0,0,0,0,0,0,0
1683128443.40010881,70428484,1538,1548,1613,1612,0,0,0,0,0,0,0,0,0,0
1683128443.50006890,70528444,1543,1552,1609,1606,0,0,0,0,0,0,0,0,0,0
1683128443.60002875,70628404,1551,1556,1604,1600,0,0,0,0,0,0,0,0,0,0
1683128443.69998884,70728364,1559,1561,1598,1595,0,0,0,0,0,0,0,0,0,0
1683128443.79994893,70828324,1566,1565,1591,1589,0,0,0,0,0,0,0,0,0,0
1683128443.89990878,70928284,1572,1569,1584,1585,0,0,0,0,0,0,0,0,0,0
1683128443.99986887,71028244,1578,1573,1580,1581,0,0,0,0,0,0,0,0,0,0
1683128444.09982896,71128204,1581,1578,1576,1578,0,0,0,0,0,0,0,0,0,0
1683128444.19978881,71228164,1583,1581,1573,1575,0,0,0,0,0,0,0,0,0,0
1683128444.30058193,71328957,1585,1585,1573,1574,0,0,0,0,0,0,0,0,0,0
1683128444.40054178,71428917,1587,1587,1573,1573,0,0,0,0,0,0,0,0,0,0
1683128444.50050187,71528877,1588,1589,1573,1573,0,0,0,0,0,0,0,0,0,0
1683128444.60046196,71628837,1589,1589,1573,1572,0,0,0,0,0,0,0,0,0,0
1683128444.70042181,71728797,1589,1589,1573,1572,0,0,0,0,0,0,0,0,0,0
1683128444.80038190,71828757,1591,1590,1575,1575,0,0,0,0,0,0,0,0,0,0
1683128444.90034175,71928717,1589,1588,1573,1574,0,0,0,0,0,0,0,0,0,0
1683128445.00030184,72028677,1589,1587,1574,1575,0,0,0,0,0,0,0,0,0,0
1683128445.10026193,72128637,1588,1587,1575,1576,0,0,0,0,0,0,0,0,0,0
1683128445.20022178,72228597,1586,1586,1575,1576,0,0,0,0,0,0,0,0,0,0
1683128445.30018187,72328557,1585,1585,1576,1576,0,0,0,0,0,0,0,0,0,0
1683128445.40014195,72428517,1584,1584,1577,1577,0,0,0,0,0,0,0,0,0,0
1683128445.50010180,72528477,1583,1583,1578,1577,0,0,0,0,0,0,0,0,0,0
1683128445.60006189,72628437,1583,1583,1579,1578,0,0,0,0,0,0,0,0,0,0
1683128445.70002174,72728397,1582,1582,1580,1579,0,0,0,0,0,0,0,0,0,0
1683128445.79998183,72828357,1581,1581,1579,1579,0,0,0,0,0,0,0,0,0,0
1683128445.89994192,72928317,1580,1580,1579,1579,0,0,0,0,0,0,0,0,0,0
1683128445.99990177,73028277,1580,1581,1581,1581,0,0,0,0,0,0,0,0,0,0
1683128446.09986186,73128237,1580,1581,1581,1581,0,0,0,0,0,0,0,0,0,0
1683128446.19982195,73228197,1581,1580,1589,1575,0,0,0,0,0,0,0,0,0,0
1683128446.29978180,73328157,1582,1579,1586,1575,0,0,0,0,0,0,0,0,0,0
1683128446.40057492,73428950,1580,1578,1577,1575,0,0,0,0,0,0,0,0,0,0
1683128446.50053477,73528910,1577,1577,1569,1573,0,0,0,0,0,0,0,0,0,0
1683128446.60049486,73628870,1575,1577,1563,1569,0,0,0,0,0,0,0,0,0,0
1683128446.70045495,73728830,1573,1576,1559,1564,0,0,0,0,0,0,0,0,0,0
1683128446.80041480,73828790,1572,1576,1559,1561,0,0,0,0,0,0,0,0,0,0
1683128446.90037489,73928750,1572,1575,1558,1558,0,0,0,0,0,0,0,0,0,0
1683128447.00033474,74028710,1572,1574,1558,1556,0,0,0,0,0,0,0,0,0,0
1683128447.10029483,74128670,1573,1574,1558,1555,0,0,0,0,0,0,0,0,0,0
1683128447.20025492,74228630,1574,1574,1557,1555,0,0,0,0,0,0,0,0,0,0
1683128447.30021477,74328590,1574,1573,1555,1554,0,0,0,0,0,0,0,0,0,0
1683128447.40017486,74428550,1574,1573,1553,1553,0,0,0,0,0,0,0,0,0,0
1683128447.50013494,74528510,1573,1573,1551,1552,0,0,0,0,0,0,0,0,0,0
1683128447.60009480,74628470,1574,1574,1550,1551,0,0,0,0,0,0,0,0,0,0
1683128447.70005488,74728430,1574,1576,1548,1549,0,0,0,0,0,0,0,0,0,0
1683128447.80001473,74828390,1575,1577,1547,1547,0,0,0,0,0,0,0,0,0,0
1683128447.89997482,74928350,1576,1578,1544,1544,0,0,0,0,0,0,0,0,0,0
1683128447.99993491,75028310,1578,1580,1544,1543,0,0,0,0,0,0,0,0,0,0
1683128448.09989476,75128270,1581,1581,1542,1541,0,0,0,0,0,0,0,0,0,0
1683128448.19985485,75228230,1584,1584,1541,1541,0,0,0,0,0,0,0,0,0,0
1683128448.29981494,75328190,1587,1586,1541,1541,0,0,0,0,0,0,0,0,0,0
1683128448.40060782,75428983,1587,1587,1538,1539,0,0,0,0,0,0,0,0,0,0
1683128448.50056791,75528943,1589,1588,1539,1540,0,0,0,0,0,0,0,0,0,0
1683128448.60052776,75628903,1589,1588,1539,1541,0,0,0,0,0,0,0,0,0,0
1683128448.70048785,75728863,1588,1588,1541,1543,0,0,0,0,0,0,0,0,0,0
1683128448.80044794,75828823,1587,1586,1544,1547,0,0,0,0,0,0,0,0,0,0
1683128448.90040779,75928783,1584,1583,1548,1551,0,0,0,0,0,0,0,0,0,0
1683128449.00036788,76028743,1580,1580,1552,1556,0,0,0,0,0,0,0,0,0,0
1683128449.10032797,76128703,1576,1575,1558,1561,0,0,0,0,0,0,0,0,0,0
1683128449.20028782,76228663,1571,1570,1564,1567,0,0,0,0,0,0,0,0,0,0
1683128449.30024791,76328623,1566,1563,1572,1573,0,0,0,0,0,0,0,0,0,0
1683128449.40020776,76428583,1560,1558,1579,1580,0,0,0,0,0,0,0,0,0,0
1683128449.50016785,76528543,1554,1552,1587,1587,0,0,0,0,0,0,0,0,0,0
1683128449.60012794,76628503,1548,1546,1594,1593,0,0,0,0,0,0,0,0,0,0
1683128449.70008779,76728463,1541,1540,1599,1599,0,0,0,0,0,0,0,0,0,0
1683128449.80004787,76828423,1536,1536,1605,1604,0,0,0,0,0,0,0,0,0,0
1683128449.90000796,76928383,1534,1536,1608,1607,0,0,0,0,0,0,0,0,0,0
1683128449.99996781,77028343,1533,1536,1606,1605,0,0,0,0,0,0,0,0,0,0
1683128450.09992790,77128303,1538,1540,1604,1604,0,0,0,0,0,0,0,0,0,0
1683128450.19988775,77228263,1543,1545,1599,1599,0,0,0,0,0,0,0,0,0,0
1683128450.29984784,77328223,1550,1551,1594,1593,0,0,0,0,0,0,0,0,0,0
1683128450.39980793,77428183,1557,1558,1587,1587,0,0,0,0,0,0,0,0,0,0
1683128450.50060081,77528976,1565,1565,1581,1580,0,0,0,0,0,0,0,0,0,0
1683128450.60056090,77628936,1573,1572,1576,1575,0,0,0,0,0,0,0,0,0,0
1683128450.70052075,77728896,1579,1578,1573,1572,0,0,0,0,0,0,0,0,0,0
1683128450.80048084,77828856,1583,1582,1570,1569,0,0,0,0,0,0,0,0,0,0
1683128450.90044093,77928816,1586,1584,1568,1568,0,0,0,0,0,0,0,0,0,0
1683128451.00040078,78028776,1587,1586,1568,1569,0,0,0,0,0,0,0,0,0,0
1683128451.10036087,78128736,1588,1587,1570,1570,0,0,0,0,0,0,0,0,0,0
1683128451.20032096,78228696,1588,1587,1572,1572,0,0,0,0,0,0,0,0,0,0
1683128451.30028081,78328656,1586,1585,1572,1572,0,0,0,0,0,0,0,0,0,0
1683128451.40024090,78428616,1585,1585,1574,1574,0,0,0,0,0,0,0,0,0,0
1683128451.50020075,78528576,1583,1584,1575,1576,0,0,0,0,0,0,0,0,0,0
1683128451.60016084,78628536,1582,1582,1577,1577,0,0,0,0,0,0,0,0,0,0
1683128451.70012093,78728496,1580,1581,1578,1578,0,0,0,0,0,0,0,0,0,0
1683128451.80008078,78828456,1579,1580,1579,1580,0,0,0,0,0,0,0,0,0,0
1683128451.90004086,78928416,1578,1578,1581,1580,0,0,0,0,0,0,0,0,0,0
1683128452.00000095,79028376,1577,1578,1582,1582,0,0,0,0,0,0,0,0,0,0
1683128452.09996080,79128336,1577,1577,1582,1582,0,0,0,0,0,0,0,0,0,0
1683128452.19992089,79228296,1577,1576,1583,1583,0,0,0,0,0,0,0,0,0,0
1683128452.29988074,79328256,1576,1576,1582,1582,0,0,0,0,0,0,0,0,0,0
1683128452.39984083,79428216,1576,1576,1581,1582,0,0,0,0,0,0,0,0,0,0
1683128452.49980092,79528176,1576,1576,1581,1581,0,0,0,0,0,0,0,0,0,0
1683128452.60059381,79628969,1577,1577,1581,1581,0,0,0,0,0,0,0,0,0,0
1683128452.70055389,79728929,1577,1577,1580,1580,0,0,0,0,0,0,0,0,0,0
1683128452.80051374,79828889,1577,1577,1579,1579,0,0,0,0,0,0,0,0,0,0
1683128452.90047383,79928849,1578,1579,1579,1579,0,0,0,0,0,0,0,0,0,0
1683128453.00043392,80028809,1580,1580,1579,1579,0,0,0,0,0,0,0,0,0,0
1683128453.10039377,80128769,1581,1581,1580,1580,0,0,0,0,0,0,0,0,0,0
1683128453.20035386,80228729,1581,1581,1579,1579,0,0,0,0,0,0,0,0,0,0
1683128453.30031395,80328689,1583,1583,1580,1580,0,0,0,0,0,0,0,0,0,0
1683128453.40027380,80428649,1582,1582,1579,1579,0,0,0,0,0,0,0,0,0,0
1683128453.50023389,80528609,1583,1582,1580,1579,0,0,0,0,0,0,0,0,0,0
1683128453.60019374,80628569,1582,1582,1579,1579,0,0,0,0,0,0,0,0,0,0
1683128453.70015383,80728529,1582,1582,1579,1579,0,0,0,0,0,0,0,0,0,0
1683128453.80011392,80828489,1581,1581,1579,1579,0,0,0,0,0,0,0,0,0,0
1683128453.90007377,80928449,1581,1581,1579,1580,0,0,0,0,0,0,0,0,0,0
1683128454.00003386,81028409,1581,1582,1580,1581,0,0,0,0,0,0,0,0,0,0
1683128454.09999394,81128369,1580,1580,1580,1580,0,0,0,0,0,0,0,0,0,0
1683128454.19995379,81228329,1580,1581,1581,1581,0,0,0,0,0,0,0,0,0,0
1683128454.29991388,81328289,1580,1580,1581,1581,0,0,0,0,0,0,0,0,0,0
1683128454.39987373,81428249,1580,1580,1581,1581,0,0,0,0,0,0,0,0,0,0
1683128454.49983382,81528209,1580,1580,1583,1580,0,0,0,0,0,0,0,0,0,0
1683128454.59979391,81628169,1581,1580,1589,1574,0,0,0,0,0,0,0,0,0,0
1683128454.70058680,81728962,1579,1578,1584,1574,0,0,0,0,0,0,0,0,0,0
1683128454.80054688,81828922,1576,1575,1575,1574,0,0,0,0,0,0,0,0,0,0
1683128454.90050673,81928882,1573,1572,1568,1573,0,0,0,0,0,0,0,0,0,0
1683128455.00046682,82028842,1570,1570,1564,1572,0,0,0,0,0,0,0,0,0,0
1683128455.10042691,82128802,1569,1570,1565,1571,0,0,0,0,0,0,0,0,0,0
1683128455.20038676,82228762,1567,1569,1565,1568,0,0,0,0,0,0,0,0,0,0
1683128455.30034685,82328722,1566,1567,1566,1566,0,0,0,0,0,0,0,0,0,0
1683128455.40030694,82428682,1565,1567,1567,1565,0,0,0,0,0,0,0,0,0,0
1683128455.50026679,82528642,1566,1566,1568,1565,0,0,0,0,0,0,0,0,0,0
1683128455.60022688,82628602,1565,1565,1567,1564,0,0,0,0,0,0,0,0,0,0
1683128455.70018697,82728562,1565,1564,1566,1564,0,0,0,0,0,0,0,0,0,0
1683128455.80014682,82828522,1564,1563,1565,1565,0,0,0,0,0,0,0,0,0,0
1683128455.90010691,82928482,1563,1563,1563,1564,0,0,0,0,0,0,0,0,0,0
1683128456.00006676,83028442,1563,1562,1563,1563,0,0,0,0,0,0,0,0,0,0
1683128456.10002685,83128402,1561,1561,1561,1562,0,0,0,0,0,0,0,0,0,0
1683128456.19998693,83228362,1560,1561,1561,1561,0,0,0,0,0,0,0,0,0,0
1683128456.29994678,83328322,1560,1561,1561,1560,0,0,0,0,0,0,0,0,0,0
1683128456.39990687,83428282,1561,1561,1561,1561,0,0,0,0,0,0,0,0,0,0
1683128456.49986696,83528242,1560,1560,1561,1560,0,0,0,0,0,0,0,0,0,0
1683128456.59982681,83628202,1560,1560,1560,1560,0,0,0,0,0,0,0,0,0,0
1683128456.69978690,83728162,1560,1559,1560,1559,0,0,0,0,0,0,0,0,0,0
1683128456.80057979,83828955,1559,1559,1559,1558,0,0,0,0,0,0,0,0,0,0
1683128456.90053988,83928915,1559,1559,1559,1559,0,0,0,0,0,0,0,0,0,0
1683128457.00049996,84028875,1559,1559,1560,1559,0,0,0,0,0,0,0,0,0,0
1683128457.10045981,84128835,1559,1558,1559,1558,0,0,0,0,0,0,0,0,0,0
1683128457.20041990,84228795,1559,1558,1560,1557,0,0,0,0,0,0,0,0,0,0
1683128457.30037975,84328755,1559,1559,1561,1558,0,0,0,0,0,0,0,0,0,0
1683128457.40033984,84428715,1559,1559,1560,1559,0,0,0,0,0,0,0,0,0,0
1683128457.50029993,84528675,1559,1559,1557,1562,0,0,0,0,0,0,0,0,0,0
1683128457.60025978,84628635,1559,1560,1556,1563,0,0,0,0,0,0,0,0,0,0
1683128457.70021987,84728595,1560,1560,1557,1563,0,0,0,0,0,0,0,0,0,0
1683128457.80017996,84828555,1560,1561,1559,1563,0,0,0,0,0,0,0,0,0,0
1683128457.90013981,84928515,1559,1560,1559,1559,0,0,0,0,0,0,0,0,0,0
1683128458.00009990,85028475,1558,1559,1559,1556,0,0,0,0,0,0,0,0,0,0
1683128458.10005975,85128435,1559,1559,1558,1560,0,0,0,0,0,0,0,0,0,0
1683128458.20001984,85228395,1556,1556,1553,1556,0,0,0,0,0,0,0,0,0,0
1683128458.29997993,85328355,1553,1552,1548,1550,0,0,0,0,0,0,0,0,0,0
1683128458.39993978,85428315,1547,1547,1543,1543,0,0,0,0,0,0,0,0,0,0
1683128458.49989986,85528275,1542,1541,1537,1536,0,0,0,0,0,0,0,0,0,0
1683128458.59985995,85628235,1535,1535,1530,1529,0,0,0,0,0,0,0,0,0,0
1683128458.69981980,85728195,1528,1528,1522,1522,0,0,0,0,0,0,0,0,0,0
1683128458.79977989,85828155,1523,1523,1518,1518,0,0,0,0,0,0,0,0,0,0
1683128458.90057278,85928948,1520,1520,1518,1518,0,0,0,0,0,0,0,0,0,0
1683128459.00053287,86028908,1519,1519,1520,1521,0,0,0,0,0,0,0,0,0,0
1683128459.10049295,86128868,1520,1520,1524,1525,0,0,0,0,0,0,0,0,0,0
1683128459.20045280,86228828,1521,1521,1527,1528,0,0,0,0,0,0,0,0,0,0
1683128459.30041289,86328788,1524,1524,1533,1532,0,0,0,0,0,0,0,0,0,0
1683128459.40037274,86428748,1529,1529,1539,1538,0,0,0,0,0,0,0,0,0,0
1683128459.50033283,86528708,1533,1533,1543,1542,0,0,0,0,0,0,0,0,0,0
1683128459.60029292,86628668,1536,1536,1545,1544,0,0,0,0,0,0,0,0,0,0
1683128459.70025277,86728628,1539,1539,1545,1545,0,0,0,0,0,0,0,0,0,0
1683128459.80021286,86828588,1542,1542,1545,1545,0,0,0,0,0,0,0,0,0,0
1683128459.90017295,86928548,1544,1543,1544,1544,0,0,0,0,0,0,0,0,0,0
1683128460.00013280,87028508,1546,1546,1544,1544,0,0,0,0,0,0,0,0,0,0
1683128460.10009289,87128468,1547,1547,1544,1544,0,0,0,0,0,0,0,0,0,0
1683128460.20005274,87228428,1548,1549,1544,1543,0,0,0,0,0,0,0,0,0,0
1683128460.30001283,87328388,1550,1550,1544,1544,0,0,0,0,0,0,0,0,0,0
1683128460.39997292,87428348,1549,1549,1543,1543,0,0,0,0,0,0,0,0,0,0
1683128460.49993277,87528308,1549,1549,1544,1543,0,0,0,0,0,0,0,0,0,0
1683128460.59989285,87628268,1549,1549,1544,1544,0,0,0,0,0,0,0,0,0,0
1683128460.69985294,87728228,1548,1548,1545,1544,0,0,0,0,0,0,0,0,0,0
1683128460.79981279,87828188,1547,1548,1545,1545,0,0,0,0,0,0,0,0,0,0
1683128460.90060592,87928981,1546,1547,1545,1545,0,0,0,0,0,0,0,0,0,0
1683128461.00056577,88028941,1546,1546,1546,1546,0,0,0,0,0,0,0,0,0,0
1683128461.10052586,88128901,1545,1544,1545,1545,0,0,0,0,0,0,0,0,0,0
1683128461.20048594,88228861,1544,1544,1546,1545,0,0,0,0,0,0,0,0,0,0
1683128461.30044580,88328821,1544,1544,1546,1545,0,0,0,0,0,0,0,0,0,0
1683128461.40040588,88428781,1543,1543,1546,1545,0,0,0,0,0,0,0,0,0,0
1683128461.50036573,88528741,1543,1543,1546,1545,0,0,0,0,0,0,0,0,0,0
1683128461.60032582,88628701,1543,1544,1545,1546,0,0,0,0,0,0,0,0,0,0
1683128461.70028591,88728661,1544,1544,1545,1546,0,0,0,0,0,0,0,0,0,0
1683128461.80024576,88828621,1543,1543,1545,1545,0,0,0,0,0,0,0,0,0,0
1683128461.90020585,88928581,1544,1543,1545,1544,0,0,0,0,0,0,0,0,0,0
1683128462.00016594,89028541,1544,1544,1544,1544,0,0,0,0,0,0,0,0,0,0
1683128462.10012579,89128501,1544,1544,1544,1544,0,0,0,0,0,0,0,0,0,0
1683128462.20008588,89228461,1544,1544,1543,1543,0,0,0,0,0,0,0,0,0,0
1683128462.30004597,89328421,1545,1545,1544,1544,0,0,0,0,0,0,0,0,0,0
1683128462.40000582,89428381,1545,1545,1544,1544,0,0,0,0,0,0,0,0,0,0
1683128462.49996591,89528341,1545,1545,1544,1544,0,0,0,0,0,0,0,0,0,0
1683128462.59992576,89628301,1544,1544,1543,1543,0,0,0,0,0,0,0,0,0,0
1683128462.69988585,89728261,1545,1544,1544,1543,0,0,0,0,0,0,0,0,0,0
1683128462.79984593,89828221,1544,1544,1543,1543,0,0,0,0,0,0,0,0,0,0
1683128462.89980578,89928181,1544,1544,1543,1543,0,0,0,0,0,0,0,0,0,0
1683128463.00059891,90028974,1544,1544,1544,1544,0,0,0,0,0,0,0,0,0,0
1683128463.10055876,90128934,1544,1544,1544,1544,0,0,0,0,0,0,0,0,0,0
1683128463.20051885,90228894,1544,1544,1545,1544,0,0,0,0,0,0,0,0,0,0
1683128463.30047894,90328854,1544,1544,1544,1545,0,0,0,0,0,0,0,0,0,0
1683128463.40043879,90428814,1544,1544,1545,1545,0,0,0,0,0,0,0,0,0,0
1683128463.50039887,90528774,1544,1544,1544,1545,0,0,0,0,0,0,0,0,0,0
1683128463.60035896,90628734,1543,1543,1544,1544,0,0,0,0,0,0,0,0,0,0
1683128463.70031881,90728694,1544,1544,1544,1544,0,0,0,0,0,0,0,0,0,0
1683128463.80027890,90828654,1544,1544,1545,1545,0,0,0,0,0,0,0,0,0,0
1683128463.90023875,90928614,1544,1544,1544,1544,0,0,0,0,0,0,0,0,0,0
1683128464.00019884,91028574,1544,1544,1544,1544,0,0,0,0,0,0,0,0,0,0
1683128464.10015893,91128534,1544,1544,1544,1544,0,0,0,0,0,0,0,0,0,0
1683128464.20011878,91228494,1544,1544,1544,1544,0,0,0,0,0,0,0,0,0,0
1683128464.30007887,91328454,1543,1543,1543,1543,0,0,0,0,0,0,0,0,0,0
1683128464.40003896,91428414,1543,1544,1543,1543,0,0,0,0,0,0,0,0,0,0
1683128464.49999881,91528374,1544,1544,1543,1543,0,0,0,0,0,0,0,0,0,0
1683128464.59995890,91628334,1544,1544,1544,1544,0,0,0,0,0,0,0,0,0,0
1683128464.69991875,91728294,1544,1544,1544,1544,0,0,0,0,0,0,0,0,0,0
1683128464.79987884,91828254,1544,1544,1544,1544,0,0,0,0,0,0,0,0,0,0
1683128464.89983892,91928214,1544,1544,1543,1544,0,0,0,0,0,0,0,0,0,0
1683128464.99979877,92028174,1545,1545,1545,1545,0,0,0,0,0,0,0,0,0,0
1683128465.10059190,92128967,1544,1545,1544,1545,0,0,0,0,0,0,0,0,0,0
1683128465.20055175,92228927,1544,1544,1544,1544,0,0,0,0,0,0,0,0,0,0
1683128465.30051184,92328887,1544,1544,1545,1545,0,0,0,0,0,0,0,0,0,0
1683128465.40047193,92428847,1544,1544,1544,1544,0,0,0,0,0,0,0,0,0,0
1683128465.50043178,92528807,1544,1544,1544,1544,0,0,0,0,0,0,0,0,0,0
1683128465.60039186,92628767,1544,1544,1544,1544,0,0,0,0,0,0,0,0,0,0
1683128465.70035195,92728727,1545,1544,1544,1544,0,0,0,0,0,0,0,0,0,0
1683128465.80031180,92828687,1544,1544,1544,1543,0,0,0,0,0,0,0,0,0,0
1683128465.90027189,92928647,1545,1545,1545,1545,0,0,0,0,0,0,0,0,0,0
1683128466.00023174,93028607,1544,1545,1545,1544,0,0,0,0,0,0,0,0,0,0
1683128466.10019183,93128567,1545,1545,1545,1545,0,0,0,0,0,0,0,0,0,0
1683128466.20015192,93228527,1544,1545,1544,1545,0,0,0,0,0,0,0,0,0,0
1683128466.30011177,93328487,1544,1544,1544,1544,0,0,0,0,0,0,0,0,0,0
1683128466.40007186,93428447,1545,1545,1545,1545,0,0,0,0,0,0,0,0,0,0
1683128466.50003195,93528407,1545,1544,1544,1545,0,0,0,0,0,0,0,0,0,0
1683128466.59999180,93628367,1544,1544,1544,1544,0,0,0,0,0,0,0,0,0,0
1683128466.69995189,93728327,1544,1544,1544,1543,0,0,0,0,0,0,0,0,0,0
1683128466.79991174,93828287,1544,1544,1544,1544,0,0,0,0,0,0,0,0,0,0
1683128466.89987183,93928247,1545,1545,1545,1545,0,0,0,0,0,0,0,0,0,0
1683128466.99983191,94028207,1544,1544,1544,1544,0,0,0,0,0,0,0,0,0,0
1683128467.09979177,94128167,1544,1544,1544,1543,0,0,0,0,0,0,0,0,0,0
1683128467.20058489,94228960,1544,1544,1544,1544,0,0,0,0,0,0,0,0,0,0
1683128467.30054474,94328920,1544,1544,1543,1544,0,0,0,0,0,0,0,0,0,0
1683128467.40050483,94428880,1544,1545,1544,1545,0,0,0,0,0,0,0,0,0,0
1683128467.50046492,94528840,1545,1545,1545,1546,0,0,0,0,0,0,0,0,0,0
1683128467.60042477,94628800,1545,1545,1545,1545,0,0,0,0,0,0,0,0,0,0
1683128467.70038486,94728760,1545,1545,1545,1545,0,0,0,0,0,0,0,0,0,0
1683128467.80034494,94828720,1544,1545,1545,1544,0,0,0,0,0,0,0,0,0,0
1683128467.90030479,94928680,1545,1545,1545,1545,0,0,0,0,0,0,0,0,0,0
1683128468.00026488,95028640,1545,1544,1544,1545,0,0,0,0,0,0,0,0,0,0
1683128468.10022473,95128600,1545,1544,1544,1545,0,0,0,0,0,0,0,0,0,0
1683128468.20018482,95228560,1545,1545,1545,1545,0,0,0,0,0,0,0,0,0,0
1683128468.30014491,95328520,1545,1544,1544,1544,0,0,0,0,0,0,0,0,0,0
1683128468.40010476,95428480,1545,1545,1545,1544,0,0,0,0,0,0,0,0,0,0
1683128468.50006485,95528440,1442,1441,1392,1392,0,0,0,0,0,0,0,0,0,0
1683128468.60002494,95628400,1368,1365,1267,1267,0,0,0,0,0,0,0,0,0,0
1683128468.69998479,95728360,1344,1341,1223,1223,0,0,0,0,0,0,0,0,0,0
1683128468.79994488,95828320,1334,1332,1205,1204,0,0,0,0,0,0,0,0,0,0
1683128468.89990497,95928280,1315,1312,1164,1164,0,0,0,0,0,0,0,0,0,0
1683128468.99986482,96028240,1266,1263,1150,1150,0,0,0,0,0,0,0,0,0,0
1683128469.09982491,96128200,1171,1167,1150,1150,0,0,0,0,0,0,0,0,0,0
1683128469.19978476,96228160,1066,1062,1150,1150,0,0,0,0,0,0,0,0,0,0
1683128469.30057788,96328953,1011,1008,1150,1150,0,0,0,0,0,0,0,0,0,0
1683128469.40053797,96428913,1011,1008,1150,1150,0,0,0,0,0,0,0,0,0,0
1683128469.50049782,96528873,1011,1008,1150,1150,0,0,0,0,0,0,0,0,0,0
1683128469.60045791,96628833,1010,995,1150,1169,0,0,0,0,0,0,0,0,0,0
1683128469.70041776,96728793,1010,999,1150,1162,0,0,0,0,0,0,0,0,0,0
1683128469.80037785,96828753,1010,1002,1150,1158,0,0,0,0,0,0,0,0,0,0
1683128469.90033793,96928713,1010,1002,1150,1158,0,0,0,0,0,0,0,0,0,0
1683128470.00029778,97028673,1010,1002,1150,1158,0,0,0,0,0,0,0,0,0,0
1683128470.10025787,97128633,1010,1002,1150,1158,0,0,0,0,0,0,0,0,0,0
1683128470.20021796,97228593,1010,1002,1150,1159,0,0,0,0,0,0,0,0,0,0
1683128470.30017781,97328553,1010,1002,1150,1159,0,0,0,0,0,0,0,0,0,0
1683128470.40013790,97428513,1010,1009,1150,1150,0,0,0,0,0,0,0,0,0,0
1683128470.50009775,97528473,1010,1008,1150,1151,0,0,0,0,0,0,0,0,0,0
1683128470.60005784,97628433,1010,1007,1150,1151,0,0,0,0,0,0,0,0,0,0
1683128470.70001793,97728393,1010,1007,1150,1151,0,0,0,0,0,0,0,0,0,0
1683128470.79997778,97828353,1010,1007,1150,1151,0,0,0,0,0,0,0,0,0,0
1683128470.89993787,97928313,1000,1000,1000,1000,0,0,0,0,0,0,0,0,0,0
1683128470.99989796,98028273,1000,1000,1000,1000,0,0,0,0,0,0,0,0,0,0
1683128471.09985781,98128233,1000,1000,1000,1000,0,0,0,0,0,0,0,0,0,0
1683128471.19981790,98228193,1000,1000,1000,1000,0,0,0,0,0,0,0,0,0,0
1683128471.30061078,98328986,1000,1000,1000,1000,0,0,0,0,0,0,0,0,0,0
1683128471.40057087,98428946,1000,1000,1000,1000,0,0,0,0,0,0,0,0,0,0
1683128471.50053096,98528906,1000,1000,1000,1000,0,0,0,0,0,0,0,0,0,0
1683128471.60049081,98628866,1000,1000,1000,1000,0,0,0,0,0,0,0,0,0,0
1683128471.70045090,98728826,1000,1000,1000,1000,0,0,0,0,0,0,0,0,0,0
1683128471.80041075,98828786,1000,1000,1000,1000,0,0,0,0,0,0,0,0,0,0
1683128471.90037084,98928746,1000,1000,1000,1000,0,0,0,0,0,0,0,0,0,0
1683128472.00033092,99028706,1000,1000,1000,1000,0,0,0,0,0,0,0,0,0,0
1683128472.10029078,99128666,1000,1000,1000,1000,0,0,0,0,0,0,0,0,0,0
1683128472.20025086,99228626,1000,1000,1000,1000,0,0,0,0,0,0,0,0,0,0
1683128472.30021095,99328586,1000,1000,1000,1000,0,0,0,0,0,0,0,0,0,0
1683128472.40017080,99428546,1000,1000,1000,1000,0,0,0,0,0,0,0,0,0,0
1683128472.50013089,99528506,1000,1000,1000,1000,0,0,0,0,0,0,0,0,0,0
1683128472.60009074,99628466,1000,1000,1000,1000,0,0,0,0,0,0,0,0,0,0
1683128472.70005083,99728426,1000,1000,1000,1000,0,0,0,0,0,0,0,0,0,0
1683128472.80001092,99828386,1000,1000,1000,1000,0,0,0,0,0,0,0,0,0,0
1683128472.89997077,99928346,1000,1000,1000,1000,0,0,0,0,0,0,0,0,0,0
1683128472.99993086,100028306,1000,1000,1000,1000,0,0,0,0,0,0,0,0,0,0
1683128473.09989095,100128266,1000,1000,1000,1000,0,0,0,0,0,0,0,0,0,0
1683128473.19985080,100228226,1000,1000,1000,1000,0,0,0,0,0,0,0,0,0,0
1683128473.29981089,100328186,1000,1000,1000,1000,0,0,0,0,0,0,0,0,0,0
1683128473.40060377,100428979,1000,1000,1000,1000,0,0,0,0,0,0,0,0,0,0
1683128473.50056386,100528939,1000,1000,1000,1000,0,0,0,0,0,0,0,0,0,0
1683128473.60052395,100628899,1000,1000,1000,1000,0,0,0,0,0,0,0,0,0,0
1683128473.70048380,100728859,1000,1000,1000,1000,0,0,0,0,0,0,0,0,0,0
1683128473.80044389,100828819,1000,1000,1000,1000,0,0,0,0,0,0,0,0,0,0
1683128473.90040374,100928779,1000,1000,1000,1000,0,0,0,0,0,0,0,0,0,0
1683128474.00036383,101028739,1000,1000,1000,1000,0,0,0,0,0,0,0,0,0,0
1683128474.10032392,101128699,1000,1000,1000,1000,0,0,0,0,0,0,0,0,0,0
1683128474.20028377,101228659,1000,1000,1000,1000,0,0,0,0,0,0,0,0,0,0
1683128474.30024385,101328619,1000,1000,1000,1000,0,0,0,0,0,0,0,0,0,0
1683128474.40020394,101428579,1000,1000,1000,1000,0,0,0,0,0,0,0,0,0,0
1683128474.50016379,101528539,1000,1000,1000,1000,0,0,0,0,0,0,0,0,0,0
1683128474.60012388,101628499,1000,1000,1000,1000,0,0,0,0,0,0,0,0,0,0
1683128474.70008373,101728459,1000,1000,1000,1000,0,0,0,0,0,0,0,0,0,0
1683128474.80004382,101828419,1000,1000,1000,1000,0,0,0,0,0,0,0,0,0,0
1683128474.90000391,101928379,1000,1000,1000,1000,0,0,0,0,0,0,0,0,0,0
1683128474.99996376,102028339,1000,1000,1000,1000,0,0,0,0,0,0,0,0,0,0
1683128475.09992385,102128299,1000,1000,1000,1000,0,0,0,0,0,0,0,0,0,0
1683128475.19988394,102228259,1000,1000,1000,1000,0,0,0,0,0,0,0,0,0,0
1683128475.29984379,102328219,1000,1000,1000,1000,0,0,0,0,0,0,0,0,0,0
1683128475.39980388,102428179,1000,1000,1000,1000,0,0,0,0,0,0,0,0,0,0
1683128475.50059676,102528972,1000,1000,1000,1000,0,0,0,0,0,0,0,0,0,0
1683128475.60055685,102628932,1000,1000,1000,1000,0,0,0,0,0,0,0,0,0,0
1683128475.70051694,102728892,1000,1000,1000,1000,0,0,0,0,0,0,0,0,0,0
1683128475.80047679,102828852,1000,1000,1000,1000,0,0,0,0,0,0,0,0,0,0
1683128475.90043688,102928812,1000,1000,1000,1000,0,0,0,0,0,0,0,0,0,0
1683128476.00039697,103028772,1000,1000,1000,1000,0,0,0,0,0,0,0,0,0,0
1683128476.10035682,103128732,1000,1000,1000,1000,0,0,0,0,0,0,0,0,0,0
1683128476.20031691,103228692,1000,1000,1000,1000,0,0,0,0,0,0,0,0,0,0
1683128476.30027676,103328652,1000,1000,1000,1000,0,0,0,0,0,0,0,0,0,0
1683128476.40023685,103428612,1000,1000,1000,1000,0,0,0,0,0,0,0,0,0,0
1683128476.50019693,103528572,1000,1000,1000,1000,0,0,0,0,0,0,0,0,0,0
1683128476.60015678,103628532,1000,1000,1000,1000,0,0,0,0,0,0,0,0,0,0
1683128476.70011687,103728492,1000,1000,1000,1000,0,0,0,0,0,0,0,0,0,0
1683128476.80007696,103828452,1000,1000,1000,1000,0,0,0,0,0,0,0,0,0,0
1683128476.90003681,103928412,1000,1000,1000,1000,0,0,0,0,0,0,0,0,0,0
1683128476.99999690,104028372,1000,1000,1000,1000,0,0,0,0,0,0,0,0,0,0
1683128477.09995675,104128332,1000,1000,1000,1000,0,0,0,0,0,0,0,0,0,0
1683128477.19991684,104228292,1000,1000,1000,1000,0,0,0,0,0,0,0,0,0,0
1683128477.29987693,104328252,1000,1000,1000,1000,0,0,0,0,0,0,0,0,0,0
1683128477.39983678,104428212,1000,1000,1000,1000,0,0,0,0,0,0,0,0,0,0
1683128477.49979687,104528172,1000,1000,1000,1000,0,0,0,0,0,0,0,0,0,0
1683128477.60058975,104628965,1000,1000,1000,1000,0,0,0,0,0,0,0,0,0,0
1683128477.70054984,104728925,1000,1000,1000,1000,0,0,0,0,0,0,0,0,0,0
1683128477.80050993,104828885,1000,1000,1000,1000,0,0,0,0,0,0,0,0,0,0
1683128477.90046978,104928845,1000,1000,1000,1000,0,0,0,0,0,0,0,0,0,0
1683128478.00042987,105028805,1000,1000,1000,1000,0,0,0,0,0,0,0,0,0,0
1683128478.10038996,105128765,1000,1000,1000,1000,0,0,0,0,0,0,0,0,0,0
1683128478.20034981,105228725,1000,1000,1000,1000,0,0,0,0,0,0,0,0,0,0
1683128478.30030990,105328685,1000,1000,1000,1000,0,0,0,0,0,0,0,0,0,0
1683128478.40026975,105428645,1000,1000,1000,1000,0,0,0,0,0,0,0,0,0,0
1683128478.50022984,105528605,1000,1000,1000,1000,0,0,0,0,0,0,0,0,0,0
1683128478.60018992,105628565,1000,1000,1000,1000,0,0,0,0,0,0,0,0,0,0
1683128478.70014977,105728525,1000,1000,1000,1000,0,0,0,0,0,0,0,0,0,0
1683128478.80010986,105828485,1000,1000,1000,1000,0,0,0,0,0,0,0,0,0,0
1683128478.90006995,105928445,1000,1000,1000,1000,0,0,0,0,0,0,0,0,0,0
1683128479.00002980,106028405,1000,1000,1000,1000,0,0,0,0,0,0,0,0,0,0
1683128479.09998989,106128365,1000,1000,1000,1000,0,0,0,0,0,0,0,0,0,0
1683128479.19994974,106228325,1000,1000,1000,1000,0,0,0,0,0,0,0,0,0,0
1683128479.29990983,106328285,1000,1000,1000,1000,0,0,0,0,0,0,0,0,0,0
1683128479.39986992,106428245,1000,1000,1000,1000,0,0,0,0,0,0,0,0,0,0
1683128479.49982977,106528205,1000,1000,1000,1000,0,0,0,0,0,0,0,0,0,0
1683128479.59978986,106628165,1000,1000,1000,1000,0,0,0,0,0,0,0,0,0,0
1683128479.70058274,106728958,1000,1000,1000,1000,0,0,0,0,0,0,0,0,0,0
1683128479.80054283,106828918,1000,1000,1000,1000,0,0,0,0,0,0,0,0,0,0
1683128479.90050292,106928878,1000,1000,1000,1000,0,0,0,0,0,0,0,0,0,0
1683128480.00046277,107028838,1000,1000,1000,1000,0,0,0,0,0,0,0,0,0,0
1683128480.10042286,107128798,1000,1000,1000,1000,0,0,0,0,0,0,0,0,0,0
1683128480.20038295,107228758,1000,1000,1000,1000,0,0,0,0,0,0,0,0,0,0
1683128480.30034280,107328718,1000,1000,1000,1000,0,0,0,0,0,0,0,0,0,0
1683128480.40030289,107428678,1000,1000,1000,1000,0,0,0,0,0,0,0,0,0,0
1683128480.50026274,107528638,1000,1000,1000,1000,0,0,0,0,0,0,0,0,0,0
1683128480.60022283,107628598,1000,1000,1000,1000,0,0,0,0,0,0,0,0,0,0
1683128480.70018291,107728558,1000,1000,1000,1000,0,0,0,0,0,0,0,0,0,0
1683128480.80014277,107828518,1000,1000,1000,1000,0,0,0,0,0,0,0,0,0,0
1683128480.90010285,107928478,1000,1000,1000,1000,0,0,0,0,0,0,0,0,0,0
1683128481.00006294,108028438,1000,1000,1000,1000,0,0,0,0,0,0,0,0,0,0
1683128481.10002279,108128398,1000,1000,1000,1000,0,0,0,0,0,0,0,0,0,0
1683128481.19998288,108228358,1000,1000,1000,1000,0,0,0,0,0,0,0,0,0,0
1683128481.29994297,108328318,1000,1000,1000,1000,0,0,0,0,0,0,0,0,0,0
1683128481.39990282,108428278,1000,1000,1000,1000,0,0,0,0,0,0,0,0,0,0
1683128481.49986291,108528238,1000,1000,1000,1000,0,0,0,0,0,0,0,0,0,0
1683128481.59982276,108628198,1000,1000,1000,1000,0,0,0,0,0,0,0,0,0,0
1683128481.69978285,108728158,1000,1000,1000,1000,0,0,0,0,0,0,0,0,0,0
1683128481.80057573,108828951,1000,1000,1000,1000,0,0,0,0,0,0,0,0,0,0
1683128481.90053582,108928911,1000,1000,1000,1000,0,0,0,0,0,0,0,0,0,0
1683128482.00049591,109028871,1000,1000,1000,1000,0,0,0,0,0,0,0,0,0,0
1683128482.10045576,109128831,1000,1000,1000,1000,0,0,0,0,0,0,0,0,0,0
1683128482.20041585,109228791,1000,1000,1000,1000,0,0,0,0,0,0,0,0,0,0
1683128482.30037594,109328751,1000,1000,1000,1000,0,0,0,0,0,0,0,0,0,0
1683128482.40033579,109428711,1000,1000,1000,1000,0,0,0,0,0,0,0,0,0,0
1683128482.50029588,109528671,1000,1000,1000,1000,0,0,0,0,0,0,0,0,0,0
1683128482.60025597,109628631,1000,1000,1000,1000,0,0,0,0,0,0,0,0,0,0
1683128482.70021582,109728591,1000,1000,1000,1000,0,0,0,0,0,0,0,0,0,0
1683128482.80017591,109828551,1000,1000,1000,1000,0,0,0,0,0,0,0,0,0,0
1683128482.90013576,109928511,1000,1000,1000,1000,0,0,0,0,0,0,0,0,0,0
1683128483.00009584,110028471,1000,1000,1000,1000,0,0,0,0,0,0,0,0,0,0
1683128483.10005593,110128431,1000,1000,1000,1000,0,0,0,0,0,0,0,0,0,0
1683128483.20001578,110228391,1000,1000,1000,1000,0,0,0,0,0,0,0,0,0,0
1683128483.29997587,110328351,1000,1000,1000,1000,0,0,0,0,0,0,0,0,0,0
1683128483.39993596,110428311,1000,1000,1000,1000,0,0,0,0,0,0,0,0,0,0
1683128483.49989581,110528271,1000,1000,1000,1000,0,0,0,0,0,0,0,0,0,0
1683128483.59985590,110628231,1000,1000,1000,1000,0,0,0,0,0,0,0,0,0,0
1683128483.69981575,110728191,1000,1000,1000,1000,0,0,0,0,0,0,0,0,0,0
1683128483.80060887,110828984,1000,1000,1000,1000,0,0,0,0,0,0,0,0,0,0
1683128483.90056896,110928944,1000,1000,1000,1000,0,0,0,0,0,0,0,0,0,0
1683128484.00052881,111028904,1000,1000,1000,1000,0,0,0,0,0,0,0,0,0,0
1683128484.10048890,111128864,1000,1000,1000,1000,0,0,0,0,0,0,0,0,0,0
1683128484.20044875,111228824,1000,1000,1000,1000,0,0,0,0,0,0,0,0,0,0
1683128484.30040884,111328784,1000,1000,1000,1000,0,0,0,0,0,0,0,0,0,0
1683128484.40036893,111428744,1000,1000,1000,1000,0,0,0,0,0,0,0,0,0,0
1683128484.50032878,111528704,1000,1000,1000,1000,0,0,0,0,0,0,0,0,0,0
1683128484.60028887,111628664,1000,1000,1000,1000,0,0,0,0,0,0,0,0,0,0
1683128484.70024896,111728624,1000,1000,1000,1000,0,0,0,0,0,0,0,0,0,0
1683128484.80020881,111828584,1000,1000,1000,1000,0,0,0,0,0,0,0,0,0,0
1683128484.90016890,111928544,1000,1000,1000,1000,0,0,0,0,0,0,0,0,0,0
1683128485.00012875,112028504,1000,1000,1000,1000,0,0,0,0,0,0,0,0,0,0
1683128485.10008883,112128464,1000,1000,1000,1000,0,0,0,0,0,0,0,0,0,0
1683128485.20004892,112228424,1000,1000,1000,1000,0,0,0,0,0,0,0,0,0,0
1683128485.30000877,112328384,1000,1000,1000,1000,0,0,0,0,0,0,0,0,0,0
1683128485.39996886,112428344,1000,1000,1000,1000,0,0,0,0,0,0,0,0,0,0
1683128485.49992895,112528304,1000,1000,1000,1000,0,0,0,0,0,0,0,0,0,0
1683128485.59988880,112628264,1000,1000,1000,1000,0,0,0,0,0,0,0,0,0,0
1683128485.69984889,112728224,1000,1000,1000,1000,0,0,0,0,0,0,0,0,0,0
1683128485.79980874,112828184,1000,1000,1000,1000,0,0,0,0,0,0,0,0,0,0
