TimeUS,M1,M2,M3,M4,TimeUS,C1,C2,C3,C4
52748892,1000,1000,1000,1000,52828860,1000,1000,1000,1000
52751391,1000,1000,1000,1000,52928820,1000,1000,1000,1000
52753890,1000,1000,1000,1000,53028780,1000,1000,1000,1000
52756389,1000,1000,1000,1000,53128740,1000,1000,1000,1000
52758888,1000,1000,1000,1000,53228700,1000,1000,1000,1000
52761387,1000,1000,1000,1000,53328660,1000,1000,1000,1000
52763886,1000,1000,1000,1000,53428620,1000,1000,1000,1000
52766385,1000,1000,1000,1000,53528580,1000,1000,1000,1000
52768884,1000,1000,1000,1000,53628540,1000,1000,1000,1000
52771383,1000,1000,1000,1000,53728500,1000,1000,1000,1000
52773882,1000,1000,1000,1000,53828460,1000,1000,1000,1000
52776381,1000,1000,1000,1000,53928420,1000,1000,1000,1000
52778880,1000,1000,1000,1000,54028380,1000,1000,1000,1000
52781379,1000,1000,1000,1000,54128340,1000,1000,1000,1000
52783878,1000,1000,1000,1000,54228300,1000,1000,1000,1000
52786377,1000,1000,1000,1000,54328260,1000,1000,1000,1000
52788876,1000,1000,1000,1000,54428220,1000,1000,1000,1000
52791375,1000,1000,1000,1000,54528180,1000,1000,1000,1000
52793874,1000,1000,1000,1000,54628973,1000,1000,1000,1000
52796373,1000,1000,1000,1000,54728933,1000,1000,1000,1000
52798872,1000,1000,1000,1000,54828893,1024,1024,1024,1024
52801371,1000,1000,1000,1000,54928853,1054,1054,1054,1054
52803870,1000,1000,1000,1000,55028813,1084,1084,1084,1084
52806369,1000,1000,1000,1000,55128773,1113,1113,1113,1113
52808868,1000,1000,1000,1000,55228733,1143,1143,1143,1143
52811367,1000,1000,1000,1000,55328693,1357,1351,1351,1358
52813866,1000,1000,1000,1000,55428653,1546,1541,1542,1547
52816365,1000,1000,1000,1000,55528613,1699,1694,1694,1699
52818864,1000,1000,1000,1000,55628573,1830,1825,1825,1830
52821363,1000,1000,1000,1000,55728533,1896,1891,1891,1896
52823862,1000,1000,1000,1000,55828493,1841,1840,1840,1841
52826361,1000,1000,1000,1000,55928453,1716,1715,1716,1716
52828860,1000,1000,1000,1000,56028413,1643,1645,1645,1644
52831359,1000,1000,1000,1000,56128373,1632,1634,1634,1632
52833858,1000,1000,1000,1000,56228333,1642,1644,1643,1642
52836357,1000,1000,1000,1000,56328293,1646,1647,1647,1646
52838856,1000,1000,1000,1000,56428253,1632,1632,1626,1638
52841355,1000,1000,1000,1000,56528213,1619,1619,1611,1627
52843854,1000,1000,1000,1000,56628173,1610,1611,1606,1615
52846353,1000,1000,1000,1000,56728966,1609,1609,1609,1609
52848852,1000,1000,1000,1000,56828926,1611,1611,1614,1608
52851351,1000,1000,1000,1000,56928886,1616,1616,1620,1612
52853850,1000,1000,1000,1000,57028846,1591,1592,1606,1577
52856349,1000,1000,1000,1000,57128806,1578,1578,1594,1562
52858848,1000,1000,1000,1000,57228766,1566,1566,1572,1561
52861347,1000,1000,1000,1000,57328726,1556,1556,1553,1559
52863846,1000,1000,1000,1000,57428686,1546,1546,1536,1557
52866345,1000,1000,1000,1000,57528646,1541,1540,1528,1553
52868844,1000,1000,1000,1000,57628606,1534,1534,1525,1543
52871343,1000,1000,1000,1000,57728566,1529,1529,1524,1533
52873842,1000,1000,1000,1000,57828526,1526,1526,1526,1526
52876341,1000,1000,1000,1000,57928486,1527,1527,1529,1525
52878840,1000,1000,1000,1000,58028446,1529,1528,1531,1525
52881339,1000,1000,1000,1000,58128406,1531,1531,1534,1529
52883838,1000,1000,1000,1000,58228366,1536,1536,1539,1533
52886337,1000,1000,1000,1000,58328326,1540,1540,1542,1538
52888836,1000,1000,1000,1000,58428286,1543,1544,1545,1543
52891335,1000,1000,1000,1000,58528246,1546,1546,1546,1547
52893834,1000,1000,1000,1000,58628206,1550,1549,1549,1550
52896333,1000,1000,1000,1000,58728166,1553,1552,1551,1554
52898832,1000,1000,1000,1000,58828959,1555,1553,1554,1556
52901331,1000,1000,1000,1000,58928919,1555,1554,1558,1560
52903830,1000,1000,1000,1000,59028879,1556,1557,1562,1563
52906329,1000,1000,1000,1000,59128839,1558,1559,1563,1564
52908828,1000,1000,1000,1000,59228799,1560,1561,1565,1565
52911327,1000,1000,1000,1000,59328759,1563,1563,1566,1565
52913826,1000,1000,1000,1000,59428719,1565,1565,1566,1566
52916325,1000,1000,1000,1000,59528679,1568,1567,1567,1567
52918824,1000,1000,1000,1000,59628639,1570,1569,1567,1567
52921323,1000,1000,1000,1000,59728599,1571,1571,1567,1567
52923822,1000,1000,1000,1000,59828559,1571,1572,1568,1568
52926321,1000,1000,1000,1000,59928519,1572,1573,1569,1569
52928820,1000,1000,1000,1000,60028479,1574,1574,1570,1571
52931319,1000,1000,1000,1000,60128439,1575,1574,1572,1572
52933818,1000,1000,1000,1000,60228399,1575,1575,1573,1572
52936317,1000,1000,1000,1000,60328359,1574,1574,1574,1573
52938816,1000,1000,1000,1000,60428319,1574,1575,1575,1574
52941315,1000,1000,1000,1000,60528279,1575,1575,1576,1575
52943814,1000,1000,1000,1000,60628239,1575,1575,1576,1575
52946313,1000,1000,1000,1000,60728199,1575,1575,1576,1576
52948812,1000,1000,1000,1000,60828159,1575,1575,1576,1576
52951311,1000,1000,1000,1000,60928952,1576,1576,1577,1577
52953810,1000,1000,1000,1000,61028912,1575,1576,1577,1577
52956309,1000,1000,1000,1000,61128872,1576,1576,1577,1577
52958808,1000,1000,1000,1000,61228832,1577,1577,1577,1577
52961307,1000,1000,1000,1000,61328792,1577,1577,1577,1577
52963806,1000,1000,1000,1000,61428752,1577,1577,1576,1576
52966305,1000,1000,1000,1000,61528712,1577,1576,1576,1576
52968804,1000,1000,1000,1000,61628672,1578,1578,1577,1577
52971303,1000,1000,1000,1000,61728632,1578,1578,1578,1577
52973802,1000,1000,1000,1000,61828592,1579,1579,1578,1578
52976301,1000,1000,1000,1000,61928552,1578,1578,1578,1578
52978800,1000,1000,1000,1000,62028512,1578,1578,1578,1578
52981299,1000,1000,1000,1000,62128472,1579,1579,1578,1579
52983798,1000,1000,1000,1000,62228432,1579,1578,1578,1578
52986297,1000,1000,1000,1000,62328392,1578,1577,1577,1578
52988796,1000,1000,1000,1000,62428352,1579,1578,1579,1579
52991295,1000,1000,1000,1000,62528312,1578,1578,1578,1578
52993794,1000,1000,1000,1000,62628272,1578,1578,1579,1579
52996293,1000,1000,1000,1000,62728232,1578,1578,1579,1579
52998792,1000,1000,1000,1000,62828192,1579,1578,1579,1579
53001291,1000,1000,1000,1000,62928985,1579,1579,1579,1579
53003790,1000,1000,1000,1000,63028945,1579,1579,1579,1579
53006289,1000,1000,1000,1000,63128905,1579,1579,1579,1579
53008788,1000,1000,1000,1000,63228865,1580,1579,1579,1579
53011287,1000,1000,1000,1000,63328825,1580,1579,1579,1579
53013786,1000,1000,1000,1000,63428785,1580,1580,1580,1580
53016285,1000,1000,1000,1000,63528745,1580,1579,1579,1580
53018784,1000,1000,1000,1000,63628705,1579,1579,1579,1579
53021283,1000,1000,1000,1000,63728665,1580,1581,1580,1581
53023782,1000,1000,1000,1000,63828625,1580,1580,1580,1580
53026281,1000,1000,1000,1000,63928585,1581,1581,1581,1581
53028780,1000,1000,1000,1000,64028545,1580,1581,1581,1580
53031279,1000,1000,1000,1000,64128505,1582,1581,1582,1582
53033778,1000,1000,1000,1000,64228465,1580,1580,1580,1581
53036277,1000,1000,1000,1000,64328425,1581,1581,1581,1581
53038776,1000,1000,1000,1000,64428385,1581,1580,1581,1580
53041275,1000,1000,1000,1000,64528345,1581,1581,1581,1581
53043774,1000,1000,1000,1000,64628305,1581,1581,1581,1581
53046273,1000,1000,1000,1000,64728265,1580,1581,1580,1580
53048772,1000,1000,1000,1000,64828225,1579,1580,1579,1579
53051271,1000,1000,1000,1000,64928185,1580,1580,1580,1581
53053770,1000,1000,1000,1000,65028978,1581,1581,1580,1580
53056269,1000,1000,1000,1000,65128938,1581,1582,1588,1573
53058768,1000,1000,1000,1000,65228898,1581,1583,1585,1573
53061267,1000,1000,1000,1000,65328858,1579,1581,1576,1573
53063766,1000,1000,1000,1000,65428818,1577,1580,1568,1572
53066265,1000,1000,1000,1000,65528778,1577,1579,1561,1568
53068764,1000,1000,1000,1000,65628738,1577,1578,1556,1563
53071263,1000,1000,1000,1000,65728698,1579,1577,1555,1559
53073762,1000,1000,1000,1000,65828658,1579,1578,1556,1555
53076261,1000,1000,1000,1000,65928618,1578,1578,1556,1554
53078760,1000,1000,1000,1000,66028578,1577,1577,1555,1553
53081259,1000,1000,1000,1000,66128538,1576,1577,1556,1554
53083758,1000,1000,1000,1000,66228498,1575,1576,1555,1553
53086257,1000,1000,1000,1000,66328458,1575,1575,1554,1553
53088756,1000,1000,1000,1000,66428418,1575,1576,1553,1553
53091255,1000,1000,1000,1000,66528378,1575,1576,1551,1551
53093754,1000,1000,1000,1000,66628338,1576,1578,1550,1550
53096253,1000,1000,1000,1000,66728298,1578,1579,1547,1547
53098752,1000,1000,1000,1000,66828258,1581,1582,1545,1545
53101251,1000,1000,1000,1000,66928218,1584,1585,1543,1543
53103750,1000,1000,1000,1000,67028178,1587,1587,1540,1539
53106249,1000,1000,1000,1000,67128971,1590,1590,1538,1537
53108748,1000,1000,1000,1000,67228931,1592,1593,1536,1535
53111247,1000,1000,1000,1000,67328891,1594,1594,1534,1535
53113746,1000,1000,1000,1000,67428851,1595,1595,1535,1536
53116245,1000,1000,1000,1000,67528811,1594,1593,1535,1537
53118744,1000,1000,1000,1000,67628771,1592,1591,1538,1541
53121243,1000,1000,1000,1000,67728731,1588,1587,1544,1547
53123742,1000,1000,1000,1000,67828691,1583,1581,1552,1555
53126241,1000,1000,1000,1000,67928651,1573,1570,1560,1563
53128740,1000,1000,1000,1000,68028611,1564,1560,1573,1575
53131239,1000,1000,1000,1000,68128571,1553,1549,1586,1586
53133738,1000,1000,1000,1000,68228531,1543,1540,1597,1597
53136237,1000,1000,1000,1000,68328491,1535,1534,1607,1607
53138736,1000,1000,1000,1000,68428451,1530,1531,1613,1612
53141235,1000,1000,1000,1000,68528411,1529,1530,1616,1614
53143734,1000,1000,1000,1000,68628371,1530,1533,1613,1613
53146233,1000,1000,1000,1000,68728331,1536,1538,1609,1609
53148732,1000,1000,1000,1000,68828291,1544,1545,1603,1603
53151231,1000,1000,1000,1000,68928251,1554,1555,1597,1597
53153730,1000,1000,1000,1000,69028211,1562,1562,1589,1588
53156229,1000,1000,1000,1000,69128171,1570,1570,1582,1581
53158728,1000,1000,1000,1000,69228964,1578,1577,1576,1575
53161227,1000,1000,1000,1000,69328924,1583,1581,1570,1570
53163726,1000,1000,1000,1000,69428884,1586,1585,1567,1567
53166225,1000,1000,1000,1000,69528844,1588,1586,1566,1566
53168724,1000,1000,1000,1000,69628804,1587,1586,1566,1566
53171223,1000,1000,1000,1000,69728764,1587,1585,1568,1569
53173722,1000,1000,1000,1000,69828724,1584,1584,1571,1571
53176221,1000,1000,1000,1000,69928684,1582,1582,1574,1574
53178720,1000,1000,1000,1000,70028644,1579,1579,1577,1577
53181219,1000,1000,1000,1000,70128604,1576,1576,1579,1579
53183718,1000,1000,1000,1000,70228564,1575,1575,1582,1582
53186217,1000,1000,1000,1000,70328524,1573,1574,1584,1583
53188716,1000,1000,1000,1000,70428484,1573,1574,1585,1584
53191215,1000,1000,1000,1000,70528444,1573,1573,1584,1584
53193714,1000,1000,1000,1000,70628404,1574,1574,1584,1585
53196213,1000,1000,1000,1000,70728364,1574,1574,1582,1582
53198712,1000,1000,1000,1000,70828324,1575,1576,1581,1581
53201211,1000,1000,1000,1000,70928284,1576,1576,1579,1579
53203710,1000,1000,1000,1000,71028244,1579,1579,1579,1579
53206209,1000,1000,1000,1000,71128204,1580,1580,1579,1579
53208708,1000,1000,1000,1000,71228164,1581,1581,1578,1578
53211207,1000,1000,1000,1000,71328957,1581,1581,1577,1577
53213706,1000,1000,1000,1000,71428917,1581,1581,1577,1577
53216205,1000,1000,1000,1000,71528877,1581,1581,1577,1577
53218704,1000,1000,1000,1000,71628837,1581,1581,1578,1578
53221203,1000,1000,1000,1000,71728797,1581,1581,1578,1578
53223702,1000,1000,1000,1000,71828757,1581,1581,1579,1579
53226201,1000,1000,1000,1000,71928717,1580,1580,1579,1579
53228700,1000,1000,1000,1000,72028677,1579,1579,1580,1579
53231199,1000,1000,1000,1000,72128637,1579,1579,1580,1580
53233698,1000,1000,1000,1000,72228597,1361,1364,1637,1645
53236197,1000,1000,1000,1000,72328557,1428,1436,1645,1649
53238696,1000,1000,1000,1000,72428517,1487,1497,1635,1630
53241195,1000,1000,1000,1000,72528477,1537,1543,1622,1614
53243694,1000,1000,1000,1000,72628437,1576,1576,1614,1604
53246193,1000,1000,1000,1000,72728397,1606,1596,1606,1599
53248692,1000,1000,1000,1000,72828357,1635,1619,1586,1586
53251191,1000,1000,1000,1000,72928317,1650,1636,1547,1555
53253690,1000,1000,1000,1000,73028277,1650,1642,1528,1542
53256189,1000,1000,1000,1000,73128237,1650,1649,1553,1553
53258688,1000,1000,1000,1000,73228197,1649,1650,1576,1570
53261187,1000,1000,1000,1000,73328157,1641,1643,1581,1578
53263686,1000,1000,1000,1000,73428950,1628,1630,1574,1574
53266185,1000,1000,1000,1000,73528910,1617,1620,1570,1570
53268684,1000,1000,1000,1000,73628870,1609,1611,1567,1566
53271183,1000,1000,1000,1000,73728830,1602,1603,1564,1561
53273682,1000,1000,1000,1000,73828790,1596,1596,1561,1558
53276181,1000,1000,1000,1000,73928750,1591,1589,1557,1555
53278680,1000,1000,1000,1000,74028710,1586,1584,1554,1552
53281179,1000,1000,1000,1000,74128670,1581,1579,1550,1549
53283678,1000,1000,1000,1000,74228630,1577,1577,1548,1548
53286177,1000,1000,1000,1000,74328590,1574,1575,1547,1546
53288676,1000,1000,1000,1000,74428550,1570,1572,1545,1544
53291175,1000,1000,1000,1000,74528510,1673,1674,1525,1522
53293674,1000,1000,1000,1000,74628470,1646,1647,1510,1508
53296173,1000,1000,1000,1000,74728430,1626,1627,1509,1508
53298672,1000,1000,1000,1000,74828390,1609,1611,1509,1509
53301171,1000,1000,1000,1000,74928350,1596,1599,1511,1511
53303670,1000,1000,1000,1000,75028310,1586,1589,1515,1514
53306169,1000,1000,1000,1000,75128270,1579,1581,1519,1520
53308668,1000,1000,1000,1000,75228230,1574,1575,1524,1526
53311167,1000,1000,1000,1000,75328190,1569,1570,1529,1531
53313666,1000,1000,1000,1000,75428983,1566,1568,1535,1538
53316165,1000,1000,1000,1000,75528943,1565,1566,1541,1544
53318664,1000,1000,1000,1000,75628903,1563,1565,1546,1550
53321163,1000,1000,1000,1000,75728863,1563,1563,1550,1553
53323662,1000,1000,1000,1000,75828823,1563,1563,1555,1557
53326161,1000,1000,1000,1000,75928783,1564,1562,1558,1560
53328660,1000,1000,1000,1000,76028743,1566,1564,1564,1565
53331159,1000,1000,1000,1000,76128703,1567,1564,1566,1567
53333658,1000,1000,1000,1000,76228663,1568,1563,1570,1573
53336157,1000,1000,1000,1000,76328623,1556,1548,1588,1591
53338656,1000,1000,1000,1000,76428583,1537,1531,1610,1611
53341155,1000,1000,1000,1000,76528543,1520,1518,1628,1628
53343654,1000,1000,1000,1000,76628503,1509,1511,1640,1638
53346153,1000,1000,1000,1000,76728463,1505,1510,1643,1640
53348652,1000,1000,1000,1000,76828423,1508,1516,1639,1638
53351151,1000,1000,1000,1000,76928383,1518,1525,1630,1629
53353650,1000,1000,1000,1000,77028343,1531,1536,1618,1616
53356149,1000,1000,1000,1000,77128303,1547,1550,1603,1602
53358648,1000,1000,1000,1000,77228263,1562,1562,1587,1587
53361147,1000,1000,1000,1000,77328223,1576,1575,1575,1574
53363646,1000,1000,1000,1000,77428183,1589,1586,1565,1565
53366145,1000,1000,1000,1000,77528976,1597,1593,1560,1559
53368644,1000,1000,1000,1000,77628936,1600,1596,1556,1557
53371143,1000,1000,1000,1000,77728896,1600,1597,1557,1558
53373642,1000,1000,1000,1000,77828856,1599,1597,1560,1561
53376141,1000,1000,1000,1000,77928816,1596,1595,1563,1564
53378640,1000,1000,1000,1000,78028776,1593,1593,1566,1566
53381139,1000,1000,1000,1000,78128736,1589,1589,1570,1569
53383638,1000,1000,1000,1000,78228696,1586,1587,1573,1573
53386137,1000,1000,1000,1000,78328656,1582,1582,1575,1575
53388636,1000,1000,1000,1000,78428616,1580,1580,1579,1579
53391135,1000,1000,1000,1000,78528576,1578,1578,1582,1582
53393634,1000,1000,1000,1000,78628536,1576,1577,1585,1584
53396133,1000,1000,1000,1000,78728496,1574,1575,1586,1586
53398632,1000,1000,1000,1000,78828456,1574,1574,1588,1587
53401131,1000,1000,1000,1000,78928416,1572,1572,1586,1586
53403630,1000,1000,1000,1000,79028376,1572,1573,1587,1586
53406129,1000,1000,1000,1000,79128336,1573,1573,1586,1585
53408628,1000,1000,1000,1000,79228296,1574,1575,1584,1585
53411127,1000,1000,1000,1000,79328256,1576,1577,1584,1584
53413626,1000,1000,1000,1000,79428216,1578,1578,1582,1582
53416125,1000,1000,1000,1000,79528176,1579,1580,1580,1580
53418624,1000,1000,1000,1000,79628969,1581,1581,1579,1579
53421123,1000,1000,1000,1000,79728929,1582,1582,1578,1578
53423622,1000,1000,1000,1000,79828889,1583,1582,1577,1577
53426121,1000,1000,1000,1000,79928849,1583,1583,1577,1577
53428620,1000,1000,1000,1000,80028809,1584,1584,1578,1578
53431119,1000,1000,1000,1000,80128769,1583,1583,1578,1577
53433618,1000,1000,1000,1000,80228729,1583,1582,1577,1578
53436117,1000,1000,1000,1000,80328689,1582,1582,1578,1578
53438616,1000,1000,1000,1000,80428649,1582,1582,1579,1579
53441115,1000,1000,1000,1000,80528609,1581,1581,1579,1580
53443614,1000,1000,1000,1000,80628569,1580,1580,1581,1581
53446113,1000,1000,1000,1000,80728529,1580,1580,1581,1581
53448612,1000,1000,1000,1000,80828489,1579,1580,1581,1582
53451111,1000,1000,1000,1000,80928449,1579,1580,1582,1582
53453610,1000,1000,1000,1000,81028409,1580,1580,1583,1582
53456109,1000,1000,1000,1000,81128369,1580,1580,1582,1582
53458608,1000,1000,1000,1000,81228329,1581,1581,1584,1583
53461107,1000,1000,1000,1000,81328289,1582,1582,1587,1579
53463606,1000,1000,1000,1000,81428249,1581,1581,1588,1574
53466105,1000,1000,1000,1000,81528209,1580,1582,1582,1574
53468604,1000,1000,1000,1000,81628169,1578,1580,1571,1572
53471103,1000,1000,1000,1000,81728962,1577,1579,1563,1568
53473602,1000,1000,1000,1000,81828922,1577,1579,1558,1565
53476101,1000,1000,1000,1000,81928882,1578,1579,1555,1560
53478600,1000,1000,1000,1000,82028842,1578,1578,1554,1556
53481099,1000,1000,1000,1000,82128802,1579,1578,1555,1555
53483598,1000,1000,1000,1000,82228762,1579,1578,1556,1554
53486097,1000,1000,1000,1000,82328722,1578,1578,1557,1554
53488596,1000,1000,1000,1000,82428682,1577,1577,1556,1554
53491095,1000,1000,1000,1000,82528642,1576,1577,1555,1555
53493594,1000,1000,1000,1000,82628602,1575,1577,1554,1554
53496093,1000,1000,1000,1000,82728562,1575,1576,1553,1553
53498592,1000,1000,1000,1000,82828522,1576,1577,1552,1551
53501091,1000,1000,1000,1000,82928482,1576,1578,1550,1550
53503590,1000,1000,1000,1000,83028442,1578,1579,1548,1548
53506089,1000,1000,1000,1000,83128402,1580,1581,1546,1546
53508588,1000,1000,1000,1000,83228362,1582,1583,1544,1543
53511087,1000,1000,1000,1000,83328322,1584,1585,1542,1541
53513586,1000,1000,1000,1000,83428282,1587,1588,1540,1540
53516085,1000,1000,1000,1000,83528242,1588,1589,1538,1538
53518584,1000,1000,1000,1000,83628202,1590,1590,1538,1538
53521083,1000,1000,1000,1000,83728162,1591,1590,1538,1540
53523582,1000,1000,1000,1000,83828955,1591,1591,1539,1542
53526081,1000,1000,1000,1000,83928915,1589,1589,1542,1544
53528580,1000,1000,1000,1000,84028875,1586,1586,1546,1549
53531079,1000,1000,1000,1000,84128835,1583,1581,1553,1556
53533578,1000,1000,1000,1000,84228795,1577,1574,1562,1564
53536077,1000,1000,1000,1000,84328755,1568,1565,1572,1574
53538576,1000,1000,1000,1000,84428715,1558,1555,1583,1584
53541075,1000,1000,1000,1000,84528675,1549,1547,1594,1594
53543574,1000,1000,1000,1000,84628635,1541,1540,1602,1602
53546073,1000,1000,1000,1000,84728595,1535,1535,1608,1608
53548572,1000,1000,1000,1000,84828555,1532,1534,1612,1611
53551071,1000,1000,1000,1000,84928515,1533,1535,1612,1611
53553570,1000,1000,1000,1000,85028475,1536,1538,1608,1608
53556069,1000,1000,1000,1000,85128435,1541,1543,1603,1603
53558568,1000,1000,1000,1000,85228395,1548,1549,1597,1597
53561067,1000,1000,1000,1000,85328355,1556,1557,1590,1589
53563566,1000,1000,1000,1000,85428315,1565,1565,1584,1583
53566065,1000,1000,1000,1000,85528275,1572,1571,1578,1577
53568564,1000,1000,1000,1000,85628235,1578,1578,1573,1572
53571063,1000,1000,1000,1000,85728195,1583,1582,1569,1569
53573562,1000,1000,1000,1000,85828155,1586,1585,1567,1567
53576061,1000,1000,1000,1000,85928948,1588,1587,1566,1567
53578560,1000,1000,1000,1000,86028908,1589,1587,1567,1568
53581059,1000,1000,1000,1000,86128868,1587,1586,1568,1569
53583558,1000,1000,1000,1000,86228828,1585,1585,1571,1571
53586057,1000,1000,1000,1000,86328788,1582,1583,1574,1574
53588556,1000,1000,1000,1000,86428748,1580,1581,1577,1577
53591055,1000,1000,1000,1000,86528708,1578,1578,1580,1579
53593554,1000,1000,1000,1000,86628668,1576,1576,1582,1581
53596053,1000,1000,1000,1000,86728628,1574,1575,1583,1583
53598552,1000,1000,1000,1000,86828588,1573,1573,1584,1583
53601051,1000,1000,1000,1000,86928548,1572,1573,1584,1584
53603550,1000,1000,1000,1000,87028508,1573,1574,1583,1584
53606049,1000,1000,1000,1000,87128468,1574,1575,1584,1583
53608548,1000,1000,1000,1000,87228428,1575,1576,1582,1582
53611047,1000,1000,1000,1000,87328388,1576,1576,1581,1581
53613546,1000,1000,1000,1000,87428348,1578,1578,1580,1580
53616045,1000,1000,1000,1000,87528308,1579,1578,1578,1578
53618544,1000,1000,1000,1000,87628268,1581,1580,1578,1579
53621043,1000,1000,1000,1000,87728228,1580,1580,1576,1576
53623542,1000,1000,1000,1000,87828188,1582,1581,1577,1577
53626041,1000,1000,1000,1000,87928981,1582,1582,1577,1577
53628540,1000,1000,1000,1000,88028941,1582,1582,1578,1578
53631039,1000,1000,1000,1000,88128901,1582,1583,1579,1579
53633538,1000,1000,1000,1000,88228861,1582,1582,1579,1580
53636037,1000,1000,1000,1000,88328821,1582,1582,1580,1581
53638536,1000,1000,1000,1000,88428781,1581,1581,1580,1579
53641035,1000,1000,1000,1000,88528741,1581,1581,1581,1581
53643534,1000,1000,1000,1000,88628701,1580,1580,1580,1581
53646033,1000,1000,1000,1000,88728661,1580,1579,1581,1581
53648532,1000,1000,1000,1000,88828621,1579,1580,1582,1581
53651031,1000,1000,1000,1000,88928581,1580,1580,1582,1582
53653530,1000,1000,1000,1000,89028541,1579,1580,1581,1581
53656029,1000,1000,1000,1000,89128501,1581,1581,1582,1582
53658528,1000,1000,1000,1000,89228461,1581,1581,1582,1582
53661027,1000,1000,1000,1000,89328421,1580,1580,1581,1581
53663526,1000,1000,1000,1000,89428381,1582,1582,1587,1577
53666025,1000,1000,1000,1000,89528341,1581,1580,1586,1572
53668524,1000,1000,1000,1000,89628301,1580,1580,1581,1575
53671023,1000,1000,1000,1000,89728261,1577,1576,1573,1575
53673522,1000,1000,1000,1000,89828221,1573,1573,1567,1574
53676021,1000,1000,1000,1000,89928181,1570,1570,1563,1571
53678520,1000,1000,1000,1000,90028974,1569,1569,1565,1569
53681019,1000,1000,1000,1000,90128934,1567,1567,1565,1567
53683518,1000,1000,1000,1000,90228894,1566,1567,1567,1566
53686017,1000,1000,1000,1000,90328854,1565,1565,1567,1564
53688516,1000,1000,1000,1000,90428814,1564,1565,1567,1564
53691015,1000,1000,1000,1000,90528774,1564,1564,1566,1565
53693514,1000,1000,1000,1000,90628734,1564,1564,1566,1565
53696013,1000,1000,1000,1000,90728694,1563,1563,1565,1565
53698512,1000,1000,1000,1000,90828654,1562,1562,1563,1563
53701011,1000,1000,1000,1000,90928614,1562,1562,1563,1563
53703510,1000,1000,1000,1000,91028574,1561,1561,1562,1562
53706009,1000,1000,1000,1000,91128534,1561,1561,1562,1562
53708508,1000,1000,1000,1000,91228494,1561,1560,1561,1560
53711007,1000,1000,1000,1000,91328454,1560,1560,1561,1560
53713506,1000,1000,1000,1000,91428414,1560,1560,1560,1559
53716005,1000,1000,1000,1000,91528374,1559,1559,1559,1558
53718504,1000,1000,1000,1000,91628334,1560,1559,1559,1558
53721003,1000,1000,1000,1000,91728294,1559,1558,1558,1557
53723502,1000,1000,1000,1000,91828254,1558,1558,1558,1557
53726001,1000,1000,1000,1000,91928214,1559,1559,1559,1558
53728500,1000,1000,1000,1000,92028174,1558,1559,1559,1557
53730999,1000,1000,1000,1000,92128967,1559,1558,1560,1557
53733498,1000,1000,1000,1000,92228927,1559,1558,1560,1558
53735997,1000,1000,1000,1000,92328887,1559,1559,1558,1561
53738496,1000,1000,1000,1000,92428847,1560,1559,1557,1563
53740995,1000,1000,1000,1000,92528807,1559,1559,1556,1563
53743494,1000,1000,1000,1000,92628767,1558,1559,1557,1560
53745993,1000,1000,1000,1000,92728727,1557,1558,1557,1557
53748492,1000,1000,1000,1000,92828687,1558,1558,1557,1559
53750991,1000,1000,1000,1000,92928647,1556,1556,1555,1556
53753490,1000,1000,1000,1000,93028607,1553,1553,1551,1552
53755989,1000,1000,1000,1000,93128567,1548,1548,1546,1546
53758488,1000,1000,1000,1000,93228527,1543,1543,1540,1540
53760987,1000,1000,1000,1000,93328487,1535,1536,1533,1532
53763486,1000,1000,1000,1000,93428447,1528,1528,1524,1524
53765985,1000,1000,1000,1000,93528407,1523,1523,1520,1520
53768484,1000,1000,1000,1000,93628367,1521,1520,1519,1519
53770983,1000,1000,1000,1000,93728327,1520,1520,1520,1521
53773482,1000,1000,1000,1000,93828287,1521,1521,1523,1523
53775981,1000,1000,1000,1000,93928247,1523,1523,1527,1527
53778480,1000,1000,1000,1000,94028207,1526,1526,1531,1531
53780979,1000,1000,1000,1000,94128167,1531,1531,1536,1537
53783478,1000,1000,1000,1000,94228960,1534,1534,1539,1539
53785977,1000,1000,1000,1000,94328920,1538,1538,1542,1542
53788476,1000,1000,1000,1000,94428880,1540,1540,1544,1543
53790975,1000,1000,1000,1000,94528840,1542,1542,1544,1543
53793474,1000,1000,1000,1000,94628800,1544,1544,1544,1544
53795973,1000,1000,1000,1000,94728760,1545,1546,1545,1544
53798472,1000,1000,1000,1000,94828720,1546,1547,1544,1545
53800971,1000,1000,1000,1000,94928680,1547,1547,1544,1544
53803470,1000,1000,1000,1000,95028640,1547,1547,1544,1544
53805969,1000,1000,1000,1000,95128600,1548,1548,1545,1545
53808468,1000,1000,1000,1000,95228560,1548,1548,1545,1545
53810967,1000,1000,1000,1000,95328520,1548,1548,1546,1546
53813466,1000,1000,1000,1000,95428480,1547,1547,1546,1546
53815965,1000,1000,1000,1000,95528440,1547,1547,1546,1546
53818464,1000,1000,1000,1000,95628400,1546,1546,1546,1546
53820963,1000,1000,1000,1000,95728360,1545,1545,1545,1545
53823462,1000,1000,1000,1000,95828320,1545,1545,1546,1546
53825961,1000,1000,1000,1000,95928280,1545,1545,1546,1546
53828460,1000,1000,1000,1000,96028240,1544,1544,1545,1545
53830959,1000,1000,1000,1000,96128200,1544,1543,1545,1545
53833458,1000,1000,1000,1000,96228160,1545,1544,1545,1545
53835957,1000,1000,1000,1000,96328953,1544,1543,1545,1545
53838456,1000,1000,1000,1000,96428913,1544,1544,1545,1544
53840955,1000,1000,1000,1000,96528873,1544,1544,1544,1544
53843454,1000,1000,1000,1000,96628833,1544,1545,1545,1544
53845953,1000,1000,1000,1000,96728793,1544,1544,1544,1544
53848452,1000,1000,1000,1000,96828753,1543,1544,1543,1543
53850951,1000,1000,1000,1000,96928713,1545,1544,1544,1544
53853450,1000,1000,1000,1000,97028673,1545,1545,1544,1544
53855949,1000,1000,1000,1000,97128633,1544,1544,1544,1544
53858448,1000,1000,1000,1000,97228593,1544,1544,1543,1544
53860947,1000,1000,1000,1000,97328553,1544,1544,1544,1544
53863446,1000,1000,1000,1000,97428513,1544,1544,1544,1544
53865945,1000,1000,1000,1000,97528473,1544,1544,1544,1544
53868444,1000,1000,1000,1000,97628433,1544,1544,1544,1544
53870943,1000,1000,1000,1000,97728393,1543,1543,1543,1543
53873442,1000,1000,1000,1000,97828353,1543,1544,1544,1543
53875941,1000,1000,1000,1000,97928313,1544,1543,1543,1544
53878440,1000,1000,1000,1000,98028273,1544,1544,1544,1544
53880939,1000,1000,1000,1000,98128233,1544,1543,1544,1544
53883438,1000,1000,1000,1000,98228193,1544,1544,1544,1544
53885937,1000,1000,1000,1000,98328986,1544,1545,1545,1545
53888436,1000,1000,1000,1000,98428946,1544,1545,1545,1545
53890935,1000,1000,1000,1000,98528906,1544,1544,1544,1544
53893434,1000,1000,1000,1000,98628866,1544,1544,1545,1544
53895933,1000,1000,1000,1000,98728826,1545,1545,1545,1545
53898432,1000,1000,1000,1000,98828786,1544,1544,1544,1544
53900931,1000,1000,1000,1000,98928746,1545,1545,1545,1545
53903430,1000,1000,1000,1000,99028706,1544,1544,1544,1544
53905929,1000,1000,1000,1000,99128666,1544,1544,1543,1544
53908428,1000,1000,1000,1000,99228626,1545,1544,1544,1544
53910927,1000,1000,1000,1000,99328586,1544,1543,1543,1544
53913426,1000,1000,1000,1000,99428546,1544,1544,1544,1544
53915925,1000,1000,1000,1000,99528506,1544,1544,1544,1544
53918424,1000,1000,1000,1000,99628466,1544,1544,1544,1544
53920923,1000,1000,1000,1000,99728426,1544,1544,1544,1544
53923422,1000,1000,1000,1000,99828386,1544,1544,1544,1544
53925921,1000,1000,1000,1000,99928346,1544,1544,1544,1544
53928420,1000,1000,1000,1000,100028306,1544,1544,1544,1544
53930919,1000,1000,1000,1000,100128266,1544,1544,1543,1544
53933418,1000,1000,1000,1000,100228226,1544,1544,1544,1544
53935917,1000,1000,1000,1000,100328186,1544,1544,1544,1545
53938416,1000,1000,1000,1000,100428979,1545,1545,1545,1545
53940915,1000,1000,1000,1000,100528939,1545,1544,1545,1545
53943414,1000,1000,1000,1000,100628899,1544,1545,1545,1545
53945913,1000,1000,1000,1000,100728859,1545,1545,1545,1545
53948412,1000,1000,1000,1000,100828819,1545,1545,1545,1545
53950911,1000,1000,1000,1000,100928779,1545,1544,1545,1545
53953410,1000,1000,1000,1000,101028739,1545,1545,1545,1545
53955909,1000,1000,1000,1000,101128699,1545,1545,1545,1545
53958408,1000,1000,1000,1000,101228659,1545,1545,1545,1545
53960907,1000,1000,1000,1000,101328619,1544,1545,1544,1544
53963406,1000,1000,1000,1000,101428579,1544,1544,1544,1544
53965905,1000,1000,1000,1000,101528539,1544,1544,1544,1544
53968404,1000,1000,1000,1000,101628499,1544,1544,1544,1544
53970903,1000,1000,1000,1000,101728459,1544,1544,1544,1544
53973402,1000,1000,1000,1000,101828419,1543,1543,1543,1543
53975901,1000,1000,1000,1000,101928379,1544,1543,1543,1544
53978400,1000,1000,1000,1000,102028339,1544,1544,1544,1544
53980899,1000,1000,1000,1000,102128299,1543,1544,1544,1544
53983398,1000,1000,1000,1000,102228259,1543,1544,1544,1544
53985897,1000,1000,1000,1000,102328219,1544,1544,1545,1544
53988396,1000,1000,1000,1000,102428179,1544,1544,1544,1544
53990895,1000,1000,1000,1000,102528972,1544,1544,1544,1545
53993394,1000,1000,1000,1000,102628932,1544,1544,1545,1544
53995893,1000,1000,1000,1000,102728892,1544,1544,1544,1544
53998392,1000,1000,1000,1000,102828852,1545,1545,1545,1545
54000891,1000,1000,1000,1000,102928812,1544,1544,1544,1544
54003390,1000,1000,1000,1000,103028772,1545,1545,1545,1544
54005889,1000,1000,1000,1000,103128732,1545,1544,1544,1544
54008388,1000,1000,1000,1000,103228692,1508,1507,1499,1499
54010887,1000,1000,1000,1000,103328652,1373,1372,1321,1321
54013386,1000,1000,1000,1000,103428612,1316,1316,1240,1238
54015885,1000,1000,1000,1000,103528572,1301,1299,1215,1213
54018384,1000,1000,1000,1000,103628532,1286,1285,1193,1190
54020883,1000,1000,1000,1000,103728492,1262,1260,1152,1150
54023382,1000,1000,1000,1000,103828452,1170,1169,1152,1150
54025881,1000,1000,1000,1000,103928412,1135,1134,1152,1150
54028380,1000,1000,1000,1000,104028372,1135,1133,1152,1150
54030879,1000,1000,1000,1000,104128332,1135,1133,1152,1150
54033378,1000,1000,1000,1000,104228292,1135,1121,1150,1169
54035877,1000,1000,1000,1000,104328252,1135,1127,1150,1161
54038376,1000,1000,1000,1000,104428212,1136,1129,1150,1157
54040875,1000,1000,1000,1000,104528172,1136,1129,1150,1157
54043374,1000,1000,1000,1000,104628965,1136,1129,1150,1157
54045873,1000,1000,1000,1000,104728925,1136,1128,1150,1158
54048372,1000,1000,1000,1000,104828885,1136,1128,1150,1158
54050871,1000,1000,1000,1000,104928845,1136,1128,1150,1158
54053370,1000,1000,1000,1000,105028805,1135,1135,1150,1150
54055869,1000,1000,1000,1000,105128765,1135,1134,1150,1151
54058368,1000,1000,1000,1000,105228725,1135,1134,1150,1151
54060867,1000,1000,1000,1000,105328685,1135,1133,1150,1151
54063366,1000,1000,1000,1000,105428645,1047,1046,1150,1150
54065865,1000,1000,1000,1000,105528605,1000,1000,1000,1000
54068364,1000,1000,1000,1000,105628565,1000,1000,1000,1000
54070863,1000,1000,1000,1000,105728525,1000,1000,1000,1000
54073362,1000,1000,1000,1000,105828485,1000,1000,1000,1000
54075861,1000,1000,1000,1000,105928445,1000,1000,1000,1000
54078360,1000,1000,1000,1000,106028405,1000,1000,1000,1000
54080859,1000,1000,1000,1000,106128365,1000,1000,1000,1000
54083358,1000,1000,1000,1000,106228325,1000,1000,1000,1000
54085857,1000,1000,1000,1000,106328285,1000,1000,1000,1000
54088356,1000,1000,1000,1000,106428245,1000,1000,1000,1000
54090855,1000,1000,1000,1000,106528205,1000,1000,1000,1000
54093354,1000,1000,1000,1000,106628165,1000,1000,1000,1000
54095853,1000,1000,1000,1000,106728958,1000,1000,1000,1000
54098352,1000,1000,1000,1000,106828918,1000,1000,1000,1000
54100851,1000,1000,1000,1000,106928878,1000,1000,1000,1000
54103350,1000,1000,1000,1000,107028838,1000,1000,1000,1000
54105849,1000,1000,1000,1000,107128798,1000,1000,1000,1000
54108348,1000,1000,1000,1000,107228758,1000,1000,1000,1000
54110847,1000,1000,1000,1000,107328718,1000,1000,1000,1000
54113346,1000,1000,1000,1000,107428678,1000,1000,1000,1000
54115845,1000,1000,1000,1000,107528638,1000,1000,1000,1000
54118344,1000,1000,1000,1000,107628598,1000,1000,1000,1000
54120843,1000,1000,1000,1000,107728558,1000,1000,1000,1000
54123342,1000,1000,1000,1000,107828518,1000,1000,1000,1000
54125841,1000,1000,1000,1000,107928478,1000,1000,1000,1000
54128340,1000,1000,1000,1000,108028438,1000,1000,1000,1000
54130839,1000,1000,1000,1000,108128398,1000,1000,1000,1000
54133338,1000,1000,1000,1000,108228358,1000,1000,1000,1000
54135837,1000,1000,1000,1000,108328318,1000,1000,1000,1000
54138336,1000,1000,1000,1000,108428278,1000,1000,1000,1000
54140835,1000,1000,1000,1000,108528238,1000,1000,1000,1000
54143334,1000,1000,1000,1000,108628198,1000,1000,1000,1000
54145833,1000,1000,1000,1000,108728158,1000,1000,1000,1000
54148332,1000,1000,1000,1000,108828951,1000,1000,1000,1000
54150831,1000,1000,1000,1000,108928911,1000,1000,1000,1000
54153330,1000,1000,1000,1000,109028871,1000,1000,1000,1000
54155829,1000,1000,1000,1000,109128831,1000,1000,1000,1000
54158328,1000,1000,1000,1000,109228791,1000,1000,1000,1000
54160827,1000,1000,1000,1000,109328751,1000,1000,1000,1000
54163326,1000,1000,1000,1000,109428711,1000,1000,1000,1000
54165825,1000,1000,1000,1000,109528671,1000,1000,1000,1000
54168324,1000,1000,1000,1000,109628631,1000,1000,1000,1000
54170823,1000,1000,1000,1000,109728591,1000,1000,1000,1000
54173322,1000,1000,1000,1000,109828551,1000,1000,1000,1000
54175821,1000,1000,1000,1000,109928511,1000,1000,1000,1000
54178320,1000,1000,1000,1000,110028471,1000,1000,1000,1000
54180819,1000,1000,1000,1000,110128431,1000,1000,1000,1000
54183318,1000,1000,1000,1000,110228391,1000,1000,1000,1000
54185817,1000,1000,1000,1000,110328351,1000,1000,1000,1000
54188316,1000,1000,1000,1000,110428311,1000,1000,1000,1000
54190815,1000,1000,1000,1000,110528271,1000,1000,1000,1000
54193314,1000,1000,1000,1000,110628231,1000,1000,1000,1000
54195813,1000,1000,1000,1000,110728191,1000,1000,1000,1000
54198312,1000,1000,1000,1000,110828984,1000,1000,1000,1000
54200811,1000,1000,1000,1000,110928944,1000,1000,1000,1000
54203310,1000,1000,1000,1000,111028904,1000,1000,1000,1000
54205809,1000,1000,1000,1000,111128864,1000,1000,1000,1000
54208308,1000,1000,1000,1000,111228824,1000,1000,1000,1000
54210807,1000,1000,1000,1000,111328784,1000,1000,1000,1000
54213306,1000,1000,1000,1000,111428744,1000,1000,1000,1000
54215805,1000,1000,1000,1000,111528704,1000,1000,1000,1000
54218304,1000,1000,1000,1000,111628664,1000,1000,1000,1000
54220803,1000,1000,1000,1000,111728624,1000,1000,1000,1000
54223302,1000,1000,1000,1000,111828584,1000,1000,1000,1000
54225801,1000,1000,1000,1000,111928544,1000,1000,1000,1000
54228300,1000,1000,1000,1000,112028504,1000,1000,1000,1000
54230799,1000,1000,1000,1000,112128464,1000,1000,1000,1000
54233298,1000,1000,1000,1000,112228424,1000,1000,1000,1000
54235797,1000,1000,1000,1000,112328384,1000,1000,1000,1000
54238296,1000,1000,1000,1000,112428344,1000,1000,1000,1000
54240795,1000,1000,1000,1000,112528304,1000,1000,1000,1000
54243294,1000,1000,1000,1000,112628264,1000,1000,1000,1000
54245793,1000,1000,1000,1000,112728224,1000,1000,1000,1000
54248292,1000,1000,1000,1000,112828184,1000,1000,1000,1000
54250791,1000,1000,1000,1000,112928977,1000,1000,1000,1000
54253290,1000,1000,1000,1000,113028937,1000,1000,1000,1000
54255789,1000,1000,1000,1000,113128897,1000,1000,1000,1000
54258288,1000,1000,1000,1000,113228857,1000,1000,1000,1000
54260787,1000,1000,1000,1000,113328817,1000,1000,1000,1000
54263286,1000,1000,1000,1000,113428777,1000,1000,1000,1000
54265785,1000,1000,1000,1000,113528737,1000,1000,1000,1000
54268284,1000,1000,1000,1000,113628697,1000,1000,1000,1000
54270783,1000,1000,1000,1000,113728657,1000,1000,1000,1000
54273282,1000,1000,1000,1000,113828617,1000,1000,1000,1000
54275781,1000,1000,1000,1000,113928577,1000,1000,1000,1000
54278280,1000,1000,1000,1000,114028537,1000,1000,1000,1000
54280779,1000,1000,1000,1000,114128497,1000,1000,1000,1000
54283278,1000,1000,1000,1000,114228457,1000,1000,1000,1000
54285777,1000,1000,1000,1000,114328417,1000,1000,1000,1000
54288276,1000,1000,1000,1000,114428377,1000,1000,1000,1000
54290775,1000,1000,1000,1000,114528337,1000,1000,1000,1000
54293274,1000,1000,1000,1000,114628297,1000,1000,1000,1000
54295773,1000,1000,1000,1000,114728257,1000,1000,1000,1000
54298272,1000,1000,1000,1000,114828217,1000,1000,1000,1000
54300771,1000,1000,1000,1000,114928177,1000,1000,1000,1000
54303270,1000,1000,1000,1000,115028970,1000,1000,1000,1000
54305769,1000,1000,1000,1000,115128930,1000,1000,1000,1000
54308268,1000,1000,1000,1000,115228890,1000,1000,1000,1000
54310767,1000,1000,1000,1000,115328850,1000,1000,1000,1000
54313266,1000,1000,1000,1000,115428810,1000,1000,1000,1000
54315765,1000,1000,1000,1000,115528770,1000,1000,1000,1000
54318264,1000,1000,1000,1000,115628730,1000,1000,1000,1000
54320763,1000,1000,1000,1000,115728690,1000,1000,1000,1000
54323262,1000,1000,1000,1000,115828650,1000,1000,1000,1000
54325761,1000,1000,1000,1000,115928610,1000,1000,1000,1000
54328260,1000,1000,1000,1000,116028570,1000,1000,1000,1000
54330759,1000,1000,1000,1000,116128530,1000,1000,1000,1000
54333258,1000,1000,1000,1000,116228490,1000,1000,1000,1000
54335757,1000,1000,1000,1000,116328450,1000,1000,1000,1000
54338256,1000,1000,1000,1000,116428410,1000,1000,1000,1000
54340755,1000,1000,1000,1000,116528370,1000,1000,1000,1000
54343254,1000,1000,1000,1000,116628330,1000,1000,1000,1000
54345753,1000,1000,1000,1000,116728290,1000,1000,1000,1000
54348252,1000,1000,1000,1000,116828250,1000,1000,1000,1000
54350751,1000,1000,1000,1000,116928210,1000,1000,1000,1000
54353250,1000,1000,1000,1000,117028170,1000,1000,1000,1000
54355749,1000,1000,1000,1000,117128963,1000,1000,1000,1000
54358248,1000,1000,1000,1000,117228923,1000,1000,1000,1000
54360747,1000,1000,1000,1000,117328883,1000,1000,1000,1000
54363246,1000,1000,1000,1000,117428843,1000,1000,1000,1000
54365745,1000,1000,1000,1000,117528803,1000,1000,1000,1000
54368244,1000,1000,1000,1000,117628763,1000,1000,1000,1000
54370743,1000,1000,1000,1000,117728723,1000,1000,1000,1000
54373242,1000,1000,1000,1000,117828683,1000,1000,1000,1000
54375741,1000,1000,1000,1000,117928643,1000,1000,1000,1000
54378240,1000,1000,1000,1000,118028603,1000,1000,1000,1000
54380739,1000,1000,1000,1000,118128563,1000,1000,1000,1000
54383238,1000,1000,1000,1000,118228523,1000,1000,1000,1000
54385737,1000,1000,1000,1000,118328483,1000,1000,1000,1000
54388236,1000,1000,1000,1000,118428443,1000,1000,1000,1000
54390735,1000,1000,1000,1000,,,,,
54393234,1000,1000,1000,1000,,,,,
54395733,1000,1000,1000,1000,,,,,
54398232,1000,1000,1000,1000,,,,,
54400731,1000,1000,1000,1000,,,,,
54403230,1000,1000,1000,1000,,,,,
54405729,1000,1000,1000,1000,,,,,
54408228,1000,1000,1000,1000,,,,,
54410727,1000,1000,1000,1000,,,,,
54413226,1000,1000,1000,1000,,,,,
54415725,1000,1000,1000,1000,,,,,
54418224,1000,1000,1000,1000,,,,,
54420723,1000,1000,1000,1000,,,,,
54423222,1000,1000,1000,1000,,,,,
54425721,1000,1000,1000,1000,,,,,
54428220,1000,1000,1000,1000,,,,,
54430719,1000,1000,1000,1000,,,,,
54433218,1000,1000,1000,1000,,,,,
54435717,1000,1000,1000,1000,,,,,
54438216,1000,1000,1000,1000,,,,,
54440715,1000,1000,1000,1000,,,,,
54443214,1000,1000,1000,1000,,,,,
54445713,1000,1000,1000,1000,,,,,
54448212,1000,1000,1000,1000,,,,,
54450711,1000,1000,1000,1000,,,,,
54453210,1000,1000,1000,1000,,,,,
54455709,1000,1000,1000,1000,,,,,
54458208,1000,1000,1000,1000,,,,,
54460707,1000,1000,1000,1000,,,,,
54463206,1000,1000,1000,1000,,,,,
54465705,1000,1000,1000,1000,,,,,
54468204,1000,1000,1000,1000,,,,,
54470703,1000,1000,1000,1000,,,,,
54473202,1000,1000,1000,1000,,,,,
54475701,1000,1000,1000,1000,,,,,
54478200,1000,1000,1000,1000,,,,,
54480699,1000,1000,1000,1000,,,,,
54483198,1000,1000,1000,1000,,,,,
54485697,1000,1000,1000,1000,,,,,
54488196,1000,1000,1000,1000,,,,,
54490695,1000,1000,1000,1000,,,,,
54493194,1000,1000,1000,1000,,,,,
54495693,1000,1000,1000,1000,,,,,
54498192,1000,1000,1000,1000,,,,,
54500691,1000,1000,1000,1000,,,,,
54503190,1000,1000,1000,1000,,,,,
54505689,1000,1000,1000,1000,,,,,
54508188,1000,1000,1000,1000,,,,,
54510687,1000,1000,1000,1000,,,,,
54513186,1000,1000,1000,1000,,,,,
54515685,1000,1000,1000,1000,,,,,
54518184,1000,1000,1000,1000,,,,,
54520683,1000,1000,1000,1000,,,,,
54523182,1000,1000,1000,1000,,,,,
54525681,1000,1000,1000,1000,,,,,
54528180,1000,1000,1000,1000,,,,,
54530679,1000,1000,1000,1000,,,,,
54533178,1000,1000,1000,1000,,,,,
54535677,1000,1000,1000,1000,,,,,
54538176,1000,1000,1000,1000,,,,,
54540675,1000,1000,1000,1000,,,,,
54543174,1000,1000,1000,1000,,,,,
54545673,1000,1000,1000,1000,,,,,
54548172,1000,1000,1000,1000,,,,,
54550671,1000,1000,1000,1000,,,,,
54553170,1000,1000,1000,1000,,,,,
54555669,1000,1000,1000,1000,,,,,
54558168,1000,1000,1000,1000,,,,,
54560667,1000,1000,1000,1000,,,,,
54563166,1000,1000,1000,1000,,,,,
54565665,1000,1000,1000,1000,,,,,
54568164,1000,1000,1000,1000,,,,,
54570663,1000,1000,1000,1000,,,,,
54573162,1000,1000,1000,1000,,,,,
54575661,1000,1000,1000,1000,,,,,
54578160,1000,1000,1000,1000,,,,,
54580659,1000,1000,1000,1000,,,,,
54583158,1000,1000,1000,1000,,,,,
54585657,1000,1000,1000,1000,,,,,
54588156,1000,1000,1000,1000,,,,,
54590655,1000,1000,1000,1000,,,,,
54593154,1000,1000,1000,1000,,,,,
54596486,1000,1000,1000,1000,,,,,
54598985,1000,1000,1000,1000,,,,,
54601484,1000,1000,1000,1000,,,,,
54603983,1000,1000,1000,1000,,,,,
54606482,1000,1000,1000,1000,,,,,
54608981,1000,1000,1000,1000,,,,,
54611480,1000,1000,1000,1000,,,,,
54613979,1000,1000,1000,1000,,,,,
54616478,1000,1000,1000,1000,,,,,
54618977,1000,1000,1000,1000,,,,,
54621476,1000,1000,1000,1000,,,,,
54623975,1000,1000,1000,1000,,,,,
54626474,1000,1000,1000,1000,,,,,
54628973,1000,1000,1000,1000,,,,,
54631472,1000,1000,1000,1000,,,,,
54633971,1000,1000,1000,1000,,,,,
54636470,1000,1000,1000,1000,,,,,
54638969,1000,1000,1000,1000,,,,,
54641468,1000,1000,1000,1000,,,,,
54643967,1000,1000,1000,1000,,,,,
54646466,1000,1000,1000,1000,,,,,
54648965,1000,1000,1000,1000,,,,,
54651464,1000,1000,1000,1000,,,,,
54653963,1000,1000,1000,1000,,,,,
54656462,1000,1000,1000,1000,,,,,
54658961,1000,1000,1000,1000,,,,,
54661460,1000,1000,1000,1000,,,,,
54663959,1000,1000,1000,1000,,,,,
54666458,1000,1000,1000,1000,,,,,
54668957,1000,1000,1000,1000,,,,,
54671456,1000,1000,1000,1000,,,,,
54673955,1000,1000,1000,1000,,,,,
54676454,1000,1000,1000,1000,,,,,
54678953,1000,1000,1000,1000,,,,,
54681452,1000,1000,1000,1000,,,,,
54683951,1000,1000,1000,1000,,,,,
54686450,1000,1000,1000,1000,,,,,
54688949,1000,1000,1000,1000,,,,,
54691448,1000,1000,1000,1000,,,,,
54693947,1000,1000,1000,1000,,,,,
54696446,1000,1000,1000,1000,,,,,
54698945,1000,1000,1000,1000,,,,,
54701444,1000,1000,1000,1000,,,,,
54703943,1000,1000,1000,1000,,,,,
54706442,1000,1000,1000,1000,,,,,
54708941,1000,1000,1000,1000,,,,,
54711440,1000,1000,1000,1000,,,,,
54713939,1000,1000,1000,1000,,,,,
54716438,1000,1000,1000,1000,,,,,
54718937,1000,1000,1000,1000,,,,,
54721436,1000,1000,1000,1000,,,,,
54723935,1000,1000,1000,1000,,,,,
54726434,1000,1000,1000,1000,,,,,
54728933,1000,1000,1000,1000,,,,,
54731432,1000,1000,1000,1000,,,,,
54733931,1000,1000,1000,1000,,,,,
54736430,1000,1000,1000,1000,,,,,
54738929,1000,1000,1000,1000,,,,,
54741428,1000,1000,1000,1000,,,,,
54743927,1000,1000,1000,1000,,,,,
54746426,1000,1000,1000,1000,,,,,
54748925,1000,1000,1000,1000,,,,,
54751424,1000,1000,1000,1000,,,,,
54753923,1000,1000,1000,1000,,,,,
54756422,1001,1001,1001,1001,,,,,
54758921,1002,1002,1002,1002,,,,,
54761420,1003,1003,1003,1003,,,,,
54763919,1003,1003,1003,1003,,,,,
54766418,1004,1004,1004,1004,,,,,
54768917,1005,1005,1005,1005,,,,,
54771416,1006,1006,1006,1006,,,,,
54773915,1006,1006,1006,1006,,,,,
54776414,1007,1007,1007,1007,,,,,
54778913,1008,1008,1008,1008,,,,,
54781412,1009,1009,1009,1009,,,,,
54783911,1009,1009,1009,1009,,,,,
54786410,1010,1010,1010,1010,,,,,
54788909,1011,1011,1011,1011,,,,,
54791408,1012,1012,1012,1012,,,,,
54793907,1012,1012,1012,1012,,,,,
54796406,1013,1013,1013,1013,,,,,
54798905,1014,1014,1014,1014,,,,,
54801404,1015,1015,1015,1015,,,,,
54803903,1015,1015,1015,1015,,,,,
54806402,1016,1016,1016,1016,,,,,
54808901,1017,1017,1017,1017,,,,,
54811400,1018,1018,1018,1018,,,,,
54813899,1018,1018,1018,1018,,,,,
54816398,1019,1019,1019,1019,,,,,
54818897,1020,1020,1020,1020,,,,,
54821396,1021,1021,1021,1021,,,,,
54823895,1021,1021,1021,1021,,,,,
54826394,1022,1022,1022,1022,,,,,
54828893,1023,1023,1023,1023,,,,,
54831392,1024,1024,1024,1024,,,,,
54833891,1024,1024,1024,1024,,,,,
54836390,1025,1025,1025,1025,,,,,
54838889,1026,1026,1026,1026,,,,,
54841388,1027,1027,1027,1027,,,,,
54843887,1027,1027,1027,1027,,,,,
54846386,1028,1028,1028,1028,,,,,
54848885,1029,1029,1029,1029,,,,,
54851384,1030,1030,1030,1030,,,,,
54853883,1030,1030,1030,1030,,,,,
54856382,1031,1031,1031,1031,,,,,
54858881,1032,1032,1032,1032,,,,,
54861380,1033,1033,1033,1033,,,,,
54863879,1033,1033,1033,1033,,,,,
54866378,1034,1034,1034,1034,,,,,
54868877,1035,1035,1035,1035,,,,,
54871376,1036,1036,1036,1036,,,,,
54873875,1036,1036,1036,1036,,,,,
54876374,1037,1037,1037,1037,,,,,
54878873,1038,1038,1038,1038,,,,,
54881372,1039,1039,1039,1039,,,,,
54883871,1039,1039,1039,1039,,,,,
54886370,1040,1040,1040,1040,,,,,
54888869,1041,1041,1041,1041,,,,,
54891368,1042,1042,1042,1042,,,,,
54893867,1042,1042,1042,1042,,,,,
54896366,1043,1043,1043,1043,,,,,
54898865,1044,1044,1044,1044,,,,,
54901364,1045,1045,1045,1045,,,,,
54903863,1045,1045,1045,1045,,,,,
54906362,1046,1046,1046,1046,,,,,
54908861,1047,1047,1047,1047,,,,,
54911360,1048,1048,1048,1048,,,,,
54913859,1048,1048,1048,1048,,,,,
54916358,1049,1049,1049,1049,,,,,
54918857,1050,1050,1050,1050,,,,,
54921356,1051,1051,1051,1051,,,,,
54923855,1051,1051,1051,1051,,,,,
54926354,1052,1052,1052,1052,,,,,
54928853,1053,1053,1053,1053,,,,,
54931352,1054,1054,1054,1054,,,,,
54933851,1054,1054,1054,1054,,,,,
54936350,1055,1055,1055,1055,,,,,
54938849,1056,1056,1056,1056,,,,,
54941348,1057,1057,1057,1057,,,,,
54943847,1057,1057,1057,1057,,,,,
54946346,1058,1058,1058,1058,,,,,
54948845,1059,1059,1059,1059,,,,,
54951344,1060,1060,1060,1060,,,,,
54953843,1060,1060,1060,1060,,,,,
54956342,1061,1061,1061,1061,,,,,
54958841,1062,1062,1062,1062,,,,,
54961340,1063,1063,1063,1063,,,,,
54963839,1063,1063,1063,1063,,,,,
54966338,1064,1064,1064,1064,,,,,
54968837,1065,1065,1065,1065,,,,,
54971336,1066,1066,1066,1066,,,,,
54973835,1066,1066,1066,1066,,,,,
54976334,1067,1067,1067,1067,,,,,
54978833,1068,1068,1068,1068,,,,,
54981332,1069,1069,1069,1069,,,,,
54983831,1069,1069,1069,1069,,,,,
54986330,1070,1070,1070,1070,,,,,
54988829,1071,1071,1071,1071,,,,,
54991328,1072,1072,1072,1072,,,,,
54993827,1072,1072,1072,1072,,,,,
54996326,1073,1073,1073,1073,,,,,
54998825,1074,1074,1074,1074,,,,,
55001324,1075,1075,1075,1075,,,,,
55003823,1075,1075,1075,1075,,,,,
55006322,1076,1076,1076,1076,,,,,
55008821,1077,1077,1077,1077,,,,,
55011320,1078,1078,1078,1078,,,,,
55013819,1078,1078,1078,1078,,,,,
55016318,1079,1079,1079,1079,,,,,
55018817,1080,1080,1080,1080,,,,,
55021316,1081,1081,1081,1081,,,,,
55023815,1081,1081,1081,1081,,,,,
55026314,1082,1082,1082,1082,,,,,
55028813,1083,1083,1083,1083,,,,,
55031312,1084,1084,1084,1084,,,,,
55033811,1084,1084,1084,1084,,,,,
55036310,1085,1085,1085,1085,,,,,
55038809,1086,1086,1086,1086,,,,,
55041308,1087,1087,1087,1087,,,,,
55043807,1087,1087,1087,1087,,,,,
55046306,1088,1088,1088,1088,,,,,
55048805,1089,1089,1089,1089,,,,,
55051304,1090,1090,1090,1090,,,,,
55053803,1090,1090,1090,1090,,,,,
55056302,1091,1091,1091,1091,,,,,
55058801,1092,1092,1092,1092,,,,,
55061300,1093,1093,1093,1093,,,,,
55063799,1093,1093,1093,1093,,,,,
55066298,1094,1094,1094,1094,,,,,
55068797,1095,1095,1095,1095,,,,,
55071296,1096,1096,1096,1096,,,,,
55073795,1096,1096,1096,1096,,,,,
55076294,1097,1097,1097,1097,,,,,
55078793,1098,1098,1098,1098,,,,,
55081292,1099,1099,1099,1099,,,,,
55083791,1099,1099,1099,1099,,,,,
55086290,1100,1100,1100,1100,,,,,
55088789,1101,1101,1101,1101,,,,,
55091288,1101,1101,1101,1101,,,,,
55093787,1102,1102,1102,1102,,,,,
55096286,1103,1103,1103,1103,,,,,
55098785,1104,1104,1104,1104,,,,,
55101284,1104,1104,1104,1104,,,,,
55103783,1105,1105,1105,1105,,,,,
55106282,1106,1106,1106,1106,,,,,
55108781,1107,1107,1107,1107,,,,,
55111280,1107,1107,1107,1107,,,,,
55113779,1108,1108,1108,1108,,,,,
55116278,1109,1109,1109,1109,,,,,
55118777,1110,1110,1110,1110,,,,,
55121276,1110,1110,1110,1110,,,,,
55123775,1111,1111,1111,1111,,,,,
55126274,1112,1112,1112,1112,,,,,
55128773,1113,1113,1113,1113,,,,,
55131272,1113,1113,1113,1113,,,,,
55133771,1114,1114,1114,1114,,,,,
55136270,1115,1115,1115,1115,,,,,
55138769,1116,1116,1116,1116,,,,,
55141268,1116,1116,1116,1116,,,,,
55143767,1117,1117,1117,1117,,,,,
55146266,1118,1118,1118,1118,,,,,
55148765,1119,1119,1119,1119,,,,,
55151264,1119,1119,1119,1119,,,,,
55153763,1120,1120,1120,1120,,,,,
55156262,1121,1121,1121,1121,,,,,
55158761,1122,1122,1122,1122,,,,,
55161260,1122,1122,1122,1122,,,,,
55163759,1123,1123,1123,1123,,,,,
55166258,1124,1124,1124,1124,,,,,
55168757,1125,1125,1125,1125,,,,,
55171256,1125,1125,1125,1125,,,,,
55173755,1126,1126,1126,1126,,,,,
55176254,1127,1127,1127,1127,,,,,
55178753,1128,1128,1128,1128,,,,,
55181252,1128,1128,1128,1128,,,,,
55183751,1129,1129,1129,1129,,,,,
55186250,1130,1130,1130,1130,,,,,
55188749,1131,1131,1131,1131,,,,,
55191248,1131,1131,1131,1131,,,,,
55193747,1132,1132,1132,1132,,,,,
55196246,1133,1133,1133,1133,,,,,
55198745,1134,1134,1134,1134,,,,,
55201244,1134,1134,1134,1134,,,,,
55203743,1135,1135,1135,1135,,,,,
55206242,1136,1136,1136,1136,,,,,
55208741,1137,1137,1137,1137,,,,,
55211240,1137,1137,1137,1137,,,,,
55213739,1138,1138,1138,1138,,,,,
55216238,1139,1139,1139,1139,,,,,
55218737,1140,1140,1140,1140,,,,,
55221236,1140,1140,1140,1140,,,,,
55223735,1141,1141,1141,1141,,,,,
55226234,1142,1142,1142,1142,,,,,
55228733,1143,1143,1143,1143,,,,,
55231232,1143,1143,1143,1143,,,,,
55233731,1144,1144,1144,1144,,,,,
55236230,1145,1145,1145,1145,,,,,
55238729,1146,1146,1146,1146,,,,,
55241228,1146,1146,1146,1146,,,,,
55243727,1147,1147,1147,1147,,,,,
55246226,1148,1148,1148,1148,,,,,
55248725,1149,1149,1149,1149,,,,,
55251224,1149,1149,1149,1149,,,,,
55253723,1150,1150,1150,1150,,,,,
55256222,1162,1153,1154,1162,,,,,
55258721,1170,1161,1162,1170,,,,,
55261220,1177,1169,1170,1178,,,,,
55263719,1185,1177,1178,1186,,,,,
55266218,1193,1185,1185,1193,,,,,
55268717,1200,1192,1193,1201,,,,,
55271216,1207,1200,1200,1208,,,,,
55273715,1215,1207,1208,1215,,,,,
55276214,1222,1214,1215,1222,,,,,
55278713,1229,1221,1222,1229,,,,,
55281212,1236,1228,1229,1236,,,,,
55283711,1242,1235,1236,1243,,,,,
55286210,1249,1242,1242,1250,,,,,
55288709,1256,1249,1249,1256,,,,,
55291208,1262,1255,1256,1263,,,,,
55293707,1269,1262,1262,1269,,,,,
55296206,1275,1268,1269,1276,,,,,
55298705,1281,1275,1275,1282,,,,,
55301204,1288,1281,1281,1288,,,,,
55303703,1294,1287,1287,1294,,,,,
55306202,1300,1293,1293,1300,,,,,
55308701,1306,1299,1300,1306,,,,,
55311200,1312,1305,1306,1312,,,,,
55313699,1318,1311,1311,1318,,,,,
55316198,1323,1317,1317,1324,,,,,
55318697,1329,1323,1323,1330,,,,,
55321196,1335,1329,1329,1335,,,,,
55323695,1341,1334,1335,1341,,,,,
55326194,1346,1340,1340,1347,,,,,
55328693,1352,1345,1346,1352,,,,,
55331192,1357,1351,1351,1358,,,,,
55333691,1363,1356,1357,1363,,,,,
55336190,1368,1362,1362,1369,,,,,
55338689,1373,1367,1368,1374,,,,,
55341188,1379,1373,1373,1379,,,,,
55343687,1384,1378,1378,1384,,,,,
55346186,1389,1383,1384,1390,,,,,
55348685,1394,1388,1389,1395,,,,,
55351184,1400,1394,1394,1400,,,,,
55353683,1405,1399,1399,1405,,,,,
55356182,1410,1404,1404,1410,,,,,
55358681,1415,1409,1409,1415,,,,,
55361180,1420,1414,1414,1420,,,,,
55363679,1425,1419,1419,1425,,,,,
55366178,1429,1424,1424,1430,,,,,
55368677,1434,1429,1429,1435,,,,,
55371176,1439,1434,1434,1440,,,,,
55373675,1444,1438,1439,1444,,,,,
55376174,1449,1443,1444,1449,,,,,
55378673,1453,1448,1448,1454,,,,,
55381172,1458,1453,1453,1459,,,,,
55383671,1463,1457,1458,1463,,,,,
55386170,1467,1462,1462,1468,,,,,
55388669,1472,1467,1467,1472,,,,,
55391168,1477,1471,1472,1477,,,,,
55393667,1481,1476,1476,1482,,,,,
55396166,1486,1480,1481,1486,,,,,
55398665,1490,1485,1485,1491,,,,,
55401164,1495,1490,1490,1495,,,,,
55403663,1499,1494,1494,1499,,,,,
55406162,1504,1498,1499,1504,,,,,
55408661,1508,1503,1503,1508,,,,,
55411160,1512,1507,1508,1513,,,,,
55413659,1517,1512,1512,1517,,,,,
55416158,1521,1516,1516,1521,,,,,
55418657,1525,1520,1521,1526,,,,,
55421156,1530,1525,1525,1530,,,,,
55423655,1534,1529,1529,1534,,,,,
55426154,1538,1533,1533,1538,,,,,
55428653,1542,1537,1538,1543,,,,,
55431152,1546,1541,1542,1547,,,,,
55433651,1551,1546,1546,1551,,,,,
55436150,1555,1550,1550,1555,,,,,
55438649,1559,1554,1554,1559,,,,,
55441148,1563,1558,1558,1563,,,,,
55443647,1567,1562,1562,1567,,,,,
55446146,1571,1566,1566,1571,,,,,
55448645,1575,1570,1571,1575,,,,,
55451144,1579,1574,1575,1579,,,,,
55453643,1583,1578,1579,1583,,,,,
55456142,1587,1582,1583,1587,,,,,
55458641,1591,1586,1586,1591,,,,,
55461140,1595,1590,1590,1595,,,,,
55463639,1599,1594,1594,1599,,,,,
55466138,1603,1598,1598,1603,,,,,
55468637,1607,1602,1602,1607,,,,,
55471136,1611,1606,1606,1611,,,,,
55473635,1615,1609,1610,1615,,,,,
55476134,1619,1613,1614,1619,,,,,
55478633,1622,1617,1618,1622,,,,,
55481132,1626,1621,1621,1626,,,,,
55483631,1630,1625,1625,1630,,,,,
55486130,1634,1628,1629,1634,,,,,
55488629,1637,1632,1633,1638,,,,,
55491128,1641,1636,1636,1641,,,,,
55493627,1645,1640,1640,1645,,,,,
55496126,1649,1643,1644,1649,,,,,
55498625,1652,1647,1647,1652,,,,,
55501124,1656,1651,1651,1656,,,,,
55503623,1660,1654,1655,1660,,,,,
55506122,1663,1658,1658,1663,,,,,
55508621,1667,1662,1662,1667,,,,,
55511120,1671,1665,1666,1671,,,,,
55513619,1674,1669,1669,1674,,,,,
55516118,1678,1672,1673,1678,,,,,
55518617,1681,1676,1676,1682,,,,,
55521116,1685,1680,1680,1685,,,,,
55523615,1689,1683,1684,1689,,,,,
55526114,1692,1687,1687,1692,,,,,
55528613,1696,1690,1691,1696,,,,,
55531112,1699,1694,1694,1699,,,,,
55533611,1703,1697,1698,1703,,,,,
55536110,1706,1701,1701,1706,,,,,
55538609,1710,1704,1705,1710,,,,,
55541108,1713,1708,1708,1713,,,,,
55543607,1716,1711,1712,1716,,,,,
55546106,1720,1715,1715,1720,,,,,
55548605,1723,1718,1719,1723,,,,,
55551104,1727,1721,1722,1727,,,,,
55553603,1730,1725,1725,1730,,,,,
55556102,1733,1728,1729,1733,,,,,
55558601,1737,1732,1732,1737,,,,,
55561100,1740,1735,1735,1740,,,,,
55563599,1744,1738,1739,1744,,,,,
55566098,1747,1742,1742,1747,,,,,
55568597,1750,1745,1746,1750,,,,,
55571096,1753,1748,1749,1754,,,,,
55573595,1757,1752,1752,1757,,,,,
55576094,1760,1755,1756,1760,,,,,
55578593,1763,1758,1759,1763,,,,,
55581092,1767,1762,1762,1767,,,,,
55583591,1770,1765,1765,1770,,,,,
55586090,1773,1768,1769,1773,,,,,
55588589,1776,1771,1772,1776,,,,,
55591088,1779,1775,1775,1780,,,,,
55593587,1783,1778,1778,1783,,,,,
55596086,1786,1781,1782,1786,,,,,
55598585,1789,1784,1785,1789,,,,,
55601084,1792,1788,1788,1792,,,,,
55603583,1795,1791,1791,1796,,,,,
55606082,1799,1794,1794,1799,,,,,
55608581,1802,1797,1797,1802,,,,,
55611080,1805,1800,1801,1805,,,,,
55613579,1808,1804,1804,1808,,,,,
55616078,1811,1807,1807,1811,,,,,
55618577,1814,1810,1810,1815,,,,,
55621076,1817,1813,1813,1818,,,,,
55623575,1820,1816,1816,1821,,,,,
55626074,1824,1819,1819,1824,,,,,
55628573,1827,1822,1822,1827,,,,,
55631072,1830,1825,1825,1830,,,,,
55633571,1833,1828,1829,1833,,,,,
55636070,1836,1832,1832,1836,,,,,
55638569,1839,1835,1835,1839,,,,,
55641068,1842,1838,1838,1842,,,,,
55643567,1845,1841,1841,1845,,,,,
55646066,1848,1844,1844,1848,,,,,
55648565,1851,1847,1847,1851,,,,,
55651064,1854,1850,1850,1854,,,,,
55653563,1857,1853,1853,1857,,,,,
55656062,1860,1856,1856,1860,,,,,
55658561,1863,1859,1859,1863,,,,,
55661060,1866,1862,1862,1866,,,,,
55663559,1869,1865,1865,1869,,,,,
55666058,1872,1868,1868,1872,,,,,
55668557,1875,1871,1871,1875,,,,,
55671056,1878,1874,1874,1878,,,,,
55673555,1881,1877,1877,1881,,,,,
55676054,1884,1879,1880,1884,,,,,
55678553,1887,1882,1883,1887,,,,,
55681052,1890,1885,1886,1890,,,,,
55683551,1893,1888,1888,1893,,,,,
55686050,1895,1891,1891,1896,,,,,
55688549,1898,1894,1894,1899,,,,,
55691048,1901,1897,1897,1901,,,,,
55693547,1904,1900,1900,1904,,,,,
55696046,1904,1900,1900,1904,,,,,
55698545,1903,1899,1899,1903,,,,,
55701044,1902,1898,1898,1902,,,,,
55703543,1902,1897,1897,1902,,,,,
55706042,1901,1896,1897,1901,,,,,
55708541,1900,1896,1896,1900,,,,,
55711040,1899,1895,1895,1899,,,,,
55713539,1899,1894,1895,1899,,,,,
55716038,1898,1893,1894,1898,,,,,
55718537,1898,1893,1893,1898,,,,,
55721036,1897,1892,1893,1897,,,,,
55723535,1897,1892,1892,1897,,,,,
55726034,1896,1891,1892,1896,,,,,
55728533,1896,1891,1892,1896,,,,,
55731032,1896,1891,1891,1896,,,,,
55733531,1895,1891,1891,1895,,,,,
55736030,1895,1891,1891,1895,,,,,
55738529,1895,1891,1891,1895,,,,,
55741028,1895,1891,1891,1895,,,,,
55743527,1896,1891,1891,1895,,,,,
55746026,1896,1891,1892,1896,,,,,
55748525,1896,1891,1892,1896,,,,,
55751024,1896,1892,1892,1896,,,,,
55753523,1896,1892,1893,1896,,,,,
55756022,1896,1892,1893,1896,,,,,
55758521,1896,1893,1893,1896,,,,,
55761020,1896,1893,1893,1896,,,,,
55763519,1896,1893,1893,1896,,,,,
55766018,1895,1892,1893,1896,,,,,
55768517,1895,1892,1892,1895,,,,,
55771016,1894,1891,1892,1894,,,,,
55773515,1894,1891,1891,1894,,,,,
55776014,1893,1890,1890,1893,,,,,
55778513,1891,1889,1889,1892,,,,,
55781012,1890,1888,1888,1890,,,,,
55783511,1889,1886,1887,1889,,,,,
55786010,1887,1885,1885,1887,,,,,
55788509,1885,1883,1883,1886,,,,,
55791008,1884,1881,1881,1884,,,,,
55793507,1882,1879,1880,1882,,,,,
55796006,1880,1877,1877,1880,,,,,
55798505,1877,1875,1875,1878,,,,,
55801004,1875,1873,1873,1875,,,,,
55803503,1873,1870,1871,1873,,,,,
55806002,1870,1868,1868,1870,,,,,
55808501,1868,1865,1866,1868,,,,,
55811000,1865,1863,1863,1865,,,,,
55813499,1862,1860,1860,1862,,,,,
55815998,1859,1857,1858,1859,,,,,
55818497,1856,1854,1855,1857,,,,,
55820996,1854,1852,1852,1854,,,,,
55823495,1851,1849,1849,1851,,,,,
55825994,1848,1846,1846,1848,,,,,
55828493,1844,1843,1843,1845,,,,,
55830992,1841,1840,1840,1841,,,,,
55833491,1838,1836,1837,1838,,,,,
55835990,1835,1833,1834,1835,,,,,
55838489,1832,1830,1831,1832,,,,,
55840988,1829,1827,1828,1829,,,,,
55843487,1826,1824,1824,1826,,,,,
55845986,1822,1821,1821,1822,,,,,
55848485,1819,1817,1818,1819,,,,,
55850984,1816,1814,1815,1816,,,,,
55853483,1813,1811,1812,1813,,,,,
55855982,1809,1808,1808,1809,,,,,
55858481,1806,1805,1805,1806,,,,,
55860980,1803,1801,1802,1803,,,,,
55863479,1799,1798,1799,1799,,,,,
55865978,1796,1795,1795,1796,,,,,
55868477,1793,1792,1792,1793,,,,,
55870976,1790,1788,1789,1789,,,,,
55873475,1786,1785,1786,1786,,,,,
55875974,1783,1782,1782,1783,,,,,
55878473,1780,1778,1779,1780,,,,,
55880972,1776,1775,1776,1776,,,,,
55883471,1773,1772,1773,1773,,,,,
55885970,1770,1769,1769,1770,,,,,
55888469,1766,1766,1766,1766,,,,,
55890968,1763,1762,1763,1763,,,,,
55893467,1760,1759,1760,1760,,,,,
55895966,1757,1756,1757,1757,,,,,
55898465,1754,1753,1753,1754,,,,,
55900964,1750,1750,1750,1750,,,,,
55903463,1747,1747,1747,1747,,,,,
55905962,1744,1744,1744,1744,,,,,
55908461,1741,1741,1741,1741,,,,,
55910960,1738,1738,1738,1738,,,,,
55913459,1735,1735,1735,1735,,,,,
55915958,1732,1732,1732,1732,,,,,
55918457,1729,1729,1730,1729,,,,,
55920956,1727,1726,1727,1727,,,,,
55923455,1724,1723,1724,1724,,,,,
55925954,1721,1721,1721,1721,,,,,
55928453,1718,1718,1719,1718,,,,,
55930952,1716,1715,1716,1716,,,,,
55933451,1713,1713,1713,1713,,,,,
55935950,1710,1710,1711,1711,,,,,
55938449,1708,1708,1708,1708,,,,,
55940948,1705,1705,1706,1705,,,,,
55943447,1703,1703,1703,1703,,,,,
55945946,1700,1701,1701,1700,,,,,
55948445,1698,1698,1698,1698,,,,,
55950944,1696,1696,1696,1696,,,,,
55953443,1693,1693,1694,1693,,,,,
55955942,1691,1691,1692,1691,,,,,
55958441,1689,1689,1689,1689,,,,,
55960940,1686,1687,1687,1687,,,,,
55963439,1684,1685,1685,1684,,,,,
55965938,1682,1683,1683,1682,,,,,
55968437,1680,1681,1681,1680,,,,,
55970936,1678,1679,1679,1678,,,,,
55973435,1676,1677,1677,1676,,,,,
55975934,1674,1675,1675,1675,,,,,
55978433,1673,1673,1674,1673,,,,,
55980932,1671,1672,1672,1671,,,,,
