timestamp,TimeUS,C1,C2,C3,C4,C5,C6,C7,C8,C9,C10,C11,C12,C13,C14
1684062907.59999990,49428554,1000,1000,1000,1000,0,0,0,0,0,0,0,0,0,0
1684062907.69995975,49528514,1000,1000,1000,1000,0,0,0,0,0,0,0,0,0,0
1684062907.79991984,49628474,1000,1000,1000,1000,0,0,0,0,0,0,0,0,0,0
1684062907.89987993,49728434,1000,1000,1000,1000,0,0,0,0,0,0,0,0,0,0
1684062907.99983978,49828394,1000,1000,1000,1000,0,0,0,0,0,0,0,0,0,0
1684062908.09979987,49928354,1000,1000,1000,1000,0,0,0,0,0,0,0,0,0,0
1684062908.19975996,50028314,1000,1000,1000,1000,0,0,0,0,0,0,0,0,0,0
1684062908.29971981,50128274,1000,1000,1000,1000,0,0,0,0,0,0,0,0,0,0
1684062908.39967990,50228234,1000,1000,1000,1000,0,0,0,0,0,0,0,0,0,0
1684062908.49963975,50328194,1000,1000,1000,1000,0,0,0,0,0,0,0,0,0,0
1684062908.59959984,50428154,1000,1000,1000,1000,0,0,0,0,0,0,0,0,0,0
1684062908.70039296,50528947,1000,1000,1000,1000,0,0,0,0,0,0,0,0,0,0
1684062908.80035281,50628907,1000,1000,1000,1000,0,0,0,0,0,0,0,0,0,0
1684062908.90031290,50728867,1000,1000,1000,1000,0,0,0,0,0,0,0,0,0,0
1684062909.00027275,50828827,1000,1000,1000,1000,0,0,0,0,0,0,0,0,0,0
1684062909.10023284,50928787,1000,1000,1000,1000,0,0,0,0,0,0,0,0,0,0
1684062909.20019293,51028747,1000,1000,1000,1000,0,0,0,0,0,0,0,0,0,0
1684062909.30015278,51128707,1000,1000,1000,1000,0,0,0,0,0,0,0,0,0,0
1684062909.40011287,51228667,1000,1000,1000,1000,0,0,0,0,0,0,0,0,0,0
1684062909.50007296,51328627,1000,1000,1000,1000,0,0,0,0,0,0,0,0,0,0
1684062909.60003281,51428587,1013,1013,1013,1013,0,0,0,0,0,0,0,0,0,0
1684062909.69999290,51528547,1043,1043,1043,1043,0,0,0,0,0,0,0,0,0,0
1684062909.79995275,51628507,1073,1073,1073,1073,0,0,0,0,0,0,0,0,0,0
1684062909.89991283,51728467,1103,1103,1103,1103,0,0,0,0,0,0,0,0,0,0
1684062909.99987292,51828427,1133,1133,1133,1133,0,0,0,0,0,0,0,0,0,0
1684062910.09983277,51928387,1275,1268,1269,1275,0,0,0,0,0,0,0,0,0,0
1684062910.19979286,52028347,1485,1481,1481,1486,0,0,0,0,0,0,0,0,0,0
1684062910.29975295,52128307,1649,1643,1644,1648,0,0,0,0,0,0,0,0,0,0
1684062910.39971280,52228267,1786,1781,1781,1786,0,0,0,0,0,0,0,0,0,0
1684062910.49967289,52328227,1897,1893,1893,1898,0,0,0,0,0,0,0,0,0,0
1684062910.59963274,52428187,1875,1873,1873,1875,0,0,0,0,0,0,0,0,0,0
1684062910.70042586,52528980,1749,1748,1749,1749,0,0,0,0,0,0,0,0,0,0
1684062910.80038595,52628940,1650,1651,1652,1651,0,0,0,0,0,0,0,0,0,0
1684062910.90034580,52728900,1621,1623,1624,1621,0,0,0,0,0,0,0,0,0,0
1684062911.00030589,52828860,1626,1628,1628,1626,0,0,0,0,0,0,0,0,0,0
1684062911.10026574,52928820,1634,1636,1635,1634,0,0,0,0,0,0,0,0,0,0
1684062911.20022583,53028780,1634,1634,1634,1634,0,0,0,0,0,0,0,0,0,0
1684062911.30018592,53128740,1626,1626,1626,1626,0,0,0,0,0,0,0,0,0,0
1684062911.40014577,53228700,1620,1619,1619,1620,0,0,0,0,0,0,0,0,0,0
1684062911.50010586,53328660,1616,1615,1615,1616,0,0,0,0,0,0,0,0,0,0
1684062911.60006595,53428620,1614,1613,1613,1613,0,0,0,0,0,0,0,0,0,0
1684062911.70002580,53528580,1615,1614,1614,1614,0,0,0,0,0,0,0,0,0,0
1684062911.79998589,53628540,1615,1615,1615,1615,0,0,0,0,0,0,0,0,0,0
1684062911.89994574,53728500,1617,1618,1617,1617,0,0,0,0,0,0,0,0,0,0
1684062911.99990582,53828460,1618,1618,1618,1618,0,0,0,0,0,0,0,0,0,0
1684062912.09986591,53928420,1620,1620,1620,1620,0,0,0,0,0,0,0,0,0,0
1684062912.19982576,54028380,1622,1621,1622,1622,0,0,0,0,0,0,0,0,0,0
1684062912.29978585,54128340,1622,1622,1623,1622,0,0,0,0,0,0,0,0,0,0
1684062912.39974594,54228300,1625,1625,1625,1625,0,0,0,0,0,0,0,0,0,0
1684062912.49970579,54328260,1626,1625,1626,1626,0,0,0,0,0,0,0,0,0,0
1684062912.59966588,54428220,1626,1627,1627,1627,0,0,0,0,0,0,0,0,0,0
1684062912.69962573,54528180,1628,1628,1628,1628,0,0,0,0,0,0,0,0,0,0
1684062912.80041885,54628973,1610,1611,1611,1610,0,0,0,0,0,0,0,0,0,0
1684062912.90037894,54728933,1591,1591,1591,1591,0,0,0,0,0,0,0,0,0,0
1684062913.00033879,54828893,1580,1580,1580,1580,0,0,0,0,0,0,0,0,0,0
1684062913.10029888,54928853,1570,1570,1570,1571,0,0,0,0,0,0,0,0,0,0
1684062913.20025873,55028813,1563,1562,1562,1563,0,0,0,0,0,0,0,0,0,0
1684062913.30021882,55128773,1556,1556,1556,1556,0,0,0,0,0,0,0,0,0,0
1684062913.40017891,55228733,1550,1550,1550,1549,0,0,0,0,0,0,0,0,0,0
1684062913.50013876,55328693,1544,1544,1544,1544,0,0,0,0,0,0,0,0,0,0
1684062913.60009885,55428653,1538,1538,1538,1538,0,0,0,0,0,0,0,0,0,0
1684062913.70005894,55528613,1534,1533,1533,1533,0,0,0,0,0,0,0,0,0,0
1684062913.80001879,55628573,1529,1529,1529,1529,0,0,0,0,0,0,0,0,0,0
1684062913.89997888,55728533,1525,1525,1524,1525,0,0,0,0,0,0,0,0,0,0
1684062913.99993896,55828493,1522,1522,1522,1522,0,0,0,0,0,0,0,0,0,0
1684062914.09989882,55928453,1520,1519,1519,1520,0,0,0,0,0,0,0,0,0,0
1684062914.19985890,56028413,1517,1517,1517,1518,0,0,0,0,0,0,0,0,0,0
1684062914.29981875,56128373,1514,1513,1513,1514,0,0,0,0,0,0,0,0,0,0
1684062914.39977884,56228333,1509,1509,1509,1509,0,0,0,0,0,0,0,0,0,0
1684062914.49973893,56328293,1507,1507,1507,1507,0,0,0,0,0,0,0,0,0,0
1684062914.59969878,56428253,1504,1504,1504,1504,0,0,0,0,0,0,0,0,0,0
1684062914.69965887,56528213,1502,1501,1501,1502,0,0,0,0,0,0,0,0,0,0
1684062914.79961896,56628173,1498,1499,1498,1499,0,0,0,0,0,0,0,0,0,0
1684062914.90041184,56728966,1498,1498,1498,1498,0,0,0,0,0,0,0,0,0,0
1684062915.00037193,56828926,1495,1495,1495,1495,0,0,0,0,0,0,0,0,0,0
1684062915.10033178,56928886,1493,1493,1493,1493,0,0,0,0,0,0,0,0,0,0
1684062915.20029187,57028846,1492,1492,1492,1492,0,0,0,0,0,0,0,0,0,0
1684062915.30025196,57128806,1495,1494,1495,1494,0,0,0,0,0,0,0,0,0,0
1684062915.40021181,57228766,1497,1497,1498,1496,0,0,0,0,0,0,0,0,0,0
1684062915.50017190,57328726,1500,1500,1500,1499,0,0,0,0,0,0,0,0,0,0
1684062915.60013175,57428686,1501,1502,1502,1501,0,0,0,0,0,0,0,0,0,0
1684062915.70009184,57528646,1504,1503,1504,1503,0,0,0,0,0,0,0,0,0,0
1684062915.80005193,57628606,1505,1505,1505,1505,0,0,0,0,0,0,0,0,0,0
1684062915.90001178,57728566,1508,1508,1508,1508,0,0,0,0,0,0,0,0,0,0
1684062915.99997187,57828526,1509,1508,1509,1508,0,0,0,0,0,0,0,0,0,0
1684062916.09993196,57928486,1547,1547,1548,1546,0,0,0,0,0,0,0,0,0,0
1684062916.19989181,58028446,1562,1562,1562,1563,0,0,0,0,0,0,0,0,0,0
1684062916.29985189,58128406,1571,1571,1568,1573,0,0,0,0,0,0,0,0,0,0
1684062916.39981174,58228366,1578,1578,1575,1581,0,0,0,0,0,0,0,0,0,0
1684062916.49977183,58328326,1581,1581,1579,1584,0,0,0,0,0,0,0,0,0,0
1684062916.59973192,58428286,1583,1583,1582,1585,0,0,0,0,0,0,0,0,0,0
1684062916.69969177,58528246,1584,1584,1583,1584,0,0,0,0,0,0,0,0,0,0
1684062916.79965186,58628206,1585,1585,1587,1583,0,0,0,0,0,0,0,0,0,0
1684062916.89961195,58728166,1584,1584,1587,1581,0,0,0,0,0,0,0,0,0,0
1684062917.00040483,58828959,1582,1582,1584,1580,0,0,0,0,0,0,0,0,0,0
1684062917.10036492,58928919,1579,1579,1581,1578,0,0,0,0,0,0,0,0,0,0
1684062917.20032477,59028879,1578,1579,1579,1578,0,0,0,0,0,0,0,0,0,0
1684062917.30028486,59128839,1575,1575,1574,1575,0,0,0,0,0,0,0,0,0,0
1684062917.40024495,59228799,1574,1573,1572,1575,0,0,0,0,0,0,0,0,0,0
1684062917.50020480,59328759,1569,1568,1573,1577,0,0,0,0,0,0,0,0,0,0
1684062917.60016489,59428719,1567,1567,1576,1578,0,0,0,0,0,0,0,0,0,0
1684062917.70012474,59528679,1566,1567,1574,1575,0,0,0,0,0,0,0,0,0,0
1684062917.80008483,59628639,1567,1568,1573,1573,0,0,0,0,0,0,0,0,0,0
1684062917.90004492,59728599,1568,1569,1571,1570,0,0,0,0,0,0,0,0,0,0
1684062918.00000477,59828559,1570,1570,1570,1569,0,0,0,0,0,0,0,0,0,0
1684062918.09996486,59928519,1572,1571,1568,1568,0,0,0,0,0,0,0,0,0,0
1684062918.19992495,60028479,1573,1573,1568,1568,0,0,0,0,0,0,0,0,0,0
1684062918.29988480,60128439,1574,1574,1568,1568,0,0,0,0,0,0,0,0,0,0
1684062918.39984488,60228399,1574,1574,1568,1568,0,0,0,0,0,0,0,0,0,0
1684062918.49980474,60328359,1574,1574,1569,1569,0,0,0,0,0,0,0,0,0,0
1684062918.59976482,60428319,1574,1574,1570,1570,0,0,0,0,0,0,0,0,0,0
1684062918.69972491,60528279,1574,1574,1571,1572,0,0,0,0,0,0,0,0,0,0
1684062918.79968476,60628239,1574,1574,1573,1573,0,0,0,0,0,0,0,0,0,0
1684062918.89964485,60728199,1574,1574,1575,1574,0,0,0,0,0,0,0,0,0,0
1684062918.99960494,60828159,1574,1574,1576,1574,0,0,0,0,0,0,0,0,0,0
1684062919.10039783,60928952,1574,1575,1577,1576,0,0,0,0,0,0,0,0,0,0
1684062919.20035791,61028912,1575,1575,1577,1577,0,0,0,0,0,0,0,0,0,0
1684062919.30031776,61128872,1575,1575,1577,1577,0,0,0,0,0,0,0,0,0,0
1684062919.40027785,61228832,1576,1576,1578,1578,0,0,0,0,0,0,0,0,0,0
1684062919.50023794,61328792,1577,1577,1578,1578,0,0,0,0,0,0,0,0,0,0
1684062919.60019779,61428752,1577,1577,1578,1578,0,0,0,0,0,0,0,0,0,0
1684062919.70015788,61528712,1577,1577,1577,1578,0,0,0,0,0,0,0,0,0,0
1684062919.80011773,61628672,1577,1577,1577,1577,0,0,0,0,0,0,0,0,0,0
1684062919.90007782,61728632,1579,1578,1578,1578,0,0,0,0,0,0,0,0,0,0
1684062920.00003791,61828592,1579,1579,1579,1578,0,0,0,0,0,0,0,0,0,0
1684062920.09999776,61928552,1579,1578,1578,1577,0,0,0,0,0,0,0,0,0,0
1684062920.19995785,62028512,1579,1579,1578,1578,0,0,0,0,0,0,0,0,0,0
1684062920.29991794,62128472,1579,1578,1578,1578,0,0,0,0,0,0,0,0,0,0
1684062920.39987779,62228432,1580,1580,1579,1579,0,0,0,0,0,0,0,0,0,0
1684062920.49983788,62328392,1579,1579,1578,1579,0,0,0,0,0,0,0,0,0,0
1684062920.59979796,62428352,1579,1578,1578,1578,0,0,0,0,0,0,0,0,0,0
1684062920.69975781,62528312,1578,1578,1578,1578,0,0,0,0,0,0,0,0,0,0
1684062920.79971790,62628272,1578,1578,1578,1579,0,0,0,0,0,0,0,0,0,0
1684062920.89967775,62728232,1579,1579,1579,1579,0,0,0,0,0,0,0,0,0,0
1684062920.99963784,62828192,1579,1579,1580,1580,0,0,0,0,0,0,0,0,0,0
1684062921.10043097,62928985,1580,1579,1580,1580,0,0,0,0,0,0,0,0,0,0
1684062921.20039082,63028945,1580,1580,1580,1580,0,0,0,0,0,0,0,0,0,0
1684062921.30035090,63128905,1579,1579,1580,1580,0,0,0,0,0,0,0,0,0,0
1684062921.40031075,63228865,1581,1580,1582,1581,0,0,0,0,0,0,0,0,0,0
1684062921.50027084,63328825,1581,1581,1582,1581,0,0,0,0,0,0,0,0,0,0
1684062921.60023093,63428785,1580,1580,1581,1581,0,0,0,0,0,0,0,0,0,0
1684062921.70019078,63528745,1579,1579,1579,1579,0,0,0,0,0,0,0,0,0,0
1684062921.80015087,63628705,1580,1580,1580,1581,0,0,0,0,0,0,0,0,0,0
1684062921.90011096,63728665,1580,1580,1580,1580,0,0,0,0,0,0,0,0,0,0
1684062922.00007081,63828625,1580,1580,1580,1580,0,0,0,0,0,0,0,0,0,0
1684062922.10003090,63928585,1580,1580,1580,1580,0,0,0,0,0,0,0,0,0,0
1684062922.19999075,64028545,1580,1580,1580,1580,0,0,0,0,0,0,0,0,0,0
1684062922.29995084,64128505,1581,1580,1580,1580,0,0,0,0,0,0,0,0,0,0
1684062922.39991093,64228465,1581,1580,1580,1580,0,0,0,0,0,0,0,0,0,0
1684062922.49987078,64328425,1580,1580,1580,1580,0,0,0,0,0,0,0,0,0,0
1684062922.59983087,64428385,1580,1580,1580,1580,0,0,0,0,0,0,0,0,0,0
1684062922.69979095,64528345,1581,1581,1581,1582,0,0,0,0,0,0,0,0,0,0
1684062922.79975080,64628305,1581,1582,1582,1581,0,0,0,0,0,0,0,0,0,0
1684062922.89971089,64728265,1581,1582,1582,1582,0,0,0,0,0,0,0,0,0,0
1684062922.99967074,64828225,1581,1581,1582,1581,0,0,0,0,0,0,0,0,0,0
1684062923.09963083,64928185,1581,1581,1581,1581,0,0,0,0,0,0,0,0,0,0
1684062923.20042396,65028978,1581,1581,1581,1581,0,0,0,0,0,0,0,0,0,0
1684062923.30038381,65128938,1582,1581,1581,1582,0,0,0,0,0,0,0,0,0,0
1684062923.40034389,65228898,1582,1582,1582,1582,0,0,0,0,0,0,0,0,0,0
1684062923.50030375,65328858,1581,1580,1581,1581,0,0,0,0,0,0,0,0,0,0
1684062923.60026383,65428818,1581,1581,1581,1581,0,0,0,0,0,0,0,0,0,0
1684062923.70022392,65528778,1579,1581,1585,1575,0,0,0,0,0,0,0,0,0,0
1684062923.80018377,65628738,1579,1582,1586,1572,0,0,0,0,0,0,0,0,0,0
1684062923.90014386,65728698,1578,1581,1579,1573,0,0,0,0,0,0,0,0,0,0
1684062924.00010395,65828658,1577,1580,1570,1572,0,0,0,0,0,0,0,0,0,0
1684062924.10006380,65928618,1577,1579,1563,1569,0,0,0,0,0,0,0,0,0,0
1684062924.20002389,66028578,1577,1578,1558,1565,0,0,0,0,0,0,0,0,0,0
1684062924.29998374,66128538,1578,1577,1555,1560,0,0,0,0,0,0,0,0,0,0
1684062924.39994383,66228498,1580,1578,1555,1557,0,0,0,0,0,0,0,0,0,0
1684062924.49990392,66328458,1579,1577,1555,1554,0,0,0,0,0,0,0,0,0,0
1684062924.59986377,66428418,1580,1579,1557,1554,0,0,0,0,0,0,0,0,0,0
1684062924.69982386,66528378,1577,1577,1556,1553,0,0,0,0,0,0,0,0,0,0
1684062924.79978395,66628338,1575,1577,1555,1553,0,0,0,0,0,0,0,0,0,0
1684062924.89974380,66728298,1575,1576,1554,1554,0,0,0,0,0,0,0,0,0,0
1684062924.99970388,66828258,1575,1577,1554,1554,0,0,0,0,0,0,0,0,0,0
1684062925.09966373,66928218,1575,1576,1552,1552,0,0,0,0,0,0,0,0,0,0
1684062925.19962382,67028178,1576,1577,1551,1550,0,0,0,0,0,0,0,0,0,0
1684062925.30041695,67128971,1577,1578,1548,1548,0,0,0,0,0,0,0,0,0,0
1684062925.40037680,67228931,1580,1580,1546,1546,0,0,0,0,0,0,0,0,0,0
1684062925.50033689,67328891,1582,1583,1543,1543,0,0,0,0,0,0,0,0,0,0
1684062925.60029674,67428851,1586,1587,1541,1541,0,0,0,0,0,0,0,0,0,0
1684062925.70025682,67528811,1589,1590,1539,1539,0,0,0,0,0,0,0,0,0,0
1684062925.80021691,67628771,1592,1592,1537,1537,0,0,0,0,0,0,0,0,0,0
1684062925.90017676,67728731,1593,1593,1534,1534,0,0,0,0,0,0,0,0,0,0
1684062926.00013685,67828691,1595,1595,1535,1536,0,0,0,0,0,0,0,0,0,0
1684062926.10009694,67928651,1594,1594,1535,1537,0,0,0,0,0,0,0,0,0,0
1684062926.20005679,68028611,1593,1593,1538,1541,0,0,0,0,0,0,0,0,0,0
1684062926.30001688,68128571,1591,1589,1543,1546,0,0,0,0,0,0,0,0,0,0
1684062926.39997673,68228531,1586,1584,1550,1553,0,0,0,0,0,0,0,0,0,0
1684062926.49993682,68328491,1579,1575,1559,1563,0,0,0,0,0,0,0,0,0,0
1684062926.59989691,68428451,1568,1564,1570,1572,0,0,0,0,0,0,0,0,0,0
1684062926.69985676,68528411,1558,1553,1583,1584,0,0,0,0,0,0,0,0,0,0
1684062926.79981685,68628371,1547,1544,1595,1596,0,0,0,0,0,0,0,0,0,0
1684062926.89977694,68728331,1537,1535,1605,1604,0,0,0,0,0,0,0,0,0,0
1684062926.99973679,68828291,1531,1531,1612,1611,0,0,0,0,0,0,0,0,0,0
1684062927.09969687,68928251,1529,1531,1616,1614,0,0,0,0,0,0,0,0,0,0
1684062927.19965696,69028211,1530,1532,1615,1614,0,0,0,0,0,0,0,0,0,0
1684062927.29961681,69128171,1535,1537,1611,1611,0,0,0,0,0,0,0,0,0,0
1684062927.40040994,69228964,1542,1544,1606,1606,0,0,0,0,0,0,0,0,0,0
1684062927.50036979,69328924,1551,1552,1599,1599,0,0,0,0,0,0,0,0,0,0
1684062927.60032988,69428884,1560,1560,1591,1591,0,0,0,0,0,0,0,0,0,0
1684062927.70028996,69528844,1569,1568,1583,1583,0,0,0,0,0,0,0,0,0,0
1684062927.80024981,69628804,1575,1574,1576,1575,0,0,0,0,0,0,0,0,0,0
1684062927.90020990,69728764,1581,1579,1571,1570,0,0,0,0,0,0,0,0,0,0
1684062928.00016975,69828724,1584,1583,1567,1567,0,0,0,0,0,0,0,0,0,0
1684062928.10012984,69928684,1586,1585,1565,1565,0,0,0,0,0,0,0,0,0,0
1684062928.20008993,70028644,1587,1586,1566,1565,0,0,0,0,0,0,0,0,0,0
1684062928.30004978,70128604,1586,1585,1567,1567,0,0,0,0,0,0,0,0,0,0
1684062928.40000987,70228564,1584,1583,1569,1569,0,0,0,0,0,0,0,0,0,0
1684062928.49996996,70328524,1581,1580,1572,1572,0,0,0,0,0,0,0,0,0,0
1684062928.59992981,70428484,1578,1579,1575,1576,0,0,0,0,0,0,0,0,0,0
1684062928.69988990,70528444,1575,1576,1578,1577,0,0,0,0,0,0,0,0,0,0
1684062928.79984975,70628404,1508,1508,1592,1593,0,0,0,0,0,0,0,0,0,0
1684062928.89980984,70728364,1529,1531,1601,1602,0,0,0,0,0,0,0,0,0,0
1684062928.99976993,70828324,1546,1549,1599,1598,0,0,0,0,0,0,0,0,0,0
1684062929.09972978,70928284,1562,1565,1593,1591,0,0,0,0,0,0,0,0,0,0
1684062929.19968987,71028244,1578,1579,1586,1585,0,0,0,0,0,0,0,0,0,0
1684062929.29964995,71128204,1590,1590,1579,1577,0,0,0,0,0,0,0,0,0,0
1684062929.39960980,71228164,1600,1598,1573,1573,0,0,0,0,0,0,0,0,0,0
1684062929.50040293,71328957,1604,1602,1569,1569,0,0,0,0,0,0,0,0,0,0
1684062929.60036278,71428917,1606,1603,1568,1569,0,0,0,0,0,0,0,0,0,0
1684062929.70032287,71528877,1604,1602,1568,1569,0,0,0,0,0,0,0,0,0,0
1684062929.80028296,71628837,1602,1600,1570,1571,0,0,0,0,0,0,0,0,0,0
1684062929.90024281,71728797,1598,1597,1572,1573,0,0,0,0,0,0,0,0,0,0
1684062930.00020289,71828757,1594,1594,1574,1574,0,0,0,0,0,0,0,0,0,0
1684062930.10016274,71928717,1590,1590,1577,1577,0,0,0,0,0,0,0,0,0,0
1684062930.20012283,72028677,1585,1586,1579,1579,0,0,0,0,0,0,0,0,0,0
1684062930.30008292,72128637,1582,1583,1581,1581,0,0,0,0,0,0,0,0,0,0
1684062930.40004277,72228597,1579,1579,1583,1583,0,0,0,0,0,0,0,0,0,0
1684062930.50000286,72328557,1576,1576,1584,1584,0,0,0,0,0,0,0,0,0,0
1684062930.59996295,72428517,1575,1576,1587,1586,0,0,0,0,0,0,0,0,0,0
1684062930.69992280,72528477,1573,1574,1587,1587,0,0,0,0,0,0,0,0,0,0
1684062930.79988289,72628437,1572,1573,1586,1586,0,0,0,0,0,0,0,0,0,0
1684062930.89984274,72728397,1573,1574,1585,1586,0,0,0,0,0,0,0,0,0,0
1684062930.99980283,72828357,1574,1574,1584,1584,0,0,0,0,0,0,0,0,0,0
1684062931.09976292,72928317,1576,1576,1583,1583,0,0,0,0,0,0,0,0,0,0
1684062931.19972277,73028277,1577,1577,1581,1581,0,0,0,0,0,0,0,0,0,0
1684062931.29968286,73128237,1578,1579,1579,1579,0,0,0,0,0,0,0,0,0,0
1684062931.39964294,73228197,1581,1581,1579,1579,0,0,0,0,0,0,0,0,0,0
1684062931.49960279,73328157,1582,1581,1577,1577,0,0,0,0,0,0,0,0,0,0
1684062931.60039592,73428950,1583,1583,1577,1577,0,0,0,0,0,0,0,0,0,0
1684062931.70035577,73528910,1583,1583,1580,1573,0,0,0,0,0,0,0,0,0,0
1684062931.80031586,73628870,1584,1584,1583,1568,0,0,0,0,0,0,0,0,0,0
1684062931.90027595,73728830,1583,1585,1578,1569,0,0,0,0,0,0,0,0,0,0
1684062932.00023580,73828790,1581,1582,1568,1568,0,0,0,0,0,0,0,0,0,0
1684062932.10019588,73928750,1579,1581,1560,1566,0,0,0,0,0,0,0,0,0,0
1684062932.20015574,74028710,1577,1580,1555,1562,0,0,0,0,0,0,0,0,0,0
1684062932.30011582,74128670,1576,1578,1552,1557,0,0,0,0,0,0,0,0,0,0
1684062932.40007591,74228630,1578,1578,1554,1556,0,0,0,0,0,0,0,0,0,0
1684062932.50003576,74328590,1578,1577,1554,1553,0,0,0,0,0,0,0,0,0,0
1684062932.59999585,74428550,1578,1577,1556,1554,0,0,0,0,0,0,0,0,0,0
1684062932.69995594,74528510,1577,1577,1555,1553,0,0,0,0,0,0,0,0,0,0
1684062932.79991579,74628470,1575,1576,1555,1552,0,0,0,0,0,0,0,0,0,0
1684062932.89987588,74728430,1575,1576,1554,1553,0,0,0,0,0,0,0,0,0,0
1684062932.99983573,74828390,1575,1577,1553,1553,0,0,0,0,0,0,0,0,0,0
1684062933.09979582,74928350,1576,1578,1552,1553,0,0,0,0,0,0,0,0,0,0
1684062933.19975591,75028310,1576,1578,1550,1550,0,0,0,0,0,0,0,0,0,0
1684062933.29971576,75128270,1578,1579,1548,1549,0,0,0,0,0,0,0,0,0,0
1684062933.39967585,75228230,1581,1582,1547,1547,0,0,0,0,0,0,0,0,0,0
1684062933.49963593,75328190,1582,1583,1544,1544,0,0,0,0,0,0,0,0,0,0
1684062933.60042882,75428983,1585,1586,1543,1542,0,0,0,0,0,0,0,0,0,0
1684062933.70038891,75528943,1587,1587,1541,1540,0,0,0,0,0,0,0,0,0,0
1684062933.80034876,75628903,1589,1589,1540,1541,0,0,0,0,0,0,0,0,0,0
1684062933.90030885,75728863,1590,1589,1538,1540,0,0,0,0,0,0,0,0,0,0
1684062934.00026894,75828823,1590,1592,1539,1541,0,0,0,0,0,0,0,0,0,0
1684062934.10022879,75928783,1591,1591,1540,1543,0,0,0,0,0,0,0,0,0,0
1684062934.20018888,76028743,1589,1589,1542,1545,0,0,0,0,0,0,0,0,0,0
1684062934.30014896,76128703,1588,1586,1549,1551,0,0,0,0,0,0,0,0,0,0
1684062934.40010881,76228663,1582,1580,1554,1557,0,0,0,0,0,0,0,0,0,0
1684062934.50006890,76328623,1577,1573,1564,1567,0,0,0,0,0,0,0,0,0,0
1684062934.60002875,76428583,1567,1562,1574,1576,0,0,0,0,0,0,0,0,0,0
1684062934.69998884,76528543,1556,1553,1586,1587,0,0,0,0,0,0,0,0,0,0
1684062934.79994893,76628503,1547,1545,1596,1597,0,0,0,0,0,0,0,0,0,0
1684062934.89990878,76728463,1539,1538,1604,1604,0,0,0,0,0,0,0,0,0,0
1684062934.99986887,76828423,1534,1535,1609,1608,0,0,0,0,0,0,0,0,0,0
1684062935.09982896,76928383,1533,1534,1611,1611,0,0,0,0,0,0,0,0,0,0
1684062935.19978881,77028343,1535,1537,1610,1610,0,0,0,0,0,0,0,0,0,0
1684062935.29974890,77128303,1539,1541,1607,1606,0,0,0,0,0,0,0,0,0,0
1684062935.39970875,77228263,1546,1547,1602,1601,0,0,0,0,0,0,0,0,0,0
1684062935.49966884,77328223,1554,1555,1595,1594,0,0,0,0,0,0,0,0,0,0
1684062935.59962893,77428183,1562,1563,1589,1588,0,0,0,0,0,0,0,0,0,0
1684062935.70042181,77528976,1570,1570,1582,1582,0,0,0,0,0,0,0,0,0,0
1684062935.80038190,77628936,1577,1576,1577,1577,0,0,0,0,0,0,0,0,0,0
1684062935.90034175,77728896,1582,1581,1572,1571,0,0,0,0,0,0,0,0,0,0
1684062936.00030184,77828856,1586,1585,1569,1569,0,0,0,0,0,0,0,0,0,0
1684062936.10026193,77928816,1587,1585,1566,1567,0,0,0,0,0,0,0,0,0,0
1684062936.20022178,78028776,1588,1587,1568,1568,0,0,0,0,0,0,0,0,0,0
1684062936.30018187,78128736,1588,1587,1570,1570,0,0,0,0,0,0,0,0,0,0
1684062936.40014195,78228696,1586,1585,1572,1572,0,0,0,0,0,0,0,0,0,0
1684062936.50010180,78328656,1583,1583,1574,1574,0,0,0,0,0,0,0,0,0,0
1684062936.60006189,78428616,1581,1580,1577,1577,0,0,0,0,0,0,0,0,0,0
1684062936.70002174,78528576,1578,1578,1580,1579,0,0,0,0,0,0,0,0,0,0
1684062936.79998183,78628536,1576,1577,1582,1582,0,0,0,0,0,0,0,0,0,0
1684062936.89994192,78728496,1574,1575,1583,1583,0,0,0,0,0,0,0,0,0,0
1684062936.99990177,78828456,1573,1574,1583,1583,0,0,0,0,0,0,0,0,0,0
1684062937.09986186,78928416,1573,1574,1584,1584,0,0,0,0,0,0,0,0,0,0
1684062937.19982195,79028376,1573,1573,1583,1583,0,0,0,0,0,0,0,0,0,0
1684062937.29978180,79128336,1574,1575,1583,1582,0,0,0,0,0,0,0,0,0,0
1684062937.39974189,79228296,1575,1576,1582,1581,0,0,0,0,0,0,0,0,0,0
1684062937.49970174,79328256,1577,1577,1581,1581,0,0,0,0,0,0,0,0,0,0
1684062937.59966183,79428216,1578,1578,1580,1580,0,0,0,0,0,0,0,0,0,0
1684062937.69962192,79528176,1580,1579,1579,1579,0,0,0,0,0,0,0,0,0,0
1684062937.80041480,79628969,1580,1580,1578,1578,0,0,0,0,0,0,0,0,0,0
1684062937.90037489,79728929,1582,1581,1578,1578,0,0,0,0,0,0,0,0,0,0
1684062938.00033474,79828889,1582,1582,1578,1578,0,0,0,0,0,0,0,0,0,0
1684062938.10029483,79928849,1582,1582,1578,1578,0,0,0,0,0,0,0,0,0,0
1684062938.20025492,80028809,1581,1581,1578,1577,0,0,0,0,0,0,0,0,0,0
1684062938.30021477,80128769,1582,1581,1578,1578,0,0,0,0,0,0,0,0,0,0
1684062938.40017486,80228729,1582,1581,1579,1579,0,0,0,0,0,0,0,0,0,0
1684062938.50013494,80328689,1581,1581,1579,1580,0,0,0,0,0,0,0,0,0,0
1684062938.60009480,80428649,1581,1582,1581,1581,0,0,0,0,0,0,0,0,0,0
1684062938.70005488,80528609,1581,1580,1581,1581,0,0,0,0,0,0,0,0,0,0
1684062938.80001473,80628569,1580,1580,1581,1581,0,0,0,0,0,0,0,0,0,0
1684062938.89997482,80728529,1580,1581,1582,1582,0,0,0,0,0,0,0,0,0,0
1684062938.99993491,80828489,1579,1580,1581,1582,0,0,0,0,0,0,0,0,0,0
1684062939.09989476,80928449,1580,1581,1582,1582,0,0,0,0,0,0,0,0,0,0
1684062939.19985485,81028409,1580,1581,1581,1582,0,0,0,0,0,0,0,0,0,0
1684062939.29981494,81128369,1580,1580,1581,1581,0,0,0,0,0,0,0,0,0,0
1684062939.39977479,81228329,1580,1579,1580,1580,0,0,0,0,0,0,0,0,0,0
1684062939.49973488,81328289,1581,1581,1582,1581,0,0,0,0,0,0,0,0,0,0
1684062939.59969473,81428249,1581,1581,1581,1581,0,0,0,0,0,0,0,0,0,0
1684062939.69965482,81528209,1581,1581,1581,1580,0,0,0,0,0,0,0,0,0,0
1684062939.79961491,81628169,1582,1582,1581,1581,0,0,0,0,0,0,0,0,0,0
1684062939.90040779,81728962,1582,1582,1581,1581,0,0,0,0,0,0,0,0,0,0
1684062940.00036788,81828922,1582,1582,1585,1577,0,0,0,0,0,0,0,0,0,0
1684062940.10032773,81928882,1582,1583,1588,1573,0,0,0,0,0,0,0,0,0,0
1684062940.20028782,82028842,1581,1583,1581,1573,0,0,0,0,0,0,0,0,0,0
1684062940.30024791,82128802,1578,1581,1571,1572,0,0,0,0,0,0,0,0,0,0
1684062940.40020776,82228762,1577,1580,1563,1569,0,0,0,0,0,0,0,0,0,0
1684062940.50016785,82328722,1578,1580,1559,1566,0,0,0,0,0,0,0,0,0,0
1684062940.60012794,82428682,1579,1579,1556,1561,0,0,0,0,0,0,0,0,0,0
1684062940.70008779,82528642,1580,1579,1555,1558,0,0,0,0,0,0,0,0,0,0
1684062940.80004787,82628602,1580,1578,1556,1555,0,0,0,0,0,0,0,0,0,0
1684062940.90000796,82728562,1579,1578,1556,1554,0,0,0,0,0,0,0,0,0,0
1684062940.99996781,82828522,1578,1578,1556,1553,0,0,0,0,0,0,0,0,0,0
1684062941.09992790,82928482,1578,1578,1556,1554,0,0,0,0,0,0,0,0,0,0
1684062941.19988775,83028442,1576,1577,1555,1554,0,0,0,0,0,0,0,0,0,0
1684062941.29984784,83128402,1575,1577,1554,1554,0,0,0,0,0,0,0,0,0,0
1684062941.39980793,83228362,1574,1576,1552,1553,0,0,0,0,0,0,0,0,0,0
1684062941.49976778,83328322,1575,1577,1551,1552,0,0,0,0,0,0,0,0,0,0
1684062941.59972787,83428282,1577,1578,1550,1550,0,0,0,0,0,0,0,0,0,0
1684062941.69968796,83528242,1578,1580,1548,1548,0,0,0,0,0,0,0,0,0,0
1684062941.79964781,83628202,1581,1582,1546,1545,0,0,0,0,0,0,0,0,0,0
1684062941.89960790,83728162,1584,1584,1544,1544,0,0,0,0,0,0,0,0,0,0
1684062942.00040078,83828955,1586,1587,1541,1541,0,0,0,0,0,0,0,0,0,0
1684062942.10036087,83928915,1589,1589,1540,1540,0,0,0,0,0,0,0,0,0,0
1684062942.20032096,84028875,1591,1591,1538,1539,0,0,0,0,0,0,0,0,0,0
1684062942.30028081,84128835,1592,1592,1537,1539,0,0,0,0,0,0,0,0,0,0
1684062942.40024090,84228795,1593,1594,1538,1540,0,0,0,0,0,0,0,0,0,0
1684062942.50020075,84328755,1592,1592,1539,1541,0,0,0,0,0,0,0,0,0,0
1684062942.60016084,84428715,1590,1589,1543,1545,0,0,0,0,0,0,0,0,0,0
1684062942.70012093,84528675,1586,1584,1549,1552,0,0,0,0,0,0,0,0,0,0
1684062942.80008078,84628635,1581,1578,1557,1560,0,0,0,0,0,0,0,0,0,0
1684062942.90004086,84728595,1573,1569,1567,1570,0,0,0,0,0,0,0,0,0,0
1684062943.00000095,84828555,1563,1559,1578,1580,0,0,0,0,0,0,0,0,0,0
1684062943.09996080,84928515,1553,1550,1590,1591,0,0,0,0,0,0,0,0,0,0
1684062943.19992089,85028475,1543,1542,1599,1599,0,0,0,0,0,0,0,0,0,0
1684062943.29988074,85128435,1536,1536,1606,1606,0,0,0,0,0,0,0,0,0,0
1684062943.39984083,85228395,1533,1534,1611,1610,0,0,0,0,0,0,0,0,0,0
1684062943.49980092,85328355,1532,1534,1611,1610,0,0,0,0,0,0,0,0,0,0
1684062943.59976077,85428315,1535,1537,1610,1609,0,0,0,0,0,0,0,0,0,0
1684062943.69972086,85528275,1541,1542,1606,1606,0,0,0,0,0,0,0,0,0,0
1684062943.79968095,85628235,1548,1549,1600,1600,0,0,0,0,0,0,0,0,0,0
1684062943.89964080,85728195,1556,1557,1593,1593,0,0,0,0,0,0,0,0,0,0
1684062943.99960089,85828155,1565,1565,1588,1587,0,0,0,0,0,0,0,0,0,0
1684062944.10039377,85928948,1571,1571,1580,1579,0,0,0,0,0,0,0,0,0,0
1684062944.20035386,86028908,1578,1577,1576,1575,0,0,0,0,0,0,0,0,0,0
1684062944.30031395,86128868,1583,1581,1571,1571,0,0,0,0,0,0,0,0,0,0
1684062944.40027380,86228828,1585,1584,1567,1568,0,0,0,0,0,0,0,0,0,0
1684062944.50023389,86328788,1587,1586,1566,1568,0,0,0,0,0,0,0,0,0,0
1684062944.60019374,86428748,1589,1588,1569,1569,0,0,0,0,0,0,0,0,0,0
1684062944.70015383,86528708,1586,1585,1569,1568,0,0,0,0,0,0,0,0,0,0
1684062944.80011392,86628668,1585,1584,1572,1572,0,0,0,0,0,0,0,0,0,0
1684062944.90007377,86728628,1582,1582,1574,1574,0,0,0,0,0,0,0,0,0,0
1684062945.00003386,86828588,1579,1579,1577,1577,0,0,0,0,0,0,0,0,0,0
1684062945.09999394,86928548,1577,1578,1580,1579,0,0,0,0,0,0,0,0,0,0
1684062945.19995379,87028508,1575,1576,1582,1581,0,0,0,0,0,0,0,0,0,0
1684062945.29991388,87128468,1575,1575,1584,1584,0,0,0,0,0,0,0,0,0,0
1684062945.39987373,87228428,1573,1574,1584,1584,0,0,0,0,0,0,0,0,0,0
1684062945.49983382,87328388,1574,1574,1584,1585,0,0,0,0,0,0,0,0,0,0
1684062945.59979391,87428348,1575,1575,1585,1585,0,0,0,0,0,0,0,0,0,0
1684062945.69975376,87528308,1575,1575,1583,1583,0,0,0,0,0,0,0,0,0,0
1684062945.79971385,87628268,1576,1576,1582,1582,0,0,0,0,0,0,0,0,0,0
1684062945.89967394,87728228,1577,1577,1580,1581,0,0,0,0,0,0,0,0,0,0
1684062945.99963379,87828188,1578,1579,1580,1579,0,0,0,0,0,0,0,0,0,0
1684062946.10042691,87928981,1579,1579,1578,1578,0,0,0,0,0,0,0,0,0,0
1684062946.20038676,88028941,1580,1580,1578,1578,0,0,0,0,0,0,0,0,0,0
1684062946.30034685,88128901,1581,1581,1577,1578,0,0,0,0,0,0,0,0,0,0
1684062946.40030694,88228861,1580,1580,1576,1576,0,0,0,0,0,0,0,0,0,0
1684062946.50026679,88328821,1581,1580,1576,1576,0,0,0,0,0,0,0,0,0,0
1684062946.60022688,88428781,1581,1580,1577,1576,0,0,0,0,0,0,0,0,0,0
1684062946.70018673,88528741,1580,1580,1577,1577,0,0,0,0,0,0,0,0,0,0
1684062946.80014682,88628701,1579,1580,1577,1578,0,0,0,0,0,0,0,0,0,0
1684062946.90010691,88728661,1579,1580,1578,1579,0,0,0,0,0,0,0,0,0,0
1684062947.00006676,88828621,1580,1580,1580,1580,0,0,0,0,0,0,0,0,0,0
1684062947.10002685,88928581,1580,1580,1580,1581,0,0,0,0,0,0,0,0,0,0
1684062947.19998693,89028541,1580,1580,1581,1581,0,0,0,0,0,0,0,0,0,0
1684062947.29994678,89128501,1579,1579,1581,1580,0,0,0,0,0,0,0,0,0,0
1684062947.39990687,89228461,1579,1580,1581,1581,0,0,0,0,0,0,0,0,0,0
1684062947.49986696,89328421,1580,1580,1582,1581,0,0,0,0,0,0,0,0,0,0
1684062947.59982681,89428381,1580,1580,1582,1582,0,0,0,0,0,0,0,0,0,0
1684062947.69978690,89528341,1581,1580,1582,1582,0,0,0,0,0,0,0,0,0,0
1684062947.79974675,89628301,1581,1581,1581,1581,0,0,0,0,0,0,0,0,0,0
1684062947.89970684,89728261,1581,1581,1582,1582,0,0,0,0,0,0,0,0,0,0
1684062947.99966693,89828221,1581,1582,1584,1577,0,0,0,0,0,0,0,0,0,0
1684062948.09962678,89928181,1581,1582,1587,1573,0,0,0,0,0,0,0,0,0,0
1684062948.20041990,90028974,1579,1579,1582,1573,0,0,0,0,0,0,0,0,0,0
1684062948.30037975,90128934,1577,1576,1574,1575,0,0,0,0,0,0,0,0,0,0
1684062948.40033984,90228894,1574,1573,1568,1575,0,0,0,0,0,0,0,0,0,0
1684062948.50029993,90328854,1572,1572,1567,1574,0,0,0,0,0,0,0,0,0,0
1684062948.60025978,90428814,1569,1569,1565,1570,0,0,0,0,0,0,0,0,0,0
1684062948.70021987,90528774,1568,1568,1565,1568,0,0,0,0,0,0,0,0,0,0
1684062948.80017996,90628734,1566,1566,1566,1566,0,0,0,0,0,0,0,0,0,0
1684062948.90013981,90728694,1565,1565,1567,1564,0,0,0,0,0,0,0,0,0,0
1684062949.00009990,90828654,1564,1565,1566,1563,0,0,0,0,0,0,0,0,0,0
1684062949.10005975,90928614,1564,1564,1566,1564,0,0,0,0,0,0,0,0,0,0
1684062949.20001984,91028574,1564,1564,1566,1565,0,0,0,0,0,0,0,0,0,0
1684062949.29997993,91128534,1563,1563,1564,1564,0,0,0,0,0,0,0,0,0,0
1684062949.39993978,91228494,1563,1563,1564,1564,0,0,0,0,0,0,0,0,0,0
1684062949.49989986,91328454,1562,1562,1563,1563,0,0,0,0,0,0,0,0,0,0
1684062949.59985995,91428414,1561,1562,1562,1562,0,0,0,0,0,0,0,0,0,0
1684062949.69981980,91528374,1560,1561,1561,1561,0,0,0,0,0,0,0,0,0,0
1684062949.79977989,91628334,1560,1561,1560,1560,0,0,0,0,0,0,0,0,0,0
1684062949.89973974,91728294,1559,1559,1559,1559,0,0,0,0,0,0,0,0,0,0
1684062949.99969983,91828254,1559,1559,1559,1558,0,0,0,0,0,0,0,0,0,0
1684062950.09965992,91928214,1558,1558,1558,1557,0,0,0,0,0,0,0,0,0,0
1684062950.19961977,92028174,1557,1558,1558,1557,0,0,0,0,0,0,0,0,0,0
1684062950.30041289,92128967,1558,1558,1558,1557,0,0,0,0,0,0,0,0,0,0
1684062950.40037274,92228927,1558,1557,1558,1556,0,0,0,0,0,0,0,0,0,0
1684062950.50033283,92328887,1557,1557,1558,1556,0,0,0,0,0,0,0,0,0,0
1684062950.60029292,92428847,1558,1558,1558,1557,0,0,0,0,0,0,0,0,0,0
1684062950.70025277,92528807,1557,1557,1558,1556,0,0,0,0,0,0,0,0,0,0
1684062950.80021286,92628767,1558,1557,1559,1557,0,0,0,0,0,0,0,0,0,0
1684062950.90017295,92728727,1559,1559,1558,1561,0,0,0,0,0,0,0,0,0,0
1684062951.00013280,92828687,1558,1559,1556,1562,0,0,0,0,0,0,0,0,0,0
1684062951.10009289,92928647,1560,1560,1557,1563,0,0,0,0,0,0,0,0,0,0
1684062951.20005274,93028607,1560,1561,1558,1563,0,0,0,0,0,0,0,0,0,0
1684062951.30001283,93128567,1561,1561,1560,1563,0,0,0,0,0,0,0,0,0,0
1684062951.39997292,93228527,1561,1561,1561,1561,0,0,0,0,0,0,0,0,0,0
1684062951.49993277,93328487,1561,1560,1563,1559,0,0,0,0,0,0,0,0,0,0
1684062951.59989285,93428447,1560,1559,1559,1560,0,0,0,0,0,0,0,0,0,0
1684062951.69985294,93528407,1559,1558,1557,1560,0,0,0,0,0,0,0,0,0,0
1684062951.79981279,93628367,1554,1554,1552,1555,0,0,0,0,0,0,0,0,0,0
1684062951.89977288,93728327,1549,1549,1547,1549,0,0,0,0,0,0,0,0,0,0
1684062951.99973273,93828287,1543,1544,1542,1542,0,0,0,0,0,0,0,0,0,0
1684062952.09969282,93928247,1536,1536,1535,1534,0,0,0,0,0,0,0,0,0,0
1684062952.19965291,94028207,1528,1529,1527,1527,0,0,0,0,0,0,0,0,0,0
1684062952.29961276,94128167,1522,1523,1521,1521,0,0,0,0,0,0,0,0,0,0
1684062952.40040588,94228960,1519,1519,1519,1519,0,0,0,0,0,0,0,0,0,0
1684062952.50036573,94328920,1519,1519,1519,1520,0,0,0,0,0,0,0,0,0,0
1684062952.60032582,94428880,1521,1520,1521,1522,0,0,0,0,0,0,0,0,0,0
1684062952.70028591,94528840,1523,1522,1524,1525,0,0,0,0,0,0,0,0,0,0
1684062952.80024576,94628800,1526,1526,1528,1529,0,0,0,0,0,0,0,0,0,0
1684062952.90020585,94728760,1531,1531,1534,1534,0,0,0,0,0,0,0,0,0,0
1684062953.00016594,94828720,1535,1536,1538,1538,0,0,0,0,0,0,0,0,0,0
1684062953.10012579,94928680,1538,1538,1540,1540,0,0,0,0,0,0,0,0,0,0
1684062953.20008588,95028640,1541,1540,1542,1542,0,0,0,0,0,0,0,0,0,0
1684062953.30004573,95128600,1543,1543,1544,1544,0,0,0,0,0,0,0,0,0,0
1684062953.40000582,95228560,1545,1545,1546,1545,0,0,0,0,0,0,0,0,0,0
1684062953.49996591,95328520,1546,1546,1546,1545,0,0,0,0,0,0,0,0,0,0
1684062953.59992576,95428480,1547,1547,1546,1546,0,0,0,0,0,0,0,0,0,0
1684062953.69988585,95528440,1547,1548,1546,1546,0,0,0,0,0,0,0,0,0,0
1684062953.79984593,95628400,1547,1547,1545,1545,0,0,0,0,0,0,0,0,0,0
1684062953.89980578,95728360,1548,1547,1546,1545,0,0,0,0,0,0,0,0,0,0
1684062953.99976587,95828320,1548,1548,1546,1546,0,0,0,0,0,0,0,0,0,0
1684062954.09972596,95928280,1548,1547,1546,1546,0,0,0,0,0,0,0,0,0,0
1684062954.19968581,96028240,1547,1547,1546,1546,0,0,0,0,0,0,0,0,0,0
1684062954.29964590,96128200,1546,1546,1545,1545,0,0,0,0,0,0,0,0,0,0
1684062954.39960575,96228160,1545,1546,1545,1545,0,0,0,0,0,0,0,0,0,0
1684062954.50039887,96328953,1544,1545,1545,1544,0,0,0,0,0,0,0,0,0,0
1684062954.60035896,96428913,1545,1545,1546,1545,0,0,0,0,0,0,0,0,0,0
1684062954.70031881,96528873,1545,1545,1546,1546,0,0,0,0,0,0,0,0,0,0
1684062954.80027890,96628833,1544,1544,1545,1544,0,0,0,0,0,0,0,0,0,0
1684062954.90023875,96728793,1543,1543,1544,1544,0,0,0,0,0,0,0,0,0,0
1684062955.00019884,96828753,1543,1543,1544,1544,0,0,0,0,0,0,0,0,0,0
1684062955.10015893,96928713,1543,1543,1543,1544,0,0,0,0,0,0,0,0,0,0
1684062955.20011878,97028673,1543,1543,1544,1544,0,0,0,0,0,0,0,0,0,0
1684062955.30007887,97128633,1544,1543,1543,1543,0,0,0,0,0,0,0,0,0,0
1684062955.40003896,97228593,1544,1543,1543,1543,0,0,0,0,0,0,0,0,0,0
1684062955.49999881,97328553,1543,1543,1543,1542,0,0,0,0,0,0,0,0,0,0
1684062955.59995890,97428513,1543,1544,1543,1543,0,0,0,0,0,0,0,0,0,0
1684062955.69991875,97528473,1544,1544,1544,1544,0,0,0,0,0,0,0,0,0,0
1684062955.79987884,97628433,1544,1545,1544,1544,0,0,0,0,0,0,0,0,0,0
1684062955.89983892,97728393,1544,1544,1544,1544,0,0,0,0,0,0,0,0,0,0
1684062955.99979877,97828353,1545,1544,1544,1544,0,0,0,0,0,0,0,0,0,0
1684062956.09975886,97928313,1544,1544,1544,1544,0,0,0,0,0,0,0,0,0,0
1684062956.19971895,98028273,1544,1544,1544,1544,0,0,0,0,0,0,0,0,0,0
1684062956.29967880,98128233,1544,1543,1544,1543,0,0,0,0,0,0,0,0,0,0
1684062956.39963889,98228193,1544,1544,1544,1544,0,0,0,0,0,0,0,0,0,0
1684062956.50043178,98328986,1544,1544,1544,1544,0,0,0,0,0,0,0,0,0,0
1684062956.60039186,98428946,1544,1544,1544,1544,0,0,0,0,0,0,0,0,0,0
1684062956.70035195,98528906,1544,1544,1544,1545,0,0,0,0,0,0,0,0,0,0
1684062956.80031180,98628866,1544,1544,1544,1543,0,0,0,0,0,0,0,0,0,0
1684062956.90027189,98728826,1545,1544,1544,1545,0,0,0,0,0,0,0,0,0,0
1684062957.00023174,98828786,1544,1544,1544,1545,0,0,0,0,0,0,0,0,0,0
1684062957.10019183,98928746,1543,1543,1543,1544,0,0,0,0,0,0,0,0,0,0
1684062957.20015192,99028706,1544,1544,1544,1543,0,0,0,0,0,0,0,0,0,0
1684062957.30011177,99128666,1544,1544,1544,1544,0,0,0,0,0,0,0,0,0,0
1684062957.40007186,99228626,1544,1544,1544,1544,0,0,0,0,0,0,0,0,0,0
1684062957.50003195,99328586,1544,1544,1543,1544,0,0,0,0,0,0,0,0,0,0
1684062957.59999180,99428546,1544,1545,1544,1544,0,0,0,0,0,0,0,0,0,0
1684062957.69995189,99528506,1544,1545,1544,1544,0,0,0,0,0,0,0,0,0,0
1684062957.79991174,99628466,1544,1544,1544,1544,0,0,0,0,0,0,0,0,0,0
1684062957.89987183,99728426,1545,1544,1545,1545,0,0,0,0,0,0,0,0,0,0
1684062957.99983191,99828386,1545,1544,1545,1544,0,0,0,0,0,0,0,0,0,0
1684062958.09979177,99928346,1544,1543,1543,1544,0,0,0,0,0,0,0,0,0,0
1684062958.19975185,100028306,1543,1544,1544,1544,0,0,0,0,0,0,0,0,0,0
1684062958.29971194,100128266,1543,1544,1544,1544,0,0,0,0,0,0,0,0,0,0
1684062958.39967179,100228226,1543,1544,1543,1544,0,0,0,0,0,0,0,0,0,0
1684062958.49963188,100328186,1544,1544,1543,1544,0,0,0,0,0,0,0,0,0,0
1684062958.60042477,100428979,1544,1544,1544,1544,0,0,0,0,0,0,0,0,0,0
1684062958.70038486,100528939,1544,1544,1544,1544,0,0,0,0,0,0,0,0,0,0
1684062958.80034494,100628899,1544,1544,1544,1544,0,0,0,0,0,0,0,0,0,0
1684062958.90030479,100728859,1543,1544,1543,1543,0,0,0,0,0,0,0,0,0,0
1684062959.00026488,100828819,1543,1544,1543,1543,0,0,0,0,0,0,0,0,0,0
1684062959.10022473,100928779,1544,1544,1544,1544,0,0,0,0,0,0,0,0,0,0
1684062959.20018482,101028739,1544,1545,1545,1545,0,0,0,0,0,0,0,0,0,0
1684062959.30014491,101128699,1544,1544,1544,1544,0,0,0,0,0,0,0,0,0,0
1684062959.40010476,101228659,1545,1545,1545,1545,0,0,0,0,0,0,0,0,0,0
1684062959.50006485,101328619,1544,1544,1544,1544,0,0,0,0,0,0,0,0,0,0
1684062959.60002494,101428579,1544,1545,1545,1544,0,0,0,0,0,0,0,0,0,0
1684062959.69998479,101528539,1545,1545,1545,1546,0,0,0,0,0,0,0,0,0,0
1684062959.79994488,101628499,1545,1545,1545,1545,0,0,0,0,0,0,0,0,0,0
1684062959.89990473,101728459,1544,1544,1544,1544,0,0,0,0,0,0,0,0,0,0
1684062959.99986482,101828419,1544,1544,1544,1544,0,0,0,0,0,0,0,0,0,0
1684062960.09982491,101928379,1545,1545,1545,1545,0,0,0,0,0,0,0,0,0,0
1684062960.19978476,102028339,1545,1545,1545,1545,0,0,0,0,0,0,0,0,0,0
1684062960.29974484,102128299,1544,1544,1544,1544,0,0,0,0,0,0,0,0,0,0
1684062960.39970493,102228259,1544,1544,1544,1544,0,0,0,0,0,0,0,0,0,0
1684062960.49966478,102328219,1544,1543,1544,1544,0,0,0,0,0,0,0,0,0,0
1684062960.59962487,102428179,1544,1544,1544,1544,0,0,0,0,0,0,0,0,0,0
1684062960.70041776,102528972,1543,1543,1543,1543,0,0,0,0,0,0,0,0,0,0
1684062960.80037785,102628932,1544,1544,1544,1544,0,0,0,0,0,0,0,0,0,0
1684062960.90033793,102728892,1543,1544,1543,1544,0,0,0,0,0,0,0,0,0,0
1684062961.00029778,102828852,1544,1544,1544,1544,0,0,0,0,0,0,0,0,0,0
1684062961.10025787,102928812,1544,1544,1544,1544,0,0,0,0,0,0,0,0,0,0
1684062961.20021796,103028772,1544,1544,1544,1545,0,0,0,0,0,0,0,0,0,0
1684062961.30017781,103128732,1544,1544,1544,1545,0,0,0,0,0,0,0,0,0,0
1684062961.40013790,103228692,1544,1545,1545,1544,0,0,0,0,0,0,0,0,0,0
1684062961.50009775,103328652,1544,1544,1544,1544,0,0,0,0,0,0,0,0,0,0
1684062961.60005784,103428612,1544,1544,1544,1544,0,0,0,0,0,0,0,0,0,0
1684062961.70001793,103528572,1545,1544,1544,1545,0,0,0,0,0,0,0,0,0,0
1684062961.79997778,103628532,1545,1545,1545,1545,0,0,0,0,0,0,0,0,0,0
1684062961.89993787,103728492,1545,1545,1545,1545,0,0,0,0,0,0,0,0,0,0
1684062961.99989796,103828452,1543,1542,1543,1542,0,0,0,0,0,0,0,0,0,0
1684062962.09985781,103928412,1382,1380,1360,1359,0,0,0,0,0,0,0,0,0,0
1684062962.19981790,104028372,1292,1291,1253,1252,0,0,0,0,0,0,0,0,0,0
1684062962.29977775,104128332,1265,1263,1219,1218,0,0,0,0,0,0,0,0,0,0
1684062962.39973783,104228292,1251,1249,1201,1199,0,0,0,0,0,0,0,0,0,0
1684062962.49969792,104328252,1216,1214,1155,1154,0,0,0,0,0,0,0,0,0,0
1684062962.59965777,104428212,1213,1211,1152,1150,0,0,0,0,0,0,0,0,0,0
1684062962.69961786,104528172,1213,1211,1152,1150,0,0,0,0,0,0,0,0,0,0
1684062962.80041075,104628965,1214,1211,1153,1150,0,0,0,0,0,0,0,0,0,0
1684062962.90037084,104728925,1232,1207,1150,1183,0,0,0,0,0,0,0,0,0,0
1684062963.00033092,104828885,1227,1210,1150,1170,0,0,0,0,0,0,0,0,0,0
1684062963.10029078,104928845,1225,1209,1150,1166,0,0,0,0,0,0,0,0,0,0
1684062963.20025086,105028805,1225,1209,1150,1167,0,0,0,0,0,0,0,0,0,0
1684062963.30021095,105128765,1227,1209,1150,1169,0,0,0,0,0,0,0,0,0,0
1684062963.40017080,105228725,1228,1209,1150,1170,0,0,0,0,0,0,0,0,0,0
1684062963.50013089,105328685,1230,1209,1150,1173,0,0,0,0,0,0,0,0,0,0
1684062963.60009074,105428645,1231,1208,1150,1174,0,0,0,0,0,0,0,0,0,0
1684062963.70005083,105528605,1220,1209,1150,1161,0,0,0,0,0,0,0,0,0,0
1684062963.80001092,105628565,1221,1209,1150,1162,0,0,0,0,0,0,0,0,0,0
1684062963.89997077,105728525,1222,1209,1150,1163,0,0,0,0,0,0,0,0,0,0
1684062963.99993086,105828485,1222,1209,1150,1163,0,0,0,0,0,0,0,0,0,0
1684062964.09989095,105928445,1174,1164,1150,1159,0,0,0,0,0,0,0,0,0,0
1684062964.19985080,106028405,1000,1000,1000,1000,0,0,0,0,0,0,0,0,0,0
1684062964.29981089,106128365,1000,1000,1000,1000,0,0,0,0,0,0,0,0,0,0
1684062964.39977074,106228325,1000,1000,1000,1000,0,0,0,0,0,0,0,0,0,0
1684062964.49973083,106328285,1000,1000,1000,1000,0,0,0,0,0,0,0,0,0,0
1684062964.59969091,106428245,1000,1000,1000,1000,0,0,0,0,0,0,0,0,0,0
1684062964.69965076,106528205,1000,1000,1000,1000,0,0,0,0,0,0,0,0,0,0
1684062964.79961085,106628165,1000,1000,1000,1000,0,0,0,0,0,0,0,0,0,0
1684062964.90040374,106728958,1000,1000,1000,1000,0,0,0,0,0,0,0,0,0,0
1684062965.00036383,106828918,1000,1000,1000,1000,0,0,0,0,0,0,0,0,0,0
1684062965.10032392,106928878,1000,1000,1000,1000,0,0,0,0,0,0,0,0,0,0
1684062965.20028377,107028838,1000,1000,1000,1000,0,0,0,0,0,0,0,0,0,0
1684062965.30024385,107128798,1000,1000,1000,1000,0,0,0,0,0,0,0,0,0,0
1684062965.40020394,107228758,1000,1000,1000,1000,0,0,0,0,0,0,0,0,0,0
1684062965.50016379,107328718,1000,1000,1000,1000,0,0,0,0,0,0,0,0,0,0
1684062965.60012388,107428678,1000,1000,1000,1000,0,0,0,0,0,0,0,0,0,0
1684062965.70008373,107528638,1000,1000,1000,1000,0,0,0,0,0,0,0,0,0,0
1684062965.80004382,107628598,1000,1000,1000,1000,0,0,0,0,0,0,0,0,0,0
1684062965.90000391,107728558,1000,1000,1000,1000,0,0,0,0,0,0,0,0,0,0
1684062965.99996376,107828518,1000,1000,1000,1000,0,0,0,0,0,0,0,0,0,0
1684062966.09992385,107928478,1000,1000,1000,1000,0,0,0,0,0,0,0,0,0,0
1684062966.19988394,108028438,1000,1000,1000,1000,0,0,0,0,0,0,0,0,0,0
1684062966.29984379,108128398,1000,1000,1000,1000,0,0,0,0,0,0,0,0,0,0
1684062966.39980388,108228358,1000,1000,1000,1000,0,0,0,0,0,0,0,0,0,0
1684062966.49976397,108328318,1000,1000,1000,1000,0,0,0,0,0,0,0,0,0,0
1684062966.59972382,108428278,1000,1000,1000,1000,0,0,0,0,0,0,0,0,0,0
1684062966.69968390,108528238,1000,1000,1000,1000,0,0,0,0,0,0,0,0,0,0
1684062966.79964375,108628198,1000,1000,1000,1000,0,0,0,0,0,0,0,0,0,0
1684062966.89960384,108728158,1000,1000,1000,1000,0,0,0,0,0,0,0,0,0,0
1684062967.00039673,108828951,1000,1000,1000,1000,0,0,0,0,0,0,0,0,0,0
1684062967.10035682,108928911,1000,1000,1000,1000,0,0,0,0,0,0,0,0,0,0
1684062967.20031691,109028871,1000,1000,1000,1000,0,0,0,0,0,0,0,0,0,0
1684062967.30027676,109128831,1000,1000,1000,1000,0,0,0,0,0,0,0,0,0,0
1684062967.40023685,109228791,1000,1000,1000,1000,0,0,0,0,0,0,0,0,0,0
1684062967.50019693,109328751,1000,1000,1000,1000,0,0,0,0,0,0,0,0,0,0
1684062967.60015678,109428711,1000,1000,1000,1000,0,0,0,0,0,0,0,0,0,0
1684062967.70011687,109528671,1000,1000,1000,1000,0,0,0,0,0,0,0,0,0,0
1684062967.80007696,109628631,1000,1000,1000,1000,0,0,0,0,0,0,0,0,0,0
1684062967.90003681,109728591,1000,1000,1000,1000,0,0,0,0,0,0,0,0,0,0
1684062967.99999690,109828551,1000,1000,1000,1000,0,0,0,0,0,0,0,0,0,0
1684062968.09995675,109928511,1000,1000,1000,1000,0,0,0,0,0,0,0,0,0,0
1684062968.19991684,110028471,1000,1000,1000,1000,0,0,0,0,0,0,0,0,0,0
1684062968.29987693,110128431,1000,1000,1000,1000,0,0,0,0,0,0,0,0,0,0
1684062968.39983678,110228391,1000,1000,1000,1000,0,0,0,0,0,0,0,0,0,0
1684062968.49979687,110328351,1000,1000,1000,1000,0,0,0,0,0,0,0,0,0,0
1684062968.59975696,110428311,1000,1000,1000,1000,0,0,0,0,0,0,0,0,0,0
1684062968.69971681,110528271,1000,1000,1000,1000,0,0,0,0,0,0,0,0,0,0
1684062968.79967690,110628231,1000,1000,1000,1000,0,0,0,0,0,0,0,0,0,0
1684062968.89963675,110728191,1000,1000,1000,1000,0,0,0,0,0,0,0,0,0,0
1684062969.00042987,110828984,1000,1000,1000,1000,0,0,0,0,0,0,0,0,0,0
1684062969.10038996,110928944,1000,1000,1000,1000,0,0,0,0,0,0,0,0,0,0
1684062969.20034981,111028904,1000,1000,1000,1000,0,0,0,0,0,0,0,0,0,0
1684062969.30030990,111128864,1000,1000,1000,1000,0,0,0,0,0,0,0,0,0,0
1684062969.40026975,111228824,1000,1000,1000,1000,0,0,0,0,0,0,0,0,0,0
1684062969.50022984,111328784,1000,1000,1000,1000,0,0,0,0,0,0,0,0,0,0
1684062969.60018992,111428744,1000,1000,1000,1000,0,0,0,0,0,0,0,0,0,0
1684062969.70014977,111528704,1000,1000,1000,1000,0,0,0,0,0,0,0,0,0,0
1684062969.80010986,111628664,1000,1000,1000,1000,0,0,0,0,0,0,0,0,0,0
1684062969.90006995,111728624,1000,1000,1000,1000,0,0,0,0,0,0,0,0,0,0
1684062970.00002980,111828584,1000,1000,1000,1000,0,0,0,0,0,0,0,0,0,0
1684062970.09998989,111928544,1000,1000,1000,1000,0,0,0,0,0,0,0,0,0,0
1684062970.19994974,112028504,1000,1000,1000,1000,0,0,0,0,0,0,0,0,0,0
1684062970.29990983,112128464,1000,1000,1000,1000,0,0,0,0,0,0,0,0,0,0
1684062970.39986992,112228424,1000,1000,1000,1000,0,0,0,0,0,0,0,0,0,0
1684062970.49982977,112328384,1000,1000,1000,1000,0,0,0,0,0,0,0,0,0,0
1684062970.59978986,112428344,1000,1000,1000,1000,0,0,0,0,0,0,0,0,0,0
1684062970.69974995,112528304,1000,1000,1000,1000,0,0,0,0,0,0,0,0,0,0
1684062970.79970980,112628264,1000,1000,1000,1000,0,0,0,0,0,0,0,0,0,0
1684062970.89966989,112728224,1000,1000,1000,1000,0,0,0,0,0,0,0,0,0,0
1684062970.99962974,112828184,1000,1000,1000,1000,0,0,0,0,0,0,0,0,0,0
1684062971.10042286,112928977,1000,1000,1000,1000,0,0,0,0,0,0,0,0,0,0
1684062971.20038295,113028937,1000,1000,1000,1000,0,0,0,0,0,0,0,0,0,0
1684062971.30034280,113128897,1000,1000,1000,1000,0,0,0,0,0,0,0,0,0,0
1684062971.40030289,113228857,1000,1000,1000,1000,0,0,0,0,0,0,0,0,0,0
1684062971.50026274,113328817,1000,1000,1000,1000,0,0,0,0,0,0,0,0,0,0
1684062971.60022283,113428777,1000,1000,1000,1000,0,0,0,0,0,0,0,0,0,0
1684062971.70018291,113528737,1000,1000,1000,1000,0,0,0,0,0,0,0,0,0,0
1684062971.80014277,113628697,1000,1000,1000,1000,0,0,0,0,0,0,0,0,0,0
1684062971.90010285,113728657,1000,1000,1000,1000,0,0,0,0,0,0,0,0,0,0
1684062972.00006294,113828617,1000,1000,1000,1000,0,0,0,0,0,0,0,0,0,0
1684062972.10002279,113928577,1000,1000,1000,1000,0,0,0,0,0,0,0,0,0,0
1684062972.19998288,114028537,1000,1000,1000,1000,0,0,0,0,0,0,0,0,0,0
1684062972.29994273,114128497,1000,1000,1000,1000,0,0,0,0,0,0,0,0,0,0
1684062972.39990282,114228457,1000,1000,1000,1000,0,0,0,0,0,0,0,0,0,0
1684062972.49986291,114328417,1000,1000,1000,1000,0,0,0,0,0,0,0,0,0,0
1684062972.59982276,114428377,1000,1000,1000,1000,0,0,0,0,0,0,0,0,0,0
1684062972.69978285,114528337,1000,1000,1000,1000,0,0,0,0,0,0,0,0,0,0
1684062972.79974294,114628297,1000,1000,1000,1000,0,0,0,0,0,0,0,0,0,0
1684062972.89970279,114728257,1000,1000,1000,1000,0,0,0,0,0,0,0,0,0,0
1684062972.99966288,114828217,1000,1000,1000,1000,0,0,0,0,0,0,0,0,0,0
1684062973.09962296,114928177,1000,1000,1000,1000,0,0,0,0,0,0,0,0,0,0
1684062973.20041585,115028970,1000,1000,1000,1000,0,0,0,0,0,0,0,0,0,0
1684062973.30037594,115128930,1000,1000,1000,1000,0,0,0,0,0,0,0,0,0,0
1684062973.40033579,115228890,1000,1000,1000,1000,0,0,0,0,0,0,0,0,0,0
1684062973.50029588,115328850,1000,1000,1000,1000,0,0,0,0,0,0,0,0,0,0
1684062973.60025573,115428810,1000,1000,1000,1000,0,0,0,0,0,0,0,0,0,0
1684062973.70021582,115528770,1000,1000,1000,1000,0,0,0,0,0,0,0,0,0,0
1684062973.80017591,115628730,1000,1000,1000,1000,0,0,0,0,0,0,0,0,0,0
1684062973.90013576,115728690,1000,1000,1000,1000,0,0,0,0,0,0,0,0,0,0
1684062974.00009584,115828650,1000,1000,1000,1000,0,0,0,0,0,0,0,0,0,0
1684062974.10005593,115928610,1000,1000,1000,1000,0,0,0,0,0,0,0,0,0,0
1684062974.20001578,116028570,1000,1000,1000,1000,0,0,0,0,0,0,0,0,0,0
1684062974.29997587,116128530,1000,1000,1000,1000,0,0,0,0,0,0,0,0,0,0
1684062974.39993596,116228490,1000,1000,1000,1000,0,0,0,0,0,0,0,0,0,0
1684062974.49989581,116328450,1000,1000,1000,1000,0,0,0,0,0,0,0,0,0,0
1684062974.59985590,116428410,1000,1000,1000,1000,0,0,0,0,0,0,0,0,0,0
1684062974.69981575,116528370,1000,1000,1000,1000,0,0,0,0,0,0,0,0,0,0
1684062974.79977584,116628330,1000,1000,1000,1000,0,0,0,0,0,0,0,0,0,0
1684062974.89973593,116728290,1000,1000,1000,1000,0,0,0,0,0,0,0,0,0,0
1684062974.99969578,116828250,1000,1000,1000,1000,0,0,0,0,0,0,0,0,0,0
1684062975.09965587,116928210,1000,1000,1000,1000,0,0,0,0,0,0,0,0,0,0
1684062975.19961596,117028170,1000,1000,1000,1000,0,0,0,0,0,0,0,0,0,0
1684062975.30040884,117128963,1000,1000,1000,1000,0,0,0,0,0,0,0,0,0,0
1684062975.40036893,117228923,1000,1000,1000,1000,0,0,0,0,0,0,0,0,0,0
1684062975.50032878,117328883,1000,1000,1000,1000,0,0,0,0,0,0,0,0,0,0
1684062975.60028887,117428843,1000,1000,1000,1000,0,0,0,0,0,0,0,0,0,0
1684062975.70024896,117528803,1000,1000,1000,1000,0,0,0,0,0,0,0,0,0,0
1684062975.80020881,117628763,1000,1000,1000,1000,0,0,0,0,0,0,0,0,0,0
1684062975.90016890,117728723,1000,1000,1000,1000,0,0,0,0,0,0,0,0,0,0
1684062976.00012875,117828683,1000,1000,1000,1000,0,0,0,0,0,0,0,0,0,0
1684062976.10008883,117928643,1000,1000,1000,1000,0,0,0,0,0,0,0,0,0,0
1684062976.20004892,118028603,1000,1000,1000,1000,0,0,0,0,0,0,0,0,0,0
1684062976.30000877,118128563,1000,1000,1000,1000,0,0,0,0,0,0,0,0,0,0
1684062976.39996886,118228523,1000,1000,1000,1000,0,0,0,0,0,0,0,0,0,0
1684062976.49992895,118328483,1000,1000,1000,1000,0,0,0,0,0,0,0,0,0,0
1684062976.59988880,118428443,1000,1000,1000,1000,0,0,0,0,0,0,0,0,0,0
1684062976.69984889,118528403,1000,1000,1000,1000,0,0,0,0,0,0,0,0,0,0
1684062976.79980874,118628363,1000,1000,1000,1000,0,0,0,0,0,0,0,0,0,0
1684062976.89976883,118728323,1000,1000,1000,1000,0,0,0,0,0,0,0,0,0,0
1684062976.99972892,118828283,1000,1000,1000,1000,0,0,0,0,0,0,0,0,0,0
1684062977.09968877,118928243,1000,1000,1000,1000,0,0,0,0,0,0,0,0,0,0
1684062977.19964886,119028203,1000,1000,1000,1000,0,0,0,0,0,0,0,0,0,0
1684062977.29960895,119128163,1000,1000,1000,1000,0,0,0,0,0,0,0,0,0,0
1684062977.40040183,119228956,1000,1000,1000,1000,0,0,0,0,0,0,0,0,0,0
1684062977.50036192,119328916,1000,1000,1000,1000,0,0,0,0,0,0,0,0,0,0
1684062977.60032177,119428876,1000,1000,1000,1000,0,0,0,0,0,0,0,0,0,0
1684062977.70028186,119528836,1000,1000,1000,1000,0,0,0,0,0,0,0,0,0,0
1684062977.80024195,119628796,1000,1000,1000,1000,0,0,0,0,0,0,0,0,0,0
1684062977.90020180,119728756,1000,1000,1000,1000,0,0,0,0,0,0,0,0,0,0
1684062978.00016189,119828716,1000,1000,1000,1000,0,0,0,0,0,0,0,0,0,0
1684062978.10012174,119928676,1000,1000,1000,1000,0,0,0,0,0,0,0,0,0,0
1684062978.20008183,120028636,1000,1000,1000,1000,0,0,0,0,0,0,0,0,0,0
1684062978.30004191,120128596,1000,1000,1000,1000,0,0,0,0,0,0,0,0,0,0
1684062978.40000176,120228556,1000,1000,1000,1000,0,0,0,0,0,0,0,0,0,0
1684062978.49996185,120328516,1000,1000,1000,1000,0,0,0,0,0,0,0,0,0,0
1684062978.59992194,120428476,1000,1000,1000,1000,0,0,0,0,0,0,0,0,0,0
1684062978.69988179,120528436,1000,1000,1000,1000,0,0,0,0,0,0,0,0,0,0
1684062978.79984188,120628396,1000,1000,1000,1000,0,0,0,0,0,0,0,0,0,0
1684062978.89980173,120728356,1000,1000,1000,1000,0,0,0,0,0,0,0,0,0,0
1684062978.99976182,120828316,1000,1000,1000,1000,0,0,0,0,0,0,0,0,0,0
