TimeUS,M1,M2,M3,M4,TimeUS,C1,C2,C3,C4
50516452,1000,1000,1000,1000,50528947,1000,1000,1000,1000
50518951,1000,1000,1000,1000,50628907,1000,1000,1000,1000
50521450,1000,1000,1000,1000,50728867,1000,1000,1000,1000
50523949,1000,1000,1000,1000,50828827,1000,1000,1000,1000
50526448,1000,1000,1000,1000,50928787,1000,1000,1000,1000
50528947,1000,1000,1000,1000,51028747,1000,1000,1000,1000
50531446,1000,1000,1000,1000,51128707,1000,1000,1000,1000
50533945,1000,1000,1000,1000,51228667,1000,1000,1000,1000
50536444,1000,1000,1000,1000,51328627,1000,1000,1000,1000
50538943,1000,1000,1000,1000,51428587,1000,1000,1000,1000
50541442,1000,1000,1000,1000,51528547,1000,1000,1000,1000
50543941,1000,1000,1000,1000,51628507,1000,1000,1000,1000
50546440,1000,1000,1000,1000,51728467,1000,1000,1000,1000
50548939,1000,1000,1000,1000,51828427,1000,1000,1000,1000
50551438,1000,1000,1000,1000,51928387,1000,1000,1000,1000
50553937,1000,1000,1000,1000,52028347,1000,1000,1000,1000
50556436,1000,1000,1000,1000,52128307,1000,1000,1000,1000
50558935,1000,1000,1000,1000,52228267,1000,1000,1000,1000
50561434,1000,1000,1000,1000,52328227,1000,1000,1000,1000
50563933,1000,1000,1000,1000,52428187,1000,1000,1000,1000
50566432,1000,1000,1000,1000,52528980,1003,1003,1003,1003
50568931,1000,1000,1000,1000,52628940,1033,1033,1033,1033
50571430,1000,1000,1000,1000,52728900,1063,1063,1063,1063
50573929,1000,1000,1000,1000,52828860,1093,1093,1093,1093
50576428,1000,1000,1000,1000,52928820,1123,1123,1123,1123
50578927,1000,1000,1000,1000,53028780,1185,1177,1178,1185
50581426,1000,1000,1000,1000,53128740,1425,1419,1419,1425
50583925,1000,1000,1000,1000,53228700,1599,1594,1594,1599
50586424,1000,1000,1000,1000,53328660,1743,1739,1739,1744
50588923,1000,1000,1000,1000,53428620,1869,1865,1865,1869
50591422,1000,1000,1000,1000,53528580,1877,1873,1873,1877
50593921,1000,1000,1000,1000,53628540,1790,1788,1789,1790
50596420,1000,1000,1000,1000,53728500,1670,1671,1671,1670
50598919,1000,1000,1000,1000,53828460,1622,1624,1624,1622
50601418,1000,1000,1000,1000,53928420,1623,1625,1625,1623
50603917,1000,1000,1000,1000,54028380,1635,1637,1637,1635
50606416,1000,1000,1000,1000,54128340,1640,1641,1641,1640
50608915,1000,1000,1000,1000,54228300,1637,1632,1632,1637
50611414,1000,1000,1000,1000,54328260,1615,1614,1606,1622
50613913,1000,1000,1000,1000,54428220,1607,1607,1600,1614
50616412,1000,1000,1000,1000,54528180,1604,1604,1601,1607
50618911,1000,1000,1000,1000,54628973,1607,1606,1608,1606
50621410,1000,1000,1000,1000,54728933,1611,1612,1615,1608
50623909,1000,1000,1000,1000,54828893,1618,1618,1622,1614
50626408,1000,1000,1000,1000,54928853,1593,1593,1606,1580
50628907,1000,1000,1000,1000,55028813,1577,1578,1592,1563
50631406,1000,1000,1000,1000,55128773,1565,1565,1571,1560
50633905,1000,1000,1000,1000,55228733,1555,1555,1551,1560
50636404,1000,1000,1000,1000,55328693,1547,1546,1535,1559
50638903,1000,1000,1000,1000,55428653,1538,1538,1526,1550
50641402,1000,1000,1000,1000,55528613,1533,1532,1525,1541
50643901,1000,1000,1000,1000,55628573,1528,1528,1525,1531
50646400,1000,1000,1000,1000,55728533,1528,1528,1528,1527
50648899,1000,1000,1000,1000,55828493,1529,1529,1531,1526
50651398,1000,1000,1000,1000,55928453,1532,1532,1535,1529
50653897,1000,1000,1000,1000,56028413,1534,1534,1538,1531
50656396,1000,1000,1000,1000,56128373,1538,1539,1541,1536
50658895,1000,1000,1000,1000,56228333,1542,1543,1544,1541
50661394,1000,1000,1000,1000,56328293,1545,1545,1545,1544
50663893,1000,1000,1000,1000,56428253,1548,1548,1548,1548
50666392,1000,1000,1000,1000,56528213,1551,1551,1550,1552
50668891,1000,1000,1000,1000,56628173,1553,1553,1551,1555
50671390,1000,1000,1000,1000,56728966,1552,1552,1557,1560
50673889,1000,1000,1000,1000,56828926,1553,1554,1560,1562
50676388,1000,1000,1000,1000,56928886,1557,1557,1563,1564
50678887,1000,1000,1000,1000,57028846,1559,1559,1564,1563
50681386,1000,1000,1000,1000,57128806,1561,1562,1564,1564
50683885,1000,1000,1000,1000,57228766,1565,1565,1565,1564
50686384,1000,1000,1000,1000,57328726,1567,1568,1566,1566
50688883,1000,1000,1000,1000,57428686,1570,1570,1567,1566
50691382,1000,1000,1000,1000,57528646,1571,1571,1567,1567
50693881,1000,1000,1000,1000,57628606,1572,1572,1567,1567
50696380,1000,1000,1000,1000,57728566,1574,1573,1569,1569
50698879,1000,1000,1000,1000,57828526,1573,1573,1570,1570
50701378,1000,1000,1000,1000,57928486,1574,1574,1571,1572
50703877,1000,1000,1000,1000,58028446,1575,1575,1574,1573
50706376,1000,1000,1000,1000,58128406,1574,1574,1574,1573
50708875,1000,1000,1000,1000,58228366,1573,1574,1574,1573
50711374,1000,1000,1000,1000,58328326,1574,1574,1575,1574
50713873,1000,1000,1000,1000,58428286,1574,1574,1575,1575
50716372,1000,1000,1000,1000,58528246,1574,1575,1576,1576
50718871,1000,1000,1000,1000,58628206,1575,1574,1576,1575
50721370,1000,1000,1000,1000,58728166,1576,1575,1577,1576
50723869,1000,1000,1000,1000,58828959,1576,1576,1577,1577
50726368,1000,1000,1000,1000,58928919,1576,1576,1576,1577
50728867,1000,1000,1000,1000,59028879,1576,1576,1577,1577
50731366,1000,1000,1000,1000,59128839,1578,1578,1578,1578
50733865,1000,1000,1000,1000,59228799,1578,1578,1578,1578
50736364,1000,1000,1000,1000,59328759,1577,1577,1577,1577
50738863,1000,1000,1000,1000,59428719,1578,1577,1577,1577
50741362,1000,1000,1000,1000,59528679,1578,1578,1577,1577
50743861,1000,1000,1000,1000,59628639,1578,1578,1578,1578
50746360,1000,1000,1000,1000,59728599,1578,1579,1578,1578
50748859,1000,1000,1000,1000,59828559,1578,1578,1578,1578
50751358,1000,1000,1000,1000,59928519,1578,1578,1578,1578
50753857,1000,1000,1000,1000,60028479,1578,1579,1579,1579
50756356,1000,1000,1000,1000,60128439,1578,1578,1578,1578
50758855,1000,1000,1000,1000,60228399,1579,1578,1579,1579
50761354,1000,1000,1000,1000,60328359,1578,1578,1578,1578
50763853,1000,1000,1000,1000,60428319,1578,1579,1579,1578
50766352,1000,1000,1000,1000,60528279,1579,1579,1579,1579
50768851,1000,1000,1000,1000,60628239,1578,1578,1578,1578
50771350,1000,1000,1000,1000,60728199,1578,1578,1578,1578
50773849,1000,1000,1000,1000,60828159,1579,1579,1579,1579
50776348,1000,1000,1000,1000,60928952,1579,1579,1579,1579
50778847,1000,1000,1000,1000,61028912,1579,1579,1579,1579
50781346,1000,1000,1000,1000,61128872,1578,1578,1578,1578
50783845,1000,1000,1000,1000,61228832,1579,1579,1579,1579
50786344,1000,1000,1000,1000,61328792,1579,1579,1579,1579
50788843,1000,1000,1000,1000,61428752,1579,1579,1579,1579
50791342,1000,1000,1000,1000,61528712,1580,1580,1580,1580
50793841,1000,1000,1000,1000,61628672,1579,1580,1580,1580
50796340,1000,1000,1000,1000,61728632,1580,1580,1580,1580
50798839,1000,1000,1000,1000,61828592,1580,1580,1580,1580
50801338,1000,1000,1000,1000,61928552,1581,1580,1580,1581
50803837,1000,1000,1000,1000,62028512,1581,1580,1580,1581
50806336,1000,1000,1000,1000,62128472,1581,1581,1581,1581
50808835,1000,1000,1000,1000,62228432,1580,1580,1581,1580
50811334,1000,1000,1000,1000,62328392,1580,1581,1581,1581
50813833,1000,1000,1000,1000,62428352,1580,1580,1580,1581
50816332,1000,1000,1000,1000,62528312,1580,1580,1580,1580
50818831,1000,1000,1000,1000,62628272,1582,1582,1582,1582
50821330,1000,1000,1000,1000,62728232,1581,1581,1581,1581
50823829,1000,1000,1000,1000,62828192,1582,1581,1581,1581
50826328,1000,1000,1000,1000,62928985,1581,1582,1588,1574
50828827,1000,1000,1000,1000,63028945,1581,1583,1587,1574
50831326,1000,1000,1000,1000,63128905,1580,1583,1579,1575
50833825,1000,1000,1000,1000,63228865,1577,1580,1569,1572
50836324,1000,1000,1000,1000,63328825,1577,1579,1561,1569
50838823,1000,1000,1000,1000,63428785,1577,1578,1557,1564
50841322,1000,1000,1000,1000,63528745,1579,1578,1556,1560
50843821,1000,1000,1000,1000,63628705,1579,1578,1555,1556
50846320,1000,1000,1000,1000,63728665,1579,1577,1555,1554
50848819,1000,1000,1000,1000,63828625,1578,1577,1556,1553
50851318,1000,1000,1000,1000,63928585,1578,1578,1556,1554
50853817,1000,1000,1000,1000,64028545,1576,1577,1556,1554
50856316,1000,1000,1000,1000,64128505,1575,1577,1555,1554
50858815,1000,1000,1000,1000,64228465,1574,1576,1553,1554
50861314,1000,1000,1000,1000,64328425,1575,1577,1552,1553
50863813,1000,1000,1000,1000,64428385,1577,1578,1551,1551
50866312,1000,1000,1000,1000,64528345,1578,1579,1548,1548
50868811,1000,1000,1000,1000,64628305,1580,1581,1546,1546
50871310,1000,1000,1000,1000,64728265,1583,1584,1544,1543
50873809,1000,1000,1000,1000,64828225,1586,1587,1541,1540
50876308,1000,1000,1000,1000,64928185,1589,1590,1538,1538
50878807,1000,1000,1000,1000,65028978,1591,1592,1535,1536
50881306,1000,1000,1000,1000,65128938,1594,1594,1535,1536
50883805,1000,1000,1000,1000,65228898,1594,1595,1535,1535
50886304,1000,1000,1000,1000,65328858,1595,1594,1536,1538
50888803,1000,1000,1000,1000,65428818,1592,1592,1538,1541
50891302,1000,1000,1000,1000,65528778,1589,1588,1543,1546
50893801,1000,1000,1000,1000,65628738,1583,1581,1550,1552
50896300,1000,1000,1000,1000,65728698,1577,1574,1561,1564
50898799,1000,1000,1000,1000,65828658,1567,1563,1572,1574
50901298,1000,1000,1000,1000,65928618,1556,1552,1584,1586
50903797,1000,1000,1000,1000,66028578,1545,1542,1596,1596
50906296,1000,1000,1000,1000,66128538,1537,1536,1607,1606
50908795,1000,1000,1000,1000,66228498,1531,1531,1613,1611
50911294,1000,1000,1000,1000,66328458,1529,1531,1615,1614
50913793,1000,1000,1000,1000,66428418,1312,1317,1664,1669
50916292,1000,1000,1000,1000,66528378,1388,1396,1673,1675
50918791,1000,1000,1000,1000,66628338,1453,1462,1656,1652
50921290,1000,1000,1000,1000,66728298,1514,1520,1631,1623
50923789,1000,1000,1000,1000,66828258,1561,1563,1610,1602
50926288,1000,1000,1000,1000,66928218,1594,1589,1598,1593
50928787,1000,1000,1000,1000,67028178,1619,1606,1587,1586
50931286,1000,1000,1000,1000,67128971,1643,1630,1564,1569
50933785,1000,1000,1000,1000,67228931,1656,1645,1535,1546
50936284,1000,1000,1000,1000,67328891,1656,1653,1544,1554
50938783,1000,1000,1000,1000,67428851,1645,1650,1552,1559
50941282,1000,1000,1000,1000,67528811,1633,1642,1559,1560
50943781,1000,1000,1000,1000,67628771,1624,1633,1564,1561
50946280,1000,1000,1000,1000,67728731,1618,1624,1569,1563
50948779,1000,1000,1000,1000,67828691,1614,1615,1571,1566
50951278,1000,1000,1000,1000,67928651,1612,1609,1572,1569
50953777,1000,1000,1000,1000,68028611,1609,1604,1571,1571
50956276,1000,1000,1000,1000,68128571,1605,1600,1570,1572
50958775,1000,1000,1000,1000,68228531,1600,1597,1569,1571
50961274,1000,1000,1000,1000,68328491,1596,1596,1569,1571
50963773,1000,1000,1000,1000,68428451,1592,1594,1569,1569
50966272,1000,1000,1000,1000,68528411,1590,1592,1569,1568
50968771,1000,1000,1000,1000,68628371,1588,1590,1568,1567
50971270,1000,1000,1000,1000,68728331,1587,1588,1569,1567
50973769,1000,1000,1000,1000,68828291,1588,1588,1569,1568
50976268,1000,1000,1000,1000,68928251,1588,1588,1570,1569
50978767,1000,1000,1000,1000,69028211,1588,1587,1570,1569
50981266,1000,1000,1000,1000,69128171,1588,1586,1569,1569
50983765,1000,1000,1000,1000,69228964,1582,1578,1576,1576
50986264,1000,1000,1000,1000,69328924,1570,1567,1589,1591
50988763,1000,1000,1000,1000,69428884,1558,1557,1602,1603
50991262,1000,1000,1000,1000,69528844,1548,1551,1608,1610
50993761,1000,1000,1000,1000,69628804,1545,1550,1608,1609
50996260,1000,1000,1000,1000,69728764,1547,1553,1606,1606
50998759,1000,1000,1000,1000,69828724,1551,1556,1602,1600
51001258,1000,1000,1000,1000,69928684,1557,1561,1597,1594
51003757,1000,1000,1000,1000,70028644,1565,1566,1593,1590
51006256,1000,1000,1000,1000,70128604,1574,1573,1584,1581
51008755,1000,1000,1000,1000,70228564,1584,1581,1574,1573
51011254,1000,1000,1000,1000,70328524,1592,1588,1564,1565
51013753,1000,1000,1000,1000,70428484,1597,1594,1558,1560
51016252,1000,1000,1000,1000,70528444,1600,1598,1556,1558
51018751,1000,1000,1000,1000,70628404,1599,1599,1556,1559
51021250,1000,1000,1000,1000,70728364,1597,1598,1561,1562
51023749,1000,1000,1000,1000,70828324,1593,1594,1567,1567
51026248,1000,1000,1000,1000,70928284,1589,1587,1579,1569
51028747,1000,1000,1000,1000,71028244,1584,1579,1585,1574
51031246,1000,1000,1000,1000,71128204,1577,1572,1583,1580
51033745,1000,1000,1000,1000,71228164,1570,1568,1578,1581
51036244,1000,1000,1000,1000,71328957,1565,1567,1574,1580
51038743,1000,1000,1000,1000,71428917,1561,1566,1570,1574
51041242,1000,1000,1000,1000,71528877,1563,1568,1568,1568
51043741,1000,1000,1000,1000,71628837,1565,1570,1563,1561
51046240,1000,1000,1000,1000,71728797,1570,1572,1561,1556
51048739,1000,1000,1000,1000,71828757,1574,1575,1557,1553
51051238,1000,1000,1000,1000,71928717,1577,1576,1552,1549
51053737,1000,1000,1000,1000,72028677,1579,1577,1547,1546
51056236,1000,1000,1000,1000,72128637,1581,1579,1545,1546
51058735,1000,1000,1000,1000,72228597,1580,1580,1543,1544
51061234,1000,1000,1000,1000,72328557,1580,1581,1542,1543
51063733,1000,1000,1000,1000,72428517,1580,1582,1542,1542
51066232,1000,1000,1000,1000,72528477,1579,1581,1541,1541
51068731,1000,1000,1000,1000,72628437,1580,1583,1542,1541
51071230,1000,1000,1000,1000,72728397,1582,1583,1541,1540
51073729,1000,1000,1000,1000,72828357,1583,1584,1540,1539
51076228,1000,1000,1000,1000,72928317,1585,1585,1539,1539
51078727,1000,1000,1000,1000,73028277,1586,1586,1538,1539
51081226,1000,1000,1000,1000,73128237,1588,1587,1539,1540
51083725,1000,1000,1000,1000,73228197,1588,1588,1539,1541
51086224,1000,1000,1000,1000,73328157,1588,1587,1542,1544
51088723,1000,1000,1000,1000,73428950,1585,1585,1545,1547
51091222,1000,1000,1000,1000,73528910,1581,1580,1549,1552
51093721,1000,1000,1000,1000,73628870,1576,1575,1555,1558
51096220,1000,1000,1000,1000,73728830,1571,1570,1561,1564
51098719,1000,1000,1000,1000,73828790,1566,1565,1567,1570
51101218,1000,1000,1000,1000,73928750,1561,1560,1571,1574
51103717,1000,1000,1000,1000,74028710,1557,1556,1576,1578
51106216,1000,1000,1000,1000,74128670,1553,1552,1580,1581
51108715,1000,1000,1000,1000,74228630,1551,1550,1585,1585
51111214,1000,1000,1000,1000,74328590,1548,1547,1589,1588
51113713,1000,1000,1000,1000,74428550,1546,1545,1591,1591
51116212,1000,1000,1000,1000,74528510,1546,1545,1594,1593
51118711,1000,1000,1000,1000,74628470,1545,1545,1594,1594
51121210,1000,1000,1000,1000,74728430,1546,1546,1594,1593
51123709,1000,1000,1000,1000,74828390,1547,1548,1592,1593
51126208,1000,1000,1000,1000,74928350,1550,1551,1592,1592
51128707,1000,1000,1000,1000,75028310,1554,1555,1590,1590
51131206,1000,1000,1000,1000,75128270,1557,1558,1586,1586
51133705,1000,1000,1000,1000,75228230,1562,1563,1585,1585
51136204,1000,1000,1000,1000,75328190,1566,1566,1582,1581
51138703,1000,1000,1000,1000,75428983,1570,1570,1581,1579
51141202,1000,1000,1000,1000,75528943,1574,1574,1579,1578
51143701,1000,1000,1000,1000,75628903,1578,1576,1578,1577
51146200,1000,1000,1000,1000,75728863,1580,1579,1576,1576
51148699,1000,1000,1000,1000,75828823,1581,1580,1575,1575
51151198,1000,1000,1000,1000,75928783,1582,1581,1574,1574
51153697,1000,1000,1000,1000,76028743,1583,1583,1574,1575
51156196,1000,1000,1000,1000,76128703,1583,1584,1574,1574
51158695,1000,1000,1000,1000,76228663,1583,1583,1574,1574
51161194,1000,1000,1000,1000,76328623,1584,1583,1576,1575
51163693,1000,1000,1000,1000,76428583,1583,1583,1575,1575
51166192,1000,1000,1000,1000,76528543,1582,1582,1575,1575
51168691,1000,1000,1000,1000,76628503,1582,1581,1576,1576
51171190,1000,1000,1000,1000,76728463,1582,1581,1576,1577
51173689,1000,1000,1000,1000,76828423,1581,1581,1577,1577
51176188,1000,1000,1000,1000,76928383,1580,1581,1578,1578
51178687,1000,1000,1000,1000,77028343,1580,1580,1578,1578
51181186,1000,1000,1000,1000,77128303,1579,1580,1579,1579
51183685,1000,1000,1000,1000,77228263,1578,1579,1578,1578
51186184,1000,1000,1000,1000,77328223,1578,1579,1579,1579
51188683,1000,1000,1000,1000,77428183,1579,1579,1581,1580
51191182,1000,1000,1000,1000,77528976,1580,1580,1581,1581
51193681,1000,1000,1000,1000,77628936,1579,1579,1580,1580
51196180,1000,1000,1000,1000,77728896,1579,1579,1581,1580
51198679,1000,1000,1000,1000,77828856,1579,1579,1579,1580
51201178,1000,1000,1000,1000,77928816,1578,1579,1579,1579
51203677,1000,1000,1000,1000,78028776,1579,1579,1580,1580
51206176,1000,1000,1000,1000,78128736,1579,1579,1580,1580
51208675,1000,1000,1000,1000,78228696,1580,1580,1580,1580
51211174,1000,1000,1000,1000,78328656,1808,1805,1519,1509
51213673,1000,1000,1000,1000,78428616,1746,1738,1506,1501
51216172,1000,1000,1000,1000,78528576,1680,1671,1521,1524
51218671,1000,1000,1000,1000,78628536,1611,1604,1549,1555
51221170,1000,1000,1000,1000,78728496,1553,1551,1576,1580
51223669,1000,1000,1000,1000,78828456,1518,1522,1591,1593
51226168,1000,1000,1000,1000,78928416,1504,1511,1600,1599
51228667,1000,1000,1000,1000,79028376,1491,1501,1612,1610
51231166,1000,1000,1000,1000,79128336,1475,1481,1631,1630
51233665,1000,1000,1000,1000,79228296,1468,1475,1643,1646
51236164,1000,1000,1000,1000,79328256,1483,1486,1634,1640
51238663,1000,1000,1000,1000,79428216,1502,1501,1622,1628
51241162,1000,1000,1000,1000,79528176,1520,1519,1613,1617
51243661,1000,1000,1000,1000,79628969,1543,1546,1599,1600
51246160,1000,1000,1000,1000,79728929,1572,1576,1578,1576
51248659,1000,1000,1000,1000,79828889,1595,1601,1564,1552
51251158,1000,1000,1000,1000,79928849,1608,1617,1556,1542
51253657,1000,1000,1000,1000,80028809,1612,1619,1547,1542
51256156,1000,1000,1000,1000,80128769,1612,1613,1542,1544
51258655,1000,1000,1000,1000,80228729,1610,1605,1541,1547
51261154,1000,1000,1000,1000,80328689,1608,1599,1545,1549
51263653,1000,1000,1000,1000,80428649,1603,1596,1551,1552
51266152,1000,1000,1000,1000,80528609,1597,1591,1555,1553
51268651,1000,1000,1000,1000,80628569,1591,1590,1560,1557
51271150,1000,1000,1000,1000,80728529,1586,1588,1563,1560
51273649,1000,1000,1000,1000,80828489,1581,1585,1565,1562
51276148,1000,1000,1000,1000,80928449,1578,1582,1564,1564
51278647,1000,1000,1000,1000,81028409,1576,1580,1563,1565
51281146,1000,1000,1000,1000,81128369,1576,1578,1562,1564
51283645,1000,1000,1000,1000,81228329,1576,1577,1561,1562
51286144,1000,1000,1000,1000,81328289,1577,1577,1559,1560
51288643,1000,1000,1000,1000,81428249,1578,1578,1558,1558
51291142,1000,1000,1000,1000,81528209,1579,1580,1556,1555
51293641,1000,1000,1000,1000,81628169,1581,1582,1553,1553
51296140,1000,1000,1000,1000,81728962,1584,1585,1553,1553
51298639,1000,1000,1000,1000,81828922,1587,1589,1551,1552
51301138,1000,1000,1000,1000,81928882,1590,1591,1548,1550
51303637,1000,1000,1000,1000,82028842,1592,1592,1546,1548
51306136,1000,1000,1000,1000,82128802,1595,1592,1547,1549
51308635,1000,1000,1000,1000,82228762,1595,1592,1549,1551
51311134,1000,1000,1000,1000,82328722,1594,1589,1554,1555
51313633,1000,1000,1000,1000,82428682,1590,1586,1560,1560
51316132,1000,1000,1000,1000,82528642,1585,1580,1567,1567
51318631,1000,1000,1000,1000,82628602,1578,1575,1575,1575
51321130,1000,1000,1000,1000,82728562,1571,1568,1582,1582
51323629,1000,1000,1000,1000,82828522,1564,1562,1588,1587
51326128,1000,1000,1000,1000,82928482,1559,1559,1594,1594
51328627,1000,1000,1000,1000,83028442,1556,1556,1599,1598
51331126,1000,1000,1000,1000,83128402,1554,1555,1602,1601
51333625,1000,1000,1000,1000,83228362,1552,1553,1602,1601
51336124,1000,1000,1000,1000,83328322,1553,1554,1603,1603
51338623,1000,1000,1000,1000,83428282,1554,1555,1602,1601
51341122,1000,1000,1000,1000,83528242,1555,1557,1600,1599
51343621,1000,1000,1000,1000,83628202,1558,1559,1598,1598
51346120,1000,1000,1000,1000,83728162,1560,1561,1595,1595
51348619,1000,1000,1000,1000,83828955,1562,1563,1592,1592
51351118,1000,1000,1000,1000,83928915,1565,1565,1589,1589
51353617,1000,1000,1000,1000,84028875,1567,1567,1586,1586
51356116,1000,1000,1000,1000,84128835,1570,1569,1584,1584
51358615,1000,1000,1000,1000,84228795,1572,1572,1583,1583
51361114,1000,1000,1000,1000,84328755,1574,1573,1581,1580
51363613,1000,1000,1000,1000,84428715,1576,1575,1580,1579
51366112,1000,1000,1000,1000,84528675,1577,1577,1579,1578
51368611,1000,1000,1000,1000,84628635,1578,1578,1578,1578
51371110,1000,1000,1000,1000,84728595,1579,1578,1576,1577
51373609,1000,1000,1000,1000,84828555,1580,1579,1576,1576
51376108,1000,1000,1000,1000,84928515,1580,1579,1575,1576
51378607,1000,1000,1000,1000,85028475,1580,1579,1575,1575
51381106,1000,1000,1000,1000,85128435,1579,1579,1575,1575
51383605,1000,1000,1000,1000,85228395,1579,1579,1575,1575
51386104,1000,1000,1000,1000,85328355,1580,1580,1576,1577
51388603,1000,1000,1000,1000,85428315,1580,1579,1577,1577
51391102,1000,1000,1000,1000,85528275,1578,1578,1576,1576
51393601,1000,1000,1000,1000,85628235,1578,1579,1577,1577
51396100,1000,1000,1000,1000,85728195,1579,1578,1578,1578
51398599,1000,1000,1000,1000,85828155,1579,1579,1579,1579
51401098,1000,1000,1000,1000,85928948,1577,1577,1578,1577
51403597,1000,1000,1000,1000,86028908,1577,1578,1578,1578
51406096,1000,1000,1000,1000,86128868,1577,1577,1578,1578
51408595,1000,1000,1000,1000,86228828,1577,1577,1578,1579
51411094,1000,1000,1000,1000,86328788,1577,1578,1578,1579
51413593,1000,1000,1000,1000,86428748,1577,1578,1579,1579
51416092,1000,1000,1000,1000,86528708,1577,1577,1579,1578
51418591,1000,1000,1000,1000,86628668,1578,1578,1579,1579
51421090,1000,1000,1000,1000,86728628,1579,1579,1579,1580
51423589,1000,1000,1000,1000,86828588,1580,1579,1580,1580
51426088,1000,1000,1000,1000,86928548,1580,1579,1580,1580
51428587,1000,1000,1000,1000,87028508,1580,1580,1580,1580
51431086,1000,1000,1000,1000,87128468,1580,1580,1580,1580
51433585,1000,1000,1000,1000,87228428,1580,1580,1580,1580
51436084,1000,1000,1000,1000,87328388,1581,1580,1580,1580
51438583,1000,1000,1000,1000,87428348,1580,1580,1580,1580
51441082,1000,1000,1000,1000,87528308,1580,1580,1579,1580
51443581,1000,1000,1000,1000,87628268,1581,1582,1583,1576
51446080,1000,1000,1000,1000,87728228,1580,1583,1586,1571
51448579,1000,1000,1000,1000,87828188,1578,1581,1581,1573
51451078,1000,1000,1000,1000,87928981,1575,1577,1574,1574
51453577,1000,1000,1000,1000,88028941,1573,1573,1568,1574
51456076,1000,1000,1000,1000,88128901,1571,1569,1565,1572
51458575,1000,1000,1000,1000,88228861,1570,1568,1565,1570
51461074,1000,1000,1000,1000,88328821,1568,1566,1565,1567
51463573,1000,1000,1000,1000,88428781,1567,1566,1567,1566
51466072,1000,1000,1000,1000,88528741,1565,1565,1566,1564
51468571,1000,1000,1000,1000,88628701,1564,1564,1566,1564
51471070,1000,1000,1000,1000,88728661,1563,1564,1565,1564
51473569,1000,1000,1000,1000,88828621,1563,1564,1566,1564
51476068,1000,1000,1000,1000,88928581,1563,1563,1564,1564
51478567,1000,1000,1000,1000,89028541,1561,1562,1563,1563
51481066,1000,1000,1000,1000,89128501,1561,1561,1561,1562
51483565,1000,1000,1000,1000,89228461,1561,1561,1562,1562
51486064,1000,1000,1000,1000,89328421,1560,1560,1561,1560
51488563,1000,1000,1000,1000,89428381,1560,1560,1560,1560
51491062,1000,1000,1000,1000,89528341,1558,1558,1558,1558
51493561,1000,1000,1000,1000,89628301,1558,1558,1558,1557
51496060,1000,1000,1000,1000,89728261,1557,1557,1558,1557
51498559,1000,1000,1000,1000,89828221,1556,1556,1557,1555
51501058,1000,1000,1000,1000,89928181,1557,1557,1558,1556
51503557,1000,1000,1000,1000,90028974,1558,1558,1559,1556
51506056,1000,1000,1000,1000,90128934,1557,1558,1558,1557
51508555,1000,1000,1000,1000,90228894,1557,1558,1558,1556
51511054,1000,1000,1000,1000,90328854,1555,1556,1557,1554
51513553,1000,1000,1000,1000,90428814,1554,1556,1556,1554
51516052,1000,1000,1000,1000,90528774,1557,1558,1554,1560
51518551,1000,1000,1000,1000,90628734,1557,1556,1552,1560
51521050,1000,1000,1000,1000,90728694,1554,1552,1549,1556
51523549,1000,1000,1000,1000,90828654,1550,1548,1547,1551
51526048,1000,1000,1000,1000,90928614,1542,1541,1541,1542
51528547,1000,1000,1000,1000,91028574,1535,1535,1536,1534
51531046,1000,1000,1000,1000,91128534,1527,1527,1528,1527
51533545,1000,1000,1000,1000,91228494,1523,1523,1524,1522
51536044,1000,1000,1000,1000,91328454,1521,1521,1521,1522
51538543,1000,1000,1000,1000,91428414,1521,1521,1521,1522
51541042,1000,1000,1000,1000,91528374,1523,1523,1522,1525
51543541,1000,1000,1000,1000,91628334,1527,1526,1526,1528
51546040,1000,1000,1000,1000,91728294,1530,1530,1530,1531
51548539,1000,1000,1000,1000,91828254,1534,1534,1534,1535
51551038,1000,1000,1000,1000,91928214,1538,1539,1539,1539
51553537,1000,1000,1000,1000,92028174,1541,1541,1541,1542
51556036,1000,1000,1000,1000,92128967,1543,1543,1543,1544
51558535,1000,1000,1000,1000,92228927,1544,1544,1544,1544
51561034,1000,1000,1000,1000,92328887,1546,1545,1546,1545
51563533,1000,1000,1000,1000,92428847,1545,1546,1546,1545
51566032,1000,1000,1000,1000,92528807,1545,1546,1546,1545
51568531,1000,1000,1000,1000,92628767,1546,1546,1547,1546
51571030,1000,1000,1000,1000,92728727,1546,1546,1546,1546
51573529,1000,1000,1000,1000,92828687,1547,1546,1547,1546
51576028,1000,1000,1000,1000,92928647,1545,1545,1545,1546
51578527,1000,1000,1000,1000,93028607,1545,1545,1546,1545
51581026,1000,1000,1000,1000,93128567,1545,1545,1545,1545
51583525,1000,1000,1000,1000,93228527,1544,1545,1545,1545
51586024,1000,1000,1000,1000,93328487,1545,1545,1546,1545
51588523,1000,1000,1000,1000,93428447,1544,1544,1544,1544
51591022,1000,1000,1000,1000,93528407,1544,1544,1544,1544
51593521,1000,1000,1000,1000,93628367,1545,1545,1545,1545
51596020,1000,1000,1000,1000,93728327,1544,1544,1544,1544
51598519,1000,1000,1000,1000,93828287,1545,1545,1545,1545
51601018,1000,1000,1000,1000,93928247,1544,1544,1544,1545
51603517,1000,1000,1000,1000,94028207,1545,1545,1545,1545
51606016,1000,1000,1000,1000,94128167,1544,1544,1544,1544
51608515,1000,1000,1000,1000,94228960,1545,1545,1545,1545
51611014,1000,1000,1000,1000,94328920,1544,1544,1545,1544
51613513,1000,1000,1000,1000,94428880,1544,1545,1545,1544
51616012,1000,1000,1000,1000,94528840,1544,1544,1544,1545
51618511,1000,1000,1000,1000,94628800,1544,1543,1543,1543
51621010,1000,1000,1000,1000,94728760,1544,1543,1544,1544
51623509,1000,1000,1000,1000,94828720,1544,1543,1544,1544
51626008,1000,1000,1000,1000,94928680,1544,1544,1543,1543
51628507,1000,1000,1000,1000,95028640,1544,1544,1544,1544
51631006,1000,1000,1000,1000,95128600,1544,1544,1544,1543
51633505,1000,1000,1000,1000,95228560,1543,1543,1543,1543
51636004,1000,1000,1000,1000,95328520,1543,1544,1544,1544
51638503,1000,1000,1000,1000,95428480,1544,1544,1544,1544
51641002,1000,1000,1000,1000,95528440,1544,1543,1544,1544
51643501,1000,1000,1000,1000,95628400,1544,1544,1544,1544
51646000,1000,1000,1000,1000,95728360,1544,1543,1543,1544
51648499,1000,1000,1000,1000,95828320,1543,1543,1544,1543
51650998,1000,1000,1000,1000,95928280,1543,1543,1543,1543
51653497,1000,1000,1000,1000,96028240,1543,1543,1543,1543
51655996,1000,1000,1000,1000,96128200,1544,1544,1545,1545
51658495,1000,1000,1000,1000,96228160,1544,1544,1545,1544
51660994,1000,1000,1000,1000,96328953,1544,1544,1544,1544
51663493,1000,1000,1000,1000,96428913,1544,1544,1544,1544
51665992,1000,1000,1000,1000,96528873,1544,1544,1544,1544
51668491,1000,1000,1000,1000,96628833,1545,1544,1545,1545
51670990,1000,1000,1000,1000,96728793,1544,1544,1544,1544
51673489,1000,1000,1000,1000,96828753,1545,1545,1545,1545
51675988,1000,1000,1000,1000,96928713,1544,1544,1544,1545
51678487,1000,1000,1000,1000,97028673,1544,1544,1544,1544
51680986,1000,1000,1000,1000,97128633,1544,1544,1544,1544
51683485,1000,1000,1000,1000,97228593,1544,1545,1545,1544
51685984,1000,1000,1000,1000,97328553,1543,1543,1543,1543
51688483,1000,1000,1000,1000,97428513,1543,1544,1544,1544
51690982,1000,1000,1000,1000,97528473,1543,1543,1543,1544
51693481,1000,1000,1000,1000,97628433,1544,1544,1544,1544
51695980,1000,1000,1000,1000,97728393,1544,1544,1544,1545
51698479,1000,1000,1000,1000,97828353,1543,1543,1543,1543
51700978,1000,1000,1000,1000,97928313,1544,1544,1543,1544
51703477,1000,1000,1000,1000,98028273,1544,1544,1544,1544
51705976,1000,1000,1000,1000,98128233,1545,1544,1544,1544
51708475,1000,1000,1000,1000,98228193,1544,1544,1544,1544
51710974,1000,1000,1000,1000,98328986,1545,1545,1544,1545
51713473,1000,1000,1000,1000,98428946,1545,1545,1545,1545
51715972,1000,1000,1000,1000,98528906,1544,1544,1544,1544
51718471,1000,1000,1000,1000,98628866,1544,1544,1544,1544
51720970,1000,1000,1000,1000,98728826,1545,1544,1545,1545
51723469,1000,1000,1000,1000,98828786,1544,1544,1544,1544
51725968,1000,1000,1000,1000,98928746,1544,1544,1544,1545
51728467,1000,1000,1000,1000,99028706,1544,1544,1544,1544
51730966,1000,1000,1000,1000,99128666,1544,1544,1544,1544
51733465,1000,1000,1000,1000,99228626,1544,1544,1544,1544
51735964,1000,1000,1000,1000,99328586,1544,1543,1543,1543
51738463,1000,1000,1000,1000,99428546,1544,1544,1544,1544
51740962,1000,1000,1000,1000,99528506,1544,1544,1544,1544
51743461,1000,1000,1000,1000,99628466,1545,1545,1545,1545
51745960,1000,1000,1000,1000,99728426,1545,1545,1545,1545
51748459,1000,1000,1000,1000,99828386,1545,1545,1545,1545
51750958,1000,1000,1000,1000,99928346,1545,1545,1545,1545
51753457,1000,1000,1000,1000,100028306,1544,1545,1544,1545
51755956,1000,1000,1000,1000,100128266,1545,1544,1544,1545
51758455,1000,1000,1000,1000,100228226,1545,1545,1545,1545
51760954,1000,1000,1000,1000,100328186,1545,1545,1545,1545
51763453,1000,1000,1000,1000,100428979,1545,1545,1545,1545
51765952,1000,1000,1000,1000,100528939,1545,1545,1545,1545
51768451,1000,1000,1000,1000,100628899,1544,1544,1545,1544
51770950,1000,1000,1000,1000,100728859,1544,1544,1544,1545
51773449,1000,1000,1000,1000,100828819,1544,1545,1545,1544
51775948,1000,1000,1000,1000,100928779,1474,1473,1474,1474
51778447,1000,1000,1000,1000,101028739,1308,1305,1307,1307
51780946,1000,1000,1000,1000,101128699,1234,1230,1234,1234
51783445,1000,1000,1000,1000,101228659,1209,1206,1210,1209
51785944,1000,1000,1000,1000,101328619,1178,1174,1180,1179
51788443,1000,1000,1000,1000,101428579,1153,1150,1156,1154
51790942,1000,1000,1000,1000,101528539,1154,1150,1157,1156
51793441,1000,1000,1000,1000,101628499,1178,1150,1153,1184
51795940,1000,1000,1000,1000,101728459,1178,1150,1155,1184
51798439,1000,1000,1000,1000,101828419,1173,1150,1158,1177
51800938,1000,1000,1000,1000,101928379,1174,1150,1158,1178
51803437,1000,1000,1000,1000,102028339,1175,1150,1159,1180
51805936,1000,1000,1000,1000,102128299,1177,1150,1160,1182
51808435,1000,1000,1000,1000,102228259,1179,1150,1160,1184
51810934,1000,1000,1000,1000,102328219,1181,1150,1161,1187
51813433,1000,1000,1000,1000,102428179,1164,1150,1161,1170
51815932,1000,1000,1000,1000,102528972,1168,1150,1161,1175
51818431,1000,1000,1000,1000,102628932,1169,1150,1162,1177
51820930,1000,1000,1000,1000,102728892,1170,1150,1162,1178
51823429,1000,1000,1000,1000,102828852,1170,1150,1163,1179
51825928,1000,1000,1000,1000,102928812,1000,1000,1000,1000
51828427,1000,1000,1000,1000,103028772,1000,1000,1000,1000
51830926,1000,1000,1000,1000,103128732,1000,1000,1000,1000
51833425,1000,1000,1000,1000,103228692,1000,1000,1000,1000
51835924,1000,1000,1000,1000,103328652,1000,1000,1000,1000
51838423,1000,1000,1000,1000,103428612,1000,1000,1000,1000
51840922,1000,1000,1000,1000,103528572,1000,1000,1000,1000
51843421,1000,1000,1000,1000,103628532,1000,1000,1000,1000
51845920,1000,1000,1000,1000,103728492,1000,1000,1000,1000
51848419,1000,1000,1000,1000,103828452,1000,1000,1000,1000
51850918,1000,1000,1000,1000,103928412,1000,1000,1000,1000
51853417,1000,1000,1000,1000,104028372,1000,1000,1000,1000
51855916,1000,1000,1000,1000,104128332,1000,1000,1000,1000
51858415,1000,1000,1000,1000,104228292,1000,1000,1000,1000
51860914,1000,1000,1000,1000,104328252,1000,1000,1000,1000
51863413,1000,1000,1000,1000,104428212,1000,1000,1000,1000
51865912,1000,1000,1000,1000,104528172,1000,1000,1000,1000
51868411,1000,1000,1000,1000,104628965,1000,1000,1000,1000
51870910,1000,1000,1000,1000,104728925,1000,1000,1000,1000
51873409,1000,1000,1000,1000,104828885,1000,1000,1000,1000
51875908,1000,1000,1000,1000,104928845,1000,1000,1000,1000
51878407,1000,1000,1000,1000,105028805,1000,1000,1000,1000
51880906,1000,1000,1000,1000,105128765,1000,1000,1000,1000
51883405,1000,1000,1000,1000,105228725,1000,1000,1000,1000
51885904,1000,1000,1000,1000,105328685,1000,1000,1000,1000
51888403,1000,1000,1000,1000,105428645,1000,1000,1000,1000
51890902,1000,1000,1000,1000,105528605,1000,1000,1000,1000
51893401,1000,1000,1000,1000,105628565,1000,1000,1000,1000
51895900,1000,1000,1000,1000,105728525,1000,1000,1000,1000
51898399,1000,1000,1000,1000,105828485,1000,1000,1000,1000
51900898,1000,1000,1000,1000,105928445,1000,1000,1000,1000
51903397,1000,1000,1000,1000,106028405,1000,1000,1000,1000
51905896,1000,1000,1000,1000,106128365,1000,1000,1000,1000
51908395,1000,1000,1000,1000,106228325,1000,1000,1000,1000
51910894,1000,1000,1000,1000,106328285,1000,1000,1000,1000
51913393,1000,1000,1000,1000,106428245,1000,1000,1000,1000
51915892,1000,1000,1000,1000,106528205,1000,1000,1000,1000
51918391,1000,1000,1000,1000,106628165,1000,1000,1000,1000
51920890,1000,1000,1000,1000,106728958,1000,1000,1000,1000
51923389,1000,1000,1000,1000,106828918,1000,1000,1000,1000
51925888,1000,1000,1000,1000,106928878,1000,1000,1000,1000
51928387,1000,1000,1000,1000,107028838,1000,1000,1000,1000
51930886,1000,1000,1000,1000,107128798,1000,1000,1000,1000
51933385,1000,1000,1000,1000,107228758,1000,1000,1000,1000
51935884,1000,1000,1000,1000,107328718,1000,1000,1000,1000
51938383,1000,1000,1000,1000,107428678,1000,1000,1000,1000
51940882,1000,1000,1000,1000,107528638,1000,1000,1000,1000
51943381,1000,1000,1000,1000,107628598,1000,1000,1000,1000
51945880,1000,1000,1000,1000,107728558,1000,1000,1000,1000
51948379,1000,1000,1000,1000,107828518,1000,1000,1000,1000
51950878,1000,1000,1000,1000,107928478,1000,1000,1000,1000
51953377,1000,1000,1000,1000,108028438,1000,1000,1000,1000
51955876,1000,1000,1000,1000,108128398,1000,1000,1000,1000
51958375,1000,1000,1000,1000,108228358,1000,1000,1000,1000
51960874,1000,1000,1000,1000,108328318,1000,1000,1000,1000
51963373,1000,1000,1000,1000,108428278,1000,1000,1000,1000
51965872,1000,1000,1000,1000,108528238,1000,1000,1000,1000
51968371,1000,1000,1000,1000,108628198,1000,1000,1000,1000
51970870,1000,1000,1000,1000,108728158,1000,1000,1000,1000
51973369,1000,1000,1000,1000,108828951,1000,1000,1000,1000
51975868,1000,1000,1000,1000,108928911,1000,1000,1000,1000
51978367,1000,1000,1000,1000,109028871,1000,1000,1000,1000
51980866,1000,1000,1000,1000,109128831,1000,1000,1000,1000
51983365,1000,1000,1000,1000,109228791,1000,1000,1000,1000
51985864,1000,1000,1000,1000,109328751,1000,1000,1000,1000
51988363,1000,1000,1000,1000,109428711,1000,1000,1000,1000
51990862,1000,1000,1000,1000,109528671,1000,1000,1000,1000
51993361,1000,1000,1000,1000,109628631,1000,1000,1000,1000
51995860,1000,1000,1000,1000,109728591,1000,1000,1000,1000
51998359,1000,1000,1000,1000,109828551,1000,1000,1000,1000
52000858,1000,1000,1000,1000,109928511,1000,1000,1000,1000
52003357,1000,1000,1000,1000,110028471,1000,1000,1000,1000
52005856,1000,1000,1000,1000,110128431,1000,1000,1000,1000
52008355,1000,1000,1000,1000,110228391,1000,1000,1000,1000
52010854,1000,1000,1000,1000,110328351,1000,1000,1000,1000
52013353,1000,1000,1000,1000,110428311,1000,1000,1000,1000
52015852,1000,1000,1000,1000,110528271,1000,1000,1000,1000
52018351,1000,1000,1000,1000,110628231,1000,1000,1000,1000
52020850,1000,1000,1000,1000,110728191,1000,1000,1000,1000
52023349,1000,1000,1000,1000,110828984,1000,1000,1000,1000
52025848,1000,1000,1000,1000,110928944,1000,1000,1000,1000
52028347,1000,1000,1000,1000,111028904,1000,1000,1000,1000
52030846,1000,1000,1000,1000,111128864,1000,1000,1000,1000
52033345,1000,1000,1000,1000,111228824,1000,1000,1000,1000
52035844,1000,1000,1000,1000,111328784,1000,1000,1000,1000
52038343,1000,1000,1000,1000,111428744,1000,1000,1000,1000
52040842,1000,1000,1000,1000,111528704,1000,1000,1000,1000
52043341,1000,1000,1000,1000,111628664,1000,1000,1000,1000
52045840,1000,1000,1000,1000,111728624,1000,1000,1000,1000
52048339,1000,1000,1000,1000,111828584,1000,1000,1000,1000
52050838,1000,1000,1000,1000,111928544,1000,1000,1000,1000
52053337,1000,1000,1000,1000,112028504,1000,1000,1000,1000
52055836,1000,1000,1000,1000,112128464,1000,1000,1000,1000
52058335,1000,1000,1000,1000,112228424,1000,1000,1000,1000
52060834,1000,1000,1000,1000,112328384,1000,1000,1000,1000
52063333,1000,1000,1000,1000,112428344,1000,1000,1000,1000
52065832,1000,1000,1000,1000,112528304,1000,1000,1000,1000
52068331,1000,1000,1000,1000,112628264,1000,1000,1000,1000
52070830,1000,1000,1000,1000,112728224,1000,1000,1000,1000
52073329,1000,1000,1000,1000,112828184,1000,1000,1000,1000
52075828,1000,1000,1000,1000,112928977,1000,1000,1000,1000
52078327,1000,1000,1000,1000,,,,,
52080826,1000,1000,1000,1000,,,,,
52083325,1000,1000,1000,1000,,,,,
52085824,1000,1000,1000,1000,,,,,
52088323,1000,1000,1000,1000,,,,,
52090822,1000,1000,1000,1000,,,,,
52093321,1000,1000,1000,1000,,,,,
52095820,1000,1000,1000,1000,,,,,
52098319,1000,1000,1000,1000,,,,,
52100818,1000,1000,1000,1000,,,,,
52103317,1000,1000,1000,1000,,,,,
52105816,1000,1000,1000,1000,,,,,
52108315,1000,1000,1000,1000,,,,,
52110814,1000,1000,1000,1000,,,,,
52113313,1000,1000,1000,1000,,,,,
52115812,1000,1000,1000,1000,,,,,
52118311,1000,1000,1000,1000,,,,,
52120810,1000,1000,1000,1000,,,,,
52123309,1000,1000,1000,1000,,,,,
52125808,1000,1000,1000,1000,,,,,
52128307,1000,1000,1000,1000,,,,,
52130806,1000,1000,1000,1000,,,,,
52133305,1000,1000,1000,1000,,,,,
52135804,1000,1000,1000,1000,,,,,
52138303,1000,1000,1000,1000,,,,,
52140802,1000,1000,1000,1000,,,,,
52143301,1000,1000,1000,1000,,,,,
52145800,1000,1000,1000,1000,,,,,
52148299,1000,1000,1000,1000,,,,,
52150798,1000,1000,1000,1000,,,,,
52153297,1000,1000,1000,1000,,,,,
52155796,1000,1000,1000,1000,,,,,
52158295,1000,1000,1000,1000,,,,,
52160794,1000,1000,1000,1000,,,,,
52163293,1000,1000,1000,1000,,,,,
52165792,1000,1000,1000,1000,,,,,
52168291,1000,1000,1000,1000,,,,,
52170790,1000,1000,1000,1000,,,,,
52173289,1000,1000,1000,1000,,,,,
52175788,1000,1000,1000,1000,,,,,
52178287,1000,1000,1000,1000,,,,,
52180786,1000,1000,1000,1000,,,,,
52183285,1000,1000,1000,1000,,,,,
52185784,1000,1000,1000,1000,,,,,
52188283,1000,1000,1000,1000,,,,,
52190782,1000,1000,1000,1000,,,,,
52193281,1000,1000,1000,1000,,,,,
52195780,1000,1000,1000,1000,,,,,
52198279,1000,1000,1000,1000,,,,,
52200778,1000,1000,1000,1000,,,,,
52203277,1000,1000,1000,1000,,,,,
52205776,1000,1000,1000,1000,,,,,
52208275,1000,1000,1000,1000,,,,,
52210774,1000,1000,1000,1000,,,,,
52213273,1000,1000,1000,1000,,,,,
52215772,1000,1000,1000,1000,,,,,
52218271,1000,1000,1000,1000,,,,,
52220770,1000,1000,1000,1000,,,,,
52223269,1000,1000,1000,1000,,,,,
52225768,1000,1000,1000,1000,,,,,
52228267,1000,1000,1000,1000,,,,,
52230766,1000,1000,1000,1000,,,,,
52233265,1000,1000,1000,1000,,,,,
52235764,1000,1000,1000,1000,,,,,
52238263,1000,1000,1000,1000,,,,,
52240762,1000,1000,1000,1000,,,,,
52243261,1000,1000,1000,1000,,,,,
52245760,1000,1000,1000,1000,,,,,
52248259,1000,1000,1000,1000,,,,,
52250758,1000,1000,1000,1000,,,,,
52253257,1000,1000,1000,1000,,,,,
52255756,1000,1000,1000,1000,,,,,
52258255,1000,1000,1000,1000,,,,,
52260754,1000,1000,1000,1000,,,,,
52263253,1000,1000,1000,1000,,,,,
52265752,1000,1000,1000,1000,,,,,
52268251,1000,1000,1000,1000,,,,,
52270750,1000,1000,1000,1000,,,,,
52273249,1000,1000,1000,1000,,,,,
52275748,1000,1000,1000,1000,,,,,
52278247,1000,1000,1000,1000,,,,,
52280746,1000,1000,1000,1000,,,,,
52283245,1000,1000,1000,1000,,,,,
52285744,1000,1000,1000,1000,,,,,
52288243,1000,1000,1000,1000,,,,,
52290742,1000,1000,1000,1000,,,,,
52293241,1000,1000,1000,1000,,,,,
52295740,1000,1000,1000,1000,,,,,
52298239,1000,1000,1000,1000,,,,,
52300738,1000,1000,1000,1000,,,,,
52303237,1000,1000,1000,1000,,,,,
52305736,1000,1000,1000,1000,,,,,
52308235,1000,1000,1000,1000,,,,,
52310734,1000,1000,1000,1000,,,,,
52313233,1000,1000,1000,1000,,,,,
52315732,1000,1000,1000,1000,,,,,
52318231,1000,1000,1000,1000,,,,,
52320730,1000,1000,1000,1000,,,,,
52323229,1000,1000,1000,1000,,,,,
52325728,1000,1000,1000,1000,,,,,
52328227,1000,1000,1000,1000,,,,,
52330726,1000,1000,1000,1000,,,,,
52333225,1000,1000,1000,1000,,,,,
52335724,1000,1000,1000,1000,,,,,
52338223,1000,1000,1000,1000,,,,,
52340722,1000,1000,1000,1000,,,,,
52343221,1000,1000,1000,1000,,,,,
52345720,1000,1000,1000,1000,,,,,
52348219,1000,1000,1000,1000,,,,,
52350718,1000,1000,1000,1000,,,,,
52353217,1000,1000,1000,1000,,,,,
52355716,1000,1000,1000,1000,,,,,
52358215,1000,1000,1000,1000,,,,,
52360714,1000,1000,1000,1000,,,,,
52363213,1000,1000,1000,1000,,,,,
52365712,1000,1000,1000,1000,,,,,
52368211,1000,1000,1000,1000,,,,,
52370710,1000,1000,1000,1000,,,,,
52373209,1000,1000,1000,1000,,,,,
52375708,1000,1000,1000,1000,,,,,
52378207,1000,1000,1000,1000,,,,,
52380706,1000,1000,1000,1000,,,,,
52383205,1000,1000,1000,1000,,,,,
52385704,1000,1000,1000,1000,,,,,
52388203,1000,1000,1000,1000,,,,,
52390702,1000,1000,1000,1000,,,,,
52393201,1000,1000,1000,1000,,,,,
52395700,1000,1000,1000,1000,,,,,
52398199,1000,1000,1000,1000,,,,,
52400698,1000,1000,1000,1000,,,,,
52403197,1000,1000,1000,1000,,,,,
52405696,1000,1000,1000,1000,,,,,
52408195,1000,1000,1000,1000,,,,,
52410694,1000,1000,1000,1000,,,,,
52413193,1000,1000,1000,1000,,,,,
52415692,1000,1000,1000,1000,,,,,
52418191,1000,1000,1000,1000,,,,,
52420690,1000,1000,1000,1000,,,,,
52423189,1000,1000,1000,1000,,,,,
52425688,1000,1000,1000,1000,,,,,
52428187,1000,1000,1000,1000,,,,,
52430686,1000,1000,1000,1000,,,,,
52433185,1000,1000,1000,1000,,,,,
52435684,1000,1000,1000,1000,,,,,
52438183,1000,1000,1000,1000,,,,,
52440682,1000,1000,1000,1000,,,,,
52443181,1000,1000,1000,1000,,,,,
52445680,1000,1000,1000,1000,,,,,
52448179,1000,1000,1000,1000,,,,,
52450678,1000,1000,1000,1000,,,,,
52453177,1000,1000,1000,1000,,,,,
52455676,1000,1000,1000,1000,,,,,
52458175,1000,1000,1000,1000,,,,,
52460674,1000,1000,1000,1000,,,,,
52463173,1000,1000,1000,1000,,,,,
52465672,1000,1000,1000,1000,,,,,
52468171,1000,1000,1000,1000,,,,,
52470670,1000,1000,1000,1000,,,,,
52473169,1000,1000,1000,1000,,,,,
52475668,1000,1000,1000,1000,,,,,
52478167,1000,1000,1000,1000,,,,,
52480666,1000,1000,1000,1000,,,,,
52483165,1000,1000,1000,1000,,,,,
52485664,1000,1000,1000,1000,,,,,
52488163,1000,1000,1000,1000,,,,,
52490662,1000,1000,1000,1000,,,,,
52493161,1000,1000,1000,1000,,,,,
52495660,1000,1000,1000,1000,,,,,
52498159,1000,1000,1000,1000,,,,,
52500658,1000,1000,1000,1000,,,,,
52503157,1000,1000,1000,1000,,,,,
52505656,1000,1000,1000,1000,,,,,
52508155,1000,1000,1000,1000,,,,,
52510654,1000,1000,1000,1000,,,,,
52513986,1000,1000,1000,1000,,,,,
52516485,1000,1000,1000,1000,,,,,
52518984,1000,1000,1000,1000,,,,,
52521483,1000,1000,1000,1000,,,,,
52523982,1001,1001,1001,1001,,,,,
52526481,1002,1002,1002,1002,,,,,
52528980,1003,1003,1003,1003,,,,,
52531479,1003,1003,1003,1003,,,,,
52533978,1004,1004,1004,1004,,,,,
52536477,1005,1005,1005,1005,,,,,
52538976,1006,1006,1006,1006,,,,,
52541475,1006,1006,1006,1006,,,,,
52543974,1007,1007,1007,1007,,,,,
52546473,1008,1008,1008,1008,,,,,
52548972,1009,1009,1009,1009,,,,,
52551471,1009,1009,1009,1009,,,,,
52553970,1010,1010,1010,1010,,,,,
52556469,1011,1011,1011,1011,,,,,
52558968,1012,1012,1012,1012,,,,,
52561467,1012,1012,1012,1012,,,,,
52563966,1013,1013,1013,1013,,,,,
52566465,1014,1014,1014,1014,,,,,
52568964,1015,1015,1015,1015,,,,,
52571463,1015,1015,1015,1015,,,,,
52573962,1016,1016,1016,1016,,,,,
52576461,1017,1017,1017,1017,,,,,
52578960,1018,1018,1018,1018,,,,,
52581459,1018,1018,1018,1018,,,,,
52583958,1019,1019,1019,1019,,,,,
52586457,1020,1020,1020,1020,,,,,
52588956,1021,1021,1021,1021,,,,,
52591455,1021,1021,1021,1021,,,,,
52593954,1022,1022,1022,1022,,,,,
52596453,1023,1023,1023,1023,,,,,
52598952,1024,1024,1024,1024,,,,,
52601451,1024,1024,1024,1024,,,,,
52603950,1025,1025,1025,1025,,,,,
52606449,1026,1026,1026,1026,,,,,
52608948,1027,1027,1027,1027,,,,,
52611447,1027,1027,1027,1027,,,,,
52613946,1028,1028,1028,1028,,,,,
52616445,1029,1029,1029,1029,,,,,
52618944,1030,1030,1030,1030,,,,,
52621443,1030,1030,1030,1030,,,,,
52623942,1031,1031,1031,1031,,,,,
52626441,1032,1032,1032,1032,,,,,
52628940,1033,1033,1033,1033,,,,,
52631439,1033,1033,1033,1033,,,,,
52633938,1034,1034,1034,1034,,,,,
52636437,1035,1035,1035,1035,,,,,
52638936,1036,1036,1036,1036,,,,,
52641435,1036,1036,1036,1036,,,,,
52643934,1037,1037,1037,1037,,,,,
52646433,1038,1038,1038,1038,,,,,
52648932,1039,1039,1039,1039,,,,,
52651431,1039,1039,1039,1039,,,,,
52653930,1040,1040,1040,1040,,,,,
52656429,1041,1041,1041,1041,,,,,
52658928,1042,1042,1042,1042,,,,,
52661427,1042,1042,1042,1042,,,,,
52663926,1043,1043,1043,1043,,,,,
52666425,1044,1044,1044,1044,,,,,
52668924,1045,1045,1045,1045,,,,,
52671423,1045,1045,1045,1045,,,,,
52673922,1046,1046,1046,1046,,,,,
52676421,1047,1047,1047,1047,,,,,
52678920,1048,1048,1048,1048,,,,,
52681419,1048,1048,1048,1048,,,,,
52683918,1049,1049,1049,1049,,,,,
52686417,1050,1050,1050,1050,,,,,
52688916,1051,1051,1051,1051,,,,,
52691415,1051,1051,1051,1051,,,,,
52693914,1052,1052,1052,1052,,,,,
52696413,1053,1053,1053,1053,,,,,
52698912,1054,1054,1054,1054,,,,,
52701411,1054,1054,1054,1054,,,,,
52703910,1055,1055,1055,1055,,,,,
52706409,1056,1056,1056,1056,,,,,
52708908,1057,1057,1057,1057,,,,,
52711407,1057,1057,1057,1057,,,,,
52713906,1058,1058,1058,1058,,,,,
52716405,1059,1059,1059,1059,,,,,
52718904,1060,1060,1060,1060,,,,,
52721403,1060,1060,1060,1060,,,,,
52723902,1061,1061,1061,1061,,,,,
52726401,1062,1062,1062,1062,,,,,
52728900,1063,1063,1063,1063,,,,,
52731399,1063,1063,1063,1063,,,,,
52733898,1064,1064,1064,1064,,,,,
52736397,1065,1065,1065,1065,,,,,
52738896,1066,1066,1066,1066,,,,,
52741395,1066,1066,1066,1066,,,,,
52743894,1067,1067,1067,1067,,,,,
52746393,1068,1068,1068,1068,,,,,
52748892,1069,1069,1069,1069,,,,,
52751391,1069,1069,1069,1069,,,,,
52753890,1070,1070,1070,1070,,,,,
52756389,1071,1071,1071,1071,,,,,
52758888,1072,1072,1072,1072,,,,,
52761387,1072,1072,1072,1072,,,,,
52763886,1073,1073,1073,1073,,,,,
52766385,1074,1074,1074,1074,,,,,
52768884,1075,1075,1075,1075,,,,,
52771383,1075,1075,1075,1075,,,,,
52773882,1076,1076,1076,1076,,,,,
52776381,1077,1077,1077,1077,,,,,
52778880,1078,1078,1078,1078,,,,,
52781379,1078,1078,1078,1078,,,,,
52783878,1079,1079,1079,1079,,,,,
52786377,1080,1080,1080,1080,,,,,
52788876,1081,1081,1081,1081,,,,,
52791375,1081,1081,1081,1081,,,,,
52793874,1082,1082,1082,1082,,,,,
52796373,1083,1083,1083,1083,,,,,
52798872,1084,1084,1084,1084,,,,,
52801371,1084,1084,1084,1084,,,,,
52803870,1085,1085,1085,1085,,,,,
52806369,1086,1086,1086,1086,,,,,
52808868,1087,1087,1087,1087,,,,,
52811367,1087,1087,1087,1087,,,,,
52813866,1088,1088,1088,1088,,,,,
52816365,1089,1089,1089,1089,,,,,
52818864,1090,1090,1090,1090,,,,,
52821363,1090,1090,1090,1090,,,,,
52823862,1091,1091,1091,1091,,,,,
52826361,1092,1092,1092,1092,,,,,
52828860,1093,1093,1093,1093,,,,,
52831359,1093,1093,1093,1093,,,,,
52833858,1094,1094,1094,1094,,,,,
52836357,1095,1095,1095,1095,,,,,
52838856,1096,1096,1096,1096,,,,,
52841355,1096,1096,1096,1096,,,,,
52843854,1097,1097,1097,1097,,,,,
52846353,1098,1098,1098,1098,,,,,
52848852,1099,1099,1099,1099,,,,,
52851351,1099,1099,1099,1099,,,,,
52853850,1100,1100,1100,1100,,,,,
52856349,1101,1101,1101,1101,,,,,
52858848,1101,1101,1101,1101,,,,,
52861347,1102,1102,1102,1102,,,,,
52863846,1103,1103,1103,1103,,,,,
52866345,1104,1104,1104,1104,,,,,
52868844,1104,1104,1104,1104,,,,,
52871343,1105,1105,1105,1105,,,,,
52873842,1106,1106,1106,1106,,,,,
52876341,1107,1107,1107,1107,,,,,
52878840,1107,1107,1107,1107,,,,,
52881339,1108,1108,1108,1108,,,,,
52883838,1109,1109,1109,1109,,,,,
52886337,1110,1110,1110,1110,,,,,
52888836,1110,1110,1110,1110,,,,,
52891335,1111,1111,1111,1111,,,,,
52893834,1112,1112,1112,1112,,,,,
52896333,1113,1113,1113,1113,,,,,
52898832,1113,1113,1113,1113,,,,,
52901331,1114,1114,1114,1114,,,,,
52903830,1115,1115,1115,1115,,,,,
52906329,1116,1116,1116,1116,,,,,
52908828,1116,1116,1116,1116,,,,,
52911327,1117,1117,1117,1117,,,,,
52913826,1118,1118,1118,1118,,,,,
52916325,1119,1119,1119,1119,,,,,
52918824,1119,1119,1119,1119,,,,,
52921323,1120,1120,1120,1120,,,,,
52923822,1121,1121,1121,1121,,,,,
52926321,1122,1122,1122,1122,,,,,
52928820,1122,1122,1122,1122,,,,,
52931319,1123,1123,1123,1123,,,,,
52933818,1124,1124,1124,1124,,,,,
52936317,1125,1125,1125,1125,,,,,
52938816,1125,1125,1125,1125,,,,,
52941315,1126,1126,1126,1126,,,,,
52943814,1127,1127,1127,1127,,,,,
52946313,1128,1128,1128,1128,,,,,
52948812,1128,1128,1128,1128,,,,,
52951311,1129,1129,1129,1129,,,,,
52953810,1130,1130,1130,1130,,,,,
52956309,1131,1131,1131,1131,,,,,
52958808,1131,1131,1131,1131,,,,,
52961307,1132,1132,1132,1132,,,,,
52963806,1133,1133,1133,1133,,,,,
52966305,1134,1134,1134,1134,,,,,
52968804,1134,1134,1134,1134,,,,,
52971303,1135,1135,1135,1135,,,,,
52973802,1136,1136,1136,1136,,,,,
52976301,1137,1137,1137,1137,,,,,
52978800,1137,1137,1137,1137,,,,,
52981299,1138,1138,1138,1138,,,,,
52983798,1139,1139,1139,1139,,,,,
52986297,1140,1140,1140,1140,,,,,
52988796,1140,1140,1140,1140,,,,,
52991295,1141,1141,1141,1141,,,,,
52993794,1142,1142,1142,1142,,,,,
52996293,1143,1143,1143,1143,,,,,
52998792,1143,1143,1143,1143,,,,,
53001291,1144,1144,1144,1144,,,,,
53003790,1145,1145,1145,1145,,,,,
53006289,1146,1146,1146,1146,,,,,
53008788,1146,1146,1146,1146,,,,,
53011287,1147,1147,1147,1147,,,,,
53013786,1148,1148,1148,1148,,,,,
53016285,1149,1149,1149,1149,,,,,
53018784,1149,1149,1149,1149,,,,,
53021283,1150,1150,1150,1150,,,,,
53023782,1162,1153,1154,1162,,,,,
53026281,1170,1161,1162,1170,,,,,
53028780,1177,1169,1170,1178,,,,,
53031279,1185,1177,1178,1185,,,,,
53033778,1193,1185,1186,1193,,,,,
53036277,1200,1192,1193,1200,,,,,
53038776,1207,1200,1201,1208,,,,,
53041275,1215,1207,1208,1215,,,,,
53043774,1222,1214,1215,1222,,,,,
53046273,1229,1221,1222,1229,,,,,
53048772,1236,1228,1229,1236,,,,,
53051271,1242,1235,1236,1243,,,,,
53053770,1249,1242,1243,1249,,,,,
53056269,1256,1249,1249,1256,,,,,
53058768,1262,1255,1256,1262,,,,,
53061267,1269,1262,1262,1269,,,,,
53063766,1275,1268,1269,1275,,,,,
53066265,1281,1275,1275,1282,,,,,
53068764,1288,1281,1281,1288,,,,,
53071263,1294,1287,1288,1294,,,,,
53073762,1300,1293,1294,1300,,,,,
53076261,1306,1299,1300,1306,,,,,
53078760,1312,1305,1306,1312,,,,,
53081259,1318,1311,1312,1318,,,,,
53083758,1323,1317,1318,1324,,,,,
53086257,1329,1323,1323,1329,,,,,
53088756,1335,1329,1329,1335,,,,,
53091255,1341,1334,1335,1341,,,,,
53093754,1346,1340,1340,1346,,,,,
53096253,1352,1345,1346,1352,,,,,
53098752,1357,1351,1351,1357,,,,,
53101251,1363,1356,1357,1363,,,,,
53103750,1368,1362,1362,1368,,,,,
53106249,1373,1367,1368,1374,,,,,
53108748,1379,1373,1373,1379,,,,,
53111247,1384,1378,1378,1384,,,,,
53113746,1389,1383,1384,1389,,,,,
53116245,1394,1388,1389,1395,,,,,
53118744,1400,1394,1394,1400,,,,,
53121243,1405,1399,1399,1405,,,,,
53123742,1410,1404,1404,1410,,,,,
53126241,1415,1409,1409,1415,,,,,
53128740,1420,1414,1414,1420,,,,,
53131239,1425,1419,1419,1425,,,,,
53133738,1430,1424,1424,1430,,,,,
53136237,1434,1429,1429,1435,,,,,
53138736,1439,1433,1434,1439,,,,,
53141235,1444,1438,1439,1444,,,,,
53143734,1449,1443,1443,1449,,,,,
53146233,1454,1448,1448,1454,,,,,
53148732,1458,1453,1453,1459,,,,,
53151231,1463,1457,1458,1463,,,,,
53153730,1468,1462,1462,1468,,,,,
53156229,1472,1467,1467,1472,,,,,
53158728,1477,1471,1472,1477,,,,,
53161227,1481,1476,1476,1482,,,,,
53163726,1486,1480,1481,1486,,,,,
53166225,1490,1485,1485,1491,,,,,
53168724,1495,1489,1490,1495,,,,,
53171223,1499,1494,1494,1500,,,,,
53173722,1504,1498,1499,1504,,,,,
53176221,1508,1503,1503,1508,,,,,
53178720,1512,1507,1507,1513,,,,,
53181219,1517,1511,1512,1517,,,,,
53183718,1521,1516,1516,1521,,,,,
53186217,1525,1520,1520,1526,,,,,
53188716,1530,1524,1525,1530,,,,,
53191215,1534,1529,1529,1534,,,,,
53193714,1538,1533,1533,1538,,,,,
53196213,1542,1537,1537,1543,,,,,
53198712,1546,1541,1542,1547,,,,,
53201211,1551,1546,1546,1551,,,,,
53203710,1555,1550,1550,1555,,,,,
53206209,1559,1554,1554,1559,,,,,
53208708,1563,1558,1558,1563,,,,,
53211207,1567,1562,1562,1567,,,,,
53213706,1571,1566,1566,1571,,,,,
53216205,1575,1570,1570,1575,,,,,
53218704,1579,1574,1574,1579,,,,,
53221203,1583,1578,1578,1583,,,,,
53223702,1587,1582,1582,1587,,,,,
53226201,1591,1586,1586,1591,,,,,
53228700,1595,1590,1590,1595,,,,,
53231199,1599,1594,1594,1599,,,,,
53233698,1603,1598,1598,1603,,,,,
53236197,1607,1602,1602,1607,,,,,
53238696,1611,1606,1606,1611,,,,,
53241195,1614,1610,1610,1615,,,,,
53243694,1618,1614,1614,1619,,,,,
53246193,1622,1617,1618,1622,,,,,
53248692,1626,1621,1621,1626,,,,,
53251191,1630,1625,1625,1630,,,,,
53253690,1633,1629,1629,1634,,,,,
53256189,1637,1632,1633,1638,,,,,
53258688,1641,1636,1636,1641,,,,,
53261187,1645,1640,1640,1645,,,,,
53263686,1648,1644,1644,1649,,,,,
53266185,1652,1647,1648,1652,,,,,
53268684,1656,1651,1651,1656,,,,,
53271183,1659,1655,1655,1660,,,,,
53273682,1663,1658,1658,1663,,,,,
53276181,1667,1662,1662,1667,,,,,
53278680,1670,1666,1666,1671,,,,,
53281179,1674,1669,1669,1674,,,,,
53283678,1677,1673,1673,1678,,,,,
53286177,1681,1676,1677,1681,,,,,
53288676,1685,1680,1680,1685,,,,,
53291175,1688,1684,1684,1689,,,,,
53293674,1692,1687,1687,1692,,,,,
53296173,1695,1691,1691,1696,,,,,
53298672,1699,1694,1694,1699,,,,,
53301171,1702,1698,1698,1703,,,,,
53303670,1706,1701,1701,1706,,,,,
53306169,1709,1705,1705,1710,,,,,
53308668,1713,1708,1708,1713,,,,,
53311167,1716,1712,1712,1716,,,,,
53313666,1719,1715,1715,1720,,,,,
53316165,1723,1718,1718,1723,,,,,
53318664,1726,1722,1722,1727,,,,,
53321163,1730,1725,1725,1730,,,,,
53323662,1733,1729,1729,1733,,,,,
53326161,1737,1732,1732,1737,,,,,
53328660,1740,1735,1735,1740,,,,,
53331159,1743,1739,1739,1744,,,,,
53333658,1747,1742,1742,1747,,,,,
53336157,1750,1745,1746,1750,,,,,
53338656,1753,1749,1749,1754,,,,,
53341155,1757,1752,1752,1757,,,,,
53343654,1760,1755,1755,1760,,,,,
53346153,1763,1758,1759,1763,,,,,
53348652,1766,1762,1762,1767,,,,,
53351151,1770,1765,1765,1770,,,,,
53353650,1773,1768,1769,1773,,,,,
53356149,1776,1771,1772,1776,,,,,
53358648,1780,1775,1775,1780,,,,,
53361147,1783,1778,1778,1783,,,,,
53363646,1786,1781,1782,1786,,,,,
53366145,1789,1784,1785,1789,,,,,
53368644,1792,1787,1788,1792,,,,,
53371143,1796,1791,1791,1795,,,,,
53373642,1799,1794,1794,1799,,,,,
53376141,1802,1797,1798,1802,,,,,
53378640,1805,1800,1801,1805,,,,,
53381139,1808,1803,1804,1808,,,,,
53383638,1811,1806,1807,1811,,,,,
53386137,1815,1810,1810,1814,,,,,
53388636,1818,1813,1813,1817,,,,,
53391135,1821,1816,1816,1821,,,,,
53393634,1824,1819,1820,1824,,,,,
53396133,1827,1822,1823,1827,,,,,
53398632,1830,1825,1826,1830,,,,,
53401131,1833,1828,1829,1833,,,,,
53403630,1836,1831,1832,1836,,,,,
53406129,1839,1834,1835,1839,,,,,
53408628,1842,1837,1838,1842,,,,,
53411127,1845,1840,1841,1845,,,,,
53413626,1848,1843,1844,1848,,,,,
53416125,1851,1846,1847,1851,,,,,
53418624,1854,1850,1850,1854,,,,,
53421123,1857,1853,1853,1857,,,,,
53423622,1860,1856,1856,1860,,,,,
53426121,1863,1859,1859,1863,,,,,
53428620,1866,1862,1862,1866,,,,,
53431119,1869,1865,1865,1869,,,,,
53433618,1872,1868,1868,1872,,,,,
53436117,1875,1870,1871,1875,,,,,
53438616,1878,1873,1874,1878,,,,,
53441115,1881,1876,1877,1881,,,,,
53443614,1883,1879,1879,1883,,,,,
53446113,1882,1878,1878,1882,,,,,
53448612,1881,1876,1877,1881,,,,,
53451111,1880,1875,1876,1880,,,,,
53453610,1879,1874,1874,1879,,,,,
53456109,1878,1873,1873,1878,,,,,
53458608,1877,1872,1872,1877,,,,,
53461107,1876,1871,1871,1876,,,,,
53463606,1875,1870,1870,1875,,,,,
53466105,1874,1869,1869,1874,,,,,
53468604,1873,1869,1869,1874,,,,,
53471103,1872,1868,1868,1873,,,,,
53473602,1872,1867,1867,1872,,,,,
53476101,1871,1867,1867,1872,,,,,
53478600,1871,1866,1866,1871,,,,,
53481099,1870,1866,1866,1871,,,,,
53483598,1870,1866,1866,1871,,,,,
53486097,1870,1866,1865,1871,,,,,
53488596,1870,1865,1865,1871,,,,,
53491095,1870,1865,1865,1871,,,,,
53493594,1870,1866,1865,1871,,,,,
53496093,1870,1866,1866,1871,,,,,
53498592,1871,1866,1866,1871,,,,,
53501091,1871,1866,1866,1871,,,,,
53503590,1871,1867,1866,1872,,,,,
53506089,1872,1867,1867,1872,,,,,
53508588,1872,1867,1867,1873,,,,,
53511087,1872,1868,1868,1873,,,,,
53513586,1873,1868,1868,1874,,,,,
53516085,1874,1869,1869,1874,,,,,
53518584,1874,1870,1870,1875,,,,,
53521083,1875,1870,1870,1875,,,,,
53523582,1875,1871,1871,1876,,,,,
53526081,1876,1872,1872,1876,,,,,
53528580,1876,1873,1872,1877,,,,,
53531079,1877,1873,1873,1877,,,,,
53533578,1877,1873,1873,1877,,,,,
53536077,1877,1874,1874,1878,,,,,
53538576,1877,1874,1874,1878,,,,,
53541075,1877,1874,1874,1877,,,,,
53543574,1876,1873,1873,1877,,,,,
53546073,1876,1873,1873,1876,,,,,
53548572,1875,1872,1872,1876,,,,,
53551071,1874,1871,1871,1875,,,,,
53553570,1873,1870,1870,1874,,,,,
53556069,1872,1869,1869,1872,,,,,
53558568,1870,1868,1868,1871,,,,,
53561067,1869,1866,1866,1869,,,,,
53563566,1867,1865,1865,1867,,,,,
53566065,1865,1863,1863,1866,,,,,
53568564,1863,1861,1861,1864,,,,,
53571063,1861,1859,1859,1861,,,,,
53573562,1859,1857,1857,1859,,,,,
53576061,1857,1854,1854,1857,,,,,
53578560,1854,1852,1852,1855,,,,,
53581059,1852,1849,1849,1852,,,,,
53583558,1849,1847,1847,1849,,,,,
53586057,1846,1844,1844,1847,,,,,
53588556,1844,1842,1842,1844,,,,,
53591055,1841,1839,1839,1841,,,,,
53593554,1838,1836,1836,1838,,,,,
53596053,1835,1833,1833,1835,,,,,
53598552,1832,1830,1830,1833,,,,,
53601051,1829,1827,1827,1830,,,,,
53603550,1826,1824,1824,1826,,,,,
53606049,1823,1821,1821,1823,,,,,
53608548,1820,1818,1818,1820,,,,,
53611047,1817,1815,1815,1817,,,,,
53613546,1814,1812,1812,1814,,,,,
53616045,1810,1808,1809,1811,,,,,
53618544,1807,1805,1805,1807,,,,,
53621043,1804,1802,1802,1804,,,,,
53623542,1800,1799,1799,1801,,,,,
53626041,1797,1795,1796,1797,,,,,
53628540,1794,1792,1792,1794,,,,,
53631039,1790,1788,1789,1790,,,,,
53633538,1787,1785,1786,1787,,,,,
53636037,1783,1782,1782,1783,,,,,
53638536,1780,1778,1779,1780,,,,,
53641035,1777,1775,1775,1776,,,,,
53643534,1773,1771,1772,1773,,,,,
53646033,1770,1768,1768,1769,,,,,
53648532,1766,1764,1765,1766,,,,,
53651031,1763,1761,1762,1762,,,,,
53653530,1759,1758,1758,1759,,,,,
53656029,1756,1754,1755,1755,,,,,
53658528,1752,1751,1752,1752,,,,,
53661027,1749,1748,1748,1749,,,,,
53663526,1746,1744,1745,1745,,,,,
53666025,1742,1741,1742,1742,,,,,
53668524,1739,1738,1739,1739,,,,,
53671023,1736,1735,1735,1736,,,,,
53673522,1733,1732,1732,1732,,,,,
53676021,1730,1728,1729,1729,,,,,
53678520,1726,1725,1726,1726,,,,,
53681019,1723,1722,1723,1723,,,,,
53683518,1720,1720,1720,1720,,,,,
53686017,1717,1717,1717,1717,,,,,
53688516,1714,1714,1714,1714,,,,,
53691015,1712,1711,1711,1711,,,,,
53693514,1709,1708,1709,1708,,,,,
53696013,1706,1705,1706,1706,,,,,
53698512,1703,1702,1703,1703,,,,,
53701011,1700,1700,1700,1700,,,,,
53703510,1697,1697,1698,1697,,,,,
53706009,1695,1694,1695,1694,,,,,
53708508,1692,1692,1692,1692,,,,,
53711007,1689,1689,1690,1689,,,,,
53713506,1687,1687,1687,1687,,,,,
53716005,1684,1684,1685,1684,,,,,
53718504,1682,1682,1682,1682,,,,,
53721003,1679,1679,1680,1679,,,,,
53723502,1677,1677,1678,1677,,,,,
53726001,1675,1675,1676,1675,,,,,
53728500,1673,1673,1673,1672,,,,,
53730999,1670,1671,1671,1670,,,,,
53733498,1668,1669,1669,1668,,,,,
53735997,1666,1667,1667,1666,,,,,
53738496,1664,1665,1665,1664,,,,,
53740995,1662,1663,1663,1662,,,,,
53743494,1661,1661,1662,1660,,,,,
53745993,1659,1659,1660,1659,,,,,
53748492,1657,1658,1658,1657,,,,,
53750991,1655,1656,1656,1655,,,,,
53753490,1653,1654,1655,1653,,,,,
53755989,1652,1653,1653,1652,,,,,
53758488,1650,1651,1651,1650,,,,,
53760987,1648,1649,1650,1648,,,,,
53763486,1647,1648,1648,1647,,,,,
53765985,1645,1646,1647,1645,,,,,
53768484,1644,1645,1645,1644,,,,,
53770983,1642,1644,1644,1643,,,,,
53773482,1641,1642,1643,1641,,,,,
53775981,1640,1641,1641,1640,,,,,
53778480,1639,1640,1640,1639,,,,,
53780979,1637,1639,1639,1638,,,,,
53783478,1636,1638,1638,1636,,,,,
53785977,1635,1637,1637,1635,,,,,
53788476,1634,1636,1636,1634,,,,,
53790975,1633,1635,1635,1633,,,,,
53793474,1632,1634,1634,1632,,,,,
53795973,1631,1633,1633,1631,,,,,
53798472,1630,1632,1632,1630,,,,,
53800971,1630,1631,1631,1630,,,,,
53803470,1629,1630,1631,1629,,,,,
53805969,1628,1629,1630,1628,,,,,
53808468,1627,1629,1629,1627,,,,,
