TimeUS,M1,M2,M3,M4,TimeUS,C1,C2,C3,C4
43353485,1000,1000,1000,1000,43428455,1000,1000,1000,1000
43355984,1000,1000,1000,1000,43528415,1000,1000,1000,1000
43358483,1000,1000,1000,1000,43628375,1000,1000,1000,1000
43360982,1000,1000,1000,1000,43728335,1000,1000,1000,1000
43363481,1000,1000,1000,1000,43828295,1000,1000,1000,1000
43365980,1000,1000,1000,1000,43928255,1000,1000,1000,1000
43368479,1000,1000,1000,1000,44028215,1000,1000,1000,1000
43370978,1000,1000,1000,1000,44128175,1000,1000,1000,1000
43373477,1000,1000,1000,1000,44228968,1000,1000,1000,1000
43375976,1000,1000,1000,1000,44328928,1000,1000,1000,1000
43378475,1000,1000,1000,1000,44428888,1000,1000,1000,1000
43380974,1000,1000,1000,1000,44528848,1000,1000,1000,1000
43383473,1000,1000,1000,1000,44628808,1000,1000,1000,1000
43385972,1000,1000,1000,1000,44728768,1000,1000,1000,1000
43388471,1000,1000,1000,1000,44828728,1000,1000,1000,1000
43390970,1000,1000,1000,1000,44928688,1000,1000,1000,1000
43393469,1000,1000,1000,1000,45028648,1000,1000,1000,1000
43395968,1000,1000,1000,1000,45128608,1000,1000,1000,1000
43398467,1000,1000,1000,1000,45228568,1000,1000,1000,1000
43400966,1000,1000,1000,1000,45328528,1000,1000,1000,1000
43403465,1000,1000,1000,1000,45428488,1023,1023,1023,1023
43405964,1000,1000,1000,1000,45528448,1053,1053,1053,1053
43408463,1000,1000,1000,1000,45628408,1083,1083,1083,1083
43410962,1000,1000,1000,1000,45728368,1113,1113,1113,1113
43413461,1000,1000,1000,1000,45828328,1143,1143,1143,1143
43415960,1000,1000,1000,1000,45928288,1351,1346,1347,1351
43418459,1000,1000,1000,1000,46028248,1542,1538,1538,1542
43420958,1000,1000,1000,1000,46128208,1695,1691,1691,1695
43423457,1000,1000,1000,1000,46228168,1826,1823,1823,1827
43425956,1000,1000,1000,1000,46328961,1889,1886,1886,1890
43428455,1000,1000,1000,1000,46428921,1838,1837,1837,1838
43430954,1000,1000,1000,1000,46528881,1707,1708,1708,1707
43433453,1000,1000,1000,1000,46628841,1633,1634,1634,1633
43435952,1000,1000,1000,1000,46728801,1620,1622,1621,1621
43438451,1000,1000,1000,1000,46828761,1629,1630,1630,1629
43440950,1000,1000,1000,1000,46928721,1636,1636,1637,1635
43443449,1000,1000,1000,1000,47028681,1631,1632,1632,1631
43445948,1000,1000,1000,1000,47128641,1625,1624,1624,1624
43448447,1000,1000,1000,1000,47228601,1619,1619,1618,1619
43450946,1000,1000,1000,1000,47328561,1616,1614,1615,1616
43453445,1000,1000,1000,1000,47428521,1614,1614,1613,1614
43455944,1000,1000,1000,1000,47528481,1616,1615,1615,1616
43458443,1000,1000,1000,1000,47628441,1616,1616,1616,1616
43460942,1000,1000,1000,1000,47728401,1618,1618,1618,1618
43463441,1000,1000,1000,1000,47828361,1619,1620,1619,1619
43465940,1000,1000,1000,1000,47928321,1621,1621,1621,1621
43468439,1000,1000,1000,1000,48028281,1622,1622,1622,1622
43470938,1000,1000,1000,1000,48128241,1623,1623,1623,1623
43473437,1000,1000,1000,1000,48228201,1598,1598,1599,1598
43475936,1000,1000,1000,1000,48328161,1583,1583,1583,1583
43478435,1000,1000,1000,1000,48428954,1572,1572,1572,1573
43480934,1000,1000,1000,1000,48528914,1564,1563,1563,1564
43483433,1000,1000,1000,1000,48628874,1556,1556,1556,1556
43485932,1000,1000,1000,1000,48728834,1549,1549,1549,1549
43488431,1000,1000,1000,1000,48828794,1542,1543,1542,1542
43490930,1000,1000,1000,1000,48928754,1535,1536,1536,1536
43493429,1000,1000,1000,1000,49028714,1527,1527,1527,1528
43495928,1000,1000,1000,1000,49128674,1521,1521,1520,1522
43498427,1000,1000,1000,1000,49228634,1517,1517,1516,1518
43500926,1000,1000,1000,1000,49328594,1514,1514,1513,1515
43503425,1000,1000,1000,1000,49428554,1511,1512,1511,1512
43505924,1000,1000,1000,1000,49528514,1508,1509,1508,1508
43508423,1000,1000,1000,1000,49628474,1505,1505,1505,1505
43510922,1000,1000,1000,1000,49728434,1503,1503,1503,1503
43513421,1000,1000,1000,1000,49828394,1500,1500,1500,1500
43515920,1000,1000,1000,1000,49928354,1499,1498,1498,1499
43518419,1000,1000,1000,1000,50028314,1496,1496,1496,1496
43520918,1000,1000,1000,1000,50128274,1495,1495,1494,1495
43523417,1000,1000,1000,1000,50228234,1493,1493,1493,1493
43525916,1000,1000,1000,1000,50328194,1492,1493,1492,1493
43528415,1000,1000,1000,1000,50428154,1492,1492,1492,1492
43530914,1000,1000,1000,1000,50528947,1502,1502,1503,1501
43533413,1000,1000,1000,1000,50628907,1542,1542,1547,1537
43535912,1000,1000,1000,1000,50728867,1556,1556,1559,1553
43538411,1000,1000,1000,1000,50828827,1565,1565,1564,1566
43540910,1000,1000,1000,1000,50928787,1571,1571,1568,1575
43543409,1000,1000,1000,1000,51028747,1575,1575,1571,1580
43545908,1000,1000,1000,1000,51128707,1576,1576,1572,1580
43548407,1000,1000,1000,1000,51228667,1576,1576,1574,1578
43550906,1000,1000,1000,1000,51328627,1578,1577,1579,1576
43553405,1000,1000,1000,1000,51428587,1579,1579,1582,1576
43555904,1000,1000,1000,1000,51528547,1578,1579,1582,1575
43558403,1000,1000,1000,1000,51628507,1578,1578,1580,1576
43560902,1000,1000,1000,1000,51728467,1576,1576,1576,1576
43563401,1000,1000,1000,1000,51828427,1574,1574,1572,1576
43565900,1000,1000,1000,1000,51928387,1569,1568,1575,1579
43568399,1000,1000,1000,1000,52028347,1567,1567,1576,1580
43570898,1000,1000,1000,1000,52128307,1566,1567,1574,1576
43573397,1000,1000,1000,1000,52228267,1567,1568,1572,1572
43575896,1000,1000,1000,1000,52328227,1569,1569,1571,1570
43578395,1000,1000,1000,1000,52428187,1570,1571,1569,1568
43580894,1000,1000,1000,1000,52528980,1572,1573,1568,1568
43583393,1000,1000,1000,1000,52628940,1573,1573,1567,1566
43585892,1000,1000,1000,1000,52728900,1575,1574,1567,1568
43588391,1000,1000,1000,1000,52828860,1574,1573,1567,1567
43590890,1000,1000,1000,1000,52928820,1574,1573,1568,1568
43593389,1000,1000,1000,1000,53028780,1574,1574,1570,1570
43595888,1000,1000,1000,1000,53128740,1574,1574,1571,1572
43598387,1000,1000,1000,1000,53228700,1574,1574,1574,1573
43600886,1000,1000,1000,1000,53328660,1574,1574,1575,1574
43603385,1000,1000,1000,1000,53428620,1574,1574,1577,1575
43605884,1000,1000,1000,1000,53528580,1574,1574,1577,1576
43608383,1000,1000,1000,1000,53628540,1575,1575,1578,1577
43610882,1000,1000,1000,1000,53728500,1576,1576,1578,1578
43613381,1000,1000,1000,1000,53828460,1576,1575,1577,1578
43615880,1000,1000,1000,1000,53928420,1576,1576,1577,1577
43618379,1000,1000,1000,1000,54028380,1576,1577,1577,1577
43620878,1000,1000,1000,1000,54128340,1578,1578,1578,1579
43623377,1000,1000,1000,1000,54228300,1578,1578,1578,1578
43625876,1000,1000,1000,1000,54328260,1578,1578,1578,1578
43628375,1000,1000,1000,1000,54428220,1578,1578,1577,1577
43630874,1000,1000,1000,1000,54528180,1578,1577,1577,1576
43633373,1000,1000,1000,1000,54628973,1579,1578,1578,1577
43635872,1000,1000,1000,1000,54728933,1579,1578,1578,1577
43638371,1000,1000,1000,1000,54828893,1578,1578,1578,1578
43640870,1000,1000,1000,1000,54928853,1578,1578,1578,1578
43643369,1000,1000,1000,1000,55028813,1577,1578,1578,1577
43645868,1000,1000,1000,1000,55128773,1578,1578,1578,1578
43648367,1000,1000,1000,1000,55228733,1578,1579,1579,1579
43650866,1000,1000,1000,1000,55328693,1578,1578,1578,1578
43653365,1000,1000,1000,1000,55428653,1579,1578,1579,1579
43655864,1000,1000,1000,1000,55528613,1579,1579,1579,1579
43658363,1000,1000,1000,1000,55628573,1579,1578,1579,1579
43660862,1000,1000,1000,1000,55728533,1579,1579,1579,1579
43663361,1000,1000,1000,1000,55828493,1578,1579,1579,1578
43665860,1000,1000,1000,1000,55928453,1579,1579,1579,1579
43668359,1000,1000,1000,1000,56028413,1580,1579,1579,1580
43670858,1000,1000,1000,1000,56128373,1580,1580,1580,1580
43673357,1000,1000,1000,1000,56228333,1580,1581,1581,1580
43675856,1000,1000,1000,1000,56328293,1581,1581,1581,1581
43678355,1000,1000,1000,1000,56428253,1581,1580,1581,1580
43680854,1000,1000,1000,1000,56528213,1581,1581,1581,1581
43683353,1000,1000,1000,1000,56628173,1581,1581,1581,1581
43685852,1000,1000,1000,1000,56728966,1581,1581,1581,1581
43688351,1000,1000,1000,1000,56828926,1580,1581,1580,1581
43690850,1000,1000,1000,1000,56928886,1580,1580,1580,1580
43693349,1000,1000,1000,1000,57028846,1579,1579,1579,1579
43695848,1000,1000,1000,1000,57128806,1579,1579,1579,1579
43698347,1000,1000,1000,1000,57228766,1579,1579,1579,1579
43700846,1000,1000,1000,1000,57328726,1581,1580,1580,1581
43703345,1000,1000,1000,1000,57428686,1581,1581,1581,1581
43705844,1000,1000,1000,1000,57528646,1582,1582,1582,1582
43708343,1000,1000,1000,1000,57628606,1581,1581,1581,1581
43710842,1000,1000,1000,1000,57728566,1580,1580,1581,1580
43713341,1000,1000,1000,1000,57828526,1582,1582,1582,1582
43715840,1000,1000,1000,1000,57928486,1582,1582,1582,1582
43718339,1000,1000,1000,1000,58028446,1582,1582,1582,1582
43720838,1000,1000,1000,1000,58128406,1581,1581,1583,1580
43723337,1000,1000,1000,1000,58228366,1581,1582,1588,1574
43725836,1000,1000,1000,1000,58328326,1580,1582,1583,1574
43728335,1000,1000,1000,1000,58428286,1578,1582,1575,1574
43730834,1000,1000,1000,1000,58528246,1577,1579,1566,1571
43733333,1000,1000,1000,1000,58628206,1577,1579,1560,1567
43735832,1000,1000,1000,1000,58728166,1578,1578,1556,1562
43738331,1000,1000,1000,1000,58828959,1579,1577,1555,1558
43740830,1000,1000,1000,1000,58928919,1579,1577,1556,1555
43743329,1000,1000,1000,1000,59028879,1579,1578,1557,1555
43745828,1000,1000,1000,1000,59128839,1577,1577,1556,1553
43748327,1000,1000,1000,1000,59228799,1576,1577,1556,1554
43750826,1000,1000,1000,1000,59328759,1576,1577,1555,1555
43753325,1000,1000,1000,1000,59428719,1574,1576,1554,1553
43755824,1000,1000,1000,1000,59528679,1574,1575,1552,1553
43758323,1000,1000,1000,1000,59628639,1575,1576,1551,1551
43760822,1000,1000,1000,1000,59728599,1575,1577,1548,1549
43763321,1000,1000,1000,1000,59828559,1578,1579,1547,1547
43765820,1000,1000,1000,1000,59928519,1581,1582,1545,1544
43768319,1000,1000,1000,1000,60028479,1583,1584,1542,1541
43770818,1000,1000,1000,1000,60128439,1588,1588,1540,1539
43773317,1000,1000,1000,1000,60228399,1590,1591,1537,1537
43775816,1000,1000,1000,1000,60328359,1592,1593,1534,1535
43778315,1000,1000,1000,1000,60428319,1596,1596,1536,1536
43780814,1000,1000,1000,1000,60528279,1595,1595,1535,1536
43783313,1000,1000,1000,1000,60628239,1594,1594,1536,1539
43785812,1000,1000,1000,1000,60728199,1593,1592,1540,1544
43788311,1000,1000,1000,1000,60828159,1589,1587,1545,1548
43790810,1000,1000,1000,1000,60928952,1582,1579,1553,1556
43793309,1000,1000,1000,1000,61028912,1573,1570,1563,1566
43795808,1000,1000,1000,1000,61128872,1562,1558,1575,1577
43798307,1000,1000,1000,1000,61228832,1552,1548,1587,1588
43800806,1000,1000,1000,1000,61328792,1542,1540,1599,1599
43803305,1000,1000,1000,1000,61428752,1534,1533,1608,1607
43805804,1000,1000,1000,1000,61528712,1530,1530,1613,1612
43808303,1000,1000,1000,1000,61628672,1529,1531,1616,1615
43810802,1000,1000,1000,1000,61728632,1533,1535,1614,1613
43813301,1000,1000,1000,1000,61828592,1539,1541,1610,1609
43815800,1000,1000,1000,1000,61928552,1546,1547,1603,1603
43818299,1000,1000,1000,1000,62028512,1554,1555,1595,1595
43820798,1000,1000,1000,1000,62128472,1563,1564,1588,1588
43823297,1000,1000,1000,1000,62228432,1571,1571,1581,1580
43825796,1000,1000,1000,1000,62328392,1578,1577,1575,1574
43828295,1000,1000,1000,1000,62428352,1583,1581,1570,1569
43830794,1000,1000,1000,1000,62528312,1586,1584,1566,1567
43833293,1000,1000,1000,1000,62628272,1587,1585,1565,1566
43835792,1000,1000,1000,1000,62728232,1587,1586,1566,1566
43838291,1000,1000,1000,1000,62828192,1585,1585,1568,1568
43840790,1000,1000,1000,1000,62928985,1584,1583,1571,1571
43843289,1000,1000,1000,1000,63028945,1581,1581,1574,1574
43845788,1000,1000,1000,1000,63128905,1578,1578,1577,1576
43848287,1000,1000,1000,1000,63228865,1575,1575,1579,1578
43850786,1000,1000,1000,1000,63328825,1573,1573,1581,1581
43853285,1000,1000,1000,1000,63428785,1572,1573,1583,1583
43855784,1000,1000,1000,1000,63528745,1572,1572,1583,1583
43858283,1000,1000,1000,1000,63628705,1573,1573,1584,1584
43860782,1000,1000,1000,1000,63728665,1573,1574,1583,1583
43863281,1000,1000,1000,1000,63828625,1575,1576,1583,1583
43865780,1000,1000,1000,1000,63928585,1576,1576,1581,1581
43868279,1000,1000,1000,1000,64028545,1233,1233,1584,1585
43870778,1000,1000,1000,1000,64128505,1350,1354,1653,1661
43873277,1000,1000,1000,1000,64228465,1422,1432,1651,1652
43875776,1000,1000,1000,1000,64328425,1488,1498,1638,1632
43878275,1000,1000,1000,1000,64428385,1539,1544,1626,1615
43880774,1000,1000,1000,1000,64528345,1582,1574,1620,1608
43883273,1000,1000,1000,1000,64628305,1600,1582,1572,1570
43885772,1000,1000,1000,1000,64728265,1600,1585,1502,1512
43888271,1000,1000,1000,1000,64828225,1600,1592,1477,1493
43890770,1000,1000,1000,1000,64928185,1596,1600,1495,1505
43893269,1000,1000,1000,1000,65028978,1590,1600,1513,1514
43895768,1000,1000,1000,1000,65128938,1590,1600,1533,1529
43898267,1000,1000,1000,1000,65228898,1594,1600,1551,1545
43900766,1000,1000,1000,1000,65328858,1599,1600,1564,1561
43903265,1000,1000,1000,1000,65428818,1600,1597,1568,1568
43905764,1000,1000,1000,1000,65528778,1600,1595,1571,1573
43908263,1000,1000,1000,1000,65628738,1600,1596,1575,1577
43910762,1000,1000,1000,1000,65728698,1600,1595,1581,1575
43913261,1000,1000,1000,1000,65828658,1600,1593,1584,1579
43915760,1000,1000,1000,1000,65928618,1600,1594,1586,1584
43918259,1000,1000,1000,1000,66028578,1600,1596,1587,1588
43920758,1000,1000,1000,1000,66128538,1600,1598,1588,1589
43923257,1000,1000,1000,1000,66228498,1600,1598,1586,1589
43925756,1000,1000,1000,1000,66328458,1599,1600,1586,1589
43928255,1000,1000,1000,1000,66428418,1595,1600,1581,1586
43930754,1000,1000,1000,1000,66528378,1593,1600,1582,1582
43933253,1000,1000,1000,1000,66628338,1593,1600,1584,1581
43935752,1000,1000,1000,1000,66728298,1595,1600,1587,1582
43938251,1000,1000,1000,1000,66828258,1598,1600,1588,1584
43940750,1000,1000,1000,1000,66928218,1598,1600,1584,1587
43943249,1000,1000,1000,1000,67028178,1596,1600,1580,1584
43945748,1000,1000,1000,1000,67128971,1600,1597,1588,1577
43948247,1000,1000,1000,1000,67228931,1600,1591,1584,1575
43950746,1000,1000,1000,1000,67328891,1600,1589,1581,1578
43953245,1000,1000,1000,1000,67428851,1600,1591,1579,1582
43955744,1000,1000,1000,1000,67528811,1598,1594,1577,1584
43958243,1000,1000,1000,1000,67628771,1589,1590,1569,1573
43960742,1000,1000,1000,1000,67728731,1583,1587,1564,1565
43963241,1000,1000,1000,1000,67828691,1580,1585,1562,1560
43965740,1000,1000,1000,1000,67928651,1578,1581,1560,1556
43968239,1000,1000,1000,1000,68028611,1575,1577,1556,1552
43970738,1000,1000,1000,1000,68128571,1574,1574,1554,1550
43973237,1000,1000,1000,1000,68228531,1573,1571,1551,1549
43975736,1000,1000,1000,1000,68328491,1573,1570,1549,1549
43978235,1000,1000,1000,1000,68428451,1570,1569,1547,1548
43980734,1000,1000,1000,1000,68528411,1569,1569,1546,1549
43983233,1000,1000,1000,1000,68628371,1568,1569,1546,1548
43985732,1000,1000,1000,1000,68728331,1567,1570,1548,1548
43988231,1000,1000,1000,1000,68828291,1568,1570,1549,1549
43990730,1000,1000,1000,1000,68928251,1568,1571,1549,1550
43993229,1000,1000,1000,1000,69028211,1568,1571,1549,1550
43995728,1000,1000,1000,1000,69128171,1569,1571,1550,1551
43998227,1000,1000,1000,1000,69228964,1570,1572,1550,1551
44000726,1000,1000,1000,1000,69328924,1570,1573,1551,1552
44003225,1000,1000,1000,1000,69428884,1572,1574,1552,1552
44005724,1000,1000,1000,1000,69528844,1573,1575,1553,1553
44008223,1000,1000,1000,1000,69628804,1574,1576,1553,1553
44010722,1000,1000,1000,1000,69728764,1576,1576,1554,1554
44013221,1000,1000,1000,1000,69828724,1578,1578,1555,1555
44015720,1000,1000,1000,1000,69928684,1580,1579,1555,1556
44018219,1000,1000,1000,1000,70028644,1581,1581,1556,1558
44020718,1000,1000,1000,1000,70128604,1582,1582,1557,1558
44023217,1000,1000,1000,1000,70228564,1583,1583,1557,1559
44025716,1000,1000,1000,1000,70328524,1583,1584,1559,1559
44028215,1000,1000,1000,1000,70428484,1584,1585,1560,1561
44030714,1000,1000,1000,1000,70528444,1586,1585,1561,1562
44033213,1000,1000,1000,1000,70628404,1587,1586,1564,1564
44035712,1000,1000,1000,1000,70728364,1588,1587,1566,1566
44038211,1000,1000,1000,1000,70828324,1589,1587,1567,1567
44040710,1000,1000,1000,1000,70928284,1589,1588,1569,1568
44043209,1000,1000,1000,1000,71028244,1590,1588,1570,1570
44045708,1000,1000,1000,1000,71128204,1590,1589,1570,1570
44048207,1000,1000,1000,1000,71228164,1590,1589,1571,1571
44050706,1000,1000,1000,1000,71328957,1590,1589,1571,1571
44053205,1000,1000,1000,1000,71428917,1589,1589,1571,1571
44055704,1000,1000,1000,1000,71528877,1589,1589,1571,1570
44058203,1000,1000,1000,1000,71628837,1590,1587,1572,1570
44060702,1000,1000,1000,1000,71728797,1578,1570,1590,1588
44063201,1000,1000,1000,1000,71828757,1561,1553,1609,1609
44065700,1000,1000,1000,1000,71928717,1546,1543,1617,1618
44068199,1000,1000,1000,1000,72028677,1538,1540,1619,1621
44070698,1000,1000,1000,1000,72128637,1534,1541,1618,1619
44073197,1000,1000,1000,1000,72228597,1533,1544,1615,1615
44075696,1000,1000,1000,1000,72328557,1538,1548,1612,1610
44078195,1000,1000,1000,1000,72428517,1544,1552,1607,1604
44080694,1000,1000,1000,1000,72528477,1551,1555,1600,1597
44083193,1000,1000,1000,1000,72628437,1560,1559,1593,1591
44085692,1000,1000,1000,1000,72728397,1567,1564,1587,1586
44088191,1000,1000,1000,1000,72828357,1573,1569,1581,1582
44090690,1000,1000,1000,1000,72928317,1578,1574,1577,1578
44093189,1000,1000,1000,1000,73028277,1581,1579,1575,1576
44095688,1000,1000,1000,1000,73128237,1584,1582,1572,1573
44098187,1000,1000,1000,1000,73228197,1586,1586,1572,1573
44100686,1000,1000,1000,1000,73328157,1587,1587,1571,1571
44103185,1000,1000,1000,1000,73428950,1588,1588,1572,1571
44105684,1000,1000,1000,1000,73528910,1589,1589,1572,1571
44108183,1000,1000,1000,1000,73628870,1589,1589,1572,1572
44110682,1000,1000,1000,1000,73728830,1590,1589,1573,1573
44113181,1000,1000,1000,1000,73828790,1589,1588,1574,1574
44115680,1000,1000,1000,1000,73928750,1589,1588,1575,1576
44118179,1000,1000,1000,1000,74028710,1587,1586,1574,1575
44120678,1000,1000,1000,1000,74128670,1586,1586,1576,1576
44123177,1000,1000,1000,1000,74228630,1584,1585,1577,1576
44125676,1000,1000,1000,1000,74328590,1584,1584,1578,1578
44128175,1000,1000,1000,1000,74428550,1584,1584,1579,1579
44130674,1000,1000,1000,1000,74528510,1583,1583,1580,1579
44133173,1000,1000,1000,1000,74628470,1582,1582,1580,1580
44135672,1000,1000,1000,1000,74728430,1582,1582,1582,1582
44138171,1000,1000,1000,1000,74828390,1581,1581,1581,1581
44140670,1000,1000,1000,1000,74928350,1581,1581,1582,1582
44143169,1000,1000,1000,1000,75028310,1580,1580,1583,1580
44145668,1000,1000,1000,1000,75128270,1581,1579,1588,1574
44148167,1000,1000,1000,1000,75228230,1580,1578,1583,1574
44150666,1000,1000,1000,1000,75328190,1579,1577,1575,1574
44153165,1000,1000,1000,1000,75428983,1576,1577,1567,1571
44155664,1000,1000,1000,1000,75528943,1574,1576,1561,1567
44158163,1000,1000,1000,1000,75628903,1572,1576,1559,1563
44160662,1000,1000,1000,1000,75728863,1572,1576,1559,1560
44163161,1000,1000,1000,1000,75828823,1573,1575,1558,1557
44165660,1000,1000,1000,1000,75928783,1574,1575,1559,1557
44168159,1000,1000,1000,1000,76028743,1574,1574,1557,1556
44170658,1000,1000,1000,1000,76128703,1575,1574,1557,1556
44173157,1000,1000,1000,1000,76228663,1574,1574,1555,1554
44175656,1000,1000,1000,1000,76328623,1574,1574,1553,1553
44178155,1000,1000,1000,1000,76428583,1574,1574,1551,1552
44180654,1000,1000,1000,1000,76528543,1574,1575,1549,1549
44183986,1000,1000,1000,1000,76628503,1574,1576,1548,1547
44186485,1000,1000,1000,1000,76728463,1576,1578,1547,1546
44188984,1000,1000,1000,1000,76828423,1578,1579,1546,1545
44191483,1000,1000,1000,1000,76928383,1581,1581,1545,1544
44193982,1000,1000,1000,1000,77028343,1583,1583,1542,1543
44196481,1000,1000,1000,1000,77128303,1584,1584,1540,1540
44198980,1000,1000,1000,1000,77228263,1586,1586,1538,1539
44201479,1000,1000,1000,1000,77328223,1588,1587,1538,1539
44203978,1000,1000,1000,1000,77428183,1589,1589,1539,1540
44206477,1000,1000,1000,1000,77528976,1590,1588,1540,1542
44208976,1000,1000,1000,1000,77628936,1589,1588,1543,1545
44211475,1000,1000,1000,1000,77728896,1587,1586,1546,1549
44213974,1000,1000,1000,1000,77828856,1583,1583,1549,1553
44216473,1000,1000,1000,1000,77928816,1580,1579,1555,1558
44218972,1000,1000,1000,1000,78028776,1575,1574,1560,1563
44221471,1000,1000,1000,1000,78128736,1570,1568,1566,1569
44223970,1000,1000,1000,1000,78228696,1564,1562,1574,1576
44226469,1000,1000,1000,1000,78328656,1558,1556,1583,1583
44228968,1000,1000,1000,1000,78428616,1552,1550,1591,1590
44231467,1000,1000,1000,1000,78528576,1546,1544,1598,1598
44233966,1000,1000,1000,1000,78628536,1539,1539,1604,1604
44236465,1000,1000,1000,1000,78728496,1535,1536,1608,1608
44238964,1000,1000,1000,1000,78828456,1533,1535,1609,1608
44241463,1000,1000,1000,1000,78928416,1534,1537,1607,1605
44243962,1000,1000,1000,1000,79028376,1538,1541,1602,1602
44246461,1000,1000,1000,1000,79128336,1544,1546,1596,1596
44248960,1000,1000,1000,1000,79228296,1552,1553,1590,1591
44251459,1000,1000,1000,1000,79328256,1560,1560,1584,1584
44253958,1000,1000,1000,1000,79428216,1568,1567,1579,1577
44256457,1000,1000,1000,1000,79528176,1575,1574,1574,1572
44258956,1000,1000,1000,1000,79628969,1581,1579,1570,1570
44261455,1000,1000,1000,1000,79728929,1584,1583,1567,1567
44263954,1000,1000,1000,1000,79828889,1587,1585,1568,1568
44266453,1000,1000,1000,1000,79928849,1588,1586,1568,1568
44268952,1000,1000,1000,1000,80028809,1588,1587,1569,1570
44271451,1000,1000,1000,1000,80128769,1587,1587,1571,1572
44273950,1000,1000,1000,1000,80228729,1586,1586,1573,1574
44276449,1000,1000,1000,1000,80328689,1585,1585,1575,1575
44278948,1000,1000,1000,1000,80428649,1584,1584,1577,1577
44281447,1000,1000,1000,1000,80528609,1582,1582,1578,1578
44283946,1000,1000,1000,1000,80628569,1580,1580,1579,1579
44286445,1000,1000,1000,1000,80728529,1579,1579,1580,1580
44288944,1000,1000,1000,1000,80828489,1578,1578,1581,1581
44291443,1000,1000,1000,1000,80928449,1577,1577,1582,1582
44293942,1000,1000,1000,1000,81028409,1576,1577,1583,1583
44296441,1000,1000,1000,1000,81128369,1576,1576,1583,1583
44298940,1000,1000,1000,1000,81228329,1575,1576,1582,1583
44301439,1000,1000,1000,1000,81328289,1576,1577,1582,1583
44303938,1000,1000,1000,1000,81428249,1577,1577,1582,1582
44306437,1000,1000,1000,1000,81528209,1578,1578,1582,1582
44308936,1000,1000,1000,1000,81628169,1579,1579,1582,1581
44311435,1000,1000,1000,1000,81728962,1580,1579,1581,1581
44313934,1000,1000,1000,1000,81828922,1581,1581,1580,1581
44316433,1000,1000,1000,1000,81928882,1581,1580,1579,1580
44318932,1000,1000,1000,1000,82028842,1582,1582,1579,1580
44321431,1000,1000,1000,1000,82128802,1581,1581,1578,1578
44323930,1000,1000,1000,1000,82228762,1581,1581,1578,1578
44326429,1000,1000,1000,1000,82328722,1582,1582,1579,1579
44328928,1000,1000,1000,1000,82428682,1582,1582,1579,1579
44331427,1000,1000,1000,1000,82528642,1582,1582,1580,1579
44333926,1000,1000,1000,1000,82628602,1582,1582,1580,1580
44336425,1000,1000,1000,1000,82728562,1582,1581,1580,1580
44338924,1000,1000,1000,1000,82828522,1582,1582,1581,1581
44341423,1000,1000,1000,1000,82928482,1581,1581,1581,1581
44343922,1000,1000,1000,1000,83028442,1581,1581,1581,1581
44346421,1000,1000,1000,1000,83128402,1581,1581,1582,1582
44348920,1000,1000,1000,1000,83228362,1580,1581,1582,1581
44351419,1000,1000,1000,1000,83328322,1580,1581,1582,1582
44353918,1000,1000,1000,1000,83428282,1581,1580,1588,1575
44356417,1000,1000,1000,1000,83528242,1580,1579,1587,1574
44358916,1000,1000,1000,1000,83628202,1579,1577,1579,1575
44361415,1000,1000,1000,1000,83728162,1576,1574,1571,1575
44363914,1000,1000,1000,1000,83828955,1572,1572,1566,1573
44366413,1000,1000,1000,1000,83928915,1569,1570,1563,1570
44368912,1000,1000,1000,1000,84028875,1567,1568,1563,1567
44371411,1000,1000,1000,1000,84128835,1566,1568,1566,1567
44373910,1000,1000,1000,1000,84228795,1566,1568,1568,1566
44376409,1000,1000,1000,1000,84328755,1566,1566,1568,1565
44378908,1000,1000,1000,1000,84428715,1566,1566,1568,1565
44381407,1000,1000,1000,1000,84528675,1565,1564,1567,1566
44383906,1000,1000,1000,1000,84628635,1564,1563,1565,1565
44386405,1000,1000,1000,1000,84728595,1563,1563,1564,1565
44388904,1000,1000,1000,1000,84828555,1562,1562,1563,1563
44391403,1000,1000,1000,1000,84928515,1562,1562,1562,1563
44393902,1000,1000,1000,1000,85028475,1561,1561,1562,1562
44396401,1000,1000,1000,1000,85128435,1560,1560,1561,1560
44398900,1000,1000,1000,1000,85228395,1559,1560,1560,1559
44401399,1000,1000,1000,1000,85328355,1560,1560,1561,1560
44403898,1000,1000,1000,1000,85428315,1560,1560,1560,1560
44406397,1000,1000,1000,1000,85528275,1560,1560,1560,1559
44408896,1000,1000,1000,1000,85628235,1559,1559,1560,1558
44411395,1000,1000,1000,1000,85728195,1560,1560,1560,1559
44413894,1000,1000,1000,1000,85828155,1560,1560,1560,1559
44416393,1000,1000,1000,1000,85928948,1560,1560,1561,1559
44418892,1000,1000,1000,1000,86028908,1560,1559,1560,1558
44421391,1000,1000,1000,1000,86128868,1559,1558,1560,1557
44423890,1000,1000,1000,1000,86228828,1560,1559,1560,1558
44426389,1000,1000,1000,1000,86328788,1560,1559,1558,1561
44428888,1000,1000,1000,1000,86428748,1560,1560,1557,1563
44431387,1000,1000,1000,1000,86528708,1560,1561,1558,1564
44433886,1000,1000,1000,1000,86628668,1561,1562,1560,1564
44436385,1000,1000,1000,1000,86728628,1560,1561,1559,1562
44438884,1000,1000,1000,1000,86828588,1558,1559,1559,1557
44441383,1000,1000,1000,1000,86928548,1559,1559,1559,1557
44443882,1000,1000,1000,1000,87028508,1559,1558,1556,1559
44446381,1000,1000,1000,1000,87128468,1556,1555,1552,1555
44448880,1000,1000,1000,1000,87228428,1552,1552,1547,1550
44451379,1000,1000,1000,1000,87328388,1547,1546,1541,1543
44453878,1000,1000,1000,1000,87428348,1540,1540,1535,1535
44456377,1000,1000,1000,1000,87528308,1534,1535,1529,1528
44458876,1000,1000,1000,1000,87628268,1527,1527,1521,1520
44461375,1000,1000,1000,1000,87728228,1522,1522,1518,1517
44463874,1000,1000,1000,1000,87828188,1520,1520,1518,1518
44466373,1000,1000,1000,1000,87928981,1518,1518,1519,1520
44468872,1000,1000,1000,1000,88028941,1519,1519,1523,1524
44471371,1000,1000,1000,1000,88128901,1521,1520,1528,1528
44473870,1000,1000,1000,1000,88228861,1524,1524,1534,1534
44476369,1000,1000,1000,1000,88328821,1528,1528,1538,1538
44478868,1000,1000,1000,1000,88428781,1531,1532,1542,1542
44481367,1000,1000,1000,1000,88528741,1535,1535,1544,1544
44483866,1000,1000,1000,1000,88628701,1539,1539,1546,1545
44486365,1000,1000,1000,1000,88728661,1542,1542,1546,1546
44488864,1000,1000,1000,1000,88828621,1544,1544,1545,1545
44491363,1000,1000,1000,1000,88928581,1547,1547,1546,1546
44493862,1000,1000,1000,1000,89028541,1548,1548,1544,1544
44496361,1000,1000,1000,1000,89128501,1549,1550,1544,1544
44498860,1000,1000,1000,1000,89228461,1550,1550,1544,1544
44501359,1000,1000,1000,1000,89328421,1550,1550,1544,1544
44503858,1000,1000,1000,1000,89428381,1550,1550,1544,1544
44506357,1000,1000,1000,1000,89528341,1550,1549,1543,1543
44508856,1000,1000,1000,1000,89628301,1549,1549,1544,1543
44511355,1000,1000,1000,1000,89728261,1547,1548,1544,1543
44513854,1000,1000,1000,1000,89828221,1547,1547,1545,1544
44516353,1000,1000,1000,1000,89928181,1546,1546,1546,1545
44518852,1000,1000,1000,1000,90028974,1545,1545,1545,1545
44521351,1000,1000,1000,1000,90128934,1544,1544,1546,1546
44523850,1000,1000,1000,1000,90228894,1543,1543,1546,1545
44526349,1000,1000,1000,1000,90328854,1543,1543,1546,1546
44528848,1000,1000,1000,1000,90428814,1543,1543,1547,1546
44531347,1000,1000,1000,1000,90528774,1542,1542,1545,1545
44533846,1000,1000,1000,1000,90628734,1542,1542,1544,1544
44536345,1000,1000,1000,1000,90728694,1542,1543,1544,1544
44538844,1000,1000,1000,1000,90828654,1542,1543,1544,1544
44541343,1000,1000,1000,1000,90928614,1543,1543,1543,1543
44543842,1000,1000,1000,1000,91028574,1543,1543,1543,1543
44546341,1000,1000,1000,1000,91128534,1544,1544,1543,1544
44548840,1000,1000,1000,1000,91228494,1544,1544,1543,1543
44551339,1000,1000,1000,1000,91328454,1545,1545,1544,1544
44553838,1000,1000,1000,1000,91428414,1544,1544,1543,1543
44556337,1000,1000,1000,1000,91528374,1545,1545,1544,1544
44558836,1000,1000,1000,1000,91628334,1545,1546,1545,1545
44561335,1000,1000,1000,1000,91728294,1545,1545,1544,1544
44563834,1000,1000,1000,1000,91828254,1545,1545,1544,1544
44566333,1000,1000,1000,1000,91928214,1545,1545,1544,1545
44568832,1000,1000,1000,1000,92028174,1545,1545,1544,1544
44571331,1000,1000,1000,1000,92128967,1545,1545,1545,1545
44573830,1000,1000,1000,1000,92228927,1544,1545,1544,1545
44576329,1000,1000,1000,1000,92328887,1544,1544,1544,1544
44578828,1000,1000,1000,1000,92428847,1544,1544,1544,1544
44581327,1000,1000,1000,1000,92528807,1544,1544,1543,1544
44583826,1000,1000,1000,1000,92628767,1544,1544,1544,1544
44586325,1000,1000,1000,1000,92728727,1544,1543,1543,1544
44588824,1000,1000,1000,1000,92828687,1544,1544,1544,1544
44591323,1000,1000,1000,1000,92928647,1544,1544,1544,1544
44593822,1000,1000,1000,1000,93028607,1544,1544,1544,1544
44596321,1000,1000,1000,1000,93128567,1544,1543,1544,1544
44598820,1000,1000,1000,1000,93228527,1543,1544,1544,1544
44601319,1000,1000,1000,1000,93328487,1544,1544,1545,1545
44603818,1000,1000,1000,1000,93428447,1544,1544,1545,1544
44606317,1000,1000,1000,1000,93528407,1545,1544,1545,1545
44608816,1000,1000,1000,1000,93628367,1544,1544,1544,1544
44611315,1000,1000,1000,1000,93728327,1545,1544,1544,1544
44613814,1000,1000,1000,1000,93828287,1544,1544,1544,1544
44616313,1000,1000,1000,1000,93928247,1544,1545,1544,1544
44618812,1000,1000,1000,1000,94028207,1544,1545,1544,1544
44621311,1000,1000,1000,1000,94128167,1544,1544,1543,1544
44623810,1000,1000,1000,1000,94228960,1544,1544,1543,1544
44626309,1000,1000,1000,1000,94328920,1545,1543,1544,1544
44628808,1000,1000,1000,1000,94428880,1545,1544,1545,1544
44631307,1000,1000,1000,1000,94528840,1544,1544,1544,1543
44633806,1000,1000,1000,1000,94628800,1543,1544,1544,1543
44636305,1000,1000,1000,1000,94728760,1544,1544,1543,1544
44638804,1000,1000,1000,1000,94828720,1544,1544,1545,1544
44641303,1000,1000,1000,1000,94928680,1544,1545,1545,1545
44643802,1000,1000,1000,1000,95028640,1544,1544,1544,1544
44646301,1000,1000,1000,1000,95128600,1545,1544,1545,1545
44648800,1000,1000,1000,1000,95228560,1545,1545,1545,1545
44651299,1000,1000,1000,1000,95328520,1545,1545,1545,1545
44653798,1000,1000,1000,1000,95428480,1545,1545,1545,1545
44656297,1000,1000,1000,1000,95528440,1545,1545,1545,1545
44658796,1000,1000,1000,1000,95628400,1545,1544,1544,1545
44661295,1000,1000,1000,1000,95728360,1545,1544,1544,1545
44663794,1000,1000,1000,1000,95828320,1544,1544,1544,1544
44666293,1000,1000,1000,1000,95928280,1545,1545,1545,1544
44668792,1000,1000,1000,1000,96028240,1544,1545,1545,1545
44671291,1000,1000,1000,1000,96128200,1545,1545,1545,1545
44673790,1000,1000,1000,1000,96228160,1544,1545,1544,1544
44676289,1000,1000,1000,1000,96328953,1544,1544,1544,1544
44678788,1000,1000,1000,1000,96428913,1544,1544,1544,1544
44681287,1000,1000,1000,1000,96528873,1545,1544,1544,1545
44683786,1000,1000,1000,1000,96628833,1545,1545,1545,1545
44686285,1000,1000,1000,1000,96728793,1545,1544,1544,1545
44688784,1000,1000,1000,1000,96828753,1544,1544,1545,1544
44691283,1000,1000,1000,1000,96928713,1545,1544,1545,1545
44693782,1000,1000,1000,1000,97028673,1544,1544,1544,1544
44696281,1000,1000,1000,1000,97128633,1545,1545,1545,1545
44698780,1000,1000,1000,1000,97228593,1544,1544,1544,1544
44701279,1000,1000,1000,1000,97328553,1544,1544,1544,1544
44703778,1000,1000,1000,1000,97428513,1458,1457,1412,1413
44706277,1000,1000,1000,1000,97528473,1377,1376,1273,1276
44708776,1000,1000,1000,1000,97628433,1350,1350,1221,1224
44711275,1000,1000,1000,1000,97728393,1340,1340,1201,1204
44713774,1000,1000,1000,1000,97828353,1323,1323,1166,1168
44716273,1000,1000,1000,1000,97928313,1274,1273,1150,1152
44718772,1000,1000,1000,1000,98028273,1186,1185,1150,1151
44721271,1000,1000,1000,1000,98128233,1087,1086,1150,1152
44723770,1000,1000,1000,1000,98228193,975,974,1150,1151
44726269,1000,1000,1000,1000,98328986,969,968,1150,1151
44728768,1000,1000,1000,1000,98428946,969,969,1150,1151
44731267,1000,1000,1000,1000,98528906,969,965,1150,1155
44733766,1000,1000,1000,1000,98628866,969,957,1150,1167
44736265,1000,1000,1000,1000,98728826,969,961,1150,1161
44738764,1000,1000,1000,1000,98828786,969,963,1150,1159
44741263,1000,1000,1000,1000,98928746,969,963,1150,1159
44743762,1000,1000,1000,1000,99028706,969,963,1150,1159
44746261,1000,1000,1000,1000,99128666,969,962,1150,1159
44748760,1000,1000,1000,1000,99228626,969,962,1150,1159
44751259,1000,1000,1000,1000,99328586,963,970,1158,1150
44753758,1000,1000,1000,1000,99428546,969,968,1150,1151
44756257,1000,1000,1000,1000,99528506,969,968,1150,1152
44758756,1000,1000,1000,1000,99628466,969,968,1150,1152
44761255,1000,1000,1000,1000,99728426,969,967,1150,1152
44763754,1000,1000,1000,1000,99828386,797,797,1147,1147
44766253,1000,1000,1000,1000,99928346,1000,1000,1000,1000
44768752,1000,1000,1000,1000,100028306,1000,1000,1000,1000
44771251,1000,1000,1000,1000,100128266,1000,1000,1000,1000
44773750,1000,1000,1000,1000,100228226,1000,1000,1000,1000
44776249,1000,1000,1000,1000,100328186,1000,1000,1000,1000
44778748,1000,1000,1000,1000,100428979,1000,1000,1000,1000
44781247,1000,1000,1000,1000,100528939,1000,1000,1000,1000
44783746,1000,1000,1000,1000,100628899,1000,1000,1000,1000
44786245,1000,1000,1000,1000,100728859,1000,1000,1000,1000
44788744,1000,1000,1000,1000,100828819,1000,1000,1000,1000
44791243,1000,1000,1000,1000,100928779,1000,1000,1000,1000
44793742,1000,1000,1000,1000,101028739,1000,1000,1000,1000
44796241,1000,1000,1000,1000,101128699,1000,1000,1000,1000
44798740,1000,1000,1000,1000,101228659,1000,1000,1000,1000
44801239,1000,1000,1000,1000,101328619,1000,1000,1000,1000
44803738,1000,1000,1000,1000,101428579,1000,1000,1000,1000
44806237,1000,1000,1000,1000,101528539,1000,1000,1000,1000
44808736,1000,1000,1000,1000,101628499,1000,1000,1000,1000
44811235,1000,1000,1000,1000,101728459,1000,1000,1000,1000
44813734,1000,1000,1000,1000,101828419,1000,1000,1000,1000
44816233,1000,1000,1000,1000,101928379,1000,1000,1000,1000
44818732,1000,1000,1000,1000,102028339,1000,1000,1000,1000
44821231,1000,1000,1000,1000,102128299,1000,1000,1000,1000
44823730,1000,1000,1000,1000,102228259,1000,1000,1000,1000
44826229,1000,1000,1000,1000,102328219,1000,1000,1000,1000
44828728,1000,1000,1000,1000,102428179,1000,1000,1000,1000
44831227,1000,1000,1000,1000,102528972,1000,1000,1000,1000
44833726,1000,1000,1000,1000,102628932,1000,1000,1000,1000
44836225,1000,1000,1000,1000,102728892,1000,1000,1000,1000
44838724,1000,1000,1000,1000,102828852,1000,1000,1000,1000
44841223,1000,1000,1000,1000,102928812,1000,1000,1000,1000
44843722,1000,1000,1000,1000,103028772,1000,1000,1000,1000
44846221,1000,1000,1000,1000,103128732,1000,1000,1000,1000
44848720,1000,1000,1000,1000,103228692,1000,1000,1000,1000
44851219,1000,1000,1000,1000,103328652,1000,1000,1000,1000
44853718,1000,1000,1000,1000,103428612,1000,1000,1000,1000
44856217,1000,1000,1000,1000,103528572,1000,1000,1000,1000
44858716,1000,1000,1000,1000,103628532,1000,1000,1000,1000
44861215,1000,1000,1000,1000,103728492,1000,1000,1000,1000
44863714,1000,1000,1000,1000,103828452,1000,1000,1000,1000
44866213,1000,1000,1000,1000,103928412,1000,1000,1000,1000
44868712,1000,1000,1000,1000,104028372,1000,1000,1000,1000
44871211,1000,1000,1000,1000,104128332,1000,1000,1000,1000
44873710,1000,1000,1000,1000,104228292,1000,1000,1000,1000
44876209,1000,1000,1000,1000,104328252,1000,1000,1000,1000
44878708,1000,1000,1000,1000,104428212,1000,1000,1000,1000
44881207,1000,1000,1000,1000,104528172,1000,1000,1000,1000
44883706,1000,1000,1000,1000,104628965,1000,1000,1000,1000
44886205,1000,1000,1000,1000,104728925,1000,1000,1000,1000
44888704,1000,1000,1000,1000,104828885,1000,1000,1000,1000
44891203,1000,1000,1000,1000,104928845,1000,1000,1000,1000
44893702,1000,1000,1000,1000,105028805,1000,1000,1000,1000
44896201,1000,1000,1000,1000,105128765,1000,1000,1000,1000
44898700,1000,1000,1000,1000,105228725,1000,1000,1000,1000
44901199,1000,1000,1000,1000,105328685,1000,1000,1000,1000
44903698,1000,1000,1000,1000,105428645,1000,1000,1000,1000
44906197,1000,1000,1000,1000,105528605,1000,1000,1000,1000
44908696,1000,1000,1000,1000,105628565,1000,1000,1000,1000
44911195,1000,1000,1000,1000,105728525,1000,1000,1000,1000
44913694,1000,1000,1000,1000,105828485,1000,1000,1000,1000
44916193,1000,1000,1000,1000,105928445,1000,1000,1000,1000
44918692,1000,1000,1000,1000,106028405,1000,1000,1000,1000
44921191,1000,1000,1000,1000,106128365,1000,1000,1000,1000
44923690,1000,1000,1000,1000,106228325,1000,1000,1000,1000
44926189,1000,1000,1000,1000,106328285,1000,1000,1000,1000
44928688,1000,1000,1000,1000,106428245,1000,1000,1000,1000
44931187,1000,1000,1000,1000,106528205,1000,1000,1000,1000
44933686,1000,1000,1000,1000,106628165,1000,1000,1000,1000
44936185,1000,1000,1000,1000,106728958,1000,1000,1000,1000
44938684,1000,1000,1000,1000,106828918,1000,1000,1000,1000
44941183,1000,1000,1000,1000,106928878,1000,1000,1000,1000
44943682,1000,1000,1000,1000,107028838,1000,1000,1000,1000
44946181,1000,1000,1000,1000,107128798,1000,1000,1000,1000
44948680,1000,1000,1000,1000,107228758,1000,1000,1000,1000
44951179,1000,1000,1000,1000,107328718,1000,1000,1000,1000
44953678,1000,1000,1000,1000,107428678,1000,1000,1000,1000
44956177,1000,1000,1000,1000,107528638,1000,1000,1000,1000
44958676,1000,1000,1000,1000,107628598,1000,1000,1000,1000
44961175,1000,1000,1000,1000,107728558,1000,1000,1000,1000
44963674,1000,1000,1000,1000,107828518,1000,1000,1000,1000
44966173,1000,1000,1000,1000,107928478,1000,1000,1000,1000
44968672,1000,1000,1000,1000,108028438,1000,1000,1000,1000
44971171,1000,1000,1000,1000,108128398,1000,1000,1000,1000
44973670,1000,1000,1000,1000,108228358,1000,1000,1000,1000
44976169,1000,1000,1000,1000,108328318,1000,1000,1000,1000
44978668,1000,1000,1000,1000,108428278,1000,1000,1000,1000
44981167,1000,1000,1000,1000,108528238,1000,1000,1000,1000
44983666,1000,1000,1000,1000,108628198,1000,1000,1000,1000
44986165,1000,1000,1000,1000,108728158,1000,1000,1000,1000
44988664,1000,1000,1000,1000,108828951,1000,1000,1000,1000
44991163,1000,1000,1000,1000,108928911,1000,1000,1000,1000
44993662,1000,1000,1000,1000,109028871,1000,1000,1000,1000
44996161,1000,1000,1000,1000,109128831,1000,1000,1000,1000
44998660,1000,1000,1000,1000,109228791,1000,1000,1000,1000
45001159,1000,1000,1000,1000,109328751,1000,1000,1000,1000
45003658,1000,1000,1000,1000,109428711,1000,1000,1000,1000
45006157,1000,1000,1000,1000,109528671,1000,1000,1000,1000
45008656,1000,1000,1000,1000,109628631,1000,1000,1000,1000
45011155,1000,1000,1000,1000,109728591,1000,1000,1000,1000
45013654,1000,1000,1000,1000,109828551,1000,1000,1000,1000
45016153,1000,1000,1000,1000,109928511,1000,1000,1000,1000
45018652,1000,1000,1000,1000,110028471,1000,1000,1000,1000
45021151,1000,1000,1000,1000,110128431,1000,1000,1000,1000
45023650,1000,1000,1000,1000,110228391,1000,1000,1000,1000
45026149,1000,1000,1000,1000,110328351,1000,1000,1000,1000
45028648,1000,1000,1000,1000,110428311,1000,1000,1000,1000
45031147,1000,1000,1000,1000,110528271,1000,1000,1000,1000
45033646,1000,1000,1000,1000,110628231,1000,1000,1000,1000
45036145,1000,1000,1000,1000,110728191,1000,1000,1000,1000
45038644,1000,1000,1000,1000,110828984,1000,1000,1000,1000
45041143,1000,1000,1000,1000,110928944,1000,1000,1000,1000
45043642,1000,1000,1000,1000,111028904,1000,1000,1000,1000
45046141,1000,1000,1000,1000,111128864,1000,1000,1000,1000
45048640,1000,1000,1000,1000,111228824,1000,1000,1000,1000
45051139,1000,1000,1000,1000,111328784,1000,1000,1000,1000
45053638,1000,1000,1000,1000,111428744,1000,1000,1000,1000
45056137,1000,1000,1000,1000,111528704,1000,1000,1000,1000
45058636,1000,1000,1000,1000,111628664,1000,1000,1000,1000
45061135,1000,1000,1000,1000,111728624,1000,1000,1000,1000
45063634,1000,1000,1000,1000,111828584,1000,1000,1000,1000
45066133,1000,1000,1000,1000,111928544,1000,1000,1000,1000
45068632,1000,1000,1000,1000,112028504,1000,1000,1000,1000
45071131,1000,1000,1000,1000,112128464,1000,1000,1000,1000
45073630,1000,1000,1000,1000,112228424,1000,1000,1000,1000
45076129,1000,1000,1000,1000,112328384,1000,1000,1000,1000
45078628,1000,1000,1000,1000,112428344,1000,1000,1000,1000
45081127,1000,1000,1000,1000,112528304,1000,1000,1000,1000
45083626,1000,1000,1000,1000,112628264,1000,1000,1000,1000
45086125,1000,1000,1000,1000,112728224,1000,1000,1000,1000
45088624,1000,1000,1000,1000,112828184,1000,1000,1000,1000
45091123,1000,1000,1000,1000,112928977,1000,1000,1000,1000
45093622,1000,1000,1000,1000,113028937,1000,1000,1000,1000
45096121,1000,1000,1000,1000,113128897,1000,1000,1000,1000
45098620,1000,1000,1000,1000,113228857,1000,1000,1000,1000
45101119,1000,1000,1000,1000,113328817,1000,1000,1000,1000
45103618,1000,1000,1000,1000,113428777,1000,1000,1000,1000
45106117,1000,1000,1000,1000,113528737,1000,1000,1000,1000
45108616,1000,1000,1000,1000,113628697,1000,1000,1000,1000
45111115,1000,1000,1000,1000,113728657,1000,1000,1000,1000
45113614,1000,1000,1000,1000,113828617,1000,1000,1000,1000
45116113,1000,1000,1000,1000,113928577,1000,1000,1000,1000
45118612,1000,1000,1000,1000,114028537,1000,1000,1000,1000
45121111,1000,1000,1000,1000,114128497,1000,1000,1000,1000
45123610,1000,1000,1000,1000,114228457,1000,1000,1000,1000
45126109,1000,1000,1000,1000,114328417,1000,1000,1000,1000
45128608,1000,1000,1000,1000,114428377,1000,1000,1000,1000
45131107,1000,1000,1000,1000,114528337,1000,1000,1000,1000
45133606,1000,1000,1000,1000,114628297,1000,1000,1000,1000
45136105,1000,1000,1000,1000,114728257,1000,1000,1000,1000
45138604,1000,1000,1000,1000,,,,,
45141103,1000,1000,1000,1000,,,,,
45143602,1000,1000,1000,1000,,,,,
45146101,1000,1000,1000,1000,,,,,
45148600,1000,1000,1000,1000,,,,,
45151099,1000,1000,1000,1000,,,,,
45153598,1000,1000,1000,1000,,,,,
45156097,1000,1000,1000,1000,,,,,
45158596,1000,1000,1000,1000,,,,,
45161095,1000,1000,1000,1000,,,,,
45163594,1000,1000,1000,1000,,,,,
45166093,1000,1000,1000,1000,,,,,
45168592,1000,1000,1000,1000,,,,,
45171091,1000,1000,1000,1000,,,,,
45173590,1000,1000,1000,1000,,,,,
45176089,1000,1000,1000,1000,,,,,
45178588,1000,1000,1000,1000,,,,,
45181087,1000,1000,1000,1000,,,,,
45183586,1000,1000,1000,1000,,,,,
45186085,1000,1000,1000,1000,,,,,
45188584,1000,1000,1000,1000,,,,,
45191083,1000,1000,1000,1000,,,,,
45193582,1000,1000,1000,1000,,,,,
45196081,1000,1000,1000,1000,,,,,
45198580,1000,1000,1000,1000,,,,,
45201079,1000,1000,1000,1000,,,,,
45203578,1000,1000,1000,1000,,,,,
45206077,1000,1000,1000,1000,,,,,
45208576,1000,1000,1000,1000,,,,,
45211075,1000,1000,1000,1000,,,,,
45213574,1000,1000,1000,1000,,,,,
45216073,1000,1000,1000,1000,,,,,
45218572,1000,1000,1000,1000,,,,,
45221071,1000,1000,1000,1000,,,,,
45223570,1000,1000,1000,1000,,,,,
45226069,1000,1000,1000,1000,,,,,
45228568,1000,1000,1000,1000,,,,,
45231067,1000,1000,1000,1000,,,,,
45233566,1000,1000,1000,1000,,,,,
45236065,1000,1000,1000,1000,,,,,
45238564,1000,1000,1000,1000,,,,,
45241063,1000,1000,1000,1000,,,,,
45243562,1000,1000,1000,1000,,,,,
45246061,1000,1000,1000,1000,,,,,
45248560,1000,1000,1000,1000,,,,,
45251059,1000,1000,1000,1000,,,,,
45253558,1000,1000,1000,1000,,,,,
45256057,1000,1000,1000,1000,,,,,
45258556,1000,1000,1000,1000,,,,,
45261055,1000,1000,1000,1000,,,,,
45263554,1000,1000,1000,1000,,,,,
45266053,1000,1000,1000,1000,,,,,
45268552,1000,1000,1000,1000,,,,,
45271051,1000,1000,1000,1000,,,,,
45273550,1000,1000,1000,1000,,,,,
45276049,1000,1000,1000,1000,,,,,
45278548,1000,1000,1000,1000,,,,,
45281047,1000,1000,1000,1000,,,,,
45283546,1000,1000,1000,1000,,,,,
45286045,1000,1000,1000,1000,,,,,
45288544,1000,1000,1000,1000,,,,,
45291043,1000,1000,1000,1000,,,,,
45293542,1000,1000,1000,1000,,,,,
45296041,1000,1000,1000,1000,,,,,
45298540,1000,1000,1000,1000,,,,,
45301039,1000,1000,1000,1000,,,,,
45303538,1000,1000,1000,1000,,,,,
45306037,1000,1000,1000,1000,,,,,
45308536,1000,1000,1000,1000,,,,,
45311035,1000,1000,1000,1000,,,,,
45313534,1000,1000,1000,1000,,,,,
45316033,1000,1000,1000,1000,,,,,
45318532,1000,1000,1000,1000,,,,,
45321031,1000,1000,1000,1000,,,,,
45323530,1000,1000,1000,1000,,,,,
45326029,1000,1000,1000,1000,,,,,
45328528,1000,1000,1000,1000,,,,,
45331027,1000,1000,1000,1000,,,,,
45333526,1000,1000,1000,1000,,,,,
45336025,1000,1000,1000,1000,,,,,
45338524,1000,1000,1000,1000,,,,,
45341023,1000,1000,1000,1000,,,,,
45343522,1000,1000,1000,1000,,,,,
45346021,1000,1000,1000,1000,,,,,
45348520,1000,1000,1000,1000,,,,,
45351019,1000,1000,1000,1000,,,,,
45353518,1000,1000,1000,1000,,,,,
45356017,1000,1000,1000,1000,,,,,
45358516,1001,1001,1001,1001,,,,,
45361015,1002,1002,1002,1002,,,,,
45363514,1003,1003,1003,1003,,,,,
45366013,1003,1003,1003,1003,,,,,
45368512,1004,1004,1004,1004,,,,,
45371011,1005,1005,1005,1005,,,,,
45373510,1006,1006,1006,1006,,,,,
45376009,1006,1006,1006,1006,,,,,
45378508,1007,1007,1007,1007,,,,,
45381007,1008,1008,1008,1008,,,,,
45383506,1009,1009,1009,1009,,,,,
45386005,1009,1009,1009,1009,,,,,
45388504,1010,1010,1010,1010,,,,,
45391003,1011,1011,1011,1011,,,,,
45393502,1012,1012,1012,1012,,,,,
45396001,1012,1012,1012,1012,,,,,
45398500,1013,1013,1013,1013,,,,,
45400999,1014,1014,1014,1014,,,,,
45403498,1015,1015,1015,1015,,,,,
45405997,1015,1015,1015,1015,,,,,
45408496,1016,1016,1016,1016,,,,,
45410995,1017,1017,1017,1017,,,,,
45413494,1018,1018,1018,1018,,,,,
45415993,1018,1018,1018,1018,,,,,
45418492,1019,1019,1019,1019,,,,,
45420991,1020,1020,1020,1020,,,,,
45423490,1021,1021,1021,1021,,,,,
45425989,1021,1021,1021,1021,,,,,
45428488,1022,1022,1022,1022,,,,,
45430987,1023,1023,1023,1023,,,,,
45433486,1024,1024,1024,1024,,,,,
45435985,1024,1024,1024,1024,,,,,
45438484,1025,1025,1025,1025,,,,,
45440983,1026,1026,1026,1026,,,,,
45443482,1027,1027,1027,1027,,,,,
45445981,1027,1027,1027,1027,,,,,
45448480,1028,1028,1028,1028,,,,,
45450979,1029,1029,1029,1029,,,,,
45453478,1030,1030,1030,1030,,,,,
45455977,1030,1030,1030,1030,,,,,
45458476,1031,1031,1031,1031,,,,,
45460975,1032,1032,1032,1032,,,,,
45463474,1033,1033,1033,1033,,,,,
45465973,1033,1033,1033,1033,,,,,
45468472,1034,1034,1034,1034,,,,,
45470971,1035,1035,1035,1035,,,,,
45473470,1036,1036,1036,1036,,,,,
45475969,1036,1036,1036,1036,,,,,
45478468,1037,1037,1037,1037,,,,,
45480967,1038,1038,1038,1038,,,,,
45483466,1039,1039,1039,1039,,,,,
45485965,1039,1039,1039,1039,,,,,
45488464,1040,1040,1040,1040,,,,,
45490963,1041,1041,1041,1041,,,,,
45493462,1042,1042,1042,1042,,,,,
45495961,1042,1042,1042,1042,,,,,
45498460,1043,1043,1043,1043,,,,,
45500959,1044,1044,1044,1044,,,,,
45503458,1045,1045,1045,1045,,,,,
45505957,1045,1045,1045,1045,,,,,
45508456,1046,1046,1046,1046,,,,,
45510955,1047,1047,1047,1047,,,,,
45513454,1048,1048,1048,1048,,,,,
45515953,1048,1048,1048,1048,,,,,
45518452,1049,1049,1049,1049,,,,,
45520951,1050,1050,1050,1050,,,,,
45523450,1051,1051,1051,1051,,,,,
45525949,1051,1051,1051,1051,,,,,
45528448,1052,1052,1052,1052,,,,,
45530947,1053,1053,1053,1053,,,,,
45533446,1054,1054,1054,1054,,,,,
45535945,1054,1054,1054,1054,,,,,
45538444,1055,1055,1055,1055,,,,,
45540943,1056,1056,1056,1056,,,,,
45543442,1057,1057,1057,1057,,,,,
45545941,1057,1057,1057,1057,,,,,
45548440,1058,1058,1058,1058,,,,,
45550939,1059,1059,1059,1059,,,,,
45553438,1060,1060,1060,1060,,,,,
45555937,1060,1060,1060,1060,,,,,
45558436,1061,1061,1061,1061,,,,,
45560935,1062,1062,1062,1062,,,,,
45563434,1063,1063,1063,1063,,,,,
45565933,1063,1063,1063,1063,,,,,
45568432,1064,1064,1064,1064,,,,,
45570931,1065,1065,1065,1065,,,,,
45573430,1066,1066,1066,1066,,,,,
45575929,1066,1066,1066,1066,,,,,
45578428,1067,1067,1067,1067,,,,,
45580927,1068,1068,1068,1068,,,,,
45583426,1069,1069,1069,1069,,,,,
45585925,1069,1069,1069,1069,,,,,
45588424,1070,1070,1070,1070,,,,,
45590923,1071,1071,1071,1071,,,,,
45593422,1072,1072,1072,1072,,,,,
45595921,1072,1072,1072,1072,,,,,
45598420,1073,1073,1073,1073,,,,,
45600919,1074,1074,1074,1074,,,,,
45603418,1075,1075,1075,1075,,,,,
45605917,1075,1075,1075,1075,,,,,
45608416,1076,1076,1076,1076,,,,,
45610915,1077,1077,1077,1077,,,,,
45613414,1078,1078,1078,1078,,,,,
45615913,1078,1078,1078,1078,,,,,
45618412,1079,1079,1079,1079,,,,,
45620911,1080,1080,1080,1080,,,,,
45623410,1081,1081,1081,1081,,,,,
45625909,1081,1081,1081,1081,,,,,
45628408,1082,1082,1082,1082,,,,,
45630907,1083,1083,1083,1083,,,,,
45633406,1084,1084,1084,1084,,,,,
45635905,1084,1084,1084,1084,,,,,
45638404,1085,1085,1085,1085,,,,,
45640903,1086,1086,1086,1086,,,,,
45643402,1087,1087,1087,1087,,,,,
45645901,1087,1087,1087,1087,,,,,
45648400,1088,1088,1088,1088,,,,,
45650899,1089,1089,1089,1089,,,,,
45653398,1090,1090,1090,1090,,,,,
45655897,1090,1090,1090,1090,,,,,
45658396,1091,1091,1091,1091,,,,,
45660895,1092,1092,1092,1092,,,,,
45663394,1093,1093,1093,1093,,,,,
45665893,1093,1093,1093,1093,,,,,
45668392,1094,1094,1094,1094,,,,,
45670891,1095,1095,1095,1095,,,,,
45673390,1096,1096,1096,1096,,,,,
45675889,1096,1096,1096,1096,,,,,
45678388,1097,1097,1097,1097,,,,,
45680887,1098,1098,1098,1098,,,,,
45683386,1099,1099,1099,1099,,,,,
45685885,1099,1099,1099,1099,,,,,
45688384,1100,1100,1100,1100,,,,,
45690883,1101,1101,1101,1101,,,,,
45693382,1101,1101,1101,1101,,,,,
45695881,1102,1102,1102,1102,,,,,
45698380,1103,1103,1103,1103,,,,,
45700879,1104,1104,1104,1104,,,,,
45703378,1104,1104,1104,1104,,,,,
45705877,1105,1105,1105,1105,,,,,
45708376,1106,1106,1106,1106,,,,,
45710875,1107,1107,1107,1107,,,,,
45713374,1107,1107,1107,1107,,,,,
45715873,1108,1108,1108,1108,,,,,
45718372,1109,1109,1109,1109,,,,,
45720871,1110,1110,1110,1110,,,,,
45723370,1110,1110,1110,1110,,,,,
45725869,1111,1111,1111,1111,,,,,
45728368,1112,1112,1112,1112,,,,,
45730867,1113,1113,1113,1113,,,,,
45733366,1113,1113,1113,1113,,,,,
45735865,1114,1114,1114,1114,,,,,
45738364,1115,1115,1115,1115,,,,,
45740863,1116,1116,1116,1116,,,,,
45743362,1116,1116,1116,1116,,,,,
45745861,1117,1117,1117,1117,,,,,
45748360,1118,1118,1118,1118,,,,,
45750859,1119,1119,1119,1119,,,,,
45753358,1119,1119,1119,1119,,,,,
45755857,1120,1120,1120,1120,,,,,
45758356,1121,1121,1121,1121,,,,,
45760855,1122,1122,1122,1122,,,,,
45763354,1122,1122,1122,1122,,,,,
45765853,1123,1123,1123,1123,,,,,
45768352,1124,1124,1124,1124,,,,,
45770851,1125,1125,1125,1125,,,,,
45773350,1125,1125,1125,1125,,,,,
45775849,1126,1126,1126,1126,,,,,
45778348,1127,1127,1127,1127,,,,,
45780847,1128,1128,1128,1128,,,,,
45783346,1128,1128,1128,1128,,,,,
45785845,1129,1129,1129,1129,,,,,
45788344,1130,1130,1130,1130,,,,,
45790843,1131,1131,1131,1131,,,,,
45793342,1131,1131,1131,1131,,,,,
45795841,1132,1132,1132,1132,,,,,
45798340,1133,1133,1133,1133,,,,,
45800839,1134,1134,1134,1134,,,,,
45803338,1134,1134,1134,1134,,,,,
45805837,1135,1135,1135,1135,,,,,
45808336,1136,1136,1136,1136,,,,,
45810835,1137,1137,1137,1137,,,,,
45813334,1137,1137,1137,1137,,,,,
45815833,1138,1138,1138,1138,,,,,
45818332,1139,1139,1139,1139,,,,,
45820831,1140,1140,1140,1140,,,,,
45823330,1140,1140,1140,1140,,,,,
45825829,1141,1141,1141,1141,,,,,
45828328,1142,1142,1142,1142,,,,,
45830827,1143,1143,1143,1143,,,,,
45833326,1143,1143,1143,1143,,,,,
45835825,1144,1144,1144,1144,,,,,
45838324,1145,1145,1145,1145,,,,,
45840823,1146,1146,1146,1146,,,,,
45843322,1146,1146,1146,1146,,,,,
45845821,1147,1147,1147,1147,,,,,
45848320,1148,1148,1148,1148,,,,,
45850819,1149,1149,1149,1149,,,,,
45853318,1149,1149,1149,1149,,,,,
45855817,1150,1150,1150,1150,,,,,
45858316,1161,1154,1155,1161,,,,,
45860815,1169,1162,1163,1169,,,,,
45863314,1177,1170,1171,1177,,,,,
45865813,1184,1178,1179,1185,,,,,
45868312,1192,1186,1186,1192,,,,,
45870811,1199,1193,1194,1200,,,,,
45873310,1207,1201,1201,1207,,,,,
45875809,1214,1208,1208,1214,,,,,
45878308,1221,1215,1216,1221,,,,,
45880807,1228,1222,1223,1228,,,,,
45883306,1235,1229,1230,1235,,,,,
45885805,1242,1236,1236,1242,,,,,
45888304,1248,1243,1243,1249,,,,,
45890803,1255,1249,1250,1255,,,,,
45893302,1262,1256,1256,1262,,,,,
45895801,1268,1262,1263,1268,,,,,
45898300,1274,1269,1269,1275,,,,,
45900799,1281,1275,1276,1281,,,,,
45903298,1287,1281,1282,1287,,,,,
45905797,1293,1288,1288,1293,,,,,
45908296,1299,1294,1294,1299,,,,,
45910795,1305,1300,1300,1305,,,,,
45913294,1311,1306,1306,1311,,,,,
45915793,1317,1312,1312,1317,,,,,
45918292,1323,1318,1318,1323,,,,,
45920791,1329,1323,1324,1329,,,,,
45923290,1334,1329,1330,1335,,,,,
45925789,1340,1335,1335,1340,,,,,
45928288,1346,1340,1341,1346,,,,,
45930787,1351,1346,1347,1351,,,,,
45933286,1357,1352,1352,1357,,,,,
45935785,1362,1357,1358,1362,,,,,
45938284,1367,1363,1363,1368,,,,,
45940783,1373,1368,1368,1373,,,,,
45943282,1378,1373,1374,1378,,,,,
45945781,1383,1379,1379,1384,,,,,
45948280,1389,1384,1384,1389,,,,,
45950779,1394,1389,1389,1394,,,,,
45953278,1399,1394,1395,1399,,,,,
45955777,1404,1399,1400,1404,,,,,
45958276,1409,1404,1405,1409,,,,,
45960775,1414,1409,1410,1414,,,,,
45963274,1419,1414,1415,1419,,,,,
45965773,1424,1419,1420,1424,,,,,
45968272,1429,1424,1425,1429,,,,,
45970771,1434,1429,1430,1434,,,,,
45973270,1439,1434,1435,1439,,,,,
45975769,1443,1439,1439,1444,,,,,
45978268,1448,1444,1444,1448,,,,,
45980767,1453,1449,1449,1453,,,,,
45983266,1458,1453,1454,1458,,,,,
45985765,1462,1458,1458,1463,,,,,
45988264,1467,1463,1463,1467,,,,,
45990763,1471,1467,1468,1472,,,,,
45993262,1476,1472,1472,1476,,,,,
45995761,1481,1477,1477,1481,,,,,
45998260,1485,1481,1481,1485,,,,,
46000759,1490,1486,1486,1490,,,,,
46003258,1494,1490,1490,1494,,,,,
46005757,1499,1495,1495,1499,,,,,
46008256,1503,1499,1499,1503,,,,,
46010755,1507,1503,1504,1508,,,,,
46013254,1512,1508,1508,1512,,,,,
46015753,1516,1512,1512,1516,,,,,
46018252,1520,1517,1517,1521,,,,,
46020751,1525,1521,1521,1525,,,,,
46023250,1529,1525,1525,1529,,,,,
46025749,1533,1529,1530,1534,,,,,
46028248,1537,1534,1534,1538,,,,,
46030747,1542,1538,1538,1542,,,,,
46033246,1546,1542,1542,1546,,,,,
46035745,1550,1546,1546,1550,,,,,
46038244,1554,1550,1551,1555,,,,,
46040743,1558,1555,1555,1559,,,,,
46043242,1562,1559,1559,1563,,,,,
46045741,1566,1563,1563,1567,,,,,
46048240,1570,1567,1567,1571,,,,,
46050739,1574,1571,1571,1575,,,,,
46053238,1578,1575,1575,1579,,,,,
46055737,1582,1579,1579,1583,,,,,
46058236,1586,1583,1583,1587,,,,,
46060735,1590,1587,1587,1591,,,,,
46063234,1594,1591,1591,1595,,,,,
46065733,1598,1595,1595,1599,,,,,
46068232,1602,1599,1599,1603,,,,,
46070731,1606,1602,1603,1607,,,,,
46073230,1610,1606,1606,1610,,,,,
46075729,1614,1610,1610,1614,,,,,
46078228,1618,1614,1614,1618,,,,,
46080727,1622,1618,1618,1622,,,,,
46083226,1625,1622,1622,1626,,,,,
46085725,1629,1626,1626,1630,,,,,
46088224,1633,1629,1629,1633,,,,,
46090723,1637,1633,1633,1637,,,,,
46093222,1640,1637,1637,1641,,,,,
46095721,1644,1640,1641,1644,,,,,
46098220,1648,1644,1644,1648,,,,,
46100719,1652,1648,1648,1652,,,,,
46103218,1655,1652,1652,1656,,,,,
46105717,1659,1655,1655,1659,,,,,
46108216,1663,1659,1659,1663,,,,,
46110715,1666,1662,1663,1666,,,,,
46113214,1670,1666,1666,1670,,,,,
46115713,1673,1670,1670,1674,,,,,
46118212,1677,1673,1674,1677,,,,,
46120711,1681,1677,1677,1681,,,,,
46123210,1684,1680,1681,1684,,,,,
46125709,1688,1684,1684,1688,,,,,
46128208,1691,1688,1688,1691,,,,,
46130707,1695,1691,1691,1695,,,,,
46133206,1698,1695,1695,1698,,,,,
46135705,1702,1698,1698,1702,,,,,
46138204,1705,1702,1702,1705,,,,,
46140703,1709,1705,1705,1709,,,,,
46143202,1712,1709,1709,1712,,,,,
46145701,1716,1712,1712,1716,,,,,
46148200,1719,1715,1716,1719,,,,,
46150699,1722,1719,1719,1723,,,,,
46153198,1726,1722,1723,1726,,,,,
46155697,1729,1726,1726,1730,,,,,
46158196,1733,1729,1729,1733,,,,,
46160695,1736,1732,1733,1736,,,,,
46163194,1739,1736,1736,1740,,,,,
46165693,1743,1739,1739,1743,,,,,
46168192,1746,1742,1743,1746,,,,,
46170691,1749,1746,1746,1750,,,,,
46173190,1753,1749,1749,1753,,,,,
46175689,1756,1752,1753,1756,,,,,
46178188,1759,1756,1756,1760,,,,,
46180687,1763,1759,1759,1763,,,,,
46183186,1766,1762,1763,1766,,,,,
46185685,1769,1766,1766,1769,,,,,
46188184,1772,1769,1769,1773,,,,,
46190683,1776,1772,1772,1776,,,,,
46193182,1779,1775,1776,1779,,,,,
46195681,1782,1779,1779,1782,,,,,
46198180,1785,1782,1782,1786,,,,,
46200679,1789,1785,1785,1789,,,,,
46203178,1792,1788,1788,1792,,,,,
46205677,1795,1791,1792,1795,,,,,
46208176,1798,1794,1795,1798,,,,,
46210675,1801,1798,1798,1802,,,,,
46213174,1804,1801,1801,1805,,,,,
46215673,1808,1804,1804,1808,,,,,
46218172,1811,1807,1807,1811,,,,,
46220671,1814,1810,1810,1814,,,,,
46223170,1817,1813,1814,1817,,,,,
46225669,1820,1816,1817,1820,,,,,
46228168,1823,1820,1820,1823,,,,,
46230667,1826,1823,1823,1827,,,,,
46233166,1829,1826,1826,1830,,,,,
46235665,1832,1829,1829,1833,,,,,
46238164,1835,1832,1832,1836,,,,,
46240663,1839,1835,1835,1839,,,,,
46243162,1842,1838,1838,1842,,,,,
46245661,1845,1841,1841,1845,,,,,
46248160,1848,1844,1844,1848,,,,,
46250659,1851,1847,1847,1851,,,,,
46253158,1854,1850,1850,1854,,,,,
46255657,1857,1853,1853,1857,,,,,
46258156,1860,1856,1856,1860,,,,,
46260655,1863,1859,1859,1863,,,,,
46263154,1866,1862,1862,1866,,,,,
46266486,1869,1865,1865,1869,,,,,
46268985,1872,1868,1868,1872,,,,,
46271484,1875,1871,1871,1875,,,,,
46273983,1877,1874,1874,1878,,,,,
46276482,1880,1877,1877,1881,,,,,
46278981,1883,1880,1880,1884,,,,,
46281480,1886,1883,1883,1886,,,,,
46283979,1889,1886,1886,1889,,,,,
46286478,1892,1889,1889,1892,,,,,
46288977,1895,1892,1892,1895,,,,,
46291476,1898,1894,1895,1898,,,,,
46293975,1900,1896,1897,1900,,,,,
46296474,1899,1895,1896,1899,,,,,
46298973,1898,1894,1895,1898,,,,,
46301472,1897,1893,1894,1897,,,,,
46303971,1896,1892,1893,1896,,,,,
46306470,1895,1891,1892,1895,,,,,
46308969,1894,1891,1891,1894,,,,,
46311468,1893,1890,1890,1894,,,,,
46313967,1893,1889,1889,1893,,,,,
46316466,1892,1888,1889,1892,,,,,
46318965,1891,1888,1888,1892,,,,,
46321464,1891,1887,1887,1891,,,,,
46323963,1890,1887,1887,1891,,,,,
46326462,1890,1886,1886,1890,,,,,
46328961,1889,1886,1886,1890,,,,,
46331460,1889,1886,1886,1890,,,,,
46333959,1889,1886,1886,1889,,,,,
46336458,1889,1885,1886,1889,,,,,
46338957,1889,1885,1885,1889,,,,,
46341456,1889,1885,1886,1889,,,,,
46343955,1889,1886,1886,1890,,,,,
46346454,1889,1886,1886,1890,,,,,
46348953,1890,1886,1886,1890,,,,,
46351452,1890,1887,1887,1890,,,,,
46353951,1890,1887,1887,1891,,,,,
46356450,1891,1887,1887,1891,,,,,
46358949,1891,1888,1888,1891,,,,,
46361448,1891,1888,1888,1891,,,,,
46363947,1891,1888,1888,1891,,,,,
46366446,1891,1888,1888,1891,,,,,
46368945,1891,1888,1888,1891,,,,,
46371444,1890,1888,1888,1890,,,,,
46373943,1889,1887,1887,1890,,,,,
46376442,1889,1886,1886,1889,,,,,
46378941,1888,1885,1886,1888,,,,,
46381440,1887,1884,1884,1887,,,,,
46383939,1885,1883,1883,1885,,,,,
46386438,1884,1882,1882,1884,,,,,
46388937,1882,1880,1880,1882,,,,,
46391436,1880,1878,1879,1881,,,,,
46393935,1878,1877,1877,1879,,,,,
46396434,1876,1875,1875,1877,,,,,
46398933,1874,1872,1873,1874,,,,,
46401432,1872,1870,1870,1872,,,,,
46403931,1870,1868,1868,1870,,,,,
46406430,1867,1865,1866,1867,,,,,
46408929,1864,1863,1863,1865,,,,,
46411428,1862,1860,1861,1862,,,,,
46413927,1859,1858,1858,1859,,,,,
46416426,1856,1855,1855,1856,,,,,
46418925,1853,1852,1852,1853,,,,,
46421424,1850,1849,1849,1850,,,,,
46423923,1847,1846,1846,1847,,,,,
46426422,1844,1843,1843,1844,,,,,
46428921,1841,1840,1840,1841,,,,,
46431420,1838,1837,1837,1838,,,,,
46433919,1835,1833,1834,1835,,,,,
46436418,1831,1830,1830,1832,,,,,
46438917,1828,1827,1827,1828,,,,,
46441416,1825,1824,1824,1825,,,,,
46443915,1821,1820,1821,1822,,,,,
46446414,1818,1817,1817,1818,,,,,
46448913,1814,1813,1814,1815,,,,,
46451412,1811,1810,1810,1811,,,,,
46453911,1808,1807,1807,1808,,,,,
46456410,1804,1803,1803,1804,,,,,
46458909,1801,1800,1800,1801,,,,,
46461408,1797,1796,1796,1797,,,,,
46463907,1794,1793,1793,1794,,,,,
46466406,1790,1789,1790,1790,,,,,
46468905,1787,1786,1786,1787,,,,,
46471404,1783,1782,1783,1783,,,,,
46473903,1780,1779,1779,1780,,,,,
46476402,1776,1776,1776,1777,,,,,
46478901,1773,1772,1773,1773,,,,,
46481400,1770,1769,1769,1770,,,,,
46483899,1766,1766,1766,1766,,,,,
46486398,1763,1762,1763,1763,,,,,
46488897,1760,1759,1759,1760,,,,,
46491396,1756,1756,1756,1756,,,,,
