timestamp,TimeUS,C1,C2,C3,C4,C5,C6,C7,C8,C9,C10,C11,C12,C13,C14
1684060200.79999995,82628602,1000,1000,1000,1000,0,0,0,0,0,0,0,0,0,0
1684060200.89996004,82728562,1000,1000,1000,1000,0,0,0,0,0,0,0,0,0,0
1684060200.99991989,82828522,1000,1000,1000,1000,0,0,0,0,0,0,0,0,0,0
1684060201.09987998,82928482,1000,1000,1000,1000,0,0,0,0,0,0,0,0,0,0
1684060201.19983983,83028442,1000,1000,1000,1000,0,0,0,0,0,0,0,0,0,0
1684060201.29979992,83128402,1000,1000,1000,1000,0,0,0,0,0,0,0,0,0,0
1684060201.39976001,83228362,1000,1000,1000,1000,0,0,0,0,0,0,0,0,0,0
1684060201.49971986,83328322,1000,1000,1000,1000,0,0,0,0,0,0,0,0,0,0
1684060201.59967995,83428282,1000,1000,1000,1000,0,0,0,0,0,0,0,0,0,0
1684060201.69964004,83528242,1000,1000,1000,1000,0,0,0,0,0,0,0,0,0,0
1684060201.79959989,83628202,1000,1000,1000,1000,0,0,0,0,0,0,0,0,0,0
1684060201.89955997,83728162,1000,1000,1000,1000,0,0,0,0,0,0,0,0,0,0
1684060202.00035286,83828955,1000,1000,1000,1000,0,0,0,0,0,0,0,0,0,0
1684060202.10031295,83928915,1000,1000,1000,1000,0,0,0,0,0,0,0,0,0,0
1684060202.20027304,84028875,1000,1000,1000,1000,0,0,0,0,0,0,0,0,0,0
1684060202.30023289,84128835,1000,1000,1000,1000,0,0,0,0,0,0,0,0,0,0
1684060202.40019298,84228795,1000,1000,1000,1000,0,0,0,0,0,0,0,0,0,0
1684060202.50015283,84328755,1000,1000,1000,1000,0,0,0,0,0,0,0,0,0,0
1684060202.60011292,84428715,1000,1000,1000,1000,0,0,0,0,0,0,0,0,0,0
1684060202.70007300,84528675,1000,1000,1000,1000,0,0,0,0,0,0,0,0,0,0
1684060202.80003285,84628635,1007,1007,1007,1007,0,0,0,0,0,0,0,0,0,0
1684060202.89999294,84728595,1037,1037,1037,1037,0,0,0,0,0,0,0,0,0,0
1684060202.99995303,84828555,1067,1067,1067,1067,0,0,0,0,0,0,0,0,0,0
1684060203.09991288,84928515,1097,1097,1097,1097,0,0,0,0,0,0,0,0,0,0
1684060203.19987297,85028475,1127,1127,1127,1127,0,0,0,0,0,0,0,0,0,0
1684060203.29983282,85128435,1224,1212,1213,1225,0,0,0,0,0,0,0,0,0,0
1684060203.39979291,85228395,1450,1441,1442,1451,0,0,0,0,0,0,0,0,0,0
1684060203.49975300,85328355,1620,1612,1612,1620,0,0,0,0,0,0,0,0,0,0
1684060203.59971285,85428315,1761,1754,1754,1762,0,0,0,0,0,0,0,0,0,0
1684060203.69967294,85528275,1885,1878,1878,1886,0,0,0,0,0,0,0,0,0,0
1684060203.79963303,85628235,1894,1890,1890,1895,0,0,0,0,0,0,0,0,0,0
1684060203.89959288,85728195,1780,1778,1779,1780,0,0,0,0,0,0,0,0,0,0
1684060203.99955297,85828155,1670,1671,1672,1670,0,0,0,0,0,0,0,0,0,0
1684060204.10034585,85928948,1627,1630,1630,1627,0,0,0,0,0,0,0,0,0,0
1684060204.20030594,86028908,1628,1632,1632,1628,0,0,0,0,0,0,0,0,0,0
1684060204.30026603,86128868,1637,1639,1639,1637,0,0,0,0,0,0,0,0,0,0
1684060204.40022588,86228828,1638,1638,1638,1638,0,0,0,0,0,0,0,0,0,0
1684060204.50018597,86328788,1631,1630,1630,1631,0,0,0,0,0,0,0,0,0,0
1684060204.60014582,86428748,1624,1622,1622,1624,0,0,0,0,0,0,0,0,0,0
1684060204.70010591,86528708,1603,1602,1598,1607,0,0,0,0,0,0,0,0,0,0
1684060204.80006599,86628668,1592,1591,1581,1600,0,0,0,0,0,0,0,0,0,0
1684060204.90002584,86728628,1588,1586,1580,1594,0,0,0,0,0,0,0,0,0,0
1684060204.99998593,86828588,1587,1587,1585,1588,0,0,0,0,0,0,0,0,0,0
1684060205.09994602,86928548,1590,1590,1592,1588,0,0,0,0,0,0,0,0,0,0
1684060205.19990587,87028508,1595,1596,1599,1591,0,0,0,0,0,0,0,0,0,0
1684060205.29986596,87128468,1572,1573,1590,1555,0,0,0,0,0,0,0,0,0,0
1684060205.39982581,87228428,1562,1564,1580,1547,0,0,0,0,0,0,0,0,0,0
1684060205.49978590,87328388,1552,1552,1556,1550,0,0,0,0,0,0,0,0,0,0
1684060205.59974599,87428348,1543,1543,1537,1552,0,0,0,0,0,0,0,0,0,0
1684060205.69970584,87528308,1536,1536,1525,1548,0,0,0,0,0,0,0,0,0,0
1684060205.79966593,87628268,1530,1530,1519,1541,0,0,0,0,0,0,0,0,0,0
1684060205.89962602,87728228,1528,1527,1520,1534,0,0,0,0,0,0,0,0,0,0
1684060205.99958587,87828188,1528,1528,1525,1529,0,0,0,0,0,0,0,0,0,0
1684060206.10037899,87928981,1530,1529,1530,1528,0,0,0,0,0,0,0,0,0,0
1684060206.20033884,88028941,1534,1534,1537,1530,0,0,0,0,0,0,0,0,0,0
1684060206.30029893,88128901,1537,1537,1541,1532,0,0,0,0,0,0,0,0,0,0
1684060206.40025902,88228861,1541,1542,1545,1537,0,0,0,0,0,0,0,0,0,0
1684060206.50021887,88328821,1545,1545,1547,1542,0,0,0,0,0,0,0,0,0,0
1684060206.60017896,88428781,1547,1547,1547,1547,0,0,0,0,0,0,0,0,0,0
1684060206.70013881,88528741,1550,1550,1549,1551,0,0,0,0,0,0,0,0,0,0
1684060206.80009890,88628701,1552,1552,1550,1554,0,0,0,0,0,0,0,0,0,0
1684060206.90005898,88728661,1552,1552,1555,1559,0,0,0,0,0,0,0,0,0,0
1684060207.00001884,88828621,1554,1553,1559,1561,0,0,0,0,0,0,0,0,0,0
1684060207.09997892,88928581,1556,1556,1561,1562,0,0,0,0,0,0,0,0,0,0
1684060207.19993901,89028541,1558,1558,1563,1562,0,0,0,0,0,0,0,0,0,0
1684060207.29989886,89128501,1561,1562,1564,1564,0,0,0,0,0,0,0,0,0,0
1684060207.39985895,89228461,1564,1565,1566,1565,0,0,0,0,0,0,0,0,0,0
1684060207.49981904,89328421,1567,1567,1566,1565,0,0,0,0,0,0,0,0,0,0
1684060207.59977889,89428381,1569,1569,1567,1566,0,0,0,0,0,0,0,0,0,0
1684060207.69973898,89528341,1570,1570,1567,1567,0,0,0,0,0,0,0,0,0,0
1684060207.79969883,89628301,1571,1572,1568,1568,0,0,0,0,0,0,0,0,0,0
1684060207.89965892,89728261,1573,1573,1569,1570,0,0,0,0,0,0,0,0,0,0
1684060207.99961901,89828221,1573,1573,1569,1570,0,0,0,0,0,0,0,0,0,0
1684060208.09957886,89928181,1575,1574,1571,1572,0,0,0,0,0,0,0,0,0,0
1684060208.20037198,90028974,1575,1575,1573,1572,0,0,0,0,0,0,0,0,0,0
1684060208.30033183,90128934,1576,1576,1575,1574,0,0,0,0,0,0,0,0,0,0
1684060208.40029192,90228894,1576,1576,1576,1574,0,0,0,0,0,0,0,0,0,0
1684060208.50025201,90328854,1576,1576,1577,1575,0,0,0,0,0,0,0,0,0,0
1684060208.60021186,90428814,1575,1576,1577,1576,0,0,0,0,0,0,0,0,0,0
1684060208.70017195,90528774,1575,1575,1576,1576,0,0,0,0,0,0,0,0,0,0
1684060208.80013204,90628734,1575,1576,1577,1577,0,0,0,0,0,0,0,0,0,0
1684060208.90009189,90728694,1575,1575,1576,1577,0,0,0,0,0,0,0,0,0,0
1684060209.00005198,90828654,1576,1577,1577,1578,0,0,0,0,0,0,0,0,0,0
1684060209.10001183,90928614,1577,1576,1577,1577,0,0,0,0,0,0,0,0,0,0
1684060209.19997191,91028574,1577,1577,1577,1577,0,0,0,0,0,0,0,0,0,0
1684060209.29993200,91128534,1578,1577,1578,1577,0,0,0,0,0,0,0,0,0,0
1684060209.39989185,91228494,1578,1578,1578,1578,0,0,0,0,0,0,0,0,0,0
1684060209.49985194,91328454,1578,1577,1577,1577,0,0,0,0,0,0,0,0,0,0
1684060209.59981203,91428414,1578,1578,1578,1577,0,0,0,0,0,0,0,0,0,0
1684060209.69977188,91528374,1579,1578,1578,1578,0,0,0,0,0,0,0,0,0,0
1684060209.79973197,91628334,1578,1578,1578,1577,0,0,0,0,0,0,0,0,0,0
1684060209.89969182,91728294,1579,1579,1578,1579,0,0,0,0,0,0,0,0,0,0
1684060209.99965191,91828254,1579,1579,1578,1579,0,0,0,0,0,0,0,0,0,0
1684060210.09961200,91928214,1579,1579,1579,1579,0,0,0,0,0,0,0,0,0,0
1684060210.19957185,92028174,1579,1579,1579,1579,0,0,0,0,0,0,0,0,0,0
1684060210.30036497,92128967,1579,1580,1579,1579,0,0,0,0,0,0,0,0,0,0
1684060210.40032482,92228927,1579,1579,1579,1580,0,0,0,0,0,0,0,0,0,0
1684060210.50028491,92328887,1580,1580,1580,1580,0,0,0,0,0,0,0,0,0,0
1684060210.60024500,92428847,1579,1580,1580,1580,0,0,0,0,0,0,0,0,0,0
1684060210.70020485,92528807,1579,1579,1579,1580,0,0,0,0,0,0,0,0,0,0
1684060210.80016494,92628767,1579,1579,1580,1580,0,0,0,0,0,0,0,0,0,0
1684060210.90012503,92728727,1579,1579,1579,1579,0,0,0,0,0,0,0,0,0,0
1684060211.00008488,92828687,1579,1579,1579,1579,0,0,0,0,0,0,0,0,0,0
1684060211.10004497,92928647,1579,1579,1579,1579,0,0,0,0,0,0,0,0,0,0
1684060211.20000482,93028607,1579,1579,1579,1579,0,0,0,0,0,0,0,0,0,0
1684060211.29996490,93128567,1580,1580,1580,1580,0,0,0,0,0,0,0,0,0,0
1684060211.39992499,93228527,1580,1580,1580,1580,0,0,0,0,0,0,0,0,0,0
1684060211.49988484,93328487,1579,1579,1579,1579,0,0,0,0,0,0,0,0,0,0
1684060211.59984493,93428447,1580,1580,1579,1580,0,0,0,0,0,0,0,0,0,0
1684060211.69980502,93528407,1579,1579,1579,1580,0,0,0,0,0,0,0,0,0,0
1684060211.79976487,93628367,1579,1579,1579,1579,0,0,0,0,0,0,0,0,0,0
1684060211.89972496,93728327,1580,1580,1580,1580,0,0,0,0,0,0,0,0,0,0
1684060211.99968481,93828287,1580,1580,1580,1580,0,0,0,0,0,0,0,0,0,0
1684060212.09964490,93928247,1581,1581,1581,1581,0,0,0,0,0,0,0,0,0,0
1684060212.19960499,94028207,1581,1581,1581,1581,0,0,0,0,0,0,0,0,0,0
1684060212.29956484,94128167,1580,1580,1580,1580,0,0,0,0,0,0,0,0,0,0
1684060212.40035796,94228960,1580,1580,1580,1581,0,0,0,0,0,0,0,0,0,0
1684060212.50031781,94328920,1580,1580,1580,1580,0,0,0,0,0,0,0,0,0,0
1684060212.60027790,94428880,1581,1580,1580,1581,0,0,0,0,0,0,0,0,0,0
1684060212.70023799,94528840,1581,1580,1581,1581,0,0,0,0,0,0,0,0,0,0
1684060212.80019784,94628800,1581,1581,1581,1581,0,0,0,0,0,0,0,0,0,0
1684060212.90015793,94728760,1581,1581,1582,1581,0,0,0,0,0,0,0,0,0,0
1684060213.00011802,94828720,1581,1581,1581,1581,0,0,0,0,0,0,0,0,0,0
1684060213.10007787,94928680,1581,1582,1585,1578,0,0,0,0,0,0,0,0,0,0
1684060213.20003796,95028640,1580,1582,1588,1572,0,0,0,0,0,0,0,0,0,0
1684060213.29999781,95128600,1579,1582,1581,1574,0,0,0,0,0,0,0,0,0,0
1684060213.39995790,95228560,1578,1581,1573,1573,0,0,0,0,0,0,0,0,0,0
1684060213.49991798,95328520,1577,1580,1564,1570,0,0,0,0,0,0,0,0,0,0
1684060213.59987783,95428480,1577,1579,1559,1566,0,0,0,0,0,0,0,0,0,0
1684060213.69983792,95528440,1579,1579,1556,1561,0,0,0,0,0,0,0,0,0,0
1684060213.79979801,95628400,1580,1578,1555,1557,0,0,0,0,0,0,0,0,0,0
1684060213.89975786,95728360,1580,1577,1555,1554,0,0,0,0,0,0,0,0,0,0
1684060213.99971795,95828320,1579,1577,1555,1553,0,0,0,0,0,0,0,0,0,0
1684060214.09967804,95928280,1577,1577,1555,1553,0,0,0,0,0,0,0,0,0,0
1684060214.19963789,96028240,1576,1577,1555,1553,0,0,0,0,0,0,0,0,0,0
1684060214.29959798,96128200,1576,1577,1554,1554,0,0,0,0,0,0,0,0,0,0
1684060214.39955783,96228160,1574,1576,1553,1552,0,0,0,0,0,0,0,0,0,0
1684060214.50035095,96328953,1574,1576,1551,1551,0,0,0,0,0,0,0,0,0,0
1684060214.60031104,96428913,1576,1577,1550,1551,0,0,0,0,0,0,0,0,0,0
1684060214.70027089,96528873,1577,1578,1548,1549,0,0,0,0,0,0,0,0,0,0
1684060214.80023098,96628833,1580,1581,1547,1547,0,0,0,0,0,0,0,0,0,0
1684060214.90019083,96728793,1582,1584,1544,1544,0,0,0,0,0,0,0,0,0,0
1684060215.00015092,96828753,1585,1586,1541,1541,0,0,0,0,0,0,0,0,0,0
1684060215.10011101,96928713,1589,1589,1538,1538,0,0,0,0,0,0,0,0,0,0
1684060215.20007086,97028673,1592,1592,1536,1536,0,0,0,0,0,0,0,0,0,0
1684060215.30003095,97128633,1594,1594,1535,1535,0,0,0,0,0,0,0,0,0,0
1684060215.39999104,97228593,1595,1595,1535,1536,0,0,0,0,0,0,0,0,0,0
1684060215.49995089,97328553,1595,1594,1535,1537,0,0,0,0,0,0,0,0,0,0
1684060215.59991097,97428513,1594,1594,1538,1541,0,0,0,0,0,0,0,0,0,0
1684060215.69987082,97528473,1591,1590,1542,1545,0,0,0,0,0,0,0,0,0,0
1684060215.79983091,97628433,1586,1583,1549,1551,0,0,0,0,0,0,0,0,0,0
1684060215.89979100,97728393,1579,1575,1559,1562,0,0,0,0,0,0,0,0,0,0
1684060215.99975085,97828353,1569,1564,1569,1572,0,0,0,0,0,0,0,0,0,0
1684060216.09971094,97928313,1558,1553,1583,1583,0,0,0,0,0,0,0,0,0,0
1684060216.19967103,98028273,1546,1543,1595,1595,0,0,0,0,0,0,0,0,0,0
1684060216.29963088,98128233,1537,1536,1605,1605,0,0,0,0,0,0,0,0,0,0
1684060216.39959097,98228193,1531,1532,1612,1612,0,0,0,0,0,0,0,0,0,0
1684060216.50038385,98328986,1528,1530,1616,1615,0,0,0,0,0,0,0,0,0,0
1684060216.60034394,98428946,1530,1532,1616,1615,0,0,0,0,0,0,0,0,0,0
1684060216.70030403,98528906,1534,1537,1612,1611,0,0,0,0,0,0,0,0,0,0
1684060216.80026388,98628866,1542,1544,1606,1606,0,0,0,0,0,0,0,0,0,0
1684060216.90022397,98728826,1551,1551,1599,1599,0,0,0,0,0,0,0,0,0,0
1684060217.00018382,98828786,1561,1561,1592,1592,0,0,0,0,0,0,0,0,0,0
1684060217.10014391,98928746,1569,1568,1584,1583,0,0,0,0,0,0,0,0,0,0
1684060217.20010400,99028706,1575,1575,1576,1576,0,0,0,0,0,0,0,0,0,0
1684060217.30006385,99128666,1582,1581,1572,1572,0,0,0,0,0,0,0,0,0,0
1684060217.40002394,99228626,1585,1585,1568,1568,0,0,0,0,0,0,0,0,0,0
1684060217.49998403,99328586,1588,1586,1566,1566,0,0,0,0,0,0,0,0,0,0
1684060217.59994388,99428546,1588,1587,1566,1566,0,0,0,0,0,0,0,0,0,0
1684060217.69990396,99528506,1586,1585,1567,1567,0,0,0,0,0,0,0,0,0,0
1684060217.79986382,99628466,1585,1584,1569,1570,0,0,0,0,0,0,0,0,0,0
1684060217.89982390,99728426,1582,1581,1572,1572,0,0,0,0,0,0,0,0,0,0
1684060217.99978399,99828386,1579,1579,1575,1575,0,0,0,0,0,0,0,0,0,0
1684060218.09974384,99928346,1576,1577,1578,1578,0,0,0,0,0,0,0,0,0,0
1684060218.19970393,100028306,1574,1575,1581,1581,0,0,0,0,0,0,0,0,0,0
1684060218.29966402,100128266,1573,1573,1583,1582,0,0,0,0,0,0,0,0,0,0
1684060218.39962387,100228226,1572,1573,1584,1583,0,0,0,0,0,0,0,0,0,0
1684060218.49958396,100328186,1572,1572,1583,1583,0,0,0,0,0,0,0,0,0,0
1684060218.60037684,100428979,1573,1573,1584,1583,0,0,0,0,0,0,0,0,0,0
1684060218.70033693,100528939,1511,1512,1595,1597,0,0,0,0,0,0,0,0,0,0
1684060218.80029702,100628899,1532,1535,1598,1600,0,0,0,0,0,0,0,0,0,0
1684060218.90025687,100728859,1551,1554,1594,1593,0,0,0,0,0,0,0,0,0,0
1684060219.00021696,100828819,1570,1572,1588,1586,0,0,0,0,0,0,0,0,0,0
1684060219.10017681,100928779,1585,1585,1579,1578,0,0,0,0,0,0,0,0,0,0
1684060219.20013690,101028739,1597,1596,1573,1571,0,0,0,0,0,0,0,0,0,0
1684060219.30009699,101128699,1605,1603,1569,1568,0,0,0,0,0,0,0,0,0,0
1684060219.40005684,101228659,1607,1604,1565,1566,0,0,0,0,0,0,0,0,0,0
1684060219.50001693,101328619,1608,1605,1566,1567,0,0,0,0,0,0,0,0,0,0
1684060219.59997702,101428579,1605,1602,1567,1568,0,0,0,0,0,0,0,0,0,0
1684060219.69993687,101528539,1601,1600,1569,1570,0,0,0,0,0,0,0,0,0,0
1684060219.79989696,101628499,1596,1596,1572,1572,0,0,0,0,0,0,0,0,0,0
1684060219.89985681,101728459,1594,1594,1577,1577,0,0,0,0,0,0,0,0,0,0
1684060219.99981689,101828419,1588,1589,1578,1578,0,0,0,0,0,0,0,0,0,0
1684060220.09977698,101928379,1583,1585,1580,1581,0,0,0,0,0,0,0,0,0,0
1684060220.19973683,102028339,1580,1581,1583,1583,0,0,0,0,0,0,0,0,0,0
1684060220.29969692,102128299,1577,1577,1585,1584,0,0,0,0,0,0,0,0,0,0
1684060220.39965701,102228259,1575,1575,1587,1586,0,0,0,0,0,0,0,0,0,0
1684060220.49961686,102328219,1573,1573,1587,1587,0,0,0,0,0,0,0,0,0,0
1684060220.59957695,102428179,1572,1573,1587,1587,0,0,0,0,0,0,0,0,0,0
1684060220.70036983,102528972,1572,1572,1587,1587,0,0,0,0,0,0,0,0,0,0
1684060220.80032992,102628932,1574,1574,1586,1586,0,0,0,0,0,0,0,0,0,0
1684060220.90029001,102728892,1575,1576,1584,1585,0,0,0,0,0,0,0,0,0,0
1684060221.00024986,102828852,1577,1577,1582,1582,0,0,0,0,0,0,0,0,0,0
1684060221.10020995,102928812,1578,1579,1584,1576,0,0,0,0,0,0,0,0,0,0
1684060221.20017004,103028772,1580,1582,1585,1570,0,0,0,0,0,0,0,0,0,0
1684060221.30012989,103128732,1582,1583,1577,1568,0,0,0,0,0,0,0,0,0,0
1684060221.40008998,103228692,1582,1584,1567,1567,0,0,0,0,0,0,0,0,0,0
1684060221.50004983,103328652,1581,1582,1558,1563,0,0,0,0,0,0,0,0,0,0
1684060221.60000992,103428612,1582,1582,1552,1559,0,0,0,0,0,0,0,0,0,0
1684060221.69997001,103528572,1581,1581,1549,1554,0,0,0,0,0,0,0,0,0,0
1684060221.79992986,103628532,1580,1580,1549,1551,0,0,0,0,0,0,0,0,0,0
1684060221.89988995,103728492,1580,1580,1551,1550,0,0,0,0,0,0,0,0,0,0
1684060221.99985003,103828452,1580,1580,1554,1551,0,0,0,0,0,0,0,0,0,0
1684060222.09980989,103928412,1580,1580,1555,1553,0,0,0,0,0,0,0,0,0,0
1684060222.19976997,104028372,1577,1579,1555,1553,0,0,0,0,0,0,0,0,0,0
1684060222.29972982,104128332,1576,1577,1554,1553,0,0,0,0,0,0,0,0,0,0
1684060222.39968991,104228292,1576,1577,1554,1554,0,0,0,0,0,0,0,0,0,0
1684060222.49965000,104328252,1575,1576,1551,1552,0,0,0,0,0,0,0,0,0,0
1684060222.59960985,104428212,1576,1578,1551,1551,0,0,0,0,0,0,0,0,0,0
1684060222.69956994,104528172,1577,1578,1550,1549,0,0,0,0,0,0,0,0,0,0
1684060222.80036283,104628965,1580,1581,1548,1548,0,0,0,0,0,0,0,0,0,0
1684060222.90032291,104728925,1582,1583,1546,1546,0,0,0,0,0,0,0,0,0,0
1684060223.00028300,104828885,1584,1585,1544,1544,0,0,0,0,0,0,0,0,0,0
1684060223.10024285,104928845,1586,1587,1542,1542,0,0,0,0,0,0,0,0,0,0
1684060223.20020294,105028805,1588,1589,1541,1542,0,0,0,0,0,0,0,0,0,0
1684060223.30016303,105128765,1589,1590,1539,1541,0,0,0,0,0,0,0,0,0,0
1684060223.40012288,105228725,1590,1591,1540,1541,0,0,0,0,0,0,0,0,0,0
1684060223.50008297,105328685,1590,1590,1541,1542,0,0,0,0,0,0,0,0,0,0
1684060223.60004282,105428645,1589,1589,1544,1546,0,0,0,0,0,0,0,0,0,0
1684060223.70000291,105528605,1586,1584,1548,1551,0,0,0,0,0,0,0,0,0,0
1684060223.79996300,105628565,1581,1578,1555,1558,0,0,0,0,0,0,0,0,0,0
1684060223.89992285,105728525,1575,1571,1565,1568,0,0,0,0,0,0,0,0,0,0
1684060223.99988294,105828485,1566,1562,1576,1578,0,0,0,0,0,0,0,0,0,0
1684060224.09984303,105928445,1555,1552,1587,1588,0,0,0,0,0,0,0,0,0,0
1684060224.19980288,106028405,1546,1545,1597,1598,0,0,0,0,0,0,0,0,0,0
1684060224.29976296,106128365,1539,1539,1605,1605,0,0,0,0,0,0,0,0,0,0
1684060224.39972281,106228325,1536,1537,1610,1610,0,0,0,0,0,0,0,0,0,0
1684060224.49968290,106328285,1535,1536,1611,1610,0,0,0,0,0,0,0,0,0,0
1684060224.59964299,106428245,1536,1539,1610,1609,0,0,0,0,0,0,0,0,0,0
1684060224.69960284,106528205,1542,1543,1606,1606,0,0,0,0,0,0,0,0,0,0
1684060224.79956293,106628165,1549,1550,1601,1601,0,0,0,0,0,0,0,0,0,0
1684060224.90035582,106728958,1557,1557,1595,1594,0,0,0,0,0,0,0,0,0,0
1684060225.00031590,106828918,1564,1564,1588,1586,0,0,0,0,0,0,0,0,0,0
1684060225.10027599,106928878,1571,1571,1581,1580,0,0,0,0,0,0,0,0,0,0
1684060225.20023584,107028838,1577,1577,1575,1575,0,0,0,0,0,0,0,0,0,0
1684060225.30019593,107128798,1582,1581,1571,1572,0,0,0,0,0,0,0,0,0,0
1684060225.40015602,107228758,1586,1585,1569,1570,0,0,0,0,0,0,0,0,0,0
1684060225.50011587,107328718,1588,1587,1568,1568,0,0,0,0,0,0,0,0,0,0
1684060225.60007596,107428678,1587,1586,1568,1567,0,0,0,0,0,0,0,0,0,0
1684060225.70003581,107528638,1586,1585,1569,1569,0,0,0,0,0,0,0,0,0,0
1684060225.79999590,107628598,1585,1585,1573,1572,0,0,0,0,0,0,0,0,0,0
1684060225.89995599,107728558,1582,1582,1574,1574,0,0,0,0,0,0,0,0,0,0
1684060225.99991584,107828518,1580,1580,1577,1577,0,0,0,0,0,0,0,0,0,0
1684060226.09987593,107928478,1577,1578,1580,1580,0,0,0,0,0,0,0,0,0,0
1684060226.19983602,108028438,1575,1576,1581,1581,0,0,0,0,0,0,0,0,0,0
1684060226.29979587,108128398,1574,1574,1583,1583,0,0,0,0,0,0,0,0,0,0
1684060226.39975595,108228358,1573,1574,1584,1583,0,0,0,0,0,0,0,0,0,0
1684060226.49971604,108328318,1573,1574,1584,1584,0,0,0,0,0,0,0,0,0,0
1684060226.59967589,108428278,1574,1575,1584,1584,0,0,0,0,0,0,0,0,0,0
1684060226.69963598,108528238,1574,1575,1583,1583,0,0,0,0,0,0,0,0,0,0
1684060226.79959583,108628198,1577,1577,1583,1582,0,0,0,0,0,0,0,0,0,0
1684060226.89955592,108728158,1578,1577,1581,1581,0,0,0,0,0,0,0,0,0,0
1684060227.00034881,108828951,1579,1579,1580,1580,0,0,0,0,0,0,0,0,0,0
1684060227.10030890,108928911,1580,1580,1579,1579,0,0,0,0,0,0,0,0,0,0
1684060227.20026898,109028871,1580,1580,1578,1578,0,0,0,0,0,0,0,0,0,0
1684060227.30022883,109128831,1580,1580,1576,1576,0,0,0,0,0,0,0,0,0,0
1684060227.40018892,109228791,1581,1581,1577,1577,0,0,0,0,0,0,0,0,0,0
1684060227.50014901,109328751,1582,1582,1578,1578,0,0,0,0,0,0,0,0,0,0
1684060227.60010886,109428711,1582,1582,1578,1578,0,0,0,0,0,0,0,0,0,0
1684060227.70006895,109528671,1581,1581,1579,1578,0,0,0,0,0,0,0,0,0,0
1684060227.80002904,109628631,1581,1581,1579,1579,0,0,0,0,0,0,0,0,0,0
1684060227.89998889,109728591,1581,1582,1580,1580,0,0,0,0,0,0,0,0,0,0
1684060227.99994898,109828551,1581,1581,1581,1581,0,0,0,0,0,0,0,0,0,0
1684060228.09990883,109928511,1581,1581,1582,1582,0,0,0,0,0,0,0,0,0,0
1684060228.19986892,110028471,1580,1580,1580,1581,0,0,0,0,0,0,0,0,0,0
1684060228.29982901,110128431,1579,1579,1580,1580,0,0,0,0,0,0,0,0,0,0
1684060228.39978886,110228391,1580,1580,1581,1581,0,0,0,0,0,0,0,0,0,0
1684060228.49974895,110328351,1580,1579,1581,1581,0,0,0,0,0,0,0,0,0,0
1684060228.59970903,110428311,1580,1580,1582,1581,0,0,0,0,0,0,0,0,0,0
1684060228.69966888,110528271,1580,1580,1581,1581,0,0,0,0,0,0,0,0,0,0
1684060228.79962897,110628231,1580,1580,1581,1580,0,0,0,0,0,0,0,0,0,0
1684060228.89958882,110728191,1580,1581,1582,1581,0,0,0,0,0,0,0,0,0,0
1684060229.00038195,110828984,1581,1581,1581,1581,0,0,0,0,0,0,0,0,0,0
1684060229.10034204,110928944,1582,1581,1581,1581,0,0,0,0,0,0,0,0,0,0
1684060229.20030189,111028904,1582,1582,1582,1582,0,0,0,0,0,0,0,0,0,0
1684060229.30026197,111128864,1582,1582,1581,1581,0,0,0,0,0,0,0,0,0,0
1684060229.40022182,111228824,1582,1584,1588,1574,0,0,0,0,0,0,0,0,0,0
1684060229.50018191,111328784,1581,1583,1584,1572,0,0,0,0,0,0,0,0,0,0
1684060229.60014200,111428744,1579,1582,1574,1572,0,0,0,0,0,0,0,0,0,0
1684060229.70010185,111528704,1578,1580,1566,1570,0,0,0,0,0,0,0,0,0,0
1684060229.80006194,111628664,1578,1580,1560,1567,0,0,0,0,0,0,0,0,0,0
1684060229.90002203,111728624,1579,1580,1556,1562,0,0,0,0,0,0,0,0,0,0
1684060229.99998188,111828584,1579,1579,1555,1558,0,0,0,0,0,0,0,0,0,0
1684060230.09994197,111928544,1580,1578,1554,1555,0,0,0,0,0,0,0,0,0,0
1684060230.19990182,112028504,1580,1579,1556,1554,0,0,0,0,0,0,0,0,0,0
1684060230.29986191,112128464,1579,1579,1556,1554,0,0,0,0,0,0,0,0,0,0
1684060230.39982200,112228424,1578,1578,1556,1554,0,0,0,0,0,0,0,0,0,0
1684060230.49978185,112328384,1576,1577,1555,1554,0,0,0,0,0,0,0,0,0,0
1684060230.59974194,112428344,1575,1577,1554,1554,0,0,0,0,0,0,0,0,0,0
1684060230.69970202,112528304,1574,1576,1552,1553,0,0,0,0,0,0,0,0,0,0
1684060230.79966187,112628264,1576,1577,1552,1552,0,0,0,0,0,0,0,0,0,0
1684060230.89962196,112728224,1576,1578,1550,1551,0,0,0,0,0,0,0,0,0,0
1684060230.99958181,112828184,1578,1579,1548,1548,0,0,0,0,0,0,0,0,0,0
1684060231.10037494,112928977,1580,1580,1546,1546,0,0,0,0,0,0,0,0,0,0
1684060231.20033503,113028937,1582,1584,1544,1544,0,0,0,0,0,0,0,0,0,0
1684060231.30029488,113128897,1585,1585,1541,1541,0,0,0,0,0,0,0,0,0,0
1684060231.40025496,113228857,1588,1588,1540,1540,0,0,0,0,0,0,0,0,0,0
1684060231.50021482,113328817,1590,1590,1538,1539,0,0,0,0,0,0,0,0,0,0
1684060231.60017490,113428777,1592,1592,1537,1539,0,0,0,0,0,0,0,0,0,0
1684060231.70013499,113528737,1592,1593,1537,1540,0,0,0,0,0,0,0,0,0,0
1684060231.80009484,113628697,1593,1593,1539,1542,0,0,0,0,0,0,0,0,0,0
1684060231.90005493,113728657,1590,1589,1541,1544,0,0,0,0,0,0,0,0,0,0
1684060232.00001502,113828617,1587,1585,1547,1550,0,0,0,0,0,0,0,0,0,0
1684060232.09997487,113928577,1582,1578,1556,1558,0,0,0,0,0,0,0,0,0,0
1684060232.19993496,114028537,1575,1571,1566,1569,0,0,0,0,0,0,0,0,0,0
1684060232.29989481,114128497,1564,1560,1577,1579,0,0,0,0,0,0,0,0,0,0
1684060232.39985490,114228457,1555,1551,1589,1590,0,0,0,0,0,0,0,0,0,0
1684060232.49981499,114328417,1545,1543,1598,1598,0,0,0,0,0,0,0,0,0,0
1684060232.59977484,114428377,1538,1538,1606,1606,0,0,0,0,0,0,0,0,0,0
1684060232.69973493,114528337,1535,1535,1612,1610,0,0,0,0,0,0,0,0,0,0
1684060232.79969501,114628297,1534,1536,1613,1612,0,0,0,0,0,0,0,0,0,0
1684060232.89965487,114728257,1535,1538,1611,1610,0,0,0,0,0,0,0,0,0,0
1684060232.99961495,114828217,1540,1542,1606,1607,0,0,0,0,0,0,0,0,0,0
1684060233.09957504,114928177,1548,1550,1602,1602,0,0,0,0,0,0,0,0,0,0
1684060233.20036793,115028970,1555,1555,1594,1593,0,0,0,0,0,0,0,0,0,0
1684060233.30032802,115128930,1563,1563,1587,1586,0,0,0,0,0,0,0,0,0,0
1684060233.40028787,115228890,1570,1570,1580,1580,0,0,0,0,0,0,0,0,0,0
1684060233.50024796,115328850,1577,1576,1575,1575,0,0,0,0,0,0,0,0,0,0
1684060233.60020781,115428810,1583,1582,1572,1571,0,0,0,0,0,0,0,0,0,0
1684060233.70016789,115528770,1586,1584,1568,1568,0,0,0,0,0,0,0,0,0,0
1684060233.80012798,115628730,1587,1586,1567,1567,0,0,0,0,0,0,0,0,0,0
1684060233.90008783,115728690,1587,1586,1567,1567,0,0,0,0,0,0,0,0,0,0
1684060234.00004792,115828650,1586,1586,1569,1569,0,0,0,0,0,0,0,0,0,0
1684060234.10000801,115928610,1585,1584,1571,1571,0,0,0,0,0,0,0,0,0,0
1684060234.19996786,116028570,1582,1582,1574,1574,0,0,0,0,0,0,0,0,0,0
1684060234.29992795,116128530,1580,1580,1577,1577,0,0,0,0,0,0,0,0,0,0
1684060234.39988804,116228490,1577,1578,1579,1579,0,0,0,0,0,0,0,0,0,0
1684060234.49984789,116328450,1575,1575,1581,1581,0,0,0,0,0,0,0,0,0,0
1684060234.59980798,116428410,1574,1575,1583,1583,0,0,0,0,0,0,0,0,0,0
1684060234.69976783,116528370,1573,1574,1584,1584,0,0,0,0,0,0,0,0,0,0
1684060234.79972792,116628330,1572,1573,1583,1583,0,0,0,0,0,0,0,0,0,0
1684060234.89968801,116728290,1572,1573,1583,1582,0,0,0,0,0,0,0,0,0,0
1684060234.99964786,116828250,1574,1575,1583,1583,0,0,0,0,0,0,0,0,0,0
1684060235.09960794,116928210,1575,1576,1582,1582,0,0,0,0,0,0,0,0,0,0
1684060235.19956803,117028170,1577,1577,1580,1581,0,0,0,0,0,0,0,0,0,0
1684060235.30036092,117128963,1578,1578,1580,1580,0,0,0,0,0,0,0,0,0,0
1684060235.40032101,117228923,1579,1579,1579,1578,0,0,0,0,0,0,0,0,0,0
1684060235.50028086,117328883,1580,1580,1577,1577,0,0,0,0,0,0,0,0,0,0
1684060235.60024095,117428843,1581,1581,1578,1578,0,0,0,0,0,0,0,0,0,0
1684060235.70020103,117528803,1581,1581,1577,1577,0,0,0,0,0,0,0,0,0,0
1684060235.80016088,117628763,1581,1581,1577,1577,0,0,0,0,0,0,0,0,0,0
1684060235.90012097,117728723,1582,1581,1578,1578,0,0,0,0,0,0,0,0,0,0
1684060236.00008082,117828683,1581,1581,1579,1578,0,0,0,0,0,0,0,0,0,0
1684060236.10004091,117928643,1581,1582,1579,1580,0,0,0,0,0,0,0,0,0,0
1684060236.20000100,118028603,1580,1581,1580,1579,0,0,0,0,0,0,0,0,0,0
1684060236.29996085,118128563,1581,1581,1581,1581,0,0,0,0,0,0,0,0,0,0
1684060236.39992094,118228523,1581,1581,1582,1582,0,0,0,0,0,0,0,0,0,0
1684060236.49988103,118328483,1580,1580,1582,1581,0,0,0,0,0,0,0,0,0,0
1684060236.59984088,118428443,1580,1580,1582,1581,0,0,0,0,0,0,0,0,0,0
1684060236.69980097,118528403,1581,1581,1582,1582,0,0,0,0,0,0,0,0,0,0
1684060236.79976082,118628363,1580,1580,1581,1582,0,0,0,0,0,0,0,0,0,0
1684060236.89972091,118728323,1579,1579,1581,1581,0,0,0,0,0,0,0,0,0,0
1684060236.99968100,118828283,1580,1581,1581,1582,0,0,0,0,0,0,0,0,0,0
1684060237.09964085,118928243,1580,1580,1581,1581,0,0,0,0,0,0,0,0,0,0
1684060237.19960093,119028203,1580,1580,1581,1580,0,0,0,0,0,0,0,0,0,0
1684060237.29956102,119128163,1581,1581,1584,1577,0,0,0,0,0,0,0,0,0,0
1684060237.40035391,119228956,1581,1581,1587,1572,0,0,0,0,0,0,0,0,0,0
1684060237.50031400,119328916,1579,1579,1581,1573,0,0,0,0,0,0,0,0,0,0
1684060237.60027385,119428876,1577,1576,1574,1575,0,0,0,0,0,0,0,0,0,0
1684060237.70023394,119528836,1574,1573,1569,1574,0,0,0,0,0,0,0,0,0,0
1684060237.80019403,119628796,1571,1571,1566,1573,0,0,0,0,0,0,0,0,0,0
1684060237.90015388,119728756,1569,1568,1564,1570,0,0,0,0,0,0,0,0,0,0
1684060238.00011396,119828716,1567,1567,1565,1567,0,0,0,0,0,0,0,0,0,0
1684060238.10007381,119928676,1567,1567,1567,1566,0,0,0,0,0,0,0,0,0,0
1684060238.20003390,120028636,1566,1567,1568,1565,0,0,0,0,0,0,0,0,0,0
1684060238.29999399,120128596,1565,1566,1568,1565,0,0,0,0,0,0,0,0,0,0
1684060238.39995384,120228556,1565,1565,1567,1565,0,0,0,0,0,0,0,0,0,0
1684060238.49991393,120328516,1565,1564,1566,1566,0,0,0,0,0,0,0,0,0,0
1684060238.59987402,120428476,1563,1563,1564,1564,0,0,0,0,0,0,0,0,0,0
1684060238.69983387,120528436,1562,1562,1563,1564,0,0,0,0,0,0,0,0,0,0
1684060238.79979396,120628396,1562,1562,1563,1564,0,0,0,0,0,0,0,0,0,0
1684060238.89975381,120728356,1562,1562,1562,1562,0,0,0,0,0,0,0,0,0,0
1684060238.99971390,120828316,1562,1561,1562,1561,0,0,0,0,0,0,0,0,0,0
1684060239.09967399,120928276,1561,1561,1562,1561,0,0,0,0,0,0,0,0,0,0
1684060239.19963384,121028236,1560,1561,1561,1560,0,0,0,0,0,0,0,0,0,0
1684060239.29959393,121128196,1559,1559,1559,1559,0,0,0,0,0,0,0,0,0,0
1684060239.39955401,121228156,1558,1559,1559,1558,0,0,0,0,0,0,0,0,0,0
1684060239.50034690,121328949,1558,1558,1558,1557,0,0,0,0,0,0,0,0,0,0
1684060239.60030699,121428909,1557,1557,1558,1556,0,0,0,0,0,0,0,0,0,0
1684060239.70026684,121528869,1558,1557,1557,1557,0,0,0,0,0,0,0,0,0,0
1684060239.80022693,121628829,1557,1557,1558,1556,0,0,0,0,0,0,0,0,0,0
1684060239.90018702,121728789,1558,1558,1559,1557,0,0,0,0,0,0,0,0,0,0
1684060240.00014687,121828749,1559,1558,1560,1557,0,0,0,0,0,0,0,0,0,0
1684060240.10010695,121928709,1559,1558,1560,1558,0,0,0,0,0,0,0,0,0,0
1684060240.20006704,122028669,1560,1559,1559,1561,0,0,0,0,0,0,0,0,0,0
1684060240.30002689,122128629,1560,1561,1558,1564,0,0,0,0,0,0,0,0,0,0
1684060240.39998698,122228589,1560,1561,1558,1564,0,0,0,0,0,0,0,0,0,0
1684060240.49994683,122328549,1561,1563,1559,1565,0,0,0,0,0,0,0,0,0,0
1684060240.59990692,122428509,1562,1563,1561,1564,0,0,0,0,0,0,0,0,0,0
1684060240.69986701,122528469,1563,1563,1563,1562,0,0,0,0,0,0,0,0,0,0
1684060240.79982686,122628429,1562,1562,1564,1560,0,0,0,0,0,0,0,0,0,0
1684060240.89978695,122728389,1561,1561,1562,1558,0,0,0,0,0,0,0,0,0,0
1684060240.99974704,122828349,1561,1561,1559,1562,0,0,0,0,0,0,0,0,0,0
1684060241.09970689,122928309,1557,1556,1553,1559,0,0,0,0,0,0,0,0,0,0
1684060241.19966698,123028269,1553,1553,1550,1554,0,0,0,0,0,0,0,0,0,0
1684060241.29962683,123128229,1548,1548,1546,1548,0,0,0,0,0,0,0,0,0,0
1684060241.39958692,123228189,1541,1541,1540,1539,0,0,0,0,0,0,0,0,0,0
1684060241.50038004,123328982,1534,1534,1534,1532,0,0,0,0,0,0,0,0,0,0
1684060241.60033989,123428942,1526,1526,1525,1524,0,0,0,0,0,0,0,0,0,0
1684060241.70029998,123528902,1522,1522,1521,1521,0,0,0,0,0,0,0,0,0,0
1684060241.80025983,123628862,1519,1519,1519,1519,0,0,0,0,0,0,0,0,0,0
1684060241.90021992,123728822,1519,1519,1520,1520,0,0,0,0,0,0,0,0,0,0
1684060242.00018001,123828782,1520,1520,1521,1522,0,0,0,0,0,0,0,0,0,0
1684060242.10013986,123928742,1524,1524,1525,1526,0,0,0,0,0,0,0,0,0,0
1684060242.20009995,124028702,1527,1527,1529,1530,0,0,0,0,0,0,0,0,0,0
1684060242.30006003,124128662,1532,1532,1534,1535,0,0,0,0,0,0,0,0,0,0
1684060242.40001988,124228622,1535,1535,1537,1537,0,0,0,0,0,0,0,0,0,0
1684060242.49997997,124328582,1539,1539,1541,1541,0,0,0,0,0,0,0,0,0,0
1684060242.59993982,124428542,1541,1541,1543,1542,0,0,0,0,0,0,0,0,0,0
1684060242.69989991,124528502,1543,1543,1544,1543,0,0,0,0,0,0,0,0,0,0
1684060242.79986000,124628462,1545,1545,1545,1544,0,0,0,0,0,0,0,0,0,0
1684060242.89981985,124728422,1547,1547,1546,1546,0,0,0,0,0,0,0,0,0,0
1684060242.99977994,124828382,1547,1546,1545,1545,0,0,0,0,0,0,0,0,0,0
1684060243.09974003,124928342,1547,1547,1546,1546,0,0,0,0,0,0,0,0,0,0
1684060243.19969988,125028302,1546,1547,1545,1545,0,0,0,0,0,0,0,0,0,0
1684060243.29965997,125128262,1547,1547,1546,1546,0,0,0,0,0,0,0,0,0,0
1684060243.39961982,125228222,1547,1548,1547,1546,0,0,0,0,0,0,0,0,0,0
1684060243.49957991,125328182,1548,1548,1547,1546,0,0,0,0,0,0,0,0,0,0
1684060243.60037303,125428975,1546,1546,1545,1545,0,0,0,0,0,0,0,0,0,0
1684060243.70033288,125528935,1546,1546,1545,1545,0,0,0,0,0,0,0,0,0,0
1684060243.80029297,125628895,1545,1545,1545,1545,0,0,0,0,0,0,0,0,0,0
1684060243.90025282,125728855,1545,1544,1545,1545,0,0,0,0,0,0,0,0,0,0
1684060244.00021291,125828815,1545,1546,1546,1546,0,0,0,0,0,0,0,0,0,0
1684060244.10017300,125928775,1544,1544,1545,1545,0,0,0,0,0,0,0,0,0,0
1684060244.20013285,126028735,1544,1544,1545,1545,0,0,0,0,0,0,0,0,0,0
1684060244.30009294,126128695,1544,1544,1544,1545,0,0,0,0,0,0,0,0,0,0
1684060244.40005302,126228655,1544,1544,1545,1545,0,0,0,0,0,0,0,0,0,0
1684060244.50001287,126328615,1544,1544,1545,1544,0,0,0,0,0,0,0,0,0,0
1684060244.59997296,126428575,1544,1545,1545,1544,0,0,0,0,0,0,0,0,0,0
1684060244.69993281,126528535,1544,1544,1544,1544,0,0,0,0,0,0,0,0,0,0
1684060244.79989290,126628495,1544,1543,1543,1543,0,0,0,0,0,0,0,0,0,0
1684060244.89985299,126728455,1545,1544,1545,1544,0,0,0,0,0,0,0,0,0,0
1684060244.99981284,126828415,1544,1544,1544,1544,0,0,0,0,0,0,0,0,0,0
1684060245.09977293,126928375,1545,1545,1544,1545,0,0,0,0,0,0,0,0,0,0
1684060245.19973302,127028335,1545,1545,1545,1544,0,0,0,0,0,0,0,0,0,0
1684060245.29969287,127128295,1544,1544,1544,1544,0,0,0,0,0,0,0,0,0,0
1684060245.39965296,127228255,1544,1544,1544,1544,0,0,0,0,0,0,0,0,0,0
1684060245.49961281,127328215,1545,1544,1544,1544,0,0,0,0,0,0,0,0,0,0
1684060245.59957290,127428175,1545,1545,1545,1544,0,0,0,0,0,0,0,0,0,0
1684060245.70036602,127528968,1544,1544,1544,1544,0,0,0,0,0,0,0,0,0,0
1684060245.80032587,127628928,1545,1545,1545,1545,0,0,0,0,0,0,0,0,0,0
1684060245.90028596,127728888,1544,1543,1544,1544,0,0,0,0,0,0,0,0,0,0
1684060246.00024581,127828848,1545,1545,1545,1545,0,0,0,0,0,0,0,0,0,0
1684060246.10020590,127928808,1545,1545,1544,1545,0,0,0,0,0,0,0,0,0,0
1684060246.20016599,128028768,1544,1545,1544,1544,0,0,0,0,0,0,0,0,0,0
1684060246.30012584,128128728,1545,1544,1544,1545,0,0,0,0,0,0,0,0,0,0
1684060246.40008593,128228688,1545,1544,1545,1544,0,0,0,0,0,0,0,0,0,0
1684060246.50004601,128328648,1545,1545,1545,1545,0,0,0,0,0,0,0,0,0,0
1684060246.60000587,128428608,1545,1545,1545,1545,0,0,0,0,0,0,0,0,0,0
1684060246.69996595,128528568,1544,1544,1544,1545,0,0,0,0,0,0,0,0,0,0
1684060246.79992604,128628528,1544,1544,1544,1544,0,0,0,0,0,0,0,0,0,0
1684060246.89988589,128728488,1545,1544,1544,1544,0,0,0,0,0,0,0,0,0,0
1684060246.99984598,128828448,1544,1544,1545,1544,0,0,0,0,0,0,0,0,0,0
1684060247.09980583,128928408,1544,1544,1544,1544,0,0,0,0,0,0,0,0,0,0
1684060247.19976592,129028368,1545,1545,1544,1545,0,0,0,0,0,0,0,0,0,0
1684060247.29972601,129128328,1544,1544,1543,1544,0,0,0,0,0,0,0,0,0,0
1684060247.39968586,129228288,1545,1544,1544,1544,0,0,0,0,0,0,0,0,0,0
1684060247.49964595,129328248,1545,1544,1544,1545,0,0,0,0,0,0,0,0,0,0
1684060247.59960604,129428208,1544,1545,1545,1545,0,0,0,0,0,0,0,0,0,0
1684060247.69956589,129528168,1544,1544,1544,1544,0,0,0,0,0,0,0,0,0,0
1684060247.80035901,129628961,1543,1544,1544,1543,0,0,0,0,0,0,0,0,0,0
1684060247.90031886,129728921,1544,1544,1544,1544,0,0,0,0,0,0,0,0,0,0
1684060248.00027895,129828881,1544,1544,1544,1544,0,0,0,0,0,0,0,0,0,0
1684060248.10023904,129928841,1545,1545,1545,1545,0,0,0,0,0,0,0,0,0,0
1684060248.20019889,130028801,1545,1545,1545,1545,0,0,0,0,0,0,0,0,0,0
1684060248.30015898,130128761,1546,1544,1545,1546,0,0,0,0,0,0,0,0,0,0
1684060248.40011883,130228721,1544,1545,1545,1544,0,0,0,0,0,0,0,0,0,0
1684060248.50007892,130328681,1545,1544,1544,1545,0,0,0,0,0,0,0,0,0,0
1684060248.60003901,130428641,1544,1544,1544,1544,0,0,0,0,0,0,0,0,0,0
1684060248.69999886,130528601,1545,1545,1545,1545,0,0,0,0,0,0,0,0,0,0
1684060248.79995894,130628561,1544,1545,1545,1544,0,0,0,0,0,0,0,0,0,0
1684060248.89991903,130728521,1544,1544,1544,1544,0,0,0,0,0,0,0,0,0,0
1684060248.99987888,130828481,1544,1544,1544,1543,0,0,0,0,0,0,0,0,0,0
1684060249.09983897,130928441,1545,1545,1545,1545,0,0,0,0,0,0,0,0,0,0
1684060249.19979882,131028401,1544,1544,1544,1544,0,0,0,0,0,0,0,0,0,0
1684060249.29975891,131128361,1545,1545,1545,1545,0,0,0,0,0,0,0,0,0,0
1684060249.39971900,131228321,1544,1544,1545,1544,0,0,0,0,0,0,0,0,0,0
1684060249.49967885,131328281,1545,1545,1544,1545,0,0,0,0,0,0,0,0,0,0
1684060249.59963894,131428241,1544,1545,1545,1545,0,0,0,0,0,0,0,0,0,0
1684060249.69959903,131528201,1545,1544,1544,1544,0,0,0,0,0,0,0,0,0,0
1684060249.79955888,131628161,1544,1545,1544,1544,0,0,0,0,0,0,0,0,0,0
1684060249.90035200,131728954,1544,1544,1544,1545,0,0,0,0,0,0,0,0,0,0
1684060250.00031185,131828914,1544,1545,1545,1545,0,0,0,0,0,0,0,0,0,0
1684060250.10027194,131928874,1545,1544,1544,1544,0,0,0,0,0,0,0,0,0,0
1684060250.20023203,132028834,1544,1544,1544,1544,0,0,0,0,0,0,0,0,0,0
1684060250.30019188,132128794,1544,1543,1543,1544,0,0,0,0,0,0,0,0,0,0
1684060250.40015197,132228754,1544,1544,1544,1544,0,0,0,0,0,0,0,0,0,0
1684060250.50011182,132328714,1544,1545,1545,1544,0,0,0,0,0,0,0,0,0,0
1684060250.60007191,132428674,1544,1544,1544,1544,0,0,0,0,0,0,0,0,0,0
1684060250.70003200,132528634,1544,1544,1544,1545,0,0,0,0,0,0,0,0,0,0
1684060250.79999185,132628594,1544,1544,1545,1544,0,0,0,0,0,0,0,0,0,0
1684060250.89995193,132728554,1545,1544,1544,1544,0,0,0,0,0,0,0,0,0,0
1684060250.99991202,132828514,1545,1545,1545,1545,0,0,0,0,0,0,0,0,0,0
1684060251.09987187,132928474,1544,1544,1544,1545,0,0,0,0,0,0,0,0,0,0
1684060251.19983196,133028434,1544,1545,1545,1544,0,0,0,0,0,0,0,0,0,0
1684060251.29979181,133128394,1545,1544,1544,1545,0,0,0,0,0,0,0,0,0,0
1684060251.39975190,133228354,1541,1540,1540,1540,0,0,0,0,0,0,0,0,0,0
1684060251.49971199,133328314,1375,1376,1354,1354,0,0,0,0,0,0,0,0,0,0
1684060251.59967184,133428274,1287,1290,1250,1249,0,0,0,0,0,0,0,0,0,0
1684060251.69963193,133528234,1262,1263,1217,1217,0,0,0,0,0,0,0,0,0,0
1684060251.79959202,133628194,1247,1248,1199,1198,0,0,0,0,0,0,0,0,0,0
1684060251.89955187,133728154,1212,1212,1152,1152,0,0,0,0,0,0,0,0,0,0
1684060252.00034499,133828947,1211,1212,1152,1150,0,0,0,0,0,0,0,0,0,0
1684060252.10030484,133928907,1210,1211,1151,1150,0,0,0,0,0,0,0,0,0,0
1684060252.20026493,134028867,1210,1212,1152,1150,0,0,0,0,0,0,0,0,0,0
1684060252.30022502,134128827,1238,1206,1150,1193,0,0,0,0,0,0,0,0,0,0
1684060252.40018487,134228787,1230,1210,1150,1177,0,0,0,0,0,0,0,0,0,0
1684060252.50014496,134328747,1227,1210,1150,1173,0,0,0,0,0,0,0,0,0,0
1684060252.60010481,134428707,1228,1210,1150,1174,0,0,0,0,0,0,0,0,0,0
1684060252.70006490,134528667,1230,1210,1150,1177,0,0,0,0,0,0,0,0,0,0
1684060252.80002499,134628627,1232,1210,1150,1179,0,0,0,0,0,0,0,0,0,0
1684060252.89998484,134728587,1234,1210,1150,1182,0,0,0,0,0,0,0,0,0,0
1684060252.99994493,134828547,1235,1209,1150,1184,0,0,0,0,0,0,0,0,0,0
1684060253.09990501,134928507,1221,1209,1150,1165,0,0,0,0,0,0,0,0,0,0
1684060253.19986486,135028467,1222,1209,1150,1167,0,0,0,0,0,0,0,0,0,0
1684060253.29982495,135128427,1223,1209,1150,1168,0,0,0,0,0,0,0,0,0,0
1684060253.39978504,135228387,1224,1209,1150,1169,0,0,0,0,0,0,0,0,0,0
1684060253.49974489,135328347,1146,1138,1150,1159,0,0,0,0,0,0,0,0,0,0
1684060253.59970498,135428307,1000,1000,1000,1000,0,0,0,0,0,0,0,0,0,0
1684060253.69966483,135528267,1000,1000,1000,1000,0,0,0,0,0,0,0,0,0,0
1684060253.79962492,135628227,1000,1000,1000,1000,0,0,0,0,0,0,0,0,0,0
1684060253.89958501,135728187,1000,1000,1000,1000,0,0,0,0,0,0,0,0,0,0
1684060254.00037789,135828980,1000,1000,1000,1000,0,0,0,0,0,0,0,0,0,0
1684060254.10033798,135928940,1000,1000,1000,1000,0,0,0,0,0,0,0,0,0,0
1684060254.20029783,136028900,1000,1000,1000,1000,0,0,0,0,0,0,0,0,0,0
1684060254.30025792,136128860,1000,1000,1000,1000,0,0,0,0,0,0,0,0,0,0
1684060254.40021801,136228820,1000,1000,1000,1000,0,0,0,0,0,0,0,0,0,0
1684060254.50017786,136328780,1000,1000,1000,1000,0,0,0,0,0,0,0,0,0,0
1684060254.60013795,136428740,1000,1000,1000,1000,0,0,0,0,0,0,0,0,0,0
1684060254.70009804,136528700,1000,1000,1000,1000,0,0,0,0,0,0,0,0,0,0
1684060254.80005789,136628660,1000,1000,1000,1000,0,0,0,0,0,0,0,0,0,0
1684060254.90001798,136728620,1000,1000,1000,1000,0,0,0,0,0,0,0,0,0,0
1684060254.99997783,136828580,1000,1000,1000,1000,0,0,0,0,0,0,0,0,0,0
1684060255.09993792,136928540,1000,1000,1000,1000,0,0,0,0,0,0,0,0,0,0
1684060255.19989800,137028500,1000,1000,1000,1000,0,0,0,0,0,0,0,0,0,0
1684060255.29985785,137128460,1000,1000,1000,1000,0,0,0,0,0,0,0,0,0,0
1684060255.39981794,137228420,1000,1000,1000,1000,0,0,0,0,0,0,0,0,0,0
1684060255.49977803,137328380,1000,1000,1000,1000,0,0,0,0,0,0,0,0,0,0
1684060255.59973788,137428340,1000,1000,1000,1000,0,0,0,0,0,0,0,0,0,0
1684060255.69969797,137528300,1000,1000,1000,1000,0,0,0,0,0,0,0,0,0,0
1684060255.79965782,137628260,1000,1000,1000,1000,0,0,0,0,0,0,0,0,0,0
1684060255.89961791,137728220,1000,1000,1000,1000,0,0,0,0,0,0,0,0,0,0
1684060255.99957800,137828180,1000,1000,1000,1000,0,0,0,0,0,0,0,0,0,0
1684060256.10037088,137928973,1000,1000,1000,1000,0,0,0,0,0,0,0,0,0,0
1684060256.20033097,138028933,1000,1000,1000,1000,0,0,0,0,0,0,0,0,0,0
1684060256.30029082,138128893,1000,1000,1000,1000,0,0,0,0,0,0,0,0,0,0
1684060256.40025091,138228853,1000,1000,1000,1000,0,0,0,0,0,0,0,0,0,0
1684060256.50021100,138328813,1000,1000,1000,1000,0,0,0,0,0,0,0,0,0,0
1684060256.60017085,138428773,1000,1000,1000,1000,0,0,0,0,0,0,0,0,0,0
1684060256.70013094,138528733,1000,1000,1000,1000,0,0,0,0,0,0,0,0,0,0
1684060256.80009103,138628693,1000,1000,1000,1000,0,0,0,0,0,0,0,0,0,0
1684060256.90005088,138728653,1000,1000,1000,1000,0,0,0,0,0,0,0,0,0,0
1684060257.00001097,138828613,1000,1000,1000,1000,0,0,0,0,0,0,0,0,0,0
1684060257.09997082,138928573,1000,1000,1000,1000,0,0,0,0,0,0,0,0,0,0
1684060257.19993091,139028533,1000,1000,1000,1000,0,0,0,0,0,0,0,0,0,0
1684060257.29989100,139128493,1000,1000,1000,1000,0,0,0,0,0,0,0,0,0,0
1684060257.39985085,139228453,1000,1000,1000,1000,0,0,0,0,0,0,0,0,0,0
1684060257.49981093,139328413,1000,1000,1000,1000,0,0,0,0,0,0,0,0,0,0
1684060257.59977102,139428373,1000,1000,1000,1000,0,0,0,0,0,0,0,0,0,0
1684060257.69973087,139528333,1000,1000,1000,1000,0,0,0,0,0,0,0,0,0,0
1684060257.79969096,139628293,1000,1000,1000,1000,0,0,0,0,0,0,0,0,0,0
1684060257.89965081,139728253,1000,1000,1000,1000,0,0,0,0,0,0,0,0,0,0
1684060257.99961090,139828213,1000,1000,1000,1000,0,0,0,0,0,0,0,0,0,0
1684060258.09957099,139928173,1000,1000,1000,1000,0,0,0,0,0,0,0,0,0,0
1684060258.20036387,140028966,1000,1000,1000,1000,0,0,0,0,0,0,0,0,0,0
1684060258.30032396,140128926,1000,1000,1000,1000,0,0,0,0,0,0,0,0,0,0
1684060258.40028381,140228886,1000,1000,1000,1000,0,0,0,0,0,0,0,0,0,0
1684060258.50024390,140328846,1000,1000,1000,1000,0,0,0,0,0,0,0,0,0,0
1684060258.60020399,140428806,1000,1000,1000,1000,0,0,0,0,0,0,0,0,0,0
1684060258.70016384,140528766,1000,1000,1000,1000,0,0,0,0,0,0,0,0,0,0
1684060258.80012393,140628726,1000,1000,1000,1000,0,0,0,0,0,0,0,0,0,0
1684060258.90008402,140728686,1000,1000,1000,1000,0,0,0,0,0,0,0,0,0,0
1684060259.00004387,140828646,1000,1000,1000,1000,0,0,0,0,0,0,0,0,0,0
1684060259.10000396,140928606,1000,1000,1000,1000,0,0,0,0,0,0,0,0,0,0
1684060259.19996381,141028566,1000,1000,1000,1000,0,0,0,0,0,0,0,0,0,0
1684060259.29992390,141128526,1000,1000,1000,1000,0,0,0,0,0,0,0,0,0,0
1684060259.39988399,141228486,1000,1000,1000,1000,0,0,0,0,0,0,0,0,0,0
1684060259.49984384,141328446,1000,1000,1000,1000,0,0,0,0,0,0,0,0,0,0
1684060259.59980392,141428406,1000,1000,1000,1000,0,0,0,0,0,0,0,0,0,0
1684060259.69976401,141528366,1000,1000,1000,1000,0,0,0,0,0,0,0,0,0,0
1684060259.79972386,141628326,1000,1000,1000,1000,0,0,0,0,0,0,0,0,0,0
1684060259.89968395,141728286,1000,1000,1000,1000,0,0,0,0,0,0,0,0,0,0
1684060259.99964404,141828246,1000,1000,1000,1000,0,0,0,0,0,0,0,0,0,0
1684060260.09960389,141928206,1000,1000,1000,1000,0,0,0,0,0,0,0,0,0,0
1684060260.19956398,142028166,1000,1000,1000,1000,0,0,0,0,0,0,0,0,0,0
1684060260.30035686,142128959,1000,1000,1000,1000,0,0,0,0,0,0,0,0,0,0
1684060260.40031695,142228919,1000,1000,1000,1000,0,0,0,0,0,0,0,0,0,0
1684060260.50027704,142328879,1000,1000,1000,1000,0,0,0,0,0,0,0,0,0,0
1684060260.60023689,142428839,1000,1000,1000,1000,0,0,0,0,0,0,0,0,0,0
1684060260.70019698,142528799,1000,1000,1000,1000,0,0,0,0,0,0,0,0,0,0
1684060260.80015683,142628759,1000,1000,1000,1000,0,0,0,0,0,0,0,0,0,0
1684060260.90011692,142728719,1000,1000,1000,1000,0,0,0,0,0,0,0,0,0,0
1684060261.00007701,142828679,1000,1000,1000,1000,0,0,0,0,0,0,0,0,0,0
1684060261.10003686,142928639,1000,1000,1000,1000,0,0,0,0,0,0,0,0,0,0
1684060261.19999695,143028599,1000,1000,1000,1000,0,0,0,0,0,0,0,0,0,0
1684060261.29995704,143128559,1000,1000,1000,1000,0,0,0,0,0,0,0,0,0,0
1684060261.39991689,143228519,1000,1000,1000,1000,0,0,0,0,0,0,0,0,0,0
1684060261.49987698,143328479,1000,1000,1000,1000,0,0,0,0,0,0,0,0,0,0
1684060261.59983683,143428439,1000,1000,1000,1000,0,0,0,0,0,0,0,0,0,0
1684060261.69979692,143528399,1000,1000,1000,1000,0,0,0,0,0,0,0,0,0,0
1684060261.79975700,143628359,1000,1000,1000,1000,0,0,0,0,0,0,0,0,0,0
1684060261.89971685,143728319,1000,1000,1000,1000,0,0,0,0,0,0,0,0,0,0
1684060261.99967694,143828279,1000,1000,1000,1000,0,0,0,0,0,0,0,0,0,0
1684060262.09963703,143928239,1000,1000,1000,1000,0,0,0,0,0,0,0,0,0,0
1684060262.19959688,144028199,1000,1000,1000,1000,0,0,0,0,0,0,0,0,0,0
1684060262.29955697,144128159,1000,1000,1000,1000,0,0,0,0,0,0,0,0,0,0
1684060262.40034986,144228952,1000,1000,1000,1000,0,0,0,0,0,0,0,0,0,0
1684060262.50030994,144328912,1000,1000,1000,1000,0,0,0,0,0,0,0,0,0,0
1684060262.60027003,144428872,1000,1000,1000,1000,0,0,0,0,0,0,0,0,0,0
1684060262.70022988,144528832,1000,1000,1000,1000,0,0,0,0,0,0,0,0,0,0
1684060262.80018997,144628792,1000,1000,1000,1000,0,0,0,0,0,0,0,0,0,0
1684060262.90014982,144728752,1000,1000,1000,1000,0,0,0,0,0,0,0,0,0,0
1684060263.00010991,144828712,1000,1000,1000,1000,0,0,0,0,0,0,0,0,0,0
1684060263.10007000,144928672,1000,1000,1000,1000,0,0,0,0,0,0,0,0,0,0
1684060263.20002985,145028632,1000,1000,1000,1000,0,0,0,0,0,0,0,0,0,0
1684060263.29998994,145128592,1000,1000,1000,1000,0,0,0,0,0,0,0,0,0,0
1684060263.39995003,145228552,1000,1000,1000,1000,0,0,0,0,0,0,0,0,0,0
1684060263.49990988,145328512,1000,1000,1000,1000,0,0,0,0,0,0,0,0,0,0
1684060263.59986997,145428472,1000,1000,1000,1000,0,0,0,0,0,0,0,0,0,0
1684060263.69982982,145528432,1000,1000,1000,1000,0,0,0,0,0,0,0,0,0,0
1684060263.79978991,145628392,1000,1000,1000,1000,0,0,0,0,0,0,0,0,0,0
1684060263.89974999,145728352,1000,1000,1000,1000,0,0,0,0,0,0,0,0,0,0
1684060263.99970984,145828312,1000,1000,1000,1000,0,0,0,0,0,0,0,0,0,0
1684060264.09966993,145928272,1000,1000,1000,1000,0,0,0,0,0,0,0,0,0,0
1684060264.19963002,146028232,1000,1000,1000,1000,0,0,0,0,0,0,0,0,0,0
1684060264.29958987,146128192,1000,1000,1000,1000,0,0,0,0,0,0,0,0,0,0
1684060264.40038300,146228985,1000,1000,1000,1000,0,0,0,0,0,0,0,0,0,0
1684060264.50034285,146328945,1000,1000,1000,1000,0,0,0,0,0,0,0,0,0,0
1684060264.60030293,146428905,1000,1000,1000,1000,0,0,0,0,0,0,0,0,0,0
1684060264.70026302,146528865,1000,1000,1000,1000,0,0,0,0,0,0,0,0,0,0
1684060264.80022287,146628825,1000,1000,1000,1000,0,0,0,0,0,0,0,0,0,0
1684060264.90018296,146728785,1000,1000,1000,1000,0,0,0,0,0,0,0,0,0,0
1684060265.00014281,146828745,1000,1000,1000,1000,0,0,0,0,0,0,0,0,0,0
1684060265.10010290,146928705,1000,1000,1000,1000,0,0,0,0,0,0,0,0,0,0
1684060265.20006299,147028665,1000,1000,1000,1000,0,0,0,0,0,0,0,0,0,0
1684060265.30002284,147128625,1000,1000,1000,1000,0,0,0,0,0,0,0,0,0,0
1684060265.39998293,147228585,1000,1000,1000,1000,0,0,0,0,0,0,0,0,0,0
1684060265.49994302,147328545,1000,1000,1000,1000,0,0,0,0,0,0,0,0,0,0
1684060265.59990287,147428505,1000,1000,1000,1000,0,0,0,0,0,0,0,0,0,0
1684060265.69986296,147528465,1000,1000,1000,1000,0,0,0,0,0,0,0,0,0,0
1684060265.79982281,147628425,1000,1000,1000,1000,0,0,0,0,0,0,0,0,0,0
1684060265.89978290,147728385,1000,1000,1000,1000,0,0,0,0,0,0,0,0,0,0
1684060265.99974298,147828345,1000,1000,1000,1000,0,0,0,0,0,0,0,0,0,0
1684060266.09970284,147928305,1000,1000,1000,1000,0,0,0,0,0,0,0,0,0,0
1684060266.19966292,148028265,1000,1000,1000,1000,0,0,0,0,0,0,0,0,0,0
1684060266.29962301,148128225,1000,1000,1000,1000,0,0,0,0,0,0,0,0,0,0
1684060266.39958286,148228185,1000,1000,1000,1000,0,0,0,0,0,0,0,0,0,0
1684060266.50037599,148328978,1000,1000,1000,1000,0,0,0,0,0,0,0,0,0,0
1684060266.60033584,148428938,1000,1000,1000,1000,0,0,0,0,0,0,0,0,0,0
1684060266.70029593,148528898,1000,1000,1000,1000,0,0,0,0,0,0,0,0,0,0
1684060266.80025601,148628858,1000,1000,1000,1000,0,0,0,0,0,0,0,0,0,0
1684060266.90021586,148728818,1000,1000,1000,1000,0,0,0,0,0,0,0,0,0,0
1684060267.00017595,148828778,1000,1000,1000,1000,0,0,0,0,0,0,0,0,0,0
1684060267.10013604,148928738,1000,1000,1000,1000,0,0,0,0,0,0,0,0,0,0
1684060267.20009589,149028698,1000,1000,1000,1000,0,0,0,0,0,0,0,0,0,0
1684060267.30005598,149128658,1000,1000,1000,1000,0,0,0,0,0,0,0,0,0,0
1684060267.40001583,149228618,1000,1000,1000,1000,0,0,0,0,0,0,0,0,0,0
1684060267.49997592,149328578,1000,1000,1000,1000,0,0,0,0,0,0,0,0,0,0
1684060267.59993601,149428538,1000,1000,1000,1000,0,0,0,0,0,0,0,0,0,0
1684060267.69989586,149528498,1000,1000,1000,1000,0,0,0,0,0,0,0,0,0,0
1684060267.79985595,149628458,1000,1000,1000,1000,0,0,0,0,0,0,0,0,0,0
1684060267.89981604,149728418,1000,1000,1000,1000,0,0,0,0,0,0,0,0,0,0
1684060267.99977589,149828378,1000,1000,1000,1000,0,0,0,0,0,0,0,0,0,0
1684060268.09973598,149928338,1000,1000,1000,1000,0,0,0,0,0,0,0,0,0,0
1684060268.19969583,150028298,1000,1000,1000,1000,0,0,0,0,0,0,0,0,0,0
1684060268.29965591,150128258,1000,1000,1000,1000,0,0,0,0,0,0,0,0,0,0
1684060268.39961600,150228218,1000,1000,1000,1000,0,0,0,0,0,0,0,0,0,0
1684060268.49957585,150328178,1000,1000,1000,1000,0,0,0,0,0,0,0,0,0,0
