TimeUS,M1,M2,M3,M4,TimeUS,C1,C2,C3,C4
53048772,1000,1000,1000,1000,53128740,1000,1000,1000,1000
53051271,1000,1000,1000,1000,53228700,1000,1000,1000,1000
53053770,1000,1000,1000,1000,53328660,1000,1000,1000,1000
53056269,1000,1000,1000,1000,53428620,1000,1000,1000,1000
53058768,1000,1000,1000,1000,53528580,1000,1000,1000,1000
53061267,1000,1000,1000,1000,53628540,1000,1000,1000,1000
53063766,1000,1000,1000,1000,53728500,1000,1000,1000,1000
53066265,1000,1000,1000,1000,53828460,1000,1000,1000,1000
53068764,1000,1000,1000,1000,53928420,1000,1000,1000,1000
53071263,1000,1000,1000,1000,54028380,1000,1000,1000,1000
53073762,1000,1000,1000,1000,54128340,1000,1000,1000,1000
53076261,1000,1000,1000,1000,54228300,1000,1000,1000,1000
53078760,1000,1000,1000,1000,54328260,1000,1000,1000,1000
53081259,1000,1000,1000,1000,54428220,1000,1000,1000,1000
53083758,1000,1000,1000,1000,54528180,1000,1000,1000,1000
53086257,1000,1000,1000,1000,54628973,1000,1000,1000,1000
53088756,1000,1000,1000,1000,54728933,1000,1000,1000,1000
53091255,1000,1000,1000,1000,54828893,1000,1000,1000,1000
53093754,1000,1000,1000,1000,54928853,1000,1000,1000,1000
53096253,1000,1000,1000,1000,55028813,1000,1000,1000,1000
53098752,1000,1000,1000,1000,55128773,1024,1024,1024,1024
53101251,1000,1000,1000,1000,55228733,1054,1054,1054,1054
53103750,1000,1000,1000,1000,55328693,1084,1084,1084,1084
53106249,1000,1000,1000,1000,55428653,1100,1100,1100,1100
53108748,1000,1000,1000,1000,55528613,1100,1100,1100,1100
53111247,1000,1000,1000,1000,55628573,1100,1100,1100,1100
53113746,1000,1000,1000,1000,55728533,1100,1100,1100,1100
53116245,1000,1000,1000,1000,55828493,1100,1100,1100,1100
53118744,1000,1000,1000,1000,55928453,1100,1100,1100,1100
53121243,1000,1000,1000,1000,56028413,1100,1100,1100,1100
53123742,1000,1000,1000,1000,56128373,1100,1100,1100,1100
53126241,1000,1000,1000,1000,56228333,1100,1100,1100,1100
53128740,1000,1000,1000,1000,56328293,1100,1100,1100,1100
53131239,1000,1000,1000,1000,56428253,1100,1100,1100,1100
53133738,1000,1000,1000,1000,56528213,1100,1100,1100,1100
53136237,1000,1000,1000,1000,56628173,1100,1100,1100,1100
53138736,1000,1000,1000,1000,56728966,1100,1100,1100,1100
53141235,1000,1000,1000,1000,56828926,1100,1100,1100,1100
53143734,1000,1000,1000,1000,56928886,1100,1100,1100,1100
53146233,1000,1000,1000,1000,57028846,1100,1100,1100,1100
53148732,1000,1000,1000,1000,57128806,1100,1100,1100,1100
53151231,1000,1000,1000,1000,57228766,1100,1100,1100,1100
53153730,1000,1000,1000,1000,57328726,1100,1100,1100,1100
53156229,1000,1000,1000,1000,57428686,1100,1100,1100,1100
53158728,1000,1000,1000,1000,57528646,1100,1100,1100,1100
53161227,1000,1000,1000,1000,57628606,1100,1100,1100,1100
53163726,1000,1000,1000,1000,57728566,1100,1100,1100,1100
53166225,1000,1000,1000,1000,57828526,1100,1100,1100,1100
53168724,1000,1000,1000,1000,57928486,1100,1100,1100,1100
53171223,1000,1000,1000,1000,58028446,1100,1100,1100,1100
53173722,1000,1000,1000,1000,58128406,1100,1100,1100,1100
53176221,1000,1000,1000,1000,58228366,1100,1100,1100,1100
53178720,1000,1000,1000,1000,58328326,1100,1100,1100,1100
53181219,1000,1000,1000,1000,58428286,1104,1104,1104,1104
53183718,1000,1000,1000,1000,58528246,1134,1134,1134,1134
53186217,1000,1000,1000,1000,58628206,1183,1176,1176,1183
53188716,1000,1000,1000,1000,58728166,1210,1202,1203,1210
53191215,1000,1000,1000,1000,58828959,1245,1238,1238,1246
53193714,1000,1000,1000,1000,58928919,1291,1283,1283,1291
53196213,1000,1000,1000,1000,59028879,1339,1331,1331,1339
53198712,1000,1000,1000,1000,59128839,1388,1380,1380,1388
53201211,1000,1000,1000,1000,59228799,1438,1430,1430,1438
53203710,1000,1000,1000,1000,59328759,1490,1481,1482,1490
53206209,1000,1000,1000,1000,59428719,1543,1535,1535,1543
53208708,1000,1000,1000,1000,59528679,1593,1585,1585,1593
53211207,1000,1000,1000,1000,59628639,1626,1616,1617,1625
53213706,1000,1000,1000,1000,59728599,1657,1647,1648,1657
53216205,1000,1000,1000,1000,59828559,1693,1683,1683,1693
53218704,1000,1000,1000,1000,59928519,1730,1719,1719,1730
53221203,1000,1000,1000,1000,60028479,1766,1755,1756,1766
53223702,1000,1000,1000,1000,60128439,1755,1750,1750,1755
53226201,1000,1000,1000,1000,60228399,1616,1615,1616,1615
53228700,1000,1000,1000,1000,60328359,1554,1557,1557,1554
53231199,1000,1000,1000,1000,60428319,1572,1576,1576,1573
53233698,1000,1000,1000,1000,60528279,1611,1614,1614,1611
53236197,1000,1000,1000,1000,60628239,1638,1640,1640,1638
53238696,1000,1000,1000,1000,60728199,1646,1646,1646,1646
53241195,1000,1000,1000,1000,60828159,1643,1641,1641,1643
53243694,1000,1000,1000,1000,60928952,1638,1636,1636,1638
53246193,1000,1000,1000,1000,61028912,1636,1634,1634,1636
53248692,1000,1000,1000,1000,61128872,1635,1634,1634,1635
53251191,1000,1000,1000,1000,61228832,1635,1635,1635,1635
53253690,1000,1000,1000,1000,61328792,1620,1622,1619,1623
53256189,1000,1000,1000,1000,61428752,1608,1609,1600,1616
53258688,1000,1000,1000,1000,61528712,1603,1602,1596,1609
53261187,1000,1000,1000,1000,61628672,1601,1600,1597,1603
53263686,1000,1000,1000,1000,61728632,1601,1600,1601,1600
53266185,1000,1000,1000,1000,61828592,1602,1603,1605,1600
53268684,1000,1000,1000,1000,61928552,1594,1595,1602,1588
53271183,1000,1000,1000,1000,62028512,1576,1577,1595,1559
53273682,1000,1000,1000,1000,62128472,1564,1564,1575,1556
53276181,1000,1000,1000,1000,62228432,1553,1554,1552,1557
53278680,1000,1000,1000,1000,62328392,1545,1545,1536,1555
53281179,1000,1000,1000,1000,62428352,1538,1538,1527,1549
53283678,1000,1000,1000,1000,62528312,1533,1533,1524,1541
53286177,1000,1000,1000,1000,62628272,1531,1531,1527,1535
53288676,1000,1000,1000,1000,62728232,1532,1531,1531,1531
53291175,1000,1000,1000,1000,62828192,1534,1534,1537,1531
53293674,1000,1000,1000,1000,62928985,1538,1538,1542,1533
53296173,1000,1000,1000,1000,63028945,1541,1541,1545,1536
53298672,1000,1000,1000,1000,63128905,1544,1544,1547,1541
53301171,1000,1000,1000,1000,63228865,1547,1547,1548,1546
53303670,1000,1000,1000,1000,63328825,1549,1550,1548,1550
53306169,1000,1000,1000,1000,63428785,1551,1552,1549,1553
53308668,1000,1000,1000,1000,63528745,1550,1549,1555,1560
53311167,1000,1000,1000,1000,63628705,1550,1551,1559,1562
53313666,1000,1000,1000,1000,63728665,1554,1554,1561,1563
53316165,1000,1000,1000,1000,63828625,1557,1558,1563,1563
53318664,1000,1000,1000,1000,63928585,1561,1562,1564,1564
53321163,1000,1000,1000,1000,64028545,1565,1566,1566,1564
53323662,1000,1000,1000,1000,64128505,1568,1568,1565,1565
53326161,1000,1000,1000,1000,64228465,1569,1569,1564,1564
53328660,1000,1000,1000,1000,64328425,1572,1572,1567,1567
53331159,1000,1000,1000,1000,64428385,1573,1573,1567,1567
53333658,1000,1000,1000,1000,64528345,1573,1573,1567,1568
53336157,1000,1000,1000,1000,64628305,1573,1573,1568,1569
53338656,1000,1000,1000,1000,64728265,1574,1574,1570,1571
53341155,1000,1000,1000,1000,64828225,1573,1573,1571,1571
53343654,1000,1000,1000,1000,64928185,1574,1574,1573,1572
53346153,1000,1000,1000,1000,65028978,1574,1574,1575,1573
53348652,1000,1000,1000,1000,65128938,1574,1574,1576,1574
53351151,1000,1000,1000,1000,65228898,1574,1574,1576,1575
53353650,1000,1000,1000,1000,65328858,1574,1574,1576,1576
53356149,1000,1000,1000,1000,65428818,1574,1575,1576,1577
53358648,1000,1000,1000,1000,65528778,1575,1575,1577,1577
53361147,1000,1000,1000,1000,65628738,1575,1575,1577,1577
53363646,1000,1000,1000,1000,65728698,1576,1576,1577,1578
53366145,1000,1000,1000,1000,65828658,1575,1576,1576,1576
53368644,1000,1000,1000,1000,65928618,1576,1576,1577,1576
53371143,1000,1000,1000,1000,66028578,1577,1577,1576,1576
53373642,1000,1000,1000,1000,66128538,1577,1577,1576,1577
53376141,1000,1000,1000,1000,66228498,1578,1577,1577,1577
53378640,1000,1000,1000,1000,66328458,1578,1578,1577,1577
53381139,1000,1000,1000,1000,66428418,1578,1578,1578,1577
53383638,1000,1000,1000,1000,66528378,1578,1578,1578,1577
53386137,1000,1000,1000,1000,66628338,1579,1579,1578,1578
53388636,1000,1000,1000,1000,66728298,1579,1579,1579,1578
53391135,1000,1000,1000,1000,66828258,1579,1579,1579,1579
53393634,1000,1000,1000,1000,66928218,1579,1579,1579,1579
53396133,1000,1000,1000,1000,67028178,1579,1579,1579,1579
53398632,1000,1000,1000,1000,67128971,1579,1579,1579,1579
53401131,1000,1000,1000,1000,67228931,1579,1579,1580,1580
53403630,1000,1000,1000,1000,67328891,1579,1580,1580,1580
53406129,1000,1000,1000,1000,67428851,1580,1580,1580,1580
53408628,1000,1000,1000,1000,67528811,1579,1579,1579,1579
53411127,1000,1000,1000,1000,67628771,1579,1579,1580,1579
53413626,1000,1000,1000,1000,67728731,1580,1580,1579,1580
53416125,1000,1000,1000,1000,67828691,1580,1580,1579,1580
53418624,1000,1000,1000,1000,67928651,1579,1579,1579,1579
53421123,1000,1000,1000,1000,68028611,1580,1580,1580,1580
53423622,1000,1000,1000,1000,68128571,1580,1580,1580,1580
53426121,1000,1000,1000,1000,68228531,1580,1580,1581,1580
53428620,1000,1000,1000,1000,68328491,1580,1579,1579,1580
53431119,1000,1000,1000,1000,68428451,1580,1580,1580,1580
53433618,1000,1000,1000,1000,68528411,1580,1580,1580,1580
53436117,1000,1000,1000,1000,68628371,1580,1580,1580,1580
53438616,1000,1000,1000,1000,68728331,1580,1580,1580,1580
53441115,1000,1000,1000,1000,68828291,1580,1581,1581,1581
53443614,1000,1000,1000,1000,68928251,1580,1580,1580,1580
53446113,1000,1000,1000,1000,69028211,1580,1580,1580,1580
53448612,1000,1000,1000,1000,69128171,1580,1580,1580,1580
53451111,1000,1000,1000,1000,69228964,1581,1580,1581,1581
53453610,1000,1000,1000,1000,69328924,1581,1581,1581,1581
53456109,1000,1000,1000,1000,69428884,1581,1582,1582,1582
53458608,1000,1000,1000,1000,69528844,1581,1581,1581,1581
53461107,1000,1000,1000,1000,69628804,1581,1581,1581,1581
53463606,1000,1000,1000,1000,69728764,1581,1581,1582,1580
53466105,1000,1000,1000,1000,69828724,1581,1582,1588,1573
53468604,1000,1000,1000,1000,69928684,1579,1582,1583,1573
53471103,1000,1000,1000,1000,70028644,1578,1581,1574,1573
53473602,1000,1000,1000,1000,70128604,1577,1580,1566,1571
53476101,1000,1000,1000,1000,70228564,1577,1579,1560,1567
53478600,1000,1000,1000,1000,70328524,1578,1578,1556,1562
53481099,1000,1000,1000,1000,70428484,1579,1578,1556,1559
53483598,1000,1000,1000,1000,70528444,1580,1578,1556,1555
53486097,1000,1000,1000,1000,70628404,1579,1577,1556,1554
53488596,1000,1000,1000,1000,70728364,1577,1577,1556,1553
53491095,1000,1000,1000,1000,70828324,1576,1578,1556,1554
53493594,1000,1000,1000,1000,70928284,1575,1577,1554,1554
53496093,1000,1000,1000,1000,71028244,1575,1577,1554,1554
53498592,1000,1000,1000,1000,71128204,1575,1576,1552,1553
53501091,1000,1000,1000,1000,71228164,1576,1577,1552,1552
53503590,1000,1000,1000,1000,71328957,1576,1578,1550,1550
53506089,1000,1000,1000,1000,71428917,1579,1579,1547,1547
53508588,1000,1000,1000,1000,71528877,1582,1582,1545,1545
53511087,1000,1000,1000,1000,71628837,1584,1585,1542,1541
53513586,1000,1000,1000,1000,71728797,1587,1588,1539,1538
53516085,1000,1000,1000,1000,71828757,1590,1591,1537,1536
53518584,1000,1000,1000,1000,71928717,1593,1594,1535,1536
53521083,1000,1000,1000,1000,72028677,1595,1595,1535,1535
53523582,1000,1000,1000,1000,72128637,1595,1595,1534,1536
53526081,1000,1000,1000,1000,72228597,1594,1594,1536,1539
53528580,1000,1000,1000,1000,72328557,1593,1591,1541,1543
53531079,1000,1000,1000,1000,72428517,1588,1587,1546,1549
53533578,1000,1000,1000,1000,72528477,1582,1579,1555,1557
53536077,1000,1000,1000,1000,72628437,1572,1569,1564,1567
53538576,1000,1000,1000,1000,72728397,1561,1558,1577,1579
53541075,1000,1000,1000,1000,72828357,1550,1547,1589,1590
53543574,1000,1000,1000,1000,72928317,1541,1539,1601,1601
53546073,1000,1000,1000,1000,73028277,1533,1532,1609,1608
53548572,1000,1000,1000,1000,73128237,1529,1529,1614,1613
53551071,1000,1000,1000,1000,73228197,1529,1531,1616,1615
53553570,1000,1000,1000,1000,73328157,1532,1535,1613,1613
53556069,1000,1000,1000,1000,73428950,1538,1540,1608,1608
53558568,1000,1000,1000,1000,73528910,1545,1547,1601,1601
53561067,1000,1000,1000,1000,73628870,1555,1556,1594,1594
53563566,1000,1000,1000,1000,73728830,1565,1565,1587,1587
53566065,1000,1000,1000,1000,73828790,1573,1572,1580,1579
53568564,1000,1000,1000,1000,73928750,1579,1578,1573,1573
53571063,1000,1000,1000,1000,74028710,1584,1583,1570,1569
53573562,1000,1000,1000,1000,74128670,1587,1585,1566,1566
53576061,1000,1000,1000,1000,74228630,1587,1586,1565,1565
53578560,1000,1000,1000,1000,74328590,1587,1585,1566,1566
53581059,1000,1000,1000,1000,74428550,1585,1584,1568,1568
53583558,1000,1000,1000,1000,74528510,1583,1583,1572,1572
53586057,1000,1000,1000,1000,74628470,1580,1580,1574,1574
53588556,1000,1000,1000,1000,74728430,1577,1577,1577,1577
53591055,1000,1000,1000,1000,74828390,1575,1575,1580,1580
53593554,1000,1000,1000,1000,74928350,1323,1325,1621,1625
53596053,1000,1000,1000,1000,75028310,1402,1408,1649,1654
53598552,1000,1000,1000,1000,75128270,1463,1473,1642,1640
53601051,1000,1000,1000,1000,75228230,1517,1525,1627,1620
53603550,1000,1000,1000,1000,75328190,1560,1563,1616,1607
53606049,1000,1000,1000,1000,75428983,1592,1589,1608,1601
53608548,1000,1000,1000,1000,75528943,1621,1607,1592,1590
53611047,1000,1000,1000,1000,75628903,1647,1633,1567,1573
53613546,1000,1000,1000,1000,75728863,1650,1639,1527,1539
53616045,1000,1000,1000,1000,75828823,1650,1648,1539,1550
53618544,1000,1000,1000,1000,75928783,1644,1650,1556,1562
53621043,1000,1000,1000,1000,76028743,1641,1650,1575,1574
53623542,1000,1000,1000,1000,76128703,1632,1639,1577,1573
53626041,1000,1000,1000,1000,76228663,1624,1629,1576,1573
53628540,1000,1000,1000,1000,76328623,1619,1620,1576,1573
53631039,1000,1000,1000,1000,76428583,1615,1613,1577,1574
53633538,1000,1000,1000,1000,76528543,1611,1608,1575,1575
53636037,1000,1000,1000,1000,76628503,1607,1604,1574,1575
53638536,1000,1000,1000,1000,76728463,1602,1600,1571,1573
53641035,1000,1000,1000,1000,76828423,1597,1597,1570,1570
53643534,1000,1000,1000,1000,76928383,1594,1595,1569,1569
53646033,1000,1000,1000,1000,77028343,1592,1593,1570,1569
53648532,1000,1000,1000,1000,77128303,1590,1591,1569,1568
53651031,1000,1000,1000,1000,77228263,1588,1589,1569,1567
53653530,1000,1000,1000,1000,77328223,1588,1588,1568,1568
53656029,1000,1000,1000,1000,77428183,1589,1588,1569,1569
53658528,1000,1000,1000,1000,77528976,1588,1587,1569,1569
53661027,1000,1000,1000,1000,77628936,1588,1587,1569,1569
53663526,1000,1000,1000,1000,77728896,1588,1587,1569,1569
53666025,1000,1000,1000,1000,77828856,1590,1585,1575,1563
53668524,1000,1000,1000,1000,77928816,1590,1583,1572,1564
53671023,1000,1000,1000,1000,78028776,1583,1576,1572,1571
53673522,1000,1000,1000,1000,78128736,1570,1567,1577,1579
53676021,1000,1000,1000,1000,78228696,1555,1558,1582,1586
53678520,1000,1000,1000,1000,78328656,1545,1551,1586,1590
53681019,1000,1000,1000,1000,78428616,1540,1548,1588,1589
53683518,1000,1000,1000,1000,78528576,1541,1548,1587,1584
53686017,1000,1000,1000,1000,78628536,1545,1550,1581,1577
53688516,1000,1000,1000,1000,78728496,1552,1554,1573,1569
53691015,1000,1000,1000,1000,78828456,1561,1560,1562,1559
53693514,1000,1000,1000,1000,78928416,1570,1567,1551,1550
53696013,1000,1000,1000,1000,79028376,1578,1576,1543,1543
53698512,1000,1000,1000,1000,79128336,1584,1582,1534,1535
53701011,1000,1000,1000,1000,79228296,1587,1587,1530,1531
53703510,1000,1000,1000,1000,79328256,1589,1590,1528,1528
53706009,1000,1000,1000,1000,79428216,1589,1592,1529,1528
53708508,1000,1000,1000,1000,79528176,1588,1591,1532,1531
53711007,1000,1000,1000,1000,79628969,1586,1588,1536,1535
53713506,1000,1000,1000,1000,79728929,1584,1585,1539,1539
53716005,1000,1000,1000,1000,79828889,1582,1583,1542,1542
53718504,1000,1000,1000,1000,79928849,1581,1580,1544,1544
53721003,1000,1000,1000,1000,80028809,1580,1579,1545,1547
53723502,1000,1000,1000,1000,80128769,1580,1579,1547,1549
53726001,1000,1000,1000,1000,80228729,1579,1579,1547,1549
53728500,1000,1000,1000,1000,80328689,1580,1579,1549,1551
53730999,1000,1000,1000,1000,80428649,1580,1579,1549,1553
53733498,1000,1000,1000,1000,80528609,1580,1579,1550,1553
53735997,1000,1000,1000,1000,80628569,1580,1579,1550,1553
53738496,1000,1000,1000,1000,80728529,1580,1579,1551,1553
53740995,1000,1000,1000,1000,80828489,1579,1579,1551,1553
53743494,1000,1000,1000,1000,80928449,1575,1573,1557,1560
53745993,1000,1000,1000,1000,81028409,1564,1561,1572,1576
53748492,1000,1000,1000,1000,81128369,1553,1551,1585,1588
53750991,1000,1000,1000,1000,81228329,1545,1543,1593,1594
53753490,1000,1000,1000,1000,81328289,1539,1539,1598,1597
53755989,1000,1000,1000,1000,81428249,1536,1538,1601,1598
53758488,1000,1000,1000,1000,81528209,1536,1538,1601,1599
53760987,1000,1000,1000,1000,81628169,1537,1538,1599,1597
53763486,1000,1000,1000,1000,81728962,1540,1542,1598,1597
53765985,1000,1000,1000,1000,81828922,1544,1545,1595,1594
53768484,1000,1000,1000,1000,81928882,1548,1549,1591,1591
53770983,1000,1000,1000,1000,82028842,1553,1554,1588,1588
53773482,1000,1000,1000,1000,82128802,1558,1559,1584,1585
53775981,1000,1000,1000,1000,82228762,1563,1563,1581,1581
53778480,1000,1000,1000,1000,82328722,1568,1568,1580,1579
53780979,1000,1000,1000,1000,82428682,1572,1572,1578,1578
53783478,1000,1000,1000,1000,82528642,1575,1575,1576,1575
53785977,1000,1000,1000,1000,82628602,1578,1577,1574,1574
53788476,1000,1000,1000,1000,82728562,1581,1580,1575,1574
53790975,1000,1000,1000,1000,82828522,1582,1581,1573,1573
53793474,1000,1000,1000,1000,82928482,1584,1583,1574,1574
53795973,1000,1000,1000,1000,83028442,1584,1583,1573,1573
53798472,1000,1000,1000,1000,83128402,1584,1583,1573,1573
53800971,1000,1000,1000,1000,83228362,1584,1584,1574,1574
53803470,1000,1000,1000,1000,83328322,1584,1584,1574,1574
53805969,1000,1000,1000,1000,83428282,1584,1584,1575,1575
53808468,1000,1000,1000,1000,83528242,1583,1583,1575,1575
53810967,1000,1000,1000,1000,83628202,1582,1583,1575,1575
53813466,1000,1000,1000,1000,83728162,1582,1582,1576,1576
53815965,1000,1000,1000,1000,83828955,1582,1582,1577,1576
53818464,1000,1000,1000,1000,83928915,1581,1581,1577,1577
53820963,1000,1000,1000,1000,84028875,1581,1581,1578,1578
53823462,1000,1000,1000,1000,84128835,1580,1580,1578,1578
53825961,1000,1000,1000,1000,84228795,1580,1581,1579,1578
53828460,1000,1000,1000,1000,84328755,1580,1580,1578,1578
53830959,1000,1000,1000,1000,84428715,1580,1580,1579,1579
53833458,1000,1000,1000,1000,84528675,1580,1580,1579,1579
53835957,1000,1000,1000,1000,84628635,1580,1580,1580,1580
53838456,1000,1000,1000,1000,84728595,1580,1580,1580,1580
53840955,1000,1000,1000,1000,84828555,1580,1580,1581,1581
53843454,1000,1000,1000,1000,84928515,1580,1580,1580,1581
53845953,1000,1000,1000,1000,85028475,1580,1580,1581,1581
53848452,1000,1000,1000,1000,85128435,1579,1580,1580,1580
53850951,1000,1000,1000,1000,85228395,1580,1580,1580,1580
53853450,1000,1000,1000,1000,85328355,1581,1581,1581,1581
53855949,1000,1000,1000,1000,85428315,1581,1580,1581,1580
53858448,1000,1000,1000,1000,85528275,1580,1580,1580,1580
53860947,1000,1000,1000,1000,85628235,1581,1580,1580,1581
53863446,1000,1000,1000,1000,85728195,1581,1580,1580,1580
53865945,1000,1000,1000,1000,85828155,1580,1580,1580,1580
53868444,1000,1000,1000,1000,85928948,1580,1580,1579,1579
53870943,1000,1000,1000,1000,86028908,1580,1581,1580,1580
53873442,1000,1000,1000,1000,86128868,1581,1581,1580,1580
53875941,1000,1000,1000,1000,86228828,1581,1582,1581,1581
53878440,1000,1000,1000,1000,86328788,1582,1582,1582,1581
53880939,1000,1000,1000,1000,86428748,1582,1582,1582,1582
53883438,1000,1000,1000,1000,86528708,1581,1581,1581,1581
53885937,1000,1000,1000,1000,86628668,1582,1581,1581,1581
53888436,1000,1000,1000,1000,86728628,1582,1582,1581,1581
53890935,1000,1000,1000,1000,86828588,1582,1581,1587,1575
53893434,1000,1000,1000,1000,86928548,1582,1581,1586,1574
53895933,1000,1000,1000,1000,87028508,1580,1581,1577,1574
53898432,1000,1000,1000,1000,87128468,1578,1579,1568,1572
53900931,1000,1000,1000,1000,87228428,1575,1578,1561,1567
53903430,1000,1000,1000,1000,87328388,1575,1577,1558,1563
53905929,1000,1000,1000,1000,87428348,1575,1577,1557,1560
53908428,1000,1000,1000,1000,87528308,1576,1577,1558,1557
53910927,1000,1000,1000,1000,87628268,1575,1575,1556,1555
53913426,1000,1000,1000,1000,87728228,1576,1575,1557,1555
53915925,1000,1000,1000,1000,87828188,1576,1576,1556,1554
53918424,1000,1000,1000,1000,87928981,1576,1576,1556,1555
53920923,1000,1000,1000,1000,88028941,1576,1576,1555,1554
53923422,1000,1000,1000,1000,88128901,1575,1576,1553,1553
53925921,1000,1000,1000,1000,88228861,1575,1576,1550,1551
53928420,1000,1000,1000,1000,88328821,1576,1577,1549,1549
53930919,1000,1000,1000,1000,88428781,1577,1579,1548,1548
53933418,1000,1000,1000,1000,88528741,1578,1580,1546,1545
53935917,1000,1000,1000,1000,88628701,1580,1581,1545,1544
53938416,1000,1000,1000,1000,88728661,1582,1583,1543,1543
53940915,1000,1000,1000,1000,88828621,1584,1585,1541,1540
53943414,1000,1000,1000,1000,88928581,1587,1586,1539,1540
53945913,1000,1000,1000,1000,89028541,1589,1588,1539,1539
53948412,1000,1000,1000,1000,89128501,1590,1589,1539,1540
53950911,1000,1000,1000,1000,89228461,1590,1590,1541,1541
53953410,1000,1000,1000,1000,89328421,1589,1589,1542,1544
53955909,1000,1000,1000,1000,89428381,1588,1588,1545,1548
53958408,1000,1000,1000,1000,89528341,1585,1584,1548,1551
53960907,1000,1000,1000,1000,89628301,1581,1580,1553,1556
53963406,1000,1000,1000,1000,89728261,1576,1574,1560,1563
53965905,1000,1000,1000,1000,89828221,1570,1568,1569,1571
53968404,1000,1000,1000,1000,89928181,1563,1560,1577,1579
53970903,1000,1000,1000,1000,90028974,1555,1552,1588,1588
53973402,1000,1000,1000,1000,90128934,1546,1544,1598,1597
53975901,1000,1000,1000,1000,90228894,1539,1538,1606,1605
53978400,1000,1000,1000,1000,90328854,1533,1534,1610,1610
53980899,1000,1000,1000,1000,90428814,1532,1533,1612,1611
53983398,1000,1000,1000,1000,90528774,1533,1535,1611,1610
53985897,1000,1000,1000,1000,90628734,1536,1539,1606,1606
53988396,1000,1000,1000,1000,90728694,1542,1544,1600,1600
53990895,1000,1000,1000,1000,90828654,1550,1551,1594,1593
53993394,1000,1000,1000,1000,90928614,1558,1559,1587,1586
53995893,1000,1000,1000,1000,91028574,1566,1566,1580,1579
53998392,1000,1000,1000,1000,91128534,1574,1573,1574,1574
54000891,1000,1000,1000,1000,91228494,1580,1579,1570,1569
54003390,1000,1000,1000,1000,91328454,1585,1584,1567,1567
54005889,1000,1000,1000,1000,91428414,1588,1586,1565,1565
54008388,1000,1000,1000,1000,91528374,1589,1587,1565,1565
54010887,1000,1000,1000,1000,91628334,1589,1588,1567,1567
54013386,1000,1000,1000,1000,91728294,1587,1586,1569,1568
54015885,1000,1000,1000,1000,91828254,1586,1586,1572,1572
54018384,1000,1000,1000,1000,91928214,1584,1584,1575,1575
54020883,1000,1000,1000,1000,92028174,1582,1582,1576,1577
54023382,1000,1000,1000,1000,92128967,1580,1581,1579,1579
54025881,1000,1000,1000,1000,92228927,1577,1578,1581,1581
54028380,1000,1000,1000,1000,92328887,1576,1576,1583,1583
54030879,1000,1000,1000,1000,92428847,1574,1575,1584,1584
54033378,1000,1000,1000,1000,92528807,1574,1574,1584,1584
54035877,1000,1000,1000,1000,92628767,1574,1574,1585,1584
54038376,1000,1000,1000,1000,92728727,1574,1574,1584,1583
54040875,1000,1000,1000,1000,92828687,1575,1575,1583,1583
54043374,1000,1000,1000,1000,92928647,1576,1576,1581,1581
54045873,1000,1000,1000,1000,93028607,1577,1577,1581,1581
54048372,1000,1000,1000,1000,93128567,1578,1578,1580,1580
54050871,1000,1000,1000,1000,93228527,1579,1579,1579,1579
54053370,1000,1000,1000,1000,93328487,1580,1580,1578,1578
54055869,1000,1000,1000,1000,93428447,1582,1581,1578,1578
54058368,1000,1000,1000,1000,93528407,1582,1581,1577,1577
54060867,1000,1000,1000,1000,93628367,1582,1582,1577,1577
54063366,1000,1000,1000,1000,93728327,1582,1582,1578,1578
54065865,1000,1000,1000,1000,93828287,1582,1582,1578,1578
54068364,1000,1000,1000,1000,93928247,1582,1582,1579,1579
54070863,1000,1000,1000,1000,94028207,1582,1582,1580,1580
54073362,1000,1000,1000,1000,94128167,1581,1582,1580,1581
54075861,1000,1000,1000,1000,94228960,1581,1581,1581,1581
54078360,1000,1000,1000,1000,94328920,1581,1580,1581,1581
54080859,1000,1000,1000,1000,94428880,1581,1581,1582,1582
54083358,1000,1000,1000,1000,94528840,1581,1581,1582,1582
54085857,1000,1000,1000,1000,94628800,1580,1581,1582,1582
54088356,1000,1000,1000,1000,94728760,1580,1580,1581,1582
54090855,1000,1000,1000,1000,94828720,1581,1581,1582,1582
54093354,1000,1000,1000,1000,94928680,1581,1581,1582,1582
54095853,1000,1000,1000,1000,95028640,1582,1582,1589,1576
54098352,1000,1000,1000,1000,95128600,1581,1581,1587,1574
54100851,1000,1000,1000,1000,95228560,1580,1578,1580,1575
54103350,1000,1000,1000,1000,95328520,1576,1575,1571,1574
54105849,1000,1000,1000,1000,95428480,1573,1573,1566,1573
54108348,1000,1000,1000,1000,95528440,1570,1570,1564,1570
54110847,1000,1000,1000,1000,95628400,1568,1569,1564,1568
54113346,1000,1000,1000,1000,95728360,1567,1569,1566,1567
54115845,1000,1000,1000,1000,95828320,1566,1568,1567,1566
54118344,1000,1000,1000,1000,95928280,1566,1566,1568,1565
54120843,1000,1000,1000,1000,96028240,1565,1565,1567,1564
54123342,1000,1000,1000,1000,96128200,1565,1564,1567,1565
54125841,1000,1000,1000,1000,96228160,1564,1564,1566,1565
54128340,1000,1000,1000,1000,96328953,1564,1563,1565,1565
54130839,1000,1000,1000,1000,96428913,1563,1562,1564,1564
54133338,1000,1000,1000,1000,96528873,1563,1563,1564,1564
54135837,1000,1000,1000,1000,96628833,1561,1561,1562,1562
54138336,1000,1000,1000,1000,96728793,1561,1562,1563,1563
54140835,1000,1000,1000,1000,96828753,1561,1562,1562,1562
54143334,1000,1000,1000,1000,96928713,1562,1561,1562,1561
54145833,1000,1000,1000,1000,97028673,1561,1561,1561,1561
54148332,1000,1000,1000,1000,97128633,1562,1561,1562,1561
54150831,1000,1000,1000,1000,97228593,1561,1561,1561,1560
54153330,1000,1000,1000,1000,97328553,1561,1561,1561,1560
54155829,1000,1000,1000,1000,97428513,1561,1560,1560,1559
54158328,1000,1000,1000,1000,97528473,1561,1560,1561,1559
54160827,1000,1000,1000,1000,97628433,1560,1560,1561,1559
54163326,1000,1000,1000,1000,97728393,1560,1560,1561,1559
54165825,1000,1000,1000,1000,97828353,1560,1559,1560,1558
54168324,1000,1000,1000,1000,97928313,1560,1559,1558,1561
54170823,1000,1000,1000,1000,98028273,1560,1560,1557,1563
54173322,1000,1000,1000,1000,98128233,1560,1561,1558,1564
54175821,1000,1000,1000,1000,98228193,1560,1560,1559,1563
54178320,1000,1000,1000,1000,98328986,1558,1559,1559,1559
54180819,1000,1000,1000,1000,98428946,1558,1559,1559,1558
54183318,1000,1000,1000,1000,98528906,1558,1558,1556,1558
54185817,1000,1000,1000,1000,98628866,1554,1555,1552,1554
54188316,1000,1000,1000,1000,98728826,1551,1551,1548,1549
54190815,1000,1000,1000,1000,98828786,1545,1546,1542,1542
54193314,1000,1000,1000,1000,98928746,1541,1540,1536,1536
54195813,1000,1000,1000,1000,99028706,1535,1534,1530,1529
54198312,1000,1000,1000,1000,99128666,1527,1527,1522,1522
54200811,1000,1000,1000,1000,99228626,1523,1523,1519,1519
54203310,1000,1000,1000,1000,99328586,1520,1520,1518,1519
54205809,1000,1000,1000,1000,99428546,1519,1519,1520,1520
54208308,1000,1000,1000,1000,99528506,1520,1520,1523,1524
54210807,1000,1000,1000,1000,99628466,1522,1522,1528,1528
54213306,1000,1000,1000,1000,99728426,1525,1525,1533,1533
54215805,1000,1000,1000,1000,99828386,1529,1529,1538,1538
54218304,1000,1000,1000,1000,99928346,1533,1533,1542,1542
54220803,1000,1000,1000,1000,100028306,1536,1536,1544,1544
54223302,1000,1000,1000,1000,100128266,1539,1539,1545,1545
54225801,1000,1000,1000,1000,100228226,1542,1543,1546,1546
54228300,1000,1000,1000,1000,100328186,1545,1544,1545,1545
54230799,1000,1000,1000,1000,100428979,1546,1546,1544,1544
54233298,1000,1000,1000,1000,100528939,1548,1548,1544,1544
54235797,1000,1000,1000,1000,100628899,1548,1548,1543,1543
54238296,1000,1000,1000,1000,100728859,1549,1549,1543,1543
54240795,1000,1000,1000,1000,100828819,1549,1549,1544,1544
54243294,1000,1000,1000,1000,100928779,1549,1549,1544,1544
54245793,1000,1000,1000,1000,101028739,1549,1549,1544,1544
54248292,1000,1000,1000,1000,101128699,1548,1548,1545,1545
54250791,1000,1000,1000,1000,101228659,1547,1547,1545,1544
54253290,1000,1000,1000,1000,101328619,1546,1546,1544,1545
54255789,1000,1000,1000,1000,101428579,1545,1546,1545,1546
54258288,1000,1000,1000,1000,101528539,1544,1544,1545,1545
54260787,1000,1000,1000,1000,101628499,1544,1544,1546,1546
54263286,1000,1000,1000,1000,101728459,1544,1544,1547,1546
54265785,1000,1000,1000,1000,101828419,1543,1543,1546,1546
54268284,1000,1000,1000,1000,101928379,1543,1543,1546,1546
54270783,1000,1000,1000,1000,102028339,1543,1543,1545,1545
54273282,1000,1000,1000,1000,102128299,1543,1543,1545,1545
54275781,1000,1000,1000,1000,102228259,1543,1543,1544,1545
54278280,1000,1000,1000,1000,102328219,1543,1543,1543,1543
54280779,1000,1000,1000,1000,102428179,1544,1543,1543,1544
54283278,1000,1000,1000,1000,102528972,1544,1543,1543,1543
54285777,1000,1000,1000,1000,102628932,1543,1544,1543,1543
54288276,1000,1000,1000,1000,102728892,1544,1544,1543,1544
54290775,1000,1000,1000,1000,102828852,1544,1545,1544,1544
54293274,1000,1000,1000,1000,102928812,1545,1545,1544,1544
54295773,1000,1000,1000,1000,103028772,1545,1545,1545,1544
54298272,1000,1000,1000,1000,103128732,1544,1545,1544,1543
54300771,1000,1000,1000,1000,103228692,1545,1545,1544,1544
54303270,1000,1000,1000,1000,103328652,1544,1543,1542,1543
54305769,1000,1000,1000,1000,103428612,1544,1544,1543,1544
54308268,1000,1000,1000,1000,103528572,1545,1544,1544,1545
54310767,1000,1000,1000,1000,103628532,1544,1544,1544,1544
54313266,1000,1000,1000,1000,103728492,1544,1544,1544,1544
54315765,1000,1000,1000,1000,103828452,1544,1544,1545,1544
54318264,1000,1000,1000,1000,103928412,1543,1544,1544,1544
54320763,1000,1000,1000,1000,104028372,1543,1544,1544,1544
54323262,1000,1000,1000,1000,104128332,1543,1543,1543,1543
54325761,1000,1000,1000,1000,104228292,1543,1543,1543,1543
54328260,1000,1000,1000,1000,104328252,1543,1543,1544,1544
54330759,1000,1000,1000,1000,104428212,1544,1544,1544,1544
54333258,1000,1000,1000,1000,104528172,1545,1544,1544,1545
54335757,1000,1000,1000,1000,104628965,1544,1544,1544,1545
54338256,1000,1000,1000,1000,104728925,1545,1544,1545,1545
54340755,1000,1000,1000,1000,104828885,1544,1544,1544,1544
54343254,1000,1000,1000,1000,104928845,1544,1544,1544,1544
54345753,1000,1000,1000,1000,105028805,1544,1545,1544,1544
54348252,1000,1000,1000,1000,105128765,1545,1545,1544,1544
54350751,1000,1000,1000,1000,105228725,1544,1544,1544,1544
54353250,1000,1000,1000,1000,105328685,1545,1544,1544,1544
54355749,1000,1000,1000,1000,105428645,1545,1545,1545,1545
54358248,1000,1000,1000,1000,105528605,1545,1545,1545,1545
54360747,1000,1000,1000,1000,105628565,1544,1544,1543,1544
54363246,1000,1000,1000,1000,105728525,1544,1545,1544,1545
54365745,1000,1000,1000,1000,105828485,1544,1544,1544,1544
54368244,1000,1000,1000,1000,105928445,1544,1544,1544,1544
54370743,1000,1000,1000,1000,106028405,1544,1544,1544,1544
54373242,1000,1000,1000,1000,106128365,1544,1544,1545,1545
54375741,1000,1000,1000,1000,106228325,1544,1544,1544,1545
54378240,1000,1000,1000,1000,106328285,1544,1544,1544,1545
54380739,1000,1000,1000,1000,106428245,1544,1544,1544,1545
54383238,1000,1000,1000,1000,106528205,1544,1544,1544,1544
54385737,1000,1000,1000,1000,106628165,1544,1545,1545,1544
54388236,1000,1000,1000,1000,106728958,1544,1544,1544,1544
54390735,1000,1000,1000,1000,106828918,1544,1545,1545,1544
54393234,1000,1000,1000,1000,106928878,1544,1544,1544,1544
54395733,1000,1000,1000,1000,107028838,1544,1544,1544,1544
54398232,1000,1000,1000,1000,107128798,1545,1544,1544,1545
54400731,1000,1000,1000,1000,107228758,1544,1544,1544,1544
54403230,1000,1000,1000,1000,107328718,1545,1544,1544,1545
54405729,1000,1000,1000,1000,107428678,1544,1544,1544,1544
54408228,1000,1000,1000,1000,107528638,1544,1544,1544,1544
54410727,1000,1000,1000,1000,107628598,1544,1545,1545,1544
54413226,1000,1000,1000,1000,107728558,1544,1544,1543,1544
54415725,1000,1000,1000,1000,107828518,1544,1544,1545,1544
54418224,1000,1000,1000,1000,107928478,1544,1544,1544,1544
54420723,1000,1000,1000,1000,108028438,1544,1544,1545,1544
54423222,1000,1000,1000,1000,108128398,1544,1543,1543,1543
54425721,1000,1000,1000,1000,108228358,1544,1544,1544,1544
54428220,1000,1000,1000,1000,108328318,1544,1544,1544,1544
54430719,1000,1000,1000,1000,108428278,1543,1543,1543,1544
54433218,1000,1000,1000,1000,108528238,1544,1544,1544,1544
54435717,1000,1000,1000,1000,108628198,1544,1544,1544,1544
54438216,1000,1000,1000,1000,108728158,1544,1544,1544,1545
54440715,1000,1000,1000,1000,108828951,1545,1545,1545,1545
54443214,1000,1000,1000,1000,108928911,1475,1476,1447,1446
54445713,1000,1000,1000,1000,109028871,1374,1376,1289,1287
54448212,1000,1000,1000,1000,109128831,1338,1339,1224,1221
54450711,1000,1000,1000,1000,109228791,1326,1328,1202,1199
54453210,1000,1000,1000,1000,109328751,1310,1311,1167,1165
54455709,1000,1000,1000,1000,109428711,1264,1266,1152,1150
54458208,1000,1000,1000,1000,109528671,1165,1167,1152,1150
54460707,1000,1000,1000,1000,109628631,1053,1055,1152,1150
54463206,1000,1000,1000,1000,109728591,1014,1015,1151,1150
54465705,1000,1000,1000,1000,109828551,1014,1015,1152,1150
54468204,1000,1000,1000,1000,109928511,1014,1015,1151,1150
54470703,1000,1000,1000,1000,110028471,1016,1000,1150,1169
54473202,1000,1000,1000,1000,110128431,1016,1007,1150,1161
54475701,1000,1000,1000,1000,110228391,1015,1009,1150,1158
54478200,1000,1000,1000,1000,110328351,1015,1009,1150,1158
54480699,1000,1000,1000,1000,110428311,1015,1009,1150,1158
54483198,1000,1000,1000,1000,110528271,1015,1009,1150,1158
54485697,1000,1000,1000,1000,110628231,1015,1009,1150,1159
54488196,1000,1000,1000,1000,110728191,1015,1008,1150,1159
54490695,1000,1000,1000,1000,110828984,1015,1015,1150,1150
54493194,1000,1000,1000,1000,110928944,1015,1014,1150,1151
54495693,1000,1000,1000,1000,111028904,1015,1014,1150,1151
54498192,1000,1000,1000,1000,111128864,1015,1014,1150,1152
54500691,1000,1000,1000,1000,111228824,953,951,1150,1151
54503190,1000,1000,1000,1000,111328784,1000,1000,1000,1000
54505689,1000,1000,1000,1000,111428744,1000,1000,1000,1000
54508188,1000,1000,1000,1000,111528704,1000,1000,1000,1000
54510687,1000,1000,1000,1000,111628664,1000,1000,1000,1000
54513186,1000,1000,1000,1000,111728624,1000,1000,1000,1000
54515685,1000,1000,1000,1000,111828584,1000,1000,1000,1000
54518184,1000,1000,1000,1000,111928544,1000,1000,1000,1000
54520683,1000,1000,1000,1000,112028504,1000,1000,1000,1000
54523182,1000,1000,1000,1000,112128464,1000,1000,1000,1000
54525681,1000,1000,1000,1000,112228424,1000,1000,1000,1000
54528180,1000,1000,1000,1000,112328384,1000,1000,1000,1000
54530679,1000,1000,1000,1000,112428344,1000,1000,1000,1000
54533178,1000,1000,1000,1000,112528304,1000,1000,1000,1000
54535677,1000,1000,1000,1000,112628264,1000,1000,1000,1000
54538176,1000,1000,1000,1000,112728224,1000,1000,1000,1000
54540675,1000,1000,1000,1000,112828184,1000,1000,1000,1000
54543174,1000,1000,1000,1000,112928977,1000,1000,1000,1000
54545673,1000,1000,1000,1000,113028937,1000,1000,1000,1000
54548172,1000,1000,1000,1000,113128897,1000,1000,1000,1000
54550671,1000,1000,1000,1000,113228857,1000,1000,1000,1000
54553170,1000,1000,1000,1000,113328817,1000,1000,1000,1000
54555669,1000,1000,1000,1000,113428777,1000,1000,1000,1000
54558168,1000,1000,1000,1000,113528737,1000,1000,1000,1000
54560667,1000,1000,1000,1000,113628697,1000,1000,1000,1000
54563166,1000,1000,1000,1000,113728657,1000,1000,1000,1000
54565665,1000,1000,1000,1000,113828617,1000,1000,1000,1000
54568164,1000,1000,1000,1000,113928577,1000,1000,1000,1000
54570663,1000,1000,1000,1000,114028537,1000,1000,1000,1000
54573162,1000,1000,1000,1000,114128497,1000,1000,1000,1000
54575661,1000,1000,1000,1000,114228457,1000,1000,1000,1000
54578160,1000,1000,1000,1000,114328417,1000,1000,1000,1000
54580659,1000,1000,1000,1000,114428377,1000,1000,1000,1000
54583158,1000,1000,1000,1000,114528337,1000,1000,1000,1000
54585657,1000,1000,1000,1000,114628297,1000,1000,1000,1000
54588156,1000,1000,1000,1000,114728257,1000,1000,1000,1000
54590655,1000,1000,1000,1000,114828217,1000,1000,1000,1000
54593154,1000,1000,1000,1000,114928177,1000,1000,1000,1000
54596486,1000,1000,1000,1000,115028970,1000,1000,1000,1000
54598985,1000,1000,1000,1000,115128930,1000,1000,1000,1000
54601484,1000,1000,1000,1000,115228890,1000,1000,1000,1000
54603983,1000,1000,1000,1000,115328850,1000,1000,1000,1000
54606482,1000,1000,1000,1000,115428810,1000,1000,1000,1000
54608981,1000,1000,1000,1000,115528770,1000,1000,1000,1000
54611480,1000,1000,1000,1000,115628730,1000,1000,1000,1000
54613979,1000,1000,1000,1000,115728690,1000,1000,1000,1000
54616478,1000,1000,1000,1000,115828650,1000,1000,1000,1000
54618977,1000,1000,1000,1000,115928610,1000,1000,1000,1000
54621476,1000,1000,1000,1000,116028570,1000,1000,1000,1000
54623975,1000,1000,1000,1000,116128530,1000,1000,1000,1000
54626474,1000,1000,1000,1000,116228490,1000,1000,1000,1000
54628973,1000,1000,1000,1000,116328450,1000,1000,1000,1000
54631472,1000,1000,1000,1000,116428410,1000,1000,1000,1000
54633971,1000,1000,1000,1000,116528370,1000,1000,1000,1000
54636470,1000,1000,1000,1000,116628330,1000,1000,1000,1000
54638969,1000,1000,1000,1000,116728290,1000,1000,1000,1000
54641468,1000,1000,1000,1000,116828250,1000,1000,1000,1000
54643967,1000,1000,1000,1000,116928210,1000,1000,1000,1000
54646466,1000,1000,1000,1000,117028170,1000,1000,1000,1000
54648965,1000,1000,1000,1000,117128963,1000,1000,1000,1000
54651464,1000,1000,1000,1000,117228923,1000,1000,1000,1000
54653963,1000,1000,1000,1000,117328883,1000,1000,1000,1000
54656462,1000,1000,1000,1000,117428843,1000,1000,1000,1000
54658961,1000,1000,1000,1000,117528803,1000,1000,1000,1000
54661460,1000,1000,1000,1000,117628763,1000,1000,1000,1000
54663959,1000,1000,1000,1000,117728723,1000,1000,1000,1000
54666458,1000,1000,1000,1000,117828683,1000,1000,1000,1000
54668957,1000,1000,1000,1000,117928643,1000,1000,1000,1000
54671456,1000,1000,1000,1000,118028603,1000,1000,1000,1000
54673955,1000,1000,1000,1000,118128563,1000,1000,1000,1000
54676454,1000,1000,1000,1000,118228523,1000,1000,1000,1000
54678953,1000,1000,1000,1000,118328483,1000,1000,1000,1000
54681452,1000,1000,1000,1000,118428443,1000,1000,1000,1000
54683951,1000,1000,1000,1000,118528403,1000,1000,1000,1000
54686450,1000,1000,1000,1000,118628363,1000,1000,1000,1000
54688949,1000,1000,1000,1000,118728323,1000,1000,1000,1000
54691448,1000,1000,1000,1000,118828283,1000,1000,1000,1000
54693947,1000,1000,1000,1000,118928243,1000,1000,1000,1000
54696446,1000,1000,1000,1000,119028203,1000,1000,1000,1000
54698945,1000,1000,1000,1000,119128163,1000,1000,1000,1000
54701444,1000,1000,1000,1000,119228956,1000,1000,1000,1000
54703943,1000,1000,1000,1000,119328916,1000,1000,1000,1000
54706442,1000,1000,1000,1000,119428876,1000,1000,1000,1000
54708941,1000,1000,1000,1000,119528836,1000,1000,1000,1000
54711440,1000,1000,1000,1000,119628796,1000,1000,1000,1000
54713939,1000,1000,1000,1000,119728756,1000,1000,1000,1000
54716438,1000,1000,1000,1000,119828716,1000,1000,1000,1000
54718937,1000,1000,1000,1000,119928676,1000,1000,1000,1000
54721436,1000,1000,1000,1000,120028636,1000,1000,1000,1000
54723935,1000,1000,1000,1000,120128596,1000,1000,1000,1000
54726434,1000,1000,1000,1000,120228556,1000,1000,1000,1000
54728933,1000,1000,1000,1000,120328516,1000,1000,1000,1000
54731432,1000,1000,1000,1000,120428476,1000,1000,1000,1000
54733931,1000,1000,1000,1000,120528436,1000,1000,1000,1000
54736430,1000,1000,1000,1000,,,,,
54738929,1000,1000,1000,1000,,,,,
54741428,1000,1000,1000,1000,,,,,
54743927,1000,1000,1000,1000,,,,,
54746426,1000,1000,1000,1000,,,,,
54748925,1000,1000,1000,1000,,,,,
54751424,1000,1000,1000,1000,,,,,
54753923,1000,1000,1000,1000,,,,,
54756422,1000,1000,1000,1000,,,,,
54758921,1000,1000,1000,1000,,,,,
54761420,1000,1000,1000,1000,,,,,
54763919,1000,1000,1000,1000,,,,,
54766418,1000,1000,1000,1000,,,,,
54768917,1000,1000,1000,1000,,,,,
54771416,1000,1000,1000,1000,,,,,
54773915,1000,1000,1000,1000,,,,,
54776414,1000,1000,1000,1000,,,,,
54778913,1000,1000,1000,1000,,,,,
54781412,1000,1000,1000,1000,,,,,
54783911,1000,1000,1000,1000,,,,,
54786410,1000,1000,1000,1000,,,,,
54788909,1000,1000,1000,1000,,,,,
54791408,1000,1000,1000,1000,,,,,
54793907,1000,1000,1000,1000,,,,,
54796406,1000,1000,1000,1000,,,,,
54798905,1000,1000,1000,1000,,,,,
54801404,1000,1000,1000,1000,,,,,
54803903,1000,1000,1000,1000,,,,,
54806402,1000,1000,1000,1000,,,,,
54808901,1000,1000,1000,1000,,,,,
54811400,1000,1000,1000,1000,,,,,
54813899,1000,1000,1000,1000,,,,,
54816398,1000,1000,1000,1000,,,,,
54818897,1000,1000,1000,1000,,,,,
54821396,1000,1000,1000,1000,,,,,
54823895,1000,1000,1000,1000,,,,,
54826394,1000,1000,1000,1000,,,,,
54828893,1000,1000,1000,1000,,,,,
54831392,1000,1000,1000,1000,,,,,
54833891,1000,1000,1000,1000,,,,,
54836390,1000,1000,1000,1000,,,,,
54838889,1000,1000,1000,1000,,,,,
54841388,1000,1000,1000,1000,,,,,
54843887,1000,1000,1000,1000,,,,,
54846386,1000,1000,1000,1000,,,,,
54848885,1000,1000,1000,1000,,,,,
54851384,1000,1000,1000,1000,,,,,
54853883,1000,1000,1000,1000,,,,,
54856382,1000,1000,1000,1000,,,,,
54858881,1000,1000,1000,1000,,,,,
54861380,1000,1000,1000,1000,,,,,
54863879,1000,1000,1000,1000,,,,,
54866378,1000,1000,1000,1000,,,,,
54868877,1000,1000,1000,1000,,,,,
54871376,1000,1000,1000,1000,,,,,
54873875,1000,1000,1000,1000,,,,,
54876374,1000,1000,1000,1000,,,,,
54878873,1000,1000,1000,1000,,,,,
54881372,1000,1000,1000,1000,,,,,
54883871,1000,1000,1000,1000,,,,,
54886370,1000,1000,1000,1000,,,,,
54888869,1000,1000,1000,1000,,,,,
54891368,1000,1000,1000,1000,,,,,
54893867,1000,1000,1000,1000,,,,,
54896366,1000,1000,1000,1000,,,,,
54898865,1000,1000,1000,1000,,,,,
54901364,1000,1000,1000,1000,,,,,
54903863,1000,1000,1000,1000,,,,,
54906362,1000,1000,1000,1000,,,,,
54908861,1000,1000,1000,1000,,,,,
54911360,1000,1000,1000,1000,,,,,
54913859,1000,1000,1000,1000,,,,,
54916358,1000,1000,1000,1000,,,,,
54918857,1000,1000,1000,1000,,,,,
54921356,1000,1000,1000,1000,,,,,
54923855,1000,1000,1000,1000,,,,,
54926354,1000,1000,1000,1000,,,,,
54928853,1000,1000,1000,1000,,,,,
54931352,1000,1000,1000,1000,,,,,
54933851,1000,1000,1000,1000,,,,,
54936350,1000,1000,1000,1000,,,,,
54938849,1000,1000,1000,1000,,,,,
54941348,1000,1000,1000,1000,,,,,
54943847,1000,1000,1000,1000,,,,,
54946346,1000,1000,1000,1000,,,,,
54948845,1000,1000,1000,1000,,,,,
54951344,1000,1000,1000,1000,,,,,
54953843,1000,1000,1000,1000,,,,,
54956342,1000,1000,1000,1000,,,,,
54958841,1000,1000,1000,1000,,,,,
54961340,1000,1000,1000,1000,,,,,
54963839,1000,1000,1000,1000,,,,,
54966338,1000,1000,1000,1000,,,,,
54968837,1000,1000,1000,1000,,,,,
54971336,1000,1000,1000,1000,,,,,
54973835,1000,1000,1000,1000,,,,,
54976334,1000,1000,1000,1000,,,,,
54978833,1000,1000,1000,1000,,,,,
54981332,1000,1000,1000,1000,,,,,
54983831,1000,1000,1000,1000,,,,,
54986330,1000,1000,1000,1000,,,,,
54988829,1000,1000,1000,1000,,,,,
54991328,1000,1000,1000,1000,,,,,
54993827,1000,1000,1000,1000,,,,,
54996326,1000,1000,1000,1000,,,,,
54998825,1000,1000,1000,1000,,,,,
55001324,1000,1000,1000,1000,,,,,
55003823,1000,1000,1000,1000,,,,,
55006322,1000,1000,1000,1000,,,,,
55008821,1000,1000,1000,1000,,,,,
55011320,1000,1000,1000,1000,,,,,
55013819,1000,1000,1000,1000,,,,,
55016318,1000,1000,1000,1000,,,,,
55018817,1000,1000,1000,1000,,,,,
55021316,1000,1000,1000,1000,,,,,
55023815,1000,1000,1000,1000,,,,,
55026314,1000,1000,1000,1000,,,,,
55028813,1000,1000,1000,1000,,,,,
55031312,1000,1000,1000,1000,,,,,
55033811,1000,1000,1000,1000,,,,,
55036310,1000,1000,1000,1000,,,,,
55038809,1000,1000,1000,1000,,,,,
55041308,1000,1000,1000,1000,,,,,
55043807,1000,1000,1000,1000,,,,,
55046306,1000,1000,1000,1000,,,,,
55048805,1000,1000,1000,1000,,,,,
55051304,1000,1000,1000,1000,,,,,
55053803,1000,1000,1000,1000,,,,,
55056302,1001,1001,1001,1001,,,,,
55058801,1002,1002,1002,1002,,,,,
55061300,1003,1003,1003,1003,,,,,
55063799,1003,1003,1003,1003,,,,,
55066298,1004,1004,1004,1004,,,,,
55068797,1005,1005,1005,1005,,,,,
55071296,1006,1006,1006,1006,,,,,
55073795,1006,1006,1006,1006,,,,,
55076294,1007,1007,1007,1007,,,,,
55078793,1008,1008,1008,1008,,,,,
55081292,1009,1009,1009,1009,,,,,
55083791,1009,1009,1009,1009,,,,,
55086290,1010,1010,1010,1010,,,,,
55088789,1011,1011,1011,1011,,,,,
55091288,1012,1012,1012,1012,,,,,
55093787,1012,1012,1012,1012,,,,,
55096286,1013,1013,1013,1013,,,,,
55098785,1014,1014,1014,1014,,,,,
55101284,1015,1015,1015,1015,,,,,
55103783,1015,1015,1015,1015,,,,,
55106282,1016,1016,1016,1016,,,,,
55108781,1017,1017,1017,1017,,,,,
55111280,1018,1018,1018,1018,,,,,
55113779,1018,1018,1018,1018,,,,,
55116278,1019,1019,1019,1019,,,,,
55118777,1020,1020,1020,1020,,,,,
55121276,1021,1021,1021,1021,,,,,
55123775,1021,1021,1021,1021,,,,,
55126274,1022,1022,1022,1022,,,,,
55128773,1023,1023,1023,1023,,,,,
55131272,1024,1024,1024,1024,,,,,
55133771,1024,1024,1024,1024,,,,,
55136270,1025,1025,1025,1025,,,,,
55138769,1026,1026,1026,1026,,,,,
55141268,1027,1027,1027,1027,,,,,
55143767,1027,1027,1027,1027,,,,,
55146266,1028,1028,1028,1028,,,,,
55148765,1029,1029,1029,1029,,,,,
55151264,1030,1030,1030,1030,,,,,
55153763,1030,1030,1030,1030,,,,,
55156262,1031,1031,1031,1031,,,,,
55158761,1032,1032,1032,1032,,,,,
55161260,1033,1033,1033,1033,,,,,
55163759,1033,1033,1033,1033,,,,,
55166258,1034,1034,1034,1034,,,,,
55168757,1035,1035,1035,1035,,,,,
55171256,1036,1036,1036,1036,,,,,
55173755,1036,1036,1036,1036,,,,,
55176254,1037,1037,1037,1037,,,,,
55178753,1038,1038,1038,1038,,,,,
55181252,1039,1039,1039,1039,,,,,
55183751,1039,1039,1039,1039,,,,,
55186250,1040,1040,1040,1040,,,,,
55188749,1041,1041,1041,1041,,,,,
55191248,1042,1042,1042,1042,,,,,
55193747,1042,1042,1042,1042,,,,,
55196246,1043,1043,1043,1043,,,,,
55198745,1044,1044,1044,1044,,,,,
55201244,1045,1045,1045,1045,,,,,
55203743,1045,1045,1045,1045,,,,,
55206242,1046,1046,1046,1046,,,,,
55208741,1047,1047,1047,1047,,,,,
55211240,1048,1048,1048,1048,,,,,
55213739,1048,1048,1048,1048,,,,,
55216238,1049,1049,1049,1049,,,,,
55218737,1050,1050,1050,1050,,,,,
55221236,1051,1051,1051,1051,,,,,
55223735,1051,1051,1051,1051,,,,,
55226234,1052,1052,1052,1052,,,,,
55228733,1053,1053,1053,1053,,,,,
55231232,1054,1054,1054,1054,,,,,
55233731,1054,1054,1054,1054,,,,,
55236230,1055,1055,1055,1055,,,,,
55238729,1056,1056,1056,1056,,,,,
55241228,1057,1057,1057,1057,,,,,
55243727,1057,1057,1057,1057,,,,,
55246226,1058,1058,1058,1058,,,,,
55248725,1059,1059,1059,1059,,,,,
55251224,1060,1060,1060,1060,,,,,
55253723,1060,1060,1060,1060,,,,,
55256222,1061,1061,1061,1061,,,,,
55258721,1062,1062,1062,1062,,,,,
55261220,1063,1063,1063,1063,,,,,
55263719,1063,1063,1063,1063,,,,,
55266218,1064,1064,1064,1064,,,,,
55268717,1065,1065,1065,1065,,,,,
55271216,1066,1066,1066,1066,,,,,
55273715,1066,1066,1066,1066,,,,,
55276214,1067,1067,1067,1067,,,,,
55278713,1068,1068,1068,1068,,,,,
55281212,1069,1069,1069,1069,,,,,
55283711,1069,1069,1069,1069,,,,,
55286210,1070,1070,1070,1070,,,,,
55288709,1071,1071,1071,1071,,,,,
55291208,1072,1072,1072,1072,,,,,
55293707,1072,1072,1072,1072,,,,,
55296206,1073,1073,1073,1073,,,,,
55298705,1074,1074,1074,1074,,,,,
55301204,1075,1075,1075,1075,,,,,
55303703,1075,1075,1075,1075,,,,,
55306202,1076,1076,1076,1076,,,,,
55308701,1077,1077,1077,1077,,,,,
55311200,1078,1078,1078,1078,,,,,
55313699,1078,1078,1078,1078,,,,,
55316198,1079,1079,1079,1079,,,,,
55318697,1080,1080,1080,1080,,,,,
55321196,1081,1081,1081,1081,,,,,
55323695,1081,1081,1081,1081,,,,,
55326194,1082,1082,1082,1082,,,,,
55328693,1083,1083,1083,1083,,,,,
55331192,1084,1084,1084,1084,,,,,
55333691,1084,1084,1084,1084,,,,,
55336190,1085,1085,1085,1085,,,,,
55338689,1086,1086,1086,1086,,,,,
55341188,1087,1087,1087,1087,,,,,
55343687,1087,1087,1087,1087,,,,,
55346186,1088,1088,1088,1088,,,,,
55348685,1089,1089,1089,1089,,,,,
55351184,1090,1090,1090,1090,,,,,
55353683,1090,1090,1090,1090,,,,,
55356182,1091,1091,1091,1091,,,,,
55358681,1092,1092,1092,1092,,,,,
55361180,1093,1093,1093,1093,,,,,
55363679,1093,1093,1093,1093,,,,,
55366178,1094,1094,1094,1094,,,,,
55368677,1095,1095,1095,1095,,,,,
55371176,1096,1096,1096,1096,,,,,
55373675,1096,1096,1096,1096,,,,,
55376174,1097,1097,1097,1097,,,,,
55378673,1098,1098,1098,1098,,,,,
55381172,1099,1099,1099,1099,,,,,
55383671,1099,1099,1099,1099,,,,,
55386170,1100,1100,1100,1100,,,,,
55388669,1100,1100,1100,1100,,,,,
55391168,1100,1100,1100,1100,,,,,
55393667,1100,1100,1100,1100,,,,,
55396166,1100,1100,1100,1100,,,,,
55398665,1100,1100,1100,1100,,,,,
55401164,1100,1100,1100,1100,,,,,
55403663,1100,1100,1100,1100,,,,,
55406162,1100,1100,1100,1100,,,,,
55408661,1100,1100,1100,1100,,,,,
55411160,1100,1100,1100,1100,,,,,
55413659,1100,1100,1100,1100,,,,,
55416158,1100,1100,1100,1100,,,,,
55418657,1100,1100,1100,1100,,,,,
55421156,1100,1100,1100,1100,,,,,
55423655,1100,1100,1100,1100,,,,,
55426154,1100,1100,1100,1100,,,,,
55428653,1100,1100,1100,1100,,,,,
55431152,1100,1100,1100,1100,,,,,
55433651,1100,1100,1100,1100,,,,,
55436150,1100,1100,1100,1100,,,,,
55438649,1100,1100,1100,1100,,,,,
55441148,1100,1100,1100,1100,,,,,
55443647,1100,1100,1100,1100,,,,,
55446146,1100,1100,1100,1100,,,,,
55448645,1100,1100,1100,1100,,,,,
55451144,1100,1100,1100,1100,,,,,
55453643,1100,1100,1100,1100,,,,,
55456142,1100,1100,1100,1100,,,,,
55458641,1100,1100,1100,1100,,,,,
55461140,1100,1100,1100,1100,,,,,
55463639,1100,1100,1100,1100,,,,,
55466138,1100,1100,1100,1100,,,,,
55468637,1100,1100,1100,1100,,,,,
55471136,1100,1100,1100,1100,,,,,
55473635,1100,1100,1100,1100,,,,,
55476134,1100,1100,1100,1100,,,,,
55478633,1100,1100,1100,1100,,,,,
55481132,1100,1100,1100,1100,,,,,
55483631,1100,1100,1100,1100,,,,,
55486130,1100,1100,1100,1100,,,,,
55488629,1100,1100,1100,1100,,,,,
55491128,1100,1100,1100,1100,,,,,
55493627,1100,1100,1100,1100,,,,,
55496126,1100,1100,1100,1100,,,,,
55498625,1100,1100,1100,1100,,,,,
55501124,1100,1100,1100,1100,,,,,
55503623,1100,1100,1100,1100,,,,,
55506122,1100,1100,1100,1100,,,,,
55508621,1100,1100,1100,1100,,,,,
55511120,1100,1100,1100,1100,,,,,
55513619,1100,1100,1100,1100,,,,,
55516118,1100,1100,1100,1100,,,,,
55518617,1100,1100,1100,1100,,,,,
55521116,1100,1100,1100,1100,,,,,
55523615,1100,1100,1100,1100,,,,,
55526114,1100,1100,1100,1100,,,,,
55528613,1100,1100,1100,1100,,,,,
55531112,1100,1100,1100,1100,,,,,
55533611,1100,1100,1100,1100,,,,,
55536110,1100,1100,1100,1100,,,,,
55538609,1100,1100,1100,1100,,,,,
55541108,1100,1100,1100,1100,,,,,
55543607,1100,1100,1100,1100,,,,,
55546106,1100,1100,1100,1100,,,,,
55548605,1100,1100,1100,1100,,,,,
55551104,1100,1100,1100,1100,,,,,
55553603,1100,1100,1100,1100,,,,,
55556102,1100,1100,1100,1100,,,,,
55558601,1100,1100,1100,1100,,,,,
55561100,1100,1100,1100,1100,,,,,
55563599,1100,1100,1100,1100,,,,,
55566098,1100,1100,1100,1100,,,,,
55568597,1100,1100,1100,1100,,,,,
55571096,1100,1100,1100,1100,,,,,
55573595,1100,1100,1100,1100,,,,,
55576094,1100,1100,1100,1100,,,,,
55578593,1100,1100,1100,1100,,,,,
55581092,1100,1100,1100,1100,,,,,
55583591,1100,1100,1100,1100,,,,,
55586090,1100,1100,1100,1100,,,,,
55588589,1100,1100,1100,1100,,,,,
55591088,1100,1100,1100,1100,,,,,
55593587,1100,1100,1100,1100,,,,,
55596086,1100,1100,1100,1100,,,,,
55598585,1100,1100,1100,1100,,,,,
55601084,1100,1100,1100,1100,,,,,
55603583,1100,1100,1100,1100,,,,,
55606082,1100,1100,1100,1100,,,,,
55608581,1100,1100,1100,1100,,,,,
55611080,1100,1100,1100,1100,,,,,
55613579,1100,1100,1100,1100,,,,,
55616078,1100,1100,1100,1100,,,,,
55618577,1100,1100,1100,1100,,,,,
55621076,1100,1100,1100,1100,,,,,
55623575,1100,1100,1100,1100,,,,,
55626074,1100,1100,1100,1100,,,,,
55628573,1100,1100,1100,1100,,,,,
55631072,1100,1100,1100,1100,,,,,
55633571,1100,1100,1100,1100,,,,,
55636070,1100,1100,1100,1100,,,,,
55638569,1100,1100,1100,1100,,,,,
55641068,1100,1100,1100,1100,,,,,
55643567,1100,1100,1100,1100,,,,,
55646066,1100,1100,1100,1100,,,,,
55648565,1100,1100,1100,1100,,,,,
55651064,1100,1100,1100,1100,,,,,
55653563,1100,1100,1100,1100,,,,,
55656062,1100,1100,1100,1100,,,,,
55658561,1100,1100,1100,1100,,,,,
55661060,1100,1100,1100,1100,,,,,
55663559,1100,1100,1100,1100,,,,,
55666058,1100,1100,1100,1100,,,,,
55668557,1100,1100,1100,1100,,,,,
55671056,1100,1100,1100,1100,,,,,
55673555,1100,1100,1100,1100,,,,,
55676054,1100,1100,1100,1100,,,,,
55678553,1100,1100,1100,1100,,,,,
55681052,1100,1100,1100,1100,,,,,
55683551,1100,1100,1100,1100,,,,,
55686050,1100,1100,1100,1100,,,,,
55688549,1100,1100,1100,1100,,,,,
55691048,1100,1100,1100,1100,,,,,
55693547,1100,1100,1100,1100,,,,,
55696046,1100,1100,1100,1100,,,,,
55698545,1100,1100,1100,1100,,,,,
55701044,1100,1100,1100,1100,,,,,
55703543,1100,1100,1100,1100,,,,,
55706042,1100,1100,1100,1100,,,,,
55708541,1100,1100,1100,1100,,,,,
55711040,1100,1100,1100,1100,,,,,
55713539,1100,1100,1100,1100,,,,,
55716038,1100,1100,1100,1100,,,,,
55718537,1100,1100,1100,1100,,,,,
55721036,1100,1100,1100,1100,,,,,
55723535,1100,1100,1100,1100,,,,,
55726034,1100,1100,1100,1100,,,,,
55728533,1100,1100,1100,1100,,,,,
55731032,1100,1100,1100,1100,,,,,
55733531,1100,1100,1100,1100,,,,,
55736030,1100,1100,1100,1100,,,,,
55738529,1100,1100,1100,1100,,,,,
55741028,1100,1100,1100,1100,,,,,
55743527,1100,1100,1100,1100,,,,,
55746026,1100,1100,1100,1100,,,,,
55748525,1100,1100,1100,1100,,,,,
55751024,1100,1100,1100,1100,,,,,
55753523,1100,1100,1100,1100,,,,,
55756022,1100,1100,1100,1100,,,,,
55758521,1100,1100,1100,1100,,,,,
55761020,1100,1100,1100,1100,,,,,
55763519,1100,1100,1100,1100,,,,,
55766018,1100,1100,1100,1100,,,,,
55768517,1100,1100,1100,1100,,,,,
55771016,1100,1100,1100,1100,,,,,
55773515,1100,1100,1100,1100,,,,,
55776014,1100,1100,1100,1100,,,,,
55778513,1100,1100,1100,1100,,,,,
55781012,1100,1100,1100,1100,,,,,
55783511,1100,1100,1100,1100,,,,,
55786010,1100,1100,1100,1100,,,,,
55788509,1100,1100,1100,1100,,,,,
55791008,1100,1100,1100,1100,,,,,
55793507,1100,1100,1100,1100,,,,,
55796006,1100,1100,1100,1100,,,,,
55798505,1100,1100,1100,1100,,,,,
55801004,1100,1100,1100,1100,,,,,
55803503,1100,1100,1100,1100,,,,,
55806002,1100,1100,1100,1100,,,,,
55808501,1100,1100,1100,1100,,,,,
55811000,1100,1100,1100,1100,,,,,
55813499,1100,1100,1100,1100,,,,,
55815998,1100,1100,1100,1100,,,,,
55818497,1100,1100,1100,1100,,,,,
55820996,1100,1100,1100,1100,,,,,
55823495,1100,1100,1100,1100,,,,,
55825994,1100,1100,1100,1100,,,,,
55828493,1100,1100,1100,1100,,,,,
55830992,1100,1100,1100,1100,,,,,
55833491,1100,1100,1100,1100,,,,,
55835990,1100,1100,1100,1100,,,,,
55838489,1100,1100,1100,1100,,,,,
55840988,1100,1100,1100,1100,,,,,
55843487,1100,1100,1100,1100,,,,,
55845986,1100,1100,1100,1100,,,,,
55848485,1100,1100,1100,1100,,,,,
55850984,1100,1100,1100,1100,,,,,
55853483,1100,1100,1100,1100,,,,,
55855982,1100,1100,1100,1100,,,,,
55858481,1100,1100,1100,1100,,,,,
55860980,1100,1100,1100,1100,,,,,
55863479,1100,1100,1100,1100,,,,,
55865978,1100,1100,1100,1100,,,,,
55868477,1100,1100,1100,1100,,,,,
55870976,1100,1100,1100,1100,,,,,
55873475,1100,1100,1100,1100,,,,,
55875974,1100,1100,1100,1100,,,,,
55878473,1100,1100,1100,1100,,,,,
55880972,1100,1100,1100,1100,,,,,
55883471,1100,1100,1100,1100,,,,,
55885970,1100,1100,1100,1100,,,,,
55888469,1100,1100,1100,1100,,,,,
55890968,1100,1100,1100,1100,,,,,
55893467,1100,1100,1100,1100,,,,,
55895966,1100,1100,1100,1100,,,,,
55898465,1100,1100,1100,1100,,,,,
55900964,1100,1100,1100,1100,,,,,
55903463,1100,1100,1100,1100,,,,,
55905962,1100,1100,1100,1100,,,,,
55908461,1100,1100,1100,1100,,,,,
55910960,1100,1100,1100,1100,,,,,
55913459,1100,1100,1100,1100,,,,,
55915958,1100,1100,1100,1100,,,,,
55918457,1100,1100,1100,1100,,,,,
55920956,1100,1100,1100,1100,,,,,
55923455,1100,1100,1100,1100,,,,,
55925954,1100,1100,1100,1100,,,,,
55928453,1100,1100,1100,1100,,,,,
55930952,1100,1100,1100,1100,,,,,
55933451,1100,1100,1100,1100,,,,,
55935950,1100,1100,1100,1100,,,,,
55938449,1100,1100,1100,1100,,,,,
55940948,1100,1100,1100,1100,,,,,
55943447,1100,1100,1100,1100,,,,,
55945946,1100,1100,1100,1100,,,,,
55948445,1100,1100,1100,1100,,,,,
55950944,1100,1100,1100,1100,,,,,
55953443,1100,1100,1100,1100,,,,,
55955942,1100,1100,1100,1100,,,,,
55958441,1100,1100,1100,1100,,,,,
55960940,1100,1100,1100,1100,,,,,
55963439,1100,1100,1100,1100,,,,,
55965938,1100,1100,1100,1100,,,,,
55968437,1100,1100,1100,1100,,,,,
55970936,1100,1100,1100,1100,,,,,
55973435,1100,1100,1100,1100,,,,,
55975934,1100,1100,1100,1100,,,,,
55978433,1100,1100,1100,1100,,,,,
55980932,1100,1100,1100,1100,,,,,
55983431,1100,1100,1100,1100,,,,,
55985930,1100,1100,1100,1100,,,,,
55988429,1100,1100,1100,1100,,,,,
55990928,1100,1100,1100,1100,,,,,
55993427,1100,1100,1100,1100,,,,,
55995926,1100,1100,1100,1100,,,,,
55998425,1100,1100,1100,1100,,,,,
56000924,1100,1100,1100,1100,,,,,
56003423,1100,1100,1100,1100,,,,,
56005922,1100,1100,1100,1100,,,,,
56008421,1100,1100,1100,1100,,,,,
56010920,1100,1100,1100,1100,,,,,
56013419,1100,1100,1100,1100,,,,,
56015918,1100,1100,1100,1100,,,,,
56018417,1100,1100,1100,1100,,,,,
56020916,1100,1100,1100,1100,,,,,
56023415,1100,1100,1100,1100,,,,,
56025914,1100,1100,1100,1100,,,,,
56028413,1100,1100,1100,1100,,,,,
56030912,1100,1100,1100,1100,,,,,
56033411,1100,1100,1100,1100,,,,,
56035910,1100,1100,1100,1100,,,,,
56038409,1100,1100,1100,1100,,,,,
56040908,1100,1100,1100,1100,,,,,
56043407,1100,1100,1100,1100,,,,,
56045906,1100,1100,1100,1100,,,,,
56048405,1100,1100,1100,1100,,,,,
56050904,1100,1100,1100,1100,,,,,
56053403,1100,1100,1100,1100,,,,,
56055902,1100,1100,1100,1100,,,,,
56058401,1100,1100,1100,1100,,,,,
56060900,1100,1100,1100,1100,,,,,
56063399,1100,1100,1100,1100,,,,,
56065898,1100,1100,1100,1100,,,,,
56068397,1100,1100,1100,1100,,,,,
56070896,1100,1100,1100,1100,,,,,
56073395,1100,1100,1100,1100,,,,,
56075894,1100,1100,1100,1100,,,,,
56078393,1100,1100,1100,1100,,,,,
56080892,1100,1100,1100,1100,,,,,
56083391,1100,1100,1100,1100,,,,,
56085890,1100,1100,1100,1100,,,,,
56088389,1100,1100,1100,1100,,,,,
56090888,1100,1100,1100,1100,,,,,
56093387,1100,1100,1100,1100,,,,,
56095886,1100,1100,1100,1100,,,,,
56098385,1100,1100,1100,1100,,,,,
56100884,1100,1100,1100,1100,,,,,
56103383,1100,1100,1100,1100,,,,,
56105882,1100,1100,1100,1100,,,,,
56108381,1100,1100,1100,1100,,,,,
56110880,1100,1100,1100,1100,,,,,
56113379,1100,1100,1100,1100,,,,,
56115878,1100,1100,1100,1100,,,,,
56118377,1100,1100,1100,1100,,,,,
56120876,1100,1100,1100,1100,,,,,
56123375,1100,1100,1100,1100,,,,,
56125874,1100,1100,1100,1100,,,,,
56128373,1100,1100,1100,1100,,,,,
56130872,1100,1100,1100,1100,,,,,
56133371,1100,1100,1100,1100,,,,,
56135870,1100,1100,1100,1100,,,,,
56138369,1100,1100,1100,1100,,,,,
56140868,1100,1100,1100,1100,,,,,
56143367,1100,1100,1100,1100,,,,,
56145866,1100,1100,1100,1100,,,,,
56148365,1100,1100,1100,1100,,,,,
56150864,1100,1100,1100,1100,,,,,
56153363,1100,1100,1100,1100,,,,,
56155862,1100,1100,1100,1100,,,,,
56158361,1100,1100,1100,1100,,,,,
56160860,1100,1100,1100,1100,,,,,
56163359,1100,1100,1100,1100,,,,,
56165858,1100,1100,1100,1100,,,,,
56168357,1100,1100,1100,1100,,,,,
56170856,1100,1100,1100,1100,,,,,
56173355,1100,1100,1100,1100,,,,,
56175854,1100,1100,1100,1100,,,,,
56178353,1100,1100,1100,1100,,,,,
56180852,1100,1100,1100,1100,,,,,
56183351,1100,1100,1100,1100,,,,,
56185850,1100,1100,1100,1100,,,,,
56188349,1100,1100,1100,1100,,,,,
56190848,1100,1100,1100,1100,,,,,
56193347,1100,1100,1100,1100,,,,,
56195846,1100,1100,1100,1100,,,,,
56198345,1100,1100,1100,1100,,,,,
56200844,1100,1100,1100,1100,,,,,
56203343,1100,1100,1100,1100,,,,,
56205842,1100,1100,1100,1100,,,,,
56208341,1100,1100,1100,1100,,,,,
56210840,1100,1100,1100,1100,,,,,
56213339,1100,1100,1100,1100,,,,,
56215838,1100,1100,1100,1100,,,,,
56218337,1100,1100,1100,1100,,,,,
56220836,1100,1100,1100,1100,,,,,
56223335,1100,1100,1100,1100,,,,,
56225834,1100,1100,1100,1100,,,,,
56228333,1100,1100,1100,1100,,,,,
56230832,1100,1100,1100,1100,,,,,
56233331,1100,1100,1100,1100,,,,,
56235830,1100,1100,1100,1100,,,,,
56238329,1100,1100,1100,1100,,,,,
56240828,1100,1100,1100,1100,,,,,
56243327,1100,1100,1100,1100,,,,,
56245826,1100,1100,1100,1100,,,,,
56248325,1100,1100,1100,1100,,,,,
