timestamp,TimeUS,C1,C2,C3,C4,C5,C6,C7,C8,C9,C10,C11,C12,C13,C14
1684044225.30004025,50528947,1000,1000,1000,1000,0,0,0,0,0,0,0,0,0,0
1684044225.40000010,50628907,1000,1000,1000,1000,0,0,0,0,0,0,0,0,0,0
1684044225.49996018,50728867,1000,1000,1000,1000,0,0,0,0,0,0,0,0,0,0
1684044225.59992003,50828827,1000,1000,1000,1000,0,0,0,0,0,0,0,0,0,0
1684044225.69988012,50928787,1000,1000,1000,1000,0,0,0,0,0,0,0,0,0,0
1684044225.79984021,51028747,1000,1000,1000,1000,0,0,0,0,0,0,0,0,0,0
1684044225.89980006,51128707,1000,1000,1000,1000,0,0,0,0,0,0,0,0,0,0
1684044225.99976015,51228667,1000,1000,1000,1000,0,0,0,0,0,0,0,0,0,0
1684044226.09972024,51328627,1000,1000,1000,1000,0,0,0,0,0,0,0,0,0,0
1684044226.19968009,51428587,1000,1000,1000,1000,0,0,0,0,0,0,0,0,0,0
1684044226.29964018,51528547,1000,1000,1000,1000,0,0,0,0,0,0,0,0,0,0
1684044226.39960003,51628507,1000,1000,1000,1000,0,0,0,0,0,0,0,0,0,0
1684044226.49956012,51728467,1000,1000,1000,1000,0,0,0,0,0,0,0,0,0,0
1684044226.59952021,51828427,1000,1000,1000,1000,0,0,0,0,0,0,0,0,0,0
1684044226.69948006,51928387,1000,1000,1000,1000,0,0,0,0,0,0,0,0,0,0
1684044226.79944015,52028347,1000,1000,1000,1000,0,0,0,0,0,0,0,0,0,0
1684044226.89940023,52128307,1000,1000,1000,1000,0,0,0,0,0,0,0,0,0,0
1684044226.99936008,52228267,1000,1000,1000,1000,0,0,0,0,0,0,0,0,0,0
1684044227.09932017,52328227,1000,1000,1000,1000,0,0,0,0,0,0,0,0,0,0
1684044227.19928002,52428187,1000,1000,1000,1000,0,0,0,0,0,0,0,0,0,0
1684044227.30007315,52528980,1020,1020,1020,1020,0,0,0,0,0,0,0,0,0,0
1684044227.40003324,52628940,1050,1050,1050,1050,0,0,0,0,0,0,0,0,0,0
1684044227.49999309,52728900,1080,1080,1080,1080,0,0,0,0,0,0,0,0,0,0
1684044227.59995317,52828860,1110,1110,1110,1110,0,0,0,0,0,0,0,0,0,0
1684044227.69991302,52928820,1140,1140,1140,1140,0,0,0,0,0,0,0,0,0,0
1684044227.79987311,53028780,1329,1323,1324,1329,0,0,0,0,0,0,0,0,0,0
1684044227.89983320,53128740,1525,1520,1521,1526,0,0,0,0,0,0,0,0,0,0
1684044227.99979305,53228700,1681,1676,1677,1681,0,0,0,0,0,0,0,0,0,0
1684044228.09975314,53328660,1814,1810,1810,1815,0,0,0,0,0,0,0,0,0,0
1684044228.19971323,53428620,1906,1902,1902,1907,0,0,0,0,0,0,0,0,0,0
1684044228.29967308,53528580,1858,1856,1855,1858,0,0,0,0,0,0,0,0,0,0
1684044228.39963317,53628540,1726,1726,1727,1726,0,0,0,0,0,0,0,0,0,0
1684044228.49959302,53728500,1643,1644,1644,1643,0,0,0,0,0,0,0,0,0,0
1684044228.59955311,53828460,1623,1625,1625,1623,0,0,0,0,0,0,0,0,0,0
1684044228.69951320,53928420,1631,1633,1633,1632,0,0,0,0,0,0,0,0,0,0
1684044228.79947305,54028380,1637,1638,1638,1637,0,0,0,0,0,0,0,0,0,0
1684044228.89943314,54128340,1634,1634,1634,1634,0,0,0,0,0,0,0,0,0,0
1684044228.99939322,54228300,1625,1625,1625,1625,0,0,0,0,0,0,0,0,0,0
1684044229.09935308,54328260,1608,1607,1604,1611,0,0,0,0,0,0,0,0,0,0
1684044229.19931316,54428220,1595,1594,1585,1603,0,0,0,0,0,0,0,0,0,0
1684044229.29927301,54528180,1592,1592,1585,1598,0,0,0,0,0,0,0,0,0,0
1684044229.40006614,54628973,1593,1593,1591,1595,0,0,0,0,0,0,0,0,0,0
1684044229.50002623,54728933,1598,1598,1600,1596,0,0,0,0,0,0,0,0,0,0
1684044229.59998608,54828893,1604,1604,1608,1601,0,0,0,0,0,0,0,0,0,0
1684044229.69994617,54928853,1581,1581,1597,1566,0,0,0,0,0,0,0,0,0,0
1684044229.79990602,55028813,1568,1569,1587,1551,0,0,0,0,0,0,0,0,0,0
1684044229.89986610,55128773,1558,1558,1565,1551,0,0,0,0,0,0,0,0,0,0
1684044229.99982619,55228733,1548,1548,1542,1554,0,0,0,0,0,0,0,0,0,0
1684044230.09978604,55328693,1540,1539,1528,1552,0,0,0,0,0,0,0,0,0,0
1684044230.19974613,55428653,1534,1533,1522,1545,0,0,0,0,0,0,0,0,0,0
1684044230.29970622,55528613,1528,1528,1520,1536,0,0,0,0,0,0,0,0,0,0
1684044230.39966607,55628573,1527,1526,1523,1530,0,0,0,0,0,0,0,0,0,0
1684044230.49962616,55728533,1529,1529,1529,1528,0,0,0,0,0,0,0,0,0,0
1684044230.59958625,55828493,1531,1531,1534,1528,0,0,0,0,0,0,0,0,0,0
1684044230.69954610,55928453,1535,1535,1539,1531,0,0,0,0,0,0,0,0,0,0
1684044230.79950619,56028413,1538,1539,1543,1534,0,0,0,0,0,0,0,0,0,0
1684044230.89946604,56128373,1543,1543,1545,1540,0,0,0,0,0,0,0,0,0,0
1684044230.99942613,56228333,1546,1546,1547,1545,0,0,0,0,0,0,0,0,0,0
1684044231.09938622,56328293,1548,1548,1548,1549,0,0,0,0,0,0,0,0,0,0
1684044231.19934607,56428253,1551,1551,1549,1553,0,0,0,0,0,0,0,0,0,0
1684044231.29930615,56528213,1551,1550,1553,1558,0,0,0,0,0,0,0,0,0,0
1684044231.39926624,56628173,1551,1551,1560,1564,0,0,0,0,0,0,0,0,0,0
1684044231.50005913,56728966,1553,1553,1562,1564,0,0,0,0,0,0,0,0,0,0
1684044231.60001922,56828926,1557,1557,1563,1563,0,0,0,0,0,0,0,0,0,0
1684044231.69997907,56928886,1562,1562,1565,1564,0,0,0,0,0,0,0,0,0,0
1684044231.79993916,57028846,1565,1565,1564,1564,0,0,0,0,0,0,0,0,0,0
1684044231.89989924,57128806,1567,1568,1564,1564,0,0,0,0,0,0,0,0,0,0
1684044231.99985909,57228766,1571,1571,1566,1565,0,0,0,0,0,0,0,0,0,0
1684044232.09981918,57328726,1572,1571,1565,1565,0,0,0,0,0,0,0,0,0,0
1684044232.19977903,57428686,1572,1572,1566,1566,0,0,0,0,0,0,0,0,0,0
1684044232.29973912,57528646,1573,1573,1567,1568,0,0,0,0,0,0,0,0,0,0
1684044232.39969921,57628606,1574,1574,1569,1569,0,0,0,0,0,0,0,0,0,0
1684044232.49965906,57728566,1573,1573,1569,1570,0,0,0,0,0,0,0,0,0,0
1684044232.59961915,57828526,1574,1574,1572,1572,0,0,0,0,0,0,0,0,0,0
1684044232.69957924,57928486,1574,1574,1574,1573,0,0,0,0,0,0,0,0,0,0
1684044232.79953909,58028446,1574,1574,1576,1574,0,0,0,0,0,0,0,0,0,0
1684044232.89949918,58128406,1573,1573,1576,1574,0,0,0,0,0,0,0,0,0,0
1684044232.99945903,58228366,1574,1574,1577,1576,0,0,0,0,0,0,0,0,0,0
1684044233.09941912,58328326,1574,1573,1576,1576,0,0,0,0,0,0,0,0,0,0
1684044233.19937921,58428286,1574,1574,1576,1577,0,0,0,0,0,0,0,0,0,0
1684044233.29933906,58528246,1574,1574,1576,1576,0,0,0,0,0,0,0,0,0,0
1684044233.39929914,58628206,1574,1575,1576,1576,0,0,0,0,0,0,0,0,0,0
1684044233.49925923,58728166,1575,1575,1576,1576,0,0,0,0,0,0,0,0,0,0
1684044233.60005212,58828959,1576,1576,1577,1576,0,0,0,0,0,0,0,0,0,0
1684044233.70001221,58928919,1577,1577,1577,1577,0,0,0,0,0,0,0,0,0,0
1684044233.79997206,59028879,1578,1577,1576,1576,0,0,0,0,0,0,0,0,0,0
1684044233.89993215,59128839,1577,1577,1576,1576,0,0,0,0,0,0,0,0,0,0
1684044233.99989223,59228799,1577,1577,1576,1576,0,0,0,0,0,0,0,0,0,0
1684044234.09985209,59328759,1578,1578,1577,1577,0,0,0,0,0,0,0,0,0,0
1684044234.19981217,59428719,1578,1579,1578,1577,0,0,0,0,0,0,0,0,0,0
1684044234.29977202,59528679,1578,1577,1577,1577,0,0,0,0,0,0,0,0,0,0
1684044234.39973211,59628639,1578,1578,1577,1578,0,0,0,0,0,0,0,0,0,0
1684044234.49969220,59728599,1578,1577,1577,1578,0,0,0,0,0,0,0,0,0,0
1684044234.59965205,59828559,1578,1578,1578,1578,0,0,0,0,0,0,0,0,0,0
1684044234.69961214,59928519,1578,1578,1578,1578,0,0,0,0,0,0,0,0,0,0
1684044234.79957223,60028479,1579,1579,1579,1579,0,0,0,0,0,0,0,0,0,0
1684044234.89953208,60128439,1579,1579,1580,1579,0,0,0,0,0,0,0,0,0,0
1684044234.99949217,60228399,1579,1579,1580,1579,0,0,0,0,0,0,0,0,0,0
1684044235.09945202,60328359,1578,1578,1578,1579,0,0,0,0,0,0,0,0,0,0
1684044235.19941211,60428319,1578,1579,1579,1579,0,0,0,0,0,0,0,0,0,0
1684044235.29937220,60528279,1578,1578,1579,1579,0,0,0,0,0,0,0,0,0,0
1684044235.39933205,60628239,1580,1580,1580,1580,0,0,0,0,0,0,0,0,0,0
1684044235.49929214,60728199,1580,1580,1580,1580,0,0,0,0,0,0,0,0,0,0
1684044235.59925222,60828159,1580,1579,1580,1579,0,0,0,0,0,0,0,0,0,0
1684044235.70004511,60928952,1580,1580,1580,1580,0,0,0,0,0,0,0,0,0,0
1684044235.80000520,61028912,1581,1581,1581,1581,0,0,0,0,0,0,0,0,0,0
1684044235.89996505,61128872,1580,1580,1580,1581,0,0,0,0,0,0,0,0,0,0
1684044235.99992514,61228832,1580,1580,1580,1580,0,0,0,0,0,0,0,0,0,0
1684044236.09988523,61328792,1579,1580,1580,1579,0,0,0,0,0,0,0,0,0,0
1684044236.19984508,61428752,1580,1580,1580,1580,0,0,0,0,0,0,0,0,0,0
1684044236.29980516,61528712,1581,1581,1581,1581,0,0,0,0,0,0,0,0,0,0
1684044236.39976501,61628672,1581,1581,1581,1581,0,0,0,0,0,0,0,0,0,0
1684044236.49972510,61728632,1581,1581,1581,1581,0,0,0,0,0,0,0,0,0,0
1684044236.59968519,61828592,1581,1581,1581,1581,0,0,0,0,0,0,0,0,0,0
1684044236.69964504,61928552,1581,1580,1581,1580,0,0,0,0,0,0,0,0,0,0
1684044236.79960513,62028512,1581,1581,1581,1581,0,0,0,0,0,0,0,0,0,0
1684044236.89956522,62128472,1580,1580,1580,1581,0,0,0,0,0,0,0,0,0,0
1684044236.99952507,62228432,1580,1580,1580,1580,0,0,0,0,0,0,0,0,0,0
1684044237.09948516,62328392,1580,1580,1580,1580,0,0,0,0,0,0,0,0,0,0
1684044237.19944525,62428352,1580,1581,1580,1580,0,0,0,0,0,0,0,0,0,0
1684044237.29940510,62528312,1580,1581,1581,1580,0,0,0,0,0,0,0,0,0,0
1684044237.39936519,62628272,1581,1581,1581,1581,0,0,0,0,0,0,0,0,0,0
1684044237.49932504,62728232,1581,1581,1582,1581,0,0,0,0,0,0,0,0,0,0
1684044237.59928513,62828192,1581,1582,1588,1574,0,0,0,0,0,0,0,0,0,0
1684044237.70007825,62928985,1580,1581,1584,1573,0,0,0,0,0,0,0,0,0,0
1684044237.80003810,63028945,1578,1581,1576,1573,0,0,0,0,0,0,0,0,0,0
1684044237.89999819,63128905,1577,1580,1568,1572,0,0,0,0,0,0,0,0,0,0
1684044237.99995804,63228865,1577,1579,1561,1568,0,0,0,0,0,0,0,0,0,0
1684044238.09991813,63328825,1578,1578,1556,1563,0,0,0,0,0,0,0,0,0,0
1684044238.19987822,63428785,1579,1578,1555,1559,0,0,0,0,0,0,0,0,0,0
1684044238.29983807,63528745,1579,1577,1555,1556,0,0,0,0,0,0,0,0,0,0
1684044238.39979815,63628705,1579,1577,1556,1553,0,0,0,0,0,0,0,0,0,0
1684044238.49975824,63728665,1578,1577,1556,1553,0,0,0,0,0,0,0,0,0,0
1684044238.59971809,63828625,1576,1577,1556,1553,0,0,0,0,0,0,0,0,0,0
1684044238.69967818,63928585,1576,1577,1555,1554,0,0,0,0,0,0,0,0,0,0
1684044238.79963803,64028545,1575,1577,1555,1554,0,0,0,0,0,0,0,0,0,0
1684044238.89959812,64128505,1575,1576,1553,1553,0,0,0,0,0,0,0,0,0,0
1684044238.99955821,64228465,1576,1577,1552,1552,0,0,0,0,0,0,0,0,0,0
1684044239.09951806,64328425,1577,1578,1550,1551,0,0,0,0,0,0,0,0,0,0
1684044239.19947815,64428385,1579,1580,1548,1549,0,0,0,0,0,0,0,0,0,0
1684044239.29943824,64528345,1582,1583,1547,1546,0,0,0,0,0,0,0,0,0,0
1684044239.39939809,64628305,1585,1586,1544,1543,0,0,0,0,0,0,0,0,0,0
1684044239.49935818,64728265,1587,1588,1541,1541,0,0,0,0,0,0,0,0,0,0
1684044239.59931803,64828225,1590,1590,1537,1537,0,0,0,0,0,0,0,0,0,0
1684044239.69927812,64928185,1592,1592,1535,1536,0,0,0,0,0,0,0,0,0,0
1684044239.80007124,65028978,1595,1594,1535,1535,0,0,0,0,0,0,0,0,0,0
1684044239.90003109,65128938,1594,1594,1534,1535,0,0,0,0,0,0,0,0,0,0
1684044239.99999118,65228898,1594,1594,1536,1538,0,0,0,0,0,0,0,0,0,0
1684044240.09995103,65328858,1591,1590,1537,1541,0,0,0,0,0,0,0,0,0,0
1684044240.19991112,65428818,1588,1587,1543,1547,0,0,0,0,0,0,0,0,0,0
1684044240.29987121,65528778,1584,1581,1553,1556,0,0,0,0,0,0,0,0,0,0
1684044240.39983106,65628738,1575,1572,1562,1565,0,0,0,0,0,0,0,0,0,0
1684044240.49979115,65728698,1565,1561,1574,1576,0,0,0,0,0,0,0,0,0,0
1684044240.59975123,65828658,1554,1551,1587,1587,0,0,0,0,0,0,0,0,0,0
1684044240.69971108,65928618,1544,1541,1599,1598,0,0,0,0,0,0,0,0,0,0
1684044240.79967117,66028578,1535,1534,1607,1606,0,0,0,0,0,0,0,0,0,0
1684044240.89963102,66128538,1530,1531,1614,1613,0,0,0,0,0,0,0,0,0,0
1684044240.99959111,66228498,1529,1531,1615,1615,0,0,0,0,0,0,0,0,0,0
1684044241.09955120,66328458,1533,1534,1615,1615,0,0,0,0,0,0,0,0,0,0
1684044241.19951105,66428418,1538,1540,1611,1610,0,0,0,0,0,0,0,0,0,0
1684044241.29947114,66528378,1545,1547,1604,1604,0,0,0,0,0,0,0,0,0,0
1684044241.39943123,66628338,1554,1555,1597,1597,0,0,0,0,0,0,0,0,0,0
1684044241.49939108,66728298,1562,1562,1589,1588,0,0,0,0,0,0,0,0,0,0
1684044241.59935117,66828258,1570,1570,1582,1581,0,0,0,0,0,0,0,0,0,0
1684044241.69931102,66928218,1578,1576,1576,1575,0,0,0,0,0,0,0,0,0,0
1684044241.79927111,67028178,1483,1482,1571,1571,0,0,0,0,0,0,0,0,0,0
1684044241.90006423,67128971,1520,1521,1589,1591,0,0,0,0,0,0,0,0,0,0
1684044242.00002408,67228931,1544,1545,1586,1587,0,0,0,0,0,0,0,0,0,0
1684044242.09998417,67328891,1565,1567,1581,1579,0,0,0,0,0,0,0,0,0,0
1684044242.19994402,67428851,1583,1584,1574,1572,0,0,0,0,0,0,0,0,0,0
1684044242.29990411,67528811,1596,1595,1569,1568,0,0,0,0,0,0,0,0,0,0
1684044242.39986420,67628771,1604,1602,1567,1566,0,0,0,0,0,0,0,0,0,0
1684044242.49982405,67728731,1607,1604,1566,1567,0,0,0,0,0,0,0,0,0,0
1684044242.59978414,67828691,1607,1603,1566,1567,0,0,0,0,0,0,0,0,0,0
1684044242.69974422,67928651,1605,1603,1568,1570,0,0,0,0,0,0,0,0,0,0
1684044242.79970407,68028611,1601,1600,1570,1571,0,0,0,0,0,0,0,0,0,0
1684044242.89966416,68128571,1597,1597,1572,1573,0,0,0,0,0,0,0,0,0,0
1684044242.99962401,68228531,1593,1594,1575,1576,0,0,0,0,0,0,0,0,0,0
1684044243.09958410,68328491,1589,1590,1577,1577,0,0,0,0,0,0,0,0,0,0
1684044243.19954419,68428451,1585,1586,1579,1579,0,0,0,0,0,0,0,0,0,0
1684044243.29950404,68528411,1583,1584,1582,1581,0,0,0,0,0,0,0,0,0,0
1684044243.39946413,68628371,1580,1580,1583,1582,0,0,0,0,0,0,0,0,0,0
1684044243.49942422,68728331,1577,1577,1582,1582,0,0,0,0,0,0,0,0,0,0
1684044243.59938407,68828291,1575,1576,1584,1584,0,0,0,0,0,0,0,0,0,0
1684044243.69934416,68928251,1574,1574,1584,1584,0,0,0,0,0,0,0,0,0,0
1684044243.79930425,69028211,1573,1574,1585,1585,0,0,0,0,0,0,0,0,0,0
1684044243.89926410,69128171,1573,1574,1584,1584,0,0,0,0,0,0,0,0,0,0
1684044244.00005722,69228964,1574,1574,1584,1584,0,0,0,0,0,0,0,0,0,0
1684044244.10001707,69328924,1575,1575,1583,1583,0,0,0,0,0,0,0,0,0,0
1684044244.19997716,69428884,1576,1576,1582,1582,0,0,0,0,0,0,0,0,0,0
1684044244.29993725,69528844,1578,1578,1582,1581,0,0,0,0,0,0,0,0,0,0
1684044244.39989710,69628804,1579,1579,1580,1580,0,0,0,0,0,0,0,0,0,0
1684044244.49985719,69728764,1579,1579,1578,1578,0,0,0,0,0,0,0,0,0,0
1684044244.59981704,69828724,1581,1580,1578,1578,0,0,0,0,0,0,0,0,0,0
1684044244.69977713,69928684,1582,1582,1578,1578,0,0,0,0,0,0,0,0,0,0
1684044244.79973722,70028644,1581,1582,1577,1577,0,0,0,0,0,0,0,0,0,0
1684044244.89969707,70128604,1581,1581,1576,1577,0,0,0,0,0,0,0,0,0,0
1684044244.99965715,70228564,1582,1582,1577,1577,0,0,0,0,0,0,0,0,0,0
1684044245.09961724,70328524,1582,1582,1578,1578,0,0,0,0,0,0,0,0,0,0
1684044245.19957709,70428484,1582,1582,1578,1579,0,0,0,0,0,0,0,0,0,0
1684044245.29953718,70528444,1581,1581,1578,1578,0,0,0,0,0,0,0,0,0,0
1684044245.39949703,70628404,1581,1581,1579,1579,0,0,0,0,0,0,0,0,0,0
1684044245.49945712,70728364,1580,1580,1579,1579,0,0,0,0,0,0,0,0,0,0
1684044245.59941721,70828324,1580,1581,1586,1573,0,0,0,0,0,0,0,0,0,0
1684044245.69937706,70928284,1579,1581,1584,1572,0,0,0,0,0,0,0,0,0,0
1684044245.79933715,71028244,1579,1580,1576,1572,0,0,0,0,0,0,0,0,0,0
1684044245.89929724,71128204,1577,1579,1568,1570,0,0,0,0,0,0,0,0,0,0
1684044245.99925709,71228164,1576,1578,1560,1567,0,0,0,0,0,0,0,0,0,0
1684044246.10005021,71328957,1575,1578,1556,1563,0,0,0,0,0,0,0,0,0,0
1684044246.20001006,71428917,1577,1578,1555,1558,0,0,0,0,0,0,0,0,0,0
1684044246.29997015,71528877,1579,1579,1555,1556,0,0,0,0,0,0,0,0,0,0
1684044246.39993024,71628837,1579,1578,1555,1553,0,0,0,0,0,0,0,0,0,0
1684044246.49989009,71728797,1578,1577,1554,1552,0,0,0,0,0,0,0,0,0,0
1684044246.59985018,71828757,1577,1577,1553,1551,0,0,0,0,0,0,0,0,0,0
1684044246.69981003,71928717,1577,1577,1553,1552,0,0,0,0,0,0,0,0,0,0
1684044246.79977012,72028677,1577,1577,1552,1552,0,0,0,0,0,0,0,0,0,0
1684044246.89973021,72128637,1576,1578,1551,1551,0,0,0,0,0,0,0,0,0,0
1684044246.99969006,72228597,1577,1578,1550,1549,0,0,0,0,0,0,0,0,0,0
1684044247.09965014,72328557,1578,1579,1548,1548,0,0,0,0,0,0,0,0,0,0
1684044247.19961023,72428517,1579,1580,1547,1547,0,0,0,0,0,0,0,0,0,0
1684044247.29957008,72528477,1581,1582,1546,1545,0,0,0,0,0,0,0,0,0,0
1684044247.39953017,72628437,1583,1584,1543,1543,0,0,0,0,0,0,0,0,0,0
1684044247.49949002,72728397,1585,1586,1542,1542,0,0,0,0,0,0,0,0,0,0
1684044247.59945011,72828357,1587,1587,1541,1540,0,0,0,0,0,0,0,0,0,0
1684044247.69941020,72928317,1589,1588,1541,1541,0,0,0,0,0,0,0,0,0,0
1684044247.79937005,73028277,1590,1590,1541,1542,0,0,0,0,0,0,0,0,0,0
1684044247.89933014,73128237,1590,1590,1541,1543,0,0,0,0,0,0,0,0,0,0
1684044247.99929023,73228197,1589,1589,1543,1545,0,0,0,0,0,0,0,0,0,0
1684044248.09925008,73328157,1587,1587,1546,1548,0,0,0,0,0,0,0,0,0,0
1684044248.20004320,73428950,1585,1584,1552,1555,0,0,0,0,0,0,0,0,0,0
1684044248.30000305,73528910,1580,1577,1559,1561,0,0,0,0,0,0,0,0,0,0
1684044248.39996314,73628870,1573,1570,1568,1570,0,0,0,0,0,0,0,0,0,0
1684044248.49992323,73728830,1564,1560,1578,1580,0,0,0,0,0,0,0,0,0,0
1684044248.59988308,73828790,1555,1552,1589,1590,0,0,0,0,0,0,0,0,0,0
1684044248.69984317,73928750,1545,1543,1598,1597,0,0,0,0,0,0,0,0,0,0
1684044248.79980302,74028710,1538,1537,1604,1604,0,0,0,0,0,0,0,0,0,0
1684044248.89976311,74128670,1534,1535,1608,1608,0,0,0,0,0,0,0,0,0,0
1684044248.99972320,74228630,1533,1535,1609,1609,0,0,0,0,0,0,0,0,0,0
1684044249.09968305,74328590,1536,1538,1608,1608,0,0,0,0,0,0,0,0,0,0
1684044249.19964314,74428550,1541,1543,1605,1604,0,0,0,0,0,0,0,0,0,0
1684044249.29960322,74528510,1548,1550,1600,1598,0,0,0,0,0,0,0,0,0,0
1684044249.39956307,74628470,1556,1557,1594,1592,0,0,0,0,0,0,0,0,0,0
1684044249.49952316,74728430,1564,1565,1588,1586,0,0,0,0,0,0,0,0,0,0
1684044249.59948301,74828390,1571,1571,1581,1579,0,0,0,0,0,0,0,0,0,0
1684044249.69944310,74928350,1577,1576,1575,1574,0,0,0,0,0,0,0,0,0,0
1684044249.79940319,75028310,1582,1580,1569,1570,0,0,0,0,0,0,0,0,0,0
1684044249.89936304,75128270,1585,1584,1567,1568,0,0,0,0,0,0,0,0,0,0
1684044249.99932313,75228230,1587,1586,1567,1567,0,0,0,0,0,0,0,0,0,0
1684044250.09928322,75328190,1587,1586,1568,1568,0,0,0,0,0,0,0,0,0,0
1684044250.20007610,75428983,1586,1585,1569,1569,0,0,0,0,0,0,0,0,0,0
1684044250.30003619,75528943,1583,1583,1570,1570,0,0,0,0,0,0,0,0,0,0
1684044250.39999604,75628903,1582,1582,1575,1574,0,0,0,0,0,0,0,0,0,0
1684044250.49995613,75728863,1579,1579,1576,1576,0,0,0,0,0,0,0,0,0,0
1684044250.59991622,75828823,1577,1578,1579,1580,0,0,0,0,0,0,0,0,0,0
1684044250.69987607,75928783,1575,1576,1581,1581,0,0,0,0,0,0,0,0,0,0
1684044250.79983616,76028743,1575,1575,1583,1584,0,0,0,0,0,0,0,0,0,0
1684044250.89979625,76128703,1574,1575,1585,1585,0,0,0,0,0,0,0,0,0,0
1684044250.99975610,76228663,1574,1575,1585,1585,0,0,0,0,0,0,0,0,0,0
1684044251.09971619,76328623,1573,1574,1583,1583,0,0,0,0,0,0,0,0,0,0
1684044251.19967604,76428583,1575,1576,1583,1584,0,0,0,0,0,0,0,0,0,0
1684044251.29963613,76528543,1575,1576,1582,1581,0,0,0,0,0,0,0,0,0,0
1684044251.39959621,76628503,1577,1577,1580,1581,0,0,0,0,0,0,0,0,0,0
1684044251.49955606,76728463,1578,1578,1579,1579,0,0,0,0,0,0,0,0,0,0
1684044251.59951615,76828423,1579,1579,1579,1579,0,0,0,0,0,0,0,0,0,0
1684044251.69947624,76928383,1581,1580,1579,1579,0,0,0,0,0,0,0,0,0,0
1684044251.79943609,77028343,1582,1581,1578,1578,0,0,0,0,0,0,0,0,0,0
1684044251.89939618,77128303,1582,1582,1578,1578,0,0,0,0,0,0,0,0,0,0
1684044251.99935603,77228263,1581,1581,1577,1578,0,0,0,0,0,0,0,0,0,0
1684044252.09931612,77328223,1581,1581,1577,1577,0,0,0,0,0,0,0,0,0,0
1684044252.19927621,77428183,1582,1582,1579,1579,0,0,0,0,0,0,0,0,0,0
1684044252.30006909,77528976,1581,1581,1580,1579,0,0,0,0,0,0,0,0,0,0
1684044252.40002918,77628936,1581,1581,1580,1580,0,0,0,0,0,0,0,0,0,0
1684044252.49998903,77728896,1581,1581,1581,1581,0,0,0,0,0,0,0,0,0,0
1684044252.59994912,77828856,1580,1580,1580,1580,0,0,0,0,0,0,0,0,0,0
1684044252.69990921,77928816,1580,1580,1581,1580,0,0,0,0,0,0,0,0,0,0
1684044252.79986906,78028776,1580,1581,1582,1582,0,0,0,0,0,0,0,0,0,0
1684044252.89982915,78128736,1580,1580,1581,1581,0,0,0,0,0,0,0,0,0,0
1684044252.99978924,78228696,1581,1581,1582,1583,0,0,0,0,0,0,0,0,0,0
1684044253.09974909,78328656,1580,1580,1581,1581,0,0,0,0,0,0,0,0,0,0
1684044253.19970918,78428616,1580,1580,1582,1581,0,0,0,0,0,0,0,0,0,0
1684044253.29966903,78528576,1580,1580,1581,1581,0,0,0,0,0,0,0,0,0,0
1684044253.39962912,78628536,1581,1582,1582,1581,0,0,0,0,0,0,0,0,0,0
1684044253.49958920,78728496,1582,1582,1582,1582,0,0,0,0,0,0,0,0,0,0
1684044253.59954906,78828456,1581,1581,1580,1581,0,0,0,0,0,0,0,0,0,0
1684044253.69950914,78928416,1581,1581,1580,1581,0,0,0,0,0,0,0,0,0,0
1684044253.79946923,79028376,1581,1581,1580,1580,0,0,0,0,0,0,0,0,0,0
1684044253.89942908,79128336,1581,1581,1586,1573,0,0,0,0,0,0,0,0,0,0
1684044253.99938917,79228296,1582,1583,1586,1573,0,0,0,0,0,0,0,0,0,0
1684044254.09934902,79328256,1580,1582,1577,1572,0,0,0,0,0,0,0,0,0,0
1684044254.19930911,79428216,1578,1580,1568,1571,0,0,0,0,0,0,0,0,0,0
1684044254.29926920,79528176,1577,1579,1561,1568,0,0,0,0,0,0,0,0,0,0
1684044254.40006208,79628969,1577,1579,1557,1563,0,0,0,0,0,0,0,0,0,0
1684044254.50002217,79728929,1578,1578,1555,1559,0,0,0,0,0,0,0,0,0,0
1684044254.59998202,79828889,1579,1578,1555,1556,0,0,0,0,0,0,0,0,0,0
1684044254.69994211,79928849,1579,1578,1556,1554,0,0,0,0,0,0,0,0,0,0
1684044254.79990220,80028809,1578,1578,1555,1554,0,0,0,0,0,0,0,0,0,0
1684044254.89986205,80128769,1578,1578,1556,1555,0,0,0,0,0,0,0,0,0,0
1684044254.99982214,80228729,1577,1577,1556,1555,0,0,0,0,0,0,0,0,0,0
1684044255.09978223,80328689,1576,1577,1555,1555,0,0,0,0,0,0,0,0,0,0
1684044255.19974208,80428649,1575,1577,1554,1554,0,0,0,0,0,0,0,0,0,0
1684044255.29970217,80528609,1576,1577,1552,1553,0,0,0,0,0,0,0,0,0,0
1684044255.39966202,80628569,1576,1578,1551,1551,0,0,0,0,0,0,0,0,0,0
1684044255.49962211,80728529,1578,1579,1549,1549,0,0,0,0,0,0,0,0,0,0
1684044255.59958220,80828489,1579,1580,1546,1546,0,0,0,0,0,0,0,0,0,0
1684044255.69954205,80928449,1581,1582,1544,1544,0,0,0,0,0,0,0,0,0,0
1684044255.79950213,81028409,1585,1586,1543,1542,0,0,0,0,0,0,0,0,0,0
1684044255.89946222,81128369,1587,1587,1540,1540,0,0,0,0,0,0,0,0,0,0
1684044255.99942207,81228329,1589,1589,1538,1538,0,0,0,0,0,0,0,0,0,0
1684044256.09938216,81328289,1591,1590,1538,1538,0,0,0,0,0,0,0,0,0,0
1684044256.19934201,81428249,1591,1591,1536,1538,0,0,0,0,0,0,0,0,0,0
1684044256.29930210,81528209,1592,1593,1539,1540,0,0,0,0,0,0,0,0,0,0
1684044256.39926219,81628169,1591,1591,1541,1543,0,0,0,0,0,0,0,0,0,0
1684044256.50005507,81728962,1589,1587,1545,1548,0,0,0,0,0,0,0,0,0,0
1684044256.60001516,81828922,1584,1581,1552,1555,0,0,0,0,0,0,0,0,0,0
1684044256.69997501,81928882,1577,1573,1561,1564,0,0,0,0,0,0,0,0,0,0
1684044256.79993510,82028842,1568,1565,1571,1574,0,0,0,0,0,0,0,0,0,0
1684044256.89989519,82128802,1559,1555,1583,1585,0,0,0,0,0,0,0,0,0,0
1684044256.99985504,82228762,1550,1547,1594,1594,0,0,0,0,0,0,0,0,0,0
1684044257.09981513,82328722,1541,1539,1602,1602,0,0,0,0,0,0,0,0,0,0
1684044257.19977522,82428682,1535,1535,1609,1608,0,0,0,0,0,0,0,0,0,0
1684044257.29973507,82528642,1532,1534,1612,1611,0,0,0,0,0,0,0,0,0,0
1684044257.39969516,82628602,1533,1536,1612,1612,0,0,0,0,0,0,0,0,0,0
1684044257.49965525,82728562,1537,1539,1609,1608,0,0,0,0,0,0,0,0,0,0
1684044257.59961510,82828522,1543,1545,1604,1604,0,0,0,0,0,0,0,0,0,0
1684044257.69957519,82928482,1551,1552,1598,1597,0,0,0,0,0,0,0,0,0,0
1684044257.79953504,83028442,1560,1560,1591,1591,0,0,0,0,0,0,0,0,0,0
1684044257.89949512,83128402,1567,1567,1585,1584,0,0,0,0,0,0,0,0,0,0
1684044257.99945521,83228362,1574,1574,1578,1577,0,0,0,0,0,0,0,0,0,0
1684044258.09941506,83328322,1580,1579,1573,1573,0,0,0,0,0,0,0,0,0,0
1684044258.19937515,83428282,1584,1583,1569,1569,0,0,0,0,0,0,0,0,0,0
1684044258.29933524,83528242,1586,1584,1566,1566,0,0,0,0,0,0,0,0,0,0
1684044258.39929509,83628202,1587,1586,1566,1567,0,0,0,0,0,0,0,0,0,0
1684044258.49925518,83728162,1588,1587,1568,1568,0,0,0,0,0,0,0,0,0,0
1684044258.60004807,83828955,1585,1584,1569,1569,0,0,0,0,0,0,0,0,0,0
1684044258.70000815,83928915,1583,1583,1572,1572,0,0,0,0,0,0,0,0,0,0
1684044258.79996824,84028875,1580,1580,1574,1574,0,0,0,0,0,0,0,0,0,0
1684044258.89992809,84128835,1578,1578,1578,1577,0,0,0,0,0,0,0,0,0,0
1684044258.99988818,84228795,1576,1577,1580,1580,0,0,0,0,0,0,0,0,0,0
1684044259.09984803,84328755,1575,1576,1583,1583,0,0,0,0,0,0,0,0,0,0
1684044259.19980812,84428715,1573,1574,1584,1584,0,0,0,0,0,0,0,0,0,0
1684044259.29976821,84528675,1573,1573,1584,1584,0,0,0,0,0,0,0,0,0,0
1684044259.39972806,84628635,1574,1575,1585,1585,0,0,0,0,0,0,0,0,0,0
1684044259.49968815,84728595,1575,1575,1584,1584,0,0,0,0,0,0,0,0,0,0
1684044259.59964824,84828555,1575,1575,1582,1582,0,0,0,0,0,0,0,0,0,0
1684044259.69960809,84928515,1576,1576,1581,1581,0,0,0,0,0,0,0,0,0,0
1684044259.79956818,85028475,1577,1577,1580,1580,0,0,0,0,0,0,0,0,0,0
1684044259.89952803,85128435,1578,1579,1579,1579,0,0,0,0,0,0,0,0,0,0
1684044259.99948812,85228395,1580,1579,1578,1578,0,0,0,0,0,0,0,0,0,0
1684044260.09944820,85328355,1580,1580,1577,1577,0,0,0,0,0,0,0,0,0,0
1684044260.19940805,85428315,1581,1580,1576,1577,0,0,0,0,0,0,0,0,0,0
1684044260.29936814,85528275,1581,1581,1577,1577,0,0,0,0,0,0,0,0,0,0
1684044260.39932823,85628235,1582,1581,1577,1577,0,0,0,0,0,0,0,0,0,0
1684044260.49928808,85728195,1581,1580,1577,1577,0,0,0,0,0,0,0,0,0,0
1684044260.59924817,85828155,1581,1581,1578,1578,0,0,0,0,0,0,0,0,0,0
1684044260.70004106,85928948,1580,1581,1579,1579,0,0,0,0,0,0,0,0,0,0
1684044260.80000114,86028908,1580,1581,1580,1580,0,0,0,0,0,0,0,0,0,0
1684044260.89996123,86128868,1580,1580,1581,1581,0,0,0,0,0,0,0,0,0,0
1684044260.99992108,86228828,1580,1580,1581,1581,0,0,0,0,0,0,0,0,0,0
1684044261.09988117,86328788,1579,1580,1581,1581,0,0,0,0,0,0,0,0,0,0
1684044261.19984102,86428748,1580,1580,1582,1582,0,0,0,0,0,0,0,0,0,0
1684044261.29980111,86528708,1580,1579,1581,1582,0,0,0,0,0,0,0,0,0,0
1684044261.39976120,86628668,1580,1580,1581,1582,0,0,0,0,0,0,0,0,0,0
1684044261.49972105,86728628,1579,1579,1580,1580,0,0,0,0,0,0,0,0,0,0
1684044261.59968114,86828588,1581,1581,1581,1582,0,0,0,0,0,0,0,0,0,0
1684044261.69964123,86928548,1581,1581,1582,1581,0,0,0,0,0,0,0,0,0,0
1684044261.79960108,87028508,1581,1581,1581,1581,0,0,0,0,0,0,0,0,0,0
1684044261.89956117,87128468,1581,1581,1587,1574,0,0,0,0,0,0,0,0,0,0
1684044261.99952102,87228428,1581,1581,1586,1573,0,0,0,0,0,0,0,0,0,0
1684044262.09948111,87328388,1580,1579,1580,1576,0,0,0,0,0,0,0,0,0,0
1684044262.19944119,87428348,1576,1576,1572,1575,0,0,0,0,0,0,0,0,0,0
1684044262.29940104,87528308,1573,1572,1567,1574,0,0,0,0,0,0,0,0,0,0
1684044262.39936113,87628268,1570,1570,1564,1571,0,0,0,0,0,0,0,0,0,0
1684044262.49932122,87728228,1569,1569,1566,1570,0,0,0,0,0,0,0,0,0,0
1684044262.59928107,87828188,1568,1568,1567,1568,0,0,0,0,0,0,0,0,0,0
1684044262.70007420,87928981,1566,1567,1567,1566,0,0,0,0,0,0,0,0,0,0
1684044262.80003405,88028941,1565,1566,1568,1564,0,0,0,0,0,0,0,0,0,0
1684044262.89999413,88128901,1566,1566,1569,1566,0,0,0,0,0,0,0,0,0,0
1684044262.99995422,88228861,1564,1564,1566,1564,0,0,0,0,0,0,0,0,0,0
1684044263.09991407,88328821,1564,1564,1565,1564,0,0,0,0,0,0,0,0,0,0
1684044263.19987416,88428781,1563,1563,1564,1564,0,0,0,0,0,0,0,0,0,0
1684044263.29983401,88528741,1562,1562,1563,1563,0,0,0,0,0,0,0,0,0,0
1684044263.39979410,88628701,1561,1561,1562,1562,0,0,0,0,0,0,0,0,0,0
1684044263.49975419,88728661,1561,1561,1561,1562,0,0,0,0,0,0,0,0,0,0
1684044263.59971404,88828621,1561,1561,1561,1561,0,0,0,0,0,0,0,0,0,0
1684044263.69967413,88928581,1560,1560,1560,1560,0,0,0,0,0,0,0,0,0,0
1684044263.79963422,89028541,1559,1559,1560,1558,0,0,0,0,0,0,0,0,0,0
1684044263.89959407,89128501,1559,1559,1558,1558,0,0,0,0,0,0,0,0,0,0
1684044263.99955416,89228461,1559,1559,1559,1558,0,0,0,0,0,0,0,0,0,0
1684044264.09951425,89328421,1558,1558,1558,1557,0,0,0,0,0,0,0,0,0,0
1684044264.19947410,89428381,1558,1559,1559,1557,0,0,0,0,0,0,0,0,0,0
1684044264.29943419,89528341,1558,1558,1558,1557,0,0,0,0,0,0,0,0,0,0
1684044264.39939404,89628301,1558,1558,1559,1557,0,0,0,0,0,0,0,0,0,0
1684044264.49935412,89728261,1559,1558,1559,1557,0,0,0,0,0,0,0,0,0,0
1684044264.59931421,89828221,1559,1557,1560,1557,0,0,0,0,0,0,0,0,0,0
1684044264.69927406,89928181,1559,1558,1558,1558,0,0,0,0,0,0,0,0,0,0
1684044264.80006719,90028974,1559,1559,1557,1561,0,0,0,0,0,0,0,0,0,0
1684044264.90002704,90128934,1558,1560,1556,1563,0,0,0,0,0,0,0,0,0,0
1684044264.99998713,90228894,1560,1561,1558,1564,0,0,0,0,0,0,0,0,0,0
1684044265.09994721,90328854,1561,1562,1559,1564,0,0,0,0,0,0,0,0,0,0
1684044265.19990706,90428814,1561,1562,1561,1562,0,0,0,0,0,0,0,0,0,0
1684044265.29986715,90528774,1561,1560,1561,1559,0,0,0,0,0,0,0,0,0,0
1684044265.39982724,90628734,1559,1559,1561,1557,0,0,0,0,0,0,0,0,0,0
1684044265.49978709,90728694,1559,1559,1558,1560,0,0,0,0,0,0,0,0,0,0
1684044265.59974718,90828654,1557,1557,1554,1559,0,0,0,0,0,0,0,0,0,0
1684044265.69970703,90928614,1553,1553,1550,1554,0,0,0,0,0,0,0,0,0,0
1684044265.79966712,91028574,1548,1548,1546,1547,0,0,0,0,0,0,0,0,0,0
1684044265.89962721,91128534,1542,1543,1541,1541,0,0,0,0,0,0,0,0,0,0
1684044265.99958706,91228494,1535,1535,1534,1533,0,0,0,0,0,0,0,0,0,0
1684044266.09954715,91328454,1528,1528,1526,1526,0,0,0,0,0,0,0,0,0,0
1684044266.19950724,91428414,1522,1522,1521,1520,0,0,0,0,0,0,0,0,0,0
1684044266.29946709,91528374,1519,1519,1519,1519,0,0,0,0,0,0,0,0,0,0
1684044266.39942718,91628334,1519,1519,1520,1520,0,0,0,0,0,0,0,0,0,0
1684044266.49938703,91728294,1521,1520,1522,1522,0,0,0,0,0,0,0,0,0,0
1684044266.59934711,91828254,1522,1523,1525,1526,0,0,0,0,0,0,0,0,0,0
1684044266.69930720,91928214,1527,1527,1530,1530,0,0,0,0,0,0,0,0,0,0
1684044266.79926705,92028174,1531,1531,1534,1535,0,0,0,0,0,0,0,0,0,0
1684044266.90006018,92128967,1536,1535,1539,1539,0,0,0,0,0,0,0,0,0,0
1684044267.00002003,92228927,1538,1538,1541,1541,0,0,0,0,0,0,0,0,0,0
1684044267.09998012,92328887,1541,1541,1543,1543,0,0,0,0,0,0,0,0,0,0
1684044267.19994020,92428847,1543,1543,1544,1544,0,0,0,0,0,0,0,0,0,0
1684044267.29990005,92528807,1544,1544,1544,1543,0,0,0,0,0,0,0,0,0,0
1684044267.39986014,92628767,1545,1546,1545,1545,0,0,0,0,0,0,0,0,0,0
1684044267.49982023,92728727,1547,1547,1546,1545,0,0,0,0,0,0,0,0,0,0
1684044267.59978008,92828687,1547,1547,1545,1545,0,0,0,0,0,0,0,0,0,0
1684044267.69974017,92928647,1548,1548,1546,1546,0,0,0,0,0,0,0,0,0,0
1684044267.79970002,93028607,1547,1547,1545,1545,0,0,0,0,0,0,0,0,0,0
1684044267.89966011,93128567,1547,1547,1546,1545,0,0,0,0,0,0,0,0,0,0
1684044267.99962020,93228527,1547,1548,1546,1546,0,0,0,0,0,0,0,0,0,0
1684044268.09958005,93328487,1546,1546,1545,1545,0,0,0,0,0,0,0,0,0,0
1684044268.19954014,93428447,1547,1547,1546,1546,0,0,0,0,0,0,0,0,0,0
1684044268.29950023,93528407,1546,1546,1546,1546,0,0,0,0,0,0,0,0,0,0
1684044268.39946008,93628367,1546,1545,1545,1546,0,0,0,0,0,0,0,0,0,0
1684044268.49942017,93728327,1546,1545,1547,1546,0,0,0,0,0,0,0,0,0,0
1684044268.59938002,93828287,1545,1545,1546,1545,0,0,0,0,0,0,0,0,0,0
1684044268.69934011,93928247,1544,1544,1544,1544,0,0,0,0,0,0,0,0,0,0
1684044268.79930019,94028207,1543,1544,1545,1544,0,0,0,0,0,0,0,0,0,0
1684044268.89926004,94128167,1543,1543,1544,1544,0,0,0,0,0,0,0,0,0,0
1684044269.00005317,94228960,1543,1543,1544,1544,0,0,0,0,0,0,0,0,0,0
1684044269.10001302,94328920,1543,1543,1544,1543,0,0,0,0,0,0,0,0,0,0
1684044269.19997311,94428880,1543,1544,1544,1544,0,0,0,0,0,0,0,0,0,0
1684044269.29993320,94528840,1544,1544,1544,1544,0,0,0,0,0,0,0,0,0,0
1684044269.39989305,94628800,1544,1544,1543,1543,0,0,0,0,0,0,0,0,0,0
1684044269.49985313,94728760,1544,1543,1543,1543,0,0,0,0,0,0,0,0,0,0
1684044269.59981322,94828720,1544,1543,1543,1543,0,0,0,0,0,0,0,0,0,0
1684044269.69977307,94928680,1544,1544,1544,1544,0,0,0,0,0,0,0,0,0,0
1684044269.79973316,95028640,1543,1544,1544,1543,0,0,0,0,0,0,0,0,0,0
1684044269.89969301,95128600,1544,1544,1544,1544,0,0,0,0,0,0,0,0,0,0
1684044269.99965310,95228560,1544,1544,1544,1543,0,0,0,0,0,0,0,0,0,0
1684044270.09961319,95328520,1544,1544,1544,1544,0,0,0,0,0,0,0,0,0,0
1684044270.19957304,95428480,1544,1544,1544,1544,0,0,0,0,0,0,0,0,0,0
1684044270.29953313,95528440,1544,1544,1544,1544,0,0,0,0,0,0,0,0,0,0
1684044270.39949322,95628400,1544,1544,1544,1544,0,0,0,0,0,0,0,0,0,0
1684044270.49945307,95728360,1544,1544,1543,1544,0,0,0,0,0,0,0,0,0,0
1684044270.59941316,95828320,1544,1543,1544,1543,0,0,0,0,0,0,0,0,0,0
1684044270.69937325,95928280,1544,1544,1544,1544,0,0,0,0,0,0,0,0,0,0
1684044270.79933310,96028240,1545,1545,1545,1545,0,0,0,0,0,0,0,0,0,0
1684044270.89929318,96128200,1544,1544,1544,1544,0,0,0,0,0,0,0,0,0,0
1684044270.99925303,96228160,1543,1543,1543,1544,0,0,0,0,0,0,0,0,0,0
1684044271.10004616,96328953,1544,1544,1544,1545,0,0,0,0,0,0,0,0,0,0
1684044271.20000625,96428913,1544,1544,1544,1544,0,0,0,0,0,0,0,0,0,0
1684044271.29996610,96528873,1544,1543,1543,1544,0,0,0,0,0,0,0,0,0,0
1684044271.39992619,96628833,1544,1544,1544,1544,0,0,0,0,0,0,0,0,0,0
1684044271.49988604,96728793,1545,1544,1544,1544,0,0,0,0,0,0,0,0,0,0
1684044271.59984612,96828753,1543,1544,1544,1543,0,0,0,0,0,0,0,0,0,0
1684044271.69980621,96928713,1544,1543,1543,1544,0,0,0,0,0,0,0,0,0,0
1684044271.79976606,97028673,1544,1544,1544,1544,0,0,0,0,0,0,0,0,0,0
1684044271.89972615,97128633,1544,1543,1544,1544,0,0,0,0,0,0,0,0,0,0
1684044271.99968624,97228593,1544,1544,1544,1544,0,0,0,0,0,0,0,0,0,0
1684044272.09964609,97328553,1544,1544,1544,1544,0,0,0,0,0,0,0,0,0,0
1684044272.19960618,97428513,1544,1544,1544,1544,0,0,0,0,0,0,0,0,0,0
1684044272.29956603,97528473,1544,1545,1544,1544,0,0,0,0,0,0,0,0,0,0
1684044272.39952612,97628433,1544,1545,1545,1544,0,0,0,0,0,0,0,0,0,0
1684044272.49948621,97728393,1544,1544,1544,1544,0,0,0,0,0,0,0,0,0,0
1684044272.59944606,97828353,1544,1544,1545,1544,0,0,0,0,0,0,0,0,0,0
1684044272.69940615,97928313,1545,1544,1544,1545,0,0,0,0,0,0,0,0,0,0
1684044272.79936624,98028273,1545,1544,1544,1544,0,0,0,0,0,0,0,0,0,0
1684044272.89932609,98128233,1545,1544,1544,1545,0,0,0,0,0,0,0,0,0,0
1684044272.99928617,98228193,1545,1545,1545,1545,0,0,0,0,0,0,0,0,0,0
1684044273.10007906,98328986,1545,1545,1545,1545,0,0,0,0,0,0,0,0,0,0
1684044273.20003915,98428946,1545,1545,1545,1545,0,0,0,0,0,0,0,0,0,0
1684044273.29999924,98528906,1544,1545,1544,1544,0,0,0,0,0,0,0,0,0,0
1684044273.39995909,98628866,1545,1545,1545,1545,0,0,0,0,0,0,0,0,0,0
1684044273.49991918,98728826,1544,1544,1544,1544,0,0,0,0,0,0,0,0,0,0
1684044273.59987903,98828786,1545,1545,1545,1544,0,0,0,0,0,0,0,0,0,0
1684044273.69983912,98928746,1545,1545,1545,1545,0,0,0,0,0,0,0,0,0,0
1684044273.79979920,99028706,1544,1544,1544,1545,0,0,0,0,0,0,0,0,0,0
1684044273.89975905,99128666,1545,1544,1544,1545,0,0,0,0,0,0,0,0,0,0
1684044273.99971914,99228626,1545,1545,1545,1545,0,0,0,0,0,0,0,0,0,0
1684044274.09967923,99328586,1544,1544,1545,1544,0,0,0,0,0,0,0,0,0,0
1684044274.19963908,99428546,1545,1545,1545,1545,0,0,0,0,0,0,0,0,0,0
1684044274.29959917,99528506,1544,1545,1545,1544,0,0,0,0,0,0,0,0,0,0
1684044274.39955902,99628466,1544,1545,1545,1544,0,0,0,0,0,0,0,0,0,0
1684044274.49951911,99728426,1545,1545,1545,1545,0,0,0,0,0,0,0,0,0,0
1684044274.59947920,99828386,1545,1545,1544,1545,0,0,0,0,0,0,0,0,0,0
1684044274.69943905,99928346,1545,1544,1544,1545,0,0,0,0,0,0,0,0,0,0
1684044274.79939914,100028306,1545,1545,1545,1544,0,0,0,0,0,0,0,0,0,0
1684044274.89935923,100128266,1544,1544,1544,1544,0,0,0,0,0,0,0,0,0,0
1684044274.99931908,100228226,1544,1544,1545,1544,0,0,0,0,0,0,0,0,0,0
1684044275.09927917,100328186,1543,1543,1543,1543,0,0,0,0,0,0,0,0,0,0
1684044275.20007205,100428979,1544,1544,1544,1544,0,0,0,0,0,0,0,0,0,0
1684044275.30003214,100528939,1544,1544,1544,1544,0,0,0,0,0,0,0,0,0,0
1684044275.39999223,100628899,1544,1543,1543,1544,0,0,0,0,0,0,0,0,0,0
1684044275.49995208,100728859,1544,1543,1543,1544,0,0,0,0,0,0,0,0,0,0
1684044275.59991217,100828819,1543,1543,1543,1543,0,0,0,0,0,0,0,0,0,0
1684044275.69987202,100928779,1544,1544,1544,1543,0,0,0,0,0,0,0,0,0,0
1684044275.79983211,101028739,1544,1544,1544,1544,0,0,0,0,0,0,0,0,0,0
1684044275.89979219,101128699,1480,1479,1471,1471,0,0,0,0,0,0,0,0,0,0
1684044275.99975204,101228659,1340,1337,1303,1302,0,0,0,0,0,0,0,0,0,0
1684044276.09971213,101328619,1283,1280,1230,1230,0,0,0,0,0,0,0,0,0,0
1684044276.19967222,101428579,1266,1263,1207,1206,0,0,0,0,0,0,0,0,0,0
1684044276.29963207,101528539,1244,1240,1177,1176,0,0,0,0,0,0,0,0,0,0
1684044276.39959216,101628499,1225,1222,1152,1150,0,0,0,0,0,0,0,0,0,0
1684044276.49955201,101728459,1224,1220,1151,1150,0,0,0,0,0,0,0,0,0,0
1684044276.59951210,101828419,1223,1221,1152,1150,0,0,0,0,0,0,0,0,0,0
1684044276.69947219,101928379,1224,1215,1150,1158,0,0,0,0,0,0,0,0,0,0
1684044276.79943204,102028339,1223,1203,1150,1176,0,0,0,0,0,0,0,0,0,0
1684044276.89939213,102128299,1224,1211,1150,1165,0,0,0,0,0,0,0,0,0,0
1684044276.99935222,102228259,1224,1213,1150,1162,0,0,0,0,0,0,0,0,0,0
1684044277.09931207,102328219,1224,1213,1150,1162,0,0,0,0,0,0,0,0,0,0
1684044277.19927216,102428179,1224,1213,1150,1162,0,0,0,0,0,0,0,0,0,0
1684044277.30006504,102528972,1224,1212,1150,1163,0,0,0,0,0,0,0,0,0,0
1684044277.40002513,102628932,1224,1212,1150,1163,0,0,0,0,0,0,0,0,0,0
1684044277.49998522,102728892,1213,1223,1163,1150,0,0,0,0,0,0,0,0,0,0
1684044277.59994507,102828852,1223,1221,1150,1151,0,0,0,0,0,0,0,0,0,0
1684044277.69990516,102928812,1224,1221,1150,1152,0,0,0,0,0,0,0,0,0,0
1684044277.79986525,103028772,1224,1220,1150,1152,0,0,0,0,0,0,0,0,0,0
1684044277.89982510,103128732,1224,1220,1150,1152,0,0,0,0,0,0,0,0,0,0
1684044277.99978518,103228692,1047,1047,1147,1147,0,0,0,0,0,0,0,0,0,0
1684044278.09974504,103328652,1000,1000,1000,1000,0,0,0,0,0,0,0,0,0,0
1684044278.19970512,103428612,1000,1000,1000,1000,0,0,0,0,0,0,0,0,0,0
1684044278.29966521,103528572,1000,1000,1000,1000,0,0,0,0,0,0,0,0,0,0
1684044278.39962506,103628532,1000,1000,1000,1000,0,0,0,0,0,0,0,0,0,0
1684044278.49958515,103728492,1000,1000,1000,1000,0,0,0,0,0,0,0,0,0,0
1684044278.59954524,103828452,1000,1000,1000,1000,0,0,0,0,0,0,0,0,0,0
1684044278.69950509,103928412,1000,1000,1000,1000,0,0,0,0,0,0,0,0,0,0
1684044278.79946518,104028372,1000,1000,1000,1000,0,0,0,0,0,0,0,0,0,0
1684044278.89942503,104128332,1000,1000,1000,1000,0,0,0,0,0,0,0,0,0,0
1684044278.99938512,104228292,1000,1000,1000,1000,0,0,0,0,0,0,0,0,0,0
1684044279.09934521,104328252,1000,1000,1000,1000,0,0,0,0,0,0,0,0,0,0
1684044279.19930506,104428212,1000,1000,1000,1000,0,0,0,0,0,0,0,0,0,0
1684044279.29926515,104528172,1000,1000,1000,1000,0,0,0,0,0,0,0,0,0,0
1684044279.40005803,104628965,1000,1000,1000,1000,0,0,0,0,0,0,0,0,0,0
1684044279.50001812,104728925,1000,1000,1000,1000,0,0,0,0,0,0,0,0,0,0
1684044279.59997821,104828885,1000,1000,1000,1000,0,0,0,0,0,0,0,0,0,0
1684044279.69993806,104928845,1000,1000,1000,1000,0,0,0,0,0,0,0,0,0,0
1684044279.79989815,105028805,1000,1000,1000,1000,0,0,0,0,0,0,0,0,0,0
1684044279.89985824,105128765,1000,1000,1000,1000,0,0,0,0,0,0,0,0,0,0
1684044279.99981809,105228725,1000,1000,1000,1000,0,0,0,0,0,0,0,0,0,0
1684044280.09977818,105328685,1000,1000,1000,1000,0,0,0,0,0,0,0,0,0,0
1684044280.19973803,105428645,1000,1000,1000,1000,0,0,0,0,0,0,0,0,0,0
1684044280.29969811,105528605,1000,1000,1000,1000,0,0,0,0,0,0,0,0,0,0
1684044280.39965820,105628565,1000,1000,1000,1000,0,0,0,0,0,0,0,0,0,0
1684044280.49961805,105728525,1000,1000,1000,1000,0,0,0,0,0,0,0,0,0,0
1684044280.59957814,105828485,1000,1000,1000,1000,0,0,0,0,0,0,0,0,0,0
1684044280.69953823,105928445,1000,1000,1000,1000,0,0,0,0,0,0,0,0,0,0
1684044280.79949808,106028405,1000,1000,1000,1000,0,0,0,0,0,0,0,0,0,0
1684044280.89945817,106128365,1000,1000,1000,1000,0,0,0,0,0,0,0,0,0,0
1684044280.99941802,106228325,1000,1000,1000,1000,0,0,0,0,0,0,0,0,0,0
1684044281.09937811,106328285,1000,1000,1000,1000,0,0,0,0,0,0,0,0,0,0
1684044281.19933820,106428245,1000,1000,1000,1000,0,0,0,0,0,0,0,0,0,0
1684044281.29929805,106528205,1000,1000,1000,1000,0,0,0,0,0,0,0,0,0,0
1684044281.39925814,106628165,1000,1000,1000,1000,0,0,0,0,0,0,0,0,0,0
1684044281.50005102,106728958,1000,1000,1000,1000,0,0,0,0,0,0,0,0,0,0
1684044281.60001111,106828918,1000,1000,1000,1000,0,0,0,0,0,0,0,0,0,0
1684044281.69997120,106928878,1000,1000,1000,1000,0,0,0,0,0,0,0,0,0,0
1684044281.79993105,107028838,1000,1000,1000,1000,0,0,0,0,0,0,0,0,0,0
1684044281.89989114,107128798,1000,1000,1000,1000,0,0,0,0,0,0,0,0,0,0
1684044281.99985123,107228758,1000,1000,1000,1000,0,0,0,0,0,0,0,0,0,0
1684044282.09981108,107328718,1000,1000,1000,1000,0,0,0,0,0,0,0,0,0,0
1684044282.19977117,107428678,1000,1000,1000,1000,0,0,0,0,0,0,0,0,0,0
1684044282.29973102,107528638,1000,1000,1000,1000,0,0,0,0,0,0,0,0,0,0
1684044282.39969110,107628598,1000,1000,1000,1000,0,0,0,0,0,0,0,0,0,0
1684044282.49965119,107728558,1000,1000,1000,1000,0,0,0,0,0,0,0,0,0,0
1684044282.59961104,107828518,1000,1000,1000,1000,0,0,0,0,0,0,0,0,0,0
1684044282.69957113,107928478,1000,1000,1000,1000,0,0,0,0,0,0,0,0,0,0
1684044282.79953122,108028438,1000,1000,1000,1000,0,0,0,0,0,0,0,0,0,0
1684044282.89949107,108128398,1000,1000,1000,1000,0,0,0,0,0,0,0,0,0,0
1684044282.99945116,108228358,1000,1000,1000,1000,0,0,0,0,0,0,0,0,0,0
1684044283.09941125,108328318,1000,1000,1000,1000,0,0,0,0,0,0,0,0,0,0
1684044283.19937110,108428278,1000,1000,1000,1000,0,0,0,0,0,0,0,0,0,0
1684044283.29933119,108528238,1000,1000,1000,1000,0,0,0,0,0,0,0,0,0,0
1684044283.39929104,108628198,1000,1000,1000,1000,0,0,0,0,0,0,0,0,0,0
1684044283.49925113,108728158,1000,1000,1000,1000,0,0,0,0,0,0,0,0,0,0
1684044283.60004401,108828951,1000,1000,1000,1000,0,0,0,0,0,0,0,0,0,0
1684044283.70000410,108928911,1000,1000,1000,1000,0,0,0,0,0,0,0,0,0,0
1684044283.79996419,109028871,1000,1000,1000,1000,0,0,0,0,0,0,0,0,0,0
1684044283.89992404,109128831,1000,1000,1000,1000,0,0,0,0,0,0,0,0,0,0
1684044283.99988413,109228791,1000,1000,1000,1000,0,0,0,0,0,0,0,0,0,0
1684044284.09984422,109328751,1000,1000,1000,1000,0,0,0,0,0,0,0,0,0,0
1684044284.19980407,109428711,1000,1000,1000,1000,0,0,0,0,0,0,0,0,0,0
1684044284.29976416,109528671,1000,1000,1000,1000,0,0,0,0,0,0,0,0,0,0
1684044284.39972425,109628631,1000,1000,1000,1000,0,0,0,0,0,0,0,0,0,0
1684044284.49968410,109728591,1000,1000,1000,1000,0,0,0,0,0,0,0,0,0,0
1684044284.59964418,109828551,1000,1000,1000,1000,0,0,0,0,0,0,0,0,0,0
1684044284.69960403,109928511,1000,1000,1000,1000,0,0,0,0,0,0,0,0,0,0
1684044284.79956412,110028471,1000,1000,1000,1000,0,0,0,0,0,0,0,0,0,0
1684044284.89952421,110128431,1000,1000,1000,1000,0,0,0,0,0,0,0,0,0,0
1684044284.99948406,110228391,1000,1000,1000,1000,0,0,0,0,0,0,0,0,0,0
1684044285.09944415,110328351,1000,1000,1000,1000,0,0,0,0,0,0,0,0,0,0
1684044285.19940424,110428311,1000,1000,1000,1000,0,0,0,0,0,0,0,0,0,0
1684044285.29936409,110528271,1000,1000,1000,1000,0,0,0,0,0,0,0,0,0,0
1684044285.39932418,110628231,1000,1000,1000,1000,0,0,0,0,0,0,0,0,0,0
1684044285.49928403,110728191,1000,1000,1000,1000,0,0,0,0,0,0,0,0,0,0
1684044285.60007715,110828984,1000,1000,1000,1000,0,0,0,0,0,0,0,0,0,0
1684044285.70003724,110928944,1000,1000,1000,1000,0,0,0,0,0,0,0,0,0,0
1684044285.79999709,111028904,1000,1000,1000,1000,0,0,0,0,0,0,0,0,0,0
1684044285.89995718,111128864,1000,1000,1000,1000,0,0,0,0,0,0,0,0,0,0
1684044285.99991703,111228824,1000,1000,1000,1000,0,0,0,0,0,0,0,0,0,0
1684044286.09987712,111328784,1000,1000,1000,1000,0,0,0,0,0,0,0,0,0,0
1684044286.19983721,111428744,1000,1000,1000,1000,0,0,0,0,0,0,0,0,0,0
1684044286.29979706,111528704,1000,1000,1000,1000,0,0,0,0,0,0,0,0,0,0
1684044286.39975715,111628664,1000,1000,1000,1000,0,0,0,0,0,0,0,0,0,0
1684044286.49971724,111728624,1000,1000,1000,1000,0,0,0,0,0,0,0,0,0,0
1684044286.59967709,111828584,1000,1000,1000,1000,0,0,0,0,0,0,0,0,0,0
1684044286.69963717,111928544,1000,1000,1000,1000,0,0,0,0,0,0,0,0,0,0
1684044286.79959702,112028504,1000,1000,1000,1000,0,0,0,0,0,0,0,0,0,0
1684044286.89955711,112128464,1000,1000,1000,1000,0,0,0,0,0,0,0,0,0,0
1684044286.99951720,112228424,1000,1000,1000,1000,0,0,0,0,0,0,0,0,0,0
1684044287.09947705,112328384,1000,1000,1000,1000,0,0,0,0,0,0,0,0,0,0
1684044287.19943714,112428344,1000,1000,1000,1000,0,0,0,0,0,0,0,0,0,0
1684044287.29939723,112528304,1000,1000,1000,1000,0,0,0,0,0,0,0,0,0,0
1684044287.39935708,112628264,1000,1000,1000,1000,0,0,0,0,0,0,0,0,0,0
1684044287.49931717,112728224,1000,1000,1000,1000,0,0,0,0,0,0,0,0,0,0
1684044287.59927702,112828184,1000,1000,1000,1000,0,0,0,0,0,0,0,0,0,0
1684044287.70007014,112928977,1000,1000,1000,1000,0,0,0,0,0,0,0,0,0,0
1684044287.80003023,113028937,1000,1000,1000,1000,0,0,0,0,0,0,0,0,0,0
1684044287.89999008,113128897,1000,1000,1000,1000,0,0,0,0,0,0,0,0,0,0
1684044287.99995017,113228857,1000,1000,1000,1000,0,0,0,0,0,0,0,0,0,0
1684044288.09991002,113328817,1000,1000,1000,1000,0,0,0,0,0,0,0,0,0,0
1684044288.19987011,113428777,1000,1000,1000,1000,0,0,0,0,0,0,0,0,0,0
1684044288.29983020,113528737,1000,1000,1000,1000,0,0,0,0,0,0,0,0,0,0
1684044288.39979005,113628697,1000,1000,1000,1000,0,0,0,0,0,0,0,0,0,0
1684044288.49975014,113728657,1000,1000,1000,1000,0,0,0,0,0,0,0,0,0,0
1684044288.59971023,113828617,1000,1000,1000,1000,0,0,0,0,0,0,0,0,0,0
1684044288.69967008,113928577,1000,1000,1000,1000,0,0,0,0,0,0,0,0,0,0
1684044288.79963017,114028537,1000,1000,1000,1000,0,0,0,0,0,0,0,0,0,0
1684044288.89959002,114128497,1000,1000,1000,1000,0,0,0,0,0,0,0,0,0,0
1684044288.99955010,114228457,1000,1000,1000,1000,0,0,0,0,0,0,0,0,0,0
1684044289.09951019,114328417,1000,1000,1000,1000,0,0,0,0,0,0,0,0,0,0
1684044289.19947004,114428377,1000,1000,1000,1000,0,0,0,0,0,0,0,0,0,0
1684044289.29943013,114528337,1000,1000,1000,1000,0,0,0,0,0,0,0,0,0,0
1684044289.39939022,114628297,1000,1000,1000,1000,0,0,0,0,0,0,0,0,0,0
1684044289.49935007,114728257,1000,1000,1000,1000,0,0,0,0,0,0,0,0,0,0
1684044289.59931016,114828217,1000,1000,1000,1000,0,0,0,0,0,0,0,0,0,0
1684044289.69927025,114928177,1000,1000,1000,1000,0,0,0,0,0,0,0,0,0,0
1684044289.80006313,115028970,1000,1000,1000,1000,0,0,0,0,0,0,0,0,0,0
1684044289.90002322,115128930,1000,1000,1000,1000,0,0,0,0,0,0,0,0,0,0
1684044289.99998307,115228890,1000,1000,1000,1000,0,0,0,0,0,0,0,0,0,0
1684044290.09994316,115328850,1000,1000,1000,1000,0,0,0,0,0,0,0,0,0,0
1684044290.19990301,115428810,1000,1000,1000,1000,0,0,0,0,0,0,0,0,0,0
1684044290.29986310,115528770,1000,1000,1000,1000,0,0,0,0,0,0,0,0,0,0
1684044290.39982319,115628730,1000,1000,1000,1000,0,0,0,0,0,0,0,0,0,0
1684044290.49978304,115728690,1000,1000,1000,1000,0,0,0,0,0,0,0,0,0,0
1684044290.59974313,115828650,1000,1000,1000,1000,0,0,0,0,0,0,0,0,0,0
1684044290.69970322,115928610,1000,1000,1000,1000,0,0,0,0,0,0,0,0,0,0
1684044290.79966307,116028570,1000,1000,1000,1000,0,0,0,0,0,0,0,0,0,0
1684044290.89962316,116128530,1000,1000,1000,1000,0,0,0,0,0,0,0,0,0,0
1684044290.99958324,116228490,1000,1000,1000,1000,0,0,0,0,0,0,0,0,0,0
1684044291.09954309,116328450,1000,1000,1000,1000,0,0,0,0,0,0,0,0,0,0
1684044291.19950318,116428410,1000,1000,1000,1000,0,0,0,0,0,0,0,0,0,0
1684044291.29946303,116528370,1000,1000,1000,1000,0,0,0,0,0,0,0,0,0,0
1684044291.39942312,116628330,1000,1000,1000,1000,0,0,0,0,0,0,0,0,0,0
1684044291.49938321,116728290,1000,1000,1000,1000,0,0,0,0,0,0,0,0,0,0
1684044291.59934306,116828250,1000,1000,1000,1000,0,0,0,0,0,0,0,0,0,0
1684044291.69930315,116928210,1000,1000,1000,1000,0,0,0,0,0,0,0,0,0,0
1684044291.79926324,117028170,1000,1000,1000,1000,0,0,0,0,0,0,0,0,0,0
1684044291.90005612,117128963,1000,1000,1000,1000,0,0,0,0,0,0,0,0,0,0
1684044292.00001621,117228923,1000,1000,1000,1000,0,0,0,0,0,0,0,0,0,0
1684044292.09997606,117328883,1000,1000,1000,1000,0,0,0,0,0,0,0,0,0,0
1684044292.19993615,117428843,1000,1000,1000,1000,0,0,0,0,0,0,0,0,0,0
1684044292.29989624,117528803,1000,1000,1000,1000,0,0,0,0,0,0,0,0,0,0
1684044292.39985609,117628763,1000,1000,1000,1000,0,0,0,0,0,0,0,0,0,0
1684044292.49981618,117728723,1000,1000,1000,1000,0,0,0,0,0,0,0,0,0,0
1684044292.59977603,117828683,1000,1000,1000,1000,0,0,0,0,0,0,0,0,0,0
1684044292.69973612,117928643,1000,1000,1000,1000,0,0,0,0,0,0,0,0,0,0
1684044292.79969621,118028603,1000,1000,1000,1000,0,0,0,0,0,0,0,0,0,0
1684044292.89965606,118128563,1000,1000,1000,1000,0,0,0,0,0,0,0,0,0,0
