TimeUS,M1,M2,M3,M4,TimeUS,C1,C2,C3,C4
48451445,1000,1000,1000,1000,48528914,1000,1000,1000,1000
48453944,1000,1000,1000,1000,48628874,1000,1000,1000,1000
48456443,1000,1000,1000,1000,48728834,1000,1000,1000,1000
48458942,1000,1000,1000,1000,48828794,1000,1000,1000,1000
48461441,1000,1000,1000,1000,48928754,1000,1000,1000,1000
48463940,1000,1000,1000,1000,49028714,1000,1000,1000,1000
48466439,1000,1000,1000,1000,49128674,1000,1000,1000,1000
48468938,1000,1000,1000,1000,49228634,1000,1000,1000,1000
48471437,1000,1000,1000,1000,49328594,1000,1000,1000,1000
48473936,1000,1000,1000,1000,49428554,1000,1000,1000,1000
48476435,1000,1000,1000,1000,49528514,1000,1000,1000,1000
48478934,1000,1000,1000,1000,49628474,1000,1000,1000,1000
48481433,1000,1000,1000,1000,49728434,1000,1000,1000,1000
48483932,1000,1000,1000,1000,49828394,1000,1000,1000,1000
48486431,1000,1000,1000,1000,49928354,1000,1000,1000,1000
48488930,1000,1000,1000,1000,50028314,1000,1000,1000,1000
48491429,1000,1000,1000,1000,50128274,1000,1000,1000,1000
48493928,1000,1000,1000,1000,50228234,1000,1000,1000,1000
48496427,1000,1000,1000,1000,50328194,1000,1000,1000,1000
48498926,1000,1000,1000,1000,50428154,1000,1000,1000,1000
48501425,1000,1000,1000,1000,50528947,1023,1023,1023,1023
48503924,1000,1000,1000,1000,50628907,1053,1053,1053,1053
48506423,1000,1000,1000,1000,50728867,1083,1083,1083,1083
48508922,1000,1000,1000,1000,50828827,1113,1113,1113,1113
48511421,1000,1000,1000,1000,50928787,1143,1143,1143,1143
48513920,1000,1000,1000,1000,51028747,1351,1346,1346,1352
48516419,1000,1000,1000,1000,51128707,1542,1537,1538,1542
48518918,1000,1000,1000,1000,51228667,1695,1691,1691,1695
48521417,1000,1000,1000,1000,51328627,1827,1822,1822,1827
48523916,1000,1000,1000,1000,51428587,1859,1853,1854,1859
48526415,1000,1000,1000,1000,51528547,1832,1830,1830,1833
48528914,1000,1000,1000,1000,51628507,1704,1704,1704,1704
48531413,1000,1000,1000,1000,51728467,1631,1627,1627,1632
48533912,1000,1000,1000,1000,51828427,1613,1614,1610,1618
48536411,1000,1000,1000,1000,51928387,1624,1626,1623,1629
48538910,1000,1000,1000,1000,52028347,1634,1636,1635,1636
48541409,1000,1000,1000,1000,52128307,1635,1636,1637,1634
48543908,1000,1000,1000,1000,52228267,1630,1630,1633,1628
48546407,1000,1000,1000,1000,52328227,1626,1625,1628,1622
48548906,1000,1000,1000,1000,52428187,1623,1621,1624,1620
48551405,1000,1000,1000,1000,52528980,1622,1621,1622,1621
48553904,1000,1000,1000,1000,52628940,1622,1621,1621,1622
48556403,1000,1000,1000,1000,52728900,1618,1619,1618,1619
48558902,1000,1000,1000,1000,52828860,1587,1587,1593,1581
48561401,1000,1000,1000,1000,52928820,1574,1575,1579,1570
48563900,1000,1000,1000,1000,53028780,1563,1563,1564,1563
48566399,1000,1000,1000,1000,53128740,1555,1555,1552,1557
48568898,1000,1000,1000,1000,53228700,1548,1547,1540,1555
48571397,1000,1000,1000,1000,53328660,1541,1541,1533,1549
48573896,1000,1000,1000,1000,53428620,1535,1535,1530,1540
48576395,1000,1000,1000,1000,53528580,1529,1529,1527,1531
48578894,1000,1000,1000,1000,53628540,1527,1527,1528,1527
48581393,1000,1000,1000,1000,53728500,1529,1529,1531,1527
48583892,1000,1000,1000,1000,53828460,1531,1531,1534,1528
48586391,1000,1000,1000,1000,53928420,1533,1534,1536,1531
48588890,1000,1000,1000,1000,54028380,1536,1537,1539,1535
48591389,1000,1000,1000,1000,54128340,1540,1540,1542,1539
48593888,1000,1000,1000,1000,54228300,1543,1543,1544,1543
48596387,1000,1000,1000,1000,54328260,1547,1547,1547,1547
48598886,1000,1000,1000,1000,54428220,1549,1549,1548,1549
48601385,1000,1000,1000,1000,54528180,1551,1551,1550,1552
48603884,1000,1000,1000,1000,54628973,1554,1554,1553,1555
48606383,1000,1000,1000,1000,54728933,1553,1552,1558,1561
48608882,1000,1000,1000,1000,54828893,1555,1555,1562,1563
48611381,1000,1000,1000,1000,54928853,1558,1558,1564,1565
48613880,1000,1000,1000,1000,55028813,1560,1561,1565,1564
48616379,1000,1000,1000,1000,55128773,1563,1564,1566,1565
48618878,1000,1000,1000,1000,55228733,1566,1566,1566,1565
48621377,1000,1000,1000,1000,55328693,1569,1569,1566,1566
48623876,1000,1000,1000,1000,55428653,1570,1570,1565,1566
48626375,1000,1000,1000,1000,55528613,1571,1571,1566,1566
48628874,1000,1000,1000,1000,55628573,1572,1572,1567,1567
48631373,1000,1000,1000,1000,55728533,1573,1572,1568,1568
48633872,1000,1000,1000,1000,55828493,1572,1572,1568,1569
48636371,1000,1000,1000,1000,55928453,1574,1574,1571,1571
48638870,1000,1000,1000,1000,56028413,1573,1573,1572,1572
48641369,1000,1000,1000,1000,56128373,1574,1574,1574,1573
48643868,1000,1000,1000,1000,56228333,1575,1575,1576,1574
48646367,1000,1000,1000,1000,56328293,1575,1575,1576,1575
48648866,1000,1000,1000,1000,56428253,1574,1574,1576,1575
48651365,1000,1000,1000,1000,56528213,1574,1574,1576,1576
48653864,1000,1000,1000,1000,56628173,1574,1575,1576,1577
48656363,1000,1000,1000,1000,56728966,1575,1575,1576,1577
48658862,1000,1000,1000,1000,56828926,1575,1575,1575,1576
48661361,1000,1000,1000,1000,56928886,1576,1576,1576,1576
48663860,1000,1000,1000,1000,57028846,1577,1577,1577,1577
48666359,1000,1000,1000,1000,57128806,1577,1577,1577,1577
48668858,1000,1000,1000,1000,57228766,1577,1577,1577,1576
48671357,1000,1000,1000,1000,57328726,1578,1578,1578,1577
48673856,1000,1000,1000,1000,57428686,1577,1578,1577,1577
48676355,1000,1000,1000,1000,57528646,1578,1578,1577,1577
48678854,1000,1000,1000,1000,57628606,1578,1578,1578,1578
48681353,1000,1000,1000,1000,57728566,1579,1578,1578,1578
48683852,1000,1000,1000,1000,57828526,1578,1578,1578,1578
48686351,1000,1000,1000,1000,57928486,1578,1578,1577,1578
48688850,1000,1000,1000,1000,58028446,1579,1579,1579,1578
48691349,1000,1000,1000,1000,58128406,1579,1579,1579,1579
48693848,1000,1000,1000,1000,58228366,1579,1579,1579,1579
48696347,1000,1000,1000,1000,58328326,1578,1578,1579,1579
48698846,1000,1000,1000,1000,58428286,1579,1579,1579,1580
48701345,1000,1000,1000,1000,58528246,1579,1578,1579,1579
48703844,1000,1000,1000,1000,58628206,1579,1579,1580,1579
48706343,1000,1000,1000,1000,58728166,1578,1579,1579,1579
48708842,1000,1000,1000,1000,58828959,1579,1579,1579,1579
48711341,1000,1000,1000,1000,58928919,1579,1579,1579,1580
48713840,1000,1000,1000,1000,59028879,1579,1579,1580,1579
48716339,1000,1000,1000,1000,59128839,1580,1580,1580,1580
48718838,1000,1000,1000,1000,59228799,1580,1580,1580,1580
48721337,1000,1000,1000,1000,59328759,1580,1579,1579,1579
48723836,1000,1000,1000,1000,59428719,1580,1580,1579,1580
48726335,1000,1000,1000,1000,59528679,1579,1579,1579,1579
48728834,1000,1000,1000,1000,59628639,1580,1580,1580,1580
48731333,1000,1000,1000,1000,59728599,1580,1581,1580,1580
48733832,1000,1000,1000,1000,59828559,1580,1580,1581,1580
48736331,1000,1000,1000,1000,59928519,1579,1579,1579,1579
48738830,1000,1000,1000,1000,60028479,1580,1580,1580,1580
48741329,1000,1000,1000,1000,60128439,1580,1581,1581,1581
48743828,1000,1000,1000,1000,60228399,1580,1580,1581,1581
48746327,1000,1000,1000,1000,60328359,1581,1580,1581,1581
48748826,1000,1000,1000,1000,60428319,1580,1580,1580,1580
48751325,1000,1000,1000,1000,60528279,1581,1580,1581,1580
48753824,1000,1000,1000,1000,60628239,1581,1581,1581,1580
48756323,1000,1000,1000,1000,60728199,1581,1581,1581,1581
48758822,1000,1000,1000,1000,60828159,1581,1582,1584,1580
48761321,1000,1000,1000,1000,60928952,1580,1581,1588,1572
48763820,1000,1000,1000,1000,61028912,1579,1582,1583,1573
48766319,1000,1000,1000,1000,61128872,1579,1581,1574,1574
48768818,1000,1000,1000,1000,61228832,1576,1579,1565,1570
48771317,1000,1000,1000,1000,61328792,1577,1578,1559,1566
48773816,1000,1000,1000,1000,61428752,1578,1578,1556,1562
48776315,1000,1000,1000,1000,61528712,1579,1578,1555,1558
48778814,1000,1000,1000,1000,61628672,1580,1578,1556,1556
48781313,1000,1000,1000,1000,61728632,1578,1577,1555,1553
48783812,1000,1000,1000,1000,61828592,1578,1578,1556,1554
48786311,1000,1000,1000,1000,61928552,1576,1577,1555,1553
48788810,1000,1000,1000,1000,62028512,1577,1578,1556,1555
48791309,1000,1000,1000,1000,62128472,1574,1576,1554,1554
48793808,1000,1000,1000,1000,62228432,1574,1576,1552,1553
48796307,1000,1000,1000,1000,62328392,1575,1577,1551,1552
48798806,1000,1000,1000,1000,62428352,1576,1578,1549,1549
48801305,1000,1000,1000,1000,62528312,1579,1580,1548,1548
48803804,1000,1000,1000,1000,62628272,1582,1583,1546,1545
48806303,1000,1000,1000,1000,62728232,1585,1586,1544,1542
48808802,1000,1000,1000,1000,62828192,1588,1589,1540,1540
48811301,1000,1000,1000,1000,62928985,1590,1590,1537,1537
48813800,1000,1000,1000,1000,63028945,1593,1593,1535,1536
48816299,1000,1000,1000,1000,63128905,1595,1595,1534,1536
48818798,1000,1000,1000,1000,63228865,1595,1595,1535,1537
48821297,1000,1000,1000,1000,63328825,1593,1593,1535,1538
48823796,1000,1000,1000,1000,63428785,1592,1591,1540,1542
48826295,1000,1000,1000,1000,63528745,1589,1587,1546,1549
48828794,1000,1000,1000,1000,63628705,1581,1578,1554,1556
48831293,1000,1000,1000,1000,63728665,1573,1569,1565,1567
48833792,1000,1000,1000,1000,63828625,1562,1559,1577,1579
48836291,1000,1000,1000,1000,63928585,1551,1548,1590,1591
48838790,1000,1000,1000,1000,64028545,1540,1538,1599,1599
48841289,1000,1000,1000,1000,64128505,1533,1532,1608,1607
48843788,1000,1000,1000,1000,64228465,1528,1529,1613,1612
48846287,1000,1000,1000,1000,64328425,1528,1530,1615,1614
48848786,1000,1000,1000,1000,64428385,1531,1534,1612,1612
48851285,1000,1000,1000,1000,64528345,1538,1541,1609,1608
48853784,1000,1000,1000,1000,64628305,1546,1547,1601,1601
48856283,1000,1000,1000,1000,64728265,1555,1556,1594,1594
48858782,1000,1000,1000,1000,64828225,1565,1564,1587,1587
48861281,1000,1000,1000,1000,64928185,1572,1572,1580,1579
48863780,1000,1000,1000,1000,65028978,1580,1579,1575,1574
48866279,1000,1000,1000,1000,65128938,1585,1584,1571,1570
48868778,1000,1000,1000,1000,65228898,1587,1586,1568,1567
48871277,1000,1000,1000,1000,65328858,1588,1587,1567,1567
48873776,1000,1000,1000,1000,65428818,1588,1587,1567,1568
48876275,1000,1000,1000,1000,65528778,1587,1586,1569,1570
48878774,1000,1000,1000,1000,65628738,1583,1583,1571,1571
48881273,1000,1000,1000,1000,65728698,1580,1579,1573,1573
48883772,1000,1000,1000,1000,65828658,1578,1578,1577,1577
48886271,1000,1000,1000,1000,65928618,1575,1575,1580,1579
48888770,1000,1000,1000,1000,66028578,1573,1574,1582,1581
48891269,1000,1000,1000,1000,66128538,1680,1680,1567,1564
48893768,1000,1000,1000,1000,66228498,1641,1639,1555,1552
48896267,1000,1000,1000,1000,66328458,1610,1607,1561,1562
48898766,1000,1000,1000,1000,66428418,1580,1578,1571,1573
48901265,1000,1000,1000,1000,66528378,1558,1558,1581,1583
48903764,1000,1000,1000,1000,66628338,1546,1547,1589,1590
48906263,1000,1000,1000,1000,66728298,1542,1545,1593,1593
48908762,1000,1000,1000,1000,66828258,1542,1546,1594,1593
48911261,1000,1000,1000,1000,66928218,1547,1550,1594,1593
48913760,1000,1000,1000,1000,67028178,1552,1554,1591,1591
48916259,1000,1000,1000,1000,67128971,1557,1559,1588,1589
48918758,1000,1000,1000,1000,67228931,1563,1563,1586,1586
48921257,1000,1000,1000,1000,67328891,1569,1569,1583,1585
48923756,1000,1000,1000,1000,67428851,1572,1572,1580,1581
48926255,1000,1000,1000,1000,67528811,1576,1576,1579,1580
48928754,1000,1000,1000,1000,67628771,1578,1578,1577,1576
48931253,1000,1000,1000,1000,67728731,1582,1581,1577,1576
48933752,1000,1000,1000,1000,67828691,1584,1584,1577,1576
48936251,1000,1000,1000,1000,67928651,1584,1584,1575,1575
48938750,1000,1000,1000,1000,68028611,1586,1585,1576,1575
48941249,1000,1000,1000,1000,68128571,1586,1586,1577,1576
48943748,1000,1000,1000,1000,68228531,1586,1586,1577,1577
48946247,1000,1000,1000,1000,68328491,1584,1584,1577,1578
48948746,1000,1000,1000,1000,68428451,1584,1582,1578,1578
48951245,1000,1000,1000,1000,68528411,1584,1583,1579,1580
48953744,1000,1000,1000,1000,68628371,1582,1581,1580,1580
48956243,1000,1000,1000,1000,68728331,1581,1581,1582,1581
48958742,1000,1000,1000,1000,68828291,1580,1581,1583,1582
48961241,1000,1000,1000,1000,68928251,1578,1583,1588,1574
48963740,1000,1000,1000,1000,69028211,1577,1584,1584,1573
48966239,1000,1000,1000,1000,69128171,1577,1582,1575,1574
48968738,1000,1000,1000,1000,69228964,1577,1579,1565,1571
48971237,1000,1000,1000,1000,69328924,1578,1578,1560,1568
48973736,1000,1000,1000,1000,69428884,1580,1579,1556,1562
48976235,1000,1000,1000,1000,69528844,1582,1580,1553,1557
48978734,1000,1000,1000,1000,69628804,1584,1581,1553,1553
48981233,1000,1000,1000,1000,69728764,1584,1582,1554,1551
48983732,1000,1000,1000,1000,69828724,1584,1583,1554,1551
48986231,1000,1000,1000,1000,69928684,1580,1582,1553,1550
48988730,1000,1000,1000,1000,70028644,1580,1582,1553,1552
48991229,1000,1000,1000,1000,70128604,1580,1582,1552,1553
48993728,1000,1000,1000,1000,70228564,1579,1581,1551,1552
48996227,1000,1000,1000,1000,70328524,1579,1580,1550,1551
48998726,1000,1000,1000,1000,70428484,1580,1581,1550,1550
49001225,1000,1000,1000,1000,70528444,1583,1583,1549,1549
49003724,1000,1000,1000,1000,70628404,1585,1586,1549,1548
49006223,1000,1000,1000,1000,70728364,1586,1587,1545,1545
49008722,1000,1000,1000,1000,70828324,1589,1591,1542,1543
49011221,1000,1000,1000,1000,70928284,1592,1594,1541,1541
49013720,1000,1000,1000,1000,71028244,1594,1594,1540,1541
49016219,1000,1000,1000,1000,71128204,1594,1592,1540,1543
49018718,1000,1000,1000,1000,71228164,1593,1590,1546,1548
49021217,1000,1000,1000,1000,71328957,1588,1583,1552,1554
49023716,1000,1000,1000,1000,71428917,1581,1576,1562,1563
49026215,1000,1000,1000,1000,71528877,1572,1568,1573,1574
49028714,1000,1000,1000,1000,71628837,1561,1558,1583,1584
49031213,1000,1000,1000,1000,71728797,1553,1552,1594,1593
49033712,1000,1000,1000,1000,71828757,1547,1547,1600,1599
49036211,1000,1000,1000,1000,71928717,1544,1545,1604,1603
49038710,1000,1000,1000,1000,72028677,1545,1546,1606,1606
49041209,1000,1000,1000,1000,72128637,1546,1547,1605,1605
49043708,1000,1000,1000,1000,72228597,1549,1550,1605,1603
49046207,1000,1000,1000,1000,72328557,1553,1554,1602,1601
49048706,1000,1000,1000,1000,72428517,1557,1558,1599,1598
49051205,1000,1000,1000,1000,72528477,1562,1563,1595,1595
49053704,1000,1000,1000,1000,72628437,1566,1567,1590,1591
49056203,1000,1000,1000,1000,72728397,1571,1571,1587,1587
49058702,1000,1000,1000,1000,72828357,1574,1574,1583,1583
49061201,1000,1000,1000,1000,72928317,1578,1578,1579,1579
49063700,1000,1000,1000,1000,73028277,1580,1579,1575,1575
49066199,1000,1000,1000,1000,73128237,1583,1581,1573,1573
49068698,1000,1000,1000,1000,73228197,1585,1584,1573,1573
49071197,1000,1000,1000,1000,73328157,1585,1584,1572,1572
49073696,1000,1000,1000,1000,73428950,1583,1582,1572,1572
49076195,1000,1000,1000,1000,73528910,1582,1581,1573,1574
49078694,1000,1000,1000,1000,73628870,1580,1579,1575,1575
49081193,1000,1000,1000,1000,73728830,1578,1578,1577,1577
49083692,1000,1000,1000,1000,73828790,1577,1577,1580,1580
49086191,1000,1000,1000,1000,73928750,1576,1576,1581,1581
49088690,1000,1000,1000,1000,74028710,1575,1575,1582,1582
49091189,1000,1000,1000,1000,74128670,1575,1576,1583,1583
49093688,1000,1000,1000,1000,74228630,1575,1575,1583,1583
49096187,1000,1000,1000,1000,74328590,1575,1576,1583,1583
49098686,1000,1000,1000,1000,74428550,1576,1577,1582,1582
49101185,1000,1000,1000,1000,74528510,1577,1577,1581,1582
49103684,1000,1000,1000,1000,74628470,1579,1579,1581,1581
49106183,1000,1000,1000,1000,74728430,1580,1579,1580,1580
49108682,1000,1000,1000,1000,74828390,1580,1580,1579,1579
49111181,1000,1000,1000,1000,74928350,1580,1581,1579,1579
49113680,1000,1000,1000,1000,75028310,1581,1581,1579,1579
49116179,1000,1000,1000,1000,75128270,1581,1581,1579,1579
49118678,1000,1000,1000,1000,75228230,1580,1581,1579,1578
49121177,1000,1000,1000,1000,75328190,1580,1581,1579,1579
49123676,1000,1000,1000,1000,75428983,1580,1581,1580,1579
49126175,1000,1000,1000,1000,75528943,1581,1580,1580,1580
49128674,1000,1000,1000,1000,75628903,1580,1580,1580,1580
49131173,1000,1000,1000,1000,75728863,1581,1580,1581,1581
49133672,1000,1000,1000,1000,75828823,1581,1580,1581,1581
49136171,1000,1000,1000,1000,75928783,1580,1580,1581,1581
49138670,1000,1000,1000,1000,76028743,1580,1581,1582,1581
49141169,1000,1000,1000,1000,76128703,1579,1580,1581,1581
49143668,1000,1000,1000,1000,76228663,1579,1580,1581,1580
49146167,1000,1000,1000,1000,76328623,1579,1579,1580,1580
49148666,1000,1000,1000,1000,76428583,1580,1580,1580,1581
49151165,1000,1000,1000,1000,76528543,1581,1580,1580,1581
49153664,1000,1000,1000,1000,76628503,1581,1581,1581,1580
49156163,1000,1000,1000,1000,76728463,1581,1581,1580,1581
49158662,1000,1000,1000,1000,76828423,1581,1582,1584,1577
49161161,1000,1000,1000,1000,76928383,1578,1581,1585,1571
49163660,1000,1000,1000,1000,77028343,1579,1582,1579,1572
49166159,1000,1000,1000,1000,77128303,1576,1580,1570,1571
49168658,1000,1000,1000,1000,77228263,1577,1579,1563,1569
49171157,1000,1000,1000,1000,77328223,1577,1578,1557,1564
49173656,1000,1000,1000,1000,77428183,1579,1578,1554,1559
49176155,1000,1000,1000,1000,77528976,1580,1577,1554,1556
49178654,1000,1000,1000,1000,77628936,1581,1579,1555,1554
49181153,1000,1000,1000,1000,77728896,1579,1578,1555,1553
49183652,1000,1000,1000,1000,77828856,1577,1578,1555,1552
49186151,1000,1000,1000,1000,77928816,1576,1578,1556,1553
49188650,1000,1000,1000,1000,78028776,1575,1577,1555,1554
49191149,1000,1000,1000,1000,78128736,1574,1575,1552,1553
49193648,1000,1000,1000,1000,78228696,1575,1577,1552,1553
49196147,1000,1000,1000,1000,78328656,1576,1578,1551,1552
49198646,1000,1000,1000,1000,78428616,1578,1578,1548,1549
49201145,1000,1000,1000,1000,78528576,1580,1581,1547,1547
49203644,1000,1000,1000,1000,78628536,1583,1584,1544,1544
49206143,1000,1000,1000,1000,78728496,1586,1587,1543,1542
49208642,1000,1000,1000,1000,78828456,1589,1590,1540,1540
49211141,1000,1000,1000,1000,78928416,1592,1592,1538,1539
49213640,1000,1000,1000,1000,79028376,1594,1594,1538,1538
49216139,1000,1000,1000,1000,79128336,1596,1596,1537,1539
49218638,1000,1000,1000,1000,79228296,1470,1471,1541,1543
49221137,1000,1000,1000,1000,79328256,1517,1519,1569,1572
49223636,1000,1000,1000,1000,79428216,1543,1543,1569,1570
49226135,1000,1000,1000,1000,79528176,1566,1563,1568,1567
49228634,1000,1000,1000,1000,79628969,1582,1577,1566,1566
49231133,1000,1000,1000,1000,79728929,1590,1585,1568,1568
49233632,1000,1000,1000,1000,79828889,1590,1586,1571,1573
49236131,1000,1000,1000,1000,79928849,1587,1583,1576,1579
49238630,1000,1000,1000,1000,80028809,1581,1580,1584,1586
49241129,1000,1000,1000,1000,80128769,1573,1572,1589,1591
49243628,1000,1000,1000,1000,80228729,1566,1567,1596,1597
49246127,1000,1000,1000,1000,80328689,1559,1560,1601,1601
49248626,1000,1000,1000,1000,80428649,1556,1557,1605,1604
49251125,1000,1000,1000,1000,80528609,1555,1555,1606,1605
49253624,1000,1000,1000,1000,80628569,1554,1556,1605,1603
49256123,1000,1000,1000,1000,80728529,1556,1557,1602,1600
49258622,1000,1000,1000,1000,80828489,1559,1561,1597,1595
49261121,1000,1000,1000,1000,80928449,1564,1565,1591,1591
49263620,1000,1000,1000,1000,81028409,1569,1569,1585,1585
49266119,1000,1000,1000,1000,81128369,1573,1573,1579,1580
49268618,1000,1000,1000,1000,81228329,1577,1577,1574,1575
49271117,1000,1000,1000,1000,81328289,1581,1581,1572,1572
49273616,1000,1000,1000,1000,81428249,1583,1582,1569,1569
49276115,1000,1000,1000,1000,81528209,1583,1583,1569,1568
49278614,1000,1000,1000,1000,81628169,1584,1583,1570,1569
49281113,1000,1000,1000,1000,81728962,1582,1582,1571,1570
49283612,1000,1000,1000,1000,81828922,1582,1581,1572,1573
49286111,1000,1000,1000,1000,81928882,1580,1579,1574,1574
49288610,1000,1000,1000,1000,82028842,1578,1578,1577,1577
49291109,1000,1000,1000,1000,82128802,1577,1577,1579,1578
49293608,1000,1000,1000,1000,82228762,1576,1576,1580,1580
49296107,1000,1000,1000,1000,82328722,1575,1575,1581,1581
49298606,1000,1000,1000,1000,82428682,1574,1575,1581,1582
49301105,1000,1000,1000,1000,82528642,1575,1575,1582,1582
49303604,1000,1000,1000,1000,82628602,1575,1576,1582,1582
49306103,1000,1000,1000,1000,82728562,1577,1577,1582,1582
49308602,1000,1000,1000,1000,82828522,1578,1578,1581,1581
49311101,1000,1000,1000,1000,82928482,1579,1579,1581,1580
49313600,1000,1000,1000,1000,83028442,1580,1580,1580,1580
49316099,1000,1000,1000,1000,83128402,1580,1580,1579,1579
49318598,1000,1000,1000,1000,83228362,1581,1581,1579,1579
49321097,1000,1000,1000,1000,83328322,1581,1581,1578,1578
49323596,1000,1000,1000,1000,83428282,1581,1581,1578,1578
49326095,1000,1000,1000,1000,83528242,1582,1582,1579,1579
49328594,1000,1000,1000,1000,83628202,1582,1581,1579,1579
49331093,1000,1000,1000,1000,83728162,1581,1581,1579,1579
49333592,1000,1000,1000,1000,83828955,1580,1580,1578,1578
49336091,1000,1000,1000,1000,83928915,1579,1580,1579,1579
49338590,1000,1000,1000,1000,84028875,1578,1579,1578,1579
49341089,1000,1000,1000,1000,84128835,1579,1579,1579,1580
49343588,1000,1000,1000,1000,84228795,1578,1579,1579,1580
49346087,1000,1000,1000,1000,84328755,1579,1578,1580,1580
49348586,1000,1000,1000,1000,84428715,1579,1579,1580,1580
49351085,1000,1000,1000,1000,84528675,1579,1580,1581,1580
49353584,1000,1000,1000,1000,84628635,1580,1581,1581,1581
49356083,1000,1000,1000,1000,84728595,1581,1581,1584,1577
49358582,1000,1000,1000,1000,84828555,1581,1581,1588,1573
49361081,1000,1000,1000,1000,84928515,1580,1579,1583,1575
49363580,1000,1000,1000,1000,85028475,1576,1575,1575,1575
49366079,1000,1000,1000,1000,85128435,1574,1573,1569,1575
49368578,1000,1000,1000,1000,85228395,1570,1570,1565,1573
49371077,1000,1000,1000,1000,85328355,1568,1568,1565,1570
49373576,1000,1000,1000,1000,85428315,1567,1568,1566,1568
49376075,1000,1000,1000,1000,85528275,1566,1567,1566,1566
49378574,1000,1000,1000,1000,85628235,1566,1566,1567,1565
49381073,1000,1000,1000,1000,85728195,1565,1565,1566,1564
49383572,1000,1000,1000,1000,85828155,1564,1564,1565,1563
49386071,1000,1000,1000,1000,85928948,1564,1563,1564,1563
49388570,1000,1000,1000,1000,86028908,1564,1563,1564,1564
49391069,1000,1000,1000,1000,86128868,1561,1561,1561,1562
49393568,1000,1000,1000,1000,86228828,1561,1561,1562,1562
49396067,1000,1000,1000,1000,86328788,1561,1562,1562,1562
49398566,1000,1000,1000,1000,86428748,1560,1561,1560,1560
49401065,1000,1000,1000,1000,86528708,1560,1561,1561,1560
49403564,1000,1000,1000,1000,86628668,1559,1559,1560,1559
49406063,1000,1000,1000,1000,86728628,1559,1559,1559,1558
49408562,1000,1000,1000,1000,86828588,1558,1558,1558,1558
49411061,1000,1000,1000,1000,86928548,1557,1557,1557,1557
49413560,1000,1000,1000,1000,87028508,1557,1557,1557,1557
49416059,1000,1000,1000,1000,87128468,1558,1558,1558,1557
49418558,1000,1000,1000,1000,87228428,1558,1558,1559,1557
49421057,1000,1000,1000,1000,87328388,1558,1557,1559,1557
49423556,1000,1000,1000,1000,87428348,1558,1557,1559,1556
49426055,1000,1000,1000,1000,87528308,1556,1555,1557,1555
49428554,1000,1000,1000,1000,87628268,1557,1557,1556,1559
49431053,1000,1000,1000,1000,87728228,1556,1557,1553,1560
49433552,1000,1000,1000,1000,87828188,1553,1554,1550,1557
49436051,1000,1000,1000,1000,87928981,1549,1550,1546,1552
49438550,1000,1000,1000,1000,88028941,1544,1545,1543,1545
49441049,1000,1000,1000,1000,88128901,1538,1538,1537,1538
49443548,1000,1000,1000,1000,88228861,1530,1530,1531,1529
49446047,1000,1000,1000,1000,88328821,1524,1524,1524,1523
49448546,1000,1000,1000,1000,88428781,1521,1521,1521,1521
49451045,1000,1000,1000,1000,88528741,1521,1520,1520,1521
49453544,1000,1000,1000,1000,88628701,1521,1521,1520,1522
49456043,1000,1000,1000,1000,88728661,1525,1525,1524,1526
49458542,1000,1000,1000,1000,88828621,1528,1528,1527,1529
49461041,1000,1000,1000,1000,88928581,1533,1533,1532,1533
49463540,1000,1000,1000,1000,89028541,1538,1538,1537,1538
49466039,1000,1000,1000,1000,89128501,1541,1541,1541,1541
49468538,1000,1000,1000,1000,89228461,1542,1542,1542,1542
49471037,1000,1000,1000,1000,89328421,1544,1544,1544,1544
49473536,1000,1000,1000,1000,89428381,1545,1545,1546,1545
49476035,1000,1000,1000,1000,89528341,1545,1545,1546,1545
49478534,1000,1000,1000,1000,89628301,1546,1546,1546,1546
49481033,1000,1000,1000,1000,89728261,1546,1546,1546,1546
49483532,1000,1000,1000,1000,89828221,1546,1546,1546,1546
49486031,1000,1000,1000,1000,89928181,1546,1545,1545,1545
49488530,1000,1000,1000,1000,90028974,1546,1546,1546,1545
49491029,1000,1000,1000,1000,90128934,1545,1545,1545,1545
49493528,1000,1000,1000,1000,90228894,1545,1545,1545,1545
49496027,1000,1000,1000,1000,90328854,1545,1545,1545,1545
49498526,1000,1000,1000,1000,90428814,1544,1545,1545,1545
49501025,1000,1000,1000,1000,90528774,1545,1545,1545,1545
49503524,1000,1000,1000,1000,90628734,1545,1545,1545,1545
49506023,1000,1000,1000,1000,90728694,1544,1544,1544,1544
49508522,1000,1000,1000,1000,90828654,1544,1543,1543,1543
49511021,1000,1000,1000,1000,90928614,1543,1543,1543,1543
49513520,1000,1000,1000,1000,91028574,1544,1544,1544,1544
49516019,1000,1000,1000,1000,91128534,1544,1544,1544,1544
49518518,1000,1000,1000,1000,91228494,1544,1544,1544,1544
49521017,1000,1000,1000,1000,91328454,1544,1544,1544,1544
49523516,1000,1000,1000,1000,91428414,1544,1545,1544,1544
49526015,1000,1000,1000,1000,91528374,1544,1544,1544,1544
49528514,1000,1000,1000,1000,91628334,1544,1545,1544,1545
49531013,1000,1000,1000,1000,91728294,1545,1544,1544,1544
49533512,1000,1000,1000,1000,91828254,1544,1543,1543,1543
49536011,1000,1000,1000,1000,91928214,1544,1543,1543,1544
49538510,1000,1000,1000,1000,92028174,1544,1544,1544,1544
49541009,1000,1000,1000,1000,92128967,1544,1544,1544,1544
49543508,1000,1000,1000,1000,92228927,1543,1544,1544,1543
49546007,1000,1000,1000,1000,92328887,1544,1544,1544,1544
49548506,1000,1000,1000,1000,92428847,1543,1543,1543,1543
49551005,1000,1000,1000,1000,92528807,1544,1543,1544,1543
49553504,1000,1000,1000,1000,92628767,1544,1544,1544,1543
49556003,1000,1000,1000,1000,92728727,1544,1544,1544,1544
49558502,1000,1000,1000,1000,92828687,1544,1544,1544,1544
49561001,1000,1000,1000,1000,92928647,1544,1543,1543,1544
49563500,1000,1000,1000,1000,93028607,1543,1544,1543,1544
49565999,1000,1000,1000,1000,93128567,1544,1544,1544,1544
49568498,1000,1000,1000,1000,93228527,1544,1545,1544,1545
49570997,1000,1000,1000,1000,93328487,1544,1544,1544,1544
49573496,1000,1000,1000,1000,93428447,1544,1545,1544,1544
49575995,1000,1000,1000,1000,93528407,1545,1544,1544,1544
49578494,1000,1000,1000,1000,93628367,1545,1544,1544,1544
49580993,1000,1000,1000,1000,93728327,1545,1544,1544,1545
49583492,1000,1000,1000,1000,93828287,1545,1545,1545,1544
49585991,1000,1000,1000,1000,93928247,1545,1544,1545,1545
49588490,1000,1000,1000,1000,94028207,1544,1544,1544,1544
49590989,1000,1000,1000,1000,94128167,1544,1544,1543,1544
49593488,1000,1000,1000,1000,94228960,1544,1544,1544,1544
49595987,1000,1000,1000,1000,94328920,1545,1545,1544,1545
49598486,1000,1000,1000,1000,94428880,1545,1545,1545,1545
49600985,1000,1000,1000,1000,94528840,1544,1544,1544,1544
49603484,1000,1000,1000,1000,94628800,1544,1544,1544,1544
49605983,1000,1000,1000,1000,94728760,1544,1544,1544,1544
49608482,1000,1000,1000,1000,94828720,1544,1544,1544,1544
49610981,1000,1000,1000,1000,94928680,1544,1543,1543,1544
49613480,1000,1000,1000,1000,95028640,1544,1544,1544,1544
49615979,1000,1000,1000,1000,95128600,1544,1544,1544,1544
49618478,1000,1000,1000,1000,95228560,1543,1544,1544,1544
49620977,1000,1000,1000,1000,95328520,1544,1544,1544,1544
49623476,1000,1000,1000,1000,95428480,1545,1545,1545,1545
49625975,1000,1000,1000,1000,95528440,1545,1544,1545,1545
49628474,1000,1000,1000,1000,95628400,1544,1544,1544,1544
49630973,1000,1000,1000,1000,95728360,1544,1544,1543,1544
49633472,1000,1000,1000,1000,95828320,1544,1545,1544,1544
49635971,1000,1000,1000,1000,95928280,1544,1544,1544,1544
49638470,1000,1000,1000,1000,96028240,1544,1544,1544,1544
49640969,1000,1000,1000,1000,96128200,1545,1544,1545,1544
49643468,1000,1000,1000,1000,96228160,1544,1544,1544,1544
49645967,1000,1000,1000,1000,96328953,1544,1545,1544,1544
49648466,1000,1000,1000,1000,96428913,1544,1544,1544,1544
49650965,1000,1000,1000,1000,96528873,1545,1544,1545,1545
49653464,1000,1000,1000,1000,96628833,1545,1545,1545,1545
49655963,1000,1000,1000,1000,96728793,1544,1544,1545,1544
49658462,1000,1000,1000,1000,96828753,1543,1544,1544,1544
49660961,1000,1000,1000,1000,96928713,1544,1544,1544,1544
49663460,1000,1000,1000,1000,97028673,1544,1544,1544,1544
49665959,1000,1000,1000,1000,97128633,1544,1544,1544,1544
49668458,1000,1000,1000,1000,97228593,1544,1544,1544,1544
49670957,1000,1000,1000,1000,97328553,1544,1544,1543,1544
49673456,1000,1000,1000,1000,97428513,1544,1545,1544,1544
49675955,1000,1000,1000,1000,97528473,1544,1544,1544,1544
49678454,1000,1000,1000,1000,97628433,1545,1545,1545,1545
49680953,1000,1000,1000,1000,97728393,1545,1544,1544,1545
49683452,1000,1000,1000,1000,97828353,1545,1544,1545,1544
49685951,1000,1000,1000,1000,97928313,1545,1545,1545,1545
49688450,1000,1000,1000,1000,98028273,1545,1545,1545,1545
49690949,1000,1000,1000,1000,98128233,1374,1372,1372,1373
49693448,1000,1000,1000,1000,98228193,1257,1255,1255,1256
49695947,1000,1000,1000,1000,98328986,1220,1216,1216,1217
49698446,1000,1000,1000,1000,98428946,1201,1198,1197,1198
49700945,1000,1000,1000,1000,98528906,1157,1154,1153,1155
49703444,1000,1000,1000,1000,98628866,1154,1150,1150,1150
49705943,1000,1000,1000,1000,98728826,1155,1150,1150,1151
49708442,1000,1000,1000,1000,98828786,1184,1152,1150,1182
49710941,1000,1000,1000,1000,98928746,1175,1151,1150,1172
49713440,1000,1000,1000,1000,99028706,1173,1152,1150,1169
49715939,1000,1000,1000,1000,99128666,1174,1152,1150,1170
49718438,1000,1000,1000,1000,99228626,1176,1152,1150,1172
49720937,1000,1000,1000,1000,99328586,1178,1152,1150,1173
49723436,1000,1000,1000,1000,99428546,1180,1152,1150,1175
49725935,1000,1000,1000,1000,99528506,1181,1152,1150,1176
49728434,1000,1000,1000,1000,99628466,1169,1153,1150,1164
49730933,1000,1000,1000,1000,99728426,1170,1153,1150,1165
49733432,1000,1000,1000,1000,99828386,1171,1153,1150,1165
49735931,1000,1000,1000,1000,99928346,1172,1154,1150,1166
49738430,1000,1000,1000,1000,100028306,1173,1154,1150,1167
49740929,1000,1000,1000,1000,100128266,1000,1000,1000,1000
49743428,1000,1000,1000,1000,100228226,1000,1000,1000,1000
49745927,1000,1000,1000,1000,100328186,1000,1000,1000,1000
49748426,1000,1000,1000,1000,100428979,1000,1000,1000,1000
49750925,1000,1000,1000,1000,100528939,1000,1000,1000,1000
49753424,1000,1000,1000,1000,100628899,1000,1000,1000,1000
49755923,1000,1000,1000,1000,100728859,1000,1000,1000,1000
49758422,1000,1000,1000,1000,100828819,1000,1000,1000,1000
49760921,1000,1000,1000,1000,100928779,1000,1000,1000,1000
49763420,1000,1000,1000,1000,101028739,1000,1000,1000,1000
49765919,1000,1000,1000,1000,101128699,1000,1000,1000,1000
49768418,1000,1000,1000,1000,101228659,1000,1000,1000,1000
49770917,1000,1000,1000,1000,101328619,1000,1000,1000,1000
49773416,1000,1000,1000,1000,101428579,1000,1000,1000,1000
49775915,1000,1000,1000,1000,101528539,1000,1000,1000,1000
49778414,1000,1000,1000,1000,101628499,1000,1000,1000,1000
49780913,1000,1000,1000,1000,101728459,1000,1000,1000,1000
49783412,1000,1000,1000,1000,101828419,1000,1000,1000,1000
49785911,1000,1000,1000,1000,101928379,1000,1000,1000,1000
49788410,1000,1000,1000,1000,102028339,1000,1000,1000,1000
49790909,1000,1000,1000,1000,102128299,1000,1000,1000,1000
49793408,1000,1000,1000,1000,102228259,1000,1000,1000,1000
49795907,1000,1000,1000,1000,102328219,1000,1000,1000,1000
49798406,1000,1000,1000,1000,102428179,1000,1000,1000,1000
49800905,1000,1000,1000,1000,102528972,1000,1000,1000,1000
49803404,1000,1000,1000,1000,102628932,1000,1000,1000,1000
49805903,1000,1000,1000,1000,102728892,1000,1000,1000,1000
49808402,1000,1000,1000,1000,102828852,1000,1000,1000,1000
49810901,1000,1000,1000,1000,102928812,1000,1000,1000,1000
49813400,1000,1000,1000,1000,103028772,1000,1000,1000,1000
49815899,1000,1000,1000,1000,103128732,1000,1000,1000,1000
49818398,1000,1000,1000,1000,103228692,1000,1000,1000,1000
49820897,1000,1000,1000,1000,103328652,1000,1000,1000,1000
49823396,1000,1000,1000,1000,103428612,1000,1000,1000,1000
49825895,1000,1000,1000,1000,103528572,1000,1000,1000,1000
49828394,1000,1000,1000,1000,103628532,1000,1000,1000,1000
49830893,1000,1000,1000,1000,103728492,1000,1000,1000,1000
49833392,1000,1000,1000,1000,103828452,1000,1000,1000,1000
49835891,1000,1000,1000,1000,103928412,1000,1000,1000,1000
49838390,1000,1000,1000,1000,104028372,1000,1000,1000,1000
49840889,1000,1000,1000,1000,104128332,1000,1000,1000,1000
49843388,1000,1000,1000,1000,104228292,1000,1000,1000,1000
49845887,1000,1000,1000,1000,104328252,1000,1000,1000,1000
49848386,1000,1000,1000,1000,104428212,1000,1000,1000,1000
49850885,1000,1000,1000,1000,104528172,1000,1000,1000,1000
49853384,1000,1000,1000,1000,104628965,1000,1000,1000,1000
49855883,1000,1000,1000,1000,104728925,1000,1000,1000,1000
49858382,1000,1000,1000,1000,104828885,1000,1000,1000,1000
49860881,1000,1000,1000,1000,104928845,1000,1000,1000,1000
49863380,1000,1000,1000,1000,105028805,1000,1000,1000,1000
49865879,1000,1000,1000,1000,105128765,1000,1000,1000,1000
49868378,1000,1000,1000,1000,105228725,1000,1000,1000,1000
49870877,1000,1000,1000,1000,105328685,1000,1000,1000,1000
49873376,1000,1000,1000,1000,105428645,1000,1000,1000,1000
49875875,1000,1000,1000,1000,105528605,1000,1000,1000,1000
49878374,1000,1000,1000,1000,105628565,1000,1000,1000,1000
49880873,1000,1000,1000,1000,105728525,1000,1000,1000,1000
49883372,1000,1000,1000,1000,105828485,1000,1000,1000,1000
49885871,1000,1000,1000,1000,105928445,1000,1000,1000,1000
49888370,1000,1000,1000,1000,106028405,1000,1000,1000,1000
49890869,1000,1000,1000,1000,106128365,1000,1000,1000,1000
49893368,1000,1000,1000,1000,106228325,1000,1000,1000,1000
49895867,1000,1000,1000,1000,106328285,1000,1000,1000,1000
49898366,1000,1000,1000,1000,106428245,1000,1000,1000,1000
49900865,1000,1000,1000,1000,106528205,1000,1000,1000,1000
49903364,1000,1000,1000,1000,106628165,1000,1000,1000,1000
49905863,1000,1000,1000,1000,106728958,1000,1000,1000,1000
49908362,1000,1000,1000,1000,106828918,1000,1000,1000,1000
49910861,1000,1000,1000,1000,106928878,1000,1000,1000,1000
49913360,1000,1000,1000,1000,107028838,1000,1000,1000,1000
49915859,1000,1000,1000,1000,107128798,1000,1000,1000,1000
49918358,1000,1000,1000,1000,107228758,1000,1000,1000,1000
49920857,1000,1000,1000,1000,107328718,1000,1000,1000,1000
49923356,1000,1000,1000,1000,107428678,1000,1000,1000,1000
49925855,1000,1000,1000,1000,107528638,1000,1000,1000,1000
49928354,1000,1000,1000,1000,107628598,1000,1000,1000,1000
49930853,1000,1000,1000,1000,107728558,1000,1000,1000,1000
49933352,1000,1000,1000,1000,107828518,1000,1000,1000,1000
49935851,1000,1000,1000,1000,107928478,1000,1000,1000,1000
49938350,1000,1000,1000,1000,108028438,1000,1000,1000,1000
49940849,1000,1000,1000,1000,108128398,1000,1000,1000,1000
49943348,1000,1000,1000,1000,108228358,1000,1000,1000,1000
49945847,1000,1000,1000,1000,108328318,1000,1000,1000,1000
49948346,1000,1000,1000,1000,108428278,1000,1000,1000,1000
49950845,1000,1000,1000,1000,108528238,1000,1000,1000,1000
49953344,1000,1000,1000,1000,108628198,1000,1000,1000,1000
49955843,1000,1000,1000,1000,108728158,1000,1000,1000,1000
49958342,1000,1000,1000,1000,108828951,1000,1000,1000,1000
49960841,1000,1000,1000,1000,108928911,1000,1000,1000,1000
49963340,1000,1000,1000,1000,109028871,1000,1000,1000,1000
49965839,1000,1000,1000,1000,109128831,1000,1000,1000,1000
49968338,1000,1000,1000,1000,109228791,1000,1000,1000,1000
49970837,1000,1000,1000,1000,109328751,1000,1000,1000,1000
49973336,1000,1000,1000,1000,109428711,1000,1000,1000,1000
49975835,1000,1000,1000,1000,109528671,1000,1000,1000,1000
49978334,1000,1000,1000,1000,109628631,1000,1000,1000,1000
49980833,1000,1000,1000,1000,109728591,1000,1000,1000,1000
49983332,1000,1000,1000,1000,109828551,1000,1000,1000,1000
49985831,1000,1000,1000,1000,109928511,1000,1000,1000,1000
49988330,1000,1000,1000,1000,110028471,1000,1000,1000,1000
49990829,1000,1000,1000,1000,110128431,1000,1000,1000,1000
49993328,1000,1000,1000,1000,110228391,1000,1000,1000,1000
49995827,1000,1000,1000,1000,110328351,1000,1000,1000,1000
49998326,1000,1000,1000,1000,110428311,1000,1000,1000,1000
50000825,1000,1000,1000,1000,110528271,1000,1000,1000,1000
50003324,1000,1000,1000,1000,110628231,1000,1000,1000,1000
50005823,1000,1000,1000,1000,110728191,1000,1000,1000,1000
50008322,1000,1000,1000,1000,110828984,1000,1000,1000,1000
50010821,1000,1000,1000,1000,110928944,1000,1000,1000,1000
50013320,1000,1000,1000,1000,111028904,1000,1000,1000,1000
50015819,1000,1000,1000,1000,111128864,1000,1000,1000,1000
50018318,1000,1000,1000,1000,111228824,1000,1000,1000,1000
50020817,1000,1000,1000,1000,111328784,1000,1000,1000,1000
50023316,1000,1000,1000,1000,111428744,1000,1000,1000,1000
50025815,1000,1000,1000,1000,111528704,1000,1000,1000,1000
50028314,1000,1000,1000,1000,111628664,1000,1000,1000,1000
50030813,1000,1000,1000,1000,111728624,1000,1000,1000,1000
50033312,1000,1000,1000,1000,111828584,1000,1000,1000,1000
50035811,1000,1000,1000,1000,111928544,1000,1000,1000,1000
50038310,1000,1000,1000,1000,112028504,1000,1000,1000,1000
50040809,1000,1000,1000,1000,112128464,1000,1000,1000,1000
50043308,1000,1000,1000,1000,112228424,1000,1000,1000,1000
50045807,1000,1000,1000,1000,112328384,1000,1000,1000,1000
50048306,1000,1000,1000,1000,112428344,1000,1000,1000,1000
50050805,1000,1000,1000,1000,112528304,1000,1000,1000,1000
50053304,1000,1000,1000,1000,112628264,1000,1000,1000,1000
50055803,1000,1000,1000,1000,112728224,1000,1000,1000,1000
50058302,1000,1000,1000,1000,112828184,1000,1000,1000,1000
50060801,1000,1000,1000,1000,112928977,1000,1000,1000,1000
50063300,1000,1000,1000,1000,113028937,1000,1000,1000,1000
50065799,1000,1000,1000,1000,113128897,1000,1000,1000,1000
50068298,1000,1000,1000,1000,113228857,1000,1000,1000,1000
50070797,1000,1000,1000,1000,113328817,1000,1000,1000,1000
50073296,1000,1000,1000,1000,113428777,1000,1000,1000,1000
50075795,1000,1000,1000,1000,113528737,1000,1000,1000,1000
50078294,1000,1000,1000,1000,113628697,1000,1000,1000,1000
50080793,1000,1000,1000,1000,113728657,1000,1000,1000,1000
50083292,1000,1000,1000,1000,113828617,1000,1000,1000,1000
50085791,1000,1000,1000,1000,113928577,1000,1000,1000,1000
50088290,1000,1000,1000,1000,114028537,1000,1000,1000,1000
50090789,1000,1000,1000,1000,114128497,1000,1000,1000,1000
50093288,1000,1000,1000,1000,114228457,1000,1000,1000,1000
50095787,1000,1000,1000,1000,114328417,1000,1000,1000,1000
50098286,1000,1000,1000,1000,114428377,1000,1000,1000,1000
50100785,1000,1000,1000,1000,114528337,1000,1000,1000,1000
50103284,1000,1000,1000,1000,114628297,1000,1000,1000,1000
50105783,1000,1000,1000,1000,114728257,1000,1000,1000,1000
50108282,1000,1000,1000,1000,114828217,1000,1000,1000,1000
50110781,1000,1000,1000,1000,114928177,1000,1000,1000,1000
50113280,1000,1000,1000,1000,115028970,1000,1000,1000,1000
50115779,1000,1000,1000,1000,,,,,
50118278,1000,1000,1000,1000,,,,,
50120777,1000,1000,1000,1000,,,,,
50123276,1000,1000,1000,1000,,,,,
50125775,1000,1000,1000,1000,,,,,
50128274,1000,1000,1000,1000,,,,,
50130773,1000,1000,1000,1000,,,,,
50133272,1000,1000,1000,1000,,,,,
50135771,1000,1000,1000,1000,,,,,
50138270,1000,1000,1000,1000,,,,,
50140769,1000,1000,1000,1000,,,,,
50143268,1000,1000,1000,1000,,,,,
50145767,1000,1000,1000,1000,,,,,
50148266,1000,1000,1000,1000,,,,,
50150765,1000,1000,1000,1000,,,,,
50153264,1000,1000,1000,1000,,,,,
50155763,1000,1000,1000,1000,,,,,
50158262,1000,1000,1000,1000,,,,,
50160761,1000,1000,1000,1000,,,,,
50163260,1000,1000,1000,1000,,,,,
50165759,1000,1000,1000,1000,,,,,
50168258,1000,1000,1000,1000,,,,,
50170757,1000,1000,1000,1000,,,,,
50173256,1000,1000,1000,1000,,,,,
50175755,1000,1000,1000,1000,,,,,
50178254,1000,1000,1000,1000,,,,,
50180753,1000,1000,1000,1000,,,,,
50183252,1000,1000,1000,1000,,,,,
50185751,1000,1000,1000,1000,,,,,
50188250,1000,1000,1000,1000,,,,,
50190749,1000,1000,1000,1000,,,,,
50193248,1000,1000,1000,1000,,,,,
50195747,1000,1000,1000,1000,,,,,
50198246,1000,1000,1000,1000,,,,,
50200745,1000,1000,1000,1000,,,,,
50203244,1000,1000,1000,1000,,,,,
50205743,1000,1000,1000,1000,,,,,
50208242,1000,1000,1000,1000,,,,,
50210741,1000,1000,1000,1000,,,,,
50213240,1000,1000,1000,1000,,,,,
50215739,1000,1000,1000,1000,,,,,
50218238,1000,1000,1000,1000,,,,,
50220737,1000,1000,1000,1000,,,,,
50223236,1000,1000,1000,1000,,,,,
50225735,1000,1000,1000,1000,,,,,
50228234,1000,1000,1000,1000,,,,,
50230733,1000,1000,1000,1000,,,,,
50233232,1000,1000,1000,1000,,,,,
50235731,1000,1000,1000,1000,,,,,
50238230,1000,1000,1000,1000,,,,,
50240729,1000,1000,1000,1000,,,,,
50243228,1000,1000,1000,1000,,,,,
50245727,1000,1000,1000,1000,,,,,
50248226,1000,1000,1000,1000,,,,,
50250725,1000,1000,1000,1000,,,,,
50253224,1000,1000,1000,1000,,,,,
50255723,1000,1000,1000,1000,,,,,
50258222,1000,1000,1000,1000,,,,,
50260721,1000,1000,1000,1000,,,,,
50263220,1000,1000,1000,1000,,,,,
50265719,1000,1000,1000,1000,,,,,
50268218,1000,1000,1000,1000,,,,,
50270717,1000,1000,1000,1000,,,,,
50273216,1000,1000,1000,1000,,,,,
50275715,1000,1000,1000,1000,,,,,
50278214,1000,1000,1000,1000,,,,,
50280713,1000,1000,1000,1000,,,,,
50283212,1000,1000,1000,1000,,,,,
50285711,1000,1000,1000,1000,,,,,
50288210,1000,1000,1000,1000,,,,,
50290709,1000,1000,1000,1000,,,,,
50293208,1000,1000,1000,1000,,,,,
50295707,1000,1000,1000,1000,,,,,
50298206,1000,1000,1000,1000,,,,,
50300705,1000,1000,1000,1000,,,,,
50303204,1000,1000,1000,1000,,,,,
50305703,1000,1000,1000,1000,,,,,
50308202,1000,1000,1000,1000,,,,,
50310701,1000,1000,1000,1000,,,,,
50313200,1000,1000,1000,1000,,,,,
50315699,1000,1000,1000,1000,,,,,
50318198,1000,1000,1000,1000,,,,,
50320697,1000,1000,1000,1000,,,,,
50323196,1000,1000,1000,1000,,,,,
50325695,1000,1000,1000,1000,,,,,
50328194,1000,1000,1000,1000,,,,,
50330693,1000,1000,1000,1000,,,,,
50333192,1000,1000,1000,1000,,,,,
50335691,1000,1000,1000,1000,,,,,
50338190,1000,1000,1000,1000,,,,,
50340689,1000,1000,1000,1000,,,,,
50343188,1000,1000,1000,1000,,,,,
50345687,1000,1000,1000,1000,,,,,
50348186,1000,1000,1000,1000,,,,,
50350685,1000,1000,1000,1000,,,,,
50353184,1000,1000,1000,1000,,,,,
50355683,1000,1000,1000,1000,,,,,
50358182,1000,1000,1000,1000,,,,,
50360681,1000,1000,1000,1000,,,,,
50363180,1000,1000,1000,1000,,,,,
50365679,1000,1000,1000,1000,,,,,
50368178,1000,1000,1000,1000,,,,,
50370677,1000,1000,1000,1000,,,,,
50373176,1000,1000,1000,1000,,,,,
50375675,1000,1000,1000,1000,,,,,
50378174,1000,1000,1000,1000,,,,,
50380673,1000,1000,1000,1000,,,,,
50383172,1000,1000,1000,1000,,,,,
50385671,1000,1000,1000,1000,,,,,
50388170,1000,1000,1000,1000,,,,,
50390669,1000,1000,1000,1000,,,,,
50393168,1000,1000,1000,1000,,,,,
50395667,1000,1000,1000,1000,,,,,
50398166,1000,1000,1000,1000,,,,,
50400665,1000,1000,1000,1000,,,,,
50403164,1000,1000,1000,1000,,,,,
50405663,1000,1000,1000,1000,,,,,
50408162,1000,1000,1000,1000,,,,,
50410661,1000,1000,1000,1000,,,,,
50413160,1000,1000,1000,1000,,,,,
50415659,1000,1000,1000,1000,,,,,
50418158,1000,1000,1000,1000,,,,,
50420657,1000,1000,1000,1000,,,,,
50423156,1000,1000,1000,1000,,,,,
50425655,1000,1000,1000,1000,,,,,
50428154,1000,1000,1000,1000,,,,,
50431486,1000,1000,1000,1000,,,,,
50433985,1000,1000,1000,1000,,,,,
50436484,1000,1000,1000,1000,,,,,
50438983,1000,1000,1000,1000,,,,,
50441482,1000,1000,1000,1000,,,,,
50443981,1000,1000,1000,1000,,,,,
50446480,1000,1000,1000,1000,,,,,
50448979,1000,1000,1000,1000,,,,,
50451478,1000,1000,1000,1000,,,,,
50453977,1000,1000,1000,1000,,,,,
50456476,1000,1000,1000,1000,,,,,
50458975,1001,1001,1001,1001,,,,,
50461474,1002,1002,1002,1002,,,,,
50463973,1003,1003,1003,1003,,,,,
50466472,1003,1003,1003,1003,,,,,
50468971,1004,1004,1004,1004,,,,,
50471470,1005,1005,1005,1005,,,,,
50473969,1006,1006,1006,1006,,,,,
50476468,1006,1006,1006,1006,,,,,
50478967,1007,1007,1007,1007,,,,,
50481466,1008,1008,1008,1008,,,,,
50483965,1009,1009,1009,1009,,,,,
50486464,1009,1009,1009,1009,,,,,
50488963,1010,1010,1010,1010,,,,,
50491462,1011,1011,1011,1011,,,,,
50493961,1012,1012,1012,1012,,,,,
50496460,1012,1012,1012,1012,,,,,
50498959,1013,1013,1013,1013,,,,,
50501458,1014,1014,1014,1014,,,,,
50503957,1015,1015,1015,1015,,,,,
50506456,1015,1015,1015,1015,,,,,
50508955,1016,1016,1016,1016,,,,,
50511454,1017,1017,1017,1017,,,,,
50513953,1018,1018,1018,1018,,,,,
50516452,1018,1018,1018,1018,,,,,
50518951,1019,1019,1019,1019,,,,,
50521450,1020,1020,1020,1020,,,,,
50523949,1021,1021,1021,1021,,,,,
50526448,1021,1021,1021,1021,,,,,
50528947,1022,1022,1022,1022,,,,,
50531446,1023,1023,1023,1023,,,,,
50533945,1024,1024,1024,1024,,,,,
50536444,1024,1024,1024,1024,,,,,
50538943,1025,1025,1025,1025,,,,,
50541442,1026,1026,1026,1026,,,,,
50543941,1027,1027,1027,1027,,,,,
50546440,1027,1027,1027,1027,,,,,
50548939,1028,1028,1028,1028,,,,,
50551438,1029,1029,1029,1029,,,,,
50553937,1030,1030,1030,1030,,,,,
50556436,1030,1030,1030,1030,,,,,
50558935,1031,1031,1031,1031,,,,,
50561434,1032,1032,1032,1032,,,,,
50563933,1033,1033,1033,1033,,,,,
50566432,1033,1033,1033,1033,,,,,
50568931,1034,1034,1034,1034,,,,,
50571430,1035,1035,1035,1035,,,,,
50573929,1036,1036,1036,1036,,,,,
50576428,1036,1036,1036,1036,,,,,
50578927,1037,1037,1037,1037,,,,,
50581426,1038,1038,1038,1038,,,,,
50583925,1039,1039,1039,1039,,,,,
50586424,1039,1039,1039,1039,,,,,
50588923,1040,1040,1040,1040,,,,,
50591422,1041,1041,1041,1041,,,,,
50593921,1042,1042,1042,1042,,,,,
50596420,1042,1042,1042,1042,,,,,
50598919,1043,1043,1043,1043,,,,,
50601418,1044,1044,1044,1044,,,,,
50603917,1045,1045,1045,1045,,,,,
50606416,1045,1045,1045,1045,,,,,
50608915,1046,1046,1046,1046,,,,,
50611414,1047,1047,1047,1047,,,,,
50613913,1048,1048,1048,1048,,,,,
50616412,1048,1048,1048,1048,,,,,
50618911,1049,1049,1049,1049,,,,,
50621410,1050,1050,1050,1050,,,,,
50623909,1051,1051,1051,1051,,,,,
50626408,1051,1051,1051,1051,,,,,
50628907,1052,1052,1052,1052,,,,,
50631406,1053,1053,1053,1053,,,,,
50633905,1054,1054,1054,1054,,,,,
50636404,1054,1054,1054,1054,,,,,
50638903,1055,1055,1055,1055,,,,,
50641402,1056,1056,1056,1056,,,,,
50643901,1057,1057,1057,1057,,,,,
50646400,1057,1057,1057,1057,,,,,
50648899,1058,1058,1058,1058,,,,,
50651398,1059,1059,1059,1059,,,,,
50653897,1060,1060,1060,1060,,,,,
50656396,1060,1060,1060,1060,,,,,
50658895,1061,1061,1061,1061,,,,,
50661394,1062,1062,1062,1062,,,,,
50663893,1063,1063,1063,1063,,,,,
50666392,1063,1063,1063,1063,,,,,
50668891,1064,1064,1064,1064,,,,,
50671390,1065,1065,1065,1065,,,,,
50673889,1066,1066,1066,1066,,,,,
50676388,1066,1066,1066,1066,,,,,
50678887,1067,1067,1067,1067,,,,,
50681386,1068,1068,1068,1068,,,,,
50683885,1069,1069,1069,1069,,,,,
50686384,1069,1069,1069,1069,,,,,
50688883,1070,1070,1070,1070,,,,,
50691382,1071,1071,1071,1071,,,,,
50693881,1072,1072,1072,1072,,,,,
50696380,1072,1072,1072,1072,,,,,
50698879,1073,1073,1073,1073,,,,,
50701378,1074,1074,1074,1074,,,,,
50703877,1075,1075,1075,1075,,,,,
50706376,1075,1075,1075,1075,,,,,
50708875,1076,1076,1076,1076,,,,,
50711374,1077,1077,1077,1077,,,,,
50713873,1078,1078,1078,1078,,,,,
50716372,1078,1078,1078,1078,,,,,
50718871,1079,1079,1079,1079,,,,,
50721370,1080,1080,1080,1080,,,,,
50723869,1081,1081,1081,1081,,,,,
50726368,1081,1081,1081,1081,,,,,
50728867,1082,1082,1082,1082,,,,,
50731366,1083,1083,1083,1083,,,,,
50733865,1084,1084,1084,1084,,,,,
50736364,1084,1084,1084,1084,,,,,
50738863,1085,1085,1085,1085,,,,,
50741362,1086,1086,1086,1086,,,,,
50743861,1087,1087,1087,1087,,,,,
50746360,1087,1087,1087,1087,,,,,
50748859,1088,1088,1088,1088,,,,,
50751358,1089,1089,1089,1089,,,,,
50753857,1090,1090,1090,1090,,,,,
50756356,1090,1090,1090,1090,,,,,
50758855,1091,1091,1091,1091,,,,,
50761354,1092,1092,1092,1092,,,,,
50763853,1093,1093,1093,1093,,,,,
50766352,1093,1093,1093,1093,,,,,
50768851,1094,1094,1094,1094,,,,,
50771350,1095,1095,1095,1095,,,,,
50773849,1096,1096,1096,1096,,,,,
50776348,1096,1096,1096,1096,,,,,
50778847,1097,1097,1097,1097,,,,,
50781346,1098,1098,1098,1098,,,,,
50783845,1099,1099,1099,1099,,,,,
50786344,1099,1099,1099,1099,,,,,
50788843,1100,1100,1100,1100,,,,,
50791342,1101,1101,1101,1101,,,,,
50793841,1101,1101,1101,1101,,,,,
50796340,1102,1102,1102,1102,,,,,
50798839,1103,1103,1103,1103,,,,,
50801338,1104,1104,1104,1104,,,,,
50803837,1104,1104,1104,1104,,,,,
50806336,1105,1105,1105,1105,,,,,
50808835,1106,1106,1106,1106,,,,,
50811334,1107,1107,1107,1107,,,,,
50813833,1107,1107,1107,1107,,,,,
50816332,1108,1108,1108,1108,,,,,
50818831,1109,1109,1109,1109,,,,,
50821330,1110,1110,1110,1110,,,,,
50823829,1110,1110,1110,1110,,,,,
50826328,1111,1111,1111,1111,,,,,
50828827,1112,1112,1112,1112,,,,,
50831326,1113,1113,1113,1113,,,,,
50833825,1113,1113,1113,1113,,,,,
50836324,1114,1114,1114,1114,,,,,
50838823,1115,1115,1115,1115,,,,,
50841322,1116,1116,1116,1116,,,,,
50843821,1116,1116,1116,1116,,,,,
50846320,1117,1117,1117,1117,,,,,
50848819,1118,1118,1118,1118,,,,,
50851318,1119,1119,1119,1119,,,,,
50853817,1119,1119,1119,1119,,,,,
50856316,1120,1120,1120,1120,,,,,
50858815,1121,1121,1121,1121,,,,,
50861314,1122,1122,1122,1122,,,,,
50863813,1122,1122,1122,1122,,,,,
50866312,1123,1123,1123,1123,,,,,
50868811,1124,1124,1124,1124,,,,,
50871310,1125,1125,1125,1125,,,,,
50873809,1125,1125,1125,1125,,,,,
50876308,1126,1126,1126,1126,,,,,
50878807,1127,1127,1127,1127,,,,,
50881306,1128,1128,1128,1128,,,,,
50883805,1128,1128,1128,1128,,,,,
50886304,1129,1129,1129,1129,,,,,
50888803,1130,1130,1130,1130,,,,,
50891302,1131,1131,1131,1131,,,,,
50893801,1131,1131,1131,1131,,,,,
50896300,1132,1132,1132,1132,,,,,
50898799,1133,1133,1133,1133,,,,,
50901298,1134,1134,1134,1134,,,,,
50903797,1134,1134,1134,1134,,,,,
50906296,1135,1135,1135,1135,,,,,
50908795,1136,1136,1136,1136,,,,,
50911294,1137,1137,1137,1137,,,,,
50913793,1137,1137,1137,1137,,,,,
50916292,1138,1138,1138,1138,,,,,
50918791,1139,1139,1139,1139,,,,,
50921290,1140,1140,1140,1140,,,,,
50923789,1140,1140,1140,1140,,,,,
50926288,1141,1141,1141,1141,,,,,
50928787,1142,1142,1142,1142,,,,,
50931286,1143,1143,1143,1143,,,,,
50933785,1143,1143,1143,1143,,,,,
50936284,1144,1144,1144,1144,,,,,
50938783,1145,1145,1145,1145,,,,,
50941282,1146,1146,1146,1146,,,,,
50943781,1146,1146,1146,1146,,,,,
50946280,1147,1147,1147,1147,,,,,
50948779,1148,1148,1148,1148,,,,,
50951278,1149,1149,1149,1149,,,,,
50953777,1149,1149,1149,1149,,,,,
50956276,1150,1150,1150,1150,,,,,
50958775,1161,1154,1154,1162,,,,,
50961274,1169,1162,1162,1170,,,,,
50963773,1177,1170,1170,1177,,,,,
50966272,1185,1177,1178,1185,,,,,
50968771,1192,1185,1186,1193,,,,,
50971270,1200,1193,1193,1200,,,,,
50973769,1207,1200,1201,1207,,,,,
50976268,1214,1207,1208,1215,,,,,
50978767,1221,1215,1215,1222,,,,,
50981266,1228,1222,1222,1229,,,,,
50983765,1235,1229,1229,1236,,,,,
50986264,1242,1236,1236,1242,,,,,
50988763,1249,1242,1243,1249,,,,,
50991262,1255,1249,1250,1256,,,,,
50993761,1262,1256,1256,1262,,,,,
50996260,1268,1262,1263,1269,,,,,
50998759,1275,1269,1269,1275,,,,,
51001258,1281,1275,1275,1281,,,,,
51003757,1287,1281,1282,1288,,,,,
51006256,1293,1287,1288,1294,,,,,
51008755,1300,1293,1294,1300,,,,,
51011254,1305,1300,1300,1306,,,,,
51013753,1311,1306,1306,1312,,,,,
51016252,1317,1312,1312,1318,,,,,
51018751,1323,1317,1318,1323,,,,,
51021250,1329,1323,1324,1329,,,,,
51023749,1335,1329,1329,1335,,,,,
51026248,1340,1335,1335,1340,,,,,
51028747,1346,1340,1341,1346,,,,,
51031246,1351,1346,1346,1352,,,,,
51033745,1357,1351,1352,1357,,,,,
51036244,1362,1357,1357,1363,,,,,
51038743,1368,1362,1363,1368,,,,,
51041242,1373,1368,1368,1373,,,,,
51043741,1378,1373,1374,1379,,,,,
51046240,1384,1378,1379,1384,,,,,
51048739,1389,1384,1384,1389,,,,,
51051238,1394,1389,1389,1394,,,,,
51053737,1399,1394,1394,1399,,,,,
51056236,1404,1399,1400,1404,,,,,
51058735,1409,1404,1405,1410,,,,,
51061234,1414,1409,1410,1415,,,,,
51063733,1419,1414,1415,1420,,,,,
51066232,1424,1419,1420,1424,,,,,
51068731,1429,1424,1425,1429,,,,,
51071230,1434,1429,1429,1434,,,,,
51073729,1439,1434,1434,1439,,,,,
51076228,1444,1439,1439,1444,,,,,
51078727,1449,1443,1444,1449,,,,,
51081226,1453,1448,1449,1453,,,,,
51083725,1458,1453,1453,1458,,,,,
51086224,1463,1458,1458,1463,,,,,
51088723,1467,1462,1463,1467,,,,,
51091222,1472,1467,1467,1472,,,,,
51093721,1477,1471,1472,1477,,,,,
51096220,1481,1476,1476,1481,,,,,
51098719,1486,1480,1481,1486,,,,,
51101218,1490,1485,1486,1490,,,,,
51103717,1495,1489,1490,1495,,,,,
51106216,1499,1494,1495,1499,,,,,
51108715,1504,1498,1499,1504,,,,,
51111214,1508,1503,1503,1508,,,,,
51113713,1512,1507,1508,1512,,,,,
51116212,1517,1512,1512,1517,,,,,
51118711,1521,1516,1516,1521,,,,,
51121210,1525,1520,1521,1525,,,,,
51123709,1530,1524,1525,1530,,,,,
51126208,1534,1529,1529,1534,,,,,
51128707,1538,1533,1533,1538,,,,,
51131206,1542,1537,1538,1542,,,,,
51133705,1547,1541,1542,1547,,,,,
51136204,1551,1545,1546,1551,,,,,
51138703,1555,1550,1550,1555,,,,,
51141202,1559,1554,1554,1559,,,,,
51143701,1563,1558,1558,1563,,,,,
51146200,1567,1562,1562,1567,,,,,
51148699,1571,1566,1567,1571,,,,,
51151198,1575,1570,1571,1575,,,,,
51153697,1579,1574,1575,1579,,,,,
51156196,1583,1578,1579,1583,,,,,
51158695,1587,1582,1583,1587,,,,,
51161194,1591,1586,1587,1591,,,,,
51163693,1595,1590,1591,1595,,,,,
51166192,1599,1594,1594,1599,,,,,
51168691,1603,1598,1598,1603,,,,,
51171190,1607,1602,1602,1607,,,,,
51173689,1611,1606,1606,1611,,,,,
51176188,1615,1610,1610,1615,,,,,
51178687,1618,1613,1614,1618,,,,,
51181186,1622,1617,1618,1622,,,,,
51183685,1626,1621,1621,1626,,,,,
51186184,1630,1625,1625,1630,,,,,
51188683,1633,1629,1629,1634,,,,,
51191182,1637,1633,1633,1637,,,,,
51193681,1641,1636,1636,1641,,,,,
51196180,1645,1640,1640,1645,,,,,
51198679,1648,1644,1644,1649,,,,,
51201178,1652,1648,1648,1652,,,,,
51203677,1656,1651,1651,1656,,,,,
51206176,1659,1655,1655,1660,,,,,
51208675,1663,1659,1659,1663,,,,,
51211174,1666,1662,1662,1667,,,,,
51213673,1670,1666,1666,1671,,,,,
51216172,1674,1670,1669,1674,,,,,
51218671,1677,1673,1673,1678,,,,,
51221170,1681,1677,1677,1681,,,,,
51223669,1684,1680,1680,1685,,,,,
51226168,1688,1684,1684,1688,,,,,
51228667,1691,1687,1687,1692,,,,,
51231166,1695,1691,1691,1695,,,,,
51233665,1698,1694,1694,1699,,,,,
51236164,1702,1698,1698,1702,,,,,
51238663,1705,1701,1701,1706,,,,,
51241162,1709,1705,1705,1709,,,,,
51243661,1712,1708,1708,1713,,,,,
51246160,1716,1712,1712,1716,,,,,
51248659,1719,1715,1715,1720,,,,,
51251158,1723,1719,1719,1723,,,,,
51253657,1726,1722,1722,1726,,,,,
51256156,1729,1725,1726,1730,,,,,
51258655,1733,1729,1729,1733,,,,,
51261154,1736,1732,1732,1737,,,,,
51263653,1740,1736,1736,1740,,,,,
51266152,1743,1739,1739,1743,,,,,
51268651,1746,1742,1742,1747,,,,,
51271150,1750,1746,1746,1750,,,,,
51273649,1753,1749,1749,1753,,,,,
51276148,1756,1752,1752,1757,,,,,
51278647,1760,1755,1756,1760,,,,,
51281146,1763,1759,1759,1763,,,,,
51283645,1766,1762,1762,1767,,,,,
51286144,1770,1765,1765,1770,,,,,
51288643,1773,1768,1769,1773,,,,,
51291142,1776,1772,1772,1776,,,,,
51293641,1779,1775,1775,1780,,,,,
51296140,1783,1778,1778,1783,,,,,
51298639,1786,1781,1781,1786,,,,,
51301138,1789,1784,1785,1789,,,,,
51303637,1792,1788,1788,1793,,,,,
51306136,1795,1791,1791,1796,,,,,
51308635,1799,1794,1794,1799,,,,,
51311134,1802,1797,1797,1802,,,,,
51313633,1805,1800,1801,1805,,,,,
51316132,1808,1803,1804,1808,,,,,
51318631,1811,1807,1807,1812,,,,,
51321130,1814,1810,1810,1815,,,,,
51323629,1818,1813,1813,1818,,,,,
51326128,1821,1816,1816,1821,,,,,
51328627,1824,1819,1819,1824,,,,,
51331126,1827,1822,1822,1827,,,,,
51333625,1830,1825,1825,1830,,,,,
51336124,1833,1828,1829,1833,,,,,
51338623,1836,1831,1832,1836,,,,,
51341122,1839,1834,1835,1839,,,,,
51343621,1842,1837,1838,1842,,,,,
51346120,1845,1841,1841,1845,,,,,
51348619,1848,1844,1844,1848,,,,,
51351118,1851,1847,1847,1851,,,,,
51353617,1854,1850,1850,1854,,,,,
51356116,1857,1853,1853,1857,,,,,
51358615,1860,1856,1856,1860,,,,,
51361114,1863,1859,1859,1863,,,,,
51363613,1866,1862,1862,1866,,,,,
51366112,1869,1864,1865,1869,,,,,
51368611,1872,1867,1867,1872,,,,,
51371110,1871,1866,1866,1871,,,,,
51373609,1869,1865,1865,1869,,,,,
51376108,1868,1863,1864,1868,,,,,
51378607,1867,1862,1863,1867,,,,,
51381106,1866,1861,1862,1866,,,,,
51383605,1865,1860,1861,1865,,,,,
51386104,1864,1859,1860,1864,,,,,
51388603,1863,1858,1859,1863,,,,,
51391102,1862,1857,1858,1862,,,,,
51393601,1861,1856,1857,1861,,,,,
51396100,1861,1856,1856,1861,,,,,
51398599,1860,1855,1856,1860,,,,,
51401098,1859,1854,1855,1859,,,,,
51403597,1859,1854,1854,1859,,,,,
51406096,1858,1853,1854,1858,,,,,
51408595,1858,1853,1854,1858,,,,,
51411094,1858,1853,1853,1858,,,,,
51413593,1858,1852,1853,1858,,,,,
51416092,1858,1852,1853,1857,,,,,
51418591,1858,1852,1853,1857,,,,,
51421090,1858,1852,1853,1858,,,,,
51423589,1858,1853,1853,1858,,,,,
51426088,1858,1853,1853,1858,,,,,
51428587,1858,1853,1854,1858,,,,,
51431086,1859,1853,1854,1859,,,,,
51433585,1859,1854,1854,1859,,,,,
51436084,1860,1854,1855,1860,,,,,
51438583,1860,1855,1855,1860,,,,,
51441082,1861,1856,1856,1861,,,,,
51443581,1862,1856,1857,1862,,,,,
51446080,1862,1857,1857,1862,,,,,
51448579,1863,1858,1858,1863,,,,,
51451078,1864,1859,1859,1864,,,,,
51453577,1865,1860,1860,1865,,,,,
51456076,1866,1861,1861,1866,,,,,
51458575,1866,1862,1862,1866,,,,,
51461074,1867,1862,1863,1867,,,,,
51463573,1868,1863,1864,1868,,,,,
51466072,1868,1864,1864,1869,,,,,
51468571,1869,1865,1865,1869,,,,,
51471070,1869,1865,1865,1869,,,,,
51473569,1869,1866,1866,1870,,,,,
51476068,1869,1866,1866,1870,,,,,
51478567,1869,1866,1866,1869,,,,,
51481066,1869,1866,1866,1869,,,,,
51483565,1868,1865,1865,1869,,,,,
51486064,1868,1865,1865,1868,,,,,
51488563,1867,1864,1864,1867,,,,,
51491062,1866,1863,1863,1866,,,,,
51493561,1865,1862,1862,1865,,,,,
51496060,1864,1861,1861,1864,,,,,
51498559,1862,1860,1860,1863,,,,,
51501058,1861,1858,1858,1861,,,,,
51503557,1859,1857,1856,1859,,,,,
51506056,1857,1855,1854,1858,,,,,
51508555,1855,1853,1852,1856,,,,,
51511054,1853,1851,1850,1854,,,,,
51513553,1851,1849,1848,1851,,,,,
51516052,1848,1846,1846,1849,,,,,
51518551,1846,1844,1844,1847,,,,,
51521050,1843,1841,1841,1844,,,,,
51523549,1841,1839,1839,1841,,,,,
51526048,1838,1836,1836,1839,,,,,
51528547,1835,1833,1833,1836,,,,,
51531046,1832,1830,1830,1833,,,,,
51533545,1829,1828,1827,1830,,,,,
51536044,1826,1825,1824,1827,,,,,
51538543,1823,1822,1821,1824,,,,,
51541042,1820,1819,1818,1821,,,,,
51543541,1817,1816,1815,1818,,,,,
51546040,1814,1812,1812,1815,,,,,
51548539,1811,1809,1809,1811,,,,,
51551038,1808,1806,1806,1808,,,,,
51553537,1804,1803,1803,1805,,,,,
51556036,1801,1799,1799,1802,,,,,
51558535,1798,1796,1796,1798,,,,,
51561034,1794,1793,1793,1795,,,,,
51563533,1791,1790,1790,1791,,,,,
51566032,1788,1786,1786,1788,,,,,
51568531,1784,1783,1783,1785,,,,,
51571030,1781,1780,1780,1781,,,,,
51573529,1777,1776,1776,1778,,,,,
51576028,1774,1773,1773,1774,,,,,
51578527,1771,1770,1770,1771,,,,,
51581026,1767,1766,1766,1768,,,,,
51583525,1764,1763,1763,1764,,,,,
51586024,1760,1759,1760,1761,,,,,
51588523,1757,1756,1756,1757,,,,,
51591022,1754,1753,1753,1754,,,,,
51593521,1750,1750,1750,1751,,,,,
51596020,1747,1746,1746,1747,,,,,
51598519,1744,1743,1743,1744,,,,,
51601018,1740,1740,1740,1741,,,,,
51603517,1737,1737,1737,1738,,,,,
51606016,1734,1734,1734,1734,,,,,
51608515,1731,1731,1731,1731,,,,,
51611014,1728,1728,1728,1728,,,,,
51613513,1725,1725,1725,1725,,,,,
51616012,1722,1722,1722,1722,,,,,
51618511,1719,1719,1719,1719,,,,,
51621010,1716,1716,1716,1716,,,,,
51623509,1713,1713,1713,1713,,,,,
51626008,1710,1710,1710,1710,,,,,
51628507,1707,1707,1707,1707,,,,,
51631006,1704,1704,1704,1704,,,,,
51633505,1701,1701,1702,1701,,,,,
51636004,1698,1699,1699,1699,,,,,
51638503,1696,1696,1696,1696,,,,,
51641002,1693,1693,1694,1693,,,,,
51643501,1690,1691,1691,1691,,,,,
51646000,1688,1688,1689,1688,,,,,
51648499,1685,1686,1686,1686,,,,,
51650998,1683,1684,1684,1683,,,,,
51653497,1681,1681,1681,1681,,,,,
51655996,1678,1679,1679,1678,,,,,
51658495,1676,1677,1677,1676,,,,,
51660994,1674,1674,1675,1674,,,,,
51663493,1672,1672,1673,1672,,,,,
51665992,1669,1670,1670,1669,,,,,
51668491,1667,1668,1668,1667,,,,,
51670990,1665,1666,1666,1665,,,,,
