timestamp,TimeUS,C1,C2,C3,C4,C5,C6,C7,C8,C9,C10,C11,C12,C13,C14
1684078586.40000010,43028615,1000,1000,1000,1000,0,0,0,0,0,0,0,0,0,0
1684078586.49996018,43128575,1000,1000,1000,1000,0,0,0,0,0,0,0,0,0,0
1684078586.59992003,43228535,1000,1000,1000,1000,0,0,0,0,0,0,0,0,0,0
1684078586.69988012,43328495,1000,1000,1000,1000,0,0,0,0,0,0,0,0,0,0
1684078586.79984021,43428455,1000,1000,1000,1000,0,0,0,0,0,0,0,0,0,0
1684078586.89980006,43528415,1000,1000,1000,1000,0,0,0,0,0,0,0,0,0,0
1684078586.99976015,43628375,1000,1000,1000,1000,0,0,0,0,0,0,0,0,0,0
1684078587.09972000,43728335,1000,1000,1000,1000,0,0,0,0,0,0,0,0,0,0
1684078587.19968009,43828295,1000,1000,1000,1000,0,0,0,0,0,0,0,0,0,0
1684078587.29964018,43928255,1000,1000,1000,1000,0,0,0,0,0,0,0,0,0,0
1684078587.39960003,44028215,1000,1000,1000,1000,0,0,0,0,0,0,0,0,0,0
1684078587.49956012,44128175,1000,1000,1000,1000,0,0,0,0,0,0,0,0,0,0
1684078587.60035300,44228968,1000,1000,1000,1000,0,0,0,0,0,0,0,0,0,0
1684078587.70031309,44328928,1000,1000,1000,1000,0,0,0,0,0,0,0,0,0,0
1684078587.80027318,44428888,1000,1000,1000,1000,0,0,0,0,0,0,0,0,0,0
1684078587.90023303,44528848,1000,1000,1000,1000,0,0,0,0,0,0,0,0,0,0
1684078588.00019312,44628808,1000,1000,1000,1000,0,0,0,0,0,0,0,0,0,0
1684078588.10015321,44728768,1000,1000,1000,1000,0,0,0,0,0,0,0,0,0,0
1684078588.20011306,44828728,1000,1000,1000,1000,0,0,0,0,0,0,0,0,0,0
1684078588.30007315,44928688,1000,1000,1000,1000,0,0,0,0,0,0,0,0,0,0
1684078588.40003300,45028648,1003,1003,1003,1003,0,0,0,0,0,0,0,0,0,0
1684078588.49999309,45128608,1033,1033,1033,1033,0,0,0,0,0,0,0,0,0,0
1684078588.59995317,45228568,1063,1063,1063,1063,0,0,0,0,0,0,0,0,0,0
1684078588.69991302,45328528,1093,1093,1093,1093,0,0,0,0,0,0,0,0,0,0
1684078588.79987311,45428488,1122,1122,1122,1122,0,0,0,0,0,0,0,0,0,0
1684078588.89983320,45528448,1177,1170,1170,1178,0,0,0,0,0,0,0,0,0,0
1684078588.99979305,45628408,1419,1414,1415,1420,0,0,0,0,0,0,0,0,0,0
1684078589.09975314,45728368,1595,1590,1591,1595,0,0,0,0,0,0,0,0,0,0
1684078589.19971299,45828328,1740,1735,1736,1740,0,0,0,0,0,0,0,0,0,0
1684078589.29967308,45928288,1866,1861,1862,1866,0,0,0,0,0,0,0,0,0,0
1684078589.39963317,46028248,1897,1894,1894,1898,0,0,0,0,0,0,0,0,0,0
1684078589.49959302,46128208,1796,1795,1793,1798,0,0,0,0,0,0,0,0,0,0
1684078589.59955311,46228168,1676,1677,1675,1678,0,0,0,0,0,0,0,0,0,0
1684078589.70034599,46328961,1622,1624,1623,1623,0,0,0,0,0,0,0,0,0,0
1684078589.80030608,46428921,1617,1618,1618,1617,0,0,0,0,0,0,0,0,0,0
1684078589.90026617,46528881,1624,1625,1625,1623,0,0,0,0,0,0,0,0,0,0
1684078590.00022602,46628841,1625,1626,1627,1624,0,0,0,0,0,0,0,0,0,0
1684078590.10018611,46728801,1621,1621,1621,1620,0,0,0,0,0,0,0,0,0,0
1684078590.20014620,46828761,1615,1614,1614,1615,0,0,0,0,0,0,0,0,0,0
1684078590.30010605,46928721,1613,1613,1612,1614,0,0,0,0,0,0,0,0,0,0
1684078590.40006614,47028681,1613,1613,1612,1613,0,0,0,0,0,0,0,0,0,0
1684078590.50002599,47128641,1614,1615,1615,1614,0,0,0,0,0,0,0,0,0,0
1684078590.59998608,47228601,1616,1616,1617,1615,0,0,0,0,0,0,0,0,0,0
1684078590.69994617,47328561,1605,1605,1608,1602,0,0,0,0,0,0,0,0,0,0
1684078590.79990602,47428521,1581,1582,1589,1574,0,0,0,0,0,0,0,0,0,0
1684078590.89986610,47528481,1569,1569,1573,1565,0,0,0,0,0,0,0,0,0,0
1684078590.99982619,47628441,1559,1558,1559,1559,0,0,0,0,0,0,0,0,0,0
1684078591.09978604,47728401,1550,1549,1544,1555,0,0,0,0,0,0,0,0,0,0
1684078591.19974613,47828361,1543,1543,1534,1552,0,0,0,0,0,0,0,0,0,0
1684078591.29970598,47928321,1537,1537,1530,1544,0,0,0,0,0,0,0,0,0,0
1684078591.39966607,48028281,1531,1531,1528,1535,0,0,0,0,0,0,0,0,0,0
1684078591.49962616,48128241,1528,1528,1527,1529,0,0,0,0,0,0,0,0,0,0
1684078591.59958601,48228201,1528,1528,1529,1528,0,0,0,0,0,0,0,0,0,0
1684078591.69954610,48328161,1529,1529,1532,1527,0,0,0,0,0,0,0,0,0,0
1684078591.80033898,48428954,1532,1532,1536,1529,0,0,0,0,0,0,0,0,0,0
1684078591.90029907,48528914,1536,1536,1539,1533,0,0,0,0,0,0,0,0,0,0
1684078592.00025916,48628874,1539,1540,1542,1538,0,0,0,0,0,0,0,0,0,0
1684078592.10021901,48728834,1543,1543,1543,1542,0,0,0,0,0,0,0,0,0,0
1684078592.20017910,48828794,1546,1546,1546,1546,0,0,0,0,0,0,0,0,0,0
1684078592.30013919,48928754,1549,1549,1549,1550,0,0,0,0,0,0,0,0,0,0
1684078592.40009904,49028714,1552,1552,1551,1552,0,0,0,0,0,0,0,0,0,0
1684078592.50005913,49128674,1554,1554,1553,1555,0,0,0,0,0,0,0,0,0,0
1684078592.60001922,49228634,1551,1550,1559,1561,0,0,0,0,0,0,0,0,0,0
1684078592.69997907,49328594,1552,1552,1563,1564,0,0,0,0,0,0,0,0,0,0
1684078592.79993916,49428554,1556,1557,1564,1565,0,0,0,0,0,0,0,0,0,0
1684078592.89989901,49528514,1560,1560,1565,1564,0,0,0,0,0,0,0,0,0,0
1684078592.99985909,49628474,1563,1564,1565,1564,0,0,0,0,0,0,0,0,0,0
1684078593.09981918,49728434,1567,1567,1565,1564,0,0,0,0,0,0,0,0,0,0
1684078593.19977903,49828394,1569,1569,1564,1564,0,0,0,0,0,0,0,0,0,0
1684078593.29973912,49928354,1571,1571,1564,1564,0,0,0,0,0,0,0,0,0,0
1684078593.39969921,50028314,1573,1572,1565,1566,0,0,0,0,0,0,0,0,0,0
1684078593.49965906,50128274,1573,1573,1567,1567,0,0,0,0,0,0,0,0,0,0
1684078593.59961915,50228234,1573,1573,1568,1568,0,0,0,0,0,0,0,0,0,0
1684078593.69957900,50328194,1574,1574,1570,1570,0,0,0,0,0,0,0,0,0,0
1684078593.79953909,50428154,1574,1574,1571,1572,0,0,0,0,0,0,0,0,0,0
1684078593.90033221,50528947,1573,1573,1572,1572,0,0,0,0,0,0,0,0,0,0
1684078594.00029206,50628907,1573,1574,1574,1574,0,0,0,0,0,0,0,0,0,0
1684078594.10025215,50728867,1573,1573,1575,1574,0,0,0,0,0,0,0,0,0,0
1684078594.20021200,50828827,1573,1574,1576,1575,0,0,0,0,0,0,0,0,0,0
1684078594.30017209,50928787,1573,1573,1576,1575,0,0,0,0,0,0,0,0,0,0
1684078594.40013218,51028747,1575,1575,1577,1577,0,0,0,0,0,0,0,0,0,0
1684078594.50009203,51128707,1575,1575,1577,1577,0,0,0,0,0,0,0,0,0,0
1684078594.60005212,51228667,1575,1575,1577,1577,0,0,0,0,0,0,0,0,0,0
1684078594.70001221,51328627,1576,1576,1577,1578,0,0,0,0,0,0,0,0,0,0
1684078594.79997206,51428587,1577,1577,1577,1578,0,0,0,0,0,0,0,0,0,0
1684078594.89993215,51528547,1577,1578,1577,1578,0,0,0,0,0,0,0,0,0,0
1684078594.99989200,51628507,1578,1578,1577,1577,0,0,0,0,0,0,0,0,0,0
1684078595.09985209,51728467,1579,1578,1578,1577,0,0,0,0,0,0,0,0,0,0
1684078595.19981217,51828427,1578,1578,1577,1577,0,0,0,0,0,0,0,0,0,0
1684078595.29977202,51928387,1579,1578,1578,1578,0,0,0,0,0,0,0,0,0,0
1684078595.39973211,52028347,1579,1578,1578,1578,0,0,0,0,0,0,0,0,0,0
1684078595.49969220,52128307,1578,1578,1578,1577,0,0,0,0,0,0,0,0,0,0
1684078595.59965205,52228267,1578,1578,1578,1578,0,0,0,0,0,0,0,0,0,0
1684078595.69961214,52328227,1578,1578,1578,1578,0,0,0,0,0,0,0,0,0,0
1684078595.79957199,52428187,1577,1578,1577,1578,0,0,0,0,0,0,0,0,0,0
1684078595.90036511,52528980,1577,1577,1577,1577,0,0,0,0,0,0,0,0,0,0
1684078596.00032520,52628940,1578,1578,1578,1578,0,0,0,0,0,0,0,0,0,0
1684078596.10028505,52728900,1578,1577,1578,1578,0,0,0,0,0,0,0,0,0,0
1684078596.20024514,52828860,1578,1578,1578,1578,0,0,0,0,0,0,0,0,0,0
1684078596.30020499,52928820,1578,1578,1579,1579,0,0,0,0,0,0,0,0,0,0
1684078596.40016508,53028780,1579,1579,1579,1579,0,0,0,0,0,0,0,0,0,0
1684078596.50012517,53128740,1580,1579,1579,1580,0,0,0,0,0,0,0,0,0,0
1684078596.60008502,53228700,1578,1578,1578,1579,0,0,0,0,0,0,0,0,0,0
1684078596.70004511,53328660,1579,1579,1579,1579,0,0,0,0,0,0,0,0,0,0
1684078596.80000520,53428620,1580,1580,1580,1580,0,0,0,0,0,0,0,0,0,0
1684078596.89996505,53528580,1581,1581,1581,1580,0,0,0,0,0,0,0,0,0,0
1684078596.99992514,53628540,1580,1580,1580,1580,0,0,0,0,0,0,0,0,0,0
1684078597.09988499,53728500,1580,1580,1580,1580,0,0,0,0,0,0,0,0,0,0
1684078597.19984508,53828460,1581,1580,1580,1581,0,0,0,0,0,0,0,0,0,0
1684078597.29980516,53928420,1580,1580,1580,1580,0,0,0,0,0,0,0,0,0,0
1684078597.39976501,54028380,1581,1581,1581,1581,0,0,0,0,0,0,0,0,0,0
1684078597.49972510,54128340,1580,1580,1581,1580,0,0,0,0,0,0,0,0,0,0
1684078597.59968519,54228300,1581,1581,1581,1581,0,0,0,0,0,0,0,0,0,0
1684078597.69964504,54328260,1581,1581,1581,1580,0,0,0,0,0,0,0,0,0,0
1684078597.79960513,54428220,1580,1580,1580,1580,0,0,0,0,0,0,0,0,0,0
1684078597.89956498,54528180,1581,1581,1581,1581,0,0,0,0,0,0,0,0,0,0
1684078598.00035810,54628973,1581,1581,1581,1581,0,0,0,0,0,0,0,0,0,0
1684078598.10031819,54728933,1580,1580,1579,1580,0,0,0,0,0,0,0,0,0,0
1684078598.20027804,54828893,1581,1581,1581,1581,0,0,0,0,0,0,0,0,0,0
1684078598.30023813,54928853,1581,1580,1580,1580,0,0,0,0,0,0,0,0,0,0
1684078598.40019798,55028813,1581,1581,1581,1580,0,0,0,0,0,0,0,0,0,0
1684078598.50015807,55128773,1581,1580,1581,1580,0,0,0,0,0,0,0,0,0,0
1684078598.60011816,55228733,1581,1581,1581,1581,0,0,0,0,0,0,0,0,0,0
1684078598.70007801,55328693,1580,1580,1580,1580,0,0,0,0,0,0,0,0,0,0
1684078598.80003810,55428653,1581,1581,1586,1575,0,0,0,0,0,0,0,0,0,0
1684078598.89999819,55528613,1580,1582,1587,1573,0,0,0,0,0,0,0,0,0,0
1684078598.99995804,55628573,1578,1582,1580,1573,0,0,0,0,0,0,0,0,0,0
1684078599.09991813,55728533,1577,1580,1570,1572,0,0,0,0,0,0,0,0,0,0
1684078599.19987822,55828493,1576,1579,1563,1569,0,0,0,0,0,0,0,0,0,0
1684078599.29983807,55928453,1577,1578,1558,1565,0,0,0,0,0,0,0,0,0,0
1684078599.39979815,56028413,1579,1578,1556,1561,0,0,0,0,0,0,0,0,0,0
1684078599.49975801,56128373,1579,1577,1555,1557,0,0,0,0,0,0,0,0,0,0
1684078599.59971809,56228333,1578,1577,1555,1554,0,0,0,0,0,0,0,0,0,0
1684078599.69967818,56328293,1578,1577,1555,1553,0,0,0,0,0,0,0,0,0,0
1684078599.79963803,56428253,1576,1576,1555,1553,0,0,0,0,0,0,0,0,0,0
1684078599.89959812,56528213,1575,1576,1555,1553,0,0,0,0,0,0,0,0,0,0
1684078599.99955821,56628173,1574,1576,1554,1553,0,0,0,0,0,0,0,0,0,0
1684078600.10035110,56728966,1574,1576,1554,1554,0,0,0,0,0,0,0,0,0,0
1684078600.20031118,56828926,1575,1576,1553,1552,0,0,0,0,0,0,0,0,0,0
1684078600.30027103,56928886,1575,1577,1550,1550,0,0,0,0,0,0,0,0,0,0
1684078600.40023112,57028846,1577,1578,1549,1549,0,0,0,0,0,0,0,0,0,0
1684078600.50019121,57128806,1580,1580,1547,1546,0,0,0,0,0,0,0,0,0,0
1684078600.60015106,57228766,1582,1583,1544,1544,0,0,0,0,0,0,0,0,0,0
1684078600.70011115,57328726,1585,1586,1541,1541,0,0,0,0,0,0,0,0,0,0
1684078600.80007100,57428686,1588,1589,1538,1537,0,0,0,0,0,0,0,0,0,0
1684078600.90003109,57528646,1591,1591,1535,1536,0,0,0,0,0,0,0,0,0,0
1684078600.99999118,57628606,1594,1594,1534,1535,0,0,0,0,0,0,0,0,0,0
1684078601.09995103,57728566,1595,1595,1534,1535,0,0,0,0,0,0,0,0,0,0
1684078601.19991112,57828526,1594,1594,1534,1536,0,0,0,0,0,0,0,0,0,0
1684078601.29987121,57928486,1593,1593,1536,1539,0,0,0,0,0,0,0,0,0,0
1684078601.39983106,58028446,1589,1589,1540,1543,0,0,0,0,0,0,0,0,0,0
1684078601.49979115,58128406,1585,1583,1547,1550,0,0,0,0,0,0,0,0,0,0
1684078601.59975100,58228366,1578,1575,1556,1559,0,0,0,0,0,0,0,0,0,0
1684078601.69971108,58328326,1568,1564,1566,1569,0,0,0,0,0,0,0,0,0,0
1684078601.79967117,58428286,1558,1554,1580,1581,0,0,0,0,0,0,0,0,0,0
1684078601.89963102,58528246,1548,1545,1593,1594,0,0,0,0,0,0,0,0,0,0
1684078601.99959111,58628206,1538,1536,1603,1602,0,0,0,0,0,0,0,0,0,0
1684078602.09955120,58728166,1531,1531,1610,1610,0,0,0,0,0,0,0,0,0,0
1684078602.20034409,58828959,1528,1530,1615,1614,0,0,0,0,0,0,0,0,0,0
1684078602.30030417,58928919,1529,1531,1615,1614,0,0,0,0,0,0,0,0,0,0
1684078602.40026402,59028879,1534,1537,1612,1612,0,0,0,0,0,0,0,0,0,0
1684078602.50022411,59128839,1540,1542,1606,1606,0,0,0,0,0,0,0,0,0,0
1684078602.60018420,59228799,1549,1550,1600,1600,0,0,0,0,0,0,0,0,0,0
1684078602.70014405,59328759,1558,1558,1592,1592,0,0,0,0,0,0,0,0,0,0
1684078602.80010414,59428719,1567,1567,1585,1585,0,0,0,0,0,0,0,0,0,0
1684078602.90006399,59528679,1575,1574,1579,1578,0,0,0,0,0,0,0,0,0,0
1684078603.00002408,59628639,1581,1580,1573,1572,0,0,0,0,0,0,0,0,0,0
1684078603.09998417,59728599,1584,1583,1568,1568,0,0,0,0,0,0,0,0,0,0
1684078603.19994402,59828559,1588,1586,1567,1566,0,0,0,0,0,0,0,0,0,0
1684078603.29990411,59928519,1346,1345,1568,1568,0,0,0,0,0,0,0,0,0,0
1684078603.39986420,60028479,1426,1429,1619,1625,0,0,0,0,0,0,0,0,0,0
1684078603.49982405,60128439,1477,1483,1621,1621,0,0,0,0,0,0,0,0,0,0
1684078603.59978414,60228399,1522,1529,1611,1607,0,0,0,0,0,0,0,0,0,0
1684078603.69974399,60328359,1558,1562,1602,1596,0,0,0,0,0,0,0,0,0,0
1684078603.79970407,60428319,1587,1586,1597,1591,0,0,0,0,0,0,0,0,0,0
1684078603.89966416,60528279,1606,1601,1590,1588,0,0,0,0,0,0,0,0,0,0
1684078603.99962401,60628239,1622,1613,1582,1583,0,0,0,0,0,0,0,0,0,0
1684078604.09958410,60728199,1641,1635,1559,1563,0,0,0,0,0,0,0,0,0,0
1684078604.19954419,60828159,1659,1653,1537,1544,0,0,0,0,0,0,0,0,0,0
1684078604.30033708,60928952,1659,1656,1535,1543,0,0,0,0,0,0,0,0,0,0
1684078604.40029716,61028912,1649,1651,1543,1549,0,0,0,0,0,0,0,0,0,0
1684078604.50025702,61128872,1638,1642,1551,1553,0,0,0,0,0,0,0,0,0,0
1684078604.60021710,61228832,1628,1634,1558,1557,0,0,0,0,0,0,0,0,0,0
1684078604.70017719,61328792,1622,1625,1564,1561,0,0,0,0,0,0,0,0,0,0
1684078604.80013704,61428752,1616,1617,1567,1563,0,0,0,0,0,0,0,0,0,0
1684078604.90009713,61528712,1610,1605,1576,1573,0,0,0,0,0,0,0,0,0,0
1684078605.00005698,61628672,1595,1588,1588,1588,0,0,0,0,0,0,0,0,0,0
1684078605.10001707,61728632,1577,1571,1602,1603,0,0,0,0,0,0,0,0,0,0
1684078605.19997716,61828592,1562,1560,1609,1611,0,0,0,0,0,0,0,0,0,0
1684078605.29993701,61928552,1552,1555,1610,1612,0,0,0,0,0,0,0,0,0,0
1684078605.39989710,62028512,1550,1555,1609,1609,0,0,0,0,0,0,0,0,0,0
1684078605.49985719,62128472,1550,1557,1604,1603,0,0,0,0,0,0,0,0,0,0
1684078605.59981704,62228432,1554,1560,1599,1597,0,0,0,0,0,0,0,0,0,0
1684078605.69977713,62328392,1560,1564,1595,1591,0,0,0,0,0,0,0,0,0,0
1684078605.79973722,62428352,1566,1566,1589,1586,0,0,0,0,0,0,0,0,0,0
1684078605.89969707,62528312,1572,1571,1586,1584,0,0,0,0,0,0,0,0,0,0
1684078605.99965715,62628272,1576,1574,1581,1581,0,0,0,0,0,0,0,0,0,0
1684078606.09961700,62728232,1579,1577,1576,1577,0,0,0,0,0,0,0,0,0,0
1684078606.19957709,62828192,1585,1583,1571,1571,0,0,0,0,0,0,0,0,0,0
1684078606.30037022,62928985,1591,1590,1565,1566,0,0,0,0,0,0,0,0,0,0
1684078606.40033007,63028945,1595,1595,1562,1563,0,0,0,0,0,0,0,0,0,0
1684078606.50029016,63128905,1597,1597,1561,1561,0,0,0,0,0,0,0,0,0,0
1684078606.60025001,63228865,1597,1596,1562,1563,0,0,0,0,0,0,0,0,0,0
1684078606.70021009,63328825,1595,1594,1566,1566,0,0,0,0,0,0,0,0,0,0
1684078606.80017018,63428785,1591,1590,1573,1569,0,0,0,0,0,0,0,0,0,0
1684078606.90013003,63528745,1588,1584,1584,1570,0,0,0,0,0,0,0,0,0,0
1684078607.00009012,63628705,1584,1578,1584,1577,0,0,0,0,0,0,0,0,0,0
1684078607.10005021,63728665,1577,1573,1577,1578,0,0,0,0,0,0,0,0,0,0
1684078607.20001006,63828625,1572,1572,1571,1576,0,0,0,0,0,0,0,0,0,0
1684078607.29997015,63928585,1568,1572,1566,1571,0,0,0,0,0,0,0,0,0,0
1684078607.39993000,64028545,1567,1573,1564,1566,0,0,0,0,0,0,0,0,0,0
1684078607.49989009,64128505,1567,1572,1562,1561,0,0,0,0,0,0,0,0,0,0
1684078607.59985018,64228465,1569,1573,1562,1558,0,0,0,0,0,0,0,0,0,0
1684078607.69981003,64328425,1571,1573,1560,1556,0,0,0,0,0,0,0,0,0,0
1684078607.79977012,64428385,1573,1572,1558,1555,0,0,0,0,0,0,0,0,0,0
1684078607.89973021,64528345,1574,1572,1555,1554,0,0,0,0,0,0,0,0,0,0
1684078607.99969006,64628305,1574,1572,1551,1552,0,0,0,0,0,0,0,0,0,0
1684078608.09965014,64728265,1574,1573,1549,1550,0,0,0,0,0,0,0,0,0,0
1684078608.19960999,64828225,1574,1574,1547,1548,0,0,0,0,0,0,0,0,0,0
1684078608.29957008,64928185,1574,1576,1545,1545,0,0,0,0,0,0,0,0,0,0
1684078608.40036321,65028978,1575,1577,1542,1542,0,0,0,0,0,0,0,0,0,0
1684078608.50032306,65128938,1578,1580,1540,1539,0,0,0,0,0,0,0,0,0,0
1684078608.60028315,65228898,1582,1584,1538,1536,0,0,0,0,0,0,0,0,0,0
1684078608.70024300,65328858,1586,1587,1535,1533,0,0,0,0,0,0,0,0,0,0
1684078608.80020308,65428818,1589,1590,1531,1530,0,0,0,0,0,0,0,0,0,0
1684078608.90016317,65528778,1593,1592,1530,1530,0,0,0,0,0,0,0,0,0,0
1684078609.00012302,65628738,1594,1594,1530,1531,0,0,0,0,0,0,0,0,0,0
1684078609.10008311,65728698,1595,1594,1531,1533,0,0,0,0,0,0,0,0,0,0
1684078609.20004320,65828658,1593,1594,1533,1536,0,0,0,0,0,0,0,0,0,0
1684078609.30000305,65928618,1591,1591,1537,1541,0,0,0,0,0,0,0,0,0,0
1684078609.39996314,66028578,1587,1587,1543,1547,0,0,0,0,0,0,0,0,0,0
1684078609.49992299,66128538,1582,1581,1550,1553,0,0,0,0,0,0,0,0,0,0
1684078609.59988308,66228498,1576,1575,1556,1559,0,0,0,0,0,0,0,0,0,0
1684078609.69984317,66328458,1571,1569,1563,1566,0,0,0,0,0,0,0,0,0,0
1684078609.79980302,66428418,1564,1562,1571,1573,0,0,0,0,0,0,0,0,0,0
1684078609.89976311,66528378,1558,1556,1576,1579,0,0,0,0,0,0,0,0,0,0
1684078609.99972320,66628338,1553,1551,1583,1584,0,0,0,0,0,0,0,0,0,0
1684078610.09968305,66728298,1547,1546,1588,1588,0,0,0,0,0,0,0,0,0,0
1684078610.19964314,66828258,1543,1543,1593,1592,0,0,0,0,0,0,0,0,0,0
1684078610.29960299,66928218,1540,1540,1598,1596,0,0,0,0,0,0,0,0,0,0
1684078610.39956307,67028178,1537,1538,1600,1598,0,0,0,0,0,0,0,0,0,0
1684078610.50035620,67128971,1537,1538,1602,1600,0,0,0,0,0,0,0,0,0,0
1684078610.60031605,67228931,1537,1539,1601,1601,0,0,0,0,0,0,0,0,0,0
1684078610.70027614,67328891,1539,1540,1599,1599,0,0,0,0,0,0,0,0,0,0
1684078610.80023599,67428851,1542,1544,1596,1596,0,0,0,0,0,0,0,0,0,0
1684078610.90019608,67528811,1548,1550,1593,1593,0,0,0,0,0,0,0,0,0,0
1684078611.00015616,67628771,1555,1555,1587,1588,0,0,0,0,0,0,0,0,0,0
1684078611.10011601,67728731,1562,1562,1583,1584,0,0,0,0,0,0,0,0,0,0
1684078611.20007610,67828691,1568,1568,1580,1580,0,0,0,0,0,0,0,0,0,0
1684078611.30003619,67928651,1573,1573,1577,1576,0,0,0,0,0,0,0,0,0,0
1684078611.39999604,68028611,1577,1576,1574,1573,0,0,0,0,0,0,0,0,0,0
1684078611.49995613,68128571,1581,1580,1574,1572,0,0,0,0,0,0,0,0,0,0
1684078611.59991598,68228531,1583,1581,1572,1571,0,0,0,0,0,0,0,0,0,0
1684078611.69987607,68328491,1584,1583,1571,1571,0,0,0,0,0,0,0,0,0,0
1684078611.79983616,68428451,1584,1584,1571,1572,0,0,0,0,0,0,0,0,0,0
1684078611.89979601,68528411,1584,1583,1572,1572,0,0,0,0,0,0,0,0,0,0
1684078611.99975610,68628371,1584,1583,1572,1573,0,0,0,0,0,0,0,0,0,0
1684078612.09971619,68728331,1584,1584,1574,1574,0,0,0,0,0,0,0,0,0,0
1684078612.19967604,68828291,1583,1583,1574,1574,0,0,0,0,0,0,0,0,0,0
1684078612.29963613,68928251,1582,1582,1575,1575,0,0,0,0,0,0,0,0,0,0
1684078612.39959621,69028211,1581,1581,1576,1576,0,0,0,0,0,0,0,0,0,0
1684078612.49955606,69128171,1581,1581,1578,1577,0,0,0,0,0,0,0,0,0,0
1684078612.60034919,69228964,1580,1580,1578,1578,0,0,0,0,0,0,0,0,0,0
1684078612.70030904,69328924,1580,1580,1579,1579,0,0,0,0,0,0,0,0,0,0
1684078612.80026913,69428884,1579,1579,1579,1578,0,0,0,0,0,0,0,0,0,0
1684078612.90022922,69528844,1579,1579,1579,1580,0,0,0,0,0,0,0,0,0,0
1684078613.00018907,69628804,1578,1578,1580,1580,0,0,0,0,0,0,0,0,0,0
1684078613.10014915,69728764,1578,1578,1580,1580,0,0,0,0,0,0,0,0,0,0
1684078613.20010900,69828724,1578,1579,1580,1580,0,0,0,0,0,0,0,0,0,0
1684078613.30006909,69928684,1578,1579,1580,1580,0,0,0,0,0,0,0,0,0,0
1684078613.40002918,70028644,1578,1579,1581,1581,0,0,0,0,0,0,0,0,0,0
1684078613.49998903,70128604,1578,1578,1580,1580,0,0,0,0,0,0,0,0,0,0
1684078613.59994912,70228564,1579,1579,1580,1580,0,0,0,0,0,0,0,0,0,0
1684078613.69990921,70328524,1580,1579,1581,1581,0,0,0,0,0,0,0,0,0,0
1684078613.79986906,70428484,1580,1579,1580,1580,0,0,0,0,0,0,0,0,0,0
1684078613.89982915,70528444,1581,1580,1581,1582,0,0,0,0,0,0,0,0,0,0
1684078613.99978900,70628404,1581,1580,1580,1581,0,0,0,0,0,0,0,0,0,0
1684078614.09974909,70728364,1581,1581,1580,1581,0,0,0,0,0,0,0,0,0,0
1684078614.19970918,70828324,1821,1821,1576,1575,0,0,0,0,0,0,0,0,0,0
1684078614.29966903,70928284,1751,1747,1523,1515,0,0,0,0,0,0,0,0,0,0
1684078614.39962912,71028244,1698,1690,1521,1520,0,0,0,0,0,0,0,0,0,0
1684078614.49958920,71128204,1642,1634,1539,1543,0,0,0,0,0,0,0,0,0,0
1684078614.59954906,71228164,1587,1582,1563,1569,0,0,0,0,0,0,0,0,0,0
1684078614.70034218,71328957,1543,1543,1586,1589,0,0,0,0,0,0,0,0,0,0
1684078614.80030203,71428917,1519,1524,1599,1599,0,0,0,0,0,0,0,0,0,0
1684078614.90026212,71528877,1510,1518,1604,1603,0,0,0,0,0,0,0,0,0,0
1684078615.00022221,71628837,1513,1520,1606,1605,0,0,0,0,0,0,0,0,0,0
1684078615.10018206,71728797,1516,1522,1605,1605,0,0,0,0,0,0,0,0,0,0
1684078615.20014215,71828757,1515,1518,1610,1611,0,0,0,0,0,0,0,0,0,0
1684078615.30010200,71928717,1518,1519,1612,1615,0,0,0,0,0,0,0,0,0,0
1684078615.40006208,72028677,1525,1527,1608,1612,0,0,0,0,0,0,0,0,0,0
1684078615.50002217,72128637,1539,1540,1599,1602,0,0,0,0,0,0,0,0,0,0
1684078615.59998202,72228597,1557,1558,1589,1590,0,0,0,0,0,0,0,0,0,0
1684078615.69994211,72328557,1572,1574,1582,1579,0,0,0,0,0,0,0,0,0,0
1684078615.79990220,72428517,1581,1587,1582,1567,0,0,0,0,0,0,0,0,0,0
1684078615.89986205,72528477,1586,1594,1574,1566,0,0,0,0,0,0,0,0,0,0
1684078615.99982214,72628437,1587,1593,1565,1564,0,0,0,0,0,0,0,0,0,0
1684078616.09978199,72728397,1589,1590,1558,1563,0,0,0,0,0,0,0,0,0,0
1684078616.19974208,72828357,1590,1586,1555,1560,0,0,0,0,0,0,0,0,0,0
1684078616.29970217,72928317,1592,1586,1556,1558,0,0,0,0,0,0,0,0,0,0
1684078616.39966202,73028277,1592,1586,1557,1556,0,0,0,0,0,0,0,0,0,0
1684078616.49962211,73128237,1591,1587,1559,1556,0,0,0,0,0,0,0,0,0,0
1684078616.59958220,73228197,1588,1588,1559,1556,0,0,0,0,0,0,0,0,0,0
1684078616.69954205,73328157,1586,1587,1558,1556,0,0,0,0,0,0,0,0,0,0
1684078616.80033517,73428950,1584,1586,1558,1556,0,0,0,0,0,0,0,0,0,0
1684078616.90029502,73528910,1582,1585,1556,1556,0,0,0,0,0,0,0,0,0,0
1684078617.00025511,73628870,1582,1584,1555,1556,0,0,0,0,0,0,0,0,0,0
1684078617.10021520,73728830,1583,1584,1554,1556,0,0,0,0,0,0,0,0,0,0
1684078617.20017505,73828790,1583,1584,1553,1554,0,0,0,0,0,0,0,0,0,0
1684078617.30013514,73928750,1584,1583,1552,1552,0,0,0,0,0,0,0,0,0,0
1684078617.40009499,74028710,1584,1584,1550,1550,0,0,0,0,0,0,0,0,0,0
1684078617.50005507,74128670,1586,1586,1550,1549,0,0,0,0,0,0,0,0,0,0
1684078617.60001516,74228630,1587,1588,1548,1548,0,0,0,0,0,0,0,0,0,0
1684078617.69997501,74328590,1587,1589,1546,1546,0,0,0,0,0,0,0,0,0,0
1684078617.79993510,74428550,1590,1591,1544,1545,0,0,0,0,0,0,0,0,0,0
1684078617.89989519,74528510,1592,1592,1542,1544,0,0,0,0,0,0,0,0,0,0
1684078617.99985504,74628470,1594,1594,1543,1545,0,0,0,0,0,0,0,0,0,0
1684078618.09981513,74728430,1594,1592,1545,1546,0,0,0,0,0,0,0,0,0,0
1684078618.19977498,74828390,1592,1589,1548,1550,0,0,0,0,0,0,0,0,0,0
1684078618.29973507,74928350,1590,1586,1556,1557,0,0,0,0,0,0,0,0,0,0
1684078618.39969516,75028310,1584,1580,1563,1564,0,0,0,0,0,0,0,0,0,0
1684078618.49965501,75128270,1576,1572,1571,1572,0,0,0,0,0,0,0,0,0,0
1684078618.59961510,75228230,1569,1566,1580,1580,0,0,0,0,0,0,0,0,0,0
1684078618.69957519,75328190,1561,1559,1588,1587,0,0,0,0,0,0,0,0,0,0
1684078618.80036807,75428983,1556,1556,1595,1594,0,0,0,0,0,0,0,0,0,0
1684078618.90032816,75528943,1552,1553,1600,1599,0,0,0,0,0,0,0,0,0,0
1684078619.00028801,75628903,1549,1551,1602,1602,0,0,0,0,0,0,0,0,0,0
1684078619.10024810,75728863,1549,1550,1603,1603,0,0,0,0,0,0,0,0,0,0
1684078619.20020819,75828823,1549,1550,1602,1602,0,0,0,0,0,0,0,0,0,0
1684078619.30016804,75928783,1552,1552,1603,1602,0,0,0,0,0,0,0,0,0,0
1684078619.40012813,76028743,1554,1555,1601,1600,0,0,0,0,0,0,0,0,0,0
1684078619.50008821,76128703,1556,1558,1598,1597,0,0,0,0,0,0,0,0,0,0
1684078619.60004807,76228663,1559,1560,1594,1595,0,0,0,0,0,0,0,0,0,0
1684078619.70000815,76328623,1562,1563,1590,1592,0,0,0,0,0,0,0,0,0,0
1684078619.79996800,76428583,1566,1566,1588,1589,0,0,0,0,0,0,0,0,0,0
1684078619.89992809,76528543,1569,1568,1585,1586,0,0,0,0,0,0,0,0,0,0
1684078619.99988818,76628503,1572,1571,1583,1583,0,0,0,0,0,0,0,0,0,0
1684078620.09984803,76728463,1575,1574,1582,1581,0,0,0,0,0,0,0,0,0,0
1684078620.19980812,76828423,1576,1575,1579,1578,0,0,0,0,0,0,0,0,0,0
1684078620.29976821,76928383,1578,1577,1577,1577,0,0,0,0,0,0,0,0,0,0
1684078620.39972806,77028343,1579,1580,1577,1576,0,0,0,0,0,0,0,0,0,0
1684078620.49968815,77128303,1580,1581,1575,1575,0,0,0,0,0,0,0,0,0,0
1684078620.59964800,77228263,1581,1581,1574,1574,0,0,0,0,0,0,0,0,0,0
1684078620.69960809,77328223,1582,1581,1574,1575,0,0,0,0,0,0,0,0,0,0
1684078620.79956818,77428183,1582,1581,1574,1574,0,0,0,0,0,0,0,0,0,0
1684078620.90036106,77528976,1581,1580,1574,1574,0,0,0,0,0,0,0,0,0,0
1684078621.00032115,77628936,1581,1580,1575,1575,0,0,0,0,0,0,0,0,0,0
1684078621.10028100,77728896,1580,1579,1576,1576,0,0,0,0,0,0,0,0,0,0
1684078621.20024109,77828856,1579,1579,1577,1576,0,0,0,0,0,0,0,0,0,0
1684078621.30020118,77928816,1578,1578,1577,1577,0,0,0,0,0,0,0,0,0,0
1684078621.40016103,78028776,1578,1578,1578,1578,0,0,0,0,0,0,0,0,0,0
1684078621.50012112,78128736,1577,1577,1579,1579,0,0,0,0,0,0,0,0,0,0
1684078621.60008121,78228696,1577,1578,1580,1580,0,0,0,0,0,0,0,0,0,0
1684078621.70004106,78328656,1577,1577,1580,1580,0,0,0,0,0,0,0,0,0,0
1684078621.80000114,78428616,1576,1577,1580,1580,0,0,0,0,0,0,0,0,0,0
1684078621.89996099,78528576,1576,1577,1579,1580,0,0,0,0,0,0,0,0,0,0
1684078621.99992108,78628536,1578,1578,1581,1581,0,0,0,0,0,0,0,0,0,0
1684078622.09988117,78728496,1578,1578,1580,1581,0,0,0,0,0,0,0,0,0,0
1684078622.19984102,78828456,1579,1578,1581,1580,0,0,0,0,0,0,0,0,0,0
1684078622.29980111,78928416,1578,1579,1580,1580,0,0,0,0,0,0,0,0,0,0
1684078622.39976120,79028376,1579,1579,1580,1580,0,0,0,0,0,0,0,0,0,0
1684078622.49972105,79128336,1579,1579,1580,1580,0,0,0,0,0,0,0,0,0,0
1684078622.59968114,79228296,1579,1579,1579,1579,0,0,0,0,0,0,0,0,0,0
1684078622.69964099,79328256,1579,1580,1579,1579,0,0,0,0,0,0,0,0,0,0
1684078622.79960108,79428216,1579,1580,1579,1579,0,0,0,0,0,0,0,0,0,0
1684078622.89956117,79528176,1580,1579,1578,1578,0,0,0,0,0,0,0,0,0,0
1684078623.00035405,79628969,1581,1580,1579,1579,0,0,0,0,0,0,0,0,0,0
1684078623.10031414,79728929,1581,1581,1580,1580,0,0,0,0,0,0,0,0,0,0
1684078623.20027399,79828889,1581,1581,1581,1580,0,0,0,0,0,0,0,0,0,0
1684078623.30023408,79928849,1580,1581,1580,1580,0,0,0,0,0,0,0,0,0,0
1684078623.40019417,80028809,1581,1581,1580,1581,0,0,0,0,0,0,0,0,0,0
1684078623.50015402,80128769,1581,1582,1581,1581,0,0,0,0,0,0,0,0,0,0
1684078623.60011411,80228729,1582,1583,1588,1573,0,0,0,0,0,0,0,0,0,0
1684078623.70007420,80328689,1580,1582,1585,1573,0,0,0,0,0,0,0,0,0,0
1684078623.80003405,80428649,1577,1580,1578,1576,0,0,0,0,0,0,0,0,0,0
1684078623.89999413,80528609,1574,1575,1571,1575,0,0,0,0,0,0,0,0,0,0
1684078623.99995399,80628569,1572,1571,1566,1574,0,0,0,0,0,0,0,0,0,0
1684078624.09991407,80728529,1570,1568,1565,1571,0,0,0,0,0,0,0,0,0,0
1684078624.19987416,80828489,1568,1566,1565,1568,0,0,0,0,0,0,0,0,0,0
1684078624.29983401,80928449,1567,1566,1566,1566,0,0,0,0,0,0,0,0,0,0
1684078624.39979410,81028409,1566,1565,1567,1565,0,0,0,0,0,0,0,0,0,0
1684078624.49975419,81128369,1565,1565,1567,1564,0,0,0,0,0,0,0,0,0,0
1684078624.59971404,81228329,1564,1565,1567,1564,0,0,0,0,0,0,0,0,0,0
1684078624.69967413,81328289,1564,1565,1566,1565,0,0,0,0,0,0,0,0,0,0
1684078624.79963398,81428249,1563,1564,1565,1564,0,0,0,0,0,0,0,0,0,0
1684078624.89959407,81528209,1562,1562,1563,1563,0,0,0,0,0,0,0,0,0,0
1684078624.99955416,81628169,1562,1561,1562,1562,0,0,0,0,0,0,0,0,0,0
1684078625.10034704,81728962,1562,1562,1562,1562,0,0,0,0,0,0,0,0,0,0
1684078625.20030713,81828922,1561,1561,1561,1561,0,0,0,0,0,0,0,0,0,0
1684078625.30026698,81928882,1560,1560,1561,1560,0,0,0,0,0,0,0,0,0,0
1684078625.40022707,82028842,1560,1560,1560,1559,0,0,0,0,0,0,0,0,0,0
1684078625.50018716,82128802,1559,1559,1559,1558,0,0,0,0,0,0,0,0,0,0
1684078625.60014701,82228762,1558,1558,1558,1557,0,0,0,0,0,0,0,0,0,0
1684078625.70010710,82328722,1558,1558,1558,1558,0,0,0,0,0,0,0,0,0,0
1684078625.80006719,82428682,1557,1557,1557,1557,0,0,0,0,0,0,0,0,0,0
1684078625.90002704,82528642,1557,1557,1558,1556,0,0,0,0,0,0,0,0,0,0
1684078625.99998713,82628602,1557,1557,1558,1557,0,0,0,0,0,0,0,0,0,0
1684078626.09994721,82728562,1558,1558,1558,1557,0,0,0,0,0,0,0,0,0,0
1684078626.19990706,82828522,1558,1558,1560,1556,0,0,0,0,0,0,0,0,0,0
1684078626.29986715,82928482,1558,1559,1560,1558,0,0,0,0,0,0,0,0,0,0
1684078626.39982700,83028442,1559,1560,1559,1561,0,0,0,0,0,0,0,0,0,0
1684078626.49978709,83128402,1561,1560,1557,1563,0,0,0,0,0,0,0,0,0,0
1684078626.59974718,83228362,1561,1560,1557,1563,0,0,0,0,0,0,0,0,0,0
1684078626.69970703,83328322,1562,1561,1559,1564,0,0,0,0,0,0,0,0,0,0
1684078626.79966712,83428282,1563,1561,1560,1563,0,0,0,0,0,0,0,0,0,0
1684078626.89962721,83528242,1563,1562,1562,1562,0,0,0,0,0,0,0,0,0,0
1684078626.99958706,83628202,1562,1563,1564,1561,0,0,0,0,0,0,0,0,0,0
1684078627.09954715,83728162,1560,1561,1563,1559,0,0,0,0,0,0,0,0,0,0
1684078627.20034003,83828955,1560,1560,1559,1561,0,0,0,0,0,0,0,0,0,0
1684078627.30030012,83928915,1558,1557,1554,1561,0,0,0,0,0,0,0,0,0,0
1684078627.40026021,84028875,1553,1552,1550,1555,0,0,0,0,0,0,0,0,0,0
1684078627.50022006,84128835,1548,1547,1547,1549,0,0,0,0,0,0,0,0,0,0
1684078627.60018015,84228795,1542,1541,1542,1542,0,0,0,0,0,0,0,0,0,0
1684078627.70014000,84328755,1535,1535,1536,1534,0,0,0,0,0,0,0,0,0,0
1684078627.80010009,84428715,1528,1528,1529,1527,0,0,0,0,0,0,0,0,0,0
1684078627.90006018,84528675,1521,1521,1522,1521,0,0,0,0,0,0,0,0,0,0
1684078628.00002003,84628635,1519,1520,1520,1519,0,0,0,0,0,0,0,0,0,0
1684078628.09998012,84728595,1520,1520,1520,1520,0,0,0,0,0,0,0,0,0,0
1684078628.19994020,84828555,1521,1522,1521,1522,0,0,0,0,0,0,0,0,0,0
1684078628.29990005,84928515,1524,1524,1523,1525,0,0,0,0,0,0,0,0,0,0
1684078628.39986014,85028475,1528,1527,1527,1528,0,0,0,0,0,0,0,0,0,0
1684078628.49981999,85128435,1533,1532,1533,1533,0,0,0,0,0,0,0,0,0,0
1684078628.59978008,85228395,1537,1537,1537,1537,0,0,0,0,0,0,0,0,0,0
1684078628.69974017,85328355,1540,1540,1540,1540,0,0,0,0,0,0,0,0,0,0
1684078628.79970002,85428315,1542,1543,1543,1542,0,0,0,0,0,0,0,0,0,0
1684078628.89966011,85528275,1543,1543,1544,1543,0,0,0,0,0,0,0,0,0,0
1684078628.99962020,85628235,1543,1544,1544,1543,0,0,0,0,0,0,0,0,0,0
1684078629.09958005,85728195,1546,1546,1546,1546,0,0,0,0,0,0,0,0,0,0
1684078629.19954014,85828155,1546,1546,1546,1546,0,0,0,0,0,0,0,0,0,0
1684078629.30033302,85928948,1546,1546,1546,1546,0,0,0,0,0,0,0,0,0,0
1684078629.40029311,86028908,1547,1547,1547,1547,0,0,0,0,0,0,0,0,0,0
1684078629.50025320,86128868,1546,1546,1546,1546,0,0,0,0,0,0,0,0,0,0
1684078629.60021305,86228828,1547,1547,1547,1547,0,0,0,0,0,0,0,0,0,0
1684078629.70017314,86328788,1545,1545,1545,1545,0,0,0,0,0,0,0,0,0,0
1684078629.80013299,86428748,1546,1546,1546,1546,0,0,0,0,0,0,0,0,0,0
1684078629.90009308,86528708,1546,1545,1546,1546,0,0,0,0,0,0,0,0,0,0
1684078630.00005317,86628668,1545,1545,1545,1545,0,0,0,0,0,0,0,0,0,0
1684078630.10001302,86728628,1545,1545,1545,1545,0,0,0,0,0,0,0,0,0,0
1684078630.19997311,86828588,1545,1544,1545,1544,0,0,0,0,0,0,0,0,0,0
1684078630.29993320,86928548,1544,1545,1545,1545,0,0,0,0,0,0,0,0,0,0
1684078630.39989305,87028508,1544,1544,1544,1544,0,0,0,0,0,0,0,0,0,0
1684078630.49985313,87128468,1545,1544,1544,1544,0,0,0,0,0,0,0,0,0,0
1684078630.59981298,87228428,1544,1544,1544,1544,0,0,0,0,0,0,0,0,0,0
1684078630.69977307,87328388,1544,1544,1544,1544,0,0,0,0,0,0,0,0,0,0
1684078630.79973316,87428348,1543,1544,1544,1544,0,0,0,0,0,0,0,0,0,0
1684078630.89969301,87528308,1544,1544,1544,1543,0,0,0,0,0,0,0,0,0,0
1684078630.99965310,87628268,1544,1544,1544,1544,0,0,0,0,0,0,0,0,0,0
1684078631.09961319,87728228,1545,1544,1544,1545,0,0,0,0,0,0,0,0,0,0
1684078631.19957304,87828188,1544,1544,1544,1544,0,0,0,0,0,0,0,0,0,0
1684078631.30036616,87928981,1544,1544,1544,1544,0,0,0,0,0,0,0,0,0,0
1684078631.40032601,88028941,1544,1544,1544,1544,0,0,0,0,0,0,0,0,0,0
1684078631.50028610,88128901,1544,1543,1544,1544,0,0,0,0,0,0,0,0,0,0
1684078631.60024619,88228861,1545,1545,1545,1545,0,0,0,0,0,0,0,0,0,0
1684078631.70020604,88328821,1544,1544,1544,1544,0,0,0,0,0,0,0,0,0,0
1684078631.80016613,88428781,1544,1545,1545,1545,0,0,0,0,0,0,0,0,0,0
1684078631.90012598,88528741,1544,1544,1544,1544,0,0,0,0,0,0,0,0,0,0
1684078632.00008607,88628701,1545,1545,1545,1545,0,0,0,0,0,0,0,0,0,0
1684078632.10004616,88728661,1544,1543,1543,1544,0,0,0,0,0,0,0,0,0,0
1684078632.20000601,88828621,1545,1543,1544,1544,0,0,0,0,0,0,0,0,0,0
1684078632.29996610,88928581,1544,1544,1544,1544,0,0,0,0,0,0,0,0,0,0
1684078632.39992619,89028541,1544,1544,1544,1544,0,0,0,0,0,0,0,0,0,0
1684078632.49988604,89128501,1544,1544,1544,1544,0,0,0,0,0,0,0,0,0,0
1684078632.59984612,89228461,1544,1544,1544,1544,0,0,0,0,0,0,0,0,0,0
1684078632.69980621,89328421,1545,1545,1544,1545,0,0,0,0,0,0,0,0,0,0
1684078632.79976606,89428381,1544,1545,1545,1545,0,0,0,0,0,0,0,0,0,0
1684078632.89972615,89528341,1544,1544,1544,1544,0,0,0,0,0,0,0,0,0,0
1684078632.99968600,89628301,1544,1544,1544,1544,0,0,0,0,0,0,0,0,0,0
1684078633.09964609,89728261,1544,1543,1544,1544,0,0,0,0,0,0,0,0,0,0
1684078633.19960618,89828221,1544,1544,1544,1544,0,0,0,0,0,0,0,0,0,0
1684078633.29956603,89928181,1544,1544,1544,1545,0,0,0,0,0,0,0,0,0,0
1684078633.40035915,90028974,1544,1544,1544,1544,0,0,0,0,0,0,0,0,0,0
1684078633.50031900,90128934,1544,1544,1544,1545,0,0,0,0,0,0,0,0,0,0
1684078633.60027909,90228894,1544,1545,1544,1544,0,0,0,0,0,0,0,0,0,0
1684078633.70023918,90328854,1544,1544,1544,1545,0,0,0,0,0,0,0,0,0,0
1684078633.80019903,90428814,1545,1545,1545,1545,0,0,0,0,0,0,0,0,0,0
1684078633.90015912,90528774,1545,1545,1545,1545,0,0,0,0,0,0,0,0,0,0
1684078634.00011921,90628734,1545,1545,1545,1545,0,0,0,0,0,0,0,0,0,0
1684078634.10007906,90728694,1544,1544,1544,1544,0,0,0,0,0,0,0,0,0,0
1684078634.20003915,90828654,1544,1544,1544,1544,0,0,0,0,0,0,0,0,0,0
1684078634.29999900,90928614,1545,1545,1545,1545,0,0,0,0,0,0,0,0,0,0
1684078634.39995909,91028574,1544,1544,1544,1544,0,0,0,0,0,0,0,0,0,0
1684078634.49991918,91128534,1544,1544,1544,1544,0,0,0,0,0,0,0,0,0,0
1684078634.59987903,91228494,1544,1544,1544,1544,0,0,0,0,0,0,0,0,0,0
1684078634.69983912,91328454,1544,1544,1544,1544,0,0,0,0,0,0,0,0,0,0
1684078634.79979920,91428414,1543,1543,1543,1543,0,0,0,0,0,0,0,0,0,0
1684078634.89975905,91528374,1544,1544,1544,1544,0,0,0,0,0,0,0,0,0,0
1684078634.99971914,91628334,1545,1545,1545,1545,0,0,0,0,0,0,0,0,0,0
1684078635.09967899,91728294,1545,1545,1545,1545,0,0,0,0,0,0,0,0,0,0
1684078635.19963908,91828254,1545,1545,1545,1545,0,0,0,0,0,0,0,0,0,0
1684078635.29959917,91928214,1545,1544,1545,1545,0,0,0,0,0,0,0,0,0,0
1684078635.39955902,92028174,1545,1545,1545,1545,0,0,0,0,0,0,0,0,0,0
1684078635.50035214,92128967,1544,1544,1544,1544,0,0,0,0,0,0,0,0,0,0
1684078635.60031199,92228927,1545,1545,1545,1545,0,0,0,0,0,0,0,0,0,0
1684078635.70027208,92328887,1544,1544,1543,1544,0,0,0,0,0,0,0,0,0,0
1684078635.80023217,92428847,1544,1545,1544,1545,0,0,0,0,0,0,0,0,0,0
1684078635.90019202,92528807,1545,1545,1545,1545,0,0,0,0,0,0,0,0,0,0
1684078636.00015211,92628767,1544,1544,1545,1544,0,0,0,0,0,0,0,0,0,0
1684078636.10011220,92728727,1544,1544,1544,1544,0,0,0,0,0,0,0,0,0,0
1684078636.20007205,92828687,1544,1543,1544,1543,0,0,0,0,0,0,0,0,0,0
1684078636.30003214,92928647,1544,1544,1544,1544,0,0,0,0,0,0,0,0,0,0
1684078636.39999199,93028607,1544,1544,1544,1544,0,0,0,0,0,0,0,0,0,0
1684078636.49995208,93128567,1544,1544,1544,1544,0,0,0,0,0,0,0,0,0,0
1684078636.59991217,93228527,1545,1545,1545,1544,0,0,0,0,0,0,0,0,0,0
1684078636.69987202,93328487,1544,1544,1544,1544,0,0,0,0,0,0,0,0,0,0
1684078636.79983211,93428447,1544,1544,1544,1544,0,0,0,0,0,0,0,0,0,0
1684078636.89979219,93528407,1545,1545,1545,1545,0,0,0,0,0,0,0,0,0,0
1684078636.99975204,93628367,1544,1544,1544,1544,0,0,0,0,0,0,0,0,0,0
1684078637.09971213,93728327,1544,1544,1544,1544,0,0,0,0,0,0,0,0,0,0
1684078637.19967198,93828287,1544,1544,1544,1544,0,0,0,0,0,0,0,0,0,0
1684078637.29963207,93928247,1544,1544,1544,1544,0,0,0,0,0,0,0,0,0,0
1684078637.39959216,94028207,1544,1545,1545,1545,0,0,0,0,0,0,0,0,0,0
1684078637.49955201,94128167,1545,1545,1545,1545,0,0,0,0,0,0,0,0,0,0
1684078637.60034513,94228960,1544,1544,1545,1545,0,0,0,0,0,0,0,0,0,0
1684078637.70030499,94328920,1409,1408,1410,1408,0,0,0,0,0,0,0,0,0,0
1684078637.80026507,94428880,1273,1270,1275,1270,0,0,0,0,0,0,0,0,0,0
1684078637.90022516,94528840,1222,1219,1224,1220,0,0,0,0,0,0,0,0,0,0
1684078638.00018501,94628800,1201,1199,1204,1200,0,0,0,0,0,0,0,0,0,0
1684078638.10014510,94728760,1162,1159,1165,1162,0,0,0,0,0,0,0,0,0,0
1684078638.20010519,94828720,1151,1150,1156,1151,0,0,0,0,0,0,0,0,0,0
1684078638.30006504,94928680,1152,1150,1157,1152,0,0,0,0,0,0,0,0,0,0
1684078638.40002513,95028640,1183,1150,1155,1185,0,0,0,0,0,0,0,0,0,0
1684078638.49998498,95128600,1174,1150,1157,1175,0,0,0,0,0,0,0,0,0,0
1684078638.59994507,95228560,1171,1150,1158,1171,0,0,0,0,0,0,0,0,0,0
1684078638.69990516,95328520,1172,1150,1159,1172,0,0,0,0,0,0,0,0,0,0
1684078638.79986501,95428480,1173,1150,1159,1174,0,0,0,0,0,0,0,0,0,0
1684078638.89982510,95528440,1175,1150,1160,1176,0,0,0,0,0,0,0,0,0,0
1684078638.99978518,95628400,1177,1150,1161,1178,0,0,0,0,0,0,0,0,0,0
1684078639.09974504,95728360,1179,1150,1161,1181,0,0,0,0,0,0,0,0,0,0
1684078639.19970512,95828320,1165,1150,1160,1168,0,0,0,0,0,0,0,0,0,0
1684078639.29966521,95928280,1166,1150,1160,1170,0,0,0,0,0,0,0,0,0,0
1684078639.39962506,96028240,1167,1150,1161,1171,0,0,0,0,0,0,0,0,0,0
1684078639.49958515,96128200,1168,1150,1161,1172,0,0,0,0,0,0,0,0,0,0
1684078639.59954500,96228160,1168,1150,1161,1173,0,0,0,0,0,0,0,0,0,0
1684078639.70033813,96328953,1000,1000,1000,1000,0,0,0,0,0,0,0,0,0,0
1684078639.80029821,96428913,1000,1000,1000,1000,0,0,0,0,0,0,0,0,0,0
1684078639.90025806,96528873,1000,1000,1000,1000,0,0,0,0,0,0,0,0,0,0
1684078640.00021815,96628833,1000,1000,1000,1000,0,0,0,0,0,0,0,0,0,0
1684078640.10017800,96728793,1000,1000,1000,1000,0,0,0,0,0,0,0,0,0,0
1684078640.20013809,96828753,1000,1000,1000,1000,0,0,0,0,0,0,0,0,0,0
1684078640.30009818,96928713,1000,1000,1000,1000,0,0,0,0,0,0,0,0,0,0
1684078640.40005803,97028673,1000,1000,1000,1000,0,0,0,0,0,0,0,0,0,0
1684078640.50001812,97128633,1000,1000,1000,1000,0,0,0,0,0,0,0,0,0,0
1684078640.59997821,97228593,1000,1000,1000,1000,0,0,0,0,0,0,0,0,0,0
1684078640.69993806,97328553,1000,1000,1000,1000,0,0,0,0,0,0,0,0,0,0
1684078640.79989815,97428513,1000,1000,1000,1000,0,0,0,0,0,0,0,0,0,0
1684078640.89985800,97528473,1000,1000,1000,1000,0,0,0,0,0,0,0,0,0,0
1684078640.99981809,97628433,1000,1000,1000,1000,0,0,0,0,0,0,0,0,0,0
1684078641.09977818,97728393,1000,1000,1000,1000,0,0,0,0,0,0,0,0,0,0
1684078641.19973803,97828353,1000,1000,1000,1000,0,0,0,0,0,0,0,0,0,0
1684078641.29969811,97928313,1000,1000,1000,1000,0,0,0,0,0,0,0,0,0,0
1684078641.39965820,98028273,1000,1000,1000,1000,0,0,0,0,0,0,0,0,0,0
1684078641.49961805,98128233,1000,1000,1000,1000,0,0,0,0,0,0,0,0,0,0
1684078641.59957814,98228193,1000,1000,1000,1000,0,0,0,0,0,0,0,0,0,0
1684078641.70037103,98328986,1000,1000,1000,1000,0,0,0,0,0,0,0,0,0,0
1684078641.80033112,98428946,1000,1000,1000,1000,0,0,0,0,0,0,0,0,0,0
1684078641.90029120,98528906,1000,1000,1000,1000,0,0,0,0,0,0,0,0,0,0
1684078642.00025105,98628866,1000,1000,1000,1000,0,0,0,0,0,0,0,0,0,0
1684078642.10021114,98728826,1000,1000,1000,1000,0,0,0,0,0,0,0,0,0,0
1684078642.20017099,98828786,1000,1000,1000,1000,0,0,0,0,0,0,0,0,0,0
1684078642.30013108,98928746,1000,1000,1000,1000,0,0,0,0,0,0,0,0,0,0
1684078642.40009117,99028706,1000,1000,1000,1000,0,0,0,0,0,0,0,0,0,0
1684078642.50005102,99128666,1000,1000,1000,1000,0,0,0,0,0,0,0,0,0,0
1684078642.60001111,99228626,1000,1000,1000,1000,0,0,0,0,0,0,0,0,0,0
1684078642.69997120,99328586,1000,1000,1000,1000,0,0,0,0,0,0,0,0,0,0
1684078642.79993105,99428546,1000,1000,1000,1000,0,0,0,0,0,0,0,0,0,0
1684078642.89989114,99528506,1000,1000,1000,1000,0,0,0,0,0,0,0,0,0,0
1684078642.99985099,99628466,1000,1000,1000,1000,0,0,0,0,0,0,0,0,0,0
1684078643.09981108,99728426,1000,1000,1000,1000,0,0,0,0,0,0,0,0,0,0
1684078643.19977117,99828386,1000,1000,1000,1000,0,0,0,0,0,0,0,0,0,0
1684078643.29973102,99928346,1000,1000,1000,1000,0,0,0,0,0,0,0,0,0,0
1684078643.39969110,100028306,1000,1000,1000,1000,0,0,0,0,0,0,0,0,0,0
1684078643.49965119,100128266,1000,1000,1000,1000,0,0,0,0,0,0,0,0,0,0
1684078643.59961104,100228226,1000,1000,1000,1000,0,0,0,0,0,0,0,0,0,0
1684078643.69957113,100328186,1000,1000,1000,1000,0,0,0,0,0,0,0,0,0,0
1684078643.80036402,100428979,1000,1000,1000,1000,0,0,0,0,0,0,0,0,0,0
1684078643.90032411,100528939,1000,1000,1000,1000,0,0,0,0,0,0,0,0,0,0
1684078644.00028419,100628899,1000,1000,1000,1000,0,0,0,0,0,0,0,0,0,0
1684078644.10024405,100728859,1000,1000,1000,1000,0,0,0,0,0,0,0,0,0,0
1684078644.20020413,100828819,1000,1000,1000,1000,0,0,0,0,0,0,0,0,0,0
1684078644.30016398,100928779,1000,1000,1000,1000,0,0,0,0,0,0,0,0,0,0
1684078644.40012407,101028739,1000,1000,1000,1000,0,0,0,0,0,0,0,0,0,0
1684078644.50008416,101128699,1000,1000,1000,1000,0,0,0,0,0,0,0,0,0,0
1684078644.60004401,101228659,1000,1000,1000,1000,0,0,0,0,0,0,0,0,0,0
1684078644.70000410,101328619,1000,1000,1000,1000,0,0,0,0,0,0,0,0,0,0
1684078644.79996419,101428579,1000,1000,1000,1000,0,0,0,0,0,0,0,0,0,0
1684078644.89992404,101528539,1000,1000,1000,1000,0,0,0,0,0,0,0,0,0,0
1684078644.99988413,101628499,1000,1000,1000,1000,0,0,0,0,0,0,0,0,0,0
1684078645.09984398,101728459,1000,1000,1000,1000,0,0,0,0,0,0,0,0,0,0
1684078645.19980407,101828419,1000,1000,1000,1000,0,0,0,0,0,0,0,0,0,0
1684078645.29976416,101928379,1000,1000,1000,1000,0,0,0,0,0,0,0,0,0,0
1684078645.39972401,102028339,1000,1000,1000,1000,0,0,0,0,0,0,0,0,0,0
1684078645.49968410,102128299,1000,1000,1000,1000,0,0,0,0,0,0,0,0,0,0
1684078645.59964418,102228259,1000,1000,1000,1000,0,0,0,0,0,0,0,0,0,0
1684078645.69960403,102328219,1000,1000,1000,1000,0,0,0,0,0,0,0,0,0,0
1684078645.79956412,102428179,1000,1000,1000,1000,0,0,0,0,0,0,0,0,0,0
1684078645.90035701,102528972,1000,1000,1000,1000,0,0,0,0,0,0,0,0,0,0
1684078646.00031710,102628932,1000,1000,1000,1000,0,0,0,0,0,0,0,0,0,0
1684078646.10027719,102728892,1000,1000,1000,1000,0,0,0,0,0,0,0,0,0,0
1684078646.20023704,102828852,1000,1000,1000,1000,0,0,0,0,0,0,0,0,0,0
1684078646.30019712,102928812,1000,1000,1000,1000,0,0,0,0,0,0,0,0,0,0
1684078646.40015721,103028772,1000,1000,1000,1000,0,0,0,0,0,0,0,0,0,0
1684078646.50011706,103128732,1000,1000,1000,1000,0,0,0,0,0,0,0,0,0,0
1684078646.60007715,103228692,1000,1000,1000,1000,0,0,0,0,0,0,0,0,0,0
1684078646.70003700,103328652,1000,1000,1000,1000,0,0,0,0,0,0,0,0,0,0
1684078646.79999709,103428612,1000,1000,1000,1000,0,0,0,0,0,0,0,0,0,0
1684078646.89995718,103528572,1000,1000,1000,1000,0,0,0,0,0,0,0,0,0,0
1684078646.99991703,103628532,1000,1000,1000,1000,0,0,0,0,0,0,0,0,0,0
1684078647.09987712,103728492,1000,1000,1000,1000,0,0,0,0,0,0,0,0,0,0
1684078647.19983721,103828452,1000,1000,1000,1000,0,0,0,0,0,0,0,0,0,0
1684078647.29979706,103928412,1000,1000,1000,1000,0,0,0,0,0,0,0,0,0,0
1684078647.39975715,104028372,1000,1000,1000,1000,0,0,0,0,0,0,0,0,0,0
1684078647.49971700,104128332,1000,1000,1000,1000,0,0,0,0,0,0,0,0,0,0
1684078647.59967709,104228292,1000,1000,1000,1000,0,0,0,0,0,0,0,0,0,0
1684078647.69963717,104328252,1000,1000,1000,1000,0,0,0,0,0,0,0,0,0,0
1684078647.79959702,104428212,1000,1000,1000,1000,0,0,0,0,0,0,0,0,0,0
1684078647.89955711,104528172,1000,1000,1000,1000,0,0,0,0,0,0,0,0,0,0
1684078648.00035000,104628965,1000,1000,1000,1000,0,0,0,0,0,0,0,0,0,0
1684078648.10031009,104728925,1000,1000,1000,1000,0,0,0,0,0,0,0,0,0,0
1684078648.20027018,104828885,1000,1000,1000,1000,0,0,0,0,0,0,0,0,0,0
1684078648.30023003,104928845,1000,1000,1000,1000,0,0,0,0,0,0,0,0,0,0
1684078648.40019011,105028805,1000,1000,1000,1000,0,0,0,0,0,0,0,0,0,0
1684078648.50015020,105128765,1000,1000,1000,1000,0,0,0,0,0,0,0,0,0,0
1684078648.60011005,105228725,1000,1000,1000,1000,0,0,0,0,0,0,0,0,0,0
1684078648.70007014,105328685,1000,1000,1000,1000,0,0,0,0,0,0,0,0,0,0
1684078648.80002999,105428645,1000,1000,1000,1000,0,0,0,0,0,0,0,0,0,0
1684078648.89999008,105528605,1000,1000,1000,1000,0,0,0,0,0,0,0,0,0,0
1684078648.99995017,105628565,1000,1000,1000,1000,0,0,0,0,0,0,0,0,0,0
1684078649.09991002,105728525,1000,1000,1000,1000,0,0,0,0,0,0,0,0,0,0
1684078649.19987011,105828485,1000,1000,1000,1000,0,0,0,0,0,0,0,0,0,0
1684078649.29983020,105928445,1000,1000,1000,1000,0,0,0,0,0,0,0,0,0,0
1684078649.39979005,106028405,1000,1000,1000,1000,0,0,0,0,0,0,0,0,0,0
1684078649.49975014,106128365,1000,1000,1000,1000,0,0,0,0,0,0,0,0,0,0
1684078649.59970999,106228325,1000,1000,1000,1000,0,0,0,0,0,0,0,0,0,0
1684078649.69967008,106328285,1000,1000,1000,1000,0,0,0,0,0,0,0,0,0,0
1684078649.79963017,106428245,1000,1000,1000,1000,0,0,0,0,0,0,0,0,0,0
1684078649.89959002,106528205,1000,1000,1000,1000,0,0,0,0,0,0,0,0,0,0
1684078649.99955010,106628165,1000,1000,1000,1000,0,0,0,0,0,0,0,0,0,0
1684078650.10034299,106728958,1000,1000,1000,1000,0,0,0,0,0,0,0,0,0,0
1684078650.20030308,106828918,1000,1000,1000,1000,0,0,0,0,0,0,0,0,0,0
1684078650.30026317,106928878,1000,1000,1000,1000,0,0,0,0,0,0,0,0,0,0
1684078650.40022302,107028838,1000,1000,1000,1000,0,0,0,0,0,0,0,0,0,0
1684078650.50018311,107128798,1000,1000,1000,1000,0,0,0,0,0,0,0,0,0,0
1684078650.60014319,107228758,1000,1000,1000,1000,0,0,0,0,0,0,0,0,0,0
1684078650.70010304,107328718,1000,1000,1000,1000,0,0,0,0,0,0,0,0,0,0
1684078650.80006313,107428678,1000,1000,1000,1000,0,0,0,0,0,0,0,0,0,0
1684078650.90002298,107528638,1000,1000,1000,1000,0,0,0,0,0,0,0,0,0,0
1684078650.99998307,107628598,1000,1000,1000,1000,0,0,0,0,0,0,0,0,0,0
1684078651.09994316,107728558,1000,1000,1000,1000,0,0,0,0,0,0,0,0,0,0
1684078651.19990301,107828518,1000,1000,1000,1000,0,0,0,0,0,0,0,0,0,0
1684078651.29986310,107928478,1000,1000,1000,1000,0,0,0,0,0,0,0,0,0,0
1684078651.39982319,108028438,1000,1000,1000,1000,0,0,0,0,0,0,0,0,0,0
1684078651.49978304,108128398,1000,1000,1000,1000,0,0,0,0,0,0,0,0,0,0
1684078651.59974313,108228358,1000,1000,1000,1000,0,0,0,0,0,0,0,0,0,0
1684078651.69970322,108328318,1000,1000,1000,1000,0,0,0,0,0,0,0,0,0,0
1684078651.79966307,108428278,1000,1000,1000,1000,0,0,0,0,0,0,0,0,0,0
1684078651.89962316,108528238,1000,1000,1000,1000,0,0,0,0,0,0,0,0,0,0
1684078651.99958301,108628198,1000,1000,1000,1000,0,0,0,0,0,0,0,0,0,0
1684078652.09954309,108728158,1000,1000,1000,1000,0,0,0,0,0,0,0,0,0,0
1684078652.20033598,108828951,1000,1000,1000,1000,0,0,0,0,0,0,0,0,0,0
1684078652.30029607,108928911,1000,1000,1000,1000,0,0,0,0,0,0,0,0,0,0
1684078652.40025616,109028871,1000,1000,1000,1000,0,0,0,0,0,0,0,0,0,0
1684078652.50021601,109128831,1000,1000,1000,1000,0,0,0,0,0,0,0,0,0,0
1684078652.60017610,109228791,1000,1000,1000,1000,0,0,0,0,0,0,0,0,0,0
1684078652.70013618,109328751,1000,1000,1000,1000,0,0,0,0,0,0,0,0,0,0
1684078652.80009604,109428711,1000,1000,1000,1000,0,0,0,0,0,0,0,0,0,0
1684078652.90005612,109528671,1000,1000,1000,1000,0,0,0,0,0,0,0,0,0,0
1684078653.00001621,109628631,1000,1000,1000,1000,0,0,0,0,0,0,0,0,0,0
1684078653.09997606,109728591,1000,1000,1000,1000,0,0,0,0,0,0,0,0,0,0
1684078653.19993615,109828551,1000,1000,1000,1000,0,0,0,0,0,0,0,0,0,0
1684078653.29989600,109928511,1000,1000,1000,1000,0,0,0,0,0,0,0,0,0,0
1684078653.39985609,110028471,1000,1000,1000,1000,0,0,0,0,0,0,0,0,0,0
1684078653.49981618,110128431,1000,1000,1000,1000,0,0,0,0,0,0,0,0,0,0
1684078653.59977603,110228391,1000,1000,1000,1000,0,0,0,0,0,0,0,0,0,0
1684078653.69973612,110328351,1000,1000,1000,1000,0,0,0,0,0,0,0,0,0,0
1684078653.79969621,110428311,1000,1000,1000,1000,0,0,0,0,0,0,0,0,0,0
1684078653.89965606,110528271,1000,1000,1000,1000,0,0,0,0,0,0,0,0,0,0
1684078653.99961615,110628231,1000,1000,1000,1000,0,0,0,0,0,0,0,0,0,0
1684078654.09957600,110728191,1000,1000,1000,1000,0,0,0,0,0,0,0,0,0,0
1684078654.20036912,110828984,1000,1000,1000,1000,0,0,0,0,0,0,0,0,0,0
1684078654.30032921,110928944,1000,1000,1000,1000,0,0,0,0,0,0,0,0,0,0
1684078654.40028906,111028904,1000,1000,1000,1000,0,0,0,0,0,0,0,0,0,0
1684078654.50024915,111128864,1000,1000,1000,1000,0,0,0,0,0,0,0,0,0,0
1684078654.60020900,111228824,1000,1000,1000,1000,0,0,0,0,0,0,0,0,0,0
