timestamp,TimeUS,C1,C2,C3,C4,C5,C6,C7,C8,C9,C10,C11,C12,C13,C14
1683188773.30004001,46128208,1000,1000,1000,1000,0,0,0,0,0,0,0,0,0,0
1683188773.40000010,46228168,1000,1000,1000,1000,0,0,0,0,0,0,0,0,0,0
1683188773.50079298,46328961,1000,1000,1000,1000,0,0,0,0,0,0,0,0,0,0
1683188773.60075307,46428921,1000,1000,1000,1000,0,0,0,0,0,0,0,0,0,0
1683188773.70071316,46528881,1000,1000,1000,1000,0,0,0,0,0,0,0,0,0,0
1683188773.80067301,46628841,1000,1000,1000,1000,0,0,0,0,0,0,0,0,0,0
1683188773.90063310,46728801,1000,1000,1000,1000,0,0,0,0,0,0,0,0,0,0
1683188774.00059319,46828761,1000,1000,1000,1000,0,0,0,0,0,0,0,0,0,0
1683188774.10055304,46928721,1000,1000,1000,1000,0,0,0,0,0,0,0,0,0,0
1683188774.20051312,47028681,1000,1000,1000,1000,0,0,0,0,0,0,0,0,0,0
1683188774.30047297,47128641,1000,1000,1000,1000,0,0,0,0,0,0,0,0,0,0
1683188774.40043306,47228601,1000,1000,1000,1000,0,0,0,0,0,0,0,0,0,0
1683188774.50039315,47328561,1000,1000,1000,1000,0,0,0,0,0,0,0,0,0,0
1683188774.60035300,47428521,1000,1000,1000,1000,0,0,0,0,0,0,0,0,0,0
1683188774.70031309,47528481,1000,1000,1000,1000,0,0,0,0,0,0,0,0,0,0
1683188774.80027318,47628441,1000,1000,1000,1000,0,0,0,0,0,0,0,0,0,0
1683188774.90023303,47728401,1000,1000,1000,1000,0,0,0,0,0,0,0,0,0,0
1683188775.00019312,47828361,1000,1000,1000,1000,0,0,0,0,0,0,0,0,0,0
1683188775.10015297,47928321,1000,1000,1000,1000,0,0,0,0,0,0,0,0,0,0
1683188775.20011306,48028281,1000,1000,1000,1000,0,0,0,0,0,0,0,0,0,0
1683188775.30007315,48128241,1003,1003,1003,1003,0,0,0,0,0,0,0,0,0,0
1683188775.40003300,48228201,1033,1033,1033,1033,0,0,0,0,0,0,0,0,0,0
1683188775.49999309,48328161,1063,1063,1063,1063,0,0,0,0,0,0,0,0,0,0
1683188775.60078597,48428954,1093,1093,1093,1093,0,0,0,0,0,0,0,0,0,0
1683188775.70074606,48528914,1122,1122,1122,1122,0,0,0,0,0,0,0,0,0,0
1683188775.80070615,48628874,1177,1170,1171,1177,0,0,0,0,0,0,0,0,0,0
1683188775.90066600,48728834,1419,1415,1415,1419,0,0,0,0,0,0,0,0,0,0
1683188776.00062609,48828794,1595,1591,1591,1595,0,0,0,0,0,0,0,0,0,0
1683188776.10058618,48928754,1740,1736,1736,1740,0,0,0,0,0,0,0,0,0,0
1683188776.20054603,49028714,1860,1857,1857,1860,0,0,0,0,0,0,0,0,0,0
1683188776.30050611,49128674,1859,1855,1856,1859,0,0,0,0,0,0,0,0,0,0
1683188776.40046620,49228634,1786,1784,1784,1786,0,0,0,0,0,0,0,0,0,0
1683188776.50042605,49328594,1663,1662,1663,1662,0,0,0,0,0,0,0,0,0,0
1683188776.60038614,49428554,1609,1611,1610,1609,0,0,0,0,0,0,0,0,0,0
1683188776.70034599,49528514,1611,1613,1613,1612,0,0,0,0,0,0,0,0,0,0
1683188776.80030608,49628474,1628,1630,1630,1628,0,0,0,0,0,0,0,0,0,0
1683188776.90026617,49728434,1637,1637,1637,1636,0,0,0,0,0,0,0,0,0,0
1683188777.00022602,49828394,1634,1633,1633,1633,0,0,0,0,0,0,0,0,0,0
1683188777.10018611,49928354,1627,1626,1626,1627,0,0,0,0,0,0,0,0,0,0
1683188777.20014620,50028314,1621,1621,1620,1621,0,0,0,0,0,0,0,0,0,0
1683188777.30010605,50128274,1618,1618,1618,1619,0,0,0,0,0,0,0,0,0,0
1683188777.40006614,50228234,1618,1618,1618,1618,0,0,0,0,0,0,0,0,0,0
1683188777.50002599,50328194,1619,1619,1619,1619,0,0,0,0,0,0,0,0,0,0
1683188777.59998608,50428154,1620,1620,1620,1620,0,0,0,0,0,0,0,0,0,0
1683188777.70077920,50528947,1621,1621,1621,1621,0,0,0,0,0,0,0,0,0,0
1683188777.80073905,50628907,1622,1622,1622,1622,0,0,0,0,0,0,0,0,0,0
1683188777.90069914,50728867,1620,1623,1622,1621,0,0,0,0,0,0,0,0,0,0
1683188778.00065899,50828827,1589,1589,1589,1589,0,0,0,0,0,0,0,0,0,0
1683188778.10061908,50928787,1577,1576,1576,1577,0,0,0,0,0,0,0,0,0,0
1683188778.20057917,51028747,1566,1566,1565,1566,0,0,0,0,0,0,0,0,0,0
1683188778.30053902,51128707,1555,1555,1554,1556,0,0,0,0,0,0,0,0,0,0
1683188778.40049911,51228667,1546,1546,1545,1547,0,0,0,0,0,0,0,0,0,0
1683188778.50045919,51328627,1536,1536,1535,1537,0,0,0,0,0,0,0,0,0,0
1683188778.60041904,51428587,1527,1527,1527,1528,0,0,0,0,0,0,0,0,0,0
1683188778.70037913,51528547,1517,1517,1517,1517,0,0,0,0,0,0,0,0,0,0
1683188778.80033898,51628507,1512,1512,1512,1512,0,0,0,0,0,0,0,0,0,0
1683188778.90029907,51728467,1509,1509,1509,1509,0,0,0,0,0,0,0,0,0,0
1683188779.00025916,51828427,1508,1508,1507,1508,0,0,0,0,0,0,0,0,0,0
1683188779.10021901,51928387,1507,1507,1507,1508,0,0,0,0,0,0,0,0,0,0
1683188779.20017910,52028347,1506,1506,1506,1507,0,0,0,0,0,0,0,0,0,0
1683188779.30013919,52128307,1506,1505,1505,1506,0,0,0,0,0,0,0,0,0,0
1683188779.40009904,52228267,1505,1505,1505,1505,0,0,0,0,0,0,0,0,0,0
1683188779.50005913,52328227,1506,1506,1506,1506,0,0,0,0,0,0,0,0,0,0
1683188779.60001898,52428187,1512,1512,1512,1512,0,0,0,0,0,0,0,0,0,0
1683188779.70081210,52528980,1538,1538,1544,1531,0,0,0,0,0,0,0,0,0,0
1683188779.80077219,52628940,1548,1548,1552,1544,0,0,0,0,0,0,0,0,0,0
1683188779.90073204,52728900,1556,1556,1555,1556,0,0,0,0,0,0,0,0,0,0
1683188780.00069213,52828860,1560,1560,1556,1563,0,0,0,0,0,0,0,0,0,0
1683188780.10065198,52928820,1563,1563,1558,1568,0,0,0,0,0,0,0,0,0,0
1683188780.20061207,53028780,1565,1564,1560,1569,0,0,0,0,0,0,0,0,0,0
1683188780.30057216,53128740,1566,1566,1564,1569,0,0,0,0,0,0,0,0,0,0
1683188780.40053201,53228700,1569,1569,1570,1568,0,0,0,0,0,0,0,0,0,0
1683188780.50049210,53328660,1570,1570,1573,1567,0,0,0,0,0,0,0,0,0,0
1683188780.60045218,53428620,1571,1571,1575,1568,0,0,0,0,0,0,0,0,0,0
1683188780.70041203,53528580,1572,1572,1574,1570,0,0,0,0,0,0,0,0,0,0
1683188780.80037212,53628540,1571,1571,1572,1570,0,0,0,0,0,0,0,0,0,0
1683188780.90033197,53728500,1570,1570,1569,1572,0,0,0,0,0,0,0,0,0,0
1683188781.00029206,53828460,1565,1565,1573,1578,0,0,0,0,0,0,0,0,0,0
1683188781.10025215,53928420,1563,1564,1573,1578,0,0,0,0,0,0,0,0,0,0
1683188781.20021200,54028380,1565,1566,1573,1575,0,0,0,0,0,0,0,0,0,0
1683188781.30017209,54128340,1566,1567,1571,1571,0,0,0,0,0,0,0,0,0,0
1683188781.40013218,54228300,1569,1569,1569,1569,0,0,0,0,0,0,0,0,0,0
1683188781.50009203,54328260,1571,1570,1568,1567,0,0,0,0,0,0,0,0,0,0
1683188781.60005212,54428220,1572,1573,1567,1566,0,0,0,0,0,0,0,0,0,0
1683188781.70001197,54528180,1573,1573,1566,1565,0,0,0,0,0,0,0,0,0,0
1683188781.80080509,54628973,1574,1573,1565,1565,0,0,0,0,0,0,0,0,0,0
1683188781.90076518,54728933,1574,1573,1565,1567,0,0,0,0,0,0,0,0,0,0
1683188782.00072503,54828893,1574,1573,1567,1568,0,0,0,0,0,0,0,0,0,0
1683188782.10068512,54928853,1574,1573,1569,1570,0,0,0,0,0,0,0,0,0,0
1683188782.20064497,55028813,1573,1573,1571,1571,0,0,0,0,0,0,0,0,0,0
1683188782.30060506,55128773,1573,1574,1573,1573,0,0,0,0,0,0,0,0,0,0
1683188782.40056515,55228733,1574,1574,1576,1574,0,0,0,0,0,0,0,0,0,0
1683188782.50052500,55328693,1573,1574,1577,1575,0,0,0,0,0,0,0,0,0,0
1683188782.60048509,55428653,1574,1574,1577,1576,0,0,0,0,0,0,0,0,0,0
1683188782.70044518,55528613,1574,1574,1577,1577,0,0,0,0,0,0,0,0,0,0
1683188782.80040503,55628573,1575,1575,1578,1577,0,0,0,0,0,0,0,0,0,0
1683188782.90036511,55728533,1576,1576,1578,1578,0,0,0,0,0,0,0,0,0,0
1683188783.00032520,55828493,1576,1576,1578,1578,0,0,0,0,0,0,0,0,0,0
1683188783.10028505,55928453,1577,1576,1577,1578,0,0,0,0,0,0,0,0,0,0
1683188783.20024514,56028413,1578,1578,1578,1578,0,0,0,0,0,0,0,0,0,0
1683188783.30020499,56128373,1578,1578,1578,1578,0,0,0,0,0,0,0,0,0,0
1683188783.40016508,56228333,1578,1579,1578,1578,0,0,0,0,0,0,0,0,0,0
1683188783.50012517,56328293,1578,1578,1577,1577,0,0,0,0,0,0,0,0,0,0
1683188783.60008502,56428253,1578,1578,1577,1577,0,0,0,0,0,0,0,0,0,0
1683188783.70004511,56528213,1579,1579,1578,1578,0,0,0,0,0,0,0,0,0,0
1683188783.80000520,56628173,1579,1579,1578,1578,0,0,0,0,0,0,0,0,0,0
1683188783.90079808,56728966,1579,1579,1578,1578,0,0,0,0,0,0,0,0,0,0
1683188784.00075817,56828926,1579,1579,1578,1578,0,0,0,0,0,0,0,0,0,0
1683188784.10071802,56928886,1579,1579,1579,1579,0,0,0,0,0,0,0,0,0,0
1683188784.20067811,57028846,1579,1579,1579,1579,0,0,0,0,0,0,0,0,0,0
1683188784.30063820,57128806,1578,1579,1579,1579,0,0,0,0,0,0,0,0,0,0
1683188784.40059805,57228766,1579,1579,1579,1579,0,0,0,0,0,0,0,0,0,0
1683188784.50055814,57328726,1579,1579,1580,1580,0,0,0,0,0,0,0,0,0,0
1683188784.60051799,57428686,1580,1580,1580,1580,0,0,0,0,0,0,0,0,0,0
1683188784.70047808,57528646,1579,1579,1580,1580,0,0,0,0,0,0,0,0,0,0
1683188784.80043817,57628606,1579,1579,1579,1579,0,0,0,0,0,0,0,0,0,0
1683188784.90039802,57728566,1579,1579,1580,1580,0,0,0,0,0,0,0,0,0,0
1683188785.00035810,57828526,1579,1579,1580,1580,0,0,0,0,0,0,0,0,0,0
1683188785.10031819,57928486,1580,1581,1581,1580,0,0,0,0,0,0,0,0,0,0
1683188785.20027804,58028446,1580,1579,1580,1579,0,0,0,0,0,0,0,0,0,0
1683188785.30023813,58128406,1580,1580,1580,1580,0,0,0,0,0,0,0,0,0,0
1683188785.40019798,58228366,1580,1581,1580,1580,0,0,0,0,0,0,0,0,0,0
1683188785.50015807,58328326,1580,1580,1580,1580,0,0,0,0,0,0,0,0,0,0
1683188785.60011816,58428286,1580,1580,1580,1580,0,0,0,0,0,0,0,0,0,0
1683188785.70007801,58528246,1581,1581,1581,1580,0,0,0,0,0,0,0,0,0,0
1683188785.80003810,58628206,1580,1581,1580,1580,0,0,0,0,0,0,0,0,0,0
1683188785.89999819,58728166,1580,1580,1580,1580,0,0,0,0,0,0,0,0,0,0
1683188786.00079107,58828959,1581,1581,1581,1581,0,0,0,0,0,0,0,0,0,0
1683188786.10075116,58928919,1581,1581,1580,1581,0,0,0,0,0,0,0,0,0,0
1683188786.20071101,59028879,1581,1582,1582,1581,0,0,0,0,0,0,0,0,0,0
1683188786.30067110,59128839,1581,1581,1581,1581,0,0,0,0,0,0,0,0,0,0
1683188786.40063119,59228799,1581,1581,1581,1581,0,0,0,0,0,0,0,0,0,0
1683188786.50059104,59328759,1581,1581,1581,1581,0,0,0,0,0,0,0,0,0,0
1683188786.60055113,59428719,1581,1581,1581,1581,0,0,0,0,0,0,0,0,0,0
1683188786.70051098,59528679,1580,1580,1580,1581,0,0,0,0,0,0,0,0,0,0
1683188786.80047107,59628639,1580,1580,1580,1580,0,0,0,0,0,0,0,0,0,0
1683188786.90043116,59728599,1580,1580,1580,1580,0,0,0,0,0,0,0,0,0,0
1683188787.00039101,59828559,1580,1581,1580,1581,0,0,0,0,0,0,0,0,0,0
1683188787.10035110,59928519,1581,1581,1581,1581,0,0,0,0,0,0,0,0,0,0
1683188787.20031118,60028479,1581,1581,1583,1579,0,0,0,0,0,0,0,0,0,0
1683188787.30027103,60128439,1581,1582,1588,1573,0,0,0,0,0,0,0,0,0,0
1683188787.40023112,60228399,1580,1583,1584,1573,0,0,0,0,0,0,0,0,0,0
1683188787.50019097,60328359,1578,1581,1575,1574,0,0,0,0,0,0,0,0,0,0
1683188787.60015106,60428319,1577,1580,1566,1572,0,0,0,0,0,0,0,0,0,0
1683188787.70011115,60528279,1577,1578,1559,1566,0,0,0,0,0,0,0,0,0,0
1683188787.80007100,60628239,1578,1578,1557,1562,0,0,0,0,0,0,0,0,0,0
1683188787.90003109,60728199,1578,1578,1555,1558,0,0,0,0,0,0,0,0,0,0
1683188787.99999118,60828159,1579,1578,1555,1556,0,0,0,0,0,0,0,0,0,0
1683188788.10078406,60928952,1578,1578,1556,1554,0,0,0,0,0,0,0,0,0,0
1683188788.20074415,61028912,1578,1578,1556,1554,0,0,0,0,0,0,0,0,0,0
1683188788.30070400,61128872,1576,1577,1556,1553,0,0,0,0,0,0,0,0,0,0
1683188788.40066409,61228832,1575,1576,1554,1554,0,0,0,0,0,0,0,0,0,0
1683188788.50062418,61328792,1575,1576,1554,1555,0,0,0,0,0,0,0,0,0,0
1683188788.60058403,61428752,1575,1577,1553,1554,0,0,0,0,0,0,0,0,0,0
1683188788.70054412,61528712,1574,1576,1550,1551,0,0,0,0,0,0,0,0,0,0
1683188788.80050397,61628672,1576,1578,1549,1549,0,0,0,0,0,0,0,0,0,0
1683188788.90046406,61728632,1578,1580,1548,1547,0,0,0,0,0,0,0,0,0,0
1683188789.00042415,61828592,1580,1581,1544,1544,0,0,0,0,0,0,0,0,0,0
1683188789.10038400,61928552,1584,1584,1542,1541,0,0,0,0,0,0,0,0,0,0
1683188789.20034409,62028512,1587,1587,1539,1539,0,0,0,0,0,0,0,0,0,0
1683188789.30030417,62128472,1591,1591,1537,1537,0,0,0,0,0,0,0,0,0,0
1683188789.40026402,62228432,1592,1593,1535,1535,0,0,0,0,0,0,0,0,0,0
1683188789.50022411,62328392,1594,1594,1534,1535,0,0,0,0,0,0,0,0,0,0
1683188789.60018420,62428352,1594,1594,1535,1536,0,0,0,0,0,0,0,0,0,0
1683188789.70014405,62528312,1594,1594,1537,1539,0,0,0,0,0,0,0,0,0,0
1683188789.80010414,62628272,1591,1591,1540,1543,0,0,0,0,0,0,0,0,0,0
1683188789.90006399,62728232,1588,1586,1546,1549,0,0,0,0,0,0,0,0,0,0
1683188790.00002408,62828192,1581,1578,1554,1556,0,0,0,0,0,0,0,0,0,0
1683188790.10081720,62928985,1573,1569,1564,1567,0,0,0,0,0,0,0,0,0,0
1683188790.20077705,63028945,1563,1559,1577,1578,0,0,0,0,0,0,0,0,0,0
1683188790.30073714,63128905,1551,1548,1589,1590,0,0,0,0,0,0,0,0,0,0
1683188790.40069699,63228865,1540,1538,1599,1599,0,0,0,0,0,0,0,0,0,0
1683188790.50065708,63328825,1534,1533,1608,1607,0,0,0,0,0,0,0,0,0,0
1683188790.60061717,63428785,1530,1531,1613,1612,0,0,0,0,0,0,0,0,0,0
1683188790.70057702,63528745,1530,1531,1615,1614,0,0,0,0,0,0,0,0,0,0
1683188790.80053711,63628705,1532,1535,1613,1612,0,0,0,0,0,0,0,0,0,0
1683188790.90049720,63728665,1539,1541,1609,1608,0,0,0,0,0,0,0,0,0,0
1683188791.00045705,63828625,1547,1548,1602,1602,0,0,0,0,0,0,0,0,0,0
1683188791.10041714,63928585,1556,1556,1595,1595,0,0,0,0,0,0,0,0,0,0
1683188791.20037699,64028545,1563,1564,1586,1586,0,0,0,0,0,0,0,0,0,0
1683188791.30033708,64128505,1572,1571,1580,1579,0,0,0,0,0,0,0,0,0,0
1683188791.40029716,64228465,1579,1578,1575,1574,0,0,0,0,0,0,0,0,0,0
1683188791.50025702,64328425,1583,1582,1570,1569,0,0,0,0,0,0,0,0,0,0
1683188791.60021710,64428385,1587,1585,1567,1567,0,0,0,0,0,0,0,0,0,0
1683188791.70017719,64528345,1587,1585,1566,1566,0,0,0,0,0,0,0,0,0,0
1683188791.80013704,64628305,1242,1241,1571,1571,0,0,0,0,0,0,0,0,0,0
1683188791.90009713,64728265,1354,1360,1643,1652,0,0,0,0,0,0,0,0,0,0
1683188792.00005698,64828225,1424,1434,1644,1645,0,0,0,0,0,0,0,0,0,0
1683188792.10001707,64928185,1486,1495,1635,1628,0,0,0,0,0,0,0,0,0,0
1683188792.20081019,65028978,1536,1540,1627,1617,0,0,0,0,0,0,0,0,0,0
1683188792.30077004,65128938,1576,1569,1620,1609,0,0,0,0,0,0,0,0,0,0
1683188792.40073013,65228898,1600,1584,1580,1578,0,0,0,0,0,0,0,0,0,0
1683188792.50068998,65328858,1600,1587,1509,1519,0,0,0,0,0,0,0,0,0,0
1683188792.60065007,65428818,1600,1592,1484,1500,0,0,0,0,0,0,0,0,0,0
1683188792.70061016,65528778,1597,1600,1501,1511,0,0,0,0,0,0,0,0,0,0
1683188792.80057001,65628738,1591,1600,1517,1519,0,0,0,0,0,0,0,0,0,0
1683188792.90053010,65728698,1591,1600,1536,1533,0,0,0,0,0,0,0,0,0,0
1683188793.00049019,65828658,1594,1600,1554,1548,0,0,0,0,0,0,0,0,0,0
1683188793.10045004,65928618,1599,1600,1566,1563,0,0,0,0,0,0,0,0,0,0
1683188793.20041013,66028578,1600,1596,1570,1569,0,0,0,0,0,0,0,0,0,0
1683188793.30036998,66128538,1600,1596,1572,1574,0,0,0,0,0,0,0,0,0,0
1683188793.40033007,66228498,1600,1596,1576,1578,0,0,0,0,0,0,0,0,0,0
1683188793.50029016,66328458,1600,1598,1579,1582,0,0,0,0,0,0,0,0,0,0
1683188793.60025001,66428418,1599,1600,1583,1584,0,0,0,0,0,0,0,0,0,0
1683188793.70021009,66528378,1598,1600,1585,1584,0,0,0,0,0,0,0,0,0,0
1683188793.80017018,66628338,1600,1599,1588,1584,0,0,0,0,0,0,0,0,0,0
1683188793.90013003,66728298,1600,1599,1588,1587,0,0,0,0,0,0,0,0,0,0
1683188794.00009012,66828258,1599,1600,1588,1588,0,0,0,0,0,0,0,0,0,0
1683188794.10004997,66928218,1599,1600,1587,1588,0,0,0,0,0,0,0,0,0,0
1683188794.20001006,67028178,1599,1600,1587,1586,0,0,0,0,0,0,0,0,0,0
1683188794.30080318,67128971,1600,1599,1587,1586,0,0,0,0,0,0,0,0,0,0
1683188794.40076303,67228931,1600,1599,1587,1586,0,0,0,0,0,0,0,0,0,0
1683188794.50072312,67328891,1600,1599,1587,1586,0,0,0,0,0,0,0,0,0,0
1683188794.60068297,67428851,1599,1600,1586,1586,0,0,0,0,0,0,0,0,0,0
1683188794.70064306,67528811,1599,1600,1585,1586,0,0,0,0,0,0,0,0,0,0
1683188794.80060315,67628771,1599,1600,1585,1585,0,0,0,0,0,0,0,0,0,0
1683188794.90056300,67728731,1600,1599,1585,1585,0,0,0,0,0,0,0,0,0,0
1683188795.00052309,67828691,1599,1600,1584,1584,0,0,0,0,0,0,0,0,0,0
1683188795.10048318,67928651,1600,1599,1584,1584,0,0,0,0,0,0,0,0,0,0
1683188795.20044303,68028611,1600,1599,1585,1583,0,0,0,0,0,0,0,0,0,0
1683188795.30040312,68128571,1600,1590,1580,1575,0,0,0,0,0,0,0,0,0,0
1683188795.40036297,68228531,1600,1590,1578,1579,0,0,0,0,0,0,0,0,0,0
1683188795.50032306,68328491,1600,1596,1580,1585,0,0,0,0,0,0,0,0,0,0
1683188795.60028315,68428451,1593,1594,1575,1578,0,0,0,0,0,0,0,0,0,0
1683188795.70024300,68528411,1589,1595,1575,1575,0,0,0,0,0,0,0,0,0,0
1683188795.80020308,68628371,1588,1594,1575,1572,0,0,0,0,0,0,0,0,0,0
1683188795.90016317,68728331,1589,1593,1575,1571,0,0,0,0,0,0,0,0,0,0
1683188796.00012302,68828291,1588,1589,1572,1568,0,0,0,0,0,0,0,0,0,0
1683188796.10008311,68928251,1587,1587,1569,1566,0,0,0,0,0,0,0,0,0,0
1683188796.20004320,69028211,1586,1584,1565,1564,0,0,0,0,0,0,0,0,0,0
1683188796.30000305,69128171,1583,1582,1561,1561,0,0,0,0,0,0,0,0,0,0
1683188796.40079618,69228964,1581,1579,1557,1558,0,0,0,0,0,0,0,0,0,0
1683188796.50075603,69328924,1577,1578,1554,1555,0,0,0,0,0,0,0,0,0,0
1683188796.60071611,69428884,1574,1576,1551,1551,0,0,0,0,0,0,0,0,0,0
1683188796.70067620,69528844,1572,1574,1549,1549,0,0,0,0,0,0,0,0,0,0
1683188796.80063605,69628804,1570,1572,1548,1546,0,0,0,0,0,0,0,0,0,0
1683188796.90059614,69728764,1570,1571,1547,1545,0,0,0,0,0,0,0,0,0,0
1683188797.00055599,69828724,1569,1570,1546,1545,0,0,0,0,0,0,0,0,0,0
1683188797.10051608,69928684,1569,1569,1546,1546,0,0,0,0,0,0,0,0,0,0
1683188797.20047617,70028644,1568,1569,1546,1545,0,0,0,0,0,0,0,0,0,0
1683188797.30043602,70128604,1569,1569,1547,1546,0,0,0,0,0,0,0,0,0,0
1683188797.40039611,70228564,1569,1569,1547,1547,0,0,0,0,0,0,0,0,0,0
1683188797.50035620,70328524,1569,1569,1546,1547,0,0,0,0,0,0,0,0,0,0
1683188797.60031605,70428484,1569,1570,1547,1547,0,0,0,0,0,0,0,0,0,0
1683188797.70027614,70528444,1570,1570,1548,1548,0,0,0,0,0,0,0,0,0,0
1683188797.80023599,70628404,1571,1571,1548,1549,0,0,0,0,0,0,0,0,0,0
1683188797.90019608,70728364,1571,1572,1548,1550,0,0,0,0,0,0,0,0,0,0
1683188798.00015616,70828324,1572,1573,1548,1551,0,0,0,0,0,0,0,0,0,0
1683188798.10011601,70928284,1573,1574,1550,1551,0,0,0,0,0,0,0,0,0,0
1683188798.20007610,71028244,1574,1575,1551,1552,0,0,0,0,0,0,0,0,0,0
1683188798.30003619,71128204,1575,1575,1551,1553,0,0,0,0,0,0,0,0,0,0
1683188798.39999604,71228164,1576,1576,1551,1553,0,0,0,0,0,0,0,0,0,0
1683188798.50078917,71328957,1576,1577,1552,1554,0,0,0,0,0,0,0,0,0,0
1683188798.60074902,71428917,1577,1577,1552,1554,0,0,0,0,0,0,0,0,0,0
1683188798.70070910,71528877,1578,1579,1554,1555,0,0,0,0,0,0,0,0,0,0
1683188798.80066919,71628837,1579,1579,1555,1556,0,0,0,0,0,0,0,0,0,0
1683188798.90062904,71728797,1580,1580,1556,1556,0,0,0,0,0,0,0,0,0,0
1683188799.00058913,71828757,1581,1579,1557,1558,0,0,0,0,0,0,0,0,0,0
1683188799.10054898,71928717,1582,1581,1559,1559,0,0,0,0,0,0,0,0,0,0
1683188799.20050907,72028677,1582,1581,1559,1560,0,0,0,0,0,0,0,0,0,0
1683188799.30046916,72128637,1583,1581,1562,1562,0,0,0,0,0,0,0,0,0,0
1683188799.40042901,72228597,1575,1568,1578,1580,0,0,0,0,0,0,0,0,0,0
1683188799.50038910,72328557,1558,1551,1598,1600,0,0,0,0,0,0,0,0,0,0
1683188799.60034919,72428517,1545,1541,1609,1611,0,0,0,0,0,0,0,0,0,0
1683188799.70030904,72528477,1537,1537,1613,1615,0,0,0,0,0,0,0,0,0,0
1683188799.80026913,72628437,1533,1538,1615,1614,0,0,0,0,0,0,0,0,0,0
1683188799.90022898,72728397,1534,1541,1616,1612,0,0,0,0,0,0,0,0,0,0
1683188800.00018907,72828357,1538,1544,1613,1609,0,0,0,0,0,0,0,0,0,0
1683188800.10014915,72928317,1543,1548,1608,1604,0,0,0,0,0,0,0,0,0,0
1683188800.20010900,73028277,1550,1552,1603,1600,0,0,0,0,0,0,0,0,0,0
1683188800.30006909,73128237,1556,1557,1596,1595,0,0,0,0,0,0,0,0,0,0
1683188800.40002918,73228197,1563,1562,1589,1590,0,0,0,0,0,0,0,0,0,0
1683188800.49998903,73328157,1568,1567,1584,1584,0,0,0,0,0,0,0,0,0,0
1683188800.60078216,73428950,1573,1571,1579,1580,0,0,0,0,0,0,0,0,0,0
1683188800.70074201,73528910,1577,1575,1576,1576,0,0,0,0,0,0,0,0,0,0
1683188800.80070210,73628870,1580,1579,1574,1574,0,0,0,0,0,0,0,0,0,0
1683188800.90066218,73728830,1583,1583,1573,1573,0,0,0,0,0,0,0,0,0,0
1683188801.00062203,73828790,1585,1585,1572,1572,0,0,0,0,0,0,0,0,0,0
1683188801.10058212,73928750,1586,1586,1572,1571,0,0,0,0,0,0,0,0,0,0
1683188801.20054197,74028710,1587,1587,1572,1572,0,0,0,0,0,0,0,0,0,0
1683188801.30050206,74128670,1588,1587,1572,1572,0,0,0,0,0,0,0,0,0,0
1683188801.40046215,74228630,1588,1588,1573,1573,0,0,0,0,0,0,0,0,0,0
1683188801.50042200,74328590,1588,1588,1574,1574,0,0,0,0,0,0,0,0,0,0
1683188801.60038209,74428550,1587,1586,1574,1574,0,0,0,0,0,0,0,0,0,0
1683188801.70034218,74528510,1586,1586,1574,1575,0,0,0,0,0,0,0,0,0,0
1683188801.80030203,74628470,1586,1585,1575,1575,0,0,0,0,0,0,0,0,0,0
1683188801.90026212,74728430,1585,1585,1576,1576,0,0,0,0,0,0,0,0,0,0
1683188802.00022197,74828390,1584,1584,1577,1577,0,0,0,0,0,0,0,0,0,0
1683188802.10018206,74928350,1584,1584,1578,1578,0,0,0,0,0,0,0,0,0,0
1683188802.20014215,75028310,1583,1583,1578,1578,0,0,0,0,0,0,0,0,0,0
1683188802.30010200,75128270,1582,1582,1579,1579,0,0,0,0,0,0,0,0,0,0
1683188802.40006208,75228230,1581,1581,1579,1579,0,0,0,0,0,0,0,0,0,0
1683188802.50002217,75328190,1581,1581,1580,1579,0,0,0,0,0,0,0,0,0,0
1683188802.60081506,75428983,1580,1580,1580,1580,0,0,0,0,0,0,0,0,0,0
1683188802.70077515,75528943,1579,1580,1579,1580,0,0,0,0,0,0,0,0,0,0
1683188802.80073500,75628903,1579,1579,1580,1580,0,0,0,0,0,0,0,0,0,0
1683188802.90069509,75728863,1579,1579,1580,1580,0,0,0,0,0,0,0,0,0,0
1683188803.00065517,75828823,1579,1579,1580,1579,0,0,0,0,0,0,0,0,0,0
1683188803.10061502,75928783,1580,1580,1581,1582,0,0,0,0,0,0,0,0,0,0
1683188803.20057511,76028743,1579,1580,1581,1580,0,0,0,0,0,0,0,0,0,0
1683188803.30053520,76128703,1580,1579,1581,1581,0,0,0,0,0,0,0,0,0,0
1683188803.40049505,76228663,1580,1580,1582,1582,0,0,0,0,0,0,0,0,0,0
1683188803.50045514,76328623,1580,1580,1581,1581,0,0,0,0,0,0,0,0,0,0
1683188803.60041499,76428583,1581,1581,1583,1582,0,0,0,0,0,0,0,0,0,0
1683188803.70037508,76528543,1580,1581,1581,1581,0,0,0,0,0,0,0,0,0,0
1683188803.80033517,76628503,1580,1580,1581,1580,0,0,0,0,0,0,0,0,0,0
1683188803.90029502,76728463,1580,1581,1580,1581,0,0,0,0,0,0,0,0,0,0
1683188804.00025511,76828423,1581,1581,1581,1581,0,0,0,0,0,0,0,0,0,0
1683188804.10021520,76928383,1580,1581,1580,1580,0,0,0,0,0,0,0,0,0,0
1683188804.20017505,77028343,1581,1581,1581,1581,0,0,0,0,0,0,0,0,0,0
1683188804.30013514,77128303,1582,1581,1587,1574,0,0,0,0,0,0,0,0,0,0
1683188804.40009499,77228263,1581,1580,1584,1573,0,0,0,0,0,0,0,0,0,0
1683188804.50005507,77328223,1580,1579,1577,1572,0,0,0,0,0,0,0,0,0,0
1683188804.60001516,77428183,1577,1578,1567,1570,0,0,0,0,0,0,0,0,0,0
1683188804.70080805,77528976,1575,1577,1560,1567,0,0,0,0,0,0,0,0,0,0
1683188804.80076814,77628936,1574,1576,1557,1563,0,0,0,0,0,0,0,0,0,0
1683188804.90072799,77728896,1574,1576,1557,1560,0,0,0,0,0,0,0,0,0,0
1683188805.00068808,77828856,1574,1576,1557,1557,0,0,0,0,0,0,0,0,0,0
1683188805.10064816,77928816,1574,1575,1558,1556,0,0,0,0,0,0,0,0,0,0
1683188805.20060802,78028776,1574,1575,1557,1555,0,0,0,0,0,0,0,0,0,0
1683188805.30056810,78128736,1575,1574,1557,1555,0,0,0,0,0,0,0,0,0,0
1683188805.40052819,78228696,1574,1574,1556,1554,0,0,0,0,0,0,0,0,0,0
1683188805.50048804,78328656,1575,1575,1555,1554,0,0,0,0,0,0,0,0,0,0
1683188805.60044813,78428616,1575,1575,1552,1553,0,0,0,0,0,0,0,0,0,0
1683188805.70040798,78528576,1575,1576,1551,1552,0,0,0,0,0,0,0,0,0,0
1683188805.80036807,78628536,1576,1577,1550,1550,0,0,0,0,0,0,0,0,0,0
1683188805.90032816,78728496,1576,1578,1548,1548,0,0,0,0,0,0,0,0,0,0
1683188806.00028801,78828456,1577,1580,1547,1546,0,0,0,0,0,0,0,0,0,0
1683188806.10024810,78928416,1580,1581,1546,1545,0,0,0,0,0,0,0,0,0,0
1683188806.20020819,79028376,1582,1583,1543,1542,0,0,0,0,0,0,0,0,0,0
1683188806.30016804,79128336,1585,1586,1543,1542,0,0,0,0,0,0,0,0,0,0
1683188806.40012813,79228296,1587,1587,1541,1540,0,0,0,0,0,0,0,0,0,0
1683188806.50008798,79328256,1589,1588,1539,1539,0,0,0,0,0,0,0,0,0,0
1683188806.60004807,79428216,1590,1589,1538,1539,0,0,0,0,0,0,0,0,0,0
1683188806.70000815,79528176,1591,1590,1540,1541,0,0,0,0,0,0,0,0,0,0
1683188806.80080104,79628969,1591,1590,1542,1544,0,0,0,0,0,0,0,0,0,0
1683188806.90076113,79728929,1589,1588,1544,1547,0,0,0,0,0,0,0,0,0,0
1683188807.00072098,79828889,1586,1585,1547,1550,0,0,0,0,0,0,0,0,0,0
1683188807.10068107,79928849,1582,1582,1551,1555,0,0,0,0,0,0,0,0,0,0
1683188807.20064116,80028809,1577,1577,1558,1561,0,0,0,0,0,0,0,0,0,0
1683188807.30060101,80128769,1572,1571,1565,1568,0,0,0,0,0,0,0,0,0,0
1683188807.40056109,80228729,1567,1564,1574,1576,0,0,0,0,0,0,0,0,0,0
1683188807.50052118,80328689,1559,1556,1582,1583,0,0,0,0,0,0,0,0,0,0
1683188807.60048103,80428649,1551,1548,1591,1590,0,0,0,0,0,0,0,0,0,0
1683188807.70044112,80528609,1543,1541,1600,1599,0,0,0,0,0,0,0,0,0,0
1683188807.80040097,80628569,1536,1536,1607,1605,0,0,0,0,0,0,0,0,0,0
1683188807.90036106,80728529,1532,1533,1610,1609,0,0,0,0,0,0,0,0,0,0
1683188808.00032115,80828489,1530,1533,1610,1610,0,0,0,0,0,0,0,0,0,0
1683188808.10028100,80928449,1531,1534,1607,1607,0,0,0,0,0,0,0,0,0,0
1683188808.20024109,81028409,1536,1539,1602,1602,0,0,0,0,0,0,0,0,0,0
1683188808.30020118,81128369,1543,1545,1597,1597,0,0,0,0,0,0,0,0,0,0
1683188808.40016103,81228329,1551,1552,1590,1590,0,0,0,0,0,0,0,0,0,0
1683188808.50012112,81328289,1559,1560,1584,1583,0,0,0,0,0,0,0,0,0,0
1683188808.60008097,81428249,1567,1566,1577,1576,0,0,0,0,0,0,0,0,0,0
1683188808.70004106,81528209,1575,1574,1573,1572,0,0,0,0,0,0,0,0,0,0
1683188808.80000114,81628169,1581,1580,1568,1568,0,0,0,0,0,0,0,0,0,0
1683188808.90079403,81728962,1585,1584,1566,1566,0,0,0,0,0,0,0,0,0,0
1683188809.00075412,81828922,1588,1587,1566,1566,0,0,0,0,0,0,0,0,0,0
1683188809.10071397,81928882,1590,1588,1567,1567,0,0,0,0,0,0,0,0,0,0
1683188809.20067406,82028842,1589,1588,1568,1569,0,0,0,0,0,0,0,0,0,0
1683188809.30063415,82128802,1589,1588,1571,1571,0,0,0,0,0,0,0,0,0,0
1683188809.40059400,82228762,1587,1586,1572,1573,0,0,0,0,0,0,0,0,0,0
1683188809.50055408,82328722,1585,1585,1575,1575,0,0,0,0,0,0,0,0,0,0
1683188809.60051417,82428682,1583,1583,1577,1577,0,0,0,0,0,0,0,0,0,0
1683188809.70047402,82528642,1581,1582,1579,1579,0,0,0,0,0,0,0,0,0,0
1683188809.80043411,82628602,1579,1580,1581,1580,0,0,0,0,0,0,0,0,0,0
1683188809.90039420,82728562,1577,1578,1582,1582,0,0,0,0,0,0,0,0,0,0
1683188810.00035405,82828522,1576,1577,1584,1583,0,0,0,0,0,0,0,0,0,0
1683188810.10031414,82928482,1575,1576,1584,1584,0,0,0,0,0,0,0,0,0,0
1683188810.20027399,83028442,1575,1575,1584,1584,0,0,0,0,0,0,0,0,0,0
1683188810.30023408,83128402,1575,1575,1584,1585,0,0,0,0,0,0,0,0,0,0
1683188810.40019417,83228362,1574,1575,1583,1583,0,0,0,0,0,0,0,0,0,0
1683188810.50015402,83328322,1575,1576,1581,1582,0,0,0,0,0,0,0,0,0,0
1683188810.60011411,83428282,1576,1576,1581,1581,0,0,0,0,0,0,0,0,0,0
1683188810.70007420,83528242,1578,1578,1581,1581,0,0,0,0,0,0,0,0,0,0
1683188810.80003405,83628202,1580,1579,1580,1580,0,0,0,0,0,0,0,0,0,0
1683188810.89999413,83728162,1580,1579,1579,1579,0,0,0,0,0,0,0,0,0,0
1683188811.00078702,83828955,1581,1581,1578,1578,0,0,0,0,0,0,0,0,0,0
1683188811.10074711,83928915,1582,1582,1579,1579,0,0,0,0,0,0,0,0,0,0
1683188811.20070720,84028875,1583,1582,1579,1579,0,0,0,0,0,0,0,0,0,0
1683188811.30066705,84128835,1582,1582,1578,1578,0,0,0,0,0,0,0,0,0,0
1683188811.40062714,84228795,1582,1583,1577,1579,0,0,0,0,0,0,0,0,0,0
1683188811.50058699,84328755,1582,1582,1577,1578,0,0,0,0,0,0,0,0,0,0
1683188811.60054708,84428715,1582,1581,1578,1579,0,0,0,0,0,0,0,0,0,0
1683188811.70050716,84528675,1582,1582,1580,1580,0,0,0,0,0,0,0,0,0,0
1683188811.80046701,84628635,1582,1582,1582,1581,0,0,0,0,0,0,0,0,0,0
1683188811.90042710,84728595,1581,1581,1582,1581,0,0,0,0,0,0,0,0,0,0
1683188812.00038719,84828555,1581,1581,1582,1582,0,0,0,0,0,0,0,0,0,0
1683188812.10034704,84928515,1581,1581,1582,1582,0,0,0,0,0,0,0,0,0,0
1683188812.20030713,85028475,1581,1581,1582,1583,0,0,0,0,0,0,0,0,0,0
1683188812.30026698,85128435,1581,1581,1582,1582,0,0,0,0,0,0,0,0,0,0
1683188812.40022707,85228395,1581,1581,1582,1582,0,0,0,0,0,0,0,0,0,0
1683188812.50018716,85328355,1581,1581,1582,1582,0,0,0,0,0,0,0,0,0,0
1683188812.60014701,85428315,1580,1580,1587,1575,0,0,0,0,0,0,0,0,0,0
1683188812.70010710,85528275,1581,1579,1586,1574,0,0,0,0,0,0,0,0,0,0
1683188812.80006719,85628235,1578,1577,1579,1574,0,0,0,0,0,0,0,0,0,0
1683188812.90002704,85728195,1575,1574,1570,1573,0,0,0,0,0,0,0,0,0,0
1683188812.99998713,85828155,1572,1572,1565,1572,0,0,0,0,0,0,0,0,0,0
1683188813.10078001,85928948,1570,1570,1563,1571,0,0,0,0,0,0,0,0,0,0
1683188813.20074010,86028908,1568,1569,1563,1567,0,0,0,0,0,0,0,0,0,0
1683188813.30070019,86128868,1567,1568,1566,1567,0,0,0,0,0,0,0,0,0,0
1683188813.40066004,86228828,1566,1567,1567,1565,0,0,0,0,0,0,0,0,0,0
1683188813.50062013,86328788,1566,1566,1567,1565,0,0,0,0,0,0,0,0,0,0
1683188813.60057998,86428748,1565,1565,1568,1565,0,0,0,0,0,0,0,0,0,0
1683188813.70054007,86528708,1565,1565,1568,1566,0,0,0,0,0,0,0,0,0,0
1683188813.80050015,86628668,1564,1564,1566,1565,0,0,0,0,0,0,0,0,0,0
1683188813.90046000,86728628,1563,1562,1564,1564,0,0,0,0,0,0,0,0,0,0
1683188814.00042009,86828588,1562,1562,1563,1564,0,0,0,0,0,0,0,0,0,0
1683188814.10038018,86928548,1561,1561,1562,1562,0,0,0,0,0,0,0,0,0,0
1683188814.20034003,87028508,1561,1561,1561,1562,0,0,0,0,0,0,0,0,0,0
1683188814.30030012,87128468,1560,1560,1561,1561,0,0,0,0,0,0,0,0,0,0
1683188814.40025997,87228428,1560,1560,1560,1560,0,0,0,0,0,0,0,0,0,0
1683188814.50022006,87328388,1560,1560,1561,1560,0,0,0,0,0,0,0,0,0,0
1683188814.60018015,87428348,1560,1560,1561,1560,0,0,0,0,0,0,0,0,0,0
1683188814.70014000,87528308,1560,1560,1560,1559,0,0,0,0,0,0,0,0,0,0
1683188814.80010009,87628268,1560,1560,1561,1559,0,0,0,0,0,0,0,0,0,0
1683188814.90006018,87728228,1560,1560,1560,1559,0,0,0,0,0,0,0,0,0,0
1683188815.00002003,87828188,1560,1559,1560,1559,0,0,0,0,0,0,0,0,0,0
1683188815.10081315,87928981,1560,1559,1560,1559,0,0,0,0,0,0,0,0,0,0
1683188815.20077300,88028941,1559,1559,1559,1558,0,0,0,0,0,0,0,0,0,0
1683188815.30073309,88128901,1559,1558,1559,1557,0,0,0,0,0,0,0,0,0,0
1683188815.40069318,88228861,1559,1558,1560,1558,0,0,0,0,0,0,0,0,0,0
1683188815.50065303,88328821,1560,1559,1558,1561,0,0,0,0,0,0,0,0,0,0
1683188815.60061312,88428781,1560,1560,1558,1563,0,0,0,0,0,0,0,0,0,0
1683188815.70057297,88528741,1559,1561,1557,1563,0,0,0,0,0,0,0,0,0,0
1683188815.80053306,88628701,1560,1561,1558,1562,0,0,0,0,0,0,0,0,0,0
1683188815.90049314,88728661,1559,1560,1558,1560,0,0,0,0,0,0,0,0,0,0
1683188816.00045300,88828621,1558,1558,1558,1556,0,0,0,0,0,0,0,0,0,0
1683188816.10041308,88928581,1558,1558,1559,1557,0,0,0,0,0,0,0,0,0,0
1683188816.20037317,89028541,1558,1558,1555,1558,0,0,0,0,0,0,0,0,0,0
1683188816.30033302,89128501,1555,1555,1552,1555,0,0,0,0,0,0,0,0,0,0
1683188816.40029311,89228461,1551,1551,1547,1549,0,0,0,0,0,0,0,0,0,0
1683188816.50025320,89328421,1547,1547,1543,1544,0,0,0,0,0,0,0,0,0,0
1683188816.60021305,89428381,1542,1542,1537,1536,0,0,0,0,0,0,0,0,0,0
1683188816.70017314,89528341,1535,1535,1530,1529,0,0,0,0,0,0,0,0,0,0
1683188816.80013299,89628301,1529,1529,1524,1523,0,0,0,0,0,0,0,0,0,0
1683188816.90009308,89728261,1524,1523,1519,1519,0,0,0,0,0,0,0,0,0,0
1683188817.00005317,89828221,1521,1521,1518,1519,0,0,0,0,0,0,0,0,0,0
1683188817.10001302,89928181,1520,1520,1520,1521,0,0,0,0,0,0,0,0,0,0
1683188817.20080614,90028974,1519,1519,1523,1523,0,0,0,0,0,0,0,0,0,0
1683188817.30076599,90128934,1521,1521,1528,1528,0,0,0,0,0,0,0,0,0,0
1683188817.40072608,90228894,1525,1525,1534,1534,0,0,0,0,0,0,0,0,0,0
1683188817.50068617,90328854,1529,1528,1538,1538,0,0,0,0,0,0,0,0,0,0
1683188817.60064602,90428814,1533,1532,1543,1542,0,0,0,0,0,0,0,0,0,0
1683188817.70060611,90528774,1536,1536,1545,1544,0,0,0,0,0,0,0,0,0,0
1683188817.80056620,90628734,1538,1539,1545,1545,0,0,0,0,0,0,0,0,0,0
1683188817.90052605,90728694,1542,1542,1546,1545,0,0,0,0,0,0,0,0,0,0
1683188818.00048614,90828654,1544,1544,1545,1545,0,0,0,0,0,0,0,0,0,0
1683188818.10044599,90928614,1546,1546,1545,1545,0,0,0,0,0,0,0,0,0,0
1683188818.20040607,91028574,1548,1549,1545,1545,0,0,0,0,0,0,0,0,0,0
1683188818.30036616,91128534,1550,1550,1545,1545,0,0,0,0,0,0,0,0,0,0
1683188818.40032601,91228494,1549,1550,1544,1543,0,0,0,0,0,0,0,0,0,0
1683188818.50028610,91328454,1551,1550,1545,1544,0,0,0,0,0,0,0,0,0,0
1683188818.60024619,91428414,1550,1550,1544,1544,0,0,0,0,0,0,0,0,0,0
1683188818.70020604,91528374,1550,1549,1544,1544,0,0,0,0,0,0,0,0,0,0
1683188818.80016613,91628334,1549,1549,1545,1545,0,0,0,0,0,0,0,0,0,0
1683188818.90012598,91728294,1548,1548,1545,1545,0,0,0,0,0,0,0,0,0,0
1683188819.00008607,91828254,1547,1547,1545,1545,0,0,0,0,0,0,0,0,0,0
1683188819.10004616,91928214,1546,1546,1545,1545,0,0,0,0,0,0,0,0,0,0
1683188819.20000601,92028174,1545,1545,1545,1546,0,0,0,0,0,0,0,0,0,0
1683188819.30079913,92128967,1544,1545,1546,1545,0,0,0,0,0,0,0,0,0,0
1683188819.40075898,92228927,1544,1544,1546,1546,0,0,0,0,0,0,0,0,0,0
1683188819.50071907,92328887,1544,1544,1546,1546,0,0,0,0,0,0,0,0,0,0
1683188819.60067916,92428847,1544,1544,1547,1547,0,0,0,0,0,0,0,0,0,0
1683188819.70063901,92528807,1543,1543,1545,1545,0,0,0,0,0,0,0,0,0,0
1683188819.80059910,92628767,1542,1542,1544,1544,0,0,0,0,0,0,0,0,0,0
1683188819.90055919,92728727,1542,1542,1544,1544,0,0,0,0,0,0,0,0,0,0
1683188820.00051904,92828687,1543,1543,1545,1544,0,0,0,0,0,0,0,0,0,0
1683188820.10047913,92928647,1544,1544,1545,1545,0,0,0,0,0,0,0,0,0,0
1683188820.20043898,93028607,1543,1544,1544,1544,0,0,0,0,0,0,0,0,0,0
1683188820.30039907,93128567,1545,1545,1544,1545,0,0,0,0,0,0,0,0,0,0
1683188820.40035915,93228527,1545,1545,1544,1544,0,0,0,0,0,0,0,0,0,0
1683188820.50031900,93328487,1544,1544,1543,1543,0,0,0,0,0,0,0,0,0,0
1683188820.60027909,93428447,1544,1545,1543,1543,0,0,0,0,0,0,0,0,0,0
1683188820.70023918,93528407,1545,1544,1543,1543,0,0,0,0,0,0,0,0,0,0
1683188820.80019903,93628367,1545,1545,1543,1544,0,0,0,0,0,0,0,0,0,0
1683188820.90015912,93728327,1544,1544,1543,1543,0,0,0,0,0,0,0,0,0,0
1683188821.00011897,93828287,1544,1544,1543,1543,0,0,0,0,0,0,0,0,0,0
1683188821.10007906,93928247,1545,1545,1545,1545,0,0,0,0,0,0,0,0,0,0
1683188821.20003915,94028207,1545,1545,1545,1545,0,0,0,0,0,0,0,0,0,0
1683188821.29999900,94128167,1545,1545,1546,1546,0,0,0,0,0,0,0,0,0,0
1683188821.40079212,94228960,1545,1545,1545,1545,0,0,0,0,0,0,0,0,0,0
1683188821.50075197,94328920,1544,1544,1544,1545,0,0,0,0,0,0,0,0,0,0
1683188821.60071206,94428880,1544,1545,1545,1545,0,0,0,0,0,0,0,0,0,0
1683188821.70067215,94528840,1544,1544,1544,1544,0,0,0,0,0,0,0,0,0,0
1683188821.80063200,94628800,1544,1543,1544,1543,0,0,0,0,0,0,0,0,0,0
1683188821.90059209,94728760,1544,1543,1544,1544,0,0,0,0,0,0,0,0,0,0
1683188822.00055218,94828720,1544,1544,1544,1543,0,0,0,0,0,0,0,0,0,0
1683188822.10051203,94928680,1544,1544,1544,1545,0,0,0,0,0,0,0,0,0,0
1683188822.20047212,95028640,1544,1544,1544,1544,0,0,0,0,0,0,0,0,0,0
1683188822.30043197,95128600,1543,1543,1543,1543,0,0,0,0,0,0,0,0,0,0
1683188822.40039206,95228560,1544,1544,1544,1544,0,0,0,0,0,0,0,0,0,0
1683188822.50035214,95328520,1544,1544,1545,1544,0,0,0,0,0,0,0,0,0,0
1683188822.60031199,95428480,1544,1544,1544,1544,0,0,0,0,0,0,0,0,0,0
1683188822.70027208,95528440,1544,1544,1544,1545,0,0,0,0,0,0,0,0,0,0
1683188822.80023217,95628400,1544,1544,1545,1544,0,0,0,0,0,0,0,0,0,0
1683188822.90019202,95728360,1544,1544,1543,1544,0,0,0,0,0,0,0,0,0,0
1683188823.00015211,95828320,1544,1544,1544,1544,0,0,0,0,0,0,0,0,0,0
1683188823.10011220,95928280,1545,1545,1545,1545,0,0,0,0,0,0,0,0,0,0
1683188823.20007205,96028240,1544,1544,1543,1544,0,0,0,0,0,0,0,0,0,0
1683188823.30003214,96128200,1544,1544,1544,1544,0,0,0,0,0,0,0,0,0,0
1683188823.39999199,96228160,1544,1544,1544,1543,0,0,0,0,0,0,0,0,0,0
1683188823.50078511,96328953,1544,1544,1544,1543,0,0,0,0,0,0,0,0,0,0
1683188823.60074520,96428913,1544,1544,1544,1544,0,0,0,0,0,0,0,0,0,0
1683188823.70070505,96528873,1544,1544,1544,1544,0,0,0,0,0,0,0,0,0,0
1683188823.80066514,96628833,1544,1544,1544,1544,0,0,0,0,0,0,0,0,0,0
1683188823.90062499,96728793,1544,1544,1544,1545,0,0,0,0,0,0,0,0,0,0
1683188824.00058508,96828753,1544,1544,1544,1544,0,0,0,0,0,0,0,0,0,0
1683188824.10054517,96928713,1544,1544,1544,1545,0,0,0,0,0,0,0,0,0,0
1683188824.20050502,97028673,1544,1544,1545,1545,0,0,0,0,0,0,0,0,0,0
1683188824.30046511,97128633,1543,1543,1543,1543,0,0,0,0,0,0,0,0,0,0
1683188824.40042520,97228593,1544,1544,1545,1544,0,0,0,0,0,0,0,0,0,0
1683188824.50038505,97328553,1545,1544,1545,1544,0,0,0,0,0,0,0,0,0,0
1683188824.60034513,97428513,1545,1545,1545,1545,0,0,0,0,0,0,0,0,0,0
1683188824.70030499,97528473,1544,1544,1544,1545,0,0,0,0,0,0,0,0,0,0
1683188824.80026507,97628433,1544,1545,1544,1544,0,0,0,0,0,0,0,0,0,0
1683188824.90022516,97728393,1544,1545,1544,1545,0,0,0,0,0,0,0,0,0,0
1683188825.00018501,97828353,1544,1544,1544,1544,0,0,0,0,0,0,0,0,0,0
1683188825.10014510,97928313,1544,1544,1544,1544,0,0,0,0,0,0,0,0,0,0
1683188825.20010519,98028273,1545,1545,1545,1545,0,0,0,0,0,0,0,0,0,0
1683188825.30006504,98128233,1545,1544,1544,1545,0,0,0,0,0,0,0,0,0,0
1683188825.40002513,98228193,1544,1545,1544,1544,0,0,0,0,0,0,0,0,0,0
1683188825.50081801,98328986,1544,1545,1544,1544,0,0,0,0,0,0,0,0,0,0
1683188825.60077810,98428946,1544,1544,1544,1544,0,0,0,0,0,0,0,0,0,0
1683188825.70073819,98528906,1545,1544,1544,1544,0,0,0,0,0,0,0,0,0,0
1683188825.80069804,98628866,1545,1545,1545,1544,0,0,0,0,0,0,0,0,0,0
1683188825.90065813,98728826,1545,1544,1545,1545,0,0,0,0,0,0,0,0,0,0
1683188826.00061798,98828786,1544,1544,1544,1544,0,0,0,0,0,0,0,0,0,0
1683188826.10057807,98928746,1545,1545,1545,1546,0,0,0,0,0,0,0,0,0,0
1683188826.20053816,99028706,1544,1544,1544,1544,0,0,0,0,0,0,0,0,0,0
1683188826.30049801,99128666,1545,1545,1545,1545,0,0,0,0,0,0,0,0,0,0
1683188826.40045810,99228626,1544,1545,1545,1545,0,0,0,0,0,0,0,0,0,0
1683188826.50041819,99328586,1544,1544,1544,1545,0,0,0,0,0,0,0,0,0,0
1683188826.60037804,99428546,1522,1522,1511,1511,0,0,0,0,0,0,0,0,0,0
1683188826.70033813,99528506,1407,1406,1330,1327,0,0,0,0,0,0,0,0,0,0
1683188826.80029798,99628466,1359,1358,1243,1238,0,0,0,0,0,0,0,0,0,0
1683188826.90025806,99728426,1346,1344,1216,1212,0,0,0,0,0,0,0,0,0,0
1683188827.00021815,99828386,1336,1334,1194,1191,0,0,0,0,0,0,0,0,0,0
1683188827.10017800,99928346,1312,1310,1152,1150,0,0,0,0,0,0,0,0,0,0
1683188827.20013809,100028306,1230,1228,1153,1150,0,0,0,0,0,0,0,0,0,0
1683188827.30009818,100128266,1136,1133,1153,1150,0,0,0,0,0,0,0,0,0,0
1683188827.40005803,100228226,1033,1029,1154,1150,0,0,0,0,0,0,0,0,0,0
1683188827.50001812,100328186,961,958,1152,1150,0,0,0,0,0,0,0,0,0,0
1683188827.60081100,100428979,960,958,1152,1150,0,0,0,0,0,0,0,0,0,0
1683188827.70077109,100528939,961,958,1152,1150,0,0,0,0,0,0,0,0,0,0
1683188827.80073118,100628899,961,947,1150,1165,0,0,0,0,0,0,0,0,0,0
1683188827.90069103,100728859,961,951,1150,1161,0,0,0,0,0,0,0,0,0,0
1683188828.00065112,100828819,961,953,1150,1157,0,0,0,0,0,0,0,0,0,0
1683188828.10061097,100928779,961,954,1150,1156,0,0,0,0,0,0,0,0,0,0
1683188828.20057106,101028739,962,954,1150,1156,0,0,0,0,0,0,0,0,0,0
1683188828.30053115,101128699,962,953,1150,1157,0,0,0,0,0,0,0,0,0,0
1683188828.40049100,101228659,962,953,1150,1157,0,0,0,0,0,0,0,0,0,0
1683188828.50045109,101328619,962,953,1150,1157,0,0,0,0,0,0,0,0,0,0
1683188828.60041118,101428579,960,960,1150,1150,0,0,0,0,0,0,0,0,0,0
1683188828.70037103,101528539,960,959,1150,1151,0,0,0,0,0,0,0,0,0,0
1683188828.80033112,101628499,961,958,1150,1151,0,0,0,0,0,0,0,0,0,0
1683188828.90029097,101728459,961,958,1150,1151,0,0,0,0,0,0,0,0,0,0
1683188829.00025105,101828419,961,958,1150,1151,0,0,0,0,0,0,0,0,0,0
1683188829.10021114,101928379,1000,1000,1000,1000,0,0,0,0,0,0,0,0,0,0
1683188829.20017099,102028339,1000,1000,1000,1000,0,0,0,0,0,0,0,0,0,0
1683188829.30013108,102128299,1000,1000,1000,1000,0,0,0,0,0,0,0,0,0,0
1683188829.40009117,102228259,1000,1000,1000,1000,0,0,0,0,0,0,0,0,0,0
1683188829.50005102,102328219,1000,1000,1000,1000,0,0,0,0,0,0,0,0,0,0
1683188829.60001111,102428179,1000,1000,1000,1000,0,0,0,0,0,0,0,0,0,0
1683188829.70080400,102528972,1000,1000,1000,1000,0,0,0,0,0,0,0,0,0,0
1683188829.80076408,102628932,1000,1000,1000,1000,0,0,0,0,0,0,0,0,0,0
1683188829.90072417,102728892,1000,1000,1000,1000,0,0,0,0,0,0,0,0,0,0
1683188830.00068402,102828852,1000,1000,1000,1000,0,0,0,0,0,0,0,0,0,0
1683188830.10064411,102928812,1000,1000,1000,1000,0,0,0,0,0,0,0,0,0,0
1683188830.20060420,103028772,1000,1000,1000,1000,0,0,0,0,0,0,0,0,0,0
1683188830.30056405,103128732,1000,1000,1000,1000,0,0,0,0,0,0,0,0,0,0
1683188830.40052414,103228692,1000,1000,1000,1000,0,0,0,0,0,0,0,0,0,0
1683188830.50048399,103328652,1000,1000,1000,1000,0,0,0,0,0,0,0,0,0,0
1683188830.60044408,103428612,1000,1000,1000,1000,0,0,0,0,0,0,0,0,0,0
1683188830.70040417,103528572,1000,1000,1000,1000,0,0,0,0,0,0,0,0,0,0
1683188830.80036402,103628532,1000,1000,1000,1000,0,0,0,0,0,0,0,0,0,0
1683188830.90032411,103728492,1000,1000,1000,1000,0,0,0,0,0,0,0,0,0,0
1683188831.00028419,103828452,1000,1000,1000,1000,0,0,0,0,0,0,0,0,0,0
1683188831.10024405,103928412,1000,1000,1000,1000,0,0,0,0,0,0,0,0,0,0
1683188831.20020413,104028372,1000,1000,1000,1000,0,0,0,0,0,0,0,0,0,0
1683188831.30016398,104128332,1000,1000,1000,1000,0,0,0,0,0,0,0,0,0,0
1683188831.40012407,104228292,1000,1000,1000,1000,0,0,0,0,0,0,0,0,0,0
1683188831.50008416,104328252,1000,1000,1000,1000,0,0,0,0,0,0,0,0,0,0
1683188831.60004401,104428212,1000,1000,1000,1000,0,0,0,0,0,0,0,0,0,0
1683188831.70000410,104528172,1000,1000,1000,1000,0,0,0,0,0,0,0,0,0,0
1683188831.80079699,104628965,1000,1000,1000,1000,0,0,0,0,0,0,0,0,0,0
1683188831.90075707,104728925,1000,1000,1000,1000,0,0,0,0,0,0,0,0,0,0
1683188832.00071716,104828885,1000,1000,1000,1000,0,0,0,0,0,0,0,0,0,0
1683188832.10067701,104928845,1000,1000,1000,1000,0,0,0,0,0,0,0,0,0,0
1683188832.20063710,105028805,1000,1000,1000,1000,0,0,0,0,0,0,0,0,0,0
1683188832.30059719,105128765,1000,1000,1000,1000,0,0,0,0,0,0,0,0,0,0
1683188832.40055704,105228725,1000,1000,1000,1000,0,0,0,0,0,0,0,0,0,0
1683188832.50051713,105328685,1000,1000,1000,1000,0,0,0,0,0,0,0,0,0,0
1683188832.60047698,105428645,1000,1000,1000,1000,0,0,0,0,0,0,0,0,0,0
1683188832.70043707,105528605,1000,1000,1000,1000,0,0,0,0,0,0,0,0,0,0
1683188832.80039716,105628565,1000,1000,1000,1000,0,0,0,0,0,0,0,0,0,0
1683188832.90035701,105728525,1000,1000,1000,1000,0,0,0,0,0,0,0,0,0,0
1683188833.00031710,105828485,1000,1000,1000,1000,0,0,0,0,0,0,0,0,0,0
1683188833.10027719,105928445,1000,1000,1000,1000,0,0,0,0,0,0,0,0,0,0
1683188833.20023704,106028405,1000,1000,1000,1000,0,0,0,0,0,0,0,0,0,0
1683188833.30019712,106128365,1000,1000,1000,1000,0,0,0,0,0,0,0,0,0,0
1683188833.40015697,106228325,1000,1000,1000,1000,0,0,0,0,0,0,0,0,0,0
1683188833.50011706,106328285,1000,1000,1000,1000,0,0,0,0,0,0,0,0,0,0
1683188833.60007715,106428245,1000,1000,1000,1000,0,0,0,0,0,0,0,0,0,0
1683188833.70003700,106528205,1000,1000,1000,1000,0,0,0,0,0,0,0,0,0,0
1683188833.79999709,106628165,1000,1000,1000,1000,0,0,0,0,0,0,0,0,0,0
1683188833.90078998,106728958,1000,1000,1000,1000,0,0,0,0,0,0,0,0,0,0
1683188834.00075006,106828918,1000,1000,1000,1000,0,0,0,0,0,0,0,0,0,0
1683188834.10071015,106928878,1000,1000,1000,1000,0,0,0,0,0,0,0,0,0,0
1683188834.20067000,107028838,1000,1000,1000,1000,0,0,0,0,0,0,0,0,0,0
1683188834.30063009,107128798,1000,1000,1000,1000,0,0,0,0,0,0,0,0,0,0
1683188834.40059018,107228758,1000,1000,1000,1000,0,0,0,0,0,0,0,0,0,0
1683188834.50055003,107328718,1000,1000,1000,1000,0,0,0,0,0,0,0,0,0,0
1683188834.60051012,107428678,1000,1000,1000,1000,0,0,0,0,0,0,0,0,0,0
1683188834.70046997,107528638,1000,1000,1000,1000,0,0,0,0,0,0,0,0,0,0
1683188834.80043006,107628598,1000,1000,1000,1000,0,0,0,0,0,0,0,0,0,0
1683188834.90039015,107728558,1000,1000,1000,1000,0,0,0,0,0,0,0,0,0,0
1683188835.00035000,107828518,1000,1000,1000,1000,0,0,0,0,0,0,0,0,0,0
1683188835.10031009,107928478,1000,1000,1000,1000,0,0,0,0,0,0,0,0,0,0
1683188835.20027018,108028438,1000,1000,1000,1000,0,0,0,0,0,0,0,0,0,0
1683188835.30023003,108128398,1000,1000,1000,1000,0,0,0,0,0,0,0,0,0,0
1683188835.40019011,108228358,1000,1000,1000,1000,0,0,0,0,0,0,0,0,0,0
1683188835.50015020,108328318,1000,1000,1000,1000,0,0,0,0,0,0,0,0,0,0
1683188835.60011005,108428278,1000,1000,1000,1000,0,0,0,0,0,0,0,0,0,0
1683188835.70007014,108528238,1000,1000,1000,1000,0,0,0,0,0,0,0,0,0,0
1683188835.80002999,108628198,1000,1000,1000,1000,0,0,0,0,0,0,0,0,0,0
1683188835.89999008,108728158,1000,1000,1000,1000,0,0,0,0,0,0,0,0,0,0
1683188836.00078297,108828951,1000,1000,1000,1000,0,0,0,0,0,0,0,0,0,0
1683188836.10074306,108928911,1000,1000,1000,1000,0,0,0,0,0,0,0,0,0,0
1683188836.20070314,109028871,1000,1000,1000,1000,0,0,0,0,0,0,0,0,0,0
1683188836.30066299,109128831,1000,1000,1000,1000,0,0,0,0,0,0,0,0,0,0
1683188836.40062308,109228791,1000,1000,1000,1000,0,0,0,0,0,0,0,0,0,0
1683188836.50058317,109328751,1000,1000,1000,1000,0,0,0,0,0,0,0,0,0,0
1683188836.60054302,109428711,1000,1000,1000,1000,0,0,0,0,0,0,0,0,0,0
1683188836.70050311,109528671,1000,1000,1000,1000,0,0,0,0,0,0,0,0,0,0
1683188836.80046320,109628631,1000,1000,1000,1000,0,0,0,0,0,0,0,0,0,0
1683188836.90042305,109728591,1000,1000,1000,1000,0,0,0,0,0,0,0,0,0,0
1683188837.00038314,109828551,1000,1000,1000,1000,0,0,0,0,0,0,0,0,0,0
1683188837.10034299,109928511,1000,1000,1000,1000,0,0,0,0,0,0,0,0,0,0
1683188837.20030308,110028471,1000,1000,1000,1000,0,0,0,0,0,0,0,0,0,0
1683188837.30026317,110128431,1000,1000,1000,1000,0,0,0,0,0,0,0,0,0,0
1683188837.40022302,110228391,1000,1000,1000,1000,0,0,0,0,0,0,0,0,0,0
1683188837.50018311,110328351,1000,1000,1000,1000,0,0,0,0,0,0,0,0,0,0
1683188837.60014319,110428311,1000,1000,1000,1000,0,0,0,0,0,0,0,0,0,0
1683188837.70010304,110528271,1000,1000,1000,1000,0,0,0,0,0,0,0,0,0,0
1683188837.80006313,110628231,1000,1000,1000,1000,0,0,0,0,0,0,0,0,0,0
1683188837.90002298,110728191,1000,1000,1000,1000,0,0,0,0,0,0,0,0,0,0
1683188838.00081611,110828984,1000,1000,1000,1000,0,0,0,0,0,0,0,0,0,0
1683188838.10077620,110928944,1000,1000,1000,1000,0,0,0,0,0,0,0,0,0,0
1683188838.20073605,111028904,1000,1000,1000,1000,0,0,0,0,0,0,0,0,0,0
1683188838.30069613,111128864,1000,1000,1000,1000,0,0,0,0,0,0,0,0,0,0
1683188838.40065598,111228824,1000,1000,1000,1000,0,0,0,0,0,0,0,0,0,0
1683188838.50061607,111328784,1000,1000,1000,1000,0,0,0,0,0,0,0,0,0,0
1683188838.60057616,111428744,1000,1000,1000,1000,0,0,0,0,0,0,0,0,0,0
1683188838.70053601,111528704,1000,1000,1000,1000,0,0,0,0,0,0,0,0,0,0
1683188838.80049610,111628664,1000,1000,1000,1000,0,0,0,0,0,0,0,0,0,0
1683188838.90045619,111728624,1000,1000,1000,1000,0,0,0,0,0,0,0,0,0,0
1683188839.00041604,111828584,1000,1000,1000,1000,0,0,0,0,0,0,0,0,0,0
1683188839.10037613,111928544,1000,1000,1000,1000,0,0,0,0,0,0,0,0,0,0
1683188839.20033598,112028504,1000,1000,1000,1000,0,0,0,0,0,0,0,0,0,0
1683188839.30029607,112128464,1000,1000,1000,1000,0,0,0,0,0,0,0,0,0,0
1683188839.40025616,112228424,1000,1000,1000,1000,0,0,0,0,0,0,0,0,0,0
1683188839.50021601,112328384,1000,1000,1000,1000,0,0,0,0,0,0,0,0,0,0
1683188839.60017610,112428344,1000,1000,1000,1000,0,0,0,0,0,0,0,0,0,0
1683188839.70013618,112528304,1000,1000,1000,1000,0,0,0,0,0,0,0,0,0,0
1683188839.80009604,112628264,1000,1000,1000,1000,0,0,0,0,0,0,0,0,0,0
1683188839.90005612,112728224,1000,1000,1000,1000,0,0,0,0,0,0,0,0,0,0
1683188840.00001597,112828184,1000,1000,1000,1000,0,0,0,0,0,0,0,0,0,0
1683188840.10080910,112928977,1000,1000,1000,1000,0,0,0,0,0,0,0,0,0,0
1683188840.20076919,113028937,1000,1000,1000,1000,0,0,0,0,0,0,0,0,0,0
1683188840.30072904,113128897,1000,1000,1000,1000,0,0,0,0,0,0,0,0,0,0
1683188840.40068913,113228857,1000,1000,1000,1000,0,0,0,0,0,0,0,0,0,0
1683188840.50064898,113328817,1000,1000,1000,1000,0,0,0,0,0,0,0,0,0,0
1683188840.60060906,113428777,1000,1000,1000,1000,0,0,0,0,0,0,0,0,0,0
1683188840.70056915,113528737,1000,1000,1000,1000,0,0,0,0,0,0,0,0,0,0
1683188840.80052900,113628697,1000,1000,1000,1000,0,0,0,0,0,0,0,0,0,0
1683188840.90048909,113728657,1000,1000,1000,1000,0,0,0,0,0,0,0,0,0,0
1683188841.00044918,113828617,1000,1000,1000,1000,0,0,0,0,0,0,0,0,0,0
1683188841.10040903,113928577,1000,1000,1000,1000,0,0,0,0,0,0,0,0,0,0
1683188841.20036912,114028537,1000,1000,1000,1000,0,0,0,0,0,0,0,0,0,0
1683188841.30032897,114128497,1000,1000,1000,1000,0,0,0,0,0,0,0,0,0,0
1683188841.40028906,114228457,1000,1000,1000,1000,0,0,0,0,0,0,0,0,0,0
1683188841.50024915,114328417,1000,1000,1000,1000,0,0,0,0,0,0,0,0,0,0
1683188841.60020900,114428377,1000,1000,1000,1000,0,0,0,0,0,0,0,0,0,0
1683188841.70016909,114528337,1000,1000,1000,1000,0,0,0,0,0,0,0,0,0,0
1683188841.80012918,114628297,1000,1000,1000,1000,0,0,0,0,0,0,0,0,0,0
1683188841.90008903,114728257,1000,1000,1000,1000,0,0,0,0,0,0,0,0,0,0
1683188842.00004911,114828217,1000,1000,1000,1000,0,0,0,0,0,0,0,0,0,0
1683188842.10000920,114928177,1000,1000,1000,1000,0,0,0,0,0,0,0,0,0,0
1683188842.20080209,115028970,1000,1000,1000,1000,0,0,0,0,0,0,0,0,0,0
1683188842.30076218,115128930,1000,1000,1000,1000,0,0,0,0,0,0,0,0,0,0
1683188842.40072203,115228890,1000,1000,1000,1000,0,0,0,0,0,0,0,0,0,0
1683188842.50068212,115328850,1000,1000,1000,1000,0,0,0,0,0,0,0,0,0,0
1683188842.60064197,115428810,1000,1000,1000,1000,0,0,0,0,0,0,0,0,0,0
1683188842.70060205,115528770,1000,1000,1000,1000,0,0,0,0,0,0,0,0,0,0
1683188842.80056214,115628730,1000,1000,1000,1000,0,0,0,0,0,0,0,0,0,0
1683188842.90052199,115728690,1000,1000,1000,1000,0,0,0,0,0,0,0,0,0,0
1683188843.00048208,115828650,1000,1000,1000,1000,0,0,0,0,0,0,0,0,0,0
1683188843.10044217,115928610,1000,1000,1000,1000,0,0,0,0,0,0,0,0,0,0
1683188843.20040202,116028570,1000,1000,1000,1000,0,0,0,0,0,0,0,0,0,0
1683188843.30036211,116128530,1000,1000,1000,1000,0,0,0,0,0,0,0,0,0,0
1683188843.40032220,116228490,1000,1000,1000,1000,0,0,0,0,0,0,0,0,0,0
1683188843.50028205,116328450,1000,1000,1000,1000,0,0,0,0,0,0,0,0,0,0
1683188843.60024214,116428410,1000,1000,1000,1000,0,0,0,0,0,0,0,0,0,0
1683188843.70020199,116528370,1000,1000,1000,1000,0,0,0,0,0,0,0,0,0,0
1683188843.80016208,116628330,1000,1000,1000,1000,0,0,0,0,0,0,0,0,0,0
1683188843.90012217,116728290,1000,1000,1000,1000,0,0,0,0,0,0,0,0,0,0
1683188844.00008202,116828250,1000,1000,1000,1000,0,0,0,0,0,0,0,0,0,0
