timestamp,TimeUS,C1,C2,C3,C4,C5,C6,C7,C8,C9,C10,C11,C12,C13,C14
1684074743.50004005,149128658,1000,1000,1000,1000,0,0,0,0,0,0,0,0,0,0
1684074743.59999990,149228618,1000,1000,1000,1000,0,0,0,0,0,0,0,0,0,0
1684074743.69995999,149328578,1000,1000,1000,1000,0,0,0,0,0,0,0,0,0,0
1684074743.79992008,149428538,1000,1000,1000,1000,0,0,0,0,0,0,0,0,0,0
1684074743.89987993,149528498,1000,1000,1000,1000,0,0,0,0,0,0,0,0,0,0
1684074743.99984002,149628458,1000,1000,1000,1000,0,0,0,0,0,0,0,0,0,0
1684074744.09980011,149728418,1000,1000,1000,1000,0,0,0,0,0,0,0,0,0,0
1684074744.19975996,149828378,1000,1000,1000,1000,0,0,0,0,0,0,0,0,0,0
1684074744.29972005,149928338,1000,1000,1000,1000,0,0,0,0,0,0,0,0,0,0
1684074744.39967990,150028298,1000,1000,1000,1000,0,0,0,0,0,0,0,0,0,0
1684074744.49963999,150128258,1000,1000,1000,1000,0,0,0,0,0,0,0,0,0,0
1684074744.59960008,150228218,1000,1000,1000,1000,0,0,0,0,0,0,0,0,0,0
1684074744.69955993,150328178,1000,1000,1000,1000,0,0,0,0,0,0,0,0,0,0
1684074744.80035305,150428971,1000,1000,1000,1000,0,0,0,0,0,0,0,0,0,0
1684074744.90031290,150528931,1000,1000,1000,1000,0,0,0,0,0,0,0,0,0,0
1684074745.00027299,150628891,1000,1000,1000,1000,0,0,0,0,0,0,0,0,0,0
1684074745.10023308,150728851,1000,1000,1000,1000,0,0,0,0,0,0,0,0,0,0
1684074745.20019293,150828811,1000,1000,1000,1000,0,0,0,0,0,0,0,0,0,0
1684074745.30015302,150928771,1000,1000,1000,1000,0,0,0,0,0,0,0,0,0,0
1684074745.40011311,151028731,1000,1000,1000,1000,0,0,0,0,0,0,0,0,0,0
1684074745.50007296,151128691,1005,1005,1005,1005,0,0,0,0,0,0,0,0,0,0
1684074745.60003304,151228651,1035,1035,1035,1035,0,0,0,0,0,0,0,0,0,0
1684074745.69999290,151328611,1065,1065,1065,1065,0,0,0,0,0,0,0,0,0,0
1684074745.79995298,151428571,1095,1095,1095,1095,0,0,0,0,0,0,0,0,0,0
1684074745.89991307,151528531,1125,1125,1125,1125,0,0,0,0,0,0,0,0,0,0
1684074745.99987292,151628491,1207,1185,1186,1208,0,0,0,0,0,0,0,0,0,0
1684074746.09983301,151728451,1439,1423,1424,1440,0,0,0,0,0,0,0,0,0,0
1684074746.19979310,151828411,1611,1597,1598,1612,0,0,0,0,0,0,0,0,0,0
1684074746.29975295,151928371,1754,1741,1741,1755,0,0,0,0,0,0,0,0,0,0
1684074746.39971304,152028331,1861,1848,1848,1862,0,0,0,0,0,0,0,0,0,0
1684074746.49967289,152128291,1864,1852,1852,1864,0,0,0,0,0,0,0,0,0,0
1684074746.59963298,152228251,1778,1774,1775,1778,0,0,0,0,0,0,0,0,0,0
1684074746.69959307,152328211,1655,1657,1657,1656,0,0,0,0,0,0,0,0,0,0
1684074746.79955292,152428171,1606,1612,1612,1606,0,0,0,0,0,0,0,0,0,0
1684074746.90034604,152528964,1611,1617,1617,1611,0,0,0,0,0,0,0,0,0,0
1684074747.00030589,152628924,1629,1633,1633,1629,0,0,0,0,0,0,0,0,0,0
1684074747.10026598,152728884,1636,1638,1638,1636,0,0,0,0,0,0,0,0,0,0
1684074747.20022607,152828844,1633,1633,1632,1633,0,0,0,0,0,0,0,0,0,0
1684074747.30018592,152928804,1626,1624,1624,1626,0,0,0,0,0,0,0,0,0,0
1684074747.40014601,153028764,1622,1619,1619,1621,0,0,0,0,0,0,0,0,0,0
1684074747.50010610,153128724,1607,1606,1603,1610,0,0,0,0,0,0,0,0,0,0
1684074747.60006595,153228684,1598,1596,1587,1605,0,0,0,0,0,0,0,0,0,0
1684074747.70002604,153328644,1596,1593,1586,1601,0,0,0,0,0,0,0,0,0,0
1684074747.79998589,153428604,1596,1595,1592,1597,0,0,0,0,0,0,0,0,0,0
1684074747.89994597,153528564,1600,1599,1600,1598,0,0,0,0,0,0,0,0,0,0
1684074747.99990606,153628524,1603,1604,1608,1600,0,0,0,0,0,0,0,0,0,0
1684074748.09986591,153728484,1587,1589,1600,1577,0,0,0,0,0,0,0,0,0,0
1684074748.19982600,153828444,1571,1574,1592,1554,0,0,0,0,0,0,0,0,0,0
1684074748.29978609,153928404,1561,1562,1572,1555,0,0,0,0,0,0,0,0,0,0
1684074748.39974594,154028364,1552,1552,1549,1557,0,0,0,0,0,0,0,0,0,0
1684074748.49970603,154128324,1543,1542,1533,1555,0,0,0,0,0,0,0,0,0,0
1684074748.59966588,154228284,1537,1536,1525,1549,0,0,0,0,0,0,0,0,0,0
1684074748.69962597,154328244,1531,1530,1522,1539,0,0,0,0,0,0,0,0,0,0
1684074748.79958606,154428204,1529,1529,1525,1532,0,0,0,0,0,0,0,0,0,0
1684074748.89954591,154528164,1530,1529,1529,1529,0,0,0,0,0,0,0,0,0,0
1684074749.00033903,154628957,1533,1533,1535,1529,0,0,0,0,0,0,0,0,0,0
1684074749.10029888,154728917,1536,1537,1540,1531,0,0,0,0,0,0,0,0,0,0
1684074749.20025897,154828877,1539,1540,1543,1534,0,0,0,0,0,0,0,0,0,0
1684074749.30021906,154928837,1543,1543,1546,1540,0,0,0,0,0,0,0,0,0,0
1684074749.40017891,155028797,1547,1547,1548,1546,0,0,0,0,0,0,0,0,0,0
1684074749.50013900,155128757,1550,1550,1549,1551,0,0,0,0,0,0,0,0,0,0
1684074749.60009909,155228717,1551,1551,1550,1553,0,0,0,0,0,0,0,0,0,0
1684074749.70005894,155328677,1554,1553,1552,1556,0,0,0,0,0,0,0,0,0,0
1684074749.80001903,155428637,1557,1557,1553,1556,0,0,0,0,0,0,0,0,0,0
1684074749.89997911,155528597,1558,1558,1557,1559,0,0,0,0,0,0,0,0,0,0
1684074749.99993896,155628557,1559,1559,1562,1561,0,0,0,0,0,0,0,0,0,0
1684074750.09989905,155728517,1560,1560,1565,1565,0,0,0,0,0,0,0,0,0,0
1684074750.19985890,155828477,1561,1561,1567,1566,0,0,0,0,0,0,0,0,0,0
1684074750.29981899,155928437,1562,1562,1568,1567,0,0,0,0,0,0,0,0,0,0
1684074750.39977908,156028397,1563,1565,1569,1568,0,0,0,0,0,0,0,0,0,0
1684074750.49973893,156128357,1566,1566,1569,1569,0,0,0,0,0,0,0,0,0,0
1684074750.59969902,156228317,1567,1568,1569,1569,0,0,0,0,0,0,0,0,0,0
1684074750.69965911,156328277,1571,1570,1569,1570,0,0,0,0,0,0,0,0,0,0
1684074750.79961896,156428237,1572,1572,1570,1570,0,0,0,0,0,0,0,0,0,0
1684074750.89957905,156528197,1574,1574,1570,1571,0,0,0,0,0,0,0,0,0,0
1684074750.99953890,156628157,1574,1574,1571,1570,0,0,0,0,0,0,0,0,0,0
1684074751.10033202,156728950,1575,1575,1571,1571,0,0,0,0,0,0,0,0,0,0
1684074751.20029211,156828910,1576,1576,1573,1572,0,0,0,0,0,0,0,0,0,0
1684074751.30025196,156928870,1577,1577,1574,1573,0,0,0,0,0,0,0,0,0,0
1684074751.40021205,157028830,1576,1577,1575,1573,0,0,0,0,0,0,0,0,0,0
1684074751.50017190,157128790,1577,1577,1576,1575,0,0,0,0,0,0,0,0,0,0
1684074751.60013199,157228750,1576,1577,1576,1575,0,0,0,0,0,0,0,0,0,0
1684074751.70009208,157328710,1577,1576,1576,1577,0,0,0,0,0,0,0,0,0,0
1684074751.80005193,157428670,1576,1576,1577,1577,0,0,0,0,0,0,0,0,0,0
1684074751.90001202,157528630,1576,1576,1577,1577,0,0,0,0,0,0,0,0,0,0
1684074751.99997211,157628590,1576,1576,1577,1578,0,0,0,0,0,0,0,0,0,0
1684074752.09993196,157728550,1576,1576,1578,1578,0,0,0,0,0,0,0,0,0,0
1684074752.19989204,157828510,1576,1577,1578,1578,0,0,0,0,0,0,0,0,0,0
1684074752.29985189,157928470,1576,1576,1577,1577,0,0,0,0,0,0,0,0,0,0
1684074752.39981198,158028430,1577,1577,1578,1577,0,0,0,0,0,0,0,0,0,0
1684074752.49977207,158128390,1578,1577,1578,1578,0,0,0,0,0,0,0,0,0,0
1684074752.59973192,158228350,1578,1579,1579,1578,0,0,0,0,0,0,0,0,0,0
1684074752.69969201,158328310,1578,1578,1578,1578,0,0,0,0,0,0,0,0,0,0
1684074752.79965210,158428270,1577,1577,1577,1577,0,0,0,0,0,0,0,0,0,0
1684074752.89961195,158528230,1578,1578,1577,1578,0,0,0,0,0,0,0,0,0,0
1684074752.99957204,158628190,1579,1579,1578,1578,0,0,0,0,0,0,0,0,0,0
1684074753.10036492,158728983,1580,1580,1579,1579,0,0,0,0,0,0,0,0,0,0
1684074753.20032501,158828943,1580,1580,1580,1579,0,0,0,0,0,0,0,0,0,0
1684074753.30028510,158928903,1579,1578,1578,1578,0,0,0,0,0,0,0,0,0,0
1684074753.40024495,159028863,1578,1579,1579,1578,0,0,0,0,0,0,0,0,0,0
1684074753.50020504,159128823,1579,1578,1579,1579,0,0,0,0,0,0,0,0,0,0
1684074753.60016489,159228783,1579,1580,1580,1579,0,0,0,0,0,0,0,0,0,0
1684074753.70012498,159328743,1578,1578,1579,1579,0,0,0,0,0,0,0,0,0,0
1684074753.80008507,159428703,1579,1579,1579,1579,0,0,0,0,0,0,0,0,0,0
1684074753.90004492,159528663,1579,1578,1579,1579,0,0,0,0,0,0,0,0,0,0
1684074754.00000501,159628623,1579,1578,1579,1579,0,0,0,0,0,0,0,0,0,0
1684074754.09996510,159728583,1579,1579,1579,1580,0,0,0,0,0,0,0,0,0,0
1684074754.19992495,159828543,1580,1580,1580,1580,0,0,0,0,0,0,0,0,0,0
1684074754.29988503,159928503,1580,1580,1580,1580,0,0,0,0,0,0,0,0,0,0
1684074754.39984488,160028463,1580,1580,1580,1580,0,0,0,0,0,0,0,0,0,0
1684074754.49980497,160128423,1580,1581,1581,1581,0,0,0,0,0,0,0,0,0,0
1684074754.59976506,160228383,1580,1580,1580,1580,0,0,0,0,0,0,0,0,0,0
1684074754.69972491,160328343,1580,1580,1580,1580,0,0,0,0,0,0,0,0,0,0
1684074754.79968500,160428303,1581,1581,1581,1581,0,0,0,0,0,0,0,0,0,0
1684074754.89964509,160528263,1581,1580,1580,1581,0,0,0,0,0,0,0,0,0,0
1684074754.99960494,160628223,1580,1580,1580,1580,0,0,0,0,0,0,0,0,0,0
1684074755.09956503,160728183,1580,1580,1580,1581,0,0,0,0,0,0,0,0,0,0
1684074755.20035791,160828976,1580,1580,1580,1580,0,0,0,0,0,0,0,0,0,0
1684074755.30031800,160928936,1581,1581,1581,1581,0,0,0,0,0,0,0,0,0,0
1684074755.40027809,161028896,1580,1580,1581,1580,0,0,0,0,0,0,0,0,0,0
1684074755.50023794,161128856,1580,1580,1580,1581,0,0,0,0,0,0,0,0,0,0
1684074755.60019803,161228816,1580,1580,1580,1580,0,0,0,0,0,0,0,0,0,0
1684074755.70015788,161328776,1581,1581,1581,1581,0,0,0,0,0,0,0,0,0,0
1684074755.80011797,161428736,1581,1581,1581,1581,0,0,0,0,0,0,0,0,0,0
1684074755.90007806,161528696,1580,1580,1580,1580,0,0,0,0,0,0,0,0,0,0
1684074756.00003791,161628656,1581,1582,1586,1575,0,0,0,0,0,0,0,0,0,0
1684074756.09999800,161728616,1580,1582,1587,1572,0,0,0,0,0,0,0,0,0,0
1684074756.19995809,161828576,1579,1582,1579,1573,0,0,0,0,0,0,0,0,0,0
1684074756.29991794,161928536,1578,1581,1571,1572,0,0,0,0,0,0,0,0,0,0
1684074756.39987803,162028496,1578,1580,1563,1569,0,0,0,0,0,0,0,0,0,0
1684074756.49983811,162128456,1579,1581,1558,1566,0,0,0,0,0,0,0,0,0,0
1684074756.59979796,162228416,1579,1579,1555,1559,0,0,0,0,0,0,0,0,0,0
1684074756.69975805,162328376,1581,1579,1554,1556,0,0,0,0,0,0,0,0,0,0
1684074756.79971790,162428336,1581,1580,1555,1554,0,0,0,0,0,0,0,0,0,0
1684074756.89967799,162528296,1581,1580,1556,1553,0,0,0,0,0,0,0,0,0,0
1684074756.99963808,162628256,1580,1579,1555,1553,0,0,0,0,0,0,0,0,0,0
1684074757.09959793,162728216,1578,1579,1554,1553,0,0,0,0,0,0,0,0,0,0
1684074757.19955802,162828176,1577,1578,1554,1553,0,0,0,0,0,0,0,0,0,0
1684074757.30035090,162928969,1575,1577,1552,1552,0,0,0,0,0,0,0,0,0,0
1684074757.40031099,163028929,1576,1578,1551,1551,0,0,0,0,0,0,0,0,0,0
1684074757.50027108,163128889,1577,1579,1549,1549,0,0,0,0,0,0,0,0,0,0
1684074757.60023093,163228849,1579,1580,1547,1547,0,0,0,0,0,0,0,0,0,0
1684074757.70019102,163328809,1582,1582,1545,1545,0,0,0,0,0,0,0,0,0,0
1684074757.80015111,163428769,1584,1586,1543,1542,0,0,0,0,0,0,0,0,0,0
1684074757.90011096,163528729,1588,1588,1540,1540,0,0,0,0,0,0,0,0,0,0
1684074758.00007105,163628689,1591,1592,1538,1537,0,0,0,0,0,0,0,0,0,0
1684074758.10003090,163728649,1594,1594,1536,1537,0,0,0,0,0,0,0,0,0,0
1684074758.19999099,163828609,1595,1595,1535,1536,0,0,0,0,0,0,0,0,0,0
1684074758.29995108,163928569,1597,1596,1536,1538,0,0,0,0,0,0,0,0,0,0
1684074758.39991093,164028529,1316,1323,1617,1622,0,0,0,0,0,0,0,0,0,0
1684074758.49987102,164128489,1397,1403,1630,1629,0,0,0,0,0,0,0,0,0,0
1684074758.59983110,164228449,1463,1465,1626,1620,0,0,0,0,0,0,0,0,0,0
1684074758.69979095,164328409,1515,1511,1621,1613,0,0,0,0,0,0,0,0,0,0
1684074758.79975104,164428369,1558,1546,1614,1610,0,0,0,0,0,0,0,0,0,0
1684074758.89971089,164528329,1569,1553,1572,1581,0,0,0,0,0,0,0,0,0,0
1684074758.99967098,164628289,1600,1592,1558,1571,0,0,0,0,0,0,0,0,0,0
1684074759.09963107,164728249,1598,1600,1559,1570,0,0,0,0,0,0,0,0,0,0
1684074759.19959092,164828209,1591,1600,1560,1564,0,0,0,0,0,0,0,0,0,0
1684074759.29955101,164928169,1590,1600,1567,1564,0,0,0,0,0,0,0,0,0,0
1684074759.40034389,165028962,1592,1600,1575,1569,0,0,0,0,0,0,0,0,0,0
1684074759.50030398,165128922,1610,1613,1582,1577,0,0,0,0,0,0,0,0,0,0
1684074759.60026407,165228882,1613,1610,1585,1582,0,0,0,0,0,0,0,0,0,0
1684074759.70022392,165328842,1613,1607,1584,1586,0,0,0,0,0,0,0,0,0,0
1684074759.80018401,165428802,1613,1607,1586,1589,0,0,0,0,0,0,0,0,0,0
1684074759.90014410,165528762,1613,1609,1588,1592,0,0,0,0,0,0,0,0,0,0
1684074760.00010395,165628722,1612,1611,1592,1594,0,0,0,0,0,0,0,0,0,0
1684074760.10006404,165728682,1605,1607,1586,1588,0,0,0,0,0,0,0,0,0,0
1684074760.20002389,165828642,1603,1606,1587,1586,0,0,0,0,0,0,0,0,0,0
1684074760.29998398,165928602,1599,1603,1584,1582,0,0,0,0,0,0,0,0,0,0
1684074760.39994407,166028562,1598,1601,1584,1581,0,0,0,0,0,0,0,0,0,0
1684074760.49990392,166128522,1599,1598,1583,1581,0,0,0,0,0,0,0,0,0,0
1684074760.59986401,166228482,1598,1597,1582,1580,0,0,0,0,0,0,0,0,0,0
1684074760.69982409,166328442,1597,1594,1579,1579,0,0,0,0,0,0,0,0,0,0
1684074760.73980808,166368426,1596,1594,1578,1579,0,0,0,0,0,0,0,0,0,0
1684074760.83976793,166468386,1594,1593,1576,1577,0,0,0,0,0,0,0,0,0,0
1684074760.93972802,166568346,1591,1591,1573,1573,0,0,0,0,0,0,0,0,0,0
1684074761.03968811,166668306,1589,1589,1571,1571,0,0,0,0,0,0,0,0,0,0
1684074761.13964796,166768266,1586,1587,1569,1569,0,0,0,0,0,0,0,0,0,0
1684074761.23960805,166868226,1585,1586,1568,1567,0,0,0,0,0,0,0,0,0,0
1684074761.33956790,166968186,1584,1585,1567,1566,0,0,0,0,0,0,0,0,0,0
1684074761.44036102,167068979,1585,1584,1568,1567,0,0,0,0,0,0,0,0,0,0
1684074761.54032111,167168939,1584,1583,1567,1566,0,0,0,0,0,0,0,0,0,0
1684074761.64028096,167268899,1584,1583,1567,1567,0,0,0,0,0,0,0,0,0,0
1684074761.74024105,167368859,1572,1572,1568,1569,0,0,0,0,0,0,0,0,0,0
1684074761.84020090,167468819,1575,1575,1571,1571,0,0,0,0,0,0,0,0,0,0
1684074761.94016099,167568779,1577,1577,1571,1571,0,0,0,0,0,0,0,0,0,0
1684074762.04012108,167668739,1579,1579,1572,1572,0,0,0,0,0,0,0,0,0,0
1684074762.14008093,167768699,1581,1581,1572,1572,0,0,0,0,0,0,0,0,0,0
1684074762.24004102,167868659,1582,1582,1572,1572,0,0,0,0,0,0,0,0,0,0
1684074762.34000111,167968619,1583,1583,1572,1572,0,0,0,0,0,0,0,0,0,0
1684074762.43996096,168068579,1584,1583,1571,1571,0,0,0,0,0,0,0,0,0,0
1684074762.53992105,168168539,1585,1585,1571,1572,0,0,0,0,0,0,0,0,0,0
1684074762.63988090,168268499,1069,1077,1561,1569,0,0,0,0,0,0,0,0,0,0
1684074762.73984098,168368459,1591,1600,1501,1498,0,0,0,0,0,0,0,0,0,0
1684074762.83980107,168468419,1600,1599,1510,1499,0,0,0,0,0,0,0,0,0,0
1684074762.93976092,168568379,1600,1594,1520,1515,0,0,0,0,0,0,0,0,0,0
1684074763.03972101,168668339,1600,1593,1531,1532,0,0,0,0,0,0,0,0,0,0
1684074763.13968110,168768299,1600,1594,1542,1547,0,0,0,0,0,0,0,0,0,0
1684074763.23964095,168868259,1697,1694,1554,1558,0,0,0,0,0,0,0,0,0,0
1684074763.33960104,168968219,1697,1696,1576,1576,0,0,0,0,0,0,0,0,0,0
1684074763.43956089,169068179,1696,1697,1599,1599,0,0,0,0,0,0,0,0,0,0
1684074763.54035401,169168972,1695,1697,1616,1616,0,0,0,0,0,0,0,0,0,0
1684074763.64031410,169268932,1688,1690,1620,1620,0,0,0,0,0,0,0,0,0,0
1684074763.74027395,169368892,1663,1665,1597,1597,0,0,0,0,0,0,0,0,0,0
1684074763.84023404,169468852,1636,1631,1598,1597,0,0,0,0,0,0,0,0,0,0
1684074763.94019389,169568812,1603,1595,1615,1603,0,0,0,0,0,0,0,0,0,0
1684074764.04015398,169668772,1575,1568,1617,1607,0,0,0,0,0,0,0,0,0,0
1684074764.14011407,169768732,1550,1551,1610,1609,0,0,0,0,0,0,0,0,0,0
1684074764.24007392,169868692,1531,1539,1602,1607,0,0,0,0,0,0,0,0,0,0
1684074764.34003401,169968652,1517,1530,1596,1603,0,0,0,0,0,0,0,0,0,0
1684074764.43999410,170068612,1509,1522,1594,1600,0,0,0,0,0,0,0,0,0,0
1684074764.53995395,170168572,1509,1518,1593,1596,0,0,0,0,0,0,0,0,0,0
1684074764.63991404,170268532,1513,1517,1588,1588,0,0,0,0,0,0,0,0,0,0
1684074764.73987389,170368492,1522,1522,1581,1579,0,0,0,0,0,0,0,0,0,0
1684074764.83983397,170468452,1533,1530,1572,1569,0,0,0,0,0,0,0,0,0,0
1684074764.93979406,170568412,1543,1540,1560,1557,0,0,0,0,0,0,0,0,0,0
1684074765.03975391,170668372,1555,1552,1551,1548,0,0,0,0,0,0,0,0,0,0
1684074765.13971400,170768332,1565,1563,1541,1540,0,0,0,0,0,0,0,0,0,0
1684074765.23967409,170868292,1573,1572,1536,1536,0,0,0,0,0,0,0,0,0,0
1684074765.33963394,170968252,1579,1578,1533,1533,0,0,0,0,0,0,0,0,0,0
1684074765.43959403,171068212,1582,1582,1531,1530,0,0,0,0,0,0,0,0,0,0
1684074765.53955388,171168172,1585,1586,1532,1531,0,0,0,0,0,0,0,0,0,0
1684074765.64034700,171268965,1588,1589,1533,1532,0,0,0,0,0,0,0,0,0,0
1684074765.74030709,171368925,1590,1590,1534,1534,0,0,0,0,0,0,0,0,0,0
1684074765.84026694,171468885,1592,1592,1536,1536,0,0,0,0,0,0,0,0,0,0
1684074765.94022703,171568845,1592,1592,1537,1538,0,0,0,0,0,0,0,0,0,0
1684074766.04018688,171668805,1593,1592,1539,1540,0,0,0,0,0,0,0,0,0,0
1684074766.14014697,171768765,1592,1592,1540,1541,0,0,0,0,0,0,0,0,0,0
1684074766.24010706,171868725,1591,1591,1542,1543,0,0,0,0,0,0,0,0,0,0
1684074766.34006691,171968685,1590,1590,1545,1546,0,0,0,0,0,0,0,0,0,0
1684074766.44002700,172068645,1587,1587,1546,1548,0,0,0,0,0,0,0,0,0,0
1684074766.53998709,172168605,1584,1583,1549,1552,0,0,0,0,0,0,0,0,0,0
1684074766.63994694,172268565,1581,1580,1554,1556,0,0,0,0,0,0,0,0,0,0
1684074766.73990703,172368525,1576,1576,1557,1559,0,0,0,0,0,0,0,0,0,0
1684074766.83986712,172468485,1572,1572,1563,1565,0,0,0,0,0,0,0,0,0,0
1684074766.93982697,172568445,1568,1567,1569,1570,0,0,0,0,0,0,0,0,0,0
1684074767.03978705,172668405,1563,1561,1575,1576,0,0,0,0,0,0,0,0,0,0
1684074767.13974690,172768365,1557,1555,1581,1582,0,0,0,0,0,0,0,0,0,0
1684074767.23970699,172868325,1551,1549,1589,1589,0,0,0,0,0,0,0,0,0,0
1684074767.33966708,172968285,1546,1545,1596,1596,0,0,0,0,0,0,0,0,0,0
1684074767.43962693,173068245,1542,1541,1600,1600,0,0,0,0,0,0,0,0,0,0
1684074767.53958702,173168205,1540,1540,1602,1602,0,0,0,0,0,0,0,0,0,0
1684074767.63954711,173268165,1540,1541,1601,1601,0,0,0,0,0,0,0,0,0,0
1684074767.74033999,173368958,1543,1544,1600,1599,0,0,0,0,0,0,0,0,0,0
1684074767.84030008,173468918,1547,1548,1596,1596,0,0,0,0,0,0,0,0,0,0
1684074767.94025993,173568878,1552,1553,1591,1591,0,0,0,0,0,0,0,0,0,0
1684074768.04022002,173668838,1558,1559,1586,1586,0,0,0,0,0,0,0,0,0,0
1684074768.14018011,173768798,1565,1565,1582,1581,0,0,0,0,0,0,0,0,0,0
1684074768.24013996,173868758,1571,1571,1578,1577,0,0,0,0,0,0,0,0,0,0
1684074768.34010005,173968718,1576,1575,1575,1574,0,0,0,0,0,0,0,0,0,0
1684074768.44005990,174068678,1581,1579,1573,1572,0,0,0,0,0,0,0,0,0,0
1684074768.54001999,174168638,1583,1582,1571,1571,0,0,0,0,0,0,0,0,0,0
1684074768.63998008,174268598,1584,1583,1570,1570,0,0,0,0,0,0,0,0,0,0
1684074768.73993993,174368558,1584,1584,1570,1570,0,0,0,0,0,0,0,0,0,0
1684074768.83990002,174468518,1584,1583,1571,1572,0,0,0,0,0,0,0,0,0,0
1684074768.93986011,174568478,1584,1583,1574,1574,0,0,0,0,0,0,0,0,0,0
1684074769.03981996,174668438,1582,1582,1575,1575,0,0,0,0,0,0,0,0,0,0
1684074769.13978004,174768398,1580,1581,1576,1577,0,0,0,0,0,0,0,0,0,0
1684074769.23973989,174868358,1580,1580,1579,1579,0,0,0,0,0,0,0,0,0,0
1684074769.33969998,174968318,1577,1578,1579,1579,0,0,0,0,0,0,0,0,0,0
1684074769.43966007,175068278,1577,1577,1582,1581,0,0,0,0,0,0,0,0,0,0
1684074769.53961992,175168238,1577,1577,1583,1583,0,0,0,0,0,0,0,0,0,0
1684074769.63958001,175268198,1576,1576,1584,1583,0,0,0,0,0,0,0,0,0,0
1684074769.73954010,175368158,1576,1576,1584,1583,0,0,0,0,0,0,0,0,0,0
1684074769.84033298,175468951,1576,1577,1584,1583,0,0,0,0,0,0,0,0,0,0
1684074769.94029307,175568911,1577,1577,1583,1583,0,0,0,0,0,0,0,0,0,0
1684074770.04025292,175668871,1577,1577,1582,1582,0,0,0,0,0,0,0,0,0,0
1684074770.14021301,175768831,1578,1578,1581,1581,0,0,0,0,0,0,0,0,0,0
1684074770.24017310,175868791,1579,1579,1581,1580,0,0,0,0,0,0,0,0,0,0
1684074770.34013295,175968751,1580,1580,1580,1580,0,0,0,0,0,0,0,0,0,0
1684074770.44009304,176068711,1581,1581,1580,1579,0,0,0,0,0,0,0,0,0,0
1684074770.54005289,176168671,1581,1581,1579,1578,0,0,0,0,0,0,0,0,0,0
1684074770.64001298,176268631,1581,1581,1578,1578,0,0,0,0,0,0,0,0,0,0
1684074770.73997307,176368591,1583,1582,1579,1579,0,0,0,0,0,0,0,0,0,0
1684074770.83993292,176468551,1583,1583,1580,1580,0,0,0,0,0,0,0,0,0,0
1684074770.93989301,176568511,1582,1582,1579,1579,0,0,0,0,0,0,0,0,0,0
1684074771.03985310,176668471,1582,1582,1579,1580,0,0,0,0,0,0,0,0,0,0
1684074771.13981295,176768431,1581,1581,1579,1579,0,0,0,0,0,0,0,0,0,0
1684074771.23977304,176868391,1581,1581,1580,1580,0,0,0,0,0,0,0,0,0,0
1684074771.33973289,176968351,1581,1581,1580,1581,0,0,0,0,0,0,0,0,0,0
1684074771.43969297,177068311,1580,1580,1580,1580,0,0,0,0,0,0,0,0,0,0
1684074771.53965306,177168271,1580,1580,1581,1581,0,0,0,0,0,0,0,0,0,0
1684074771.63961291,177268231,1580,1581,1581,1581,0,0,0,0,0,0,0,0,0,0
1684074771.73957300,177368191,1580,1580,1582,1581,0,0,0,0,0,0,0,0,0,0
1684074771.84036589,177468984,1580,1580,1581,1582,0,0,0,0,0,0,0,0,0,0
1684074771.94032598,177568944,1581,1580,1581,1581,0,0,0,0,0,0,0,0,0,0
1684074772.04028606,177668904,1581,1580,1581,1581,0,0,0,0,0,0,0,0,0,0
1684074772.14024591,177768864,1581,1581,1582,1582,0,0,0,0,0,0,0,0,0,0
1684074772.24020600,177868824,1581,1582,1582,1582,0,0,0,0,0,0,0,0,0,0
1684074772.34016609,177968784,1581,1581,1581,1581,0,0,0,0,0,0,0,0,0,0
1684074772.44012594,178068744,1581,1581,1581,1581,0,0,0,0,0,0,0,0,0,0
1684074772.54008603,178168704,1582,1582,1581,1582,0,0,0,0,0,0,0,0,0,0
1684074772.64004588,178268664,1582,1582,1583,1580,0,0,0,0,0,0,0,0,0,0
1684074772.74000597,178368624,1582,1583,1589,1574,0,0,0,0,0,0,0,0,0,0
1684074772.83996606,178468584,1581,1583,1584,1573,0,0,0,0,0,0,0,0,0,0
1684074772.93992591,178568544,1580,1582,1575,1574,0,0,0,0,0,0,0,0,0,0
1684074773.03988600,178668504,1578,1580,1566,1570,0,0,0,0,0,0,0,0,0,0
1684074773.13984609,178768464,1578,1580,1560,1566,0,0,0,0,0,0,0,0,0,0
1684074773.23980594,178868424,1578,1580,1556,1562,0,0,0,0,0,0,0,0,0,0
1684074773.33976603,178968384,1579,1579,1555,1557,0,0,0,0,0,0,0,0,0,0
1684074773.43972611,179068344,1580,1579,1555,1555,0,0,0,0,0,0,0,0,0,0
1684074773.53968596,179168304,1580,1579,1556,1555,0,0,0,0,0,0,0,0,0,0
1684074773.63964605,179268264,1579,1578,1556,1553,0,0,0,0,0,0,0,0,0,0
1684074773.73960590,179368224,1578,1578,1556,1554,0,0,0,0,0,0,0,0,0,0
1684074773.83956599,179468184,1577,1578,1555,1554,0,0,0,0,0,0,0,0,0,0
1684074773.94035912,179568977,1576,1578,1554,1554,0,0,0,0,0,0,0,0,0,0
1684074774.04031897,179668937,1576,1578,1553,1553,0,0,0,0,0,0,0,0,0,0
1684074774.14027905,179768897,1576,1578,1552,1552,0,0,0,0,0,0,0,0,0,0
1684074774.24023890,179868857,1577,1578,1550,1550,0,0,0,0,0,0,0,0,0,0
1684074774.34019899,179968817,1579,1580,1549,1548,0,0,0,0,0,0,0,0,0,0
1684074774.44015908,180068777,1580,1581,1546,1545,0,0,0,0,0,0,0,0,0,0
1684074774.54011893,180168737,1485,1486,1544,1543,0,0,0,0,0,0,0,0,0,0
1684074774.64007902,180268697,1513,1515,1564,1565,0,0,0,0,0,0,0,0,0,0
1684074774.74003911,180368657,1534,1536,1565,1563,0,0,0,0,0,0,0,0,0,0
1684074774.83999896,180468617,1555,1555,1560,1558,0,0,0,0,0,0,0,0,0,0
1684074774.93995905,180568577,1572,1571,1556,1554,0,0,0,0,0,0,0,0,0,0
1684074775.03991890,180668537,1585,1584,1551,1550,0,0,0,0,0,0,0,0,0,0
1684074775.13987899,180768497,1596,1594,1549,1550,0,0,0,0,0,0,0,0,0,0
1684074775.23983908,180868457,1594,1591,1544,1546,0,0,0,0,0,0,0,0,0,0
1684074775.33979893,180968417,1594,1592,1540,1543,0,0,0,0,0,0,0,0,0,0
1684074775.43975902,181068377,1594,1592,1542,1546,0,0,0,0,0,0,0,0,0,0
1684074775.53971910,181168337,1594,1593,1550,1555,0,0,0,0,0,0,0,0,0,0
1684074775.63967896,181268297,1592,1591,1559,1563,0,0,0,0,0,0,0,0,0,0
1684074775.73963904,181368257,1588,1587,1567,1570,0,0,0,0,0,0,0,0,0,0
1684074775.83959889,181468217,1583,1583,1574,1576,0,0,0,0,0,0,0,0,0,0
1684074775.93955898,181568177,1580,1579,1583,1584,0,0,0,0,0,0,0,0,0,0
1684074776.04035211,181668970,1576,1573,1588,1589,0,0,0,0,0,0,0,0,0,0
1684074776.14031196,181768930,1572,1570,1593,1594,0,0,0,0,0,0,0,0,0,0
1684074776.24027205,181868890,1568,1567,1597,1596,0,0,0,0,0,0,0,0,0,0
1684074776.34023190,181968850,1564,1564,1598,1597,0,0,0,0,0,0,0,0,0,0
1684074776.44019198,182068810,1561,1561,1599,1598,0,0,0,0,0,0,0,0,0,0
1684074776.54015207,182168770,1559,1560,1599,1598,0,0,0,0,0,0,0,0,0,0
1684074776.64011192,182268730,1559,1560,1600,1597,0,0,0,0,0,0,0,0,0,0
1684074776.74007201,182368690,1559,1560,1598,1596,0,0,0,0,0,0,0,0,0,0
1684074776.84003210,182468650,1560,1561,1596,1594,0,0,0,0,0,0,0,0,0,0
1684074776.93999195,182568610,1561,1562,1592,1591,0,0,0,0,0,0,0,0,0,0
1684074777.03995204,182668570,1563,1564,1589,1589,0,0,0,0,0,0,0,0,0,0
1684074777.13991189,182768530,1565,1566,1586,1586,0,0,0,0,0,0,0,0,0,0
1684074777.23987198,182868490,1568,1568,1582,1583,0,0,0,0,0,0,0,0,0,0
1684074777.33983207,182968450,1570,1571,1580,1580,0,0,0,0,0,0,0,0,0,0
1684074777.43979192,183068410,1573,1574,1579,1579,0,0,0,0,0,0,0,0,0,0
1684074777.53975201,183168370,1575,1575,1577,1576,0,0,0,0,0,0,0,0,0,0
1684074777.63971210,183268330,1578,1578,1576,1576,0,0,0,0,0,0,0,0,0,0
1684074777.73967195,183368290,1580,1579,1575,1575,0,0,0,0,0,0,0,0,0,0
1684074777.83963203,183468250,1580,1580,1573,1574,0,0,0,0,0,0,0,0,0,0
1684074777.93959188,183568210,1581,1581,1573,1574,0,0,0,0,0,0,0,0,0,0
1684074778.03955197,183668170,1581,1581,1573,1574,0,0,0,0,0,0,0,0,0,0
1684074778.14034510,183768963,1582,1582,1574,1574,0,0,0,0,0,0,0,0,0,0
1684074778.24030495,183868923,1582,1582,1575,1575,0,0,0,0,0,0,0,0,0,0
1684074778.34026504,183968883,1581,1582,1574,1574,0,0,0,0,0,0,0,0,0,0
1684074778.44022489,184068843,1582,1581,1575,1575,0,0,0,0,0,0,0,0,0,0
1684074778.54018497,184168803,1582,1581,1576,1576,0,0,0,0,0,0,0,0,0,0
1684074778.64014506,184268763,1583,1582,1578,1578,0,0,0,0,0,0,0,0,0,0
1684074778.74010491,184368723,1582,1581,1579,1578,0,0,0,0,0,0,0,0,0,0
1684074778.84006500,184468683,1582,1581,1580,1579,0,0,0,0,0,0,0,0,0,0
1684074778.94002509,184568643,1581,1581,1579,1580,0,0,0,0,0,0,0,0,0,0
1684074779.03998494,184668603,1580,1580,1579,1580,0,0,0,0,0,0,0,0,0,0
1684074779.13994503,184768563,1580,1581,1580,1580,0,0,0,0,0,0,0,0,0,0
1684074779.23990488,184868523,1580,1580,1580,1580,0,0,0,0,0,0,0,0,0,0
1684074779.33986497,184968483,1579,1580,1580,1580,0,0,0,0,0,0,0,0,0,0
1684074779.43982506,185068443,1578,1579,1580,1580,0,0,0,0,0,0,0,0,0,0
1684074779.53978491,185168403,1579,1580,1581,1580,0,0,0,0,0,0,0,0,0,0
1684074779.63974500,185268363,1580,1580,1582,1581,0,0,0,0,0,0,0,0,0,0
1684074779.73970509,185368323,1580,1579,1581,1581,0,0,0,0,0,0,0,0,0,0
1684074779.83966494,185468283,1580,1580,1581,1581,0,0,0,0,0,0,0,0,0,0
1684074779.93962502,185568243,1580,1580,1581,1582,0,0,0,0,0,0,0,0,0,0
1684074780.03958511,185668203,1580,1580,1580,1581,0,0,0,0,0,0,0,0,0,0
1684074780.13954496,185768163,1579,1580,1580,1580,0,0,0,0,0,0,0,0,0,0
1684074780.24033809,185868956,1580,1580,1580,1580,0,0,0,0,0,0,0,0,0,0
1684074780.34029794,185968916,1580,1581,1581,1581,0,0,0,0,0,0,0,0,0,0
1684074780.44025803,186068876,1581,1581,1581,1580,0,0,0,0,0,0,0,0,0,0
1684074780.54021811,186168836,1581,1581,1581,1581,0,0,0,0,0,0,0,0,0,0
1684074780.64017797,186268796,1581,1581,1581,1581,0,0,0,0,0,0,0,0,0,0
1684074780.74013805,186368756,1581,1581,1588,1573,0,0,0,0,0,0,0,0,0,0
1684074780.84009790,186468716,1581,1579,1585,1574,0,0,0,0,0,0,0,0,0,0
1684074780.94005799,186568676,1579,1576,1576,1574,0,0,0,0,0,0,0,0,0,0
1684074781.04001808,186668636,1575,1573,1569,1573,0,0,0,0,0,0,0,0,0,0
1684074781.13997793,186768596,1572,1571,1564,1571,0,0,0,0,0,0,0,0,0,0
1684074781.23993802,186868556,1569,1570,1563,1569,0,0,0,0,0,0,0,0,0,0
1684074781.33989811,186968516,1567,1569,1564,1567,0,0,0,0,0,0,0,0,0,0
1684074781.43985796,187068476,1565,1568,1565,1565,0,0,0,0,0,0,0,0,0,0
1684074781.53981805,187168436,1565,1567,1566,1565,0,0,0,0,0,0,0,0,0,0
1684074781.63977790,187268396,1566,1567,1569,1565,0,0,0,0,0,0,0,0,0,0
1684074781.73973799,187368356,1565,1565,1568,1565,0,0,0,0,0,0,0,0,0,0
1684074781.83969808,187468316,1564,1564,1566,1565,0,0,0,0,0,0,0,0,0,0
1684074781.93965793,187568276,1564,1563,1565,1565,0,0,0,0,0,0,0,0,0,0
1684074782.03961802,187668236,1562,1562,1564,1564,0,0,0,0,0,0,0,0,0,0
1684074782.13957810,187768196,1562,1562,1564,1565,0,0,0,0,0,0,0,0,0,0
1684074782.23953795,187868156,1562,1561,1563,1564,0,0,0,0,0,0,0,0,0,0
1684074782.34033108,187968949,1562,1562,1564,1564,0,0,0,0,0,0,0,0,0,0
1684074782.44029093,188068909,1561,1561,1563,1562,0,0,0,0,0,0,0,0,0,0
1684074782.54025102,188168869,1560,1561,1562,1561,0,0,0,0,0,0,0,0,0,0
1684074782.64021111,188268829,1561,1561,1561,1561,0,0,0,0,0,0,0,0,0,0
1684074782.74017096,188368789,1561,1561,1562,1561,0,0,0,0,0,0,0,0,0,0
1684074782.84013104,188468749,1561,1560,1561,1560,0,0,0,0,0,0,0,0,0,0
1684074782.94009089,188568709,1560,1560,1560,1559,0,0,0,0,0,0,0,0,0,0
1684074783.04005098,188668669,1561,1560,1560,1559,0,0,0,0,0,0,0,0,0,0
1684074783.14001107,188768629,1560,1559,1560,1558,0,0,0,0,0,0,0,0,0,0
1684074783.23997092,188868589,1560,1559,1560,1558,0,0,0,0,0,0,0,0,0,0
1684074783.33993101,188968549,1560,1559,1560,1559,0,0,0,0,0,0,0,0,0,0
1684074783.43989110,189068509,1560,1559,1561,1559,0,0,0,0,0,0,0,0,0,0
1684074783.53985095,189168469,1560,1558,1558,1559,0,0,0,0,0,0,0,0,0,0
1684074783.63981104,189268429,1561,1560,1558,1562,0,0,0,0,0,0,0,0,0,0
1684074783.73977089,189368389,1560,1561,1558,1563,0,0,0,0,0,0,0,0,0,0
1684074783.83973098,189468349,1560,1562,1558,1564,0,0,0,0,0,0,0,0,0,0
1684074783.93969107,189568309,1560,1562,1559,1563,0,0,0,0,0,0,0,0,0,0
1684074784.03965092,189668269,1560,1561,1560,1561,0,0,0,0,0,0,0,0,0,0
1684074784.13961101,189768229,1560,1561,1562,1559,0,0,0,0,0,0,0,0,0,0
1684074784.23957109,189868189,1562,1562,1564,1560,0,0,0,0,0,0,0,0,0,0
1684074784.34036398,189968982,1562,1561,1561,1561,0,0,0,0,0,0,0,0,0,0
1684074784.44032407,190068942,1560,1558,1555,1560,0,0,0,0,0,0,0,0,0,0
1684074784.54028392,190168902,1556,1555,1550,1555,0,0,0,0,0,0,0,0,0,0
1684074784.64024401,190268862,1551,1551,1545,1548,0,0,0,0,0,0,0,0,0,0
1684074784.74020410,190368822,1545,1545,1539,1540,0,0,0,0,0,0,0,0,0,0
1684074784.84016395,190468782,1539,1540,1534,1533,0,0,0,0,0,0,0,0,0,0
1684074784.94012403,190568742,1532,1533,1527,1525,0,0,0,0,0,0,0,0,0,0
1684074785.04008389,190668702,1525,1525,1519,1518,0,0,0,0,0,0,0,0,0,0
1684074785.14004397,190768662,1521,1521,1517,1516,0,0,0,0,0,0,0,0,0,0
1684074785.24000406,190868622,1518,1518,1517,1517,0,0,0,0,0,0,0,0,0,0
1684074785.33996391,190968582,1517,1517,1519,1520,0,0,0,0,0,0,0,0,0,0
1684074785.43992400,191068542,1519,1518,1524,1525,0,0,0,0,0,0,0,0,0,0
1684074785.53988409,191168502,1521,1521,1530,1530,0,0,0,0,0,0,0,0,0,0
1684074785.63984394,191268462,1524,1524,1535,1535,0,0,0,0,0,0,0,0,0,0
1684074785.73980403,191368422,1529,1528,1540,1540,0,0,0,0,0,0,0,0,0,0
1684074785.83976388,191468382,1531,1531,1542,1542,0,0,0,0,0,0,0,0,0,0
1684074785.93972397,191568342,1535,1535,1544,1543,0,0,0,0,0,0,0,0,0,0
1684074786.03968406,191668302,1538,1539,1545,1545,0,0,0,0,0,0,0,0,0,0
1684074786.13964391,191768262,1541,1542,1545,1545,0,0,0,0,0,0,0,0,0,0
1684074786.23960400,191868222,1544,1544,1544,1544,0,0,0,0,0,0,0,0,0,0
1684074786.33956409,191968182,1546,1546,1544,1544,0,0,0,0,0,0,0,0,0,0
1684074786.44035697,192068975,1548,1548,1543,1543,0,0,0,0,0,0,0,0,0,0
1684074786.54031706,192168935,1549,1549,1544,1543,0,0,0,0,0,0,0,0,0,0
1684074786.64027691,192268895,1550,1550,1543,1543,0,0,0,0,0,0,0,0,0,0
1684074786.74023700,192368855,1550,1550,1543,1542,0,0,0,0,0,0,0,0,0,0
1684074786.84019709,192468815,1550,1550,1543,1543,0,0,0,0,0,0,0,0,0,0
1684074786.94015694,192568775,1550,1550,1544,1544,0,0,0,0,0,0,0,0,0,0
1684074787.04011703,192668735,1548,1548,1544,1543,0,0,0,0,0,0,0,0,0,0
1684074787.14007711,192768695,1547,1547,1544,1544,0,0,0,0,0,0,0,0,0,0
1684074787.24003696,192868655,1547,1547,1545,1545,0,0,0,0,0,0,0,0,0,0
1684074787.33999705,192968615,1545,1545,1545,1545,0,0,0,0,0,0,0,0,0,0
1684074787.43995690,193068575,1544,1544,1546,1545,0,0,0,0,0,0,0,0,0,0
1684074787.53991699,193168535,1544,1544,1546,1546,0,0,0,0,0,0,0,0,0,0
1684074787.63987708,193268495,1543,1543,1545,1545,0,0,0,0,0,0,0,0,0,0
1684074787.73983693,193368455,1542,1542,1545,1545,0,0,0,0,0,0,0,0,0,0
1684074787.83979702,193468415,1543,1543,1546,1546,0,0,0,0,0,0,0,0,0,0
1684074787.93975711,193568375,1543,1543,1546,1546,0,0,0,0,0,0,0,0,0,0
1684074788.03971696,193668335,1542,1542,1545,1545,0,0,0,0,0,0,0,0,0,0
1684074788.13967705,193768295,1543,1543,1545,1545,0,0,0,0,0,0,0,0,0,0
1684074788.23963690,193868255,1543,1543,1544,1544,0,0,0,0,0,0,0,0,0,0
1684074788.33959699,193968215,1544,1544,1545,1544,0,0,0,0,0,0,0,0,0,0
1684074788.43955708,194068175,1544,1544,1544,1544,0,0,0,0,0,0,0,0,0,0
1684074788.54034996,194168968,1544,1544,1543,1543,0,0,0,0,0,0,0,0,0,0
1684074788.64031005,194268928,1544,1544,1544,1543,0,0,0,0,0,0,0,0,0,0
1684074788.74026990,194368888,1544,1545,1543,1543,0,0,0,0,0,0,0,0,0,0
1684074788.84022999,194468848,1545,1545,1544,1544,0,0,0,0,0,0,0,0,0,0
1684074788.94019008,194568808,1545,1544,1543,1543,0,0,0,0,0,0,0,0,0,0
1684074789.04014993,194668768,1545,1545,1544,1544,0,0,0,0,0,0,0,0,0,0
1684074789.14011002,194768728,1544,1544,1543,1543,0,0,0,0,0,0,0,0,0,0
1684074789.24007010,194868688,1544,1544,1544,1544,0,0,0,0,0,0,0,0,0,0
1684074789.34002995,194968648,1545,1545,1545,1545,0,0,0,0,0,0,0,0,0,0
1684074789.43999004,195068608,1545,1545,1545,1545,0,0,0,0,0,0,0,0,0,0
1684074789.53994989,195168568,1544,1544,1544,1544,0,0,0,0,0,0,0,0,0,0
1684074789.63990998,195268528,1544,1545,1545,1545,0,0,0,0,0,0,0,0,0,0
1684074789.73987007,195368488,1544,1544,1544,1544,0,0,0,0,0,0,0,0,0,0
1684074789.83982992,195468448,1544,1544,1545,1545,0,0,0,0,0,0,0,0,0,0
1684074789.93979001,195568408,1545,1545,1545,1545,0,0,0,0,0,0,0,0,0,0
1684074790.03975010,195668368,1544,1544,1545,1545,0,0,0,0,0,0,0,0,0,0
1684074790.13970995,195768328,1544,1544,1544,1544,0,0,0,0,0,0,0,0,0,0
1684074790.23967004,195868288,1544,1544,1544,1544,0,0,0,0,0,0,0,0,0,0
1684074790.33962989,195968248,1544,1544,1544,1544,0,0,0,0,0,0,0,0,0,0
1684074790.43958998,196068208,1545,1544,1544,1544,0,0,0,0,0,0,0,0,0,0
1684074790.53955007,196168168,1544,1544,1544,1544,0,0,0,0,0,0,0,0,0,0
1684074790.64034295,196268961,1544,1544,1544,1544,0,0,0,0,0,0,0,0,0,0
1684074790.74030304,196368921,1544,1544,1543,1543,0,0,0,0,0,0,0,0,0,0
1684074790.84026289,196468881,1545,1545,1544,1544,0,0,0,0,0,0,0,0,0,0
1684074790.94022298,196568841,1544,1544,1544,1544,0,0,0,0,0,0,0,0,0,0
1684074791.04018307,196668801,1545,1545,1545,1545,0,0,0,0,0,0,0,0,0,0
1684074791.14014292,196768761,1544,1544,1544,1544,0,0,0,0,0,0,0,0,0,0
1684074791.24010301,196868721,1544,1544,1544,1544,0,0,0,0,0,0,0,0,0,0
1684074791.34006310,196968681,1544,1545,1545,1544,0,0,0,0,0,0,0,0,0,0
1684074791.44002295,197068641,1544,1544,1544,1543,0,0,0,0,0,0,0,0,0,0
1684074791.53998303,197168601,1544,1544,1544,1544,0,0,0,0,0,0,0,0,0,0
1684074791.63994288,197268561,1544,1544,1544,1544,0,0,0,0,0,0,0,0,0,0
1684074791.73990297,197368521,1544,1544,1544,1544,0,0,0,0,0,0,0,0,0,0
1684074791.83986306,197468481,1544,1545,1545,1545,0,0,0,0,0,0,0,0,0,0
1684074791.93982291,197568441,1544,1544,1544,1544,0,0,0,0,0,0,0,0,0,0
1684074792.03978300,197668401,1545,1545,1545,1545,0,0,0,0,0,0,0,0,0,0
1684074792.13974309,197768361,1545,1545,1545,1544,0,0,0,0,0,0,0,0,0,0
1684074792.23970294,197868321,1545,1545,1545,1545,0,0,0,0,0,0,0,0,0,0
1684074792.33966303,197968281,1544,1545,1544,1544,0,0,0,0,0,0,0,0,0,0
1684074792.43962288,198068241,1545,1545,1545,1544,0,0,0,0,0,0,0,0,0,0
1684074792.53958297,198168201,1544,1544,1544,1544,0,0,0,0,0,0,0,0,0,0
1684074792.63954306,198268161,1544,1544,1544,1544,0,0,0,0,0,0,0,0,0,0
1684074792.74033594,198368954,1544,1544,1544,1544,0,0,0,0,0,0,0,0,0,0
1684074792.84029603,198468914,1545,1544,1544,1544,0,0,0,0,0,0,0,0,0,0
1684074792.94025588,198568874,1545,1545,1545,1545,0,0,0,0,0,0,0,0,0,0
1684074793.04021597,198668834,1544,1544,1545,1544,0,0,0,0,0,0,0,0,0,0
1684074793.14017606,198768794,1544,1544,1544,1544,0,0,0,0,0,0,0,0,0,0
1684074793.24013591,198868754,1544,1544,1544,1544,0,0,0,0,0,0,0,0,0,0
1684074793.34009600,198968714,1544,1544,1544,1544,0,0,0,0,0,0,0,0,0,0
1684074793.44005609,199068674,1544,1544,1544,1544,0,0,0,0,0,0,0,0,0,0
1684074793.54001594,199168634,1544,1545,1544,1545,0,0,0,0,0,0,0,0,0,0
1684074793.63997602,199268594,1545,1545,1545,1545,0,0,0,0,0,0,0,0,0,0
1684074793.73993611,199368554,1545,1545,1545,1545,0,0,0,0,0,0,0,0,0,0
1684074793.83989596,199468514,1545,1544,1545,1544,0,0,0,0,0,0,0,0,0,0
1684074793.93985605,199568474,1544,1544,1544,1544,0,0,0,0,0,0,0,0,0,0
1684074794.03981590,199668434,1545,1544,1545,1544,0,0,0,0,0,0,0,0,0,0
1684074794.13977599,199768394,1544,1544,1544,1544,0,0,0,0,0,0,0,0,0,0
1684074794.23973608,199868354,1544,1544,1544,1544,0,0,0,0,0,0,0,0,0,0
1684074794.33969593,199968314,1544,1545,1545,1545,0,0,0,0,0,0,0,0,0,0
1684074794.43965602,200068274,1545,1544,1545,1545,0,0,0,0,0,0,0,0,0,0
1684074794.53961611,200168234,1544,1544,1544,1544,0,0,0,0,0,0,0,0,0,0
1684074794.63957596,200268194,1544,1544,1544,1544,0,0,0,0,0,0,0,0,0,0
1684074794.73953605,200368154,1544,1544,1544,1544,0,0,0,0,0,0,0,0,0,0
1684074794.84032893,200468947,1538,1538,1535,1535,0,0,0,0,0,0,0,0,0,0
1684074794.94028902,200568907,1416,1418,1345,1345,0,0,0,0,0,0,0,0,0,0
1684074795.04024911,200668867,1360,1363,1242,1243,0,0,0,0,0,0,0,0,0,0
1684074795.14020896,200768827,1344,1346,1209,1210,0,0,0,0,0,0,0,0,0,0
1684074795.24016905,200868787,1333,1334,1185,1186,0,0,0,0,0,0,0,0,0,0
1684074795.34012890,200968747,1310,1311,1150,1150,0,0,0,0,0,0,0,0,0,0
1684074795.44008899,201068707,1226,1228,1150,1150,0,0,0,0,0,0,0,0,0,0
1684074795.54004908,201168667,1130,1132,1150,1150,0,0,0,0,0,0,0,0,0,0
1684074795.64000893,201268627,1023,1026,1150,1150,0,0,0,0,0,0,0,0,0,0
1684074795.73996902,201368587,956,958,1150,1150,0,0,0,0,0,0,0,0,0,0
1684074795.83992910,201468547,956,958,1150,1150,0,0,0,0,0,0,0,0,0,0
1684074795.93988895,201568507,956,958,1150,1150,0,0,0,0,0,0,0,0,0,0
1684074796.03984904,201668467,957,930,1150,1185,0,0,0,0,0,0,0,0,0,0
1684074796.13980889,201768427,957,939,1150,1175,0,0,0,0,0,0,0,0,0,0
1684074796.23976898,201868387,956,945,1150,1168,0,0,0,0,0,0,0,0,0,0
1684074796.33972907,201968347,956,946,1150,1166,0,0,0,0,0,0,0,0,0,0
1684074796.43968892,202068307,956,946,1150,1167,0,0,0,0,0,0,0,0,0,0
1684074796.53964901,202168267,956,945,1150,1167,0,0,0,0,0,0,0,0,0,0
1684074796.63960910,202268227,956,945,1150,1168,0,0,0,0,0,0,0,0,0,0
1684074796.73956895,202368187,956,944,1150,1169,0,0,0,0,0,0,0,0,0,0
1684074796.84036207,202468980,957,958,1150,1150,0,0,0,0,0,0,0,0,0,0
1684074796.94032192,202568940,957,956,1150,1152,0,0,0,0,0,0,0,0,0,0
1684074797.04028201,202668900,957,955,1150,1153,0,0,0,0,0,0,0,0,0,0
1684074797.14024210,202768860,957,955,1150,1153,0,0,0,0,0,0,0,0,0,0
1684074797.24020195,202868820,957,954,1150,1154,0,0,0,0,0,0,0,0,0,0
1684074797.34016204,202968780,1000,1000,1000,1000,0,0,0,0,0,0,0,0,0,0
1684074797.44012189,203068740,1000,1000,1000,1000,0,0,0,0,0,0,0,0,0,0
1684074797.54008198,203168700,1000,1000,1000,1000,0,0,0,0,0,0,0,0,0,0
1684074797.64004207,203268660,1000,1000,1000,1000,0,0,0,0,0,0,0,0,0,0
1684074797.74000192,203368620,1000,1000,1000,1000,0,0,0,0,0,0,0,0,0,0
1684074797.83996201,203468580,1000,1000,1000,1000,0,0,0,0,0,0,0,0,0,0
1684074797.93992209,203568540,1000,1000,1000,1000,0,0,0,0,0,0,0,0,0,0
1684074798.03988194,203668500,1000,1000,1000,1000,0,0,0,0,0,0,0,0,0,0
1684074798.13984203,203768460,1000,1000,1000,1000,0,0,0,0,0,0,0,0,0,0
1684074798.23980188,203868420,1000,1000,1000,1000,0,0,0,0,0,0,0,0,0,0
1684074798.33976197,203968380,1000,1000,1000,1000,0,0,0,0,0,0,0,0,0,0
1684074798.43972206,204068340,1000,1000,1000,1000,0,0,0,0,0,0,0,0,0,0
1684074798.53968191,204168300,1000,1000,1000,1000,0,0,0,0,0,0,0,0,0,0
1684074798.63964200,204268260,1000,1000,1000,1000,0,0,0,0,0,0,0,0,0,0
1684074798.73960209,204368220,1000,1000,1000,1000,0,0,0,0,0,0,0,0,0,0
1684074798.83956194,204468180,1000,1000,1000,1000,0,0,0,0,0,0,0,0,0,0
1684074798.94035506,204568973,1000,1000,1000,1000,0,0,0,0,0,0,0,0,0,0
1684074799.04031491,204668933,1000,1000,1000,1000,0,0,0,0,0,0,0,0,0,0
1684074799.14027500,204768893,1000,1000,1000,1000,0,0,0,0,0,0,0,0,0,0
1684074799.24023509,204868853,1000,1000,1000,1000,0,0,0,0,0,0,0,0,0,0
1684074799.34019494,204968813,1000,1000,1000,1000,0,0,0,0,0,0,0,0,0,0
1684074799.44015503,205068773,1000,1000,1000,1000,0,0,0,0,0,0,0,0,0,0
1684074799.54011488,205168733,1000,1000,1000,1000,0,0,0,0,0,0,0,0,0,0
1684074799.64007497,205268693,1000,1000,1000,1000,0,0,0,0,0,0,0,0,0,0
1684074799.74003506,205368653,1000,1000,1000,1000,0,0,0,0,0,0,0,0,0,0
1684074799.83999491,205468613,1000,1000,1000,1000,0,0,0,0,0,0,0,0,0,0
1684074799.93995500,205568573,1000,1000,1000,1000,0,0,0,0,0,0,0,0,0,0
1684074800.03991508,205668533,1000,1000,1000,1000,0,0,0,0,0,0,0,0,0,0
1684074800.13987494,205768493,1000,1000,1000,1000,0,0,0,0,0,0,0,0,0,0
1684074800.23983502,205868453,1000,1000,1000,1000,0,0,0,0,0,0,0,0,0,0
1684074800.33979511,205968413,1000,1000,1000,1000,0,0,0,0,0,0,0,0,0,0
1684074800.43975496,206068373,1000,1000,1000,1000,0,0,0,0,0,0,0,0,0,0
1684074800.53971505,206168333,1000,1000,1000,1000,0,0,0,0,0,0,0,0,0,0
1684074800.63967490,206268293,1000,1000,1000,1000,0,0,0,0,0,0,0,0,0,0
1684074800.73963499,206368253,1000,1000,1000,1000,0,0,0,0,0,0,0,0,0,0
1684074800.83959508,206468213,1000,1000,1000,1000,0,0,0,0,0,0,0,0,0,0
1684074800.93955493,206568173,1000,1000,1000,1000,0,0,0,0,0,0,0,0,0,0
1684074801.04034805,206668966,1000,1000,1000,1000,0,0,0,0,0,0,0,0,0,0
1684074801.14030790,206768926,1000,1000,1000,1000,0,0,0,0,0,0,0,0,0,0
1684074801.24026799,206868886,1000,1000,1000,1000,0,0,0,0,0,0,0,0,0,0
1684074801.34022808,206968846,1000,1000,1000,1000,0,0,0,0,0,0,0,0,0,0
1684074801.44018793,207068806,1000,1000,1000,1000,0,0,0,0,0,0,0,0,0,0
1684074801.54014802,207168766,1000,1000,1000,1000,0,0,0,0,0,0,0,0,0,0
1684074801.64010811,207268726,1000,1000,1000,1000,0,0,0,0,0,0,0,0,0,0
1684074801.74006796,207368686,1000,1000,1000,1000,0,0,0,0,0,0,0,0,0,0
1684074801.84002805,207468646,1000,1000,1000,1000,0,0,0,0,0,0,0,0,0,0
1684074801.93998790,207568606,1000,1000,1000,1000,0,0,0,0,0,0,0,0,0,0
1684074802.03994799,207668566,1000,1000,1000,1000,0,0,0,0,0,0,0,0,0,0
1684074802.13990808,207768526,1000,1000,1000,1000,0,0,0,0,0,0,0,0,0,0
1684074802.23986793,207868486,1000,1000,1000,1000,0,0,0,0,0,0,0,0,0,0
1684074802.33982801,207968446,1000,1000,1000,1000,0,0,0,0,0,0,0,0,0,0
1684074802.43978810,208068406,1000,1000,1000,1000,0,0,0,0,0,0,0,0,0,0
1684074802.53974795,208168366,1000,1000,1000,1000,0,0,0,0,0,0,0,0,0,0
1684074802.63970804,208268326,1000,1000,1000,1000,0,0,0,0,0,0,0,0,0,0
1684074802.73966789,208368286,1000,1000,1000,1000,0,0,0,0,0,0,0,0,0,0
1684074802.83962798,208468246,1000,1000,1000,1000,0,0,0,0,0,0,0,0,0,0
1684074802.93958807,208568206,1000,1000,1000,1000,0,0,0,0,0,0,0,0,0,0
1684074803.03954792,208668166,1000,1000,1000,1000,0,0,0,0,0,0,0,0,0,0
1684074803.14034104,208768959,1000,1000,1000,1000,0,0,0,0,0,0,0,0,0,0
1684074803.24030089,208868919,1000,1000,1000,1000,0,0,0,0,0,0,0,0,0,0
1684074803.34026098,208968879,1000,1000,1000,1000,0,0,0,0,0,0,0,0,0,0
1684074803.44022107,209068839,1000,1000,1000,1000,0,0,0,0,0,0,0,0,0,0
1684074803.54018092,209168799,1000,1000,1000,1000,0,0,0,0,0,0,0,0,0,0
1684074803.64014101,209268759,1000,1000,1000,1000,0,0,0,0,0,0,0,0,0,0
1684074803.74010110,209368719,1000,1000,1000,1000,0,0,0,0,0,0,0,0,0,0
1684074803.84006095,209468679,1000,1000,1000,1000,0,0,0,0,0,0,0,0,0,0
1684074803.94002104,209568639,1000,1000,1000,1000,0,0,0,0,0,0,0,0,0,0
1684074804.03998089,209668599,1000,1000,1000,1000,0,0,0,0,0,0,0,0,0,0
1684074804.13994098,209768559,1000,1000,1000,1000,0,0,0,0,0,0,0,0,0,0
1684074804.23990107,209868519,1000,1000,1000,1000,0,0,0,0,0,0,0,0,0,0
1684074804.33986092,209968479,1000,1000,1000,1000,0,0,0,0,0,0,0,0,0,0
1684074804.43982100,210068439,1000,1000,1000,1000,0,0,0,0,0,0,0,0,0,0
1684074804.53978109,210168399,1000,1000,1000,1000,0,0,0,0,0,0,0,0,0,0
1684074804.63974094,210268359,1000,1000,1000,1000,0,0,0,0,0,0,0,0,0,0
1684074804.73970103,210368319,1000,1000,1000,1000,0,0,0,0,0,0,0,0,0,0
1684074804.83966088,210468279,1000,1000,1000,1000,0,0,0,0,0,0,0,0,0,0
1684074804.93962097,210568239,1000,1000,1000,1000,0,0,0,0,0,0,0,0,0,0
1684074805.03958106,210668199,1000,1000,1000,1000,0,0,0,0,0,0,0,0,0,0
1684074805.13954091,210768159,1000,1000,1000,1000,0,0,0,0,0,0,0,0,0,0
1684074805.24033403,210868952,1000,1000,1000,1000,0,0,0,0,0,0,0,0,0,0
1684074805.34029388,210968912,1000,1000,1000,1000,0,0,0,0,0,0,0,0,0,0
1684074805.44025397,211068872,1000,1000,1000,1000,0,0,0,0,0,0,0,0,0,0
1684074805.54021406,211168832,1000,1000,1000,1000,0,0,0,0,0,0,0,0,0,0
1684074805.64017391,211268792,1000,1000,1000,1000,0,0,0,0,0,0,0,0,0,0
1684074805.74013400,211368752,1000,1000,1000,1000,0,0,0,0,0,0,0,0,0,0
1684074805.84009409,211468712,1000,1000,1000,1000,0,0,0,0,0,0,0,0,0,0
1684074805.94005394,211568672,1000,1000,1000,1000,0,0,0,0,0,0,0,0,0,0
1684074806.04001403,211668632,1000,1000,1000,1000,0,0,0,0,0,0,0,0,0,0
1684074806.13997388,211768592,1000,1000,1000,1000,0,0,0,0,0,0,0,0,0,0
1684074806.23993397,211868552,1000,1000,1000,1000,0,0,0,0,0,0,0,0,0,0
1684074806.33989406,211968512,1000,1000,1000,1000,0,0,0,0,0,0,0,0,0,0
1684074806.43985391,212068472,1000,1000,1000,1000,0,0,0,0,0,0,0,0,0,0
1684074806.53981400,212168432,1000,1000,1000,1000,0,0,0,0,0,0,0,0,0,0
1684074806.63977408,212268392,1000,1000,1000,1000,0,0,0,0,0,0,0,0,0,0
1684074806.73973393,212368352,1000,1000,1000,1000,0,0,0,0,0,0,0,0,0,0
1684074806.83969402,212468312,1000,1000,1000,1000,0,0,0,0,0,0,0,0,0,0
1684074806.93965411,212568272,1000,1000,1000,1000,0,0,0,0,0,0,0,0,0,0
1684074807.03961396,212668232,1000,1000,1000,1000,0,0,0,0,0,0,0,0,0,0
1684074807.13957405,212768192,1000,1000,1000,1000,0,0,0,0,0,0,0,0,0,0
1684074807.24036694,212868985,1000,1000,1000,1000,0,0,0,0,0,0,0,0,0,0
1684074807.34032702,212968945,1000,1000,1000,1000,0,0,0,0,0,0,0,0,0,0
1684074807.44028711,213068905,1000,1000,1000,1000,0,0,0,0,0,0,0,0,0,0
1684074807.54024696,213168865,1000,1000,1000,1000,0,0,0,0,0,0,0,0,0,0
1684074807.64020705,213268825,1000,1000,1000,1000,0,0,0,0,0,0,0,0,0,0
1684074807.74016690,213368785,1000,1000,1000,1000,0,0,0,0,0,0,0,0,0,0
1684074807.84012699,213468745,1000,1000,1000,1000,0,0,0,0,0,0,0,0,0,0
1684074807.94008708,213568705,1000,1000,1000,1000,0,0,0,0,0,0,0,0,0,0
1684074808.04004693,213668665,1000,1000,1000,1000,0,0,0,0,0,0,0,0,0,0
1684074808.14000702,213768625,1000,1000,1000,1000,0,0,0,0,0,0,0,0,0,0
1684074808.23996711,213868585,1000,1000,1000,1000,0,0,0,0,0,0,0,0,0,0
1684074808.33992696,213968545,1000,1000,1000,1000,0,0,0,0,0,0,0,0,0,0
1684074808.43988705,214068505,1000,1000,1000,1000,0,0,0,0,0,0,0,0,0,0
1684074808.53984690,214168465,1000,1000,1000,1000,0,0,0,0,0,0,0,0,0,0
1684074808.63980699,214268425,1000,1000,1000,1000,0,0,0,0,0,0,0,0,0,0
1684074808.73976707,214368385,1000,1000,1000,1000,0,0,0,0,0,0,0,0,0,0
1684074808.83972692,214468345,1000,1000,1000,1000,0,0,0,0,0,0,0,0,0,0
1684074808.93968701,214568305,1000,1000,1000,1000,0,0,0,0,0,0,0,0,0,0
1684074809.03964710,214668265,1000,1000,1000,1000,0,0,0,0,0,0,0,0,0,0
1684074809.13960695,214768225,1000,1000,1000,1000,0,0,0,0,0,0,0,0,0,0
1684074809.23956704,214868185,1000,1000,1000,1000,0,0,0,0,0,0,0,0,0,0
1684074809.34035993,214968978,1000,1000,1000,1000,0,0,0,0,0,0,0,0,0,0
1684074809.44032001,215068938,1000,1000,1000,1000,0,0,0,0,0,0,0,0,0,0
1684074809.54028010,215168898,1000,1000,1000,1000,0,0,0,0,0,0,0,0,0,0
1684074809.64023995,215268858,1000,1000,1000,1000,0,0,0,0,0,0,0,0,0,0
1684074809.74020004,215368818,1000,1000,1000,1000,0,0,0,0,0,0,0,0,0,0
1684074809.84015989,215468778,1000,1000,1000,1000,0,0,0,0,0,0,0,0,0,0
1684074809.94011998,215568738,1000,1000,1000,1000,0,0,0,0,0,0,0,0,0,0
1684074810.04008007,215668698,1000,1000,1000,1000,0,0,0,0,0,0,0,0,0,0
1684074810.14003992,215768658,1000,1000,1000,1000,0,0,0,0,0,0,0,0,0,0
1684074810.24000001,215868618,1000,1000,1000,1000,0,0,0,0,0,0,0,0,0,0
1684074810.33996010,215968578,1000,1000,1000,1000,0,0,0,0,0,0,0,0,0,0
1684074810.43991995,216068538,1000,1000,1000,1000,0,0,0,0,0,0,0,0,0,0
1684074810.53988004,216168498,1000,1000,1000,1000,0,0,0,0,0,0,0,0,0,0
1684074810.63983989,216268458,1000,1000,1000,1000,0,0,0,0,0,0,0,0,0,0
1684074810.73979998,216368418,1000,1000,1000,1000,0,0,0,0,0,0,0,0,0,0
1684074810.83976007,216468378,1000,1000,1000,1000,0,0,0,0,0,0,0,0,0,0
1684074810.93971992,216568338,1000,1000,1000,1000,0,0,0,0,0,0,0,0,0,0
1684074811.03968000,216668298,1000,1000,1000,1000,0,0,0,0,0,0,0,0,0,0
1684074811.13964009,216768258,1000,1000,1000,1000,0,0,0,0,0,0,0,0,0,0
1684074811.23959994,216868218,1000,1000,1000,1000,0,0,0,0,0,0,0,0,0,0
1684074811.33956003,216968178,1000,1000,1000,1000,0,0,0,0,0,0,0,0,0,0
1684074811.44035292,217068971,1000,1000,1000,1000,0,0,0,0,0,0,0,0,0,0
1684074811.54031301,217168931,1000,1000,1000,1000,0,0,0,0,0,0,0,0,0,0
1684074811.64027309,217268891,1000,1000,1000,1000,0,0,0,0,0,0,0,0,0,0
1684074811.74023294,217368851,1000,1000,1000,1000,0,0,0,0,0,0,0,0,0,0
1684074811.84019303,217468811,1000,1000,1000,1000,0,0,0,0,0,0,0,0,0,0
1684074811.94015288,217568771,1000,1000,1000,1000,0,0,0,0,0,0,0,0,0,0
1684074812.04011297,217668731,1000,1000,1000,1000,0,0,0,0,0,0,0,0,0,0
1684074812.14007306,217768691,1000,1000,1000,1000,0,0,0,0,0,0,0,0,0,0
1684074812.24003291,217868651,1000,1000,1000,1000,0,0,0,0,0,0,0,0,0,0
