TimeUS,M1,M2,M3,M4,TimeUS,C1,C2,C3,C4
111926045,1000,1000,1000,1000,111928544,1000,1000,1000,1000
111928544,1000,1000,1000,1000,112028504,1000,1000,1000,1000
111931043,1000,1000,1000,1000,112128464,1000,1000,1000,1000
111933542,1000,1000,1000,1000,112228424,1000,1000,1000,1000
111936041,1000,1000,1000,1000,112328384,1000,1000,1000,1000
111938540,1000,1000,1000,1000,112428344,1000,1000,1000,1000
111941039,1000,1000,1000,1000,112528304,1000,1000,1000,1000
111943538,1000,1000,1000,1000,112628264,1000,1000,1000,1000
111946037,1000,1000,1000,1000,112728224,1000,1000,1000,1000
111948536,1000,1000,1000,1000,112828184,1000,1000,1000,1000
111951035,1000,1000,1000,1000,112928977,1000,1000,1000,1000
111953534,1000,1000,1000,1000,113028937,1000,1000,1000,1000
111956033,1000,1000,1000,1000,113128897,1000,1000,1000,1000
111958532,1000,1000,1000,1000,113228857,1000,1000,1000,1000
111961031,1000,1000,1000,1000,113328817,1000,1000,1000,1000
111963530,1000,1000,1000,1000,113428777,1000,1000,1000,1000
111966029,1000,1000,1000,1000,113528737,1000,1000,1000,1000
111968528,1000,1000,1000,1000,113628697,1000,1000,1000,1000
111971027,1000,1000,1000,1000,113728657,1000,1000,1000,1000
111973526,1000,1000,1000,1000,113828617,1000,1000,1000,1000
111976025,1000,1000,1000,1000,113928577,1000,1000,1000,1000
111978524,1000,1000,1000,1000,114028537,1030,1030,1030,1030
111981023,1000,1000,1000,1000,114128497,1060,1060,1060,1060
111983522,1000,1000,1000,1000,114228457,1090,1090,1090,1090
111986021,1000,1000,1000,1000,114328417,1120,1120,1120,1120
111988520,1000,1000,1000,1000,114428377,1150,1150,1150,1150
111991019,1000,1000,1000,1000,114528337,1408,1395,1395,1409
111993518,1000,1000,1000,1000,114628297,1586,1575,1576,1587
111996017,1000,1000,1000,1000,114728257,1733,1722,1722,1733
111998516,1000,1000,1000,1000,114828217,1860,1850,1850,1860
112001015,1000,1000,1000,1000,114928177,1887,1879,1878,1888
112003514,1000,1000,1000,1000,115028970,1800,1797,1796,1802
112006013,1000,1000,1000,1000,115128930,1673,1674,1672,1675
112008512,1000,1000,1000,1000,115228890,1614,1617,1617,1615
112011011,1000,1000,1000,1000,115328850,1607,1612,1612,1608
112013510,1000,1000,1000,1000,115428810,1617,1620,1621,1616
112016009,1000,1000,1000,1000,115528770,1622,1623,1624,1622
112018508,1000,1000,1000,1000,115628730,1621,1620,1620,1620
112021007,1000,1000,1000,1000,115728690,1616,1614,1614,1616
112023506,1000,1000,1000,1000,115828650,1613,1611,1610,1613
112026005,1000,1000,1000,1000,115928610,1615,1613,1613,1615
112028504,1000,1000,1000,1000,116028570,1616,1616,1615,1615
112031003,1000,1000,1000,1000,116128530,1618,1618,1619,1617
112033502,1000,1000,1000,1000,116228490,1620,1621,1621,1619
112036001,1000,1000,1000,1000,116328450,1599,1600,1603,1595
112038500,1000,1000,1000,1000,116428410,1580,1582,1588,1574
112040999,1000,1000,1000,1000,116528370,1569,1570,1573,1566
112043498,1000,1000,1000,1000,116628330,1560,1560,1559,1561
112045997,1000,1000,1000,1000,116728290,1551,1550,1543,1558
112048496,1000,1000,1000,1000,116828250,1544,1543,1535,1552
112050995,1000,1000,1000,1000,116928210,1538,1538,1531,1544
112053494,1000,1000,1000,1000,117028170,1533,1532,1529,1534
112055993,1000,1000,1000,1000,117128963,1529,1528,1528,1528
112058492,1000,1000,1000,1000,117228923,1528,1528,1530,1526
112060991,1000,1000,1000,1000,117328883,1530,1530,1533,1526
112063490,1000,1000,1000,1000,117428843,1534,1535,1538,1531
112065989,1000,1000,1000,1000,117528803,1538,1538,1540,1536
112068488,1000,1000,1000,1000,117628763,1540,1540,1542,1540
112070987,1000,1000,1000,1000,117728723,1543,1543,1544,1543
112073486,1000,1000,1000,1000,117828683,1546,1546,1547,1547
112075985,1000,1000,1000,1000,117928643,1549,1549,1549,1550
112078484,1000,1000,1000,1000,118028603,1552,1552,1552,1553
112080983,1000,1000,1000,1000,118128563,1553,1554,1553,1554
112083482,1000,1000,1000,1000,118228523,1556,1557,1555,1556
112085981,1000,1000,1000,1000,118328483,1559,1558,1556,1558
112088480,1000,1000,1000,1000,118428443,1560,1559,1560,1560
112090979,1000,1000,1000,1000,118528403,1560,1560,1563,1563
112093478,1000,1000,1000,1000,118628363,1560,1561,1565,1565
112095977,1000,1000,1000,1000,118728323,1562,1562,1567,1567
112098476,1000,1000,1000,1000,118828283,1563,1564,1568,1568
112100975,1000,1000,1000,1000,118928243,1564,1564,1568,1567
112103474,1000,1000,1000,1000,119028203,1567,1567,1569,1569
112105973,1000,1000,1000,1000,119128163,1569,1569,1569,1569
112108472,1000,1000,1000,1000,119228956,1571,1571,1569,1569
112110971,1000,1000,1000,1000,119328916,1573,1572,1570,1570
112113470,1000,1000,1000,1000,119428876,1572,1572,1569,1570
112115969,1000,1000,1000,1000,119528836,1574,1574,1571,1572
112118468,1000,1000,1000,1000,119628796,1575,1575,1572,1572
112120967,1000,1000,1000,1000,119728756,1574,1575,1573,1571
112123466,1000,1000,1000,1000,119828716,1575,1576,1574,1572
112125965,1000,1000,1000,1000,119928676,1575,1576,1574,1573
112128464,1000,1000,1000,1000,120028636,1576,1576,1575,1574
112130963,1000,1000,1000,1000,120128596,1575,1575,1575,1575
112133462,1000,1000,1000,1000,120228556,1576,1576,1575,1576
112135961,1000,1000,1000,1000,120328516,1575,1575,1575,1575
112138460,1000,1000,1000,1000,120428476,1576,1576,1577,1577
112140959,1000,1000,1000,1000,120528436,1575,1576,1577,1576
112143458,1000,1000,1000,1000,120628396,1577,1578,1578,1578
112145957,1000,1000,1000,1000,120728356,1577,1577,1578,1578
112148456,1000,1000,1000,1000,120828316,1578,1578,1578,1578
112150955,1000,1000,1000,1000,120928276,1578,1577,1578,1578
112153454,1000,1000,1000,1000,121028236,1578,1578,1579,1578
112155953,1000,1000,1000,1000,121128196,1578,1578,1578,1578
112158452,1000,1000,1000,1000,121228156,1578,1578,1578,1578
112160951,1000,1000,1000,1000,121328949,1578,1578,1578,1578
112163450,1000,1000,1000,1000,121428909,1577,1578,1577,1577
112165949,1000,1000,1000,1000,121528869,1578,1578,1577,1578
112168448,1000,1000,1000,1000,121628829,1578,1578,1578,1578
112170947,1000,1000,1000,1000,121728789,1578,1578,1578,1578
112173446,1000,1000,1000,1000,121828749,1578,1578,1579,1578
112175945,1000,1000,1000,1000,121928709,1580,1579,1579,1579
112178444,1000,1000,1000,1000,122028669,1579,1579,1579,1579
112180943,1000,1000,1000,1000,122128629,1579,1579,1579,1579
112183442,1000,1000,1000,1000,122228589,1579,1579,1579,1579
112185941,1000,1000,1000,1000,122328549,1579,1579,1579,1580
112188440,1000,1000,1000,1000,122428509,1579,1580,1580,1580
112190939,1000,1000,1000,1000,122528469,1579,1579,1580,1580
112193438,1000,1000,1000,1000,122628429,1579,1580,1580,1580
112195937,1000,1000,1000,1000,122728389,1579,1579,1579,1579
112198436,1000,1000,1000,1000,122828349,1580,1580,1580,1580
112200935,1000,1000,1000,1000,122928309,1580,1580,1580,1580
112203434,1000,1000,1000,1000,123028269,1580,1580,1580,1580
112205933,1000,1000,1000,1000,123128229,1579,1579,1579,1579
112208432,1000,1000,1000,1000,123228189,1580,1580,1580,1580
112210931,1000,1000,1000,1000,123328982,1581,1581,1581,1581
112213430,1000,1000,1000,1000,123428942,1579,1580,1580,1579
112215929,1000,1000,1000,1000,123528902,1579,1579,1579,1579
112218428,1000,1000,1000,1000,123628862,1580,1579,1580,1580
112220927,1000,1000,1000,1000,123728822,1580,1579,1579,1580
112223426,1000,1000,1000,1000,123828782,1581,1581,1581,1581
112225925,1000,1000,1000,1000,123928742,1580,1581,1580,1581
112228424,1000,1000,1000,1000,124028702,1580,1580,1580,1580
112230923,1000,1000,1000,1000,124128662,1581,1581,1581,1581
112233422,1000,1000,1000,1000,124228622,1581,1581,1582,1581
112235921,1000,1000,1000,1000,124328582,1581,1581,1581,1582
112238420,1000,1000,1000,1000,124428542,1582,1582,1586,1578
112240919,1000,1000,1000,1000,124528502,1581,1583,1588,1574
112243418,1000,1000,1000,1000,124628462,1580,1583,1582,1574
112245917,1000,1000,1000,1000,124728422,1579,1582,1573,1574
112248416,1000,1000,1000,1000,124828382,1578,1581,1565,1571
112250915,1000,1000,1000,1000,124928342,1579,1579,1559,1566
112253414,1000,1000,1000,1000,125028302,1580,1579,1556,1561
112255913,1000,1000,1000,1000,125128262,1581,1579,1555,1558
112258412,1000,1000,1000,1000,125228222,1580,1579,1555,1555
112260911,1000,1000,1000,1000,125328182,1580,1580,1556,1554
112263410,1000,1000,1000,1000,125428975,1578,1579,1556,1553
112265909,1000,1000,1000,1000,125528935,1577,1578,1555,1554
112268408,1000,1000,1000,1000,125628895,1576,1578,1555,1554
112270907,1000,1000,1000,1000,125728855,1576,1577,1554,1554
112273406,1000,1000,1000,1000,125828815,1577,1579,1553,1554
112275905,1000,1000,1000,1000,125928775,1577,1578,1550,1551
112278404,1000,1000,1000,1000,126028735,1578,1579,1548,1548
112280903,1000,1000,1000,1000,126128695,1581,1582,1546,1547
112283402,1000,1000,1000,1000,126228655,1584,1585,1544,1544
112285901,1000,1000,1000,1000,126328615,1587,1588,1541,1541
112288400,1000,1000,1000,1000,126428575,1591,1591,1540,1539
112290899,1000,1000,1000,1000,126528535,1593,1593,1536,1536
112293398,1000,1000,1000,1000,126628495,1595,1595,1536,1536
112295897,1000,1000,1000,1000,126728455,1596,1595,1534,1536
112298396,1000,1000,1000,1000,126828415,1595,1595,1535,1537
112300895,1000,1000,1000,1000,126928375,1593,1593,1537,1541
112303394,1000,1000,1000,1000,127028335,1590,1589,1543,1546
112305893,1000,1000,1000,1000,127128295,1586,1583,1552,1555
112308392,1000,1000,1000,1000,127228255,1577,1574,1561,1564
112310891,1000,1000,1000,1000,127328215,1567,1563,1573,1575
112313390,1000,1000,1000,1000,127428175,1556,1552,1586,1587
112315889,1000,1000,1000,1000,127528968,1544,1541,1598,1598
112318388,1000,1000,1000,1000,127628928,1535,1534,1608,1607
112320887,1000,1000,1000,1000,127728888,1529,1529,1614,1613
112323386,1000,1000,1000,1000,127828848,1528,1529,1616,1616
112325885,1000,1000,1000,1000,127928808,1249,1252,1643,1645
112328384,1000,1000,1000,1000,128028768,1349,1357,1678,1683
112330883,1000,1000,1000,1000,128128728,1421,1432,1666,1664
112333382,1000,1000,1000,1000,128228688,1489,1498,1641,1634
112335881,1000,1000,1000,1000,128328648,1545,1548,1619,1610
112338380,1000,1000,1000,1000,128428608,1584,1580,1605,1598
112340879,1000,1000,1000,1000,128528568,1616,1600,1593,1590
112343378,1000,1000,1000,1000,128628528,1632,1615,1552,1559
112345877,1000,1000,1000,1000,128728488,1632,1620,1506,1520
112348376,1000,1000,1000,1000,128828448,1632,1631,1519,1531
112350875,1000,1000,1000,1000,128928408,1625,1632,1536,1541
112353374,1000,1000,1000,1000,129028368,1622,1632,1556,1554
112355873,1000,1000,1000,1000,129128328,1593,1600,1575,1570
112358372,1000,1000,1000,1000,129228288,1596,1600,1586,1582
112360871,1000,1000,1000,1000,129328248,1600,1598,1590,1587
112363370,1000,1000,1000,1000,129428208,1600,1596,1588,1588
112365869,1000,1000,1000,1000,129528168,1599,1595,1585,1587
112368368,1000,1000,1000,1000,129628961,1599,1597,1585,1589
112370867,1000,1000,1000,1000,129728921,1599,1599,1586,1588
112373366,1000,1000,1000,1000,129828881,1597,1599,1587,1586
112375865,1000,1000,1000,1000,129928841,1597,1599,1587,1586
112378364,1000,1000,1000,1000,130028801,1597,1598,1587,1584
112380863,1000,1000,1000,1000,130128761,1621,1621,1577,1575
112383362,1000,1000,1000,1000,130228721,1615,1613,1573,1572
112385861,1000,1000,1000,1000,130328681,1608,1607,1570,1570
112388360,1000,1000,1000,1000,130428641,1603,1603,1568,1568
112390859,1000,1000,1000,1000,130528601,1598,1597,1565,1565
112393358,1000,1000,1000,1000,130628561,1569,1570,1572,1572
112395857,1000,1000,1000,1000,130728521,1571,1573,1573,1572
112398356,1000,1000,1000,1000,130828481,1574,1574,1572,1571
112400855,1000,1000,1000,1000,130928441,1576,1576,1572,1572
112403354,1000,1000,1000,1000,131028401,1579,1578,1574,1573
112405853,1000,1000,1000,1000,131128361,1581,1580,1573,1574
112408352,1000,1000,1000,1000,131228321,1583,1582,1574,1574
112410851,1000,1000,1000,1000,131328281,1584,1584,1574,1574
112413350,1000,1000,1000,1000,131428241,1584,1584,1573,1573
112415849,1000,1000,1000,1000,131528201,1585,1585,1573,1573
112418348,1000,1000,1000,1000,131628161,1585,1586,1572,1572
112420847,1000,1000,1000,1000,131728954,1586,1587,1574,1573
112423346,1000,1000,1000,1000,131828914,1587,1587,1574,1573
112425845,1000,1000,1000,1000,131928874,1587,1587,1573,1573
112428344,1000,1000,1000,1000,132028834,1619,1619,1572,1573
112430843,1000,1000,1000,1000,132128794,1612,1611,1565,1564
112433342,1000,1000,1000,1000,132228754,1607,1606,1563,1563
112435841,1000,1000,1000,1000,132328714,1602,1602,1562,1562
112438340,1000,1000,1000,1000,132428674,1599,1596,1566,1557
112440839,1000,1000,1000,1000,132528634,1598,1591,1566,1558
112443338,1000,1000,1000,1000,132628594,1594,1588,1561,1559
112445837,1000,1000,1000,1000,132728554,1589,1587,1555,1558
112448336,1000,1000,1000,1000,132828514,1583,1583,1554,1557
112450835,1000,1000,1000,1000,132928474,1568,1570,1567,1567
112453334,1000,1000,1000,1000,133028434,1551,1556,1581,1581
112455833,1000,1000,1000,1000,133128394,1540,1545,1587,1586
112458332,1000,1000,1000,1000,133228354,1536,1541,1587,1586
112460831,1000,1000,1000,1000,133328314,1537,1541,1585,1584
112463330,1000,1000,1000,1000,133428274,1540,1543,1580,1579
112465829,1000,1000,1000,1000,133528234,1544,1546,1574,1574
112468328,1000,1000,1000,1000,133628194,1550,1550,1569,1568
112470827,1000,1000,1000,1000,133728154,1555,1555,1563,1563
112473326,1000,1000,1000,1000,133828947,1560,1560,1558,1557
112475825,1000,1000,1000,1000,133928907,1565,1565,1553,1552
112478324,1000,1000,1000,1000,134028867,1570,1570,1549,1548
112480823,1000,1000,1000,1000,134128827,1575,1575,1545,1544
112483322,1000,1000,1000,1000,134228787,1582,1582,1538,1537
112485821,1000,1000,1000,1000,134328747,1592,1591,1529,1528
112488320,1000,1000,1000,1000,134428707,1598,1598,1523,1522
112490819,1000,1000,1000,1000,134528667,1601,1601,1521,1522
112493318,1000,1000,1000,1000,134628627,1598,1599,1526,1527
112495817,1000,1000,1000,1000,134728587,1595,1595,1531,1533
112498316,1000,1000,1000,1000,134828547,1592,1593,1537,1539
112500815,1000,1000,1000,1000,134928507,1590,1590,1540,1542
112503314,1000,1000,1000,1000,135028467,1588,1588,1543,1545
112505813,1000,1000,1000,1000,135128427,1587,1586,1546,1547
112508312,1000,1000,1000,1000,135228387,1583,1581,1550,1554
112510811,1000,1000,1000,1000,135328347,1575,1572,1560,1563
112513310,1000,1000,1000,1000,135428307,1566,1564,1568,1572
112515809,1000,1000,1000,1000,135528267,1560,1558,1576,1580
112518308,1000,1000,1000,1000,135628227,1553,1553,1581,1583
112520807,1000,1000,1000,1000,135728187,1548,1548,1585,1585
112523306,1000,1000,1000,1000,135828980,1546,1547,1589,1589
112525805,1000,1000,1000,1000,135928940,1545,1545,1593,1591
112528304,1000,1000,1000,1000,136028900,1544,1544,1595,1593
112530803,1000,1000,1000,1000,136128860,1544,1544,1596,1594
112533302,1000,1000,1000,1000,136228820,1544,1545,1594,1593
112535801,1000,1000,1000,1000,136328780,1546,1547,1593,1593
112538300,1000,1000,1000,1000,136428740,1549,1550,1592,1592
112540799,1000,1000,1000,1000,136528700,1552,1552,1589,1589
112543298,1000,1000,1000,1000,136628660,1556,1556,1586,1587
112545797,1000,1000,1000,1000,136728620,1559,1559,1583,1583
112548296,1000,1000,1000,1000,136828580,1564,1564,1583,1582
112550795,1000,1000,1000,1000,136928540,1568,1568,1581,1580
112553294,1000,1000,1000,1000,137028500,1571,1571,1579,1578
112555793,1000,1000,1000,1000,137128460,1575,1574,1578,1577
112558292,1000,1000,1000,1000,137228420,1577,1576,1577,1576
112560791,1000,1000,1000,1000,137328380,1579,1578,1575,1575
112563290,1000,1000,1000,1000,137428340,1581,1580,1575,1575
112565789,1000,1000,1000,1000,137528300,1582,1582,1575,1576
112568288,1000,1000,1000,1000,137628260,1583,1582,1575,1575
112570787,1000,1000,1000,1000,137728220,1583,1582,1574,1574
112573286,1000,1000,1000,1000,137828180,1583,1583,1575,1576
112575785,1000,1000,1000,1000,137928973,1582,1583,1575,1574
112578284,1000,1000,1000,1000,138028933,1583,1583,1577,1576
112580783,1000,1000,1000,1000,138128893,1583,1583,1577,1577
112583282,1000,1000,1000,1000,138228853,1582,1582,1577,1577
112585781,1000,1000,1000,1000,138328813,1582,1582,1577,1577
112588280,1000,1000,1000,1000,138428773,1581,1581,1577,1577
112590779,1000,1000,1000,1000,138528733,1580,1581,1577,1577
112593278,1000,1000,1000,1000,138628693,1580,1580,1578,1578
112595777,1000,1000,1000,1000,138728653,1580,1580,1579,1579
112598276,1000,1000,1000,1000,138828613,1580,1581,1580,1580
112600775,1000,1000,1000,1000,138928573,1580,1580,1580,1580
112603274,1000,1000,1000,1000,139028533,1580,1580,1581,1581
112605773,1000,1000,1000,1000,139128493,1580,1579,1580,1580
112608272,1000,1000,1000,1000,139228453,1866,1864,1544,1539
112610771,1000,1000,1000,1000,139328413,1790,1783,1499,1490
112613270,1000,1000,1000,1000,139428373,1723,1712,1502,1503
112615769,1000,1000,1000,1000,139528333,1648,1639,1528,1533
112618268,1000,1000,1000,1000,139628293,1575,1572,1562,1568
112620767,1000,1000,1000,1000,139728253,1525,1528,1585,1587
112623266,1000,1000,1000,1000,139828213,1501,1510,1598,1598
112625765,1000,1000,1000,1000,139928173,1485,1497,1611,1609
112628264,1000,1000,1000,1000,140028966,1469,1476,1630,1629
112630763,1000,1000,1000,1000,140128926,1459,1467,1640,1644
112633262,1000,1000,1000,1000,140228886,1477,1478,1632,1639
112635761,1000,1000,1000,1000,140328846,1498,1495,1620,1627
112638260,1000,1000,1000,1000,140428806,1516,1512,1612,1616
112640759,1000,1000,1000,1000,140528766,1530,1527,1606,1606
112643258,1000,1000,1000,1000,140628726,1543,1542,1604,1601
112645757,1000,1000,1000,1000,140728686,1558,1566,1595,1592
112648256,1000,1000,1000,1000,140828646,1584,1593,1575,1573
112650755,1000,1000,1000,1000,140928606,1607,1613,1557,1556
112653254,1000,1000,1000,1000,141028566,1619,1620,1548,1548
112655753,1000,1000,1000,1000,141128526,1624,1619,1547,1547
112658252,1000,1000,1000,1000,141228486,1625,1617,1552,1552
112660751,1000,1000,1000,1000,141328446,1620,1613,1561,1556
112663250,1000,1000,1000,1000,141428406,1611,1612,1572,1556
112665749,1000,1000,1000,1000,141528366,1603,1609,1574,1564
112668248,1000,1000,1000,1000,141628326,1595,1603,1571,1571
112670747,1000,1000,1000,1000,141728286,1588,1593,1567,1573
112673246,1000,1000,1000,1000,141828246,1584,1586,1564,1573
112675745,1000,1000,1000,1000,141928206,1583,1579,1565,1571
112678244,1000,1000,1000,1000,142028166,1580,1576,1567,1570
112680743,1000,1000,1000,1000,142128959,1578,1575,1569,1568
112683242,1000,1000,1000,1000,142228919,1576,1575,1571,1567
112685741,1000,1000,1000,1000,142328879,1575,1576,1571,1567
112688240,1000,1000,1000,1000,142428839,1574,1577,1570,1567
112690739,1000,1000,1000,1000,142528799,1574,1578,1567,1567
112693238,1000,1000,1000,1000,142628759,1576,1579,1565,1566
112695737,1000,1000,1000,1000,142728719,1577,1579,1561,1563
112698236,1000,1000,1000,1000,142828679,1580,1581,1560,1561
112700735,1000,1000,1000,1000,142928639,1582,1582,1558,1558
112703234,1000,1000,1000,1000,143028599,1583,1583,1554,1555
112705733,1000,1000,1000,1000,143128559,1586,1586,1552,1552
112708232,1000,1000,1000,1000,143228519,1590,1590,1551,1551
112710731,1000,1000,1000,1000,143328479,1593,1593,1549,1550
112713230,1000,1000,1000,1000,143428439,1596,1596,1550,1550
112715729,1000,1000,1000,1000,143528399,1597,1595,1549,1550
112718228,1000,1000,1000,1000,143628359,1597,1594,1551,1552
112720727,1000,1000,1000,1000,143728319,1596,1591,1555,1556
112723226,1000,1000,1000,1000,143828279,1592,1589,1561,1561
112725725,1000,1000,1000,1000,143928239,1588,1584,1567,1568
112728224,1000,1000,1000,1000,144028199,1581,1578,1574,1574
112730723,1000,1000,1000,1000,144128159,1575,1573,1581,1581
112733222,1000,1000,1000,1000,144228952,1569,1568,1588,1588
112735721,1000,1000,1000,1000,144328912,1565,1564,1594,1593
112738220,1000,1000,1000,1000,144428872,1560,1560,1597,1597
112740719,1000,1000,1000,1000,144528832,1557,1558,1600,1599
112743218,1000,1000,1000,1000,144628792,1556,1557,1602,1601
112745717,1000,1000,1000,1000,144728752,1556,1557,1603,1601
112748216,1000,1000,1000,1000,144828712,1558,1559,1603,1602
112750715,1000,1000,1000,1000,144928672,1558,1560,1601,1600
112753214,1000,1000,1000,1000,145028632,1558,1559,1597,1597
112755713,1000,1000,1000,1000,145128592,1561,1562,1595,1596
112758212,1000,1000,1000,1000,145228552,1563,1564,1592,1593
112760711,1000,1000,1000,1000,145328512,1565,1565,1589,1590
112763210,1000,1000,1000,1000,145428472,1567,1567,1587,1588
112765709,1000,1000,1000,1000,145528432,1570,1569,1586,1585
112768208,1000,1000,1000,1000,145628392,1571,1571,1583,1583
112770707,1000,1000,1000,1000,145728352,1574,1573,1583,1582
112773206,1000,1000,1000,1000,145828312,1575,1575,1582,1581
112775705,1000,1000,1000,1000,145928272,1576,1575,1579,1579
112778204,1000,1000,1000,1000,146028232,1577,1578,1578,1579
112780703,1000,1000,1000,1000,146128192,1578,1577,1577,1578
112783202,1000,1000,1000,1000,146228985,1579,1578,1577,1577
112785701,1000,1000,1000,1000,146328945,1579,1578,1576,1576
112788200,1000,1000,1000,1000,146428905,1579,1578,1575,1575
112790699,1000,1000,1000,1000,146528865,1579,1578,1576,1575
112793198,1000,1000,1000,1000,146628825,1580,1579,1576,1576
112795697,1000,1000,1000,1000,146728785,1578,1578,1576,1576
112798196,1000,1000,1000,1000,146828745,1579,1579,1577,1577
112800695,1000,1000,1000,1000,146928705,1579,1579,1577,1577
112803194,1000,1000,1000,1000,147028665,1578,1578,1577,1577
112805693,1000,1000,1000,1000,147128625,1578,1578,1577,1578
112808192,1000,1000,1000,1000,147228585,1578,1578,1578,1578
112810691,1000,1000,1000,1000,147328545,1578,1578,1578,1578
112813190,1000,1000,1000,1000,147428505,1577,1577,1578,1577
112815689,1000,1000,1000,1000,147528465,1578,1577,1578,1579
112818188,1000,1000,1000,1000,147628425,1577,1578,1578,1579
112820687,1000,1000,1000,1000,147728385,1577,1577,1578,1578
112823186,1000,1000,1000,1000,147828345,1578,1578,1579,1579
112825685,1000,1000,1000,1000,147928305,1578,1577,1578,1579
112828184,1000,1000,1000,1000,148028265,1578,1578,1579,1579
112830683,1000,1000,1000,1000,148128225,1578,1578,1579,1579
112833182,1000,1000,1000,1000,148228185,1578,1578,1579,1578
112835681,1000,1000,1000,1000,148328978,1577,1578,1578,1578
112838180,1000,1000,1000,1000,148428938,1579,1579,1579,1580
112840679,1000,1000,1000,1000,148528898,1580,1580,1580,1580
112843178,1000,1000,1000,1000,148628858,1579,1579,1579,1579
112845677,1000,1000,1000,1000,148728818,1580,1579,1579,1579
112848176,1000,1000,1000,1000,148828778,1581,1581,1580,1580
112850675,1000,1000,1000,1000,148928738,1582,1583,1584,1577
112853174,1000,1000,1000,1000,149028698,1580,1583,1586,1571
112855673,1000,1000,1000,1000,149128658,1578,1582,1581,1573
112858172,1000,1000,1000,1000,149228618,1576,1578,1574,1575
112860671,1000,1000,1000,1000,149328578,1573,1572,1567,1574
112863170,1000,1000,1000,1000,149428538,1572,1570,1565,1573
112865669,1000,1000,1000,1000,149528498,1570,1567,1564,1570
112868168,1000,1000,1000,1000,149628458,1569,1567,1566,1568
112870667,1000,1000,1000,1000,149728418,1567,1566,1566,1565
112873166,1000,1000,1000,1000,149828378,1566,1565,1567,1564
112875665,1000,1000,1000,1000,149928338,1565,1565,1567,1564
112878164,1000,1000,1000,1000,150028298,1563,1565,1566,1563
112880663,1000,1000,1000,1000,150128258,1564,1564,1565,1565
112883162,1000,1000,1000,1000,150228218,1562,1563,1564,1564
112885661,1000,1000,1000,1000,150328178,1563,1563,1563,1564
112888160,1000,1000,1000,1000,150428971,1562,1562,1563,1563
112890659,1000,1000,1000,1000,150528931,1561,1561,1562,1562
112893158,1000,1000,1000,1000,150628891,1561,1561,1562,1561
112895657,1000,1000,1000,1000,150728851,1561,1561,1562,1561
112898156,1000,1000,1000,1000,150828811,1559,1560,1560,1559
112900655,1000,1000,1000,1000,150928771,1559,1559,1559,1558
112903154,1000,1000,1000,1000,151028731,1558,1558,1558,1558
112906486,1000,1000,1000,1000,151128691,1558,1558,1558,1558
112908985,1000,1000,1000,1000,151228651,1558,1558,1559,1557
112911484,1000,1000,1000,1000,151328611,1558,1558,1558,1557
112913983,1000,1000,1000,1000,151428571,1558,1558,1559,1557
112916482,1000,1000,1000,1000,151528531,1559,1560,1560,1558
112918981,1000,1000,1000,1000,151628491,1559,1560,1560,1558
112921480,1000,1000,1000,1000,151728451,1559,1559,1558,1561
112923979,1000,1000,1000,1000,151828411,1560,1560,1557,1563
112926478,1000,1000,1000,1000,151928371,1561,1560,1557,1564
112928977,1000,1000,1000,1000,152028331,1563,1561,1559,1564
112931476,1000,1000,1000,1000,152128291,1563,1562,1560,1563
112933975,1000,1000,1000,1000,152228251,1564,1563,1564,1563
112936474,1000,1000,1000,1000,152328211,1562,1561,1561,1562
112938973,1000,1000,1000,1000,152428171,1559,1559,1559,1559
112941472,1000,1000,1000,1000,152528964,1552,1553,1553,1553
112943971,1000,1000,1000,1000,152628924,1546,1548,1547,1547
112946470,1000,1000,1000,1000,152728884,1541,1541,1541,1542
112948969,1000,1000,1000,1000,152828844,1533,1533,1533,1533
112951468,1000,1000,1000,1000,152928804,1525,1525,1525,1526
112953967,1000,1000,1000,1000,153028764,1521,1521,1521,1521
112956466,1000,1000,1000,1000,153128724,1519,1519,1519,1520
112958965,1000,1000,1000,1000,153228684,1520,1520,1520,1520
112961464,1000,1000,1000,1000,153328644,1522,1522,1522,1523
112963963,1000,1000,1000,1000,153428604,1525,1525,1525,1525
112966462,1000,1000,1000,1000,153528564,1528,1529,1528,1529
112968961,1000,1000,1000,1000,153628524,1534,1534,1534,1534
112971460,1000,1000,1000,1000,153728484,1539,1538,1539,1538
112973959,1000,1000,1000,1000,153828444,1540,1540,1540,1540
112976458,1000,1000,1000,1000,153928404,1543,1543,1543,1543
112978957,1000,1000,1000,1000,154028364,1544,1544,1545,1544
112981456,1000,1000,1000,1000,154128324,1546,1546,1546,1546
112983955,1000,1000,1000,1000,154228284,1546,1546,1546,1546
112986454,1000,1000,1000,1000,154328244,1546,1546,1546,1546
112988953,1000,1000,1000,1000,154428204,1546,1546,1546,1546
112991452,1000,1000,1000,1000,154528164,1546,1546,1546,1546
112993951,1000,1000,1000,1000,154628957,1545,1545,1546,1545
112996450,1000,1000,1000,1000,154728917,1546,1546,1546,1546
112998949,1000,1000,1000,1000,154828877,1545,1545,1546,1545
113001448,1000,1000,1000,1000,154928837,1545,1545,1545,1545
113003947,1000,1000,1000,1000,155028797,1545,1545,1545,1546
113006446,1000,1000,1000,1000,155128757,1545,1545,1545,1545
113008945,1000,1000,1000,1000,155228717,1545,1546,1546,1545
113011444,1000,1000,1000,1000,155328677,1545,1545,1545,1545
113013943,1000,1000,1000,1000,155428637,1545,1545,1545,1545
113016442,1000,1000,1000,1000,155528597,1545,1544,1544,1545
113018941,1000,1000,1000,1000,155628557,1545,1545,1545,1545
113021440,1000,1000,1000,1000,155728517,1545,1545,1545,1545
113023939,1000,1000,1000,1000,155828477,1543,1544,1544,1544
113026438,1000,1000,1000,1000,155928437,1544,1543,1543,1544
113028937,1000,1000,1000,1000,156028397,1545,1545,1545,1545
113031436,1000,1000,1000,1000,156128357,1544,1544,1544,1544
113033935,1000,1000,1000,1000,156228317,1545,1545,1545,1545
113036434,1000,1000,1000,1000,156328277,1544,1544,1544,1545
113038933,1000,1000,1000,1000,156428237,1544,1545,1545,1544
113041432,1000,1000,1000,1000,156528197,1544,1544,1544,1544
113043931,1000,1000,1000,1000,156628157,1544,1544,1544,1544
113046430,1000,1000,1000,1000,156728950,1544,1543,1544,1544
113048929,1000,1000,1000,1000,156828910,1543,1543,1543,1543
113051428,1000,1000,1000,1000,156928870,1544,1544,1544,1544
113053927,1000,1000,1000,1000,157028830,1545,1545,1545,1544
113056426,1000,1000,1000,1000,157128790,1545,1544,1544,1545
113058925,1000,1000,1000,1000,157228750,1544,1544,1544,1544
113061424,1000,1000,1000,1000,157328710,1544,1544,1544,1544
113063923,1000,1000,1000,1000,157428670,1545,1545,1545,1545
113066422,1000,1000,1000,1000,157528630,1545,1544,1544,1545
113068921,1000,1000,1000,1000,157628590,1544,1544,1544,1544
113071420,1000,1000,1000,1000,157728550,1544,1544,1544,1544
113073919,1000,1000,1000,1000,157828510,1544,1544,1544,1544
113076418,1000,1000,1000,1000,157928470,1544,1544,1544,1544
113078917,1000,1000,1000,1000,158028430,1544,1544,1544,1544
113081416,1000,1000,1000,1000,158128390,1544,1544,1544,1544
113083915,1000,1000,1000,1000,158228350,1544,1544,1544,1544
113086414,1000,1000,1000,1000,158328310,1545,1544,1544,1545
113088913,1000,1000,1000,1000,158428270,1544,1545,1545,1544
113091412,1000,1000,1000,1000,158528230,1545,1544,1544,1544
113093911,1000,1000,1000,1000,158628190,1544,1544,1544,1544
113096410,1000,1000,1000,1000,158728983,1544,1543,1543,1544
113098909,1000,1000,1000,1000,158828943,1544,1544,1544,1544
113101408,1000,1000,1000,1000,158928903,1544,1544,1544,1545
113103907,1000,1000,1000,1000,159028863,1543,1544,1544,1544
113106406,1000,1000,1000,1000,159128823,1545,1545,1544,1545
113108905,1000,1000,1000,1000,159228783,1544,1544,1545,1544
113111404,1000,1000,1000,1000,159328743,1545,1544,1545,1545
113113903,1000,1000,1000,1000,159428703,1545,1545,1545,1545
113116402,1000,1000,1000,1000,159528663,1546,1545,1546,1545
113118901,1000,1000,1000,1000,159628623,1545,1545,1545,1545
113121400,1000,1000,1000,1000,159728583,1545,1545,1545,1545
113123899,1000,1000,1000,1000,159828543,1544,1544,1544,1545
113126398,1000,1000,1000,1000,159928503,1545,1544,1544,1545
113128897,1000,1000,1000,1000,160028463,1545,1544,1545,1545
113131396,1000,1000,1000,1000,160128423,1545,1544,1544,1545
113133895,1000,1000,1000,1000,160228383,1544,1544,1545,1544
113136394,1000,1000,1000,1000,160328343,1545,1545,1545,1545
113138893,1000,1000,1000,1000,160428303,1544,1545,1545,1545
113141392,1000,1000,1000,1000,160528263,1544,1544,1544,1545
113143891,1000,1000,1000,1000,160628223,1544,1544,1545,1544
113146390,1000,1000,1000,1000,160728183,1545,1544,1544,1544
113148889,1000,1000,1000,1000,160828976,1545,1545,1545,1545
113151388,1000,1000,1000,1000,160928936,1545,1545,1544,1545
113153887,1000,1000,1000,1000,161028896,1545,1545,1546,1545
113156386,1000,1000,1000,1000,161128856,1544,1544,1544,1544
113158885,1000,1000,1000,1000,161228816,1545,1546,1546,1545
113161384,1000,1000,1000,1000,161328776,1545,1545,1545,1545
113163883,1000,1000,1000,1000,161428736,1545,1545,1545,1545
113166382,1000,1000,1000,1000,161528696,1544,1544,1544,1545
113168881,1000,1000,1000,1000,161628656,1544,1545,1544,1544
113171380,1000,1000,1000,1000,161728616,1545,1544,1545,1545
113173879,1000,1000,1000,1000,161828576,1544,1544,1544,1544
113176378,1000,1000,1000,1000,161928536,1544,1544,1544,1544
113178877,1000,1000,1000,1000,162028496,1544,1544,1545,1545
113181376,1000,1000,1000,1000,162128456,1544,1543,1544,1544
113183875,1000,1000,1000,1000,162228416,1544,1544,1545,1544
113186374,1000,1000,1000,1000,162328376,1544,1543,1543,1544
113188873,1000,1000,1000,1000,162428336,1544,1545,1544,1545
113191372,1000,1000,1000,1000,162528296,1544,1544,1544,1544
113193871,1000,1000,1000,1000,162628256,1544,1544,1544,1544
113196370,1000,1000,1000,1000,162728216,1544,1544,1544,1545
113198869,1000,1000,1000,1000,162828176,1480,1479,1480,1479
113201368,1000,1000,1000,1000,162928969,1311,1306,1311,1308
113203867,1000,1000,1000,1000,163028929,1234,1230,1237,1231
113206366,1000,1000,1000,1000,163128889,1211,1206,1213,1210
113208865,1000,1000,1000,1000,163228849,1184,1181,1188,1184
113211364,1000,1000,1000,1000,163328809,1155,1150,1157,1155
113213863,1000,1000,1000,1000,163428769,1154,1150,1158,1154
113216362,1000,1000,1000,1000,163528729,1190,1150,1155,1195
113218861,1000,1000,1000,1000,163628689,1198,1150,1157,1203
113221360,1000,1000,1000,1000,163728649,1188,1150,1160,1192
113223859,1000,1000,1000,1000,163828609,1187,1150,1161,1190
113226358,1000,1000,1000,1000,163928569,1190,1150,1162,1194
113228857,1000,1000,1000,1000,164028529,1193,1150,1162,1197
113231356,1000,1000,1000,1000,164128489,1197,1150,1163,1201
113233855,1000,1000,1000,1000,164228449,1200,1150,1163,1205
113236354,1000,1000,1000,1000,164328409,1166,1150,1164,1171
113238853,1000,1000,1000,1000,164428369,1178,1150,1164,1185
113241352,1000,1000,1000,1000,164528329,1180,1150,1164,1187
113243851,1000,1000,1000,1000,164628289,1181,1150,1165,1189
113246350,1000,1000,1000,1000,164728249,1182,1150,1165,1190
113248849,1000,1000,1000,1000,164828209,1000,1000,1000,1000
113251348,1000,1000,1000,1000,164928169,1000,1000,1000,1000
113253847,1000,1000,1000,1000,165028962,1000,1000,1000,1000
113256346,1000,1000,1000,1000,165128922,1000,1000,1000,1000
113258845,1000,1000,1000,1000,165228882,1000,1000,1000,1000
113261344,1000,1000,1000,1000,165328842,1000,1000,1000,1000
113263843,1000,1000,1000,1000,165428802,1000,1000,1000,1000
113266342,1000,1000,1000,1000,165528762,1000,1000,1000,1000
113268841,1000,1000,1000,1000,165628722,1000,1000,1000,1000
113271340,1000,1000,1000,1000,165728682,1000,1000,1000,1000
113273839,1000,1000,1000,1000,165828642,1000,1000,1000,1000
113276338,1000,1000,1000,1000,165928602,1000,1000,1000,1000
113278837,1000,1000,1000,1000,166028562,1000,1000,1000,1000
113281336,1000,1000,1000,1000,166128522,1000,1000,1000,1000
113283835,1000,1000,1000,1000,166228482,1000,1000,1000,1000
113286334,1000,1000,1000,1000,166328442,1000,1000,1000,1000
113288833,1000,1000,1000,1000,166368426,1000,1000,1000,1000
113291332,1000,1000,1000,1000,166468386,1000,1000,1000,1000
113293831,1000,1000,1000,1000,166568346,1000,1000,1000,1000
113296330,1000,1000,1000,1000,166668306,1000,1000,1000,1000
113298829,1000,1000,1000,1000,166768266,1000,1000,1000,1000
113301328,1000,1000,1000,1000,166868226,1000,1000,1000,1000
113303827,1000,1000,1000,1000,166968186,1000,1000,1000,1000
113306326,1000,1000,1000,1000,167068979,1000,1000,1000,1000
113308825,1000,1000,1000,1000,167168939,1000,1000,1000,1000
113311324,1000,1000,1000,1000,167268899,1000,1000,1000,1000
113313823,1000,1000,1000,1000,167368859,1000,1000,1000,1000
113316322,1000,1000,1000,1000,167468819,1000,1000,1000,1000
113318821,1000,1000,1000,1000,167568779,1000,1000,1000,1000
113321320,1000,1000,1000,1000,167668739,1000,1000,1000,1000
113323819,1000,1000,1000,1000,167768699,1000,1000,1000,1000
113326318,1000,1000,1000,1000,167868659,1000,1000,1000,1000
113328817,1000,1000,1000,1000,167968619,1000,1000,1000,1000
113331316,1000,1000,1000,1000,168068579,1000,1000,1000,1000
113333815,1000,1000,1000,1000,168168539,1000,1000,1000,1000
113336314,1000,1000,1000,1000,168268499,1000,1000,1000,1000
113338813,1000,1000,1000,1000,168368459,1000,1000,1000,1000
113341312,1000,1000,1000,1000,168468419,1000,1000,1000,1000
113343811,1000,1000,1000,1000,168568379,1000,1000,1000,1000
113346310,1000,1000,1000,1000,168668339,1000,1000,1000,1000
113348809,1000,1000,1000,1000,168768299,1000,1000,1000,1000
113351308,1000,1000,1000,1000,168868259,1000,1000,1000,1000
113353807,1000,1000,1000,1000,168968219,1000,1000,1000,1000
113356306,1000,1000,1000,1000,169068179,1000,1000,1000,1000
113358805,1000,1000,1000,1000,169168972,1000,1000,1000,1000
113361304,1000,1000,1000,1000,169268932,1000,1000,1000,1000
113363803,1000,1000,1000,1000,169368892,1000,1000,1000,1000
113366302,1000,1000,1000,1000,169468852,1000,1000,1000,1000
113368801,1000,1000,1000,1000,169568812,1000,1000,1000,1000
113371300,1000,1000,1000,1000,169668772,1000,1000,1000,1000
113373799,1000,1000,1000,1000,169768732,1000,1000,1000,1000
113376298,1000,1000,1000,1000,169868692,1000,1000,1000,1000
113378797,1000,1000,1000,1000,169968652,1000,1000,1000,1000
113381296,1000,1000,1000,1000,170068612,1000,1000,1000,1000
113383795,1000,1000,1000,1000,170168572,1000,1000,1000,1000
113386294,1000,1000,1000,1000,170268532,1000,1000,1000,1000
113388793,1000,1000,1000,1000,170368492,1000,1000,1000,1000
113391292,1000,1000,1000,1000,170468452,1000,1000,1000,1000
113393791,1000,1000,1000,1000,170568412,1000,1000,1000,1000
113396290,1000,1000,1000,1000,170668372,1000,1000,1000,1000
113398789,1000,1000,1000,1000,170768332,1000,1000,1000,1000
113401288,1000,1000,1000,1000,170868292,1000,1000,1000,1000
113403787,1000,1000,1000,1000,170968252,1000,1000,1000,1000
113406286,1000,1000,1000,1000,171068212,1000,1000,1000,1000
113408785,1000,1000,1000,1000,171168172,1000,1000,1000,1000
113411284,1000,1000,1000,1000,171268965,1000,1000,1000,1000
113413783,1000,1000,1000,1000,171368925,1000,1000,1000,1000
113416282,1000,1000,1000,1000,171468885,1000,1000,1000,1000
113418781,1000,1000,1000,1000,171568845,1000,1000,1000,1000
113421280,1000,1000,1000,1000,171668805,1000,1000,1000,1000
113423779,1000,1000,1000,1000,171768765,1000,1000,1000,1000
113426278,1000,1000,1000,1000,171868725,1000,1000,1000,1000
113428777,1000,1000,1000,1000,171968685,1000,1000,1000,1000
113431276,1000,1000,1000,1000,172068645,1000,1000,1000,1000
113433775,1000,1000,1000,1000,172168605,1000,1000,1000,1000
113436274,1000,1000,1000,1000,172268565,1000,1000,1000,1000
113438773,1000,1000,1000,1000,172368525,1000,1000,1000,1000
113441272,1000,1000,1000,1000,172468485,1000,1000,1000,1000
113443771,1000,1000,1000,1000,172568445,1000,1000,1000,1000
113446270,1000,1000,1000,1000,172668405,1000,1000,1000,1000
113448769,1000,1000,1000,1000,172768365,1000,1000,1000,1000
113451268,1000,1000,1000,1000,172868325,1000,1000,1000,1000
113453767,1000,1000,1000,1000,172968285,1000,1000,1000,1000
113456266,1000,1000,1000,1000,173068245,1000,1000,1000,1000
113458765,1000,1000,1000,1000,173168205,1000,1000,1000,1000
113461264,1000,1000,1000,1000,173268165,1000,1000,1000,1000
113463763,1000,1000,1000,1000,173368958,1000,1000,1000,1000
113466262,1000,1000,1000,1000,173468918,1000,1000,1000,1000
113468761,1000,1000,1000,1000,173568878,1000,1000,1000,1000
113471260,1000,1000,1000,1000,173668838,1000,1000,1000,1000
113473759,1000,1000,1000,1000,173768798,1000,1000,1000,1000
113476258,1000,1000,1000,1000,173868758,1000,1000,1000,1000
113478757,1000,1000,1000,1000,173968718,1000,1000,1000,1000
113481256,1000,1000,1000,1000,174068678,1000,1000,1000,1000
113483755,1000,1000,1000,1000,174168638,1000,1000,1000,1000
113486254,1000,1000,1000,1000,174268598,1000,1000,1000,1000
113488753,1000,1000,1000,1000,174368558,1000,1000,1000,1000
113491252,1000,1000,1000,1000,174468518,1000,1000,1000,1000
113493751,1000,1000,1000,1000,174568478,1000,1000,1000,1000
113496250,1000,1000,1000,1000,174668438,1000,1000,1000,1000
113498749,1000,1000,1000,1000,174768398,1000,1000,1000,1000
113501248,1000,1000,1000,1000,174868358,1000,1000,1000,1000
113503747,1000,1000,1000,1000,174968318,1000,1000,1000,1000
113506246,1000,1000,1000,1000,,,,,
113508745,1000,1000,1000,1000,,,,,
113511244,1000,1000,1000,1000,,,,,
113513743,1000,1000,1000,1000,,,,,
113516242,1000,1000,1000,1000,,,,,
113518741,1000,1000,1000,1000,,,,,
113521240,1000,1000,1000,1000,,,,,
113523739,1000,1000,1000,1000,,,,,
113526238,1000,1000,1000,1000,,,,,
113528737,1000,1000,1000,1000,,,,,
113531236,1000,1000,1000,1000,,,,,
113533735,1000,1000,1000,1000,,,,,
113536234,1000,1000,1000,1000,,,,,
113538733,1000,1000,1000,1000,,,,,
113541232,1000,1000,1000,1000,,,,,
113543731,1000,1000,1000,1000,,,,,
113546230,1000,1000,1000,1000,,,,,
113548729,1000,1000,1000,1000,,,,,
113551228,1000,1000,1000,1000,,,,,
113553727,1000,1000,1000,1000,,,,,
113556226,1000,1000,1000,1000,,,,,
113558725,1000,1000,1000,1000,,,,,
113561224,1000,1000,1000,1000,,,,,
113563723,1000,1000,1000,1000,,,,,
113566222,1000,1000,1000,1000,,,,,
113568721,1000,1000,1000,1000,,,,,
113571220,1000,1000,1000,1000,,,,,
113573719,1000,1000,1000,1000,,,,,
113576218,1000,1000,1000,1000,,,,,
113578717,1000,1000,1000,1000,,,,,
113581216,1000,1000,1000,1000,,,,,
113583715,1000,1000,1000,1000,,,,,
113586214,1000,1000,1000,1000,,,,,
113588713,1000,1000,1000,1000,,,,,
113591212,1000,1000,1000,1000,,,,,
113593711,1000,1000,1000,1000,,,,,
113596210,1000,1000,1000,1000,,,,,
113598709,1000,1000,1000,1000,,,,,
113601208,1000,1000,1000,1000,,,,,
113603707,1000,1000,1000,1000,,,,,
113606206,1000,1000,1000,1000,,,,,
113608705,1000,1000,1000,1000,,,,,
113611204,1000,1000,1000,1000,,,,,
113613703,1000,1000,1000,1000,,,,,
113616202,1000,1000,1000,1000,,,,,
113618701,1000,1000,1000,1000,,,,,
113621200,1000,1000,1000,1000,,,,,
113623699,1000,1000,1000,1000,,,,,
113626198,1000,1000,1000,1000,,,,,
113628697,1000,1000,1000,1000,,,,,
113631196,1000,1000,1000,1000,,,,,
113633695,1000,1000,1000,1000,,,,,
113636194,1000,1000,1000,1000,,,,,
113638693,1000,1000,1000,1000,,,,,
113641192,1000,1000,1000,1000,,,,,
113643691,1000,1000,1000,1000,,,,,
113646190,1000,1000,1000,1000,,,,,
113648689,1000,1000,1000,1000,,,,,
113651188,1000,1000,1000,1000,,,,,
113653687,1000,1000,1000,1000,,,,,
113656186,1000,1000,1000,1000,,,,,
113658685,1000,1000,1000,1000,,,,,
113661184,1000,1000,1000,1000,,,,,
113663683,1000,1000,1000,1000,,,,,
113666182,1000,1000,1000,1000,,,,,
113668681,1000,1000,1000,1000,,,,,
113671180,1000,1000,1000,1000,,,,,
113673679,1000,1000,1000,1000,,,,,
113676178,1000,1000,1000,1000,,,,,
113678677,1000,1000,1000,1000,,,,,
113681176,1000,1000,1000,1000,,,,,
113683675,1000,1000,1000,1000,,,,,
113686174,1000,1000,1000,1000,,,,,
113688673,1000,1000,1000,1000,,,,,
113691172,1000,1000,1000,1000,,,,,
113693671,1000,1000,1000,1000,,,,,
113696170,1000,1000,1000,1000,,,,,
113698669,1000,1000,1000,1000,,,,,
113701168,1000,1000,1000,1000,,,,,
113703667,1000,1000,1000,1000,,,,,
113706166,1000,1000,1000,1000,,,,,
113708665,1000,1000,1000,1000,,,,,
113711164,1000,1000,1000,1000,,,,,
113713663,1000,1000,1000,1000,,,,,
113716162,1000,1000,1000,1000,,,,,
113718661,1000,1000,1000,1000,,,,,
113721160,1000,1000,1000,1000,,,,,
113723659,1000,1000,1000,1000,,,,,
113726158,1000,1000,1000,1000,,,,,
113728657,1000,1000,1000,1000,,,,,
113731156,1000,1000,1000,1000,,,,,
113733655,1000,1000,1000,1000,,,,,
113736154,1000,1000,1000,1000,,,,,
113738653,1000,1000,1000,1000,,,,,
113741152,1000,1000,1000,1000,,,,,
113743651,1000,1000,1000,1000,,,,,
113746150,1000,1000,1000,1000,,,,,
113748649,1000,1000,1000,1000,,,,,
113751148,1000,1000,1000,1000,,,,,
113753647,1000,1000,1000,1000,,,,,
113756146,1000,1000,1000,1000,,,,,
113758645,1000,1000,1000,1000,,,,,
113761144,1000,1000,1000,1000,,,,,
113763643,1000,1000,1000,1000,,,,,
113766142,1000,1000,1000,1000,,,,,
113768641,1000,1000,1000,1000,,,,,
113771140,1000,1000,1000,1000,,,,,
113773639,1000,1000,1000,1000,,,,,
113776138,1000,1000,1000,1000,,,,,
113778637,1000,1000,1000,1000,,,,,
113781136,1000,1000,1000,1000,,,,,
113783635,1000,1000,1000,1000,,,,,
113786134,1000,1000,1000,1000,,,,,
113788633,1000,1000,1000,1000,,,,,
113791132,1000,1000,1000,1000,,,,,
113793631,1000,1000,1000,1000,,,,,
113796130,1000,1000,1000,1000,,,,,
113798629,1000,1000,1000,1000,,,,,
113801128,1000,1000,1000,1000,,,,,
113803627,1000,1000,1000,1000,,,,,
113806126,1000,1000,1000,1000,,,,,
113808625,1000,1000,1000,1000,,,,,
113811124,1000,1000,1000,1000,,,,,
113813623,1000,1000,1000,1000,,,,,
113816122,1000,1000,1000,1000,,,,,
113818621,1000,1000,1000,1000,,,,,
113821120,1000,1000,1000,1000,,,,,
113823619,1000,1000,1000,1000,,,,,
113826118,1000,1000,1000,1000,,,,,
113828617,1000,1000,1000,1000,,,,,
113831116,1000,1000,1000,1000,,,,,
113833615,1000,1000,1000,1000,,,,,
113836114,1000,1000,1000,1000,,,,,
113838613,1000,1000,1000,1000,,,,,
113841112,1000,1000,1000,1000,,,,,
113843611,1000,1000,1000,1000,,,,,
113846110,1000,1000,1000,1000,,,,,
113848609,1000,1000,1000,1000,,,,,
113851108,1000,1000,1000,1000,,,,,
113853607,1000,1000,1000,1000,,,,,
113856106,1000,1000,1000,1000,,,,,
113858605,1000,1000,1000,1000,,,,,
113861104,1000,1000,1000,1000,,,,,
113863603,1000,1000,1000,1000,,,,,
113866102,1000,1000,1000,1000,,,,,
113868601,1000,1000,1000,1000,,,,,
113871100,1000,1000,1000,1000,,,,,
113873599,1000,1000,1000,1000,,,,,
113876098,1000,1000,1000,1000,,,,,
113878597,1000,1000,1000,1000,,,,,
113881096,1000,1000,1000,1000,,,,,
113883595,1000,1000,1000,1000,,,,,
113886094,1000,1000,1000,1000,,,,,
113888593,1000,1000,1000,1000,,,,,
113891092,1000,1000,1000,1000,,,,,
113893591,1000,1000,1000,1000,,,,,
113896090,1000,1000,1000,1000,,,,,
113898589,1000,1000,1000,1000,,,,,
113901088,1000,1000,1000,1000,,,,,
113903587,1000,1000,1000,1000,,,,,
113906086,1000,1000,1000,1000,,,,,
113908585,1000,1000,1000,1000,,,,,
113911084,1000,1000,1000,1000,,,,,
113913583,1000,1000,1000,1000,,,,,
113916082,1000,1000,1000,1000,,,,,
113918581,1000,1000,1000,1000,,,,,
113921080,1000,1000,1000,1000,,,,,
113923579,1000,1000,1000,1000,,,,,
113926078,1000,1000,1000,1000,,,,,
113928577,1000,1000,1000,1000,,,,,
113931076,1000,1000,1000,1000,,,,,
113933575,1001,1001,1001,1001,,,,,
113936074,1002,1002,1002,1002,,,,,
113938573,1003,1003,1003,1003,,,,,
113941072,1003,1003,1003,1003,,,,,
113943571,1004,1004,1004,1004,,,,,
113946070,1005,1005,1005,1005,,,,,
113948569,1006,1006,1006,1006,,,,,
113951068,1006,1006,1006,1006,,,,,
113953567,1007,1007,1007,1007,,,,,
113956066,1008,1008,1008,1008,,,,,
113958565,1009,1009,1009,1009,,,,,
113961064,1009,1009,1009,1009,,,,,
113963563,1010,1010,1010,1010,,,,,
113966062,1011,1011,1011,1011,,,,,
113968561,1012,1012,1012,1012,,,,,
113971060,1012,1012,1012,1012,,,,,
113973559,1013,1013,1013,1013,,,,,
113976058,1014,1014,1014,1014,,,,,
113978557,1015,1015,1015,1015,,,,,
113981056,1015,1015,1015,1015,,,,,
113983555,1016,1016,1016,1016,,,,,
113986054,1017,1017,1017,1017,,,,,
113988553,1018,1018,1018,1018,,,,,
113991052,1018,1018,1018,1018,,,,,
113993551,1019,1019,1019,1019,,,,,
113996050,1020,1020,1020,1020,,,,,
113998549,1021,1021,1021,1021,,,,,
114001048,1021,1021,1021,1021,,,,,
114003547,1022,1022,1022,1022,,,,,
114006046,1023,1023,1023,1023,,,,,
114008545,1024,1024,1024,1024,,,,,
114011044,1024,1024,1024,1024,,,,,
114013543,1025,1025,1025,1025,,,,,
114016042,1026,1026,1026,1026,,,,,
114018541,1027,1027,1027,1027,,,,,
114021040,1027,1027,1027,1027,,,,,
114023539,1028,1028,1028,1028,,,,,
114026038,1029,1029,1029,1029,,,,,
114028537,1030,1030,1030,1030,,,,,
114031036,1030,1030,1030,1030,,,,,
114033535,1031,1031,1031,1031,,,,,
114036034,1032,1032,1032,1032,,,,,
114038533,1033,1033,1033,1033,,,,,
114041032,1033,1033,1033,1033,,,,,
114043531,1034,1034,1034,1034,,,,,
114046030,1035,1035,1035,1035,,,,,
114048529,1036,1036,1036,1036,,,,,
114051028,1036,1036,1036,1036,,,,,
114053527,1037,1037,1037,1037,,,,,
114056026,1038,1038,1038,1038,,,,,
114058525,1039,1039,1039,1039,,,,,
114061024,1039,1039,1039,1039,,,,,
114063523,1040,1040,1040,1040,,,,,
114066022,1041,1041,1041,1041,,,,,
114068521,1042,1042,1042,1042,,,,,
114071020,1042,1042,1042,1042,,,,,
114073519,1043,1043,1043,1043,,,,,
114076018,1044,1044,1044,1044,,,,,
114078517,1045,1045,1045,1045,,,,,
114081016,1045,1045,1045,1045,,,,,
114083515,1046,1046,1046,1046,,,,,
114086014,1047,1047,1047,1047,,,,,
114088513,1048,1048,1048,1048,,,,,
114091012,1048,1048,1048,1048,,,,,
114093511,1049,1049,1049,1049,,,,,
114096010,1050,1050,1050,1050,,,,,
114098509,1051,1051,1051,1051,,,,,
114101008,1051,1051,1051,1051,,,,,
114103507,1052,1052,1052,1052,,,,,
114106006,1053,1053,1053,1053,,,,,
114108505,1054,1054,1054,1054,,,,,
114111004,1054,1054,1054,1054,,,,,
114113503,1055,1055,1055,1055,,,,,
114116002,1056,1056,1056,1056,,,,,
114118501,1057,1057,1057,1057,,,,,
114121000,1057,1057,1057,1057,,,,,
114123499,1058,1058,1058,1058,,,,,
114125998,1059,1059,1059,1059,,,,,
114128497,1060,1060,1060,1060,,,,,
114130996,1060,1060,1060,1060,,,,,
114133495,1061,1061,1061,1061,,,,,
114135994,1062,1062,1062,1062,,,,,
114138493,1063,1063,1063,1063,,,,,
114140992,1063,1063,1063,1063,,,,,
114143491,1064,1064,1064,1064,,,,,
114145990,1065,1065,1065,1065,,,,,
114148489,1066,1066,1066,1066,,,,,
114150988,1066,1066,1066,1066,,,,,
114153487,1067,1067,1067,1067,,,,,
114155986,1068,1068,1068,1068,,,,,
114158485,1069,1069,1069,1069,,,,,
114160984,1069,1069,1069,1069,,,,,
114163483,1070,1070,1070,1070,,,,,
114165982,1071,1071,1071,1071,,,,,
114168481,1072,1072,1072,1072,,,,,
114170980,1072,1072,1072,1072,,,,,
114173479,1073,1073,1073,1073,,,,,
114175978,1074,1074,1074,1074,,,,,
114178477,1075,1075,1075,1075,,,,,
114180976,1075,1075,1075,1075,,,,,
114183475,1076,1076,1076,1076,,,,,
114185974,1077,1077,1077,1077,,,,,
114188473,1078,1078,1078,1078,,,,,
114190972,1078,1078,1078,1078,,,,,
114193471,1079,1079,1079,1079,,,,,
114195970,1080,1080,1080,1080,,,,,
114198469,1081,1081,1081,1081,,,,,
114200968,1081,1081,1081,1081,,,,,
114203467,1082,1082,1082,1082,,,,,
114205966,1083,1083,1083,1083,,,,,
114208465,1084,1084,1084,1084,,,,,
114210964,1084,1084,1084,1084,,,,,
114213463,1085,1085,1085,1085,,,,,
114215962,1086,1086,1086,1086,,,,,
114218461,1087,1087,1087,1087,,,,,
114220960,1087,1087,1087,1087,,,,,
114223459,1088,1088,1088,1088,,,,,
114225958,1089,1089,1089,1089,,,,,
114228457,1090,1090,1090,1090,,,,,
114230956,1090,1090,1090,1090,,,,,
114233455,1091,1091,1091,1091,,,,,
114235954,1092,1092,1092,1092,,,,,
114238453,1093,1093,1093,1093,,,,,
114240952,1093,1093,1093,1093,,,,,
114243451,1094,1094,1094,1094,,,,,
114245950,1095,1095,1095,1095,,,,,
114248449,1096,1096,1096,1096,,,,,
114250948,1096,1096,1096,1096,,,,,
114253447,1097,1097,1097,1097,,,,,
114255946,1098,1098,1098,1098,,,,,
114258445,1099,1099,1099,1099,,,,,
114260944,1099,1099,1099,1099,,,,,
114263443,1100,1100,1100,1100,,,,,
114265942,1101,1101,1101,1101,,,,,
114268441,1101,1101,1101,1101,,,,,
114270940,1102,1102,1102,1102,,,,,
114273439,1103,1103,1103,1103,,,,,
114275938,1104,1104,1104,1104,,,,,
114278437,1104,1104,1104,1104,,,,,
114280936,1105,1105,1105,1105,,,,,
114283435,1106,1106,1106,1106,,,,,
114285934,1107,1107,1107,1107,,,,,
114288433,1107,1107,1107,1107,,,,,
114290932,1108,1108,1108,1108,,,,,
114293431,1109,1109,1109,1109,,,,,
114295930,1110,1110,1110,1110,,,,,
114298429,1110,1110,1110,1110,,,,,
114300928,1111,1111,1111,1111,,,,,
114303427,1112,1112,1112,1112,,,,,
114305926,1113,1113,1113,1113,,,,,
114308425,1113,1113,1113,1113,,,,,
114310924,1114,1114,1114,1114,,,,,
114313423,1115,1115,1115,1115,,,,,
114315922,1116,1116,1116,1116,,,,,
114318421,1116,1116,1116,1116,,,,,
114320920,1117,1117,1117,1117,,,,,
114323419,1118,1118,1118,1118,,,,,
114325918,1119,1119,1119,1119,,,,,
114328417,1119,1119,1119,1119,,,,,
114330916,1120,1120,1120,1120,,,,,
114333415,1121,1121,1121,1121,,,,,
114335914,1122,1122,1122,1122,,,,,
114338413,1122,1122,1122,1122,,,,,
114340912,1123,1123,1123,1123,,,,,
114343411,1124,1124,1124,1124,,,,,
114345910,1125,1125,1125,1125,,,,,
114348409,1125,1125,1125,1125,,,,,
114350908,1126,1126,1126,1126,,,,,
114353407,1127,1127,1127,1127,,,,,
114355906,1128,1128,1128,1128,,,,,
114358405,1128,1128,1128,1128,,,,,
114360904,1129,1129,1129,1129,,,,,
114363403,1130,1130,1130,1130,,,,,
114365902,1131,1131,1131,1131,,,,,
114368401,1131,1131,1131,1131,,,,,
114370900,1132,1132,1132,1132,,,,,
114373399,1133,1133,1133,1133,,,,,
114375898,1134,1134,1134,1134,,,,,
114378397,1134,1134,1134,1134,,,,,
114380896,1135,1135,1135,1135,,,,,
114383395,1136,1136,1136,1136,,,,,
114385894,1137,1137,1137,1137,,,,,
114388393,1137,1137,1137,1137,,,,,
114390892,1138,1138,1138,1138,,,,,
114393391,1139,1139,1139,1139,,,,,
114395890,1140,1140,1140,1140,,,,,
114398389,1140,1140,1140,1140,,,,,
114400888,1141,1141,1141,1141,,,,,
114403387,1142,1142,1142,1142,,,,,
114405886,1143,1143,1143,1143,,,,,
114408385,1143,1143,1143,1143,,,,,
114410884,1144,1144,1144,1144,,,,,
114413383,1145,1145,1145,1145,,,,,
114415882,1146,1146,1146,1146,,,,,
114418381,1146,1146,1146,1146,,,,,
114420880,1147,1147,1147,1147,,,,,
114423379,1148,1148,1148,1148,,,,,
114425878,1149,1149,1149,1149,,,,,
114428377,1149,1149,1149,1149,,,,,
114430876,1150,1150,1150,1150,,,,,
114433375,1165,1150,1150,1166,,,,,
114435874,1174,1156,1157,1176,,,,,
114438373,1182,1164,1165,1183,,,,,
114440872,1190,1172,1173,1191,,,,,
114443371,1197,1180,1181,1198,,,,,
114445870,1204,1187,1188,1206,,,,,
114448369,1212,1195,1196,1213,,,,,
114450868,1219,1202,1203,1220,,,,,
114453367,1226,1209,1210,1227,,,,,
114455866,1233,1217,1217,1234,,,,,
114458365,1240,1224,1224,1241,,,,,
114460864,1246,1230,1231,1248,,,,,
114463363,1253,1237,1238,1254,,,,,
114465862,1260,1244,1245,1261,,,,,
114468361,1266,1251,1252,1267,,,,,
114470860,1273,1257,1258,1274,,,,,
114473359,1279,1264,1265,1280,,,,,
114475858,1285,1270,1271,1286,,,,,
114478357,1291,1276,1277,1292,,,,,
114480856,1297,1283,1283,1299,,,,,
114483355,1304,1289,1290,1305,,,,,
114485854,1310,1295,1296,1311,,,,,
114488353,1315,1301,1302,1317,,,,,
114490852,1321,1307,1308,1322,,,,,
114493351,1327,1313,1313,1328,,,,,
114495850,1333,1319,1319,1334,,,,,
114498349,1339,1324,1325,1340,,,,,
114500848,1344,1330,1331,1345,,,,,
114503347,1350,1336,1336,1351,,,,,
114505846,1355,1341,1342,1356,,,,,
114508345,1361,1347,1348,1362,,,,,
114510844,1366,1352,1353,1367,,,,,
114513343,1372,1358,1358,1373,,,,,
114515842,1377,1363,1364,1378,,,,,
114518341,1382,1369,1369,1383,,,,,
114520840,1388,1374,1375,1389,,,,,
114523339,1393,1379,1380,1394,,,,,
114525838,1398,1384,1385,1399,,,,,
114528337,1403,1390,1390,1404,,,,,
114530836,1408,1395,1395,1409,,,,,
114533335,1413,1400,1400,1414,,,,,
114535834,1418,1405,1405,1419,,,,,
114538333,1423,1410,1411,1424,,,,,
114540832,1428,1415,1416,1429,,,,,
114543331,1433,1420,1420,1434,,,,,
114545830,1438,1425,1425,1439,,,,,
114548329,1443,1430,1430,1443,,,,,
114550828,1447,1435,1435,1448,,,,,
114553327,1452,1439,1440,1453,,,,,
114555826,1457,1444,1445,1458,,,,,
114558325,1461,1449,1450,1462,,,,,
114560824,1466,1454,1454,1467,,,,,
114563323,1471,1458,1459,1472,,,,,
114565822,1475,1463,1464,1476,,,,,
114568321,1480,1468,1468,1481,,,,,
114570820,1484,1472,1473,1485,,,,,
114573319,1489,1477,1477,1490,,,,,
114575818,1493,1481,1482,1494,,,,,
114578317,1498,1486,1486,1499,,,,,
114580816,1502,1490,1491,1503,,,,,
114583315,1507,1495,1495,1508,,,,,
114585814,1511,1499,1500,1512,,,,,
114588313,1515,1504,1504,1516,,,,,
114590812,1520,1508,1509,1521,,,,,
114593311,1524,1512,1513,1525,,,,,
114595810,1528,1517,1517,1529,,,,,
114598309,1533,1521,1522,1533,,,,,
114600808,1537,1525,1526,1538,,,,,
114603307,1541,1530,1530,1542,,,,,
114605806,1545,1534,1534,1546,,,,,
114608305,1549,1538,1539,1550,,,,,
114610804,1554,1542,1543,1554,,,,,
114613303,1558,1546,1547,1558,,,,,
114615802,1562,1550,1551,1562,,,,,
114618301,1566,1555,1555,1567,,,,,
114620800,1570,1559,1559,1571,,,,,
114623299,1574,1563,1563,1575,,,,,
114625798,1578,1567,1568,1579,,,,,
114628297,1582,1571,1572,1583,,,,,
114630796,1586,1575,1576,1587,,,,,
114633295,1590,1579,1580,1591,,,,,
114635794,1594,1583,1584,1595,,,,,
114638293,1598,1587,1588,1598,,,,,
114640792,1602,1591,1592,1602,,,,,
114643291,1606,1595,1595,1606,,,,,
114645790,1610,1599,1599,1610,,,,,
114648289,1614,1602,1603,1614,,,,,
114650788,1617,1606,1607,1618,,,,,
114653287,1621,1610,1611,1622,,,,,
114655786,1625,1614,1615,1625,,,,,
114658285,1629,1618,1619,1629,,,,,
114660784,1633,1622,1622,1633,,,,,
114663283,1636,1625,1626,1637,,,,,
114665782,1640,1629,1630,1641,,,,,
114668281,1644,1633,1634,1644,,,,,
114670780,1648,1637,1637,1648,,,,,
114673279,1651,1640,1641,1652,,,,,
114675778,1655,1644,1645,1655,,,,,
114678277,1659,1648,1648,1659,,,,,
114680776,1662,1652,1652,1663,,,,,
114683275,1666,1655,1656,1667,,,,,
114685774,1669,1659,1659,1670,,,,,
114688273,1673,1662,1663,1674,,,,,
114690772,1677,1666,1667,1677,,,,,
114693271,1680,1670,1670,1681,,,,,
114695770,1684,1673,1674,1685,,,,,
114698269,1687,1677,1677,1688,,,,,
114700768,1691,1680,1681,1692,,,,,
114703267,1695,1684,1684,1695,,,,,
114705766,1698,1687,1688,1699,,,,,
114708265,1702,1691,1691,1702,,,,,
114710764,1705,1694,1695,1706,,,,,
114713263,1709,1698,1698,1709,,,,,
114715762,1712,1701,1702,1713,,,,,
114718261,1715,1705,1705,1716,,,,,
114720760,1719,1708,1709,1720,,,,,
114723259,1722,1712,1712,1723,,,,,
114725758,1726,1715,1716,1726,,,,,
114728257,1729,1719,1719,1730,,,,,
114730756,1733,1722,1722,1733,,,,,
114733255,1736,1725,1726,1737,,,,,
114735754,1739,1729,1729,1740,,,,,
114738253,1743,1732,1733,1743,,,,,
114740752,1746,1735,1736,1747,,,,,
114743251,1749,1739,1739,1750,,,,,
114745750,1753,1742,1743,1753,,,,,
114748249,1756,1745,1746,1757,,,,,
114750748,1759,1749,1749,1760,,,,,
114753247,1763,1752,1753,1763,,,,,
114755746,1766,1755,1756,1767,,,,,
114758245,1769,1759,1759,1770,,,,,
114760744,1773,1762,1762,1773,,,,,
114763243,1776,1765,1766,1776,,,,,
114765742,1779,1768,1769,1780,,,,,
114768241,1782,1772,1772,1783,,,,,
114770740,1786,1775,1775,1786,,,,,
114773239,1789,1778,1779,1789,,,,,
114775738,1792,1781,1782,1792,,,,,
114778237,1795,1784,1785,1796,,,,,
114780736,1798,1788,1788,1799,,,,,
114783235,1802,1791,1791,1802,,,,,
114785734,1805,1794,1795,1805,,,,,
114788233,1808,1797,1798,1808,,,,,
114790732,1811,1800,1801,1811,,,,,
114793231,1814,1803,1804,1815,,,,,
114795730,1817,1807,1807,1818,,,,,
114798229,1820,1810,1810,1821,,,,,
114800728,1823,1813,1813,1824,,,,,
114803227,1827,1816,1817,1827,,,,,
114805726,1830,1819,1820,1830,,,,,
114808225,1833,1822,1823,1833,,,,,
114810724,1836,1825,1826,1836,,,,,
114813223,1839,1828,1829,1839,,,,,
114815722,1842,1831,1832,1842,,,,,
114818221,1845,1834,1835,1845,,,,,
114820720,1848,1837,1838,1848,,,,,
114823219,1851,1841,1841,1851,,,,,
114825718,1854,1844,1844,1854,,,,,
114828217,1857,1847,1847,1857,,,,,
114830716,1860,1850,1850,1860,,,,,
114833215,1863,1853,1853,1863,,,,,
114835714,1866,1856,1856,1866,,,,,
114838213,1869,1859,1859,1869,,,,,
114840712,1872,1862,1862,1872,,,,,
114843211,1875,1865,1865,1875,,,,,
114845710,1878,1868,1868,1878,,,,,
114848209,1881,1871,1871,1881,,,,,
114850708,1884,1873,1874,1884,,,,,
114853207,1887,1876,1877,1887,,,,,
114855706,1889,1879,1880,1890,,,,,
114858205,1892,1882,1883,1893,,,,,
114860704,1895,1885,1885,1896,,,,,
114863203,1897,1889,1889,1898,,,,,
114865702,1900,1892,1893,1900,,,,,
114868201,1902,1896,1896,1903,,,,,
114870700,1902,1895,1896,1903,,,,,
114873199,1901,1894,1894,1901,,,,,
114875698,1899,1893,1893,1900,,,,,
114878197,1898,1891,1892,1899,,,,,
114880696,1897,1890,1890,1898,,,,,
114883195,1896,1889,1889,1897,,,,,
114885694,1895,1887,1888,1896,,,,,
114888193,1894,1886,1886,1895,,,,,
114890692,1893,1885,1885,1894,,,,,
114893191,1892,1884,1884,1893,,,,,
114895690,1891,1883,1883,1892,,,,,
114898189,1890,1882,1882,1891,,,,,
114900688,1890,1881,1881,1890,,,,,
114903187,1889,1880,1881,1890,,,,,
114905686,1888,1880,1880,1889,,,,,
114908185,1888,1879,1879,1889,,,,,
114910684,1888,1879,1879,1889,,,,,
114913183,1887,1878,1878,1888,,,,,
114915682,1887,1878,1878,1888,,,,,
114918181,1887,1878,1878,1888,,,,,
114920680,1887,1878,1878,1888,,,,,
114923179,1887,1878,1878,1888,,,,,
114925678,1887,1878,1878,1888,,,,,
114928177,1887,1878,1878,1888,,,,,
114930676,1887,1879,1878,1888,,,,,
114933175,1887,1879,1879,1889,,,,,
114935674,1887,1879,1879,1888,,,,,
114938173,1887,1879,1879,1888,,,,,
114940672,1887,1879,1879,1888,,,,,
114943171,1886,1879,1879,1888,,,,,
114945670,1886,1879,1878,1887,,,,,
114948169,1885,1878,1878,1887,,,,,
114950668,1884,1878,1877,1886,,,,,
114953167,1883,1877,1876,1885,,,,,
114955666,1882,1876,1875,1884,,,,,
114958165,1881,1875,1874,1882,,,,,
114960664,1879,1873,1873,1881,,,,,
114963163,1878,1872,1871,1880,,,,,
114965662,1876,1870,1870,1878,,,,,
114968161,1875,1869,1868,1876,,,,,
114970660,1873,1867,1866,1874,,,,,
114973159,1870,1865,1864,1872,,,,,
114975658,1868,1863,1862,1870,,,,,
114978157,1866,1860,1860,1868,,,,,
114980656,1864,1858,1858,1865,,,,,
114983155,1861,1856,1855,1863,,,,,
114985654,1858,1853,1853,1860,,,,,
114988986,1856,1851,1850,1858,,,,,
114991485,1853,1848,1847,1855,,,,,
114993984,1850,1845,1845,1852,,,,,
114996483,1847,1842,1842,1849,,,,,
114998982,1844,1839,1839,1846,,,,,
115001481,1841,1836,1836,1843,,,,,
115003980,1838,1833,1833,1840,,,,,
115006479,1835,1830,1829,1837,,,,,
115008978,1831,1827,1826,1833,,,,,
115011477,1828,1824,1823,1830,,,,,
115013976,1825,1821,1820,1827,,,,,
115016475,1821,1817,1816,1823,,,,,
115018974,1818,1814,1813,1820,,,,,
115021473,1814,1811,1810,1817,,,,,
115023972,1811,1807,1806,1813,,,,,
115026471,1807,1804,1803,1809,,,,,
115028970,1804,1800,1799,1806,,,,,
115031469,1800,1797,1796,1802,,,,,
115033968,1797,1794,1792,1799,,,,,
115036467,1793,1790,1789,1795,,,,,
115038966,1789,1787,1786,1792,,,,,
115041465,1786,1783,1782,1788,,,,,
115043964,1782,1780,1779,1785,,,,,
115046463,1779,1776,1775,1781,,,,,
115048962,1775,1773,1772,1778,,,,,
115051461,1772,1769,1768,1774,,,,,
115053960,1768,1766,1765,1771,,,,,
115056459,1765,1763,1761,1767,,,,,
115058958,1761,1759,1758,1764,,,,,
115061457,1758,1756,1755,1760,,,,,
115063956,1754,1752,1751,1757,,,,,
115066455,1751,1749,1748,1753,,,,,
115068954,1747,1746,1744,1750,,,,,
115071453,1744,1742,1741,1746,,,,,
115073952,1740,1739,1738,1743,,,,,
115076451,1737,1736,1734,1740,,,,,
