TimeUS,M1,M2,M3,M4,TimeUS,C1,C2,C3,C4
61846085,1000,1000,1000,1000,61928552,1000,1000,1000,1000
61848584,1000,1000,1000,1000,62028512,1000,1000,1000,1000
61851083,1000,1000,1000,1000,62128472,1000,1000,1000,1000
61853582,1000,1000,1000,1000,62228432,1000,1000,1000,1000
61856081,1000,1000,1000,1000,62328392,1000,1000,1000,1000
61858580,1000,1000,1000,1000,62428352,1000,1000,1000,1000
61861079,1000,1000,1000,1000,62528312,1000,1000,1000,1000
61863578,1000,1000,1000,1000,62628272,1000,1000,1000,1000
61866077,1000,1000,1000,1000,62728232,1000,1000,1000,1000
61868576,1000,1000,1000,1000,62828192,1000,1000,1000,1000
61871075,1000,1000,1000,1000,62928985,1000,1000,1000,1000
61873574,1000,1000,1000,1000,63028945,1000,1000,1000,1000
61876073,1000,1000,1000,1000,63128905,1000,1000,1000,1000
61878572,1000,1000,1000,1000,63228865,1000,1000,1000,1000
61881071,1000,1000,1000,1000,63328825,1000,1000,1000,1000
61883570,1000,1000,1000,1000,63428785,1000,1000,1000,1000
61886069,1000,1000,1000,1000,63528745,1000,1000,1000,1000
61888568,1000,1000,1000,1000,63628705,1000,1000,1000,1000
61891067,1000,1000,1000,1000,63728665,1000,1000,1000,1000
61893566,1000,1000,1000,1000,63828625,1000,1000,1000,1000
61896065,1000,1000,1000,1000,63928585,1024,1024,1024,1024
61898564,1000,1000,1000,1000,64028545,1054,1054,1054,1054
61901063,1000,1000,1000,1000,64128505,1084,1084,1084,1084
61903562,1000,1000,1000,1000,64228465,1114,1114,1114,1114
61906061,1000,1000,1000,1000,64328425,1144,1144,1144,1144
61908560,1000,1000,1000,1000,64428385,1363,1356,1356,1364
61911059,1000,1000,1000,1000,64528345,1551,1545,1545,1551
61913558,1000,1000,1000,1000,64628305,1703,1697,1697,1703
61916057,1000,1000,1000,1000,64728265,1834,1828,1828,1834
61918556,1000,1000,1000,1000,64828225,1919,1913,1913,1919
61921055,1000,1000,1000,1000,64928185,1850,1848,1848,1851
61923554,1000,1000,1000,1000,65028978,1722,1722,1722,1722
61926053,1000,1000,1000,1000,65128938,1649,1650,1648,1651
61928552,1000,1000,1000,1000,65228898,1631,1634,1629,1638
61931051,1000,1000,1000,1000,65328858,1636,1639,1636,1640
61933550,1000,1000,1000,1000,65428818,1640,1642,1642,1641
61936049,1000,1000,1000,1000,65528778,1636,1635,1638,1633
61938548,1000,1000,1000,1000,65628738,1628,1627,1631,1624
61941047,1000,1000,1000,1000,65728698,1622,1621,1624,1618
61943546,1000,1000,1000,1000,65828658,1618,1617,1619,1615
61946045,1000,1000,1000,1000,65928618,1618,1617,1618,1617
61948544,1000,1000,1000,1000,66028578,1587,1587,1594,1580
61951043,1000,1000,1000,1000,66128538,1572,1573,1579,1566
61953542,1000,1000,1000,1000,66228498,1561,1562,1563,1561
61956041,1000,1000,1000,1000,66328458,1553,1553,1550,1556
61958540,1000,1000,1000,1000,66428418,1546,1546,1540,1552
61961039,1000,1000,1000,1000,66528378,1540,1539,1531,1548
61963538,1000,1000,1000,1000,66628338,1535,1534,1527,1541
61966037,1000,1000,1000,1000,66728298,1530,1529,1526,1532
61968536,1000,1000,1000,1000,66828258,1525,1525,1525,1525
61971035,1000,1000,1000,1000,66928218,1526,1526,1527,1525
61973534,1000,1000,1000,1000,67028178,1529,1528,1531,1526
61976033,1000,1000,1000,1000,67128971,1531,1531,1534,1528
61978532,1000,1000,1000,1000,67228931,1535,1535,1537,1533
61981031,1000,1000,1000,1000,67328891,1538,1539,1540,1537
61983530,1000,1000,1000,1000,67428851,1542,1542,1543,1541
61986029,1000,1000,1000,1000,67528811,1545,1545,1545,1545
61988528,1000,1000,1000,1000,67628771,1548,1547,1547,1548
61991027,1000,1000,1000,1000,67728731,1550,1550,1550,1551
61993526,1000,1000,1000,1000,67828691,1553,1553,1552,1554
61996025,1000,1000,1000,1000,67928651,1556,1556,1555,1557
61998524,1000,1000,1000,1000,68028611,1556,1556,1557,1559
62001023,1000,1000,1000,1000,68128571,1558,1558,1561,1561
62003522,1000,1000,1000,1000,68228531,1559,1560,1563,1564
62006021,1000,1000,1000,1000,68328491,1561,1561,1566,1565
62008520,1000,1000,1000,1000,68428451,1563,1563,1567,1567
62011019,1000,1000,1000,1000,68528411,1565,1565,1567,1567
62013518,1000,1000,1000,1000,68628371,1567,1567,1568,1567
62016017,1000,1000,1000,1000,68728331,1568,1568,1568,1568
62018516,1000,1000,1000,1000,68828291,1569,1569,1567,1568
62021015,1000,1000,1000,1000,68928251,1571,1570,1568,1569
62023514,1000,1000,1000,1000,69028211,1572,1572,1569,1569
62026013,1000,1000,1000,1000,69128171,1574,1573,1570,1570
62028512,1000,1000,1000,1000,69228964,1573,1573,1571,1570
62031011,1000,1000,1000,1000,69328924,1575,1575,1573,1572
62033510,1000,1000,1000,1000,69428884,1575,1575,1574,1573
62036009,1000,1000,1000,1000,69528844,1575,1575,1575,1574
62038508,1000,1000,1000,1000,69628804,1575,1576,1575,1575
62041007,1000,1000,1000,1000,69728764,1576,1576,1576,1576
62043506,1000,1000,1000,1000,69828724,1577,1577,1577,1577
62046005,1000,1000,1000,1000,69928684,1576,1575,1576,1577
62048504,1000,1000,1000,1000,70028644,1577,1577,1577,1577
62051003,1000,1000,1000,1000,70128604,1577,1577,1577,1577
62053502,1000,1000,1000,1000,70228564,1576,1576,1577,1577
62056001,1000,1000,1000,1000,70328524,1576,1577,1577,1577
62058500,1000,1000,1000,1000,70428484,1577,1578,1578,1578
62060999,1000,1000,1000,1000,70528444,1577,1577,1578,1577
62063498,1000,1000,1000,1000,70628404,1577,1577,1577,1577
62065997,1000,1000,1000,1000,70728364,1578,1578,1578,1578
62068496,1000,1000,1000,1000,70828324,1578,1578,1577,1578
62070995,1000,1000,1000,1000,70928284,1578,1578,1578,1578
62073494,1000,1000,1000,1000,71028244,1578,1577,1577,1577
62075993,1000,1000,1000,1000,71128204,1579,1578,1578,1578
62078492,1000,1000,1000,1000,71228164,1578,1579,1579,1578
62080991,1000,1000,1000,1000,71328957,1579,1579,1579,1579
62083490,1000,1000,1000,1000,71428917,1579,1579,1579,1579
62085989,1000,1000,1000,1000,71528877,1580,1580,1579,1580
62088488,1000,1000,1000,1000,71628837,1580,1580,1580,1580
62090987,1000,1000,1000,1000,71728797,1579,1579,1580,1579
62093486,1000,1000,1000,1000,71828757,1580,1580,1580,1580
62095985,1000,1000,1000,1000,71928717,1579,1580,1580,1580
62098484,1000,1000,1000,1000,72028677,1580,1579,1580,1580
62100983,1000,1000,1000,1000,72128637,1580,1580,1580,1580
62103482,1000,1000,1000,1000,72228597,1579,1579,1579,1579
62105981,1000,1000,1000,1000,72328557,1579,1579,1579,1580
62108480,1000,1000,1000,1000,72428517,1580,1580,1580,1580
62110979,1000,1000,1000,1000,72528477,1579,1580,1579,1580
62113478,1000,1000,1000,1000,72628437,1580,1579,1579,1579
62115977,1000,1000,1000,1000,72728397,1580,1579,1579,1580
62118476,1000,1000,1000,1000,72828357,1580,1580,1580,1580
62120975,1000,1000,1000,1000,72928317,1580,1580,1580,1580
62123474,1000,1000,1000,1000,73028277,1580,1580,1580,1580
62125973,1000,1000,1000,1000,73128237,1580,1580,1580,1580
62128472,1000,1000,1000,1000,73228197,1581,1581,1581,1581
62130971,1000,1000,1000,1000,73328157,1581,1580,1580,1580
62133470,1000,1000,1000,1000,73428950,1581,1581,1581,1581
62135969,1000,1000,1000,1000,73528910,1580,1580,1580,1580
62138468,1000,1000,1000,1000,73628870,1580,1580,1580,1580
62140967,1000,1000,1000,1000,73728830,1580,1580,1580,1580
62143466,1000,1000,1000,1000,73828790,1580,1580,1581,1581
62145965,1000,1000,1000,1000,73928750,1580,1580,1580,1580
62148464,1000,1000,1000,1000,74028710,1581,1581,1581,1581
62150963,1000,1000,1000,1000,74128670,1581,1581,1584,1577
62153462,1000,1000,1000,1000,74228630,1580,1582,1587,1572
62155961,1000,1000,1000,1000,74328590,1580,1583,1582,1574
62158460,1000,1000,1000,1000,74428550,1578,1580,1573,1573
62160959,1000,1000,1000,1000,74528510,1578,1579,1564,1571
62163458,1000,1000,1000,1000,74628470,1578,1579,1559,1566
62165957,1000,1000,1000,1000,74728430,1579,1578,1556,1561
62168456,1000,1000,1000,1000,74828390,1579,1577,1555,1557
62170955,1000,1000,1000,1000,74928350,1580,1578,1556,1556
62173454,1000,1000,1000,1000,75028310,1579,1579,1556,1554
62175953,1000,1000,1000,1000,75128270,1577,1578,1556,1554
62178452,1000,1000,1000,1000,75228230,1576,1577,1556,1554
62180951,1000,1000,1000,1000,75328190,1575,1576,1554,1553
62183450,1000,1000,1000,1000,75428983,1575,1577,1554,1553
62185949,1000,1000,1000,1000,75528943,1576,1577,1553,1553
62188448,1000,1000,1000,1000,75628903,1575,1576,1550,1550
62190947,1000,1000,1000,1000,75728863,1577,1578,1548,1549
62193446,1000,1000,1000,1000,75828823,1578,1580,1546,1545
62195945,1000,1000,1000,1000,75928783,1581,1583,1544,1543
62198444,1000,1000,1000,1000,76028743,1585,1586,1541,1540
62200943,1000,1000,1000,1000,76128703,1587,1588,1537,1537
62203442,1000,1000,1000,1000,76228663,1591,1592,1536,1536
62205941,1000,1000,1000,1000,76328623,1594,1593,1534,1535
62208440,1000,1000,1000,1000,76428583,1595,1595,1534,1535
62210939,1000,1000,1000,1000,76528543,1595,1594,1535,1536
62213438,1000,1000,1000,1000,76628503,1594,1594,1538,1540
62215937,1000,1000,1000,1000,76728463,1591,1590,1542,1545
62218436,1000,1000,1000,1000,76828423,1586,1584,1548,1551
62220935,1000,1000,1000,1000,76928383,1580,1577,1558,1561
62223434,1000,1000,1000,1000,77028343,1570,1567,1568,1570
62225933,1000,1000,1000,1000,77128303,1559,1555,1580,1582
62228432,1000,1000,1000,1000,77228263,1548,1545,1593,1593
62230931,1000,1000,1000,1000,77328223,1539,1537,1604,1603
62233430,1000,1000,1000,1000,77428183,1532,1532,1611,1610
62235929,1000,1000,1000,1000,77528976,1530,1531,1616,1614
62238428,1000,1000,1000,1000,77628936,1529,1531,1615,1614
62240927,1000,1000,1000,1000,77728896,1533,1535,1611,1611
62243426,1000,1000,1000,1000,77828856,1539,1542,1606,1606
62245925,1000,1000,1000,1000,77928816,1548,1550,1599,1600
62248424,1000,1000,1000,1000,78028776,1558,1558,1592,1592
62250923,1000,1000,1000,1000,78128736,1567,1566,1585,1584
62253422,1000,1000,1000,1000,78228696,1574,1574,1578,1577
62255921,1000,1000,1000,1000,78328656,1581,1580,1573,1572
62258420,1000,1000,1000,1000,78428616,1585,1584,1568,1568
62260919,1000,1000,1000,1000,78528576,1587,1586,1566,1566
62263418,1000,1000,1000,1000,78628536,1588,1586,1565,1566
62265917,1000,1000,1000,1000,78728496,1587,1586,1567,1567
62268416,1000,1000,1000,1000,78828456,1584,1583,1568,1569
62270915,1000,1000,1000,1000,78928416,1581,1582,1572,1571
62273414,1000,1000,1000,1000,79028376,1579,1579,1575,1575
62275913,1000,1000,1000,1000,79128336,1575,1576,1577,1577
62278412,1000,1000,1000,1000,79228296,1575,1575,1581,1580
62280911,1000,1000,1000,1000,79328256,1573,1574,1582,1582
62283410,1000,1000,1000,1000,79428216,1573,1573,1584,1584
62285909,1000,1000,1000,1000,79528176,1476,1478,1610,1614
62288408,1000,1000,1000,1000,79628969,1508,1512,1613,1614
62290907,1000,1000,1000,1000,79728929,1538,1543,1606,1604
62293406,1000,1000,1000,1000,79828889,1565,1569,1594,1590
62295905,1000,1000,1000,1000,79928849,1588,1589,1582,1579
62298404,1000,1000,1000,1000,80028809,1603,1601,1574,1572
62300903,1000,1000,1000,1000,80128769,1613,1608,1569,1569
62303402,1000,1000,1000,1000,80228729,1616,1611,1567,1569
62305901,1000,1000,1000,1000,80328689,1616,1612,1566,1569
62308400,1000,1000,1000,1000,80428649,1613,1610,1566,1569
62310899,1000,1000,1000,1000,80528609,1609,1608,1567,1569
62313398,1000,1000,1000,1000,80628569,1605,1606,1569,1571
62315897,1000,1000,1000,1000,80728529,1600,1602,1571,1571
62318396,1000,1000,1000,1000,80828489,1597,1598,1574,1573
62320895,1000,1000,1000,1000,80928449,1595,1595,1576,1575
62323394,1000,1000,1000,1000,81028409,1591,1591,1578,1577
62325893,1000,1000,1000,1000,81128369,1588,1588,1579,1579
62328392,1000,1000,1000,1000,81228329,1585,1585,1580,1580
62330891,1000,1000,1000,1000,81328289,1582,1582,1580,1580
62333390,1000,1000,1000,1000,81428249,1580,1580,1582,1581
62335889,1000,1000,1000,1000,81528209,1578,1579,1583,1582
62338388,1000,1000,1000,1000,81628169,1577,1577,1583,1582
62340887,1000,1000,1000,1000,81728962,1575,1576,1583,1583
62343386,1000,1000,1000,1000,81828922,1575,1576,1583,1583
62345885,1000,1000,1000,1000,81928882,1575,1575,1583,1583
62348384,1000,1000,1000,1000,82028842,1576,1576,1583,1583
62350883,1000,1000,1000,1000,82128802,1575,1576,1584,1581
62353382,1000,1000,1000,1000,82228762,1576,1577,1588,1573
62355881,1000,1000,1000,1000,82328722,1577,1577,1582,1572
62358380,1000,1000,1000,1000,82428682,1577,1577,1573,1572
62360879,1000,1000,1000,1000,82528642,1576,1578,1566,1570
62363378,1000,1000,1000,1000,82628602,1575,1577,1559,1565
62365877,1000,1000,1000,1000,82728562,1575,1577,1555,1561
62368376,1000,1000,1000,1000,82828522,1575,1577,1554,1557
62370875,1000,1000,1000,1000,82928482,1577,1578,1556,1555
62373374,1000,1000,1000,1000,83028442,1578,1578,1556,1554
62375873,1000,1000,1000,1000,83128402,1578,1578,1555,1553
62378372,1000,1000,1000,1000,83228362,1578,1578,1554,1552
62380871,1000,1000,1000,1000,83328322,1577,1577,1552,1552
62383370,1000,1000,1000,1000,83428282,1577,1577,1551,1550
62385869,1000,1000,1000,1000,83528242,1577,1578,1549,1550
62388368,1000,1000,1000,1000,83628202,1577,1579,1548,1549
62390867,1000,1000,1000,1000,83728162,1577,1579,1546,1546
62393366,1000,1000,1000,1000,83828955,1579,1581,1545,1545
62395865,1000,1000,1000,1000,83928915,1581,1582,1544,1543
62398364,1000,1000,1000,1000,84028875,1583,1584,1542,1541
62400863,1000,1000,1000,1000,84128835,1586,1586,1541,1540
62403362,1000,1000,1000,1000,84228795,1588,1587,1539,1539
62405861,1000,1000,1000,1000,84328755,1589,1589,1539,1540
62408360,1000,1000,1000,1000,84428715,1590,1590,1539,1541
62410859,1000,1000,1000,1000,84528675,1590,1589,1541,1543
62413358,1000,1000,1000,1000,84628635,1589,1588,1542,1545
62415857,1000,1000,1000,1000,84728595,1587,1587,1545,1549
62418356,1000,1000,1000,1000,84828555,1584,1584,1550,1553
62420855,1000,1000,1000,1000,84928515,1580,1578,1556,1560
62423354,1000,1000,1000,1000,85028475,1574,1572,1564,1567
62425853,1000,1000,1000,1000,85128435,1567,1564,1572,1575
62428352,1000,1000,1000,1000,85228395,1559,1556,1582,1583
62430851,1000,1000,1000,1000,85328355,1550,1547,1592,1592
62433350,1000,1000,1000,1000,85428315,1541,1539,1601,1601
62435849,1000,1000,1000,1000,85528275,1535,1535,1609,1608
62438348,1000,1000,1000,1000,85628235,1531,1532,1612,1611
62440847,1000,1000,1000,1000,85728195,1532,1534,1613,1611
62443346,1000,1000,1000,1000,85828155,1535,1537,1609,1609
62445845,1000,1000,1000,1000,85928948,1540,1542,1603,1603
62448344,1000,1000,1000,1000,86028908,1548,1549,1596,1596
62450843,1000,1000,1000,1000,86128868,1558,1558,1591,1590
62453342,1000,1000,1000,1000,86228828,1566,1566,1584,1583
62455841,1000,1000,1000,1000,86328788,1574,1573,1577,1576
62458340,1000,1000,1000,1000,86428748,1580,1579,1572,1571
62460839,1000,1000,1000,1000,86528708,1585,1583,1568,1567
62463338,1000,1000,1000,1000,86628668,1588,1586,1566,1566
62465837,1000,1000,1000,1000,86728628,1589,1587,1566,1566
62468336,1000,1000,1000,1000,86828588,1588,1587,1567,1568
62470835,1000,1000,1000,1000,86928548,1586,1586,1569,1569
62473334,1000,1000,1000,1000,87028508,1584,1584,1571,1571
62475833,1000,1000,1000,1000,87128468,1582,1582,1573,1574
62478332,1000,1000,1000,1000,87228428,1580,1580,1576,1576
62480831,1000,1000,1000,1000,87328388,1578,1578,1579,1579
62483330,1000,1000,1000,1000,87428348,1576,1577,1581,1581
62485829,1000,1000,1000,1000,87528308,1575,1576,1584,1583
62488328,1000,1000,1000,1000,87628268,1575,1575,1585,1585
62490827,1000,1000,1000,1000,87728228,1574,1574,1584,1585
62493326,1000,1000,1000,1000,87828188,1574,1574,1583,1584
62495825,1000,1000,1000,1000,87928981,1573,1574,1582,1582
62498324,1000,1000,1000,1000,88028941,1575,1576,1583,1583
62500823,1000,1000,1000,1000,88128901,1576,1577,1581,1581
62503322,1000,1000,1000,1000,88228861,1578,1579,1581,1581
62505821,1000,1000,1000,1000,88328821,1579,1579,1579,1579
62508320,1000,1000,1000,1000,88428781,1580,1580,1578,1578
62510819,1000,1000,1000,1000,88528741,1581,1581,1577,1577
62513318,1000,1000,1000,1000,88628701,1582,1582,1578,1578
62515817,1000,1000,1000,1000,88728661,1583,1582,1578,1578
62518316,1000,1000,1000,1000,88828621,1583,1582,1578,1578
62520815,1000,1000,1000,1000,88928581,1582,1582,1578,1578
62523314,1000,1000,1000,1000,89028541,1581,1582,1578,1579
62525813,1000,1000,1000,1000,89128501,1581,1581,1579,1579
62528312,1000,1000,1000,1000,89228461,1580,1581,1579,1579
62530811,1000,1000,1000,1000,89328421,1580,1580,1580,1580
62533310,1000,1000,1000,1000,89428381,1580,1580,1581,1581
62535809,1000,1000,1000,1000,89528341,1580,1579,1581,1580
62538308,1000,1000,1000,1000,89628301,1580,1580,1582,1582
62540807,1000,1000,1000,1000,89728261,1580,1580,1582,1582
62543306,1000,1000,1000,1000,89828221,1579,1580,1581,1581
62545805,1000,1000,1000,1000,89928181,1580,1580,1582,1582
62548304,1000,1000,1000,1000,90028974,1579,1580,1580,1580
62550803,1000,1000,1000,1000,90128934,1580,1580,1580,1580
62553302,1000,1000,1000,1000,90228894,1581,1581,1581,1582
62555801,1000,1000,1000,1000,90328854,1581,1581,1581,1581
62558300,1000,1000,1000,1000,90428814,1581,1582,1581,1581
62560799,1000,1000,1000,1000,90528774,1581,1581,1580,1580
62563298,1000,1000,1000,1000,90628734,1582,1582,1587,1574
62565797,1000,1000,1000,1000,90728694,1581,1582,1585,1571
62568296,1000,1000,1000,1000,90828654,1580,1582,1577,1573
62570795,1000,1000,1000,1000,90928614,1578,1580,1568,1571
62573294,1000,1000,1000,1000,91028574,1577,1579,1561,1568
62575793,1000,1000,1000,1000,91128534,1577,1579,1556,1563
62578292,1000,1000,1000,1000,91228494,1578,1579,1555,1559
62580791,1000,1000,1000,1000,91328454,1580,1579,1556,1556
62583290,1000,1000,1000,1000,91428414,1580,1578,1556,1555
62585789,1000,1000,1000,1000,91528374,1579,1577,1556,1554
62588288,1000,1000,1000,1000,91628334,1578,1577,1556,1554
62590787,1000,1000,1000,1000,91728294,1577,1578,1556,1555
62593286,1000,1000,1000,1000,91828254,1575,1577,1555,1554
62595785,1000,1000,1000,1000,91928214,1575,1577,1554,1554
62598284,1000,1000,1000,1000,92028174,1575,1577,1552,1552
62600783,1000,1000,1000,1000,92128967,1576,1577,1551,1551
62603282,1000,1000,1000,1000,92228927,1577,1579,1549,1549
62605781,1000,1000,1000,1000,92328887,1579,1580,1547,1547
62608280,1000,1000,1000,1000,92428847,1580,1581,1543,1543
62610779,1000,1000,1000,1000,92528807,1583,1584,1542,1541
62613278,1000,1000,1000,1000,92628767,1587,1588,1541,1540
62615777,1000,1000,1000,1000,92728727,1590,1589,1539,1540
62618276,1000,1000,1000,1000,92828687,1591,1591,1538,1538
62620775,1000,1000,1000,1000,92928647,1591,1592,1537,1539
62623274,1000,1000,1000,1000,93028607,1592,1592,1539,1541
62625773,1000,1000,1000,1000,93128567,1590,1590,1539,1542
62628272,1000,1000,1000,1000,93228527,1588,1587,1543,1546
62630771,1000,1000,1000,1000,93328487,1584,1583,1550,1553
62633270,1000,1000,1000,1000,93428447,1579,1576,1558,1562
62635769,1000,1000,1000,1000,93528407,1571,1567,1569,1571
62638268,1000,1000,1000,1000,93628367,1562,1558,1581,1582
62640767,1000,1000,1000,1000,93728327,1552,1549,1592,1593
62643266,1000,1000,1000,1000,93828287,1543,1541,1601,1601
62645765,1000,1000,1000,1000,93928247,1538,1538,1609,1608
62648264,1000,1000,1000,1000,94028207,1533,1534,1611,1610
62650763,1000,1000,1000,1000,94128167,1533,1535,1612,1612
62653262,1000,1000,1000,1000,94228960,1535,1539,1610,1609
62655761,1000,1000,1000,1000,94328920,1541,1543,1605,1605
62658260,1000,1000,1000,1000,94428880,1547,1548,1598,1598
62660759,1000,1000,1000,1000,94528840,1556,1557,1593,1592
62663258,1000,1000,1000,1000,94628800,1564,1564,1585,1585
62665757,1000,1000,1000,1000,94728760,1572,1571,1580,1579
62668256,1000,1000,1000,1000,94828720,1578,1577,1574,1574
62670755,1000,1000,1000,1000,94928680,1583,1582,1570,1571
62673254,1000,1000,1000,1000,95028640,1586,1585,1568,1568
62675753,1000,1000,1000,1000,95128600,1588,1586,1567,1567
62678252,1000,1000,1000,1000,95228560,1587,1586,1567,1567
62680751,1000,1000,1000,1000,95328520,1586,1585,1568,1568
62683250,1000,1000,1000,1000,95428480,1584,1584,1571,1571
62685749,1000,1000,1000,1000,95528440,1581,1581,1572,1573
62688248,1000,1000,1000,1000,95628400,1580,1579,1576,1577
62690747,1000,1000,1000,1000,95728360,1577,1577,1579,1579
62693246,1000,1000,1000,1000,95828320,1576,1576,1582,1582
62695745,1000,1000,1000,1000,95928280,1574,1575,1583,1583
62698244,1000,1000,1000,1000,96028240,1573,1574,1584,1584
62700743,1000,1000,1000,1000,96128200,1573,1573,1584,1584
62703242,1000,1000,1000,1000,96228160,1574,1575,1584,1584
62705741,1000,1000,1000,1000,96328953,1574,1575,1583,1583
62708240,1000,1000,1000,1000,96428913,1576,1576,1582,1582
62710739,1000,1000,1000,1000,96528873,1578,1578,1582,1582
62713238,1000,1000,1000,1000,96628833,1579,1579,1581,1580
62715737,1000,1000,1000,1000,96728793,1580,1580,1580,1580
62718236,1000,1000,1000,1000,96828753,1581,1580,1578,1579
62720735,1000,1000,1000,1000,96928713,1582,1582,1578,1579
62723234,1000,1000,1000,1000,97028673,1582,1582,1578,1578
62725733,1000,1000,1000,1000,97128633,1583,1583,1578,1578
62728232,1000,1000,1000,1000,97228593,1582,1582,1578,1578
62730731,1000,1000,1000,1000,97328553,1581,1581,1578,1578
62733230,1000,1000,1000,1000,97428513,1582,1581,1579,1579
62735729,1000,1000,1000,1000,97528473,1582,1581,1580,1579
62738228,1000,1000,1000,1000,97628433,1581,1581,1580,1580
62740727,1000,1000,1000,1000,97728393,1581,1581,1581,1581
62743226,1000,1000,1000,1000,97828353,1580,1581,1581,1582
62745725,1000,1000,1000,1000,97928313,1580,1580,1581,1581
62748224,1000,1000,1000,1000,98028273,1579,1580,1581,1581
62750723,1000,1000,1000,1000,98128233,1580,1580,1582,1582
62753222,1000,1000,1000,1000,98228193,1580,1580,1582,1582
62755721,1000,1000,1000,1000,98328986,1581,1580,1582,1582
62758220,1000,1000,1000,1000,98428946,1580,1580,1582,1581
62760719,1000,1000,1000,1000,98528906,1581,1581,1582,1581
62763218,1000,1000,1000,1000,98628866,1581,1581,1585,1577
62765717,1000,1000,1000,1000,98728826,1581,1581,1588,1573
62768216,1000,1000,1000,1000,98828786,1579,1580,1582,1574
62770715,1000,1000,1000,1000,98928746,1577,1576,1574,1574
62773214,1000,1000,1000,1000,99028706,1574,1573,1567,1573
62775713,1000,1000,1000,1000,99128666,1571,1571,1564,1572
62778212,1000,1000,1000,1000,99228626,1568,1569,1563,1569
62780711,1000,1000,1000,1000,99328586,1567,1568,1565,1567
62783210,1000,1000,1000,1000,99428546,1566,1567,1566,1565
62785709,1000,1000,1000,1000,99528506,1566,1566,1567,1564
62788208,1000,1000,1000,1000,99628466,1565,1565,1567,1564
62790707,1000,1000,1000,1000,99728426,1564,1563,1566,1564
62793206,1000,1000,1000,1000,99828386,1564,1563,1565,1565
62795705,1000,1000,1000,1000,99928346,1562,1563,1564,1564
62798204,1000,1000,1000,1000,100028306,1563,1562,1564,1564
62800703,1000,1000,1000,1000,100128266,1561,1561,1562,1563
62803202,1000,1000,1000,1000,100228226,1561,1562,1562,1562
62805701,1000,1000,1000,1000,100328186,1561,1562,1562,1562
62808200,1000,1000,1000,1000,100428979,1561,1561,1561,1561
62810699,1000,1000,1000,1000,100528939,1561,1561,1561,1560
62813198,1000,1000,1000,1000,100628899,1560,1560,1560,1559
62815697,1000,1000,1000,1000,100728859,1560,1559,1559,1558
62818196,1000,1000,1000,1000,100828819,1558,1558,1558,1557
62820695,1000,1000,1000,1000,100928779,1559,1559,1558,1558
62823194,1000,1000,1000,1000,101028739,1558,1558,1559,1557
62825693,1000,1000,1000,1000,101128699,1558,1557,1558,1557
62828192,1000,1000,1000,1000,101228659,1558,1558,1559,1557
62830691,1000,1000,1000,1000,101328619,1558,1558,1560,1556
62833190,1000,1000,1000,1000,101428579,1558,1559,1560,1557
62835689,1000,1000,1000,1000,101528539,1559,1558,1558,1560
62838188,1000,1000,1000,1000,101628499,1560,1560,1557,1563
62840687,1000,1000,1000,1000,101728459,1561,1561,1558,1565
62843186,1000,1000,1000,1000,101828419,1562,1562,1560,1565
62845685,1000,1000,1000,1000,101928379,1562,1562,1561,1565
62848184,1000,1000,1000,1000,102028339,1562,1562,1563,1561
62850683,1000,1000,1000,1000,102128299,1561,1561,1562,1559
62853182,1000,1000,1000,1000,102228259,1560,1560,1561,1557
62855681,1000,1000,1000,1000,102328219,1559,1559,1556,1560
62858180,1000,1000,1000,1000,102428179,1557,1557,1553,1558
62860679,1000,1000,1000,1000,102528972,1552,1552,1548,1552
62863178,1000,1000,1000,1000,102628932,1547,1547,1544,1545
62865677,1000,1000,1000,1000,102728892,1541,1542,1539,1539
62868176,1000,1000,1000,1000,102828852,1534,1534,1532,1531
62870675,1000,1000,1000,1000,102928812,1525,1526,1524,1522
62873174,1000,1000,1000,1000,103028772,1522,1521,1520,1519
62875673,1000,1000,1000,1000,103128732,1520,1520,1520,1519
62878172,1000,1000,1000,1000,103228692,1520,1520,1521,1521
62880671,1000,1000,1000,1000,103328652,1521,1521,1523,1524
62883170,1000,1000,1000,1000,103428612,1523,1523,1526,1527
62885669,1000,1000,1000,1000,103528572,1526,1527,1531,1531
62888168,1000,1000,1000,1000,103628532,1531,1532,1536,1536
62890667,1000,1000,1000,1000,103728492,1535,1534,1539,1539
62893166,1000,1000,1000,1000,103828452,1538,1538,1542,1542
62895665,1000,1000,1000,1000,103928412,1541,1541,1544,1543
62898164,1000,1000,1000,1000,104028372,1543,1544,1545,1544
62900663,1000,1000,1000,1000,104128332,1546,1546,1545,1545
62903162,1000,1000,1000,1000,104228292,1546,1547,1545,1545
62905661,1000,1000,1000,1000,104328252,1547,1547,1545,1544
62908160,1000,1000,1000,1000,104428212,1548,1548,1545,1545
62910659,1000,1000,1000,1000,104528172,1548,1548,1545,1545
62913158,1000,1000,1000,1000,104628965,1547,1548,1545,1545
62915657,1000,1000,1000,1000,104728925,1547,1548,1545,1545
62918156,1000,1000,1000,1000,104828885,1548,1548,1546,1546
62920655,1000,1000,1000,1000,104928845,1547,1547,1546,1546
62923154,1000,1000,1000,1000,105028805,1546,1546,1545,1545
62926486,1000,1000,1000,1000,105128765,1545,1544,1545,1545
62928985,1000,1000,1000,1000,105228725,1545,1545,1546,1545
62931484,1000,1000,1000,1000,105328685,1545,1546,1546,1546
62933983,1000,1000,1000,1000,105428645,1545,1545,1546,1546
62936482,1000,1000,1000,1000,105528605,1544,1544,1545,1545
62938981,1000,1000,1000,1000,105628565,1543,1543,1544,1544
62941480,1000,1000,1000,1000,105728525,1544,1543,1545,1544
62943979,1000,1000,1000,1000,105828485,1543,1543,1544,1544
62946478,1000,1000,1000,1000,105928445,1544,1543,1544,1544
62948977,1000,1000,1000,1000,106028405,1544,1544,1544,1543
62951476,1000,1000,1000,1000,106128365,1544,1543,1544,1543
62953975,1000,1000,1000,1000,106228325,1544,1544,1544,1544
62956474,1000,1000,1000,1000,106328285,1543,1543,1543,1543
62958973,1000,1000,1000,1000,106428245,1544,1544,1544,1544
62961472,1000,1000,1000,1000,106528205,1544,1544,1543,1544
62963971,1000,1000,1000,1000,106628165,1544,1545,1545,1544
62966470,1000,1000,1000,1000,106728958,1544,1544,1544,1544
62968969,1000,1000,1000,1000,106828918,1544,1544,1544,1544
62971468,1000,1000,1000,1000,106928878,1544,1543,1543,1543
62973967,1000,1000,1000,1000,107028838,1544,1544,1544,1544
62976466,1000,1000,1000,1000,107128798,1544,1544,1544,1545
62978965,1000,1000,1000,1000,107228758,1544,1544,1544,1544
62981464,1000,1000,1000,1000,107328718,1545,1544,1544,1544
62983963,1000,1000,1000,1000,107428678,1545,1545,1545,1545
62986462,1000,1000,1000,1000,107528638,1544,1544,1544,1545
62988961,1000,1000,1000,1000,107628598,1544,1544,1544,1544
62991460,1000,1000,1000,1000,107728558,1544,1544,1544,1544
62993959,1000,1000,1000,1000,107828518,1544,1544,1544,1544
62996458,1000,1000,1000,1000,107928478,1544,1543,1543,1544
62998957,1000,1000,1000,1000,108028438,1544,1544,1544,1544
63001456,1000,1000,1000,1000,108128398,1543,1543,1543,1543
63003955,1000,1000,1000,1000,108228358,1544,1544,1544,1544
63006454,1000,1000,1000,1000,108328318,1543,1543,1543,1543
63008953,1000,1000,1000,1000,108428278,1544,1544,1544,1544
63011452,1000,1000,1000,1000,108528238,1543,1543,1543,1544
63013951,1000,1000,1000,1000,108628198,1544,1545,1545,1545
63016450,1000,1000,1000,1000,108728158,1545,1545,1545,1545
63018949,1000,1000,1000,1000,108828951,1544,1544,1544,1544
63021448,1000,1000,1000,1000,108928911,1544,1544,1544,1545
63023947,1000,1000,1000,1000,109028871,1544,1544,1544,1544
63026446,1000,1000,1000,1000,109128831,1545,1545,1545,1545
63028945,1000,1000,1000,1000,109228791,1545,1545,1545,1544
63031444,1000,1000,1000,1000,109328751,1544,1545,1544,1544
63033943,1000,1000,1000,1000,109428711,1543,1545,1544,1544
63036442,1000,1000,1000,1000,109528671,1544,1544,1544,1544
63038941,1000,1000,1000,1000,109628631,1545,1545,1545,1545
63041440,1000,1000,1000,1000,109728591,1544,1544,1544,1545
63043939,1000,1000,1000,1000,109828551,1544,1544,1544,1544
63046438,1000,1000,1000,1000,109928511,1544,1543,1544,1543
63048937,1000,1000,1000,1000,110028471,1544,1544,1544,1544
63051436,1000,1000,1000,1000,110128431,1544,1544,1544,1544
63053935,1000,1000,1000,1000,110228391,1544,1544,1544,1545
63056434,1000,1000,1000,1000,110328351,1546,1545,1545,1546
63058933,1000,1000,1000,1000,110428311,1544,1545,1545,1544
63061432,1000,1000,1000,1000,110528271,1545,1545,1544,1545
63063931,1000,1000,1000,1000,110628231,1545,1545,1545,1545
63066430,1000,1000,1000,1000,110728191,1545,1545,1545,1545
63068929,1000,1000,1000,1000,110828984,1545,1545,1545,1545
63071428,1000,1000,1000,1000,110928944,1545,1545,1545,1545
63073927,1000,1000,1000,1000,111028904,1543,1544,1544,1543
63076426,1000,1000,1000,1000,111128864,1544,1544,1543,1544
63078925,1000,1000,1000,1000,111228824,1543,1543,1543,1543
63081424,1000,1000,1000,1000,111328784,1544,1544,1544,1544
63083923,1000,1000,1000,1000,111428744,1544,1544,1543,1544
63086422,1000,1000,1000,1000,111528704,1544,1543,1544,1544
63088921,1000,1000,1000,1000,111628664,1543,1543,1543,1543
63091420,1000,1000,1000,1000,111728624,1544,1544,1544,1544
63093919,1000,1000,1000,1000,111828584,1544,1544,1545,1545
63096418,1000,1000,1000,1000,111928544,1544,1544,1544,1545
63098917,1000,1000,1000,1000,112028504,1544,1544,1545,1544
63101416,1000,1000,1000,1000,112128464,1544,1544,1544,1544
63103915,1000,1000,1000,1000,112228424,1545,1545,1545,1545
63106414,1000,1000,1000,1000,112328384,1545,1545,1544,1545
63108913,1000,1000,1000,1000,112428344,1544,1544,1544,1544
63111412,1000,1000,1000,1000,112528304,1545,1545,1545,1544
63113911,1000,1000,1000,1000,112628264,1544,1545,1544,1544
63116410,1000,1000,1000,1000,112728224,1497,1498,1488,1489
63118909,1000,1000,1000,1000,112828184,1356,1359,1315,1314
63121408,1000,1000,1000,1000,112928977,1299,1301,1236,1236
63123907,1000,1000,1000,1000,113028937,1281,1284,1212,1212
63126406,1000,1000,1000,1000,113128897,1263,1264,1183,1184
63128905,1000,1000,1000,1000,113228857,1240,1242,1150,1150
63131404,1000,1000,1000,1000,113328817,1183,1185,1150,1150
63133903,1000,1000,1000,1000,113428777,1183,1185,1150,1150
63136402,1000,1000,1000,1000,113528737,1183,1185,1150,1150
63138901,1000,1000,1000,1000,113628697,1184,1167,1150,1173
63141400,1000,1000,1000,1000,113728657,1184,1173,1150,1166
63143899,1000,1000,1000,1000,113828617,1184,1177,1150,1161
63146398,1000,1000,1000,1000,113928577,1184,1177,1150,1160
63148897,1000,1000,1000,1000,114028537,1184,1177,1150,1160
63151396,1000,1000,1000,1000,114128497,1184,1177,1150,1161
63153895,1000,1000,1000,1000,114228457,1184,1176,1150,1161
63156394,1000,1000,1000,1000,114328417,1184,1176,1150,1162
63158893,1000,1000,1000,1000,114428377,1184,1184,1150,1150
63161392,1000,1000,1000,1000,114528337,1185,1183,1150,1151
63163891,1000,1000,1000,1000,114628297,1184,1183,1150,1152
63166390,1000,1000,1000,1000,114728257,1184,1182,1150,1152
63168889,1000,1000,1000,1000,114828217,1184,1182,1150,1152
63171388,1000,1000,1000,1000,114928177,1000,1000,1000,1000
63173887,1000,1000,1000,1000,115028970,1000,1000,1000,1000
63176386,1000,1000,1000,1000,115128930,1000,1000,1000,1000
63178885,1000,1000,1000,1000,115228890,1000,1000,1000,1000
63181384,1000,1000,1000,1000,115328850,1000,1000,1000,1000
63183883,1000,1000,1000,1000,115428810,1000,1000,1000,1000
63186382,1000,1000,1000,1000,115528770,1000,1000,1000,1000
63188881,1000,1000,1000,1000,115628730,1000,1000,1000,1000
63191380,1000,1000,1000,1000,115728690,1000,1000,1000,1000
63193879,1000,1000,1000,1000,115828650,1000,1000,1000,1000
63196378,1000,1000,1000,1000,115928610,1000,1000,1000,1000
63198877,1000,1000,1000,1000,116028570,1000,1000,1000,1000
63201376,1000,1000,1000,1000,116128530,1000,1000,1000,1000
63203875,1000,1000,1000,1000,116228490,1000,1000,1000,1000
63206374,1000,1000,1000,1000,116328450,1000,1000,1000,1000
63208873,1000,1000,1000,1000,116428410,1000,1000,1000,1000
63211372,1000,1000,1000,1000,116528370,1000,1000,1000,1000
63213871,1000,1000,1000,1000,116628330,1000,1000,1000,1000
63216370,1000,1000,1000,1000,116728290,1000,1000,1000,1000
63218869,1000,1000,1000,1000,116828250,1000,1000,1000,1000
63221368,1000,1000,1000,1000,116928210,1000,1000,1000,1000
63223867,1000,1000,1000,1000,117028170,1000,1000,1000,1000
63226366,1000,1000,1000,1000,117128963,1000,1000,1000,1000
63228865,1000,1000,1000,1000,117228923,1000,1000,1000,1000
63231364,1000,1000,1000,1000,117328883,1000,1000,1000,1000
63233863,1000,1000,1000,1000,117428843,1000,1000,1000,1000
63236362,1000,1000,1000,1000,117528803,1000,1000,1000,1000
63238861,1000,1000,1000,1000,117628763,1000,1000,1000,1000
63241360,1000,1000,1000,1000,117728723,1000,1000,1000,1000
63243859,1000,1000,1000,1000,117828683,1000,1000,1000,1000
63246358,1000,1000,1000,1000,117928643,1000,1000,1000,1000
63248857,1000,1000,1000,1000,118028603,1000,1000,1000,1000
63251356,1000,1000,1000,1000,118128563,1000,1000,1000,1000
63253855,1000,1000,1000,1000,118228523,1000,1000,1000,1000
63256354,1000,1000,1000,1000,118328483,1000,1000,1000,1000
63258853,1000,1000,1000,1000,118428443,1000,1000,1000,1000
63261352,1000,1000,1000,1000,118528403,1000,1000,1000,1000
63263851,1000,1000,1000,1000,118628363,1000,1000,1000,1000
63266350,1000,1000,1000,1000,118728323,1000,1000,1000,1000
63268849,1000,1000,1000,1000,118828283,1000,1000,1000,1000
63271348,1000,1000,1000,1000,118928243,1000,1000,1000,1000
63273847,1000,1000,1000,1000,119028203,1000,1000,1000,1000
63276346,1000,1000,1000,1000,119128163,1000,1000,1000,1000
63278845,1000,1000,1000,1000,119228956,1000,1000,1000,1000
63281344,1000,1000,1000,1000,119328916,1000,1000,1000,1000
63283843,1000,1000,1000,1000,119428876,1000,1000,1000,1000
63286342,1000,1000,1000,1000,119528836,1000,1000,1000,1000
63288841,1000,1000,1000,1000,119628796,1000,1000,1000,1000
63291340,1000,1000,1000,1000,119728756,1000,1000,1000,1000
63293839,1000,1000,1000,1000,119828716,1000,1000,1000,1000
63296338,1000,1000,1000,1000,119928676,1000,1000,1000,1000
63298837,1000,1000,1000,1000,120028636,1000,1000,1000,1000
63301336,1000,1000,1000,1000,120128596,1000,1000,1000,1000
63303835,1000,1000,1000,1000,120228556,1000,1000,1000,1000
63306334,1000,1000,1000,1000,120328516,1000,1000,1000,1000
63308833,1000,1000,1000,1000,120428476,1000,1000,1000,1000
63311332,1000,1000,1000,1000,120528436,1000,1000,1000,1000
63313831,1000,1000,1000,1000,120628396,1000,1000,1000,1000
63316330,1000,1000,1000,1000,120728356,1000,1000,1000,1000
63318829,1000,1000,1000,1000,120828316,1000,1000,1000,1000
63321328,1000,1000,1000,1000,120928276,1000,1000,1000,1000
63323827,1000,1000,1000,1000,121028236,1000,1000,1000,1000
63326326,1000,1000,1000,1000,121128196,1000,1000,1000,1000
63328825,1000,1000,1000,1000,121228156,1000,1000,1000,1000
63331324,1000,1000,1000,1000,121328949,1000,1000,1000,1000
63333823,1000,1000,1000,1000,121428909,1000,1000,1000,1000
63336322,1000,1000,1000,1000,121528869,1000,1000,1000,1000
63338821,1000,1000,1000,1000,121628829,1000,1000,1000,1000
63341320,1000,1000,1000,1000,121728789,1000,1000,1000,1000
63343819,1000,1000,1000,1000,121828749,1000,1000,1000,1000
63346318,1000,1000,1000,1000,121928709,1000,1000,1000,1000
63348817,1000,1000,1000,1000,122028669,1000,1000,1000,1000
63351316,1000,1000,1000,1000,122128629,1000,1000,1000,1000
63353815,1000,1000,1000,1000,122228589,1000,1000,1000,1000
63356314,1000,1000,1000,1000,122328549,1000,1000,1000,1000
63358813,1000,1000,1000,1000,122428509,1000,1000,1000,1000
63361312,1000,1000,1000,1000,122528469,1000,1000,1000,1000
63363811,1000,1000,1000,1000,122628429,1000,1000,1000,1000
63366310,1000,1000,1000,1000,122728389,1000,1000,1000,1000
63368809,1000,1000,1000,1000,122828349,1000,1000,1000,1000
63371308,1000,1000,1000,1000,122928309,1000,1000,1000,1000
63373807,1000,1000,1000,1000,123028269,1000,1000,1000,1000
63376306,1000,1000,1000,1000,123128229,1000,1000,1000,1000
63378805,1000,1000,1000,1000,123228189,1000,1000,1000,1000
63381304,1000,1000,1000,1000,123328982,1000,1000,1000,1000
63383803,1000,1000,1000,1000,123428942,1000,1000,1000,1000
63386302,1000,1000,1000,1000,123528902,1000,1000,1000,1000
63388801,1000,1000,1000,1000,123628862,1000,1000,1000,1000
63391300,1000,1000,1000,1000,123728822,1000,1000,1000,1000
63393799,1000,1000,1000,1000,123828782,1000,1000,1000,1000
63396298,1000,1000,1000,1000,123928742,1000,1000,1000,1000
63398797,1000,1000,1000,1000,124028702,1000,1000,1000,1000
63401296,1000,1000,1000,1000,124128662,1000,1000,1000,1000
63403795,1000,1000,1000,1000,124228622,1000,1000,1000,1000
63406294,1000,1000,1000,1000,124328582,1000,1000,1000,1000
63408793,1000,1000,1000,1000,124428542,1000,1000,1000,1000
63411292,1000,1000,1000,1000,124528502,1000,1000,1000,1000
63413791,1000,1000,1000,1000,124628462,1000,1000,1000,1000
63416290,1000,1000,1000,1000,124728422,1000,1000,1000,1000
63418789,1000,1000,1000,1000,124828382,1000,1000,1000,1000
63421288,1000,1000,1000,1000,124928342,1000,1000,1000,1000
63423787,1000,1000,1000,1000,125028302,1000,1000,1000,1000
63426286,1000,1000,1000,1000,125128262,1000,1000,1000,1000
63428785,1000,1000,1000,1000,125228222,1000,1000,1000,1000
63431284,1000,1000,1000,1000,125328182,1000,1000,1000,1000
63433783,1000,1000,1000,1000,125428975,1000,1000,1000,1000
63436282,1000,1000,1000,1000,125528935,1000,1000,1000,1000
63438781,1000,1000,1000,1000,125628895,1000,1000,1000,1000
63441280,1000,1000,1000,1000,125728855,1000,1000,1000,1000
63443779,1000,1000,1000,1000,125828815,1000,1000,1000,1000
63446278,1000,1000,1000,1000,125928775,1000,1000,1000,1000
63448777,1000,1000,1000,1000,126028735,1000,1000,1000,1000
63451276,1000,1000,1000,1000,126128695,1000,1000,1000,1000
63453775,1000,1000,1000,1000,126228655,1000,1000,1000,1000
63456274,1000,1000,1000,1000,126328615,1000,1000,1000,1000
63458773,1000,1000,1000,1000,126428575,1000,1000,1000,1000
63461272,1000,1000,1000,1000,126528535,1000,1000,1000,1000
63463771,1000,1000,1000,1000,126628495,1000,1000,1000,1000
63466270,1000,1000,1000,1000,126728455,1000,1000,1000,1000
63468769,1000,1000,1000,1000,126828415,1000,1000,1000,1000
63471268,1000,1000,1000,1000,126928375,1000,1000,1000,1000
63473767,1000,1000,1000,1000,127028335,1000,1000,1000,1000
63476266,1000,1000,1000,1000,127128295,1000,1000,1000,1000
63478765,1000,1000,1000,1000,127228255,1000,1000,1000,1000
63481264,1000,1000,1000,1000,127328215,1000,1000,1000,1000
63483763,1000,1000,1000,1000,127428175,1000,1000,1000,1000
63486262,1000,1000,1000,1000,127528968,1000,1000,1000,1000
63488761,1000,1000,1000,1000,127628928,1000,1000,1000,1000
63491260,1000,1000,1000,1000,127728888,1000,1000,1000,1000
63493759,1000,1000,1000,1000,127828848,1000,1000,1000,1000
63496258,1000,1000,1000,1000,127928808,1000,1000,1000,1000
63498757,1000,1000,1000,1000,128028768,1000,1000,1000,1000
63501256,1000,1000,1000,1000,128128728,1000,1000,1000,1000
63503755,1000,1000,1000,1000,128228688,1000,1000,1000,1000
63506254,1000,1000,1000,1000,128328648,1000,1000,1000,1000
63508753,1000,1000,1000,1000,128428608,1000,1000,1000,1000
63511252,1000,1000,1000,1000,128528568,1000,1000,1000,1000
63513751,1000,1000,1000,1000,128628528,1000,1000,1000,1000
63516250,1000,1000,1000,1000,128728488,1000,1000,1000,1000
63518749,1000,1000,1000,1000,128828448,1000,1000,1000,1000
63521248,1000,1000,1000,1000,128928408,1000,1000,1000,1000
63523747,1000,1000,1000,1000,129028368,1000,1000,1000,1000
63526246,1000,1000,1000,1000,129128328,1000,1000,1000,1000
63528745,1000,1000,1000,1000,129228288,1000,1000,1000,1000
63531244,1000,1000,1000,1000,129328248,1000,1000,1000,1000
63533743,1000,1000,1000,1000,129428208,1000,1000,1000,1000
63536242,1000,1000,1000,1000,129528168,1000,1000,1000,1000
63538741,1000,1000,1000,1000,129628961,1000,1000,1000,1000
63541240,1000,1000,1000,1000,129728921,1000,1000,1000,1000
63543739,1000,1000,1000,1000,129828881,1000,1000,1000,1000
63546238,1000,1000,1000,1000,,,,,
63548737,1000,1000,1000,1000,,,,,
63551236,1000,1000,1000,1000,,,,,
63553735,1000,1000,1000,1000,,,,,
63556234,1000,1000,1000,1000,,,,,
63558733,1000,1000,1000,1000,,,,,
63561232,1000,1000,1000,1000,,,,,
63563731,1000,1000,1000,1000,,,,,
63566230,1000,1000,1000,1000,,,,,
63568729,1000,1000,1000,1000,,,,,
63571228,1000,1000,1000,1000,,,,,
63573727,1000,1000,1000,1000,,,,,
63576226,1000,1000,1000,1000,,,,,
63578725,1000,1000,1000,1000,,,,,
63581224,1000,1000,1000,1000,,,,,
63583723,1000,1000,1000,1000,,,,,
63586222,1000,1000,1000,1000,,,,,
63588721,1000,1000,1000,1000,,,,,
63591220,1000,1000,1000,1000,,,,,
63593719,1000,1000,1000,1000,,,,,
63596218,1000,1000,1000,1000,,,,,
63598717,1000,1000,1000,1000,,,,,
63601216,1000,1000,1000,1000,,,,,
63603715,1000,1000,1000,1000,,,,,
63606214,1000,1000,1000,1000,,,,,
63608713,1000,1000,1000,1000,,,,,
63611212,1000,1000,1000,1000,,,,,
63613711,1000,1000,1000,1000,,,,,
63616210,1000,1000,1000,1000,,,,,
63618709,1000,1000,1000,1000,,,,,
63621208,1000,1000,1000,1000,,,,,
63623707,1000,1000,1000,1000,,,,,
63626206,1000,1000,1000,1000,,,,,
63628705,1000,1000,1000,1000,,,,,
63631204,1000,1000,1000,1000,,,,,
63633703,1000,1000,1000,1000,,,,,
63636202,1000,1000,1000,1000,,,,,
63638701,1000,1000,1000,1000,,,,,
63641200,1000,1000,1000,1000,,,,,
63643699,1000,1000,1000,1000,,,,,
63646198,1000,1000,1000,1000,,,,,
63648697,1000,1000,1000,1000,,,,,
63651196,1000,1000,1000,1000,,,,,
63653695,1000,1000,1000,1000,,,,,
63656194,1000,1000,1000,1000,,,,,
63658693,1000,1000,1000,1000,,,,,
63661192,1000,1000,1000,1000,,,,,
63663691,1000,1000,1000,1000,,,,,
63666190,1000,1000,1000,1000,,,,,
63668689,1000,1000,1000,1000,,,,,
63671188,1000,1000,1000,1000,,,,,
63673687,1000,1000,1000,1000,,,,,
63676186,1000,1000,1000,1000,,,,,
63678685,1000,1000,1000,1000,,,,,
63681184,1000,1000,1000,1000,,,,,
63683683,1000,1000,1000,1000,,,,,
63686182,1000,1000,1000,1000,,,,,
63688681,1000,1000,1000,1000,,,,,
63691180,1000,1000,1000,1000,,,,,
63693679,1000,1000,1000,1000,,,,,
63696178,1000,1000,1000,1000,,,,,
63698677,1000,1000,1000,1000,,,,,
63701176,1000,1000,1000,1000,,,,,
63703675,1000,1000,1000,1000,,,,,
63706174,1000,1000,1000,1000,,,,,
63708673,1000,1000,1000,1000,,,,,
63711172,1000,1000,1000,1000,,,,,
63713671,1000,1000,1000,1000,,,,,
63716170,1000,1000,1000,1000,,,,,
63718669,1000,1000,1000,1000,,,,,
63721168,1000,1000,1000,1000,,,,,
63723667,1000,1000,1000,1000,,,,,
63726166,1000,1000,1000,1000,,,,,
63728665,1000,1000,1000,1000,,,,,
63731164,1000,1000,1000,1000,,,,,
63733663,1000,1000,1000,1000,,,,,
63736162,1000,1000,1000,1000,,,,,
63738661,1000,1000,1000,1000,,,,,
63741160,1000,1000,1000,1000,,,,,
63743659,1000,1000,1000,1000,,,,,
63746158,1000,1000,1000,1000,,,,,
63748657,1000,1000,1000,1000,,,,,
63751156,1000,1000,1000,1000,,,,,
63753655,1000,1000,1000,1000,,,,,
63756154,1000,1000,1000,1000,,,,,
63758653,1000,1000,1000,1000,,,,,
63761152,1000,1000,1000,1000,,,,,
63763651,1000,1000,1000,1000,,,,,
63766150,1000,1000,1000,1000,,,,,
63768649,1000,1000,1000,1000,,,,,
63771148,1000,1000,1000,1000,,,,,
63773647,1000,1000,1000,1000,,,,,
63776146,1000,1000,1000,1000,,,,,
63778645,1000,1000,1000,1000,,,,,
63781144,1000,1000,1000,1000,,,,,
63783643,1000,1000,1000,1000,,,,,
63786142,1000,1000,1000,1000,,,,,
63788641,1000,1000,1000,1000,,,,,
63791140,1000,1000,1000,1000,,,,,
63793639,1000,1000,1000,1000,,,,,
63796138,1000,1000,1000,1000,,,,,
63798637,1000,1000,1000,1000,,,,,
63801136,1000,1000,1000,1000,,,,,
63803635,1000,1000,1000,1000,,,,,
63806134,1000,1000,1000,1000,,,,,
63808633,1000,1000,1000,1000,,,,,
63811132,1000,1000,1000,1000,,,,,
63813631,1000,1000,1000,1000,,,,,
63816130,1000,1000,1000,1000,,,,,
63818629,1000,1000,1000,1000,,,,,
63821128,1000,1000,1000,1000,,,,,
63823627,1000,1000,1000,1000,,,,,
63826126,1000,1000,1000,1000,,,,,
63828625,1000,1000,1000,1000,,,,,
63831124,1000,1000,1000,1000,,,,,
63833623,1000,1000,1000,1000,,,,,
63836122,1000,1000,1000,1000,,,,,
63838621,1000,1000,1000,1000,,,,,
63841120,1000,1000,1000,1000,,,,,
63843619,1000,1000,1000,1000,,,,,
63846118,1000,1000,1000,1000,,,,,
63848617,1000,1000,1000,1000,,,,,
63851116,1000,1000,1000,1000,,,,,
63853615,1001,1001,1001,1001,,,,,
63856114,1002,1002,1002,1002,,,,,
63858613,1003,1003,1003,1003,,,,,
63861112,1003,1003,1003,1003,,,,,
63863611,1004,1004,1004,1004,,,,,
63866110,1005,1005,1005,1005,,,,,
63868609,1006,1006,1006,1006,,,,,
63871108,1006,1006,1006,1006,,,,,
63873607,1007,1007,1007,1007,,,,,
63876106,1008,1008,1008,1008,,,,,
63878605,1009,1009,1009,1009,,,,,
63881104,1009,1009,1009,1009,,,,,
63883603,1010,1010,1010,1010,,,,,
63886102,1011,1011,1011,1011,,,,,
63888601,1012,1012,1012,1012,,,,,
63891100,1012,1012,1012,1012,,,,,
63893599,1013,1013,1013,1013,,,,,
63896098,1014,1014,1014,1014,,,,,
63898597,1015,1015,1015,1015,,,,,
63901096,1015,1015,1015,1015,,,,,
63903595,1016,1016,1016,1016,,,,,
63906094,1017,1017,1017,1017,,,,,
63908593,1018,1018,1018,1018,,,,,
63911092,1018,1018,1018,1018,,,,,
63913591,1019,1019,1019,1019,,,,,
63916090,1020,1020,1020,1020,,,,,
63918589,1021,1021,1021,1021,,,,,
63921088,1021,1021,1021,1021,,,,,
63923587,1022,1022,1022,1022,,,,,
63926086,1023,1023,1023,1023,,,,,
63928585,1024,1024,1024,1024,,,,,
63931084,1024,1024,1024,1024,,,,,
63933583,1025,1025,1025,1025,,,,,
63936082,1026,1026,1026,1026,,,,,
63938581,1027,1027,1027,1027,,,,,
63941080,1027,1027,1027,1027,,,,,
63943579,1028,1028,1028,1028,,,,,
63946078,1029,1029,1029,1029,,,,,
63948577,1030,1030,1030,1030,,,,,
63951076,1030,1030,1030,1030,,,,,
63953575,1031,1031,1031,1031,,,,,
63956074,1032,1032,1032,1032,,,,,
63958573,1033,1033,1033,1033,,,,,
63961072,1033,1033,1033,1033,,,,,
63963571,1034,1034,1034,1034,,,,,
63966070,1035,1035,1035,1035,,,,,
63968569,1036,1036,1036,1036,,,,,
63971068,1036,1036,1036,1036,,,,,
63973567,1037,1037,1037,1037,,,,,
63976066,1038,1038,1038,1038,,,,,
63978565,1039,1039,1039,1039,,,,,
63981064,1039,1039,1039,1039,,,,,
63983563,1040,1040,1040,1040,,,,,
63986062,1041,1041,1041,1041,,,,,
63988561,1042,1042,1042,1042,,,,,
63991060,1042,1042,1042,1042,,,,,
63993559,1043,1043,1043,1043,,,,,
63996058,1044,1044,1044,1044,,,,,
63998557,1045,1045,1045,1045,,,,,
64001056,1045,1045,1045,1045,,,,,
64003555,1046,1046,1046,1046,,,,,
64006054,1047,1047,1047,1047,,,,,
64008553,1048,1048,1048,1048,,,,,
64011052,1048,1048,1048,1048,,,,,
64013551,1049,1049,1049,1049,,,,,
64016050,1050,1050,1050,1050,,,,,
64018549,1051,1051,1051,1051,,,,,
64021048,1051,1051,1051,1051,,,,,
64023547,1052,1052,1052,1052,,,,,
64026046,1053,1053,1053,1053,,,,,
64028545,1054,1054,1054,1054,,,,,
64031044,1054,1054,1054,1054,,,,,
64033543,1055,1055,1055,1055,,,,,
64036042,1056,1056,1056,1056,,,,,
64038541,1057,1057,1057,1057,,,,,
64041040,1057,1057,1057,1057,,,,,
64043539,1058,1058,1058,1058,,,,,
64046038,1059,1059,1059,1059,,,,,
64048537,1060,1060,1060,1060,,,,,
64051036,1060,1060,1060,1060,,,,,
64053535,1061,1061,1061,1061,,,,,
64056034,1062,1062,1062,1062,,,,,
64058533,1063,1063,1063,1063,,,,,
64061032,1063,1063,1063,1063,,,,,
64063531,1064,1064,1064,1064,,,,,
64066030,1065,1065,1065,1065,,,,,
64068529,1066,1066,1066,1066,,,,,
64071028,1066,1066,1066,1066,,,,,
64073527,1067,1067,1067,1067,,,,,
64076026,1068,1068,1068,1068,,,,,
64078525,1069,1069,1069,1069,,,,,
64081024,1069,1069,1069,1069,,,,,
64083523,1070,1070,1070,1070,,,,,
64086022,1071,1071,1071,1071,,,,,
64088521,1072,1072,1072,1072,,,,,
64091020,1072,1072,1072,1072,,,,,
64093519,1073,1073,1073,1073,,,,,
64096018,1074,1074,1074,1074,,,,,
64098517,1075,1075,1075,1075,,,,,
64101016,1075,1075,1075,1075,,,,,
64103515,1076,1076,1076,1076,,,,,
64106014,1077,1077,1077,1077,,,,,
64108513,1078,1078,1078,1078,,,,,
64111012,1078,1078,1078,1078,,,,,
64113511,1079,1079,1079,1079,,,,,
64116010,1080,1080,1080,1080,,,,,
64118509,1081,1081,1081,1081,,,,,
64121008,1081,1081,1081,1081,,,,,
64123507,1082,1082,1082,1082,,,,,
64126006,1083,1083,1083,1083,,,,,
64128505,1084,1084,1084,1084,,,,,
64131004,1084,1084,1084,1084,,,,,
64133503,1085,1085,1085,1085,,,,,
64136002,1086,1086,1086,1086,,,,,
64138501,1087,1087,1087,1087,,,,,
64141000,1087,1087,1087,1087,,,,,
64143499,1088,1088,1088,1088,,,,,
64145998,1089,1089,1089,1089,,,,,
64148497,1090,1090,1090,1090,,,,,
64150996,1090,1090,1090,1090,,,,,
64153495,1091,1091,1091,1091,,,,,
64155994,1092,1092,1092,1092,,,,,
64158493,1093,1093,1093,1093,,,,,
64160992,1093,1093,1093,1093,,,,,
64163491,1094,1094,1094,1094,,,,,
64165990,1095,1095,1095,1095,,,,,
64168489,1096,1096,1096,1096,,,,,
64170988,1096,1096,1096,1096,,,,,
64173487,1097,1097,1097,1097,,,,,
64175986,1098,1098,1098,1098,,,,,
64178485,1099,1099,1099,1099,,,,,
64180984,1099,1099,1099,1099,,,,,
64183483,1100,1100,1100,1100,,,,,
64185982,1101,1101,1101,1101,,,,,
64188481,1101,1101,1101,1101,,,,,
64190980,1102,1102,1102,1102,,,,,
64193479,1103,1103,1103,1103,,,,,
64195978,1104,1104,1104,1104,,,,,
64198477,1104,1104,1104,1104,,,,,
64200976,1105,1105,1105,1105,,,,,
64203475,1106,1106,1106,1106,,,,,
64205974,1107,1107,1107,1107,,,,,
64208473,1107,1107,1107,1107,,,,,
64210972,1108,1108,1108,1108,,,,,
64213471,1109,1109,1109,1109,,,,,
64215970,1110,1110,1110,1110,,,,,
64218469,1110,1110,1110,1110,,,,,
64220968,1111,1111,1111,1111,,,,,
64223467,1112,1112,1112,1112,,,,,
64225966,1113,1113,1113,1113,,,,,
64228465,1113,1113,1113,1113,,,,,
64230964,1114,1114,1114,1114,,,,,
64233463,1115,1115,1115,1115,,,,,
64235962,1116,1116,1116,1116,,,,,
64238461,1116,1116,1116,1116,,,,,
64240960,1117,1117,1117,1117,,,,,
64243459,1118,1118,1118,1118,,,,,
64245958,1119,1119,1119,1119,,,,,
64248457,1119,1119,1119,1119,,,,,
64250956,1120,1120,1120,1120,,,,,
64253455,1121,1121,1121,1121,,,,,
64255954,1122,1122,1122,1122,,,,,
64258453,1122,1122,1122,1122,,,,,
64260952,1123,1123,1123,1123,,,,,
64263451,1124,1124,1124,1124,,,,,
64265950,1125,1125,1125,1125,,,,,
64268449,1125,1125,1125,1125,,,,,
64270948,1126,1126,1126,1126,,,,,
64273447,1127,1127,1127,1127,,,,,
64275946,1128,1128,1128,1128,,,,,
64278445,1128,1128,1128,1128,,,,,
64280944,1129,1129,1129,1129,,,,,
64283443,1130,1130,1130,1130,,,,,
64285942,1131,1131,1131,1131,,,,,
64288441,1131,1131,1131,1131,,,,,
64290940,1132,1132,1132,1132,,,,,
64293439,1133,1133,1133,1133,,,,,
64295938,1134,1134,1134,1134,,,,,
64298437,1134,1134,1134,1134,,,,,
64300936,1135,1135,1135,1135,,,,,
64303435,1136,1136,1136,1136,,,,,
64305934,1137,1137,1137,1137,,,,,
64308433,1137,1137,1137,1137,,,,,
64310932,1138,1138,1138,1138,,,,,
64313431,1139,1139,1139,1139,,,,,
64315930,1140,1140,1140,1140,,,,,
64318429,1140,1140,1140,1140,,,,,
64320928,1141,1141,1141,1141,,,,,
64323427,1142,1142,1142,1142,,,,,
64325926,1143,1143,1143,1143,,,,,
64328425,1143,1143,1143,1143,,,,,
64330924,1144,1144,1144,1144,,,,,
64333423,1145,1145,1145,1145,,,,,
64335922,1146,1146,1146,1146,,,,,
64338421,1146,1146,1146,1146,,,,,
64340920,1147,1147,1147,1147,,,,,
64343419,1148,1148,1148,1148,,,,,
64345918,1149,1149,1149,1149,,,,,
64348417,1149,1149,1149,1149,,,,,
64350916,1150,1150,1150,1150,,,,,
64353415,1162,1152,1153,1163,,,,,
64355914,1170,1160,1161,1171,,,,,
64358413,1178,1168,1169,1179,,,,,
64360912,1186,1176,1177,1186,,,,,
64363411,1193,1184,1185,1194,,,,,
64365910,1201,1191,1192,1201,,,,,
64368409,1208,1199,1200,1209,,,,,
64370908,1215,1206,1207,1216,,,,,
64373407,1222,1213,1214,1223,,,,,
64375906,1229,1220,1221,1230,,,,,
64378405,1236,1227,1228,1237,,,,,
64380904,1243,1234,1235,1244,,,,,
64383403,1250,1241,1242,1250,,,,,
64385902,1256,1248,1249,1257,,,,,
64388401,1263,1254,1255,1263,,,,,
64390900,1269,1261,1262,1270,,,,,
64393399,1276,1267,1268,1276,,,,,
64395898,1282,1274,1275,1282,,,,,
64398397,1288,1280,1281,1289,,,,,
64400896,1294,1286,1287,1295,,,,,
64403395,1300,1292,1293,1301,,,,,
64405894,1306,1299,1299,1307,,,,,
64408393,1312,1305,1305,1313,,,,,
64410892,1318,1310,1311,1319,,,,,
64413391,1324,1316,1317,1324,,,,,
64415890,1330,1322,1323,1330,,,,,
64418389,1335,1328,1329,1336,,,,,
64420888,1341,1334,1334,1342,,,,,
64423387,1347,1339,1340,1347,,,,,
64425886,1352,1345,1345,1353,,,,,
64428385,1358,1350,1351,1358,,,,,
64430884,1363,1356,1356,1364,,,,,
64433383,1369,1361,1362,1369,,,,,
64435882,1374,1367,1367,1374,,,,,
64438381,1379,1372,1373,1380,,,,,
64440880,1384,1377,1378,1385,,,,,
64443379,1390,1383,1383,1390,,,,,
64445878,1395,1388,1388,1395,,,,,
64448377,1400,1393,1394,1400,,,,,
64450876,1405,1398,1399,1405,,,,,
64453375,1410,1403,1404,1411,,,,,
64455874,1415,1408,1409,1416,,,,,
64458373,1420,1413,1414,1421,,,,,
64460872,1425,1418,1419,1425,,,,,
64463371,1430,1423,1424,1430,,,,,
64465870,1435,1428,1429,1435,,,,,
64468369,1440,1433,1433,1440,,,,,
64470868,1444,1438,1438,1445,,,,,
64473367,1449,1443,1443,1450,,,,,
64475866,1454,1447,1448,1454,,,,,
64478365,1459,1452,1453,1459,,,,,
64480864,1463,1457,1457,1464,,,,,
64483363,1468,1461,1462,1468,,,,,
64485862,1473,1466,1467,1473,,,,,
64488361,1477,1471,1471,1478,,,,,
64490860,1482,1475,1476,1482,,,,,
64493359,1486,1480,1480,1487,,,,,
64495858,1491,1484,1485,1491,,,,,
64498357,1495,1489,1489,1496,,,,,
64500856,1500,1493,1494,1500,,,,,
64503355,1504,1498,1498,1505,,,,,
64505854,1509,1502,1503,1509,,,,,
64508353,1513,1506,1507,1513,,,,,
64510852,1517,1511,1511,1518,,,,,
64513351,1522,1515,1516,1522,,,,,
64515850,1526,1519,1520,1526,,,,,
64518349,1530,1524,1524,1530,,,,,
64520848,1534,1528,1529,1535,,,,,
64523347,1539,1532,1533,1539,,,,,
64525846,1543,1536,1537,1543,,,,,
64528345,1547,1541,1541,1547,,,,,
64530844,1551,1545,1545,1551,,,,,
64533343,1555,1549,1550,1556,,,,,
64535842,1559,1553,1554,1560,,,,,
64538341,1564,1557,1558,1564,,,,,
64540840,1568,1561,1562,1568,,,,,
64543339,1572,1565,1566,1572,,,,,
64545838,1576,1570,1570,1576,,,,,
64548337,1580,1574,1574,1580,,,,,
64550836,1584,1578,1578,1584,,,,,
64553335,1588,1582,1582,1588,,,,,
64555834,1592,1586,1586,1592,,,,,
64558333,1596,1590,1590,1596,,,,,
64560832,1599,1593,1594,1600,,,,,
64563331,1603,1597,1598,1604,,,,,
64565830,1607,1601,1602,1608,,,,,
64568329,1611,1605,1606,1611,,,,,
64570828,1615,1609,1609,1615,,,,,
64573327,1619,1613,1613,1619,,,,,
64575826,1623,1617,1617,1623,,,,,
64578325,1626,1621,1621,1627,,,,,
64580824,1630,1624,1625,1630,,,,,
64583323,1634,1628,1629,1634,,,,,
64585822,1638,1632,1632,1638,,,,,
64588321,1641,1636,1636,1642,,,,,
64590820,1645,1639,1640,1645,,,,,
64593319,1649,1643,1643,1649,,,,,
64595818,1652,1647,1647,1653,,,,,
64598317,1656,1650,1651,1657,,,,,
64600816,1660,1654,1655,1660,,,,,
64603315,1663,1658,1658,1664,,,,,
64605814,1667,1661,1662,1667,,,,,
64608313,1671,1665,1665,1671,,,,,
64610812,1674,1669,1669,1675,,,,,
64613311,1678,1672,1673,1678,,,,,
64615810,1682,1676,1676,1682,,,,,
64618309,1685,1679,1680,1685,,,,,
64620808,1689,1683,1683,1689,,,,,
64623307,1692,1686,1687,1693,,,,,
64625806,1696,1690,1690,1696,,,,,
64628305,1699,1694,1694,1700,,,,,
64630804,1703,1697,1697,1703,,,,,
64633303,1706,1701,1701,1707,,,,,
64635802,1710,1704,1704,1710,,,,,
64638301,1713,1707,1708,1713,,,,,
64640800,1717,1711,1711,1717,,,,,
64643299,1720,1714,1715,1720,,,,,
64645798,1723,1718,1718,1724,,,,,
64648297,1727,1721,1722,1727,,,,,
64650796,1730,1725,1725,1731,,,,,
64653295,1734,1728,1728,1734,,,,,
64655794,1737,1731,1732,1737,,,,,
64658293,1740,1735,1735,1741,,,,,
64660792,1744,1738,1738,1744,,,,,
64663291,1747,1741,1742,1747,,,,,
64665790,1750,1745,1745,1751,,,,,
64668289,1754,1748,1748,1754,,,,,
64670788,1757,1751,1752,1757,,,,,
64673287,1760,1755,1755,1761,,,,,
64675786,1764,1758,1758,1764,,,,,
64678285,1767,1761,1762,1767,,,,,
64680784,1770,1764,1765,1771,,,,,
64683283,1773,1768,1768,1774,,,,,
64685782,1777,1771,1771,1777,,,,,
64688281,1780,1774,1775,1780,,,,,
64690780,1783,1777,1778,1783,,,,,
64693279,1786,1781,1781,1787,,,,,
64695778,1790,1784,1784,1790,,,,,
64698277,1793,1787,1787,1793,,,,,
64700776,1796,1790,1791,1796,,,,,
64703275,1799,1793,1794,1799,,,,,
64705774,1802,1796,1797,1803,,,,,
64708273,1806,1800,1800,1806,,,,,
64710772,1809,1803,1803,1809,,,,,
64713271,1812,1806,1806,1812,,,,,
64715770,1815,1809,1809,1815,,,,,
64718269,1818,1812,1813,1818,,,,,
64720768,1821,1815,1816,1821,,,,,
64723267,1824,1818,1819,1825,,,,,
64725766,1827,1821,1822,1828,,,,,
64728265,1830,1825,1825,1831,,,,,
64730764,1834,1828,1828,1834,,,,,
64733263,1837,1831,1831,1837,,,,,
64735762,1840,1834,1834,1840,,,,,
64738261,1843,1837,1837,1843,,,,,
64740760,1846,1840,1840,1846,,,,,
64743259,1849,1843,1843,1849,,,,,
64745758,1852,1846,1846,1852,,,,,
64748257,1855,1849,1849,1855,,,,,
64750756,1858,1852,1852,1858,,,,,
64753255,1861,1855,1855,1861,,,,,
64755754,1864,1858,1858,1864,,,,,
64758253,1867,1861,1861,1867,,,,,
64760752,1870,1864,1864,1870,,,,,
64763251,1873,1867,1867,1873,,,,,
64765750,1876,1870,1870,1876,,,,,
64768249,1878,1873,1873,1879,,,,,
64770748,1881,1876,1876,1882,,,,,
64773247,1884,1879,1879,1885,,,,,
64775746,1887,1882,1882,1888,,,,,
64778245,1890,1885,1885,1890,,,,,
64780744,1893,1888,1888,1893,,,,,
64783243,1896,1891,1891,1896,,,,,
64785742,1899,1894,1894,1899,,,,,
64788241,1902,1896,1897,1902,,,,,
64790740,1904,1899,1899,1905,,,,,
64793239,1907,1902,1902,1908,,,,,
64795738,1910,1905,1905,1911,,,,,
64798237,1913,1908,1908,1914,,,,,
64800736,1916,1911,1911,1916,,,,,
64803235,1919,1914,1914,1919,,,,,
64805734,1922,1917,1917,1922,,,,,
64808233,1924,1919,1919,1925,,,,,
64810732,1923,1918,1918,1924,,,,,
64813231,1923,1917,1918,1923,,,,,
64815730,1922,1917,1917,1922,,,,,
64818229,1921,1916,1916,1922,,,,,
64820728,1921,1915,1916,1921,,,,,
64823227,1920,1915,1915,1921,,,,,
64825726,1920,1914,1914,1920,,,,,
64828225,1919,1914,1914,1920,,,,,
64830724,1919,1913,1913,1919,,,,,
64833223,1918,1913,1913,1919,,,,,
64835722,1918,1912,1913,1918,,,,,
64838221,1917,1912,1912,1918,,,,,
64840720,1917,1912,1912,1918,,,,,
64843219,1917,1912,1912,1917,,,,,
64845718,1917,1911,1912,1917,,,,,
64848217,1916,1911,1912,1917,,,,,
64850716,1916,1911,1911,1916,,,,,
64853215,1916,1911,1911,1916,,,,,
64855714,1915,1910,1911,1915,,,,,
64858213,1915,1910,1910,1915,,,,,
64860712,1914,1910,1910,1914,,,,,
64863211,1913,1909,1909,1913,,,,,
64865710,1912,1908,1909,1912,,,,,
64868209,1911,1907,1908,1911,,,,,
64870708,1910,1906,1907,1910,,,,,
64873207,1909,1905,1905,1909,,,,,
64875706,1907,1903,1904,1908,,,,,
64878205,1906,1902,1902,1906,,,,,
64880704,1904,1900,1901,1904,,,,,
64883203,1902,1898,1899,1902,,,,,
64885702,1900,1897,1897,1901,,,,,
64888201,1898,1894,1895,1899,,,,,
64890700,1896,1892,1893,1896,,,,,
64893199,1894,1890,1891,1894,,,,,
64895698,1892,1888,1888,1892,,,,,
64898197,1889,1885,1886,1889,,,,,
64900696,1887,1883,1884,1887,,,,,
64903195,1884,1880,1881,1884,,,,,
64905694,1881,1878,1878,1882,,,,,
64908193,1879,1875,1875,1879,,,,,
64910692,1876,1872,1873,1876,,,,,
64913191,1873,1869,1870,1873,,,,,
64915690,1870,1866,1867,1870,,,,,
64918189,1867,1863,1864,1867,,,,,
64920688,1863,1860,1861,1864,,,,,
64923187,1860,1857,1858,1860,,,,,
64925686,1857,1854,1854,1857,,,,,
64928185,1854,1851,1851,1854,,,,,
64930684,1850,1848,1848,1851,,,,,
64933183,1847,1844,1845,1847,,,,,
64935682,1844,1841,1842,1844,,,,,
64938181,1840,1838,1838,1841,,,,,
64940680,1837,1835,1835,1837,,,,,
64943179,1833,1831,1832,1834,,,,,
64945678,1830,1828,1828,1830,,,,,
64948177,1827,1825,1825,1827,,,,,
64950676,1823,1821,1822,1824,,,,,
64953175,1820,1818,1818,1820,,,,,
64955674,1816,1815,1815,1817,,,,,
64958173,1813,1811,1812,1813,,,,,
64960672,1810,1808,1808,1810,,,,,
64963171,1806,1805,1805,1807,,,,,
64965670,1803,1801,1802,1803,,,,,
64968169,1799,1798,1798,1800,,,,,
64970668,1796,1795,1795,1796,,,,,
64973167,1792,1791,1792,1793,,,,,
64975666,1789,1788,1788,1789,,,,,
64978165,1785,1785,1785,1786,,,,,
64980664,1782,1782,1782,1783,,,,,
64983163,1779,1778,1778,1779,,,,,
64985662,1775,1775,1775,1776,,,,,
64988161,1772,1772,1772,1773,,,,,
64990660,1769,1769,1769,1769,,,,,
64993159,1766,1765,1765,1766,,,,,
64995658,1762,1762,1762,1763,,,,,
64998157,1759,1759,1759,1760,,,,,
65000656,1756,1756,1756,1757,,,,,
65003155,1753,1753,1753,1754,,,,,
65005654,1750,1750,1750,1750,,,,,
65008986,1747,1747,1747,1747,,,,,
65011485,1744,1744,1744,1744,,,,,
65013984,1741,1741,1741,1741,,,,,
65016483,1738,1738,1738,1738,,,,,
65018982,1735,1735,1736,1736,,,,,
65021481,1732,1733,1733,1733,,,,,
65023980,1730,1730,1730,1730,,,,,
65026479,1727,1727,1727,1727,,,,,
65028978,1724,1725,1725,1724,,,,,
