TimeUS,M1,M2,M3,M4,TimeUS,C1,C2,C3,C4
45485965,1000,1000,1000,1000,45528448,1000,1000,1000,1000
45488464,1000,1000,1000,1000,45628408,1000,1000,1000,1000
45490963,1000,1000,1000,1000,45728368,1000,1000,1000,1000
45493462,1000,1000,1000,1000,45828328,1000,1000,1000,1000
45495961,1000,1000,1000,1000,45928288,1000,1000,1000,1000
45498460,1000,1000,1000,1000,46028248,1000,1000,1000,1000
45500959,1000,1000,1000,1000,46128208,1000,1000,1000,1000
45503458,1000,1000,1000,1000,46228168,1000,1000,1000,1000
45505957,1000,1000,1000,1000,46328961,1000,1000,1000,1000
45508456,1000,1000,1000,1000,46428921,1000,1000,1000,1000
45510955,1000,1000,1000,1000,46528881,1000,1000,1000,1000
45513454,1000,1000,1000,1000,46628841,1000,1000,1000,1000
45515953,1000,1000,1000,1000,46728801,1000,1000,1000,1000
45518452,1000,1000,1000,1000,46828761,1000,1000,1000,1000
45520951,1000,1000,1000,1000,46928721,1000,1000,1000,1000
45523450,1000,1000,1000,1000,47028681,1000,1000,1000,1000
45525949,1000,1000,1000,1000,47128641,1000,1000,1000,1000
45528448,1000,1000,1000,1000,47228601,1000,1000,1000,1000
45530947,1000,1000,1000,1000,47328561,1000,1000,1000,1000
45533446,1000,1000,1000,1000,47428521,1000,1000,1000,1000
45535945,1000,1000,1000,1000,47528481,1012,1012,1012,1012
45538444,1000,1000,1000,1000,47628441,1042,1042,1042,1042
45540943,1000,1000,1000,1000,47728401,1072,1072,1072,1072
45543442,1000,1000,1000,1000,47828361,1102,1102,1102,1102
45545941,1000,1000,1000,1000,47928321,1132,1132,1132,1132
45548440,1000,1000,1000,1000,48028281,1268,1263,1263,1268
45550939,1000,1000,1000,1000,48128241,1481,1476,1477,1481
45553438,1000,1000,1000,1000,48228201,1644,1640,1640,1645
45555937,1000,1000,1000,1000,48328161,1782,1779,1779,1782
45558436,1000,1000,1000,1000,48428954,1901,1898,1897,1902
45560935,1000,1000,1000,1000,48528914,1879,1877,1877,1880
45563434,1000,1000,1000,1000,48628874,1754,1753,1753,1754
45565933,1000,1000,1000,1000,48728834,1653,1654,1654,1653
45568432,1000,1000,1000,1000,48828794,1623,1624,1625,1622
45570931,1000,1000,1000,1000,48928754,1627,1629,1629,1627
45573430,1000,1000,1000,1000,49028714,1639,1633,1632,1641
45575929,1000,1000,1000,1000,49128674,1627,1628,1621,1634
45578428,1000,1000,1000,1000,49228634,1618,1619,1613,1624
45580927,1000,1000,1000,1000,49328594,1613,1613,1611,1615
45583426,1000,1000,1000,1000,49428554,1612,1612,1613,1611
45585925,1000,1000,1000,1000,49528514,1613,1612,1616,1609
45588424,1000,1000,1000,1000,49628474,1615,1615,1620,1611
45590923,1000,1000,1000,1000,49728434,1618,1618,1622,1614
45593422,1000,1000,1000,1000,49828394,1597,1597,1604,1590
45595921,1000,1000,1000,1000,49928354,1578,1578,1588,1569
45598420,1000,1000,1000,1000,50028314,1566,1566,1569,1563
45600919,1000,1000,1000,1000,50128274,1555,1555,1553,1558
45603418,1000,1000,1000,1000,50228234,1547,1547,1538,1557
45605917,1000,1000,1000,1000,50328194,1540,1539,1529,1550
45608416,1000,1000,1000,1000,50428154,1534,1533,1526,1540
45610915,1000,1000,1000,1000,50528947,1528,1527,1525,1530
45613414,1000,1000,1000,1000,50628907,1526,1526,1526,1525
45615913,1000,1000,1000,1000,50728867,1527,1527,1529,1525
45618412,1000,1000,1000,1000,50828827,1529,1529,1532,1526
45620911,1000,1000,1000,1000,50928787,1533,1533,1536,1530
45623410,1000,1000,1000,1000,51028747,1537,1537,1540,1534
45625909,1000,1000,1000,1000,51128707,1540,1541,1542,1539
45628408,1000,1000,1000,1000,51228667,1544,1544,1545,1544
45630907,1000,1000,1000,1000,51328627,1547,1547,1547,1548
45633406,1000,1000,1000,1000,51428587,1549,1549,1548,1551
45635905,1000,1000,1000,1000,51528547,1553,1552,1551,1554
45638404,1000,1000,1000,1000,51628507,1553,1553,1556,1559
45640903,1000,1000,1000,1000,51728467,1554,1554,1561,1562
45643402,1000,1000,1000,1000,51828427,1556,1556,1563,1563
45645901,1000,1000,1000,1000,51928387,1559,1559,1564,1564
45648400,1000,1000,1000,1000,52028347,1562,1562,1565,1565
45650899,1000,1000,1000,1000,52128307,1565,1565,1566,1565
45653398,1000,1000,1000,1000,52228267,1567,1568,1566,1566
45655897,1000,1000,1000,1000,52328227,1569,1569,1566,1566
45658396,1000,1000,1000,1000,52428187,1570,1569,1565,1566
45660895,1000,1000,1000,1000,52528980,1570,1571,1566,1567
45663394,1000,1000,1000,1000,52628940,1571,1572,1567,1567
45665893,1000,1000,1000,1000,52728900,1573,1572,1569,1569
45668392,1000,1000,1000,1000,52828860,1574,1574,1571,1571
45670891,1000,1000,1000,1000,52928820,1574,1573,1572,1571
45673390,1000,1000,1000,1000,53028780,1575,1574,1574,1573
45675889,1000,1000,1000,1000,53128740,1575,1575,1575,1574
45678388,1000,1000,1000,1000,53228700,1575,1576,1577,1575
45680887,1000,1000,1000,1000,53328660,1575,1575,1577,1576
45683386,1000,1000,1000,1000,53428620,1574,1574,1576,1576
45685885,1000,1000,1000,1000,53528580,1575,1576,1577,1577
45688384,1000,1000,1000,1000,53628540,1575,1575,1576,1577
45690883,1000,1000,1000,1000,53728500,1575,1576,1576,1577
45693382,1000,1000,1000,1000,53828460,1576,1576,1577,1577
45695881,1000,1000,1000,1000,53928420,1576,1576,1576,1576
45698380,1000,1000,1000,1000,54028380,1577,1577,1578,1577
45700879,1000,1000,1000,1000,54128340,1577,1577,1577,1577
45703378,1000,1000,1000,1000,54228300,1578,1578,1577,1577
45705877,1000,1000,1000,1000,54328260,1578,1578,1577,1577
45708376,1000,1000,1000,1000,54428220,1577,1578,1577,1577
45710875,1000,1000,1000,1000,54528180,1577,1578,1576,1577
45713374,1000,1000,1000,1000,54628973,1577,1577,1576,1576
45715873,1000,1000,1000,1000,54728933,1577,1577,1577,1577
45718372,1000,1000,1000,1000,54828893,1578,1578,1578,1578
45720871,1000,1000,1000,1000,54928853,1577,1577,1577,1577
45723370,1000,1000,1000,1000,55028813,1579,1579,1579,1579
45725869,1000,1000,1000,1000,55128773,1578,1578,1578,1578
45728368,1000,1000,1000,1000,55228733,1578,1578,1579,1578
45730867,1000,1000,1000,1000,55328693,1578,1578,1579,1578
45733366,1000,1000,1000,1000,55428653,1578,1577,1578,1578
45735865,1000,1000,1000,1000,55528613,1578,1578,1578,1579
45738364,1000,1000,1000,1000,55628573,1578,1578,1578,1578
45740863,1000,1000,1000,1000,55728533,1579,1579,1579,1579
45743362,1000,1000,1000,1000,55828493,1580,1580,1580,1580
45745861,1000,1000,1000,1000,55928453,1579,1579,1579,1579
45748360,1000,1000,1000,1000,56028413,1581,1581,1581,1581
45750859,1000,1000,1000,1000,56128373,1580,1580,1580,1580
45753358,1000,1000,1000,1000,56228333,1581,1581,1581,1581
45755857,1000,1000,1000,1000,56328293,1580,1581,1580,1580
45758356,1000,1000,1000,1000,56428253,1580,1581,1580,1580
45760855,1000,1000,1000,1000,56528213,1580,1579,1579,1579
45763354,1000,1000,1000,1000,56628173,1581,1581,1580,1581
45765853,1000,1000,1000,1000,56728966,1580,1580,1580,1580
45768352,1000,1000,1000,1000,56828926,1581,1581,1581,1581
45770851,1000,1000,1000,1000,56928886,1581,1580,1580,1580
45773350,1000,1000,1000,1000,57028846,1580,1580,1580,1580
45775849,1000,1000,1000,1000,57128806,1581,1581,1581,1581
45778348,1000,1000,1000,1000,57228766,1581,1581,1581,1581
45780847,1000,1000,1000,1000,57328726,1581,1581,1581,1581
45783346,1000,1000,1000,1000,57428686,1580,1580,1581,1581
45785845,1000,1000,1000,1000,57528646,1580,1580,1580,1581
45788344,1000,1000,1000,1000,57628606,1581,1581,1581,1581
45790843,1000,1000,1000,1000,57728566,1581,1580,1581,1581
45793342,1000,1000,1000,1000,57828526,1581,1581,1586,1576
45795841,1000,1000,1000,1000,57928486,1580,1582,1587,1573
45798340,1000,1000,1000,1000,58028446,1579,1582,1580,1573
45800839,1000,1000,1000,1000,58128406,1577,1580,1570,1572
45803338,1000,1000,1000,1000,58228366,1576,1579,1562,1569
45805837,1000,1000,1000,1000,58328326,1576,1578,1557,1564
45808336,1000,1000,1000,1000,58428286,1578,1577,1555,1560
45810835,1000,1000,1000,1000,58528246,1579,1576,1555,1556
45813334,1000,1000,1000,1000,58628206,1579,1577,1556,1554
45815833,1000,1000,1000,1000,58728166,1578,1577,1556,1553
45818332,1000,1000,1000,1000,58828959,1577,1577,1556,1553
45820831,1000,1000,1000,1000,58928919,1575,1577,1555,1554
45823330,1000,1000,1000,1000,59028879,1574,1576,1554,1554
45825829,1000,1000,1000,1000,59128839,1574,1576,1554,1554
45828328,1000,1000,1000,1000,59228799,1575,1577,1553,1553
45830827,1000,1000,1000,1000,59328759,1576,1576,1551,1551
45833326,1000,1000,1000,1000,59428719,1577,1578,1549,1548
45835825,1000,1000,1000,1000,59528679,1580,1581,1547,1547
45838324,1000,1000,1000,1000,59628639,1583,1584,1545,1544
45840823,1000,1000,1000,1000,59728599,1586,1587,1542,1542
45843322,1000,1000,1000,1000,59828559,1590,1590,1539,1539
45845821,1000,1000,1000,1000,59928519,1592,1592,1536,1537
45848320,1000,1000,1000,1000,60028479,1595,1596,1535,1536
45850819,1000,1000,1000,1000,60128439,1595,1595,1534,1535
45853318,1000,1000,1000,1000,60228399,1595,1595,1535,1536
45855817,1000,1000,1000,1000,60328359,1593,1593,1537,1540
45858316,1000,1000,1000,1000,60428319,1590,1589,1541,1544
45860815,1000,1000,1000,1000,60528279,1585,1583,1548,1551
45863314,1000,1000,1000,1000,60628239,1578,1575,1557,1560
45865813,1000,1000,1000,1000,60728199,1569,1565,1568,1570
45868312,1000,1000,1000,1000,60828159,1557,1553,1579,1581
45870811,1000,1000,1000,1000,60928952,1548,1545,1594,1594
45873310,1000,1000,1000,1000,61028912,1538,1536,1604,1603
45875809,1000,1000,1000,1000,61128872,1531,1531,1611,1610
45878308,1000,1000,1000,1000,61228832,1527,1530,1615,1614
45880807,1000,1000,1000,1000,61328792,1529,1532,1615,1614
45883306,1000,1000,1000,1000,61428752,1534,1537,1612,1611
45885805,1000,1000,1000,1000,61528712,1541,1543,1606,1606
45888304,1000,1000,1000,1000,61628672,1549,1550,1599,1600
45890803,1000,1000,1000,1000,61728632,1559,1559,1592,1592
45893302,1000,1000,1000,1000,61828592,1568,1567,1585,1584
45895801,1000,1000,1000,1000,61928552,1574,1574,1578,1577
45898300,1000,1000,1000,1000,62028512,1581,1580,1572,1572
45900799,1000,1000,1000,1000,62128472,1585,1584,1568,1568
45903298,1000,1000,1000,1000,62228432,1587,1586,1566,1567
45905797,1000,1000,1000,1000,62328392,1589,1588,1567,1568
45908296,1000,1000,1000,1000,62428352,1587,1586,1568,1568
45910795,1000,1000,1000,1000,62528312,1585,1585,1570,1570
45913294,1000,1000,1000,1000,62628272,1582,1581,1572,1572
45915793,1000,1000,1000,1000,62728232,1579,1579,1575,1575
45918292,1000,1000,1000,1000,62828192,1577,1578,1579,1578
45920791,1000,1000,1000,1000,62928985,1574,1575,1580,1580
45923290,1000,1000,1000,1000,63028945,1573,1574,1583,1582
45925789,1000,1000,1000,1000,63128905,1572,1572,1583,1583
45928288,1000,1000,1000,1000,63228865,1572,1573,1584,1584
45930787,1000,1000,1000,1000,63328825,1573,1573,1583,1583
45933286,1000,1000,1000,1000,63428785,1573,1574,1583,1583
45935785,1000,1000,1000,1000,63528745,1575,1575,1581,1581
45938284,1000,1000,1000,1000,63628705,1576,1576,1580,1580
45940783,1000,1000,1000,1000,63728665,1578,1578,1579,1579
45943282,1000,1000,1000,1000,63828625,1579,1579,1578,1578
45945781,1000,1000,1000,1000,63928585,1581,1580,1577,1577
45948280,1000,1000,1000,1000,64028545,1581,1581,1578,1577
45950779,1000,1000,1000,1000,64128505,1582,1582,1578,1577
45953278,1000,1000,1000,1000,64228465,1582,1582,1578,1578
45955777,1000,1000,1000,1000,64328425,1581,1581,1577,1577
45958276,1000,1000,1000,1000,64428385,1581,1581,1578,1578
45960775,1000,1000,1000,1000,64528345,1581,1580,1578,1579
45963274,1000,1000,1000,1000,64628305,1580,1580,1579,1580
45965773,1000,1000,1000,1000,64728265,1579,1580,1580,1580
45968272,1000,1000,1000,1000,64828225,1579,1579,1580,1580
45970771,1000,1000,1000,1000,64928185,1579,1579,1580,1580
45973270,1000,1000,1000,1000,65028978,1579,1579,1580,1580
45975769,1000,1000,1000,1000,65128938,1579,1578,1580,1580
45978268,1000,1000,1000,1000,65228898,1580,1579,1581,1581
45980767,1000,1000,1000,1000,65328858,1580,1580,1581,1581
45983266,1000,1000,1000,1000,65428818,1580,1580,1580,1580
45985765,1000,1000,1000,1000,65528778,1579,1580,1580,1580
45988264,1000,1000,1000,1000,65628738,1580,1580,1580,1580
45990763,1000,1000,1000,1000,65728698,1581,1581,1580,1580
45993262,1000,1000,1000,1000,65828658,1581,1581,1582,1579
45995761,1000,1000,1000,1000,65928618,1581,1584,1587,1572
45998260,1000,1000,1000,1000,66028578,1580,1584,1581,1571
46000759,1000,1000,1000,1000,66128538,1580,1583,1572,1571
46003258,1000,1000,1000,1000,66228498,1579,1581,1563,1568
46005757,1000,1000,1000,1000,66328458,1579,1580,1557,1564
46008256,1000,1000,1000,1000,66428418,1580,1579,1553,1559
46010755,1000,1000,1000,1000,66528378,1581,1579,1552,1555
46013254,1000,1000,1000,1000,66628338,1322,1324,1620,1626
46015753,1000,1000,1000,1000,66728298,1400,1406,1631,1631
46018252,1000,1000,1000,1000,66828258,1466,1470,1621,1613
46020751,1000,1000,1000,1000,66928218,1519,1520,1609,1599
46023250,1000,1000,1000,1000,67028178,1562,1554,1599,1590
46025749,1000,1000,1000,1000,67128971,1600,1583,1577,1576
46028248,1000,1000,1000,1000,67228931,1600,1585,1516,1525
46030747,1000,1000,1000,1000,67328891,1600,1594,1516,1527
46033246,1000,1000,1000,1000,67428851,1597,1600,1532,1537
46035745,1000,1000,1000,1000,67528811,1593,1600,1546,1544
46038244,1000,1000,1000,1000,67628771,1593,1600,1559,1553
46040743,1000,1000,1000,1000,67728731,1596,1600,1571,1564
46043242,1000,1000,1000,1000,67828691,1600,1599,1578,1573
46045741,1000,1000,1000,1000,67928651,1600,1596,1578,1577
46048240,1000,1000,1000,1000,68028611,1600,1595,1579,1581
46050739,1000,1000,1000,1000,68128571,1600,1597,1580,1584
46053238,1000,1000,1000,1000,68228531,1600,1599,1583,1587
46055737,1000,1000,1000,1000,68328491,1598,1600,1584,1586
46058236,1000,1000,1000,1000,68428451,1597,1600,1585,1585
46060735,1000,1000,1000,1000,68528411,1596,1600,1585,1585
46063234,1000,1000,1000,1000,68628371,1594,1597,1583,1581
46065733,1000,1000,1000,1000,68728331,1590,1593,1577,1576
46068232,1000,1000,1000,1000,68828291,1588,1590,1575,1573
46070731,1000,1000,1000,1000,68928251,1586,1587,1571,1571
46073230,1000,1000,1000,1000,69028211,1586,1586,1570,1570
46075729,1000,1000,1000,1000,69128171,1584,1584,1568,1569
46078228,1000,1000,1000,1000,69228964,1584,1584,1567,1568
46080727,1000,1000,1000,1000,69328924,1583,1583,1566,1568
46083226,1000,1000,1000,1000,69428884,1583,1584,1566,1568
46085725,1000,1000,1000,1000,69528844,1583,1584,1567,1568
46088224,1000,1000,1000,1000,69628804,1583,1585,1567,1567
46090723,1000,1000,1000,1000,69728764,1584,1585,1567,1567
46093222,1000,1000,1000,1000,69828724,1584,1584,1567,1567
46095721,1000,1000,1000,1000,69928684,1585,1584,1566,1568
46098220,1000,1000,1000,1000,70028644,1586,1586,1567,1568
46100719,1000,1000,1000,1000,70128604,1587,1586,1568,1569
46103218,1000,1000,1000,1000,70228564,1588,1587,1569,1569
46105717,1000,1000,1000,1000,70328524,1588,1587,1569,1569
46108216,1000,1000,1000,1000,70428484,1589,1588,1569,1569
46110715,1000,1000,1000,1000,70528444,1689,1688,1567,1567
46113214,1000,1000,1000,1000,70628404,1665,1663,1541,1544
46115713,1000,1000,1000,1000,70728364,1648,1647,1538,1539
46118212,1000,1000,1000,1000,70828324,1633,1634,1538,1537
46120711,1000,1000,1000,1000,70928284,1620,1621,1538,1537
46123210,1000,1000,1000,1000,71028244,1612,1613,1541,1539
46125709,1000,1000,1000,1000,71128204,1605,1605,1542,1541
46128208,1000,1000,1000,1000,71228164,1600,1600,1545,1543
46130707,1000,1000,1000,1000,71328957,1597,1595,1546,1546
46133206,1000,1000,1000,1000,71428917,1594,1592,1549,1550
46135705,1000,1000,1000,1000,71528877,1591,1590,1553,1554
46138204,1000,1000,1000,1000,71628837,1588,1588,1556,1557
46140703,1000,1000,1000,1000,71728797,1585,1586,1559,1560
46143202,1000,1000,1000,1000,71828757,1583,1584,1564,1563
46145701,1000,1000,1000,1000,71928717,1581,1582,1568,1567
46148200,1000,1000,1000,1000,72028677,1580,1581,1571,1570
46150699,1000,1000,1000,1000,72128637,1579,1579,1574,1573
46153198,1000,1000,1000,1000,72228597,1579,1579,1576,1575
46155697,1000,1000,1000,1000,72328557,1578,1578,1577,1577
46158196,1000,1000,1000,1000,72428517,1579,1578,1578,1578
46160695,1000,1000,1000,1000,72528477,1578,1579,1578,1578
46163194,1000,1000,1000,1000,72628437,1577,1570,1584,1584
46165693,1000,1000,1000,1000,72728397,1557,1548,1608,1608
46168192,1000,1000,1000,1000,72828357,1535,1529,1628,1629
46170691,1000,1000,1000,1000,72928317,1515,1516,1642,1643
46173190,1000,1000,1000,1000,73028277,1504,1512,1649,1651
46175689,1000,1000,1000,1000,73128237,1503,1514,1650,1652
46178188,1000,1000,1000,1000,73228197,1509,1521,1642,1643
46180687,1000,1000,1000,1000,73328157,1521,1530,1628,1629
46183186,1000,1000,1000,1000,73428950,1539,1544,1614,1614
46185685,1000,1000,1000,1000,73528910,1557,1558,1596,1595
46188184,1000,1000,1000,1000,73628870,1575,1572,1581,1579
46190683,1000,1000,1000,1000,73728830,1590,1585,1568,1566
46193182,1000,1000,1000,1000,73828790,1601,1595,1566,1554
46195681,1000,1000,1000,1000,73928750,1607,1600,1563,1549
46198180,1000,1000,1000,1000,74028710,1607,1601,1554,1550
46200679,1000,1000,1000,1000,74128670,1604,1601,1547,1550
46203178,1000,1000,1000,1000,74228630,1601,1600,1544,1550
46205677,1000,1000,1000,1000,74328590,1595,1597,1543,1549
46208176,1000,1000,1000,1000,74428550,1592,1595,1546,1550
46210675,1000,1000,1000,1000,74528510,1588,1591,1548,1549
46213174,1000,1000,1000,1000,74628470,1585,1588,1552,1551
46215673,1000,1000,1000,1000,74728430,1582,1584,1555,1552
46218172,1000,1000,1000,1000,74828390,1580,1581,1556,1554
46220671,1000,1000,1000,1000,74928350,1577,1577,1557,1555
46223170,1000,1000,1000,1000,75028310,1575,1575,1557,1557
46225669,1000,1000,1000,1000,75128270,1573,1573,1557,1557
46228168,1000,1000,1000,1000,75228230,1572,1573,1557,1557
46230667,1000,1000,1000,1000,75328190,1571,1572,1556,1556
46233166,1000,1000,1000,1000,75428983,1570,1572,1554,1554
46235665,1000,1000,1000,1000,75528943,1571,1573,1553,1552
46238164,1000,1000,1000,1000,75628903,1573,1574,1552,1551
46240663,1000,1000,1000,1000,75728863,1575,1576,1549,1549
46243162,1000,1000,1000,1000,75828823,1577,1578,1548,1547
46245661,1000,1000,1000,1000,75928783,1579,1580,1546,1545
46248160,1000,1000,1000,1000,76028743,1581,1581,1543,1543
46250659,1000,1000,1000,1000,76128703,1584,1583,1544,1545
46253158,1000,1000,1000,1000,76228663,1585,1584,1543,1545
46255657,1000,1000,1000,1000,76328623,1585,1585,1545,1546
46258156,1000,1000,1000,1000,76428583,1584,1584,1545,1547
46260655,1000,1000,1000,1000,76528543,1582,1582,1547,1550
46263154,1000,1000,1000,1000,76628503,1580,1580,1552,1555
46266486,1000,1000,1000,1000,76728463,1577,1576,1558,1561
46268985,1000,1000,1000,1000,76828423,1573,1570,1565,1566
46271484,1000,1000,1000,1000,76928383,1567,1565,1573,1574
46273983,1000,1000,1000,1000,77028343,1561,1558,1582,1582
46276482,1000,1000,1000,1000,77128303,1554,1551,1590,1590
46278981,1000,1000,1000,1000,77228263,1548,1546,1598,1598
46281480,1000,1000,1000,1000,77328223,1542,1542,1602,1602
46283979,1000,1000,1000,1000,77428183,1539,1540,1604,1604
46286478,1000,1000,1000,1000,77528976,1540,1541,1606,1605
46288977,1000,1000,1000,1000,77628936,1542,1544,1603,1603
46291476,1000,1000,1000,1000,77728896,1546,1549,1599,1600
46293975,1000,1000,1000,1000,77828856,1552,1553,1594,1594
46296474,1000,1000,1000,1000,77928816,1558,1559,1589,1588
46298973,1000,1000,1000,1000,78028776,1565,1565,1583,1582
46301472,1000,1000,1000,1000,78128736,1572,1571,1579,1578
46303971,1000,1000,1000,1000,78228696,1577,1576,1574,1574
46306470,1000,1000,1000,1000,78328656,1582,1580,1571,1571
46308969,1000,1000,1000,1000,78428616,1585,1584,1569,1570
46311468,1000,1000,1000,1000,78528576,1586,1585,1568,1568
46313967,1000,1000,1000,1000,78628536,1586,1585,1569,1569
46316466,1000,1000,1000,1000,78728496,1587,1586,1571,1571
46318965,1000,1000,1000,1000,78828456,1585,1585,1573,1574
46321464,1000,1000,1000,1000,78928416,1583,1583,1574,1575
46323963,1000,1000,1000,1000,79028376,1581,1582,1577,1577
46326462,1000,1000,1000,1000,79128336,1580,1580,1579,1579
46328961,1000,1000,1000,1000,79228296,1578,1578,1581,1580
46331460,1000,1000,1000,1000,79328256,1576,1576,1582,1582
46333959,1000,1000,1000,1000,79428216,1577,1577,1584,1584
46336458,1000,1000,1000,1000,79528176,1575,1576,1584,1584
46338957,1000,1000,1000,1000,79628969,1575,1575,1584,1583
46341456,1000,1000,1000,1000,79728929,1575,1576,1583,1583
46343955,1000,1000,1000,1000,79828889,1576,1576,1582,1583
46346454,1000,1000,1000,1000,79928849,1577,1577,1582,1582
46348953,1000,1000,1000,1000,80028809,1578,1578,1581,1581
46351452,1000,1000,1000,1000,80128769,1578,1579,1579,1579
46353951,1000,1000,1000,1000,80228729,1579,1579,1578,1578
46356450,1000,1000,1000,1000,80328689,1581,1581,1579,1579
46358949,1000,1000,1000,1000,80428649,1581,1581,1578,1578
46361448,1000,1000,1000,1000,80528609,1582,1582,1579,1579
46363947,1000,1000,1000,1000,80628569,1583,1582,1579,1579
46366446,1000,1000,1000,1000,80728529,1582,1582,1578,1578
46368945,1000,1000,1000,1000,80828489,1583,1583,1580,1580
46371444,1000,1000,1000,1000,80928449,1582,1582,1579,1579
46373943,1000,1000,1000,1000,81028409,1582,1582,1580,1581
46376442,1000,1000,1000,1000,81128369,1581,1581,1581,1581
46378941,1000,1000,1000,1000,81228329,1581,1581,1581,1580
46381440,1000,1000,1000,1000,81328289,1581,1581,1581,1582
46383939,1000,1000,1000,1000,81428249,1580,1581,1582,1582
46386438,1000,1000,1000,1000,81528209,1581,1580,1582,1582
46388937,1000,1000,1000,1000,81628169,1581,1581,1583,1583
46391436,1000,1000,1000,1000,81728962,1580,1581,1582,1581
46393935,1000,1000,1000,1000,81828922,1581,1581,1583,1582
46396434,1000,1000,1000,1000,81928882,1581,1581,1582,1582
46398933,1000,1000,1000,1000,82028842,1582,1581,1589,1574
46401432,1000,1000,1000,1000,82128802,1581,1580,1586,1575
46403931,1000,1000,1000,1000,82228762,1579,1578,1577,1576
46406430,1000,1000,1000,1000,82328722,1576,1575,1570,1575
46408929,1000,1000,1000,1000,82428682,1573,1572,1566,1573
46411428,1000,1000,1000,1000,82528642,1570,1571,1565,1571
46413927,1000,1000,1000,1000,82628602,1568,1569,1565,1568
46416426,1000,1000,1000,1000,82728562,1568,1569,1567,1567
46418925,1000,1000,1000,1000,82828522,1566,1568,1568,1566
46421424,1000,1000,1000,1000,82928482,1566,1567,1568,1566
46423923,1000,1000,1000,1000,83028442,1565,1565,1567,1565
46426422,1000,1000,1000,1000,83128402,1565,1565,1567,1565
46428921,1000,1000,1000,1000,83228362,1563,1563,1564,1564
46431420,1000,1000,1000,1000,83328322,1563,1562,1563,1564
46433919,1000,1000,1000,1000,83428282,1562,1562,1563,1563
46436418,1000,1000,1000,1000,83528242,1561,1561,1561,1562
46438917,1000,1000,1000,1000,83628202,1560,1560,1562,1561
46441416,1000,1000,1000,1000,83728162,1561,1561,1561,1561
46443915,1000,1000,1000,1000,83828955,1560,1560,1561,1560
46446414,1000,1000,1000,1000,83928915,1558,1558,1558,1558
46448913,1000,1000,1000,1000,84028875,1558,1558,1558,1557
46451412,1000,1000,1000,1000,84128835,1559,1559,1559,1558
46453911,1000,1000,1000,1000,84228795,1558,1558,1558,1557
46456410,1000,1000,1000,1000,84328755,1556,1558,1536,1577
46458909,1000,1000,1000,1000,84428715,1555,1556,1565,1544
46461408,1000,1000,1000,1000,84528675,1553,1552,1565,1537
46463907,1000,1000,1000,1000,84628635,1549,1548,1553,1540
46466406,1000,1000,1000,1000,84728595,1544,1542,1538,1542
46468905,1000,1000,1000,1000,84828555,1539,1538,1529,1542
46471404,1000,1000,1000,1000,84928515,1532,1532,1522,1536
46473903,1000,1000,1000,1000,85028475,1526,1527,1517,1528
46476402,1000,1000,1000,1000,85128435,1522,1523,1518,1523
46478901,1000,1000,1000,1000,85228395,1520,1522,1520,1521
46481400,1000,1000,1000,1000,85328355,1520,1521,1523,1521
46483899,1000,1000,1000,1000,85428315,1522,1522,1527,1524
46486398,1000,1000,1000,1000,85528275,1525,1525,1530,1529
46488897,1000,1000,1000,1000,85628235,1529,1528,1535,1535
46491396,1000,1000,1000,1000,85728195,1534,1533,1539,1541
46493895,1000,1000,1000,1000,85828155,1537,1536,1541,1543
46496394,1000,1000,1000,1000,85928948,1539,1538,1542,1545
46498893,1000,1000,1000,1000,86028908,1542,1542,1545,1546
46501392,1000,1000,1000,1000,86128868,1544,1544,1545,1545
46503891,1000,1000,1000,1000,86228828,1545,1546,1545,1545
46506390,1000,1000,1000,1000,86328788,1547,1547,1545,1544
46508889,1000,1000,1000,1000,86428748,1548,1548,1544,1544
46511388,1000,1000,1000,1000,86528708,1549,1549,1545,1545
46513887,1000,1000,1000,1000,86628668,1548,1548,1544,1544
46516386,1000,1000,1000,1000,86728628,1548,1548,1544,1544
46518885,1000,1000,1000,1000,86828588,1548,1548,1544,1545
46521384,1000,1000,1000,1000,86928548,1548,1547,1545,1545
46523883,1000,1000,1000,1000,87028508,1547,1547,1545,1544
46526382,1000,1000,1000,1000,87128468,1546,1546,1545,1544
46528881,1000,1000,1000,1000,87228428,1544,1545,1544,1544
46531380,1000,1000,1000,1000,87328388,1545,1545,1545,1546
46533879,1000,1000,1000,1000,87428348,1545,1545,1546,1546
46536378,1000,1000,1000,1000,87528308,1544,1544,1546,1546
46538877,1000,1000,1000,1000,87628268,1544,1544,1546,1546
46541376,1000,1000,1000,1000,87728228,1545,1544,1546,1546
46543875,1000,1000,1000,1000,87828188,1543,1543,1545,1545
46546374,1000,1000,1000,1000,87928981,1544,1544,1545,1545
46548873,1000,1000,1000,1000,88028941,1544,1544,1545,1545
46551372,1000,1000,1000,1000,88128901,1544,1544,1544,1544
46553871,1000,1000,1000,1000,88228861,1544,1544,1545,1544
46556370,1000,1000,1000,1000,88328821,1544,1543,1544,1543
46558869,1000,1000,1000,1000,88428781,1544,1545,1544,1543
46561368,1000,1000,1000,1000,88528741,1544,1545,1544,1544
46563867,1000,1000,1000,1000,88628701,1544,1545,1544,1544
46566366,1000,1000,1000,1000,88728661,1544,1544,1544,1544
46568865,1000,1000,1000,1000,88828621,1545,1544,1543,1544
46571364,1000,1000,1000,1000,88928581,1544,1544,1543,1543
46573863,1000,1000,1000,1000,89028541,1543,1543,1543,1542
46576362,1000,1000,1000,1000,89128501,1544,1543,1543,1543
46578861,1000,1000,1000,1000,89228461,1543,1543,1543,1542
46581360,1000,1000,1000,1000,89328421,1543,1543,1543,1543
46583859,1000,1000,1000,1000,89428381,1543,1543,1543,1543
46586358,1000,1000,1000,1000,89528341,1543,1543,1543,1543
46588857,1000,1000,1000,1000,89628301,1544,1543,1544,1544
46591356,1000,1000,1000,1000,89728261,1544,1543,1544,1544
46593855,1000,1000,1000,1000,89828221,1544,1544,1545,1545
46596354,1000,1000,1000,1000,89928181,1544,1544,1544,1545
46598853,1000,1000,1000,1000,90028974,1543,1544,1544,1544
46601352,1000,1000,1000,1000,90128934,1544,1544,1544,1544
46603851,1000,1000,1000,1000,90228894,1544,1544,1544,1544
46606350,1000,1000,1000,1000,90328854,1544,1544,1544,1544
46608849,1000,1000,1000,1000,90428814,1544,1545,1544,1544
46611348,1000,1000,1000,1000,90528774,1545,1544,1544,1544
46613847,1000,1000,1000,1000,90628734,1545,1545,1544,1544
46616346,1000,1000,1000,1000,90728694,1545,1544,1544,1544
46618845,1000,1000,1000,1000,90828654,1544,1544,1544,1543
46621344,1000,1000,1000,1000,90928614,1545,1545,1544,1545
46623843,1000,1000,1000,1000,91028574,1545,1545,1545,1544
46626342,1000,1000,1000,1000,91128534,1544,1544,1544,1544
46628841,1000,1000,1000,1000,91228494,1544,1544,1543,1543
46631340,1000,1000,1000,1000,91328454,1544,1544,1544,1544
46633839,1000,1000,1000,1000,91428414,1544,1544,1544,1544
46636338,1000,1000,1000,1000,91528374,1544,1544,1544,1544
46638837,1000,1000,1000,1000,91628334,1544,1543,1544,1544
46641336,1000,1000,1000,1000,91728294,1544,1544,1544,1544
46643835,1000,1000,1000,1000,91828254,1544,1544,1545,1544
46646334,1000,1000,1000,1000,91928214,1544,1544,1544,1544
46648833,1000,1000,1000,1000,92028174,1544,1544,1544,1544
46651332,1000,1000,1000,1000,92128967,1544,1545,1545,1544
46653831,1000,1000,1000,1000,92228927,1544,1545,1544,1544
46656330,1000,1000,1000,1000,92328887,1544,1544,1544,1544
46658829,1000,1000,1000,1000,92428847,1544,1544,1543,1544
46661328,1000,1000,1000,1000,92528807,1544,1544,1544,1544
46663827,1000,1000,1000,1000,92628767,1545,1545,1544,1545
46666326,1000,1000,1000,1000,92728727,1544,1545,1544,1544
46668825,1000,1000,1000,1000,92828687,1544,1544,1545,1544
46671324,1000,1000,1000,1000,92928647,1545,1544,1545,1545
46673823,1000,1000,1000,1000,93028607,1544,1544,1544,1544
46676322,1000,1000,1000,1000,93128567,1544,1544,1544,1544
46678821,1000,1000,1000,1000,93228527,1544,1544,1544,1544
46681320,1000,1000,1000,1000,93328487,1544,1543,1544,1543
46683819,1000,1000,1000,1000,93428447,1544,1544,1544,1544
46686318,1000,1000,1000,1000,93528407,1544,1544,1543,1544
46688817,1000,1000,1000,1000,93628367,1544,1545,1544,1545
46691316,1000,1000,1000,1000,93728327,1544,1544,1545,1544
46693815,1000,1000,1000,1000,93828287,1544,1544,1544,1544
46696314,1000,1000,1000,1000,93928247,1545,1545,1545,1546
46698813,1000,1000,1000,1000,94028207,1545,1545,1546,1545
46701312,1000,1000,1000,1000,94128167,1545,1544,1545,1545
46703811,1000,1000,1000,1000,94228960,1545,1545,1545,1545
46706310,1000,1000,1000,1000,94328920,1545,1545,1545,1545
46708809,1000,1000,1000,1000,94428880,1545,1545,1545,1545
46711308,1000,1000,1000,1000,94528840,1545,1544,1544,1544
46713807,1000,1000,1000,1000,94628800,1544,1544,1544,1544
46716306,1000,1000,1000,1000,94728760,1544,1543,1543,1543
46718805,1000,1000,1000,1000,94828720,1413,1413,1360,1362
46721304,1000,1000,1000,1000,94928680,1344,1343,1249,1255
46723803,1000,1000,1000,1000,95028640,1323,1322,1213,1218
46726302,1000,1000,1000,1000,95128600,1310,1309,1191,1195
46728801,1000,1000,1000,1000,95228560,1288,1287,1150,1153
46731300,1000,1000,1000,1000,95328520,1221,1220,1150,1154
46733799,1000,1000,1000,1000,95428480,1110,1110,1150,1153
46736298,1000,1000,1000,1000,95528440,1075,1074,1150,1153
46738797,1000,1000,1000,1000,95628400,1075,1074,1150,1152
46741296,1000,1000,1000,1000,95728360,1075,1074,1150,1153
46743795,1000,1000,1000,1000,95828320,1075,1061,1150,1170
46746294,1000,1000,1000,1000,95928280,1075,1066,1150,1163
46748793,1000,1000,1000,1000,96028240,1075,1068,1150,1161
46751292,1000,1000,1000,1000,96128200,1075,1069,1150,1160
46753791,1000,1000,1000,1000,96228160,1075,1069,1150,1161
46756290,1000,1000,1000,1000,96328953,1075,1068,1150,1161
46758789,1000,1000,1000,1000,96428913,1075,1068,1150,1161
46761288,1000,1000,1000,1000,96528873,1075,1068,1150,1161
46763787,1000,1000,1000,1000,96628833,1075,1075,1150,1151
46766286,1000,1000,1000,1000,96728793,1075,1074,1150,1152
46768785,1000,1000,1000,1000,96828753,1075,1074,1150,1152
46771284,1000,1000,1000,1000,96928713,1075,1074,1150,1153
46773783,1000,1000,1000,1000,97028673,991,990,1150,1151
46776282,1000,1000,1000,1000,97128633,1000,1000,1000,1000
46778781,1000,1000,1000,1000,97228593,1000,1000,1000,1000
46781280,1000,1000,1000,1000,97328553,1000,1000,1000,1000
46783779,1000,1000,1000,1000,97428513,1000,1000,1000,1000
46786278,1000,1000,1000,1000,97528473,1000,1000,1000,1000
46788777,1000,1000,1000,1000,97628433,1000,1000,1000,1000
46791276,1000,1000,1000,1000,97728393,1000,1000,1000,1000
46793775,1000,1000,1000,1000,97828353,1000,1000,1000,1000
46796274,1000,1000,1000,1000,97928313,1000,1000,1000,1000
46798773,1000,1000,1000,1000,98028273,1000,1000,1000,1000
46801272,1000,1000,1000,1000,98128233,1000,1000,1000,1000
46803771,1000,1000,1000,1000,98228193,1000,1000,1000,1000
46806270,1000,1000,1000,1000,98328986,1000,1000,1000,1000
46808769,1000,1000,1000,1000,98428946,1000,1000,1000,1000
46811268,1000,1000,1000,1000,98528906,1000,1000,1000,1000
46813767,1000,1000,1000,1000,98628866,1000,1000,1000,1000
46816266,1000,1000,1000,1000,98728826,1000,1000,1000,1000
46818765,1000,1000,1000,1000,98828786,1000,1000,1000,1000
46821264,1000,1000,1000,1000,98928746,1000,1000,1000,1000
46823763,1000,1000,1000,1000,99028706,1000,1000,1000,1000
46826262,1000,1000,1000,1000,99128666,1000,1000,1000,1000
46828761,1000,1000,1000,1000,99228626,1000,1000,1000,1000
46831260,1000,1000,1000,1000,99328586,1000,1000,1000,1000
46833759,1000,1000,1000,1000,99428546,1000,1000,1000,1000
46836258,1000,1000,1000,1000,99528506,1000,1000,1000,1000
46838757,1000,1000,1000,1000,99628466,1000,1000,1000,1000
46841256,1000,1000,1000,1000,99728426,1000,1000,1000,1000
46843755,1000,1000,1000,1000,99828386,1000,1000,1000,1000
46846254,1000,1000,1000,1000,99928346,1000,1000,1000,1000
46848753,1000,1000,1000,1000,100028306,1000,1000,1000,1000
46851252,1000,1000,1000,1000,100128266,1000,1000,1000,1000
46853751,1000,1000,1000,1000,100228226,1000,1000,1000,1000
46856250,1000,1000,1000,1000,100328186,1000,1000,1000,1000
46858749,1000,1000,1000,1000,100428979,1000,1000,1000,1000
46861248,1000,1000,1000,1000,100528939,1000,1000,1000,1000
46863747,1000,1000,1000,1000,100628899,1000,1000,1000,1000
46866246,1000,1000,1000,1000,100728859,1000,1000,1000,1000
46868745,1000,1000,1000,1000,100828819,1000,1000,1000,1000
46871244,1000,1000,1000,1000,100928779,1000,1000,1000,1000
46873743,1000,1000,1000,1000,101028739,1000,1000,1000,1000
46876242,1000,1000,1000,1000,101128699,1000,1000,1000,1000
46878741,1000,1000,1000,1000,101228659,1000,1000,1000,1000
46881240,1000,1000,1000,1000,101328619,1000,1000,1000,1000
46883739,1000,1000,1000,1000,101428579,1000,1000,1000,1000
46886238,1000,1000,1000,1000,101528539,1000,1000,1000,1000
46888737,1000,1000,1000,1000,101628499,1000,1000,1000,1000
46891236,1000,1000,1000,1000,101728459,1000,1000,1000,1000
46893735,1000,1000,1000,1000,101828419,1000,1000,1000,1000
46896234,1000,1000,1000,1000,101928379,1000,1000,1000,1000
46898733,1000,1000,1000,1000,102028339,1000,1000,1000,1000
46901232,1000,1000,1000,1000,102128299,1000,1000,1000,1000
46903731,1000,1000,1000,1000,102228259,1000,1000,1000,1000
46906230,1000,1000,1000,1000,102328219,1000,1000,1000,1000
46908729,1000,1000,1000,1000,102428179,1000,1000,1000,1000
46911228,1000,1000,1000,1000,102528972,1000,1000,1000,1000
46913727,1000,1000,1000,1000,102628932,1000,1000,1000,1000
46916226,1000,1000,1000,1000,102728892,1000,1000,1000,1000
46918725,1000,1000,1000,1000,102828852,1000,1000,1000,1000
46921224,1000,1000,1000,1000,102928812,1000,1000,1000,1000
46923723,1000,1000,1000,1000,103028772,1000,1000,1000,1000
46926222,1000,1000,1000,1000,103128732,1000,1000,1000,1000
46928721,1000,1000,1000,1000,103228692,1000,1000,1000,1000
46931220,1000,1000,1000,1000,103328652,1000,1000,1000,1000
46933719,1000,1000,1000,1000,103428612,1000,1000,1000,1000
46936218,1000,1000,1000,1000,103528572,1000,1000,1000,1000
46938717,1000,1000,1000,1000,103628532,1000,1000,1000,1000
46941216,1000,1000,1000,1000,103728492,1000,1000,1000,1000
46943715,1000,1000,1000,1000,103828452,1000,1000,1000,1000
46946214,1000,1000,1000,1000,103928412,1000,1000,1000,1000
46948713,1000,1000,1000,1000,104028372,1000,1000,1000,1000
46951212,1000,1000,1000,1000,104128332,1000,1000,1000,1000
46953711,1000,1000,1000,1000,104228292,1000,1000,1000,1000
46956210,1000,1000,1000,1000,104328252,1000,1000,1000,1000
46958709,1000,1000,1000,1000,104428212,1000,1000,1000,1000
46961208,1000,1000,1000,1000,104528172,1000,1000,1000,1000
46963707,1000,1000,1000,1000,104628965,1000,1000,1000,1000
46966206,1000,1000,1000,1000,104728925,1000,1000,1000,1000
46968705,1000,1000,1000,1000,104828885,1000,1000,1000,1000
46971204,1000,1000,1000,1000,104928845,1000,1000,1000,1000
46973703,1000,1000,1000,1000,105028805,1000,1000,1000,1000
46976202,1000,1000,1000,1000,105128765,1000,1000,1000,1000
46978701,1000,1000,1000,1000,105228725,1000,1000,1000,1000
46981200,1000,1000,1000,1000,105328685,1000,1000,1000,1000
46983699,1000,1000,1000,1000,105428645,1000,1000,1000,1000
46986198,1000,1000,1000,1000,105528605,1000,1000,1000,1000
46988697,1000,1000,1000,1000,105628565,1000,1000,1000,1000
46991196,1000,1000,1000,1000,105728525,1000,1000,1000,1000
46993695,1000,1000,1000,1000,105828485,1000,1000,1000,1000
46996194,1000,1000,1000,1000,105928445,1000,1000,1000,1000
46998693,1000,1000,1000,1000,106028405,1000,1000,1000,1000
47001192,1000,1000,1000,1000,106128365,1000,1000,1000,1000
47003691,1000,1000,1000,1000,106228325,1000,1000,1000,1000
47006190,1000,1000,1000,1000,106328285,1000,1000,1000,1000
47008689,1000,1000,1000,1000,106428245,1000,1000,1000,1000
47011188,1000,1000,1000,1000,106528205,1000,1000,1000,1000
47013687,1000,1000,1000,1000,106628165,1000,1000,1000,1000
47016186,1000,1000,1000,1000,106728958,1000,1000,1000,1000
47018685,1000,1000,1000,1000,106828918,1000,1000,1000,1000
47021184,1000,1000,1000,1000,106928878,1000,1000,1000,1000
47023683,1000,1000,1000,1000,107028838,1000,1000,1000,1000
47026182,1000,1000,1000,1000,107128798,1000,1000,1000,1000
47028681,1000,1000,1000,1000,107228758,1000,1000,1000,1000
47031180,1000,1000,1000,1000,107328718,1000,1000,1000,1000
47033679,1000,1000,1000,1000,107428678,1000,1000,1000,1000
47036178,1000,1000,1000,1000,107528638,1000,1000,1000,1000
47038677,1000,1000,1000,1000,107628598,1000,1000,1000,1000
47041176,1000,1000,1000,1000,107728558,1000,1000,1000,1000
47043675,1000,1000,1000,1000,107828518,1000,1000,1000,1000
47046174,1000,1000,1000,1000,107928478,1000,1000,1000,1000
47048673,1000,1000,1000,1000,108028438,1000,1000,1000,1000
47051172,1000,1000,1000,1000,108128398,1000,1000,1000,1000
47053671,1000,1000,1000,1000,108228358,1000,1000,1000,1000
47056170,1000,1000,1000,1000,108328318,1000,1000,1000,1000
47058669,1000,1000,1000,1000,108428278,1000,1000,1000,1000
47061168,1000,1000,1000,1000,108528238,1000,1000,1000,1000
47063667,1000,1000,1000,1000,108628198,1000,1000,1000,1000
47066166,1000,1000,1000,1000,108728158,1000,1000,1000,1000
47068665,1000,1000,1000,1000,108828951,1000,1000,1000,1000
47071164,1000,1000,1000,1000,108928911,1000,1000,1000,1000
47073663,1000,1000,1000,1000,109028871,1000,1000,1000,1000
47076162,1000,1000,1000,1000,109128831,1000,1000,1000,1000
47078661,1000,1000,1000,1000,109228791,1000,1000,1000,1000
47081160,1000,1000,1000,1000,109328751,1000,1000,1000,1000
47083659,1000,1000,1000,1000,,,,,
47086158,1000,1000,1000,1000,,,,,
47088657,1000,1000,1000,1000,,,,,
47091156,1000,1000,1000,1000,,,,,
47093655,1000,1000,1000,1000,,,,,
47096154,1000,1000,1000,1000,,,,,
47098653,1000,1000,1000,1000,,,,,
47101152,1000,1000,1000,1000,,,,,
47103651,1000,1000,1000,1000,,,,,
47106150,1000,1000,1000,1000,,,,,
47108649,1000,1000,1000,1000,,,,,
47111148,1000,1000,1000,1000,,,,,
47113647,1000,1000,1000,1000,,,,,
47116146,1000,1000,1000,1000,,,,,
47118645,1000,1000,1000,1000,,,,,
47121144,1000,1000,1000,1000,,,,,
47123643,1000,1000,1000,1000,,,,,
47126142,1000,1000,1000,1000,,,,,
47128641,1000,1000,1000,1000,,,,,
47131140,1000,1000,1000,1000,,,,,
47133639,1000,1000,1000,1000,,,,,
47136138,1000,1000,1000,1000,,,,,
47138637,1000,1000,1000,1000,,,,,
47141136,1000,1000,1000,1000,,,,,
47143635,1000,1000,1000,1000,,,,,
47146134,1000,1000,1000,1000,,,,,
47148633,1000,1000,1000,1000,,,,,
47151132,1000,1000,1000,1000,,,,,
47153631,1000,1000,1000,1000,,,,,
47156130,1000,1000,1000,1000,,,,,
47158629,1000,1000,1000,1000,,,,,
47161128,1000,1000,1000,1000,,,,,
47163627,1000,1000,1000,1000,,,,,
47166126,1000,1000,1000,1000,,,,,
47168625,1000,1000,1000,1000,,,,,
47171124,1000,1000,1000,1000,,,,,
47173623,1000,1000,1000,1000,,,,,
47176122,1000,1000,1000,1000,,,,,
47178621,1000,1000,1000,1000,,,,,
47181120,1000,1000,1000,1000,,,,,
47183619,1000,1000,1000,1000,,,,,
47186118,1000,1000,1000,1000,,,,,
47188617,1000,1000,1000,1000,,,,,
47191116,1000,1000,1000,1000,,,,,
47193615,1000,1000,1000,1000,,,,,
47196114,1000,1000,1000,1000,,,,,
47198613,1000,1000,1000,1000,,,,,
47201112,1000,1000,1000,1000,,,,,
47203611,1000,1000,1000,1000,,,,,
47206110,1000,1000,1000,1000,,,,,
47208609,1000,1000,1000,1000,,,,,
47211108,1000,1000,1000,1000,,,,,
47213607,1000,1000,1000,1000,,,,,
47216106,1000,1000,1000,1000,,,,,
47218605,1000,1000,1000,1000,,,,,
47221104,1000,1000,1000,1000,,,,,
47223603,1000,1000,1000,1000,,,,,
47226102,1000,1000,1000,1000,,,,,
47228601,1000,1000,1000,1000,,,,,
47231100,1000,1000,1000,1000,,,,,
47233599,1000,1000,1000,1000,,,,,
47236098,1000,1000,1000,1000,,,,,
47238597,1000,1000,1000,1000,,,,,
47241096,1000,1000,1000,1000,,,,,
47243595,1000,1000,1000,1000,,,,,
47246094,1000,1000,1000,1000,,,,,
47248593,1000,1000,1000,1000,,,,,
47251092,1000,1000,1000,1000,,,,,
47253591,1000,1000,1000,1000,,,,,
47256090,1000,1000,1000,1000,,,,,
47258589,1000,1000,1000,1000,,,,,
47261088,1000,1000,1000,1000,,,,,
47263587,1000,1000,1000,1000,,,,,
47266086,1000,1000,1000,1000,,,,,
47268585,1000,1000,1000,1000,,,,,
47271084,1000,1000,1000,1000,,,,,
47273583,1000,1000,1000,1000,,,,,
47276082,1000,1000,1000,1000,,,,,
47278581,1000,1000,1000,1000,,,,,
47281080,1000,1000,1000,1000,,,,,
47283579,1000,1000,1000,1000,,,,,
47286078,1000,1000,1000,1000,,,,,
47288577,1000,1000,1000,1000,,,,,
47291076,1000,1000,1000,1000,,,,,
47293575,1000,1000,1000,1000,,,,,
47296074,1000,1000,1000,1000,,,,,
47298573,1000,1000,1000,1000,,,,,
47301072,1000,1000,1000,1000,,,,,
47303571,1000,1000,1000,1000,,,,,
47306070,1000,1000,1000,1000,,,,,
47308569,1000,1000,1000,1000,,,,,
47311068,1000,1000,1000,1000,,,,,
47313567,1000,1000,1000,1000,,,,,
47316066,1000,1000,1000,1000,,,,,
47318565,1000,1000,1000,1000,,,,,
47321064,1000,1000,1000,1000,,,,,
47323563,1000,1000,1000,1000,,,,,
47326062,1000,1000,1000,1000,,,,,
47328561,1000,1000,1000,1000,,,,,
47331060,1000,1000,1000,1000,,,,,
47333559,1000,1000,1000,1000,,,,,
47336058,1000,1000,1000,1000,,,,,
47338557,1000,1000,1000,1000,,,,,
47341056,1000,1000,1000,1000,,,,,
47343555,1000,1000,1000,1000,,,,,
47346054,1000,1000,1000,1000,,,,,
47348553,1000,1000,1000,1000,,,,,
47351052,1000,1000,1000,1000,,,,,
47353551,1000,1000,1000,1000,,,,,
47356050,1000,1000,1000,1000,,,,,
47358549,1000,1000,1000,1000,,,,,
47361048,1000,1000,1000,1000,,,,,
47363547,1000,1000,1000,1000,,,,,
47366046,1000,1000,1000,1000,,,,,
47368545,1000,1000,1000,1000,,,,,
47371044,1000,1000,1000,1000,,,,,
47373543,1000,1000,1000,1000,,,,,
47376042,1000,1000,1000,1000,,,,,
47378541,1000,1000,1000,1000,,,,,
47381040,1000,1000,1000,1000,,,,,
47383539,1000,1000,1000,1000,,,,,
47386038,1000,1000,1000,1000,,,,,
47388537,1000,1000,1000,1000,,,,,
47391036,1000,1000,1000,1000,,,,,
47393535,1000,1000,1000,1000,,,,,
47396034,1000,1000,1000,1000,,,,,
47398533,1000,1000,1000,1000,,,,,
47401032,1000,1000,1000,1000,,,,,
47403531,1000,1000,1000,1000,,,,,
47406030,1000,1000,1000,1000,,,,,
47408529,1000,1000,1000,1000,,,,,
47411028,1000,1000,1000,1000,,,,,
47413527,1000,1000,1000,1000,,,,,
47416026,1000,1000,1000,1000,,,,,
47418525,1000,1000,1000,1000,,,,,
47421024,1000,1000,1000,1000,,,,,
47423523,1000,1000,1000,1000,,,,,
47426022,1000,1000,1000,1000,,,,,
47428521,1000,1000,1000,1000,,,,,
47431020,1000,1000,1000,1000,,,,,
47433519,1000,1000,1000,1000,,,,,
47436018,1000,1000,1000,1000,,,,,
47438517,1000,1000,1000,1000,,,,,
47441016,1000,1000,1000,1000,,,,,
47443515,1000,1000,1000,1000,,,,,
47446014,1000,1000,1000,1000,,,,,
47448513,1000,1000,1000,1000,,,,,
47451012,1000,1000,1000,1000,,,,,
47453511,1000,1000,1000,1000,,,,,
47456010,1000,1000,1000,1000,,,,,
47458509,1000,1000,1000,1000,,,,,
47461008,1000,1000,1000,1000,,,,,
47463507,1000,1000,1000,1000,,,,,
47466006,1000,1000,1000,1000,,,,,
47468505,1000,1000,1000,1000,,,,,
47471004,1000,1000,1000,1000,,,,,
47473503,1000,1000,1000,1000,,,,,
47476002,1000,1000,1000,1000,,,,,
47478501,1000,1000,1000,1000,,,,,
47481000,1000,1000,1000,1000,,,,,
47483499,1000,1000,1000,1000,,,,,
47485998,1000,1000,1000,1000,,,,,
47488497,1000,1000,1000,1000,,,,,
47490996,1000,1000,1000,1000,,,,,
47493495,1001,1001,1001,1001,,,,,
47495994,1002,1002,1002,1002,,,,,
47498493,1003,1003,1003,1003,,,,,
47500992,1003,1003,1003,1003,,,,,
47503491,1004,1004,1004,1004,,,,,
47505990,1005,1005,1005,1005,,,,,
47508489,1006,1006,1006,1006,,,,,
47510988,1006,1006,1006,1006,,,,,
47513487,1007,1007,1007,1007,,,,,
47515986,1008,1008,1008,1008,,,,,
47518485,1009,1009,1009,1009,,,,,
47520984,1009,1009,1009,1009,,,,,
47523483,1010,1010,1010,1010,,,,,
47525982,1011,1011,1011,1011,,,,,
47528481,1012,1012,1012,1012,,,,,
47530980,1012,1012,1012,1012,,,,,
47533479,1013,1013,1013,1013,,,,,
47535978,1014,1014,1014,1014,,,,,
47538477,1015,1015,1015,1015,,,,,
47540976,1015,1015,1015,1015,,,,,
47543475,1016,1016,1016,1016,,,,,
47545974,1017,1017,1017,1017,,,,,
47548473,1018,1018,1018,1018,,,,,
47550972,1018,1018,1018,1018,,,,,
47553471,1019,1019,1019,1019,,,,,
47555970,1020,1020,1020,1020,,,,,
47558469,1021,1021,1021,1021,,,,,
47560968,1021,1021,1021,1021,,,,,
47563467,1022,1022,1022,1022,,,,,
47565966,1023,1023,1023,1023,,,,,
47568465,1024,1024,1024,1024,,,,,
47570964,1024,1024,1024,1024,,,,,
47573463,1025,1025,1025,1025,,,,,
47575962,1026,1026,1026,1026,,,,,
47578461,1027,1027,1027,1027,,,,,
47580960,1027,1027,1027,1027,,,,,
47583459,1028,1028,1028,1028,,,,,
47585958,1029,1029,1029,1029,,,,,
47588457,1030,1030,1030,1030,,,,,
47590956,1030,1030,1030,1030,,,,,
47593455,1031,1031,1031,1031,,,,,
47595954,1032,1032,1032,1032,,,,,
47598453,1033,1033,1033,1033,,,,,
47600952,1033,1033,1033,1033,,,,,
47603451,1034,1034,1034,1034,,,,,
47605950,1035,1035,1035,1035,,,,,
47608449,1036,1036,1036,1036,,,,,
47610948,1036,1036,1036,1036,,,,,
47613447,1037,1037,1037,1037,,,,,
47615946,1038,1038,1038,1038,,,,,
47618445,1039,1039,1039,1039,,,,,
47620944,1039,1039,1039,1039,,,,,
47623443,1040,1040,1040,1040,,,,,
47625942,1041,1041,1041,1041,,,,,
47628441,1042,1042,1042,1042,,,,,
47630940,1042,1042,1042,1042,,,,,
47633439,1043,1043,1043,1043,,,,,
47635938,1044,1044,1044,1044,,,,,
47638437,1045,1045,1045,1045,,,,,
47640936,1045,1045,1045,1045,,,,,
47643435,1046,1046,1046,1046,,,,,
47645934,1047,1047,1047,1047,,,,,
47648433,1048,1048,1048,1048,,,,,
47650932,1048,1048,1048,1048,,,,,
47653431,1049,1049,1049,1049,,,,,
47655930,1050,1050,1050,1050,,,,,
47658429,1051,1051,1051,1051,,,,,
47660928,1051,1051,1051,1051,,,,,
47663427,1052,1052,1052,1052,,,,,
47665926,1053,1053,1053,1053,,,,,
47668425,1054,1054,1054,1054,,,,,
47670924,1054,1054,1054,1054,,,,,
47673423,1055,1055,1055,1055,,,,,
47675922,1056,1056,1056,1056,,,,,
47678421,1057,1057,1057,1057,,,,,
47680920,1057,1057,1057,1057,,,,,
47683419,1058,1058,1058,1058,,,,,
47685918,1059,1059,1059,1059,,,,,
47688417,1060,1060,1060,1060,,,,,
47690916,1060,1060,1060,1060,,,,,
47693415,1061,1061,1061,1061,,,,,
47695914,1062,1062,1062,1062,,,,,
47698413,1063,1063,1063,1063,,,,,
47700912,1063,1063,1063,1063,,,,,
47703411,1064,1064,1064,1064,,,,,
47705910,1065,1065,1065,1065,,,,,
47708409,1066,1066,1066,1066,,,,,
47710908,1066,1066,1066,1066,,,,,
47713407,1067,1067,1067,1067,,,,,
47715906,1068,1068,1068,1068,,,,,
47718405,1069,1069,1069,1069,,,,,
47720904,1069,1069,1069,1069,,,,,
47723403,1070,1070,1070,1070,,,,,
47725902,1071,1071,1071,1071,,,,,
47728401,1072,1072,1072,1072,,,,,
47730900,1072,1072,1072,1072,,,,,
47733399,1073,1073,1073,1073,,,,,
47735898,1074,1074,1074,1074,,,,,
47738397,1075,1075,1075,1075,,,,,
47740896,1075,1075,1075,1075,,,,,
47743395,1076,1076,1076,1076,,,,,
47745894,1077,1077,1077,1077,,,,,
47748393,1078,1078,1078,1078,,,,,
47750892,1078,1078,1078,1078,,,,,
47753391,1079,1079,1079,1079,,,,,
47755890,1080,1080,1080,1080,,,,,
47758389,1081,1081,1081,1081,,,,,
47760888,1081,1081,1081,1081,,,,,
47763387,1082,1082,1082,1082,,,,,
47765886,1083,1083,1083,1083,,,,,
47768385,1084,1084,1084,1084,,,,,
47770884,1084,1084,1084,1084,,,,,
47773383,1085,1085,1085,1085,,,,,
47775882,1086,1086,1086,1086,,,,,
47778381,1087,1087,1087,1087,,,,,
47780880,1087,1087,1087,1087,,,,,
47783379,1088,1088,1088,1088,,,,,
47785878,1089,1089,1089,1089,,,,,
47788377,1090,1090,1090,1090,,,,,
47790876,1090,1090,1090,1090,,,,,
47793375,1091,1091,1091,1091,,,,,
47795874,1092,1092,1092,1092,,,,,
47798373,1093,1093,1093,1093,,,,,
47800872,1093,1093,1093,1093,,,,,
47803371,1094,1094,1094,1094,,,,,
47805870,1095,1095,1095,1095,,,,,
47808369,1096,1096,1096,1096,,,,,
47810868,1096,1096,1096,1096,,,,,
47813367,1097,1097,1097,1097,,,,,
47815866,1098,1098,1098,1098,,,,,
47818365,1099,1099,1099,1099,,,,,
47820864,1099,1099,1099,1099,,,,,
47823363,1100,1100,1100,1100,,,,,
47825862,1101,1101,1101,1101,,,,,
47828361,1101,1101,1101,1101,,,,,
47830860,1102,1102,1102,1102,,,,,
47833359,1103,1103,1103,1103,,,,,
47835858,1104,1104,1104,1104,,,,,
47838357,1104,1104,1104,1104,,,,,
47840856,1105,1105,1105,1105,,,,,
47843355,1106,1106,1106,1106,,,,,
47845854,1107,1107,1107,1107,,,,,
47848353,1107,1107,1107,1107,,,,,
47850852,1108,1108,1108,1108,,,,,
47853351,1109,1109,1109,1109,,,,,
47855850,1110,1110,1110,1110,,,,,
47858349,1110,1110,1110,1110,,,,,
47860848,1111,1111,1111,1111,,,,,
47863347,1112,1112,1112,1112,,,,,
47865846,1113,1113,1113,1113,,,,,
47868345,1113,1113,1113,1113,,,,,
47870844,1114,1114,1114,1114,,,,,
47873343,1115,1115,1115,1115,,,,,
47875842,1116,1116,1116,1116,,,,,
47878341,1116,1116,1116,1116,,,,,
47880840,1117,1117,1117,1117,,,,,
47883339,1118,1118,1118,1118,,,,,
47885838,1119,1119,1119,1119,,,,,
47888337,1119,1119,1119,1119,,,,,
47890836,1120,1120,1120,1120,,,,,
47893335,1121,1121,1121,1121,,,,,
47895834,1122,1122,1122,1122,,,,,
47898333,1122,1122,1122,1122,,,,,
47900832,1123,1123,1123,1123,,,,,
47903331,1124,1124,1124,1124,,,,,
47905830,1125,1125,1125,1125,,,,,
47908329,1125,1125,1125,1125,,,,,
47910828,1126,1126,1126,1126,,,,,
47913327,1127,1127,1127,1127,,,,,
47915826,1128,1128,1128,1128,,,,,
47918325,1128,1128,1128,1128,,,,,
47920824,1129,1129,1129,1129,,,,,
47923323,1130,1130,1130,1130,,,,,
47925822,1131,1131,1131,1131,,,,,
47928321,1131,1131,1131,1131,,,,,
47930820,1132,1132,1132,1132,,,,,
47933319,1133,1133,1133,1133,,,,,
47935818,1134,1134,1134,1134,,,,,
47938317,1134,1134,1134,1134,,,,,
47940816,1135,1135,1135,1135,,,,,
47943315,1136,1136,1136,1136,,,,,
47945814,1137,1137,1137,1137,,,,,
47948313,1137,1137,1137,1137,,,,,
47950812,1138,1138,1138,1138,,,,,
47953311,1139,1139,1139,1139,,,,,
47955810,1140,1140,1140,1140,,,,,
47958309,1140,1140,1140,1140,,,,,
47960808,1141,1141,1141,1141,,,,,
47963307,1142,1142,1142,1142,,,,,
47965806,1143,1143,1143,1143,,,,,
47968305,1143,1143,1143,1143,,,,,
47970804,1144,1144,1144,1144,,,,,
47973303,1145,1145,1145,1145,,,,,
47975802,1146,1146,1146,1146,,,,,
47978301,1146,1146,1146,1146,,,,,
47980800,1147,1147,1147,1147,,,,,
47983299,1148,1148,1148,1148,,,,,
47985798,1149,1149,1149,1149,,,,,
47988297,1149,1149,1149,1149,,,,,
47990796,1150,1150,1150,1150,,,,,
47993295,1161,1154,1155,1161,,,,,
47995794,1169,1162,1163,1169,,,,,
47998293,1177,1170,1171,1177,,,,,
48000792,1184,1178,1179,1185,,,,,
48003291,1192,1186,1186,1192,,,,,
48005790,1199,1193,1194,1200,,,,,
48008289,1207,1201,1201,1207,,,,,
48010788,1214,1208,1208,1214,,,,,
48013287,1221,1215,1216,1221,,,,,
48015786,1228,1222,1223,1228,,,,,
48018285,1235,1229,1230,1235,,,,,
48020784,1242,1236,1236,1242,,,,,
48023283,1248,1243,1243,1249,,,,,
48025782,1255,1250,1250,1255,,,,,
48028281,1261,1256,1256,1262,,,,,
48030780,1268,1263,1263,1268,,,,,
48033279,1274,1269,1269,1275,,,,,
48035778,1281,1275,1276,1281,,,,,
48038277,1287,1282,1282,1287,,,,,
48040776,1293,1288,1288,1293,,,,,
48043275,1299,1294,1294,1299,,,,,
48045774,1305,1300,1300,1305,,,,,
48048273,1311,1306,1306,1311,,,,,
48050772,1317,1312,1312,1317,,,,,
48053271,1323,1318,1318,1323,,,,,
48055770,1328,1324,1324,1329,,,,,
48058269,1334,1329,1330,1335,,,,,
48060768,1340,1335,1335,1340,,,,,
48063267,1345,1341,1341,1346,,,,,
48065766,1351,1346,1347,1351,,,,,
48068265,1357,1352,1352,1357,,,,,
48070764,1362,1357,1358,1362,,,,,
48073263,1367,1363,1363,1368,,,,,
48075762,1373,1368,1368,1373,,,,,
48078261,1378,1373,1374,1378,,,,,
48080760,1383,1379,1379,1384,,,,,
48083259,1389,1384,1384,1389,,,,,
48085758,1394,1389,1389,1394,,,,,
48088257,1399,1394,1395,1399,,,,,
48090756,1404,1399,1400,1404,,,,,
48093255,1409,1404,1405,1409,,,,,
48095754,1414,1409,1410,1414,,,,,
48098253,1419,1414,1415,1419,,,,,
48100752,1424,1419,1420,1424,,,,,
48103251,1429,1424,1425,1429,,,,,
48105750,1434,1429,1430,1434,,,,,
48108249,1439,1434,1434,1439,,,,,
48110748,1444,1439,1439,1444,,,,,
48113247,1448,1444,1444,1448,,,,,
48115746,1453,1448,1449,1453,,,,,
48118245,1458,1453,1454,1458,,,,,
48120744,1462,1458,1458,1463,,,,,
48123243,1467,1463,1463,1467,,,,,
48125742,1472,1467,1468,1472,,,,,
48128241,1476,1472,1472,1476,,,,,
48130740,1481,1476,1477,1481,,,,,
48133239,1485,1481,1481,1485,,,,,
48135738,1490,1485,1486,1490,,,,,
48138237,1494,1490,1490,1494,,,,,
48140736,1499,1494,1495,1499,,,,,
48143235,1503,1499,1499,1503,,,,,
48145734,1508,1503,1504,1508,,,,,
48148233,1512,1508,1508,1512,,,,,
48150732,1516,1512,1512,1516,,,,,
48153231,1521,1516,1517,1521,,,,,
48155730,1525,1521,1521,1525,,,,,
48158229,1529,1525,1525,1529,,,,,
48160728,1534,1529,1530,1534,,,,,
48163227,1538,1533,1534,1538,,,,,
48165726,1542,1538,1538,1542,,,,,
48168225,1546,1542,1542,1546,,,,,
48170724,1550,1546,1546,1550,,,,,
48173223,1554,1550,1550,1555,,,,,
48175722,1559,1554,1555,1559,,,,,
48178221,1563,1558,1559,1563,,,,,
48180720,1567,1562,1563,1567,,,,,
48183219,1571,1566,1567,1571,,,,,
48185718,1575,1571,1571,1575,,,,,
48188217,1579,1575,1575,1579,,,,,
48190716,1583,1579,1579,1583,,,,,
48193215,1587,1583,1583,1587,,,,,
48195714,1591,1587,1587,1591,,,,,
48198213,1595,1590,1591,1595,,,,,
48200712,1599,1594,1595,1599,,,,,
48203211,1603,1598,1599,1603,,,,,
48205710,1606,1602,1603,1607,,,,,
48208209,1610,1606,1606,1610,,,,,
48210708,1614,1610,1610,1614,,,,,
48213207,1618,1614,1614,1618,,,,,
48215706,1622,1618,1618,1622,,,,,
48218205,1626,1621,1622,1626,,,,,
48220704,1629,1625,1625,1630,,,,,
48223203,1633,1629,1629,1633,,,,,
48225702,1637,1633,1633,1637,,,,,
48228201,1641,1637,1637,1641,,,,,
48230700,1644,1640,1640,1645,,,,,
48233199,1648,1644,1644,1648,,,,,
48235698,1652,1648,1648,1652,,,,,
48238197,1655,1651,1652,1656,,,,,
48240696,1659,1655,1655,1659,,,,,
48243195,1663,1659,1659,1663,,,,,
48245694,1666,1662,1663,1667,,,,,
48248193,1670,1666,1666,1670,,,,,
48250692,1673,1670,1670,1674,,,,,
48253191,1677,1673,1673,1677,,,,,
48255690,1681,1677,1677,1681,,,,,
48258189,1684,1680,1681,1685,,,,,
48260688,1688,1684,1684,1688,,,,,
48263187,1691,1688,1688,1692,,,,,
48265686,1695,1691,1691,1695,,,,,
48268185,1698,1695,1695,1699,,,,,
48270684,1702,1698,1698,1702,,,,,
48273183,1705,1702,1702,1706,,,,,
48275682,1709,1705,1705,1709,,,,,
48278181,1712,1709,1709,1713,,,,,
48280680,1716,1712,1712,1716,,,,,
48283179,1719,1715,1715,1719,,,,,
48285678,1722,1719,1719,1723,,,,,
48288177,1726,1722,1722,1726,,,,,
48290676,1729,1726,1726,1730,,,,,
48293175,1733,1729,1729,1733,,,,,
48295674,1736,1733,1732,1736,,,,,
48298173,1739,1736,1736,1740,,,,,
48300672,1743,1739,1739,1743,,,,,
48303171,1746,1743,1743,1746,,,,,
48305670,1749,1746,1746,1750,,,,,
48308169,1753,1749,1749,1753,,,,,
48310668,1756,1753,1753,1756,,,,,
48313167,1759,1756,1756,1760,,,,,
48315666,1763,1759,1759,1763,,,,,
48318165,1766,1762,1762,1766,,,,,
48320664,1769,1766,1766,1770,,,,,
48323163,1772,1769,1769,1773,,,,,
48325662,1776,1772,1772,1776,,,,,
48328161,1779,1775,1775,1779,,,,,
48330660,1782,1779,1779,1782,,,,,
48333159,1785,1782,1782,1786,,,,,
48335658,1789,1785,1785,1789,,,,,
48338157,1792,1788,1788,1792,,,,,
48340656,1795,1791,1791,1795,,,,,
48343155,1798,1795,1795,1798,,,,,
48345654,1801,1798,1798,1802,,,,,
48348986,1804,1801,1801,1805,,,,,
48351485,1808,1804,1804,1808,,,,,
48353984,1811,1807,1807,1811,,,,,
48356483,1814,1810,1810,1814,,,,,
48358982,1817,1813,1813,1817,,,,,
48361481,1820,1817,1817,1820,,,,,
48363980,1823,1820,1820,1823,,,,,
48366479,1826,1823,1823,1827,,,,,
48368978,1829,1826,1826,1830,,,,,
48371477,1832,1829,1829,1833,,,,,
48373976,1835,1832,1832,1836,,,,,
48376475,1839,1835,1835,1839,,,,,
48378974,1842,1838,1838,1842,,,,,
48381473,1845,1841,1841,1845,,,,,
48383972,1848,1844,1844,1848,,,,,
48386471,1851,1847,1847,1851,,,,,
48388970,1854,1850,1850,1854,,,,,
48391469,1857,1853,1853,1857,,,,,
48393968,1860,1856,1856,1860,,,,,
48396467,1863,1859,1859,1863,,,,,
48398966,1866,1862,1862,1866,,,,,
48401465,1869,1865,1865,1869,,,,,
48403964,1871,1868,1868,1872,,,,,
48406463,1874,1871,1871,1875,,,,,
48408962,1877,1874,1874,1878,,,,,
48411461,1880,1877,1877,1881,,,,,
48413960,1883,1880,1880,1884,,,,,
48416459,1886,1883,1883,1887,,,,,
48418958,1889,1886,1886,1890,,,,,
48421457,1892,1889,1889,1893,,,,,
48423956,1895,1892,1891,1896,,,,,
48426455,1898,1895,1894,1898,,,,,
48428954,1901,1898,1897,1901,,,,,
48431453,1901,1898,1897,1902,,,,,
48433952,1900,1897,1896,1901,,,,,
48436451,1899,1896,1896,1900,,,,,
48438950,1898,1895,1895,1899,,,,,
48441449,1897,1894,1894,1898,,,,,
48443948,1896,1893,1893,1897,,,,,
48446447,1895,1892,1892,1896,,,,,
48448946,1895,1892,1891,1896,,,,,
48451445,1894,1891,1890,1895,,,,,
48453944,1893,1890,1890,1894,,,,,
48456443,1893,1890,1889,1894,,,,,
48458942,1892,1889,1889,1893,,,,,
48461441,1892,1889,1888,1893,,,,,
48463940,1891,1888,1888,1892,,,,,
48466439,1891,1888,1887,1892,,,,,
48468938,1891,1888,1887,1892,,,,,
48471437,1891,1888,1887,1892,,,,,
48473936,1891,1888,1887,1892,,,,,
48476435,1891,1888,1887,1892,,,,,
48478934,1891,1888,1887,1892,,,,,
48481433,1891,1888,1888,1892,,,,,
48483932,1891,1888,1888,1892,,,,,
48486431,1891,1889,1888,1892,,,,,
48488930,1892,1889,1888,1893,,,,,
48491429,1892,1889,1889,1893,,,,,
48493928,1892,1890,1889,1893,,,,,
48496427,1892,1890,1889,1893,,,,,
48498926,1892,1890,1889,1893,,,,,
48501425,1892,1890,1889,1893,,,,,
48503924,1892,1890,1889,1892,,,,,
48506423,1891,1889,1889,1892,,,,,
48508922,1891,1889,1888,1891,,,,,
48511421,1890,1888,1888,1891,,,,,
48513920,1889,1887,1887,1890,,,,,
48516419,1888,1886,1886,1889,,,,,
48518918,1887,1885,1885,1888,,,,,
48521417,1886,1884,1884,1886,,,,,
48523916,1884,1882,1882,1885,,,,,
48526415,1883,1881,1880,1883,,,,,
48528914,1881,1879,1879,1881,,,,,
48531413,1879,1877,1877,1880,,,,,
48533912,1877,1875,1875,1878,,,,,
48536411,1875,1873,1873,1875,,,,,
48538910,1872,1871,1870,1873,,,,,
48541409,1870,1868,1868,1871,,,,,
48543908,1868,1866,1866,1868,,,,,
48546407,1865,1863,1863,1866,,,,,
48548906,1862,1861,1860,1863,,,,,
48551405,1859,1858,1858,1860,,,,,
48553904,1857,1855,1855,1857,,,,,
48556403,1854,1852,1852,1854,,,,,
48558902,1851,1849,1849,1851,,,,,
48561401,1847,1846,1846,1848,,,,,
48563900,1844,1843,1843,1845,,,,,
48566399,1841,1840,1840,1842,,,,,
48568898,1838,1837,1837,1839,,,,,
48571397,1835,1834,1833,1835,,,,,
48573896,1831,1830,1830,1832,,,,,
48576395,1828,1827,1827,1829,,,,,
48578894,1825,1824,1823,1825,,,,,
48581393,1821,1821,1820,1822,,,,,
48583892,1818,1817,1817,1819,,,,,
48586391,1814,1814,1813,1815,,,,,
48588890,1811,1810,1810,1812,,,,,
48591389,1808,1807,1807,1808,,,,,
48593888,1804,1804,1803,1805,,,,,
48596387,1801,1800,1800,1801,,,,,
48598886,1797,1797,1797,1798,,,,,
48601385,1794,1793,1793,1795,,,,,
48603884,1790,1790,1790,1791,,,,,
48606383,1787,1787,1786,1788,,,,,
48608882,1784,1783,1783,1784,,,,,
48611381,1780,1780,1780,1781,,,,,
48613880,1777,1776,1776,1777,,,,,
48616379,1773,1773,1773,1774,,,,,
48618878,1770,1770,1770,1771,,,,,
48621377,1767,1766,1766,1767,,,,,
48623876,1763,1763,1763,1764,,,,,
48626375,1760,1760,1760,1760,,,,,
48628874,1757,1756,1757,1757,,,,,
48631373,1754,1753,1753,1754,,,,,
48633872,1750,1750,1750,1751,,,,,
48636371,1747,1747,1747,1747,,,,,
48638870,1744,1744,1744,1744,,,,,
48641369,1741,1740,1741,1741,,,,,
48643868,1738,1737,1738,1738,,,,,
48646367,1735,1734,1735,1735,,,,,
48648866,1732,1731,1732,1732,,,,,
48651365,1729,1728,1729,1729,,,,,
48653864,1726,1725,1726,1726,,,,,
48656363,1723,1722,1723,1723,,,,,
48658862,1720,1720,1720,1720,,,,,
48661361,1717,1717,1717,1717,,,,,
48663860,1714,1714,1714,1714,,,,,
48666359,1711,1711,1711,1711,,,,,
48668858,1708,1708,1709,1709,,,,,
48671357,1706,1706,1706,1706,,,,,
48673856,1703,1703,1703,1703,,,,,
48676355,1700,1700,1701,1700,,,,,
48678854,1698,1698,1698,1698,,,,,
48681353,1695,1695,1696,1695,,,,,
48683852,1693,1693,1693,1693,,,,,
48686351,1690,1690,1690,1690,,,,,
48688850,1688,1688,1688,1688,,,,,
48691349,1685,1685,1686,1685,,,,,
48693848,1683,1683,1683,1683,,,,,
48696347,1681,1680,1681,1680,,,,,
48698846,1678,1678,1679,1678,,,,,
48701345,1676,1676,1676,1676,,,,,
48703844,1674,1674,1674,1674,,,,,
48706343,1672,1672,1672,1671,,,,,
48708842,1670,1670,1670,1669,,,,,
48711341,1668,1668,1668,1667,,,,,
48713840,1666,1666,1666,1665,,,,,
48716339,1664,1664,1664,1664,,,,,
48718838,1662,1662,1663,1662,,,,,
48721337,1660,1660,1661,1660,,,,,
48723836,1658,1659,1659,1658,,,,,
48726335,1657,1657,1657,1657,,,,,
48728834,1655,1655,1656,1655,,,,,
48731333,1653,1654,1654,1653,,,,,
48733832,1652,1652,1653,1652,,,,,
48736331,1650,1651,1651,1650,,,,,
48738830,1649,1649,1650,1649,,,,,
48741329,1648,1648,1649,1647,,,,,
48743828,1646,1647,1647,1646,,,,,
48746327,1645,1645,1646,1645,,,,,
48748826,1644,1644,1645,1643,,,,,
48751325,1642,1643,1644,1642,,,,,
48753824,1641,1642,1642,1641,,,,,
48756323,1640,1641,1641,1640,,,,,
