timestamp,TimeUS,C1,C2,C3,C4,C5,C6,C7,C8,C9,C10,C11,C12,C13,C14
1683105177.20000005,59828559,1000,1000,1000,1000,0,0,0,0,0,0,0,0,0,0
1683105177.29996014,59928519,1000,1000,1000,1000,0,0,0,0,0,0,0,0,0,0
1683105177.39992023,60028479,1000,1000,1000,1000,0,0,0,0,0,0,0,0,0,0
1683105177.49988008,60128439,1000,1000,1000,1000,0,0,0,0,0,0,0,0,0,0
1683105177.59984016,60228399,1000,1000,1000,1000,0,0,0,0,0,0,0,0,0,0
1683105177.69980001,60328359,1000,1000,1000,1000,0,0,0,0,0,0,0,0,0,0
1683105177.79976010,60428319,1000,1000,1000,1000,0,0,0,0,0,0,0,0,0,0
1683105177.89972019,60528279,1000,1000,1000,1000,0,0,0,0,0,0,0,0,0,0
1683105177.99968004,60628239,1000,1000,1000,1000,0,0,0,0,0,0,0,0,0,0
1683105178.09964013,60728199,1000,1000,1000,1000,0,0,0,0,0,0,0,0,0,0
1683105178.19960022,60828159,1000,1000,1000,1000,0,0,0,0,0,0,0,0,0,0
1683105178.30039310,60928952,1000,1000,1000,1000,0,0,0,0,0,0,0,0,0,0
1683105178.40035319,61028912,1000,1000,1000,1000,0,0,0,0,0,0,0,0,0,0
1683105178.50031304,61128872,1000,1000,1000,1000,0,0,0,0,0,0,0,0,0,0
1683105178.60027313,61228832,1000,1000,1000,1000,0,0,0,0,0,0,0,0,0,0
1683105178.70023322,61328792,1000,1000,1000,1000,0,0,0,0,0,0,0,0,0,0
1683105178.80019307,61428752,1000,1000,1000,1000,0,0,0,0,0,0,0,0,0,0
1683105178.90015316,61528712,1000,1000,1000,1000,0,0,0,0,0,0,0,0,0,0
1683105179.00011301,61628672,1000,1000,1000,1000,0,0,0,0,0,0,0,0,0,0
1683105179.10007310,61728632,1000,1000,1000,1000,0,0,0,0,0,0,0,0,0,0
1683105179.20003319,61828592,1004,1004,1004,1004,0,0,0,0,0,0,0,0,0,0
1683105179.29999304,61928552,1034,1034,1034,1034,0,0,0,0,0,0,0,0,0,0
1683105179.39995313,62028512,1064,1064,1064,1064,0,0,0,0,0,0,0,0,0,0
1683105179.49991322,62128472,1094,1094,1094,1094,0,0,0,0,0,0,0,0,0,0
1683105179.59987307,62228432,1124,1124,1124,1124,0,0,0,0,0,0,0,0,0,0
1683105179.69983315,62328392,1193,1184,1185,1194,0,0,0,0,0,0,0,0,0,0
1683105179.79979324,62428352,1430,1424,1424,1430,0,0,0,0,0,0,0,0,0,0
1683105179.89975309,62528312,1603,1597,1598,1603,0,0,0,0,0,0,0,0,0,0
1683105179.99971318,62628272,1747,1742,1742,1747,0,0,0,0,0,0,0,0,0,0
1683105180.09967303,62728232,1872,1867,1867,1873,0,0,0,0,0,0,0,0,0,0
1683105180.19963312,62828192,1897,1893,1893,1897,0,0,0,0,0,0,0,0,0,0
1683105180.30042624,62928985,1793,1792,1791,1794,0,0,0,0,0,0,0,0,0,0
1683105180.40038610,63028945,1671,1672,1669,1674,0,0,0,0,0,0,0,0,0,0
1683105180.50034618,63128905,1620,1621,1619,1622,0,0,0,0,0,0,0,0,0,0
1683105180.60030603,63228865,1617,1619,1618,1618,0,0,0,0,0,0,0,0,0,0
1683105180.70026612,63328825,1624,1626,1626,1624,0,0,0,0,0,0,0,0,0,0
1683105180.80022621,63428785,1627,1628,1629,1626,0,0,0,0,0,0,0,0,0,0
1683105180.90018606,63528745,1622,1622,1623,1621,0,0,0,0,0,0,0,0,0,0
1683105181.00014615,63628705,1618,1618,1618,1618,0,0,0,0,0,0,0,0,0,0
1683105181.10010624,63728665,1616,1615,1615,1615,0,0,0,0,0,0,0,0,0,0
1683105181.20006609,63828625,1615,1614,1614,1614,0,0,0,0,0,0,0,0,0,0
1683105181.30002618,63928585,1616,1615,1616,1615,0,0,0,0,0,0,0,0,0,0
1683105181.39998603,64028545,1618,1618,1618,1617,0,0,0,0,0,0,0,0,0,0
1683105181.49994612,64128505,1598,1598,1602,1594,0,0,0,0,0,0,0,0,0,0
1683105181.59990621,64228465,1578,1579,1586,1571,0,0,0,0,0,0,0,0,0,0
1683105181.69986606,64328425,1565,1566,1569,1563,0,0,0,0,0,0,0,0,0,0
1683105181.79982615,64428385,1557,1557,1556,1558,0,0,0,0,0,0,0,0,0,0
1683105181.89978623,64528345,1550,1549,1543,1556,0,0,0,0,0,0,0,0,0,0
1683105181.99974608,64628305,1543,1542,1533,1551,0,0,0,0,0,0,0,0,0,0
1683105182.09970617,64728265,1536,1536,1529,1543,0,0,0,0,0,0,0,0,0,0
1683105182.19966602,64828225,1531,1530,1527,1533,0,0,0,0,0,0,0,0,0,0
1683105182.29962611,64928185,1528,1528,1527,1528,0,0,0,0,0,0,0,0,0,0
1683105182.40041924,65028978,1528,1529,1530,1527,0,0,0,0,0,0,0,0,0,0
1683105182.50037909,65128938,1530,1530,1533,1528,0,0,0,0,0,0,0,0,0,0
1683105182.60033917,65228898,1533,1533,1536,1530,0,0,0,0,0,0,0,0,0,0
1683105182.70029902,65328858,1537,1536,1539,1534,0,0,0,0,0,0,0,0,0,0
1683105182.80025911,65428818,1540,1540,1542,1538,0,0,0,0,0,0,0,0,0,0
1683105182.90021920,65528778,1543,1543,1544,1543,0,0,0,0,0,0,0,0,0,0
1683105183.00017905,65628738,1546,1546,1546,1546,0,0,0,0,0,0,0,0,0,0
1683105183.10013914,65728698,1550,1550,1549,1550,0,0,0,0,0,0,0,0,0,0
1683105183.20009923,65828658,1553,1553,1552,1554,0,0,0,0,0,0,0,0,0,0
1683105183.30005908,65928618,1555,1554,1553,1556,0,0,0,0,0,0,0,0,0,0
1683105183.40001917,66028578,1552,1552,1559,1562,0,0,0,0,0,0,0,0,0,0
1683105183.49997902,66128538,1553,1554,1564,1566,0,0,0,0,0,0,0,0,0,0
1683105183.59993911,66228498,1555,1556,1564,1565,0,0,0,0,0,0,0,0,0,0
1683105183.69989920,66328458,1559,1559,1565,1564,0,0,0,0,0,0,0,0,0,0
1683105183.79985905,66428418,1563,1563,1565,1564,0,0,0,0,0,0,0,0,0,0
1683105183.89981914,66528378,1566,1566,1565,1564,0,0,0,0,0,0,0,0,0,0
1683105183.99977922,66628338,1568,1569,1564,1564,0,0,0,0,0,0,0,0,0,0
1683105184.09973907,66728298,1570,1570,1565,1564,0,0,0,0,0,0,0,0,0,0
1683105184.19969916,66828258,1572,1572,1565,1565,0,0,0,0,0,0,0,0,0,0
1683105184.29965901,66928218,1573,1573,1566,1567,0,0,0,0,0,0,0,0,0,0
1683105184.39961910,67028178,1575,1574,1568,1568,0,0,0,0,0,0,0,0,0,0
1683105184.50041223,67128971,1574,1573,1568,1569,0,0,0,0,0,0,0,0,0,0
1683105184.60037208,67228931,1574,1573,1570,1571,0,0,0,0,0,0,0,0,0,0
1683105184.70033216,67328891,1574,1574,1573,1573,0,0,0,0,0,0,0,0,0,0
1683105184.80029202,67428851,1574,1574,1575,1573,0,0,0,0,0,0,0,0,0,0
1683105184.90025210,67528811,1574,1574,1576,1575,0,0,0,0,0,0,0,0,0,0
1683105185.00021219,67628771,1574,1575,1578,1576,0,0,0,0,0,0,0,0,0,0
1683105185.10017204,67728731,1575,1575,1578,1577,0,0,0,0,0,0,0,0,0,0
1683105185.20013213,67828691,1575,1575,1578,1578,0,0,0,0,0,0,0,0,0,0
1683105185.30009222,67928651,1575,1575,1577,1578,0,0,0,0,0,0,0,0,0,0
1683105185.40005207,68028611,1575,1576,1578,1577,0,0,0,0,0,0,0,0,0,0
1683105185.50001216,68128571,1577,1577,1578,1578,0,0,0,0,0,0,0,0,0,0
1683105185.59997201,68228531,1577,1576,1577,1578,0,0,0,0,0,0,0,0,0,0
1683105185.69993210,68328491,1577,1577,1577,1577,0,0,0,0,0,0,0,0,0,0
1683105185.79989219,68428451,1577,1577,1576,1576,0,0,0,0,0,0,0,0,0,0
1683105185.89985204,68528411,1579,1578,1578,1578,0,0,0,0,0,0,0,0,0,0
1683105185.99981213,68628371,1578,1578,1578,1577,0,0,0,0,0,0,0,0,0,0
1683105186.09977221,68728331,1579,1578,1578,1578,0,0,0,0,0,0,0,0,0,0
1683105186.19973207,68828291,1578,1578,1577,1577,0,0,0,0,0,0,0,0,0,0
1683105186.29969215,68928251,1578,1578,1577,1577,0,0,0,0,0,0,0,0,0,0
1683105186.39965224,69028211,1578,1578,1578,1578,0,0,0,0,0,0,0,0,0,0
1683105186.49961209,69128171,1578,1578,1578,1578,0,0,0,0,0,0,0,0,0,0
1683105186.60040522,69228964,1577,1578,1578,1578,0,0,0,0,0,0,0,0,0,0
1683105186.70036507,69328924,1578,1578,1578,1579,0,0,0,0,0,0,0,0,0,0
1683105186.80032516,69428884,1578,1578,1579,1578,0,0,0,0,0,0,0,0,0,0
1683105186.90028524,69528844,1579,1579,1579,1579,0,0,0,0,0,0,0,0,0,0
1683105187.00024509,69628804,1579,1579,1579,1579,0,0,0,0,0,0,0,0,0,0
1683105187.10020518,69728764,1578,1578,1578,1579,0,0,0,0,0,0,0,0,0,0
1683105187.20016503,69828724,1579,1579,1579,1579,0,0,0,0,0,0,0,0,0,0
1683105187.30012512,69928684,1578,1578,1579,1579,0,0,0,0,0,0,0,0,0,0
1683105187.40008521,70028644,1580,1580,1580,1580,0,0,0,0,0,0,0,0,0,0
1683105187.50004506,70128604,1580,1580,1580,1580,0,0,0,0,0,0,0,0,0,0
1683105187.60000515,70228564,1580,1580,1580,1580,0,0,0,0,0,0,0,0,0,0
1683105187.69996524,70328524,1580,1580,1580,1580,0,0,0,0,0,0,0,0,0,0
1683105187.79992509,70428484,1580,1580,1580,1581,0,0,0,0,0,0,0,0,0,0
1683105187.89988518,70528444,1580,1581,1580,1581,0,0,0,0,0,0,0,0,0,0
1683105187.99984503,70628404,1580,1581,1581,1580,0,0,0,0,0,0,0,0,0,0
1683105188.09980512,70728364,1580,1580,1580,1580,0,0,0,0,0,0,0,0,0,0
1683105188.19976521,70828324,1581,1580,1580,1580,0,0,0,0,0,0,0,0,0,0
1683105188.29972506,70928284,1580,1580,1580,1580,0,0,0,0,0,0,0,0,0,0
1683105188.39968514,71028244,1581,1581,1581,1581,0,0,0,0,0,0,0,0,0,0
1683105188.49964523,71128204,1580,1580,1580,1580,0,0,0,0,0,0,0,0,0,0
1683105188.59960508,71228164,1580,1580,1580,1580,0,0,0,0,0,0,0,0,0,0
1683105188.70039821,71328957,1580,1580,1580,1580,0,0,0,0,0,0,0,0,0,0
1683105188.80035806,71428917,1579,1579,1579,1579,0,0,0,0,0,0,0,0,0,0
1683105188.90031815,71528877,1580,1580,1580,1580,0,0,0,0,0,0,0,0,0,0
1683105189.00027823,71628837,1580,1580,1580,1580,0,0,0,0,0,0,0,0,0,0
1683105189.10023808,71728797,1580,1580,1580,1580,0,0,0,0,0,0,0,0,0,0
1683105189.20019817,71828757,1581,1581,1580,1581,0,0,0,0,0,0,0,0,0,0
1683105189.30015802,71928717,1580,1579,1580,1580,0,0,0,0,0,0,0,0,0,0
1683105189.40011811,72028677,1580,1579,1580,1580,0,0,0,0,0,0,0,0,0,0
1683105189.50007820,72128637,1581,1580,1580,1581,0,0,0,0,0,0,0,0,0,0
1683105189.60003805,72228597,1580,1582,1587,1574,0,0,0,0,0,0,0,0,0,0
1683105189.69999814,72328557,1580,1583,1586,1573,0,0,0,0,0,0,0,0,0,0
1683105189.79995823,72428517,1579,1582,1578,1573,0,0,0,0,0,0,0,0,0,0
1683105189.89991808,72528477,1577,1580,1569,1572,0,0,0,0,0,0,0,0,0,0
1683105189.99987817,72628437,1577,1579,1562,1569,0,0,0,0,0,0,0,0,0,0
1683105190.09983802,72728397,1578,1578,1557,1564,0,0,0,0,0,0,0,0,0,0
1683105190.19979811,72828357,1579,1579,1556,1560,0,0,0,0,0,0,0,0,0,0
1683105190.29975820,72928317,1580,1578,1556,1556,0,0,0,0,0,0,0,0,0,0
1683105190.39971805,73028277,1579,1578,1555,1554,0,0,0,0,0,0,0,0,0,0
1683105190.49967813,73128237,1578,1578,1556,1554,0,0,0,0,0,0,0,0,0,0
1683105190.59963822,73228197,1577,1577,1555,1553,0,0,0,0,0,0,0,0,0,0
1683105190.69959807,73328157,1576,1577,1555,1554,0,0,0,0,0,0,0,0,0,0
1683105190.80039120,73428950,1575,1576,1554,1553,0,0,0,0,0,0,0,0,0,0
1683105190.90035105,73528910,1575,1576,1553,1553,0,0,0,0,0,0,0,0,0,0
1683105191.00031114,73628870,1575,1577,1552,1552,0,0,0,0,0,0,0,0,0,0
1683105191.10027122,73728830,1576,1578,1550,1551,0,0,0,0,0,0,0,0,0,0
1683105191.20023108,73828790,1578,1579,1548,1548,0,0,0,0,0,0,0,0,0,0
1683105191.30019116,73928750,1582,1582,1547,1547,0,0,0,0,0,0,0,0,0,0
1683105191.40015101,74028710,1584,1585,1544,1544,0,0,0,0,0,0,0,0,0,0
1683105191.50011110,74128670,1587,1588,1541,1540,0,0,0,0,0,0,0,0,0,0
1683105191.60007119,74228630,1590,1591,1538,1538,0,0,0,0,0,0,0,0,0,0
1683105191.70003104,74328590,1593,1593,1536,1537,0,0,0,0,0,0,0,0,0,0
1683105191.79999113,74428550,1594,1594,1535,1535,0,0,0,0,0,0,0,0,0,0
1683105191.89995122,74528510,1596,1596,1536,1536,0,0,0,0,0,0,0,0,0,0
1683105191.99991107,74628470,1596,1596,1537,1539,0,0,0,0,0,0,0,0,0,0
1683105192.09987116,74728430,1593,1593,1539,1542,0,0,0,0,0,0,0,0,0,0
1683105192.19983101,74828390,1590,1589,1544,1548,0,0,0,0,0,0,0,0,0,0
1683105192.29979110,74928350,1585,1582,1552,1555,0,0,0,0,0,0,0,0,0,0
1683105192.39975119,75028310,1575,1572,1561,1563,0,0,0,0,0,0,0,0,0,0
1683105192.49971104,75128270,1566,1561,1573,1575,0,0,0,0,0,0,0,0,0,0
1683105192.59967113,75228230,1554,1550,1585,1586,0,0,0,0,0,0,0,0,0,0
1683105192.69963121,75328190,1543,1541,1597,1597,0,0,0,0,0,0,0,0,0,0
1683105192.80042410,75428983,1534,1534,1607,1606,0,0,0,0,0,0,0,0,0,0
1683105192.90038419,75528943,1529,1530,1613,1612,0,0,0,0,0,0,0,0,0,0
1683105193.00034404,75628903,1528,1530,1615,1614,0,0,0,0,0,0,0,0,0,0
1683105193.10030413,75728863,1530,1533,1614,1613,0,0,0,0,0,0,0,0,0,0
1683105193.20026422,75828823,1536,1538,1609,1609,0,0,0,0,0,0,0,0,0,0
1683105193.30022407,75928783,1543,1545,1603,1604,0,0,0,0,0,0,0,0,0,0
1683105193.40018415,76028743,1553,1554,1596,1597,0,0,0,0,0,0,0,0,0,0
1683105193.50014424,76128703,1562,1562,1589,1588,0,0,0,0,0,0,0,0,0,0
1683105193.60010409,76228663,1570,1570,1582,1581,0,0,0,0,0,0,0,0,0,0
1683105193.70006418,76328623,1578,1577,1576,1575,0,0,0,0,0,0,0,0,0,0
1683105193.80002403,76428583,1583,1582,1571,1571,0,0,0,0,0,0,0,0,0,0
1683105193.89998412,76528543,1587,1586,1568,1568,0,0,0,0,0,0,0,0,0,0
1683105193.99994421,76628503,1588,1587,1566,1566,0,0,0,0,0,0,0,0,0,0
1683105194.09990406,76728463,1588,1587,1567,1567,0,0,0,0,0,0,0,0,0,0
1683105194.19986415,76828423,1585,1584,1567,1567,0,0,0,0,0,0,0,0,0,0
1683105194.29982424,76928383,1584,1584,1571,1571,0,0,0,0,0,0,0,0,0,0
1683105194.39978409,77028343,1581,1581,1574,1574,0,0,0,0,0,0,0,0,0,0
1683105194.49974418,77128303,1578,1579,1577,1577,0,0,0,0,0,0,0,0,0,0
1683105194.59970403,77228263,1575,1576,1579,1579,0,0,0,0,0,0,0,0,0,0
1683105194.69966412,77328223,1574,1574,1582,1581,0,0,0,0,0,0,0,0,0,0
1683105194.79962420,77428183,1573,1573,1583,1583,0,0,0,0,0,0,0,0,0,0
1683105194.90041709,77528976,1572,1572,1584,1583,0,0,0,0,0,0,0,0,0,0
1683105195.00037718,77628936,1572,1573,1584,1584,0,0,0,0,0,0,0,0,0,0
1683105195.10033703,77728896,1573,1574,1583,1583,0,0,0,0,0,0,0,0,0,0
1683105195.20029712,77828856,1575,1575,1582,1583,0,0,0,0,0,0,0,0,0,0
1683105195.30025721,77928816,1576,1576,1581,1581,0,0,0,0,0,0,0,0,0,0
1683105195.40021706,78028776,1578,1578,1580,1580,0,0,0,0,0,0,0,0,0,0
1683105195.50017715,78128736,1579,1579,1580,1579,0,0,0,0,0,0,0,0,0,0
1683105195.60013723,78228696,1579,1579,1578,1578,0,0,0,0,0,0,0,0,0,0
1683105195.70009708,78328656,1581,1580,1577,1578,0,0,0,0,0,0,0,0,0,0
1683105195.80005717,78428616,1582,1581,1578,1577,0,0,0,0,0,0,0,0,0,0
1683105195.90001702,78528576,1582,1581,1577,1577,0,0,0,0,0,0,0,0,0,0
1683105195.99997711,78628536,1582,1581,1577,1577,0,0,0,0,0,0,0,0,0,0
1683105196.09993720,78728496,1581,1581,1578,1578,0,0,0,0,0,0,0,0,0,0
1683105196.19989705,78828456,1580,1580,1578,1578,0,0,0,0,0,0,0,0,0,0
1683105196.29985714,78928416,1580,1580,1579,1578,0,0,0,0,0,0,0,0,0,0
1683105196.39981723,79028376,1580,1580,1579,1580,0,0,0,0,0,0,0,0,0,0
1683105196.49977708,79128336,1580,1580,1580,1580,0,0,0,0,0,0,0,0,0,0
1683105196.59973717,79228296,1579,1579,1580,1580,0,0,0,0,0,0,0,0,0,0
1683105196.69969702,79328256,1579,1580,1581,1581,0,0,0,0,0,0,0,0,0,0
1683105196.79965711,79428216,1579,1580,1581,1581,0,0,0,0,0,0,0,0,0,0
1683105196.89961720,79528176,1579,1579,1581,1581,0,0,0,0,0,0,0,0,0,0
1683105197.00041008,79628969,1580,1580,1581,1582,0,0,0,0,0,0,0,0,0,0
1683105197.10037017,79728929,1580,1579,1581,1581,0,0,0,0,0,0,0,0,0,0
1683105197.20033002,79828889,1363,1367,1638,1646,0,0,0,0,0,0,0,0,0,0
1683105197.30029011,79928849,1430,1438,1645,1649,0,0,0,0,0,0,0,0,0,0
1683105197.40025020,80028809,1489,1500,1634,1630,0,0,0,0,0,0,0,0,0,0
1683105197.50021005,80128769,1540,1546,1623,1614,0,0,0,0,0,0,0,0,0,0
1683105197.60017014,80228729,1578,1578,1618,1599,0,0,0,0,0,0,0,0,0,0
1683105197.70013022,80328689,1611,1596,1611,1592,0,0,0,0,0,0,0,0,0,0
1683105197.80009007,80428649,1641,1617,1582,1583,0,0,0,0,0,0,0,0,0,0
1683105197.90005016,80528609,1650,1628,1530,1548,0,0,0,0,0,0,0,0,0,0
1683105198.00001001,80628569,1650,1641,1526,1546,0,0,0,0,0,0,0,0,0,0
1683105198.09997010,80728529,1645,1650,1548,1559,0,0,0,0,0,0,0,0,0,0
1683105198.19993019,80828489,1636,1649,1566,1565,0,0,0,0,0,0,0,0,0,0
1683105198.29989004,80928449,1622,1636,1567,1557,0,0,0,0,0,0,0,0,0,0
1683105198.39985013,81028409,1614,1623,1568,1556,0,0,0,0,0,0,0,0,0,0
1683105198.49981022,81128369,1610,1611,1565,1558,0,0,0,0,0,0,0,0,0,0
1683105198.59977007,81228329,1605,1601,1561,1558,0,0,0,0,0,0,0,0,0,0
1683105198.69973016,81328289,1600,1593,1556,1558,0,0,0,0,0,0,0,0,0,0
1683105198.79969001,81428249,1594,1588,1552,1556,0,0,0,0,0,0,0,0,0,0
1683105198.89965010,81528209,1587,1585,1550,1553,0,0,0,0,0,0,0,0,0,0
1683105198.99961019,81628169,1581,1582,1549,1550,0,0,0,0,0,0,0,0,0,0
1683105199.10040307,81728962,1576,1579,1548,1546,0,0,0,0,0,0,0,0,0,0
1683105199.20036316,81828922,1572,1575,1547,1544,0,0,0,0,0,0,0,0,0,0
1683105199.30032301,81928882,1570,1572,1546,1544,0,0,0,0,0,0,0,0,0,0
1683105199.40028310,82028842,1570,1571,1547,1544,0,0,0,0,0,0,0,0,0,0
1683105199.50024319,82128802,1569,1569,1546,1545,0,0,0,0,0,0,0,0,0,0
1683105199.60020304,82228762,1569,1568,1547,1546,0,0,0,0,0,0,0,0,0,0
1683105199.70016313,82328722,1570,1569,1548,1548,0,0,0,0,0,0,0,0,0,0
1683105199.80012321,82428682,1569,1570,1549,1548,0,0,0,0,0,0,0,0,0,0
1683105199.90008307,82528642,1569,1570,1550,1550,0,0,0,0,0,0,0,0,0,0
1683105200.00004315,82628602,1570,1572,1552,1552,0,0,0,0,0,0,0,0,0,0
1683105200.10000324,82728562,1571,1573,1552,1554,0,0,0,0,0,0,0,0,0,0
1683105200.19996309,82828522,1573,1575,1554,1556,0,0,0,0,0,0,0,0,0,0
1683105200.29992318,82928482,1575,1577,1555,1558,0,0,0,0,0,0,0,0,0,0
1683105200.39988303,83028442,1575,1578,1555,1557,0,0,0,0,0,0,0,0,0,0
1683105200.49984312,83128402,1577,1579,1556,1558,0,0,0,0,0,0,0,0,0,0
1683105200.59980321,83228362,1579,1581,1557,1559,0,0,0,0,0,0,0,0,0,0
1683105200.69976306,83328322,1581,1582,1558,1560,0,0,0,0,0,0,0,0,0,0
1683105200.79972315,83428282,1583,1584,1559,1561,0,0,0,0,0,0,0,0,0,0
1683105200.89968324,83528242,1584,1585,1560,1561,0,0,0,0,0,0,0,0,0,0
1683105200.99964309,83628202,1586,1586,1560,1562,0,0,0,0,0,0,0,0,0,0
1683105201.09960318,83728162,1588,1587,1562,1563,0,0,0,0,0,0,0,0,0,0
1683105201.20039606,83828955,1589,1588,1563,1564,0,0,0,0,0,0,0,0,0,0
1683105201.30035615,83928915,1590,1588,1564,1565,0,0,0,0,0,0,0,0,0,0
1683105201.40031624,84028875,1591,1589,1567,1567,0,0,0,0,0,0,0,0,0,0
1683105201.50027609,84128835,1592,1589,1568,1569,0,0,0,0,0,0,0,0,0,0
1683105201.60023618,84228795,1592,1590,1570,1570,0,0,0,0,0,0,0,0,0,0
1683105201.70019603,84328755,1591,1590,1570,1570,0,0,0,0,0,0,0,0,0,0
1683105201.80015612,84428715,1591,1590,1572,1572,0,0,0,0,0,0,0,0,0,0
1683105201.90011621,84528675,1590,1590,1573,1572,0,0,0,0,0,0,0,0,0,0
1683105202.00007606,84628635,1590,1590,1573,1573,0,0,0,0,0,0,0,0,0,0
1683105202.10003614,84728595,1589,1590,1573,1572,0,0,0,0,0,0,0,0,0,0
1683105202.19999623,84828555,1590,1589,1573,1572,0,0,0,0,0,0,0,0,0,0
1683105202.29995608,84928515,1590,1589,1573,1572,0,0,0,0,0,0,0,0,0,0
1683105202.39991617,85028475,1590,1590,1573,1572,0,0,0,0,0,0,0,0,0,0
1683105202.49987602,85128435,1589,1582,1578,1577,0,0,0,0,0,0,0,0,0,0
1683105202.59983611,85228395,1572,1563,1598,1598,0,0,0,0,0,0,0,0,0,0
1683105202.69979620,85328355,1555,1549,1613,1614,0,0,0,0,0,0,0,0,0,0
1683105202.79975605,85428315,1543,1543,1617,1620,0,0,0,0,0,0,0,0,0,0
1683105202.89971614,85528275,1537,1542,1618,1620,0,0,0,0,0,0,0,0,0,0
1683105202.99967623,85628235,1535,1544,1616,1616,0,0,0,0,0,0,0,0,0,0
1683105203.09963608,85728195,1538,1548,1613,1611,0,0,0,0,0,0,0,0,0,0
1683105203.19959617,85828155,1545,1552,1609,1606,0,0,0,0,0,0,0,0,0,0
1683105203.30038905,85928948,1552,1557,1603,1600,0,0,0,0,0,0,0,0,0,0
1683105203.40034914,86028908,1560,1561,1596,1594,0,0,0,0,0,0,0,0,0,0
1683105203.50030923,86128868,1568,1565,1590,1589,0,0,0,0,0,0,0,0,0,0
1683105203.60026908,86228828,1573,1570,1584,1585,0,0,0,0,0,0,0,0,0,0
1683105203.70022917,86328788,1578,1574,1579,1581,0,0,0,0,0,0,0,0,0,0
1683105203.80018902,86428748,1581,1578,1576,1577,0,0,0,0,0,0,0,0,0,0
1683105203.90014911,86528708,1584,1582,1574,1575,0,0,0,0,0,0,0,0,0,0
1683105204.00010920,86628668,1585,1585,1573,1573,0,0,0,0,0,0,0,0,0,0
1683105204.10006905,86728628,1586,1586,1571,1571,0,0,0,0,0,0,0,0,0,0
1683105204.20002913,86828588,1587,1588,1571,1571,0,0,0,0,0,0,0,0,0,0
1683105204.29998922,86928548,1588,1588,1572,1571,0,0,0,0,0,0,0,0,0,0
1683105204.39994907,87028508,1588,1588,1571,1572,0,0,0,0,0,0,0,0,0,0
1683105204.49990916,87128468,1589,1588,1573,1573,0,0,0,0,0,0,0,0,0,0
1683105204.59986901,87228428,1588,1587,1573,1573,0,0,0,0,0,0,0,0,0,0
1683105204.69982910,87328388,1588,1586,1573,1574,0,0,0,0,0,0,0,0,0,0
1683105204.79978919,87428348,1586,1585,1573,1574,0,0,0,0,0,0,0,0,0,0
1683105204.89974904,87528308,1585,1585,1574,1575,0,0,0,0,0,0,0,0,0,0
1683105204.99970913,87628268,1584,1584,1575,1575,0,0,0,0,0,0,0,0,0,0
1683105205.09966922,87728228,1584,1584,1577,1577,0,0,0,0,0,0,0,0,0,0
1683105205.19962907,87828188,1583,1583,1579,1578,0,0,0,0,0,0,0,0,0,0
1683105205.30042219,87928981,1582,1582,1578,1578,0,0,0,0,0,0,0,0,0,0
1683105205.40038204,88028941,1582,1582,1579,1579,0,0,0,0,0,0,0,0,0,0
1683105205.50034213,88128901,1581,1581,1580,1580,0,0,0,0,0,0,0,0,0,0
1683105205.60030222,88228861,1581,1581,1580,1580,0,0,0,0,0,0,0,0,0,0
1683105205.70026207,88328821,1581,1580,1584,1577,0,0,0,0,0,0,0,0,0,0
1683105205.80022216,88428781,1581,1579,1587,1573,0,0,0,0,0,0,0,0,0,0
1683105205.90018201,88528741,1581,1578,1582,1574,0,0,0,0,0,0,0,0,0,0
1683105206.00014210,88628701,1578,1577,1572,1573,0,0,0,0,0,0,0,0,0,0
1683105206.10010219,88728661,1575,1576,1565,1570,0,0,0,0,0,0,0,0,0,0
1683105206.20006204,88828621,1573,1577,1562,1567,0,0,0,0,0,0,0,0,0,0
1683105206.30002213,88928581,1573,1576,1560,1563,0,0,0,0,0,0,0,0,0,0
1683105206.39998221,89028541,1572,1575,1558,1559,0,0,0,0,0,0,0,0,0,0
1683105206.49994206,89128501,1573,1575,1559,1558,0,0,0,0,0,0,0,0,0,0
1683105206.59990215,89228461,1573,1574,1559,1557,0,0,0,0,0,0,0,0,0,0
1683105206.69986224,89328421,1574,1575,1559,1557,0,0,0,0,0,0,0,0,0,0
1683105206.79982209,89428381,1575,1574,1557,1556,0,0,0,0,0,0,0,0,0,0
1683105206.89978218,89528341,1574,1574,1555,1555,0,0,0,0,0,0,0,0,0,0
1683105206.99974203,89628301,1574,1573,1553,1553,0,0,0,0,0,0,0,0,0,0
1683105207.09970212,89728261,1574,1574,1551,1552,0,0,0,0,0,0,0,0,0,0
1683105207.19966221,89828221,1574,1575,1549,1550,0,0,0,0,0,0,0,0,0,0
1683105207.29962206,89928181,1575,1577,1548,1548,0,0,0,0,0,0,0,0,0,0
1683105207.40041518,90028974,1576,1578,1547,1546,0,0,0,0,0,0,0,0,0,0
1683105207.50037503,90128934,1577,1579,1545,1544,0,0,0,0,0,0,0,0,0,0
1683105207.60033512,90228894,1579,1581,1543,1543,0,0,0,0,0,0,0,0,0,0
1683105207.70029521,90328854,1581,1582,1541,1541,0,0,0,0,0,0,0,0,0,0
1683105207.80025506,90428814,1584,1585,1541,1540,0,0,0,0,0,0,0,0,0,0
1683105207.90021515,90528774,1586,1586,1540,1540,0,0,0,0,0,0,0,0,0,0
1683105208.00017524,90628734,1588,1587,1540,1540,0,0,0,0,0,0,0,0,0,0
1683105208.10013509,90728694,1588,1587,1539,1540,0,0,0,0,0,0,0,0,0,0
1683105208.20009518,90828654,1588,1587,1540,1542,0,0,0,0,0,0,0,0,0,0
1683105208.30005503,90928614,1587,1586,1542,1545,0,0,0,0,0,0,0,0,0,0
1683105208.40001512,91028574,1585,1584,1546,1548,0,0,0,0,0,0,0,0,0,0
1683105208.49997520,91128534,1582,1581,1550,1554,0,0,0,0,0,0,0,0,0,0
1683105208.59993505,91228494,1578,1577,1554,1558,0,0,0,0,0,0,0,0,0,0
1683105208.69989514,91328454,1574,1573,1560,1564,0,0,0,0,0,0,0,0,0,0
1683105208.79985523,91428414,1568,1567,1566,1569,0,0,0,0,0,0,0,0,0,0
1683105208.89981508,91528374,1563,1561,1573,1575,0,0,0,0,0,0,0,0,0,0
1683105208.99977517,91628334,1557,1555,1582,1582,0,0,0,0,0,0,0,0,0,0
1683105209.09973502,91728294,1551,1549,1589,1588,0,0,0,0,0,0,0,0,0,0
1683105209.19969511,91828254,1546,1545,1595,1595,0,0,0,0,0,0,0,0,0,0
1683105209.29965520,91928214,1540,1540,1601,1600,0,0,0,0,0,0,0,0,0,0
1683105209.39961505,92028174,1536,1536,1605,1604,0,0,0,0,0,0,0,0,0,0
1683105209.50040817,92128967,1534,1535,1606,1606,0,0,0,0,0,0,0,0,0,0
1683105209.60036802,92228927,1536,1538,1606,1605,0,0,0,0,0,0,0,0,0,0
1683105209.70032811,92328887,1540,1542,1602,1603,0,0,0,0,0,0,0,0,0,0
1683105209.80028820,92428847,1545,1548,1597,1598,0,0,0,0,0,0,0,0,0,0
1683105209.90024805,92528807,1553,1554,1591,1591,0,0,0,0,0,0,0,0,0,0
1683105210.00020814,92628767,1560,1561,1585,1584,0,0,0,0,0,0,0,0,0,0
1683105210.10016823,92728727,1569,1568,1580,1579,0,0,0,0,0,0,0,0,0,0
1683105210.20012808,92828687,1576,1574,1575,1574,0,0,0,0,0,0,0,0,0,0
1683105210.30008817,92928647,1580,1578,1571,1570,0,0,0,0,0,0,0,0,0,0
1683105210.40004802,93028607,1583,1582,1568,1568,0,0,0,0,0,0,0,0,0,0
1683105210.50000811,93128567,1586,1584,1568,1568,0,0,0,0,0,0,0,0,0,0
1683105210.59996819,93228527,1586,1585,1568,1569,0,0,0,0,0,0,0,0,0,0
1683105210.69992805,93328487,1587,1586,1569,1570,0,0,0,0,0,0,0,0,0,0
1683105210.79988813,93428447,1585,1585,1570,1570,0,0,0,0,0,0,0,0,0,0
1683105210.89984822,93528407,1584,1585,1572,1572,0,0,0,0,0,0,0,0,0,0
1683105210.99980807,93628367,1583,1583,1573,1574,0,0,0,0,0,0,0,0,0,0
1683105211.09976816,93728327,1582,1582,1576,1576,0,0,0,0,0,0,0,0,0,0
1683105211.19972801,93828287,1582,1582,1578,1578,0,0,0,0,0,0,0,0,0,0
1683105211.29968810,93928247,1580,1580,1579,1579,0,0,0,0,0,0,0,0,0,0
1683105211.39964819,94028207,1579,1579,1580,1580,0,0,0,0,0,0,0,0,0,0
1683105211.49960804,94128167,1578,1578,1580,1581,0,0,0,0,0,0,0,0,0,0
1683105211.60040116,94228960,1577,1577,1582,1582,0,0,0,0,0,0,0,0,0,0
1683105211.70036101,94328920,1577,1577,1583,1583,0,0,0,0,0,0,0,0,0,0
1683105211.80032110,94428880,1576,1577,1582,1582,0,0,0,0,0,0,0,0,0,0
1683105211.90028119,94528840,1576,1577,1583,1583,0,0,0,0,0,0,0,0,0,0
1683105212.00024104,94628800,1577,1577,1582,1582,0,0,0,0,0,0,0,0,0,0
1683105212.10020113,94728760,1576,1577,1581,1581,0,0,0,0,0,0,0,0,0,0
1683105212.20016122,94828720,1578,1578,1581,1581,0,0,0,0,0,0,0,0,0,0
1683105212.30012107,94928680,1578,1578,1580,1580,0,0,0,0,0,0,0,0,0,0
1683105212.40008116,95028640,1579,1580,1581,1581,0,0,0,0,0,0,0,0,0,0
1683105212.50004101,95128600,1580,1580,1580,1580,0,0,0,0,0,0,0,0,0,0
1683105212.60000110,95228560,1581,1580,1580,1579,0,0,0,0,0,0,0,0,0,0
1683105212.69996119,95328520,1582,1581,1580,1580,0,0,0,0,0,0,0,0,0,0
1683105212.79992104,95428480,1582,1582,1580,1580,0,0,0,0,0,0,0,0,0,0
1683105212.89988112,95528440,1583,1582,1580,1580,0,0,0,0,0,0,0,0,0,0
1683105212.99984121,95628400,1582,1582,1579,1579,0,0,0,0,0,0,0,0,0,0
1683105213.09980106,95728360,1582,1582,1579,1580,0,0,0,0,0,0,0,0,0,0
1683105213.19976115,95828320,1583,1583,1580,1580,0,0,0,0,0,0,0,0,0,0
1683105213.29972124,95928280,1583,1583,1581,1581,0,0,0,0,0,0,0,0,0,0
1683105213.39968109,96028240,1583,1582,1581,1581,0,0,0,0,0,0,0,0,0,0
1683105213.49964118,96128200,1581,1582,1580,1580,0,0,0,0,0,0,0,0,0,0
1683105213.59960103,96228160,1581,1581,1581,1580,0,0,0,0,0,0,0,0,0,0
1683105213.70039415,96328953,1582,1581,1582,1582,0,0,0,0,0,0,0,0,0,0
1683105213.80035424,96428913,1581,1581,1582,1582,0,0,0,0,0,0,0,0,0,0
1683105213.90031409,96528873,1581,1581,1581,1581,0,0,0,0,0,0,0,0,0,0
1683105214.00027418,96628833,1581,1581,1581,1582,0,0,0,0,0,0,0,0,0,0
1683105214.10023403,96728793,1581,1580,1588,1575,0,0,0,0,0,0,0,0,0,0
1683105214.20019412,96828753,1580,1579,1586,1574,0,0,0,0,0,0,0,0,0,0
1683105214.30015421,96928713,1578,1576,1579,1574,0,0,0,0,0,0,0,0,0,0
1683105214.40011406,97028673,1575,1574,1572,1575,0,0,0,0,0,0,0,0,0,0
1683105214.50007415,97128633,1571,1571,1566,1573,0,0,0,0,0,0,0,0,0,0
1683105214.60003424,97228593,1569,1570,1564,1571,0,0,0,0,0,0,0,0,0,0
1683105214.69999409,97328553,1568,1569,1565,1569,0,0,0,0,0,0,0,0,0,0
1683105214.79995418,97428513,1566,1568,1566,1567,0,0,0,0,0,0,0,0,0,0
1683105214.89991403,97528473,1566,1567,1567,1566,0,0,0,0,0,0,0,0,0,0
1683105214.99987411,97628433,1566,1566,1568,1566,0,0,0,0,0,0,0,0,0,0
1683105215.09983420,97728393,1566,1566,1568,1566,0,0,0,0,0,0,0,0,0,0
1683105215.19979405,97828353,1565,1564,1567,1565,0,0,0,0,0,0,0,0,0,0
1683105215.29975414,97928313,1564,1564,1566,1564,0,0,0,0,0,0,0,0,0,0
1683105215.39971423,98028273,1563,1563,1564,1564,0,0,0,0,0,0,0,0,0,0
1683105215.49967408,98128233,1563,1562,1563,1564,0,0,0,0,0,0,0,0,0,0
1683105215.59963417,98228193,1561,1562,1562,1562,0,0,0,0,0,0,0,0,0,0
1683105215.70042706,98328986,1562,1562,1562,1562,0,0,0,0,0,0,0,0,0,0
1683105215.80038714,98428946,1561,1562,1562,1561,0,0,0,0,0,0,0,0,0,0
1683105215.90034723,98528906,1561,1561,1562,1561,0,0,0,0,0,0,0,0,0,0
1683105216.00030708,98628866,1560,1561,1561,1560,0,0,0,0,0,0,0,0,0,0
1683105216.10026717,98728826,1561,1561,1561,1561,0,0,0,0,0,0,0,0,0,0
1683105216.20022702,98828786,1561,1560,1561,1560,0,0,0,0,0,0,0,0,0,0
1683105216.30018711,98928746,1560,1559,1560,1559,0,0,0,0,0,0,0,0,0,0
1683105216.40014720,99028706,1559,1559,1559,1558,0,0,0,0,0,0,0,0,0,0
1683105216.50010705,99128666,1559,1559,1559,1559,0,0,0,0,0,0,0,0,0,0
1683105216.60006714,99228626,1558,1558,1558,1556,0,0,0,0,0,0,0,0,0,0
1683105216.70002723,99328586,1556,1556,1556,1554,0,0,0,0,0,0,0,0,0,0
1683105216.79998708,99428546,1557,1556,1558,1554,0,0,0,0,0,0,0,0,0,0
1683105216.89994717,99528506,1555,1554,1554,1553,0,0,0,0,0,0,0,0,0,0
1683105216.99990702,99628466,1552,1552,1549,1552,0,0,0,0,0,0,0,0,0,0
1683105217.09986711,99728426,1548,1548,1543,1549,0,0,0,0,0,0,0,0,0,0
1683105217.19982719,99828386,1543,1544,1537,1543,0,0,0,0,0,0,0,0,0,0
1683105217.29978704,99928346,1537,1539,1532,1537,0,0,0,0,0,0,0,0,0,0
1683105217.39974713,100028306,1531,1532,1526,1529,0,0,0,0,0,0,0,0,0,0
1683105217.49970722,100128266,1526,1526,1522,1522,0,0,0,0,0,0,0,0,0,0
1683105217.59966707,100228226,1522,1522,1520,1519,0,0,0,0,0,0,0,0,0,0
1683105217.69962716,100328186,1520,1520,1519,1519,0,0,0,0,0,0,0,0,0,0
1683105217.80042005,100428979,1520,1519,1522,1521,0,0,0,0,0,0,0,0,0,0
1683105217.90038013,100528939,1522,1521,1526,1526,0,0,0,0,0,0,0,0,0,0
1683105218.00034022,100628899,1525,1524,1531,1532,0,0,0,0,0,0,0,0,0,0
1683105218.10030007,100728859,1528,1528,1535,1537,0,0,0,0,0,0,0,0,0,0
1683105218.20026016,100828819,1532,1532,1540,1541,0,0,0,0,0,0,0,0,0,0
1683105218.30022001,100928779,1536,1536,1544,1544,0,0,0,0,0,0,0,0,0,0
1683105218.40018010,101028739,1539,1539,1545,1544,0,0,0,0,0,0,0,0,0,0
1683105218.50014019,101128699,1542,1541,1545,1546,0,0,0,0,0,0,0,0,0,0
1683105218.60010004,101228659,1544,1544,1545,1546,0,0,0,0,0,0,0,0,0,0
1683105218.70006013,101328619,1546,1546,1545,1545,0,0,0,0,0,0,0,0,0,0
1683105218.80002022,101428579,1547,1548,1545,1545,0,0,0,0,0,0,0,0,0,0
1683105218.89998007,101528539,1548,1548,1544,1544,0,0,0,0,0,0,0,0,0,0
1683105218.99994016,101628499,1548,1548,1543,1543,0,0,0,0,0,0,0,0,0,0
1683105219.09990001,101728459,1549,1549,1544,1544,0,0,0,0,0,0,0,0,0,0
1683105219.19986010,101828419,1549,1549,1544,1544,0,0,0,0,0,0,0,0,0,0
1683105219.29982018,101928379,1549,1549,1545,1544,0,0,0,0,0,0,0,0,0,0
1683105219.39978004,102028339,1548,1548,1545,1545,0,0,0,0,0,0,0,0,0,0
1683105219.49974012,102128299,1547,1548,1545,1544,0,0,0,0,0,0,0,0,0,0
1683105219.59970021,102228259,1546,1547,1545,1545,0,0,0,0,0,0,0,0,0,0
1683105219.69966006,102328219,1546,1546,1546,1546,0,0,0,0,0,0,0,0,0,0
1683105219.79962015,102428179,1545,1545,1545,1545,0,0,0,0,0,0,0,0,0,0
1683105219.90041304,102528972,1545,1544,1546,1546,0,0,0,0,0,0,0,0,0,0
1683105220.00037313,102628932,1543,1544,1545,1545,0,0,0,0,0,0,0,0,0,0
1683105220.10033321,102728892,1543,1543,1545,1545,0,0,0,0,0,0,0,0,0,0
1683105220.20029306,102828852,1543,1543,1545,1546,0,0,0,0,0,0,0,0,0,0
1683105220.30025315,102928812,1543,1543,1545,1545,0,0,0,0,0,0,0,0,0,0
1683105220.40021324,103028772,1543,1543,1545,1544,0,0,0,0,0,0,0,0,0,0
1683105220.50017309,103128732,1543,1543,1544,1544,0,0,0,0,0,0,0,0,0,0
1683105220.60013318,103228692,1543,1543,1544,1544,0,0,0,0,0,0,0,0,0,0
1683105220.70009303,103328652,1543,1543,1544,1543,0,0,0,0,0,0,0,0,0,0
1683105220.80005312,103428612,1543,1543,1543,1543,0,0,0,0,0,0,0,0,0,0
1683105220.90001321,103528572,1544,1544,1544,1544,0,0,0,0,0,0,0,0,0,0
1683105220.99997306,103628532,1545,1544,1544,1544,0,0,0,0,0,0,0,0,0,0
1683105221.09993315,103728492,1544,1544,1543,1544,0,0,0,0,0,0,0,0,0,0
1683105221.19989324,103828452,1544,1544,1543,1543,0,0,0,0,0,0,0,0,0,0
1683105221.29985309,103928412,1544,1544,1543,1543,0,0,0,0,0,0,0,0,0,0
1683105221.39981318,104028372,1545,1545,1544,1544,0,0,0,0,0,0,0,0,0,0
1683105221.49977303,104128332,1545,1545,1544,1544,0,0,0,0,0,0,0,0,0,0
1683105221.59973311,104228292,1545,1544,1544,1544,0,0,0,0,0,0,0,0,0,0
1683105221.69969320,104328252,1544,1544,1544,1543,0,0,0,0,0,0,0,0,0,0
1683105221.79965305,104428212,1544,1544,1543,1543,0,0,0,0,0,0,0,0,0,0
1683105221.89961314,104528172,1544,1544,1544,1544,0,0,0,0,0,0,0,0,0,0
1683105222.00040603,104628965,1544,1545,1545,1544,0,0,0,0,0,0,0,0,0,0
1683105222.10036612,104728925,1545,1544,1544,1544,0,0,0,0,0,0,0,0,0,0
1683105222.20032620,104828885,1545,1545,1545,1545,0,0,0,0,0,0,0,0,0,0
1683105222.30028605,104928845,1544,1544,1544,1544,0,0,0,0,0,0,0,0,0,0
1683105222.40024614,105028805,1545,1545,1545,1545,0,0,0,0,0,0,0,0,0,0
1683105222.50020623,105128765,1544,1543,1543,1543,0,0,0,0,0,0,0,0,0,0
1683105222.60016608,105228725,1544,1544,1544,1544,0,0,0,0,0,0,0,0,0,0
1683105222.70012617,105328685,1544,1544,1544,1544,0,0,0,0,0,0,0,0,0,0
1683105222.80008602,105428645,1544,1544,1544,1544,0,0,0,0,0,0,0,0,0,0
1683105222.90004611,105528605,1545,1544,1544,1545,0,0,0,0,0,0,0,0,0,0
1683105223.00000620,105628565,1543,1543,1543,1543,0,0,0,0,0,0,0,0,0,0
1683105223.09996605,105728525,1545,1544,1544,1545,0,0,0,0,0,0,0,0,0,0
1683105223.19992614,105828485,1544,1544,1544,1544,0,0,0,0,0,0,0,0,0,0
1683105223.29988623,105928445,1544,1544,1544,1544,0,0,0,0,0,0,0,0,0,0
1683105223.39984608,106028405,1545,1545,1545,1545,0,0,0,0,0,0,0,0,0,0
1683105223.49980617,106128365,1545,1545,1545,1545,0,0,0,0,0,0,0,0,0,0
1683105223.59976602,106228325,1545,1545,1545,1545,0,0,0,0,0,0,0,0,0,0
1683105223.69972610,106328285,1545,1544,1544,1545,0,0,0,0,0,0,0,0,0,0
1683105223.79968619,106428245,1544,1544,1544,1544,0,0,0,0,0,0,0,0,0,0
1683105223.89964604,106528205,1545,1544,1544,1544,0,0,0,0,0,0,0,0,0,0
1683105223.99960613,106628165,1544,1545,1544,1544,0,0,0,0,0,0,0,0,0,0
1683105224.10039902,106728958,1545,1545,1545,1545,0,0,0,0,0,0,0,0,0,0
1683105224.20035911,106828918,1545,1545,1545,1545,0,0,0,0,0,0,0,0,0,0
1683105224.30031919,106928878,1544,1544,1545,1544,0,0,0,0,0,0,0,0,0,0
1683105224.40027905,107028838,1544,1545,1544,1544,0,0,0,0,0,0,0,0,0,0
1683105224.50023913,107128798,1545,1545,1545,1545,0,0,0,0,0,0,0,0,0,0
1683105224.60019922,107228758,1544,1544,1544,1544,0,0,0,0,0,0,0,0,0,0
1683105224.70015907,107328718,1544,1543,1544,1544,0,0,0,0,0,0,0,0,0,0
1683105224.80011916,107428678,1544,1544,1544,1544,0,0,0,0,0,0,0,0,0,0
1683105224.90007901,107528638,1544,1544,1544,1544,0,0,0,0,0,0,0,0,0,0
1683105225.00003910,107628598,1544,1544,1544,1544,0,0,0,0,0,0,0,0,0,0
1683105225.09999919,107728558,1544,1544,1544,1544,0,0,0,0,0,0,0,0,0,0
1683105225.19995904,107828518,1543,1544,1544,1544,0,0,0,0,0,0,0,0,0,0
1683105225.29991913,107928478,1544,1544,1544,1544,0,0,0,0,0,0,0,0,0,0
1683105225.39987922,108028438,1544,1544,1544,1544,0,0,0,0,0,0,0,0,0,0
1683105225.49983907,108128398,1545,1545,1545,1545,0,0,0,0,0,0,0,0,0,0
1683105225.59979916,108228358,1544,1544,1544,1544,0,0,0,0,0,0,0,0,0,0
1683105225.69975924,108328318,1544,1544,1544,1544,0,0,0,0,0,0,0,0,0,0
1683105225.79971910,108428278,1544,1544,1544,1544,0,0,0,0,0,0,0,0,0,0
1683105225.89967918,108528238,1545,1544,1544,1544,0,0,0,0,0,0,0,0,0,0
1683105225.99963903,108628198,1544,1544,1545,1544,0,0,0,0,0,0,0,0,0,0
1683105226.09959912,108728158,1545,1545,1545,1546,0,0,0,0,0,0,0,0,0,0
1683105226.20039201,108828951,1544,1545,1544,1544,0,0,0,0,0,0,0,0,0,0
1683105226.30035210,108928911,1545,1544,1544,1544,0,0,0,0,0,0,0,0,0,0
1683105226.40031219,109028871,1545,1545,1545,1545,0,0,0,0,0,0,0,0,0,0
1683105226.50027204,109128831,1545,1545,1545,1545,0,0,0,0,0,0,0,0,0,0
1683105226.60023212,109228791,1544,1545,1545,1544,0,0,0,0,0,0,0,0,0,0
1683105226.70019221,109328751,1545,1544,1544,1544,0,0,0,0,0,0,0,0,0,0
1683105226.80015206,109428711,1544,1544,1544,1544,0,0,0,0,0,0,0,0,0,0
1683105226.90011215,109528671,1544,1544,1544,1544,0,0,0,0,0,0,0,0,0,0
1683105227.00007224,109628631,1545,1544,1544,1544,0,0,0,0,0,0,0,0,0,0
1683105227.10003209,109728591,1544,1544,1544,1544,0,0,0,0,0,0,0,0,0,0
1683105227.19999218,109828551,1545,1545,1545,1545,0,0,0,0,0,0,0,0,0,0
1683105227.29995203,109928511,1434,1435,1384,1385,0,0,0,0,0,0,0,0,0,0
1683105227.39991212,110028471,1360,1362,1263,1261,0,0,0,0,0,0,0,0,0,0
1683105227.49987221,110128431,1338,1338,1221,1220,0,0,0,0,0,0,0,0,0,0
1683105227.59983206,110228391,1328,1329,1203,1201,0,0,0,0,0,0,0,0,0,0
1683105227.69979215,110328351,1308,1308,1161,1160,0,0,0,0,0,0,0,0,0,0
1683105227.79975224,110428311,1260,1261,1151,1150,0,0,0,0,0,0,0,0,0,0
1683105227.89971209,110528271,1153,1153,1151,1150,0,0,0,0,0,0,0,0,0,0
1683105227.99967217,110628231,1042,1043,1152,1150,0,0,0,0,0,0,0,0,0,0
1683105228.09963202,110728191,1016,1017,1151,1150,0,0,0,0,0,0,0,0,0,0
1683105228.20042515,110828984,1015,1017,1152,1150,0,0,0,0,0,0,0,0,0,0
1683105228.30038524,110928944,1016,1017,1151,1150,0,0,0,0,0,0,0,0,0,0
1683105228.40034509,111028904,1017,1001,1150,1171,0,0,0,0,0,0,0,0,0,0
1683105228.50030518,111128864,1017,1008,1150,1162,0,0,0,0,0,0,0,0,0,0
1683105228.60026503,111228824,1017,1010,1150,1159,0,0,0,0,0,0,0,0,0,0
1683105228.70022511,111328784,1017,1010,1150,1159,0,0,0,0,0,0,0,0,0,0
1683105228.80018520,111428744,1017,1010,1150,1159,0,0,0,0,0,0,0,0,0,0
1683105228.90014505,111528704,1017,1010,1150,1159,0,0,0,0,0,0,0,0,0,0
1683105229.00010514,111628664,1017,1010,1150,1159,0,0,0,0,0,0,0,0,0,0
1683105229.10006523,111728624,1017,1009,1150,1160,0,0,0,0,0,0,0,0,0,0
1683105229.20002508,111828584,1017,1016,1150,1150,0,0,0,0,0,0,0,0,0,0
1683105229.29998517,111928544,1017,1016,1150,1151,0,0,0,0,0,0,0,0,0,0
1683105229.39994502,112028504,1017,1015,1150,1151,0,0,0,0,0,0,0,0,0,0
1683105229.49990511,112128464,1017,1015,1150,1152,0,0,0,0,0,0,0,0,0,0
1683105229.59986520,112228424,897,896,1150,1150,0,0,0,0,0,0,0,0,0,0
1683105229.69982505,112328384,1000,1000,1000,1000,0,0,0,0,0,0,0,0,0,0
1683105229.79978514,112428344,1000,1000,1000,1000,0,0,0,0,0,0,0,0,0,0
1683105229.89974523,112528304,1000,1000,1000,1000,0,0,0,0,0,0,0,0,0,0
1683105229.99970508,112628264,1000,1000,1000,1000,0,0,0,0,0,0,0,0,0,0
1683105230.09966516,112728224,1000,1000,1000,1000,0,0,0,0,0,0,0,0,0,0
1683105230.19962502,112828184,1000,1000,1000,1000,0,0,0,0,0,0,0,0,0,0
1683105230.30041814,112928977,1000,1000,1000,1000,0,0,0,0,0,0,0,0,0,0
1683105230.40037823,113028937,1000,1000,1000,1000,0,0,0,0,0,0,0,0,0,0
1683105230.50033808,113128897,1000,1000,1000,1000,0,0,0,0,0,0,0,0,0,0
1683105230.60029817,113228857,1000,1000,1000,1000,0,0,0,0,0,0,0,0,0,0
1683105230.70025802,113328817,1000,1000,1000,1000,0,0,0,0,0,0,0,0,0,0
1683105230.80021811,113428777,1000,1000,1000,1000,0,0,0,0,0,0,0,0,0,0
1683105230.90017819,113528737,1000,1000,1000,1000,0,0,0,0,0,0,0,0,0,0
1683105231.00013804,113628697,1000,1000,1000,1000,0,0,0,0,0,0,0,0,0,0
1683105231.10009813,113728657,1000,1000,1000,1000,0,0,0,0,0,0,0,0,0,0
1683105231.20005822,113828617,1000,1000,1000,1000,0,0,0,0,0,0,0,0,0,0
1683105231.30001807,113928577,1000,1000,1000,1000,0,0,0,0,0,0,0,0,0,0
1683105231.39997816,114028537,1000,1000,1000,1000,0,0,0,0,0,0,0,0,0,0
1683105231.49993801,114128497,1000,1000,1000,1000,0,0,0,0,0,0,0,0,0,0
1683105231.59989810,114228457,1000,1000,1000,1000,0,0,0,0,0,0,0,0,0,0
1683105231.69985819,114328417,1000,1000,1000,1000,0,0,0,0,0,0,0,0,0,0
1683105231.79981804,114428377,1000,1000,1000,1000,0,0,0,0,0,0,0,0,0,0
1683105231.89977813,114528337,1000,1000,1000,1000,0,0,0,0,0,0,0,0,0,0
1683105231.99973822,114628297,1000,1000,1000,1000,0,0,0,0,0,0,0,0,0,0
1683105232.09969807,114728257,1000,1000,1000,1000,0,0,0,0,0,0,0,0,0,0
1683105232.19965816,114828217,1000,1000,1000,1000,0,0,0,0,0,0,0,0,0,0
1683105232.29961824,114928177,1000,1000,1000,1000,0,0,0,0,0,0,0,0,0,0
1683105232.40041113,115028970,1000,1000,1000,1000,0,0,0,0,0,0,0,0,0,0
1683105232.50037122,115128930,1000,1000,1000,1000,0,0,0,0,0,0,0,0,0,0
1683105232.60033107,115228890,1000,1000,1000,1000,0,0,0,0,0,0,0,0,0,0
1683105232.70029116,115328850,1000,1000,1000,1000,0,0,0,0,0,0,0,0,0,0
1683105232.80025101,115428810,1000,1000,1000,1000,0,0,0,0,0,0,0,0,0,0
1683105232.90021110,115528770,1000,1000,1000,1000,0,0,0,0,0,0,0,0,0,0
1683105233.00017118,115628730,1000,1000,1000,1000,0,0,0,0,0,0,0,0,0,0
1683105233.10013103,115728690,1000,1000,1000,1000,0,0,0,0,0,0,0,0,0,0
1683105233.20009112,115828650,1000,1000,1000,1000,0,0,0,0,0,0,0,0,0,0
1683105233.30005121,115928610,1000,1000,1000,1000,0,0,0,0,0,0,0,0,0,0
1683105233.40001106,116028570,1000,1000,1000,1000,0,0,0,0,0,0,0,0,0,0
1683105233.49997115,116128530,1000,1000,1000,1000,0,0,0,0,0,0,0,0,0,0
1683105233.59993124,116228490,1000,1000,1000,1000,0,0,0,0,0,0,0,0,0,0
1683105233.69989109,116328450,1000,1000,1000,1000,0,0,0,0,0,0,0,0,0,0
1683105233.79985118,116428410,1000,1000,1000,1000,0,0,0,0,0,0,0,0,0,0
1683105233.89981103,116528370,1000,1000,1000,1000,0,0,0,0,0,0,0,0,0,0
1683105233.99977112,116628330,1000,1000,1000,1000,0,0,0,0,0,0,0,0,0,0
1683105234.09973121,116728290,1000,1000,1000,1000,0,0,0,0,0,0,0,0,0,0
1683105234.19969106,116828250,1000,1000,1000,1000,0,0,0,0,0,0,0,0,0,0
1683105234.29965115,116928210,1000,1000,1000,1000,0,0,0,0,0,0,0,0,0,0
1683105234.39961123,117028170,1000,1000,1000,1000,0,0,0,0,0,0,0,0,0,0
1683105234.50040412,117128963,1000,1000,1000,1000,0,0,0,0,0,0,0,0,0,0
1683105234.60036421,117228923,1000,1000,1000,1000,0,0,0,0,0,0,0,0,0,0
1683105234.70032406,117328883,1000,1000,1000,1000,0,0,0,0,0,0,0,0,0,0
1683105234.80028415,117428843,1000,1000,1000,1000,0,0,0,0,0,0,0,0,0,0
1683105234.90024424,117528803,1000,1000,1000,1000,0,0,0,0,0,0,0,0,0,0
1683105235.00020409,117628763,1000,1000,1000,1000,0,0,0,0,0,0,0,0,0,0
1683105235.10016418,117728723,1000,1000,1000,1000,0,0,0,0,0,0,0,0,0,0
1683105235.20012403,117828683,1000,1000,1000,1000,0,0,0,0,0,0,0,0,0,0
1683105235.30008411,117928643,1000,1000,1000,1000,0,0,0,0,0,0,0,0,0,0
1683105235.40004420,118028603,1000,1000,1000,1000,0,0,0,0,0,0,0,0,0,0
1683105235.50000405,118128563,1000,1000,1000,1000,0,0,0,0,0,0,0,0,0,0
1683105235.59996414,118228523,1000,1000,1000,1000,0,0,0,0,0,0,0,0,0,0
1683105235.69992423,118328483,1000,1000,1000,1000,0,0,0,0,0,0,0,0,0,0
1683105235.79988408,118428443,1000,1000,1000,1000,0,0,0,0,0,0,0,0,0,0
1683105235.89984417,118528403,1000,1000,1000,1000,0,0,0,0,0,0,0,0,0,0
1683105235.99980402,118628363,1000,1000,1000,1000,0,0,0,0,0,0,0,0,0,0
1683105236.09976411,118728323,1000,1000,1000,1000,0,0,0,0,0,0,0,0,0,0
1683105236.19972420,118828283,1000,1000,1000,1000,0,0,0,0,0,0,0,0,0,0
1683105236.29968405,118928243,1000,1000,1000,1000,0,0,0,0,0,0,0,0,0,0
1683105236.39964414,119028203,1000,1000,1000,1000,0,0,0,0,0,0,0,0,0,0
1683105236.49960423,119128163,1000,1000,1000,1000,0,0,0,0,0,0,0,0,0,0
1683105236.60039711,119228956,1000,1000,1000,1000,0,0,0,0,0,0,0,0,0,0
1683105236.70035720,119328916,1000,1000,1000,1000,0,0,0,0,0,0,0,0,0,0
1683105236.80031705,119428876,1000,1000,1000,1000,0,0,0,0,0,0,0,0,0,0
1683105236.90027714,119528836,1000,1000,1000,1000,0,0,0,0,0,0,0,0,0,0
1683105237.00023723,119628796,1000,1000,1000,1000,0,0,0,0,0,0,0,0,0,0
1683105237.10019708,119728756,1000,1000,1000,1000,0,0,0,0,0,0,0,0,0,0
1683105237.20015717,119828716,1000,1000,1000,1000,0,0,0,0,0,0,0,0,0,0
1683105237.30011702,119928676,1000,1000,1000,1000,0,0,0,0,0,0,0,0,0,0
1683105237.40007710,120028636,1000,1000,1000,1000,0,0,0,0,0,0,0,0,0,0
1683105237.50003719,120128596,1000,1000,1000,1000,0,0,0,0,0,0,0,0,0,0
1683105237.59999704,120228556,1000,1000,1000,1000,0,0,0,0,0,0,0,0,0,0
1683105237.69995713,120328516,1000,1000,1000,1000,0,0,0,0,0,0,0,0,0,0
1683105237.79991722,120428476,1000,1000,1000,1000,0,0,0,0,0,0,0,0,0,0
1683105237.89987707,120528436,1000,1000,1000,1000,0,0,0,0,0,0,0,0,0,0
1683105237.99983716,120628396,1000,1000,1000,1000,0,0,0,0,0,0,0,0,0,0
1683105238.09979701,120728356,1000,1000,1000,1000,0,0,0,0,0,0,0,0,0,0
1683105238.19975710,120828316,1000,1000,1000,1000,0,0,0,0,0,0,0,0,0,0
1683105238.29971719,120928276,1000,1000,1000,1000,0,0,0,0,0,0,0,0,0,0
1683105238.39967704,121028236,1000,1000,1000,1000,0,0,0,0,0,0,0,0,0,0
1683105238.49963713,121128196,1000,1000,1000,1000,0,0,0,0,0,0,0,0,0,0
1683105238.59959722,121228156,1000,1000,1000,1000,0,0,0,0,0,0,0,0,0,0
1683105238.70039010,121328949,1000,1000,1000,1000,0,0,0,0,0,0,0,0,0,0
1683105238.80035019,121428909,1000,1000,1000,1000,0,0,0,0,0,0,0,0,0,0
1683105238.90031004,121528869,1000,1000,1000,1000,0,0,0,0,0,0,0,0,0,0
1683105239.00027013,121628829,1000,1000,1000,1000,0,0,0,0,0,0,0,0,0,0
1683105239.10023022,121728789,1000,1000,1000,1000,0,0,0,0,0,0,0,0,0,0
1683105239.20019007,121828749,1000,1000,1000,1000,0,0,0,0,0,0,0,0,0,0
1683105239.30015016,121928709,1000,1000,1000,1000,0,0,0,0,0,0,0,0,0,0
1683105239.40011024,122028669,1000,1000,1000,1000,0,0,0,0,0,0,0,0,0,0
1683105239.50007010,122128629,1000,1000,1000,1000,0,0,0,0,0,0,0,0,0,0
1683105239.60003018,122228589,1000,1000,1000,1000,0,0,0,0,0,0,0,0,0,0
1683105239.69999003,122328549,1000,1000,1000,1000,0,0,0,0,0,0,0,0,0,0
1683105239.79995012,122428509,1000,1000,1000,1000,0,0,0,0,0,0,0,0,0,0
1683105239.89991021,122528469,1000,1000,1000,1000,0,0,0,0,0,0,0,0,0,0
1683105239.99987006,122628429,1000,1000,1000,1000,0,0,0,0,0,0,0,0,0,0
1683105240.09983015,122728389,1000,1000,1000,1000,0,0,0,0,0,0,0,0,0,0
1683105240.19979024,122828349,1000,1000,1000,1000,0,0,0,0,0,0,0,0,0,0
1683105240.29975009,122928309,1000,1000,1000,1000,0,0,0,0,0,0,0,0,0,0
1683105240.39971018,123028269,1000,1000,1000,1000,0,0,0,0,0,0,0,0,0,0
1683105240.49967003,123128229,1000,1000,1000,1000,0,0,0,0,0,0,0,0,0,0
1683105240.59963012,123228189,1000,1000,1000,1000,0,0,0,0,0,0,0,0,0,0
1683105240.70042324,123328982,1000,1000,1000,1000,0,0,0,0,0,0,0,0,0,0
1683105240.80038309,123428942,1000,1000,1000,1000,0,0,0,0,0,0,0,0,0,0
1683105240.90034318,123528902,1000,1000,1000,1000,0,0,0,0,0,0,0,0,0,0
1683105241.00030303,123628862,1000,1000,1000,1000,0,0,0,0,0,0,0,0,0,0
1683105241.10026312,123728822,1000,1000,1000,1000,0,0,0,0,0,0,0,0,0,0
1683105241.20022321,123828782,1000,1000,1000,1000,0,0,0,0,0,0,0,0,0,0
1683105241.30018306,123928742,1000,1000,1000,1000,0,0,0,0,0,0,0,0,0,0
1683105241.40014315,124028702,1000,1000,1000,1000,0,0,0,0,0,0,0,0,0,0
1683105241.50010324,124128662,1000,1000,1000,1000,0,0,0,0,0,0,0,0,0,0
1683105241.60006309,124228622,1000,1000,1000,1000,0,0,0,0,0,0,0,0,0,0
1683105241.70002317,124328582,1000,1000,1000,1000,0,0,0,0,0,0,0,0,0,0
1683105241.79998302,124428542,1000,1000,1000,1000,0,0,0,0,0,0,0,0,0,0
1683105241.89994311,124528502,1000,1000,1000,1000,0,0,0,0,0,0,0,0,0,0
1683105241.99990320,124628462,1000,1000,1000,1000,0,0,0,0,0,0,0,0,0,0
1683105242.09986305,124728422,1000,1000,1000,1000,0,0,0,0,0,0,0,0,0,0
1683105242.19982314,124828382,1000,1000,1000,1000,0,0,0,0,0,0,0,0,0,0
1683105242.29978323,124928342,1000,1000,1000,1000,0,0,0,0,0,0,0,0,0,0
1683105242.39974308,125028302,1000,1000,1000,1000,0,0,0,0,0,0,0,0,0,0
1683105242.49970317,125128262,1000,1000,1000,1000,0,0,0,0,0,0,0,0,0,0
1683105242.59966302,125228222,1000,1000,1000,1000,0,0,0,0,0,0,0,0,0,0
1683105242.69962311,125328182,1000,1000,1000,1000,0,0,0,0,0,0,0,0,0,0
1683105242.80041623,125428975,1000,1000,1000,1000,0,0,0,0,0,0,0,0,0,0
1683105242.90037608,125528935,1000,1000,1000,1000,0,0,0,0,0,0,0,0,0,0
1683105243.00033617,125628895,1000,1000,1000,1000,0,0,0,0,0,0,0,0,0,0
1683105243.10029602,125728855,1000,1000,1000,1000,0,0,0,0,0,0,0,0,0,0
1683105243.20025611,125828815,1000,1000,1000,1000,0,0,0,0,0,0,0,0,0,0
1683105243.30021620,125928775,1000,1000,1000,1000,0,0,0,0,0,0,0,0,0,0
1683105243.40017605,126028735,1000,1000,1000,1000,0,0,0,0,0,0,0,0,0,0
1683105243.50013614,126128695,1000,1000,1000,1000,0,0,0,0,0,0,0,0,0,0
1683105243.60009623,126228655,1000,1000,1000,1000,0,0,0,0,0,0,0,0,0,0
1683105243.70005608,126328615,1000,1000,1000,1000,0,0,0,0,0,0,0,0,0,0
1683105243.80001616,126428575,1000,1000,1000,1000,0,0,0,0,0,0,0,0,0,0
1683105243.89997602,126528535,1000,1000,1000,1000,0,0,0,0,0,0,0,0,0,0
1683105243.99993610,126628495,1000,1000,1000,1000,0,0,0,0,0,0,0,0,0,0
1683105244.09989619,126728455,1000,1000,1000,1000,0,0,0,0,0,0,0,0,0,0
1683105244.19985604,126828415,1000,1000,1000,1000,0,0,0,0,0,0,0,0,0,0
1683105244.29981613,126928375,1000,1000,1000,1000,0,0,0,0,0,0,0,0,0,0
1683105244.39977622,127028335,1000,1000,1000,1000,0,0,0,0,0,0,0,0,0,0
1683105244.49973607,127128295,1000,1000,1000,1000,0,0,0,0,0,0,0,0,0,0
1683105244.59969616,127228255,1000,1000,1000,1000,0,0,0,0,0,0,0,0,0,0
