TimeUS,M1,M2,M3,M4,TimeUS,C1,C2,C3,C4
53915925,1000,1000,1000,1000,53928420,1000,1000,1000,1000
53918424,1000,1000,1000,1000,54028380,1000,1000,1000,1000
53920923,1000,1000,1000,1000,54128340,1000,1000,1000,1000
53923422,1000,1000,1000,1000,54228300,1000,1000,1000,1000
53925921,1000,1000,1000,1000,54328260,1000,1000,1000,1000
53928420,1000,1000,1000,1000,54428220,1000,1000,1000,1000
53930919,1000,1000,1000,1000,54528180,1000,1000,1000,1000
53933418,1000,1000,1000,1000,54628973,1000,1000,1000,1000
53935917,1000,1000,1000,1000,54728933,1000,1000,1000,1000
53938416,1000,1000,1000,1000,54828893,1000,1000,1000,1000
53940915,1000,1000,1000,1000,54928853,1000,1000,1000,1000
53943414,1000,1000,1000,1000,55028813,1000,1000,1000,1000
53945913,1000,1000,1000,1000,55128773,1000,1000,1000,1000
53948412,1000,1000,1000,1000,55228733,1000,1000,1000,1000
53950911,1000,1000,1000,1000,55328693,1000,1000,1000,1000
53953410,1000,1000,1000,1000,55428653,1000,1000,1000,1000
53955909,1000,1000,1000,1000,55528613,1000,1000,1000,1000
53958408,1000,1000,1000,1000,55628573,1000,1000,1000,1000
53960907,1000,1000,1000,1000,55728533,1000,1000,1000,1000
53963406,1000,1000,1000,1000,55828493,1000,1000,1000,1000
53965905,1000,1000,1000,1000,55928453,1003,1003,1003,1003
53968404,1000,1000,1000,1000,56028413,1033,1033,1033,1033
53970903,1000,1000,1000,1000,56128373,1063,1063,1063,1063
53973402,1000,1000,1000,1000,56228333,1093,1093,1093,1093
53975901,1000,1000,1000,1000,56328293,1123,1123,1123,1123
53978400,1000,1000,1000,1000,56428253,1185,1177,1178,1185
53980899,1000,1000,1000,1000,56528213,1425,1419,1419,1425
53983398,1000,1000,1000,1000,56628173,1599,1594,1594,1599
53985897,1000,1000,1000,1000,56728966,1744,1738,1739,1744
53988396,1000,1000,1000,1000,56828926,1870,1864,1865,1869
53990895,1000,1000,1000,1000,56928886,1907,1904,1904,1907
53993394,1000,1000,1000,1000,57028846,1798,1797,1795,1799
53995893,1000,1000,1000,1000,57128806,1677,1677,1675,1680
53998392,1000,1000,1000,1000,57228766,1623,1624,1622,1625
54000891,1000,1000,1000,1000,57328726,1617,1619,1618,1618
54003390,1000,1000,1000,1000,57428686,1624,1625,1626,1623
54005889,1000,1000,1000,1000,57528646,1625,1626,1627,1624
54008388,1000,1000,1000,1000,57628606,1621,1620,1621,1619
54010887,1000,1000,1000,1000,57728566,1617,1615,1616,1615
54013386,1000,1000,1000,1000,57828526,1613,1613,1612,1614
54015885,1000,1000,1000,1000,57928486,1613,1613,1612,1613
54018384,1000,1000,1000,1000,58028446,1614,1614,1614,1614
54020883,1000,1000,1000,1000,58128406,1617,1616,1617,1615
54023382,1000,1000,1000,1000,58228366,1595,1596,1600,1591
54025881,1000,1000,1000,1000,58328326,1577,1578,1585,1570
54028380,1000,1000,1000,1000,58428286,1566,1566,1570,1563
54030879,1000,1000,1000,1000,58528246,1556,1556,1555,1557
54033378,1000,1000,1000,1000,58628206,1548,1547,1541,1555
54035877,1000,1000,1000,1000,58728166,1541,1540,1532,1549
54038376,1000,1000,1000,1000,58828959,1535,1535,1528,1541
54040875,1000,1000,1000,1000,58928919,1530,1529,1526,1533
54043374,1000,1000,1000,1000,59028879,1526,1526,1526,1526
54045873,1000,1000,1000,1000,59128839,1527,1528,1529,1526
54048372,1000,1000,1000,1000,59228799,1529,1530,1533,1527
54050871,1000,1000,1000,1000,59328759,1532,1533,1536,1530
54053370,1000,1000,1000,1000,59428719,1537,1537,1540,1535
54055869,1000,1000,1000,1000,59528679,1540,1541,1543,1539
54058368,1000,1000,1000,1000,59628639,1544,1544,1545,1544
54060867,1000,1000,1000,1000,59728599,1548,1547,1547,1548
54063366,1000,1000,1000,1000,59828559,1550,1550,1550,1551
54065865,1000,1000,1000,1000,59928519,1553,1552,1552,1554
54068364,1000,1000,1000,1000,60028479,1555,1555,1553,1556
54070863,1000,1000,1000,1000,60128439,1552,1552,1560,1562
54073362,1000,1000,1000,1000,60228399,1554,1555,1563,1565
54075861,1000,1000,1000,1000,60328359,1558,1558,1565,1565
54078360,1000,1000,1000,1000,60428319,1560,1561,1565,1564
54080859,1000,1000,1000,1000,60528279,1564,1564,1565,1565
54083358,1000,1000,1000,1000,60628239,1566,1566,1565,1564
54085857,1000,1000,1000,1000,60728199,1568,1568,1565,1564
54088356,1000,1000,1000,1000,60828159,1570,1570,1565,1565
54090855,1000,1000,1000,1000,60928952,1572,1571,1566,1566
54093354,1000,1000,1000,1000,61028912,1572,1572,1566,1567
54095853,1000,1000,1000,1000,61128872,1573,1572,1568,1568
54098352,1000,1000,1000,1000,61228832,1574,1574,1570,1571
54100851,1000,1000,1000,1000,61328792,1574,1574,1572,1572
54103350,1000,1000,1000,1000,61428752,1574,1574,1573,1572
54105849,1000,1000,1000,1000,61528712,1574,1574,1575,1574
54108348,1000,1000,1000,1000,61628672,1574,1574,1575,1574
54110847,1000,1000,1000,1000,61728632,1574,1574,1577,1576
54113346,1000,1000,1000,1000,61828592,1573,1574,1576,1575
54115845,1000,1000,1000,1000,61928552,1574,1574,1576,1576
54118344,1000,1000,1000,1000,62028512,1574,1575,1576,1576
54120843,1000,1000,1000,1000,62128472,1574,1575,1576,1576
54123342,1000,1000,1000,1000,62228432,1576,1577,1577,1578
54125841,1000,1000,1000,1000,62328392,1576,1576,1576,1577
54128340,1000,1000,1000,1000,62428352,1578,1577,1577,1577
54130839,1000,1000,1000,1000,62528312,1577,1576,1576,1576
54133338,1000,1000,1000,1000,62628272,1578,1578,1577,1577
54135837,1000,1000,1000,1000,62728232,1578,1578,1577,1577
54138336,1000,1000,1000,1000,62828192,1578,1577,1577,1576
54140835,1000,1000,1000,1000,62928985,1578,1579,1578,1578
54143334,1000,1000,1000,1000,63028945,1578,1579,1578,1578
54145833,1000,1000,1000,1000,63128905,1578,1578,1578,1578
54148332,1000,1000,1000,1000,63228865,1578,1578,1578,1578
54150831,1000,1000,1000,1000,63328825,1578,1579,1579,1579
54153330,1000,1000,1000,1000,63428785,1578,1578,1578,1578
54155829,1000,1000,1000,1000,63528745,1578,1578,1579,1579
54158328,1000,1000,1000,1000,63628705,1578,1577,1578,1578
54160827,1000,1000,1000,1000,63728665,1578,1578,1579,1579
54163326,1000,1000,1000,1000,63828625,1577,1578,1578,1577
54165825,1000,1000,1000,1000,63928585,1579,1578,1579,1579
54168324,1000,1000,1000,1000,64028545,1578,1578,1579,1579
54170823,1000,1000,1000,1000,64128505,1579,1578,1579,1579
54173322,1000,1000,1000,1000,64228465,1579,1579,1579,1579
54175821,1000,1000,1000,1000,64328425,1579,1578,1578,1578
54178320,1000,1000,1000,1000,64428385,1579,1579,1579,1579
54180819,1000,1000,1000,1000,64528345,1579,1579,1579,1579
54183318,1000,1000,1000,1000,64628305,1580,1580,1580,1580
54185817,1000,1000,1000,1000,64728265,1581,1581,1581,1581
54188316,1000,1000,1000,1000,64828225,1581,1581,1581,1580
54190815,1000,1000,1000,1000,64928185,1581,1581,1581,1581
54193314,1000,1000,1000,1000,65028978,1580,1580,1580,1580
54195813,1000,1000,1000,1000,65128938,1581,1581,1581,1581
54198312,1000,1000,1000,1000,65228898,1580,1580,1580,1580
54200811,1000,1000,1000,1000,65328858,1581,1581,1581,1581
54203310,1000,1000,1000,1000,65428818,1580,1580,1580,1580
54205809,1000,1000,1000,1000,65528778,1581,1581,1581,1581
54208308,1000,1000,1000,1000,65628738,1580,1580,1580,1580
54210807,1000,1000,1000,1000,65728698,1581,1581,1581,1581
54213306,1000,1000,1000,1000,65828658,1581,1581,1581,1581
54215805,1000,1000,1000,1000,65928618,1581,1580,1581,1580
54218304,1000,1000,1000,1000,66028578,1580,1580,1580,1580
54220803,1000,1000,1000,1000,66128538,1581,1581,1581,1582
54223302,1000,1000,1000,1000,66228498,1581,1581,1581,1581
54225801,1000,1000,1000,1000,66328458,1581,1582,1588,1574
54228300,1000,1000,1000,1000,66428418,1579,1582,1585,1573
54230799,1000,1000,1000,1000,66528378,1578,1582,1576,1574
54233298,1000,1000,1000,1000,66628338,1578,1580,1568,1572
54235797,1000,1000,1000,1000,66728298,1576,1578,1560,1567
54238296,1000,1000,1000,1000,66828258,1578,1578,1557,1563
54240795,1000,1000,1000,1000,66928218,1580,1578,1556,1559
54243294,1000,1000,1000,1000,67028178,1580,1579,1556,1556
54245793,1000,1000,1000,1000,67128971,1580,1578,1556,1555
54248292,1000,1000,1000,1000,67228931,1579,1579,1557,1555
54250791,1000,1000,1000,1000,67328891,1579,1579,1557,1556
54253290,1000,1000,1000,1000,67428851,1577,1578,1556,1555
54255789,1000,1000,1000,1000,67528811,1576,1578,1555,1555
54258288,1000,1000,1000,1000,67628771,1575,1577,1553,1553
54260787,1000,1000,1000,1000,67728731,1576,1577,1552,1553
54263286,1000,1000,1000,1000,67828691,1576,1578,1550,1550
54265785,1000,1000,1000,1000,67928651,1578,1579,1547,1547
54268284,1000,1000,1000,1000,68028611,1581,1582,1545,1545
54270783,1000,1000,1000,1000,68128571,1584,1585,1543,1543
54273282,1000,1000,1000,1000,68228531,1588,1588,1541,1540
54275781,1000,1000,1000,1000,68328491,1590,1591,1538,1538
54278280,1000,1000,1000,1000,68428451,1593,1594,1536,1536
54280779,1000,1000,1000,1000,68528411,1595,1595,1535,1536
54283278,1000,1000,1000,1000,68628371,1596,1595,1535,1537
54285777,1000,1000,1000,1000,68728331,1594,1593,1536,1538
54288276,1000,1000,1000,1000,68828291,1591,1591,1539,1541
54290775,1000,1000,1000,1000,68928251,1587,1586,1544,1547
54293274,1000,1000,1000,1000,69028211,1582,1580,1553,1556
54295773,1000,1000,1000,1000,69128171,1574,1570,1563,1565
54298272,1000,1000,1000,1000,69228964,1564,1561,1575,1577
54300771,1000,1000,1000,1000,69328924,1553,1549,1587,1589
54303270,1000,1000,1000,1000,69428884,1543,1541,1599,1600
54305769,1000,1000,1000,1000,69528844,1535,1534,1608,1607
54308268,1000,1000,1000,1000,69628804,1531,1532,1614,1613
54310767,1000,1000,1000,1000,69728764,1530,1531,1616,1615
54313266,1000,1000,1000,1000,69828724,1532,1535,1614,1613
54315765,1000,1000,1000,1000,69928684,1537,1539,1609,1608
54318264,1000,1000,1000,1000,70028644,1545,1547,1603,1604
54320763,1000,1000,1000,1000,70128604,1554,1555,1595,1596
54323262,1000,1000,1000,1000,70228564,1563,1563,1588,1588
54325761,1000,1000,1000,1000,70328524,1570,1570,1580,1580
54328260,1000,1000,1000,1000,70428484,1577,1576,1574,1574
54330759,1000,1000,1000,1000,70528444,1583,1581,1570,1569
54333258,1000,1000,1000,1000,70628404,1585,1584,1567,1566
54335757,1000,1000,1000,1000,70728364,1588,1586,1566,1566
54338256,1000,1000,1000,1000,70828324,1587,1586,1566,1567
54340755,1000,1000,1000,1000,70928284,1586,1585,1568,1569
54343254,1000,1000,1000,1000,71028244,1404,1403,1573,1574
54345753,1000,1000,1000,1000,71128204,1463,1465,1613,1617
54348252,1000,1000,1000,1000,71228164,1500,1506,1614,1614
54350751,1000,1000,1000,1000,71328957,1536,1541,1607,1603
54353250,1000,1000,1000,1000,71428917,1565,1569,1596,1591
54355749,1000,1000,1000,1000,71528877,1588,1588,1587,1583
54358248,1000,1000,1000,1000,71628837,1604,1601,1582,1580
54360747,1000,1000,1000,1000,71728797,1612,1607,1576,1577
54363246,1000,1000,1000,1000,71828757,1617,1612,1573,1576
54365745,1000,1000,1000,1000,71928717,1618,1614,1572,1575
54368244,1000,1000,1000,1000,72028677,1617,1615,1570,1574
54370743,1000,1000,1000,1000,72128637,1620,1620,1563,1566
54373242,1000,1000,1000,1000,72228597,1620,1622,1557,1559
54375741,1000,1000,1000,1000,72328557,1619,1620,1558,1558
54378240,1000,1000,1000,1000,72428517,1614,1613,1561,1561
54380739,1000,1000,1000,1000,72528477,1606,1605,1569,1569
54383238,1000,1000,1000,1000,72628437,1596,1594,1577,1576
54385737,1000,1000,1000,1000,72728397,1587,1586,1583,1583
54388236,1000,1000,1000,1000,72828357,1580,1580,1585,1585
54390735,1000,1000,1000,1000,72928317,1576,1577,1587,1587
54393234,1000,1000,1000,1000,73028277,1574,1575,1587,1587
54395733,1000,1000,1000,1000,73128237,1573,1575,1586,1586
54398232,1000,1000,1000,1000,73228197,1574,1575,1586,1585
54400731,1000,1000,1000,1000,73328157,1574,1575,1586,1585
54403230,1000,1000,1000,1000,73428950,1575,1576,1584,1583
54405729,1000,1000,1000,1000,73528910,1575,1576,1583,1582
54408228,1000,1000,1000,1000,73628870,1577,1578,1583,1582
54410727,1000,1000,1000,1000,73728830,1577,1578,1581,1581
54413226,1000,1000,1000,1000,73828790,1579,1578,1580,1580
54415725,1000,1000,1000,1000,73928750,1579,1579,1579,1579
54418224,1000,1000,1000,1000,74028710,1580,1580,1578,1579
54420723,1000,1000,1000,1000,74128670,1580,1580,1578,1578
54423222,1000,1000,1000,1000,74228630,1581,1581,1578,1578
54425721,1000,1000,1000,1000,74328590,1583,1581,1585,1572
54428220,1000,1000,1000,1000,74428550,1583,1580,1583,1571
54430719,1000,1000,1000,1000,74528510,1582,1580,1575,1571
54433218,1000,1000,1000,1000,74628470,1579,1578,1565,1569
54435717,1000,1000,1000,1000,74728430,1576,1578,1559,1565
54438216,1000,1000,1000,1000,74828390,1574,1578,1557,1561
54440715,1000,1000,1000,1000,74928350,1574,1578,1556,1559
54443214,1000,1000,1000,1000,75028310,1574,1576,1556,1555
54445713,1000,1000,1000,1000,75128270,1575,1576,1556,1554
54448212,1000,1000,1000,1000,75228230,1575,1575,1556,1553
54450711,1000,1000,1000,1000,75328190,1575,1574,1554,1552
54453210,1000,1000,1000,1000,75428983,1575,1574,1553,1552
54455709,1000,1000,1000,1000,75528943,1575,1575,1552,1552
54458208,1000,1000,1000,1000,75628903,1575,1576,1551,1552
54460707,1000,1000,1000,1000,75728863,1575,1577,1549,1550
54463206,1000,1000,1000,1000,75828823,1575,1577,1547,1546
54465705,1000,1000,1000,1000,75928783,1577,1579,1546,1545
54468204,1000,1000,1000,1000,76028743,1579,1580,1544,1543
54470703,1000,1000,1000,1000,76128703,1581,1582,1542,1541
54473202,1000,1000,1000,1000,76228663,1584,1584,1540,1539
54475701,1000,1000,1000,1000,76328623,1586,1586,1538,1538
54478200,1000,1000,1000,1000,76428583,1589,1588,1537,1537
54480699,1000,1000,1000,1000,76528543,1590,1590,1536,1537
54483198,1000,1000,1000,1000,76628503,1591,1591,1536,1538
54485697,1000,1000,1000,1000,76728463,1590,1589,1537,1539
54488196,1000,1000,1000,1000,76828423,1589,1588,1541,1544
54490695,1000,1000,1000,1000,76928383,1587,1586,1546,1549
54493194,1000,1000,1000,1000,77028343,1582,1581,1550,1553
54495693,1000,1000,1000,1000,77128303,1578,1576,1556,1560
54498192,1000,1000,1000,1000,77228263,1571,1570,1562,1565
54500691,1000,1000,1000,1000,77328223,1566,1563,1571,1574
54503190,1000,1000,1000,1000,77428183,1558,1556,1578,1580
54505689,1000,1000,1000,1000,77528976,1552,1550,1588,1588
54508188,1000,1000,1000,1000,77628936,1544,1543,1595,1594
54510687,1000,1000,1000,1000,77728896,1538,1537,1602,1601
54513186,1000,1000,1000,1000,77828856,1533,1533,1608,1606
54515685,1000,1000,1000,1000,77928816,1530,1532,1610,1610
54518184,1000,1000,1000,1000,78028776,1531,1533,1609,1609
54520683,1000,1000,1000,1000,78128736,1536,1538,1607,1606
54523182,1000,1000,1000,1000,78228696,1541,1543,1600,1601
54525681,1000,1000,1000,1000,78328656,1549,1551,1593,1594
54528180,1000,1000,1000,1000,78428616,1558,1559,1586,1586
54530679,1000,1000,1000,1000,78528576,1567,1567,1580,1579
54533178,1000,1000,1000,1000,78628536,1574,1573,1574,1573
54535677,1000,1000,1000,1000,78728496,1581,1580,1571,1570
54538176,1000,1000,1000,1000,78828456,1585,1583,1568,1568
54540675,1000,1000,1000,1000,78928416,1587,1586,1568,1568
54543174,1000,1000,1000,1000,79028376,1587,1586,1567,1567
54545673,1000,1000,1000,1000,79128336,1588,1586,1569,1569
54548172,1000,1000,1000,1000,79228296,1587,1586,1571,1571
54550671,1000,1000,1000,1000,79328256,1585,1584,1572,1572
54553170,1000,1000,1000,1000,79428216,1584,1584,1574,1575
54555669,1000,1000,1000,1000,79528176,1582,1582,1576,1576
54558168,1000,1000,1000,1000,79628969,1581,1582,1578,1578
54560667,1000,1000,1000,1000,79728929,1579,1580,1579,1579
54563166,1000,1000,1000,1000,79828889,1578,1578,1580,1580
54565665,1000,1000,1000,1000,79928849,1576,1577,1580,1580
54568164,1000,1000,1000,1000,80028809,1576,1576,1581,1581
54570663,1000,1000,1000,1000,80128769,1575,1575,1581,1581
54573162,1000,1000,1000,1000,80228729,1575,1576,1582,1582
54575661,1000,1000,1000,1000,80328689,1576,1577,1583,1583
54578160,1000,1000,1000,1000,80428649,1576,1577,1582,1582
54580659,1000,1000,1000,1000,80528609,1577,1577,1581,1581
54583158,1000,1000,1000,1000,80628569,1577,1577,1580,1580
54585657,1000,1000,1000,1000,80728529,1579,1579,1580,1580
54588156,1000,1000,1000,1000,80828489,1579,1579,1579,1580
54590655,1000,1000,1000,1000,80928449,1580,1580,1580,1580
54593154,1000,1000,1000,1000,81028409,1581,1580,1579,1579
54596486,1000,1000,1000,1000,81128369,1581,1581,1579,1579
54598985,1000,1000,1000,1000,81228329,1581,1581,1578,1578
54601484,1000,1000,1000,1000,81328289,1582,1581,1579,1578
54603983,1000,1000,1000,1000,81428249,1582,1581,1579,1579
54606482,1000,1000,1000,1000,81528209,1581,1582,1579,1579
54608981,1000,1000,1000,1000,81628169,1582,1582,1579,1580
54611480,1000,1000,1000,1000,81728962,1581,1581,1580,1580
54613979,1000,1000,1000,1000,81828922,1581,1581,1580,1580
54616478,1000,1000,1000,1000,81928882,1582,1581,1582,1581
54618977,1000,1000,1000,1000,82028842,1581,1581,1581,1581
54621476,1000,1000,1000,1000,82128802,1581,1582,1582,1582
54623975,1000,1000,1000,1000,82228762,1580,1581,1582,1582
54626474,1000,1000,1000,1000,82328722,1581,1581,1582,1582
54628973,1000,1000,1000,1000,82428682,1580,1580,1581,1581
54631472,1000,1000,1000,1000,82528642,1580,1580,1581,1581
54633971,1000,1000,1000,1000,82628602,1581,1581,1581,1581
54636470,1000,1000,1000,1000,82728562,1582,1581,1581,1581
54638969,1000,1000,1000,1000,82828522,1582,1581,1582,1582
54641468,1000,1000,1000,1000,82928482,1582,1582,1582,1582
54643967,1000,1000,1000,1000,83028442,1581,1582,1587,1575
54646466,1000,1000,1000,1000,83128402,1581,1582,1585,1573
54648965,1000,1000,1000,1000,83228362,1580,1581,1577,1573
54651464,1000,1000,1000,1000,83328322,1578,1580,1568,1571
54653963,1000,1000,1000,1000,83428282,1576,1578,1560,1566
54656462,1000,1000,1000,1000,83528242,1577,1578,1556,1563
54658961,1000,1000,1000,1000,83628202,1578,1579,1556,1559
54661460,1000,1000,1000,1000,83728162,1578,1578,1556,1556
54663959,1000,1000,1000,1000,83828955,1578,1577,1555,1554
54666458,1000,1000,1000,1000,83928915,1578,1577,1556,1553
54668957,1000,1000,1000,1000,84028875,1577,1577,1556,1554
54671456,1000,1000,1000,1000,84128835,1576,1576,1555,1554
54673955,1000,1000,1000,1000,84228795,1576,1577,1556,1555
54676454,1000,1000,1000,1000,84328755,1576,1577,1555,1554
54678953,1000,1000,1000,1000,84428715,1575,1577,1552,1553
54681452,1000,1000,1000,1000,84528675,1576,1578,1551,1551
54683951,1000,1000,1000,1000,84628635,1577,1579,1549,1550
54686450,1000,1000,1000,1000,84728595,1580,1581,1548,1548
54688949,1000,1000,1000,1000,84828555,1582,1582,1545,1545
54691448,1000,1000,1000,1000,84928515,1584,1584,1543,1543
54693947,1000,1000,1000,1000,85028475,1764,1765,1535,1535
54696446,1000,1000,1000,1000,85128435,1712,1710,1493,1492
54698945,1000,1000,1000,1000,85228395,1673,1671,1496,1498
54701444,1000,1000,1000,1000,85328355,1632,1631,1509,1514
54703943,1000,1000,1000,1000,85428315,1593,1594,1528,1534
54706442,1000,1000,1000,1000,85528275,1561,1561,1549,1554
54708941,1000,1000,1000,1000,85628235,1537,1536,1565,1568
54711440,1000,1000,1000,1000,85728195,1527,1525,1576,1578
54713939,1000,1000,1000,1000,85828155,1521,1518,1582,1582
54716438,1000,1000,1000,1000,85928948,1520,1517,1589,1587
54718937,1000,1000,1000,1000,86028908,1520,1518,1593,1591
54721436,1000,1000,1000,1000,86128868,1523,1521,1597,1595
54723935,1000,1000,1000,1000,86228828,1524,1524,1599,1597
54726434,1000,1000,1000,1000,86328788,1527,1528,1600,1599
54728933,1000,1000,1000,1000,86428748,1531,1532,1600,1600
54731432,1000,1000,1000,1000,86528708,1536,1537,1601,1601
54733931,1000,1000,1000,1000,86628668,1539,1540,1600,1601
54736430,1000,1000,1000,1000,86728628,1546,1546,1599,1599
54738929,1000,1000,1000,1000,86828588,1551,1551,1596,1597
54741428,1000,1000,1000,1000,86928548,1557,1557,1595,1595
54743927,1000,1000,1000,1000,87028508,1563,1563,1594,1593
54746426,1000,1000,1000,1000,87128468,1566,1567,1592,1590
54748925,1000,1000,1000,1000,87228428,1569,1571,1588,1588
54751424,1000,1000,1000,1000,87328388,1573,1574,1587,1586
54753923,1000,1000,1000,1000,87428348,1576,1576,1583,1584
54756422,1000,1000,1000,1000,87528308,1578,1577,1581,1581
54758921,1000,1000,1000,1000,87628268,1580,1578,1579,1579
54761420,1000,1000,1000,1000,87728228,1581,1580,1578,1577
54763919,1000,1000,1000,1000,87828188,1582,1581,1577,1576
54766418,1000,1000,1000,1000,87928981,1582,1581,1576,1575
54768917,1000,1000,1000,1000,88028941,1583,1582,1576,1576
54771416,1000,1000,1000,1000,88128901,1583,1582,1575,1575
54773915,1000,1000,1000,1000,88228861,1583,1582,1576,1575
54776414,1000,1000,1000,1000,88328821,1581,1581,1575,1575
54778913,1000,1000,1000,1000,88428781,1581,1581,1576,1576
54781412,1000,1000,1000,1000,88528741,1581,1581,1576,1577
54783911,1000,1000,1000,1000,88628701,1580,1580,1577,1577
54786410,1000,1000,1000,1000,88728661,1578,1578,1576,1576
54788909,1000,1000,1000,1000,88828621,1578,1578,1577,1577
54791408,1000,1000,1000,1000,88928581,1578,1578,1578,1578
54793907,1000,1000,1000,1000,89028541,1578,1578,1579,1579
54796406,1000,1000,1000,1000,89128501,1578,1578,1580,1580
54798905,1000,1000,1000,1000,89228461,1577,1578,1580,1579
54801404,1000,1000,1000,1000,89328421,1578,1578,1580,1580
54803903,1000,1000,1000,1000,89428381,1578,1578,1581,1580
54806402,1000,1000,1000,1000,89528341,1577,1577,1579,1579
54808901,1000,1000,1000,1000,89628301,1577,1577,1579,1580
54811400,1000,1000,1000,1000,89728261,1578,1578,1579,1580
54813899,1000,1000,1000,1000,89828221,1579,1578,1580,1580
54816398,1000,1000,1000,1000,89928181,1579,1579,1580,1580
54818897,1000,1000,1000,1000,90028974,1579,1579,1580,1580
54821396,1000,1000,1000,1000,90128934,1581,1580,1581,1581
54823895,1000,1000,1000,1000,90228894,1580,1580,1580,1580
54826394,1000,1000,1000,1000,90328854,1580,1581,1580,1580
54828893,1000,1000,1000,1000,90428814,1581,1581,1580,1580
54831392,1000,1000,1000,1000,90528774,1580,1581,1580,1580
54833891,1000,1000,1000,1000,90628734,1580,1581,1580,1580
54836390,1000,1000,1000,1000,90728694,1581,1581,1580,1581
54838889,1000,1000,1000,1000,90828654,1581,1581,1580,1581
54841388,1000,1000,1000,1000,90928614,1582,1581,1581,1581
54843887,1000,1000,1000,1000,91028574,1582,1582,1582,1579
54846386,1000,1000,1000,1000,91128534,1581,1583,1587,1572
54848885,1000,1000,1000,1000,91228494,1579,1581,1582,1573
54851384,1000,1000,1000,1000,91328454,1577,1579,1576,1575
54853883,1000,1000,1000,1000,91428414,1573,1574,1569,1574
54856382,1000,1000,1000,1000,91528374,1571,1571,1566,1573
54858881,1000,1000,1000,1000,91628334,1570,1569,1565,1571
54861380,1000,1000,1000,1000,91728294,1568,1566,1566,1568
54863879,1000,1000,1000,1000,91828254,1568,1566,1567,1567
54866378,1000,1000,1000,1000,91928214,1567,1565,1568,1565
54868877,1000,1000,1000,1000,92028174,1566,1566,1568,1565
54871376,1000,1000,1000,1000,92128967,1563,1564,1566,1564
54873875,1000,1000,1000,1000,92228927,1563,1564,1565,1564
54876374,1000,1000,1000,1000,92328887,1562,1563,1564,1564
54878873,1000,1000,1000,1000,92428847,1562,1562,1562,1564
54881372,1000,1000,1000,1000,92528807,1562,1562,1563,1563
54883871,1000,1000,1000,1000,92628767,1562,1561,1562,1562
54886370,1000,1000,1000,1000,92728727,1561,1560,1561,1561
54888869,1000,1000,1000,1000,92828687,1560,1560,1561,1560
54891368,1000,1000,1000,1000,92928647,1561,1561,1561,1560
54893867,1000,1000,1000,1000,93028607,1559,1560,1560,1559
54896366,1000,1000,1000,1000,93128567,1558,1558,1559,1558
54898865,1000,1000,1000,1000,93228527,1558,1558,1558,1557
54901364,1000,1000,1000,1000,93328487,1558,1559,1558,1558
54903863,1000,1000,1000,1000,93428447,1558,1558,1558,1558
54906362,1000,1000,1000,1000,93528407,1558,1558,1558,1557
54908861,1000,1000,1000,1000,93628367,1558,1558,1558,1556
54911360,1000,1000,1000,1000,93728327,1558,1558,1559,1556
54913859,1000,1000,1000,1000,93828287,1557,1558,1559,1556
54916358,1000,1000,1000,1000,93928247,1558,1559,1558,1560
54918857,1000,1000,1000,1000,94028207,1559,1560,1557,1562
54921356,1000,1000,1000,1000,94128167,1561,1560,1557,1563
54923855,1000,1000,1000,1000,94228960,1562,1561,1559,1564
54926354,1000,1000,1000,1000,94328920,1563,1561,1560,1564
54928853,1000,1000,1000,1000,94428880,1563,1562,1562,1563
54931352,1000,1000,1000,1000,94528840,1562,1561,1563,1560
54933851,1000,1000,1000,1000,94628800,1560,1561,1563,1559
54936350,1000,1000,1000,1000,94728760,1559,1561,1560,1560
54938849,1000,1000,1000,1000,94828720,1559,1559,1556,1562
54941348,1000,1000,1000,1000,94928680,1555,1555,1552,1558
54943847,1000,1000,1000,1000,95028640,1551,1550,1549,1552
54946346,1000,1000,1000,1000,95128600,1545,1544,1545,1545
54948845,1000,1000,1000,1000,95228560,1538,1538,1539,1538
54951344,1000,1000,1000,1000,95328520,1531,1531,1532,1530
54953843,1000,1000,1000,1000,95428480,1523,1523,1524,1522
54956342,1000,1000,1000,1000,95528440,1519,1520,1520,1519
54958841,1000,1000,1000,1000,95628400,1519,1519,1519,1519
54961340,1000,1000,1000,1000,95728360,1520,1521,1520,1521
54963839,1000,1000,1000,1000,95828320,1524,1524,1523,1524
54966338,1000,1000,1000,1000,95928280,1527,1527,1526,1527
54968837,1000,1000,1000,1000,96028240,1531,1531,1531,1531
54971336,1000,1000,1000,1000,96128200,1536,1536,1536,1536
54973835,1000,1000,1000,1000,96228160,1539,1539,1539,1539
54976334,1000,1000,1000,1000,96328953,1542,1542,1542,1542
54978833,1000,1000,1000,1000,96428913,1544,1544,1544,1544
54981332,1000,1000,1000,1000,96528873,1544,1545,1545,1544
54983831,1000,1000,1000,1000,96628833,1546,1546,1546,1546
54986330,1000,1000,1000,1000,96728793,1546,1545,1546,1546
54988829,1000,1000,1000,1000,96828753,1546,1546,1546,1546
54991328,1000,1000,1000,1000,96928713,1545,1545,1545,1545
54993827,1000,1000,1000,1000,97028673,1547,1546,1547,1546
54996326,1000,1000,1000,1000,97128633,1546,1546,1546,1546
54998825,1000,1000,1000,1000,97228593,1546,1546,1546,1547
55001324,1000,1000,1000,1000,97328553,1546,1546,1546,1546
55003823,1000,1000,1000,1000,97428513,1545,1546,1546,1545
55006322,1000,1000,1000,1000,97528473,1546,1546,1546,1546
55008821,1000,1000,1000,1000,97628433,1545,1545,1546,1545
55011320,1000,1000,1000,1000,97728393,1546,1545,1546,1546
55013819,1000,1000,1000,1000,97828353,1545,1545,1546,1545
55016318,1000,1000,1000,1000,97928313,1545,1545,1545,1544
55018817,1000,1000,1000,1000,98028273,1544,1545,1545,1544
55021316,1000,1000,1000,1000,98128233,1544,1544,1543,1545
55023815,1000,1000,1000,1000,98228193,1544,1545,1545,1545
55026314,1000,1000,1000,1000,98328986,1544,1545,1545,1545
55028813,1000,1000,1000,1000,98428946,1544,1545,1545,1545
55031312,1000,1000,1000,1000,98528906,1544,1543,1543,1544
55033811,1000,1000,1000,1000,98628866,1544,1544,1544,1544
55036310,1000,1000,1000,1000,98728826,1544,1543,1544,1544
55038809,1000,1000,1000,1000,98828786,1544,1544,1544,1544
55041308,1000,1000,1000,1000,98928746,1545,1544,1544,1545
55043807,1000,1000,1000,1000,99028706,1545,1545,1545,1545
55046306,1000,1000,1000,1000,99128666,1544,1544,1544,1544
55048805,1000,1000,1000,1000,99228626,1544,1544,1544,1544
55051304,1000,1000,1000,1000,99328586,1544,1544,1544,1544
55053803,1000,1000,1000,1000,99428546,1543,1544,1544,1543
55056302,1000,1000,1000,1000,99528506,1545,1544,1544,1545
55058801,1000,1000,1000,1000,99628466,1544,1544,1544,1544
55061300,1000,1000,1000,1000,99728426,1544,1544,1544,1544
55063799,1000,1000,1000,1000,99828386,1544,1544,1544,1544
55066298,1000,1000,1000,1000,99928346,1544,1545,1545,1545
55068797,1000,1000,1000,1000,100028306,1544,1544,1545,1544
55071296,1000,1000,1000,1000,100128266,1545,1544,1544,1545
55073795,1000,1000,1000,1000,100228226,1544,1544,1544,1544
55076294,1000,1000,1000,1000,100328186,1544,1544,1544,1544
55078793,1000,1000,1000,1000,100428979,1545,1544,1545,1544
55081292,1000,1000,1000,1000,100528939,1545,1544,1544,1545
55083791,1000,1000,1000,1000,100628899,1544,1545,1544,1544
55086290,1000,1000,1000,1000,100728859,1544,1545,1544,1545
55088789,1000,1000,1000,1000,100828819,1544,1544,1544,1544
55091288,1000,1000,1000,1000,100928779,1545,1545,1545,1545
55093787,1000,1000,1000,1000,101028739,1545,1545,1545,1545
55096286,1000,1000,1000,1000,101128699,1544,1544,1544,1544
55098785,1000,1000,1000,1000,101228659,1544,1544,1545,1544
55101284,1000,1000,1000,1000,101328619,1545,1544,1545,1545
55103783,1000,1000,1000,1000,101428579,1544,1544,1544,1544
55106282,1000,1000,1000,1000,101528539,1544,1544,1544,1544
55108781,1000,1000,1000,1000,101628499,1544,1544,1544,1544
55111280,1000,1000,1000,1000,101728459,1544,1544,1544,1544
55113779,1000,1000,1000,1000,101828419,1544,1544,1544,1544
55116278,1000,1000,1000,1000,101928379,1544,1544,1544,1544
55118777,1000,1000,1000,1000,102028339,1544,1544,1544,1544
55121276,1000,1000,1000,1000,102128299,1544,1544,1544,1545
55123775,1000,1000,1000,1000,102228259,1545,1545,1545,1545
55126274,1000,1000,1000,1000,102328219,1544,1544,1544,1544
55128773,1000,1000,1000,1000,102428179,1545,1545,1545,1545
55131272,1000,1000,1000,1000,102528972,1544,1545,1544,1545
55133771,1000,1000,1000,1000,102628932,1544,1544,1545,1544
55136270,1000,1000,1000,1000,102728892,1544,1544,1544,1544
55138769,1000,1000,1000,1000,102828852,1544,1545,1544,1544
55141268,1000,1000,1000,1000,102928812,1545,1544,1544,1544
55143767,1000,1000,1000,1000,103028772,1544,1544,1545,1545
55146266,1000,1000,1000,1000,103128732,1544,1544,1544,1544
55148765,1000,1000,1000,1000,103228692,1544,1544,1544,1544
55151264,1000,1000,1000,1000,103328652,1543,1543,1543,1543
55153763,1000,1000,1000,1000,103428612,1544,1544,1544,1544
55156262,1000,1000,1000,1000,103528572,1544,1544,1544,1544
55158761,1000,1000,1000,1000,103628532,1543,1544,1543,1544
55161260,1000,1000,1000,1000,103728492,1544,1544,1544,1544
55163759,1000,1000,1000,1000,103828452,1545,1545,1545,1545
55166258,1000,1000,1000,1000,103928412,1544,1544,1544,1544
55168757,1000,1000,1000,1000,104028372,1544,1545,1545,1544
55171256,1000,1000,1000,1000,104128332,1544,1544,1544,1544
55173755,1000,1000,1000,1000,104228292,1543,1543,1544,1543
55176254,1000,1000,1000,1000,104328252,1544,1544,1543,1545
55178753,1000,1000,1000,1000,104428212,1544,1544,1544,1544
55181252,1000,1000,1000,1000,104528172,1544,1544,1544,1544
55183751,1000,1000,1000,1000,104628965,1544,1544,1544,1544
55186250,1000,1000,1000,1000,104728925,1544,1544,1544,1544
55188749,1000,1000,1000,1000,104828885,1544,1545,1545,1545
55191248,1000,1000,1000,1000,104928845,1545,1544,1544,1544
55193747,1000,1000,1000,1000,105028805,1545,1545,1545,1544
55196246,1000,1000,1000,1000,105128765,1545,1544,1545,1544
55198745,1000,1000,1000,1000,105228725,1545,1545,1545,1546
55201244,1000,1000,1000,1000,105328685,1396,1394,1396,1396
55203743,1000,1000,1000,1000,105428645,1265,1263,1266,1265
55206242,1000,1000,1000,1000,105528605,1219,1216,1219,1219
55208741,1000,1000,1000,1000,105628565,1199,1197,1201,1200
55211240,1000,1000,1000,1000,105728525,1159,1156,1160,1160
55213739,1000,1000,1000,1000,105828485,1152,1150,1155,1153
55216238,1000,1000,1000,1000,105928445,1153,1150,1155,1155
55218737,1000,1000,1000,1000,106028405,1186,1150,1155,1189
55221236,1000,1000,1000,1000,106128365,1176,1150,1157,1179
55223735,1000,1000,1000,1000,106228325,1173,1150,1158,1175
55226234,1000,1000,1000,1000,106328285,1174,1150,1158,1177
55228733,1000,1000,1000,1000,106428245,1176,1150,1159,1179
55231232,1000,1000,1000,1000,106528205,1178,1150,1159,1182
55233731,1000,1000,1000,1000,106628165,1180,1150,1160,1184
55236230,1000,1000,1000,1000,106728958,1182,1150,1160,1186
55238729,1000,1000,1000,1000,106828918,1167,1150,1160,1172
55241228,1000,1000,1000,1000,106928878,1168,1150,1160,1174
55243727,1000,1000,1000,1000,107028838,1169,1150,1161,1175
55246226,1000,1000,1000,1000,107128798,1170,1150,1161,1176
55248725,1000,1000,1000,1000,107228758,1170,1150,1161,1177
55251224,1000,1000,1000,1000,107328718,1000,1000,1000,1000
55253723,1000,1000,1000,1000,107428678,1000,1000,1000,1000
55256222,1000,1000,1000,1000,107528638,1000,1000,1000,1000
55258721,1000,1000,1000,1000,107628598,1000,1000,1000,1000
55261220,1000,1000,1000,1000,107728558,1000,1000,1000,1000
55263719,1000,1000,1000,1000,107828518,1000,1000,1000,1000
55266218,1000,1000,1000,1000,107928478,1000,1000,1000,1000
55268717,1000,1000,1000,1000,108028438,1000,1000,1000,1000
55271216,1000,1000,1000,1000,108128398,1000,1000,1000,1000
55273715,1000,1000,1000,1000,108228358,1000,1000,1000,1000
55276214,1000,1000,1000,1000,108328318,1000,1000,1000,1000
55278713,1000,1000,1000,1000,108428278,1000,1000,1000,1000
55281212,1000,1000,1000,1000,108528238,1000,1000,1000,1000
55283711,1000,1000,1000,1000,108628198,1000,1000,1000,1000
55286210,1000,1000,1000,1000,108728158,1000,1000,1000,1000
55288709,1000,1000,1000,1000,108828951,1000,1000,1000,1000
55291208,1000,1000,1000,1000,108928911,1000,1000,1000,1000
55293707,1000,1000,1000,1000,109028871,1000,1000,1000,1000
55296206,1000,1000,1000,1000,109128831,1000,1000,1000,1000
55298705,1000,1000,1000,1000,109228791,1000,1000,1000,1000
55301204,1000,1000,1000,1000,109328751,1000,1000,1000,1000
55303703,1000,1000,1000,1000,109428711,1000,1000,1000,1000
55306202,1000,1000,1000,1000,109528671,1000,1000,1000,1000
55308701,1000,1000,1000,1000,109628631,1000,1000,1000,1000
55311200,1000,1000,1000,1000,109728591,1000,1000,1000,1000
55313699,1000,1000,1000,1000,109828551,1000,1000,1000,1000
55316198,1000,1000,1000,1000,109928511,1000,1000,1000,1000
55318697,1000,1000,1000,1000,110028471,1000,1000,1000,1000
55321196,1000,1000,1000,1000,110128431,1000,1000,1000,1000
55323695,1000,1000,1000,1000,110228391,1000,1000,1000,1000
55326194,1000,1000,1000,1000,110328351,1000,1000,1000,1000
55328693,1000,1000,1000,1000,110428311,1000,1000,1000,1000
55331192,1000,1000,1000,1000,110528271,1000,1000,1000,1000
55333691,1000,1000,1000,1000,110628231,1000,1000,1000,1000
55336190,1000,1000,1000,1000,110728191,1000,1000,1000,1000
55338689,1000,1000,1000,1000,110828984,1000,1000,1000,1000
55341188,1000,1000,1000,1000,110928944,1000,1000,1000,1000
55343687,1000,1000,1000,1000,111028904,1000,1000,1000,1000
55346186,1000,1000,1000,1000,111128864,1000,1000,1000,1000
55348685,1000,1000,1000,1000,111228824,1000,1000,1000,1000
55351184,1000,1000,1000,1000,111328784,1000,1000,1000,1000
55353683,1000,1000,1000,1000,111428744,1000,1000,1000,1000
55356182,1000,1000,1000,1000,111528704,1000,1000,1000,1000
55358681,1000,1000,1000,1000,111628664,1000,1000,1000,1000
55361180,1000,1000,1000,1000,111728624,1000,1000,1000,1000
55363679,1000,1000,1000,1000,111828584,1000,1000,1000,1000
55366178,1000,1000,1000,1000,111928544,1000,1000,1000,1000
55368677,1000,1000,1000,1000,112028504,1000,1000,1000,1000
55371176,1000,1000,1000,1000,112128464,1000,1000,1000,1000
55373675,1000,1000,1000,1000,112228424,1000,1000,1000,1000
55376174,1000,1000,1000,1000,112328384,1000,1000,1000,1000
55378673,1000,1000,1000,1000,112428344,1000,1000,1000,1000
55381172,1000,1000,1000,1000,112528304,1000,1000,1000,1000
55383671,1000,1000,1000,1000,112628264,1000,1000,1000,1000
55386170,1000,1000,1000,1000,112728224,1000,1000,1000,1000
55388669,1000,1000,1000,1000,112828184,1000,1000,1000,1000
55391168,1000,1000,1000,1000,112928977,1000,1000,1000,1000
55393667,1000,1000,1000,1000,113028937,1000,1000,1000,1000
55396166,1000,1000,1000,1000,113128897,1000,1000,1000,1000
55398665,1000,1000,1000,1000,113228857,1000,1000,1000,1000
55401164,1000,1000,1000,1000,113328817,1000,1000,1000,1000
55403663,1000,1000,1000,1000,113428777,1000,1000,1000,1000
55406162,1000,1000,1000,1000,113528737,1000,1000,1000,1000
55408661,1000,1000,1000,1000,113628697,1000,1000,1000,1000
55411160,1000,1000,1000,1000,113728657,1000,1000,1000,1000
55413659,1000,1000,1000,1000,113828617,1000,1000,1000,1000
55416158,1000,1000,1000,1000,113928577,1000,1000,1000,1000
55418657,1000,1000,1000,1000,114028537,1000,1000,1000,1000
55421156,1000,1000,1000,1000,,,,,
55423655,1000,1000,1000,1000,,,,,
55426154,1000,1000,1000,1000,,,,,
55428653,1000,1000,1000,1000,,,,,
55431152,1000,1000,1000,1000,,,,,
55433651,1000,1000,1000,1000,,,,,
55436150,1000,1000,1000,1000,,,,,
55438649,1000,1000,1000,1000,,,,,
55441148,1000,1000,1000,1000,,,,,
55443647,1000,1000,1000,1000,,,,,
55446146,1000,1000,1000,1000,,,,,
55448645,1000,1000,1000,1000,,,,,
55451144,1000,1000,1000,1000,,,,,
55453643,1000,1000,1000,1000,,,,,
55456142,1000,1000,1000,1000,,,,,
55458641,1000,1000,1000,1000,,,,,
55461140,1000,1000,1000,1000,,,,,
55463639,1000,1000,1000,1000,,,,,
55466138,1000,1000,1000,1000,,,,,
55468637,1000,1000,1000,1000,,,,,
55471136,1000,1000,1000,1000,,,,,
55473635,1000,1000,1000,1000,,,,,
55476134,1000,1000,1000,1000,,,,,
55478633,1000,1000,1000,1000,,,,,
55481132,1000,1000,1000,1000,,,,,
55483631,1000,1000,1000,1000,,,,,
55486130,1000,1000,1000,1000,,,,,
55488629,1000,1000,1000,1000,,,,,
55491128,1000,1000,1000,1000,,,,,
55493627,1000,1000,1000,1000,,,,,
55496126,1000,1000,1000,1000,,,,,
55498625,1000,1000,1000,1000,,,,,
55501124,1000,1000,1000,1000,,,,,
55503623,1000,1000,1000,1000,,,,,
55506122,1000,1000,1000,1000,,,,,
55508621,1000,1000,1000,1000,,,,,
55511120,1000,1000,1000,1000,,,,,
55513619,1000,1000,1000,1000,,,,,
55516118,1000,1000,1000,1000,,,,,
55518617,1000,1000,1000,1000,,,,,
55521116,1000,1000,1000,1000,,,,,
55523615,1000,1000,1000,1000,,,,,
55526114,1000,1000,1000,1000,,,,,
55528613,1000,1000,1000,1000,,,,,
55531112,1000,1000,1000,1000,,,,,
55533611,1000,1000,1000,1000,,,,,
55536110,1000,1000,1000,1000,,,,,
55538609,1000,1000,1000,1000,,,,,
55541108,1000,1000,1000,1000,,,,,
55543607,1000,1000,1000,1000,,,,,
55546106,1000,1000,1000,1000,,,,,
55548605,1000,1000,1000,1000,,,,,
55551104,1000,1000,1000,1000,,,,,
55553603,1000,1000,1000,1000,,,,,
55556102,1000,1000,1000,1000,,,,,
55558601,1000,1000,1000,1000,,,,,
55561100,1000,1000,1000,1000,,,,,
55563599,1000,1000,1000,1000,,,,,
55566098,1000,1000,1000,1000,,,,,
55568597,1000,1000,1000,1000,,,,,
55571096,1000,1000,1000,1000,,,,,
55573595,1000,1000,1000,1000,,,,,
55576094,1000,1000,1000,1000,,,,,
55578593,1000,1000,1000,1000,,,,,
55581092,1000,1000,1000,1000,,,,,
55583591,1000,1000,1000,1000,,,,,
55586090,1000,1000,1000,1000,,,,,
55588589,1000,1000,1000,1000,,,,,
55591088,1000,1000,1000,1000,,,,,
55593587,1000,1000,1000,1000,,,,,
55596086,1000,1000,1000,1000,,,,,
55598585,1000,1000,1000,1000,,,,,
55601084,1000,1000,1000,1000,,,,,
55603583,1000,1000,1000,1000,,,,,
55606082,1000,1000,1000,1000,,,,,
55608581,1000,1000,1000,1000,,,,,
55611080,1000,1000,1000,1000,,,,,
55613579,1000,1000,1000,1000,,,,,
55616078,1000,1000,1000,1000,,,,,
55618577,1000,1000,1000,1000,,,,,
55621076,1000,1000,1000,1000,,,,,
55623575,1000,1000,1000,1000,,,,,
55626074,1000,1000,1000,1000,,,,,
55628573,1000,1000,1000,1000,,,,,
55631072,1000,1000,1000,1000,,,,,
55633571,1000,1000,1000,1000,,,,,
55636070,1000,1000,1000,1000,,,,,
55638569,1000,1000,1000,1000,,,,,
55641068,1000,1000,1000,1000,,,,,
55643567,1000,1000,1000,1000,,,,,
55646066,1000,1000,1000,1000,,,,,
55648565,1000,1000,1000,1000,,,,,
55651064,1000,1000,1000,1000,,,,,
55653563,1000,1000,1000,1000,,,,,
55656062,1000,1000,1000,1000,,,,,
55658561,1000,1000,1000,1000,,,,,
55661060,1000,1000,1000,1000,,,,,
55663559,1000,1000,1000,1000,,,,,
55666058,1000,1000,1000,1000,,,,,
55668557,1000,1000,1000,1000,,,,,
55671056,1000,1000,1000,1000,,,,,
55673555,1000,1000,1000,1000,,,,,
55676054,1000,1000,1000,1000,,,,,
55678553,1000,1000,1000,1000,,,,,
55681052,1000,1000,1000,1000,,,,,
55683551,1000,1000,1000,1000,,,,,
55686050,1000,1000,1000,1000,,,,,
55688549,1000,1000,1000,1000,,,,,
55691048,1000,1000,1000,1000,,,,,
55693547,1000,1000,1000,1000,,,,,
55696046,1000,1000,1000,1000,,,,,
55698545,1000,1000,1000,1000,,,,,
55701044,1000,1000,1000,1000,,,,,
55703543,1000,1000,1000,1000,,,,,
55706042,1000,1000,1000,1000,,,,,
55708541,1000,1000,1000,1000,,,,,
55711040,1000,1000,1000,1000,,,,,
55713539,1000,1000,1000,1000,,,,,
55716038,1000,1000,1000,1000,,,,,
55718537,1000,1000,1000,1000,,,,,
55721036,1000,1000,1000,1000,,,,,
55723535,1000,1000,1000,1000,,,,,
55726034,1000,1000,1000,1000,,,,,
55728533,1000,1000,1000,1000,,,,,
55731032,1000,1000,1000,1000,,,,,
55733531,1000,1000,1000,1000,,,,,
55736030,1000,1000,1000,1000,,,,,
55738529,1000,1000,1000,1000,,,,,
55741028,1000,1000,1000,1000,,,,,
55743527,1000,1000,1000,1000,,,,,
55746026,1000,1000,1000,1000,,,,,
55748525,1000,1000,1000,1000,,,,,
55751024,1000,1000,1000,1000,,,,,
55753523,1000,1000,1000,1000,,,,,
55756022,1000,1000,1000,1000,,,,,
55758521,1000,1000,1000,1000,,,,,
55761020,1000,1000,1000,1000,,,,,
55763519,1000,1000,1000,1000,,,,,
55766018,1000,1000,1000,1000,,,,,
55768517,1000,1000,1000,1000,,,,,
55771016,1000,1000,1000,1000,,,,,
55773515,1000,1000,1000,1000,,,,,
55776014,1000,1000,1000,1000,,,,,
55778513,1000,1000,1000,1000,,,,,
55781012,1000,1000,1000,1000,,,,,
55783511,1000,1000,1000,1000,,,,,
55786010,1000,1000,1000,1000,,,,,
55788509,1000,1000,1000,1000,,,,,
55791008,1000,1000,1000,1000,,,,,
55793507,1000,1000,1000,1000,,,,,
55796006,1000,1000,1000,1000,,,,,
55798505,1000,1000,1000,1000,,,,,
55801004,1000,1000,1000,1000,,,,,
55803503,1000,1000,1000,1000,,,,,
55806002,1000,1000,1000,1000,,,,,
55808501,1000,1000,1000,1000,,,,,
55811000,1000,1000,1000,1000,,,,,
55813499,1000,1000,1000,1000,,,,,
55815998,1000,1000,1000,1000,,,,,
55818497,1000,1000,1000,1000,,,,,
55820996,1000,1000,1000,1000,,,,,
55823495,1000,1000,1000,1000,,,,,
55825994,1000,1000,1000,1000,,,,,
55828493,1000,1000,1000,1000,,,,,
55830992,1000,1000,1000,1000,,,,,
55833491,1000,1000,1000,1000,,,,,
55835990,1000,1000,1000,1000,,,,,
55838489,1000,1000,1000,1000,,,,,
55840988,1000,1000,1000,1000,,,,,
55843487,1000,1000,1000,1000,,,,,
55845986,1000,1000,1000,1000,,,,,
55848485,1000,1000,1000,1000,,,,,
55850984,1000,1000,1000,1000,,,,,
55853483,1000,1000,1000,1000,,,,,
55855982,1000,1000,1000,1000,,,,,
55858481,1000,1000,1000,1000,,,,,
55860980,1000,1000,1000,1000,,,,,
55863479,1000,1000,1000,1000,,,,,
55865978,1000,1000,1000,1000,,,,,
55868477,1000,1000,1000,1000,,,,,
55870976,1000,1000,1000,1000,,,,,
55873475,1000,1000,1000,1000,,,,,
55875974,1000,1000,1000,1000,,,,,
55878473,1000,1000,1000,1000,,,,,
55880972,1000,1000,1000,1000,,,,,
55883471,1000,1000,1000,1000,,,,,
55885970,1000,1000,1000,1000,,,,,
55888469,1000,1000,1000,1000,,,,,
55890968,1000,1000,1000,1000,,,,,
55893467,1000,1000,1000,1000,,,,,
55895966,1000,1000,1000,1000,,,,,
55898465,1000,1000,1000,1000,,,,,
55900964,1000,1000,1000,1000,,,,,
55903463,1000,1000,1000,1000,,,,,
55905962,1000,1000,1000,1000,,,,,
55908461,1000,1000,1000,1000,,,,,
55910960,1000,1000,1000,1000,,,,,
55913459,1000,1000,1000,1000,,,,,
55915958,1000,1000,1000,1000,,,,,
55918457,1000,1000,1000,1000,,,,,
55920956,1000,1000,1000,1000,,,,,
55923455,1001,1001,1001,1001,,,,,
55925954,1002,1002,1002,1002,,,,,
55928453,1003,1003,1003,1003,,,,,
55930952,1003,1003,1003,1003,,,,,
55933451,1004,1004,1004,1004,,,,,
55935950,1005,1005,1005,1005,,,,,
55938449,1006,1006,1006,1006,,,,,
55940948,1006,1006,1006,1006,,,,,
55943447,1007,1007,1007,1007,,,,,
55945946,1008,1008,1008,1008,,,,,
55948445,1009,1009,1009,1009,,,,,
55950944,1009,1009,1009,1009,,,,,
55953443,1010,1010,1010,1010,,,,,
55955942,1011,1011,1011,1011,,,,,
55958441,1012,1012,1012,1012,,,,,
55960940,1012,1012,1012,1012,,,,,
55963439,1013,1013,1013,1013,,,,,
55965938,1014,1014,1014,1014,,,,,
55968437,1015,1015,1015,1015,,,,,
55970936,1015,1015,1015,1015,,,,,
55973435,1016,1016,1016,1016,,,,,
55975934,1017,1017,1017,1017,,,,,
55978433,1018,1018,1018,1018,,,,,
55980932,1018,1018,1018,1018,,,,,
55983431,1019,1019,1019,1019,,,,,
55985930,1020,1020,1020,1020,,,,,
55988429,1021,1021,1021,1021,,,,,
55990928,1021,1021,1021,1021,,,,,
55993427,1022,1022,1022,1022,,,,,
55995926,1023,1023,1023,1023,,,,,
55998425,1024,1024,1024,1024,,,,,
56000924,1024,1024,1024,1024,,,,,
56003423,1025,1025,1025,1025,,,,,
56005922,1026,1026,1026,1026,,,,,
56008421,1027,1027,1027,1027,,,,,
56010920,1027,1027,1027,1027,,,,,
56013419,1028,1028,1028,1028,,,,,
56015918,1029,1029,1029,1029,,,,,
56018417,1030,1030,1030,1030,,,,,
56020916,1030,1030,1030,1030,,,,,
56023415,1031,1031,1031,1031,,,,,
56025914,1032,1032,1032,1032,,,,,
56028413,1033,1033,1033,1033,,,,,
56030912,1033,1033,1033,1033,,,,,
56033411,1034,1034,1034,1034,,,,,
56035910,1035,1035,1035,1035,,,,,
56038409,1036,1036,1036,1036,,,,,
56040908,1036,1036,1036,1036,,,,,
56043407,1037,1037,1037,1037,,,,,
56045906,1038,1038,1038,1038,,,,,
56048405,1039,1039,1039,1039,,,,,
56050904,1039,1039,1039,1039,,,,,
56053403,1040,1040,1040,1040,,,,,
56055902,1041,1041,1041,1041,,,,,
56058401,1042,1042,1042,1042,,,,,
56060900,1042,1042,1042,1042,,,,,
56063399,1043,1043,1043,1043,,,,,
56065898,1044,1044,1044,1044,,,,,
56068397,1045,1045,1045,1045,,,,,
56070896,1045,1045,1045,1045,,,,,
56073395,1046,1046,1046,1046,,,,,
56075894,1047,1047,1047,1047,,,,,
56078393,1048,1048,1048,1048,,,,,
56080892,1048,1048,1048,1048,,,,,
56083391,1049,1049,1049,1049,,,,,
56085890,1050,1050,1050,1050,,,,,
56088389,1051,1051,1051,1051,,,,,
56090888,1051,1051,1051,1051,,,,,
56093387,1052,1052,1052,1052,,,,,
56095886,1053,1053,1053,1053,,,,,
56098385,1054,1054,1054,1054,,,,,
56100884,1054,1054,1054,1054,,,,,
56103383,1055,1055,1055,1055,,,,,
56105882,1056,1056,1056,1056,,,,,
56108381,1057,1057,1057,1057,,,,,
56110880,1057,1057,1057,1057,,,,,
56113379,1058,1058,1058,1058,,,,,
56115878,1059,1059,1059,1059,,,,,
56118377,1060,1060,1060,1060,,,,,
56120876,1060,1060,1060,1060,,,,,
56123375,1061,1061,1061,1061,,,,,
56125874,1062,1062,1062,1062,,,,,
56128373,1063,1063,1063,1063,,,,,
56130872,1063,1063,1063,1063,,,,,
56133371,1064,1064,1064,1064,,,,,
56135870,1065,1065,1065,1065,,,,,
56138369,1066,1066,1066,1066,,,,,
56140868,1066,1066,1066,1066,,,,,
56143367,1067,1067,1067,1067,,,,,
56145866,1068,1068,1068,1068,,,,,
56148365,1069,1069,1069,1069,,,,,
56150864,1069,1069,1069,1069,,,,,
56153363,1070,1070,1070,1070,,,,,
56155862,1071,1071,1071,1071,,,,,
56158361,1072,1072,1072,1072,,,,,
56160860,1072,1072,1072,1072,,,,,
56163359,1073,1073,1073,1073,,,,,
56165858,1074,1074,1074,1074,,,,,
56168357,1075,1075,1075,1075,,,,,
56170856,1075,1075,1075,1075,,,,,
56173355,1076,1076,1076,1076,,,,,
56175854,1077,1077,1077,1077,,,,,
56178353,1078,1078,1078,1078,,,,,
56180852,1078,1078,1078,1078,,,,,
56183351,1079,1079,1079,1079,,,,,
56185850,1080,1080,1080,1080,,,,,
56188349,1081,1081,1081,1081,,,,,
56190848,1081,1081,1081,1081,,,,,
56193347,1082,1082,1082,1082,,,,,
56195846,1083,1083,1083,1083,,,,,
56198345,1084,1084,1084,1084,,,,,
56200844,1084,1084,1084,1084,,,,,
56203343,1085,1085,1085,1085,,,,,
56205842,1086,1086,1086,1086,,,,,
56208341,1087,1087,1087,1087,,,,,
56210840,1087,1087,1087,1087,,,,,
56213339,1088,1088,1088,1088,,,,,
56215838,1089,1089,1089,1089,,,,,
56218337,1090,1090,1090,1090,,,,,
56220836,1090,1090,1090,1090,,,,,
56223335,1091,1091,1091,1091,,,,,
56225834,1092,1092,1092,1092,,,,,
56228333,1093,1093,1093,1093,,,,,
56230832,1093,1093,1093,1093,,,,,
56233331,1094,1094,1094,1094,,,,,
56235830,1095,1095,1095,1095,,,,,
56238329,1096,1096,1096,1096,,,,,
56240828,1096,1096,1096,1096,,,,,
56243327,1097,1097,1097,1097,,,,,
56245826,1098,1098,1098,1098,,,,,
56248325,1099,1099,1099,1099,,,,,
56250824,1099,1099,1099,1099,,,,,
56253323,1100,1100,1100,1100,,,,,
56255822,1101,1101,1101,1101,,,,,
56258321,1101,1101,1101,1101,,,,,
56260820,1102,1102,1102,1102,,,,,
56263319,1103,1103,1103,1103,,,,,
56265818,1104,1104,1104,1104,,,,,
56268317,1104,1104,1104,1104,,,,,
56270816,1105,1105,1105,1105,,,,,
56273315,1106,1106,1106,1106,,,,,
56275814,1107,1107,1107,1107,,,,,
56278313,1107,1107,1107,1107,,,,,
56280812,1108,1108,1108,1108,,,,,
56283311,1109,1109,1109,1109,,,,,
56285810,1110,1110,1110,1110,,,,,
56288309,1110,1110,1110,1110,,,,,
56290808,1111,1111,1111,1111,,,,,
56293307,1112,1112,1112,1112,,,,,
56295806,1113,1113,1113,1113,,,,,
56298305,1113,1113,1113,1113,,,,,
56300804,1114,1114,1114,1114,,,,,
56303303,1115,1115,1115,1115,,,,,
56305802,1116,1116,1116,1116,,,,,
56308301,1116,1116,1116,1116,,,,,
56310800,1117,1117,1117,1117,,,,,
56313299,1118,1118,1118,1118,,,,,
56315798,1119,1119,1119,1119,,,,,
56318297,1119,1119,1119,1119,,,,,
56320796,1120,1120,1120,1120,,,,,
56323295,1121,1121,1121,1121,,,,,
56325794,1122,1122,1122,1122,,,,,
56328293,1122,1122,1122,1122,,,,,
56330792,1123,1123,1123,1123,,,,,
56333291,1124,1124,1124,1124,,,,,
56335790,1125,1125,1125,1125,,,,,
56338289,1125,1125,1125,1125,,,,,
56340788,1126,1126,1126,1126,,,,,
56343287,1127,1127,1127,1127,,,,,
56345786,1128,1128,1128,1128,,,,,
56348285,1128,1128,1128,1128,,,,,
56350784,1129,1129,1129,1129,,,,,
56353283,1130,1130,1130,1130,,,,,
56355782,1131,1131,1131,1131,,,,,
56358281,1131,1131,1131,1131,,,,,
56360780,1132,1132,1132,1132,,,,,
56363279,1133,1133,1133,1133,,,,,
56365778,1134,1134,1134,1134,,,,,
56368277,1134,1134,1134,1134,,,,,
56370776,1135,1135,1135,1135,,,,,
56373275,1136,1136,1136,1136,,,,,
56375774,1137,1137,1137,1137,,,,,
56378273,1137,1137,1137,1137,,,,,
56380772,1138,1138,1138,1138,,,,,
56383271,1139,1139,1139,1139,,,,,
56385770,1140,1140,1140,1140,,,,,
56388269,1140,1140,1140,1140,,,,,
56390768,1141,1141,1141,1141,,,,,
56393267,1142,1142,1142,1142,,,,,
56395766,1143,1143,1143,1143,,,,,
56398265,1143,1143,1143,1143,,,,,
56400764,1144,1144,1144,1144,,,,,
56403263,1145,1145,1145,1145,,,,,
56405762,1146,1146,1146,1146,,,,,
56408261,1146,1146,1146,1146,,,,,
56410760,1147,1147,1147,1147,,,,,
56413259,1148,1148,1148,1148,,,,,
56415758,1149,1149,1149,1149,,,,,
56418257,1149,1149,1149,1149,,,,,
56420756,1150,1150,1150,1150,,,,,
56423255,1162,1153,1154,1162,,,,,
56425754,1170,1161,1162,1170,,,,,
56428253,1178,1169,1170,1178,,,,,
56430752,1185,1177,1178,1185,,,,,
56433251,1193,1185,1186,1193,,,,,
56435750,1200,1192,1193,1200,,,,,
56438249,1208,1200,1200,1208,,,,,
56440748,1215,1207,1208,1215,,,,,
56443247,1222,1214,1215,1222,,,,,
56445746,1229,1221,1222,1229,,,,,
56448245,1236,1228,1229,1236,,,,,
56450744,1242,1235,1236,1243,,,,,
56453243,1249,1242,1243,1249,,,,,
56455742,1256,1249,1249,1256,,,,,
56458241,1262,1255,1256,1263,,,,,
56460740,1269,1262,1262,1269,,,,,
56463239,1275,1268,1269,1275,,,,,
56465738,1281,1274,1275,1282,,,,,
56468237,1288,1281,1281,1288,,,,,
56470736,1294,1287,1288,1294,,,,,
56473235,1300,1293,1294,1300,,,,,
56475734,1306,1299,1300,1306,,,,,
56478233,1312,1305,1306,1312,,,,,
56480732,1318,1311,1312,1318,,,,,
56483231,1324,1317,1318,1324,,,,,
56485730,1329,1323,1323,1330,,,,,
56488229,1335,1328,1329,1335,,,,,
56490728,1341,1334,1335,1341,,,,,
56493227,1346,1340,1340,1346,,,,,
56495726,1352,1345,1346,1352,,,,,
56498225,1357,1351,1351,1358,,,,,
56500724,1363,1356,1357,1363,,,,,
56503223,1368,1362,1362,1368,,,,,
56505722,1374,1367,1368,1374,,,,,
56508221,1379,1372,1373,1379,,,,,
56510720,1384,1378,1378,1384,,,,,
56513219,1389,1383,1384,1390,,,,,
56515718,1395,1388,1389,1395,,,,,
56518217,1400,1393,1394,1400,,,,,
56520716,1405,1398,1399,1405,,,,,
56523215,1410,1404,1404,1410,,,,,
56525714,1415,1409,1409,1415,,,,,
56528213,1420,1414,1414,1420,,,,,
56530712,1425,1419,1419,1425,,,,,
56533211,1430,1424,1424,1430,,,,,
56535710,1435,1428,1429,1435,,,,,
56538209,1439,1433,1434,1440,,,,,
56540708,1444,1438,1439,1444,,,,,
56543207,1449,1443,1444,1449,,,,,
56545706,1454,1448,1448,1454,,,,,
56548205,1458,1452,1453,1459,,,,,
56550704,1463,1457,1458,1463,,,,,
56553203,1468,1462,1462,1468,,,,,
56555702,1472,1466,1467,1473,,,,,
56558201,1477,1471,1472,1477,,,,,
56560700,1481,1476,1476,1482,,,,,
56563199,1486,1480,1481,1486,,,,,
56565698,1490,1485,1485,1491,,,,,
56568197,1495,1489,1490,1495,,,,,
56570696,1499,1494,1494,1500,,,,,
56573195,1504,1498,1499,1504,,,,,
56575694,1508,1503,1503,1508,,,,,
56578193,1513,1507,1507,1513,,,,,
56580692,1517,1511,1512,1517,,,,,
56583191,1521,1516,1516,1521,,,,,
56585690,1526,1520,1520,1526,,,,,
56588189,1530,1524,1525,1530,,,,,
56590688,1534,1528,1529,1534,,,,,
56593187,1538,1533,1533,1538,,,,,
56595686,1543,1537,1537,1543,,,,,
56598185,1547,1541,1542,1547,,,,,
56600684,1551,1545,1546,1551,,,,,
56603183,1555,1549,1550,1555,,,,,
56605682,1559,1554,1554,1559,,,,,
56608181,1563,1558,1558,1563,,,,,
56610680,1567,1562,1562,1567,,,,,
56613179,1571,1566,1566,1571,,,,,
56615678,1575,1570,1570,1576,,,,,
56618177,1579,1574,1574,1580,,,,,
56620676,1583,1578,1578,1584,,,,,
56623175,1587,1582,1582,1588,,,,,
56625674,1591,1586,1586,1591,,,,,
56628173,1595,1590,1590,1595,,,,,
56630672,1599,1594,1594,1599,,,,,
56633171,1603,1598,1598,1603,,,,,
56635670,1607,1602,1602,1607,,,,,
56638169,1611,1605,1606,1611,,,,,
56640668,1615,1609,1610,1615,,,,,
56643167,1619,1613,1614,1619,,,,,
56645666,1622,1617,1617,1623,,,,,
56648165,1626,1621,1621,1626,,,,,
56650664,1630,1625,1625,1630,,,,,
56653163,1634,1628,1629,1634,,,,,
56655662,1637,1632,1633,1638,,,,,
56658161,1641,1636,1636,1641,,,,,
56660660,1645,1640,1640,1645,,,,,
56663159,1649,1643,1644,1649,,,,,
56665658,1652,1647,1648,1652,,,,,
56668157,1656,1651,1651,1656,,,,,
56670656,1660,1654,1655,1660,,,,,
56673155,1663,1658,1659,1663,,,,,
56675654,1667,1662,1662,1667,,,,,
56678986,1670,1665,1666,1671,,,,,
56681485,1674,1669,1669,1674,,,,,
56683984,1678,1673,1673,1678,,,,,
56686483,1681,1676,1677,1681,,,,,
56688982,1685,1680,1680,1685,,,,,
56691481,1688,1683,1684,1689,,,,,
56693980,1692,1687,1687,1692,,,,,
56696479,1695,1690,1691,1696,,,,,
56698978,1699,1694,1694,1699,,,,,
56701477,1702,1697,1698,1703,,,,,
56703976,1706,1701,1701,1706,,,,,
56706475,1709,1704,1705,1710,,,,,
56708974,1713,1708,1708,1713,,,,,
56711473,1716,1711,1712,1716,,,,,
56713972,1720,1715,1715,1720,,,,,
56716471,1723,1718,1718,1723,,,,,
56718970,1727,1721,1722,1727,,,,,
56721469,1730,1725,1725,1730,,,,,
56723968,1733,1728,1729,1734,,,,,
56726467,1737,1732,1732,1737,,,,,
56728966,1740,1735,1735,1740,,,,,
56731465,1744,1738,1739,1744,,,,,
56733964,1747,1742,1742,1747,,,,,
56736463,1750,1745,1745,1750,,,,,
56738962,1754,1748,1749,1754,,,,,
56741461,1757,1752,1752,1757,,,,,
56743960,1760,1755,1755,1760,,,,,
56746459,1763,1758,1759,1764,,,,,
56748958,1767,1761,1762,1767,,,,,
56751457,1770,1765,1765,1770,,,,,
56753956,1773,1768,1768,1773,,,,,
56756455,1777,1771,1772,1777,,,,,
56758954,1780,1774,1775,1780,,,,,
56761453,1783,1778,1778,1783,,,,,
56763952,1786,1781,1781,1786,,,,,
56766451,1789,1784,1785,1789,,,,,
56768950,1793,1787,1788,1793,,,,,
56771449,1796,1790,1791,1796,,,,,
56773948,1799,1794,1794,1799,,,,,
56776447,1802,1797,1797,1802,,,,,
56778946,1805,1800,1801,1805,,,,,
56781445,1808,1803,1804,1808,,,,,
56783944,1812,1806,1807,1811,,,,,
56786443,1815,1809,1810,1815,,,,,
56788942,1818,1812,1813,1818,,,,,
56791441,1821,1816,1816,1821,,,,,
56793940,1824,1819,1819,1824,,,,,
56796439,1827,1822,1823,1827,,,,,
56798938,1830,1825,1826,1830,,,,,
56801437,1833,1828,1829,1833,,,,,
56803936,1836,1831,1832,1836,,,,,
56806435,1839,1834,1835,1839,,,,,
56808934,1843,1837,1838,1842,,,,,
56811433,1846,1840,1841,1845,,,,,
56813932,1849,1843,1844,1848,,,,,
56816431,1852,1846,1847,1851,,,,,
56818930,1855,1849,1850,1854,,,,,
56821429,1858,1852,1853,1857,,,,,
56823928,1861,1855,1856,1860,,,,,
56826427,1864,1858,1859,1863,,,,,
56828926,1867,1861,1862,1866,,,,,
56831425,1870,1864,1865,1869,,,,,
56833924,1873,1867,1868,1872,,,,,
56836423,1876,1870,1871,1875,,,,,
56838922,1879,1873,1874,1878,,,,,
56841421,1882,1876,1877,1881,,,,,
56843920,1884,1879,1880,1884,,,,,
56846419,1887,1882,1883,1887,,,,,
56848918,1890,1885,1885,1890,,,,,
56851417,1893,1888,1888,1893,,,,,
56853916,1896,1890,1891,1896,,,,,
56856415,1899,1893,1894,1899,,,,,
56858914,1902,1896,1897,1902,,,,,
56861413,1905,1899,1900,1904,,,,,
56863912,1908,1902,1903,1907,,,,,
56866411,1910,1905,1906,1910,,,,,
56868910,1913,1908,1909,1913,,,,,
56871409,1916,1911,1911,1916,,,,,
56873908,1918,1912,1913,1917,,,,,
56876407,1917,1911,1912,1916,,,,,
56878906,1916,1910,1911,1916,,,,,
56881405,1915,1910,1910,1915,,,,,
56883904,1914,1909,1910,1914,,,,,
56886403,1914,1908,1909,1913,,,,,
56888902,1913,1908,1908,1913,,,,,
56891401,1912,1907,1908,1912,,,,,
56893900,1912,1906,1907,1911,,,,,
56896399,1911,1906,1906,1911,,,,,
56898898,1911,1905,1906,1910,,,,,
56901397,1910,1905,1906,1910,,,,,
56903896,1910,1904,1905,1910,,,,,
56906395,1910,1904,1905,1909,,,,,
56908894,1909,1904,1905,1909,,,,,
56911393,1909,1904,1905,1909,,,,,
56913892,1909,1904,1905,1909,,,,,
56916391,1909,1904,1905,1909,,,,,
56918890,1909,1904,1905,1909,,,,,
56921389,1909,1904,1905,1909,,,,,
56923888,1909,1904,1905,1908,,,,,
56926387,1908,1904,1905,1908,,,,,
56928886,1908,1904,1905,1908,,,,,
56931385,1907,1904,1904,1907,,,,,
56933884,1907,1903,1904,1907,,,,,
56936383,1906,1902,1903,1906,,,,,
56938882,1905,1902,1902,1905,,,,,
56941381,1904,1901,1901,1904,,,,,
56943880,1903,1899,1900,1903,,,,,
56946379,1901,1898,1899,1901,,,,,
56948878,1900,1897,1897,1900,,,,,
56951377,1898,1895,1896,1898,,,,,
56953876,1896,1894,1894,1896,,,,,
56956375,1893,1892,1892,1894,,,,,
56958874,1891,1890,1890,1891,,,,,
56961373,1889,1888,1888,1889,,,,,
56963872,1886,1885,1885,1887,,,,,
56966371,1884,1882,1883,1884,,,,,
56968870,1881,1880,1880,1881,,,,,
56971369,1878,1877,1877,1879,,,,,
56973868,1875,1874,1874,1876,,,,,
56976367,1872,1871,1871,1873,,,,,
56978866,1869,1868,1868,1870,,,,,
56981365,1866,1865,1865,1867,,,,,
56983864,1863,1861,1861,1864,,,,,
56986363,1860,1858,1858,1860,,,,,
56988862,1856,1855,1855,1857,,,,,
56991361,1853,1852,1851,1854,,,,,
56993860,1850,1848,1848,1851,,,,,
56996359,1846,1845,1844,1847,,,,,
56998858,1843,1841,1841,1844,,,,,
57001357,1840,1838,1838,1841,,,,,
57003856,1836,1835,1834,1837,,,,,
57006355,1833,1831,1831,1834,,,,,
57008854,1829,1828,1827,1830,,,,,
57011353,1826,1824,1824,1827,,,,,
57013852,1822,1821,1820,1823,,,,,
57016351,1819,1817,1817,1820,,,,,
57018850,1815,1814,1813,1817,,,,,
57021349,1812,1810,1809,1813,,,,,
57023848,1808,1807,1806,1810,,,,,
57026347,1805,1803,1802,1806,,,,,
57028846,1801,1800,1799,1803,,,,,
57031345,1798,1797,1795,1799,,,,,
57033844,1794,1793,1792,1796,,,,,
57036343,1791,1790,1788,1793,,,,,
57038842,1787,1786,1785,1789,,,,,
57041341,1784,1783,1781,1786,,,,,
57043840,1780,1779,1778,1782,,,,,
57046339,1777,1776,1774,1779,,,,,
57048838,1773,1773,1771,1775,,,,,
57051337,1770,1769,1767,1772,,,,,
57053836,1766,1766,1764,1769,,,,,
57056335,1763,1762,1761,1765,,,,,
57058834,1760,1759,1757,1762,,,,,
57061333,1756,1756,1754,1759,,,,,
57063832,1753,1752,1751,1755,,,,,
57066331,1750,1749,1747,1752,,,,,
57068830,1746,1746,1744,1749,,,,,
57071329,1743,1743,1741,1745,,,,,
57073828,1740,1739,1738,1742,,,,,
57076327,1737,1736,1734,1739,,,,,
57078826,1733,1733,1731,1736,,,,,
57081325,1730,1730,1728,1733,,,,,
57083824,1727,1727,1725,1730,,,,,
57086323,1724,1724,1722,1727,,,,,
57088822,1721,1721,1719,1724,,,,,
57091321,1718,1718,1716,1721,,,,,
57093820,1715,1715,1713,1718,,,,,
57096319,1712,1712,1710,1715,,,,,
57098818,1709,1709,1707,1712,,,,,
57101317,1706,1706,1704,1709,,,,,
57103816,1704,1704,1702,1706,,,,,
57106315,1701,1701,1699,1704,,,,,
57108814,1698,1698,1696,1701,,,,,
57111313,1695,1696,1693,1698,,,,,
57113812,1693,1693,1691,1696,,,,,
57116311,1690,1691,1688,1693,,,,,
57118810,1688,1688,1686,1691,,,,,
57121309,1686,1686,1684,1689,,,,,
57123808,1683,1684,1681,1686,,,,,
57126307,1681,1682,1679,1684,,,,,
57128806,1679,1679,1677,1682,,,,,
57131305,1677,1677,1675,1680,,,,,
57133804,1674,1675,1673,1677,,,,,
57136303,1672,1673,1670,1675,,,,,
57138802,1670,1671,1668,1673,,,,,
57141301,1668,1669,1666,1671,,,,,
57143800,1666,1667,1664,1669,,,,,
57146299,1664,1665,1662,1667,,,,,
57148798,1662,1663,1661,1665,,,,,
57151297,1660,1661,1659,1663,,,,,
57153796,1658,1659,1657,1661,,,,,
57156295,1657,1658,1655,1660,,,,,
57158794,1655,1656,1654,1658,,,,,
57161293,1653,1654,1652,1656,,,,,
57163792,1652,1653,1650,1655,,,,,
57166291,1650,1651,1649,1653,,,,,
57168790,1648,1650,1647,1651,,,,,
57171289,1647,1648,1646,1650,,,,,
57173788,1646,1647,1644,1648,,,,,
57176287,1644,1645,1643,1647,,,,,
57178786,1643,1644,1642,1646,,,,,
57181285,1641,1643,1640,1644,,,,,
57183784,1640,1642,1639,1643,,,,,
57186283,1639,1640,1638,1642,,,,,
57188782,1638,1639,1637,1641,,,,,
57191281,1636,1638,1636,1639,,,,,
57193780,1635,1637,1635,1638,,,,,
57196279,1634,1636,1633,1637,,,,,
57198778,1633,1635,1632,1636,,,,,
57201277,1632,1634,1631,1635,,,,,
57203776,1631,1633,1630,1634,,,,,
57206275,1630,1632,1629,1633,,,,,
57208774,1629,1631,1628,1632,,,,,
57211273,1628,1630,1628,1631,,,,,
57213772,1627,1629,1627,1630,,,,,
57216271,1626,1628,1626,1629,,,,,
57218770,1626,1627,1625,1628,,,,,
57221269,1625,1627,1625,1627,,,,,
57223768,1624,1626,1624,1627,,,,,
57226267,1624,1625,1623,1626,,,,,
57228766,1623,1625,1623,1626,,,,,
57231265,1623,1624,1622,1625,,,,,
57233764,1622,1624,1622,1624,,,,,
57236263,1622,1623,1621,1624,,,,,
57238762,1621,1623,1621,1624,,,,,
57241261,1621,1622,1621,1623,,,,,
57243760,1621,1622,1620,1623,,,,,
57246259,1620,1622,1620,1622,,,,,
57248758,1620,1621,1620,1622,,,,,
