timestamp,TimeUS,C1,C2,C3,C4,C5,C6,C7,C8,C9,C10,C11,C12,C13,C14
1683194559.59999990,43428455,1000,1000,1000,1000,0,0,0,0,0,0,0,0,0,0
1683194559.69995975,43528415,1000,1000,1000,1000,0,0,0,0,0,0,0,0,0,0
1683194559.79991984,43628375,1000,1000,1000,1000,0,0,0,0,0,0,0,0,0,0
1683194559.89987969,43728335,1000,1000,1000,1000,0,0,0,0,0,0,0,0,0,0
1683194559.99983978,43828295,1000,1000,1000,1000,0,0,0,0,0,0,0,0,0,0
1683194560.09979987,43928255,1000,1000,1000,1000,0,0,0,0,0,0,0,0,0,0
1683194560.19975972,44028215,1000,1000,1000,1000,0,0,0,0,0,0,0,0,0,0
1683194560.29971981,44128175,1000,1000,1000,1000,0,0,0,0,0,0,0,0,0,0
1683194560.40051270,44228968,1000,1000,1000,1000,0,0,0,0,0,0,0,0,0,0
1683194560.50047278,44328928,1000,1000,1000,1000,0,0,0,0,0,0,0,0,0,0
1683194560.60043287,44428888,1000,1000,1000,1000,0,0,0,0,0,0,0,0,0,0
1683194560.70039272,44528848,1000,1000,1000,1000,0,0,0,0,0,0,0,0,0,0
1683194560.80035281,44628808,1000,1000,1000,1000,0,0,0,0,0,0,0,0,0,0
1683194560.90031290,44728768,1000,1000,1000,1000,0,0,0,0,0,0,0,0,0,0
1683194561.00027275,44828728,1000,1000,1000,1000,0,0,0,0,0,0,0,0,0,0
1683194561.10023284,44928688,1000,1000,1000,1000,0,0,0,0,0,0,0,0,0,0
1683194561.20019269,45028648,1000,1000,1000,1000,0,0,0,0,0,0,0,0,0,0
1683194561.30015278,45128608,1000,1000,1000,1000,0,0,0,0,0,0,0,0,0,0
1683194561.40011287,45228568,1000,1000,1000,1000,0,0,0,0,0,0,0,0,0,0
1683194561.50007272,45328528,1000,1000,1000,1000,0,0,0,0,0,0,0,0,0,0
1683194561.60003281,45428488,1023,1023,1023,1023,0,0,0,0,0,0,0,0,0,0
1683194561.69999290,45528448,1053,1053,1053,1053,0,0,0,0,0,0,0,0,0,0
1683194561.79995275,45628408,1083,1083,1083,1083,0,0,0,0,0,0,0,0,0,0
1683194561.89991283,45728368,1113,1113,1113,1113,0,0,0,0,0,0,0,0,0,0
1683194561.99987268,45828328,1143,1143,1143,1143,0,0,0,0,0,0,0,0,0,0
1683194562.09983277,45928288,1351,1346,1347,1351,0,0,0,0,0,0,0,0,0,0
1683194562.19979286,46028248,1542,1538,1538,1542,0,0,0,0,0,0,0,0,0,0
1683194562.29975271,46128208,1695,1691,1691,1695,0,0,0,0,0,0,0,0,0,0
1683194562.39971280,46228168,1826,1823,1823,1826,0,0,0,0,0,0,0,0,0,0
1683194562.50050569,46328961,1884,1880,1881,1885,0,0,0,0,0,0,0,0,0,0
1683194562.60046577,46428921,1836,1834,1835,1836,0,0,0,0,0,0,0,0,0,0
1683194562.70042586,46528881,1706,1706,1706,1706,0,0,0,0,0,0,0,0,0,0
1683194562.80038571,46628841,1631,1633,1633,1632,0,0,0,0,0,0,0,0,0,0
1683194562.90034580,46728801,1620,1621,1621,1620,0,0,0,0,0,0,0,0,0,0
1683194563.00030589,46828761,1631,1632,1632,1631,0,0,0,0,0,0,0,0,0,0
1683194563.10026574,46928721,1636,1636,1636,1636,0,0,0,0,0,0,0,0,0,0
1683194563.20022583,47028681,1633,1634,1633,1633,0,0,0,0,0,0,0,0,0,0
1683194563.30018568,47128641,1626,1625,1625,1625,0,0,0,0,0,0,0,0,0,0
1683194563.40014577,47228601,1620,1619,1619,1620,0,0,0,0,0,0,0,0,0,0
1683194563.50010586,47328561,1616,1615,1615,1616,0,0,0,0,0,0,0,0,0,0
1683194563.60006571,47428521,1616,1615,1616,1616,0,0,0,0,0,0,0,0,0,0
1683194563.70002580,47528481,1617,1617,1617,1617,0,0,0,0,0,0,0,0,0,0
1683194563.79998589,47628441,1617,1618,1618,1618,0,0,0,0,0,0,0,0,0,0
1683194563.89994574,47728401,1618,1619,1618,1618,0,0,0,0,0,0,0,0,0,0
1683194563.99990582,47828361,1620,1620,1620,1620,0,0,0,0,0,0,0,0,0,0
1683194564.09986567,47928321,1621,1621,1621,1621,0,0,0,0,0,0,0,0,0,0
1683194564.19982576,48028281,1620,1621,1621,1621,0,0,0,0,0,0,0,0,0,0
1683194564.29978585,48128241,1590,1590,1590,1590,0,0,0,0,0,0,0,0,0,0
1683194564.39974570,48228201,1578,1577,1578,1578,0,0,0,0,0,0,0,0,0,0
1683194564.49970579,48328161,1568,1568,1568,1568,0,0,0,0,0,0,0,0,0,0
1683194564.60049868,48428954,1559,1559,1558,1559,0,0,0,0,0,0,0,0,0,0
1683194564.70045877,48528914,1551,1551,1551,1551,0,0,0,0,0,0,0,0,0,0
1683194564.80041885,48628874,1543,1544,1543,1544,0,0,0,0,0,0,0,0,0,0
1683194564.90037870,48728834,1535,1534,1534,1535,0,0,0,0,0,0,0,0,0,0
1683194565.00033879,48828794,1524,1524,1523,1525,0,0,0,0,0,0,0,0,0,0
1683194565.10029888,48928754,1516,1516,1515,1517,0,0,0,0,0,0,0,0,0,0
1683194565.20025873,49028714,1510,1511,1510,1511,0,0,0,0,0,0,0,0,0,0
1683194565.30021882,49128674,1507,1507,1506,1507,0,0,0,0,0,0,0,0,0,0
1683194565.40017891,49228634,1505,1505,1505,1505,0,0,0,0,0,0,0,0,0,0
1683194565.50013876,49328594,1502,1502,1502,1502,0,0,0,0,0,0,0,0,0,0
1683194565.60009885,49428554,1500,1500,1500,1500,0,0,0,0,0,0,0,0,0,0
1683194565.70005870,49528514,1498,1498,1498,1498,0,0,0,0,0,0,0,0,0,0
1683194565.80001879,49628474,1495,1496,1495,1496,0,0,0,0,0,0,0,0,0,0
1683194565.89997888,49728434,1495,1495,1495,1496,0,0,0,0,0,0,0,0,0,0
1683194565.99993873,49828394,1494,1494,1493,1495,0,0,0,0,0,0,0,0,0,0
1683194566.09989882,49928354,1493,1493,1493,1493,0,0,0,0,0,0,0,0,0,0
1683194566.19985890,50028314,1513,1513,1515,1512,0,0,0,0,0,0,0,0,0,0
1683194566.29981875,50128274,1542,1541,1548,1536,0,0,0,0,0,0,0,0,0,0
1683194566.39977884,50228234,1553,1553,1556,1549,0,0,0,0,0,0,0,0,0,0
1683194566.49973869,50328194,1562,1562,1560,1563,0,0,0,0,0,0,0,0,0,0
1683194566.59969878,50428154,1567,1566,1563,1571,0,0,0,0,0,0,0,0,0,0
1683194566.70049191,50528947,1570,1570,1565,1575,0,0,0,0,0,0,0,0,0,0
1683194566.80045176,50628907,1571,1571,1567,1575,0,0,0,0,0,0,0,0,0,0
1683194566.90041184,50728867,1573,1573,1571,1576,0,0,0,0,0,0,0,0,0,0
1683194567.00037169,50828827,1575,1575,1576,1574,0,0,0,0,0,0,0,0,0,0
1683194567.10033178,50928787,1576,1576,1579,1573,0,0,0,0,0,0,0,0,0,0
1683194567.20029187,51028747,1576,1577,1580,1573,0,0,0,0,0,0,0,0,0,0
1683194567.30025172,51128707,1576,1577,1578,1575,0,0,0,0,0,0,0,0,0,0
1683194567.40021181,51228667,1575,1574,1575,1574,0,0,0,0,0,0,0,0,0,0
1683194567.50017190,51328627,1574,1572,1573,1575,0,0,0,0,0,0,0,0,0,0
1683194567.60013175,51428587,1566,1566,1575,1579,0,0,0,0,0,0,0,0,0,0
1683194567.70009184,51528547,1565,1566,1574,1578,0,0,0,0,0,0,0,0,0,0
1683194567.80005169,51628507,1566,1567,1572,1574,0,0,0,0,0,0,0,0,0,0
1683194567.90001178,51728467,1568,1568,1571,1571,0,0,0,0,0,0,0,0,0,0
1683194567.99997187,51828427,1570,1569,1570,1569,0,0,0,0,0,0,0,0,0,0
1683194568.09993172,51928387,1571,1571,1568,1567,0,0,0,0,0,0,0,0,0,0
1683194568.19989181,52028347,1572,1572,1568,1566,0,0,0,0,0,0,0,0,0,0
1683194568.29985189,52128307,1572,1572,1566,1566,0,0,0,0,0,0,0,0,0,0
1683194568.39981174,52228267,1573,1573,1566,1566,0,0,0,0,0,0,0,0,0,0
1683194568.49977183,52328227,1574,1573,1568,1568,0,0,0,0,0,0,0,0,0,0
1683194568.59973168,52428187,1574,1573,1569,1569,0,0,0,0,0,0,0,0,0,0
1683194568.70052481,52528980,1574,1574,1570,1571,0,0,0,0,0,0,0,0,0,0
1683194568.80048490,52628940,1574,1574,1572,1572,0,0,0,0,0,0,0,0,0,0
1683194568.90044475,52728900,1574,1574,1573,1573,0,0,0,0,0,0,0,0,0,0
1683194569.00040483,52828860,1574,1574,1575,1574,0,0,0,0,0,0,0,0,0,0
1683194569.10036469,52928820,1573,1573,1576,1574,0,0,0,0,0,0,0,0,0,0
1683194569.20032477,53028780,1574,1574,1577,1576,0,0,0,0,0,0,0,0,0,0
1683194569.30028486,53128740,1575,1575,1578,1577,0,0,0,0,0,0,0,0,0,0
1683194569.40024471,53228700,1575,1575,1577,1577,0,0,0,0,0,0,0,0,0,0
1683194569.50020480,53328660,1575,1575,1577,1577,0,0,0,0,0,0,0,0,0,0
1683194569.60016489,53428620,1576,1576,1577,1577,0,0,0,0,0,0,0,0,0,0
1683194569.70012474,53528580,1576,1576,1576,1577,0,0,0,0,0,0,0,0,0,0
1683194569.80008483,53628540,1576,1577,1577,1577,0,0,0,0,0,0,0,0,0,0
1683194569.90004468,53728500,1577,1577,1577,1577,0,0,0,0,0,0,0,0,0,0
1683194570.00000477,53828460,1577,1577,1577,1577,0,0,0,0,0,0,0,0,0,0
1683194570.09996486,53928420,1578,1578,1577,1577,0,0,0,0,0,0,0,0,0,0
1683194570.19992471,54028380,1578,1578,1578,1577,0,0,0,0,0,0,0,0,0,0
1683194570.29988480,54128340,1579,1579,1578,1577,0,0,0,0,0,0,0,0,0,0
1683194570.39984488,54228300,1579,1579,1578,1578,0,0,0,0,0,0,0,0,0,0
1683194570.49980474,54328260,1579,1579,1578,1579,0,0,0,0,0,0,0,0,0,0
1683194570.59976482,54428220,1579,1579,1578,1578,0,0,0,0,0,0,0,0,0,0
1683194570.69972467,54528180,1579,1579,1579,1579,0,0,0,0,0,0,0,0,0,0
1683194570.80051780,54628973,1579,1579,1579,1579,0,0,0,0,0,0,0,0,0,0
1683194570.90047789,54728933,1578,1579,1579,1579,0,0,0,0,0,0,0,0,0,0
1683194571.00043774,54828893,1579,1579,1580,1579,0,0,0,0,0,0,0,0,0,0
1683194571.10039783,54928853,1579,1579,1580,1580,0,0,0,0,0,0,0,0,0,0
1683194571.20035768,55028813,1579,1579,1580,1579,0,0,0,0,0,0,0,0,0,0
1683194571.30031776,55128773,1580,1579,1580,1580,0,0,0,0,0,0,0,0,0,0
1683194571.40027785,55228733,1579,1579,1579,1579,0,0,0,0,0,0,0,0,0,0
1683194571.50023770,55328693,1579,1578,1578,1579,0,0,0,0,0,0,0,0,0,0
1683194571.60019779,55428653,1579,1579,1579,1579,0,0,0,0,0,0,0,0,0,0
1683194571.70015788,55528613,1579,1579,1579,1579,0,0,0,0,0,0,0,0,0,0
1683194571.80011773,55628573,1580,1579,1579,1579,0,0,0,0,0,0,0,0,0,0
1683194571.90007782,55728533,1580,1579,1579,1579,0,0,0,0,0,0,0,0,0,0
1683194572.00003791,55828493,1579,1579,1579,1578,0,0,0,0,0,0,0,0,0,0
1683194572.09999776,55928453,1580,1580,1579,1580,0,0,0,0,0,0,0,0,0,0
1683194572.19995785,56028413,1580,1580,1580,1580,0,0,0,0,0,0,0,0,0,0
1683194572.29991770,56128373,1580,1580,1580,1580,0,0,0,0,0,0,0,0,0,0
1683194572.39987779,56228333,1580,1581,1581,1580,0,0,0,0,0,0,0,0,0,0
1683194572.49983788,56328293,1581,1581,1581,1581,0,0,0,0,0,0,0,0,0,0
1683194572.59979773,56428253,1580,1580,1580,1581,0,0,0,0,0,0,0,0,0,0
1683194572.69975781,56528213,1581,1581,1581,1581,0,0,0,0,0,0,0,0,0,0
1683194572.79971790,56628173,1580,1580,1581,1581,0,0,0,0,0,0,0,0,0,0
1683194572.90051079,56728966,1580,1580,1581,1581,0,0,0,0,0,0,0,0,0,0
1683194573.00047088,56828926,1582,1582,1582,1582,0,0,0,0,0,0,0,0,0,0
1683194573.10043073,56928886,1581,1582,1582,1582,0,0,0,0,0,0,0,0,0,0
1683194573.20039082,57028846,1580,1581,1580,1581,0,0,0,0,0,0,0,0,0,0
1683194573.30035090,57128806,1581,1581,1581,1581,0,0,0,0,0,0,0,0,0,0
1683194573.40031075,57228766,1582,1582,1582,1582,0,0,0,0,0,0,0,0,0,0
1683194573.50027084,57328726,1582,1582,1582,1582,0,0,0,0,0,0,0,0,0,0
1683194573.60023069,57428686,1582,1582,1582,1581,0,0,0,0,0,0,0,0,0,0
1683194573.70019078,57528646,1581,1581,1581,1581,0,0,0,0,0,0,0,0,0,0
1683194573.80015087,57628606,1582,1582,1585,1578,0,0,0,0,0,0,0,0,0,0
1683194573.90011072,57728566,1581,1583,1589,1574,0,0,0,0,0,0,0,0,0,0
1683194574.00007081,57828526,1580,1582,1582,1574,0,0,0,0,0,0,0,0,0,0
1683194574.10003090,57928486,1577,1580,1573,1573,0,0,0,0,0,0,0,0,0,0
1683194574.19999075,58028446,1577,1580,1565,1570,0,0,0,0,0,0,0,0,0,0
1683194574.29995084,58128406,1577,1579,1559,1567,0,0,0,0,0,0,0,0,0,0
1683194574.39991069,58228366,1578,1578,1556,1562,0,0,0,0,0,0,0,0,0,0
1683194574.49987078,58328326,1578,1577,1555,1557,0,0,0,0,0,0,0,0,0,0
1683194574.59983087,58428286,1579,1578,1556,1555,0,0,0,0,0,0,0,0,0,0
1683194574.69979072,58528246,1578,1577,1556,1553,0,0,0,0,0,0,0,0,0,0
1683194574.79975080,58628206,1576,1577,1556,1553,0,0,0,0,0,0,0,0,0,0
1683194574.89971089,58728166,1577,1577,1557,1554,0,0,0,0,0,0,0,0,0,0
1683194575.00050378,58828959,1575,1577,1556,1554,0,0,0,0,0,0,0,0,0,0
1683194575.10046387,58928919,1575,1576,1554,1554,0,0,0,0,0,0,0,0,0,0
1683194575.20042372,59028879,1574,1576,1552,1553,0,0,0,0,0,0,0,0,0,0
1683194575.30038381,59128839,1575,1576,1550,1551,0,0,0,0,0,0,0,0,0,0
1683194575.40034389,59228799,1576,1578,1548,1549,0,0,0,0,0,0,0,0,0,0
1683194575.50030375,59328759,1579,1580,1547,1547,0,0,0,0,0,0,0,0,0,0
1683194575.60026383,59428719,1581,1582,1544,1543,0,0,0,0,0,0,0,0,0,0
1683194575.70022368,59528679,1584,1585,1541,1541,0,0,0,0,0,0,0,0,0,0
1683194575.80018377,59628639,1588,1589,1539,1538,0,0,0,0,0,0,0,0,0,0
1683194575.90014386,59728599,1591,1592,1537,1537,0,0,0,0,0,0,0,0,0,0
1683194576.00010371,59828559,1594,1594,1535,1536,0,0,0,0,0,0,0,0,0,0
1683194576.10006380,59928519,1595,1595,1534,1536,0,0,0,0,0,0,0,0,0,0
1683194576.20002389,60028479,1594,1594,1534,1535,0,0,0,0,0,0,0,0,0,0
1683194576.29998374,60128439,1593,1593,1536,1538,0,0,0,0,0,0,0,0,0,0
1683194576.39994383,60228399,1591,1590,1540,1543,0,0,0,0,0,0,0,0,0,0
1683194576.49990368,60328359,1587,1585,1547,1550,0,0,0,0,0,0,0,0,0,0
1683194576.59986377,60428319,1580,1577,1555,1558,0,0,0,0,0,0,0,0,0,0
1683194576.69982386,60528279,1271,1271,1609,1613,0,0,0,0,0,0,0,0,0,0
1683194576.79978371,60628239,1358,1362,1656,1660,0,0,0,0,0,0,0,0,0,0
1683194576.89974380,60728199,1422,1426,1658,1655,0,0,0,0,0,0,0,0,0,0
1683194576.99970388,60828159,1477,1480,1649,1641,0,0,0,0,0,0,0,0,0,0
1683194577.10049677,60928952,1521,1521,1639,1632,0,0,0,0,0,0,0,0,0,0
1683194577.20045686,61028912,1554,1551,1630,1626,0,0,0,0,0,0,0,0,0,0
1683194577.30041671,61128872,1582,1574,1617,1617,0,0,0,0,0,0,0,0,0,0
1683194577.40037680,61228832,1600,1591,1571,1576,0,0,0,0,0,0,0,0,0,0
1683194577.50033689,61328792,1600,1594,1539,1550,0,0,0,0,0,0,0,0,0,0
1683194577.60029674,61428752,1597,1600,1541,1550,0,0,0,0,0,0,0,0,0,0
1683194577.70025682,61528712,1594,1600,1549,1551,0,0,0,0,0,0,0,0,0,0
1683194577.80021667,61628672,1594,1600,1559,1557,0,0,0,0,0,0,0,0,0,0
1683194577.90017676,61728632,1597,1600,1570,1566,0,0,0,0,0,0,0,0,0,0
1683194578.00013685,61828592,1600,1599,1577,1573,0,0,0,0,0,0,0,0,0,0
1683194578.10009670,61928552,1600,1597,1578,1577,0,0,0,0,0,0,0,0,0,0
1683194578.20005679,62028512,1600,1596,1578,1580,0,0,0,0,0,0,0,0,0,0
1683194578.30001688,62128472,1600,1598,1581,1583,0,0,0,0,0,0,0,0,0,0
1683194578.39997673,62228432,1600,1599,1583,1585,0,0,0,0,0,0,0,0,0,0
1683194578.49993682,62328392,1599,1600,1585,1586,0,0,0,0,0,0,0,0,0,0
1683194578.59989691,62428352,1600,1599,1587,1586,0,0,0,0,0,0,0,0,0,0
1683194578.69985676,62528312,1599,1600,1588,1586,0,0,0,0,0,0,0,0,0,0
1683194578.79981685,62628272,1599,1600,1588,1587,0,0,0,0,0,0,0,0,0,0
1683194578.89977670,62728232,1598,1598,1586,1585,0,0,0,0,0,0,0,0,0,0
1683194578.99973679,62828192,1596,1597,1583,1583,0,0,0,0,0,0,0,0,0,0
1683194579.10052991,62928985,1595,1596,1581,1582,0,0,0,0,0,0,0,0,0,0
1683194579.20048976,63028945,1593,1594,1579,1579,0,0,0,0,0,0,0,0,0,0
1683194579.30044985,63128905,1593,1594,1579,1578,0,0,0,0,0,0,0,0,0,0
1683194579.40040970,63228865,1592,1593,1577,1576,0,0,0,0,0,0,0,0,0,0
1683194579.50036979,63328825,1592,1592,1577,1575,0,0,0,0,0,0,0,0,0,0
1683194579.60032988,63428785,1590,1590,1574,1574,0,0,0,0,0,0,0,0,0,0
1683194579.70028973,63528745,1589,1588,1572,1572,0,0,0,0,0,0,0,0,0,0
1683194579.80024981,63628705,1588,1588,1570,1571,0,0,0,0,0,0,0,0,0,0
1683194579.90020990,63728665,1587,1587,1570,1570,0,0,0,0,0,0,0,0,0,0
1683194580.00016975,63828625,1586,1587,1569,1569,0,0,0,0,0,0,0,0,0,0
1683194580.10012984,63928585,1586,1586,1569,1569,0,0,0,0,0,0,0,0,0,0
1683194580.20008969,64028545,1586,1586,1570,1569,0,0,0,0,0,0,0,0,0,0
1683194580.30004978,64128505,1585,1586,1569,1569,0,0,0,0,0,0,0,0,0,0
1683194580.40000987,64228465,1586,1585,1569,1569,0,0,0,0,0,0,0,0,0,0
1683194580.49996972,64328425,1585,1585,1569,1569,0,0,0,0,0,0,0,0,0,0
1683194580.59992981,64428385,1586,1586,1569,1569,0,0,0,0,0,0,0,0,0,0
1683194580.69988990,64528345,1585,1585,1569,1568,0,0,0,0,0,0,0,0,0,0
1683194580.79984975,64628305,1586,1587,1570,1570,0,0,0,0,0,0,0,0,0,0
1683194580.89980984,64728265,1586,1587,1570,1570,0,0,0,0,0,0,0,0,0,0
1683194580.99976969,64828225,1587,1587,1570,1571,0,0,0,0,0,0,0,0,0,0
1683194581.09972978,64928185,1588,1587,1571,1572,0,0,0,0,0,0,0,0,0,0
1683194581.20052290,65028978,1587,1587,1570,1570,0,0,0,0,0,0,0,0,0,0
1683194581.30048275,65128938,1588,1588,1571,1571,0,0,0,0,0,0,0,0,0,0
1683194581.40044284,65228898,1588,1588,1572,1572,0,0,0,0,0,0,0,0,0,0
1683194581.50040269,65328858,1588,1589,1571,1572,0,0,0,0,0,0,0,0,0,0
1683194581.60036278,65428818,1589,1589,1572,1572,0,0,0,0,0,0,0,0,0,0
1683194581.70032287,65528778,1588,1588,1571,1570,0,0,0,0,0,0,0,0,0,0
1683194581.80028272,65628738,1589,1589,1572,1571,0,0,0,0,0,0,0,0,0,0
1683194581.90024281,65728698,1592,1586,1578,1565,0,0,0,0,0,0,0,0,0,0
1683194582.00020289,65828658,1588,1577,1581,1573,0,0,0,0,0,0,0,0,0,0
1683194582.10016274,65928618,1573,1565,1587,1587,0,0,0,0,0,0,0,0,0,0
1683194582.20012283,66028578,1556,1554,1591,1596,0,0,0,0,0,0,0,0,0,0
1683194582.30008268,66128538,1544,1549,1593,1599,0,0,0,0,0,0,0,0,0,0
1683194582.40004277,66228498,1538,1548,1590,1594,0,0,0,0,0,0,0,0,0,0
1683194582.50000286,66328458,1540,1550,1588,1588,0,0,0,0,0,0,0,0,0,0
1683194582.59996271,66428418,1544,1552,1585,1581,0,0,0,0,0,0,0,0,0,0
1683194582.69992280,66528378,1551,1555,1580,1574,0,0,0,0,0,0,0,0,0,0
1683194582.79988289,66628338,1557,1557,1573,1567,0,0,0,0,0,0,0,0,0,0
1683194582.89984274,66728298,1564,1561,1565,1562,0,0,0,0,0,0,0,0,0,0
1683194582.99980283,66828258,1572,1567,1553,1553,0,0,0,0,0,0,0,0,0,0
1683194583.09976268,66928218,1579,1575,1542,1543,0,0,0,0,0,0,0,0,0,0
1683194583.19972277,67028178,1585,1583,1534,1535,0,0,0,0,0,0,0,0,0,0
1683194583.30051589,67128971,1589,1589,1529,1531,0,0,0,0,0,0,0,0,0,0
1683194583.40047574,67228931,1591,1593,1529,1529,0,0,0,0,0,0,0,0,0,0
1683194583.50043583,67328891,1591,1594,1530,1529,0,0,0,0,0,0,0,0,0,0
1683194583.60039568,67428851,1590,1593,1532,1531,0,0,0,0,0,0,0,0,0,0
1683194583.70035577,67528811,1589,1591,1535,1534,0,0,0,0,0,0,0,0,0,0
1683194583.80031586,67628771,1587,1589,1538,1537,0,0,0,0,0,0,0,0,0,0
1683194583.90027571,67728731,1586,1586,1540,1540,0,0,0,0,0,0,0,0,0,0
1683194584.00023580,67828691,1584,1584,1541,1542,0,0,0,0,0,0,0,0,0,0
1683194584.10019588,67928651,1583,1583,1542,1543,0,0,0,0,0,0,0,0,0,0
1683194584.20015574,68028611,1582,1582,1544,1545,0,0,0,0,0,0,0,0,0,0
1683194584.30011582,68128571,1582,1582,1545,1547,0,0,0,0,0,0,0,0,0,0
1683194584.40007567,68228531,1581,1581,1548,1550,0,0,0,0,0,0,0,0,0,0
1683194584.50003576,68328491,1579,1579,1550,1552,0,0,0,0,0,0,0,0,0,0
1683194584.59999585,68428451,1576,1576,1553,1555,0,0,0,0,0,0,0,0,0,0
1683194584.69995570,68528411,1572,1571,1558,1561,0,0,0,0,0,0,0,0,0,0
1683194584.79991579,68628371,1568,1566,1565,1568,0,0,0,0,0,0,0,0,0,0
1683194584.89987588,68728331,1563,1561,1570,1572,0,0,0,0,0,0,0,0,0,0
1683194584.99983573,68828291,1558,1557,1574,1577,0,0,0,0,0,0,0,0,0,0
1683194585.09979582,68928251,1555,1554,1577,1579,0,0,0,0,0,0,0,0,0,0
1683194585.19975591,69028211,1552,1552,1580,1581,0,0,0,0,0,0,0,0,0,0
1683194585.29971576,69128171,1550,1550,1584,1584,0,0,0,0,0,0,0,0,0,0
1683194585.40050888,69228964,1549,1549,1586,1585,0,0,0,0,0,0,0,0,0,0
1683194585.50046873,69328924,1548,1548,1588,1587,0,0,0,0,0,0,0,0,0,0
1683194585.60042882,69428884,1549,1549,1590,1588,0,0,0,0,0,0,0,0,0,0
1683194585.70038891,69528844,1549,1549,1589,1588,0,0,0,0,0,0,0,0,0,0
1683194585.80034876,69628804,1550,1550,1588,1589,0,0,0,0,0,0,0,0,0,0
1683194585.90030885,69728764,1552,1552,1588,1588,0,0,0,0,0,0,0,0,0,0
1683194586.00026870,69828724,1554,1555,1587,1587,0,0,0,0,0,0,0,0,0,0
1683194586.10022879,69928684,1557,1557,1585,1585,0,0,0,0,0,0,0,0,0,0
1683194586.20018888,70028644,1561,1561,1585,1585,0,0,0,0,0,0,0,0,0,0
1683194586.30014873,70128604,1563,1564,1583,1583,0,0,0,0,0,0,0,0,0,0
1683194586.40010881,70228564,1567,1567,1582,1581,0,0,0,0,0,0,0,0,0,0
1683194586.50006890,70328524,1570,1570,1581,1580,0,0,0,0,0,0,0,0,0,0
1683194586.60002875,70428484,1573,1573,1580,1579,0,0,0,0,0,0,0,0,0,0
1683194586.69998884,70528444,1575,1574,1578,1578,0,0,0,0,0,0,0,0,0,0
1683194586.79994869,70628404,1577,1577,1578,1577,0,0,0,0,0,0,0,0,0,0
1683194586.89990878,70728364,1579,1578,1577,1577,0,0,0,0,0,0,0,0,0,0
1683194586.99986887,70828324,1580,1579,1576,1576,0,0,0,0,0,0,0,0,0,0
1683194587.09982872,70928284,1581,1580,1575,1576,0,0,0,0,0,0,0,0,0,0
1683194587.19978881,71028244,1581,1581,1575,1575,0,0,0,0,0,0,0,0,0,0
1683194587.29974890,71128204,1582,1581,1575,1575,0,0,0,0,0,0,0,0,0,0
1683194587.39970875,71228164,1582,1582,1575,1575,0,0,0,0,0,0,0,0,0,0
1683194587.50050187,71328957,1582,1582,1576,1576,0,0,0,0,0,0,0,0,0,0
1683194587.60046172,71428917,1582,1582,1576,1576,0,0,0,0,0,0,0,0,0,0
1683194587.70042181,71528877,1583,1583,1578,1577,0,0,0,0,0,0,0,0,0,0
1683194587.80038190,71628837,1583,1583,1578,1577,0,0,0,0,0,0,0,0,0,0
1683194587.90034175,71728797,1582,1582,1577,1577,0,0,0,0,0,0,0,0,0,0
1683194588.00030184,71828757,1582,1582,1578,1578,0,0,0,0,0,0,0,0,0,0
1683194588.10026169,71928717,1582,1582,1579,1578,0,0,0,0,0,0,0,0,0,0
1683194588.20022178,72028677,1581,1581,1578,1578,0,0,0,0,0,0,0,0,0,0
1683194588.30018187,72128637,1581,1581,1578,1579,0,0,0,0,0,0,0,0,0,0
1683194588.40014172,72228597,1581,1581,1579,1580,0,0,0,0,0,0,0,0,0,0
1683194588.50010180,72328557,1580,1581,1579,1579,0,0,0,0,0,0,0,0,0,0
1683194588.60006189,72428517,1580,1580,1579,1580,0,0,0,0,0,0,0,0,0,0
1683194588.70002174,72528477,1580,1580,1580,1580,0,0,0,0,0,0,0,0,0,0
1683194588.79998183,72628437,1581,1581,1581,1580,0,0,0,0,0,0,0,0,0,0
1683194588.89994168,72728397,1580,1580,1580,1580,0,0,0,0,0,0,0,0,0,0
1683194588.99990177,72828357,1580,1580,1580,1580,0,0,0,0,0,0,0,0,0,0
1683194589.09986186,72928317,1580,1581,1581,1581,0,0,0,0,0,0,0,0,0,0
1683194589.19982171,73028277,1580,1580,1581,1581,0,0,0,0,0,0,0,0,0,0
1683194589.29978180,73128237,1580,1580,1581,1581,0,0,0,0,0,0,0,0,0,0
1683194589.39974189,73228197,1580,1580,1580,1580,0,0,0,0,0,0,0,0,0,0
1683194589.49970174,73328157,1580,1580,1580,1580,0,0,0,0,0,0,0,0,0,0
1683194589.60049486,73428950,1580,1580,1580,1580,0,0,0,0,0,0,0,0,0,0
1683194589.70045471,73528910,1580,1580,1580,1580,0,0,0,0,0,0,0,0,0,0
1683194589.80041480,73628870,1580,1581,1580,1580,0,0,0,0,0,0,0,0,0,0
1683194589.90037489,73728830,1580,1581,1580,1580,0,0,0,0,0,0,0,0,0,0
1683194590.00033474,73828790,1581,1581,1581,1581,0,0,0,0,0,0,0,0,0,0
1683194590.10029483,73928750,1581,1580,1580,1580,0,0,0,0,0,0,0,0,0,0
1683194590.20025468,74028710,1581,1581,1581,1580,0,0,0,0,0,0,0,0,0,0
1683194590.30021477,74128670,1581,1581,1581,1581,0,0,0,0,0,0,0,0,0,0
1683194590.40017486,74228630,1581,1581,1581,1580,0,0,0,0,0,0,0,0,0,0
1683194590.50013471,74328590,1582,1581,1581,1581,0,0,0,0,0,0,0,0,0,0
1683194590.60009480,74428550,1581,1581,1581,1581,0,0,0,0,0,0,0,0,0,0
1683194590.70005488,74528510,1582,1582,1581,1582,0,0,0,0,0,0,0,0,0,0
1683194590.80001473,74628470,1581,1582,1581,1581,0,0,0,0,0,0,0,0,0,0
1683194590.89997482,74728430,1581,1581,1586,1576,0,0,0,0,0,0,0,0,0,0
1683194590.99993467,74828390,1581,1581,1586,1572,0,0,0,0,0,0,0,0,0,0
1683194591.09989476,74928350,1580,1580,1579,1573,0,0,0,0,0,0,0,0,0,0
1683194591.19985485,75028310,1578,1579,1569,1571,0,0,0,0,0,0,0,0,0,0
1683194591.29981470,75128270,1576,1578,1562,1568,0,0,0,0,0,0,0,0,0,0
1683194591.39977479,75228230,1574,1577,1558,1564,0,0,0,0,0,0,0,0,0,0
1683194591.49973488,75328190,1574,1576,1556,1560,0,0,0,0,0,0,0,0,0,0
1683194591.60052776,75428983,1575,1577,1557,1558,0,0,0,0,0,0,0,0,0,0
1683194591.70048785,75528943,1575,1576,1557,1556,0,0,0,0,0,0,0,0,0,0
1683194591.80044770,75628903,1576,1576,1557,1555,0,0,0,0,0,0,0,0,0,0
1683194591.90040779,75728863,1576,1575,1556,1554,0,0,0,0,0,0,0,0,0,0
1683194592.00036788,75828823,1575,1575,1555,1554,0,0,0,0,0,0,0,0,0,0
1683194592.10032773,75928783,1575,1575,1554,1553,0,0,0,0,0,0,0,0,0,0
1683194592.20028782,76028743,1575,1576,1553,1553,0,0,0,0,0,0,0,0,0,0
1683194592.30024791,76128703,1575,1576,1551,1552,0,0,0,0,0,0,0,0,0,0
1683194592.40020776,76228663,1576,1577,1550,1550,0,0,0,0,0,0,0,0,0,0
1683194592.50016785,76328623,1576,1577,1548,1547,0,0,0,0,0,0,0,0,0,0
1683194592.60012770,76428583,1577,1579,1547,1546,0,0,0,0,0,0,0,0,0,0
1683194592.70008779,76528543,1579,1581,1545,1545,0,0,0,0,0,0,0,0,0,0
1683194592.80004787,76628503,1581,1582,1543,1542,0,0,0,0,0,0,0,0,0,0
1683194592.90000772,76728463,1584,1584,1542,1542,0,0,0,0,0,0,0,0,0,0
1683194592.99996781,76828423,1587,1587,1542,1541,0,0,0,0,0,0,0,0,0,0
1683194593.09992790,76928383,1589,1588,1540,1540,0,0,0,0,0,0,0,0,0,0
1683194593.19988775,77028343,1591,1590,1540,1542,0,0,0,0,0,0,0,0,0,0
1683194593.29984784,77128303,1591,1590,1541,1542,0,0,0,0,0,0,0,0,0,0
1683194593.39980769,77228263,1590,1590,1542,1545,0,0,0,0,0,0,0,0,0,0
1683194593.49976778,77328223,1589,1588,1544,1547,0,0,0,0,0,0,0,0,0,0
1683194593.59972787,77428183,1586,1586,1547,1550,0,0,0,0,0,0,0,0,0,0
1683194593.70052075,77528976,1583,1582,1552,1555,0,0,0,0,0,0,0,0,0,0
1683194593.80048084,77628936,1579,1578,1559,1562,0,0,0,0,0,0,0,0,0,0
1683194593.90044069,77728896,1574,1571,1567,1570,0,0,0,0,0,0,0,0,0,0
1683194594.00040078,77828856,1566,1563,1576,1577,0,0,0,0,0,0,0,0,0,0
1683194594.10036087,77928816,1558,1555,1586,1586,0,0,0,0,0,0,0,0,0,0
1683194594.20032072,78028776,1549,1547,1595,1595,0,0,0,0,0,0,0,0,0,0
1683194594.30028081,78128736,1541,1540,1604,1603,0,0,0,0,0,0,0,0,0,0
1683194594.40024090,78228696,1535,1536,1609,1609,0,0,0,0,0,0,0,0,0,0
1683194594.50020075,78328656,1532,1533,1611,1610,0,0,0,0,0,0,0,0,0,0
1683194594.60016084,78428616,1532,1534,1610,1609,0,0,0,0,0,0,0,0,0,0
1683194594.70012069,78528576,1535,1538,1607,1607,0,0,0,0,0,0,0,0,0,0
1683194594.80008078,78628536,1540,1543,1602,1602,0,0,0,0,0,0,0,0,0,0
1683194594.90004086,78728496,1547,1549,1596,1596,0,0,0,0,0,0,0,0,0,0
1683194595.00000072,78828456,1555,1556,1590,1589,0,0,0,0,0,0,0,0,0,0
1683194595.09996080,78928416,1564,1564,1584,1583,0,0,0,0,0,0,0,0,0,0
1683194595.19992089,79028376,1571,1571,1577,1576,0,0,0,0,0,0,0,0,0,0
1683194595.29988074,79128336,1578,1577,1572,1571,0,0,0,0,0,0,0,0,0,0
1683194595.39984083,79228296,1583,1581,1568,1568,0,0,0,0,0,0,0,0,0,0
1683194595.49980068,79328256,1587,1585,1566,1566,0,0,0,0,0,0,0,0,0,0
1683194595.59976077,79428216,1589,1587,1565,1565,0,0,0,0,0,0,0,0,0,0
1683194595.69972086,79528176,1590,1588,1566,1567,0,0,0,0,0,0,0,0,0,0
1683194595.80051374,79628969,1588,1587,1567,1568,0,0,0,0,0,0,0,0,0,0
1683194595.90047383,79728929,1587,1587,1570,1571,0,0,0,0,0,0,0,0,0,0
1683194596.00043368,79828889,1585,1586,1573,1574,0,0,0,0,0,0,0,0,0,0
1683194596.10039377,79928849,1584,1584,1577,1577,0,0,0,0,0,0,0,0,0,0
1683194596.20035386,80028809,1581,1582,1579,1579,0,0,0,0,0,0,0,0,0,0
1683194596.30031371,80128769,1580,1580,1582,1582,0,0,0,0,0,0,0,0,0,0
1683194596.40027380,80228729,1578,1578,1583,1583,0,0,0,0,0,0,0,0,0,0
1683194596.50023389,80328689,1576,1576,1584,1584,0,0,0,0,0,0,0,0,0,0
1683194596.60019374,80428649,1574,1575,1584,1585,0,0,0,0,0,0,0,0,0,0
1683194596.70015383,80528609,1574,1575,1585,1585,0,0,0,0,0,0,0,0,0,0
1683194596.80011368,80628569,1574,1575,1585,1585,0,0,0,0,0,0,0,0,0,0
1683194596.90007377,80728529,1575,1576,1584,1584,0,0,0,0,0,0,0,0,0,0
1683194597.00003386,80828489,1576,1576,1583,1583,0,0,0,0,0,0,0,0,0,0
1683194597.09999371,80928449,1576,1577,1581,1581,0,0,0,0,0,0,0,0,0,0
1683194597.19995379,81028409,1578,1577,1580,1580,0,0,0,0,0,0,0,0,0,0
1683194597.29991388,81128369,1579,1578,1579,1579,0,0,0,0,0,0,0,0,0,0
1683194597.39987373,81228329,1579,1579,1578,1577,0,0,0,0,0,0,0,0,0,0
1683194597.49983382,81328289,1581,1580,1577,1577,0,0,0,0,0,0,0,0,0,0
1683194597.59979367,81428249,1581,1581,1577,1577,0,0,0,0,0,0,0,0,0,0
1683194597.69975376,81528209,1581,1581,1576,1577,0,0,0,0,0,0,0,0,0,0
1683194597.79971385,81628169,1582,1582,1577,1578,0,0,0,0,0,0,0,0,0,0
1683194597.90050673,81728962,1582,1582,1578,1578,0,0,0,0,0,0,0,0,0,0
1683194598.00046682,81828922,1583,1582,1580,1579,0,0,0,0,0,0,0,0,0,0
1683194598.10042667,81928882,1583,1583,1580,1580,0,0,0,0,0,0,0,0,0,0
1683194598.20038676,82028842,1582,1582,1581,1580,0,0,0,0,0,0,0,0,0,0
1683194598.30034685,82128802,1581,1581,1580,1581,0,0,0,0,0,0,0,0,0,0
1683194598.40030670,82228762,1581,1580,1580,1580,0,0,0,0,0,0,0,0,0,0
1683194598.50026679,82328722,1581,1581,1581,1581,0,0,0,0,0,0,0,0,0,0
1683194598.60022688,82428682,1580,1580,1580,1581,0,0,0,0,0,0,0,0,0,0
1683194598.70018673,82528642,1579,1580,1580,1580,0,0,0,0,0,0,0,0,0,0
1683194598.80014682,82628602,1580,1580,1581,1581,0,0,0,0,0,0,0,0,0,0
1683194598.90010691,82728562,1580,1580,1581,1581,0,0,0,0,0,0,0,0,0,0
1683194599.00006676,82828522,1580,1580,1581,1581,0,0,0,0,0,0,0,0,0,0
1683194599.10002685,82928482,1581,1580,1588,1575,0,0,0,0,0,0,0,0,0,0
1683194599.19998670,83028442,1580,1579,1586,1574,0,0,0,0,0,0,0,0,0,0
1683194599.29994678,83128402,1578,1577,1578,1575,0,0,0,0,0,0,0,0,0,0
1683194599.39990687,83228362,1576,1575,1572,1574,0,0,0,0,0,0,0,0,0,0
1683194599.49986672,83328322,1573,1572,1566,1573,0,0,0,0,0,0,0,0,0,0
1683194599.59982681,83428282,1570,1570,1563,1570,0,0,0,0,0,0,0,0,0,0
1683194599.69978690,83528242,1568,1569,1563,1567,0,0,0,0,0,0,0,0,0,0
1683194599.79974675,83628202,1567,1568,1566,1566,0,0,0,0,0,0,0,0,0,0
1683194599.89970684,83728162,1566,1567,1567,1565,0,0,0,0,0,0,0,0,0,0
1683194600.00049973,83828955,1566,1566,1568,1565,0,0,0,0,0,0,0,0,0,0
1683194600.10045981,83928915,1565,1565,1567,1565,0,0,0,0,0,0,0,0,0,0
1683194600.20041990,84028875,1565,1565,1568,1566,0,0,0,0,0,0,0,0,0,0
1683194600.30037975,84128835,1563,1563,1564,1564,0,0,0,0,0,0,0,0,0,0
1683194600.40033984,84228795,1562,1562,1564,1564,0,0,0,0,0,0,0,0,0,0
1683194600.50029969,84328755,1562,1561,1563,1564,0,0,0,0,0,0,0,0,0,0
1683194600.60025978,84428715,1562,1562,1564,1563,0,0,0,0,0,0,0,0,0,0
1683194600.70021987,84528675,1562,1561,1563,1563,0,0,0,0,0,0,0,0,0,0
1683194600.80017972,84628635,1561,1560,1561,1561,0,0,0,0,0,0,0,0,0,0
1683194600.90013981,84728595,1560,1560,1561,1560,0,0,0,0,0,0,0,0,0,0
1683194601.00009990,84828555,1558,1559,1559,1558,0,0,0,0,0,0,0,0,0,0
1683194601.10005975,84928515,1558,1558,1558,1557,0,0,0,0,0,0,0,0,0,0
1683194601.20001984,85028475,1559,1559,1559,1558,0,0,0,0,0,0,0,0,0,0
1683194601.29997969,85128435,1559,1559,1560,1559,0,0,0,0,0,0,0,0,0,0
1683194601.39993978,85228395,1558,1560,1539,1580,0,0,0,0,0,0,0,0,0,0
1683194601.49989986,85328355,1557,1557,1562,1550,0,0,0,0,0,0,0,0,0,0
1683194601.59985971,85428315,1555,1554,1567,1538,0,0,0,0,0,0,0,0,0,0
1683194601.69981980,85528275,1551,1549,1554,1539,0,0,0,0,0,0,0,0,0,0
1683194601.79977989,85628235,1546,1544,1541,1541,0,0,0,0,0,0,0,0,0,0
1683194601.89973974,85728195,1540,1540,1530,1541,0,0,0,0,0,0,0,0,0,0
1683194601.99969983,85828155,1534,1535,1522,1536,0,0,0,0,0,0,0,0,0,0
1683194602.10049272,85928948,1527,1529,1517,1529,0,0,0,0,0,0,0,0,0,0
1683194602.20045280,86028908,1523,1524,1517,1523,0,0,0,0,0,0,0,0,0,0
1683194602.30041289,86128868,1522,1523,1521,1522,0,0,0,0,0,0,0,0,0,0
1683194602.40037274,86228828,1520,1521,1523,1521,0,0,0,0,0,0,0,0,0,0
1683194602.50033283,86328788,1521,1520,1525,1523,0,0,0,0,0,0,0,0,0,0
1683194602.60029268,86428748,1523,1522,1530,1527,0,0,0,0,0,0,0,0,0,0
1683194602.70025277,86528708,1526,1525,1534,1534,0,0,0,0,0,0,0,0,0,0
1683194602.80021286,86628668,1531,1530,1540,1540,0,0,0,0,0,0,0,0,0,0
1683194602.90017271,86728628,1534,1533,1542,1544,0,0,0,0,0,0,0,0,0,0
1683194603.00013280,86828588,1537,1537,1544,1545,0,0,0,0,0,0,0,0,0,0
1683194603.10009289,86928548,1540,1541,1546,1547,0,0,0,0,0,0,0,0,0,0
1683194603.20005274,87028508,1543,1543,1546,1547,0,0,0,0,0,0,0,0,0,0
1683194603.30001283,87128468,1545,1545,1546,1546,0,0,0,0,0,0,0,0,0,0
1683194603.39997268,87228428,1547,1547,1545,1545,0,0,0,0,0,0,0,0,0,0
1683194603.49993277,87328388,1548,1548,1545,1544,0,0,0,0,0,0,0,0,0,0
1683194603.59989285,87428348,1549,1549,1544,1544,0,0,0,0,0,0,0,0,0,0
1683194603.69985271,87528308,1550,1550,1544,1545,0,0,0,0,0,0,0,0,0,0
1683194603.79981279,87628268,1551,1551,1545,1545,0,0,0,0,0,0,0,0,0,0
1683194603.89977288,87728228,1550,1550,1545,1545,0,0,0,0,0,0,0,0,0,0
1683194603.99973273,87828188,1549,1549,1544,1544,0,0,0,0,0,0,0,0,0,0
1683194604.10052586,87928981,1549,1549,1545,1544,0,0,0,0,0,0,0,0,0,0
1683194604.20048571,88028941,1548,1548,1545,1545,0,0,0,0,0,0,0,0,0,0
1683194604.30044580,88128901,1547,1547,1545,1545,0,0,0,0,0,0,0,0,0,0
1683194604.40040588,88228861,1546,1546,1546,1546,0,0,0,0,0,0,0,0,0,0
1683194604.50036573,88328821,1546,1546,1546,1547,0,0,0,0,0,0,0,0,0,0
1683194604.60032582,88428781,1544,1544,1546,1545,0,0,0,0,0,0,0,0,0,0
1683194604.70028567,88528741,1543,1543,1545,1545,0,0,0,0,0,0,0,0,0,0
1683194604.80024576,88628701,1543,1543,1545,1545,0,0,0,0,0,0,0,0,0,0
1683194604.90020585,88728661,1543,1543,1545,1545,0,0,0,0,0,0,0,0,0,0
1683194605.00016570,88828621,1543,1543,1545,1545,0,0,0,0,0,0,0,0,0,0
1683194605.10012579,88928581,1543,1542,1545,1544,0,0,0,0,0,0,0,0,0,0
1683194605.20008588,89028541,1542,1543,1544,1544,0,0,0,0,0,0,0,0,0,0
1683194605.30004573,89128501,1543,1544,1545,1545,0,0,0,0,0,0,0,0,0,0
1683194605.40000582,89228461,1543,1543,1544,1544,0,0,0,0,0,0,0,0,0,0
1683194605.49996591,89328421,1543,1543,1543,1543,0,0,0,0,0,0,0,0,0,0
1683194605.59992576,89428381,1543,1543,1543,1543,0,0,0,0,0,0,0,0,0,0
1683194605.69988585,89528341,1544,1544,1544,1543,0,0,0,0,0,0,0,0,0,0
1683194605.79984570,89628301,1544,1544,1544,1543,0,0,0,0,0,0,0,0,0,0
1683194605.89980578,89728261,1545,1545,1544,1544,0,0,0,0,0,0,0,0,0,0
1683194605.99976587,89828221,1545,1545,1544,1544,0,0,0,0,0,0,0,0,0,0
1683194606.09972572,89928181,1544,1544,1543,1544,0,0,0,0,0,0,0,0,0,0
1683194606.20051885,90028974,1545,1545,1544,1544,0,0,0,0,0,0,0,0,0,0
1683194606.30047870,90128934,1544,1544,1543,1544,0,0,0,0,0,0,0,0,0,0
1683194606.40043879,90228894,1545,1545,1544,1544,0,0,0,0,0,0,0,0,0,0
1683194606.50039887,90328854,1545,1544,1544,1544,0,0,0,0,0,0,0,0,0,0
1683194606.60035872,90428814,1545,1545,1545,1545,0,0,0,0,0,0,0,0,0,0
1683194606.70031881,90528774,1545,1544,1545,1544,0,0,0,0,0,0,0,0,0,0
1683194606.80027890,90628734,1544,1544,1544,1544,0,0,0,0,0,0,0,0,0,0
1683194606.90023875,90728694,1545,1544,1545,1545,0,0,0,0,0,0,0,0,0,0
1683194607.00019884,90828654,1544,1544,1545,1545,0,0,0,0,0,0,0,0,0,0
1683194607.10015869,90928614,1545,1544,1545,1545,0,0,0,0,0,0,0,0,0,0
1683194607.20011878,91028574,1544,1544,1544,1545,0,0,0,0,0,0,0,0,0,0
1683194607.30007887,91128534,1544,1544,1544,1544,0,0,0,0,0,0,0,0,0,0
1683194607.40003872,91228494,1544,1544,1545,1544,0,0,0,0,0,0,0,0,0,0
1683194607.49999881,91328454,1545,1544,1545,1544,0,0,0,0,0,0,0,0,0,0
1683194607.59995890,91428414,1544,1544,1544,1544,0,0,0,0,0,0,0,0,0,0
1683194607.69991875,91528374,1545,1544,1544,1545,0,0,0,0,0,0,0,0,0,0
1683194607.79987884,91628334,1544,1545,1544,1544,0,0,0,0,0,0,0,0,0,0
1683194607.89983869,91728294,1544,1544,1544,1544,0,0,0,0,0,0,0,0,0,0
1683194607.99979877,91828254,1544,1544,1544,1544,0,0,0,0,0,0,0,0,0,0
1683194608.09975886,91928214,1544,1544,1544,1544,0,0,0,0,0,0,0,0,0,0
1683194608.19971871,92028174,1544,1544,1544,1544,0,0,0,0,0,0,0,0,0,0
1683194608.30051184,92128967,1545,1544,1544,1544,0,0,0,0,0,0,0,0,0,0
1683194608.40047169,92228927,1545,1545,1545,1544,0,0,0,0,0,0,0,0,0,0
1683194608.50043178,92328887,1544,1544,1544,1545,0,0,0,0,0,0,0,0,0,0
1683194608.60039186,92428847,1544,1545,1544,1545,0,0,0,0,0,0,0,0,0,0
1683194608.70035172,92528807,1544,1544,1544,1544,0,0,0,0,0,0,0,0,0,0
1683194608.80031180,92628767,1545,1544,1545,1544,0,0,0,0,0,0,0,0,0,0
1683194608.90027189,92728727,1545,1545,1545,1545,0,0,0,0,0,0,0,0,0,0
1683194609.00023174,92828687,1545,1545,1545,1544,0,0,0,0,0,0,0,0,0,0
1683194609.10019183,92928647,1544,1544,1544,1544,0,0,0,0,0,0,0,0,0,0
1683194609.20015168,93028607,1545,1544,1544,1545,0,0,0,0,0,0,0,0,0,0
1683194609.30011177,93128567,1545,1545,1545,1545,0,0,0,0,0,0,0,0,0,0
1683194609.40007186,93228527,1545,1545,1545,1545,0,0,0,0,0,0,0,0,0,0
1683194609.50003171,93328487,1545,1545,1545,1545,0,0,0,0,0,0,0,0,0,0
1683194609.59999180,93428447,1544,1544,1544,1544,0,0,0,0,0,0,0,0,0,0
1683194609.69995189,93528407,1545,1544,1544,1545,0,0,0,0,0,0,0,0,0,0
1683194609.79991174,93628367,1545,1545,1545,1545,0,0,0,0,0,0,0,0,0,0
1683194609.89987183,93728327,1545,1545,1545,1545,0,0,0,0,0,0,0,0,0,0
1683194609.99983168,93828287,1545,1545,1545,1545,0,0,0,0,0,0,0,0,0,0
1683194610.09979177,93928247,1545,1545,1545,1545,0,0,0,0,0,0,0,0,0,0
1683194610.19975185,94028207,1544,1545,1544,1545,0,0,0,0,0,0,0,0,0,0
1683194610.29971170,94128167,1544,1544,1544,1544,0,0,0,0,0,0,0,0,0,0
1683194610.40050483,94228960,1545,1545,1545,1544,0,0,0,0,0,0,0,0,0,0
1683194610.50046468,94328920,1545,1545,1545,1545,0,0,0,0,0,0,0,0,0,0
1683194610.60042477,94428880,1544,1544,1545,1544,0,0,0,0,0,0,0,0,0,0
1683194610.70038486,94528840,1545,1544,1545,1545,0,0,0,0,0,0,0,0,0,0
1683194610.80034471,94628800,1545,1545,1545,1545,0,0,0,0,0,0,0,0,0,0
1683194610.90030479,94728760,1545,1545,1545,1546,0,0,0,0,0,0,0,0,0,0
1683194611.00026488,94828720,1544,1544,1544,1545,0,0,0,0,0,0,0,0,0,0
1683194611.10022473,94928680,1544,1544,1544,1544,0,0,0,0,0,0,0,0,0,0
1683194611.20018482,95028640,1544,1544,1544,1544,0,0,0,0,0,0,0,0,0,0
1683194611.30014467,95128600,1544,1544,1544,1544,0,0,0,0,0,0,0,0,0,0
1683194611.40010476,95228560,1544,1544,1544,1543,0,0,0,0,0,0,0,0,0,0
1683194611.50006485,95328520,1544,1544,1544,1545,0,0,0,0,0,0,0,0,0,0
1683194611.60002470,95428480,1544,1545,1545,1544,0,0,0,0,0,0,0,0,0,0
1683194611.69998479,95528440,1544,1544,1544,1544,0,0,0,0,0,0,0,0,0,0
1683194611.79994488,95628400,1544,1544,1544,1545,0,0,0,0,0,0,0,0,0,0
1683194611.89990473,95728360,1451,1449,1402,1400,0,0,0,0,0,0,0,0,0,0
1683194611.99986482,95828320,1374,1372,1269,1267,0,0,0,0,0,0,0,0,0,0
1683194612.09982491,95928280,1349,1347,1221,1219,0,0,0,0,0,0,0,0,0,0
1683194612.19978476,96028240,1340,1337,1202,1199,0,0,0,0,0,0,0,0,0,0
1683194612.29974484,96128200,1321,1318,1162,1159,0,0,0,0,0,0,0,0,0,0
1683194612.39970469,96228160,1264,1262,1155,1150,0,0,0,0,0,0,0,0,0,0
1683194612.50049782,96328953,1173,1169,1154,1150,0,0,0,0,0,0,0,0,0,0
1683194612.60045791,96428913,1072,1068,1155,1150,0,0,0,0,0,0,0,0,0,0
1683194612.70041776,96528873,969,965,1153,1150,0,0,0,0,0,0,0,0,0,0
1683194612.80037785,96628833,968,965,1153,1150,0,0,0,0,0,0,0,0,0,0
1683194612.90033770,96728793,969,965,1153,1150,0,0,0,0,0,0,0,0,0,0
1683194613.00029778,96828753,970,960,1150,1159,0,0,0,0,0,0,0,0,0,0
1683194613.10025787,96928713,969,956,1150,1165,0,0,0,0,0,0,0,0,0,0
1683194613.20021772,97028673,969,961,1150,1158,0,0,0,0,0,0,0,0,0,0
1683194613.30017781,97128633,970,962,1150,1157,0,0,0,0,0,0,0,0,0,0
1683194613.40013790,97228593,970,962,1150,1156,0,0,0,0,0,0,0,0,0,0
1683194613.50009775,97328553,970,961,1150,1157,0,0,0,0,0,0,0,0,0,0
1683194613.60005784,97428513,970,961,1150,1157,0,0,0,0,0,0,0,0,0,0
1683194613.70001769,97528473,970,961,1150,1158,0,0,0,0,0,0,0,0,0,0
1683194613.79997778,97628433,965,968,1153,1150,0,0,0,0,0,0,0,0,0,0
1683194613.89993787,97728393,969,967,1150,1151,0,0,0,0,0,0,0,0,0,0
1683194613.99989772,97828353,969,966,1150,1151,0,0,0,0,0,0,0,0,0,0
1683194614.09985781,97928313,969,966,1150,1151,0,0,0,0,0,0,0,0,0,0
1683194614.19981790,98028273,969,966,1150,1151,0,0,0,0,0,0,0,0,0,0
1683194614.29977775,98128233,1000,1000,1000,1000,0,0,0,0,0,0,0,0,0,0
1683194614.39973783,98228193,1000,1000,1000,1000,0,0,0,0,0,0,0,0,0,0
1683194614.50053072,98328986,1000,1000,1000,1000,0,0,0,0,0,0,0,0,0,0
1683194614.60049081,98428946,1000,1000,1000,1000,0,0,0,0,0,0,0,0,0,0
1683194614.70045090,98528906,1000,1000,1000,1000,0,0,0,0,0,0,0,0,0,0
1683194614.80041075,98628866,1000,1000,1000,1000,0,0,0,0,0,0,0,0,0,0
1683194614.90037084,98728826,1000,1000,1000,1000,0,0,0,0,0,0,0,0,0,0
1683194615.00033069,98828786,1000,1000,1000,1000,0,0,0,0,0,0,0,0,0,0
1683194615.10029078,98928746,1000,1000,1000,1000,0,0,0,0,0,0,0,0,0,0
1683194615.20025086,99028706,1000,1000,1000,1000,0,0,0,0,0,0,0,0,0,0
1683194615.30021071,99128666,1000,1000,1000,1000,0,0,0,0,0,0,0,0,0,0
1683194615.40017080,99228626,1000,1000,1000,1000,0,0,0,0,0,0,0,0,0,0
1683194615.50013089,99328586,1000,1000,1000,1000,0,0,0,0,0,0,0,0,0,0
1683194615.60009074,99428546,1000,1000,1000,1000,0,0,0,0,0,0,0,0,0,0
1683194615.70005083,99528506,1000,1000,1000,1000,0,0,0,0,0,0,0,0,0,0
1683194615.80001068,99628466,1000,1000,1000,1000,0,0,0,0,0,0,0,0,0,0
1683194615.89997077,99728426,1000,1000,1000,1000,0,0,0,0,0,0,0,0,0,0
1683194615.99993086,99828386,1000,1000,1000,1000,0,0,0,0,0,0,0,0,0,0
1683194616.09989071,99928346,1000,1000,1000,1000,0,0,0,0,0,0,0,0,0,0
1683194616.19985080,100028306,1000,1000,1000,1000,0,0,0,0,0,0,0,0,0,0
1683194616.29981089,100128266,1000,1000,1000,1000,0,0,0,0,0,0,0,0,0,0
1683194616.39977074,100228226,1000,1000,1000,1000,0,0,0,0,0,0,0,0,0,0
1683194616.49973083,100328186,1000,1000,1000,1000,0,0,0,0,0,0,0,0,0,0
1683194616.60052371,100428979,1000,1000,1000,1000,0,0,0,0,0,0,0,0,0,0
1683194616.70048380,100528939,1000,1000,1000,1000,0,0,0,0,0,0,0,0,0,0
1683194616.80044389,100628899,1000,1000,1000,1000,0,0,0,0,0,0,0,0,0,0
1683194616.90040374,100728859,1000,1000,1000,1000,0,0,0,0,0,0,0,0,0,0
1683194617.00036383,100828819,1000,1000,1000,1000,0,0,0,0,0,0,0,0,0,0
1683194617.10032368,100928779,1000,1000,1000,1000,0,0,0,0,0,0,0,0,0,0
1683194617.20028377,101028739,1000,1000,1000,1000,0,0,0,0,0,0,0,0,0,0
1683194617.30024385,101128699,1000,1000,1000,1000,0,0,0,0,0,0,0,0,0,0
1683194617.40020370,101228659,1000,1000,1000,1000,0,0,0,0,0,0,0,0,0,0
1683194617.50016379,101328619,1000,1000,1000,1000,0,0,0,0,0,0,0,0,0,0
1683194617.60012388,101428579,1000,1000,1000,1000,0,0,0,0,0,0,0,0,0,0
1683194617.70008373,101528539,1000,1000,1000,1000,0,0,0,0,0,0,0,0,0,0
1683194617.80004382,101628499,1000,1000,1000,1000,0,0,0,0,0,0,0,0,0,0
1683194617.90000367,101728459,1000,1000,1000,1000,0,0,0,0,0,0,0,0,0,0
1683194617.99996376,101828419,1000,1000,1000,1000,0,0,0,0,0,0,0,0,0,0
1683194618.09992385,101928379,1000,1000,1000,1000,0,0,0,0,0,0,0,0,0,0
1683194618.19988370,102028339,1000,1000,1000,1000,0,0,0,0,0,0,0,0,0,0
1683194618.29984379,102128299,1000,1000,1000,1000,0,0,0,0,0,0,0,0,0,0
1683194618.39980388,102228259,1000,1000,1000,1000,0,0,0,0,0,0,0,0,0,0
1683194618.49976373,102328219,1000,1000,1000,1000,0,0,0,0,0,0,0,0,0,0
1683194618.59972382,102428179,1000,1000,1000,1000,0,0,0,0,0,0,0,0,0,0
1683194618.70051670,102528972,1000,1000,1000,1000,0,0,0,0,0,0,0,0,0,0
1683194618.80047679,102628932,1000,1000,1000,1000,0,0,0,0,0,0,0,0,0,0
1683194618.90043688,102728892,1000,1000,1000,1000,0,0,0,0,0,0,0,0,0,0
1683194619.00039673,102828852,1000,1000,1000,1000,0,0,0,0,0,0,0,0,0,0
1683194619.10035682,102928812,1000,1000,1000,1000,0,0,0,0,0,0,0,0,0,0
1683194619.20031691,103028772,1000,1000,1000,1000,0,0,0,0,0,0,0,0,0,0
1683194619.30027676,103128732,1000,1000,1000,1000,0,0,0,0,0,0,0,0,0,0
1683194619.40023685,103228692,1000,1000,1000,1000,0,0,0,0,0,0,0,0,0,0
1683194619.50019670,103328652,1000,1000,1000,1000,0,0,0,0,0,0,0,0,0,0
1683194619.60015678,103428612,1000,1000,1000,1000,0,0,0,0,0,0,0,0,0,0
1683194619.70011687,103528572,1000,1000,1000,1000,0,0,0,0,0,0,0,0,0,0
1683194619.80007672,103628532,1000,1000,1000,1000,0,0,0,0,0,0,0,0,0,0
1683194619.90003681,103728492,1000,1000,1000,1000,0,0,0,0,0,0,0,0,0,0
1683194619.99999690,103828452,1000,1000,1000,1000,0,0,0,0,0,0,0,0,0,0
1683194620.09995675,103928412,1000,1000,1000,1000,0,0,0,0,0,0,0,0,0,0
1683194620.19991684,104028372,1000,1000,1000,1000,0,0,0,0,0,0,0,0,0,0
1683194620.29987669,104128332,1000,1000,1000,1000,0,0,0,0,0,0,0,0,0,0
1683194620.39983678,104228292,1000,1000,1000,1000,0,0,0,0,0,0,0,0,0,0
1683194620.49979687,104328252,1000,1000,1000,1000,0,0,0,0,0,0,0,0,0,0
1683194620.59975672,104428212,1000,1000,1000,1000,0,0,0,0,0,0,0,0,0,0
1683194620.69971681,104528172,1000,1000,1000,1000,0,0,0,0,0,0,0,0,0,0
1683194620.80050969,104628965,1000,1000,1000,1000,0,0,0,0,0,0,0,0,0,0
1683194620.90046978,104728925,1000,1000,1000,1000,0,0,0,0,0,0,0,0,0,0
1683194621.00042987,104828885,1000,1000,1000,1000,0,0,0,0,0,0,0,0,0,0
1683194621.10038972,104928845,1000,1000,1000,1000,0,0,0,0,0,0,0,0,0,0
1683194621.20034981,105028805,1000,1000,1000,1000,0,0,0,0,0,0,0,0,0,0
1683194621.30030990,105128765,1000,1000,1000,1000,0,0,0,0,0,0,0,0,0,0
1683194621.40026975,105228725,1000,1000,1000,1000,0,0,0,0,0,0,0,0,0,0
1683194621.50022984,105328685,1000,1000,1000,1000,0,0,0,0,0,0,0,0,0,0
1683194621.60018969,105428645,1000,1000,1000,1000,0,0,0,0,0,0,0,0,0,0
1683194621.70014977,105528605,1000,1000,1000,1000,0,0,0,0,0,0,0,0,0,0
1683194621.80010986,105628565,1000,1000,1000,1000,0,0,0,0,0,0,0,0,0,0
1683194621.90006971,105728525,1000,1000,1000,1000,0,0,0,0,0,0,0,0,0,0
1683194622.00002980,105828485,1000,1000,1000,1000,0,0,0,0,0,0,0,0,0,0
1683194622.09998989,105928445,1000,1000,1000,1000,0,0,0,0,0,0,0,0,0,0
1683194622.19994974,106028405,1000,1000,1000,1000,0,0,0,0,0,0,0,0,0,0
1683194622.29990983,106128365,1000,1000,1000,1000,0,0,0,0,0,0,0,0,0,0
1683194622.39986968,106228325,1000,1000,1000,1000,0,0,0,0,0,0,0,0,0,0
1683194622.49982977,106328285,1000,1000,1000,1000,0,0,0,0,0,0,0,0,0,0
1683194622.59978986,106428245,1000,1000,1000,1000,0,0,0,0,0,0,0,0,0,0
1683194622.69974971,106528205,1000,1000,1000,1000,0,0,0,0,0,0,0,0,0,0
1683194622.79970980,106628165,1000,1000,1000,1000,0,0,0,0,0,0,0,0,0,0
1683194622.90050268,106728958,1000,1000,1000,1000,0,0,0,0,0,0,0,0,0,0
1683194623.00046277,106828918,1000,1000,1000,1000,0,0,0,0,0,0,0,0,0,0
1683194623.10042286,106928878,1000,1000,1000,1000,0,0,0,0,0,0,0,0,0,0
1683194623.20038271,107028838,1000,1000,1000,1000,0,0,0,0,0,0,0,0,0,0
1683194623.30034280,107128798,1000,1000,1000,1000,0,0,0,0,0,0,0,0,0,0
1683194623.40030289,107228758,1000,1000,1000,1000,0,0,0,0,0,0,0,0,0,0
1683194623.50026274,107328718,1000,1000,1000,1000,0,0,0,0,0,0,0,0,0,0
1683194623.60022283,107428678,1000,1000,1000,1000,0,0,0,0,0,0,0,0,0,0
1683194623.70018268,107528638,1000,1000,1000,1000,0,0,0,0,0,0,0,0,0,0
1683194623.80014277,107628598,1000,1000,1000,1000,0,0,0,0,0,0,0,0,0,0
1683194623.90010285,107728558,1000,1000,1000,1000,0,0,0,0,0,0,0,0,0,0
1683194624.00006270,107828518,1000,1000,1000,1000,0,0,0,0,0,0,0,0,0,0
1683194624.10002279,107928478,1000,1000,1000,1000,0,0,0,0,0,0,0,0,0,0
1683194624.19998288,108028438,1000,1000,1000,1000,0,0,0,0,0,0,0,0,0,0
1683194624.29994273,108128398,1000,1000,1000,1000,0,0,0,0,0,0,0,0,0,0
1683194624.39990282,108228358,1000,1000,1000,1000,0,0,0,0,0,0,0,0,0,0
1683194624.49986291,108328318,1000,1000,1000,1000,0,0,0,0,0,0,0,0,0,0
1683194624.59982276,108428278,1000,1000,1000,1000,0,0,0,0,0,0,0,0,0,0
1683194624.69978285,108528238,1000,1000,1000,1000,0,0,0,0,0,0,0,0,0,0
1683194624.79974270,108628198,1000,1000,1000,1000,0,0,0,0,0,0,0,0,0,0
1683194624.89970279,108728158,1000,1000,1000,1000,0,0,0,0,0,0,0,0,0,0
1683194625.00049567,108828951,1000,1000,1000,1000,0,0,0,0,0,0,0,0,0,0
1683194625.10045576,108928911,1000,1000,1000,1000,0,0,0,0,0,0,0,0,0,0
1683194625.20041585,109028871,1000,1000,1000,1000,0,0,0,0,0,0,0,0,0,0
1683194625.30037570,109128831,1000,1000,1000,1000,0,0,0,0,0,0,0,0,0,0
1683194625.40033579,109228791,1000,1000,1000,1000,0,0,0,0,0,0,0,0,0,0
1683194625.50029588,109328751,1000,1000,1000,1000,0,0,0,0,0,0,0,0,0,0
1683194625.60025573,109428711,1000,1000,1000,1000,0,0,0,0,0,0,0,0,0,0
1683194625.70021582,109528671,1000,1000,1000,1000,0,0,0,0,0,0,0,0,0,0
1683194625.80017591,109628631,1000,1000,1000,1000,0,0,0,0,0,0,0,0,0,0
1683194625.90013576,109728591,1000,1000,1000,1000,0,0,0,0,0,0,0,0,0,0
1683194626.00009584,109828551,1000,1000,1000,1000,0,0,0,0,0,0,0,0,0,0
1683194626.10005569,109928511,1000,1000,1000,1000,0,0,0,0,0,0,0,0,0,0
1683194626.20001578,110028471,1000,1000,1000,1000,0,0,0,0,0,0,0,0,0,0
1683194626.29997587,110128431,1000,1000,1000,1000,0,0,0,0,0,0,0,0,0,0
1683194626.39993572,110228391,1000,1000,1000,1000,0,0,0,0,0,0,0,0,0,0
1683194626.49989581,110328351,1000,1000,1000,1000,0,0,0,0,0,0,0,0,0,0
1683194626.59985590,110428311,1000,1000,1000,1000,0,0,0,0,0,0,0,0,0,0
1683194626.69981575,110528271,1000,1000,1000,1000,0,0,0,0,0,0,0,0,0,0
1683194626.79977584,110628231,1000,1000,1000,1000,0,0,0,0,0,0,0,0,0,0
1683194626.89973569,110728191,1000,1000,1000,1000,0,0,0,0,0,0,0,0,0,0
1683194627.00052881,110828984,1000,1000,1000,1000,0,0,0,0,0,0,0,0,0,0
1683194627.10048890,110928944,1000,1000,1000,1000,0,0,0,0,0,0,0,0,0,0
1683194627.20044875,111028904,1000,1000,1000,1000,0,0,0,0,0,0,0,0,0,0
1683194627.30040884,111128864,1000,1000,1000,1000,0,0,0,0,0,0,0,0,0,0
1683194627.40036869,111228824,1000,1000,1000,1000,0,0,0,0,0,0,0,0,0,0
1683194627.50032878,111328784,1000,1000,1000,1000,0,0,0,0,0,0,0,0,0,0
1683194627.60028887,111428744,1000,1000,1000,1000,0,0,0,0,0,0,0,0,0,0
1683194627.70024872,111528704,1000,1000,1000,1000,0,0,0,0,0,0,0,0,0,0
1683194627.80020881,111628664,1000,1000,1000,1000,0,0,0,0,0,0,0,0,0,0
1683194627.90016890,111728624,1000,1000,1000,1000,0,0,0,0,0,0,0,0,0,0
1683194628.00012875,111828584,1000,1000,1000,1000,0,0,0,0,0,0,0,0,0,0
1683194628.10008883,111928544,1000,1000,1000,1000,0,0,0,0,0,0,0,0,0,0
1683194628.20004869,112028504,1000,1000,1000,1000,0,0,0,0,0,0,0,0,0,0
1683194628.30000877,112128464,1000,1000,1000,1000,0,0,0,0,0,0,0,0,0,0
1683194628.39996886,112228424,1000,1000,1000,1000,0,0,0,0,0,0,0,0,0,0
1683194628.49992871,112328384,1000,1000,1000,1000,0,0,0,0,0,0,0,0,0,0
1683194628.59988880,112428344,1000,1000,1000,1000,0,0,0,0,0,0,0,0,0,0
1683194628.69984889,112528304,1000,1000,1000,1000,0,0,0,0,0,0,0,0,0,0
1683194628.79980874,112628264,1000,1000,1000,1000,0,0,0,0,0,0,0,0,0,0
1683194628.89976883,112728224,1000,1000,1000,1000,0,0,0,0,0,0,0,0,0,0
1683194628.99972868,112828184,1000,1000,1000,1000,0,0,0,0,0,0,0,0,0,0
1683194629.10052180,112928977,1000,1000,1000,1000,0,0,0,0,0,0,0,0,0,0
1683194629.20048189,113028937,1000,1000,1000,1000,0,0,0,0,0,0,0,0,0,0
