TimeUS,M1,M2,M3,M4,TimeUS,C1,C2,C3,C4
81438245,1000,1000,1000,1000,81528209,1000,1000,1000,1000
81440744,1000,1000,1000,1000,81628169,1000,1000,1000,1000
81443243,1000,1000,1000,1000,81728962,1000,1000,1000,1000
81445742,1000,1000,1000,1000,81828922,1000,1000,1000,1000
81448241,1000,1000,1000,1000,81928882,1000,1000,1000,1000
81450740,1000,1000,1000,1000,82028842,1000,1000,1000,1000
81453239,1000,1000,1000,1000,82128802,1000,1000,1000,1000
81455738,1000,1000,1000,1000,82228762,1000,1000,1000,1000
81458237,1000,1000,1000,1000,82328722,1000,1000,1000,1000
81460736,1000,1000,1000,1000,82428682,1000,1000,1000,1000
81463235,1000,1000,1000,1000,82528642,1000,1000,1000,1000
81465734,1000,1000,1000,1000,82628602,1000,1000,1000,1000
81468233,1000,1000,1000,1000,82728562,1000,1000,1000,1000
81470732,1000,1000,1000,1000,82828522,1000,1000,1000,1000
81473231,1000,1000,1000,1000,82928482,1000,1000,1000,1000
81475730,1000,1000,1000,1000,83028442,1000,1000,1000,1000
81478229,1000,1000,1000,1000,83128402,1000,1000,1000,1000
81480728,1000,1000,1000,1000,83228362,1000,1000,1000,1000
81483227,1000,1000,1000,1000,83328322,1000,1000,1000,1000
81485726,1000,1000,1000,1000,83428282,1000,1000,1000,1000
81488225,1000,1000,1000,1000,83528242,1027,1027,1027,1027
81490724,1000,1000,1000,1000,83628202,1057,1057,1057,1057
81493223,1000,1000,1000,1000,83728162,1087,1087,1087,1087
81495722,1000,1000,1000,1000,83828955,1116,1116,1116,1116
81498221,1000,1000,1000,1000,83928915,1146,1146,1146,1146
81500720,1000,1000,1000,1000,84028875,1380,1371,1372,1381
81503219,1000,1000,1000,1000,84128835,1565,1556,1557,1565
81505718,1000,1000,1000,1000,84228795,1714,1707,1707,1714
81508217,1000,1000,1000,1000,84328755,1843,1836,1836,1844
81510716,1000,1000,1000,1000,84428715,1892,1885,1885,1893
81513215,1000,1000,1000,1000,84528675,1824,1822,1823,1824
81515714,1000,1000,1000,1000,84628635,1696,1696,1697,1696
81518213,1000,1000,1000,1000,84728595,1629,1632,1632,1630
81520712,1000,1000,1000,1000,84828555,1621,1625,1624,1621
81523211,1000,1000,1000,1000,84928515,1629,1632,1632,1629
81525710,1000,1000,1000,1000,85028475,1635,1636,1636,1635
81528209,1000,1000,1000,1000,85128435,1631,1630,1630,1630
81530708,1000,1000,1000,1000,85228395,1623,1622,1622,1623
81533207,1000,1000,1000,1000,85328355,1617,1616,1615,1617
81535706,1000,1000,1000,1000,85428315,1615,1613,1613,1614
81538205,1000,1000,1000,1000,85528275,1614,1612,1613,1613
81540704,1000,1000,1000,1000,85628235,1615,1615,1615,1615
81543203,1000,1000,1000,1000,85728195,1616,1617,1617,1617
81545702,1000,1000,1000,1000,85828155,1594,1595,1594,1594
81548201,1000,1000,1000,1000,85928948,1575,1575,1574,1577
81550700,1000,1000,1000,1000,86028908,1564,1564,1561,1566
81553199,1000,1000,1000,1000,86128868,1553,1553,1550,1556
81555698,1000,1000,1000,1000,86228828,1544,1543,1542,1544
81558197,1000,1000,1000,1000,86328788,1535,1535,1536,1535
81560696,1000,1000,1000,1000,86428748,1528,1528,1530,1527
81563195,1000,1000,1000,1000,86528708,1521,1520,1521,1520
81565694,1000,1000,1000,1000,86628668,1517,1517,1518,1517
81568193,1000,1000,1000,1000,86728628,1517,1517,1517,1517
81570692,1000,1000,1000,1000,86828588,1518,1518,1518,1519
81573191,1000,1000,1000,1000,86928548,1520,1520,1520,1521
81575690,1000,1000,1000,1000,87028508,1521,1521,1521,1521
81578189,1000,1000,1000,1000,87128468,1530,1530,1533,1527
81580688,1000,1000,1000,1000,87228428,1538,1538,1543,1532
81583187,1000,1000,1000,1000,87328388,1543,1544,1545,1542
81585686,1000,1000,1000,1000,87428348,1548,1548,1545,1550
81588185,1000,1000,1000,1000,87528308,1551,1550,1546,1555
81590684,1000,1000,1000,1000,87628268,1551,1552,1547,1556
81593183,1000,1000,1000,1000,87728228,1554,1554,1551,1557
81595682,1000,1000,1000,1000,87828188,1558,1558,1557,1559
81598181,1000,1000,1000,1000,87928981,1561,1561,1563,1559
81600680,1000,1000,1000,1000,88028941,1563,1563,1566,1560
81603179,1000,1000,1000,1000,88128901,1566,1566,1568,1563
81605678,1000,1000,1000,1000,88228861,1566,1567,1568,1565
81608177,1000,1000,1000,1000,88328821,1566,1567,1566,1567
81610676,1000,1000,1000,1000,88428781,1567,1567,1566,1568
81613175,1000,1000,1000,1000,88528741,1564,1563,1569,1572
81615674,1000,1000,1000,1000,88628701,1563,1562,1568,1572
81618173,1000,1000,1000,1000,88728661,1564,1564,1568,1571
81620672,1000,1000,1000,1000,88828621,1564,1565,1568,1569
81623171,1000,1000,1000,1000,88928581,1566,1567,1569,1568
81625670,1000,1000,1000,1000,89028541,1568,1568,1568,1566
81628169,1000,1000,1000,1000,89128501,1571,1570,1568,1567
81630668,1000,1000,1000,1000,89228461,1571,1571,1567,1566
81633167,1000,1000,1000,1000,89328421,1572,1572,1567,1567
81635666,1000,1000,1000,1000,89428381,1572,1572,1568,1568
81638165,1000,1000,1000,1000,89528341,1572,1572,1568,1568
81640664,1000,1000,1000,1000,89628301,1573,1573,1569,1570
81643163,1000,1000,1000,1000,89728261,1572,1572,1570,1571
81645662,1000,1000,1000,1000,89828221,1572,1572,1571,1571
81648161,1000,1000,1000,1000,89928181,1573,1572,1573,1572
81650660,1000,1000,1000,1000,90028974,1574,1573,1575,1573
81653159,1000,1000,1000,1000,90128934,1574,1574,1576,1575
81655658,1000,1000,1000,1000,90228894,1575,1575,1577,1576
81658157,1000,1000,1000,1000,90328854,1575,1576,1577,1577
81660656,1000,1000,1000,1000,90428814,1576,1576,1577,1578
81663155,1000,1000,1000,1000,90528774,1576,1575,1577,1577
81665654,1000,1000,1000,1000,90628734,1575,1575,1576,1576
81668986,1000,1000,1000,1000,90728694,1577,1577,1577,1578
81671485,1000,1000,1000,1000,90828654,1577,1578,1578,1578
81673984,1000,1000,1000,1000,90928614,1577,1578,1578,1577
81676483,1000,1000,1000,1000,91028574,1578,1578,1578,1577
81678982,1000,1000,1000,1000,91128534,1578,1577,1577,1577
81681481,1000,1000,1000,1000,91228494,1578,1578,1577,1577
81683980,1000,1000,1000,1000,91328454,1578,1578,1577,1578
81686479,1000,1000,1000,1000,91428414,1578,1578,1578,1577
81688978,1000,1000,1000,1000,91528374,1579,1578,1578,1578
81691477,1000,1000,1000,1000,91628334,1578,1578,1577,1578
81693976,1000,1000,1000,1000,91728294,1578,1578,1578,1578
81696475,1000,1000,1000,1000,91828254,1578,1578,1578,1578
81698974,1000,1000,1000,1000,91928214,1579,1579,1579,1579
81701473,1000,1000,1000,1000,92028174,1580,1580,1581,1580
81703972,1000,1000,1000,1000,92128967,1580,1580,1581,1580
81706471,1000,1000,1000,1000,92228927,1579,1579,1580,1580
81708970,1000,1000,1000,1000,92328887,1579,1580,1580,1580
81711469,1000,1000,1000,1000,92428847,1580,1580,1580,1580
81713968,1000,1000,1000,1000,92528807,1579,1579,1579,1580
81716467,1000,1000,1000,1000,92628767,1580,1580,1581,1581
81718966,1000,1000,1000,1000,92728727,1579,1579,1579,1579
81721465,1000,1000,1000,1000,92828687,1580,1580,1580,1580
81723964,1000,1000,1000,1000,92928647,1579,1579,1579,1579
81726463,1000,1000,1000,1000,93028607,1580,1580,1580,1580
81728962,1000,1000,1000,1000,93128567,1580,1580,1580,1581
81731461,1000,1000,1000,1000,93228527,1579,1579,1579,1579
81733960,1000,1000,1000,1000,93328487,1580,1580,1580,1580
81736459,1000,1000,1000,1000,93428447,1580,1580,1580,1580
81738958,1000,1000,1000,1000,93528407,1580,1580,1580,1580
81741457,1000,1000,1000,1000,93628367,1580,1580,1580,1580
81743956,1000,1000,1000,1000,93728327,1580,1579,1580,1580
81746455,1000,1000,1000,1000,93828287,1579,1579,1579,1579
81748954,1000,1000,1000,1000,93928247,1579,1580,1580,1580
81751453,1000,1000,1000,1000,94028207,1580,1580,1580,1580
81753952,1000,1000,1000,1000,94128167,1580,1580,1580,1580
81756451,1000,1000,1000,1000,94228960,1580,1580,1580,1580
81758950,1000,1000,1000,1000,94328920,1581,1581,1581,1581
81761449,1000,1000,1000,1000,94428880,1580,1580,1580,1580
81763948,1000,1000,1000,1000,94528840,1580,1580,1581,1580
81766447,1000,1000,1000,1000,94628800,1580,1580,1580,1580
81768946,1000,1000,1000,1000,94728760,1581,1581,1584,1578
81771445,1000,1000,1000,1000,94828720,1580,1583,1588,1573
81773944,1000,1000,1000,1000,94928680,1579,1582,1581,1574
81776443,1000,1000,1000,1000,95028640,1578,1581,1572,1573
81778942,1000,1000,1000,1000,95128600,1577,1579,1564,1570
81781441,1000,1000,1000,1000,95228560,1577,1578,1558,1565
81783940,1000,1000,1000,1000,95328520,1579,1578,1556,1561
81786439,1000,1000,1000,1000,95428480,1579,1578,1555,1556
81788938,1000,1000,1000,1000,95528440,1580,1578,1555,1555
81791437,1000,1000,1000,1000,95628400,1579,1578,1555,1553
81793936,1000,1000,1000,1000,95728360,1578,1578,1555,1553
81796435,1000,1000,1000,1000,95828320,1576,1577,1555,1553
81798934,1000,1000,1000,1000,95928280,1576,1577,1555,1554
81801433,1000,1000,1000,1000,96028240,1574,1576,1553,1553
81803932,1000,1000,1000,1000,96128200,1574,1576,1551,1553
81806431,1000,1000,1000,1000,96228160,1576,1577,1550,1551
81808930,1000,1000,1000,1000,96328953,1577,1578,1549,1548
81811429,1000,1000,1000,1000,96428913,1579,1580,1546,1546
81813928,1000,1000,1000,1000,96528873,1582,1583,1544,1543
81816427,1000,1000,1000,1000,96628833,1585,1586,1541,1541
81818926,1000,1000,1000,1000,96728793,1589,1589,1539,1539
81821425,1000,1000,1000,1000,96828753,1592,1592,1536,1536
81823924,1000,1000,1000,1000,96928713,1594,1593,1535,1536
81826423,1000,1000,1000,1000,97028673,1595,1594,1535,1536
81828922,1000,1000,1000,1000,97128633,1594,1594,1535,1537
81831421,1000,1000,1000,1000,97228593,1592,1592,1537,1539
81833920,1000,1000,1000,1000,97328553,1590,1589,1541,1545
81836419,1000,1000,1000,1000,97428513,1586,1583,1549,1552
81838918,1000,1000,1000,1000,97528473,1578,1575,1559,1561
81841417,1000,1000,1000,1000,97628433,1569,1566,1571,1573
81843916,1000,1000,1000,1000,97728393,1558,1553,1583,1584
81846415,1000,1000,1000,1000,97828353,1547,1544,1595,1595
81848914,1000,1000,1000,1000,97928313,1537,1536,1604,1604
81851413,1000,1000,1000,1000,98028273,1531,1532,1612,1611
81853912,1000,1000,1000,1000,98128233,1529,1530,1615,1614
81856411,1000,1000,1000,1000,98228193,1530,1532,1614,1613
81858910,1000,1000,1000,1000,98328986,1535,1537,1611,1611
81861409,1000,1000,1000,1000,98428946,1543,1545,1606,1606
81863908,1000,1000,1000,1000,98528906,1551,1552,1598,1599
81866407,1000,1000,1000,1000,98628866,1560,1560,1591,1591
81868906,1000,1000,1000,1000,98728826,1569,1568,1584,1584
81871405,1000,1000,1000,1000,98828786,1576,1575,1578,1577
81873904,1000,1000,1000,1000,98928746,1581,1580,1572,1571
81876403,1000,1000,1000,1000,99028706,1585,1584,1568,1568
81878902,1000,1000,1000,1000,99128666,1587,1585,1566,1566
81881401,1000,1000,1000,1000,99228626,1588,1586,1566,1567
81883900,1000,1000,1000,1000,99328586,1587,1586,1568,1568
81886399,1000,1000,1000,1000,99428546,1585,1585,1571,1571
81888898,1000,1000,1000,1000,99528506,1582,1582,1573,1573
81891397,1000,1000,1000,1000,99628466,1579,1580,1576,1576
81893896,1000,1000,1000,1000,99728426,1575,1576,1578,1578
81896395,1000,1000,1000,1000,99828386,1574,1574,1581,1581
81898894,1000,1000,1000,1000,99928346,1572,1573,1582,1582
81901393,1000,1000,1000,1000,100028306,1572,1572,1583,1583
81903892,1000,1000,1000,1000,100128266,1572,1573,1583,1583
81906391,1000,1000,1000,1000,100228226,1572,1573,1583,1583
81908890,1000,1000,1000,1000,100328186,1574,1574,1583,1582
81911389,1000,1000,1000,1000,100428979,1575,1575,1581,1581
81913888,1000,1000,1000,1000,100528939,1578,1578,1581,1581
81916387,1000,1000,1000,1000,100628899,1578,1579,1579,1579
81918886,1000,1000,1000,1000,100728859,1580,1580,1579,1579
81921385,1000,1000,1000,1000,100828819,1582,1581,1578,1578
81923884,1000,1000,1000,1000,100928779,1582,1582,1579,1578
81926383,1000,1000,1000,1000,101028739,1582,1582,1578,1578
81928882,1000,1000,1000,1000,101128699,1582,1582,1578,1578
81931381,1000,1000,1000,1000,101228659,1582,1582,1578,1578
81933880,1000,1000,1000,1000,101328619,1581,1582,1579,1579
81936379,1000,1000,1000,1000,101428579,1656,1656,1563,1561
81938878,1000,1000,1000,1000,101528539,1628,1626,1557,1555
81941377,1000,1000,1000,1000,101628499,1605,1603,1563,1563
81943876,1000,1000,1000,1000,101728459,1583,1582,1571,1574
81946375,1000,1000,1000,1000,101828419,1565,1565,1581,1583
81948874,1000,1000,1000,1000,101928379,1553,1554,1589,1590
81951373,1000,1000,1000,1000,102028339,1548,1550,1594,1594
81953872,1000,1000,1000,1000,102128299,1548,1551,1595,1594
81956371,1000,1000,1000,1000,102228259,1552,1555,1595,1594
81958870,1000,1000,1000,1000,102328219,1557,1560,1594,1593
81961369,1000,1000,1000,1000,102428179,1562,1563,1590,1590
81963868,1000,1000,1000,1000,102528972,1567,1568,1586,1587
81966367,1000,1000,1000,1000,102628932,1572,1572,1584,1584
81968866,1000,1000,1000,1000,102728892,1576,1576,1584,1577
81971365,1000,1000,1000,1000,102828852,1580,1584,1586,1571
81973864,1000,1000,1000,1000,102928812,1582,1587,1577,1570
81976363,1000,1000,1000,1000,103028772,1584,1587,1567,1568
81978862,1000,1000,1000,1000,103128732,1585,1585,1557,1563
81981361,1000,1000,1000,1000,103228692,1587,1587,1551,1558
81983860,1000,1000,1000,1000,103328652,1589,1586,1547,1553
81986359,1000,1000,1000,1000,103428612,1590,1587,1548,1550
81988858,1000,1000,1000,1000,103528572,1589,1586,1549,1548
81991357,1000,1000,1000,1000,103628532,1587,1586,1552,1549
81993856,1000,1000,1000,1000,103728492,1582,1583,1553,1550
81996355,1000,1000,1000,1000,103828452,1580,1582,1555,1553
81998854,1000,1000,1000,1000,103928412,1577,1579,1555,1555
82001353,1000,1000,1000,1000,104028372,1575,1578,1555,1556
82003852,1000,1000,1000,1000,104128332,1575,1577,1555,1556
82006351,1000,1000,1000,1000,104228292,1576,1577,1554,1554
82008850,1000,1000,1000,1000,104328252,1579,1579,1553,1553
82011349,1000,1000,1000,1000,104428212,1580,1581,1550,1550
82013848,1000,1000,1000,1000,104528172,1583,1583,1548,1547
82016347,1000,1000,1000,1000,104628965,1586,1587,1546,1546
82018846,1000,1000,1000,1000,104728925,1588,1590,1543,1543
82021345,1000,1000,1000,1000,104828885,1591,1593,1541,1541
82023844,1000,1000,1000,1000,104928845,1594,1594,1539,1540
82026343,1000,1000,1000,1000,105028805,1596,1595,1540,1542
82028842,1000,1000,1000,1000,105128765,1594,1591,1543,1545
82031341,1000,1000,1000,1000,105228725,1591,1587,1550,1552
82033840,1000,1000,1000,1000,105328685,1584,1580,1558,1560
82036339,1000,1000,1000,1000,105428645,1574,1570,1568,1570
82038838,1000,1000,1000,1000,105528605,1565,1561,1580,1581
82041337,1000,1000,1000,1000,105628565,1554,1551,1590,1590
82043836,1000,1000,1000,1000,105728525,1545,1544,1598,1598
82046335,1000,1000,1000,1000,105828485,1542,1543,1605,1604
82048834,1000,1000,1000,1000,105928445,1541,1542,1607,1606
82051333,1000,1000,1000,1000,106028405,1543,1545,1608,1607
82053832,1000,1000,1000,1000,106128365,1546,1547,1606,1605
82056331,1000,1000,1000,1000,106228325,1550,1551,1603,1602
82058830,1000,1000,1000,1000,106328285,1555,1555,1600,1599
82061329,1000,1000,1000,1000,106428245,1559,1560,1596,1595
82063828,1000,1000,1000,1000,106528205,1564,1564,1591,1590
82066327,1000,1000,1000,1000,106628165,1570,1569,1587,1587
82068826,1000,1000,1000,1000,106728958,1573,1573,1582,1582
82071325,1000,1000,1000,1000,106828918,1577,1577,1578,1578
82073824,1000,1000,1000,1000,106928878,1580,1579,1573,1574
82076323,1000,1000,1000,1000,107028838,1583,1582,1571,1571
82078822,1000,1000,1000,1000,107128798,1584,1583,1570,1570
82081321,1000,1000,1000,1000,107228758,1584,1583,1570,1570
82083820,1000,1000,1000,1000,107328718,1583,1582,1570,1570
82086319,1000,1000,1000,1000,107428678,1581,1581,1572,1572
82088818,1000,1000,1000,1000,107528638,1580,1580,1575,1574
82091317,1000,1000,1000,1000,107628598,1577,1577,1577,1577
82093816,1000,1000,1000,1000,107728558,1576,1576,1579,1579
82096315,1000,1000,1000,1000,107828518,1574,1575,1580,1581
82098814,1000,1000,1000,1000,107928478,1575,1575,1583,1583
82101313,1000,1000,1000,1000,108028438,1574,1575,1583,1583
82103812,1000,1000,1000,1000,108128398,1574,1574,1582,1583
82106311,1000,1000,1000,1000,108228358,1575,1575,1582,1582
82108810,1000,1000,1000,1000,108328318,1576,1577,1582,1583
82111309,1000,1000,1000,1000,108428278,1577,1578,1582,1581
82113808,1000,1000,1000,1000,108528238,1578,1578,1580,1580
82116307,1000,1000,1000,1000,108628198,1580,1580,1580,1580
82118806,1000,1000,1000,1000,108728158,1581,1581,1579,1580
82121305,1000,1000,1000,1000,108828951,1581,1581,1579,1579
82123804,1000,1000,1000,1000,108928911,1581,1581,1579,1579
82126303,1000,1000,1000,1000,109028871,1582,1582,1579,1579
82128802,1000,1000,1000,1000,109128831,1581,1581,1579,1578
82131301,1000,1000,1000,1000,109228791,1580,1581,1579,1579
82133800,1000,1000,1000,1000,109328751,1580,1580,1579,1580
82136299,1000,1000,1000,1000,109428711,1581,1580,1580,1580
82138798,1000,1000,1000,1000,109528671,1580,1580,1580,1580
82141297,1000,1000,1000,1000,109628631,1580,1580,1581,1580
82143796,1000,1000,1000,1000,109728591,1579,1580,1581,1581
82146295,1000,1000,1000,1000,109828551,1579,1579,1580,1581
82148794,1000,1000,1000,1000,109928511,1579,1580,1581,1581
82151293,1000,1000,1000,1000,110028471,1580,1580,1581,1581
82153792,1000,1000,1000,1000,110128431,1580,1580,1581,1581
82156291,1000,1000,1000,1000,110228391,1580,1580,1581,1581
82158790,1000,1000,1000,1000,110328351,1581,1581,1581,1581
82161289,1000,1000,1000,1000,110428311,1581,1581,1581,1581
82163788,1000,1000,1000,1000,110528271,1581,1581,1581,1581
82166287,1000,1000,1000,1000,110628231,1582,1583,1582,1582
82168786,1000,1000,1000,1000,110728191,1582,1582,1581,1581
82171285,1000,1000,1000,1000,110828984,1581,1582,1585,1577
82173784,1000,1000,1000,1000,110928944,1580,1583,1587,1572
82176283,1000,1000,1000,1000,111028904,1579,1583,1580,1572
82178782,1000,1000,1000,1000,111128864,1579,1582,1571,1572
82181281,1000,1000,1000,1000,111228824,1578,1580,1563,1569
82183780,1000,1000,1000,1000,111328784,1578,1579,1557,1564
82186279,1000,1000,1000,1000,111428744,1579,1578,1554,1559
82188778,1000,1000,1000,1000,111528704,1581,1579,1554,1556
82191277,1000,1000,1000,1000,111628664,1581,1579,1555,1553
82193776,1000,1000,1000,1000,111728624,1579,1579,1555,1552
82196275,1000,1000,1000,1000,111828584,1578,1578,1555,1552
82198774,1000,1000,1000,1000,111928544,1577,1578,1555,1553
82201273,1000,1000,1000,1000,112028504,1576,1578,1555,1554
82203772,1000,1000,1000,1000,112128464,1575,1576,1553,1553
82206271,1000,1000,1000,1000,112228424,1575,1577,1552,1553
82208770,1000,1000,1000,1000,112328384,1577,1578,1551,1552
82211269,1000,1000,1000,1000,112428344,1579,1581,1551,1551
82213768,1000,1000,1000,1000,112528304,1581,1581,1547,1547
82216267,1000,1000,1000,1000,112628264,1584,1584,1545,1545
82218766,1000,1000,1000,1000,112728224,1587,1587,1544,1543
82221265,1000,1000,1000,1000,112828184,1589,1590,1541,1541
82223764,1000,1000,1000,1000,112928977,1591,1592,1539,1540
82226263,1000,1000,1000,1000,113028937,1592,1594,1537,1538
82228762,1000,1000,1000,1000,113128897,1594,1595,1536,1538
82231261,1000,1000,1000,1000,113228857,1594,1594,1538,1539
82233760,1000,1000,1000,1000,113328817,1594,1592,1542,1544
82236259,1000,1000,1000,1000,113428777,1589,1586,1547,1550
82238758,1000,1000,1000,1000,113528737,1583,1579,1556,1559
82241257,1000,1000,1000,1000,113628697,1574,1569,1567,1569
82243756,1000,1000,1000,1000,113728657,1563,1559,1579,1581
82246255,1000,1000,1000,1000,113828617,1551,1549,1590,1591
82248754,1000,1000,1000,1000,113928577,1542,1541,1601,1601
82251253,1000,1000,1000,1000,114028537,1535,1536,1608,1608
82253752,1000,1000,1000,1000,114128497,1534,1535,1613,1612
82256251,1000,1000,1000,1000,114228457,1536,1538,1613,1612
82258750,1000,1000,1000,1000,114328417,1540,1542,1610,1610
82261249,1000,1000,1000,1000,114428377,1547,1548,1606,1606
82263748,1000,1000,1000,1000,114528337,1553,1553,1600,1600
82266247,1000,1000,1000,1000,114628297,1560,1561,1595,1594
82268746,1000,1000,1000,1000,114728257,1567,1566,1587,1587
82271245,1000,1000,1000,1000,114828217,1573,1573,1581,1580
82273744,1000,1000,1000,1000,114928177,1579,1578,1575,1575
82276243,1000,1000,1000,1000,115028970,1583,1582,1571,1571
82278742,1000,1000,1000,1000,115128930,1586,1584,1569,1570
82281241,1000,1000,1000,1000,115228890,1586,1584,1568,1568
82283740,1000,1000,1000,1000,115328850,1585,1584,1569,1569
82286239,1000,1000,1000,1000,115428810,1583,1582,1570,1571
82288738,1000,1000,1000,1000,115528770,1581,1581,1573,1573
82291237,1000,1000,1000,1000,115628730,1578,1578,1575,1575
82293736,1000,1000,1000,1000,115728690,1576,1576,1578,1578
82296235,1000,1000,1000,1000,115828650,1573,1574,1579,1579
82298734,1000,1000,1000,1000,115928610,1573,1573,1581,1581
82301233,1000,1000,1000,1000,116028570,1572,1573,1582,1582
82303732,1000,1000,1000,1000,116128530,1574,1574,1584,1583
82306231,1000,1000,1000,1000,116228490,1574,1574,1583,1583
82308730,1000,1000,1000,1000,116328450,1575,1576,1583,1583
82311229,1000,1000,1000,1000,116428410,1576,1577,1582,1582
82313728,1000,1000,1000,1000,116528370,1577,1578,1581,1581
82316227,1000,1000,1000,1000,116628330,1580,1579,1580,1580
82318726,1000,1000,1000,1000,116728290,1580,1579,1578,1579
82321225,1000,1000,1000,1000,116828250,1581,1580,1578,1578
82323724,1000,1000,1000,1000,116928210,1581,1581,1578,1578
82326223,1000,1000,1000,1000,117028170,1580,1580,1576,1577
82328722,1000,1000,1000,1000,117128963,1580,1580,1577,1577
82331221,1000,1000,1000,1000,117228923,1581,1580,1578,1578
82333720,1000,1000,1000,1000,117328883,1580,1580,1578,1578
82336219,1000,1000,1000,1000,117428843,1580,1579,1579,1578
82338718,1000,1000,1000,1000,117528803,1580,1580,1580,1580
82341217,1000,1000,1000,1000,117628763,1579,1580,1580,1580
82343716,1000,1000,1000,1000,117728723,1580,1580,1581,1581
82346215,1000,1000,1000,1000,117828683,1579,1579,1581,1581
82348714,1000,1000,1000,1000,117928643,1580,1580,1582,1582
82351213,1000,1000,1000,1000,118028603,1580,1580,1581,1581
82353712,1000,1000,1000,1000,118128563,1580,1581,1581,1582
82356211,1000,1000,1000,1000,118228523,1580,1579,1580,1581
82358710,1000,1000,1000,1000,118328483,1580,1580,1581,1581
82361209,1000,1000,1000,1000,118428443,1581,1581,1581,1581
82363708,1000,1000,1000,1000,118528403,1580,1580,1580,1580
82366207,1000,1000,1000,1000,118628363,1581,1582,1582,1580
82368706,1000,1000,1000,1000,118728323,1582,1583,1588,1573
82371205,1000,1000,1000,1000,118828283,1580,1581,1584,1573
82373704,1000,1000,1000,1000,118928243,1578,1578,1578,1575
82376203,1000,1000,1000,1000,119028203,1574,1574,1571,1576
82378702,1000,1000,1000,1000,119128163,1570,1570,1566,1574
82381201,1000,1000,1000,1000,119228956,1568,1568,1565,1572
82383700,1000,1000,1000,1000,119328916,1567,1567,1565,1569
82386199,1000,1000,1000,1000,119428876,1566,1566,1566,1566
82388698,1000,1000,1000,1000,119528836,1567,1566,1567,1565
82391197,1000,1000,1000,1000,119628796,1566,1565,1567,1564
82393696,1000,1000,1000,1000,119728756,1565,1566,1567,1565
82396195,1000,1000,1000,1000,119828716,1564,1565,1565,1564
82398694,1000,1000,1000,1000,119928676,1564,1564,1564,1564
82401193,1000,1000,1000,1000,120028636,1562,1562,1563,1562
82403692,1000,1000,1000,1000,120128596,1561,1561,1561,1562
82406191,1000,1000,1000,1000,120228556,1560,1561,1560,1561
82408690,1000,1000,1000,1000,120328516,1561,1561,1561,1561
82411189,1000,1000,1000,1000,120428476,1562,1562,1562,1561
82413688,1000,1000,1000,1000,120528436,1561,1561,1561,1560
82416187,1000,1000,1000,1000,120628396,1559,1559,1559,1558
82418686,1000,1000,1000,1000,120728356,1557,1558,1558,1557
82421185,1000,1000,1000,1000,120828316,1557,1556,1557,1556
82423684,1000,1000,1000,1000,120928276,1556,1556,1557,1556
82426183,1000,1000,1000,1000,121028236,1555,1556,1556,1555
82428682,1000,1000,1000,1000,121128196,1556,1557,1557,1556
82431181,1000,1000,1000,1000,121228156,1558,1557,1558,1556
82433680,1000,1000,1000,1000,121328949,1557,1557,1558,1556
82436179,1000,1000,1000,1000,121428909,1558,1558,1559,1557
82438678,1000,1000,1000,1000,121528869,1560,1559,1558,1560
82441177,1000,1000,1000,1000,121628829,1560,1560,1557,1562
82443676,1000,1000,1000,1000,121728789,1561,1561,1557,1564
82446175,1000,1000,1000,1000,121828749,1562,1562,1559,1564
82448674,1000,1000,1000,1000,121928709,1563,1563,1561,1564
82451173,1000,1000,1000,1000,122028669,1562,1563,1563,1561
82453672,1000,1000,1000,1000,122128629,1563,1563,1563,1564
82456171,1000,1000,1000,1000,122228589,1558,1559,1559,1559
82458670,1000,1000,1000,1000,122328549,1555,1555,1555,1557
82461169,1000,1000,1000,1000,122428509,1549,1548,1550,1551
82463668,1000,1000,1000,1000,122528469,1543,1542,1544,1545
82466167,1000,1000,1000,1000,122628429,1535,1535,1538,1537
82468666,1000,1000,1000,1000,122728389,1526,1526,1529,1529
82471165,1000,1000,1000,1000,122828349,1520,1521,1523,1523
82473664,1000,1000,1000,1000,122928309,1519,1520,1520,1520
82476163,1000,1000,1000,1000,123028269,1520,1520,1520,1519
82478662,1000,1000,1000,1000,123128229,1523,1522,1520,1521
82481161,1000,1000,1000,1000,123228189,1526,1526,1523,1523
82483660,1000,1000,1000,1000,123328982,1531,1530,1526,1527
82486159,1000,1000,1000,1000,123428942,1535,1535,1531,1532
82488658,1000,1000,1000,1000,123528902,1539,1539,1536,1536
82491157,1000,1000,1000,1000,123628862,1542,1542,1540,1539
82493656,1000,1000,1000,1000,123728822,1542,1543,1541,1541
82496155,1000,1000,1000,1000,123828782,1544,1544,1544,1544
82498654,1000,1000,1000,1000,123928742,1545,1545,1546,1546
82501153,1000,1000,1000,1000,124028702,1544,1544,1546,1546
82503652,1000,1000,1000,1000,124128662,1546,1545,1547,1547
82506151,1000,1000,1000,1000,124228622,1545,1545,1548,1547
82508650,1000,1000,1000,1000,124328582,1545,1545,1547,1546
82511149,1000,1000,1000,1000,124428542,1545,1546,1547,1547
82513648,1000,1000,1000,1000,124528502,1545,1545,1547,1546
82516147,1000,1000,1000,1000,124628462,1546,1546,1547,1546
82518646,1000,1000,1000,1000,124728422,1546,1545,1546,1546
82521145,1000,1000,1000,1000,124828382,1545,1545,1545,1545
82523644,1000,1000,1000,1000,124928342,1544,1544,1544,1544
82526143,1000,1000,1000,1000,125028302,1544,1545,1544,1544
82528642,1000,1000,1000,1000,125128262,1545,1545,1544,1544
82531141,1000,1000,1000,1000,125228222,1545,1545,1544,1544
82533640,1000,1000,1000,1000,125328182,1546,1545,1544,1544
82536139,1000,1000,1000,1000,125428975,1544,1545,1544,1544
82538638,1000,1000,1000,1000,125528935,1544,1544,1544,1544
82541137,1000,1000,1000,1000,125628895,1544,1544,1544,1544
82543636,1000,1000,1000,1000,125728855,1544,1544,1544,1543
82546135,1000,1000,1000,1000,125828815,1543,1543,1544,1544
82548634,1000,1000,1000,1000,125928775,1544,1544,1544,1544
82551133,1000,1000,1000,1000,126028735,1544,1544,1544,1544
82553632,1000,1000,1000,1000,126128695,1544,1544,1544,1544
82556131,1000,1000,1000,1000,126228655,1544,1544,1544,1544
82558630,1000,1000,1000,1000,126328615,1545,1544,1544,1545
82561129,1000,1000,1000,1000,126428575,1544,1544,1544,1544
82563628,1000,1000,1000,1000,126528535,1544,1544,1544,1544
82566127,1000,1000,1000,1000,126628495,1546,1545,1546,1545
82568626,1000,1000,1000,1000,126728455,1545,1545,1545,1545
82571125,1000,1000,1000,1000,126828415,1544,1545,1544,1545
82573624,1000,1000,1000,1000,126928375,1544,1544,1544,1545
82576123,1000,1000,1000,1000,127028335,1545,1545,1545,1545
82578622,1000,1000,1000,1000,127128295,1545,1545,1545,1545
82581121,1000,1000,1000,1000,127228255,1545,1545,1545,1544
82583620,1000,1000,1000,1000,127328215,1543,1543,1543,1543
82586119,1000,1000,1000,1000,127428175,1544,1544,1544,1544
82588618,1000,1000,1000,1000,127528968,1544,1543,1544,1544
82591117,1000,1000,1000,1000,127628928,1544,1544,1544,1544
82593616,1000,1000,1000,1000,127728888,1545,1544,1544,1544
82596115,1000,1000,1000,1000,127828848,1544,1545,1545,1544
82598614,1000,1000,1000,1000,127928808,1544,1544,1544,1545
82601113,1000,1000,1000,1000,128028768,1543,1544,1543,1543
82603612,1000,1000,1000,1000,128128728,1544,1544,1544,1544
82606111,1000,1000,1000,1000,128228688,1544,1544,1544,1544
82608610,1000,1000,1000,1000,128328648,1544,1543,1543,1544
82611109,1000,1000,1000,1000,128428608,1544,1544,1544,1544
82613608,1000,1000,1000,1000,128528568,1544,1543,1544,1543
82616107,1000,1000,1000,1000,128628528,1544,1544,1544,1544
82618606,1000,1000,1000,1000,128728488,1544,1544,1544,1544
82621105,1000,1000,1000,1000,128828448,1544,1544,1544,1544
82623604,1000,1000,1000,1000,128928408,1544,1543,1543,1543
82626103,1000,1000,1000,1000,129028368,1543,1544,1544,1544
82628602,1000,1000,1000,1000,129128328,1544,1544,1544,1545
82631101,1000,1000,1000,1000,129228288,1544,1544,1544,1543
82633600,1000,1000,1000,1000,129328248,1545,1544,1545,1544
82636099,1000,1000,1000,1000,129428208,1545,1545,1545,1545
82638598,1000,1000,1000,1000,129528168,1544,1544,1544,1545
82641097,1000,1000,1000,1000,129628961,1544,1545,1545,1545
82643596,1000,1000,1000,1000,129728921,1545,1545,1544,1545
82646095,1000,1000,1000,1000,129828881,1544,1544,1544,1544
82648594,1000,1000,1000,1000,129928841,1544,1544,1544,1544
82651093,1000,1000,1000,1000,130028801,1543,1543,1543,1544
82653592,1000,1000,1000,1000,130128761,1545,1544,1545,1545
82656091,1000,1000,1000,1000,130228721,1543,1545,1544,1544
82658590,1000,1000,1000,1000,130328681,1544,1544,1544,1544
82661089,1000,1000,1000,1000,130428641,1544,1544,1544,1544
82663588,1000,1000,1000,1000,130528601,1545,1544,1544,1544
82666087,1000,1000,1000,1000,130628561,1544,1544,1544,1544
82668586,1000,1000,1000,1000,130728521,1545,1545,1545,1545
82671085,1000,1000,1000,1000,130828481,1545,1546,1546,1545
82673584,1000,1000,1000,1000,130928441,1544,1545,1544,1544
82676083,1000,1000,1000,1000,131028401,1544,1544,1544,1544
82678582,1000,1000,1000,1000,131128361,1543,1543,1543,1543
82681081,1000,1000,1000,1000,131228321,1545,1545,1545,1545
82683580,1000,1000,1000,1000,131328281,1544,1544,1544,1544
82686079,1000,1000,1000,1000,131428241,1544,1544,1545,1544
82688578,1000,1000,1000,1000,131528201,1544,1544,1544,1544
82691077,1000,1000,1000,1000,131628161,1543,1544,1544,1544
82693576,1000,1000,1000,1000,131728954,1544,1544,1544,1545
82696075,1000,1000,1000,1000,131828914,1544,1544,1544,1544
82698574,1000,1000,1000,1000,131928874,1545,1544,1544,1544
82701073,1000,1000,1000,1000,132028834,1545,1545,1545,1545
82703572,1000,1000,1000,1000,132128794,1545,1544,1544,1545
82706071,1000,1000,1000,1000,132228754,1544,1545,1545,1545
82708570,1000,1000,1000,1000,132328714,1545,1545,1545,1545
82711069,1000,1000,1000,1000,132428674,1544,1545,1545,1544
82713568,1000,1000,1000,1000,132528634,1543,1543,1543,1544
82716067,1000,1000,1000,1000,132628594,1428,1428,1445,1444
82718566,1000,1000,1000,1000,132728554,1248,1247,1303,1302
82721065,1000,1000,1000,1000,132828514,1247,1247,1304,1301
82723564,1000,1000,1000,1000,132928474,1247,1247,1303,1301
82726063,1000,1000,1000,1000,133028434,1247,1247,1303,1301
82728562,1000,1000,1000,1000,133128394,1247,1247,1303,1301
82731061,1000,1000,1000,1000,133228354,1247,1248,1304,1301
82733560,1000,1000,1000,1000,133328314,1285,1247,1285,1316
82736059,1000,1000,1000,1000,133428274,1271,1247,1297,1315
82738558,1000,1000,1000,1000,133528234,1265,1247,1302,1315
82741057,1000,1000,1000,1000,133628194,1264,1247,1302,1315
82743556,1000,1000,1000,1000,133728154,1265,1247,1302,1315
82746055,1000,1000,1000,1000,133828947,1266,1247,1301,1315
82748554,1000,1000,1000,1000,133928907,1267,1247,1300,1315
82751053,1000,1000,1000,1000,134028867,1266,1247,1300,1315
82753552,1000,1000,1000,1000,134128827,1248,1247,1302,1303
82756051,1000,1000,1000,1000,134228787,1250,1247,1302,1304
82758550,1000,1000,1000,1000,134328747,1251,1247,1302,1305
82761049,1000,1000,1000,1000,134428707,1252,1247,1302,1306
82763548,1000,1000,1000,1000,134528667,1250,1247,1249,1252
82766047,1000,1000,1000,1000,134628627,1000,1000,1000,1000
82768546,1000,1000,1000,1000,134728587,1000,1000,1000,1000
82771045,1000,1000,1000,1000,134828547,1000,1000,1000,1000
82773544,1000,1000,1000,1000,134928507,1000,1000,1000,1000
82776043,1000,1000,1000,1000,135028467,1000,1000,1000,1000
82778542,1000,1000,1000,1000,135128427,1000,1000,1000,1000
82781041,1000,1000,1000,1000,135228387,1000,1000,1000,1000
82783540,1000,1000,1000,1000,135328347,1000,1000,1000,1000
82786039,1000,1000,1000,1000,135428307,1000,1000,1000,1000
82788538,1000,1000,1000,1000,135528267,1000,1000,1000,1000
82791037,1000,1000,1000,1000,135628227,1000,1000,1000,1000
82793536,1000,1000,1000,1000,135728187,1000,1000,1000,1000
82796035,1000,1000,1000,1000,135828980,1000,1000,1000,1000
82798534,1000,1000,1000,1000,135928940,1000,1000,1000,1000
82801033,1000,1000,1000,1000,136028900,1000,1000,1000,1000
82803532,1000,1000,1000,1000,136128860,1000,1000,1000,1000
82806031,1000,1000,1000,1000,136228820,1000,1000,1000,1000
82808530,1000,1000,1000,1000,136328780,1000,1000,1000,1000
82811029,1000,1000,1000,1000,136428740,1000,1000,1000,1000
82813528,1000,1000,1000,1000,136528700,1000,1000,1000,1000
82816027,1000,1000,1000,1000,136628660,1000,1000,1000,1000
82818526,1000,1000,1000,1000,136728620,1000,1000,1000,1000
82821025,1000,1000,1000,1000,136828580,1000,1000,1000,1000
82823524,1000,1000,1000,1000,136928540,1000,1000,1000,1000
82826023,1000,1000,1000,1000,137028500,1000,1000,1000,1000
82828522,1000,1000,1000,1000,137128460,1000,1000,1000,1000
82831021,1000,1000,1000,1000,137228420,1000,1000,1000,1000
82833520,1000,1000,1000,1000,137328380,1000,1000,1000,1000
82836019,1000,1000,1000,1000,137428340,1000,1000,1000,1000
82838518,1000,1000,1000,1000,137528300,1000,1000,1000,1000
82841017,1000,1000,1000,1000,137628260,1000,1000,1000,1000
82843516,1000,1000,1000,1000,137728220,1000,1000,1000,1000
82846015,1000,1000,1000,1000,137828180,1000,1000,1000,1000
82848514,1000,1000,1000,1000,137928973,1000,1000,1000,1000
82851013,1000,1000,1000,1000,138028933,1000,1000,1000,1000
82853512,1000,1000,1000,1000,138128893,1000,1000,1000,1000
82856011,1000,1000,1000,1000,138228853,1000,1000,1000,1000
82858510,1000,1000,1000,1000,138328813,1000,1000,1000,1000
82861009,1000,1000,1000,1000,138428773,1000,1000,1000,1000
82863508,1000,1000,1000,1000,138528733,1000,1000,1000,1000
82866007,1000,1000,1000,1000,138628693,1000,1000,1000,1000
82868506,1000,1000,1000,1000,138728653,1000,1000,1000,1000
82871005,1000,1000,1000,1000,138828613,1000,1000,1000,1000
82873504,1000,1000,1000,1000,138928573,1000,1000,1000,1000
82876003,1000,1000,1000,1000,139028533,1000,1000,1000,1000
82878502,1000,1000,1000,1000,139128493,1000,1000,1000,1000
82881001,1000,1000,1000,1000,139228453,1000,1000,1000,1000
82883500,1000,1000,1000,1000,139328413,1000,1000,1000,1000
82885999,1000,1000,1000,1000,139428373,1000,1000,1000,1000
82888498,1000,1000,1000,1000,139528333,1000,1000,1000,1000
82890997,1000,1000,1000,1000,139628293,1000,1000,1000,1000
82893496,1000,1000,1000,1000,139728253,1000,1000,1000,1000
82895995,1000,1000,1000,1000,139828213,1000,1000,1000,1000
82898494,1000,1000,1000,1000,139928173,1000,1000,1000,1000
82900993,1000,1000,1000,1000,140028966,1000,1000,1000,1000
82903492,1000,1000,1000,1000,140128926,1000,1000,1000,1000
82905991,1000,1000,1000,1000,140228886,1000,1000,1000,1000
82908490,1000,1000,1000,1000,140328846,1000,1000,1000,1000
82910989,1000,1000,1000,1000,140428806,1000,1000,1000,1000
82913488,1000,1000,1000,1000,140528766,1000,1000,1000,1000
82915987,1000,1000,1000,1000,140628726,1000,1000,1000,1000
82918486,1000,1000,1000,1000,140728686,1000,1000,1000,1000
82920985,1000,1000,1000,1000,140828646,1000,1000,1000,1000
82923484,1000,1000,1000,1000,140928606,1000,1000,1000,1000
82925983,1000,1000,1000,1000,141028566,1000,1000,1000,1000
82928482,1000,1000,1000,1000,141128526,1000,1000,1000,1000
82930981,1000,1000,1000,1000,141228486,1000,1000,1000,1000
82933480,1000,1000,1000,1000,141328446,1000,1000,1000,1000
82935979,1000,1000,1000,1000,141428406,1000,1000,1000,1000
82938478,1000,1000,1000,1000,141528366,1000,1000,1000,1000
82940977,1000,1000,1000,1000,141628326,1000,1000,1000,1000
82943476,1000,1000,1000,1000,141728286,1000,1000,1000,1000
82945975,1000,1000,1000,1000,141828246,1000,1000,1000,1000
82948474,1000,1000,1000,1000,141928206,1000,1000,1000,1000
82950973,1000,1000,1000,1000,142028166,1000,1000,1000,1000
82953472,1000,1000,1000,1000,142128959,1000,1000,1000,1000
82955971,1000,1000,1000,1000,142228919,1000,1000,1000,1000
82958470,1000,1000,1000,1000,142328879,1000,1000,1000,1000
82960969,1000,1000,1000,1000,142428839,1000,1000,1000,1000
82963468,1000,1000,1000,1000,142528799,1000,1000,1000,1000
82965967,1000,1000,1000,1000,142628759,1000,1000,1000,1000
82968466,1000,1000,1000,1000,142728719,1000,1000,1000,1000
82970965,1000,1000,1000,1000,142828679,1000,1000,1000,1000
82973464,1000,1000,1000,1000,142928639,1000,1000,1000,1000
82975963,1000,1000,1000,1000,143028599,1000,1000,1000,1000
82978462,1000,1000,1000,1000,143128559,1000,1000,1000,1000
82980961,1000,1000,1000,1000,143228519,1000,1000,1000,1000
82983460,1000,1000,1000,1000,143328479,1000,1000,1000,1000
82985959,1000,1000,1000,1000,143428439,1000,1000,1000,1000
82988458,1000,1000,1000,1000,143528399,1000,1000,1000,1000
82990957,1000,1000,1000,1000,143628359,1000,1000,1000,1000
82993456,1000,1000,1000,1000,143728319,1000,1000,1000,1000
82995955,1000,1000,1000,1000,143828279,1000,1000,1000,1000
82998454,1000,1000,1000,1000,143928239,1000,1000,1000,1000
83000953,1000,1000,1000,1000,144028199,1000,1000,1000,1000
83003452,1000,1000,1000,1000,144128159,1000,1000,1000,1000
83005951,1000,1000,1000,1000,144228952,1000,1000,1000,1000
83008450,1000,1000,1000,1000,144328912,1000,1000,1000,1000
83010949,1000,1000,1000,1000,144428872,1000,1000,1000,1000
83013448,1000,1000,1000,1000,144528832,1000,1000,1000,1000
83015947,1000,1000,1000,1000,144628792,1000,1000,1000,1000
83018446,1000,1000,1000,1000,144728752,1000,1000,1000,1000
83020945,1000,1000,1000,1000,144828712,1000,1000,1000,1000
83023444,1000,1000,1000,1000,144928672,1000,1000,1000,1000
83025943,1000,1000,1000,1000,145028632,1000,1000,1000,1000
83028442,1000,1000,1000,1000,145128592,1000,1000,1000,1000
83030941,1000,1000,1000,1000,145228552,1000,1000,1000,1000
83033440,1000,1000,1000,1000,145328512,1000,1000,1000,1000
83035939,1000,1000,1000,1000,145428472,1000,1000,1000,1000
83038438,1000,1000,1000,1000,145528432,1000,1000,1000,1000
83040937,1000,1000,1000,1000,145628392,1000,1000,1000,1000
83043436,1000,1000,1000,1000,145728352,1000,1000,1000,1000
83045935,1000,1000,1000,1000,145828312,1000,1000,1000,1000
83048434,1000,1000,1000,1000,145928272,1000,1000,1000,1000
83050933,1000,1000,1000,1000,146028232,1000,1000,1000,1000
83053432,1000,1000,1000,1000,146128192,1000,1000,1000,1000
83055931,1000,1000,1000,1000,146228985,1000,1000,1000,1000
83058430,1000,1000,1000,1000,146328945,1000,1000,1000,1000
83060929,1000,1000,1000,1000,146428905,1000,1000,1000,1000
83063428,1000,1000,1000,1000,146528865,1000,1000,1000,1000
83065927,1000,1000,1000,1000,146628825,1000,1000,1000,1000
83068426,1000,1000,1000,1000,146728785,1000,1000,1000,1000
83070925,1000,1000,1000,1000,146828745,1000,1000,1000,1000
83073424,1000,1000,1000,1000,146928705,1000,1000,1000,1000
83075923,1000,1000,1000,1000,147028665,1000,1000,1000,1000
83078422,1000,1000,1000,1000,147128625,1000,1000,1000,1000
83080921,1000,1000,1000,1000,147228585,1000,1000,1000,1000
83083420,1000,1000,1000,1000,147328545,1000,1000,1000,1000
83085919,1000,1000,1000,1000,147428505,1000,1000,1000,1000
83088418,1000,1000,1000,1000,147528465,1000,1000,1000,1000
83090917,1000,1000,1000,1000,147628425,1000,1000,1000,1000
83093416,1000,1000,1000,1000,147728385,1000,1000,1000,1000
83095915,1000,1000,1000,1000,147828345,1000,1000,1000,1000
83098414,1000,1000,1000,1000,147928305,1000,1000,1000,1000
83100913,1000,1000,1000,1000,148028265,1000,1000,1000,1000
83103412,1000,1000,1000,1000,148128225,1000,1000,1000,1000
83105911,1000,1000,1000,1000,148228185,1000,1000,1000,1000
83108410,1000,1000,1000,1000,148328978,1000,1000,1000,1000
83110909,1000,1000,1000,1000,148428938,1000,1000,1000,1000
83113408,1000,1000,1000,1000,148528898,1000,1000,1000,1000
83115907,1000,1000,1000,1000,148628858,1000,1000,1000,1000
83118406,1000,1000,1000,1000,148728818,1000,1000,1000,1000
83120905,1000,1000,1000,1000,148828778,1000,1000,1000,1000
83123404,1000,1000,1000,1000,148928738,1000,1000,1000,1000
83125903,1000,1000,1000,1000,149028698,1000,1000,1000,1000
83128402,1000,1000,1000,1000,149128658,1000,1000,1000,1000
83130901,1000,1000,1000,1000,149228618,1000,1000,1000,1000
83133400,1000,1000,1000,1000,149328578,1000,1000,1000,1000
83135899,1000,1000,1000,1000,149428538,1000,1000,1000,1000
83138398,1000,1000,1000,1000,149528498,1000,1000,1000,1000
83140897,1000,1000,1000,1000,,,,,
83143396,1000,1000,1000,1000,,,,,
83145895,1000,1000,1000,1000,,,,,
83148394,1000,1000,1000,1000,,,,,
83150893,1000,1000,1000,1000,,,,,
83153392,1000,1000,1000,1000,,,,,
83155891,1000,1000,1000,1000,,,,,
83158390,1000,1000,1000,1000,,,,,
83160889,1000,1000,1000,1000,,,,,
83163388,1000,1000,1000,1000,,,,,
83165887,1000,1000,1000,1000,,,,,
83168386,1000,1000,1000,1000,,,,,
83170885,1000,1000,1000,1000,,,,,
83173384,1000,1000,1000,1000,,,,,
83175883,1000,1000,1000,1000,,,,,
83178382,1000,1000,1000,1000,,,,,
83180881,1000,1000,1000,1000,,,,,
83183380,1000,1000,1000,1000,,,,,
83185879,1000,1000,1000,1000,,,,,
83188378,1000,1000,1000,1000,,,,,
83190877,1000,1000,1000,1000,,,,,
83193376,1000,1000,1000,1000,,,,,
83195875,1000,1000,1000,1000,,,,,
83198374,1000,1000,1000,1000,,,,,
83200873,1000,1000,1000,1000,,,,,
83203372,1000,1000,1000,1000,,,,,
83205871,1000,1000,1000,1000,,,,,
83208370,1000,1000,1000,1000,,,,,
83210869,1000,1000,1000,1000,,,,,
83213368,1000,1000,1000,1000,,,,,
83215867,1000,1000,1000,1000,,,,,
83218366,1000,1000,1000,1000,,,,,
83220865,1000,1000,1000,1000,,,,,
83223364,1000,1000,1000,1000,,,,,
83225863,1000,1000,1000,1000,,,,,
83228362,1000,1000,1000,1000,,,,,
83230861,1000,1000,1000,1000,,,,,
83233360,1000,1000,1000,1000,,,,,
83235859,1000,1000,1000,1000,,,,,
83238358,1000,1000,1000,1000,,,,,
83240857,1000,1000,1000,1000,,,,,
83243356,1000,1000,1000,1000,,,,,
83245855,1000,1000,1000,1000,,,,,
83248354,1000,1000,1000,1000,,,,,
83250853,1000,1000,1000,1000,,,,,
83253352,1000,1000,1000,1000,,,,,
83255851,1000,1000,1000,1000,,,,,
83258350,1000,1000,1000,1000,,,,,
83260849,1000,1000,1000,1000,,,,,
83263348,1000,1000,1000,1000,,,,,
83265847,1000,1000,1000,1000,,,,,
83268346,1000,1000,1000,1000,,,,,
83270845,1000,1000,1000,1000,,,,,
83273344,1000,1000,1000,1000,,,,,
83275843,1000,1000,1000,1000,,,,,
83278342,1000,1000,1000,1000,,,,,
83280841,1000,1000,1000,1000,,,,,
83283340,1000,1000,1000,1000,,,,,
83285839,1000,1000,1000,1000,,,,,
83288338,1000,1000,1000,1000,,,,,
83290837,1000,1000,1000,1000,,,,,
83293336,1000,1000,1000,1000,,,,,
83295835,1000,1000,1000,1000,,,,,
83298334,1000,1000,1000,1000,,,,,
83300833,1000,1000,1000,1000,,,,,
83303332,1000,1000,1000,1000,,,,,
83305831,1000,1000,1000,1000,,,,,
83308330,1000,1000,1000,1000,,,,,
83310829,1000,1000,1000,1000,,,,,
83313328,1000,1000,1000,1000,,,,,
83315827,1000,1000,1000,1000,,,,,
83318326,1000,1000,1000,1000,,,,,
83320825,1000,1000,1000,1000,,,,,
83323324,1000,1000,1000,1000,,,,,
83325823,1000,1000,1000,1000,,,,,
83328322,1000,1000,1000,1000,,,,,
83330821,1000,1000,1000,1000,,,,,
83333320,1000,1000,1000,1000,,,,,
83335819,1000,1000,1000,1000,,,,,
83338318,1000,1000,1000,1000,,,,,
83340817,1000,1000,1000,1000,,,,,
83343316,1000,1000,1000,1000,,,,,
83345815,1000,1000,1000,1000,,,,,
83348314,1000,1000,1000,1000,,,,,
83350813,1000,1000,1000,1000,,,,,
83353312,1000,1000,1000,1000,,,,,
83355811,1000,1000,1000,1000,,,,,
83358310,1000,1000,1000,1000,,,,,
83360809,1000,1000,1000,1000,,,,,
83363308,1000,1000,1000,1000,,,,,
83365807,1000,1000,1000,1000,,,,,
83368306,1000,1000,1000,1000,,,,,
83370805,1000,1000,1000,1000,,,,,
83373304,1000,1000,1000,1000,,,,,
83375803,1000,1000,1000,1000,,,,,
83378302,1000,1000,1000,1000,,,,,
83380801,1000,1000,1000,1000,,,,,
83383300,1000,1000,1000,1000,,,,,
83385799,1000,1000,1000,1000,,,,,
83388298,1000,1000,1000,1000,,,,,
83390797,1000,1000,1000,1000,,,,,
83393296,1000,1000,1000,1000,,,,,
83395795,1000,1000,1000,1000,,,,,
83398294,1000,1000,1000,1000,,,,,
83400793,1000,1000,1000,1000,,,,,
83403292,1000,1000,1000,1000,,,,,
83405791,1000,1000,1000,1000,,,,,
83408290,1000,1000,1000,1000,,,,,
83410789,1000,1000,1000,1000,,,,,
83413288,1000,1000,1000,1000,,,,,
83415787,1000,1000,1000,1000,,,,,
83418286,1000,1000,1000,1000,,,,,
83420785,1000,1000,1000,1000,,,,,
83423284,1000,1000,1000,1000,,,,,
83425783,1000,1000,1000,1000,,,,,
83428282,1000,1000,1000,1000,,,,,
83430781,1000,1000,1000,1000,,,,,
83433280,1000,1000,1000,1000,,,,,
83435779,1000,1000,1000,1000,,,,,
83438278,1000,1000,1000,1000,,,,,
83440777,1000,1000,1000,1000,,,,,
83443276,1000,1000,1000,1000,,,,,
83445775,1001,1001,1001,1001,,,,,
83448274,1002,1002,1002,1002,,,,,
83450773,1003,1003,1003,1003,,,,,
83453272,1003,1003,1003,1003,,,,,
83455771,1004,1004,1004,1004,,,,,
83458270,1005,1005,1005,1005,,,,,
83460769,1006,1006,1006,1006,,,,,
83463268,1006,1006,1006,1006,,,,,
83465767,1007,1007,1007,1007,,,,,
83468266,1008,1008,1008,1008,,,,,
83470765,1009,1009,1009,1009,,,,,
83473264,1009,1009,1009,1009,,,,,
83475763,1010,1010,1010,1010,,,,,
83478262,1011,1011,1011,1011,,,,,
83480761,1012,1012,1012,1012,,,,,
83483260,1012,1012,1012,1012,,,,,
83485759,1013,1013,1013,1013,,,,,
83488258,1014,1014,1014,1014,,,,,
83490757,1015,1015,1015,1015,,,,,
83493256,1015,1015,1015,1015,,,,,
83495755,1016,1016,1016,1016,,,,,
83498254,1017,1017,1017,1017,,,,,
83500753,1018,1018,1018,1018,,,,,
83503252,1018,1018,1018,1018,,,,,
83505751,1019,1019,1019,1019,,,,,
83508250,1020,1020,1020,1020,,,,,
83510749,1021,1021,1021,1021,,,,,
83513248,1021,1021,1021,1021,,,,,
83515747,1022,1022,1022,1022,,,,,
83518246,1023,1023,1023,1023,,,,,
83520745,1024,1024,1024,1024,,,,,
83523244,1024,1024,1024,1024,,,,,
83525743,1025,1025,1025,1025,,,,,
83528242,1026,1026,1026,1026,,,,,
83530741,1027,1027,1027,1027,,,,,
83533240,1027,1027,1027,1027,,,,,
83535739,1028,1028,1028,1028,,,,,
83538238,1029,1029,1029,1029,,,,,
83540737,1030,1030,1030,1030,,,,,
83543236,1030,1030,1030,1030,,,,,
83545735,1031,1031,1031,1031,,,,,
83548234,1032,1032,1032,1032,,,,,
83550733,1033,1033,1033,1033,,,,,
83553232,1033,1033,1033,1033,,,,,
83555731,1034,1034,1034,1034,,,,,
83558230,1035,1035,1035,1035,,,,,
83560729,1036,1036,1036,1036,,,,,
83563228,1036,1036,1036,1036,,,,,
83565727,1037,1037,1037,1037,,,,,
83568226,1038,1038,1038,1038,,,,,
83570725,1039,1039,1039,1039,,,,,
83573224,1039,1039,1039,1039,,,,,
83575723,1040,1040,1040,1040,,,,,
83578222,1041,1041,1041,1041,,,,,
83580721,1042,1042,1042,1042,,,,,
83583220,1042,1042,1042,1042,,,,,
83585719,1043,1043,1043,1043,,,,,
83588218,1044,1044,1044,1044,,,,,
83590717,1045,1045,1045,1045,,,,,
83593216,1045,1045,1045,1045,,,,,
83595715,1046,1046,1046,1046,,,,,
83598214,1047,1047,1047,1047,,,,,
83600713,1048,1048,1048,1048,,,,,
83603212,1048,1048,1048,1048,,,,,
83605711,1049,1049,1049,1049,,,,,
83608210,1050,1050,1050,1050,,,,,
83610709,1051,1051,1051,1051,,,,,
83613208,1051,1051,1051,1051,,,,,
83615707,1052,1052,1052,1052,,,,,
83618206,1053,1053,1053,1053,,,,,
83620705,1054,1054,1054,1054,,,,,
83623204,1054,1054,1054,1054,,,,,
83625703,1055,1055,1055,1055,,,,,
83628202,1056,1056,1056,1056,,,,,
83630701,1057,1057,1057,1057,,,,,
83633200,1057,1057,1057,1057,,,,,
83635699,1058,1058,1058,1058,,,,,
83638198,1059,1059,1059,1059,,,,,
83640697,1060,1060,1060,1060,,,,,
83643196,1060,1060,1060,1060,,,,,
83645695,1061,1061,1061,1061,,,,,
83648194,1062,1062,1062,1062,,,,,
83650693,1063,1063,1063,1063,,,,,
83653192,1063,1063,1063,1063,,,,,
83655691,1064,1064,1064,1064,,,,,
83658190,1065,1065,1065,1065,,,,,
83660689,1066,1066,1066,1066,,,,,
83663188,1066,1066,1066,1066,,,,,
83665687,1067,1067,1067,1067,,,,,
83668186,1068,1068,1068,1068,,,,,
83670685,1069,1069,1069,1069,,,,,
83673184,1069,1069,1069,1069,,,,,
83675683,1070,1070,1070,1070,,,,,
83678182,1071,1071,1071,1071,,,,,
83680681,1072,1072,1072,1072,,,,,
83683180,1072,1072,1072,1072,,,,,
83685679,1073,1073,1073,1073,,,,,
83688178,1074,1074,1074,1074,,,,,
83690677,1075,1075,1075,1075,,,,,
83693176,1075,1075,1075,1075,,,,,
83695675,1076,1076,1076,1076,,,,,
83698174,1077,1077,1077,1077,,,,,
83700673,1078,1078,1078,1078,,,,,
83703172,1078,1078,1078,1078,,,,,
83705671,1079,1079,1079,1079,,,,,
83708170,1080,1080,1080,1080,,,,,
83710669,1081,1081,1081,1081,,,,,
83713168,1081,1081,1081,1081,,,,,
83715667,1082,1082,1082,1082,,,,,
83718166,1083,1083,1083,1083,,,,,
83720665,1084,1084,1084,1084,,,,,
83723164,1084,1084,1084,1084,,,,,
83725663,1085,1085,1085,1085,,,,,
83728162,1086,1086,1086,1086,,,,,
83730661,1087,1087,1087,1087,,,,,
83733160,1087,1087,1087,1087,,,,,
83735659,1088,1088,1088,1088,,,,,
83738158,1089,1089,1089,1089,,,,,
83740657,1090,1090,1090,1090,,,,,
83743156,1090,1090,1090,1090,,,,,
83745655,1091,1091,1091,1091,,,,,
83748154,1092,1092,1092,1092,,,,,
83751486,1093,1093,1093,1093,,,,,
83753985,1093,1093,1093,1093,,,,,
83756484,1094,1094,1094,1094,,,,,
83758983,1095,1095,1095,1095,,,,,
83761482,1096,1096,1096,1096,,,,,
83763981,1096,1096,1096,1096,,,,,
83766480,1097,1097,1097,1097,,,,,
83768979,1098,1098,1098,1098,,,,,
83771478,1099,1099,1099,1099,,,,,
83773977,1099,1099,1099,1099,,,,,
83776476,1100,1100,1100,1100,,,,,
83778975,1101,1101,1101,1101,,,,,
83781474,1101,1101,1101,1101,,,,,
83783973,1102,1102,1102,1102,,,,,
83786472,1103,1103,1103,1103,,,,,
83788971,1104,1104,1104,1104,,,,,
83791470,1104,1104,1104,1104,,,,,
83793969,1105,1105,1105,1105,,,,,
83796468,1106,1106,1106,1106,,,,,
83798967,1107,1107,1107,1107,,,,,
83801466,1107,1107,1107,1107,,,,,
83803965,1108,1108,1108,1108,,,,,
83806464,1109,1109,1109,1109,,,,,
83808963,1110,1110,1110,1110,,,,,
83811462,1110,1110,1110,1110,,,,,
83813961,1111,1111,1111,1111,,,,,
83816460,1112,1112,1112,1112,,,,,
83818959,1113,1113,1113,1113,,,,,
83821458,1113,1113,1113,1113,,,,,
83823957,1114,1114,1114,1114,,,,,
83826456,1115,1115,1115,1115,,,,,
83828955,1116,1116,1116,1116,,,,,
83831454,1116,1116,1116,1116,,,,,
83833953,1117,1117,1117,1117,,,,,
83836452,1118,1118,1118,1118,,,,,
83838951,1119,1119,1119,1119,,,,,
83841450,1119,1119,1119,1119,,,,,
83843949,1120,1120,1120,1120,,,,,
83846448,1121,1121,1121,1121,,,,,
83848947,1122,1122,1122,1122,,,,,
83851446,1122,1122,1122,1122,,,,,
83853945,1123,1123,1123,1123,,,,,
83856444,1124,1124,1124,1124,,,,,
83858943,1125,1125,1125,1125,,,,,
83861442,1125,1125,1125,1125,,,,,
83863941,1126,1126,1126,1126,,,,,
83866440,1127,1127,1127,1127,,,,,
83868939,1128,1128,1128,1128,,,,,
83871438,1128,1128,1128,1128,,,,,
83873937,1129,1129,1129,1129,,,,,
83876436,1130,1130,1130,1130,,,,,
83878935,1131,1131,1131,1131,,,,,
83881434,1131,1131,1131,1131,,,,,
83883933,1132,1132,1132,1132,,,,,
83886432,1133,1133,1133,1133,,,,,
83888931,1134,1134,1134,1134,,,,,
83891430,1134,1134,1134,1134,,,,,
83893929,1135,1135,1135,1135,,,,,
83896428,1136,1136,1136,1136,,,,,
83898927,1137,1137,1137,1137,,,,,
83901426,1137,1137,1137,1137,,,,,
83903925,1138,1138,1138,1138,,,,,
83906424,1139,1139,1139,1139,,,,,
83908923,1140,1140,1140,1140,,,,,
83911422,1140,1140,1140,1140,,,,,
83913921,1141,1141,1141,1141,,,,,
83916420,1142,1142,1142,1142,,,,,
83918919,1143,1143,1143,1143,,,,,
83921418,1143,1143,1143,1143,,,,,
83923917,1144,1144,1144,1144,,,,,
83926416,1145,1145,1145,1145,,,,,
83928915,1146,1146,1146,1146,,,,,
83931414,1146,1146,1146,1146,,,,,
83933913,1147,1147,1147,1147,,,,,
83936412,1148,1148,1148,1148,,,,,
83938911,1149,1149,1149,1149,,,,,
83941410,1149,1149,1149,1149,,,,,
83943909,1150,1150,1150,1150,,,,,
83946408,1164,1150,1151,1165,,,,,
83948907,1172,1159,1160,1173,,,,,
83951406,1180,1167,1168,1180,,,,,
83953905,1187,1175,1175,1188,,,,,
83956404,1195,1182,1183,1196,,,,,
83958903,1202,1190,1191,1203,,,,,
83961402,1210,1197,1198,1210,,,,,
83963901,1217,1205,1206,1217,,,,,
83966400,1224,1212,1213,1224,,,,,
83968899,1231,1219,1220,1231,,,,,
83971398,1238,1226,1227,1238,,,,,
83973897,1244,1233,1234,1245,,,,,
83976396,1251,1240,1241,1252,,,,,
83978895,1258,1246,1247,1258,,,,,
83981394,1264,1253,1254,1265,,,,,
83983893,1271,1260,1260,1271,,,,,
83986392,1277,1266,1267,1277,,,,,
83988891,1283,1272,1273,1284,,,,,
83991390,1289,1279,1280,1290,,,,,
83993889,1296,1285,1286,1296,,,,,
83996388,1302,1291,1292,1302,,,,,
83998887,1308,1297,1298,1308,,,,,
84001386,1313,1303,1304,1314,,,,,
84003885,1319,1309,1310,1320,,,,,
84006384,1325,1315,1316,1325,,,,,
84008883,1331,1321,1322,1331,,,,,
84011382,1337,1327,1328,1337,,,,,
84013881,1342,1332,1333,1343,,,,,
84016380,1348,1338,1339,1348,,,,,
84018879,1353,1344,1345,1354,,,,,
84021378,1359,1349,1350,1359,,,,,
84023877,1364,1355,1356,1365,,,,,
84026376,1370,1360,1361,1370,,,,,
84028875,1375,1366,1366,1375,,,,,
84031374,1380,1371,1372,1381,,,,,
84033873,1385,1376,1377,1386,,,,,
84036372,1391,1382,1382,1391,,,,,
84038871,1396,1387,1387,1396,,,,,
84041370,1401,1392,1393,1401,,,,,
84043869,1406,1397,1398,1406,,,,,
84046368,1411,1402,1403,1411,,,,,
84048867,1416,1407,1408,1416,,,,,
84051366,1421,1412,1413,1421,,,,,
84053865,1426,1417,1418,1426,,,,,
84056364,1431,1422,1423,1431,,,,,
84058863,1436,1427,1428,1436,,,,,
84061362,1441,1432,1433,1441,,,,,
84063861,1446,1437,1437,1446,,,,,
84066360,1450,1441,1442,1451,,,,,
84068859,1455,1446,1447,1455,,,,,
84071358,1460,1451,1452,1460,,,,,
84073857,1464,1456,1456,1465,,,,,
84076356,1469,1460,1461,1469,,,,,
84078855,1474,1465,1466,1474,,,,,
84081354,1478,1470,1470,1479,,,,,
84083853,1483,1474,1475,1483,,,,,
84086352,1487,1479,1479,1488,,,,,
84088851,1492,1483,1484,1492,,,,,
84091350,1496,1488,1488,1497,,,,,
84093849,1501,1492,1493,1501,,,,,
84096348,1505,1497,1497,1506,,,,,
84098847,1510,1501,1502,1510,,,,,
84101346,1514,1505,1506,1514,,,,,
84103845,1518,1510,1510,1519,,,,,
84106344,1523,1514,1515,1523,,,,,
84108843,1527,1518,1519,1527,,,,,
84111342,1531,1523,1523,1532,,,,,
84113841,1536,1527,1527,1536,,,,,
84116340,1540,1531,1532,1540,,,,,
84118839,1544,1535,1536,1544,,,,,
84121338,1548,1540,1540,1549,,,,,
84123837,1552,1544,1544,1553,,,,,
84126336,1556,1548,1548,1557,,,,,
84128835,1560,1552,1553,1561,,,,,
84131334,1565,1556,1557,1565,,,,,
84133833,1569,1560,1561,1569,,,,,
84136332,1573,1564,1565,1573,,,,,
84138831,1577,1568,1569,1577,,,,,
84141330,1581,1573,1573,1581,,,,,
84143829,1585,1577,1577,1585,,,,,
84146328,1589,1581,1581,1589,,,,,
84148827,1593,1585,1585,1593,,,,,
84151326,1596,1589,1589,1597,,,,,
84153825,1600,1593,1593,1601,,,,,
84156324,1604,1596,1597,1605,,,,,
84158823,1608,1600,1601,1609,,,,,
84161322,1612,1604,1605,1613,,,,,
84163821,1616,1608,1608,1616,,,,,
84166320,1620,1612,1612,1620,,,,,
84168819,1623,1616,1616,1624,,,,,
84171318,1627,1620,1620,1628,,,,,
84173817,1631,1624,1624,1632,,,,,
84176316,1635,1627,1628,1635,,,,,
84178815,1638,1631,1631,1639,,,,,
84181314,1642,1635,1635,1643,,,,,
84183813,1646,1639,1639,1646,,,,,
84186312,1649,1642,1643,1650,,,,,
84188811,1653,1646,1646,1654,,,,,
84191310,1657,1650,1650,1658,,,,,
84193809,1660,1653,1654,1661,,,,,
84196308,1664,1657,1657,1665,,,,,
84198807,1668,1661,1661,1668,,,,,
84201306,1671,1664,1665,1672,,,,,
84203805,1675,1668,1668,1676,,,,,
84206304,1679,1672,1672,1679,,,,,
84208803,1682,1675,1675,1683,,,,,
84211302,1686,1679,1679,1686,,,,,
84213801,1689,1682,1682,1690,,,,,
84216300,1693,1686,1686,1693,,,,,
84218799,1696,1689,1690,1697,,,,,
84221298,1700,1693,1693,1700,,,,,
84223797,1703,1696,1697,1704,,,,,
84226296,1707,1700,1700,1707,,,,,
84228795,1710,1703,1704,1711,,,,,
84231294,1714,1707,1707,1714,,,,,
84233793,1717,1710,1710,1718,,,,,
84236292,1721,1714,1714,1721,,,,,
84238791,1724,1717,1717,1725,,,,,
84241290,1728,1720,1721,1728,,,,,
84243789,1731,1724,1724,1731,,,,,
84246288,1734,1727,1728,1735,,,,,
84248787,1738,1731,1731,1738,,,,,
84251286,1741,1734,1734,1742,,,,,
84253785,1744,1737,1738,1745,,,,,
84256284,1748,1741,1741,1748,,,,,
84258783,1751,1744,1744,1752,,,,,
84261282,1755,1747,1748,1755,,,,,
84263781,1758,1751,1751,1758,,,,,
84266280,1761,1754,1754,1761,,,,,
84268779,1764,1757,1758,1765,,,,,
84271278,1768,1760,1761,1768,,,,,
84273777,1771,1764,1764,1771,,,,,
84276276,1774,1767,1767,1775,,,,,
84278775,1777,1770,1771,1778,,,,,
84281274,1781,1773,1774,1781,,,,,
84283773,1784,1777,1777,1784,,,,,
84286272,1787,1780,1780,1788,,,,,
84288771,1790,1783,1783,1791,,,,,
84291270,1794,1786,1787,1794,,,,,
84293769,1797,1789,1790,1797,,,,,
84296268,1800,1793,1793,1800,,,,,
84298767,1803,1796,1796,1803,,,,,
84301266,1806,1799,1799,1807,,,,,
84303765,1809,1802,1802,1810,,,,,
84306264,1813,1805,1806,1813,,,,,
84308763,1816,1808,1809,1816,,,,,
84311262,1819,1811,1812,1819,,,,,
84313761,1822,1815,1815,1822,,,,,
84316260,1825,1818,1818,1825,,,,,
84318759,1828,1821,1821,1829,,,,,
84321258,1831,1824,1824,1832,,,,,
84323757,1834,1827,1827,1835,,,,,
84326256,1837,1830,1830,1838,,,,,
84328755,1840,1833,1833,1841,,,,,
84331254,1843,1836,1836,1844,,,,,
84333753,1846,1839,1839,1847,,,,,
84336252,1849,1842,1842,1850,,,,,
84338751,1852,1845,1845,1853,,,,,
84341250,1855,1848,1848,1856,,,,,
84343749,1858,1851,1851,1859,,,,,
84346248,1861,1854,1854,1862,,,,,
84348747,1864,1857,1857,1865,,,,,
84351246,1867,1860,1860,1868,,,,,
84353745,1870,1863,1863,1871,,,,,
84356244,1873,1866,1866,1874,,,,,
84358743,1876,1869,1869,1877,,,,,
84361242,1879,1872,1872,1880,,,,,
84363741,1882,1875,1875,1883,,,,,
84366240,1885,1878,1878,1886,,,,,
84368739,1888,1881,1881,1889,,,,,
84371238,1891,1884,1884,1892,,,,,
84373737,1894,1887,1887,1894,,,,,
84376236,1897,1890,1890,1897,,,,,
84378735,1900,1893,1893,1900,,,,,
84381234,1902,1896,1896,1903,,,,,
84383733,1902,1895,1895,1902,,,,,
84386232,1901,1894,1894,1901,,,,,
84388731,1900,1893,1893,1900,,,,,
84391230,1899,1892,1892,1900,,,,,
84393729,1898,1891,1891,1899,,,,,
84396228,1897,1890,1890,1898,,,,,
84398727,1897,1889,1889,1897,,,,,
84401226,1896,1889,1889,1896,,,,,
84403725,1895,1888,1888,1896,,,,,
84406224,1895,1887,1887,1895,,,,,
84408723,1894,1887,1887,1895,,,,,
84411222,1894,1886,1886,1894,,,,,
84413721,1893,1886,1886,1894,,,,,
84416220,1893,1885,1885,1893,,,,,
84418719,1893,1885,1885,1893,,,,,
84421218,1892,1885,1885,1893,,,,,
84423717,1892,1884,1885,1893,,,,,
84426216,1892,1884,1885,1893,,,,,
84428715,1892,1884,1885,1893,,,,,
84431214,1892,1885,1885,1893,,,,,
84433713,1892,1885,1885,1893,,,,,
84436212,1893,1885,1885,1893,,,,,
84438711,1893,1885,1886,1893,,,,,
84441210,1893,1886,1886,1893,,,,,
84443709,1893,1886,1886,1893,,,,,
84446208,1893,1886,1887,1893,,,,,
84448707,1893,1887,1887,1893,,,,,
84451206,1893,1887,1887,1893,,,,,
84453705,1893,1887,1887,1893,,,,,
84456204,1892,1886,1887,1893,,,,,
84458703,1892,1886,1887,1892,,,,,
84461202,1891,1886,1886,1891,,,,,
84463701,1890,1885,1886,1891,,,,,
84466200,1890,1884,1885,1890,,,,,
84468699,1889,1884,1884,1889,,,,,
84471198,1887,1882,1883,1887,,,,,
84473697,1886,1881,1882,1886,,,,,
84476196,1884,1880,1880,1884,,,,,
84478695,1883,1878,1879,1883,,,,,
84481194,1881,1876,1877,1881,,,,,
84483693,1879,1875,1875,1879,,,,,
84486192,1877,1873,1873,1877,,,,,
84488691,1875,1870,1871,1875,,,,,
84491190,1872,1868,1869,1872,,,,,
84493689,1870,1866,1867,1870,,,,,
84496188,1867,1863,1864,1867,,,,,
84498687,1864,1861,1862,1865,,,,,
84501186,1862,1858,1859,1862,,,,,
84503685,1859,1856,1856,1859,,,,,
84506184,1856,1853,1853,1856,,,,,
84508683,1853,1850,1850,1853,,,,,
84511182,1850,1847,1847,1850,,,,,
84513681,1847,1844,1845,1847,,,,,
84516180,1844,1841,1841,1844,,,,,
84518679,1841,1838,1838,1841,,,,,
84521178,1837,1835,1835,1838,,,,,
84523677,1834,1832,1832,1834,,,,,
84526176,1831,1828,1829,1831,,,,,
84528675,1828,1825,1826,1828,,,,,
84531174,1824,1822,1823,1824,,,,,
84533673,1821,1819,1819,1821,,,,,
84536172,1818,1816,1816,1818,,,,,
84538671,1814,1812,1813,1815,,,,,
84541170,1811,1809,1809,1811,,,,,
84543669,1808,1806,1806,1808,,,,,
84546168,1804,1802,1803,1805,,,,,
84548667,1801,1799,1800,1801,,,,,
84551166,1797,1796,1796,1798,,,,,
84553665,1794,1793,1793,1794,,,,,
84556164,1791,1789,1790,1791,,,,,
84558663,1787,1786,1786,1788,,,,,
84561162,1784,1783,1783,1784,,,,,
84563661,1780,1779,1780,1781,,,,,
84566160,1777,1776,1776,1777,,,,,
84568659,1774,1773,1773,1774,,,,,
84571158,1770,1769,1770,1770,,,,,
84573657,1767,1766,1766,1767,,,,,
84576156,1763,1763,1763,1764,,,,,
84578655,1760,1759,1760,1760,,,,,
84581154,1757,1756,1756,1757,,,,,
84583653,1753,1753,1753,1754,,,,,
84586152,1750,1749,1750,1750,,,,,
84588651,1747,1746,1746,1747,,,,,
84591150,1743,1743,1743,1744,,,,,
84593649,1740,1740,1740,1740,,,,,
84596148,1737,1736,1737,1737,,,,,
84598647,1734,1733,1734,1734,,,,,
84601146,1730,1730,1731,1731,,,,,
84603645,1727,1727,1727,1728,,,,,
84606144,1724,1724,1724,1724,,,,,
