TimeUS,M1,M2,M3,M4,TimeUS,C1,C2,C3,C4
67776212,1000,1000,1000,1000,67828691,1000,1000,1000,1000
67778711,1000,1000,1000,1000,67928651,1000,1000,1000,1000
67781210,1000,1000,1000,1000,68028611,1000,1000,1000,1000
67783709,1000,1000,1000,1000,68128571,1000,1000,1000,1000
67786208,1000,1000,1000,1000,68228531,1000,1000,1000,1000
67788707,1000,1000,1000,1000,68328491,1000,1000,1000,1000
67791206,1000,1000,1000,1000,68428451,1000,1000,1000,1000
67793705,1000,1000,1000,1000,68528411,1000,1000,1000,1000
67796204,1000,1000,1000,1000,68628371,1000,1000,1000,1000
67798703,1000,1000,1000,1000,68728331,1000,1000,1000,1000
67801202,1000,1000,1000,1000,68828291,1000,1000,1000,1000
67803701,1000,1000,1000,1000,68928251,1000,1000,1000,1000
67806200,1000,1000,1000,1000,69028211,1000,1000,1000,1000
67808699,1000,1000,1000,1000,69128171,1000,1000,1000,1000
67811198,1000,1000,1000,1000,69228964,1000,1000,1000,1000
67813697,1000,1000,1000,1000,69328924,1000,1000,1000,1000
67816196,1000,1000,1000,1000,69428884,1000,1000,1000,1000
67818695,1000,1000,1000,1000,69528844,1000,1000,1000,1000
67821194,1000,1000,1000,1000,69628804,1000,1000,1000,1000
67823693,1000,1000,1000,1000,69728764,1000,1000,1000,1000
67826192,1000,1000,1000,1000,69828724,1015,1015,1015,1015
67828691,1000,1000,1000,1000,69928684,1045,1045,1045,1045
67831190,1000,1000,1000,1000,70028644,1075,1075,1075,1075
67833689,1000,1000,1000,1000,70128604,1105,1105,1105,1105
67836188,1000,1000,1000,1000,70228564,1135,1135,1135,1135
67838687,1000,1000,1000,1000,70328524,1295,1286,1286,1295
67841186,1000,1000,1000,1000,70428484,1500,1493,1494,1500
67843685,1000,1000,1000,1000,70528444,1660,1654,1654,1660
67846184,1000,1000,1000,1000,70628404,1796,1790,1790,1797
67848683,1000,1000,1000,1000,70728364,1917,1910,1911,1916
67851182,1000,1000,1000,1000,70828324,1895,1892,1892,1895
67853681,1000,1000,1000,1000,70928284,1763,1762,1762,1764
67856180,1000,1000,1000,1000,71028244,1667,1669,1669,1667
67858679,1000,1000,1000,1000,71128204,1637,1640,1640,1637
67861178,1000,1000,1000,1000,71228164,1638,1640,1641,1638
67863677,1000,1000,1000,1000,71328957,1642,1643,1643,1641
67866176,1000,1000,1000,1000,71428917,1638,1638,1638,1637
67868675,1000,1000,1000,1000,71528877,1626,1622,1621,1627
67871174,1000,1000,1000,1000,71628837,1602,1601,1591,1611
67873673,1000,1000,1000,1000,71728797,1592,1592,1583,1601
67876172,1000,1000,1000,1000,71828757,1590,1590,1586,1593
67878671,1000,1000,1000,1000,71928717,1593,1592,1593,1591
67881170,1000,1000,1000,1000,72028677,1598,1598,1601,1594
67883669,1000,1000,1000,1000,72128637,1577,1578,1594,1561
67886168,1000,1000,1000,1000,72228597,1565,1567,1586,1547
67888667,1000,1000,1000,1000,72328557,1555,1556,1565,1547
67891166,1000,1000,1000,1000,72428517,1545,1545,1541,1551
67893665,1000,1000,1000,1000,72528477,1540,1538,1528,1551
67896164,1000,1000,1000,1000,72628437,1532,1531,1519,1544
67898663,1000,1000,1000,1000,72728397,1527,1526,1517,1535
67901162,1000,1000,1000,1000,72828357,1525,1525,1521,1528
67903661,1000,1000,1000,1000,72928317,1526,1526,1526,1525
67906160,1000,1000,1000,1000,73028277,1529,1530,1532,1527
67908659,1000,1000,1000,1000,73128237,1533,1533,1537,1529
67911158,1000,1000,1000,1000,73228197,1538,1538,1542,1534
67913657,1000,1000,1000,1000,73328157,1541,1541,1544,1538
67916156,1000,1000,1000,1000,73428950,1546,1546,1547,1544
67918655,1000,1000,1000,1000,73528910,1548,1548,1548,1548
67921154,1000,1000,1000,1000,73628870,1549,1550,1549,1550
67923653,1000,1000,1000,1000,73728830,1553,1553,1551,1555
67926152,1000,1000,1000,1000,73828790,1554,1553,1556,1560
67928651,1000,1000,1000,1000,73928750,1554,1554,1560,1562
67931150,1000,1000,1000,1000,74028710,1555,1556,1562,1563
67933649,1000,1000,1000,1000,74128670,1558,1559,1564,1564
67936148,1000,1000,1000,1000,74228630,1562,1563,1566,1565
67938647,1000,1000,1000,1000,74328590,1565,1565,1566,1566
67941146,1000,1000,1000,1000,74428550,1567,1567,1566,1566
67943645,1000,1000,1000,1000,74528510,1568,1568,1566,1566
67946144,1000,1000,1000,1000,74628470,1570,1570,1567,1567
67948643,1000,1000,1000,1000,74728430,1572,1572,1568,1568
67951142,1000,1000,1000,1000,74828390,1573,1572,1568,1568
67953641,1000,1000,1000,1000,74928350,1573,1573,1569,1570
67956140,1000,1000,1000,1000,75028310,1574,1574,1571,1571
67958639,1000,1000,1000,1000,75128270,1575,1575,1573,1573
67961138,1000,1000,1000,1000,75228230,1574,1575,1574,1573
67963637,1000,1000,1000,1000,75328190,1574,1574,1575,1573
67966136,1000,1000,1000,1000,75428983,1574,1574,1575,1574
67968635,1000,1000,1000,1000,75528943,1575,1575,1576,1575
67971134,1000,1000,1000,1000,75628903,1575,1574,1576,1575
67973633,1000,1000,1000,1000,75728863,1575,1574,1576,1576
67976132,1000,1000,1000,1000,75828823,1575,1576,1577,1576
67978631,1000,1000,1000,1000,75928783,1575,1575,1576,1576
67981130,1000,1000,1000,1000,76028743,1576,1576,1576,1577
67983629,1000,1000,1000,1000,76128703,1577,1576,1577,1577
67986128,1000,1000,1000,1000,76228663,1576,1577,1576,1576
67988627,1000,1000,1000,1000,76328623,1577,1577,1577,1577
67991126,1000,1000,1000,1000,76428583,1578,1578,1578,1578
67993625,1000,1000,1000,1000,76528543,1578,1579,1578,1578
67996124,1000,1000,1000,1000,76628503,1578,1578,1577,1577
67998623,1000,1000,1000,1000,76728463,1579,1579,1578,1579
68001122,1000,1000,1000,1000,76828423,1579,1578,1578,1578
68003621,1000,1000,1000,1000,76928383,1578,1577,1577,1577
68006120,1000,1000,1000,1000,77028343,1578,1579,1578,1579
68008619,1000,1000,1000,1000,77128303,1579,1579,1579,1579
68011118,1000,1000,1000,1000,77228263,1578,1578,1578,1578
68013617,1000,1000,1000,1000,77328223,1578,1578,1579,1578
68016116,1000,1000,1000,1000,77428183,1578,1578,1579,1578
68018615,1000,1000,1000,1000,77528976,1579,1579,1579,1579
68021114,1000,1000,1000,1000,77628936,1579,1579,1580,1579
68023613,1000,1000,1000,1000,77728896,1579,1579,1579,1579
68026112,1000,1000,1000,1000,77828856,1579,1579,1579,1580
68028611,1000,1000,1000,1000,77928816,1580,1580,1580,1580
68031110,1000,1000,1000,1000,78028776,1579,1580,1580,1579
68033609,1000,1000,1000,1000,78128736,1581,1580,1580,1581
68036108,1000,1000,1000,1000,78228696,1580,1580,1580,1580
68038607,1000,1000,1000,1000,78328656,1581,1580,1581,1581
68041106,1000,1000,1000,1000,78428616,1581,1581,1581,1580
68043605,1000,1000,1000,1000,78528576,1581,1581,1581,1581
68046104,1000,1000,1000,1000,78628536,1581,1581,1581,1581
68048603,1000,1000,1000,1000,78728496,1580,1580,1580,1580
68051102,1000,1000,1000,1000,78828456,1580,1580,1580,1580
68053601,1000,1000,1000,1000,78928416,1579,1579,1580,1579
68056100,1000,1000,1000,1000,79028376,1579,1579,1579,1579
68058599,1000,1000,1000,1000,79128336,1579,1580,1580,1580
68061098,1000,1000,1000,1000,79228296,1581,1581,1581,1581
68063597,1000,1000,1000,1000,79328256,1581,1581,1581,1581
68066096,1000,1000,1000,1000,79428216,1580,1580,1580,1580
68068595,1000,1000,1000,1000,79528176,1581,1581,1581,1581
68071094,1000,1000,1000,1000,79628969,1581,1581,1581,1581
68073593,1000,1000,1000,1000,79728929,1581,1580,1581,1581
68076092,1000,1000,1000,1000,79828889,1581,1581,1580,1581
68078591,1000,1000,1000,1000,79928849,1581,1581,1581,1581
68081090,1000,1000,1000,1000,80028809,1582,1582,1586,1578
68083589,1000,1000,1000,1000,80128769,1581,1583,1588,1573
68086088,1000,1000,1000,1000,80228729,1579,1581,1581,1573
68088587,1000,1000,1000,1000,80328689,1577,1580,1571,1572
68091086,1000,1000,1000,1000,80428649,1576,1579,1564,1570
68093585,1000,1000,1000,1000,80528609,1576,1578,1558,1565
68096084,1000,1000,1000,1000,80628569,1578,1578,1555,1561
68098583,1000,1000,1000,1000,80728529,1580,1578,1555,1557
68101082,1000,1000,1000,1000,80828489,1580,1578,1556,1554
68103581,1000,1000,1000,1000,80928449,1580,1579,1557,1554
68106080,1000,1000,1000,1000,81028409,1577,1577,1555,1552
68108579,1000,1000,1000,1000,81128369,1575,1576,1554,1552
68111078,1000,1000,1000,1000,81228329,1576,1577,1555,1554
68113577,1000,1000,1000,1000,81328289,1575,1576,1553,1553
68116076,1000,1000,1000,1000,81428249,1575,1577,1552,1553
68118575,1000,1000,1000,1000,81528209,1576,1578,1551,1552
68121074,1000,1000,1000,1000,81628169,1577,1579,1548,1548
68123573,1000,1000,1000,1000,81728962,1579,1580,1546,1546
68126072,1000,1000,1000,1000,81828922,1583,1584,1545,1544
68128571,1000,1000,1000,1000,81928882,1585,1585,1541,1541
68131070,1000,1000,1000,1000,82028842,1588,1589,1539,1538
68133569,1000,1000,1000,1000,82128802,1592,1591,1537,1537
68136068,1000,1000,1000,1000,82228762,1593,1593,1534,1535
68138567,1000,1000,1000,1000,82328722,1593,1594,1533,1535
68141066,1000,1000,1000,1000,82428682,1594,1595,1535,1537
68143565,1000,1000,1000,1000,82528642,1594,1594,1537,1540
68146064,1000,1000,1000,1000,82628602,1591,1590,1542,1545
68148563,1000,1000,1000,1000,82728562,1587,1584,1549,1551
68151062,1000,1000,1000,1000,82828522,1579,1575,1557,1560
68153561,1000,1000,1000,1000,82928482,1570,1565,1569,1571
68156060,1000,1000,1000,1000,83028442,1558,1555,1581,1583
68158559,1000,1000,1000,1000,83128402,1549,1545,1594,1595
68161058,1000,1000,1000,1000,83228362,1537,1536,1603,1603
68163557,1000,1000,1000,1000,83328322,1532,1532,1612,1610
68166056,1000,1000,1000,1000,83428282,1528,1530,1615,1614
68168555,1000,1000,1000,1000,83528242,1531,1532,1615,1615
68171054,1000,1000,1000,1000,83628202,1534,1536,1612,1611
68173553,1000,1000,1000,1000,83728162,1541,1542,1606,1606
68176052,1000,1000,1000,1000,83828955,1549,1551,1600,1600
68178551,1000,1000,1000,1000,83928915,1558,1559,1592,1591
68181050,1000,1000,1000,1000,84028875,1567,1567,1584,1584
68183549,1000,1000,1000,1000,84128835,1574,1574,1577,1577
68186048,1000,1000,1000,1000,84228795,1581,1580,1572,1572
68188547,1000,1000,1000,1000,84328755,1585,1583,1568,1568
68191046,1000,1000,1000,1000,84428715,1587,1586,1566,1566
68193545,1000,1000,1000,1000,84528675,1588,1586,1566,1566
68196044,1000,1000,1000,1000,84628635,1586,1585,1566,1567
68198543,1000,1000,1000,1000,84728595,1585,1584,1569,1569
68201042,1000,1000,1000,1000,84828555,1582,1582,1572,1572
68203541,1000,1000,1000,1000,84928515,1579,1579,1575,1575
68206040,1000,1000,1000,1000,85028475,1576,1576,1578,1577
68208539,1000,1000,1000,1000,85128435,1574,1575,1581,1580
68211038,1000,1000,1000,1000,85228395,1572,1573,1582,1582
68213537,1000,1000,1000,1000,85328355,1573,1574,1584,1585
68216036,1000,1000,1000,1000,85428315,1572,1573,1584,1584
68218535,1000,1000,1000,1000,85528275,1573,1573,1584,1583
68221034,1000,1000,1000,1000,85628235,1574,1574,1582,1583
68223533,1000,1000,1000,1000,85728195,1575,1575,1581,1581
68226032,1000,1000,1000,1000,85828155,1576,1577,1580,1580
68228531,1000,1000,1000,1000,85928948,1578,1577,1579,1579
68231030,1000,1000,1000,1000,86028908,1579,1579,1578,1578
68233529,1000,1000,1000,1000,86128868,1580,1580,1577,1578
68236028,1000,1000,1000,1000,86228828,1582,1582,1578,1578
68238527,1000,1000,1000,1000,86328788,1582,1582,1578,1577
68241026,1000,1000,1000,1000,86428748,1582,1581,1577,1577
68243525,1000,1000,1000,1000,86528708,1582,1582,1578,1578
68246024,1000,1000,1000,1000,86628668,1581,1581,1578,1578
68248523,1000,1000,1000,1000,86728628,1581,1580,1579,1579
68251022,1000,1000,1000,1000,86828588,1580,1580,1579,1579
68253521,1000,1000,1000,1000,86928548,1580,1581,1581,1581
68256020,1000,1000,1000,1000,87028508,1579,1579,1581,1580
68258519,1000,1000,1000,1000,87128468,1579,1579,1581,1581
68261018,1000,1000,1000,1000,87228428,1580,1581,1582,1582
68263517,1000,1000,1000,1000,87328388,1579,1580,1582,1582
68266016,1000,1000,1000,1000,87428348,1580,1580,1582,1582
68268515,1000,1000,1000,1000,87528308,1580,1580,1582,1581
68271014,1000,1000,1000,1000,87628268,1580,1580,1581,1581
68273513,1000,1000,1000,1000,87728228,1580,1580,1580,1580
68276012,1000,1000,1000,1000,87828188,1580,1580,1580,1581
68278511,1000,1000,1000,1000,87928981,1581,1581,1580,1581
68281010,1000,1000,1000,1000,88028941,1580,1581,1583,1576
68283509,1000,1000,1000,1000,88128901,1581,1584,1587,1571
68286008,1000,1000,1000,1000,88228861,1581,1585,1580,1571
68288507,1000,1000,1000,1000,88328821,1581,1583,1570,1571
68291006,1000,1000,1000,1000,88428781,1580,1582,1562,1568
68293505,1000,1000,1000,1000,88528741,1580,1581,1556,1563
68296004,1000,1000,1000,1000,88628701,1581,1581,1554,1559
68298503,1000,1000,1000,1000,88728661,1582,1580,1553,1555
68301002,1000,1000,1000,1000,88828621,1582,1580,1553,1553
68303501,1000,1000,1000,1000,88928581,1581,1580,1554,1552
68306000,1000,1000,1000,1000,89028541,1579,1579,1555,1552
68308499,1000,1000,1000,1000,89128501,1578,1579,1555,1553
68310998,1000,1000,1000,1000,89228461,1577,1579,1555,1554
68313497,1000,1000,1000,1000,89328421,1576,1578,1553,1554
68315996,1000,1000,1000,1000,89428381,1577,1578,1553,1553
68318495,1000,1000,1000,1000,89528341,1578,1579,1551,1551
68320994,1000,1000,1000,1000,89628301,1579,1580,1550,1549
68323493,1000,1000,1000,1000,89728261,1582,1582,1549,1548
68325992,1000,1000,1000,1000,89828221,1582,1584,1545,1545
68328491,1000,1000,1000,1000,89928181,1586,1587,1545,1545
68330990,1000,1000,1000,1000,90028974,1588,1588,1542,1543
68333489,1000,1000,1000,1000,90128934,1589,1590,1540,1540
68335988,1000,1000,1000,1000,90228894,1592,1593,1539,1540
68338487,1000,1000,1000,1000,90328854,1593,1593,1540,1541
68340986,1000,1000,1000,1000,90428814,1591,1591,1541,1544
68343485,1000,1000,1000,1000,90528774,1590,1587,1547,1549
68345984,1000,1000,1000,1000,90628734,1584,1581,1554,1556
68348483,1000,1000,1000,1000,90728694,1577,1573,1564,1566
68350982,1000,1000,1000,1000,90828654,1568,1564,1574,1576
68353481,1000,1000,1000,1000,90928614,1559,1556,1586,1587
68355980,1000,1000,1000,1000,91028574,1549,1547,1595,1595
68358479,1000,1000,1000,1000,91128534,1542,1541,1603,1603
68360978,1000,1000,1000,1000,91228494,1537,1538,1608,1607
68363477,1000,1000,1000,1000,91328454,1537,1538,1611,1610
68365976,1000,1000,1000,1000,91428414,1538,1541,1610,1609
68368475,1000,1000,1000,1000,91528374,1543,1545,1607,1607
68370974,1000,1000,1000,1000,91628334,1550,1551,1602,1601
68373473,1000,1000,1000,1000,91728294,1558,1558,1597,1596
68375972,1000,1000,1000,1000,91828254,1564,1564,1589,1589
68378471,1000,1000,1000,1000,91928214,1572,1571,1584,1583
68380970,1000,1000,1000,1000,92028174,1577,1576,1577,1577
68383469,1000,1000,1000,1000,92128967,1581,1580,1573,1573
68385968,1000,1000,1000,1000,92228927,1584,1583,1570,1570
68388467,1000,1000,1000,1000,92328887,1586,1585,1569,1569
68390966,1000,1000,1000,1000,92428847,1586,1585,1569,1570
68393465,1000,1000,1000,1000,92528807,1585,1583,1570,1570
68395964,1000,1000,1000,1000,92628767,1583,1582,1572,1572
68398463,1000,1000,1000,1000,92728727,1581,1580,1575,1575
68400962,1000,1000,1000,1000,92828687,1578,1579,1577,1577
68403461,1000,1000,1000,1000,92928647,1576,1577,1580,1580
68405960,1000,1000,1000,1000,93028607,1575,1576,1582,1582
68408459,1000,1000,1000,1000,93128567,1574,1575,1584,1583
68410958,1000,1000,1000,1000,93228527,1574,1574,1584,1584
68413457,1000,1000,1000,1000,93328487,1573,1573,1583,1583
68415956,1000,1000,1000,1000,93428447,1573,1574,1582,1583
68418455,1000,1000,1000,1000,93528407,1575,1575,1581,1582
68420954,1000,1000,1000,1000,93628367,1575,1575,1580,1580
68423453,1000,1000,1000,1000,93728327,1577,1577,1580,1580
68425952,1000,1000,1000,1000,93828287,1578,1579,1579,1579
68428451,1000,1000,1000,1000,93928247,1580,1580,1579,1578
68430950,1000,1000,1000,1000,94028207,1582,1581,1579,1578
68433449,1000,1000,1000,1000,94128167,1582,1581,1579,1578
68435948,1000,1000,1000,1000,94228960,1582,1582,1578,1578
68438447,1000,1000,1000,1000,94328920,1581,1581,1578,1578
68440946,1000,1000,1000,1000,94428880,1581,1581,1578,1578
68443445,1000,1000,1000,1000,94528840,1581,1581,1579,1579
68445944,1000,1000,1000,1000,94628800,1581,1581,1580,1581
68448443,1000,1000,1000,1000,94728760,1581,1581,1580,1580
68450942,1000,1000,1000,1000,94828720,1580,1581,1581,1581
68453441,1000,1000,1000,1000,94928680,1581,1581,1582,1582
68455940,1000,1000,1000,1000,95028640,1581,1581,1582,1582
68458439,1000,1000,1000,1000,95128600,1580,1580,1581,1581
68460938,1000,1000,1000,1000,95228560,1580,1580,1581,1581
68463437,1000,1000,1000,1000,95328520,1580,1580,1581,1582
68465936,1000,1000,1000,1000,95428480,1581,1580,1581,1582
68468435,1000,1000,1000,1000,95528440,1581,1581,1582,1582
68470934,1000,1000,1000,1000,95628400,1580,1581,1581,1581
68473433,1000,1000,1000,1000,95728360,1580,1581,1581,1580
68475932,1000,1000,1000,1000,95828320,1581,1581,1581,1581
68478431,1000,1000,1000,1000,95928280,1580,1581,1580,1580
68480930,1000,1000,1000,1000,96028240,1582,1581,1581,1581
68483429,1000,1000,1000,1000,96128200,1581,1581,1582,1579
68485928,1000,1000,1000,1000,96228160,1581,1583,1587,1572
68488427,1000,1000,1000,1000,96328953,1580,1583,1582,1573
68490926,1000,1000,1000,1000,96428913,1580,1583,1574,1573
68493425,1000,1000,1000,1000,96528873,1579,1581,1566,1571
68495924,1000,1000,1000,1000,96628833,1579,1580,1559,1567
68498423,1000,1000,1000,1000,96728793,1579,1579,1556,1562
68500922,1000,1000,1000,1000,96828753,1580,1579,1555,1557
68503421,1000,1000,1000,1000,96928713,1580,1579,1555,1554
68505920,1000,1000,1000,1000,97028673,1580,1579,1556,1554
68508419,1000,1000,1000,1000,97128633,1579,1579,1556,1554
68510918,1000,1000,1000,1000,97228593,1578,1578,1556,1554
68513417,1000,1000,1000,1000,97328553,1576,1578,1555,1554
68515916,1000,1000,1000,1000,97428513,1576,1578,1555,1555
68518415,1000,1000,1000,1000,97528473,1577,1578,1554,1555
68520914,1000,1000,1000,1000,97628433,1576,1578,1552,1552
68523413,1000,1000,1000,1000,97728393,1578,1579,1551,1551
68525912,1000,1000,1000,1000,97828353,1580,1581,1549,1549
68528411,1000,1000,1000,1000,97928313,1583,1583,1546,1547
68530910,1000,1000,1000,1000,98028273,1585,1586,1545,1544
68533409,1000,1000,1000,1000,98128233,1587,1587,1541,1542
68535908,1000,1000,1000,1000,98228193,1589,1590,1539,1539
68538407,1000,1000,1000,1000,98328986,1591,1591,1538,1538
68540906,1000,1000,1000,1000,98428946,1592,1593,1537,1538
68543405,1000,1000,1000,1000,98528906,1594,1594,1538,1540
68545904,1000,1000,1000,1000,98628866,1593,1593,1540,1542
68548403,1000,1000,1000,1000,98728826,1591,1589,1544,1547
68550902,1000,1000,1000,1000,98828786,1587,1584,1551,1553
68553401,1000,1000,1000,1000,98928746,1580,1575,1559,1562
68555900,1000,1000,1000,1000,99028706,1571,1566,1571,1573
68558399,1000,1000,1000,1000,99128666,1560,1556,1583,1583
68560898,1000,1000,1000,1000,99228626,1549,1547,1594,1594
68563397,1000,1000,1000,1000,99328586,1540,1539,1603,1603
68565896,1000,1000,1000,1000,99428546,1534,1535,1609,1609
68568395,1000,1000,1000,1000,99528506,1532,1534,1612,1612
68570894,1000,1000,1000,1000,99628466,1534,1536,1613,1612
68573393,1000,1000,1000,1000,99728426,1539,1541,1611,1610
68575892,1000,1000,1000,1000,99828386,1545,1547,1605,1605
68578391,1000,1000,1000,1000,99928346,1553,1554,1599,1598
68580890,1000,1000,1000,1000,100028306,1561,1561,1592,1591
68583389,1000,1000,1000,1000,100128266,1569,1569,1585,1584
68585888,1000,1000,1000,1000,100228226,1576,1575,1578,1578
68588387,1000,1000,1000,1000,100328186,1582,1581,1574,1574
68590886,1000,1000,1000,1000,100428979,1585,1584,1570,1570
68593385,1000,1000,1000,1000,100528939,1587,1586,1568,1568
68595884,1000,1000,1000,1000,100628899,1587,1586,1568,1568
68598383,1000,1000,1000,1000,100728859,1586,1585,1568,1569
68600882,1000,1000,1000,1000,100828819,1583,1582,1570,1569
68603381,1000,1000,1000,1000,100928779,1581,1581,1573,1573
68605880,1000,1000,1000,1000,101028739,1579,1579,1576,1576
68608379,1000,1000,1000,1000,101128699,1576,1576,1578,1578
68610878,1000,1000,1000,1000,101228659,1574,1575,1581,1581
68613377,1000,1000,1000,1000,101328619,1574,1575,1583,1583
68615876,1000,1000,1000,1000,101428579,1572,1573,1583,1583
68618375,1000,1000,1000,1000,101528539,1574,1574,1585,1584
68620874,1000,1000,1000,1000,101628499,1573,1574,1583,1583
68623373,1000,1000,1000,1000,101728459,1575,1575,1583,1583
68625872,1000,1000,1000,1000,101828419,1576,1576,1582,1581
68628371,1000,1000,1000,1000,101928379,1576,1576,1580,1580
68630870,1000,1000,1000,1000,102028339,1578,1578,1579,1579
68633369,1000,1000,1000,1000,102128299,1579,1579,1578,1578
68635868,1000,1000,1000,1000,102228259,1581,1580,1578,1578
68638367,1000,1000,1000,1000,102328219,1581,1580,1577,1577
68640866,1000,1000,1000,1000,102428179,1581,1581,1577,1577
68643365,1000,1000,1000,1000,102528972,1581,1581,1577,1577
68645864,1000,1000,1000,1000,102628932,1581,1581,1578,1577
68648363,1000,1000,1000,1000,102728892,1581,1581,1578,1579
68650862,1000,1000,1000,1000,102828852,1580,1580,1579,1579
68653361,1000,1000,1000,1000,102928812,1581,1580,1580,1580
68655860,1000,1000,1000,1000,103028772,1580,1580,1581,1581
68658359,1000,1000,1000,1000,103128732,1579,1580,1580,1581
68660858,1000,1000,1000,1000,103228692,1579,1580,1581,1581
68663357,1000,1000,1000,1000,103328652,1579,1579,1580,1580
68665856,1000,1000,1000,1000,103428612,1579,1579,1581,1581
68668355,1000,1000,1000,1000,103528572,1580,1579,1581,1581
68670854,1000,1000,1000,1000,103628532,1579,1580,1581,1581
68673353,1000,1000,1000,1000,103728492,1580,1580,1581,1581
68675852,1000,1000,1000,1000,103828452,1579,1580,1580,1580
68678351,1000,1000,1000,1000,103928412,1580,1581,1581,1581
68680850,1000,1000,1000,1000,104028372,1581,1581,1581,1580
68683349,1000,1000,1000,1000,104128332,1581,1582,1587,1573
68685848,1000,1000,1000,1000,104228292,1580,1581,1584,1573
68688347,1000,1000,1000,1000,104328252,1577,1577,1576,1574
68690846,1000,1000,1000,1000,104428212,1574,1574,1570,1574
68693345,1000,1000,1000,1000,104528172,1572,1571,1566,1573
68695844,1000,1000,1000,1000,104628965,1568,1568,1564,1570
68698343,1000,1000,1000,1000,104728925,1567,1567,1564,1568
68700842,1000,1000,1000,1000,104828885,1566,1566,1566,1566
68703341,1000,1000,1000,1000,104928845,1566,1566,1568,1566
68705840,1000,1000,1000,1000,105028805,1565,1566,1568,1565
68708339,1000,1000,1000,1000,105128765,1565,1565,1567,1564
68710838,1000,1000,1000,1000,105228725,1564,1564,1565,1564
68713337,1000,1000,1000,1000,105328685,1564,1564,1565,1564
68715836,1000,1000,1000,1000,105428645,1563,1563,1564,1564
68718335,1000,1000,1000,1000,105528605,1563,1562,1562,1563
68720834,1000,1000,1000,1000,105628565,1562,1563,1562,1563
68723333,1000,1000,1000,1000,105728525,1562,1561,1561,1562
68725832,1000,1000,1000,1000,105828485,1561,1561,1562,1561
68728331,1000,1000,1000,1000,105928445,1561,1561,1561,1560
68730830,1000,1000,1000,1000,106028405,1560,1559,1560,1558
68733329,1000,1000,1000,1000,106128365,1557,1558,1558,1557
68735828,1000,1000,1000,1000,106228325,1557,1556,1557,1556
68738327,1000,1000,1000,1000,106328285,1557,1556,1556,1556
68740826,1000,1000,1000,1000,106428245,1557,1557,1557,1556
68743325,1000,1000,1000,1000,106528205,1557,1557,1557,1556
68745824,1000,1000,1000,1000,106628165,1557,1557,1558,1556
68748323,1000,1000,1000,1000,106728958,1557,1557,1558,1556
68750822,1000,1000,1000,1000,106828918,1557,1557,1559,1556
68753321,1000,1000,1000,1000,106928878,1559,1558,1558,1560
68755820,1000,1000,1000,1000,107028838,1558,1558,1556,1561
68758319,1000,1000,1000,1000,107128798,1561,1561,1558,1564
68760818,1000,1000,1000,1000,107228758,1560,1561,1558,1564
68763317,1000,1000,1000,1000,107328718,1563,1563,1561,1565
68765816,1000,1000,1000,1000,107428678,1562,1562,1561,1562
68768315,1000,1000,1000,1000,107528638,1564,1563,1565,1562
68770814,1000,1000,1000,1000,107628598,1562,1563,1564,1560
68773313,1000,1000,1000,1000,107728558,1561,1562,1560,1562
68775812,1000,1000,1000,1000,107828518,1558,1558,1556,1560
68778311,1000,1000,1000,1000,107928478,1554,1553,1552,1555
68780810,1000,1000,1000,1000,108028438,1547,1547,1546,1547
68783309,1000,1000,1000,1000,108128398,1542,1541,1541,1541
68785808,1000,1000,1000,1000,108228358,1534,1534,1534,1534
68788307,1000,1000,1000,1000,108328318,1526,1526,1527,1526
68790806,1000,1000,1000,1000,108428278,1521,1521,1522,1521
68793305,1000,1000,1000,1000,108528238,1519,1519,1519,1519
68795804,1000,1000,1000,1000,108628198,1519,1520,1520,1520
68798303,1000,1000,1000,1000,108728158,1522,1522,1522,1522
68800802,1000,1000,1000,1000,108828951,1525,1525,1525,1525
68803301,1000,1000,1000,1000,108928911,1530,1530,1530,1530
68805800,1000,1000,1000,1000,109028871,1534,1534,1534,1534
68808299,1000,1000,1000,1000,109128831,1538,1538,1538,1538
68810798,1000,1000,1000,1000,109228791,1541,1541,1541,1541
68813297,1000,1000,1000,1000,109328751,1543,1543,1543,1543
68815796,1000,1000,1000,1000,109428711,1545,1545,1545,1545
68818295,1000,1000,1000,1000,109528671,1545,1545,1545,1544
68820794,1000,1000,1000,1000,109628631,1546,1546,1546,1546
68823293,1000,1000,1000,1000,109728591,1546,1546,1546,1545
68825792,1000,1000,1000,1000,109828551,1546,1546,1546,1546
68828291,1000,1000,1000,1000,109928511,1546,1545,1546,1546
68830790,1000,1000,1000,1000,110028471,1546,1546,1546,1546
68833289,1000,1000,1000,1000,110128431,1546,1546,1546,1546
68835788,1000,1000,1000,1000,110228391,1545,1546,1546,1546
68838287,1000,1000,1000,1000,110328351,1545,1545,1545,1545
68840786,1000,1000,1000,1000,110428311,1545,1546,1546,1545
68843285,1000,1000,1000,1000,110528271,1545,1544,1545,1544
68845784,1000,1000,1000,1000,110628231,1545,1545,1545,1544
68848283,1000,1000,1000,1000,110728191,1545,1544,1544,1544
68850782,1000,1000,1000,1000,110828984,1544,1545,1545,1545
68853281,1000,1000,1000,1000,110928944,1544,1544,1544,1544
68855780,1000,1000,1000,1000,111028904,1543,1544,1543,1544
68858279,1000,1000,1000,1000,111128864,1544,1544,1544,1544
68860778,1000,1000,1000,1000,111228824,1544,1544,1545,1544
68863277,1000,1000,1000,1000,111328784,1544,1544,1544,1544
68865776,1000,1000,1000,1000,111428744,1544,1544,1545,1544
68868275,1000,1000,1000,1000,111528704,1545,1545,1545,1545
68870774,1000,1000,1000,1000,111628664,1544,1544,1544,1544
68873273,1000,1000,1000,1000,111728624,1544,1544,1544,1544
68875772,1000,1000,1000,1000,111828584,1544,1544,1544,1544
68878271,1000,1000,1000,1000,111928544,1544,1543,1544,1543
68880770,1000,1000,1000,1000,112028504,1544,1544,1544,1543
68883269,1000,1000,1000,1000,112128464,1544,1544,1544,1544
68885768,1000,1000,1000,1000,112228424,1544,1544,1543,1543
68888267,1000,1000,1000,1000,112328384,1544,1544,1544,1544
68890766,1000,1000,1000,1000,112428344,1544,1544,1544,1544
68893265,1000,1000,1000,1000,112528304,1544,1544,1544,1544
68895764,1000,1000,1000,1000,112628264,1544,1544,1544,1545
68898263,1000,1000,1000,1000,112728224,1544,1544,1544,1545
68900762,1000,1000,1000,1000,112828184,1544,1544,1544,1543
68903261,1000,1000,1000,1000,112928977,1544,1544,1544,1544
68905760,1000,1000,1000,1000,113028937,1544,1544,1544,1544
68908259,1000,1000,1000,1000,113128897,1544,1543,1544,1544
68910758,1000,1000,1000,1000,113228857,1543,1543,1543,1543
68913257,1000,1000,1000,1000,113328817,1544,1544,1543,1544
68915756,1000,1000,1000,1000,113428777,1544,1544,1544,1544
68918255,1000,1000,1000,1000,113528737,1545,1545,1544,1545
68920754,1000,1000,1000,1000,113628697,1544,1544,1544,1544
68923253,1000,1000,1000,1000,113728657,1544,1544,1544,1544
68925752,1000,1000,1000,1000,113828617,1544,1544,1544,1543
68928251,1000,1000,1000,1000,113928577,1544,1544,1544,1544
68930750,1000,1000,1000,1000,114028537,1544,1545,1544,1544
68933249,1000,1000,1000,1000,114128497,1545,1545,1545,1545
68935748,1000,1000,1000,1000,114228457,1544,1544,1544,1544
68938247,1000,1000,1000,1000,114328417,1545,1545,1544,1545
68940746,1000,1000,1000,1000,114428377,1544,1544,1544,1544
68943245,1000,1000,1000,1000,114528337,1544,1544,1544,1544
68945744,1000,1000,1000,1000,114628297,1544,1544,1544,1544
68948243,1000,1000,1000,1000,114728257,1544,1544,1544,1544
68950742,1000,1000,1000,1000,114828217,1545,1544,1545,1544
68953241,1000,1000,1000,1000,114928177,1544,1544,1544,1544
68955740,1000,1000,1000,1000,115028970,1544,1544,1544,1544
68958239,1000,1000,1000,1000,115128930,1544,1544,1544,1544
68960738,1000,1000,1000,1000,115228890,1544,1545,1545,1544
68963237,1000,1000,1000,1000,115328850,1543,1544,1543,1544
68965736,1000,1000,1000,1000,115428810,1545,1544,1544,1545
68968235,1000,1000,1000,1000,115528770,1544,1544,1544,1544
68970734,1000,1000,1000,1000,115628730,1544,1544,1544,1544
68973233,1000,1000,1000,1000,115728690,1545,1544,1544,1545
68975732,1000,1000,1000,1000,115828650,1544,1544,1544,1544
68978231,1000,1000,1000,1000,115928610,1545,1544,1545,1545
68980730,1000,1000,1000,1000,116028570,1544,1545,1545,1544
68983229,1000,1000,1000,1000,116128530,1545,1544,1545,1545
68985728,1000,1000,1000,1000,116228490,1544,1544,1544,1544
68988227,1000,1000,1000,1000,116328450,1544,1544,1544,1544
68990726,1000,1000,1000,1000,116428410,1544,1544,1544,1544
68993225,1000,1000,1000,1000,116528370,1544,1543,1544,1544
68995724,1000,1000,1000,1000,116628330,1544,1544,1544,1544
68998223,1000,1000,1000,1000,116728290,1544,1544,1544,1544
69000722,1000,1000,1000,1000,116828250,1544,1545,1545,1545
69003221,1000,1000,1000,1000,116928210,1544,1544,1544,1544
69005720,1000,1000,1000,1000,117028170,1544,1544,1544,1543
69008219,1000,1000,1000,1000,117128963,1543,1543,1543,1543
69010718,1000,1000,1000,1000,117228923,1544,1544,1544,1544
69013217,1000,1000,1000,1000,117328883,1544,1543,1543,1544
69015716,1000,1000,1000,1000,117428843,1544,1544,1544,1544
69018215,1000,1000,1000,1000,117528803,1544,1544,1544,1544
69020714,1000,1000,1000,1000,117628763,1544,1544,1544,1544
69023213,1000,1000,1000,1000,117728723,1544,1544,1544,1544
69025712,1000,1000,1000,1000,117828683,1543,1544,1544,1544
69028211,1000,1000,1000,1000,117928643,1544,1544,1544,1544
69030710,1000,1000,1000,1000,118028603,1544,1544,1544,1544
69033209,1000,1000,1000,1000,118128563,1545,1545,1545,1545
69035708,1000,1000,1000,1000,118228523,1392,1391,1392,1392
69038207,1000,1000,1000,1000,118328483,1263,1262,1262,1263
69040706,1000,1000,1000,1000,118428443,1216,1215,1216,1216
69043205,1000,1000,1000,1000,118528403,1197,1194,1195,1196
69045704,1000,1000,1000,1000,118628363,1157,1155,1156,1156
69048203,1000,1000,1000,1000,118728323,1153,1150,1151,1152
69050702,1000,1000,1000,1000,118828283,1152,1150,1152,1151
69053201,1000,1000,1000,1000,118928243,1191,1150,1151,1192
69055700,1000,1000,1000,1000,119028203,1179,1150,1152,1179
69058199,1000,1000,1000,1000,119128163,1175,1150,1152,1175
69060698,1000,1000,1000,1000,119228956,1176,1150,1152,1176
69063197,1000,1000,1000,1000,119328916,1179,1150,1152,1178
69065696,1000,1000,1000,1000,119428876,1181,1150,1152,1180
69068195,1000,1000,1000,1000,119528836,1183,1150,1152,1183
69070694,1000,1000,1000,1000,119628796,1185,1150,1152,1184
69073193,1000,1000,1000,1000,119728756,1168,1150,1152,1168
69075692,1000,1000,1000,1000,119828716,1170,1150,1152,1170
69078191,1000,1000,1000,1000,119928676,1171,1150,1152,1171
69080690,1000,1000,1000,1000,120028636,1172,1150,1152,1172
69083189,1000,1000,1000,1000,120128596,1172,1150,1152,1172
69085688,1000,1000,1000,1000,120228556,1000,1000,1000,1000
69088187,1000,1000,1000,1000,120328516,1000,1000,1000,1000
69090686,1000,1000,1000,1000,120428476,1000,1000,1000,1000
69093185,1000,1000,1000,1000,120528436,1000,1000,1000,1000
69095684,1000,1000,1000,1000,120628396,1000,1000,1000,1000
69098183,1000,1000,1000,1000,120728356,1000,1000,1000,1000
69100682,1000,1000,1000,1000,120828316,1000,1000,1000,1000
69103181,1000,1000,1000,1000,120928276,1000,1000,1000,1000
69105680,1000,1000,1000,1000,121028236,1000,1000,1000,1000
69108179,1000,1000,1000,1000,121128196,1000,1000,1000,1000
69110678,1000,1000,1000,1000,121228156,1000,1000,1000,1000
69113177,1000,1000,1000,1000,121328949,1000,1000,1000,1000
69115676,1000,1000,1000,1000,121428909,1000,1000,1000,1000
69118175,1000,1000,1000,1000,121528869,1000,1000,1000,1000
69120674,1000,1000,1000,1000,121628829,1000,1000,1000,1000
69123173,1000,1000,1000,1000,121728789,1000,1000,1000,1000
69125672,1000,1000,1000,1000,121828749,1000,1000,1000,1000
69128171,1000,1000,1000,1000,121928709,1000,1000,1000,1000
69130670,1000,1000,1000,1000,122028669,1000,1000,1000,1000
69133169,1000,1000,1000,1000,122128629,1000,1000,1000,1000
69135668,1000,1000,1000,1000,122228589,1000,1000,1000,1000
69138167,1000,1000,1000,1000,122328549,1000,1000,1000,1000
69140666,1000,1000,1000,1000,122428509,1000,1000,1000,1000
69143165,1000,1000,1000,1000,122528469,1000,1000,1000,1000
69145664,1000,1000,1000,1000,122628429,1000,1000,1000,1000
69148163,1000,1000,1000,1000,122728389,1000,1000,1000,1000
69150662,1000,1000,1000,1000,122828349,1000,1000,1000,1000
69153161,1000,1000,1000,1000,122928309,1000,1000,1000,1000
69155660,1000,1000,1000,1000,123028269,1000,1000,1000,1000
69158159,1000,1000,1000,1000,123128229,1000,1000,1000,1000
69160658,1000,1000,1000,1000,123228189,1000,1000,1000,1000
69163157,1000,1000,1000,1000,123328982,1000,1000,1000,1000
69165656,1000,1000,1000,1000,123428942,1000,1000,1000,1000
69168155,1000,1000,1000,1000,123528902,1000,1000,1000,1000
69170654,1000,1000,1000,1000,123628862,1000,1000,1000,1000
69173986,1000,1000,1000,1000,123728822,1000,1000,1000,1000
69176485,1000,1000,1000,1000,123828782,1000,1000,1000,1000
69178984,1000,1000,1000,1000,123928742,1000,1000,1000,1000
69181483,1000,1000,1000,1000,124028702,1000,1000,1000,1000
69183982,1000,1000,1000,1000,124128662,1000,1000,1000,1000
69186481,1000,1000,1000,1000,124228622,1000,1000,1000,1000
69188980,1000,1000,1000,1000,124328582,1000,1000,1000,1000
69191479,1000,1000,1000,1000,124428542,1000,1000,1000,1000
69193978,1000,1000,1000,1000,124528502,1000,1000,1000,1000
69196477,1000,1000,1000,1000,124628462,1000,1000,1000,1000
69198976,1000,1000,1000,1000,124728422,1000,1000,1000,1000
69201475,1000,1000,1000,1000,124828382,1000,1000,1000,1000
69203974,1000,1000,1000,1000,124928342,1000,1000,1000,1000
69206473,1000,1000,1000,1000,125028302,1000,1000,1000,1000
69208972,1000,1000,1000,1000,125128262,1000,1000,1000,1000
69211471,1000,1000,1000,1000,125228222,1000,1000,1000,1000
69213970,1000,1000,1000,1000,125328182,1000,1000,1000,1000
69216469,1000,1000,1000,1000,125428975,1000,1000,1000,1000
69218968,1000,1000,1000,1000,125528935,1000,1000,1000,1000
69221467,1000,1000,1000,1000,125628895,1000,1000,1000,1000
69223966,1000,1000,1000,1000,125728855,1000,1000,1000,1000
69226465,1000,1000,1000,1000,125828815,1000,1000,1000,1000
69228964,1000,1000,1000,1000,125928775,1000,1000,1000,1000
69231463,1000,1000,1000,1000,126028735,1000,1000,1000,1000
69233962,1000,1000,1000,1000,126128695,1000,1000,1000,1000
69236461,1000,1000,1000,1000,126228655,1000,1000,1000,1000
69238960,1000,1000,1000,1000,126328615,1000,1000,1000,1000
69241459,1000,1000,1000,1000,126428575,1000,1000,1000,1000
69243958,1000,1000,1000,1000,126528535,1000,1000,1000,1000
69246457,1000,1000,1000,1000,126628495,1000,1000,1000,1000
69248956,1000,1000,1000,1000,126728455,1000,1000,1000,1000
69251455,1000,1000,1000,1000,126828415,1000,1000,1000,1000
69253954,1000,1000,1000,1000,126928375,1000,1000,1000,1000
69256453,1000,1000,1000,1000,127028335,1000,1000,1000,1000
69258952,1000,1000,1000,1000,127128295,1000,1000,1000,1000
69261451,1000,1000,1000,1000,127228255,1000,1000,1000,1000
69263950,1000,1000,1000,1000,127328215,1000,1000,1000,1000
69266449,1000,1000,1000,1000,127428175,1000,1000,1000,1000
69268948,1000,1000,1000,1000,127528968,1000,1000,1000,1000
69271447,1000,1000,1000,1000,127628928,1000,1000,1000,1000
69273946,1000,1000,1000,1000,127728888,1000,1000,1000,1000
69276445,1000,1000,1000,1000,127828848,1000,1000,1000,1000
69278944,1000,1000,1000,1000,127928808,1000,1000,1000,1000
69281443,1000,1000,1000,1000,128028768,1000,1000,1000,1000
69283942,1000,1000,1000,1000,128128728,1000,1000,1000,1000
69286441,1000,1000,1000,1000,128228688,1000,1000,1000,1000
69288940,1000,1000,1000,1000,128328648,1000,1000,1000,1000
69291439,1000,1000,1000,1000,128428608,1000,1000,1000,1000
69293938,1000,1000,1000,1000,128528568,1000,1000,1000,1000
69296437,1000,1000,1000,1000,128628528,1000,1000,1000,1000
69298936,1000,1000,1000,1000,128728488,1000,1000,1000,1000
69301435,1000,1000,1000,1000,128828448,1000,1000,1000,1000
69303934,1000,1000,1000,1000,128928408,1000,1000,1000,1000
69306433,1000,1000,1000,1000,129028368,1000,1000,1000,1000
69308932,1000,1000,1000,1000,129128328,1000,1000,1000,1000
69311431,1000,1000,1000,1000,129228288,1000,1000,1000,1000
69313930,1000,1000,1000,1000,129328248,1000,1000,1000,1000
69316429,1000,1000,1000,1000,129428208,1000,1000,1000,1000
69318928,1000,1000,1000,1000,129528168,1000,1000,1000,1000
69321427,1000,1000,1000,1000,129628961,1000,1000,1000,1000
69323926,1000,1000,1000,1000,129728921,1000,1000,1000,1000
69326425,1000,1000,1000,1000,129828881,1000,1000,1000,1000
69328924,1000,1000,1000,1000,129928841,1000,1000,1000,1000
69331423,1000,1000,1000,1000,130028801,1000,1000,1000,1000
69333922,1000,1000,1000,1000,130128761,1000,1000,1000,1000
69336421,1000,1000,1000,1000,130228721,1000,1000,1000,1000
69338920,1000,1000,1000,1000,130328681,1000,1000,1000,1000
69341419,1000,1000,1000,1000,130428641,1000,1000,1000,1000
69343918,1000,1000,1000,1000,130528601,1000,1000,1000,1000
69346417,1000,1000,1000,1000,130628561,1000,1000,1000,1000
69348916,1000,1000,1000,1000,130728521,1000,1000,1000,1000
69351415,1000,1000,1000,1000,130828481,1000,1000,1000,1000
69353914,1000,1000,1000,1000,130928441,1000,1000,1000,1000
69356413,1000,1000,1000,1000,131028401,1000,1000,1000,1000
69358912,1000,1000,1000,1000,131128361,1000,1000,1000,1000
69361411,1000,1000,1000,1000,131228321,1000,1000,1000,1000
69363910,1000,1000,1000,1000,131328281,1000,1000,1000,1000
69366409,1000,1000,1000,1000,131428241,1000,1000,1000,1000
69368908,1000,1000,1000,1000,131528201,1000,1000,1000,1000
69371407,1000,1000,1000,1000,131628161,1000,1000,1000,1000
69373906,1000,1000,1000,1000,131728954,1000,1000,1000,1000
69376405,1000,1000,1000,1000,131828914,1000,1000,1000,1000
69378904,1000,1000,1000,1000,131928874,1000,1000,1000,1000
69381403,1000,1000,1000,1000,132028834,1000,1000,1000,1000
69383902,1000,1000,1000,1000,132128794,1000,1000,1000,1000
69386401,1000,1000,1000,1000,132228754,1000,1000,1000,1000
69388900,1000,1000,1000,1000,132328714,1000,1000,1000,1000
69391399,1000,1000,1000,1000,132428674,1000,1000,1000,1000
69393898,1000,1000,1000,1000,132528634,1000,1000,1000,1000
69396397,1000,1000,1000,1000,132628594,1000,1000,1000,1000
69398896,1000,1000,1000,1000,132728554,1000,1000,1000,1000
69401395,1000,1000,1000,1000,132828514,1000,1000,1000,1000
69403894,1000,1000,1000,1000,132928474,1000,1000,1000,1000
69406393,1000,1000,1000,1000,133028434,1000,1000,1000,1000
69408892,1000,1000,1000,1000,133128394,1000,1000,1000,1000
69411391,1000,1000,1000,1000,133228354,1000,1000,1000,1000
69413890,1000,1000,1000,1000,133328314,1000,1000,1000,1000
69416389,1000,1000,1000,1000,133428274,1000,1000,1000,1000
69418888,1000,1000,1000,1000,133528234,1000,1000,1000,1000
69421387,1000,1000,1000,1000,133628194,1000,1000,1000,1000
69423886,1000,1000,1000,1000,133728154,1000,1000,1000,1000
69426385,1000,1000,1000,1000,133828947,1000,1000,1000,1000
69428884,1000,1000,1000,1000,133928907,1000,1000,1000,1000
69431383,1000,1000,1000,1000,134028867,1000,1000,1000,1000
69433882,1000,1000,1000,1000,134128827,1000,1000,1000,1000
69436381,1000,1000,1000,1000,134228787,1000,1000,1000,1000
69438880,1000,1000,1000,1000,134328747,1000,1000,1000,1000
69441379,1000,1000,1000,1000,134428707,1000,1000,1000,1000
69443878,1000,1000,1000,1000,134528667,1000,1000,1000,1000
69446377,1000,1000,1000,1000,134628627,1000,1000,1000,1000
69448876,1000,1000,1000,1000,134728587,1000,1000,1000,1000
69451375,1000,1000,1000,1000,134828547,1000,1000,1000,1000
69453874,1000,1000,1000,1000,134928507,1000,1000,1000,1000
69456373,1000,1000,1000,1000,135028467,1000,1000,1000,1000
69458872,1000,1000,1000,1000,135128427,1000,1000,1000,1000
69461371,1000,1000,1000,1000,,,,,
69463870,1000,1000,1000,1000,,,,,
69466369,1000,1000,1000,1000,,,,,
69468868,1000,1000,1000,1000,,,,,
69471367,1000,1000,1000,1000,,,,,
69473866,1000,1000,1000,1000,,,,,
69476365,1000,1000,1000,1000,,,,,
69478864,1000,1000,1000,1000,,,,,
69481363,1000,1000,1000,1000,,,,,
69483862,1000,1000,1000,1000,,,,,
69486361,1000,1000,1000,1000,,,,,
69488860,1000,1000,1000,1000,,,,,
69491359,1000,1000,1000,1000,,,,,
69493858,1000,1000,1000,1000,,,,,
69496357,1000,1000,1000,1000,,,,,
69498856,1000,1000,1000,1000,,,,,
69501355,1000,1000,1000,1000,,,,,
69503854,1000,1000,1000,1000,,,,,
69506353,1000,1000,1000,1000,,,,,
69508852,1000,1000,1000,1000,,,,,
69511351,1000,1000,1000,1000,,,,,
69513850,1000,1000,1000,1000,,,,,
69516349,1000,1000,1000,1000,,,,,
69518848,1000,1000,1000,1000,,,,,
69521347,1000,1000,1000,1000,,,,,
69523846,1000,1000,1000,1000,,,,,
69526345,1000,1000,1000,1000,,,,,
69528844,1000,1000,1000,1000,,,,,
69531343,1000,1000,1000,1000,,,,,
69533842,1000,1000,1000,1000,,,,,
69536341,1000,1000,1000,1000,,,,,
69538840,1000,1000,1000,1000,,,,,
69541339,1000,1000,1000,1000,,,,,
69543838,1000,1000,1000,1000,,,,,
69546337,1000,1000,1000,1000,,,,,
69548836,1000,1000,1000,1000,,,,,
69551335,1000,1000,1000,1000,,,,,
69553834,1000,1000,1000,1000,,,,,
69556333,1000,1000,1000,1000,,,,,
69558832,1000,1000,1000,1000,,,,,
69561331,1000,1000,1000,1000,,,,,
69563830,1000,1000,1000,1000,,,,,
69566329,1000,1000,1000,1000,,,,,
69568828,1000,1000,1000,1000,,,,,
69571327,1000,1000,1000,1000,,,,,
69573826,1000,1000,1000,1000,,,,,
69576325,1000,1000,1000,1000,,,,,
69578824,1000,1000,1000,1000,,,,,
69581323,1000,1000,1000,1000,,,,,
69583822,1000,1000,1000,1000,,,,,
69586321,1000,1000,1000,1000,,,,,
69588820,1000,1000,1000,1000,,,,,
69591319,1000,1000,1000,1000,,,,,
69593818,1000,1000,1000,1000,,,,,
69596317,1000,1000,1000,1000,,,,,
69598816,1000,1000,1000,1000,,,,,
69601315,1000,1000,1000,1000,,,,,
69603814,1000,1000,1000,1000,,,,,
69606313,1000,1000,1000,1000,,,,,
69608812,1000,1000,1000,1000,,,,,
69611311,1000,1000,1000,1000,,,,,
69613810,1000,1000,1000,1000,,,,,
69616309,1000,1000,1000,1000,,,,,
69618808,1000,1000,1000,1000,,,,,
69621307,1000,1000,1000,1000,,,,,
69623806,1000,1000,1000,1000,,,,,
69626305,1000,1000,1000,1000,,,,,
69628804,1000,1000,1000,1000,,,,,
69631303,1000,1000,1000,1000,,,,,
69633802,1000,1000,1000,1000,,,,,
69636301,1000,1000,1000,1000,,,,,
69638800,1000,1000,1000,1000,,,,,
69641299,1000,1000,1000,1000,,,,,
69643798,1000,1000,1000,1000,,,,,
69646297,1000,1000,1000,1000,,,,,
69648796,1000,1000,1000,1000,,,,,
69651295,1000,1000,1000,1000,,,,,
69653794,1000,1000,1000,1000,,,,,
69656293,1000,1000,1000,1000,,,,,
69658792,1000,1000,1000,1000,,,,,
69661291,1000,1000,1000,1000,,,,,
69663790,1000,1000,1000,1000,,,,,
69666289,1000,1000,1000,1000,,,,,
69668788,1000,1000,1000,1000,,,,,
69671287,1000,1000,1000,1000,,,,,
69673786,1000,1000,1000,1000,,,,,
69676285,1000,1000,1000,1000,,,,,
69678784,1000,1000,1000,1000,,,,,
69681283,1000,1000,1000,1000,,,,,
69683782,1000,1000,1000,1000,,,,,
69686281,1000,1000,1000,1000,,,,,
69688780,1000,1000,1000,1000,,,,,
69691279,1000,1000,1000,1000,,,,,
69693778,1000,1000,1000,1000,,,,,
69696277,1000,1000,1000,1000,,,,,
69698776,1000,1000,1000,1000,,,,,
69701275,1000,1000,1000,1000,,,,,
69703774,1000,1000,1000,1000,,,,,
69706273,1000,1000,1000,1000,,,,,
69708772,1000,1000,1000,1000,,,,,
69711271,1000,1000,1000,1000,,,,,
69713770,1000,1000,1000,1000,,,,,
69716269,1000,1000,1000,1000,,,,,
69718768,1000,1000,1000,1000,,,,,
69721267,1000,1000,1000,1000,,,,,
69723766,1000,1000,1000,1000,,,,,
69726265,1000,1000,1000,1000,,,,,
69728764,1000,1000,1000,1000,,,,,
69731263,1000,1000,1000,1000,,,,,
69733762,1000,1000,1000,1000,,,,,
69736261,1000,1000,1000,1000,,,,,
69738760,1000,1000,1000,1000,,,,,
69741259,1000,1000,1000,1000,,,,,
69743758,1000,1000,1000,1000,,,,,
69746257,1000,1000,1000,1000,,,,,
69748756,1000,1000,1000,1000,,,,,
69751255,1000,1000,1000,1000,,,,,
69753754,1000,1000,1000,1000,,,,,
69756253,1000,1000,1000,1000,,,,,
69758752,1000,1000,1000,1000,,,,,
69761251,1000,1000,1000,1000,,,,,
69763750,1000,1000,1000,1000,,,,,
69766249,1000,1000,1000,1000,,,,,
69768748,1000,1000,1000,1000,,,,,
69771247,1000,1000,1000,1000,,,,,
69773746,1000,1000,1000,1000,,,,,
69776245,1000,1000,1000,1000,,,,,
69778744,1000,1000,1000,1000,,,,,
69781243,1000,1000,1000,1000,,,,,
69783742,1001,1001,1001,1001,,,,,
69786241,1002,1002,1002,1002,,,,,
69788740,1003,1003,1003,1003,,,,,
69791239,1003,1003,1003,1003,,,,,
69793738,1004,1004,1004,1004,,,,,
69796237,1005,1005,1005,1005,,,,,
69798736,1006,1006,1006,1006,,,,,
69801235,1006,1006,1006,1006,,,,,
69803734,1007,1007,1007,1007,,,,,
69806233,1008,1008,1008,1008,,,,,
69808732,1009,1009,1009,1009,,,,,
69811231,1009,1009,1009,1009,,,,,
69813730,1010,1010,1010,1010,,,,,
69816229,1011,1011,1011,1011,,,,,
69818728,1012,1012,1012,1012,,,,,
69821227,1012,1012,1012,1012,,,,,
69823726,1013,1013,1013,1013,,,,,
69826225,1014,1014,1014,1014,,,,,
69828724,1015,1015,1015,1015,,,,,
69831223,1015,1015,1015,1015,,,,,
69833722,1016,1016,1016,1016,,,,,
69836221,1017,1017,1017,1017,,,,,
69838720,1018,1018,1018,1018,,,,,
69841219,1018,1018,1018,1018,,,,,
69843718,1019,1019,1019,1019,,,,,
69846217,1020,1020,1020,1020,,,,,
69848716,1021,1021,1021,1021,,,,,
69851215,1021,1021,1021,1021,,,,,
69853714,1022,1022,1022,1022,,,,,
69856213,1023,1023,1023,1023,,,,,
69858712,1024,1024,1024,1024,,,,,
69861211,1024,1024,1024,1024,,,,,
69863710,1025,1025,1025,1025,,,,,
69866209,1026,1026,1026,1026,,,,,
69868708,1027,1027,1027,1027,,,,,
69871207,1027,1027,1027,1027,,,,,
69873706,1028,1028,1028,1028,,,,,
69876205,1029,1029,1029,1029,,,,,
69878704,1030,1030,1030,1030,,,,,
69881203,1030,1030,1030,1030,,,,,
69883702,1031,1031,1031,1031,,,,,
69886201,1032,1032,1032,1032,,,,,
69888700,1033,1033,1033,1033,,,,,
69891199,1033,1033,1033,1033,,,,,
69893698,1034,1034,1034,1034,,,,,
69896197,1035,1035,1035,1035,,,,,
69898696,1036,1036,1036,1036,,,,,
69901195,1036,1036,1036,1036,,,,,
69903694,1037,1037,1037,1037,,,,,
69906193,1038,1038,1038,1038,,,,,
69908692,1039,1039,1039,1039,,,,,
69911191,1039,1039,1039,1039,,,,,
69913690,1040,1040,1040,1040,,,,,
69916189,1041,1041,1041,1041,,,,,
69918688,1042,1042,1042,1042,,,,,
69921187,1042,1042,1042,1042,,,,,
69923686,1043,1043,1043,1043,,,,,
69926185,1044,1044,1044,1044,,,,,
69928684,1045,1045,1045,1045,,,,,
69931183,1045,1045,1045,1045,,,,,
69933682,1046,1046,1046,1046,,,,,
69936181,1047,1047,1047,1047,,,,,
69938680,1048,1048,1048,1048,,,,,
69941179,1048,1048,1048,1048,,,,,
69943678,1049,1049,1049,1049,,,,,
69946177,1050,1050,1050,1050,,,,,
69948676,1051,1051,1051,1051,,,,,
69951175,1051,1051,1051,1051,,,,,
69953674,1052,1052,1052,1052,,,,,
69956173,1053,1053,1053,1053,,,,,
69958672,1054,1054,1054,1054,,,,,
69961171,1054,1054,1054,1054,,,,,
69963670,1055,1055,1055,1055,,,,,
69966169,1056,1056,1056,1056,,,,,
69968668,1057,1057,1057,1057,,,,,
69971167,1057,1057,1057,1057,,,,,
69973666,1058,1058,1058,1058,,,,,
69976165,1059,1059,1059,1059,,,,,
69978664,1060,1060,1060,1060,,,,,
69981163,1060,1060,1060,1060,,,,,
69983662,1061,1061,1061,1061,,,,,
69986161,1062,1062,1062,1062,,,,,
69988660,1063,1063,1063,1063,,,,,
69991159,1063,1063,1063,1063,,,,,
69993658,1064,1064,1064,1064,,,,,
69996157,1065,1065,1065,1065,,,,,
69998656,1066,1066,1066,1066,,,,,
70001155,1066,1066,1066,1066,,,,,
70003654,1067,1067,1067,1067,,,,,
70006153,1068,1068,1068,1068,,,,,
70008652,1069,1069,1069,1069,,,,,
70011151,1069,1069,1069,1069,,,,,
70013650,1070,1070,1070,1070,,,,,
70016149,1071,1071,1071,1071,,,,,
70018648,1072,1072,1072,1072,,,,,
70021147,1072,1072,1072,1072,,,,,
70023646,1073,1073,1073,1073,,,,,
70026145,1074,1074,1074,1074,,,,,
70028644,1075,1075,1075,1075,,,,,
70031143,1075,1075,1075,1075,,,,,
70033642,1076,1076,1076,1076,,,,,
70036141,1077,1077,1077,1077,,,,,
70038640,1078,1078,1078,1078,,,,,
70041139,1078,1078,1078,1078,,,,,
70043638,1079,1079,1079,1079,,,,,
70046137,1080,1080,1080,1080,,,,,
70048636,1081,1081,1081,1081,,,,,
70051135,1081,1081,1081,1081,,,,,
70053634,1082,1082,1082,1082,,,,,
70056133,1083,1083,1083,1083,,,,,
70058632,1084,1084,1084,1084,,,,,
70061131,1084,1084,1084,1084,,,,,
70063630,1085,1085,1085,1085,,,,,
70066129,1086,1086,1086,1086,,,,,
70068628,1087,1087,1087,1087,,,,,
70071127,1087,1087,1087,1087,,,,,
70073626,1088,1088,1088,1088,,,,,
70076125,1089,1089,1089,1089,,,,,
70078624,1090,1090,1090,1090,,,,,
70081123,1090,1090,1090,1090,,,,,
70083622,1091,1091,1091,1091,,,,,
70086121,1092,1092,1092,1092,,,,,
70088620,1093,1093,1093,1093,,,,,
70091119,1093,1093,1093,1093,,,,,
70093618,1094,1094,1094,1094,,,,,
70096117,1095,1095,1095,1095,,,,,
70098616,1096,1096,1096,1096,,,,,
70101115,1096,1096,1096,1096,,,,,
70103614,1097,1097,1097,1097,,,,,
70106113,1098,1098,1098,1098,,,,,
70108612,1099,1099,1099,1099,,,,,
70111111,1099,1099,1099,1099,,,,,
70113610,1100,1100,1100,1100,,,,,
70116109,1101,1101,1101,1101,,,,,
70118608,1101,1101,1101,1101,,,,,
70121107,1102,1102,1102,1102,,,,,
70123606,1103,1103,1103,1103,,,,,
70126105,1104,1104,1104,1104,,,,,
70128604,1104,1104,1104,1104,,,,,
70131103,1105,1105,1105,1105,,,,,
70133602,1106,1106,1106,1106,,,,,
70136101,1107,1107,1107,1107,,,,,
70138600,1107,1107,1107,1107,,,,,
70141099,1108,1108,1108,1108,,,,,
70143598,1109,1109,1109,1109,,,,,
70146097,1110,1110,1110,1110,,,,,
70148596,1110,1110,1110,1110,,,,,
70151095,1111,1111,1111,1111,,,,,
70153594,1112,1112,1112,1112,,,,,
70156093,1113,1113,1113,1113,,,,,
70158592,1113,1113,1113,1113,,,,,
70161091,1114,1114,1114,1114,,,,,
70163590,1115,1115,1115,1115,,,,,
70166089,1116,1116,1116,1116,,,,,
70168588,1116,1116,1116,1116,,,,,
70171087,1117,1117,1117,1117,,,,,
70173586,1118,1118,1118,1118,,,,,
70176085,1119,1119,1119,1119,,,,,
70178584,1119,1119,1119,1119,,,,,
70181083,1120,1120,1120,1120,,,,,
70183582,1121,1121,1121,1121,,,,,
70186081,1122,1122,1122,1122,,,,,
70188580,1122,1122,1122,1122,,,,,
70191079,1123,1123,1123,1123,,,,,
70193578,1124,1124,1124,1124,,,,,
70196077,1125,1125,1125,1125,,,,,
70198576,1125,1125,1125,1125,,,,,
70201075,1126,1126,1126,1126,,,,,
70203574,1127,1127,1127,1127,,,,,
70206073,1128,1128,1128,1128,,,,,
70208572,1128,1128,1128,1128,,,,,
70211071,1129,1129,1129,1129,,,,,
70213570,1130,1130,1130,1130,,,,,
70216069,1131,1131,1131,1131,,,,,
70218568,1131,1131,1131,1131,,,,,
70221067,1132,1132,1132,1132,,,,,
70223566,1133,1133,1133,1133,,,,,
70226065,1134,1134,1134,1134,,,,,
70228564,1134,1134,1134,1134,,,,,
70231063,1135,1135,1135,1135,,,,,
70233562,1136,1136,1136,1136,,,,,
70236061,1137,1137,1137,1137,,,,,
70238560,1137,1137,1137,1137,,,,,
70241059,1138,1138,1138,1138,,,,,
70243558,1139,1139,1139,1139,,,,,
70246057,1140,1140,1140,1140,,,,,
70248556,1140,1140,1140,1140,,,,,
70251055,1141,1141,1141,1141,,,,,
70253554,1142,1142,1142,1142,,,,,
70256053,1143,1143,1143,1143,,,,,
70258552,1143,1143,1143,1143,,,,,
70261051,1144,1144,1144,1144,,,,,
70263550,1145,1145,1145,1145,,,,,
70266049,1146,1146,1146,1146,,,,,
70268548,1146,1146,1146,1146,,,,,
70271047,1147,1147,1147,1147,,,,,
70273546,1148,1148,1148,1148,,,,,
70276045,1149,1149,1149,1149,,,,,
70278544,1149,1149,1149,1149,,,,,
70281043,1150,1150,1150,1150,,,,,
70283542,1163,1152,1153,1163,,,,,
70286041,1171,1160,1161,1171,,,,,
70288540,1179,1168,1169,1179,,,,,
70291039,1186,1176,1177,1187,,,,,
70293538,1194,1183,1184,1195,,,,,
70296037,1201,1191,1192,1202,,,,,
70298536,1209,1198,1199,1209,,,,,
70301035,1216,1206,1206,1216,,,,,
70303534,1223,1213,1214,1224,,,,,
70306033,1230,1220,1221,1230,,,,,
70308532,1237,1227,1228,1237,,,,,
70311031,1244,1234,1235,1244,,,,,
70313530,1250,1241,1241,1251,,,,,
70316029,1257,1247,1248,1257,,,,,
70318528,1263,1254,1255,1264,,,,,
70321027,1270,1260,1261,1270,,,,,
70323526,1276,1267,1268,1277,,,,,
70326025,1283,1273,1274,1283,,,,,
70328524,1289,1279,1280,1289,,,,,
70331023,1295,1286,1286,1295,,,,,
70333522,1301,1292,1293,1301,,,,,
70336021,1307,1298,1299,1307,,,,,
70338520,1313,1304,1305,1313,,,,,
70341019,1319,1310,1311,1319,,,,,
70343518,1325,1316,1316,1325,,,,,
70346017,1330,1322,1322,1331,,,,,
70348516,1336,1327,1328,1336,,,,,
70351015,1342,1333,1334,1342,,,,,
70353514,1347,1339,1339,1348,,,,,
70356013,1353,1344,1345,1353,,,,,
70358512,1358,1350,1351,1359,,,,,
70361011,1364,1355,1356,1364,,,,,
70363510,1369,1361,1361,1369,,,,,
70366009,1374,1366,1367,1375,,,,,
70368508,1380,1372,1372,1380,,,,,
70371007,1385,1377,1378,1385,,,,,
70373506,1390,1382,1383,1390,,,,,
70376005,1395,1387,1388,1396,,,,,
70378504,1400,1393,1393,1401,,,,,
70381003,1405,1398,1398,1406,,,,,
70383502,1411,1403,1403,1411,,,,,
70386001,1416,1408,1408,1416,,,,,
70388500,1420,1413,1413,1421,,,,,
70390999,1425,1418,1418,1426,,,,,
70393498,1430,1423,1423,1431,,,,,
70395997,1435,1428,1428,1436,,,,,
70398496,1440,1433,1433,1440,,,,,
70400995,1445,1437,1438,1445,,,,,
70403494,1450,1442,1443,1450,,,,,
70405993,1454,1447,1448,1455,,,,,
70408492,1459,1452,1452,1459,,,,,
70410991,1464,1456,1457,1464,,,,,
70413490,1468,1461,1462,1469,,,,,
70415989,1473,1466,1466,1473,,,,,
70418488,1477,1470,1471,1478,,,,,
70420987,1482,1475,1475,1482,,,,,
70423486,1487,1480,1480,1487,,,,,
70425985,1491,1484,1485,1491,,,,,
70428484,1496,1489,1489,1496,,,,,
70430983,1500,1493,1494,1500,,,,,
70433482,1504,1497,1498,1505,,,,,
70435981,1509,1502,1502,1509,,,,,
70438480,1513,1506,1507,1514,,,,,
70440979,1517,1511,1511,1518,,,,,
70443478,1522,1515,1515,1522,,,,,
70445977,1526,1519,1520,1526,,,,,
70448476,1530,1524,1524,1531,,,,,
70450975,1535,1528,1528,1535,,,,,
70453474,1539,1532,1533,1539,,,,,
70455973,1543,1536,1537,1543,,,,,
70458472,1547,1540,1541,1548,,,,,
70460971,1551,1545,1545,1552,,,,,
70463470,1556,1549,1549,1556,,,,,
70465969,1560,1553,1553,1560,,,,,
70468468,1564,1557,1558,1564,,,,,
70470967,1568,1561,1562,1568,,,,,
70473466,1572,1565,1566,1572,,,,,
70475965,1576,1569,1570,1576,,,,,
70478464,1580,1573,1574,1580,,,,,
70480963,1584,1577,1578,1584,,,,,
70483462,1588,1581,1582,1588,,,,,
70485961,1592,1585,1586,1592,,,,,
70488460,1596,1589,1590,1596,,,,,
70490959,1600,1593,1594,1600,,,,,
70493458,1604,1597,1598,1604,,,,,
70495957,1608,1601,1601,1608,,,,,
70498456,1611,1605,1605,1612,,,,,
70500955,1615,1609,1609,1616,,,,,
70503454,1619,1612,1613,1619,,,,,
70505953,1623,1616,1617,1623,,,,,
70508452,1627,1620,1621,1627,,,,,
70510951,1631,1624,1624,1631,,,,,
70513450,1634,1628,1628,1635,,,,,
70515949,1638,1631,1632,1638,,,,,
70518448,1642,1635,1636,1642,,,,,
70520947,1646,1639,1640,1646,,,,,
70523446,1649,1643,1643,1649,,,,,
70525945,1653,1646,1647,1653,,,,,
70528444,1657,1650,1651,1657,,,,,
70530943,1660,1654,1654,1660,,,,,
70533442,1664,1657,1658,1664,,,,,
70535941,1668,1661,1662,1668,,,,,
70538440,1671,1665,1665,1671,,,,,
70540939,1675,1668,1669,1675,,,,,
70543438,1678,1672,1672,1678,,,,,
70545937,1682,1675,1676,1682,,,,,
70548436,1685,1679,1680,1686,,,,,
70550935,1689,1683,1683,1689,,,,,
70553434,1693,1686,1687,1693,,,,,
70555933,1696,1690,1690,1696,,,,,
70558432,1700,1693,1694,1700,,,,,
70560931,1703,1697,1697,1703,,,,,
70563430,1707,1700,1701,1707,,,,,
70565929,1710,1704,1704,1710,,,,,
70568428,1713,1707,1708,1714,,,,,
70570927,1717,1711,1711,1717,,,,,
70573426,1720,1714,1715,1721,,,,,
70575925,1724,1717,1718,1724,,,,,
70578424,1727,1721,1721,1727,,,,,
70580923,1731,1724,1725,1731,,,,,
70583422,1734,1728,1728,1734,,,,,
70585921,1737,1731,1732,1737,,,,,
70588420,1741,1734,1735,1741,,,,,
70590919,1744,1738,1738,1744,,,,,
70593418,1747,1741,1742,1747,,,,,
70595917,1751,1744,1745,1751,,,,,
70598416,1754,1748,1748,1754,,,,,
70600915,1757,1751,1752,1757,,,,,
70603414,1761,1754,1755,1761,,,,,
70605913,1764,1758,1758,1764,,,,,
70608412,1767,1761,1761,1767,,,,,
70610911,1771,1764,1765,1771,,,,,
70613410,1774,1767,1768,1774,,,,,
70615909,1777,1771,1771,1777,,,,,
70618408,1780,1774,1774,1780,,,,,
70620907,1784,1777,1778,1784,,,,,
70623406,1787,1780,1781,1787,,,,,
70625905,1790,1783,1784,1790,,,,,
70628404,1793,1787,1787,1793,,,,,
70630903,1796,1790,1790,1797,,,,,
70633402,1800,1793,1793,1800,,,,,
70635901,1803,1796,1797,1803,,,,,
70638400,1806,1799,1800,1806,,,,,
70640899,1809,1802,1803,1809,,,,,
70643398,1812,1806,1806,1812,,,,,
70645897,1815,1809,1809,1815,,,,,
70648396,1818,1812,1812,1819,,,,,
70650895,1822,1815,1815,1822,,,,,
70653394,1825,1818,1819,1825,,,,,
70655893,1828,1821,1822,1828,,,,,
70658392,1831,1824,1825,1831,,,,,
70660891,1834,1827,1828,1834,,,,,
70663390,1837,1830,1831,1837,,,,,
70665889,1840,1833,1834,1840,,,,,
70668388,1843,1836,1837,1843,,,,,
70670887,1846,1839,1840,1846,,,,,
70673386,1849,1842,1843,1849,,,,,
70675885,1852,1845,1846,1852,,,,,
70678384,1855,1849,1849,1855,,,,,
70680883,1858,1852,1852,1858,,,,,
70683382,1861,1855,1855,1861,,,,,
70685881,1864,1858,1858,1864,,,,,
70688380,1867,1861,1861,1867,,,,,
70690879,1870,1864,1864,1870,,,,,
70693378,1873,1866,1867,1873,,,,,
70695877,1876,1869,1870,1876,,,,,
70698376,1879,1872,1873,1879,,,,,
70700875,1882,1875,1876,1882,,,,,
70703374,1885,1878,1879,1885,,,,,
70705873,1888,1881,1882,1888,,,,,
70708372,1891,1884,1885,1891,,,,,
70710871,1894,1887,1888,1894,,,,,
70713370,1897,1890,1891,1896,,,,,
70715869,1899,1893,1894,1899,,,,,
70718368,1902,1896,1897,1902,,,,,
70720867,1905,1899,1899,1905,,,,,
70723366,1908,1901,1902,1908,,,,,
70725865,1911,1904,1905,1911,,,,,
70728364,1914,1907,1908,1914,,,,,
70730863,1917,1910,1911,1916,,,,,
70733362,1920,1913,1914,1919,,,,,
70735861,1922,1916,1917,1922,,,,,
70738360,1925,1918,1920,1925,,,,,
70740859,1928,1921,1922,1928,,,,,
70743358,1931,1924,1925,1930,,,,,
70745857,1934,1927,1928,1933,,,,,
70748356,1937,1930,1931,1936,,,,,
70750855,1937,1930,1931,1936,,,,,
70753354,1936,1929,1930,1935,,,,,
70755853,1935,1928,1930,1935,,,,,
70758352,1934,1928,1929,1934,,,,,
70760851,1934,1927,1928,1933,,,,,
70763350,1933,1926,1928,1932,,,,,
70765849,1933,1926,1927,1932,,,,,
70768348,1932,1925,1926,1931,,,,,
70770847,1931,1925,1926,1931,,,,,
70773346,1931,1924,1926,1930,,,,,
70775845,1930,1924,1925,1930,,,,,
70778344,1929,1924,1925,1929,,,,,
70780843,1929,1923,1924,1928,,,,,
70783342,1928,1923,1924,1928,,,,,
70785841,1927,1922,1923,1927,,,,,
70788340,1926,1922,1923,1926,,,,,
70790839,1926,1921,1922,1925,,,,,
70793338,1925,1920,1921,1924,,,,,
70795837,1923,1919,1920,1923,,,,,
70798336,1922,1918,1919,1922,,,,,
70800835,1921,1917,1917,1921,,,,,
70803334,1919,1915,1916,1919,,,,,
70805833,1918,1914,1914,1918,,,,,
70808332,1916,1912,1913,1916,,,,,
70810831,1914,1910,1911,1914,,,,,
70813330,1912,1908,1909,1912,,,,,
70815829,1910,1906,1907,1910,,,,,
70818328,1908,1904,1905,1908,,,,,
70820827,1905,1902,1902,1905,,,,,
70823326,1903,1899,1900,1903,,,,,
70825825,1900,1897,1897,1900,,,,,
70828324,1898,1894,1895,1898,,,,,
70830823,1895,1892,1892,1895,,,,,
70833322,1892,1889,1889,1892,,,,,
70835821,1889,1886,1887,1890,,,,,
70838320,1886,1883,1884,1887,,,,,
70840819,1884,1881,1881,1884,,,,,
70843318,1881,1878,1878,1881,,,,,
70845817,1877,1875,1875,1878,,,,,
70848316,1874,1872,1872,1875,,,,,
70850815,1871,1868,1869,1872,,,,,
70853314,1868,1865,1865,1868,,,,,
70855813,1865,1862,1862,1865,,,,,
70858312,1861,1859,1859,1862,,,,,
70860811,1858,1855,1856,1858,,,,,
70863310,1854,1852,1852,1855,,,,,
70865809,1851,1849,1849,1851,,,,,
70868308,1848,1845,1845,1848,,,,,
70870807,1844,1842,1842,1845,,,,,
70873306,1841,1838,1838,1841,,,,,
70875805,1837,1835,1835,1838,,,,,
70878304,1834,1831,1832,1834,,,,,
70880803,1830,1828,1828,1831,,,,,
70883302,1827,1825,1825,1827,,,,,
70885801,1823,1821,1821,1824,,,,,
70888300,1820,1818,1818,1820,,,,,
70890799,1817,1815,1815,1817,,,,,
70893298,1813,1811,1811,1814,,,,,
70895797,1810,1808,1808,1810,,,,,
70898296,1806,1804,1804,1807,,,,,
70900795,1803,1801,1801,1803,,,,,
70903294,1799,1798,1798,1800,,,,,
70905793,1796,1794,1794,1797,,,,,
70908292,1792,1791,1791,1793,,,,,
70910791,1789,1788,1788,1790,,,,,
70913290,1786,1784,1784,1787,,,,,
70915789,1782,1781,1781,1783,,,,,
70918288,1779,1778,1778,1780,,,,,
70920787,1776,1775,1775,1777,,,,,
70923286,1773,1772,1772,1773,,,,,
70925785,1769,1768,1768,1770,,,,,
70928284,1766,1765,1765,1767,,,,,
70930783,1763,1762,1762,1764,,,,,
70933282,1760,1759,1759,1760,,,,,
70935781,1756,1756,1756,1757,,,,,
70938280,1753,1753,1753,1754,,,,,
70940779,1750,1750,1750,1751,,,,,
70943278,1747,1747,1746,1748,,,,,
70945777,1744,1744,1744,1745,,,,,
70948276,1741,1741,1741,1742,,,,,
70950775,1738,1738,1738,1739,,,,,
70953274,1735,1735,1735,1736,,,,,
70955773,1732,1732,1732,1733,,,,,
70958272,1729,1730,1729,1730,,,,,
70960771,1727,1727,1727,1728,,,,,
70963270,1724,1724,1724,1725,,,,,
70965769,1721,1722,1722,1722,,,,,
