timestamp,TimeUS,C1,C2,C3,C4,C5,C6,C7,C8,C9,C10,C11,C12,C13,C14
1683204049.20000005,42828695,1000,1000,1000,1000,0,0,0,0,0,0,0,0,0,0
1683204049.29995990,42928655,1000,1000,1000,1000,0,0,0,0,0,0,0,0,0,0
1683204049.39991999,43028615,1000,1000,1000,1000,0,0,0,0,0,0,0,0,0,0
1683204049.49988008,43128575,1000,1000,1000,1000,0,0,0,0,0,0,0,0,0,0
1683204049.59983993,43228535,1000,1000,1000,1000,0,0,0,0,0,0,0,0,0,0
1683204049.69980001,43328495,1000,1000,1000,1000,0,0,0,0,0,0,0,0,0,0
1683204049.79976010,43428455,1000,1000,1000,1000,0,0,0,0,0,0,0,0,0,0
1683204049.89971995,43528415,1000,1000,1000,1000,0,0,0,0,0,0,0,0,0,0
1683204049.99968004,43628375,1000,1000,1000,1000,0,0,0,0,0,0,0,0,0,0
1683204050.09963989,43728335,1000,1000,1000,1000,0,0,0,0,0,0,0,0,0,0
1683204050.19959998,43828295,1000,1000,1000,1000,0,0,0,0,0,0,0,0,0,0
1683204050.29956007,43928255,1000,1000,1000,1000,0,0,0,0,0,0,0,0,0,0
1683204050.39951992,44028215,1000,1000,1000,1000,0,0,0,0,0,0,0,0,0,0
1683204050.49948001,44128175,1000,1000,1000,1000,0,0,0,0,0,0,0,0,0,0
1683204050.60027289,44228968,1000,1000,1000,1000,0,0,0,0,0,0,0,0,0,0
1683204050.70023298,44328928,1000,1000,1000,1000,0,0,0,0,0,0,0,0,0,0
1683204050.80019307,44428888,1000,1000,1000,1000,0,0,0,0,0,0,0,0,0,0
1683204050.90015292,44528848,1000,1000,1000,1000,0,0,0,0,0,0,0,0,0,0
1683204051.00011301,44628808,1000,1000,1000,1000,0,0,0,0,0,0,0,0,0,0
1683204051.10007310,44728768,1000,1000,1000,1000,0,0,0,0,0,0,0,0,0,0
1683204051.20003295,44828728,1012,1012,1012,1012,0,0,0,0,0,0,0,0,0,0
1683204051.29999304,44928688,1042,1042,1042,1042,0,0,0,0,0,0,0,0,0,0
1683204051.39995289,45028648,1072,1072,1072,1072,0,0,0,0,0,0,0,0,0,0
1683204051.49991298,45128608,1102,1102,1102,1102,0,0,0,0,0,0,0,0,0,0
1683204051.59987307,45228568,1132,1132,1132,1132,0,0,0,0,0,0,0,0,0,0
1683204051.69983292,45328528,1269,1262,1262,1269,0,0,0,0,0,0,0,0,0,0
1683204051.79979300,45428488,1481,1476,1476,1481,0,0,0,0,0,0,0,0,0,0
1683204051.89975309,45528448,1644,1640,1641,1645,0,0,0,0,0,0,0,0,0,0
1683204051.99971294,45628408,1782,1778,1778,1783,0,0,0,0,0,0,0,0,0,0
1683204052.09967303,45728368,1904,1900,1900,1904,0,0,0,0,0,0,0,0,0,0
1683204052.19963288,45828328,1899,1897,1897,1900,0,0,0,0,0,0,0,0,0,0
1683204052.29959297,45928288,1771,1771,1771,1771,0,0,0,0,0,0,0,0,0,0
1683204052.39955306,46028248,1673,1670,1669,1674,0,0,0,0,0,0,0,0,0,0
1683204052.49951291,46128208,1634,1636,1631,1639,0,0,0,0,0,0,0,0,0,0
1683204052.59947300,46228168,1634,1636,1632,1639,0,0,0,0,0,0,0,0,0,0
1683204052.70026588,46328961,1639,1640,1638,1641,0,0,0,0,0,0,0,0,0,0
1683204052.80022597,46428921,1638,1639,1640,1637,0,0,0,0,0,0,0,0,0,0
1683204052.90018606,46528881,1631,1630,1634,1627,0,0,0,0,0,0,0,0,0,0
1683204053.00014591,46628841,1623,1622,1626,1619,0,0,0,0,0,0,0,0,0,0
1683204053.10010600,46728801,1618,1617,1620,1615,0,0,0,0,0,0,0,0,0,0
1683204053.20006609,46828761,1616,1615,1616,1614,0,0,0,0,0,0,0,0,0,0
1683204053.30002594,46928721,1601,1602,1603,1600,0,0,0,0,0,0,0,0,0,0
1683204053.39998603,47028681,1578,1578,1585,1571,0,0,0,0,0,0,0,0,0,0
1683204053.49994588,47128641,1565,1566,1569,1562,0,0,0,0,0,0,0,0,0,0
1683204053.59990597,47228601,1554,1555,1554,1556,0,0,0,0,0,0,0,0,0,0
1683204053.69986606,47328561,1547,1547,1543,1551,0,0,0,0,0,0,0,0,0,0
1683204053.79982591,47428521,1541,1540,1532,1549,0,0,0,0,0,0,0,0,0,0
1683204053.89978600,47528481,1535,1534,1527,1542,0,0,0,0,0,0,0,0,0,0
1683204053.99974608,47628441,1529,1528,1524,1533,0,0,0,0,0,0,0,0,0,0
1683204054.09970593,47728401,1525,1524,1523,1525,0,0,0,0,0,0,0,0,0,0
1683204054.19966602,47828361,1525,1525,1526,1524,0,0,0,0,0,0,0,0,0,0
1683204054.29962587,47928321,1526,1527,1529,1524,0,0,0,0,0,0,0,0,0,0
1683204054.39958596,48028281,1528,1529,1532,1526,0,0,0,0,0,0,0,0,0,0
1683204054.49954605,48128241,1532,1532,1535,1530,0,0,0,0,0,0,0,0,0,0
1683204054.59950590,48228201,1537,1536,1538,1535,0,0,0,0,0,0,0,0,0,0
1683204054.69946599,48328161,1540,1540,1541,1539,0,0,0,0,0,0,0,0,0,0
1683204054.80025887,48428954,1543,1543,1544,1542,0,0,0,0,0,0,0,0,0,0
1683204054.90021896,48528914,1547,1547,1547,1547,0,0,0,0,0,0,0,0,0,0
1683204055.00017905,48628874,1550,1551,1550,1551,0,0,0,0,0,0,0,0,0,0
1683204055.10013890,48728834,1553,1554,1553,1554,0,0,0,0,0,0,0,0,0,0
1683204055.20009899,48828794,1555,1554,1556,1559,0,0,0,0,0,0,0,0,0,0
1683204055.30005908,48928754,1553,1553,1561,1563,0,0,0,0,0,0,0,0,0,0
1683204055.40001893,49028714,1556,1556,1563,1565,0,0,0,0,0,0,0,0,0,0
1683204055.49997902,49128674,1559,1559,1565,1565,0,0,0,0,0,0,0,0,0,0
1683204055.59993911,49228634,1562,1562,1565,1565,0,0,0,0,0,0,0,0,0,0
1683204055.69989896,49328594,1564,1564,1565,1563,0,0,0,0,0,0,0,0,0,0
1683204055.79985905,49428554,1568,1568,1566,1565,0,0,0,0,0,0,0,0,0,0
1683204055.89981890,49528514,1569,1570,1566,1566,0,0,0,0,0,0,0,0,0,0
1683204055.99977899,49628474,1571,1571,1565,1566,0,0,0,0,0,0,0,0,0,0
1683204056.09973907,49728434,1571,1572,1566,1567,0,0,0,0,0,0,0,0,0,0
1683204056.19969893,49828394,1572,1572,1567,1567,0,0,0,0,0,0,0,0,0,0
1683204056.29965901,49928354,1574,1573,1569,1569,0,0,0,0,0,0,0,0,0,0
1683204056.39961910,50028314,1573,1573,1569,1569,0,0,0,0,0,0,0,0,0,0
1683204056.49957895,50128274,1573,1573,1570,1571,0,0,0,0,0,0,0,0,0,0
1683204056.59953904,50228234,1573,1573,1572,1572,0,0,0,0,0,0,0,0,0,0
1683204056.69949889,50328194,1574,1574,1574,1573,0,0,0,0,0,0,0,0,0,0
1683204056.79945898,50428154,1575,1575,1576,1575,0,0,0,0,0,0,0,0,0,0
1683204056.90025210,50528947,1575,1575,1577,1576,0,0,0,0,0,0,0,0,0,0
1683204057.00021195,50628907,1573,1574,1576,1576,0,0,0,0,0,0,0,0,0,0
1683204057.10017204,50728867,1576,1576,1578,1578,0,0,0,0,0,0,0,0,0,0
1683204057.20013189,50828827,1576,1576,1577,1578,0,0,0,0,0,0,0,0,0,0
1683204057.30009198,50928787,1576,1576,1577,1577,0,0,0,0,0,0,0,0,0,0
1683204057.40005207,51028747,1576,1576,1576,1577,0,0,0,0,0,0,0,0,0,0
1683204057.50001192,51128707,1576,1576,1576,1577,0,0,0,0,0,0,0,0,0,0
1683204057.59997201,51228667,1576,1576,1576,1576,0,0,0,0,0,0,0,0,0,0
1683204057.69993210,51328627,1578,1578,1577,1577,0,0,0,0,0,0,0,0,0,0
1683204057.79989195,51428587,1579,1578,1578,1577,0,0,0,0,0,0,0,0,0,0
1683204057.89985204,51528547,1579,1578,1578,1577,0,0,0,0,0,0,0,0,0,0
1683204057.99981189,51628507,1578,1577,1577,1577,0,0,0,0,0,0,0,0,0,0
1683204058.09977198,51728467,1578,1578,1577,1578,0,0,0,0,0,0,0,0,0,0
1683204058.19973207,51828427,1577,1578,1577,1578,0,0,0,0,0,0,0,0,0,0
1683204058.29969192,51928387,1578,1578,1577,1578,0,0,0,0,0,0,0,0,0,0
1683204058.39965200,52028347,1579,1578,1579,1578,0,0,0,0,0,0,0,0,0,0
1683204058.49961209,52128307,1579,1579,1579,1579,0,0,0,0,0,0,0,0,0,0
1683204058.59957194,52228267,1580,1579,1580,1579,0,0,0,0,0,0,0,0,0,0
1683204058.69953203,52328227,1579,1579,1579,1579,0,0,0,0,0,0,0,0,0,0
1683204058.79949188,52428187,1579,1579,1580,1579,0,0,0,0,0,0,0,0,0,0
1683204058.90028501,52528980,1579,1579,1579,1579,0,0,0,0,0,0,0,0,0,0
1683204059.00024509,52628940,1579,1579,1579,1579,0,0,0,0,0,0,0,0,0,0
1683204059.10020494,52728900,1579,1579,1579,1580,0,0,0,0,0,0,0,0,0,0
1683204059.20016503,52828860,1580,1580,1580,1580,0,0,0,0,0,0,0,0,0,0
1683204059.30012488,52928820,1579,1580,1580,1580,0,0,0,0,0,0,0,0,0,0
1683204059.40008497,53028780,1580,1580,1580,1580,0,0,0,0,0,0,0,0,0,0
1683204059.50004506,53128740,1580,1580,1580,1580,0,0,0,0,0,0,0,0,0,0
1683204059.60000491,53228700,1581,1580,1581,1580,0,0,0,0,0,0,0,0,0,0
1683204059.69996500,53328660,1580,1580,1580,1580,0,0,0,0,0,0,0,0,0,0
1683204059.79992509,53428620,1580,1580,1580,1580,0,0,0,0,0,0,0,0,0,0
1683204059.89988494,53528580,1580,1580,1580,1580,0,0,0,0,0,0,0,0,0,0
1683204059.99984503,53628540,1580,1580,1579,1580,0,0,0,0,0,0,0,0,0,0
1683204060.09980488,53728500,1580,1580,1580,1580,0,0,0,0,0,0,0,0,0,0
1683204060.19976497,53828460,1580,1580,1580,1580,0,0,0,0,0,0,0,0,0,0
1683204060.29972506,53928420,1580,1580,1580,1580,0,0,0,0,0,0,0,0,0,0
1683204060.39968491,54028380,1581,1581,1581,1580,0,0,0,0,0,0,0,0,0,0
1683204060.49964499,54128340,1581,1581,1581,1581,0,0,0,0,0,0,0,0,0,0
1683204060.59960508,54228300,1582,1581,1582,1581,0,0,0,0,0,0,0,0,0,0
1683204060.69956493,54328260,1581,1580,1581,1580,0,0,0,0,0,0,0,0,0,0
1683204060.79952502,54428220,1580,1580,1580,1580,0,0,0,0,0,0,0,0,0,0
1683204060.89948487,54528180,1581,1582,1581,1582,0,0,0,0,0,0,0,0,0,0
1683204061.00027800,54628973,1580,1581,1581,1581,0,0,0,0,0,0,0,0,0,0
1683204061.10023808,54728933,1580,1580,1580,1581,0,0,0,0,0,0,0,0,0,0
1683204061.20019794,54828893,1581,1581,1581,1581,0,0,0,0,0,0,0,0,0,0
1683204061.30015802,54928853,1581,1581,1582,1581,0,0,0,0,0,0,0,0,0,0
1683204061.40011787,55028813,1582,1582,1586,1578,0,0,0,0,0,0,0,0,0,0
1683204061.50007796,55128773,1581,1582,1588,1573,0,0,0,0,0,0,0,0,0,0
1683204061.60003805,55228733,1579,1582,1581,1573,0,0,0,0,0,0,0,0,0,0
1683204061.69999790,55328693,1578,1581,1573,1573,0,0,0,0,0,0,0,0,0,0
1683204061.79995799,55428653,1577,1580,1565,1571,0,0,0,0,0,0,0,0,0,0
1683204061.89991808,55528613,1576,1578,1558,1566,0,0,0,0,0,0,0,0,0,0
1683204061.99987793,55628573,1577,1578,1555,1561,0,0,0,0,0,0,0,0,0,0
1683204062.09983802,55728533,1579,1577,1554,1557,0,0,0,0,0,0,0,0,0,0
1683204062.19979811,55828493,1579,1577,1555,1554,0,0,0,0,0,0,0,0,0,0
1683204062.29975796,55928453,1579,1577,1556,1553,0,0,0,0,0,0,0,0,0,0
1683204062.39971805,56028413,1578,1578,1557,1554,0,0,0,0,0,0,0,0,0,0
1683204062.49967790,56128373,1577,1578,1557,1555,0,0,0,0,0,0,0,0,0,0
1683204062.59963799,56228333,1575,1577,1555,1554,0,0,0,0,0,0,0,0,0,0
1683204062.69959807,56328293,1575,1576,1554,1554,0,0,0,0,0,0,0,0,0,0
1683204062.79955792,56428253,1574,1576,1553,1553,0,0,0,0,0,0,0,0,0,0
1683204062.89951801,56528213,1575,1577,1551,1551,0,0,0,0,0,0,0,0,0,0
1683204062.99947810,56628173,1577,1579,1549,1550,0,0,0,0,0,0,0,0,0,0
1683204063.10027099,56728966,1579,1580,1547,1547,0,0,0,0,0,0,0,0,0,0
1683204063.20023108,56828926,1582,1583,1545,1544,0,0,0,0,0,0,0,0,0,0
1683204063.30019093,56928886,1585,1585,1542,1541,0,0,0,0,0,0,0,0,0,0
1683204063.40015101,57028846,1588,1589,1539,1539,0,0,0,0,0,0,0,0,0,0
1683204063.50011110,57128806,1591,1590,1536,1536,0,0,0,0,0,0,0,0,0,0
1683204063.60007095,57228766,1593,1593,1535,1535,0,0,0,0,0,0,0,0,0,0
1683204063.70003104,57328726,1595,1594,1534,1535,0,0,0,0,0,0,0,0,0,0
1683204063.79999089,57428686,1594,1594,1535,1536,0,0,0,0,0,0,0,0,0,0
1683204063.89995098,57528646,1593,1593,1537,1539,0,0,0,0,0,0,0,0,0,0
1683204063.99991107,57628606,1591,1590,1541,1544,0,0,0,0,0,0,0,0,0,0
1683204064.09987092,57728566,1587,1585,1547,1550,0,0,0,0,0,0,0,0,0,0
1683204064.19983101,57828526,1579,1577,1555,1558,0,0,0,0,0,0,0,0,0,0
1683204064.29979110,57928486,1571,1567,1566,1569,0,0,0,0,0,0,0,0,0,0
1683204064.39975095,58028446,1561,1557,1579,1581,0,0,0,0,0,0,0,0,0,0
1683204064.49971104,58128406,1550,1546,1591,1592,0,0,0,0,0,0,0,0,0,0
1683204064.59967089,58228366,1238,1239,1639,1642,0,0,0,0,0,0,0,0,0,0
1683204064.69963098,58328326,1332,1339,1684,1687,0,0,0,0,0,0,0,0,0,0
1683204064.79959106,58428286,1402,1410,1680,1676,0,0,0,0,0,0,0,0,0,0
1683204064.89955091,58528246,1467,1475,1660,1652,0,0,0,0,0,0,0,0,0,0
1683204064.99951100,58628206,1520,1525,1639,1631,0,0,0,0,0,0,0,0,0,0
1683204065.09947109,58728166,1560,1559,1625,1619,0,0,0,0,0,0,0,0,0,0
1683204065.20026398,58828959,1593,1582,1610,1608,0,0,0,0,0,0,0,0,0,0
1683204065.30022407,58928919,1600,1587,1550,1555,0,0,0,0,0,0,0,0,0,0
1683204065.40018392,59028879,1600,1590,1501,1514,0,0,0,0,0,0,0,0,0,0
1683204065.50014400,59128839,1600,1599,1510,1520,0,0,0,0,0,0,0,0,0,0
1683204065.60010409,59228799,1594,1600,1522,1526,0,0,0,0,0,0,0,0,0,0
1683204065.70006394,59328759,1592,1600,1538,1537,0,0,0,0,0,0,0,0,0,0
1683204065.80002403,59428719,1594,1600,1553,1549,0,0,0,0,0,0,0,0,0,0
1683204065.89998388,59528679,1598,1600,1566,1562,0,0,0,0,0,0,0,0,0,0
1683204065.99994397,59628639,1600,1598,1571,1570,0,0,0,0,0,0,0,0,0,0
1683204066.09990406,59728599,1600,1597,1574,1575,0,0,0,0,0,0,0,0,0,0
1683204066.19986391,59828559,1600,1597,1576,1578,0,0,0,0,0,0,0,0,0,0
1683204066.29982400,59928519,1600,1598,1580,1581,0,0,0,0,0,0,0,0,0,0
1683204066.39978409,60028479,1599,1600,1583,1584,0,0,0,0,0,0,0,0,0,0
1683204066.49974394,60128439,1600,1597,1587,1580,0,0,0,0,0,0,0,0,0,0
1683204066.59970403,60228399,1600,1595,1588,1583,0,0,0,0,0,0,0,0,0,0
1683204066.69966388,60328359,1600,1596,1588,1586,0,0,0,0,0,0,0,0,0,0
1683204066.79962397,60428319,1600,1598,1586,1591,0,0,0,0,0,0,0,0,0,0
1683204066.89958405,60528279,1597,1600,1584,1590,0,0,0,0,0,0,0,0,0,0
1683204066.99954391,60628239,1595,1600,1582,1585,0,0,0,0,0,0,0,0,0,0
1683204067.09950399,60728199,1593,1600,1582,1582,0,0,0,0,0,0,0,0,0,0
1683204067.19946408,60828159,1593,1600,1582,1581,0,0,0,0,0,0,0,0,0,0
1683204067.30025697,60928952,1595,1600,1583,1581,0,0,0,0,0,0,0,0,0,0
1683204067.40021706,61028912,1596,1600,1583,1582,0,0,0,0,0,0,0,0,0,0
1683204067.50017691,61128872,1597,1600,1583,1582,0,0,0,0,0,0,0,0,0,0
1683204067.60013700,61228832,1599,1600,1583,1583,0,0,0,0,0,0,0,0,0,0
1683204067.70009708,61328792,1600,1596,1584,1577,0,0,0,0,0,0,0,0,0,0
1683204067.80005693,61428752,1600,1593,1582,1577,0,0,0,0,0,0,0,0,0,0
1683204067.90001702,61528712,1600,1592,1580,1580,0,0,0,0,0,0,0,0,0,0
1683204067.99997687,61628672,1600,1594,1580,1584,0,0,0,0,0,0,0,0,0,0
1683204068.09993696,61728632,1600,1597,1582,1586,0,0,0,0,0,0,0,0,0,0
1683204068.19989705,61828592,1599,1600,1583,1587,0,0,0,0,0,0,0,0,0,0
1683204068.29985690,61928552,1596,1599,1582,1583,0,0,0,0,0,0,0,0,0,0
1683204068.39981699,62028512,1589,1594,1574,1574,0,0,0,0,0,0,0,0,0,0
1683204068.49977708,62128472,1586,1590,1569,1568,0,0,0,0,0,0,0,0,0,0
1683204068.59973693,62228432,1583,1586,1565,1563,0,0,0,0,0,0,0,0,0,0
1683204068.69969702,62328392,1581,1583,1563,1561,0,0,0,0,0,0,0,0,0,0
1683204068.79965711,62428352,1583,1581,1563,1562,0,0,0,0,0,0,0,0,0,0
1683204068.89961696,62528312,1583,1581,1563,1563,0,0,0,0,0,0,0,0,0,0
1683204068.99957705,62628272,1583,1581,1563,1564,0,0,0,0,0,0,0,0,0,0
1683204069.09953690,62728232,1583,1582,1563,1565,0,0,0,0,0,0,0,0,0,0
1683204069.19949698,62828192,1583,1582,1564,1565,0,0,0,0,0,0,0,0,0,0
1683204069.30029011,62928985,1584,1583,1565,1566,0,0,0,0,0,0,0,0,0,0
1683204069.40024996,63028945,1584,1583,1567,1566,0,0,0,0,0,0,0,0,0,0
1683204069.50021005,63128905,1588,1581,1573,1563,0,0,0,0,0,0,0,0,0,0
1683204069.60016990,63228865,1587,1580,1570,1566,0,0,0,0,0,0,0,0,0,0
1683204069.70012999,63328825,1585,1581,1564,1566,0,0,0,0,0,0,0,0,0,0
1683204069.80009007,63428785,1581,1581,1560,1563,0,0,0,0,0,0,0,0,0,0
1683204069.90004992,63528745,1579,1583,1559,1560,0,0,0,0,0,0,0,0,0,0
1683204070.00001001,63628705,1577,1580,1560,1558,0,0,0,0,0,0,0,0,0,0
1683204070.09997010,63728665,1569,1571,1570,1567,0,0,0,0,0,0,0,0,0,0
1683204070.19992995,63828625,1557,1559,1582,1580,0,0,0,0,0,0,0,0,0,0
1683204070.29989004,63928585,1547,1549,1590,1588,0,0,0,0,0,0,0,0,0,0
1683204070.39984989,64028545,1542,1544,1591,1591,0,0,0,0,0,0,0,0,0,0
1683204070.49980998,64128505,1542,1543,1588,1589,0,0,0,0,0,0,0,0,0,0
1683204070.59977007,64228465,1543,1545,1582,1583,0,0,0,0,0,0,0,0,0,0
1683204070.69972992,64328425,1546,1549,1576,1577,0,0,0,0,0,0,0,0,0,0
1683204070.79969001,64428385,1551,1553,1571,1570,0,0,0,0,0,0,0,0,0,0
1683204070.89965010,64528345,1556,1557,1565,1564,0,0,0,0,0,0,0,0,0,0
1683204070.99960995,64628305,1563,1563,1559,1557,0,0,0,0,0,0,0,0,0,0
1683204071.09957004,64728265,1571,1570,1547,1545,0,0,0,0,0,0,0,0,0,0
1683204071.19952989,64828225,1581,1580,1536,1535,0,0,0,0,0,0,0,0,0,0
1683204071.29948997,64928185,1588,1587,1528,1528,0,0,0,0,0,0,0,0,0,0
1683204071.40028310,65028978,1593,1593,1524,1524,0,0,0,0,0,0,0,0,0,0
1683204071.50024295,65128938,1595,1596,1524,1524,0,0,0,0,0,0,0,0,0,0
1683204071.60020304,65228898,1593,1595,1529,1529,0,0,0,0,0,0,0,0,0,0
1683204071.70016289,65328858,1590,1592,1533,1534,0,0,0,0,0,0,0,0,0,0
1683204071.80012298,65428818,1588,1590,1539,1539,0,0,0,0,0,0,0,0,0,0
1683204071.90008307,65528778,1585,1587,1541,1541,0,0,0,0,0,0,0,0,0,0
1683204072.00004292,65628738,1585,1585,1544,1545,0,0,0,0,0,0,0,0,0,0
1683204072.10000300,65728698,1584,1583,1546,1547,0,0,0,0,0,0,0,0,0,0
1683204072.19996309,65828658,1583,1583,1547,1549,0,0,0,0,0,0,0,0,0,0
1683204072.29992294,65928618,1583,1581,1548,1550,0,0,0,0,0,0,0,0,0,0
1683204072.39988303,66028578,1582,1581,1549,1551,0,0,0,0,0,0,0,0,0,0
1683204072.49984288,66128538,1581,1580,1548,1551,0,0,0,0,0,0,0,0,0,0
1683204072.59980297,66228498,1577,1576,1553,1556,0,0,0,0,0,0,0,0,0,0
1683204072.69976306,66328458,1569,1568,1563,1567,0,0,0,0,0,0,0,0,0,0
1683204072.79972291,66428418,1561,1560,1573,1576,0,0,0,0,0,0,0,0,0,0
1683204072.89968300,66528378,1555,1554,1580,1582,0,0,0,0,0,0,0,0,0,0
1683204072.99964309,66628338,1551,1551,1586,1587,0,0,0,0,0,0,0,0,0,0
1683204073.09960294,66728298,1548,1548,1589,1589,0,0,0,0,0,0,0,0,0,0
1683204073.19956303,66828258,1546,1545,1592,1590,0,0,0,0,0,0,0,0,0,0
1683204073.29952288,66928218,1545,1545,1593,1592,0,0,0,0,0,0,0,0,0,0
1683204073.39948297,67028178,1545,1544,1593,1592,0,0,0,0,0,0,0,0,0,0
1683204073.50027609,67128971,1546,1546,1593,1592,0,0,0,0,0,0,0,0,0,0
1683204073.60023594,67228931,1548,1548,1592,1592,0,0,0,0,0,0,0,0,0,0
1683204073.70019603,67328891,1550,1551,1590,1590,0,0,0,0,0,0,0,0,0,0
1683204073.80015588,67428851,1553,1554,1589,1589,0,0,0,0,0,0,0,0,0,0
1683204073.90011597,67528811,1556,1557,1586,1586,0,0,0,0,0,0,0,0,0,0
1683204074.00007606,67628771,1560,1561,1584,1584,0,0,0,0,0,0,0,0,0,0
1683204074.10003591,67728731,1563,1564,1582,1582,0,0,0,0,0,0,0,0,0,0
1683204074.19999599,67828691,1567,1567,1581,1580,0,0,0,0,0,0,0,0,0,0
1683204074.29995608,67928651,1571,1570,1580,1579,0,0,0,0,0,0,0,0,0,0
1683204074.39991593,68028611,1574,1573,1579,1577,0,0,0,0,0,0,0,0,0,0
1683204074.49987602,68128571,1576,1575,1577,1577,0,0,0,0,0,0,0,0,0,0
1683204074.59983587,68228531,1579,1578,1577,1577,0,0,0,0,0,0,0,0,0,0
1683204074.69979596,68328491,1580,1579,1576,1576,0,0,0,0,0,0,0,0,0,0
1683204074.79975605,68428451,1581,1580,1575,1575,0,0,0,0,0,0,0,0,0,0
1683204074.89971590,68528411,1581,1581,1574,1575,0,0,0,0,0,0,0,0,0,0
1683204074.99967599,68628371,1581,1581,1574,1573,0,0,0,0,0,0,0,0,0,0
1683204075.09963608,68728331,1582,1583,1575,1575,0,0,0,0,0,0,0,0,0,0
1683204075.19959593,68828291,1583,1583,1576,1575,0,0,0,0,0,0,0,0,0,0
1683204075.29955602,68928251,1583,1583,1576,1576,0,0,0,0,0,0,0,0,0,0
1683204075.39951611,69028211,1583,1583,1576,1577,0,0,0,0,0,0,0,0,0,0
1683204075.49947596,69128171,1583,1582,1577,1577,0,0,0,0,0,0,0,0,0,0
1683204075.60026908,69228964,1582,1582,1577,1577,0,0,0,0,0,0,0,0,0,0
1683204075.70022893,69328924,1582,1582,1577,1577,0,0,0,0,0,0,0,0,0,0
1683204075.80018902,69428884,1582,1582,1578,1578,0,0,0,0,0,0,0,0,0,0
1683204075.90014911,69528844,1582,1582,1579,1579,0,0,0,0,0,0,0,0,0,0
1683204076.00010896,69628804,1581,1581,1578,1578,0,0,0,0,0,0,0,0,0,0
1683204076.10006905,69728764,1580,1581,1578,1579,0,0,0,0,0,0,0,0,0,0
1683204076.20002890,69828724,1580,1581,1579,1579,0,0,0,0,0,0,0,0,0,0
1683204076.29998899,69928684,1579,1580,1579,1579,0,0,0,0,0,0,0,0,0,0
1683204076.39994907,70028644,1580,1580,1579,1579,0,0,0,0,0,0,0,0,0,0
1683204076.49990892,70128604,1580,1580,1580,1580,0,0,0,0,0,0,0,0,0,0
1683204076.59986901,70228564,1580,1580,1580,1580,0,0,0,0,0,0,0,0,0,0
1683204076.69982910,70328524,1580,1580,1581,1580,0,0,0,0,0,0,0,0,0,0
1683204076.79978895,70428484,1580,1580,1581,1581,0,0,0,0,0,0,0,0,0,0
1683204076.89974904,70528444,1580,1580,1581,1581,0,0,0,0,0,0,0,0,0,0
1683204076.99970889,70628404,1580,1580,1580,1581,0,0,0,0,0,0,0,0,0,0
1683204077.09966898,70728364,1580,1580,1580,1580,0,0,0,0,0,0,0,0,0,0
1683204077.19962907,70828324,1580,1579,1580,1579,0,0,0,0,0,0,0,0,0,0
1683204077.29958892,70928284,1580,1580,1580,1580,0,0,0,0,0,0,0,0,0,0
1683204077.39954901,71028244,1580,1580,1579,1580,0,0,0,0,0,0,0,0,0,0
1683204077.49950910,71128204,1580,1580,1580,1580,0,0,0,0,0,0,0,0,0,0
1683204077.59946895,71228164,1580,1580,1580,1580,0,0,0,0,0,0,0,0,0,0
1683204077.70026207,71328957,1581,1581,1580,1580,0,0,0,0,0,0,0,0,0,0
1683204077.80022192,71428917,1580,1580,1580,1580,0,0,0,0,0,0,0,0,0,0
1683204077.90018201,71528877,1581,1581,1581,1581,0,0,0,0,0,0,0,0,0,0
1683204078.00014210,71628837,1581,1581,1581,1581,0,0,0,0,0,0,0,0,0,0
1683204078.10010195,71728797,1581,1581,1580,1580,0,0,0,0,0,0,0,0,0,0
1683204078.20006204,71828757,1581,1581,1581,1580,0,0,0,0,0,0,0,0,0,0
1683204078.30002189,71928717,1581,1581,1580,1580,0,0,0,0,0,0,0,0,0,0
1683204078.39998198,72028677,1581,1582,1581,1581,0,0,0,0,0,0,0,0,0,0
1683204078.49994206,72128637,1581,1582,1581,1581,0,0,0,0,0,0,0,0,0,0
1683204078.59990191,72228597,1581,1580,1586,1575,0,0,0,0,0,0,0,0,0,0
1683204078.69986200,72328557,1581,1580,1586,1572,0,0,0,0,0,0,0,0,0,0
1683204078.79982209,72428517,1580,1580,1579,1573,0,0,0,0,0,0,0,0,0,0
1683204078.89978194,72528477,1579,1579,1570,1572,0,0,0,0,0,0,0,0,0,0
1683204078.99974203,72628437,1576,1579,1563,1569,0,0,0,0,0,0,0,0,0,0
1683204079.09970188,72728397,1574,1577,1558,1563,0,0,0,0,0,0,0,0,0,0
1683204079.19966197,72828357,1574,1577,1556,1560,0,0,0,0,0,0,0,0,0,0
1683204079.29962206,72928317,1575,1576,1557,1558,0,0,0,0,0,0,0,0,0,0
1683204079.39958191,73028277,1575,1576,1558,1556,0,0,0,0,0,0,0,0,0,0
1683204079.49954200,73128237,1575,1575,1557,1555,0,0,0,0,0,0,0,0,0,0
1683204079.59950209,73228197,1575,1575,1557,1555,0,0,0,0,0,0,0,0,0,0
1683204079.69946194,73328157,1575,1575,1556,1554,0,0,0,0,0,0,0,0,0,0
1683204079.80025506,73428950,1575,1575,1555,1554,0,0,0,0,0,0,0,0,0,0
1683204079.90021491,73528910,1575,1575,1553,1553,0,0,0,0,0,0,0,0,0,0
1683204080.00017500,73628870,1575,1576,1551,1552,0,0,0,0,0,0,0,0,0,0
1683204080.10013509,73728830,1575,1577,1550,1550,0,0,0,0,0,0,0,0,0,0
1683204080.20009494,73828790,1576,1578,1548,1548,0,0,0,0,0,0,0,0,0,0
1683204080.30005503,73928750,1578,1579,1547,1546,0,0,0,0,0,0,0,0,0,0
1683204080.40001488,74028710,1579,1581,1545,1544,0,0,0,0,0,0,0,0,0,0
1683204080.49997497,74128670,1582,1583,1544,1543,0,0,0,0,0,0,0,0,0,0
1683204080.59993505,74228630,1584,1585,1542,1541,0,0,0,0,0,0,0,0,0,0
1683204080.69989491,74328590,1586,1586,1539,1540,0,0,0,0,0,0,0,0,0,0
1683204080.79985499,74428550,1588,1588,1538,1539,0,0,0,0,0,0,0,0,0,0
1683204080.89981508,74528510,1590,1589,1538,1539,0,0,0,0,0,0,0,0,0,0
1683204080.99977493,74628470,1590,1590,1539,1540,0,0,0,0,0,0,0,0,0,0
1683204081.09973502,74728430,1590,1589,1541,1543,0,0,0,0,0,0,0,0,0,0
1683204081.19969487,74828390,1589,1588,1544,1546,0,0,0,0,0,0,0,0,0,0
1683204081.29965496,74928350,1586,1585,1546,1549,0,0,0,0,0,0,0,0,0,0
1683204081.39961505,75028310,1584,1583,1552,1555,0,0,0,0,0,0,0,0,0,0
1683204081.49957490,75128270,1579,1577,1558,1561,0,0,0,0,0,0,0,0,0,0
1683204081.59953499,75228230,1573,1571,1566,1569,0,0,0,0,0,0,0,0,0,0
1683204081.69949508,75328190,1566,1564,1575,1577,0,0,0,0,0,0,0,0,0,0
1683204081.80028796,75428983,1559,1556,1585,1586,0,0,0,0,0,0,0,0,0,0
1683204081.90024805,75528943,1550,1547,1595,1595,0,0,0,0,0,0,0,0,0,0
1683204082.00020790,75628903,1541,1539,1603,1602,0,0,0,0,0,0,0,0,0,0
1683204082.10016799,75728863,1534,1534,1608,1607,0,0,0,0,0,0,0,0,0,0
1683204082.20012808,75828823,1531,1532,1611,1610,0,0,0,0,0,0,0,0,0,0
1683204082.30008793,75928783,1530,1532,1609,1608,0,0,0,0,0,0,0,0,0,0
1683204082.40004802,76028743,1533,1536,1607,1607,0,0,0,0,0,0,0,0,0,0
1683204082.50000811,76128703,1538,1541,1602,1602,0,0,0,0,0,0,0,0,0,0
1683204082.59996796,76228663,1545,1547,1595,1595,0,0,0,0,0,0,0,0,0,0
1683204082.69992805,76328623,1554,1555,1590,1589,0,0,0,0,0,0,0,0,0,0
1683204082.79988790,76428583,1562,1562,1583,1582,0,0,0,0,0,0,0,0,0,0
1683204082.89984798,76528543,1570,1570,1577,1576,0,0,0,0,0,0,0,0,0,0
1683204082.99980807,76628503,1577,1576,1572,1571,0,0,0,0,0,0,0,0,0,0
1683204083.09976792,76728463,1582,1581,1568,1568,0,0,0,0,0,0,0,0,0,0
1683204083.19972801,76828423,1586,1585,1565,1565,0,0,0,0,0,0,0,0,0,0
1683204083.29968810,76928383,1588,1587,1565,1565,0,0,0,0,0,0,0,0,0,0
1683204083.39964795,77028343,1589,1587,1565,1565,0,0,0,0,0,0,0,0,0,0
1683204083.49960804,77128303,1589,1587,1567,1567,0,0,0,0,0,0,0,0,0,0
1683204083.59956789,77228263,1587,1587,1570,1570,0,0,0,0,0,0,0,0,0,0
1683204083.69952798,77328223,1585,1585,1572,1572,0,0,0,0,0,0,0,0,0,0
1683204083.79948807,77428183,1583,1584,1575,1575,0,0,0,0,0,0,0,0,0,0
1683204083.90028095,77528976,1581,1582,1578,1578,0,0,0,0,0,0,0,0,0,0
1683204084.00024104,77628936,1579,1580,1581,1580,0,0,0,0,0,0,0,0,0,0
1683204084.10020089,77728896,1577,1577,1582,1582,0,0,0,0,0,0,0,0,0,0
1683204084.20016098,77828856,1575,1576,1583,1583,0,0,0,0,0,0,0,0,0,0
1683204084.30012107,77928816,1574,1574,1584,1584,0,0,0,0,0,0,0,0,0,0
1683204084.40008092,78028776,1573,1573,1583,1583,0,0,0,0,0,0,0,0,0,0
1683204084.50004101,78128736,1573,1574,1583,1583,0,0,0,0,0,0,0,0,0,0
1683204084.60000110,78228696,1573,1574,1583,1583,0,0,0,0,0,0,0,0,0,0
1683204084.69996095,78328656,1575,1575,1583,1583,0,0,0,0,0,0,0,0,0,0
1683204084.79992104,78428616,1576,1576,1581,1581,0,0,0,0,0,0,0,0,0,0
1683204084.89988089,78528576,1578,1578,1581,1581,0,0,0,0,0,0,0,0,0,0
1683204084.99984097,78628536,1579,1579,1581,1580,0,0,0,0,0,0,0,0,0,0
1683204085.09980106,78728496,1580,1580,1579,1579,0,0,0,0,0,0,0,0,0,0
1683204085.19976091,78828456,1581,1580,1578,1578,0,0,0,0,0,0,0,0,0,0
1683204085.29972100,78928416,1582,1582,1578,1579,0,0,0,0,0,0,0,0,0,0
1683204085.39968109,79028376,1583,1582,1578,1578,0,0,0,0,0,0,0,0,0,0
1683204085.49964094,79128336,1583,1583,1578,1578,0,0,0,0,0,0,0,0,0,0
1683204085.59960103,79228296,1582,1583,1579,1578,0,0,0,0,0,0,0,0,0,0
1683204085.69956088,79328256,1582,1582,1578,1577,0,0,0,0,0,0,0,0,0,0
1683204085.79952097,79428216,1582,1582,1579,1579,0,0,0,0,0,0,0,0,0,0
1683204085.89948106,79528176,1582,1581,1579,1579,0,0,0,0,0,0,0,0,0,0
1683204086.00027394,79628969,1581,1581,1580,1580,0,0,0,0,0,0,0,0,0,0
1683204086.10023403,79728929,1581,1581,1580,1580,0,0,0,0,0,0,0,0,0,0
1683204086.20019388,79828889,1581,1581,1582,1582,0,0,0,0,0,0,0,0,0,0
1683204086.30015397,79928849,1581,1580,1582,1582,0,0,0,0,0,0,0,0,0,0
1683204086.40011406,80028809,1581,1581,1582,1582,0,0,0,0,0,0,0,0,0,0
1683204086.50007391,80128769,1580,1581,1583,1583,0,0,0,0,0,0,0,0,0,0
1683204086.60003400,80228729,1580,1581,1582,1582,0,0,0,0,0,0,0,0,0,0
1683204086.69999409,80328689,1580,1580,1582,1582,0,0,0,0,0,0,0,0,0,0
1683204086.79995394,80428649,1581,1581,1585,1578,0,0,0,0,0,0,0,0,0,0
1683204086.89991403,80528609,1581,1580,1588,1574,0,0,0,0,0,0,0,0,0,0
1683204086.99987388,80628569,1580,1579,1583,1575,0,0,0,0,0,0,0,0,0,0
1683204087.09983397,80728529,1577,1576,1574,1574,0,0,0,0,0,0,0,0,0,0
1683204087.19979405,80828489,1573,1573,1566,1572,0,0,0,0,0,0,0,0,0,0
1683204087.29975390,80928449,1571,1571,1564,1571,0,0,0,0,0,0,0,0,0,0
1683204087.39971399,81028409,1569,1569,1563,1568,0,0,0,0,0,0,0,0,0,0
1683204087.49967408,81128369,1568,1568,1564,1567,0,0,0,0,0,0,0,0,0,0
1683204087.59963393,81228329,1567,1568,1566,1566,0,0,0,0,0,0,0,0,0,0
1683204087.69959402,81328289,1567,1567,1568,1566,0,0,0,0,0,0,0,0,0,0
1683204087.79955387,81428249,1566,1567,1568,1565,0,0,0,0,0,0,0,0,0,0
1683204087.89951396,81528209,1565,1566,1568,1565,0,0,0,0,0,0,0,0,0,0
1683204087.99947405,81628169,1564,1564,1566,1565,0,0,0,0,0,0,0,0,0,0
1683204088.10026693,81728962,1563,1563,1564,1565,0,0,0,0,0,0,0,0,0,0
1683204088.20022702,81828922,1563,1562,1564,1564,0,0,0,0,0,0,0,0,0,0
1683204088.30018687,81928882,1562,1562,1563,1564,0,0,0,0,0,0,0,0,0,0
1683204088.40014696,82028842,1561,1561,1563,1562,0,0,0,0,0,0,0,0,0,0
1683204088.50010705,82128802,1561,1561,1562,1562,0,0,0,0,0,0,0,0,0,0
1683204088.60006690,82228762,1560,1561,1562,1561,0,0,0,0,0,0,0,0,0,0
1683204088.70002699,82328722,1560,1561,1561,1561,0,0,0,0,0,0,0,0,0,0
1683204088.79998708,82428682,1560,1560,1561,1560,0,0,0,0,0,0,0,0,0,0
1683204088.89994693,82528642,1559,1560,1560,1558,0,0,0,0,0,0,0,0,0,0
1683204088.99990702,82628602,1559,1559,1559,1558,0,0,0,0,0,0,0,0,0,0
1683204089.09986711,82728562,1560,1559,1559,1558,0,0,0,0,0,0,0,0,0,0
1683204089.19982696,82828522,1559,1558,1558,1557,0,0,0,0,0,0,0,0,0,0
1683204089.29978704,82928482,1560,1560,1560,1559,0,0,0,0,0,0,0,0,0,0
1683204089.39974689,83028442,1560,1560,1561,1559,0,0,0,0,0,0,0,0,0,0
1683204089.49970698,83128402,1559,1559,1560,1557,0,0,0,0,0,0,0,0,0,0
1683204089.59966707,83228362,1557,1557,1558,1554,0,0,0,0,0,0,0,0,0,0
1683204089.69962692,83328322,1558,1557,1556,1558,0,0,0,0,0,0,0,0,0,0
1683204089.79958701,83428282,1556,1556,1553,1558,0,0,0,0,0,0,0,0,0,0
1683204089.89954710,83528242,1553,1553,1548,1555,0,0,0,0,0,0,0,0,0,0
1683204089.99950695,83628202,1549,1549,1544,1549,0,0,0,0,0,0,0,0,0,0
1683204090.09946704,83728162,1544,1545,1539,1542,0,0,0,0,0,0,0,0,0,0
1683204090.20025992,83828955,1538,1539,1533,1534,0,0,0,0,0,0,0,0,0,0
1683204090.30022001,83928915,1532,1533,1527,1527,0,0,0,0,0,0,0,0,0,0
1683204090.40018010,84028875,1526,1527,1522,1520,0,0,0,0,0,0,0,0,0,0
1683204090.50013995,84128835,1523,1523,1520,1519,0,0,0,0,0,0,0,0,0,0
1683204090.60010004,84228795,1522,1521,1520,1520,0,0,0,0,0,0,0,0,0,0
1683204090.70005989,84328755,1522,1521,1523,1524,0,0,0,0,0,0,0,0,0,0
1683204090.80001998,84428715,1522,1521,1526,1527,0,0,0,0,0,0,0,0,0,0
1683204090.89998007,84528675,1524,1524,1530,1532,0,0,0,0,0,0,0,0,0,0
1683204090.99993992,84628635,1527,1527,1535,1536,0,0,0,0,0,0,0,0,0,0
1683204091.09990001,84728595,1531,1531,1540,1540,0,0,0,0,0,0,0,0,0,0
1683204091.19986010,84828555,1535,1535,1544,1544,0,0,0,0,0,0,0,0,0,0
1683204091.29981995,84928515,1537,1537,1544,1544,0,0,0,0,0,0,0,0,0,0
1683204091.39978004,85028475,1540,1540,1545,1545,0,0,0,0,0,0,0,0,0,0
1683204091.49973989,85128435,1542,1542,1545,1545,0,0,0,0,0,0,0,0,0,0
1683204091.59969997,85228395,1545,1545,1545,1545,0,0,0,0,0,0,0,0,0,0
1683204091.69966006,85328355,1547,1547,1545,1545,0,0,0,0,0,0,0,0,0,0
1683204091.79961991,85428315,1548,1548,1544,1544,0,0,0,0,0,0,0,0,0,0
1683204091.89958000,85528275,1549,1549,1544,1544,0,0,0,0,0,0,0,0,0,0
1683204091.99954009,85628235,1550,1550,1544,1544,0,0,0,0,0,0,0,0,0,0
1683204092.09949994,85728195,1550,1549,1544,1544,0,0,0,0,0,0,0,0,0,0
1683204092.19946003,85828155,1549,1550,1545,1544,0,0,0,0,0,0,0,0,0,0
1683204092.30025291,85928948,1549,1549,1545,1544,0,0,0,0,0,0,0,0,0,0
1683204092.40021300,86028908,1548,1548,1545,1544,0,0,0,0,0,0,0,0,0,0
1683204092.50017309,86128868,1548,1547,1545,1545,0,0,0,0,0,0,0,0,0,0
1683204092.60013294,86228828,1546,1546,1545,1545,0,0,0,0,0,0,0,0,0,0
1683204092.70009303,86328788,1546,1545,1545,1545,0,0,0,0,0,0,0,0,0,0
1683204092.80005288,86428748,1545,1545,1546,1546,0,0,0,0,0,0,0,0,0,0
1683204092.90001297,86528708,1544,1544,1545,1545,0,0,0,0,0,0,0,0,0,0
1683204092.99997306,86628668,1544,1544,1546,1546,0,0,0,0,0,0,0,0,0,0
1683204093.09993291,86728628,1543,1544,1546,1546,0,0,0,0,0,0,0,0,0,0
1683204093.19989300,86828588,1543,1543,1545,1545,0,0,0,0,0,0,0,0,0,0
1683204093.29985309,86928548,1543,1543,1545,1545,0,0,0,0,0,0,0,0,0,0
1683204093.39981294,87028508,1543,1543,1545,1544,0,0,0,0,0,0,0,0,0,0
1683204093.49977303,87128468,1543,1543,1544,1544,0,0,0,0,0,0,0,0,0,0
1683204093.59973288,87228428,1543,1543,1544,1544,0,0,0,0,0,0,0,0,0,0
1683204093.69969296,87328388,1544,1544,1544,1545,0,0,0,0,0,0,0,0,0,0
1683204093.79965305,87428348,1544,1544,1544,1544,0,0,0,0,0,0,0,0,0,0
1683204093.89961290,87528308,1545,1544,1544,1544,0,0,0,0,0,0,0,0,0,0
1683204093.99957299,87628268,1544,1545,1544,1544,0,0,0,0,0,0,0,0,0,0
1683204094.09953308,87728228,1544,1544,1543,1543,0,0,0,0,0,0,0,0,0,0
1683204094.19949293,87828188,1544,1545,1543,1543,0,0,0,0,0,0,0,0,0,0
1683204094.30028605,87928981,1544,1544,1543,1544,0,0,0,0,0,0,0,0,0,0
1683204094.40024590,88028941,1544,1544,1543,1544,0,0,0,0,0,0,0,0,0,0
1683204094.50020599,88128901,1545,1544,1544,1544,0,0,0,0,0,0,0,0,0,0
1683204094.60016608,88228861,1544,1544,1543,1543,0,0,0,0,0,0,0,0,0,0
1683204094.70012593,88328821,1545,1544,1544,1544,0,0,0,0,0,0,0,0,0,0
1683204094.80008602,88428781,1544,1544,1544,1544,0,0,0,0,0,0,0,0,0,0
1683204094.90004587,88528741,1545,1544,1545,1545,0,0,0,0,0,0,0,0,0,0
1683204095.00000596,88628701,1544,1544,1544,1543,0,0,0,0,0,0,0,0,0,0
1683204095.09996605,88728661,1544,1544,1544,1544,0,0,0,0,0,0,0,0,0,0
1683204095.19992590,88828621,1543,1544,1544,1543,0,0,0,0,0,0,0,0,0,0
1683204095.29988599,88928581,1544,1544,1544,1544,0,0,0,0,0,0,0,0,0,0
1683204095.39984608,89028541,1544,1544,1544,1544,0,0,0,0,0,0,0,0,0,0
1683204095.49980593,89128501,1543,1543,1543,1544,0,0,0,0,0,0,0,0,0,0
1683204095.59976602,89228461,1544,1544,1545,1544,0,0,0,0,0,0,0,0,0,0
1683204095.69972610,89328421,1544,1543,1544,1543,0,0,0,0,0,0,0,0,0,0
1683204095.79968596,89428381,1544,1543,1543,1544,0,0,0,0,0,0,0,0,0,0
1683204095.89964604,89528341,1544,1544,1544,1545,0,0,0,0,0,0,0,0,0,0
1683204095.99960589,89628301,1544,1544,1544,1544,0,0,0,0,0,0,0,0,0,0
1683204096.09956598,89728261,1544,1544,1544,1544,0,0,0,0,0,0,0,0,0,0
1683204096.19952607,89828221,1543,1544,1544,1544,0,0,0,0,0,0,0,0,0,0
1683204096.29948592,89928181,1543,1544,1543,1543,0,0,0,0,0,0,0,0,0,0
1683204096.40027905,90028974,1544,1543,1543,1543,0,0,0,0,0,0,0,0,0,0
1683204096.50023890,90128934,1545,1544,1544,1545,0,0,0,0,0,0,0,0,0,0
1683204096.60019898,90228894,1545,1544,1544,1544,0,0,0,0,0,0,0,0,0,0
1683204096.70015907,90328854,1545,1544,1544,1544,0,0,0,0,0,0,0,0,0,0
1683204096.80011892,90428814,1545,1544,1545,1544,0,0,0,0,0,0,0,0,0,0
1683204096.90007901,90528774,1544,1544,1544,1544,0,0,0,0,0,0,0,0,0,0
1683204097.00003910,90628734,1544,1545,1544,1545,0,0,0,0,0,0,0,0,0,0
1683204097.09999895,90728694,1544,1544,1544,1544,0,0,0,0,0,0,0,0,0,0
1683204097.19995904,90828654,1544,1544,1544,1544,0,0,0,0,0,0,0,0,0,0
1683204097.29991889,90928614,1544,1544,1544,1545,0,0,0,0,0,0,0,0,0,0
1683204097.39987898,91028574,1544,1544,1544,1544,0,0,0,0,0,0,0,0,0,0
1683204097.49983907,91128534,1543,1544,1543,1544,0,0,0,0,0,0,0,0,0,0
1683204097.59979892,91228494,1543,1543,1543,1543,0,0,0,0,0,0,0,0,0,0
1683204097.69975901,91328454,1544,1544,1544,1544,0,0,0,0,0,0,0,0,0,0
1683204097.79971910,91428414,1544,1543,1544,1543,0,0,0,0,0,0,0,0,0,0
1683204097.89967895,91528374,1544,1543,1544,1543,0,0,0,0,0,0,0,0,0,0
1683204097.99963903,91628334,1544,1544,1544,1544,0,0,0,0,0,0,0,0,0,0
1683204098.09959888,91728294,1544,1544,1544,1545,0,0,0,0,0,0,0,0,0,0
1683204098.19955897,91828254,1544,1544,1543,1544,0,0,0,0,0,0,0,0,0,0
1683204098.29951906,91928214,1544,1544,1544,1544,0,0,0,0,0,0,0,0,0,0
1683204098.39947891,92028174,1544,1544,1544,1544,0,0,0,0,0,0,0,0,0,0
1683204098.50027204,92128967,1544,1544,1545,1545,0,0,0,0,0,0,0,0,0,0
1683204098.60023189,92228927,1544,1544,1545,1545,0,0,0,0,0,0,0,0,0,0
1683204098.70019197,92328887,1544,1544,1544,1545,0,0,0,0,0,0,0,0,0,0
1683204098.80015206,92428847,1544,1545,1545,1545,0,0,0,0,0,0,0,0,0,0
1683204098.90011191,92528807,1544,1544,1544,1544,0,0,0,0,0,0,0,0,0,0
1683204099.00007200,92628767,1545,1545,1545,1545,0,0,0,0,0,0,0,0,0,0
1683204099.10003209,92728727,1545,1545,1545,1545,0,0,0,0,0,0,0,0,0,0
1683204099.19999194,92828687,1545,1545,1545,1544,0,0,0,0,0,0,0,0,0,0
1683204099.29995203,92928647,1545,1545,1545,1545,0,0,0,0,0,0,0,0,0,0
1683204099.39991188,93028607,1545,1545,1545,1545,0,0,0,0,0,0,0,0,0,0
1683204099.49987197,93128567,1546,1546,1545,1546,0,0,0,0,0,0,0,0,0,0
1683204099.59983206,93228527,1545,1545,1545,1544,0,0,0,0,0,0,0,0,0,0
1683204099.69979191,93328487,1545,1545,1544,1544,0,0,0,0,0,0,0,0,0,0
1683204099.79975200,93428447,1544,1544,1544,1544,0,0,0,0,0,0,0,0,0,0
1683204099.89971209,93528407,1545,1544,1544,1544,0,0,0,0,0,0,0,0,0,0
1683204099.99967194,93628367,1543,1544,1543,1543,0,0,0,0,0,0,0,0,0,0
1683204100.09963202,93728327,1499,1499,1477,1478,0,0,0,0,0,0,0,0,0,0
1683204100.19959188,93828287,1397,1396,1310,1312,0,0,0,0,0,0,0,0,0,0
1683204100.29955196,93928247,1358,1357,1237,1239,0,0,0,0,0,0,0,0,0,0
1683204100.39951205,94028207,1346,1345,1213,1215,0,0,0,0,0,0,0,0,0,0
1683204100.49947190,94128167,1332,1330,1183,1186,0,0,0,0,0,0,0,0,0,0
1683204100.60026503,94228960,1307,1306,1150,1152,0,0,0,0,0,0,0,0,0,0
1683204100.70022488,94328920,1221,1219,1150,1153,0,0,0,0,0,0,0,0,0,0
1683204100.80018497,94428880,1127,1125,1150,1152,0,0,0,0,0,0,0,0,0,0
1683204100.90014505,94528840,1021,1018,1150,1153,0,0,0,0,0,0,0,0,0,0
1683204101.00010490,94628800,980,978,1150,1152,0,0,0,0,0,0,0,0,0,0
1683204101.10006499,94728760,980,978,1150,1152,0,0,0,0,0,0,0,0,0,0
1683204101.20002508,94828720,980,978,1150,1151,0,0,0,0,0,0,0,0,0,0
1683204101.29998493,94928680,979,965,1150,1171,0,0,0,0,0,0,0,0,0,0
1683204101.39994502,95028640,979,970,1150,1163,0,0,0,0,0,0,0,0,0,0
1683204101.49990487,95128600,980,972,1150,1160,0,0,0,0,0,0,0,0,0,0
1683204101.59986496,95228560,980,973,1150,1160,0,0,0,0,0,0,0,0,0,0
1683204101.69982505,95328520,980,972,1150,1160,0,0,0,0,0,0,0,0,0,0
1683204101.79978490,95428480,980,972,1150,1160,0,0,0,0,0,0,0,0,0,0
1683204101.89974499,95528440,980,972,1150,1160,0,0,0,0,0,0,0,0,0,0
1683204101.99970508,95628400,980,972,1150,1160,0,0,0,0,0,0,0,0,0,0
1683204102.09966493,95728360,980,979,1150,1151,0,0,0,0,0,0,0,0,0,0
1683204102.19962502,95828320,980,978,1150,1152,0,0,0,0,0,0,0,0,0,0
1683204102.29958510,95928280,980,978,1150,1152,0,0,0,0,0,0,0,0,0,0
1683204102.39954495,96028240,980,978,1150,1152,0,0,0,0,0,0,0,0,0,0
1683204102.49950504,96128200,916,914,1150,1151,0,0,0,0,0,0,0,0,0,0
1683204102.59946489,96228160,1000,1000,1000,1000,0,0,0,0,0,0,0,0,0,0
1683204102.70025802,96328953,1000,1000,1000,1000,0,0,0,0,0,0,0,0,0,0
1683204102.80021811,96428913,1000,1000,1000,1000,0,0,0,0,0,0,0,0,0,0
1683204102.90017796,96528873,1000,1000,1000,1000,0,0,0,0,0,0,0,0,0,0
1683204103.00013804,96628833,1000,1000,1000,1000,0,0,0,0,0,0,0,0,0,0
1683204103.10009789,96728793,1000,1000,1000,1000,0,0,0,0,0,0,0,0,0,0
1683204103.20005798,96828753,1000,1000,1000,1000,0,0,0,0,0,0,0,0,0,0
1683204103.30001807,96928713,1000,1000,1000,1000,0,0,0,0,0,0,0,0,0,0
1683204103.39997792,97028673,1000,1000,1000,1000,0,0,0,0,0,0,0,0,0,0
1683204103.49993801,97128633,1000,1000,1000,1000,0,0,0,0,0,0,0,0,0,0
1683204103.59989810,97228593,1000,1000,1000,1000,0,0,0,0,0,0,0,0,0,0
1683204103.69985795,97328553,1000,1000,1000,1000,0,0,0,0,0,0,0,0,0,0
1683204103.79981804,97428513,1000,1000,1000,1000,0,0,0,0,0,0,0,0,0,0
1683204103.89977789,97528473,1000,1000,1000,1000,0,0,0,0,0,0,0,0,0,0
1683204103.99973798,97628433,1000,1000,1000,1000,0,0,0,0,0,0,0,0,0,0
1683204104.09969807,97728393,1000,1000,1000,1000,0,0,0,0,0,0,0,0,0,0
1683204104.19965792,97828353,1000,1000,1000,1000,0,0,0,0,0,0,0,0,0,0
1683204104.29961801,97928313,1000,1000,1000,1000,0,0,0,0,0,0,0,0,0,0
1683204104.39957809,98028273,1000,1000,1000,1000,0,0,0,0,0,0,0,0,0,0
1683204104.49953794,98128233,1000,1000,1000,1000,0,0,0,0,0,0,0,0,0,0
1683204104.59949803,98228193,1000,1000,1000,1000,0,0,0,0,0,0,0,0,0,0
1683204104.70029092,98328986,1000,1000,1000,1000,0,0,0,0,0,0,0,0,0,0
1683204104.80025101,98428946,1000,1000,1000,1000,0,0,0,0,0,0,0,0,0,0
1683204104.90021110,98528906,1000,1000,1000,1000,0,0,0,0,0,0,0,0,0,0
1683204105.00017095,98628866,1000,1000,1000,1000,0,0,0,0,0,0,0,0,0,0
1683204105.10013103,98728826,1000,1000,1000,1000,0,0,0,0,0,0,0,0,0,0
1683204105.20009089,98828786,1000,1000,1000,1000,0,0,0,0,0,0,0,0,0,0
1683204105.30005097,98928746,1000,1000,1000,1000,0,0,0,0,0,0,0,0,0,0
1683204105.40001106,99028706,1000,1000,1000,1000,0,0,0,0,0,0,0,0,0,0
1683204105.49997091,99128666,1000,1000,1000,1000,0,0,0,0,0,0,0,0,0,0
1683204105.59993100,99228626,1000,1000,1000,1000,0,0,0,0,0,0,0,0,0,0
1683204105.69989109,99328586,1000,1000,1000,1000,0,0,0,0,0,0,0,0,0,0
1683204105.79985094,99428546,1000,1000,1000,1000,0,0,0,0,0,0,0,0,0,0
1683204105.89981103,99528506,1000,1000,1000,1000,0,0,0,0,0,0,0,0,0,0
1683204105.99977088,99628466,1000,1000,1000,1000,0,0,0,0,0,0,0,0,0,0
1683204106.09973097,99728426,1000,1000,1000,1000,0,0,0,0,0,0,0,0,0,0
1683204106.19969106,99828386,1000,1000,1000,1000,0,0,0,0,0,0,0,0,0,0
1683204106.29965091,99928346,1000,1000,1000,1000,0,0,0,0,0,0,0,0,0,0
1683204106.39961100,100028306,1000,1000,1000,1000,0,0,0,0,0,0,0,0,0,0
1683204106.49957108,100128266,1000,1000,1000,1000,0,0,0,0,0,0,0,0,0,0
1683204106.59953094,100228226,1000,1000,1000,1000,0,0,0,0,0,0,0,0,0,0
1683204106.69949102,100328186,1000,1000,1000,1000,0,0,0,0,0,0,0,0,0,0
1683204106.80028391,100428979,1000,1000,1000,1000,0,0,0,0,0,0,0,0,0,0
1683204106.90024400,100528939,1000,1000,1000,1000,0,0,0,0,0,0,0,0,0,0
1683204107.00020409,100628899,1000,1000,1000,1000,0,0,0,0,0,0,0,0,0,0
1683204107.10016394,100728859,1000,1000,1000,1000,0,0,0,0,0,0,0,0,0,0
1683204107.20012403,100828819,1000,1000,1000,1000,0,0,0,0,0,0,0,0,0,0
1683204107.30008388,100928779,1000,1000,1000,1000,0,0,0,0,0,0,0,0,0,0
1683204107.40004396,101028739,1000,1000,1000,1000,0,0,0,0,0,0,0,0,0,0
1683204107.50000405,101128699,1000,1000,1000,1000,0,0,0,0,0,0,0,0,0,0
1683204107.59996390,101228659,1000,1000,1000,1000,0,0,0,0,0,0,0,0,0,0
1683204107.69992399,101328619,1000,1000,1000,1000,0,0,0,0,0,0,0,0,0,0
1683204107.79988408,101428579,1000,1000,1000,1000,0,0,0,0,0,0,0,0,0,0
1683204107.89984393,101528539,1000,1000,1000,1000,0,0,0,0,0,0,0,0,0,0
1683204107.99980402,101628499,1000,1000,1000,1000,0,0,0,0,0,0,0,0,0,0
1683204108.09976387,101728459,1000,1000,1000,1000,0,0,0,0,0,0,0,0,0,0
1683204108.19972396,101828419,1000,1000,1000,1000,0,0,0,0,0,0,0,0,0,0
1683204108.29968405,101928379,1000,1000,1000,1000,0,0,0,0,0,0,0,0,0,0
1683204108.39964390,102028339,1000,1000,1000,1000,0,0,0,0,0,0,0,0,0,0
1683204108.49960399,102128299,1000,1000,1000,1000,0,0,0,0,0,0,0,0,0,0
1683204108.59956408,102228259,1000,1000,1000,1000,0,0,0,0,0,0,0,0,0,0
1683204108.69952393,102328219,1000,1000,1000,1000,0,0,0,0,0,0,0,0,0,0
1683204108.79948401,102428179,1000,1000,1000,1000,0,0,0,0,0,0,0,0,0,0
1683204108.90027690,102528972,1000,1000,1000,1000,0,0,0,0,0,0,0,0,0,0
1683204109.00023699,102628932,1000,1000,1000,1000,0,0,0,0,0,0,0,0,0,0
1683204109.10019708,102728892,1000,1000,1000,1000,0,0,0,0,0,0,0,0,0,0
1683204109.20015693,102828852,1000,1000,1000,1000,0,0,0,0,0,0,0,0,0,0
1683204109.30011702,102928812,1000,1000,1000,1000,0,0,0,0,0,0,0,0,0,0
1683204109.40007710,103028772,1000,1000,1000,1000,0,0,0,0,0,0,0,0,0,0
1683204109.50003695,103128732,1000,1000,1000,1000,0,0,0,0,0,0,0,0,0,0
1683204109.59999704,103228692,1000,1000,1000,1000,0,0,0,0,0,0,0,0,0,0
1683204109.69995689,103328652,1000,1000,1000,1000,0,0,0,0,0,0,0,0,0,0
1683204109.79991698,103428612,1000,1000,1000,1000,0,0,0,0,0,0,0,0,0,0
1683204109.89987707,103528572,1000,1000,1000,1000,0,0,0,0,0,0,0,0,0,0
1683204109.99983692,103628532,1000,1000,1000,1000,0,0,0,0,0,0,0,0,0,0
1683204110.09979701,103728492,1000,1000,1000,1000,0,0,0,0,0,0,0,0,0,0
1683204110.19975710,103828452,1000,1000,1000,1000,0,0,0,0,0,0,0,0,0,0
1683204110.29971695,103928412,1000,1000,1000,1000,0,0,0,0,0,0,0,0,0,0
1683204110.39967704,104028372,1000,1000,1000,1000,0,0,0,0,0,0,0,0,0,0
1683204110.49963689,104128332,1000,1000,1000,1000,0,0,0,0,0,0,0,0,0,0
1683204110.59959698,104228292,1000,1000,1000,1000,0,0,0,0,0,0,0,0,0,0
1683204110.69955707,104328252,1000,1000,1000,1000,0,0,0,0,0,0,0,0,0,0
1683204110.79951692,104428212,1000,1000,1000,1000,0,0,0,0,0,0,0,0,0,0
1683204110.89947701,104528172,1000,1000,1000,1000,0,0,0,0,0,0,0,0,0,0
1683204111.00026989,104628965,1000,1000,1000,1000,0,0,0,0,0,0,0,0,0,0
1683204111.10022998,104728925,1000,1000,1000,1000,0,0,0,0,0,0,0,0,0,0
1683204111.20019007,104828885,1000,1000,1000,1000,0,0,0,0,0,0,0,0,0,0
1683204111.30014992,104928845,1000,1000,1000,1000,0,0,0,0,0,0,0,0,0,0
1683204111.40011001,105028805,1000,1000,1000,1000,0,0,0,0,0,0,0,0,0,0
1683204111.50007010,105128765,1000,1000,1000,1000,0,0,0,0,0,0,0,0,0,0
1683204111.60002995,105228725,1000,1000,1000,1000,0,0,0,0,0,0,0,0,0,0
1683204111.69999003,105328685,1000,1000,1000,1000,0,0,0,0,0,0,0,0,0,0
1683204111.79994988,105428645,1000,1000,1000,1000,0,0,0,0,0,0,0,0,0,0
1683204111.89990997,105528605,1000,1000,1000,1000,0,0,0,0,0,0,0,0,0,0
1683204111.99987006,105628565,1000,1000,1000,1000,0,0,0,0,0,0,0,0,0,0
1683204112.09982991,105728525,1000,1000,1000,1000,0,0,0,0,0,0,0,0,0,0
1683204112.19979000,105828485,1000,1000,1000,1000,0,0,0,0,0,0,0,0,0,0
1683204112.29975009,105928445,1000,1000,1000,1000,0,0,0,0,0,0,0,0,0,0
1683204112.39970994,106028405,1000,1000,1000,1000,0,0,0,0,0,0,0,0,0,0
1683204112.49967003,106128365,1000,1000,1000,1000,0,0,0,0,0,0,0,0,0,0
1683204112.59962988,106228325,1000,1000,1000,1000,0,0,0,0,0,0,0,0,0,0
1683204112.69958997,106328285,1000,1000,1000,1000,0,0,0,0,0,0,0,0,0,0
1683204112.79955006,106428245,1000,1000,1000,1000,0,0,0,0,0,0,0,0,0,0
1683204112.89950991,106528205,1000,1000,1000,1000,0,0,0,0,0,0,0,0,0,0
1683204112.99947000,106628165,1000,1000,1000,1000,0,0,0,0,0,0,0,0,0,0
1683204113.10026288,106728958,1000,1000,1000,1000,0,0,0,0,0,0,0,0,0,0
1683204113.20022297,106828918,1000,1000,1000,1000,0,0,0,0,0,0,0,0,0,0
1683204113.30018306,106928878,1000,1000,1000,1000,0,0,0,0,0,0,0,0,0,0
1683204113.40014291,107028838,1000,1000,1000,1000,0,0,0,0,0,0,0,0,0,0
1683204113.50010300,107128798,1000,1000,1000,1000,0,0,0,0,0,0,0,0,0,0
1683204113.60006309,107228758,1000,1000,1000,1000,0,0,0,0,0,0,0,0,0,0
1683204113.70002294,107328718,1000,1000,1000,1000,0,0,0,0,0,0,0,0,0,0
1683204113.79998302,107428678,1000,1000,1000,1000,0,0,0,0,0,0,0,0,0,0
1683204113.89994287,107528638,1000,1000,1000,1000,0,0,0,0,0,0,0,0,0,0
1683204113.99990296,107628598,1000,1000,1000,1000,0,0,0,0,0,0,0,0,0,0
1683204114.09986305,107728558,1000,1000,1000,1000,0,0,0,0,0,0,0,0,0,0
1683204114.19982290,107828518,1000,1000,1000,1000,0,0,0,0,0,0,0,0,0,0
