timestamp,TimeUS,C1,C2,C3,C4,C5,C6,C7,C8,C9,C10,C11,C12,C13,C14
1684165276.50004005,53128740,1000,1000,1000,1000,0,0,0,0,0,0,0,0,0,0
1684165276.59999990,53228700,1000,1000,1000,1000,0,0,0,0,0,0,0,0,0,0
1684165276.69995999,53328660,1000,1000,1000,1000,0,0,0,0,0,0,0,0,0,0
1684165276.79992008,53428620,1000,1000,1000,1000,0,0,0,0,0,0,0,0,0,0
1684165276.89987993,53528580,1000,1000,1000,1000,0,0,0,0,0,0,0,0,0,0
1684165276.99984002,53628540,1000,1000,1000,1000,0,0,0,0,0,0,0,0,0,0
1684165277.09979987,53728500,1000,1000,1000,1000,0,0,0,0,0,0,0,0,0,0
1684165277.19975996,53828460,1000,1000,1000,1000,0,0,0,0,0,0,0,0,0,0
1684165277.29972005,53928420,1000,1000,1000,1000,0,0,0,0,0,0,0,0,0,0
1684165277.39967990,54028380,1000,1000,1000,1000,0,0,0,0,0,0,0,0,0,0
1684165277.49963999,54128340,1000,1000,1000,1000,0,0,0,0,0,0,0,0,0,0
1684165277.59960008,54228300,1000,1000,1000,1000,0,0,0,0,0,0,0,0,0,0
1684165277.69955993,54328260,1000,1000,1000,1000,0,0,0,0,0,0,0,0,0,0
1684165277.79952002,54428220,1000,1000,1000,1000,0,0,0,0,0,0,0,0,0,0
1684165277.89947987,54528180,1000,1000,1000,1000,0,0,0,0,0,0,0,0,0,0
1684165278.00027299,54628973,1000,1000,1000,1000,0,0,0,0,0,0,0,0,0,0
1684165278.10023308,54728933,1000,1000,1000,1000,0,0,0,0,0,0,0,0,0,0
1684165278.20019293,54828893,1000,1000,1000,1000,0,0,0,0,0,0,0,0,0,0
1684165278.30015302,54928853,1000,1000,1000,1000,0,0,0,0,0,0,0,0,0,0
1684165278.40011287,55028813,1000,1000,1000,1000,0,0,0,0,0,0,0,0,0,0
1684165278.50007296,55128773,1003,1003,1003,1003,0,0,0,0,0,0,0,0,0,0
1684165278.60003304,55228733,1033,1033,1033,1033,0,0,0,0,0,0,0,0,0,0
1684165278.69999290,55328693,1063,1063,1063,1063,0,0,0,0,0,0,0,0,0,0
1684165278.79995298,55428653,1093,1093,1093,1093,0,0,0,0,0,0,0,0,0,0
1684165278.89991307,55528613,1123,1123,1123,1123,0,0,0,0,0,0,0,0,0,0
1684165278.99987292,55628573,1185,1177,1178,1185,0,0,0,0,0,0,0,0,0,0
1684165279.09983301,55728533,1425,1419,1419,1425,0,0,0,0,0,0,0,0,0,0
1684165279.19979310,55828493,1599,1594,1594,1599,0,0,0,0,0,0,0,0,0,0
1684165279.29975295,55928453,1744,1738,1739,1743,0,0,0,0,0,0,0,0,0,0
1684165279.39971304,56028413,1844,1839,1839,1844,0,0,0,0,0,0,0,0,0,0
1684165279.49967289,56128373,1852,1847,1847,1852,0,0,0,0,0,0,0,0,0,0
1684165279.59963298,56228333,1784,1782,1783,1784,0,0,0,0,0,0,0,0,0,0
1684165279.69959307,56328293,1661,1661,1661,1661,0,0,0,0,0,0,0,0,0,0
1684165279.79955292,56428253,1607,1609,1609,1607,0,0,0,0,0,0,0,0,0,0
1684165279.89951301,56528213,1610,1613,1613,1611,0,0,0,0,0,0,0,0,0,0
1684165279.99947309,56628173,1629,1631,1630,1629,0,0,0,0,0,0,0,0,0,0
1684165280.10026598,56728966,1636,1638,1637,1637,0,0,0,0,0,0,0,0,0,0
1684165280.20022607,56828926,1629,1627,1625,1630,0,0,0,0,0,0,0,0,0,0
1684165280.30018592,56928886,1616,1616,1609,1622,0,0,0,0,0,0,0,0,0,0
1684165280.40014601,57028846,1609,1610,1605,1614,0,0,0,0,0,0,0,0,0,0
1684165280.50010610,57128806,1608,1608,1607,1609,0,0,0,0,0,0,0,0,0,0
1684165280.60006595,57228766,1612,1612,1614,1610,0,0,0,0,0,0,0,0,0,0
1684165280.70002604,57328726,1617,1617,1620,1613,0,0,0,0,0,0,0,0,0,0
1684165280.79998589,57428686,1620,1619,1623,1616,0,0,0,0,0,0,0,0,0,0
1684165280.89994597,57528646,1623,1622,1625,1619,0,0,0,0,0,0,0,0,0,0
1684165280.99990606,57628606,1596,1596,1605,1586,0,0,0,0,0,0,0,0,0,0
1684165281.09986591,57728566,1579,1579,1589,1570,0,0,0,0,0,0,0,0,0,0
1684165281.19982600,57828526,1568,1568,1570,1566,0,0,0,0,0,0,0,0,0,0
1684165281.29978609,57928486,1557,1558,1553,1562,0,0,0,0,0,0,0,0,0,0
1684165281.39974594,58028446,1549,1548,1539,1559,0,0,0,0,0,0,0,0,0,0
1684165281.49970603,58128406,1541,1541,1532,1550,0,0,0,0,0,0,0,0,0,0
1684165281.59966588,58228366,1535,1535,1529,1541,0,0,0,0,0,0,0,0,0,0
1684165281.69962597,58328326,1529,1529,1527,1531,0,0,0,0,0,0,0,0,0,0
1684165281.79958606,58428286,1529,1528,1529,1527,0,0,0,0,0,0,0,0,0,0
1684165281.89954591,58528246,1530,1530,1532,1527,0,0,0,0,0,0,0,0,0,0
1684165281.99950600,58628206,1532,1532,1535,1528,0,0,0,0,0,0,0,0,0,0
1684165282.09946609,58728166,1535,1535,1538,1531,0,0,0,0,0,0,0,0,0,0
1684165282.20025897,58828959,1539,1539,1542,1536,0,0,0,0,0,0,0,0,0,0
1684165282.30021906,58928919,1541,1541,1543,1540,0,0,0,0,0,0,0,0,0,0
1684165282.40017891,59028879,1544,1545,1545,1545,0,0,0,0,0,0,0,0,0,0
1684165282.50013900,59128839,1547,1548,1547,1549,0,0,0,0,0,0,0,0,0,0
1684165282.60009909,59228799,1550,1550,1549,1552,0,0,0,0,0,0,0,0,0,0
1684165282.70005894,59328759,1553,1552,1551,1555,0,0,0,0,0,0,0,0,0,0
1684165282.80001903,59428719,1553,1553,1555,1558,0,0,0,0,0,0,0,0,0,0
1684165282.89997888,59528679,1555,1555,1559,1561,0,0,0,0,0,0,0,0,0,0
1684165282.99993896,59628639,1558,1558,1562,1562,0,0,0,0,0,0,0,0,0,0
1684165283.09989905,59728599,1559,1559,1564,1562,0,0,0,0,0,0,0,0,0,0
1684165283.19985890,59828559,1562,1562,1565,1564,0,0,0,0,0,0,0,0,0,0
1684165283.29981899,59928519,1564,1565,1566,1565,0,0,0,0,0,0,0,0,0,0
1684165283.39977908,60028479,1566,1567,1567,1566,0,0,0,0,0,0,0,0,0,0
1684165283.49973893,60128439,1569,1569,1568,1568,0,0,0,0,0,0,0,0,0,0
1684165283.59969902,60228399,1570,1570,1568,1568,0,0,0,0,0,0,0,0,0,0
1684165283.69965887,60328359,1571,1571,1568,1569,0,0,0,0,0,0,0,0,0,0
1684165283.79961896,60428319,1572,1572,1569,1569,0,0,0,0,0,0,0,0,0,0
1684165283.89957905,60528279,1572,1573,1570,1570,0,0,0,0,0,0,0,0,0,0
1684165283.99953890,60628239,1573,1574,1571,1571,0,0,0,0,0,0,0,0,0,0
1684165284.09949899,60728199,1574,1574,1572,1572,0,0,0,0,0,0,0,0,0,0
1684165284.19945908,60828159,1574,1574,1573,1572,0,0,0,0,0,0,0,0,0,0
1684165284.30025196,60928952,1574,1574,1574,1573,0,0,0,0,0,0,0,0,0,0
1684165284.40021205,61028912,1575,1575,1575,1574,0,0,0,0,0,0,0,0,0,0
1684165284.50017190,61128872,1575,1575,1576,1575,0,0,0,0,0,0,0,0,0,0
1684165284.60013199,61228832,1575,1574,1575,1575,0,0,0,0,0,0,0,0,0,0
1684165284.70009208,61328792,1575,1575,1575,1576,0,0,0,0,0,0,0,0,0,0
1684165284.80005193,61428752,1576,1576,1576,1576,0,0,0,0,0,0,0,0,0,0
1684165284.90001202,61528712,1576,1575,1576,1576,0,0,0,0,0,0,0,0,0,0
1684165284.99997187,61628672,1577,1577,1577,1578,0,0,0,0,0,0,0,0,0,0
1684165285.09993196,61728632,1576,1576,1577,1577,0,0,0,0,0,0,0,0,0,0
1684165285.19989204,61828592,1577,1577,1578,1577,0,0,0,0,0,0,0,0,0,0
1684165285.29985189,61928552,1577,1577,1578,1577,0,0,0,0,0,0,0,0,0,0
1684165285.39981198,62028512,1578,1578,1578,1578,0,0,0,0,0,0,0,0,0,0
1684165285.49977207,62128472,1578,1578,1577,1578,0,0,0,0,0,0,0,0,0,0
1684165285.59973192,62228432,1579,1579,1579,1579,0,0,0,0,0,0,0,0,0,0
1684165285.69969201,62328392,1579,1579,1578,1578,0,0,0,0,0,0,0,0,0,0
1684165285.79965210,62428352,1579,1579,1578,1578,0,0,0,0,0,0,0,0,0,0
1684165285.89961195,62528312,1579,1579,1579,1578,0,0,0,0,0,0,0,0,0,0
1684165285.99957204,62628272,1578,1578,1578,1578,0,0,0,0,0,0,0,0,0,0
1684165286.09953189,62728232,1579,1579,1579,1579,0,0,0,0,0,0,0,0,0,0
1684165286.19949198,62828192,1578,1578,1578,1578,0,0,0,0,0,0,0,0,0,0
1684165286.30028510,62928985,1579,1579,1579,1579,0,0,0,0,0,0,0,0,0,0
1684165286.40024495,63028945,1579,1579,1579,1579,0,0,0,0,0,0,0,0,0,0
1684165286.50020504,63128905,1578,1578,1578,1579,0,0,0,0,0,0,0,0,0,0
1684165286.60016489,63228865,1579,1579,1579,1579,0,0,0,0,0,0,0,0,0,0
1684165286.70012498,63328825,1579,1579,1579,1579,0,0,0,0,0,0,0,0,0,0
1684165286.80008507,63428785,1579,1579,1579,1579,0,0,0,0,0,0,0,0,0,0
1684165286.90004492,63528745,1578,1578,1579,1579,0,0,0,0,0,0,0,0,0,0
1684165287.00000501,63628705,1578,1578,1578,1578,0,0,0,0,0,0,0,0,0,0
1684165287.09996510,63728665,1579,1579,1579,1579,0,0,0,0,0,0,0,0,0,0
1684165287.19992495,63828625,1579,1580,1580,1579,0,0,0,0,0,0,0,0,0,0
1684165287.29988503,63928585,1580,1580,1580,1580,0,0,0,0,0,0,0,0,0,0
1684165287.39984488,64028545,1579,1579,1579,1579,0,0,0,0,0,0,0,0,0,0
1684165287.49980497,64128505,1579,1579,1579,1579,0,0,0,0,0,0,0,0,0,0
1684165287.59976506,64228465,1579,1579,1579,1579,0,0,0,0,0,0,0,0,0,0
1684165287.69972491,64328425,1580,1580,1580,1580,0,0,0,0,0,0,0,0,0,0
1684165287.79968500,64428385,1580,1580,1580,1580,0,0,0,0,0,0,0,0,0,0
1684165287.89964509,64528345,1580,1580,1580,1580,0,0,0,0,0,0,0,0,0,0
1684165287.99960494,64628305,1579,1579,1580,1579,0,0,0,0,0,0,0,0,0,0
1684165288.09956503,64728265,1580,1580,1580,1580,0,0,0,0,0,0,0,0,0,0
1684165288.19952488,64828225,1581,1581,1581,1581,0,0,0,0,0,0,0,0,0,0
1684165288.29948497,64928185,1581,1581,1581,1581,0,0,0,0,0,0,0,0,0,0
1684165288.40027809,65028978,1580,1580,1580,1580,0,0,0,0,0,0,0,0,0,0
1684165288.50023794,65128938,1580,1581,1581,1581,0,0,0,0,0,0,0,0,0,0
1684165288.60019803,65228898,1580,1581,1581,1581,0,0,0,0,0,0,0,0,0,0
1684165288.70015788,65328858,1581,1581,1581,1581,0,0,0,0,0,0,0,0,0,0
1684165288.80011797,65428818,1581,1581,1580,1581,0,0,0,0,0,0,0,0,0,0
1684165288.90007806,65528778,1581,1581,1581,1581,0,0,0,0,0,0,0,0,0,0
1684165289.00003791,65628738,1580,1581,1587,1573,0,0,0,0,0,0,0,0,0,0
1684165289.09999800,65728698,1579,1581,1584,1572,0,0,0,0,0,0,0,0,0,0
1684165289.19995809,65828658,1577,1581,1576,1572,0,0,0,0,0,0,0,0,0,0
1684165289.29991794,65928618,1576,1580,1567,1571,0,0,0,0,0,0,0,0,0,0
1684165289.39987803,66028578,1576,1578,1560,1567,0,0,0,0,0,0,0,0,0,0
1684165289.49983788,66128538,1577,1577,1556,1562,0,0,0,0,0,0,0,0,0,0
1684165289.59979796,66228498,1579,1578,1556,1559,0,0,0,0,0,0,0,0,0,0
1684165289.69975805,66328458,1579,1578,1555,1556,0,0,0,0,0,0,0,0,0,0
1684165289.79971790,66428418,1579,1577,1556,1554,0,0,0,0,0,0,0,0,0,0
1684165289.89967799,66528378,1579,1578,1556,1555,0,0,0,0,0,0,0,0,0,0
1684165289.99963808,66628338,1577,1578,1557,1554,0,0,0,0,0,0,0,0,0,0
1684165290.09959793,66728298,1575,1577,1555,1554,0,0,0,0,0,0,0,0,0,0
1684165290.19955802,66828258,1575,1576,1554,1554,0,0,0,0,0,0,0,0,0,0
1684165290.29951787,66928218,1575,1576,1553,1553,0,0,0,0,0,0,0,0,0,0
1684165290.39947796,67028178,1575,1576,1551,1551,0,0,0,0,0,0,0,0,0,0
1684165290.50027108,67128971,1576,1577,1549,1549,0,0,0,0,0,0,0,0,0,0
1684165290.60023093,67228931,1578,1579,1547,1547,0,0,0,0,0,0,0,0,0,0
1684165290.70019102,67328891,1581,1581,1545,1545,0,0,0,0,0,0,0,0,0,0
1684165290.80015087,67428851,1584,1585,1543,1542,0,0,0,0,0,0,0,0,0,0
1684165290.90011096,67528811,1587,1588,1540,1540,0,0,0,0,0,0,0,0,0,0
1684165291.00007105,67628771,1591,1591,1539,1538,0,0,0,0,0,0,0,0,0,0
1684165291.10003090,67728731,1593,1593,1536,1536,0,0,0,0,0,0,0,0,0,0
1684165291.19999099,67828691,1595,1594,1535,1535,0,0,0,0,0,0,0,0,0,0
1684165291.29995108,67928651,1595,1595,1534,1537,0,0,0,0,0,0,0,0,0,0
1684165291.39991093,68028611,1594,1594,1535,1538,0,0,0,0,0,0,0,0,0,0
1684165291.49987102,68128571,1592,1592,1539,1542,0,0,0,0,0,0,0,0,0,0
1684165291.59983087,68228531,1588,1587,1544,1547,0,0,0,0,0,0,0,0,0,0
1684165291.69979095,68328491,1582,1580,1552,1555,0,0,0,0,0,0,0,0,0,0
1684165291.79975104,68428451,1574,1571,1562,1564,0,0,0,0,0,0,0,0,0,0
1684165291.89971089,68528411,1565,1560,1575,1576,0,0,0,0,0,0,0,0,0,0
1684165291.99967098,68628371,1553,1550,1587,1588,0,0,0,0,0,0,0,0,0,0
1684165292.09963107,68728331,1543,1541,1599,1600,0,0,0,0,0,0,0,0,0,0
1684165292.19959092,68828291,1534,1533,1607,1607,0,0,0,0,0,0,0,0,0,0
1684165292.29955101,68928251,1530,1530,1614,1612,0,0,0,0,0,0,0,0,0,0
1684165292.39951110,69028211,1529,1531,1616,1615,0,0,0,0,0,0,0,0,0,0
1684165292.49947095,69128171,1530,1533,1614,1613,0,0,0,0,0,0,0,0,0,0
1684165292.60026407,69228964,1537,1539,1610,1609,0,0,0,0,0,0,0,0,0,0
1684165292.70022392,69328924,1544,1546,1602,1603,0,0,0,0,0,0,0,0,0,0
1684165292.80018401,69428884,1553,1554,1596,1596,0,0,0,0,0,0,0,0,0,0
1684165292.90014410,69528844,1562,1562,1588,1588,0,0,0,0,0,0,0,0,0,0
1684165293.00010395,69628804,1572,1571,1582,1581,0,0,0,0,0,0,0,0,0,0
1684165293.10006404,69728764,1578,1577,1575,1574,0,0,0,0,0,0,0,0,0,0
1684165293.20002389,69828724,1582,1581,1570,1569,0,0,0,0,0,0,0,0,0,0
1684165293.29998398,69928684,1586,1584,1567,1566,0,0,0,0,0,0,0,0,0,0
1684165293.39994407,70028644,1588,1586,1566,1566,0,0,0,0,0,0,0,0,0,0
1684165293.49990392,70128604,1587,1585,1565,1566,0,0,0,0,0,0,0,0,0,0
1684165293.59986401,70228564,1585,1585,1567,1567,0,0,0,0,0,0,0,0,0,0
1684165293.69982409,70328524,1583,1583,1571,1570,0,0,0,0,0,0,0,0,0,0
1684165293.79978395,70428484,1581,1581,1574,1574,0,0,0,0,0,0,0,0,0,0
1684165293.89974403,70528444,1578,1578,1576,1576,0,0,0,0,0,0,0,0,0,0
1684165293.99970388,70628404,1575,1576,1579,1579,0,0,0,0,0,0,0,0,0,0
1684165294.09966397,70728364,1631,1630,1566,1564,0,0,0,0,0,0,0,0,0,0
1684165294.19962406,70828324,1609,1608,1566,1565,0,0,0,0,0,0,0,0,0,0
1684165294.29958391,70928284,1589,1588,1572,1572,0,0,0,0,0,0,0,0,0,0
1684165294.39954400,71028244,1573,1573,1579,1581,0,0,0,0,0,0,0,0,0,0
1684165294.49950409,71128204,1560,1561,1586,1588,0,0,0,0,0,0,0,0,0,0
1684165294.59946394,71228164,1553,1554,1591,1592,0,0,0,0,0,0,0,0,0,0
1684165294.70025706,71328957,1550,1553,1593,1593,0,0,0,0,0,0,0,0,0,0
1684165294.80021691,71428917,1551,1553,1593,1592,0,0,0,0,0,0,0,0,0,0
1684165294.90017700,71528877,1555,1558,1592,1591,0,0,0,0,0,0,0,0,0,0
1684165295.00013709,71628837,1560,1562,1589,1589,0,0,0,0,0,0,0,0,0,0
1684165295.10009694,71728797,1565,1566,1585,1585,0,0,0,0,0,0,0,0,0,0
1684165295.20005703,71828757,1569,1570,1581,1582,0,0,0,0,0,0,0,0,0,0
1684165295.30001688,71928717,1574,1574,1578,1578,0,0,0,0,0,0,0,0,0,0
1684165295.39997697,72028677,1579,1578,1576,1576,0,0,0,0,0,0,0,0,0,0
1684165295.49993706,72128637,1582,1581,1573,1573,0,0,0,0,0,0,0,0,0,0
1684165295.59989691,72228597,1586,1585,1573,1573,0,0,0,0,0,0,0,0,0,0
1684165295.69985700,72328557,1588,1586,1572,1572,0,0,0,0,0,0,0,0,0,0
1684165295.79981709,72428517,1588,1587,1572,1572,0,0,0,0,0,0,0,0,0,0
1684165295.89977694,72528477,1588,1587,1574,1573,0,0,0,0,0,0,0,0,0,0
1684165295.99973702,72628437,1585,1585,1574,1574,0,0,0,0,0,0,0,0,0,0
1684165296.09969687,72728397,1584,1584,1577,1577,0,0,0,0,0,0,0,0,0,0
1684165296.19965696,72828357,1582,1583,1579,1579,0,0,0,0,0,0,0,0,0,0
1684165296.29961705,72928317,1580,1581,1581,1581,0,0,0,0,0,0,0,0,0,0
1684165296.39957690,73028277,1578,1579,1582,1582,0,0,0,0,0,0,0,0,0,0
1684165296.49953699,73128237,1578,1578,1583,1583,0,0,0,0,0,0,0,0,0,0
1684165296.59949708,73228197,1578,1578,1584,1585,0,0,0,0,0,0,0,0,0,0
1684165296.69945693,73328157,1578,1578,1585,1585,0,0,0,0,0,0,0,0,0,0
1684165296.80025005,73428950,1577,1577,1584,1584,0,0,0,0,0,0,0,0,0,0
1684165296.90020990,73528910,1578,1578,1583,1583,0,0,0,0,0,0,0,0,0,0
1684165297.00016999,73628870,1578,1581,1588,1575,0,0,0,0,0,0,0,0,0,0
1684165297.10013008,73728830,1578,1584,1585,1572,0,0,0,0,0,0,0,0,0,0
1684165297.20008993,73828790,1579,1584,1575,1571,0,0,0,0,0,0,0,0,0,0
1684165297.30005002,73928750,1579,1582,1565,1569,0,0,0,0,0,0,0,0,0,0
1684165297.40000987,74028710,1581,1582,1558,1565,0,0,0,0,0,0,0,0,0,0
1684165297.49996996,74128670,1582,1581,1552,1559,0,0,0,0,0,0,0,0,0,0
1684165297.59993005,74228630,1583,1581,1550,1554,0,0,0,0,0,0,0,0,0,0
1684165297.69988990,74328590,1584,1581,1551,1551,0,0,0,0,0,0,0,0,0,0
1684165297.79984999,74428550,1584,1582,1553,1550,0,0,0,0,0,0,0,0,0,0
1684165297.89981008,74528510,1582,1582,1553,1551,0,0,0,0,0,0,0,0,0,0
1684165297.99976993,74628470,1581,1581,1555,1552,0,0,0,0,0,0,0,0,0,0
1684165298.09973001,74728430,1578,1580,1554,1553,0,0,0,0,0,0,0,0,0,0
1684165298.19968987,74828390,1576,1578,1553,1553,0,0,0,0,0,0,0,0,0,0
1684165298.29964995,74928350,1576,1578,1552,1554,0,0,0,0,0,0,0,0,0,0
1684165298.39961004,75028310,1577,1578,1552,1553,0,0,0,0,0,0,0,0,0,0
1684165298.49956989,75128270,1578,1579,1551,1551,0,0,0,0,0,0,0,0,0,0
1684165298.59952998,75228230,1579,1580,1550,1549,0,0,0,0,0,0,0,0,0,0
1684165298.69949007,75328190,1581,1582,1547,1547,0,0,0,0,0,0,0,0,0,0
1684165298.80028296,75428983,1584,1585,1546,1546,0,0,0,0,0,0,0,0,0,0
1684165298.90024304,75528943,1587,1588,1544,1544,0,0,0,0,0,0,0,0,0,0
1684165299.00020289,75628903,1590,1591,1541,1542,0,0,0,0,0,0,0,0,0,0
1684165299.10016298,75728863,1594,1594,1540,1541,0,0,0,0,0,0,0,0,0,0
1684165299.20012307,75828823,1595,1595,1539,1542,0,0,0,0,0,0,0,0,0,0
1684165299.30008292,75928783,1594,1593,1541,1544,0,0,0,0,0,0,0,0,0,0
1684165299.40004301,76028743,1592,1589,1546,1548,0,0,0,0,0,0,0,0,0,0
1684165299.50000310,76128703,1585,1581,1552,1555,0,0,0,0,0,0,0,0,0,0
1684165299.59996295,76228663,1579,1574,1563,1565,0,0,0,0,0,0,0,0,0,0
1684165299.69992304,76328623,1569,1564,1574,1575,0,0,0,0,0,0,0,0,0,0
1684165299.79988289,76428583,1559,1557,1585,1586,0,0,0,0,0,0,0,0,0,0
1684165299.89984298,76528543,1549,1548,1595,1595,0,0,0,0,0,0,0,0,0,0
1684165299.99980307,76628503,1543,1543,1603,1602,0,0,0,0,0,0,0,0,0,0
1684165300.09976292,76728463,1540,1541,1607,1607,0,0,0,0,0,0,0,0,0,0
1684165300.19972301,76828423,1541,1542,1609,1608,0,0,0,0,0,0,0,0,0,0
1684165300.29968309,76928383,1544,1546,1608,1608,0,0,0,0,0,0,0,0,0,0
1684165300.39964294,77028343,1548,1549,1606,1605,0,0,0,0,0,0,0,0,0,0
1684165300.49960303,77128303,1553,1554,1603,1601,0,0,0,0,0,0,0,0,0,0
1684165300.59956288,77228263,1558,1559,1598,1596,0,0,0,0,0,0,0,0,0,0
1684165300.69952297,77328223,1564,1564,1593,1592,0,0,0,0,0,0,0,0,0,0
1684165300.79948306,77428183,1569,1570,1587,1587,0,0,0,0,0,0,0,0,0,0
1684165300.90027595,77528976,1574,1574,1581,1582,0,0,0,0,0,0,0,0,0,0
1684165301.00023603,77628936,1579,1578,1576,1577,0,0,0,0,0,0,0,0,0,0
1684165301.10019588,77728896,1583,1582,1573,1574,0,0,0,0,0,0,0,0,0,0
1684165301.20015597,77828856,1584,1583,1571,1570,0,0,0,0,0,0,0,0,0,0
1684165301.30011606,77928816,1585,1584,1570,1570,0,0,0,0,0,0,0,0,0,0
1684165301.40007591,78028776,1584,1583,1569,1570,0,0,0,0,0,0,0,0,0,0
1684165301.50003600,78128736,1584,1583,1572,1572,0,0,0,0,0,0,0,0,0,0
1684165301.59999609,78228696,1582,1581,1574,1574,0,0,0,0,0,0,0,0,0,0
1684165301.69995594,78328656,1580,1579,1577,1576,0,0,0,0,0,0,0,0,0,0
1684165301.79991603,78428616,1576,1577,1578,1578,0,0,0,0,0,0,0,0,0,0
1684165301.89987588,78528576,1575,1575,1580,1580,0,0,0,0,0,0,0,0,0,0
1684165301.99983597,78628536,1573,1574,1581,1581,0,0,0,0,0,0,0,0,0,0
1684165302.09979606,78728496,1573,1575,1583,1583,0,0,0,0,0,0,0,0,0,0
1684165302.19975591,78828456,1575,1575,1584,1584,0,0,0,0,0,0,0,0,0,0
1684165302.29971600,78928416,1574,1574,1583,1582,0,0,0,0,0,0,0,0,0,0
1684165302.39967608,79028376,1574,1575,1581,1581,0,0,0,0,0,0,0,0,0,0
1684165302.49963593,79128336,1576,1576,1582,1582,0,0,0,0,0,0,0,0,0,0
1684165302.59959602,79228296,1578,1577,1581,1581,0,0,0,0,0,0,0,0,0,0
1684165302.69955587,79328256,1580,1579,1581,1581,0,0,0,0,0,0,0,0,0,0
1684165302.79951596,79428216,1579,1579,1579,1578,0,0,0,0,0,0,0,0,0,0
1684165302.89947605,79528176,1581,1581,1579,1579,0,0,0,0,0,0,0,0,0,0
1684165303.00026894,79628969,1581,1581,1579,1579,0,0,0,0,0,0,0,0,0,0
1684165303.10022902,79728929,1581,1582,1578,1579,0,0,0,0,0,0,0,0,0,0
1684165303.20018888,79828889,1580,1580,1577,1578,0,0,0,0,0,0,0,0,0,0
1684165303.30014896,79928849,1580,1580,1578,1578,0,0,0,0,0,0,0,0,0,0
1684165303.40010905,80028809,1581,1581,1579,1579,0,0,0,0,0,0,0,0,0,0
1684165303.50006890,80128769,1580,1580,1579,1579,0,0,0,0,0,0,0,0,0,0
1684165303.60002899,80228729,1580,1581,1580,1580,0,0,0,0,0,0,0,0,0,0
1684165303.69998908,80328689,1579,1579,1579,1579,0,0,0,0,0,0,0,0,0,0
1684165303.79994893,80428649,1579,1579,1580,1580,0,0,0,0,0,0,0,0,0,0
1684165303.89990902,80528609,1579,1580,1581,1581,0,0,0,0,0,0,0,0,0,0
1684165303.99986887,80628569,1580,1581,1582,1582,0,0,0,0,0,0,0,0,0,0
1684165304.09982896,80728529,1580,1580,1582,1581,0,0,0,0,0,0,0,0,0,0
1684165304.19978905,80828489,1580,1580,1581,1581,0,0,0,0,0,0,0,0,0,0
1684165304.29974890,80928449,1581,1581,1582,1582,0,0,0,0,0,0,0,0,0,0
1684165304.39970899,81028409,1580,1581,1581,1581,0,0,0,0,0,0,0,0,0,0
1684165304.49966908,81128369,1581,1581,1581,1581,0,0,0,0,0,0,0,0,0,0
1684165304.59962893,81228329,1581,1581,1581,1581,0,0,0,0,0,0,0,0,0,0
1684165304.69958901,81328289,1582,1582,1582,1581,0,0,0,0,0,0,0,0,0,0
1684165304.79954886,81428249,1581,1581,1581,1581,0,0,0,0,0,0,0,0,0,0
1684165304.89950895,81528209,1582,1582,1582,1582,0,0,0,0,0,0,0,0,0,0
1684165304.99946904,81628169,1581,1582,1584,1577,0,0,0,0,0,0,0,0,0,0
1684165305.10026193,81728962,1581,1583,1587,1573,0,0,0,0,0,0,0,0,0,0
1684165305.20022202,81828922,1580,1584,1581,1573,0,0,0,0,0,0,0,0,0,0
1684165305.30018187,81928882,1578,1581,1571,1572,0,0,0,0,0,0,0,0,0,0
1684165305.40014195,82028842,1578,1580,1563,1569,0,0,0,0,0,0,0,0,0,0
1684165305.50010204,82128802,1578,1579,1558,1565,0,0,0,0,0,0,0,0,0,0
1684165305.60006189,82228762,1579,1579,1555,1560,0,0,0,0,0,0,0,0,0,0
1684165305.70002198,82328722,1581,1579,1555,1557,0,0,0,0,0,0,0,0,0,0
1684165305.79998207,82428682,1580,1578,1555,1554,0,0,0,0,0,0,0,0,0,0
1684165305.89994192,82528642,1580,1578,1556,1553,0,0,0,0,0,0,0,0,0,0
1684165305.99990201,82628602,1578,1578,1556,1553,0,0,0,0,0,0,0,0,0,0
1684165306.09986210,82728562,1576,1578,1555,1554,0,0,0,0,0,0,0,0,0,0
1684165306.19982195,82828522,1576,1578,1555,1555,0,0,0,0,0,0,0,0,0,0
1684165306.29978204,82928482,1576,1577,1554,1554,0,0,0,0,0,0,0,0,0,0
1684165306.39974189,83028442,1576,1578,1553,1554,0,0,0,0,0,0,0,0,0,0
1684165306.49970198,83128402,1577,1578,1551,1552,0,0,0,0,0,0,0,0,0,0
1684165306.59966207,83228362,1578,1579,1550,1549,0,0,0,0,0,0,0,0,0,0
1684165306.69962192,83328322,1580,1580,1547,1547,0,0,0,0,0,0,0,0,0,0
1684165306.79958200,83428282,1582,1583,1544,1544,0,0,0,0,0,0,0,0,0,0
1684165306.89954209,83528242,1585,1585,1542,1542,0,0,0,0,0,0,0,0,0,0
1684165306.99950194,83628202,1587,1587,1539,1539,0,0,0,0,0,0,0,0,0,0
1684165307.09946203,83728162,1589,1590,1538,1538,0,0,0,0,0,0,0,0,0,0
1684165307.20025492,83828955,1591,1592,1537,1537,0,0,0,0,0,0,0,0,0,0
1684165307.30021501,83928915,1593,1594,1536,1537,0,0,0,0,0,0,0,0,0,0
1684165307.40017509,84028875,1593,1593,1536,1538,0,0,0,0,0,0,0,0,0,0
1684165307.50013494,84128835,1592,1591,1540,1542,0,0,0,0,0,0,0,0,0,0
1684165307.60009503,84228795,1590,1588,1545,1548,0,0,0,0,0,0,0,0,0,0
1684165307.70005488,84328755,1583,1580,1552,1555,0,0,0,0,0,0,0,0,0,0
1684165307.80001497,84428715,1575,1571,1563,1565,0,0,0,0,0,0,0,0,0,0
1684165307.89997506,84528675,1565,1561,1575,1576,0,0,0,0,0,0,0,0,0,0
1684165307.99993491,84628635,1555,1551,1586,1587,0,0,0,0,0,0,0,0,0,0
1684165308.09989500,84728595,1545,1543,1598,1598,0,0,0,0,0,0,0,0,0,0
1684165308.19985509,84828555,1537,1536,1606,1605,0,0,0,0,0,0,0,0,0,0
1684165308.29981494,84928515,1533,1534,1611,1610,0,0,0,0,0,0,0,0,0,0
1684165308.39977503,85028475,1533,1535,1613,1612,0,0,0,0,0,0,0,0,0,0
1684165308.49973488,85128435,1536,1538,1611,1610,0,0,0,0,0,0,0,0,0,0
1684165308.59969497,85228395,1542,1544,1607,1607,0,0,0,0,0,0,0,0,0,0
1684165308.69965506,85328355,1549,1550,1602,1601,0,0,0,0,0,0,0,0,0,0
1684165308.79961491,85428315,1557,1557,1596,1595,0,0,0,0,0,0,0,0,0,0
1684165308.89957500,85528275,1565,1565,1589,1589,0,0,0,0,0,0,0,0,0,0
1684165308.99953508,85628235,1573,1572,1583,1582,0,0,0,0,0,0,0,0,0,0
1684165309.09949493,85728195,1579,1579,1578,1577,0,0,0,0,0,0,0,0,0,0
1684165309.19945502,85828155,1583,1582,1572,1572,0,0,0,0,0,0,0,0,0,0
1684165309.30024791,85928948,1585,1584,1569,1569,0,0,0,0,0,0,0,0,0,0
1684165309.40020800,86028908,1586,1584,1567,1568,0,0,0,0,0,0,0,0,0,0
1684165309.50016809,86128868,1586,1585,1568,1569,0,0,0,0,0,0,0,0,0,0
1684165309.60012794,86228828,1583,1583,1569,1569,0,0,0,0,0,0,0,0,0,0
1684165309.70008802,86328788,1582,1581,1572,1572,0,0,0,0,0,0,0,0,0,0
1684165309.80004787,86428748,1579,1579,1575,1574,0,0,0,0,0,0,0,0,0,0
1684165309.90000796,86528708,1577,1576,1577,1577,0,0,0,0,0,0,0,0,0,0
1684165309.99996805,86628668,1574,1574,1579,1579,0,0,0,0,0,0,0,0,0,0
1684165310.09992790,86728628,1572,1573,1581,1581,0,0,0,0,0,0,0,0,0,0
1684165310.19988799,86828588,1572,1573,1582,1582,0,0,0,0,0,0,0,0,0,0
1684165310.29984808,86928548,1572,1573,1583,1583,0,0,0,0,0,0,0,0,0,0
1684165310.39980793,87028508,1574,1574,1584,1583,0,0,0,0,0,0,0,0,0,0
1684165310.49976802,87128468,1574,1575,1583,1582,0,0,0,0,0,0,0,0,0,0
1684165310.59972787,87228428,1576,1576,1582,1582,0,0,0,0,0,0,0,0,0,0
1684165310.69968796,87328388,1577,1577,1580,1580,0,0,0,0,0,0,0,0,0,0
1684165310.79964805,87428348,1578,1578,1579,1579,0,0,0,0,0,0,0,0,0,0
1684165310.89960790,87528308,1580,1579,1579,1579,0,0,0,0,0,0,0,0,0,0
1684165310.99956799,87628268,1580,1580,1578,1578,0,0,0,0,0,0,0,0,0,0
1684165311.09952807,87728228,1581,1581,1578,1578,0,0,0,0,0,0,0,0,0,0
1684165311.19948792,87828188,1580,1580,1577,1577,0,0,0,0,0,0,0,0,0,0
1684165311.30028105,87928981,1580,1580,1577,1577,0,0,0,0,0,0,0,0,0,0
1684165311.40024090,88028941,1581,1581,1578,1579,0,0,0,0,0,0,0,0,0,0
1684165311.50020099,88128901,1580,1581,1578,1578,0,0,0,0,0,0,0,0,0,0
1684165311.60016108,88228861,1581,1581,1579,1579,0,0,0,0,0,0,0,0,0,0
1684165311.70012093,88328821,1581,1580,1580,1579,0,0,0,0,0,0,0,0,0,0
1684165311.80008101,88428781,1580,1580,1580,1580,0,0,0,0,0,0,0,0,0,0
1684165311.90004086,88528741,1579,1578,1580,1579,0,0,0,0,0,0,0,0,0,0
1684165312.00000095,88628701,1579,1579,1580,1580,0,0,0,0,0,0,0,0,0,0
1684165312.09996104,88728661,1579,1580,1581,1581,0,0,0,0,0,0,0,0,0,0
1684165312.19992089,88828621,1579,1580,1581,1581,0,0,0,0,0,0,0,0,0,0
1684165312.29988098,88928581,1580,1580,1581,1582,0,0,0,0,0,0,0,0,0,0
1684165312.39984107,89028541,1580,1581,1582,1582,0,0,0,0,0,0,0,0,0,0
1684165312.49980092,89128501,1580,1580,1581,1581,0,0,0,0,0,0,0,0,0,0
1684165312.59976101,89228461,1580,1580,1581,1580,0,0,0,0,0,0,0,0,0,0
1684165312.69972110,89328421,1581,1581,1581,1581,0,0,0,0,0,0,0,0,0,0
1684165312.79968095,89428381,1581,1581,1581,1581,0,0,0,0,0,0,0,0,0,0
1684165312.89964104,89528341,1581,1582,1584,1577,0,0,0,0,0,0,0,0,0,0
1684165312.99960089,89628301,1581,1583,1587,1572,0,0,0,0,0,0,0,0,0,0
1684165313.09956098,89728261,1580,1580,1582,1574,0,0,0,0,0,0,0,0,0,0
1684165313.19952106,89828221,1576,1576,1574,1575,0,0,0,0,0,0,0,0,0,0
1684165313.29948092,89928181,1573,1572,1568,1575,0,0,0,0,0,0,0,0,0,0
1684165313.40027404,90028974,1569,1569,1565,1572,0,0,0,0,0,0,0,0,0,0
1684165313.50023389,90128934,1568,1567,1565,1570,0,0,0,0,0,0,0,0,0,0
1684165313.60019398,90228894,1566,1566,1565,1568,0,0,0,0,0,0,0,0,0,0
1684165313.70015407,90328854,1566,1565,1566,1565,0,0,0,0,0,0,0,0,0,0
1684165313.80011392,90428814,1566,1566,1568,1565,0,0,0,0,0,0,0,0,0,0
1684165313.90007401,90528774,1566,1566,1567,1565,0,0,0,0,0,0,0,0,0,0
1684165314.00003409,90628734,1566,1566,1567,1565,0,0,0,0,0,0,0,0,0,0
1684165314.09999394,90728694,1564,1564,1565,1564,0,0,0,0,0,0,0,0,0,0
1684165314.19995403,90828654,1564,1564,1564,1564,0,0,0,0,0,0,0,0,0,0
1684165314.29991388,90928614,1563,1563,1563,1563,0,0,0,0,0,0,0,0,0,0
1684165314.39987397,91028574,1562,1563,1563,1563,0,0,0,0,0,0,0,0,0,0
1684165314.49983406,91128534,1562,1562,1562,1562,0,0,0,0,0,0,0,0,0,0
1684165314.59979391,91228494,1561,1561,1562,1561,0,0,0,0,0,0,0,0,0,0
1684165314.69975400,91328454,1561,1561,1561,1561,0,0,0,0,0,0,0,0,0,0
1684165314.79971409,91428414,1560,1560,1560,1560,0,0,0,0,0,0,0,0,0,0
1684165314.89967394,91528374,1559,1558,1559,1558,0,0,0,0,0,0,0,0,0,0
1684165314.99963403,91628334,1558,1558,1559,1558,0,0,0,0,0,0,0,0,0,0
1684165315.09959388,91728294,1558,1558,1558,1558,0,0,0,0,0,0,0,0,0,0
1684165315.19955397,91828254,1558,1558,1558,1557,0,0,0,0,0,0,0,0,0,0
1684165315.29951406,91928214,1558,1558,1558,1557,0,0,0,0,0,0,0,0,0,0
1684165315.39947391,92028174,1557,1557,1558,1557,0,0,0,0,0,0,0,0,0,0
1684165315.50026703,92128967,1557,1557,1558,1556,0,0,0,0,0,0,0,0,0,0
1684165315.60022688,92228927,1557,1557,1559,1555,0,0,0,0,0,0,0,0,0,0
1684165315.70018697,92328887,1559,1559,1559,1558,0,0,0,0,0,0,0,0,0,0
1684165315.80014706,92428847,1559,1559,1557,1560,0,0,0,0,0,0,0,0,0,0
1684165315.90010691,92528807,1560,1560,1557,1563,0,0,0,0,0,0,0,0,0,0
1684165316.00006700,92628767,1561,1560,1557,1564,0,0,0,0,0,0,0,0,0,0
1684165316.10002708,92728727,1561,1561,1558,1563,0,0,0,0,0,0,0,0,0,0
1684165316.19998693,92828687,1561,1562,1561,1562,0,0,0,0,0,0,0,0,0,0
1684165316.29994702,92928647,1560,1560,1561,1559,0,0,0,0,0,0,0,0,0,0
1684165316.39990687,93028607,1561,1560,1561,1560,0,0,0,0,0,0,0,0,0,0
1684165316.49986696,93128567,1558,1558,1558,1559,0,0,0,0,0,0,0,0,0,0
1684165316.59982705,93228527,1554,1554,1554,1556,0,0,0,0,0,0,0,0,0,0
1684165316.69978690,93328487,1549,1549,1550,1551,0,0,0,0,0,0,0,0,0,0
1684165316.79974699,93428447,1542,1542,1543,1544,0,0,0,0,0,0,0,0,0,0
1684165316.89970708,93528407,1536,1536,1537,1538,0,0,0,0,0,0,0,0,0,0
1684165316.99966693,93628367,1528,1528,1530,1530,0,0,0,0,0,0,0,0,0,0
1684165317.09962702,93728327,1521,1521,1523,1523,0,0,0,0,0,0,0,0,0,0
1684165317.19958687,93828287,1519,1519,1520,1520,0,0,0,0,0,0,0,0,0,0
1684165317.29954696,93928247,1520,1520,1519,1520,0,0,0,0,0,0,0,0,0,0
1684165317.39950705,94028207,1522,1522,1521,1521,0,0,0,0,0,0,0,0,0,0
1684165317.49946690,94128167,1526,1526,1523,1524,0,0,0,0,0,0,0,0,0,0
1684165317.60026002,94228960,1529,1529,1526,1527,0,0,0,0,0,0,0,0,0,0
1684165317.70021987,94328920,1534,1533,1531,1531,0,0,0,0,0,0,0,0,0,0
1684165317.80017996,94428880,1539,1538,1536,1536,0,0,0,0,0,0,0,0,0,0
1684165317.90014005,94528840,1541,1541,1539,1539,0,0,0,0,0,0,0,0,0,0
1684165318.00009990,94628800,1542,1542,1541,1541,0,0,0,0,0,0,0,0,0,0
1684165318.10005999,94728760,1543,1543,1543,1543,0,0,0,0,0,0,0,0,0,0
1684165318.20002007,94828720,1545,1545,1545,1545,0,0,0,0,0,0,0,0,0,0
1684165318.29997993,94928680,1545,1546,1547,1546,0,0,0,0,0,0,0,0,0,0
1684165318.39994001,95028640,1545,1545,1547,1546,0,0,0,0,0,0,0,0,0,0
1684165318.49989986,95128600,1545,1545,1547,1546,0,0,0,0,0,0,0,0,0,0
1684165318.59985995,95228560,1544,1544,1546,1546,0,0,0,0,0,0,0,0,0,0
1684165318.69982004,95328520,1545,1545,1547,1547,0,0,0,0,0,0,0,0,0,0
1684165318.79977989,95428480,1544,1545,1546,1546,0,0,0,0,0,0,0,0,0,0
1684165318.89973998,95528440,1545,1545,1546,1546,0,0,0,0,0,0,0,0,0,0
1684165318.99970007,95628400,1545,1546,1546,1546,0,0,0,0,0,0,0,0,0,0
1684165319.09965992,95728360,1544,1544,1544,1544,0,0,0,0,0,0,0,0,0,0
1684165319.19962001,95828320,1546,1546,1545,1545,0,0,0,0,0,0,0,0,0,0
1684165319.29958010,95928280,1545,1545,1545,1544,0,0,0,0,0,0,0,0,0,0
1684165319.39953995,96028240,1545,1545,1544,1544,0,0,0,0,0,0,0,0,0,0
1684165319.49950004,96128200,1545,1545,1544,1544,0,0,0,0,0,0,0,0,0,0
1684165319.59945989,96228160,1545,1545,1544,1545,0,0,0,0,0,0,0,0,0,0
1684165319.70025301,96328953,1546,1546,1545,1545,0,0,0,0,0,0,0,0,0,0
1684165319.80021310,96428913,1545,1545,1545,1544,0,0,0,0,0,0,0,0,0,0
1684165319.90017295,96528873,1545,1545,1545,1545,0,0,0,0,0,0,0,0,0,0
1684165320.00013304,96628833,1544,1544,1544,1544,0,0,0,0,0,0,0,0,0,0
1684165320.10009289,96728793,1544,1543,1544,1544,0,0,0,0,0,0,0,0,0,0
1684165320.20005298,96828753,1542,1543,1543,1543,0,0,0,0,0,0,0,0,0,0
1684165320.30001307,96928713,1543,1543,1543,1543,0,0,0,0,0,0,0,0,0,0
1684165320.39997292,97028673,1543,1543,1543,1543,0,0,0,0,0,0,0,0,0,0
1684165320.49993300,97128633,1543,1543,1544,1543,0,0,0,0,0,0,0,0,0,0
1684165320.59989309,97228593,1543,1543,1544,1543,0,0,0,0,0,0,0,0,0,0
1684165320.69985294,97328553,1544,1543,1543,1544,0,0,0,0,0,0,0,0,0,0
1684165320.79981303,97428513,1545,1545,1545,1545,0,0,0,0,0,0,0,0,0,0
1684165320.89977288,97528473,1543,1544,1544,1543,0,0,0,0,0,0,0,0,0,0
1684165320.99973297,97628433,1545,1544,1544,1544,0,0,0,0,0,0,0,0,0,0
1684165321.09969306,97728393,1545,1544,1544,1544,0,0,0,0,0,0,0,0,0,0
1684165321.19965291,97828353,1544,1544,1544,1544,0,0,0,0,0,0,0,0,0,0
1684165321.29961300,97928313,1544,1544,1544,1543,0,0,0,0,0,0,0,0,0,0
1684165321.39957309,98028273,1544,1545,1544,1544,0,0,0,0,0,0,0,0,0,0
1684165321.49953294,98128233,1545,1545,1545,1545,0,0,0,0,0,0,0,0,0,0
1684165321.59949303,98228193,1544,1545,1544,1545,0,0,0,0,0,0,0,0,0,0
1684165321.70028591,98328986,1545,1544,1544,1544,0,0,0,0,0,0,0,0,0,0
1684165321.80024600,98428946,1544,1545,1545,1544,0,0,0,0,0,0,0,0,0,0
1684165321.90020609,98528906,1544,1544,1545,1544,0,0,0,0,0,0,0,0,0,0
1684165322.00016594,98628866,1544,1544,1544,1544,0,0,0,0,0,0,0,0,0,0
1684165322.10012603,98728826,1545,1545,1545,1545,0,0,0,0,0,0,0,0,0,0
1684165322.20008588,98828786,1545,1545,1545,1545,0,0,0,0,0,0,0,0,0,0
1684165322.30004597,98928746,1546,1546,1546,1546,0,0,0,0,0,0,0,0,0,0
1684165322.40000606,99028706,1545,1545,1545,1545,0,0,0,0,0,0,0,0,0,0
1684165322.49996591,99128666,1545,1545,1545,1545,0,0,0,0,0,0,0,0,0,0
1684165322.59992599,99228626,1543,1544,1544,1544,0,0,0,0,0,0,0,0,0,0
1684165322.69988608,99328586,1544,1544,1544,1544,0,0,0,0,0,0,0,0,0,0
1684165322.79984593,99428546,1544,1544,1544,1544,0,0,0,0,0,0,0,0,0,0
1684165322.89980602,99528506,1545,1545,1545,1545,0,0,0,0,0,0,0,0,0,0
1684165322.99976587,99628466,1544,1544,1544,1544,0,0,0,0,0,0,0,0,0,0
1684165323.09972596,99728426,1544,1544,1544,1544,0,0,0,0,0,0,0,0,0,0
1684165323.19968605,99828386,1545,1545,1545,1545,0,0,0,0,0,0,0,0,0,0
1684165323.29964590,99928346,1545,1545,1544,1545,0,0,0,0,0,0,0,0,0,0
1684165323.39960599,100028306,1545,1545,1544,1545,0,0,0,0,0,0,0,0,0,0
1684165323.49956608,100128266,1544,1544,1544,1544,0,0,0,0,0,0,0,0,0,0
1684165323.59952593,100228226,1543,1544,1544,1544,0,0,0,0,0,0,0,0,0,0
1684165323.69948602,100328186,1543,1543,1544,1543,0,0,0,0,0,0,0,0,0,0
1684165323.80027890,100428979,1544,1543,1544,1544,0,0,0,0,0,0,0,0,0,0
1684165323.90023899,100528939,1544,1544,1544,1544,0,0,0,0,0,0,0,0,0,0
1684165324.00019908,100628899,1543,1543,1543,1543,0,0,0,0,0,0,0,0,0,0
1684165324.10015893,100728859,1543,1543,1543,1544,0,0,0,0,0,0,0,0,0,0
1684165324.20011902,100828819,1545,1545,1545,1545,0,0,0,0,0,0,0,0,0,0
1684165324.30007887,100928779,1544,1544,1544,1544,0,0,0,0,0,0,0,0,0,0
1684165324.40003896,101028739,1545,1545,1545,1545,0,0,0,0,0,0,0,0,0,0
1684165324.49999905,101128699,1544,1544,1544,1544,0,0,0,0,0,0,0,0,0,0
1684165324.59995890,101228659,1544,1545,1545,1544,0,0,0,0,0,0,0,0,0,0
1684165324.69991899,101328619,1544,1544,1544,1544,0,0,0,0,0,0,0,0,0,0
1684165324.79987907,101428579,1544,1544,1544,1544,0,0,0,0,0,0,0,0,0,0
1684165324.89983892,101528539,1546,1545,1545,1545,0,0,0,0,0,0,0,0,0,0
1684165324.99979901,101628499,1544,1544,1544,1544,0,0,0,0,0,0,0,0,0,0
1684165325.09975886,101728459,1544,1544,1544,1545,0,0,0,0,0,0,0,0,0,0
1684165325.19971895,101828419,1544,1545,1545,1545,0,0,0,0,0,0,0,0,0,0
1684165325.29967904,101928379,1545,1544,1544,1544,0,0,0,0,0,0,0,0,0,0
1684165325.39963889,102028339,1544,1544,1544,1544,0,0,0,0,0,0,0,0,0,0
1684165325.49959898,102128299,1545,1545,1545,1545,0,0,0,0,0,0,0,0,0,0
1684165325.59955907,102228259,1545,1545,1545,1545,0,0,0,0,0,0,0,0,0,0
1684165325.69951892,102328219,1544,1544,1544,1544,0,0,0,0,0,0,0,0,0,0
1684165325.79947901,102428179,1544,1544,1544,1544,0,0,0,0,0,0,0,0,0,0
1684165325.90027189,102528972,1544,1544,1544,1544,0,0,0,0,0,0,0,0,0,0
1684165326.00023198,102628932,1545,1545,1545,1545,0,0,0,0,0,0,0,0,0,0
1684165326.10019207,102728892,1545,1544,1545,1544,0,0,0,0,0,0,0,0,0,0
1684165326.20015192,102828852,1544,1545,1545,1544,0,0,0,0,0,0,0,0,0,0
1684165326.30011201,102928812,1544,1544,1544,1544,0,0,0,0,0,0,0,0,0,0
1684165326.40007210,103028772,1544,1545,1545,1545,0,0,0,0,0,0,0,0,0,0
1684165326.50003195,103128732,1544,1544,1544,1545,0,0,0,0,0,0,0,0,0,0
1684165326.59999204,103228692,1544,1544,1544,1544,0,0,0,0,0,0,0,0,0,0
1684165326.69995189,103328652,1545,1544,1544,1545,0,0,0,0,0,0,0,0,0,0
1684165326.79991198,103428612,1544,1544,1544,1544,0,0,0,0,0,0,0,0,0,0
1684165326.89987206,103528572,1476,1473,1482,1482,0,0,0,0,0,0,0,0,0,0
1684165326.99983191,103628532,1272,1267,1312,1309,0,0,0,0,0,0,0,0,0,0
1684165327.09979200,103728492,1236,1230,1283,1281,0,0,0,0,0,0,0,0,0,0
1684165327.19975209,103828452,1235,1230,1283,1280,0,0,0,0,0,0,0,0,0,0
1684165327.29971194,103928412,1236,1230,1283,1281,0,0,0,0,0,0,0,0,0,0
1684165327.39967203,104028372,1235,1230,1283,1280,0,0,0,0,0,0,0,0,0,0
1684165327.49963188,104128332,1237,1230,1284,1281,0,0,0,0,0,0,0,0,0,0
1684165327.59959197,104228292,1262,1230,1274,1299,0,0,0,0,0,0,0,0,0,0
1684165327.69955206,104328252,1254,1230,1281,1297,0,0,0,0,0,0,0,0,0,0
1684165327.79951191,104428212,1250,1230,1282,1293,0,0,0,0,0,0,0,0,0,0
1684165327.89947200,104528172,1251,1230,1282,1294,0,0,0,0,0,0,0,0,0,0
1684165328.00026488,104628965,1254,1230,1282,1295,0,0,0,0,0,0,0,0,0,0
1684165328.10022497,104728925,1255,1230,1282,1296,0,0,0,0,0,0,0,0,0,0
1684165328.20018506,104828885,1255,1230,1282,1296,0,0,0,0,0,0,0,0,0,0
1684165328.30014491,104928845,1256,1230,1281,1296,0,0,0,0,0,0,0,0,0,0
1684165328.40010500,105028805,1239,1230,1281,1285,0,0,0,0,0,0,0,0,0,0
1684165328.50006509,105128765,1241,1230,1281,1286,0,0,0,0,0,0,0,0,0,0
1684165328.60002494,105228725,1242,1230,1281,1287,0,0,0,0,0,0,0,0,0,0
1684165328.69998503,105328685,1243,1230,1281,1288,0,0,0,0,0,0,0,0,0,0
1684165328.79994488,105428645,1243,1230,1281,1288,0,0,0,0,0,0,0,0,0,0
1684165328.89990497,105528605,1000,1000,1000,1000,0,0,0,0,0,0,0,0,0,0
1684165328.99986506,105628565,1000,1000,1000,1000,0,0,0,0,0,0,0,0,0,0
1684165329.09982491,105728525,1000,1000,1000,1000,0,0,0,0,0,0,0,0,0,0
1684165329.19978499,105828485,1000,1000,1000,1000,0,0,0,0,0,0,0,0,0,0
1684165329.29974508,105928445,1000,1000,1000,1000,0,0,0,0,0,0,0,0,0,0
1684165329.39970493,106028405,1000,1000,1000,1000,0,0,0,0,0,0,0,0,0,0
1684165329.49966502,106128365,1000,1000,1000,1000,0,0,0,0,0,0,0,0,0,0
1684165329.59962487,106228325,1000,1000,1000,1000,0,0,0,0,0,0,0,0,0,0
1684165329.69958496,106328285,1000,1000,1000,1000,0,0,0,0,0,0,0,0,0,0
1684165329.79954505,106428245,1000,1000,1000,1000,0,0,0,0,0,0,0,0,0,0
1684165329.89950490,106528205,1000,1000,1000,1000,0,0,0,0,0,0,0,0,0,0
1684165329.99946499,106628165,1000,1000,1000,1000,0,0,0,0,0,0,0,0,0,0
1684165330.10025787,106728958,1000,1000,1000,1000,0,0,0,0,0,0,0,0,0,0
1684165330.20021796,106828918,1000,1000,1000,1000,0,0,0,0,0,0,0,0,0,0
1684165330.30017805,106928878,1000,1000,1000,1000,0,0,0,0,0,0,0,0,0,0
1684165330.40013790,107028838,1000,1000,1000,1000,0,0,0,0,0,0,0,0,0,0
1684165330.50009799,107128798,1000,1000,1000,1000,0,0,0,0,0,0,0,0,0,0
1684165330.60005808,107228758,1000,1000,1000,1000,0,0,0,0,0,0,0,0,0,0
1684165330.70001793,107328718,1000,1000,1000,1000,0,0,0,0,0,0,0,0,0,0
1684165330.79997802,107428678,1000,1000,1000,1000,0,0,0,0,0,0,0,0,0,0
1684165330.89993787,107528638,1000,1000,1000,1000,0,0,0,0,0,0,0,0,0,0
1684165330.99989796,107628598,1000,1000,1000,1000,0,0,0,0,0,0,0,0,0,0
1684165331.09985805,107728558,1000,1000,1000,1000,0,0,0,0,0,0,0,0,0,0
1684165331.19981790,107828518,1000,1000,1000,1000,0,0,0,0,0,0,0,0,0,0
1684165331.29977798,107928478,1000,1000,1000,1000,0,0,0,0,0,0,0,0,0,0
1684165331.39973807,108028438,1000,1000,1000,1000,0,0,0,0,0,0,0,0,0,0
1684165331.49969792,108128398,1000,1000,1000,1000,0,0,0,0,0,0,0,0,0,0
1684165331.59965801,108228358,1000,1000,1000,1000,0,0,0,0,0,0,0,0,0,0
1684165331.69961810,108328318,1000,1000,1000,1000,0,0,0,0,0,0,0,0,0,0
1684165331.79957795,108428278,1000,1000,1000,1000,0,0,0,0,0,0,0,0,0,0
1684165331.89953804,108528238,1000,1000,1000,1000,0,0,0,0,0,0,0,0,0,0
1684165331.99949789,108628198,1000,1000,1000,1000,0,0,0,0,0,0,0,0,0,0
1684165332.09945798,108728158,1000,1000,1000,1000,0,0,0,0,0,0,0,0,0,0
1684165332.20025086,108828951,1000,1000,1000,1000,0,0,0,0,0,0,0,0,0,0
1684165332.30021095,108928911,1000,1000,1000,1000,0,0,0,0,0,0,0,0,0,0
1684165332.40017104,109028871,1000,1000,1000,1000,0,0,0,0,0,0,0,0,0,0
1684165332.50013089,109128831,1000,1000,1000,1000,0,0,0,0,0,0,0,0,0,0
1684165332.60009098,109228791,1000,1000,1000,1000,0,0,0,0,0,0,0,0,0,0
1684165332.70005107,109328751,1000,1000,1000,1000,0,0,0,0,0,0,0,0,0,0
1684165332.80001092,109428711,1000,1000,1000,1000,0,0,0,0,0,0,0,0,0,0
1684165332.89997101,109528671,1000,1000,1000,1000,0,0,0,0,0,0,0,0,0,0
1684165332.99993110,109628631,1000,1000,1000,1000,0,0,0,0,0,0,0,0,0,0
1684165333.09989095,109728591,1000,1000,1000,1000,0,0,0,0,0,0,0,0,0,0
1684165333.19985104,109828551,1000,1000,1000,1000,0,0,0,0,0,0,0,0,0,0
1684165333.29981089,109928511,1000,1000,1000,1000,0,0,0,0,0,0,0,0,0,0
1684165333.39977098,110028471,1000,1000,1000,1000,0,0,0,0,0,0,0,0,0,0
1684165333.49973106,110128431,1000,1000,1000,1000,0,0,0,0,0,0,0,0,0,0
1684165333.59969091,110228391,1000,1000,1000,1000,0,0,0,0,0,0,0,0,0,0
1684165333.69965100,110328351,1000,1000,1000,1000,0,0,0,0,0,0,0,0,0,0
1684165333.79961109,110428311,1000,1000,1000,1000,0,0,0,0,0,0,0,0,0,0
1684165333.89957094,110528271,1000,1000,1000,1000,0,0,0,0,0,0,0,0,0,0
1684165333.99953103,110628231,1000,1000,1000,1000,0,0,0,0,0,0,0,0,0,0
1684165334.09949088,110728191,1000,1000,1000,1000,0,0,0,0,0,0,0,0,0,0
1684165334.20028400,110828984,1000,1000,1000,1000,0,0,0,0,0,0,0,0,0,0
1684165334.30024409,110928944,1000,1000,1000,1000,0,0,0,0,0,0,0,0,0,0
1684165334.40020394,111028904,1000,1000,1000,1000,0,0,0,0,0,0,0,0,0,0
1684165334.50016403,111128864,1000,1000,1000,1000,0,0,0,0,0,0,0,0,0,0
1684165334.60012388,111228824,1000,1000,1000,1000,0,0,0,0,0,0,0,0,0,0
1684165334.70008397,111328784,1000,1000,1000,1000,0,0,0,0,0,0,0,0,0,0
1684165334.80004406,111428744,1000,1000,1000,1000,0,0,0,0,0,0,0,0,0,0
1684165334.90000391,111528704,1000,1000,1000,1000,0,0,0,0,0,0,0,0,0,0
1684165334.99996400,111628664,1000,1000,1000,1000,0,0,0,0,0,0,0,0,0,0
1684165335.09992409,111728624,1000,1000,1000,1000,0,0,0,0,0,0,0,0,0,0
1684165335.19988394,111828584,1000,1000,1000,1000,0,0,0,0,0,0,0,0,0,0
1684165335.29984403,111928544,1000,1000,1000,1000,0,0,0,0,0,0,0,0,0,0
1684165335.39980388,112028504,1000,1000,1000,1000,0,0,0,0,0,0,0,0,0,0
1684165335.49976397,112128464,1000,1000,1000,1000,0,0,0,0,0,0,0,0,0,0
1684165335.59972405,112228424,1000,1000,1000,1000,0,0,0,0,0,0,0,0,0,0
1684165335.69968390,112328384,1000,1000,1000,1000,0,0,0,0,0,0,0,0,0,0
1684165335.79964399,112428344,1000,1000,1000,1000,0,0,0,0,0,0,0,0,0,0
1684165335.89960408,112528304,1000,1000,1000,1000,0,0,0,0,0,0,0,0,0,0
1684165335.99956393,112628264,1000,1000,1000,1000,0,0,0,0,0,0,0,0,0,0
1684165336.09952402,112728224,1000,1000,1000,1000,0,0,0,0,0,0,0,0,0,0
1684165336.19948387,112828184,1000,1000,1000,1000,0,0,0,0,0,0,0,0,0,0
1684165336.30027699,112928977,1000,1000,1000,1000,0,0,0,0,0,0,0,0,0,0
1684165336.40023708,113028937,1000,1000,1000,1000,0,0,0,0,0,0,0,0,0,0
1684165336.50019693,113128897,1000,1000,1000,1000,0,0,0,0,0,0,0,0,0,0
1684165336.60015702,113228857,1000,1000,1000,1000,0,0,0,0,0,0,0,0,0,0
1684165336.70011687,113328817,1000,1000,1000,1000,0,0,0,0,0,0,0,0,0,0
1684165336.80007696,113428777,1000,1000,1000,1000,0,0,0,0,0,0,0,0,0,0
1684165336.90003705,113528737,1000,1000,1000,1000,0,0,0,0,0,0,0,0,0,0
1684165336.99999690,113628697,1000,1000,1000,1000,0,0,0,0,0,0,0,0,0,0
1684165337.09995699,113728657,1000,1000,1000,1000,0,0,0,0,0,0,0,0,0,0
1684165337.19991708,113828617,1000,1000,1000,1000,0,0,0,0,0,0,0,0,0,0
1684165337.29987693,113928577,1000,1000,1000,1000,0,0,0,0,0,0,0,0,0,0
1684165337.39983702,114028537,1000,1000,1000,1000,0,0,0,0,0,0,0,0,0,0
1684165337.49979687,114128497,1000,1000,1000,1000,0,0,0,0,0,0,0,0,0,0
1684165337.59975696,114228457,1000,1000,1000,1000,0,0,0,0,0,0,0,0,0,0
1684165337.69971704,114328417,1000,1000,1000,1000,0,0,0,0,0,0,0,0,0,0
1684165337.79967690,114428377,1000,1000,1000,1000,0,0,0,0,0,0,0,0,0,0
1684165337.89963698,114528337,1000,1000,1000,1000,0,0,0,0,0,0,0,0,0,0
1684165337.99959707,114628297,1000,1000,1000,1000,0,0,0,0,0,0,0,0,0,0
1684165338.09955692,114728257,1000,1000,1000,1000,0,0,0,0,0,0,0,0,0,0
1684165338.19951701,114828217,1000,1000,1000,1000,0,0,0,0,0,0,0,0,0,0
1684165338.29947710,114928177,1000,1000,1000,1000,0,0,0,0,0,0,0,0,0,0
1684165338.40026999,115028970,1000,1000,1000,1000,0,0,0,0,0,0,0,0,0,0
1684165338.50023007,115128930,1000,1000,1000,1000,0,0,0,0,0,0,0,0,0,0
1684165338.60018992,115228890,1000,1000,1000,1000,0,0,0,0,0,0,0,0,0,0
1684165338.70015001,115328850,1000,1000,1000,1000,0,0,0,0,0,0,0,0,0,0
1684165338.80010986,115428810,1000,1000,1000,1000,0,0,0,0,0,0,0,0,0,0
1684165338.90006995,115528770,1000,1000,1000,1000,0,0,0,0,0,0,0,0,0,0
1684165339.00003004,115628730,1000,1000,1000,1000,0,0,0,0,0,0,0,0,0,0
1684165339.09998989,115728690,1000,1000,1000,1000,0,0,0,0,0,0,0,0,0,0
1684165339.19994998,115828650,1000,1000,1000,1000,0,0,0,0,0,0,0,0,0,0
1684165339.29991007,115928610,1000,1000,1000,1000,0,0,0,0,0,0,0,0,0,0
1684165339.39986992,116028570,1000,1000,1000,1000,0,0,0,0,0,0,0,0,0,0
1684165339.49983001,116128530,1000,1000,1000,1000,0,0,0,0,0,0,0,0,0,0
1684165339.59979010,116228490,1000,1000,1000,1000,0,0,0,0,0,0,0,0,0,0
1684165339.69974995,116328450,1000,1000,1000,1000,0,0,0,0,0,0,0,0,0,0
1684165339.79971004,116428410,1000,1000,1000,1000,0,0,0,0,0,0,0,0,0,0
1684165339.89966989,116528370,1000,1000,1000,1000,0,0,0,0,0,0,0,0,0,0
1684165339.99962997,116628330,1000,1000,1000,1000,0,0,0,0,0,0,0,0,0,0
1684165340.09959006,116728290,1000,1000,1000,1000,0,0,0,0,0,0,0,0,0,0
1684165340.19954991,116828250,1000,1000,1000,1000,0,0,0,0,0,0,0,0,0,0
1684165340.29951000,116928210,1000,1000,1000,1000,0,0,0,0,0,0,0,0,0,0
1684165340.39947009,117028170,1000,1000,1000,1000,0,0,0,0,0,0,0,0,0,0
1684165340.50026298,117128963,1000,1000,1000,1000,0,0,0,0,0,0,0,0,0,0
1684165340.60022306,117228923,1000,1000,1000,1000,0,0,0,0,0,0,0,0,0,0
1684165340.70018291,117328883,1000,1000,1000,1000,0,0,0,0,0,0,0,0,0,0
1684165340.80014300,117428843,1000,1000,1000,1000,0,0,0,0,0,0,0,0,0,0
1684165340.90010309,117528803,1000,1000,1000,1000,0,0,0,0,0,0,0,0,0,0
1684165341.00006294,117628763,1000,1000,1000,1000,0,0,0,0,0,0,0,0,0,0
1684165341.10002303,117728723,1000,1000,1000,1000,0,0,0,0,0,0,0,0,0,0
1684165341.19998288,117828683,1000,1000,1000,1000,0,0,0,0,0,0,0,0,0,0
1684165341.29994297,117928643,1000,1000,1000,1000,0,0,0,0,0,0,0,0,0,0
1684165341.39990306,118028603,1000,1000,1000,1000,0,0,0,0,0,0,0,0,0,0
1684165341.49986291,118128563,1000,1000,1000,1000,0,0,0,0,0,0,0,0,0,0
1684165341.59982300,118228523,1000,1000,1000,1000,0,0,0,0,0,0,0,0,0,0
1684165341.69978309,118328483,1000,1000,1000,1000,0,0,0,0,0,0,0,0,0,0
1684165341.79974294,118428443,1000,1000,1000,1000,0,0,0,0,0,0,0,0,0,0
1684165341.89970303,118528403,1000,1000,1000,1000,0,0,0,0,0,0,0,0,0,0
1684165341.99966288,118628363,1000,1000,1000,1000,0,0,0,0,0,0,0,0,0,0
1684165342.09962296,118728323,1000,1000,1000,1000,0,0,0,0,0,0,0,0,0,0
1684165342.19958305,118828283,1000,1000,1000,1000,0,0,0,0,0,0,0,0,0,0
1684165342.29954290,118928243,1000,1000,1000,1000,0,0,0,0,0,0,0,0,0,0
1684165342.39950299,119028203,1000,1000,1000,1000,0,0,0,0,0,0,0,0,0,0
1684165342.49946308,119128163,1000,1000,1000,1000,0,0,0,0,0,0,0,0,0,0
1684165342.60025597,119228956,1000,1000,1000,1000,0,0,0,0,0,0,0,0,0,0
1684165342.70021605,119328916,1000,1000,1000,1000,0,0,0,0,0,0,0,0,0,0
1684165342.80017591,119428876,1000,1000,1000,1000,0,0,0,0,0,0,0,0,0,0
1684165342.90013599,119528836,1000,1000,1000,1000,0,0,0,0,0,0,0,0,0,0
1684165343.00009608,119628796,1000,1000,1000,1000,0,0,0,0,0,0,0,0,0,0
1684165343.10005593,119728756,1000,1000,1000,1000,0,0,0,0,0,0,0,0,0,0
1684165343.20001602,119828716,1000,1000,1000,1000,0,0,0,0,0,0,0,0,0,0
1684165343.29997587,119928676,1000,1000,1000,1000,0,0,0,0,0,0,0,0,0,0
1684165343.39993596,120028636,1000,1000,1000,1000,0,0,0,0,0,0,0,0,0,0
1684165343.49989605,120128596,1000,1000,1000,1000,0,0,0,0,0,0,0,0,0,0
1684165343.59985590,120228556,1000,1000,1000,1000,0,0,0,0,0,0,0,0,0,0
1684165343.69981599,120328516,1000,1000,1000,1000,0,0,0,0,0,0,0,0,0,0
1684165343.79977608,120428476,1000,1000,1000,1000,0,0,0,0,0,0,0,0,0,0
