timestamp,TimeUS,C1,C2,C3,C4,C5,C6,C7,C8,C9,C10,C11,C12,C13,C14
1684064089.90003991,82328722,1000,1000,1000,1000,0,0,0,0,0,0,0,0,0,0
1684064090.00000000,82428682,1000,1000,1000,1000,0,0,0,0,0,0,0,0,0,0
1684064090.09995985,82528642,1000,1000,1000,1000,0,0,0,0,0,0,0,0,0,0
1684064090.19991994,82628602,1000,1000,1000,1000,0,0,0,0,0,0,0,0,0,0
1684064090.29988003,82728562,1000,1000,1000,1000,0,0,0,0,0,0,0,0,0,0
1684064090.39983988,82828522,1000,1000,1000,1000,0,0,0,0,0,0,0,0,0,0
1684064090.49979997,82928482,1000,1000,1000,1000,0,0,0,0,0,0,0,0,0,0
1684064090.59975982,83028442,1000,1000,1000,1000,0,0,0,0,0,0,0,0,0,0
1684064090.69971991,83128402,1000,1000,1000,1000,0,0,0,0,0,0,0,0,0,0
1684064090.79967999,83228362,1000,1000,1000,1000,0,0,0,0,0,0,0,0,0,0
1684064090.89963984,83328322,1000,1000,1000,1000,0,0,0,0,0,0,0,0,0,0
1684064090.99959993,83428282,1000,1000,1000,1000,0,0,0,0,0,0,0,0,0,0
1684064091.09956002,83528242,1000,1000,1000,1000,0,0,0,0,0,0,0,0,0,0
1684064091.19951987,83628202,1000,1000,1000,1000,0,0,0,0,0,0,0,0,0,0
1684064091.29947996,83728162,1000,1000,1000,1000,0,0,0,0,0,0,0,0,0,0
1684064091.40027285,83828955,1000,1000,1000,1000,0,0,0,0,0,0,0,0,0,0
1684064091.50023293,83928915,1000,1000,1000,1000,0,0,0,0,0,0,0,0,0,0
1684064091.60019302,84028875,1000,1000,1000,1000,0,0,0,0,0,0,0,0,0,0
1684064091.70015287,84128835,1000,1000,1000,1000,0,0,0,0,0,0,0,0,0,0
1684064091.80011296,84228795,1000,1000,1000,1000,0,0,0,0,0,0,0,0,0,0
1684064091.90007281,84328755,1017,1017,1017,1017,0,0,0,0,0,0,0,0,0,0
1684064092.00003290,84428715,1047,1047,1047,1047,0,0,0,0,0,0,0,0,0,0
1684064092.09999299,84528675,1077,1077,1077,1077,0,0,0,0,0,0,0,0,0,0
1684064092.19995284,84628635,1107,1107,1107,1107,0,0,0,0,0,0,0,0,0,0
1684064092.29991293,84728595,1137,1137,1137,1137,0,0,0,0,0,0,0,0,0,0
1684064092.39987302,84828555,1307,1297,1298,1308,0,0,0,0,0,0,0,0,0,0
1684064092.49983287,84928515,1510,1501,1502,1510,0,0,0,0,0,0,0,0,0,0
1684064092.59979296,85028475,1668,1661,1661,1668,0,0,0,0,0,0,0,0,0,0
1684064092.69975281,85128435,1803,1796,1796,1803,0,0,0,0,0,0,0,0,0,0
1684064092.79971290,85228395,1876,1868,1869,1876,0,0,0,0,0,0,0,0,0,0
1684064092.89967299,85328355,1856,1852,1853,1856,0,0,0,0,0,0,0,0,0,0
1684064092.99963284,85428315,1725,1725,1725,1726,0,0,0,0,0,0,0,0,0,0
1684064093.09959292,85528275,1634,1636,1637,1635,0,0,0,0,0,0,0,0,0,0
1684064093.19955301,85628235,1613,1616,1616,1613,0,0,0,0,0,0,0,0,0,0
1684064093.29951286,85728195,1622,1625,1625,1622,0,0,0,0,0,0,0,0,0,0
1684064093.39947295,85828155,1632,1634,1634,1632,0,0,0,0,0,0,0,0,0,0
1684064093.50026584,85928948,1632,1632,1632,1632,0,0,0,0,0,0,0,0,0,0
1684064093.60022593,86028908,1617,1615,1612,1620,0,0,0,0,0,0,0,0,0,0
1684064093.70018601,86128868,1606,1605,1597,1613,0,0,0,0,0,0,0,0,0,0
1684064093.80014586,86228828,1602,1601,1597,1606,0,0,0,0,0,0,0,0,0,0
1684064093.90010595,86328788,1603,1603,1602,1604,0,0,0,0,0,0,0,0,0,0
1684064094.00006580,86428748,1608,1608,1610,1606,0,0,0,0,0,0,0,0,0,0
1684064094.10002589,86528708,1614,1614,1618,1610,0,0,0,0,0,0,0,0,0,0
1684064094.19998598,86628668,1618,1618,1622,1614,0,0,0,0,0,0,0,0,0,0
1684064094.29994583,86728628,1597,1598,1607,1588,0,0,0,0,0,0,0,0,0,0
1684064094.39990592,86828588,1578,1579,1592,1566,0,0,0,0,0,0,0,0,0,0
1684064094.49986601,86928548,1566,1566,1572,1561,0,0,0,0,0,0,0,0,0,0
1684064094.59982586,87028508,1556,1556,1552,1561,0,0,0,0,0,0,0,0,0,0
1684064094.69978595,87128468,1548,1547,1537,1559,0,0,0,0,0,0,0,0,0,0
1684064094.79974580,87228428,1540,1539,1529,1551,0,0,0,0,0,0,0,0,0,0
1684064094.89970589,87328388,1534,1533,1526,1541,0,0,0,0,0,0,0,0,0,0
1684064094.99966598,87428348,1529,1529,1526,1531,0,0,0,0,0,0,0,0,0,0
1684064095.09962583,87528308,1528,1528,1528,1527,0,0,0,0,0,0,0,0,0,0
1684064095.19958591,87628268,1529,1529,1532,1526,0,0,0,0,0,0,0,0,0,0
1684064095.29954600,87728228,1532,1532,1535,1529,0,0,0,0,0,0,0,0,0,0
1684064095.39950585,87828188,1536,1536,1539,1532,0,0,0,0,0,0,0,0,0,0
1684064095.50029898,87928981,1539,1539,1542,1536,0,0,0,0,0,0,0,0,0,0
1684064095.60025883,88028941,1542,1543,1544,1541,0,0,0,0,0,0,0,0,0,0
1684064095.70021892,88128901,1545,1546,1546,1546,0,0,0,0,0,0,0,0,0,0
1684064095.80017900,88228861,1548,1548,1548,1549,0,0,0,0,0,0,0,0,0,0
1684064095.90013885,88328821,1551,1551,1550,1553,0,0,0,0,0,0,0,0,0,0
1684064096.00009894,88428781,1554,1553,1552,1555,0,0,0,0,0,0,0,0,0,0
1684064096.10005879,88528741,1555,1555,1556,1559,0,0,0,0,0,0,0,0,0,0
1684064096.20001888,88628701,1556,1557,1559,1561,0,0,0,0,0,0,0,0,0,0
1684064096.29997897,88728661,1559,1558,1563,1563,0,0,0,0,0,0,0,0,0,0
1684064096.39993882,88828621,1561,1561,1566,1565,0,0,0,0,0,0,0,0,0,0
1684064096.49989891,88928581,1562,1562,1566,1565,0,0,0,0,0,0,0,0,0,0
1684064096.59985900,89028541,1564,1564,1567,1566,0,0,0,0,0,0,0,0,0,0
1684064096.69981885,89128501,1566,1566,1568,1568,0,0,0,0,0,0,0,0,0,0
1684064096.79977894,89228461,1568,1568,1567,1568,0,0,0,0,0,0,0,0,0,0
1684064096.89973903,89328421,1569,1569,1567,1567,0,0,0,0,0,0,0,0,0,0
1684064096.99969888,89428381,1571,1571,1568,1569,0,0,0,0,0,0,0,0,0,0
1684064097.09965897,89528341,1571,1571,1568,1569,0,0,0,0,0,0,0,0,0,0
1684064097.19961882,89628301,1572,1572,1568,1569,0,0,0,0,0,0,0,0,0,0
1684064097.29957891,89728261,1573,1573,1570,1570,0,0,0,0,0,0,0,0,0,0
1684064097.39953899,89828221,1574,1574,1572,1571,0,0,0,0,0,0,0,0,0,0
1684064097.49949884,89928181,1575,1574,1573,1572,0,0,0,0,0,0,0,0,0,0
1684064097.60029197,90028974,1576,1576,1575,1573,0,0,0,0,0,0,0,0,0,0
1684064097.70025182,90128934,1577,1577,1577,1575,0,0,0,0,0,0,0,0,0,0
1684064097.80021191,90228894,1576,1576,1576,1576,0,0,0,0,0,0,0,0,0,0
1684064097.90017200,90328854,1576,1576,1576,1576,0,0,0,0,0,0,0,0,0,0
1684064098.00013185,90428814,1576,1576,1576,1577,0,0,0,0,0,0,0,0,0,0
1684064098.10009193,90528774,1576,1575,1576,1577,0,0,0,0,0,0,0,0,0,0
1684064098.20005202,90628734,1575,1576,1576,1577,0,0,0,0,0,0,0,0,0,0
1684064098.30001187,90728694,1576,1576,1577,1576,0,0,0,0,0,0,0,0,0,0
1684064098.39997196,90828654,1577,1577,1577,1577,0,0,0,0,0,0,0,0,0,0
1684064098.49993181,90928614,1576,1576,1577,1576,0,0,0,0,0,0,0,0,0,0
1684064098.59989190,91028574,1577,1577,1577,1577,0,0,0,0,0,0,0,0,0,0
1684064098.69985199,91128534,1577,1577,1578,1577,0,0,0,0,0,0,0,0,0,0
1684064098.79981184,91228494,1578,1579,1579,1578,0,0,0,0,0,0,0,0,0,0
1684064098.89977193,91328454,1579,1578,1578,1578,0,0,0,0,0,0,0,0,0,0
1684064098.99973202,91428414,1578,1577,1577,1578,0,0,0,0,0,0,0,0,0,0
1684064099.09969187,91528374,1579,1579,1578,1578,0,0,0,0,0,0,0,0,0,0
1684064099.19965196,91628334,1578,1578,1578,1578,0,0,0,0,0,0,0,0,0,0
1684064099.29961181,91728294,1579,1579,1579,1579,0,0,0,0,0,0,0,0,0,0
1684064099.39957190,91828254,1579,1579,1579,1579,0,0,0,0,0,0,0,0,0,0
1684064099.49953198,91928214,1579,1579,1579,1579,0,0,0,0,0,0,0,0,0,0
1684064099.59949183,92028174,1579,1579,1579,1579,0,0,0,0,0,0,0,0,0,0
1684064099.70028496,92128967,1580,1580,1580,1580,0,0,0,0,0,0,0,0,0,0
1684064099.80024481,92228927,1579,1579,1580,1580,0,0,0,0,0,0,0,0,0,0
1684064099.90020490,92328887,1580,1579,1580,1580,0,0,0,0,0,0,0,0,0,0
1684064100.00016499,92428847,1580,1580,1580,1580,0,0,0,0,0,0,0,0,0,0
1684064100.10012484,92528807,1580,1579,1580,1580,0,0,0,0,0,0,0,0,0,0
1684064100.20008492,92628767,1580,1580,1580,1580,0,0,0,0,0,0,0,0,0,0
1684064100.30004501,92728727,1579,1579,1579,1580,0,0,0,0,0,0,0,0,0,0
1684064100.40000486,92828687,1580,1580,1580,1580,0,0,0,0,0,0,0,0,0,0
1684064100.49996495,92928647,1579,1580,1580,1580,0,0,0,0,0,0,0,0,0,0
1684064100.59992480,93028607,1581,1581,1581,1581,0,0,0,0,0,0,0,0,0,0
1684064100.69988489,93128567,1580,1580,1581,1580,0,0,0,0,0,0,0,0,0,0
1684064100.79984498,93228527,1581,1581,1581,1581,0,0,0,0,0,0,0,0,0,0
1684064100.89980483,93328487,1580,1579,1580,1580,0,0,0,0,0,0,0,0,0,0
1684064100.99976492,93428447,1580,1580,1580,1580,0,0,0,0,0,0,0,0,0,0
1684064101.09972501,93528407,1579,1579,1579,1579,0,0,0,0,0,0,0,0,0,0
1684064101.19968486,93628367,1580,1580,1580,1580,0,0,0,0,0,0,0,0,0,0
1684064101.29964495,93728327,1581,1581,1581,1581,0,0,0,0,0,0,0,0,0,0
1684064101.39960480,93828287,1580,1581,1581,1581,0,0,0,0,0,0,0,0,0,0
1684064101.49956489,93928247,1580,1580,1580,1580,0,0,0,0,0,0,0,0,0,0
1684064101.59952497,94028207,1581,1581,1581,1581,0,0,0,0,0,0,0,0,0,0
1684064101.69948483,94128167,1581,1581,1580,1581,0,0,0,0,0,0,0,0,0,0
1684064101.80027795,94228960,1581,1581,1581,1581,0,0,0,0,0,0,0,0,0,0
1684064101.90023780,94328920,1581,1580,1580,1580,0,0,0,0,0,0,0,0,0,0
1684064102.00019789,94428880,1581,1581,1582,1581,0,0,0,0,0,0,0,0,0,0
1684064102.10015798,94528840,1581,1581,1581,1581,0,0,0,0,0,0,0,0,0,0
1684064102.20011783,94628800,1581,1582,1582,1581,0,0,0,0,0,0,0,0,0,0
1684064102.30007792,94728760,1581,1582,1589,1574,0,0,0,0,0,0,0,0,0,0
1684064102.40003800,94828720,1580,1582,1585,1573,0,0,0,0,0,0,0,0,0,0
1684064102.49999785,94928680,1579,1582,1577,1575,0,0,0,0,0,0,0,0,0,0
1684064102.59995794,95028640,1578,1581,1568,1572,0,0,0,0,0,0,0,0,0,0
1684064102.69991779,95128600,1578,1580,1561,1569,0,0,0,0,0,0,0,0,0,0
1684064102.79987788,95228560,1578,1579,1557,1563,0,0,0,0,0,0,0,0,0,0
1684064102.89983797,95328520,1579,1578,1555,1558,0,0,0,0,0,0,0,0,0,0
1684064102.99979782,95428480,1579,1578,1555,1555,0,0,0,0,0,0,0,0,0,0
1684064103.09975791,95528440,1579,1578,1556,1554,0,0,0,0,0,0,0,0,0,0
1684064103.19971800,95628400,1579,1578,1556,1554,0,0,0,0,0,0,0,0,0,0
1684064103.29967785,95728360,1577,1578,1555,1554,0,0,0,0,0,0,0,0,0,0
1684064103.39963794,95828320,1576,1577,1555,1553,0,0,0,0,0,0,0,0,0,0
1684064103.49959803,95928280,1576,1577,1554,1554,0,0,0,0,0,0,0,0,0,0
1684064103.59955788,96028240,1575,1577,1553,1553,0,0,0,0,0,0,0,0,0,0
1684064103.69951797,96128200,1576,1577,1552,1552,0,0,0,0,0,0,0,0,0,0
1684064103.79947782,96228160,1577,1578,1550,1550,0,0,0,0,0,0,0,0,0,0
1684064103.90027094,96328953,1579,1580,1548,1548,0,0,0,0,0,0,0,0,0,0
1684064104.00023103,96428913,1582,1583,1546,1545,0,0,0,0,0,0,0,0,0,0
1684064104.10019088,96528873,1584,1585,1542,1542,0,0,0,0,0,0,0,0,0,0
1684064104.20015097,96628833,1587,1588,1539,1539,0,0,0,0,0,0,0,0,0,0
1684064104.30011082,96728793,1591,1591,1537,1537,0,0,0,0,0,0,0,0,0,0
1684064104.40007091,96828753,1594,1594,1536,1535,0,0,0,0,0,0,0,0,0,0
1684064104.50003099,96928713,1595,1594,1534,1535,0,0,0,0,0,0,0,0,0,0
1684064104.59999084,97028673,1596,1595,1535,1536,0,0,0,0,0,0,0,0,0,0
1684064104.69995093,97128633,1595,1595,1536,1539,0,0,0,0,0,0,0,0,0,0
1684064104.79991102,97228593,1593,1592,1540,1543,0,0,0,0,0,0,0,0,0,0
1684064104.89987087,97328553,1588,1586,1545,1548,0,0,0,0,0,0,0,0,0,0
1684064104.99983096,97428513,1581,1578,1553,1556,0,0,0,0,0,0,0,0,0,0
1684064105.09979081,97528473,1573,1569,1565,1568,0,0,0,0,0,0,0,0,0,0
1684064105.19975090,97628433,1563,1559,1577,1579,0,0,0,0,0,0,0,0,0,0
1684064105.29971099,97728393,1552,1548,1591,1591,0,0,0,0,0,0,0,0,0,0
1684064105.39967084,97828353,1541,1539,1602,1601,0,0,0,0,0,0,0,0,0,0
1684064105.49963093,97928313,1533,1533,1610,1610,0,0,0,0,0,0,0,0,0,0
1684064105.59959102,98028273,1528,1530,1615,1614,0,0,0,0,0,0,0,0,0,0
1684064105.69955087,98128233,1528,1530,1616,1615,0,0,0,0,0,0,0,0,0,0
1684064105.79951096,98228193,1531,1533,1612,1612,0,0,0,0,0,0,0,0,0,0
1684064105.90030384,98328986,1537,1539,1608,1608,0,0,0,0,0,0,0,0,0,0
1684064106.00026393,98428946,1546,1548,1602,1602,0,0,0,0,0,0,0,0,0,0
1684064106.10022402,98528906,1555,1556,1594,1594,0,0,0,0,0,0,0,0,0,0
1684064106.20018387,98628866,1564,1565,1587,1586,0,0,0,0,0,0,0,0,0,0
1684064106.30014396,98728826,1573,1573,1580,1579,0,0,0,0,0,0,0,0,0,0
1684064106.40010381,98828786,1580,1579,1574,1573,0,0,0,0,0,0,0,0,0,0
1684064106.50006390,98928746,1585,1583,1570,1569,0,0,0,0,0,0,0,0,0,0
1684064106.60002398,99028706,1588,1586,1567,1567,0,0,0,0,0,0,0,0,0,0
1684064106.69998384,99128666,1588,1587,1566,1566,0,0,0,0,0,0,0,0,0,0
1684064106.79994392,99228626,1587,1586,1566,1566,0,0,0,0,0,0,0,0,0,0
1684064106.89990401,99328586,1370,1370,1580,1582,0,0,0,0,0,0,0,0,0,0
1684064106.99986386,99428546,1441,1444,1621,1626,0,0,0,0,0,0,0,0,0,0
1684064107.09982395,99528506,1487,1493,1620,1620,0,0,0,0,0,0,0,0,0,0
1684064107.19978380,99628466,1529,1536,1611,1606,0,0,0,0,0,0,0,0,0,0
1684064107.29974389,99728426,1563,1567,1602,1595,0,0,0,0,0,0,0,0,0,0
1684064107.39970398,99828386,1589,1588,1594,1589,0,0,0,0,0,0,0,0,0,0
1684064107.49966383,99928346,1607,1601,1588,1586,0,0,0,0,0,0,0,0,0,0
1684064107.59962392,100028306,1618,1610,1583,1584,0,0,0,0,0,0,0,0,0,0
1684064107.69958401,100128266,1634,1627,1564,1569,0,0,0,0,0,0,0,0,0,0
1684064107.79954386,100228226,1649,1645,1544,1549,0,0,0,0,0,0,0,0,0,0
1684064107.89950395,100328186,1656,1654,1533,1538,0,0,0,0,0,0,0,0,0,0
1684064108.00029683,100428979,1652,1652,1535,1539,0,0,0,0,0,0,0,0,0,0
1684064108.10025692,100528939,1642,1644,1543,1545,0,0,0,0,0,0,0,0,0,0
1684064108.20021701,100628899,1632,1635,1551,1551,0,0,0,0,0,0,0,0,0,0
1684064108.30017686,100728859,1622,1623,1561,1560,0,0,0,0,0,0,0,0,0,0
1684064108.40013695,100828819,1608,1605,1575,1573,0,0,0,0,0,0,0,0,0,0
1684064108.50009680,100928779,1591,1587,1592,1591,0,0,0,0,0,0,0,0,0,0
1684064108.60005689,101028739,1573,1570,1603,1603,0,0,0,0,0,0,0,0,0,0
1684064108.70001698,101128699,1561,1561,1609,1609,0,0,0,0,0,0,0,0,0,0
1684064108.79997683,101228659,1555,1557,1608,1608,0,0,0,0,0,0,0,0,0,0
1684064108.89993691,101328619,1553,1557,1604,1604,0,0,0,0,0,0,0,0,0,0
1684064108.99989700,101428579,1555,1560,1601,1600,0,0,0,0,0,0,0,0,0,0
1684064109.09985685,101528539,1558,1563,1597,1595,0,0,0,0,0,0,0,0,0,0
1684064109.19981694,101628499,1563,1566,1593,1590,0,0,0,0,0,0,0,0,0,0
1684064109.29977679,101728459,1568,1569,1589,1586,0,0,0,0,0,0,0,0,0,0
1684064109.39973688,101828419,1573,1572,1585,1583,0,0,0,0,0,0,0,0,0,0
1684064109.49969697,101928379,1577,1575,1580,1580,0,0,0,0,0,0,0,0,0,0
1684064109.59965682,102028339,1580,1577,1577,1577,0,0,0,0,0,0,0,0,0,0
1684064109.69961691,102128299,1581,1580,1574,1575,0,0,0,0,0,0,0,0,0,0
1684064109.79957700,102228259,1583,1583,1574,1574,0,0,0,0,0,0,0,0,0,0
1684064109.89953685,102328219,1586,1586,1571,1571,0,0,0,0,0,0,0,0,0,0
1684064109.99949694,102428179,1589,1589,1568,1568,0,0,0,0,0,0,0,0,0,0
1684064110.10028982,102528972,1591,1591,1566,1566,0,0,0,0,0,0,0,0,0,0
1684064110.20024991,102628932,1593,1592,1568,1567,0,0,0,0,0,0,0,0,0,0
1684064110.30021000,102728892,1593,1590,1576,1563,0,0,0,0,0,0,0,0,0,0
1684064110.40016985,102828852,1591,1586,1574,1565,0,0,0,0,0,0,0,0,0,0
1684064110.50012994,102928812,1588,1583,1569,1569,0,0,0,0,0,0,0,0,0,0
1684064110.60009003,103028772,1581,1579,1564,1569,0,0,0,0,0,0,0,0,0,0
1684064110.70004988,103128732,1576,1579,1562,1568,0,0,0,0,0,0,0,0,0,0
1684064110.80000997,103228692,1573,1577,1561,1563,0,0,0,0,0,0,0,0,0,0
1684064110.89996982,103328652,1572,1577,1561,1561,0,0,0,0,0,0,0,0,0,0
1684064110.99992990,103428612,1571,1576,1560,1557,0,0,0,0,0,0,0,0,0,0
1684064111.09988999,103528572,1572,1575,1559,1556,0,0,0,0,0,0,0,0,0,0
1684064111.19984984,103628532,1573,1573,1557,1554,0,0,0,0,0,0,0,0,0,0
1684064111.29980993,103728492,1574,1573,1555,1553,0,0,0,0,0,0,0,0,0,0
1684064111.39977002,103828452,1574,1573,1553,1552,0,0,0,0,0,0,0,0,0,0
1684064111.49972987,103928412,1573,1573,1551,1551,0,0,0,0,0,0,0,0,0,0
1684064111.59968996,104028372,1573,1574,1548,1549,0,0,0,0,0,0,0,0,0,0
1684064111.69964981,104128332,1573,1574,1545,1546,0,0,0,0,0,0,0,0,0,0
1684064111.79960990,104228292,1574,1576,1545,1545,0,0,0,0,0,0,0,0,0,0
1684064111.89956999,104328252,1575,1577,1542,1541,0,0,0,0,0,0,0,0,0,0
1684064111.99952984,104428212,1577,1579,1540,1539,0,0,0,0,0,0,0,0,0,0
1684064112.09948993,104528172,1579,1581,1538,1537,0,0,0,0,0,0,0,0,0,0
1684064112.20028281,104628965,1583,1584,1538,1537,0,0,0,0,0,0,0,0,0,0
1684064112.30024290,104728925,1586,1586,1537,1536,0,0,0,0,0,0,0,0,0,0
1684064112.40020299,104828885,1588,1588,1535,1536,0,0,0,0,0,0,0,0,0,0
1684064112.50016284,104928845,1591,1590,1535,1537,0,0,0,0,0,0,0,0,0,0
1684064112.60012293,105028805,1592,1591,1535,1538,0,0,0,0,0,0,0,0,0,0
1684064112.70008302,105128765,1591,1590,1537,1541,0,0,0,0,0,0,0,0,0,0
1684064112.80004287,105228725,1589,1588,1542,1545,0,0,0,0,0,0,0,0,0,0
1684064112.90000296,105328685,1584,1584,1546,1550,0,0,0,0,0,0,0,0,0,0
1684064112.99996281,105428645,1580,1579,1553,1556,0,0,0,0,0,0,0,0,0,0
1684064113.09992290,105528605,1575,1573,1559,1563,0,0,0,0,0,0,0,0,0,0
1684064113.19988298,105628565,1569,1567,1565,1569,0,0,0,0,0,0,0,0,0,0
1684064113.29984283,105728525,1562,1561,1571,1574,0,0,0,0,0,0,0,0,0,0
1684064113.39980292,105828485,1557,1556,1579,1580,0,0,0,0,0,0,0,0,0,0
1684064113.49976301,105928445,1552,1551,1586,1586,0,0,0,0,0,0,0,0,0,0
1684064113.59972286,106028405,1548,1546,1592,1591,0,0,0,0,0,0,0,0,0,0
1684064113.69968295,106128365,1544,1543,1597,1595,0,0,0,0,0,0,0,0,0,0
1684064113.79964280,106228325,1540,1540,1600,1599,0,0,0,0,0,0,0,0,0,0
1684064113.89960289,106328285,1538,1538,1602,1600,0,0,0,0,0,0,0,0,0,0
1684064113.99956298,106428245,1537,1538,1603,1602,0,0,0,0,0,0,0,0,0,0
1684064114.09952283,106528205,1538,1540,1602,1602,0,0,0,0,0,0,0,0,0,0
1684064114.19948292,106628165,1540,1543,1599,1599,0,0,0,0,0,0,0,0,0,0
1684064114.30027580,106728958,1546,1548,1595,1595,0,0,0,0,0,0,0,0,0,0
1684064114.40023589,106828918,1552,1553,1589,1590,0,0,0,0,0,0,0,0,0,0
1684064114.50019598,106928878,1560,1560,1584,1585,0,0,0,0,0,0,0,0,0,0
1684064114.60015583,107028838,1566,1566,1579,1579,0,0,0,0,0,0,0,0,0,0
1684064114.70011592,107128798,1572,1572,1577,1575,0,0,0,0,0,0,0,0,0,0
1684064114.80007601,107228758,1577,1576,1574,1572,0,0,0,0,0,0,0,0,0,0
1684064114.90003586,107328718,1582,1580,1573,1573,0,0,0,0,0,0,0,0,0,0
1684064114.99999595,107428678,1583,1582,1571,1571,0,0,0,0,0,0,0,0,0,0
1684064115.09995580,107528638,1585,1583,1571,1572,0,0,0,0,0,0,0,0,0,0
1684064115.19991589,107628598,1585,1584,1571,1572,0,0,0,0,0,0,0,0,0,0
1684064115.29987597,107728558,1585,1585,1572,1573,0,0,0,0,0,0,0,0,0,0
1684064115.39983582,107828518,1585,1584,1573,1573,0,0,0,0,0,0,0,0,0,0
1684064115.49979591,107928478,1584,1584,1574,1574,0,0,0,0,0,0,0,0,0,0
1684064115.59975600,108028438,1583,1583,1575,1574,0,0,0,0,0,0,0,0,0,0
1684064115.69971585,108128398,1582,1582,1575,1575,0,0,0,0,0,0,0,0,0,0
1684064115.79967594,108228358,1581,1582,1576,1576,0,0,0,0,0,0,0,0,0,0
1684064115.89963603,108328318,1581,1581,1578,1577,0,0,0,0,0,0,0,0,0,0
1684064115.99959588,108428278,1579,1579,1577,1577,0,0,0,0,0,0,0,0,0,0
1684064116.09955597,108528238,1578,1578,1577,1577,0,0,0,0,0,0,0,0,0,0
1684064116.19951582,108628198,1578,1578,1578,1578,0,0,0,0,0,0,0,0,0,0
1684064116.29947591,108728158,1577,1577,1579,1579,0,0,0,0,0,0,0,0,0,0
1684064116.40026879,108828951,1577,1577,1580,1580,0,0,0,0,0,0,0,0,0,0
1684064116.50022888,108928911,1577,1577,1581,1580,0,0,0,0,0,0,0,0,0,0
1684064116.60018897,109028871,1577,1578,1580,1581,0,0,0,0,0,0,0,0,0,0
1684064116.70014882,109128831,1577,1578,1580,1581,0,0,0,0,0,0,0,0,0,0
1684064116.80010891,109228791,1577,1578,1581,1581,0,0,0,0,0,0,0,0,0,0
1684064116.90006900,109328751,1578,1578,1581,1580,0,0,0,0,0,0,0,0,0,0
1684064117.00002885,109428711,1578,1579,1580,1580,0,0,0,0,0,0,0,0,0,0
1684064117.09998894,109528671,1579,1579,1580,1580,0,0,0,0,0,0,0,0,0,0
1684064117.19994903,109628631,1580,1579,1580,1580,0,0,0,0,0,0,0,0,0,0
1684064117.29990888,109728591,1581,1580,1581,1580,0,0,0,0,0,0,0,0,0,0
1684064117.39986897,109828551,1580,1580,1580,1580,0,0,0,0,0,0,0,0,0,0
1684064117.49982882,109928511,1581,1581,1580,1580,0,0,0,0,0,0,0,0,0,0
1684064117.59978890,110028471,1581,1581,1579,1580,0,0,0,0,0,0,0,0,0,0
1684064117.69974899,110128431,1581,1581,1579,1580,0,0,0,0,0,0,0,0,0,0
1684064117.79970884,110228391,1581,1581,1579,1580,0,0,0,0,0,0,0,0,0,0
1684064117.89966893,110328351,1581,1581,1580,1579,0,0,0,0,0,0,0,0,0,0
1684064117.99962902,110428311,1581,1581,1580,1579,0,0,0,0,0,0,0,0,0,0
1684064118.09958887,110528271,1582,1581,1580,1580,0,0,0,0,0,0,0,0,0,0
1684064118.19954896,110628231,1582,1581,1581,1580,0,0,0,0,0,0,0,0,0,0
1684064118.29950881,110728191,1581,1581,1580,1580,0,0,0,0,0,0,0,0,0,0
1684064118.40030193,110828984,1581,1581,1580,1580,0,0,0,0,0,0,0,0,0,0
1684064118.50026202,110928944,1581,1581,1581,1581,0,0,0,0,0,0,0,0,0,0
1684064118.60022187,111028904,1581,1581,1581,1581,0,0,0,0,0,0,0,0,0,0
1684064118.70018196,111128864,1582,1582,1582,1582,0,0,0,0,0,0,0,0,0,0
1684064118.80014181,111228824,1582,1581,1582,1582,0,0,0,0,0,0,0,0,0,0
1684064118.90010190,111328784,1582,1581,1582,1582,0,0,0,0,0,0,0,0,0,0
1684064119.00006199,111428744,1581,1582,1584,1580,0,0,0,0,0,0,0,0,0,0
1684064119.10002184,111528704,1582,1582,1589,1574,0,0,0,0,0,0,0,0,0,0
1684064119.19998193,111628664,1580,1581,1583,1573,0,0,0,0,0,0,0,0,0,0
1684064119.29994202,111728624,1578,1580,1573,1573,0,0,0,0,0,0,0,0,0,0
1684064119.39990187,111828584,1576,1578,1564,1569,0,0,0,0,0,0,0,0,0,0
1684064119.49986196,111928544,1576,1578,1559,1566,0,0,0,0,0,0,0,0,0,0
1684064119.59982181,112028504,1576,1578,1556,1561,0,0,0,0,0,0,0,0,0,0
1684064119.69978189,112128464,1577,1578,1556,1558,0,0,0,0,0,0,0,0,0,0
1684064119.79974198,112228424,1578,1578,1557,1556,0,0,0,0,0,0,0,0,0,0
1684064119.89970183,112328384,1578,1577,1556,1555,0,0,0,0,0,0,0,0,0,0
1684064119.99966192,112428344,1579,1578,1558,1556,0,0,0,0,0,0,0,0,0,0
1684064120.09962201,112528304,1578,1578,1556,1555,0,0,0,0,0,0,0,0,0,0
1684064120.19958186,112628264,1577,1577,1555,1554,0,0,0,0,0,0,0,0,0,0
1684064120.29954195,112728224,1577,1578,1554,1554,0,0,0,0,0,0,0,0,0,0
1684064120.39950180,112828184,1576,1577,1552,1552,0,0,0,0,0,0,0,0,0,0
1684064120.50029492,112928977,1576,1577,1550,1551,0,0,0,0,0,0,0,0,0,0
1684064120.60025501,113028937,1577,1579,1549,1550,0,0,0,0,0,0,0,0,0,0
1684064120.70021486,113128897,1579,1580,1548,1548,0,0,0,0,0,0,0,0,0,0
1684064120.80017495,113228857,1580,1582,1547,1547,0,0,0,0,0,0,0,0,0,0
1684064120.90013480,113328817,1582,1583,1545,1544,0,0,0,0,0,0,0,0,0,0
1684064121.00009489,113428777,1584,1585,1543,1542,0,0,0,0,0,0,0,0,0,0
1684064121.10005498,113528737,1586,1586,1540,1540,0,0,0,0,0,0,0,0,0,0
1684064121.20001483,113628697,1588,1588,1540,1540,0,0,0,0,0,0,0,0,0,0
1684064121.29997492,113728657,1590,1589,1540,1540,0,0,0,0,0,0,0,0,0,0
1684064121.39993501,113828617,1590,1591,1540,1542,0,0,0,0,0,0,0,0,0,0
1684064121.49989486,113928577,1590,1590,1541,1543,0,0,0,0,0,0,0,0,0,0
1684064121.59985495,114028537,1590,1591,1545,1547,0,0,0,0,0,0,0,0,0,0
1684064121.69981480,114128497,1588,1587,1547,1551,0,0,0,0,0,0,0,0,0,0
1684064121.79977489,114228457,1585,1583,1553,1556,0,0,0,0,0,0,0,0,0,0
1684064121.89973497,114328417,1580,1577,1560,1563,0,0,0,0,0,0,0,0,0,0
1684064121.99969482,114428377,1573,1570,1570,1572,0,0,0,0,0,0,0,0,0,0
1684064122.09965491,114528337,1564,1561,1581,1582,0,0,0,0,0,0,0,0,0,0
1684064122.19961500,114628297,1555,1552,1592,1592,0,0,0,0,0,0,0,0,0,0
1684064122.29957485,114728257,1545,1543,1600,1600,0,0,0,0,0,0,0,0,0,0
1684064122.39953494,114828217,1538,1538,1607,1606,0,0,0,0,0,0,0,0,0,0
1684064122.49949503,114928177,1533,1534,1610,1610,0,0,0,0,0,0,0,0,0,0
1684064122.60028791,115028970,1532,1534,1611,1610,0,0,0,0,0,0,0,0,0,0
1684064122.70024800,115128930,1534,1537,1609,1608,0,0,0,0,0,0,0,0,0,0
1684064122.80020785,115228890,1539,1542,1606,1605,0,0,0,0,0,0,0,0,0,0
1684064122.90016794,115328850,1545,1547,1598,1598,0,0,0,0,0,0,0,0,0,0
1684064123.00012779,115428810,1554,1554,1592,1592,0,0,0,0,0,0,0,0,0,0
1684064123.10008788,115528770,1561,1561,1586,1585,0,0,0,0,0,0,0,0,0,0
1684064123.20004797,115628730,1569,1569,1579,1579,0,0,0,0,0,0,0,0,0,0
1684064123.30000782,115728690,1577,1575,1575,1574,0,0,0,0,0,0,0,0,0,0
1684064123.39996791,115828650,1582,1581,1571,1570,0,0,0,0,0,0,0,0,0,0
1684064123.49992800,115928610,1587,1585,1568,1568,0,0,0,0,0,0,0,0,0,0
1684064123.59988785,116028570,1588,1586,1566,1566,0,0,0,0,0,0,0,0,0,0
1684064123.69984794,116128530,1589,1588,1567,1568,0,0,0,0,0,0,0,0,0,0
1684064123.79980803,116228490,1588,1588,1568,1568,0,0,0,0,0,0,0,0,0,0
1684064123.89976788,116328450,1586,1586,1570,1570,0,0,0,0,0,0,0,0,0,0
1684064123.99972796,116428410,1584,1584,1573,1573,0,0,0,0,0,0,0,0,0,0
1684064124.09968781,116528370,1582,1582,1575,1575,0,0,0,0,0,0,0,0,0,0
1684064124.19964790,116628330,1579,1579,1578,1578,0,0,0,0,0,0,0,0,0,0
1684064124.29960799,116728290,1577,1577,1581,1581,0,0,0,0,0,0,0,0,0,0
1684064124.39956784,116828250,1576,1576,1584,1583,0,0,0,0,0,0,0,0,0,0
1684064124.49952793,116928210,1575,1576,1585,1585,0,0,0,0,0,0,0,0,0,0
1684064124.59948802,117028170,1574,1575,1585,1585,0,0,0,0,0,0,0,0,0,0
1684064124.70028090,117128963,1574,1574,1585,1585,0,0,0,0,0,0,0,0,0,0
1684064124.80024099,117228923,1574,1574,1583,1584,0,0,0,0,0,0,0,0,0,0
1684064124.90020084,117328883,1574,1575,1582,1583,0,0,0,0,0,0,0,0,0,0
1684064125.00016093,117428843,1575,1576,1581,1581,0,0,0,0,0,0,0,0,0,0
1684064125.10012102,117528803,1577,1577,1580,1580,0,0,0,0,0,0,0,0,0,0
1684064125.20008087,117628763,1578,1578,1579,1579,0,0,0,0,0,0,0,0,0,0
1684064125.30004096,117728723,1580,1579,1579,1579,0,0,0,0,0,0,0,0,0,0
1684064125.40000081,117828683,1581,1580,1578,1578,0,0,0,0,0,0,0,0,0,0
1684064125.49996090,117928643,1581,1580,1577,1576,0,0,0,0,0,0,0,0,0,0
1684064125.59992099,118028603,1581,1581,1577,1576,0,0,0,0,0,0,0,0,0,0
1684064125.69988084,118128563,1582,1581,1577,1576,0,0,0,0,0,0,0,0,0,0
1684064125.79984093,118228523,1581,1581,1577,1577,0,0,0,0,0,0,0,0,0,0
1684064125.89980102,118328483,1581,1582,1578,1579,0,0,0,0,0,0,0,0,0,0
1684064125.99976087,118428443,1581,1582,1579,1580,0,0,0,0,0,0,0,0,0,0
1684064126.09972095,118528403,1581,1581,1580,1580,0,0,0,0,0,0,0,0,0,0
1684064126.19968081,118628363,1580,1581,1580,1580,0,0,0,0,0,0,0,0,0,0
1684064126.29964089,118728323,1580,1580,1580,1580,0,0,0,0,0,0,0,0,0,0
1684064126.39960098,118828283,1580,1581,1582,1581,0,0,0,0,0,0,0,0,0,0
1684064126.49956083,118928243,1580,1580,1582,1581,0,0,0,0,0,0,0,0,0,0
1684064126.59952092,119028203,1579,1580,1581,1581,0,0,0,0,0,0,0,0,0,0
1684064126.69948101,119128163,1580,1580,1581,1581,0,0,0,0,0,0,0,0,0,0
1684064126.80027390,119228956,1580,1579,1581,1581,0,0,0,0,0,0,0,0,0,0
1684064126.90023398,119328916,1580,1580,1581,1582,0,0,0,0,0,0,0,0,0,0
1684064127.00019383,119428876,1581,1580,1582,1581,0,0,0,0,0,0,0,0,0,0
1684064127.10015392,119528836,1581,1581,1585,1578,0,0,0,0,0,0,0,0,0,0
1684064127.20011401,119628796,1582,1582,1589,1574,0,0,0,0,0,0,0,0,0,0
1684064127.30007386,119728756,1580,1579,1583,1574,0,0,0,0,0,0,0,0,0,0
1684064127.40003395,119828716,1578,1578,1575,1576,0,0,0,0,0,0,0,0,0,0
1684064127.49999380,119928676,1574,1574,1568,1574,0,0,0,0,0,0,0,0,0,0
1684064127.59995389,120028636,1571,1571,1564,1572,0,0,0,0,0,0,0,0,0,0
1684064127.69991398,120128596,1570,1569,1564,1570,0,0,0,0,0,0,0,0,0,0
1684064127.79987383,120228556,1568,1569,1565,1568,0,0,0,0,0,0,0,0,0,0
1684064127.89983392,120328516,1567,1568,1567,1566,0,0,0,0,0,0,0,0,0,0
1684064127.99979401,120428476,1566,1567,1568,1566,0,0,0,0,0,0,0,0,0,0
1684064128.09975386,120528436,1567,1566,1569,1566,0,0,0,0,0,0,0,0,0,0
1684064128.19971395,120628396,1565,1565,1567,1564,0,0,0,0,0,0,0,0,0,0
1684064128.29967380,120728356,1564,1563,1565,1564,0,0,0,0,0,0,0,0,0,0
1684064128.39963388,120828316,1563,1563,1565,1565,0,0,0,0,0,0,0,0,0,0
1684064128.49959397,120928276,1562,1562,1563,1564,0,0,0,0,0,0,0,0,0,0
1684064128.59955382,121028236,1562,1563,1563,1564,0,0,0,0,0,0,0,0,0,0
1684064128.69951391,121128196,1562,1562,1563,1563,0,0,0,0,0,0,0,0,0,0
1684064128.79947400,121228156,1561,1561,1563,1562,0,0,0,0,0,0,0,0,0,0
1684064128.90026689,121328949,1561,1561,1562,1562,0,0,0,0,0,0,0,0,0,0
1684064129.00022697,121428909,1561,1560,1561,1560,0,0,0,0,0,0,0,0,0,0
1684064129.10018682,121528869,1560,1560,1561,1560,0,0,0,0,0,0,0,0,0,0
1684064129.20014691,121628829,1560,1560,1560,1560,0,0,0,0,0,0,0,0,0,0
1684064129.30010700,121728789,1560,1559,1559,1559,0,0,0,0,0,0,0,0,0,0
1684064129.40006685,121828749,1559,1560,1560,1558,0,0,0,0,0,0,0,0,0,0
1684064129.50002694,121928709,1560,1560,1560,1558,0,0,0,0,0,0,0,0,0,0
1684064129.59998703,122028669,1560,1560,1560,1559,0,0,0,0,0,0,0,0,0,0
1684064129.69994688,122128629,1559,1559,1559,1558,0,0,0,0,0,0,0,0,0,0
1684064129.79990697,122228589,1560,1559,1561,1558,0,0,0,0,0,0,0,0,0,0
1684064129.89986682,122328549,1560,1559,1560,1559,0,0,0,0,0,0,0,0,0,0
1684064129.99982691,122428509,1559,1559,1559,1561,0,0,0,0,0,0,0,0,0,0
1684064130.09978700,122528469,1560,1560,1558,1563,0,0,0,0,0,0,0,0,0,0
1684064130.19974685,122628429,1561,1561,1558,1564,0,0,0,0,0,0,0,0,0,0
1684064130.29970694,122728389,1561,1562,1560,1565,0,0,0,0,0,0,0,0,0,0
1684064130.39966702,122828349,1562,1563,1561,1564,0,0,0,0,0,0,0,0,0,0
1684064130.49962687,122928309,1561,1562,1562,1562,0,0,0,0,0,0,0,0,0,0
1684064130.59958696,123028269,1561,1561,1562,1559,0,0,0,0,0,0,0,0,0,0
1684064130.69954681,123128229,1560,1560,1561,1557,0,0,0,0,0,0,0,0,0,0
1684064130.79950690,123228189,1560,1559,1557,1560,0,0,0,0,0,0,0,0,0,0
1684064130.90030003,123328982,1557,1557,1552,1558,0,0,0,0,0,0,0,0,0,0
1684064131.00025988,123428942,1554,1553,1549,1553,0,0,0,0,0,0,0,0,0,0
1684064131.10021996,123528902,1549,1549,1545,1547,0,0,0,0,0,0,0,0,0,0
1684064131.20017982,123628862,1543,1543,1540,1540,0,0,0,0,0,0,0,0,0,0
1684064131.30013990,123728822,1536,1536,1533,1531,0,0,0,0,0,0,0,0,0,0
1684064131.40009999,123828782,1529,1530,1526,1524,0,0,0,0,0,0,0,0,0,0
1684064131.50005984,123928742,1523,1523,1520,1519,0,0,0,0,0,0,0,0,0,0
1684064131.60001993,124028702,1520,1521,1520,1518,0,0,0,0,0,0,0,0,0,0
1684064131.69998002,124128662,1519,1519,1519,1519,0,0,0,0,0,0,0,0,0,0
1684064131.79993987,124228622,1519,1519,1521,1522,0,0,0,0,0,0,0,0,0,0
1684064131.89989996,124328582,1520,1520,1525,1526,0,0,0,0,0,0,0,0,0,0
1684064131.99985981,124428542,1524,1524,1530,1530,0,0,0,0,0,0,0,0,0,0
1684064132.09981990,124528502,1529,1528,1535,1536,0,0,0,0,0,0,0,0,0,0
1684064132.19977999,124628462,1533,1532,1540,1540,0,0,0,0,0,0,0,0,0,0
1684064132.29973984,124728422,1536,1536,1543,1542,0,0,0,0,0,0,0,0,0,0
1684064132.39969993,124828382,1539,1540,1544,1544,0,0,0,0,0,0,0,0,0,0
1684064132.49966002,124928342,1541,1541,1544,1543,0,0,0,0,0,0,0,0,0,0
1684064132.59961987,125028302,1544,1544,1544,1544,0,0,0,0,0,0,0,0,0,0
1684064132.69957995,125128262,1545,1545,1544,1544,0,0,0,0,0,0,0,0,0,0
1684064132.79953980,125228222,1547,1547,1545,1544,0,0,0,0,0,0,0,0,0,0
1684064132.89949989,125328182,1547,1548,1544,1544,0,0,0,0,0,0,0,0,0,0
1684064133.00029302,125428975,1548,1549,1544,1544,0,0,0,0,0,0,0,0,0,0
1684064133.10025287,125528935,1549,1549,1544,1544,0,0,0,0,0,0,0,0,0,0
1684064133.20021296,125628895,1549,1549,1545,1545,0,0,0,0,0,0,0,0,0,0
1684064133.30017281,125728855,1548,1548,1545,1544,0,0,0,0,0,0,0,0,0,0
1684064133.40013289,125828815,1547,1547,1544,1544,0,0,0,0,0,0,0,0,0,0
1684064133.50009298,125928775,1546,1546,1545,1545,0,0,0,0,0,0,0,0,0,0
1684064133.60005283,126028735,1546,1546,1545,1544,0,0,0,0,0,0,0,0,0,0
1684064133.70001292,126128695,1545,1545,1545,1545,0,0,0,0,0,0,0,0,0,0
1684064133.79997301,126228655,1545,1545,1546,1546,0,0,0,0,0,0,0,0,0,0
1684064133.89993286,126328615,1544,1543,1545,1545,0,0,0,0,0,0,0,0,0,0
1684064133.99989295,126428575,1543,1544,1546,1546,0,0,0,0,0,0,0,0,0,0
1684064134.09985280,126528535,1544,1544,1546,1546,0,0,0,0,0,0,0,0,0,0
1684064134.19981289,126628495,1544,1544,1546,1546,0,0,0,0,0,0,0,0,0,0
1684064134.29977298,126728455,1544,1544,1546,1546,0,0,0,0,0,0,0,0,0,0
1684064134.39973283,126828415,1544,1544,1545,1544,0,0,0,0,0,0,0,0,0,0
1684064134.49969292,126928375,1544,1544,1545,1545,0,0,0,0,0,0,0,0,0,0
1684064134.59965301,127028335,1544,1544,1545,1545,0,0,0,0,0,0,0,0,0,0
1684064134.69961286,127128295,1545,1545,1544,1545,0,0,0,0,0,0,0,0,0,0
1684064134.79957294,127228255,1544,1545,1544,1544,0,0,0,0,0,0,0,0,0,0
1684064134.89953279,127328215,1545,1545,1544,1544,0,0,0,0,0,0,0,0,0,0
1684064134.99949288,127428175,1544,1545,1544,1543,0,0,0,0,0,0,0,0,0,0
1684064135.10028601,127528968,1545,1544,1543,1543,0,0,0,0,0,0,0,0,0,0
1684064135.20024586,127628928,1545,1544,1544,1544,0,0,0,0,0,0,0,0,0,0
1684064135.30020595,127728888,1544,1544,1543,1543,0,0,0,0,0,0,0,0,0,0
1684064135.40016580,127828848,1544,1544,1543,1543,0,0,0,0,0,0,0,0,0,0
1684064135.50012589,127928808,1543,1544,1543,1543,0,0,0,0,0,0,0,0,0,0
1684064135.60008597,128028768,1544,1544,1544,1544,0,0,0,0,0,0,0,0,0,0
1684064135.70004582,128128728,1543,1543,1543,1543,0,0,0,0,0,0,0,0,0,0
1684064135.80000591,128228688,1543,1543,1544,1544,0,0,0,0,0,0,0,0,0,0
1684064135.89996600,128328648,1544,1543,1544,1544,0,0,0,0,0,0,0,0,0,0
1684064135.99992585,128428608,1543,1543,1544,1544,0,0,0,0,0,0,0,0,0,0
1684064136.09988594,128528568,1543,1543,1544,1544,0,0,0,0,0,0,0,0,0,0
1684064136.19984603,128628528,1544,1544,1544,1545,0,0,0,0,0,0,0,0,0,0
1684064136.29980588,128728488,1544,1544,1544,1545,0,0,0,0,0,0,0,0,0,0
1684064136.39976597,128828448,1544,1545,1545,1545,0,0,0,0,0,0,0,0,0,0
1684064136.49972582,128928408,1544,1544,1545,1544,0,0,0,0,0,0,0,0,0,0
1684064136.59968591,129028368,1545,1545,1545,1544,0,0,0,0,0,0,0,0,0,0
1684064136.69964600,129128328,1545,1544,1544,1544,0,0,0,0,0,0,0,0,0,0
1684064136.79960585,129228288,1545,1545,1544,1545,0,0,0,0,0,0,0,0,0,0
1684064136.89956594,129328248,1545,1545,1544,1544,0,0,0,0,0,0,0,0,0,0
1684064136.99952602,129428208,1544,1544,1544,1544,0,0,0,0,0,0,0,0,0,0
1684064137.09948587,129528168,1545,1544,1544,1544,0,0,0,0,0,0,0,0,0,0
1684064137.20027900,129628961,1544,1545,1544,1544,0,0,0,0,0,0,0,0,0,0
1684064137.30023885,129728921,1544,1544,1544,1544,0,0,0,0,0,0,0,0,0,0
1684064137.40019894,129828881,1544,1544,1544,1544,0,0,0,0,0,0,0,0,0,0
1684064137.50015903,129928841,1544,1544,1544,1544,0,0,0,0,0,0,0,0,0,0
1684064137.60011888,130028801,1544,1544,1544,1544,0,0,0,0,0,0,0,0,0,0
1684064137.70007896,130128761,1544,1543,1543,1543,0,0,0,0,0,0,0,0,0,0
1684064137.80003881,130228721,1544,1544,1544,1544,0,0,0,0,0,0,0,0,0,0
1684064137.89999890,130328681,1544,1544,1545,1544,0,0,0,0,0,0,0,0,0,0
1684064137.99995899,130428641,1544,1545,1545,1545,0,0,0,0,0,0,0,0,0,0
1684064138.09991884,130528601,1544,1544,1544,1545,0,0,0,0,0,0,0,0,0,0
1684064138.19987893,130628561,1544,1544,1544,1544,0,0,0,0,0,0,0,0,0,0
1684064138.29983902,130728521,1544,1544,1544,1544,0,0,0,0,0,0,0,0,0,0
1684064138.39979887,130828481,1544,1544,1544,1544,0,0,0,0,0,0,0,0,0,0
1684064138.49975896,130928441,1544,1545,1544,1544,0,0,0,0,0,0,0,0,0,0
1684064138.59971881,131028401,1545,1545,1545,1545,0,0,0,0,0,0,0,0,0,0
1684064138.69967890,131128361,1544,1544,1543,1544,0,0,0,0,0,0,0,0,0,0
1684064138.79963899,131228321,1544,1544,1544,1544,0,0,0,0,0,0,0,0,0,0
1684064138.89959884,131328281,1545,1544,1544,1544,0,0,0,0,0,0,0,0,0,0
1684064138.99955893,131428241,1544,1544,1544,1544,0,0,0,0,0,0,0,0,0,0
1684064139.09951901,131528201,1544,1544,1544,1544,0,0,0,0,0,0,0,0,0,0
1684064139.19947886,131628161,1544,1544,1544,1544,0,0,0,0,0,0,0,0,0,0
1684064139.30027199,131728954,1544,1544,1544,1544,0,0,0,0,0,0,0,0,0,0
1684064139.40023184,131828914,1544,1544,1544,1544,0,0,0,0,0,0,0,0,0,0
1684064139.50019193,131928874,1544,1543,1543,1544,0,0,0,0,0,0,0,0,0,0
1684064139.60015202,132028834,1544,1544,1544,1544,0,0,0,0,0,0,0,0,0,0
1684064139.70011187,132128794,1545,1544,1544,1545,0,0,0,0,0,0,0,0,0,0
1684064139.80007195,132228754,1544,1543,1543,1544,0,0,0,0,0,0,0,0,0,0
1684064139.90003181,132328714,1544,1544,1544,1545,0,0,0,0,0,0,0,0,0,0
1684064139.99999189,132428674,1544,1544,1545,1544,0,0,0,0,0,0,0,0,0,0
1684064140.09995198,132528634,1545,1544,1545,1545,0,0,0,0,0,0,0,0,0,0
1684064140.19991183,132628594,1544,1544,1544,1544,0,0,0,0,0,0,0,0,0,0
1684064140.29987192,132728554,1545,1544,1544,1544,0,0,0,0,0,0,0,0,0,0
1684064140.39983201,132828514,1544,1544,1544,1543,0,0,0,0,0,0,0,0,0,0
1684064140.49979186,132928474,1544,1544,1544,1543,0,0,0,0,0,0,0,0,0,0
1684064140.59975195,133028434,1544,1544,1544,1544,0,0,0,0,0,0,0,0,0,0
1684064140.69971180,133128394,1545,1544,1544,1545,0,0,0,0,0,0,0,0,0,0
1684064140.79967189,133228354,1545,1545,1545,1544,0,0,0,0,0,0,0,0,0,0
1684064140.89963198,133328314,1545,1545,1544,1545,0,0,0,0,0,0,0,0,0,0
1684064140.99959183,133428274,1543,1544,1544,1543,0,0,0,0,0,0,0,0,0,0
1684064141.09955192,133528234,1545,1545,1545,1545,0,0,0,0,0,0,0,0,0,0
1684064141.19951200,133628194,1544,1545,1545,1545,0,0,0,0,0,0,0,0,0,0
1684064141.29947186,133728154,1452,1452,1421,1421,0,0,0,0,0,0,0,0,0,0
1684064141.40026498,133828947,1354,1356,1278,1278,0,0,0,0,0,0,0,0,0,0
1684064141.50022483,133928907,1321,1322,1223,1224,0,0,0,0,0,0,0,0,0,0
1684064141.60018492,134028867,1309,1310,1203,1203,0,0,0,0,0,0,0,0,0,0
1684064141.70014501,134128827,1288,1289,1165,1165,0,0,0,0,0,0,0,0,0,0
1684064141.80010486,134228787,1263,1264,1151,1150,0,0,0,0,0,0,0,0,0,0
1684064141.90006495,134328747,1130,1131,1150,1150,0,0,0,0,0,0,0,0,0,0
1684064142.00002480,134428707,1087,1088,1150,1150,0,0,0,0,0,0,0,0,0,0
1684064142.09998488,134528667,1087,1088,1150,1150,0,0,0,0,0,0,0,0,0,0
1684064142.19994497,134628627,1087,1088,1150,1150,0,0,0,0,0,0,0,0,0,0
1684064142.29990482,134728587,1087,1068,1150,1176,0,0,0,0,0,0,0,0,0,0
1684064142.39986491,134828547,1087,1076,1150,1166,0,0,0,0,0,0,0,0,0,0
1684064142.49982500,134928507,1087,1079,1150,1162,0,0,0,0,0,0,0,0,0,0
1684064142.59978485,135028467,1087,1080,1150,1161,0,0,0,0,0,0,0,0,0,0
1684064142.69974494,135128427,1087,1080,1150,1161,0,0,0,0,0,0,0,0,0,0
1684064142.79970503,135228387,1087,1079,1150,1162,0,0,0,0,0,0,0,0,0,0
1684064142.89966488,135328347,1087,1079,1150,1162,0,0,0,0,0,0,0,0,0,0
1684064142.99962497,135428307,1088,1079,1150,1162,0,0,0,0,0,0,0,0,0,0
1684064143.09958482,135528267,1088,1087,1150,1150,0,0,0,0,0,0,0,0,0,0
1684064143.19954491,135628227,1088,1086,1150,1151,0,0,0,0,0,0,0,0,0,0
1684064143.29950500,135728187,1088,1086,1150,1152,0,0,0,0,0,0,0,0,0,0
1684064143.40029788,135828980,1088,1086,1150,1152,0,0,0,0,0,0,0,0,0,0
1684064143.50025797,135928940,1036,1034,1150,1151,0,0,0,0,0,0,0,0,0,0
1684064143.60021782,136028900,1000,1000,1000,1000,0,0,0,0,0,0,0,0,0,0
1684064143.70017791,136128860,1000,1000,1000,1000,0,0,0,0,0,0,0,0,0,0
1684064143.80013800,136228820,1000,1000,1000,1000,0,0,0,0,0,0,0,0,0,0
1684064143.90009785,136328780,1000,1000,1000,1000,0,0,0,0,0,0,0,0,0,0
1684064144.00005794,136428740,1000,1000,1000,1000,0,0,0,0,0,0,0,0,0,0
1684064144.10001802,136528700,1000,1000,1000,1000,0,0,0,0,0,0,0,0,0,0
1684064144.19997787,136628660,1000,1000,1000,1000,0,0,0,0,0,0,0,0,0,0
1684064144.29993796,136728620,1000,1000,1000,1000,0,0,0,0,0,0,0,0,0,0
1684064144.39989781,136828580,1000,1000,1000,1000,0,0,0,0,0,0,0,0,0,0
1684064144.49985790,136928540,1000,1000,1000,1000,0,0,0,0,0,0,0,0,0,0
1684064144.59981799,137028500,1000,1000,1000,1000,0,0,0,0,0,0,0,0,0,0
1684064144.69977784,137128460,1000,1000,1000,1000,0,0,0,0,0,0,0,0,0,0
1684064144.79973793,137228420,1000,1000,1000,1000,0,0,0,0,0,0,0,0,0,0
1684064144.89969802,137328380,1000,1000,1000,1000,0,0,0,0,0,0,0,0,0,0
1684064144.99965787,137428340,1000,1000,1000,1000,0,0,0,0,0,0,0,0,0,0
1684064145.09961796,137528300,1000,1000,1000,1000,0,0,0,0,0,0,0,0,0,0
1684064145.19957781,137628260,1000,1000,1000,1000,0,0,0,0,0,0,0,0,0,0
1684064145.29953790,137728220,1000,1000,1000,1000,0,0,0,0,0,0,0,0,0,0
1684064145.39949799,137828180,1000,1000,1000,1000,0,0,0,0,0,0,0,0,0,0
1684064145.50029087,137928973,1000,1000,1000,1000,0,0,0,0,0,0,0,0,0,0
1684064145.60025096,138028933,1000,1000,1000,1000,0,0,0,0,0,0,0,0,0,0
1684064145.70021081,138128893,1000,1000,1000,1000,0,0,0,0,0,0,0,0,0,0
1684064145.80017090,138228853,1000,1000,1000,1000,0,0,0,0,0,0,0,0,0,0
1684064145.90013099,138328813,1000,1000,1000,1000,0,0,0,0,0,0,0,0,0,0
1684064146.00009084,138428773,1000,1000,1000,1000,0,0,0,0,0,0,0,0,0,0
1684064146.10005093,138528733,1000,1000,1000,1000,0,0,0,0,0,0,0,0,0,0
1684064146.20001101,138628693,1000,1000,1000,1000,0,0,0,0,0,0,0,0,0,0
1684064146.29997087,138728653,1000,1000,1000,1000,0,0,0,0,0,0,0,0,0,0
1684064146.39993095,138828613,1000,1000,1000,1000,0,0,0,0,0,0,0,0,0,0
1684064146.49989080,138928573,1000,1000,1000,1000,0,0,0,0,0,0,0,0,0,0
1684064146.59985089,139028533,1000,1000,1000,1000,0,0,0,0,0,0,0,0,0,0
1684064146.69981098,139128493,1000,1000,1000,1000,0,0,0,0,0,0,0,0,0,0
1684064146.79977083,139228453,1000,1000,1000,1000,0,0,0,0,0,0,0,0,0,0
1684064146.89973092,139328413,1000,1000,1000,1000,0,0,0,0,0,0,0,0,0,0
1684064146.99969101,139428373,1000,1000,1000,1000,0,0,0,0,0,0,0,0,0,0
1684064147.09965086,139528333,1000,1000,1000,1000,0,0,0,0,0,0,0,0,0,0
1684064147.19961095,139628293,1000,1000,1000,1000,0,0,0,0,0,0,0,0,0,0
1684064147.29957080,139728253,1000,1000,1000,1000,0,0,0,0,0,0,0,0,0,0
1684064147.39953089,139828213,1000,1000,1000,1000,0,0,0,0,0,0,0,0,0,0
1684064147.49949098,139928173,1000,1000,1000,1000,0,0,0,0,0,0,0,0,0,0
1684064147.60028386,140028966,1000,1000,1000,1000,0,0,0,0,0,0,0,0,0,0
1684064147.70024395,140128926,1000,1000,1000,1000,0,0,0,0,0,0,0,0,0,0
1684064147.80020380,140228886,1000,1000,1000,1000,0,0,0,0,0,0,0,0,0,0
1684064147.90016389,140328846,1000,1000,1000,1000,0,0,0,0,0,0,0,0,0,0
1684064148.00012398,140428806,1000,1000,1000,1000,0,0,0,0,0,0,0,0,0,0
1684064148.10008383,140528766,1000,1000,1000,1000,0,0,0,0,0,0,0,0,0,0
1684064148.20004392,140628726,1000,1000,1000,1000,0,0,0,0,0,0,0,0,0,0
1684064148.30000401,140728686,1000,1000,1000,1000,0,0,0,0,0,0,0,0,0,0
1684064148.39996386,140828646,1000,1000,1000,1000,0,0,0,0,0,0,0,0,0,0
1684064148.49992394,140928606,1000,1000,1000,1000,0,0,0,0,0,0,0,0,0,0
1684064148.59988379,141028566,1000,1000,1000,1000,0,0,0,0,0,0,0,0,0,0
1684064148.69984388,141128526,1000,1000,1000,1000,0,0,0,0,0,0,0,0,0,0
1684064148.79980397,141228486,1000,1000,1000,1000,0,0,0,0,0,0,0,0,0,0
1684064148.89976382,141328446,1000,1000,1000,1000,0,0,0,0,0,0,0,0,0,0
1684064148.99972391,141428406,1000,1000,1000,1000,0,0,0,0,0,0,0,0,0,0
1684064149.09968400,141528366,1000,1000,1000,1000,0,0,0,0,0,0,0,0,0,0
1684064149.19964385,141628326,1000,1000,1000,1000,0,0,0,0,0,0,0,0,0,0
1684064149.29960394,141728286,1000,1000,1000,1000,0,0,0,0,0,0,0,0,0,0
1684064149.39956403,141828246,1000,1000,1000,1000,0,0,0,0,0,0,0,0,0,0
1684064149.49952388,141928206,1000,1000,1000,1000,0,0,0,0,0,0,0,0,0,0
1684064149.59948397,142028166,1000,1000,1000,1000,0,0,0,0,0,0,0,0,0,0
1684064149.70027685,142128959,1000,1000,1000,1000,0,0,0,0,0,0,0,0,0,0
1684064149.80023694,142228919,1000,1000,1000,1000,0,0,0,0,0,0,0,0,0,0
1684064149.90019703,142328879,1000,1000,1000,1000,0,0,0,0,0,0,0,0,0,0
1684064150.00015688,142428839,1000,1000,1000,1000,0,0,0,0,0,0,0,0,0,0
1684064150.10011697,142528799,1000,1000,1000,1000,0,0,0,0,0,0,0,0,0,0
1684064150.20007682,142628759,1000,1000,1000,1000,0,0,0,0,0,0,0,0,0,0
1684064150.30003691,142728719,1000,1000,1000,1000,0,0,0,0,0,0,0,0,0,0
1684064150.39999700,142828679,1000,1000,1000,1000,0,0,0,0,0,0,0,0,0,0
1684064150.49995685,142928639,1000,1000,1000,1000,0,0,0,0,0,0,0,0,0,0
1684064150.59991693,143028599,1000,1000,1000,1000,0,0,0,0,0,0,0,0,0,0
1684064150.69987702,143128559,1000,1000,1000,1000,0,0,0,0,0,0,0,0,0,0
1684064150.79983687,143228519,1000,1000,1000,1000,0,0,0,0,0,0,0,0,0,0
1684064150.89979696,143328479,1000,1000,1000,1000,0,0,0,0,0,0,0,0,0,0
1684064150.99975681,143428439,1000,1000,1000,1000,0,0,0,0,0,0,0,0,0,0
1684064151.09971690,143528399,1000,1000,1000,1000,0,0,0,0,0,0,0,0,0,0
1684064151.19967699,143628359,1000,1000,1000,1000,0,0,0,0,0,0,0,0,0,0
1684064151.29963684,143728319,1000,1000,1000,1000,0,0,0,0,0,0,0,0,0,0
1684064151.39959693,143828279,1000,1000,1000,1000,0,0,0,0,0,0,0,0,0,0
1684064151.49955702,143928239,1000,1000,1000,1000,0,0,0,0,0,0,0,0,0,0
1684064151.59951687,144028199,1000,1000,1000,1000,0,0,0,0,0,0,0,0,0,0
1684064151.69947696,144128159,1000,1000,1000,1000,0,0,0,0,0,0,0,0,0,0
1684064151.80026984,144228952,1000,1000,1000,1000,0,0,0,0,0,0,0,0,0,0
1684064151.90022993,144328912,1000,1000,1000,1000,0,0,0,0,0,0,0,0,0,0
1684064152.00019002,144428872,1000,1000,1000,1000,0,0,0,0,0,0,0,0,0,0
1684064152.10014987,144528832,1000,1000,1000,1000,0,0,0,0,0,0,0,0,0,0
1684064152.20010996,144628792,1000,1000,1000,1000,0,0,0,0,0,0,0,0,0,0
1684064152.30006981,144728752,1000,1000,1000,1000,0,0,0,0,0,0,0,0,0,0
1684064152.40002990,144828712,1000,1000,1000,1000,0,0,0,0,0,0,0,0,0,0
1684064152.49998999,144928672,1000,1000,1000,1000,0,0,0,0,0,0,0,0,0,0
1684064152.59994984,145028632,1000,1000,1000,1000,0,0,0,0,0,0,0,0,0,0
1684064152.69990993,145128592,1000,1000,1000,1000,0,0,0,0,0,0,0,0,0,0
1684064152.79987001,145228552,1000,1000,1000,1000,0,0,0,0,0,0,0,0,0,0
1684064152.89982986,145328512,1000,1000,1000,1000,0,0,0,0,0,0,0,0,0,0
1684064152.99978995,145428472,1000,1000,1000,1000,0,0,0,0,0,0,0,0,0,0
1684064153.09974980,145528432,1000,1000,1000,1000,0,0,0,0,0,0,0,0,0,0
1684064153.19970989,145628392,1000,1000,1000,1000,0,0,0,0,0,0,0,0,0,0
1684064153.29966998,145728352,1000,1000,1000,1000,0,0,0,0,0,0,0,0,0,0
1684064153.39962983,145828312,1000,1000,1000,1000,0,0,0,0,0,0,0,0,0,0
1684064153.49958992,145928272,1000,1000,1000,1000,0,0,0,0,0,0,0,0,0,0
1684064153.59955001,146028232,1000,1000,1000,1000,0,0,0,0,0,0,0,0,0,0
1684064153.69950986,146128192,1000,1000,1000,1000,0,0,0,0,0,0,0,0,0,0
1684064153.80030298,146228985,1000,1000,1000,1000,0,0,0,0,0,0,0,0,0,0
1684064153.90026283,146328945,1000,1000,1000,1000,0,0,0,0,0,0,0,0,0,0
1684064154.00022292,146428905,1000,1000,1000,1000,0,0,0,0,0,0,0,0,0,0
1684064154.10018301,146528865,1000,1000,1000,1000,0,0,0,0,0,0,0,0,0,0
1684064154.20014286,146628825,1000,1000,1000,1000,0,0,0,0,0,0,0,0,0,0
1684064154.30010295,146728785,1000,1000,1000,1000,0,0,0,0,0,0,0,0,0,0
1684064154.40006280,146828745,1000,1000,1000,1000,0,0,0,0,0,0,0,0,0,0
1684064154.50002289,146928705,1000,1000,1000,1000,0,0,0,0,0,0,0,0,0,0
1684064154.59998298,147028665,1000,1000,1000,1000,0,0,0,0,0,0,0,0,0,0
1684064154.69994283,147128625,1000,1000,1000,1000,0,0,0,0,0,0,0,0,0,0
1684064154.79990292,147228585,1000,1000,1000,1000,0,0,0,0,0,0,0,0,0,0
1684064154.89986300,147328545,1000,1000,1000,1000,0,0,0,0,0,0,0,0,0,0
1684064154.99982285,147428505,1000,1000,1000,1000,0,0,0,0,0,0,0,0,0,0
1684064155.09978294,147528465,1000,1000,1000,1000,0,0,0,0,0,0,0,0,0,0
1684064155.19974279,147628425,1000,1000,1000,1000,0,0,0,0,0,0,0,0,0,0
1684064155.29970288,147728385,1000,1000,1000,1000,0,0,0,0,0,0,0,0,0,0
1684064155.39966297,147828345,1000,1000,1000,1000,0,0,0,0,0,0,0,0,0,0
1684064155.49962282,147928305,1000,1000,1000,1000,0,0,0,0,0,0,0,0,0,0
1684064155.59958291,148028265,1000,1000,1000,1000,0,0,0,0,0,0,0,0,0,0
1684064155.69954300,148128225,1000,1000,1000,1000,0,0,0,0,0,0,0,0,0,0
1684064155.79950285,148228185,1000,1000,1000,1000,0,0,0,0,0,0,0,0,0,0
1684064155.90029597,148328978,1000,1000,1000,1000,0,0,0,0,0,0,0,0,0,0
1684064156.00025582,148428938,1000,1000,1000,1000,0,0,0,0,0,0,0,0,0,0
1684064156.10021591,148528898,1000,1000,1000,1000,0,0,0,0,0,0,0,0,0,0
1684064156.20017600,148628858,1000,1000,1000,1000,0,0,0,0,0,0,0,0,0,0
1684064156.30013585,148728818,1000,1000,1000,1000,0,0,0,0,0,0,0,0,0,0
1684064156.40009594,148828778,1000,1000,1000,1000,0,0,0,0,0,0,0,0,0,0
1684064156.50005603,148928738,1000,1000,1000,1000,0,0,0,0,0,0,0,0,0,0
1684064156.60001588,149028698,1000,1000,1000,1000,0,0,0,0,0,0,0,0,0,0
1684064156.69997597,149128658,1000,1000,1000,1000,0,0,0,0,0,0,0,0,0,0
1684064156.79993582,149228618,1000,1000,1000,1000,0,0,0,0,0,0,0,0,0,0
1684064156.89989591,149328578,1000,1000,1000,1000,0,0,0,0,0,0,0,0,0,0
1684064156.99985600,149428538,1000,1000,1000,1000,0,0,0,0,0,0,0,0,0,0
1684064157.09981585,149528498,1000,1000,1000,1000,0,0,0,0,0,0,0,0,0,0
1684064157.19977593,149628458,1000,1000,1000,1000,0,0,0,0,0,0,0,0,0,0
1684064157.29973602,149728418,1000,1000,1000,1000,0,0,0,0,0,0,0,0,0,0
1684064157.39969587,149828378,1000,1000,1000,1000,0,0,0,0,0,0,0,0,0,0
1684064157.49965596,149928338,1000,1000,1000,1000,0,0,0,0,0,0,0,0,0,0
1684064157.59961581,150028298,1000,1000,1000,1000,0,0,0,0,0,0,0,0,0,0
1684064157.69957590,150128258,1000,1000,1000,1000,0,0,0,0,0,0,0,0,0,0
1684064157.79953599,150228218,1000,1000,1000,1000,0,0,0,0,0,0,0,0,0,0
1684064157.89949584,150328178,1000,1000,1000,1000,0,0,0,0,0,0,0,0,0,0
1684064158.00028896,150428971,1000,1000,1000,1000,0,0,0,0,0,0,0,0,0,0
1684064158.10024881,150528931,1000,1000,1000,1000,0,0,0,0,0,0,0,0,0,0
1684064158.20020890,150628891,1000,1000,1000,1000,0,0,0,0,0,0,0,0,0,0
1684064158.30016899,150728851,1000,1000,1000,1000,0,0,0,0,0,0,0,0,0,0
1684064158.40012884,150828811,1000,1000,1000,1000,0,0,0,0,0,0,0,0,0,0
1684064158.50008893,150928771,1000,1000,1000,1000,0,0,0,0,0,0,0,0,0,0
