TimeUS,M1,M2,M3,M4,TimeUS,C1,C2,C3,C4
49016219,1000,1000,1000,1000,49028714,1000,1000,1000,1000
49018718,1000,1000,1000,1000,49128674,1000,1000,1000,1000
49021217,1000,1000,1000,1000,49228634,1000,1000,1000,1000
49023716,1000,1000,1000,1000,49328594,1000,1000,1000,1000
49026215,1000,1000,1000,1000,49428554,1000,1000,1000,1000
49028714,1000,1000,1000,1000,49528514,1000,1000,1000,1000
49031213,1000,1000,1000,1000,49628474,1000,1000,1000,1000
49033712,1000,1000,1000,1000,49728434,1000,1000,1000,1000
49036211,1000,1000,1000,1000,49828394,1000,1000,1000,1000
49038710,1000,1000,1000,1000,49928354,1000,1000,1000,1000
49041209,1000,1000,1000,1000,50028314,1000,1000,1000,1000
49043708,1000,1000,1000,1000,50128274,1000,1000,1000,1000
49046207,1000,1000,1000,1000,50228234,1000,1000,1000,1000
49048706,1000,1000,1000,1000,50328194,1000,1000,1000,1000
49051205,1000,1000,1000,1000,50428154,1000,1000,1000,1000
49053704,1000,1000,1000,1000,50528947,1000,1000,1000,1000
49056203,1000,1000,1000,1000,50628907,1000,1000,1000,1000
49058702,1000,1000,1000,1000,50728867,1000,1000,1000,1000
49061201,1000,1000,1000,1000,50828827,1000,1000,1000,1000
49063700,1000,1000,1000,1000,50928787,1000,1000,1000,1000
49066199,1000,1000,1000,1000,51028747,1003,1003,1003,1003
49068698,1000,1000,1000,1000,51128707,1033,1033,1033,1033
49071197,1000,1000,1000,1000,51228667,1063,1063,1063,1063
49073696,1000,1000,1000,1000,51328627,1093,1093,1093,1093
49076195,1000,1000,1000,1000,51428587,1123,1123,1123,1123
49078694,1000,1000,1000,1000,51528547,1185,1177,1178,1186
49081193,1000,1000,1000,1000,51628507,1424,1419,1419,1425
49083692,1000,1000,1000,1000,51728467,1599,1594,1594,1599
49086191,1000,1000,1000,1000,51828427,1743,1739,1739,1743
49088690,1000,1000,1000,1000,51928387,1869,1864,1865,1869
49091189,1000,1000,1000,1000,52028347,1889,1886,1886,1889
49093688,1000,1000,1000,1000,52128307,1798,1797,1797,1799
49096187,1000,1000,1000,1000,52228267,1685,1685,1686,1685
49098686,1000,1000,1000,1000,52328227,1637,1639,1639,1637
49101185,1000,1000,1000,1000,52428187,1636,1638,1638,1636
49103684,1000,1000,1000,1000,52528980,1639,1640,1634,1645
49106183,1000,1000,1000,1000,52628940,1639,1641,1633,1648
49108682,1000,1000,1000,1000,52728900,1633,1635,1630,1638
49111181,1000,1000,1000,1000,52828860,1626,1627,1628,1626
49113680,1000,1000,1000,1000,52928820,1624,1623,1627,1620
49116179,1000,1000,1000,1000,53028780,1624,1622,1628,1619
49118678,1000,1000,1000,1000,53128740,1619,1618,1623,1614
49121177,1000,1000,1000,1000,53228700,1590,1590,1603,1576
49123676,1000,1000,1000,1000,53328660,1576,1576,1585,1567
49126175,1000,1000,1000,1000,53428620,1566,1566,1566,1566
49128674,1000,1000,1000,1000,53528580,1556,1556,1550,1562
49131173,1000,1000,1000,1000,53628540,1548,1548,1539,1556
49133672,1000,1000,1000,1000,53728500,1542,1542,1532,1552
49136171,1000,1000,1000,1000,53828460,1537,1537,1529,1544
49138670,1000,1000,1000,1000,53928420,1532,1532,1529,1535
49141169,1000,1000,1000,1000,54028380,1527,1527,1527,1526
49143668,1000,1000,1000,1000,54128340,1527,1526,1528,1524
49146167,1000,1000,1000,1000,54228300,1528,1529,1531,1526
49148666,1000,1000,1000,1000,54328260,1531,1531,1533,1529
49151165,1000,1000,1000,1000,54428220,1534,1534,1536,1532
49153664,1000,1000,1000,1000,54528180,1537,1537,1539,1536
49156163,1000,1000,1000,1000,54628973,1541,1541,1542,1540
49158662,1000,1000,1000,1000,54728933,1545,1545,1546,1545
49161161,1000,1000,1000,1000,54828893,1548,1548,1548,1548
49163660,1000,1000,1000,1000,54928853,1550,1550,1551,1551
49166159,1000,1000,1000,1000,55028813,1553,1553,1553,1554
49168658,1000,1000,1000,1000,55128773,1555,1555,1554,1557
49171157,1000,1000,1000,1000,55228733,1557,1557,1559,1562
49173656,1000,1000,1000,1000,55328693,1558,1558,1561,1563
49176155,1000,1000,1000,1000,55428653,1560,1559,1564,1564
49178654,1000,1000,1000,1000,55528613,1561,1560,1565,1564
49181153,1000,1000,1000,1000,55628573,1563,1563,1566,1566
49183652,1000,1000,1000,1000,55728533,1565,1566,1567,1567
49186151,1000,1000,1000,1000,55828493,1566,1567,1567,1566
49188650,1000,1000,1000,1000,55928453,1569,1569,1568,1568
49191149,1000,1000,1000,1000,56028413,1569,1569,1568,1567
49193648,1000,1000,1000,1000,56128373,1572,1571,1569,1569
49196147,1000,1000,1000,1000,56228333,1572,1572,1570,1569
49198646,1000,1000,1000,1000,56328293,1573,1573,1570,1570
49201145,1000,1000,1000,1000,56428253,1574,1574,1571,1571
49203644,1000,1000,1000,1000,56528213,1575,1575,1573,1573
49206143,1000,1000,1000,1000,56628173,1575,1575,1574,1573
49208642,1000,1000,1000,1000,56728966,1576,1576,1576,1575
49211141,1000,1000,1000,1000,56828926,1575,1575,1575,1575
49213640,1000,1000,1000,1000,56928886,1576,1575,1576,1575
49216139,1000,1000,1000,1000,57028846,1576,1576,1577,1576
49218638,1000,1000,1000,1000,57128806,1575,1575,1576,1576
49221137,1000,1000,1000,1000,57228766,1575,1575,1576,1576
49223636,1000,1000,1000,1000,57328726,1577,1577,1577,1578
49226135,1000,1000,1000,1000,57428686,1576,1576,1577,1577
49228634,1000,1000,1000,1000,57528646,1577,1576,1577,1577
49231133,1000,1000,1000,1000,57628606,1577,1577,1577,1577
49233632,1000,1000,1000,1000,57728566,1579,1578,1578,1578
49236131,1000,1000,1000,1000,57828526,1578,1577,1578,1577
49238630,1000,1000,1000,1000,57928486,1578,1578,1578,1578
49241129,1000,1000,1000,1000,58028446,1578,1578,1578,1578
49243628,1000,1000,1000,1000,58128406,1579,1579,1579,1578
49246127,1000,1000,1000,1000,58228366,1578,1578,1578,1578
49248626,1000,1000,1000,1000,58328326,1578,1578,1578,1578
49251125,1000,1000,1000,1000,58428286,1578,1578,1578,1579
49253624,1000,1000,1000,1000,58528246,1579,1578,1579,1578
49256123,1000,1000,1000,1000,58628206,1580,1579,1580,1580
49258622,1000,1000,1000,1000,58728166,1579,1579,1579,1579
49261121,1000,1000,1000,1000,58828959,1579,1579,1579,1579
49263620,1000,1000,1000,1000,58928919,1579,1579,1579,1579
49266119,1000,1000,1000,1000,59028879,1579,1580,1579,1580
49268618,1000,1000,1000,1000,59128839,1578,1578,1578,1579
49271117,1000,1000,1000,1000,59228799,1579,1579,1579,1579
49273616,1000,1000,1000,1000,59328759,1579,1579,1579,1579
49276115,1000,1000,1000,1000,59428719,1580,1579,1579,1579
49278614,1000,1000,1000,1000,59528679,1580,1580,1580,1580
49281113,1000,1000,1000,1000,59628639,1580,1579,1580,1579
49283612,1000,1000,1000,1000,59728599,1580,1580,1580,1580
49286111,1000,1000,1000,1000,59828559,1580,1580,1580,1580
49288610,1000,1000,1000,1000,59928519,1579,1579,1579,1579
49291109,1000,1000,1000,1000,60028479,1579,1579,1579,1580
49293608,1000,1000,1000,1000,60128439,1580,1580,1580,1580
49296107,1000,1000,1000,1000,60228399,1580,1580,1580,1580
49298606,1000,1000,1000,1000,60328359,1580,1579,1580,1580
49301105,1000,1000,1000,1000,60428319,1580,1580,1580,1580
49303604,1000,1000,1000,1000,60528279,1580,1581,1581,1581
49306103,1000,1000,1000,1000,60628239,1581,1581,1581,1581
49308602,1000,1000,1000,1000,60728199,1581,1580,1581,1580
49311101,1000,1000,1000,1000,60828159,1581,1581,1581,1580
49313600,1000,1000,1000,1000,60928952,1581,1581,1580,1581
49316099,1000,1000,1000,1000,61028912,1581,1580,1580,1581
49318598,1000,1000,1000,1000,61128872,1580,1580,1580,1580
49321097,1000,1000,1000,1000,61228832,1580,1580,1580,1580
49323596,1000,1000,1000,1000,61328792,1580,1581,1584,1577
49326095,1000,1000,1000,1000,61428752,1580,1582,1588,1573
49328594,1000,1000,1000,1000,61528712,1579,1581,1581,1573
49331093,1000,1000,1000,1000,61628672,1579,1582,1574,1574
49333592,1000,1000,1000,1000,61728632,1577,1580,1565,1571
49336091,1000,1000,1000,1000,61828592,1578,1579,1559,1567
49338590,1000,1000,1000,1000,61928552,1578,1578,1556,1562
49341089,1000,1000,1000,1000,62028512,1578,1577,1555,1557
49343588,1000,1000,1000,1000,62128472,1580,1579,1556,1556
49346087,1000,1000,1000,1000,62228432,1578,1577,1555,1553
49348586,1000,1000,1000,1000,62328392,1578,1577,1556,1553
49351085,1000,1000,1000,1000,62428352,1577,1577,1556,1554
49353584,1000,1000,1000,1000,62528312,1575,1576,1554,1554
49356083,1000,1000,1000,1000,62628272,1574,1576,1553,1553
49358582,1000,1000,1000,1000,62728232,1575,1576,1552,1553
49361081,1000,1000,1000,1000,62828192,1575,1577,1550,1550
49363580,1000,1000,1000,1000,62928985,1577,1579,1549,1549
49366079,1000,1000,1000,1000,63028945,1579,1579,1546,1546
49368578,1000,1000,1000,1000,63128905,1582,1583,1544,1544
49371077,1000,1000,1000,1000,63228865,1585,1586,1542,1542
49373576,1000,1000,1000,1000,63328825,1588,1589,1539,1539
49376075,1000,1000,1000,1000,63428785,1591,1592,1537,1536
49378574,1000,1000,1000,1000,63528745,1594,1594,1535,1536
49381073,1000,1000,1000,1000,63628705,1595,1595,1534,1535
49383572,1000,1000,1000,1000,63728665,1596,1595,1536,1537
49386071,1000,1000,1000,1000,63828625,1594,1594,1537,1540
49388570,1000,1000,1000,1000,63928585,1592,1591,1541,1545
49391069,1000,1000,1000,1000,64028545,1588,1586,1548,1551
49393568,1000,1000,1000,1000,64128505,1580,1577,1557,1560
49396067,1000,1000,1000,1000,64228465,1571,1568,1568,1570
49398566,1000,1000,1000,1000,64328425,1561,1557,1581,1582
49401065,1000,1000,1000,1000,64428385,1549,1546,1592,1593
49403564,1000,1000,1000,1000,64528345,1540,1538,1604,1603
49406063,1000,1000,1000,1000,64628305,1532,1532,1611,1610
49408562,1000,1000,1000,1000,64728265,1529,1530,1615,1614
49411061,1000,1000,1000,1000,64828225,1529,1531,1615,1614
49413560,1000,1000,1000,1000,64928185,1533,1536,1612,1612
49416059,1000,1000,1000,1000,65028978,1539,1542,1607,1607
49418558,1000,1000,1000,1000,65128938,1549,1550,1600,1601
49421057,1000,1000,1000,1000,65228898,1558,1558,1593,1593
49423556,1000,1000,1000,1000,65328858,1566,1566,1585,1584
49426055,1000,1000,1000,1000,65428818,1574,1574,1579,1578
49428554,1000,1000,1000,1000,65528778,1581,1580,1573,1572
49431053,1000,1000,1000,1000,65628738,1585,1583,1569,1568
49433552,1000,1000,1000,1000,65728698,1587,1586,1566,1566
49436051,1000,1000,1000,1000,65828658,1589,1587,1567,1567
49438550,1000,1000,1000,1000,65928618,1588,1587,1568,1568
49441049,1000,1000,1000,1000,66028578,1412,1413,1602,1606
49443548,1000,1000,1000,1000,66128538,1464,1469,1618,1623
49446047,1000,1000,1000,1000,66228498,1507,1513,1614,1613
49448546,1000,1000,1000,1000,66328458,1545,1550,1605,1600
49451045,1000,1000,1000,1000,66428418,1574,1577,1597,1591
49453544,1000,1000,1000,1000,66528378,1596,1594,1590,1586
49456043,1000,1000,1000,1000,66628338,1610,1605,1584,1584
49458542,1000,1000,1000,1000,66728298,1619,1612,1580,1582
49461041,1000,1000,1000,1000,66828258,1629,1623,1570,1574
49463540,1000,1000,1000,1000,66928218,1641,1638,1553,1558
49466039,1000,1000,1000,1000,67028178,1647,1646,1540,1544
49468538,1000,1000,1000,1000,67128971,1646,1647,1537,1540
49471037,1000,1000,1000,1000,67228931,1640,1641,1543,1544
49473536,1000,1000,1000,1000,67328891,1629,1630,1553,1554
49476035,1000,1000,1000,1000,67428851,1615,1614,1567,1567
49478534,1000,1000,1000,1000,67528811,1599,1597,1583,1582
49481033,1000,1000,1000,1000,67628771,1582,1580,1596,1595
49483532,1000,1000,1000,1000,67728731,1570,1569,1603,1602
49486031,1000,1000,1000,1000,67828691,1562,1564,1604,1603
49488530,1000,1000,1000,1000,67928651,1559,1563,1602,1601
49491029,1000,1000,1000,1000,68028611,1560,1563,1599,1598
49493528,1000,1000,1000,1000,68128571,1562,1565,1596,1594
49496027,1000,1000,1000,1000,68228531,1565,1567,1592,1589
49498526,1000,1000,1000,1000,68328491,1568,1570,1588,1587
49501025,1000,1000,1000,1000,68428451,1571,1572,1584,1583
49503524,1000,1000,1000,1000,68528411,1575,1575,1581,1581
49506023,1000,1000,1000,1000,68628371,1579,1578,1580,1580
49508522,1000,1000,1000,1000,68728331,1580,1579,1576,1577
49511021,1000,1000,1000,1000,68828291,1582,1581,1576,1576
49513520,1000,1000,1000,1000,68928251,1583,1583,1574,1575
49516019,1000,1000,1000,1000,69028211,1584,1584,1574,1574
49518518,1000,1000,1000,1000,69128171,1585,1585,1574,1574
49521017,1000,1000,1000,1000,69228964,1586,1585,1575,1574
49523516,1000,1000,1000,1000,69328924,1586,1585,1576,1573
49526015,1000,1000,1000,1000,69428884,1588,1584,1582,1569
49528514,1000,1000,1000,1000,69528844,1587,1583,1576,1570
49531013,1000,1000,1000,1000,69628804,1585,1581,1568,1569
49533512,1000,1000,1000,1000,69728764,1581,1581,1562,1567
49536011,1000,1000,1000,1000,69828724,1578,1581,1558,1563
49538510,1000,1000,1000,1000,69928684,1576,1581,1557,1559
49541009,1000,1000,1000,1000,70028644,1575,1580,1557,1556
49543508,1000,1000,1000,1000,70128604,1575,1578,1557,1554
49546007,1000,1000,1000,1000,70228564,1576,1577,1556,1553
49548506,1000,1000,1000,1000,70328524,1575,1575,1555,1553
49551005,1000,1000,1000,1000,70428484,1575,1575,1554,1553
49553504,1000,1000,1000,1000,70528444,1575,1574,1552,1552
49556003,1000,1000,1000,1000,70628404,1574,1574,1550,1550
49558502,1000,1000,1000,1000,70728364,1574,1575,1549,1550
49561001,1000,1000,1000,1000,70828324,1573,1575,1547,1548
49563500,1000,1000,1000,1000,70928284,1575,1577,1546,1546
49565999,1000,1000,1000,1000,71028244,1576,1578,1545,1544
49568498,1000,1000,1000,1000,71128204,1579,1580,1543,1541
49570997,1000,1000,1000,1000,71228164,1580,1581,1540,1539
49573496,1000,1000,1000,1000,71328957,1584,1584,1539,1538
49575995,1000,1000,1000,1000,71428917,1586,1586,1537,1537
49578494,1000,1000,1000,1000,71528877,1589,1588,1536,1537
49580993,1000,1000,1000,1000,71628837,1590,1589,1536,1537
49583492,1000,1000,1000,1000,71728797,1591,1590,1537,1539
49585991,1000,1000,1000,1000,71828757,1589,1589,1538,1540
49588490,1000,1000,1000,1000,71928717,1588,1587,1542,1545
49590989,1000,1000,1000,1000,72028677,1584,1583,1546,1550
49593488,1000,1000,1000,1000,72128637,1579,1577,1551,1555
49595987,1000,1000,1000,1000,72228597,1574,1573,1558,1562
49598486,1000,1000,1000,1000,72328557,1568,1566,1565,1568
49600985,1000,1000,1000,1000,72428517,1562,1560,1572,1575
49603484,1000,1000,1000,1000,72528477,1556,1554,1580,1582
49605983,1000,1000,1000,1000,72628437,1550,1549,1587,1587
49608482,1000,1000,1000,1000,72728397,1545,1543,1593,1592
49610981,1000,1000,1000,1000,72828357,1540,1540,1599,1598
49613480,1000,1000,1000,1000,72928317,1537,1537,1604,1602
49615979,1000,1000,1000,1000,73028277,1535,1536,1607,1605
49618478,1000,1000,1000,1000,73128237,1534,1535,1607,1605
49620977,1000,1000,1000,1000,73228197,1536,1538,1604,1604
49623476,1000,1000,1000,1000,73328157,1541,1543,1600,1600
49625975,1000,1000,1000,1000,73428950,1548,1549,1594,1595
49628474,1000,1000,1000,1000,73528910,1556,1557,1588,1588
49630973,1000,1000,1000,1000,73628870,1563,1564,1581,1581
49633472,1000,1000,1000,1000,73728830,1571,1571,1576,1575
49635971,1000,1000,1000,1000,73828790,1577,1576,1573,1572
49638470,1000,1000,1000,1000,73928750,1581,1580,1571,1570
49640969,1000,1000,1000,1000,74028710,1584,1582,1569,1569
49643468,1000,1000,1000,1000,74128670,1585,1584,1569,1569
49645967,1000,1000,1000,1000,74228630,1586,1585,1570,1570
49648466,1000,1000,1000,1000,74328590,1585,1585,1570,1570
49650965,1000,1000,1000,1000,74428550,1585,1585,1571,1572
49653464,1000,1000,1000,1000,74528510,1584,1584,1573,1573
49655963,1000,1000,1000,1000,74628470,1584,1584,1575,1575
49658462,1000,1000,1000,1000,74728430,1583,1583,1577,1576
49660961,1000,1000,1000,1000,74828390,1582,1582,1577,1577
49663460,1000,1000,1000,1000,74928350,1581,1581,1579,1579
49665959,1000,1000,1000,1000,75028310,1580,1580,1580,1580
49668458,1000,1000,1000,1000,75128270,1579,1579,1580,1580
49670957,1000,1000,1000,1000,75228230,1578,1578,1580,1580
49673456,1000,1000,1000,1000,75328190,1577,1577,1580,1580
49675955,1000,1000,1000,1000,75428983,1576,1576,1579,1579
49678454,1000,1000,1000,1000,75528943,1576,1577,1580,1580
49680953,1000,1000,1000,1000,75628903,1576,1577,1580,1580
49683452,1000,1000,1000,1000,75728863,1577,1577,1580,1581
49685951,1000,1000,1000,1000,75828823,1578,1578,1581,1581
49688450,1000,1000,1000,1000,75928783,1578,1578,1581,1581
49690949,1000,1000,1000,1000,76028743,1578,1578,1579,1579
49693448,1000,1000,1000,1000,76128703,1578,1578,1579,1579
49695947,1000,1000,1000,1000,76228663,1580,1579,1580,1580
49698446,1000,1000,1000,1000,76328623,1581,1580,1580,1580
49700945,1000,1000,1000,1000,76428583,1580,1580,1579,1579
49703444,1000,1000,1000,1000,76528543,1580,1580,1578,1579
49705943,1000,1000,1000,1000,76628503,1581,1581,1579,1579
49708442,1000,1000,1000,1000,76728463,1581,1581,1579,1579
49710941,1000,1000,1000,1000,76828423,1581,1581,1580,1579
49713440,1000,1000,1000,1000,76928383,1582,1582,1580,1580
49715939,1000,1000,1000,1000,77028343,1582,1581,1580,1579
49718438,1000,1000,1000,1000,77128303,1582,1582,1581,1581
49720937,1000,1000,1000,1000,77228263,1581,1581,1580,1581
49723436,1000,1000,1000,1000,77328223,1581,1581,1580,1580
49725935,1000,1000,1000,1000,77428183,1581,1581,1580,1581
49728434,1000,1000,1000,1000,77528976,1581,1581,1581,1581
49730933,1000,1000,1000,1000,77628936,1581,1581,1581,1581
49733432,1000,1000,1000,1000,77728896,1580,1581,1581,1581
49735931,1000,1000,1000,1000,77828856,1580,1581,1581,1581
49738430,1000,1000,1000,1000,77928816,1581,1581,1581,1581
49740929,1000,1000,1000,1000,78028776,1580,1581,1581,1581
49743428,1000,1000,1000,1000,78128736,1581,1581,1585,1578
49745927,1000,1000,1000,1000,78228696,1581,1581,1588,1573
49748426,1000,1000,1000,1000,78328656,1580,1581,1581,1573
49750925,1000,1000,1000,1000,78428616,1578,1580,1572,1573
49753424,1000,1000,1000,1000,78528576,1577,1579,1565,1569
49755923,1000,1000,1000,1000,78628536,1576,1579,1559,1565
49758422,1000,1000,1000,1000,78728496,1577,1578,1556,1561
49760921,1000,1000,1000,1000,78828456,1578,1578,1556,1558
49763420,1000,1000,1000,1000,78928416,1579,1578,1556,1556
49765919,1000,1000,1000,1000,79028376,1579,1578,1557,1555
49768418,1000,1000,1000,1000,79128336,1579,1577,1557,1555
49770917,1000,1000,1000,1000,79228296,1577,1577,1556,1555
49773416,1000,1000,1000,1000,79328256,1577,1578,1556,1555
49775915,1000,1000,1000,1000,79428216,1577,1578,1555,1554
49778414,1000,1000,1000,1000,79528176,1576,1577,1553,1552
49780913,1000,1000,1000,1000,79628969,1576,1577,1551,1551
49783412,1000,1000,1000,1000,79728929,1576,1577,1549,1549
49785911,1000,1000,1000,1000,79828889,1578,1579,1547,1547
49788410,1000,1000,1000,1000,79928849,1579,1580,1545,1545
49790909,1000,1000,1000,1000,80028809,1582,1583,1544,1543
49793408,1000,1000,1000,1000,80128769,1585,1585,1542,1542
49795907,1000,1000,1000,1000,80228729,1586,1587,1539,1539
49798406,1000,1000,1000,1000,80328689,1588,1588,1539,1538
49800905,1000,1000,1000,1000,80428649,1590,1590,1539,1539
49803404,1000,1000,1000,1000,80528609,1591,1590,1539,1540
49805903,1000,1000,1000,1000,80628569,1590,1590,1540,1542
49808402,1000,1000,1000,1000,80728529,1589,1589,1542,1545
49810901,1000,1000,1000,1000,80828489,1587,1587,1546,1549
49813400,1000,1000,1000,1000,80928449,1583,1582,1553,1555
49815899,1000,1000,1000,1000,81028409,1578,1575,1561,1563
49818398,1000,1000,1000,1000,81128369,1571,1567,1571,1573
49820897,1000,1000,1000,1000,81228329,1561,1557,1582,1583
49823396,1000,1000,1000,1000,81328289,1551,1548,1593,1593
49825895,1000,1000,1000,1000,81428249,1542,1540,1601,1601
49828394,1000,1000,1000,1000,81528209,1536,1536,1609,1608
49830893,1000,1000,1000,1000,81628169,1532,1533,1611,1611
49833392,1000,1000,1000,1000,81728962,1531,1533,1611,1610
49835891,1000,1000,1000,1000,81828922,1534,1536,1609,1608
49838390,1000,1000,1000,1000,81928882,1539,1542,1604,1604
49840889,1000,1000,1000,1000,82028842,1546,1548,1598,1598
49843388,1000,1000,1000,1000,82128802,1554,1555,1591,1591
49845887,1000,1000,1000,1000,82228762,1563,1563,1585,1584
49848386,1000,1000,1000,1000,82328722,1572,1571,1580,1578
49850885,1000,1000,1000,1000,82428682,1577,1577,1574,1573
49853384,1000,1000,1000,1000,82528642,1583,1581,1569,1569
49855883,1000,1000,1000,1000,82628602,1586,1585,1566,1567
49858382,1000,1000,1000,1000,82728562,1588,1586,1565,1566
49860881,1000,1000,1000,1000,82828522,1588,1586,1565,1565
49863380,1000,1000,1000,1000,82928482,1587,1586,1567,1568
49865879,1000,1000,1000,1000,83028442,1586,1585,1570,1570
49868378,1000,1000,1000,1000,83128402,1584,1584,1573,1573
49870877,1000,1000,1000,1000,83228362,1581,1581,1577,1576
49873376,1000,1000,1000,1000,83328322,1578,1579,1578,1579
49875875,1000,1000,1000,1000,83428282,1576,1577,1581,1581
49878374,1000,1000,1000,1000,83528242,1575,1576,1584,1584
49880873,1000,1000,1000,1000,83628202,1574,1574,1584,1584
49883372,1000,1000,1000,1000,83728162,1574,1574,1585,1585
49885871,1000,1000,1000,1000,83828955,1574,1575,1585,1585
49888370,1000,1000,1000,1000,83928915,1575,1576,1585,1585
49890869,1000,1000,1000,1000,84028875,1576,1576,1583,1584
49893368,1000,1000,1000,1000,84128835,1577,1577,1582,1582
49895867,1000,1000,1000,1000,84228795,1578,1578,1580,1581
49898366,1000,1000,1000,1000,84328755,1580,1579,1580,1580
49900865,1000,1000,1000,1000,84428715,1580,1580,1579,1579
49903364,1000,1000,1000,1000,84528675,1582,1581,1578,1578
49905863,1000,1000,1000,1000,84628635,1581,1581,1577,1577
49908362,1000,1000,1000,1000,84728595,1582,1582,1577,1578
49910861,1000,1000,1000,1000,84828555,1582,1582,1577,1577
49913360,1000,1000,1000,1000,84928515,1583,1582,1579,1578
49915859,1000,1000,1000,1000,85028475,1582,1582,1579,1579
49918358,1000,1000,1000,1000,85128435,1582,1581,1579,1579
49920857,1000,1000,1000,1000,85228395,1581,1581,1579,1579
49923356,1000,1000,1000,1000,85328355,1581,1582,1581,1582
49925855,1000,1000,1000,1000,85428315,1580,1581,1581,1581
49928354,1000,1000,1000,1000,85528275,1580,1581,1582,1582
49930853,1000,1000,1000,1000,85628235,1580,1580,1582,1581
49933352,1000,1000,1000,1000,85728195,1580,1580,1582,1581
49935851,1000,1000,1000,1000,85828155,1580,1580,1581,1581
49938350,1000,1000,1000,1000,85928948,1580,1580,1581,1582
49940849,1000,1000,1000,1000,86028908,1580,1580,1581,1581
49943348,1000,1000,1000,1000,86128868,1580,1580,1581,1581
49945847,1000,1000,1000,1000,86228828,1579,1580,1583,1576
49948346,1000,1000,1000,1000,86328788,1580,1581,1587,1572
49950845,1000,1000,1000,1000,86428748,1579,1579,1582,1573
49953344,1000,1000,1000,1000,86528708,1577,1576,1574,1575
49955843,1000,1000,1000,1000,86628668,1574,1573,1568,1574
49958342,1000,1000,1000,1000,86728628,1572,1571,1565,1572
49960841,1000,1000,1000,1000,86828588,1569,1570,1565,1570
49963340,1000,1000,1000,1000,86928548,1567,1568,1564,1567
49965839,1000,1000,1000,1000,87028508,1566,1567,1566,1565
49968338,1000,1000,1000,1000,87128468,1566,1566,1567,1566
49970837,1000,1000,1000,1000,87228428,1566,1566,1568,1565
49973336,1000,1000,1000,1000,87328388,1564,1565,1567,1565
49975835,1000,1000,1000,1000,87428348,1564,1564,1567,1565
49978334,1000,1000,1000,1000,87528308,1563,1563,1565,1564
49980833,1000,1000,1000,1000,87628268,1562,1562,1564,1564
49983332,1000,1000,1000,1000,87728228,1562,1562,1563,1564
49985831,1000,1000,1000,1000,87828188,1561,1561,1562,1562
49988330,1000,1000,1000,1000,87928981,1561,1561,1562,1562
49990829,1000,1000,1000,1000,88028941,1561,1561,1562,1561
49993328,1000,1000,1000,1000,88128901,1561,1561,1561,1560
49995827,1000,1000,1000,1000,88228861,1560,1560,1560,1559
49998326,1000,1000,1000,1000,88328821,1561,1560,1560,1560
50000825,1000,1000,1000,1000,88428781,1559,1559,1559,1558
50003324,1000,1000,1000,1000,88528741,1558,1558,1558,1557
50005823,1000,1000,1000,1000,88628701,1559,1559,1559,1558
50008322,1000,1000,1000,1000,88728661,1559,1559,1559,1557
50010821,1000,1000,1000,1000,88828621,1559,1559,1560,1558
50013320,1000,1000,1000,1000,88928581,1559,1559,1560,1558
50015819,1000,1000,1000,1000,89028541,1559,1558,1560,1558
50018318,1000,1000,1000,1000,89128501,1560,1559,1559,1561
50020817,1000,1000,1000,1000,89228461,1560,1560,1559,1563
50023316,1000,1000,1000,1000,89328421,1560,1560,1557,1564
50025815,1000,1000,1000,1000,89428381,1560,1561,1559,1564
50028314,1000,1000,1000,1000,89528341,1560,1561,1559,1563
50030813,1000,1000,1000,1000,89628301,1560,1561,1561,1560
50033312,1000,1000,1000,1000,89728261,1559,1559,1560,1557
50035811,1000,1000,1000,1000,89828221,1559,1559,1558,1559
50038310,1000,1000,1000,1000,89928181,1557,1556,1553,1557
50040809,1000,1000,1000,1000,90028974,1553,1553,1550,1552
50043308,1000,1000,1000,1000,90128934,1549,1549,1546,1547
50045807,1000,1000,1000,1000,90228894,1544,1544,1540,1541
50048306,1000,1000,1000,1000,90328854,1537,1537,1534,1533
50050805,1000,1000,1000,1000,90428814,1530,1531,1527,1526
50053304,1000,1000,1000,1000,90528774,1524,1524,1521,1521
50055803,1000,1000,1000,1000,90628734,1521,1521,1519,1519
50058302,1000,1000,1000,1000,90728694,1520,1519,1520,1520
50060801,1000,1000,1000,1000,90828654,1520,1520,1522,1523
50063300,1000,1000,1000,1000,90928614,1521,1521,1525,1526
50065799,1000,1000,1000,1000,91028574,1524,1524,1529,1529
50068298,1000,1000,1000,1000,91128534,1528,1528,1535,1535
50070797,1000,1000,1000,1000,91228494,1532,1532,1539,1539
50073296,1000,1000,1000,1000,91328454,1536,1537,1543,1542
50075795,1000,1000,1000,1000,91428414,1538,1539,1543,1543
50078294,1000,1000,1000,1000,91528374,1542,1541,1544,1544
50080793,1000,1000,1000,1000,91628334,1544,1544,1545,1545
50083292,1000,1000,1000,1000,91728294,1547,1546,1546,1546
50085791,1000,1000,1000,1000,91828254,1547,1547,1545,1545
50088290,1000,1000,1000,1000,91928214,1548,1548,1545,1545
50090789,1000,1000,1000,1000,92028174,1549,1549,1546,1545
50093288,1000,1000,1000,1000,92128967,1549,1549,1545,1545
50095787,1000,1000,1000,1000,92228927,1549,1549,1545,1544
50098286,1000,1000,1000,1000,92328887,1549,1549,1546,1545
50100785,1000,1000,1000,1000,92428847,1548,1548,1545,1545
50103284,1000,1000,1000,1000,92528807,1548,1547,1545,1546
50105783,1000,1000,1000,1000,92628767,1546,1546,1545,1545
50108282,1000,1000,1000,1000,92728727,1545,1546,1545,1545
50110781,1000,1000,1000,1000,92828687,1545,1545,1545,1545
50113280,1000,1000,1000,1000,92928647,1545,1545,1546,1546
50115779,1000,1000,1000,1000,93028607,1544,1544,1546,1545
50118278,1000,1000,1000,1000,93128567,1543,1543,1545,1545
50120777,1000,1000,1000,1000,93228527,1544,1544,1545,1545
50123276,1000,1000,1000,1000,93328487,1544,1543,1545,1545
50125775,1000,1000,1000,1000,93428447,1543,1543,1544,1544
50128274,1000,1000,1000,1000,93528407,1543,1543,1544,1543
50130773,1000,1000,1000,1000,93628367,1543,1543,1544,1543
50133272,1000,1000,1000,1000,93728327,1544,1544,1544,1544
50135771,1000,1000,1000,1000,93828287,1544,1544,1544,1544
50138270,1000,1000,1000,1000,93928247,1544,1544,1544,1544
50140769,1000,1000,1000,1000,94028207,1544,1544,1544,1544
50143268,1000,1000,1000,1000,94128167,1545,1545,1544,1544
50145767,1000,1000,1000,1000,94228960,1544,1544,1543,1543
50148266,1000,1000,1000,1000,94328920,1544,1544,1544,1543
50150765,1000,1000,1000,1000,94428880,1544,1544,1543,1543
50153264,1000,1000,1000,1000,94528840,1544,1543,1543,1543
50155763,1000,1000,1000,1000,94628800,1544,1544,1544,1544
50158262,1000,1000,1000,1000,94728760,1544,1544,1544,1544
50160761,1000,1000,1000,1000,94828720,1544,1544,1544,1544
50163260,1000,1000,1000,1000,94928680,1544,1543,1543,1544
50165759,1000,1000,1000,1000,95028640,1543,1544,1545,1544
50168258,1000,1000,1000,1000,95128600,1544,1544,1545,1544
50170757,1000,1000,1000,1000,95228560,1544,1545,1545,1545
50173256,1000,1000,1000,1000,95328520,1545,1544,1544,1545
50175755,1000,1000,1000,1000,95428480,1544,1544,1544,1545
50178254,1000,1000,1000,1000,95528440,1545,1545,1545,1545
50180753,1000,1000,1000,1000,95628400,1545,1545,1545,1545
50183252,1000,1000,1000,1000,95728360,1545,1545,1545,1545
50185751,1000,1000,1000,1000,95828320,1545,1546,1546,1545
50188250,1000,1000,1000,1000,95928280,1546,1545,1545,1545
50190749,1000,1000,1000,1000,96028240,1544,1544,1543,1543
50193248,1000,1000,1000,1000,96128200,1544,1544,1543,1544
50195747,1000,1000,1000,1000,96228160,1544,1545,1544,1544
50198246,1000,1000,1000,1000,96328953,1545,1545,1545,1545
50200745,1000,1000,1000,1000,96428913,1545,1545,1545,1545
50203244,1000,1000,1000,1000,96528873,1544,1544,1544,1544
50205743,1000,1000,1000,1000,96628833,1544,1544,1544,1544
50208242,1000,1000,1000,1000,96728793,1543,1544,1543,1544
50210741,1000,1000,1000,1000,96828753,1544,1545,1545,1544
50213240,1000,1000,1000,1000,96928713,1545,1545,1545,1545
50215739,1000,1000,1000,1000,97028673,1544,1545,1545,1545
50218238,1000,1000,1000,1000,97128633,1544,1544,1544,1544
50220737,1000,1000,1000,1000,97228593,1544,1544,1544,1544
50223236,1000,1000,1000,1000,97328553,1545,1544,1545,1544
50225735,1000,1000,1000,1000,97428513,1544,1544,1544,1544
50228234,1000,1000,1000,1000,97528473,1545,1545,1545,1545
50230733,1000,1000,1000,1000,97628433,1544,1545,1545,1544
50233232,1000,1000,1000,1000,97728393,1545,1545,1544,1545
50235731,1000,1000,1000,1000,97828353,1544,1545,1545,1545
50238230,1000,1000,1000,1000,97928313,1544,1544,1543,1544
50240729,1000,1000,1000,1000,98028273,1544,1545,1544,1544
50243228,1000,1000,1000,1000,98128233,1544,1544,1543,1544
50245727,1000,1000,1000,1000,98228193,1543,1543,1543,1543
50248226,1000,1000,1000,1000,98328986,1544,1543,1543,1543
50250725,1000,1000,1000,1000,98428946,1543,1543,1543,1543
50253224,1000,1000,1000,1000,98528906,1544,1544,1544,1544
50255723,1000,1000,1000,1000,98628866,1544,1544,1544,1544
50258222,1000,1000,1000,1000,98728826,1544,1543,1544,1544
50260721,1000,1000,1000,1000,98828786,1544,1544,1544,1544
50263220,1000,1000,1000,1000,98928746,1544,1545,1545,1545
50265719,1000,1000,1000,1000,99028706,1544,1545,1544,1544
50268218,1000,1000,1000,1000,99128666,1544,1544,1544,1544
50270717,1000,1000,1000,1000,99228626,1544,1544,1544,1544
50273216,1000,1000,1000,1000,99328586,1544,1544,1544,1544
50275715,1000,1000,1000,1000,99428546,1544,1544,1544,1544
50278214,1000,1000,1000,1000,99528506,1544,1544,1544,1544
50280713,1000,1000,1000,1000,99628466,1544,1544,1544,1544
50283212,1000,1000,1000,1000,99728426,1545,1544,1544,1544
50285711,1000,1000,1000,1000,99828386,1544,1545,1544,1545
50288210,1000,1000,1000,1000,99928346,1544,1545,1544,1545
50290709,1000,1000,1000,1000,100028306,1545,1545,1545,1545
50293208,1000,1000,1000,1000,100128266,1544,1544,1544,1544
50295707,1000,1000,1000,1000,100228226,1544,1544,1544,1544
50298206,1000,1000,1000,1000,100328186,1417,1415,1373,1373
50300705,1000,1000,1000,1000,100428979,1338,1336,1256,1254
50303204,1000,1000,1000,1000,100528939,1314,1311,1217,1215
50305703,1000,1000,1000,1000,100628899,1302,1300,1198,1196
50308202,1000,1000,1000,1000,100728859,1277,1275,1153,1153
50310701,1000,1000,1000,1000,100828819,1209,1207,1150,1150
50313200,1000,1000,1000,1000,100928779,1092,1090,1150,1150
50315699,1000,1000,1000,1000,101028739,1091,1090,1150,1150
50318198,1000,1000,1000,1000,101128699,1092,1090,1150,1150
50320697,1000,1000,1000,1000,101228659,1091,1084,1150,1158
50323196,1000,1000,1000,1000,101328619,1091,1080,1150,1164
50325695,1000,1000,1000,1000,101428579,1091,1084,1150,1158
50328194,1000,1000,1000,1000,101528539,1091,1085,1150,1157
50330693,1000,1000,1000,1000,101628499,1091,1085,1150,1157
50333192,1000,1000,1000,1000,101728459,1091,1084,1150,1157
50335691,1000,1000,1000,1000,101828419,1091,1084,1150,1157
50338190,1000,1000,1000,1000,101928379,1091,1084,1150,1158
50340689,1000,1000,1000,1000,102028339,1087,1091,1155,1150
50343188,1000,1000,1000,1000,102128299,1091,1090,1150,1150
50345687,1000,1000,1000,1000,102228259,1091,1089,1150,1151
50348186,1000,1000,1000,1000,102328219,1091,1089,1150,1151
50350685,1000,1000,1000,1000,102428179,1091,1089,1150,1151
50353184,1000,1000,1000,1000,102528972,930,930,1144,1144
50355683,1000,1000,1000,1000,102628932,1000,1000,1000,1000
50358182,1000,1000,1000,1000,102728892,1000,1000,1000,1000
50360681,1000,1000,1000,1000,102828852,1000,1000,1000,1000
50363180,1000,1000,1000,1000,102928812,1000,1000,1000,1000
50365679,1000,1000,1000,1000,103028772,1000,1000,1000,1000
50368178,1000,1000,1000,1000,103128732,1000,1000,1000,1000
50370677,1000,1000,1000,1000,103228692,1000,1000,1000,1000
50373176,1000,1000,1000,1000,103328652,1000,1000,1000,1000
50375675,1000,1000,1000,1000,103428612,1000,1000,1000,1000
50378174,1000,1000,1000,1000,103528572,1000,1000,1000,1000
50380673,1000,1000,1000,1000,103628532,1000,1000,1000,1000
50383172,1000,1000,1000,1000,103728492,1000,1000,1000,1000
50385671,1000,1000,1000,1000,103828452,1000,1000,1000,1000
50388170,1000,1000,1000,1000,103928412,1000,1000,1000,1000
50390669,1000,1000,1000,1000,104028372,1000,1000,1000,1000
50393168,1000,1000,1000,1000,104128332,1000,1000,1000,1000
50395667,1000,1000,1000,1000,104228292,1000,1000,1000,1000
50398166,1000,1000,1000,1000,104328252,1000,1000,1000,1000
50400665,1000,1000,1000,1000,104428212,1000,1000,1000,1000
50403164,1000,1000,1000,1000,104528172,1000,1000,1000,1000
50405663,1000,1000,1000,1000,104628965,1000,1000,1000,1000
50408162,1000,1000,1000,1000,104728925,1000,1000,1000,1000
50410661,1000,1000,1000,1000,104828885,1000,1000,1000,1000
50413160,1000,1000,1000,1000,104928845,1000,1000,1000,1000
50415659,1000,1000,1000,1000,105028805,1000,1000,1000,1000
50418158,1000,1000,1000,1000,105128765,1000,1000,1000,1000
50420657,1000,1000,1000,1000,105228725,1000,1000,1000,1000
50423156,1000,1000,1000,1000,105328685,1000,1000,1000,1000
50425655,1000,1000,1000,1000,105428645,1000,1000,1000,1000
50428154,1000,1000,1000,1000,105528605,1000,1000,1000,1000
50431486,1000,1000,1000,1000,105628565,1000,1000,1000,1000
50433985,1000,1000,1000,1000,105728525,1000,1000,1000,1000
50436484,1000,1000,1000,1000,105828485,1000,1000,1000,1000
50438983,1000,1000,1000,1000,105928445,1000,1000,1000,1000
50441482,1000,1000,1000,1000,106028405,1000,1000,1000,1000
50443981,1000,1000,1000,1000,106128365,1000,1000,1000,1000
50446480,1000,1000,1000,1000,106228325,1000,1000,1000,1000
50448979,1000,1000,1000,1000,106328285,1000,1000,1000,1000
50451478,1000,1000,1000,1000,106428245,1000,1000,1000,1000
50453977,1000,1000,1000,1000,106528205,1000,1000,1000,1000
50456476,1000,1000,1000,1000,106628165,1000,1000,1000,1000
50458975,1000,1000,1000,1000,106728958,1000,1000,1000,1000
50461474,1000,1000,1000,1000,106828918,1000,1000,1000,1000
50463973,1000,1000,1000,1000,106928878,1000,1000,1000,1000
50466472,1000,1000,1000,1000,107028838,1000,1000,1000,1000
50468971,1000,1000,1000,1000,107128798,1000,1000,1000,1000
50471470,1000,1000,1000,1000,107228758,1000,1000,1000,1000
50473969,1000,1000,1000,1000,107328718,1000,1000,1000,1000
50476468,1000,1000,1000,1000,107428678,1000,1000,1000,1000
50478967,1000,1000,1000,1000,107528638,1000,1000,1000,1000
50481466,1000,1000,1000,1000,107628598,1000,1000,1000,1000
50483965,1000,1000,1000,1000,107728558,1000,1000,1000,1000
50486464,1000,1000,1000,1000,107828518,1000,1000,1000,1000
50488963,1000,1000,1000,1000,107928478,1000,1000,1000,1000
50491462,1000,1000,1000,1000,108028438,1000,1000,1000,1000
50493961,1000,1000,1000,1000,108128398,1000,1000,1000,1000
50496460,1000,1000,1000,1000,108228358,1000,1000,1000,1000
50498959,1000,1000,1000,1000,108328318,1000,1000,1000,1000
50501458,1000,1000,1000,1000,108428278,1000,1000,1000,1000
50503957,1000,1000,1000,1000,108528238,1000,1000,1000,1000
50506456,1000,1000,1000,1000,108628198,1000,1000,1000,1000
50508955,1000,1000,1000,1000,108728158,1000,1000,1000,1000
50511454,1000,1000,1000,1000,108828951,1000,1000,1000,1000
50513953,1000,1000,1000,1000,108928911,1000,1000,1000,1000
50516452,1000,1000,1000,1000,109028871,1000,1000,1000,1000
50518951,1000,1000,1000,1000,109128831,1000,1000,1000,1000
50521450,1000,1000,1000,1000,109228791,1000,1000,1000,1000
50523949,1000,1000,1000,1000,109328751,1000,1000,1000,1000
50526448,1000,1000,1000,1000,109428711,1000,1000,1000,1000
50528947,1000,1000,1000,1000,109528671,1000,1000,1000,1000
50531446,1000,1000,1000,1000,109628631,1000,1000,1000,1000
50533945,1000,1000,1000,1000,109728591,1000,1000,1000,1000
50536444,1000,1000,1000,1000,109828551,1000,1000,1000,1000
50538943,1000,1000,1000,1000,109928511,1000,1000,1000,1000
50541442,1000,1000,1000,1000,110028471,1000,1000,1000,1000
50543941,1000,1000,1000,1000,110128431,1000,1000,1000,1000
50546440,1000,1000,1000,1000,110228391,1000,1000,1000,1000
50548939,1000,1000,1000,1000,110328351,1000,1000,1000,1000
50551438,1000,1000,1000,1000,110428311,1000,1000,1000,1000
50553937,1000,1000,1000,1000,110528271,1000,1000,1000,1000
50556436,1000,1000,1000,1000,110628231,1000,1000,1000,1000
50558935,1000,1000,1000,1000,110728191,1000,1000,1000,1000
50561434,1000,1000,1000,1000,110828984,1000,1000,1000,1000
50563933,1000,1000,1000,1000,110928944,1000,1000,1000,1000
50566432,1000,1000,1000,1000,111028904,1000,1000,1000,1000
50568931,1000,1000,1000,1000,111128864,1000,1000,1000,1000
50571430,1000,1000,1000,1000,111228824,1000,1000,1000,1000
50573929,1000,1000,1000,1000,111328784,1000,1000,1000,1000
50576428,1000,1000,1000,1000,111428744,1000,1000,1000,1000
50578927,1000,1000,1000,1000,111528704,1000,1000,1000,1000
50581426,1000,1000,1000,1000,111628664,1000,1000,1000,1000
50583925,1000,1000,1000,1000,111728624,1000,1000,1000,1000
50586424,1000,1000,1000,1000,111828584,1000,1000,1000,1000
50588923,1000,1000,1000,1000,111928544,1000,1000,1000,1000
50591422,1000,1000,1000,1000,112028504,1000,1000,1000,1000
50593921,1000,1000,1000,1000,112128464,1000,1000,1000,1000
50596420,1000,1000,1000,1000,112228424,1000,1000,1000,1000
50598919,1000,1000,1000,1000,112328384,1000,1000,1000,1000
50601418,1000,1000,1000,1000,112428344,1000,1000,1000,1000
50603917,1000,1000,1000,1000,112528304,1000,1000,1000,1000
50606416,1000,1000,1000,1000,112628264,1000,1000,1000,1000
50608915,1000,1000,1000,1000,112728224,1000,1000,1000,1000
50611414,1000,1000,1000,1000,112828184,1000,1000,1000,1000
50613913,1000,1000,1000,1000,112928977,1000,1000,1000,1000
50616412,1000,1000,1000,1000,113028937,1000,1000,1000,1000
50618911,1000,1000,1000,1000,113128897,1000,1000,1000,1000
50621410,1000,1000,1000,1000,113228857,1000,1000,1000,1000
50623909,1000,1000,1000,1000,113328817,1000,1000,1000,1000
50626408,1000,1000,1000,1000,113428777,1000,1000,1000,1000
50628907,1000,1000,1000,1000,113528737,1000,1000,1000,1000
50631406,1000,1000,1000,1000,113628697,1000,1000,1000,1000
50633905,1000,1000,1000,1000,113728657,1000,1000,1000,1000
50636404,1000,1000,1000,1000,113828617,1000,1000,1000,1000
50638903,1000,1000,1000,1000,113928577,1000,1000,1000,1000
50641402,1000,1000,1000,1000,114028537,1000,1000,1000,1000
50643901,1000,1000,1000,1000,114128497,1000,1000,1000,1000
50646400,1000,1000,1000,1000,114228457,1000,1000,1000,1000
50648899,1000,1000,1000,1000,114328417,1000,1000,1000,1000
50651398,1000,1000,1000,1000,114428377,1000,1000,1000,1000
50653897,1000,1000,1000,1000,114528337,1000,1000,1000,1000
50656396,1000,1000,1000,1000,114628297,1000,1000,1000,1000
50658895,1000,1000,1000,1000,114728257,1000,1000,1000,1000
50661394,1000,1000,1000,1000,114828217,1000,1000,1000,1000
50663893,1000,1000,1000,1000,114928177,1000,1000,1000,1000
50666392,1000,1000,1000,1000,115028970,1000,1000,1000,1000
50668891,1000,1000,1000,1000,115128930,1000,1000,1000,1000
50671390,1000,1000,1000,1000,115228890,1000,1000,1000,1000
50673889,1000,1000,1000,1000,115328850,1000,1000,1000,1000
50676388,1000,1000,1000,1000,115428810,1000,1000,1000,1000
50678887,1000,1000,1000,1000,115528770,1000,1000,1000,1000
50681386,1000,1000,1000,1000,115628730,1000,1000,1000,1000
50683885,1000,1000,1000,1000,115728690,1000,1000,1000,1000
50686384,1000,1000,1000,1000,115828650,1000,1000,1000,1000
50688883,1000,1000,1000,1000,115928610,1000,1000,1000,1000
50691382,1000,1000,1000,1000,116028570,1000,1000,1000,1000
50693881,1000,1000,1000,1000,116128530,1000,1000,1000,1000
50696380,1000,1000,1000,1000,116228490,1000,1000,1000,1000
50698879,1000,1000,1000,1000,116328450,1000,1000,1000,1000
50701378,1000,1000,1000,1000,116428410,1000,1000,1000,1000
50703877,1000,1000,1000,1000,116528370,1000,1000,1000,1000
50706376,1000,1000,1000,1000,116628330,1000,1000,1000,1000
50708875,1000,1000,1000,1000,116728290,1000,1000,1000,1000
50711374,1000,1000,1000,1000,116828250,1000,1000,1000,1000
50713873,1000,1000,1000,1000,116928210,1000,1000,1000,1000
50716372,1000,1000,1000,1000,117028170,1000,1000,1000,1000
50718871,1000,1000,1000,1000,117128963,1000,1000,1000,1000
50721370,1000,1000,1000,1000,117228923,1000,1000,1000,1000
50723869,1000,1000,1000,1000,117328883,1000,1000,1000,1000
50726368,1000,1000,1000,1000,117428843,1000,1000,1000,1000
50728867,1000,1000,1000,1000,,,,,
50731366,1000,1000,1000,1000,,,,,
50733865,1000,1000,1000,1000,,,,,
50736364,1000,1000,1000,1000,,,,,
50738863,1000,1000,1000,1000,,,,,
50741362,1000,1000,1000,1000,,,,,
50743861,1000,1000,1000,1000,,,,,
50746360,1000,1000,1000,1000,,,,,
50748859,1000,1000,1000,1000,,,,,
50751358,1000,1000,1000,1000,,,,,
50753857,1000,1000,1000,1000,,,,,
50756356,1000,1000,1000,1000,,,,,
50758855,1000,1000,1000,1000,,,,,
50761354,1000,1000,1000,1000,,,,,
50763853,1000,1000,1000,1000,,,,,
50766352,1000,1000,1000,1000,,,,,
50768851,1000,1000,1000,1000,,,,,
50771350,1000,1000,1000,1000,,,,,
50773849,1000,1000,1000,1000,,,,,
50776348,1000,1000,1000,1000,,,,,
50778847,1000,1000,1000,1000,,,,,
50781346,1000,1000,1000,1000,,,,,
50783845,1000,1000,1000,1000,,,,,
50786344,1000,1000,1000,1000,,,,,
50788843,1000,1000,1000,1000,,,,,
50791342,1000,1000,1000,1000,,,,,
50793841,1000,1000,1000,1000,,,,,
50796340,1000,1000,1000,1000,,,,,
50798839,1000,1000,1000,1000,,,,,
50801338,1000,1000,1000,1000,,,,,
50803837,1000,1000,1000,1000,,,,,
50806336,1000,1000,1000,1000,,,,,
50808835,1000,1000,1000,1000,,,,,
50811334,1000,1000,1000,1000,,,,,
50813833,1000,1000,1000,1000,,,,,
50816332,1000,1000,1000,1000,,,,,
50818831,1000,1000,1000,1000,,,,,
50821330,1000,1000,1000,1000,,,,,
50823829,1000,1000,1000,1000,,,,,
50826328,1000,1000,1000,1000,,,,,
50828827,1000,1000,1000,1000,,,,,
50831326,1000,1000,1000,1000,,,,,
50833825,1000,1000,1000,1000,,,,,
50836324,1000,1000,1000,1000,,,,,
50838823,1000,1000,1000,1000,,,,,
50841322,1000,1000,1000,1000,,,,,
50843821,1000,1000,1000,1000,,,,,
50846320,1000,1000,1000,1000,,,,,
50848819,1000,1000,1000,1000,,,,,
50851318,1000,1000,1000,1000,,,,,
50853817,1000,1000,1000,1000,,,,,
50856316,1000,1000,1000,1000,,,,,
50858815,1000,1000,1000,1000,,,,,
50861314,1000,1000,1000,1000,,,,,
50863813,1000,1000,1000,1000,,,,,
50866312,1000,1000,1000,1000,,,,,
50868811,1000,1000,1000,1000,,,,,
50871310,1000,1000,1000,1000,,,,,
50873809,1000,1000,1000,1000,,,,,
50876308,1000,1000,1000,1000,,,,,
50878807,1000,1000,1000,1000,,,,,
50881306,1000,1000,1000,1000,,,,,
50883805,1000,1000,1000,1000,,,,,
50886304,1000,1000,1000,1000,,,,,
50888803,1000,1000,1000,1000,,,,,
50891302,1000,1000,1000,1000,,,,,
50893801,1000,1000,1000,1000,,,,,
50896300,1000,1000,1000,1000,,,,,
50898799,1000,1000,1000,1000,,,,,
50901298,1000,1000,1000,1000,,,,,
50903797,1000,1000,1000,1000,,,,,
50906296,1000,1000,1000,1000,,,,,
50908795,1000,1000,1000,1000,,,,,
50911294,1000,1000,1000,1000,,,,,
50913793,1000,1000,1000,1000,,,,,
50916292,1000,1000,1000,1000,,,,,
50918791,1000,1000,1000,1000,,,,,
50921290,1000,1000,1000,1000,,,,,
50923789,1000,1000,1000,1000,,,,,
50926288,1000,1000,1000,1000,,,,,
50928787,1000,1000,1000,1000,,,,,
50931286,1000,1000,1000,1000,,,,,
50933785,1000,1000,1000,1000,,,,,
50936284,1000,1000,1000,1000,,,,,
50938783,1000,1000,1000,1000,,,,,
50941282,1000,1000,1000,1000,,,,,
50943781,1000,1000,1000,1000,,,,,
50946280,1000,1000,1000,1000,,,,,
50948779,1000,1000,1000,1000,,,,,
50951278,1000,1000,1000,1000,,,,,
50953777,1000,1000,1000,1000,,,,,
50956276,1000,1000,1000,1000,,,,,
50958775,1000,1000,1000,1000,,,,,
50961274,1000,1000,1000,1000,,,,,
50963773,1000,1000,1000,1000,,,,,
50966272,1000,1000,1000,1000,,,,,
50968771,1000,1000,1000,1000,,,,,
50971270,1000,1000,1000,1000,,,,,
50973769,1000,1000,1000,1000,,,,,
50976268,1000,1000,1000,1000,,,,,
50978767,1000,1000,1000,1000,,,,,
50981266,1000,1000,1000,1000,,,,,
50983765,1000,1000,1000,1000,,,,,
50986264,1000,1000,1000,1000,,,,,
50988763,1000,1000,1000,1000,,,,,
50991262,1000,1000,1000,1000,,,,,
50993761,1000,1000,1000,1000,,,,,
50996260,1000,1000,1000,1000,,,,,
50998759,1000,1000,1000,1000,,,,,
51001258,1000,1000,1000,1000,,,,,
51003757,1000,1000,1000,1000,,,,,
51006256,1000,1000,1000,1000,,,,,
51008755,1000,1000,1000,1000,,,,,
51011254,1000,1000,1000,1000,,,,,
51013753,1000,1000,1000,1000,,,,,
51016252,1000,1000,1000,1000,,,,,
51018751,1000,1000,1000,1000,,,,,
51021250,1000,1000,1000,1000,,,,,
51023749,1001,1001,1001,1001,,,,,
51026248,1002,1002,1002,1002,,,,,
51028747,1003,1003,1003,1003,,,,,
51031246,1003,1003,1003,1003,,,,,
51033745,1004,1004,1004,1004,,,,,
51036244,1005,1005,1005,1005,,,,,
51038743,1006,1006,1006,1006,,,,,
51041242,1006,1006,1006,1006,,,,,
51043741,1007,1007,1007,1007,,,,,
51046240,1008,1008,1008,1008,,,,,
51048739,1009,1009,1009,1009,,,,,
51051238,1009,1009,1009,1009,,,,,
51053737,1010,1010,1010,1010,,,,,
51056236,1011,1011,1011,1011,,,,,
51058735,1012,1012,1012,1012,,,,,
51061234,1012,1012,1012,1012,,,,,
51063733,1013,1013,1013,1013,,,,,
51066232,1014,1014,1014,1014,,,,,
51068731,1015,1015,1015,1015,,,,,
51071230,1015,1015,1015,1015,,,,,
51073729,1016,1016,1016,1016,,,,,
51076228,1017,1017,1017,1017,,,,,
51078727,1018,1018,1018,1018,,,,,
51081226,1018,1018,1018,1018,,,,,
51083725,1019,1019,1019,1019,,,,,
51086224,1020,1020,1020,1020,,,,,
51088723,1021,1021,1021,1021,,,,,
51091222,1021,1021,1021,1021,,,,,
51093721,1022,1022,1022,1022,,,,,
51096220,1023,1023,1023,1023,,,,,
51098719,1024,1024,1024,1024,,,,,
51101218,1024,1024,1024,1024,,,,,
51103717,1025,1025,1025,1025,,,,,
51106216,1026,1026,1026,1026,,,,,
51108715,1027,1027,1027,1027,,,,,
51111214,1027,1027,1027,1027,,,,,
51113713,1028,1028,1028,1028,,,,,
51116212,1029,1029,1029,1029,,,,,
51118711,1030,1030,1030,1030,,,,,
51121210,1030,1030,1030,1030,,,,,
51123709,1031,1031,1031,1031,,,,,
51126208,1032,1032,1032,1032,,,,,
51128707,1033,1033,1033,1033,,,,,
51131206,1033,1033,1033,1033,,,,,
51133705,1034,1034,1034,1034,,,,,
51136204,1035,1035,1035,1035,,,,,
51138703,1036,1036,1036,1036,,,,,
51141202,1036,1036,1036,1036,,,,,
51143701,1037,1037,1037,1037,,,,,
51146200,1038,1038,1038,1038,,,,,
51148699,1039,1039,1039,1039,,,,,
51151198,1039,1039,1039,1039,,,,,
51153697,1040,1040,1040,1040,,,,,
51156196,1041,1041,1041,1041,,,,,
51158695,1042,1042,1042,1042,,,,,
51161194,1042,1042,1042,1042,,,,,
51163693,1043,1043,1043,1043,,,,,
51166192,1044,1044,1044,1044,,,,,
51168691,1045,1045,1045,1045,,,,,
51171190,1045,1045,1045,1045,,,,,
51173689,1046,1046,1046,1046,,,,,
51176188,1047,1047,1047,1047,,,,,
51178687,1048,1048,1048,1048,,,,,
51181186,1048,1048,1048,1048,,,,,
51183685,1049,1049,1049,1049,,,,,
51186184,1050,1050,1050,1050,,,,,
51188683,1051,1051,1051,1051,,,,,
51191182,1051,1051,1051,1051,,,,,
51193681,1052,1052,1052,1052,,,,,
51196180,1053,1053,1053,1053,,,,,
51198679,1054,1054,1054,1054,,,,,
51201178,1054,1054,1054,1054,,,,,
51203677,1055,1055,1055,1055,,,,,
51206176,1056,1056,1056,1056,,,,,
51208675,1057,1057,1057,1057,,,,,
51211174,1057,1057,1057,1057,,,,,
51213673,1058,1058,1058,1058,,,,,
51216172,1059,1059,1059,1059,,,,,
51218671,1060,1060,1060,1060,,,,,
51221170,1060,1060,1060,1060,,,,,
51223669,1061,1061,1061,1061,,,,,
51226168,1062,1062,1062,1062,,,,,
51228667,1063,1063,1063,1063,,,,,
51231166,1063,1063,1063,1063,,,,,
51233665,1064,1064,1064,1064,,,,,
51236164,1065,1065,1065,1065,,,,,
51238663,1066,1066,1066,1066,,,,,
51241162,1066,1066,1066,1066,,,,,
51243661,1067,1067,1067,1067,,,,,
51246160,1068,1068,1068,1068,,,,,
51248659,1069,1069,1069,1069,,,,,
51251158,1069,1069,1069,1069,,,,,
51253657,1070,1070,1070,1070,,,,,
51256156,1071,1071,1071,1071,,,,,
51258655,1072,1072,1072,1072,,,,,
51261154,1072,1072,1072,1072,,,,,
51263653,1073,1073,1073,1073,,,,,
51266152,1074,1074,1074,1074,,,,,
51268651,1075,1075,1075,1075,,,,,
51271150,1075,1075,1075,1075,,,,,
51273649,1076,1076,1076,1076,,,,,
51276148,1077,1077,1077,1077,,,,,
51278647,1078,1078,1078,1078,,,,,
51281146,1078,1078,1078,1078,,,,,
51283645,1079,1079,1079,1079,,,,,
51286144,1080,1080,1080,1080,,,,,
51288643,1081,1081,1081,1081,,,,,
51291142,1081,1081,1081,1081,,,,,
51293641,1082,1082,1082,1082,,,,,
51296140,1083,1083,1083,1083,,,,,
51298639,1084,1084,1084,1084,,,,,
51301138,1084,1084,1084,1084,,,,,
51303637,1085,1085,1085,1085,,,,,
51306136,1086,1086,1086,1086,,,,,
51308635,1087,1087,1087,1087,,,,,
51311134,1087,1087,1087,1087,,,,,
51313633,1088,1088,1088,1088,,,,,
51316132,1089,1089,1089,1089,,,,,
51318631,1090,1090,1090,1090,,,,,
51321130,1090,1090,1090,1090,,,,,
51323629,1091,1091,1091,1091,,,,,
51326128,1092,1092,1092,1092,,,,,
51328627,1093,1093,1093,1093,,,,,
51331126,1093,1093,1093,1093,,,,,
51333625,1094,1094,1094,1094,,,,,
51336124,1095,1095,1095,1095,,,,,
51338623,1096,1096,1096,1096,,,,,
51341122,1096,1096,1096,1096,,,,,
51343621,1097,1097,1097,1097,,,,,
51346120,1098,1098,1098,1098,,,,,
51348619,1099,1099,1099,1099,,,,,
51351118,1099,1099,1099,1099,,,,,
51353617,1100,1100,1100,1100,,,,,
51356116,1101,1101,1101,1101,,,,,
51358615,1101,1101,1101,1101,,,,,
51361114,1102,1102,1102,1102,,,,,
51363613,1103,1103,1103,1103,,,,,
51366112,1104,1104,1104,1104,,,,,
51368611,1104,1104,1104,1104,,,,,
51371110,1105,1105,1105,1105,,,,,
51373609,1106,1106,1106,1106,,,,,
51376108,1107,1107,1107,1107,,,,,
51378607,1107,1107,1107,1107,,,,,
51381106,1108,1108,1108,1108,,,,,
51383605,1109,1109,1109,1109,,,,,
51386104,1110,1110,1110,1110,,,,,
51388603,1110,1110,1110,1110,,,,,
51391102,1111,1111,1111,1111,,,,,
51393601,1112,1112,1112,1112,,,,,
51396100,1113,1113,1113,1113,,,,,
51398599,1113,1113,1113,1113,,,,,
51401098,1114,1114,1114,1114,,,,,
51403597,1115,1115,1115,1115,,,,,
51406096,1116,1116,1116,1116,,,,,
51408595,1116,1116,1116,1116,,,,,
51411094,1117,1117,1117,1117,,,,,
51413593,1118,1118,1118,1118,,,,,
51416092,1119,1119,1119,1119,,,,,
51418591,1119,1119,1119,1119,,,,,
51421090,1120,1120,1120,1120,,,,,
51423589,1121,1121,1121,1121,,,,,
51426088,1122,1122,1122,1122,,,,,
51428587,1122,1122,1122,1122,,,,,
51431086,1123,1123,1123,1123,,,,,
51433585,1124,1124,1124,1124,,,,,
51436084,1125,1125,1125,1125,,,,,
51438583,1125,1125,1125,1125,,,,,
51441082,1126,1126,1126,1126,,,,,
51443581,1127,1127,1127,1127,,,,,
51446080,1128,1128,1128,1128,,,,,
51448579,1128,1128,1128,1128,,,,,
51451078,1129,1129,1129,1129,,,,,
51453577,1130,1130,1130,1130,,,,,
51456076,1131,1131,1131,1131,,,,,
51458575,1131,1131,1131,1131,,,,,
51461074,1132,1132,1132,1132,,,,,
51463573,1133,1133,1133,1133,,,,,
51466072,1134,1134,1134,1134,,,,,
51468571,1134,1134,1134,1134,,,,,
51471070,1135,1135,1135,1135,,,,,
51473569,1136,1136,1136,1136,,,,,
51476068,1137,1137,1137,1137,,,,,
51478567,1137,1137,1137,1137,,,,,
51481066,1138,1138,1138,1138,,,,,
51483565,1139,1139,1139,1139,,,,,
51486064,1140,1140,1140,1140,,,,,
51488563,1140,1140,1140,1140,,,,,
51491062,1141,1141,1141,1141,,,,,
51493561,1142,1142,1142,1142,,,,,
51496060,1143,1143,1143,1143,,,,,
51498559,1143,1143,1143,1143,,,,,
51501058,1144,1144,1144,1144,,,,,
51503557,1145,1145,1145,1145,,,,,
51506056,1146,1146,1146,1146,,,,,
51508555,1146,1146,1146,1146,,,,,
51511054,1147,1147,1147,1147,,,,,
51513553,1148,1148,1148,1148,,,,,
51516052,1149,1149,1149,1149,,,,,
51518551,1149,1149,1149,1149,,,,,
51521050,1150,1150,1150,1150,,,,,
51523549,1161,1153,1154,1162,,,,,
51526048,1169,1162,1162,1170,,,,,
51528547,1177,1169,1170,1178,,,,,
51531046,1185,1177,1178,1186,,,,,
51533545,1193,1185,1185,1193,,,,,
51536044,1200,1193,1193,1201,,,,,
51538543,1207,1200,1200,1208,,,,,
51541042,1215,1207,1208,1215,,,,,
51543541,1222,1214,1215,1222,,,,,
51546040,1229,1221,1222,1229,,,,,
51548539,1235,1228,1229,1236,,,,,
51551038,1242,1235,1236,1243,,,,,
51553537,1249,1242,1242,1250,,,,,
51556036,1256,1249,1249,1256,,,,,
51558535,1262,1255,1256,1263,,,,,
51561034,1269,1262,1262,1269,,,,,
51563533,1275,1268,1269,1275,,,,,
51566032,1281,1275,1275,1282,,,,,
51568531,1287,1281,1281,1288,,,,,
51571030,1294,1287,1288,1294,,,,,
51573529,1300,1293,1294,1300,,,,,
51576028,1306,1299,1300,1306,,,,,
51578527,1311,1305,1306,1312,,,,,
51581026,1317,1311,1312,1318,,,,,
51583525,1323,1317,1318,1324,,,,,
51586024,1329,1323,1323,1330,,,,,
51588523,1335,1329,1329,1335,,,,,
51591022,1340,1334,1335,1341,,,,,
51593521,1346,1340,1340,1346,,,,,
51596020,1352,1346,1346,1352,,,,,
51598519,1357,1351,1352,1357,,,,,
51601018,1362,1357,1357,1363,,,,,
51603517,1368,1362,1362,1368,,,,,
51606016,1373,1368,1368,1374,,,,,
51608515,1378,1373,1373,1379,,,,,
51611014,1384,1378,1379,1384,,,,,
51613513,1389,1383,1384,1389,,,,,
51616012,1394,1389,1389,1395,,,,,
51618511,1399,1394,1394,1400,,,,,
51621010,1404,1399,1399,1405,,,,,
51623509,1409,1404,1404,1410,,,,,
51626008,1414,1409,1409,1415,,,,,
51628507,1419,1414,1414,1420,,,,,
51631006,1424,1419,1419,1425,,,,,
51633505,1429,1424,1424,1430,,,,,
51636004,1434,1429,1429,1435,,,,,
51638503,1439,1434,1434,1439,,,,,
51641002,1444,1439,1439,1444,,,,,
51643501,1449,1443,1444,1449,,,,,
51646000,1453,1448,1448,1454,,,,,
51648499,1458,1453,1453,1458,,,,,
51650998,1463,1457,1458,1463,,,,,
51653497,1467,1462,1463,1468,,,,,
51655996,1472,1467,1467,1472,,,,,
51658495,1477,1471,1472,1477,,,,,
51660994,1481,1476,1476,1481,,,,,
51663493,1486,1480,1481,1486,,,,,
51665992,1490,1485,1485,1491,,,,,
51668491,1495,1489,1490,1495,,,,,
51670990,1499,1494,1494,1499,,,,,
51673489,1504,1498,1499,1504,,,,,
51675988,1508,1503,1503,1508,,,,,
51678487,1512,1507,1508,1513,,,,,
51680986,1517,1511,1512,1517,,,,,
51683485,1521,1516,1516,1521,,,,,
51685984,1525,1520,1521,1526,,,,,
51688483,1530,1524,1525,1530,,,,,
51690982,1534,1529,1529,1534,,,,,
51693481,1538,1533,1533,1538,,,,,
51695980,1542,1537,1538,1543,,,,,
51698479,1547,1541,1542,1547,,,,,
51700978,1551,1546,1546,1551,,,,,
51703477,1555,1550,1550,1555,,,,,
51705976,1559,1554,1554,1559,,,,,
51708475,1563,1558,1558,1563,,,,,
51710974,1567,1562,1562,1567,,,,,
51713473,1571,1566,1566,1571,,,,,
51715972,1575,1570,1571,1575,,,,,
51718471,1579,1574,1575,1579,,,,,
51720970,1583,1578,1579,1583,,,,,
51723469,1587,1582,1583,1587,,,,,
51725968,1591,1586,1587,1591,,,,,
51728467,1595,1590,1590,1595,,,,,
51730966,1599,1594,1594,1599,,,,,
51733465,1603,1598,1598,1603,,,,,
51735964,1607,1602,1602,1607,,,,,
51738463,1611,1606,1606,1611,,,,,
51740962,1614,1610,1610,1615,,,,,
51743461,1618,1613,1614,1618,,,,,
51745960,1622,1617,1618,1622,,,,,
51748459,1626,1621,1622,1626,,,,,
51750958,1630,1625,1625,1630,,,,,
51753457,1634,1629,1629,1634,,,,,
51755956,1637,1632,1633,1637,,,,,
51758455,1641,1636,1637,1641,,,,,
51760954,1645,1640,1640,1645,,,,,
51763453,1648,1644,1644,1648,,,,,
51765952,1652,1647,1648,1652,,,,,
51768451,1656,1651,1652,1656,,,,,
51770950,1659,1655,1655,1659,,,,,
51773449,1663,1658,1659,1663,,,,,
51775948,1667,1662,1663,1667,,,,,
51778447,1670,1666,1666,1670,,,,,
51780946,1674,1669,1670,1674,,,,,
51783445,1678,1673,1673,1677,,,,,
51785944,1681,1676,1677,1681,,,,,
51788443,1685,1680,1681,1685,,,,,
51790942,1688,1684,1684,1688,,,,,
51793441,1692,1687,1688,1692,,,,,
51795940,1695,1691,1691,1695,,,,,
51798439,1699,1694,1695,1699,,,,,
51800938,1702,1698,1698,1702,,,,,
51803437,1706,1701,1702,1706,,,,,
51805936,1709,1705,1705,1709,,,,,
51808435,1713,1708,1709,1713,,,,,
51810934,1716,1711,1712,1716,,,,,
51813433,1720,1715,1715,1719,,,,,
51815932,1723,1718,1719,1723,,,,,
51818431,1726,1722,1722,1726,,,,,
51820930,1730,1725,1726,1730,,,,,
51823429,1733,1729,1729,1733,,,,,
51825928,1737,1732,1732,1736,,,,,
51828427,1740,1735,1736,1740,,,,,
51830926,1743,1739,1739,1743,,,,,
51833425,1747,1742,1743,1747,,,,,
51835924,1750,1745,1746,1750,,,,,
51838423,1753,1749,1749,1753,,,,,
51840922,1757,1752,1752,1757,,,,,
51843421,1760,1755,1756,1760,,,,,
51845920,1763,1758,1759,1763,,,,,
51848419,1767,1762,1762,1766,,,,,
51850918,1770,1765,1766,1770,,,,,
51853417,1773,1768,1769,1773,,,,,
51855916,1776,1771,1772,1776,,,,,
51858415,1780,1775,1775,1779,,,,,
51860914,1783,1778,1778,1783,,,,,
51863413,1786,1781,1782,1786,,,,,
51865912,1789,1784,1785,1789,,,,,
51868411,1792,1787,1788,1792,,,,,
51870910,1796,1791,1791,1796,,,,,
51873409,1799,1794,1794,1799,,,,,
51875908,1802,1797,1797,1802,,,,,
51878407,1805,1800,1801,1805,,,,,
51880906,1808,1803,1804,1808,,,,,
51883405,1811,1806,1807,1812,,,,,
51885904,1815,1810,1810,1815,,,,,
51888403,1818,1813,1813,1818,,,,,
51890902,1821,1816,1816,1821,,,,,
51893401,1824,1819,1819,1824,,,,,
51895900,1827,1822,1822,1827,,,,,
51898399,1830,1825,1825,1830,,,,,
51900898,1833,1828,1828,1833,,,,,
51903397,1836,1831,1831,1836,,,,,
51905896,1839,1834,1835,1839,,,,,
51908395,1842,1837,1838,1842,,,,,
51910894,1845,1840,1841,1846,,,,,
51913393,1848,1843,1844,1849,,,,,
51915892,1851,1846,1847,1852,,,,,
51918391,1854,1849,1850,1855,,,,,
51920890,1857,1852,1853,1858,,,,,
51923389,1860,1855,1856,1861,,,,,
51925888,1863,1858,1859,1864,,,,,
51928387,1866,1861,1862,1866,,,,,
51930886,1869,1864,1865,1869,,,,,
51933385,1872,1867,1868,1872,,,,,
51935884,1875,1870,1871,1875,,,,,
51938383,1878,1873,1874,1878,,,,,
51940882,1881,1876,1877,1881,,,,,
51943381,1884,1879,1880,1884,,,,,
51945880,1887,1882,1883,1887,,,,,
51948379,1890,1885,1886,1890,,,,,
51950878,1893,1888,1889,1893,,,,,
51953377,1896,1891,1892,1896,,,,,
51955876,1897,1892,1893,1897,,,,,
51958375,1896,1891,1892,1896,,,,,
51960874,1895,1890,1891,1895,,,,,
51963373,1894,1889,1890,1894,,,,,
51965872,1893,1888,1889,1893,,,,,
51968371,1892,1888,1888,1892,,,,,
51970870,1891,1887,1887,1891,,,,,
51973369,1891,1886,1887,1890,,,,,
51975868,1890,1885,1886,1890,,,,,
51978367,1889,1884,1885,1889,,,,,
51980866,1889,1884,1885,1888,,,,,
51983365,1888,1883,1884,1888,,,,,
51985864,1887,1883,1884,1887,,,,,
51988363,1887,1882,1883,1887,,,,,
51990862,1887,1882,1883,1886,,,,,
51993361,1886,1882,1883,1886,,,,,
51995860,1886,1882,1882,1886,,,,,
51998359,1886,1881,1882,1886,,,,,
52000858,1886,1882,1882,1886,,,,,
52003357,1886,1882,1882,1886,,,,,
52005856,1886,1882,1883,1886,,,,,
52008355,1887,1882,1883,1886,,,,,
52010854,1887,1882,1883,1887,,,,,
52013353,1887,1883,1884,1887,,,,,
52015852,1888,1883,1884,1887,,,,,
52018351,1888,1884,1885,1888,,,,,
52020850,1888,1885,1885,1888,,,,,
52023349,1889,1885,1886,1889,,,,,
52025848,1889,1885,1886,1889,,,,,
52028347,1889,1886,1886,1889,,,,,
52030846,1889,1886,1886,1889,,,,,
52033345,1889,1886,1886,1889,,,,,
52035844,1889,1886,1886,1889,,,,,
52038343,1888,1886,1886,1888,,,,,
52040842,1888,1885,1886,1888,,,,,
52043341,1887,1885,1885,1887,,,,,
52045840,1886,1884,1884,1886,,,,,
52048339,1885,1883,1883,1885,,,,,
52050838,1884,1882,1882,1884,,,,,
52053337,1883,1880,1881,1883,,,,,
52055836,1881,1879,1879,1881,,,,,
52058335,1880,1877,1878,1880,,,,,
52060834,1878,1876,1876,1878,,,,,
52063333,1876,1874,1874,1876,,,,,
52065832,1874,1872,1872,1874,,,,,
52068331,1872,1870,1870,1872,,,,,
52070830,1870,1868,1868,1870,,,,,
52073329,1867,1865,1865,1868,,,,,
52075828,1865,1863,1863,1865,,,,,
52078327,1863,1861,1861,1863,,,,,
52080826,1860,1858,1858,1860,,,,,
52083325,1857,1855,1856,1858,,,,,
52085824,1855,1853,1853,1855,,,,,
52088323,1852,1850,1850,1852,,,,,
52090822,1849,1847,1847,1849,,,,,
52093321,1846,1844,1844,1846,,,,,
52095820,1843,1841,1841,1843,,,,,
52098319,1840,1838,1838,1840,,,,,
52100818,1837,1835,1835,1837,,,,,
52103317,1834,1832,1832,1834,,,,,
52105816,1831,1829,1829,1831,,,,,
52108315,1828,1826,1826,1828,,,,,
52110814,1824,1823,1823,1825,,,,,
52113313,1821,1819,1820,1822,,,,,
52115812,1818,1816,1816,1818,,,,,
52118311,1815,1813,1813,1815,,,,,
52120810,1811,1810,1810,1812,,,,,
52123309,1808,1807,1807,1808,,,,,
52125808,1805,1803,1803,1805,,,,,
52128307,1801,1800,1800,1802,,,,,
52130806,1798,1797,1797,1799,,,,,
52133305,1795,1794,1793,1795,,,,,
52135804,1792,1790,1790,1792,,,,,
52138303,1788,1787,1787,1789,,,,,
52140802,1785,1784,1784,1786,,,,,
52143301,1782,1781,1781,1782,,,,,
52145800,1779,1778,1778,1779,,,,,
52148299,1776,1774,1774,1776,,,,,
52150798,1772,1771,1771,1773,,,,,
52153297,1769,1768,1768,1770,,,,,
52155796,1766,1765,1765,1767,,,,,
52158295,1763,1762,1762,1763,,,,,
52160794,1760,1759,1759,1760,,,,,
52163293,1757,1756,1756,1757,,,,,
52165792,1753,1753,1753,1754,,,,,
52168291,1750,1750,1750,1751,,,,,
52170790,1747,1747,1747,1748,,,,,
52173289,1744,1744,1744,1745,,,,,
52175788,1741,1741,1741,1742,,,,,
52178287,1738,1738,1738,1739,,,,,
52180786,1735,1735,1735,1736,,,,,
52183285,1732,1732,1732,1733,,,,,
52185784,1729,1729,1729,1730,,,,,
52188283,1727,1726,1726,1727,,,,,
52190782,1724,1723,1724,1724,,,,,
52193281,1721,1721,1721,1721,,,,,
52195780,1719,1718,1718,1719,,,,,
52198279,1716,1716,1716,1716,,,,,
