timestamp,TimeUS,C1,C2,C3,C4,C5,C6,C7,C8,C9,C10,C11,C12,C13,C14
1684083280.40000010,45228568,1000,1000,1000,1000,0,0,0,0,0,0,0,0,0,0
1684083280.49995995,45328528,1000,1000,1000,1000,0,0,0,0,0,0,0,0,0,0
1684083280.59992003,45428488,1000,1000,1000,1000,0,0,0,0,0,0,0,0,0,0
1684083280.69988012,45528448,1000,1000,1000,1000,0,0,0,0,0,0,0,0,0,0
1684083280.79983997,45628408,1000,1000,1000,1000,0,0,0,0,0,0,0,0,0,0
1684083280.89980006,45728368,1000,1000,1000,1000,0,0,0,0,0,0,0,0,0,0
1684083280.99975991,45828328,1000,1000,1000,1000,0,0,0,0,0,0,0,0,0,0
1684083281.09972000,45928288,1000,1000,1000,1000,0,0,0,0,0,0,0,0,0,0
1684083281.19968009,46028248,1000,1000,1000,1000,0,0,0,0,0,0,0,0,0,0
1684083281.29963994,46128208,1000,1000,1000,1000,0,0,0,0,0,0,0,0,0,0
1684083281.39960003,46228168,1000,1000,1000,1000,0,0,0,0,0,0,0,0,0,0
1684083281.50039291,46328961,1000,1000,1000,1000,0,0,0,0,0,0,0,0,0,0
1684083281.60035300,46428921,1000,1000,1000,1000,0,0,0,0,0,0,0,0,0,0
1684083281.70031309,46528881,1000,1000,1000,1000,0,0,0,0,0,0,0,0,0,0
1684083281.80027294,46628841,1000,1000,1000,1000,0,0,0,0,0,0,0,0,0,0
1684083281.90023303,46728801,1000,1000,1000,1000,0,0,0,0,0,0,0,0,0,0
1684083282.00019312,46828761,1000,1000,1000,1000,0,0,0,0,0,0,0,0,0,0
1684083282.10015297,46928721,1000,1000,1000,1000,0,0,0,0,0,0,0,0,0,0
1684083282.20011306,47028681,1000,1000,1000,1000,0,0,0,0,0,0,0,0,0,0
1684083282.30007291,47128641,1000,1000,1000,1000,0,0,0,0,0,0,0,0,0,0
1684083282.40003300,47228601,1003,1003,1003,1003,0,0,0,0,0,0,0,0,0,0
1684083282.49999309,47328561,1033,1033,1033,1033,0,0,0,0,0,0,0,0,0,0
1684083282.59995294,47428521,1063,1063,1063,1063,0,0,0,0,0,0,0,0,0,0
1684083282.69991302,47528481,1093,1093,1093,1093,0,0,0,0,0,0,0,0,0,0
1684083282.79987311,47628441,1122,1122,1122,1122,0,0,0,0,0,0,0,0,0,0
1684083282.89983296,47728401,1177,1170,1171,1177,0,0,0,0,0,0,0,0,0,0
1684083282.99979305,47828361,1419,1415,1415,1419,0,0,0,0,0,0,0,0,0,0
1684083283.09975290,47928321,1595,1591,1591,1595,0,0,0,0,0,0,0,0,0,0
1684083283.19971299,48028281,1739,1736,1736,1740,0,0,0,0,0,0,0,0,0,0
1684083283.29967308,48128241,1840,1837,1837,1840,0,0,0,0,0,0,0,0,0,0
1684083283.39963293,48228201,1847,1843,1843,1847,0,0,0,0,0,0,0,0,0,0
1684083283.49959302,48328161,1788,1786,1787,1788,0,0,0,0,0,0,0,0,0,0
1684083283.60038590,48428954,1662,1663,1662,1662,0,0,0,0,0,0,0,0,0,0
1684083283.70034599,48528914,1606,1608,1607,1606,0,0,0,0,0,0,0,0,0,0
1684083283.80030608,48628874,1610,1611,1611,1610,0,0,0,0,0,0,0,0,0,0
1684083283.90026593,48728834,1630,1625,1624,1631,0,0,0,0,0,0,0,0,0,0
1684083284.00022602,48828794,1628,1628,1623,1633,0,0,0,0,0,0,0,0,0,0
1684083284.10018611,48928754,1624,1625,1620,1629,0,0,0,0,0,0,0,0,0,0
1684083284.20014596,49028714,1620,1621,1619,1622,0,0,0,0,0,0,0,0,0,0
1684083284.30010605,49128674,1618,1617,1619,1616,0,0,0,0,0,0,0,0,0,0
1684083284.40006614,49228634,1617,1617,1620,1615,0,0,0,0,0,0,0,0,0,0
1684083284.50002599,49328594,1620,1620,1623,1616,0,0,0,0,0,0,0,0,0,0
1684083284.59998608,49428554,1622,1621,1625,1618,0,0,0,0,0,0,0,0,0,0
1684083284.69994593,49528514,1624,1623,1625,1622,0,0,0,0,0,0,0,0,0,0
1684083284.79990602,49628474,1619,1619,1620,1618,0,0,0,0,0,0,0,0,0,0
1684083284.89986610,49728434,1589,1589,1596,1582,0,0,0,0,0,0,0,0,0,0
1684083284.99982595,49828394,1576,1576,1580,1572,0,0,0,0,0,0,0,0,0,0
1684083285.09978604,49928354,1564,1564,1564,1565,0,0,0,0,0,0,0,0,0,0
1684083285.19974613,50028314,1555,1555,1550,1560,0,0,0,0,0,0,0,0,0,0
1684083285.29970598,50128274,1547,1547,1538,1557,0,0,0,0,0,0,0,0,0,0
1684083285.39966607,50228234,1541,1540,1533,1548,0,0,0,0,0,0,0,0,0,0
1684083285.49962592,50328194,1535,1534,1530,1539,0,0,0,0,0,0,0,0,0,0
1684083285.59958601,50428154,1529,1529,1528,1530,0,0,0,0,0,0,0,0,0,0
1684083285.70037913,50528947,1528,1528,1529,1526,0,0,0,0,0,0,0,0,0,0
1684083285.80033898,50628907,1529,1529,1532,1526,0,0,0,0,0,0,0,0,0,0
1684083285.90029907,50728867,1532,1532,1535,1529,0,0,0,0,0,0,0,0,0,0
1684083286.00025892,50828827,1535,1535,1538,1532,0,0,0,0,0,0,0,0,0,0
1684083286.10021901,50928787,1538,1539,1541,1537,0,0,0,0,0,0,0,0,0,0
1684083286.20017910,51028747,1543,1542,1544,1542,0,0,0,0,0,0,0,0,0,0
1684083286.30013895,51128707,1544,1544,1544,1544,0,0,0,0,0,0,0,0,0,0
1684083286.40009904,51228667,1548,1548,1547,1549,0,0,0,0,0,0,0,0,0,0
1684083286.50005913,51328627,1550,1550,1549,1552,0,0,0,0,0,0,0,0,0,0
1684083286.60001898,51428587,1553,1553,1552,1555,0,0,0,0,0,0,0,0,0,0
1684083286.69997907,51528547,1552,1552,1559,1561,0,0,0,0,0,0,0,0,0,0
1684083286.79993892,51628507,1553,1554,1562,1563,0,0,0,0,0,0,0,0,0,0
1684083286.89989901,51728467,1556,1556,1563,1564,0,0,0,0,0,0,0,0,0,0
1684083286.99985909,51828427,1559,1560,1564,1564,0,0,0,0,0,0,0,0,0,0
1684083287.09981894,51928387,1562,1563,1565,1564,0,0,0,0,0,0,0,0,0,0
1684083287.19977903,52028347,1565,1566,1565,1564,0,0,0,0,0,0,0,0,0,0
1684083287.29973912,52128307,1568,1568,1565,1565,0,0,0,0,0,0,0,0,0,0
1684083287.39969897,52228267,1571,1570,1566,1566,0,0,0,0,0,0,0,0,0,0
1684083287.49965906,52328227,1571,1571,1565,1566,0,0,0,0,0,0,0,0,0,0
1684083287.59961891,52428187,1572,1572,1567,1567,0,0,0,0,0,0,0,0,0,0
1684083287.70041203,52528980,1573,1572,1568,1568,0,0,0,0,0,0,0,0,0,0
1684083287.80037212,52628940,1573,1573,1569,1569,0,0,0,0,0,0,0,0,0,0
1684083287.90033197,52728900,1573,1573,1570,1571,0,0,0,0,0,0,0,0,0,0
1684083288.00029206,52828860,1573,1573,1572,1572,0,0,0,0,0,0,0,0,0,0
1684083288.10025191,52928820,1574,1574,1574,1574,0,0,0,0,0,0,0,0,0,0
1684083288.20021200,53028780,1573,1574,1575,1574,0,0,0,0,0,0,0,0,0,0
1684083288.30017209,53128740,1574,1574,1576,1575,0,0,0,0,0,0,0,0,0,0
1684083288.40013194,53228700,1574,1574,1576,1575,0,0,0,0,0,0,0,0,0,0
1684083288.50009203,53328660,1574,1575,1576,1576,0,0,0,0,0,0,0,0,0,0
1684083288.60005212,53428620,1575,1575,1576,1576,0,0,0,0,0,0,0,0,0,0
1684083288.70001197,53528580,1575,1575,1576,1576,0,0,0,0,0,0,0,0,0,0
1684083288.79997206,53628540,1577,1576,1576,1577,0,0,0,0,0,0,0,0,0,0
1684083288.89993191,53728500,1577,1577,1577,1578,0,0,0,0,0,0,0,0,0,0
1684083288.99989200,53828460,1577,1578,1577,1577,0,0,0,0,0,0,0,0,0,0
1684083289.09985209,53928420,1578,1578,1578,1578,0,0,0,0,0,0,0,0,0,0
1684083289.19981194,54028380,1579,1578,1578,1578,0,0,0,0,0,0,0,0,0,0
1684083289.29977202,54128340,1578,1577,1577,1577,0,0,0,0,0,0,0,0,0,0
1684083289.39973211,54228300,1578,1578,1577,1577,0,0,0,0,0,0,0,0,0,0
1684083289.49969196,54328260,1578,1578,1578,1577,0,0,0,0,0,0,0,0,0,0
1684083289.59965205,54428220,1578,1578,1578,1577,0,0,0,0,0,0,0,0,0,0
1684083289.69961190,54528180,1578,1578,1578,1578,0,0,0,0,0,0,0,0,0,0
1684083289.80040503,54628973,1578,1578,1578,1578,0,0,0,0,0,0,0,0,0,0
1684083289.90036511,54728933,1578,1578,1579,1578,0,0,0,0,0,0,0,0,0,0
1684083290.00032496,54828893,1578,1578,1578,1578,0,0,0,0,0,0,0,0,0,0
1684083290.10028505,54928853,1579,1578,1579,1579,0,0,0,0,0,0,0,0,0,0
1684083290.20024490,55028813,1578,1578,1578,1578,0,0,0,0,0,0,0,0,0,0
1684083290.30020499,55128773,1579,1579,1579,1579,0,0,0,0,0,0,0,0,0,0
1684083290.40016508,55228733,1578,1579,1579,1579,0,0,0,0,0,0,0,0,0,0
1684083290.50012493,55328693,1579,1579,1579,1580,0,0,0,0,0,0,0,0,0,0
1684083290.60008502,55428653,1579,1579,1579,1579,0,0,0,0,0,0,0,0,0,0
1684083290.70004511,55528613,1581,1580,1581,1580,0,0,0,0,0,0,0,0,0,0
1684083290.80000496,55628573,1580,1580,1580,1580,0,0,0,0,0,0,0,0,0,0
1684083290.89996505,55728533,1580,1580,1580,1580,0,0,0,0,0,0,0,0,0,0
1684083290.99992514,55828493,1580,1580,1580,1580,0,0,0,0,0,0,0,0,0,0
1684083291.09988499,55928453,1581,1580,1581,1580,0,0,0,0,0,0,0,0,0,0
1684083291.19984508,56028413,1580,1580,1580,1580,0,0,0,0,0,0,0,0,0,0
1684083291.29980493,56128373,1579,1579,1579,1580,0,0,0,0,0,0,0,0,0,0
1684083291.39976501,56228333,1580,1580,1580,1580,0,0,0,0,0,0,0,0,0,0
1684083291.49972510,56328293,1579,1579,1579,1580,0,0,0,0,0,0,0,0,0,0
1684083291.59968495,56428253,1580,1580,1580,1580,0,0,0,0,0,0,0,0,0,0
1684083291.69964504,56528213,1580,1580,1580,1580,0,0,0,0,0,0,0,0,0,0
1684083291.79960513,56628173,1580,1580,1580,1580,0,0,0,0,0,0,0,0,0,0
1684083291.90039802,56728966,1579,1580,1580,1580,0,0,0,0,0,0,0,0,0,0
1684083292.00035810,56828926,1579,1579,1579,1579,0,0,0,0,0,0,0,0,0,0
1684083292.10031796,56928886,1580,1580,1580,1580,0,0,0,0,0,0,0,0,0,0
1684083292.20027804,57028846,1580,1580,1580,1580,0,0,0,0,0,0,0,0,0,0
1684083292.30023813,57128806,1582,1581,1581,1581,0,0,0,0,0,0,0,0,0,0
1684083292.40019798,57228766,1581,1581,1581,1581,0,0,0,0,0,0,0,0,0,0
1684083292.50015807,57328726,1581,1581,1580,1581,0,0,0,0,0,0,0,0,0,0
1684083292.60011792,57428686,1580,1580,1581,1580,0,0,0,0,0,0,0,0,0,0
1684083292.70007801,57528646,1581,1581,1581,1581,0,0,0,0,0,0,0,0,0,0
1684083292.80003810,57628606,1582,1582,1582,1582,0,0,0,0,0,0,0,0,0,0
1684083292.89999795,57728566,1582,1583,1589,1576,0,0,0,0,0,0,0,0,0,0
1684083292.99995804,57828526,1581,1583,1587,1573,0,0,0,0,0,0,0,0,0,0
1684083293.09991813,57928486,1579,1582,1578,1574,0,0,0,0,0,0,0,0,0,0
1684083293.19987798,58028446,1577,1580,1569,1572,0,0,0,0,0,0,0,0,0,0
1684083293.29983807,58128406,1578,1579,1563,1569,0,0,0,0,0,0,0,0,0,0
1684083293.39979792,58228366,1578,1579,1558,1565,0,0,0,0,0,0,0,0,0,0
1684083293.49975801,58328326,1579,1578,1556,1560,0,0,0,0,0,0,0,0,0,0
1684083293.59971809,58428286,1579,1578,1556,1556,0,0,0,0,0,0,0,0,0,0
1684083293.69967794,58528246,1579,1578,1556,1555,0,0,0,0,0,0,0,0,0,0
1684083293.79963803,58628206,1578,1578,1557,1554,0,0,0,0,0,0,0,0,0,0
1684083293.89959812,58728166,1577,1577,1555,1554,0,0,0,0,0,0,0,0,0,0
1684083294.00039101,58828959,1576,1577,1556,1554,0,0,0,0,0,0,0,0,0,0
1684083294.10035110,58928919,1575,1576,1554,1554,0,0,0,0,0,0,0,0,0,0
1684083294.20031095,59028879,1575,1577,1554,1554,0,0,0,0,0,0,0,0,0,0
1684083294.30027103,59128839,1575,1577,1552,1553,0,0,0,0,0,0,0,0,0,0
1684083294.40023112,59228799,1576,1578,1551,1551,0,0,0,0,0,0,0,0,0,0
1684083294.50019097,59328759,1577,1578,1548,1547,0,0,0,0,0,0,0,0,0,0
1684083294.60015106,59428719,1579,1581,1546,1545,0,0,0,0,0,0,0,0,0,0
1684083294.70011091,59528679,1582,1583,1543,1543,0,0,0,0,0,0,0,0,0,0
1684083294.80007100,59628639,1586,1586,1541,1540,0,0,0,0,0,0,0,0,0,0
1684083294.90003109,59728599,1589,1589,1538,1538,0,0,0,0,0,0,0,0,0,0
1684083294.99999094,59828559,1592,1592,1536,1536,0,0,0,0,0,0,0,0,0,0
1684083295.09995103,59928519,1594,1594,1534,1535,0,0,0,0,0,0,0,0,0,0
1684083295.19991112,60028479,1594,1595,1533,1535,0,0,0,0,0,0,0,0,0,0
1684083295.29987097,60128439,1594,1594,1534,1536,0,0,0,0,0,0,0,0,0,0
1684083295.39983106,60228399,1593,1593,1538,1540,0,0,0,0,0,0,0,0,0,0
1684083295.49979091,60328359,1591,1589,1543,1546,0,0,0,0,0,0,0,0,0,0
1684083295.59975100,60428319,1585,1583,1550,1553,0,0,0,0,0,0,0,0,0,0
1684083295.69971108,60528279,1577,1574,1560,1562,0,0,0,0,0,0,0,0,0,0
1684083295.79967093,60628239,1567,1564,1571,1573,0,0,0,0,0,0,0,0,0,0
1684083295.89963102,60728199,1556,1552,1583,1585,0,0,0,0,0,0,0,0,0,0
1684083295.99959111,60828159,1546,1543,1596,1596,0,0,0,0,0,0,0,0,0,0
1684083296.10038400,60928952,1537,1535,1605,1605,0,0,0,0,0,0,0,0,0,0
1684083296.20034409,61028912,1531,1531,1612,1611,0,0,0,0,0,0,0,0,0,0
1684083296.30030394,61128872,1528,1529,1614,1613,0,0,0,0,0,0,0,0,0,0
1684083296.40026402,61228832,1530,1533,1614,1613,0,0,0,0,0,0,0,0,0,0
1684083296.50022411,61328792,1536,1538,1611,1611,0,0,0,0,0,0,0,0,0,0
1684083296.60018396,61428752,1543,1545,1605,1606,0,0,0,0,0,0,0,0,0,0
1684083296.70014405,61528712,1551,1552,1598,1598,0,0,0,0,0,0,0,0,0,0
1684083296.80010390,61628672,1560,1561,1591,1591,0,0,0,0,0,0,0,0,0,0
1684083296.90006399,61728632,1568,1568,1583,1582,0,0,0,0,0,0,0,0,0,0
1684083297.00002408,61828592,1576,1575,1577,1576,0,0,0,0,0,0,0,0,0,0
1684083297.09998393,61928552,1581,1580,1571,1570,0,0,0,0,0,0,0,0,0,0
1684083297.19994402,62028512,1586,1585,1568,1568,0,0,0,0,0,0,0,0,0,0
1684083297.29990411,62128472,1588,1587,1567,1567,0,0,0,0,0,0,0,0,0,0
1684083297.39986396,62228432,1588,1587,1566,1566,0,0,0,0,0,0,0,0,0,0
1684083297.49982405,62328392,1587,1586,1568,1568,0,0,0,0,0,0,0,0,0,0
1684083297.59978414,62428352,1584,1583,1569,1569,0,0,0,0,0,0,0,0,0,0
1684083297.69974399,62528312,1581,1581,1572,1572,0,0,0,0,0,0,0,0,0,0
1684083297.79970407,62628272,1579,1578,1575,1575,0,0,0,0,0,0,0,0,0,0
1684083297.89966393,62728232,1456,1459,1608,1612,0,0,0,0,0,0,0,0,0,0
1684083297.99962401,62828192,1493,1497,1615,1617,0,0,0,0,0,0,0,0,0,0
1684083298.10041714,62928985,1526,1531,1610,1608,0,0,0,0,0,0,0,0,0,0
1684083298.20037699,63028945,1557,1561,1599,1595,0,0,0,0,0,0,0,0,0,0
1684083298.30033708,63128905,1582,1584,1589,1584,0,0,0,0,0,0,0,0,0,0
1684083298.40029693,63228865,1599,1597,1581,1578,0,0,0,0,0,0,0,0,0,0
1684083298.50025702,63328825,1611,1606,1576,1576,0,0,0,0,0,0,0,0,0,0
1684083298.60021710,63428785,1616,1610,1572,1574,0,0,0,0,0,0,0,0,0,0
1684083298.70017695,63528745,1617,1612,1570,1573,0,0,0,0,0,0,0,0,0,0
1684083298.80013704,63628705,1616,1613,1569,1572,0,0,0,0,0,0,0,0,0,0
1684083298.90009713,63728665,1612,1611,1569,1571,0,0,0,0,0,0,0,0,0,0
1684083299.00005698,63828625,1608,1609,1570,1571,0,0,0,0,0,0,0,0,0,0
1684083299.10001707,63928585,1605,1606,1571,1572,0,0,0,0,0,0,0,0,0,0
1684083299.19997692,64028545,1601,1602,1572,1572,0,0,0,0,0,0,0,0,0,0
1684083299.29993701,64128505,1599,1599,1574,1573,0,0,0,0,0,0,0,0,0,0
1684083299.39989710,64228465,1595,1594,1574,1574,0,0,0,0,0,0,0,0,0,0
1684083299.49985695,64328425,1592,1591,1575,1575,0,0,0,0,0,0,0,0,0,0
1684083299.59981704,64428385,1590,1588,1577,1577,0,0,0,0,0,0,0,0,0,0
1684083299.69977713,64528345,1587,1586,1578,1578,0,0,0,0,0,0,0,0,0,0
1684083299.79973698,64628305,1584,1583,1578,1578,0,0,0,0,0,0,0,0,0,0
1684083299.89969707,64728265,1581,1582,1579,1579,0,0,0,0,0,0,0,0,0,0
1684083299.99965692,64828225,1580,1581,1581,1580,0,0,0,0,0,0,0,0,0,0
1684083300.09961700,64928185,1578,1579,1581,1580,0,0,0,0,0,0,0,0,0,0
1684083300.20041013,65028978,1577,1578,1581,1580,0,0,0,0,0,0,0,0,0,0
1684083300.30036998,65128938,1577,1578,1582,1581,0,0,0,0,0,0,0,0,0,0
1684083300.40033007,65228898,1576,1577,1581,1581,0,0,0,0,0,0,0,0,0,0
1684083300.50028992,65328858,1577,1578,1582,1582,0,0,0,0,0,0,0,0,0,0
1684083300.60025001,65428818,1577,1577,1582,1581,0,0,0,0,0,0,0,0,0,0
1684083300.70021009,65528778,1577,1577,1581,1581,0,0,0,0,0,0,0,0,0,0
1684083300.80016994,65628738,1576,1577,1580,1580,0,0,0,0,0,0,0,0,0,0
1684083300.90013003,65728698,1578,1577,1584,1577,0,0,0,0,0,0,0,0,0,0
1684083301.00009012,65828658,1579,1577,1587,1572,0,0,0,0,0,0,0,0,0,0
1684083301.10004997,65928618,1579,1577,1581,1572,0,0,0,0,0,0,0,0,0,0
1684083301.20001006,66028578,1577,1576,1570,1571,0,0,0,0,0,0,0,0,0,0
1684083301.29996991,66128538,1575,1576,1563,1569,0,0,0,0,0,0,0,0,0,0
1684083301.39993000,66228498,1574,1576,1558,1564,0,0,0,0,0,0,0,0,0,0
1684083301.49989009,66328458,1573,1576,1556,1560,0,0,0,0,0,0,0,0,0,0
1684083301.59984994,66428418,1573,1575,1555,1556,0,0,0,0,0,0,0,0,0,0
1684083301.69981003,66528378,1574,1575,1556,1555,0,0,0,0,0,0,0,0,0,0
1684083301.79977012,66628338,1575,1575,1556,1553,0,0,0,0,0,0,0,0,0,0
1684083301.89972997,66728298,1575,1574,1554,1552,0,0,0,0,0,0,0,0,0,0
1684083301.99969006,66828258,1575,1575,1554,1552,0,0,0,0,0,0,0,0,0,0
1684083302.09964991,66928218,1575,1575,1552,1551,0,0,0,0,0,0,0,0,0,0
1684083302.19960999,67028178,1576,1576,1551,1551,0,0,0,0,0,0,0,0,0,0
1684083302.30040312,67128971,1575,1577,1549,1549,0,0,0,0,0,0,0,0,0,0
1684083302.40036297,67228931,1576,1578,1548,1548,0,0,0,0,0,0,0,0,0,0
1684083302.50032306,67328891,1578,1579,1546,1547,0,0,0,0,0,0,0,0,0,0
1684083302.60028291,67428851,1579,1581,1544,1544,0,0,0,0,0,0,0,0,0,0
1684083302.70024300,67528811,1581,1583,1543,1542,0,0,0,0,0,0,0,0,0,0
1684083302.80020308,67628771,1583,1584,1540,1539,0,0,0,0,0,0,0,0,0,0
1684083302.90016294,67728731,1586,1585,1538,1537,0,0,0,0,0,0,0,0,0,0
1684083303.00012302,67828691,1588,1588,1537,1537,0,0,0,0,0,0,0,0,0,0
1684083303.10008311,67928651,1590,1590,1536,1537,0,0,0,0,0,0,0,0,0,0
1684083303.20004296,68028611,1591,1591,1536,1537,0,0,0,0,0,0,0,0,0,0
1684083303.30000305,68128571,1592,1590,1538,1540,0,0,0,0,0,0,0,0,0,0
1684083303.39996290,68228531,1589,1588,1539,1541,0,0,0,0,0,0,0,0,0,0
1684083303.49992299,68328491,1587,1586,1543,1546,0,0,0,0,0,0,0,0,0,0
1684083303.59988308,68428451,1583,1582,1547,1551,0,0,0,0,0,0,0,0,0,0
1684083303.69984293,68528411,1579,1578,1554,1557,0,0,0,0,0,0,0,0,0,0
1684083303.79980302,68628371,1573,1572,1560,1564,0,0,0,0,0,0,0,0,0,0
1684083303.89976311,68728331,1567,1564,1569,1571,0,0,0,0,0,0,0,0,0,0
1684083303.99972296,68828291,1559,1557,1578,1579,0,0,0,0,0,0,0,0,0,0
1684083304.09968305,68928251,1552,1549,1587,1588,0,0,0,0,0,0,0,0,0,0
1684083304.19964314,69028211,1544,1542,1596,1596,0,0,0,0,0,0,0,0,0,0
1684083304.29960299,69128171,1536,1535,1605,1604,0,0,0,0,0,0,0,0,0,0
1684083304.40039611,69228964,1531,1531,1611,1609,0,0,0,0,0,0,0,0,0,0
1684083304.50035596,69328924,1528,1531,1613,1612,0,0,0,0,0,0,0,0,0,0
1684083304.60031605,69428884,1530,1532,1611,1610,0,0,0,0,0,0,0,0,0,0
1684083304.70027614,69528844,1535,1538,1608,1607,0,0,0,0,0,0,0,0,0,0
1684083304.80023599,69628804,1543,1544,1601,1601,0,0,0,0,0,0,0,0,0,0
1684083304.90019608,69728764,1550,1551,1592,1593,0,0,0,0,0,0,0,0,0,0
1684083305.00015593,69828724,1560,1560,1586,1586,0,0,0,0,0,0,0,0,0,0
1684083305.10011601,69928684,1568,1568,1579,1578,0,0,0,0,0,0,0,0,0,0
1684083305.20007610,70028644,1576,1575,1574,1572,0,0,0,0,0,0,0,0,0,0
1684083305.30003595,70128604,1583,1581,1568,1568,0,0,0,0,0,0,0,0,0,0
1684083305.39999604,70228564,1586,1584,1566,1566,0,0,0,0,0,0,0,0,0,0
1684083305.49995613,70328524,1588,1587,1565,1565,0,0,0,0,0,0,0,0,0,0
1684083305.59991598,70428484,1589,1588,1567,1568,0,0,0,0,0,0,0,0,0,0
1684083305.69987607,70528444,1588,1587,1569,1569,0,0,0,0,0,0,0,0,0,0
1684083305.79983592,70628404,1586,1586,1570,1571,0,0,0,0,0,0,0,0,0,0
1684083305.89979601,70728364,1584,1584,1571,1572,0,0,0,0,0,0,0,0,0,0
1684083305.99975610,70828324,1582,1582,1574,1574,0,0,0,0,0,0,0,0,0,0
1684083306.09971595,70928284,1581,1581,1577,1576,0,0,0,0,0,0,0,0,0,0
1684083306.19967604,71028244,1579,1579,1578,1578,0,0,0,0,0,0,0,0,0,0
1684083306.29963613,71128204,1577,1578,1580,1580,0,0,0,0,0,0,0,0,0,0
1684083306.39959598,71228164,1576,1576,1581,1582,0,0,0,0,0,0,0,0,0,0
1684083306.50038910,71328957,1574,1575,1582,1582,0,0,0,0,0,0,0,0,0,0
1684083306.60034895,71428917,1574,1575,1583,1583,0,0,0,0,0,0,0,0,0,0
1684083306.70030904,71528877,1574,1575,1583,1583,0,0,0,0,0,0,0,0,0,0
1684083306.80026913,71628837,1575,1575,1584,1583,0,0,0,0,0,0,0,0,0,0
1684083306.90022898,71728797,1576,1576,1583,1583,0,0,0,0,0,0,0,0,0,0
1684083307.00018907,71828757,1577,1577,1583,1582,0,0,0,0,0,0,0,0,0,0
1684083307.10014892,71928717,1577,1578,1581,1581,0,0,0,0,0,0,0,0,0,0
1684083307.20010900,72028677,1579,1579,1580,1580,0,0,0,0,0,0,0,0,0,0
1684083307.30006909,72128637,1579,1579,1578,1578,0,0,0,0,0,0,0,0,0,0
1684083307.40002894,72228597,1580,1580,1578,1578,0,0,0,0,0,0,0,0,0,0
1684083307.49998903,72328557,1581,1581,1578,1578,0,0,0,0,0,0,0,0,0,0
1684083307.59994912,72428517,1581,1581,1577,1577,0,0,0,0,0,0,0,0,0,0
1684083307.69990897,72528477,1582,1582,1578,1579,0,0,0,0,0,0,0,0,0,0
1684083307.79986906,72628437,1582,1582,1578,1578,0,0,0,0,0,0,0,0,0,0
1684083307.89982891,72728397,1582,1583,1579,1579,0,0,0,0,0,0,0,0,0,0
1684083307.99978900,72828357,1581,1581,1579,1578,0,0,0,0,0,0,0,0,0,0
1684083308.09974909,72928317,1582,1582,1580,1580,0,0,0,0,0,0,0,0,0,0
1684083308.19970894,73028277,1581,1581,1580,1580,0,0,0,0,0,0,0,0,0,0
1684083308.29966903,73128237,1581,1581,1581,1581,0,0,0,0,0,0,0,0,0,0
1684083308.39962912,73228197,1580,1580,1581,1581,0,0,0,0,0,0,0,0,0,0
1684083308.49958897,73328157,1580,1580,1581,1581,0,0,0,0,0,0,0,0,0,0
1684083308.60038209,73428950,1580,1580,1581,1581,0,0,0,0,0,0,0,0,0,0
1684083308.70034194,73528910,1580,1580,1581,1582,0,0,0,0,0,0,0,0,0,0
1684083308.80030203,73628870,1580,1580,1581,1581,0,0,0,0,0,0,0,0,0,0
1684083308.90026212,73728830,1580,1580,1581,1581,0,0,0,0,0,0,0,0,0,0
1684083309.00022197,73828790,1580,1580,1581,1580,0,0,0,0,0,0,0,0,0,0
1684083309.10018206,73928750,1581,1581,1581,1581,0,0,0,0,0,0,0,0,0,0
1684083309.20014191,74028710,1581,1581,1580,1581,0,0,0,0,0,0,0,0,0,0
1684083309.30010200,74128670,1580,1580,1580,1580,0,0,0,0,0,0,0,0,0,0
1684083309.40006208,74228630,1581,1581,1580,1581,0,0,0,0,0,0,0,0,0,0
1684083309.50002193,74328590,1582,1582,1583,1579,0,0,0,0,0,0,0,0,0,0
1684083309.59998202,74428550,1581,1582,1588,1572,0,0,0,0,0,0,0,0,0,0
1684083309.69994211,74528510,1580,1581,1582,1572,0,0,0,0,0,0,0,0,0,0
1684083309.79990196,74628470,1579,1581,1573,1572,0,0,0,0,0,0,0,0,0,0
1684083309.89986205,74728430,1577,1579,1564,1570,0,0,0,0,0,0,0,0,0,0
1684083309.99982190,74828390,1577,1579,1559,1566,0,0,0,0,0,0,0,0,0,0
1684083310.09978199,74928350,1578,1579,1556,1562,0,0,0,0,0,0,0,0,0,0
1684083310.19974208,75028310,1578,1578,1555,1557,0,0,0,0,0,0,0,0,0,0
1684083310.29970193,75128270,1579,1579,1556,1556,0,0,0,0,0,0,0,0,0,0
1684083310.39966202,75228230,1579,1578,1556,1554,0,0,0,0,0,0,0,0,0,0
1684083310.49962211,75328190,1578,1577,1555,1553,0,0,0,0,0,0,0,0,0,0
1684083310.60041499,75428983,1577,1577,1556,1554,0,0,0,0,0,0,0,0,0,0
1684083310.70037508,75528943,1575,1577,1555,1554,0,0,0,0,0,0,0,0,0,0
1684083310.80033493,75628903,1575,1576,1554,1554,0,0,0,0,0,0,0,0,0,0
1684083310.90029502,75728863,1575,1577,1553,1554,0,0,0,0,0,0,0,0,0,0
1684083311.00025511,75828823,1575,1576,1551,1551,0,0,0,0,0,0,0,0,0,0
1684083311.10021496,75928783,1576,1577,1550,1550,0,0,0,0,0,0,0,0,0,0
1684083311.20017505,76028743,1577,1578,1547,1547,0,0,0,0,0,0,0,0,0,0
1684083311.30013514,76128703,1580,1581,1547,1546,0,0,0,0,0,0,0,0,0,0
1684083311.40009499,76228663,1582,1583,1544,1543,0,0,0,0,0,0,0,0,0,0
1684083311.50005507,76328623,1584,1585,1541,1541,0,0,0,0,0,0,0,0,0,0
1684083311.60001493,76428583,1587,1587,1539,1539,0,0,0,0,0,0,0,0,0,0
1684083311.69997501,76528543,1589,1589,1538,1539,0,0,0,0,0,0,0,0,0,0
1684083311.79993510,76628503,1590,1590,1537,1537,0,0,0,0,0,0,0,0,0,0
1684083311.89989495,76728463,1591,1590,1537,1539,0,0,0,0,0,0,0,0,0,0
1684083311.99985504,76828423,1591,1592,1539,1542,0,0,0,0,0,0,0,0,0,0
1684083312.09981513,76928383,1590,1589,1541,1544,0,0,0,0,0,0,0,0,0,0
1684083312.19977498,77028343,1588,1587,1546,1549,0,0,0,0,0,0,0,0,0,0
1684083312.29973507,77128303,1583,1581,1552,1555,0,0,0,0,0,0,0,0,0,0
1684083312.39969492,77228263,1578,1575,1563,1565,0,0,0,0,0,0,0,0,0,0
1684083312.49965501,77328223,1570,1565,1573,1575,0,0,0,0,0,0,0,0,0,0
1684083312.59961510,77428183,1560,1556,1584,1585,0,0,0,0,0,0,0,0,0,0
1684083312.70040798,77528976,1550,1547,1594,1595,0,0,0,0,0,0,0,0,0,0
1684083312.80036807,77628936,1542,1540,1603,1603,0,0,0,0,0,0,0,0,0,0
1684083312.90032792,77728896,1534,1535,1608,1607,0,0,0,0,0,0,0,0,0,0
1684083313.00028801,77828856,1532,1533,1611,1611,0,0,0,0,0,0,0,0,0,0
1684083313.10024810,77928816,1668,1670,1589,1585,0,0,0,0,0,0,0,0,0,0
1684083313.20020795,78028776,1628,1627,1571,1568,0,0,0,0,0,0,0,0,0,0
1684083313.30016804,78128736,1596,1594,1572,1573,0,0,0,0,0,0,0,0,0,0
1684083313.40012813,78228696,1571,1569,1578,1580,0,0,0,0,0,0,0,0,0,0
1684083313.50008798,78328656,1552,1550,1582,1583,0,0,0,0,0,0,0,0,0,0
1684083313.60004807,78428616,1540,1540,1585,1585,0,0,0,0,0,0,0,0,0,0
1684083313.70000792,78528576,1535,1537,1588,1587,0,0,0,0,0,0,0,0,0,0
1684083313.79996800,78628536,1534,1536,1589,1587,0,0,0,0,0,0,0,0,0,0
1684083313.89992809,78728496,1536,1538,1588,1587,0,0,0,0,0,0,0,0,0,0
1684083313.99988794,78828456,1540,1543,1587,1587,0,0,0,0,0,0,0,0,0,0
1684083314.09984803,78928416,1546,1548,1586,1586,0,0,0,0,0,0,0,0,0,0
1684083314.19980812,79028376,1551,1553,1585,1585,0,0,0,0,0,0,0,0,0,0
1684083314.29976797,79128336,1556,1556,1582,1583,0,0,0,0,0,0,0,0,0,0
1684083314.39972806,79228296,1562,1561,1581,1582,0,0,0,0,0,0,0,0,0,0
1684083314.49968791,79328256,1566,1565,1580,1580,0,0,0,0,0,0,0,0,0,0
1684083314.59964800,79428216,1571,1571,1580,1580,0,0,0,0,0,0,0,0,0,0
1684083314.69960809,79528176,1575,1574,1579,1579,0,0,0,0,0,0,0,0,0,0
1684083314.80040097,79628969,1577,1576,1578,1578,0,0,0,0,0,0,0,0,0,0
1684083314.90036106,79728929,1579,1579,1578,1577,0,0,0,0,0,0,0,0,0,0
1684083315.00032091,79828889,1582,1581,1578,1577,0,0,0,0,0,0,0,0,0,0
1684083315.10028100,79928849,1583,1582,1577,1577,0,0,0,0,0,0,0,0,0,0
1684083315.20024109,80028809,1585,1584,1578,1578,0,0,0,0,0,0,0,0,0,0
1684083315.30020094,80128769,1585,1585,1578,1578,0,0,0,0,0,0,0,0,0,0
1684083315.40016103,80228729,1585,1584,1578,1578,0,0,0,0,0,0,0,0,0,0
1684083315.50012112,80328689,1584,1583,1577,1577,0,0,0,0,0,0,0,0,0,0
1684083315.60008097,80428649,1583,1582,1577,1578,0,0,0,0,0,0,0,0,0,0
1684083315.70004106,80528609,1583,1582,1579,1579,0,0,0,0,0,0,0,0,0,0
1684083315.80000091,80628569,1582,1582,1579,1579,0,0,0,0,0,0,0,0,0,0
1684083315.89996099,80728529,1581,1581,1580,1580,0,0,0,0,0,0,0,0,0,0
1684083315.99992108,80828489,1580,1580,1580,1580,0,0,0,0,0,0,0,0,0,0
1684083316.09988093,80928449,1579,1579,1580,1580,0,0,0,0,0,0,0,0,0,0
1684083316.19984102,81028409,1579,1580,1581,1581,0,0,0,0,0,0,0,0,0,0
1684083316.29980111,81128369,1579,1579,1581,1581,0,0,0,0,0,0,0,0,0,0
1684083316.39976096,81228329,1578,1579,1581,1581,0,0,0,0,0,0,0,0,0,0
1684083316.49972105,81328289,1579,1579,1582,1582,0,0,0,0,0,0,0,0,0,0
1684083316.59968090,81428249,1579,1579,1582,1582,0,0,0,0,0,0,0,0,0,0
1684083316.69964099,81528209,1579,1580,1582,1582,0,0,0,0,0,0,0,0,0,0
1684083316.79960108,81628169,1579,1580,1582,1582,0,0,0,0,0,0,0,0,0,0
1684083316.90039396,81728962,1579,1579,1581,1581,0,0,0,0,0,0,0,0,0,0
1684083317.00035405,81828922,1580,1579,1581,1581,0,0,0,0,0,0,0,0,0,0
1684083317.10031390,81928882,1580,1580,1581,1581,0,0,0,0,0,0,0,0,0,0
1684083317.20027399,82028842,1580,1580,1580,1580,0,0,0,0,0,0,0,0,0,0
1684083317.30023408,82128802,1580,1581,1581,1581,0,0,0,0,0,0,0,0,0,0
1684083317.40019393,82228762,1581,1581,1581,1581,0,0,0,0,0,0,0,0,0,0
1684083317.50015402,82328722,1580,1580,1580,1580,0,0,0,0,0,0,0,0,0,0
1684083317.60011411,82428682,1581,1582,1585,1574,0,0,0,0,0,0,0,0,0,0
1684083317.70007396,82528642,1581,1584,1586,1572,0,0,0,0,0,0,0,0,0,0
1684083317.80003405,82628602,1578,1581,1579,1574,0,0,0,0,0,0,0,0,0,0
1684083317.89999413,82728562,1576,1577,1572,1575,0,0,0,0,0,0,0,0,0,0
1684083317.99995399,82828522,1573,1573,1567,1574,0,0,0,0,0,0,0,0,0,0
1684083318.09991407,82928482,1572,1570,1565,1572,0,0,0,0,0,0,0,0,0,0
1684083318.19987392,83028442,1570,1568,1565,1570,0,0,0,0,0,0,0,0,0,0
1684083318.29983401,83128402,1569,1567,1566,1568,0,0,0,0,0,0,0,0,0,0
1684083318.39979410,83228362,1567,1566,1567,1566,0,0,0,0,0,0,0,0,0,0
1684083318.49975395,83328322,1566,1566,1568,1565,0,0,0,0,0,0,0,0,0,0
1684083318.59971404,83428282,1565,1566,1567,1564,0,0,0,0,0,0,0,0,0,0
1684083318.69967413,83528242,1564,1565,1567,1565,0,0,0,0,0,0,0,0,0,0
1684083318.79963398,83628202,1564,1564,1565,1565,0,0,0,0,0,0,0,0,0,0
1684083318.89959407,83728162,1563,1563,1565,1564,0,0,0,0,0,0,0,0,0,0
1684083319.00038695,83828955,1562,1562,1563,1563,0,0,0,0,0,0,0,0,0,0
1684083319.10034704,83928915,1562,1562,1563,1564,0,0,0,0,0,0,0,0,0,0
1684083319.20030713,84028875,1562,1562,1562,1562,0,0,0,0,0,0,0,0,0,0
1684083319.30026698,84128835,1562,1561,1562,1562,0,0,0,0,0,0,0,0,0,0
1684083319.40022707,84228795,1561,1560,1561,1561,0,0,0,0,0,0,0,0,0,0
1684083319.50018692,84328755,1560,1560,1560,1560,0,0,0,0,0,0,0,0,0,0
1684083319.60014701,84428715,1559,1559,1560,1559,0,0,0,0,0,0,0,0,0,0
1684083319.70010710,84528675,1558,1558,1558,1557,0,0,0,0,0,0,0,0,0,0
1684083319.80006695,84628635,1557,1558,1558,1557,0,0,0,0,0,0,0,0,0,0
1684083319.90002704,84728595,1557,1557,1557,1557,0,0,0,0,0,0,0,0,0,0
1684083319.99998713,84828555,1558,1558,1558,1557,0,0,0,0,0,0,0,0,0,0
1684083320.09994698,84928515,1558,1558,1558,1557,0,0,0,0,0,0,0,0,0,0
1684083320.19990706,85028475,1557,1558,1558,1556,0,0,0,0,0,0,0,0,0,0
1684083320.29986691,85128435,1558,1558,1559,1556,0,0,0,0,0,0,0,0,0,0
1684083320.39982700,85228395,1558,1559,1559,1558,0,0,0,0,0,0,0,0,0,0
1684083320.49978709,85328355,1559,1559,1558,1560,0,0,0,0,0,0,0,0,0,0
1684083320.59974694,85428315,1560,1559,1557,1562,0,0,0,0,0,0,0,0,0,0
1684083320.69970703,85528275,1561,1561,1558,1564,0,0,0,0,0,0,0,0,0,0
1684083320.79966712,85628235,1562,1561,1559,1563,0,0,0,0,0,0,0,0,0,0
1684083320.89962697,85728195,1563,1562,1561,1564,0,0,0,0,0,0,0,0,0,0
1684083320.99958706,85828155,1562,1561,1563,1561,0,0,0,0,0,0,0,0,0,0
1684083321.10037994,85928948,1561,1560,1561,1561,0,0,0,0,0,0,0,0,0,0
1684083321.20034003,86028908,1558,1558,1558,1559,0,0,0,0,0,0,0,0,0,0
1684083321.30030012,86128868,1554,1554,1554,1555,0,0,0,0,0,0,0,0,0,0
1684083321.40025997,86228828,1548,1548,1548,1549,0,0,0,0,0,0,0,0,0,0
1684083321.50022006,86328788,1543,1543,1543,1544,0,0,0,0,0,0,0,0,0,0
1684083321.60017991,86428748,1537,1537,1537,1537,0,0,0,0,0,0,0,0,0,0
1684083321.70014000,86528708,1528,1529,1529,1529,0,0,0,0,0,0,0,0,0,0
1684083321.80010009,86628668,1522,1522,1522,1523,0,0,0,0,0,0,0,0,0,0
1684083321.90005994,86728628,1520,1520,1520,1520,0,0,0,0,0,0,0,0,0,0
1684083322.00002003,86828588,1520,1520,1520,1520,0,0,0,0,0,0,0,0,0,0
1684083322.09998012,86928548,1521,1521,1521,1521,0,0,0,0,0,0,0,0,0,0
1684083322.19993997,87028508,1523,1524,1524,1524,0,0,0,0,0,0,0,0,0,0
1684083322.29990005,87128468,1527,1527,1528,1527,0,0,0,0,0,0,0,0,0,0
1684083322.39985991,87228428,1531,1531,1531,1531,0,0,0,0,0,0,0,0,0,0
1684083322.49981999,87328388,1536,1536,1536,1537,0,0,0,0,0,0,0,0,0,0
1684083322.59978008,87428348,1539,1539,1539,1539,0,0,0,0,0,0,0,0,0,0
1684083322.69973993,87528308,1541,1541,1541,1541,0,0,0,0,0,0,0,0,0,0
1684083322.79970002,87628268,1542,1543,1542,1542,0,0,0,0,0,0,0,0,0,0
1684083322.89966011,87728228,1544,1544,1544,1544,0,0,0,0,0,0,0,0,0,0
1684083322.99961996,87828188,1545,1546,1546,1546,0,0,0,0,0,0,0,0,0,0
1684083323.10041308,87928981,1546,1547,1546,1546,0,0,0,0,0,0,0,0,0,0
1684083323.20037293,88028941,1546,1546,1546,1545,0,0,0,0,0,0,0,0,0,0
1684083323.30033302,88128901,1547,1546,1547,1546,0,0,0,0,0,0,0,0,0,0
1684083323.40029311,88228861,1546,1546,1546,1547,0,0,0,0,0,0,0,0,0,0
1684083323.50025296,88328821,1547,1547,1547,1547,0,0,0,0,0,0,0,0,0,0
1684083323.60021305,88428781,1546,1546,1546,1545,0,0,0,0,0,0,0,0,0,0
1684083323.70017290,88528741,1546,1546,1546,1546,0,0,0,0,0,0,0,0,0,0
1684083323.80013299,88628701,1545,1545,1545,1545,0,0,0,0,0,0,0,0,0,0
1684083323.90009308,88728661,1546,1546,1546,1546,0,0,0,0,0,0,0,0,0,0
1684083324.00005293,88828621,1545,1545,1545,1545,0,0,0,0,0,0,0,0,0,0
1684083324.10001302,88928581,1544,1545,1545,1545,0,0,0,0,0,0,0,0,0,0
1684083324.19997311,89028541,1544,1545,1545,1544,0,0,0,0,0,0,0,0,0,0
1684083324.29993296,89128501,1545,1544,1545,1544,0,0,0,0,0,0,0,0,0,0
1684083324.39989305,89228461,1545,1544,1544,1544,0,0,0,0,0,0,0,0,0,0
1684083324.49985313,89328421,1544,1544,1544,1545,0,0,0,0,0,0,0,0,0,0
1684083324.59981298,89428381,1544,1544,1544,1544,0,0,0,0,0,0,0,0,0,0
1684083324.69977307,89528341,1544,1545,1544,1544,0,0,0,0,0,0,0,0,0,0
1684083324.79973292,89628301,1544,1544,1544,1544,0,0,0,0,0,0,0,0,0,0
1684083324.89969301,89728261,1544,1544,1544,1544,0,0,0,0,0,0,0,0,0,0
1684083324.99965310,89828221,1543,1544,1544,1543,0,0,0,0,0,0,0,0,0,0
1684083325.09961295,89928181,1544,1544,1544,1544,0,0,0,0,0,0,0,0,0,0
1684083325.20040607,90028974,1544,1544,1544,1544,0,0,0,0,0,0,0,0,0,0
1684083325.30036592,90128934,1545,1544,1545,1545,0,0,0,0,0,0,0,0,0,0
1684083325.40032601,90228894,1544,1544,1545,1545,0,0,0,0,0,0,0,0,0,0
1684083325.50028610,90328854,1544,1543,1543,1544,0,0,0,0,0,0,0,0,0,0
1684083325.60024595,90428814,1544,1544,1544,1544,0,0,0,0,0,0,0,0,0,0
1684083325.70020604,90528774,1543,1543,1543,1543,0,0,0,0,0,0,0,0,0,0
1684083325.80016613,90628734,1544,1544,1544,1544,0,0,0,0,0,0,0,0,0,0
1684083325.90012598,90728694,1544,1544,1544,1544,0,0,0,0,0,0,0,0,0,0
1684083326.00008607,90828654,1543,1543,1543,1544,0,0,0,0,0,0,0,0,0,0
1684083326.10004592,90928614,1545,1544,1544,1545,0,0,0,0,0,0,0,0,0,0
1684083326.20000601,91028574,1545,1545,1545,1545,0,0,0,0,0,0,0,0,0,0
1684083326.29996610,91128534,1544,1544,1544,1544,0,0,0,0,0,0,0,0,0,0
1684083326.39992595,91228494,1543,1544,1544,1544,0,0,0,0,0,0,0,0,0,0
1684083326.49988604,91328454,1544,1544,1544,1544,0,0,0,0,0,0,0,0,0,0
1684083326.59984612,91428414,1544,1544,1545,1544,0,0,0,0,0,0,0,0,0,0
1684083326.69980597,91528374,1545,1544,1544,1544,0,0,0,0,0,0,0,0,0,0
1684083326.79976606,91628334,1545,1544,1545,1545,0,0,0,0,0,0,0,0,0,0
1684083326.89972591,91728294,1545,1545,1545,1545,0,0,0,0,0,0,0,0,0,0
1684083326.99968600,91828254,1545,1546,1546,1546,0,0,0,0,0,0,0,0,0,0
1684083327.09964609,91928214,1544,1544,1544,1544,0,0,0,0,0,0,0,0,0,0
1684083327.19960594,92028174,1543,1543,1543,1543,0,0,0,0,0,0,0,0,0,0
1684083327.30039907,92128967,1544,1544,1544,1544,0,0,0,0,0,0,0,0,0,0
1684083327.40035892,92228927,1545,1544,1545,1544,0,0,0,0,0,0,0,0,0,0
1684083327.50031900,92328887,1545,1544,1545,1544,0,0,0,0,0,0,0,0,0,0
1684083327.60027909,92428847,1544,1544,1544,1544,0,0,0,0,0,0,0,0,0,0
1684083327.70023894,92528807,1544,1545,1544,1545,0,0,0,0,0,0,0,0,0,0
1684083327.80019903,92628767,1544,1544,1544,1544,0,0,0,0,0,0,0,0,0,0
1684083327.90015912,92728727,1544,1544,1544,1544,0,0,0,0,0,0,0,0,0,0
1684083328.00011897,92828687,1545,1545,1545,1545,0,0,0,0,0,0,0,0,0,0
1684083328.10007906,92928647,1544,1544,1545,1544,0,0,0,0,0,0,0,0,0,0
1684083328.20003891,93028607,1544,1544,1544,1544,0,0,0,0,0,0,0,0,0,0
1684083328.29999900,93128567,1544,1544,1544,1544,0,0,0,0,0,0,0,0,0,0
1684083328.39995909,93228527,1545,1545,1545,1545,0,0,0,0,0,0,0,0,0,0
1684083328.49991894,93328487,1544,1544,1544,1545,0,0,0,0,0,0,0,0,0,0
1684083328.59987903,93428447,1543,1544,1544,1544,0,0,0,0,0,0,0,0,0,0
1684083328.69983912,93528407,1544,1544,1544,1544,0,0,0,0,0,0,0,0,0,0
1684083328.79979897,93628367,1543,1544,1544,1544,0,0,0,0,0,0,0,0,0,0
1684083328.89975905,93728327,1544,1544,1544,1545,0,0,0,0,0,0,0,0,0,0
1684083328.99971890,93828287,1544,1544,1544,1544,0,0,0,0,0,0,0,0,0,0
1684083329.09967899,93928247,1545,1544,1544,1544,0,0,0,0,0,0,0,0,0,0
1684083329.19963908,94028207,1544,1544,1544,1544,0,0,0,0,0,0,0,0,0,0
1684083329.29959893,94128167,1544,1544,1544,1544,0,0,0,0,0,0,0,0,0,0
1684083329.40039206,94228960,1544,1544,1544,1544,0,0,0,0,0,0,0,0,0,0
1684083329.50035191,94328920,1544,1544,1544,1544,0,0,0,0,0,0,0,0,0,0
1684083329.60031199,94428880,1544,1544,1544,1544,0,0,0,0,0,0,0,0,0,0
1684083329.70027208,94528840,1543,1543,1543,1544,0,0,0,0,0,0,0,0,0,0
1684083329.80023193,94628800,1544,1544,1544,1544,0,0,0,0,0,0,0,0,0,0
1684083329.90019202,94728760,1543,1543,1544,1543,0,0,0,0,0,0,0,0,0,0
1684083330.00015211,94828720,1543,1544,1544,1544,0,0,0,0,0,0,0,0,0,0
1684083330.10011196,94928680,1544,1543,1544,1544,0,0,0,0,0,0,0,0,0,0
1684083330.20007205,95028640,1543,1543,1543,1543,0,0,0,0,0,0,0,0,0,0
1684083330.30003190,95128600,1543,1543,1543,1543,0,0,0,0,0,0,0,0,0,0
1684083330.39999199,95228560,1544,1543,1544,1543,0,0,0,0,0,0,0,0,0,0
1684083330.49995208,95328520,1544,1545,1545,1544,0,0,0,0,0,0,0,0,0,0
1684083330.59991193,95428480,1544,1544,1544,1544,0,0,0,0,0,0,0,0,0,0
1684083330.69987202,95528440,1543,1543,1543,1544,0,0,0,0,0,0,0,0,0,0
1684083330.79983211,95628400,1544,1544,1544,1544,0,0,0,0,0,0,0,0,0,0
1684083330.89979196,95728360,1545,1545,1544,1545,0,0,0,0,0,0,0,0,0,0
1684083330.99975204,95828320,1545,1545,1545,1545,0,0,0,0,0,0,0,0,0,0
1684083331.09971213,95928280,1545,1544,1545,1544,0,0,0,0,0,0,0,0,0,0
1684083331.19967198,96028240,1545,1545,1545,1545,0,0,0,0,0,0,0,0,0,0
1684083331.29963207,96128200,1544,1544,1544,1544,0,0,0,0,0,0,0,0,0,0
1684083331.39959192,96228160,1544,1544,1545,1544,0,0,0,0,0,0,0,0,0,0
1684083331.50038505,96328953,1545,1545,1545,1545,0,0,0,0,0,0,0,0,0,0
1684083331.60034513,96428913,1442,1440,1442,1441,0,0,0,0,0,0,0,0,0,0
1684083331.70030499,96528873,1288,1286,1288,1288,0,0,0,0,0,0,0,0,0,0
1684083331.80026507,96628833,1226,1223,1227,1226,0,0,0,0,0,0,0,0,0,0
1684083331.90022492,96728793,1206,1202,1207,1207,0,0,0,0,0,0,0,0,0,0
1684083332.00018501,96828753,1176,1172,1177,1177,0,0,0,0,0,0,0,0,0,0
1684083332.10014510,96928713,1155,1150,1155,1156,0,0,0,0,0,0,0,0,0,0
1684083332.20010495,97028673,1154,1150,1156,1156,0,0,0,0,0,0,0,0,0,0
1684083332.30006504,97128633,1179,1150,1154,1183,0,0,0,0,0,0,0,0,0,0
1684083332.40002513,97228593,1176,1150,1157,1179,0,0,0,0,0,0,0,0,0,0
1684083332.49998498,97328553,1172,1150,1158,1175,0,0,0,0,0,0,0,0,0,0
1684083332.59994507,97428513,1172,1150,1158,1175,0,0,0,0,0,0,0,0,0,0
1684083332.69990492,97528473,1174,1150,1159,1177,0,0,0,0,0,0,0,0,0,0
1684083332.79986501,97628433,1176,1150,1160,1179,0,0,0,0,0,0,0,0,0,0
1684083332.89982510,97728393,1179,1150,1160,1182,0,0,0,0,0,0,0,0,0,0
1684083332.99978495,97828353,1180,1150,1161,1184,0,0,0,0,0,0,0,0,0,0
1684083333.09974504,97928313,1164,1150,1160,1170,0,0,0,0,0,0,0,0,0,0
1684083333.19970512,98028273,1167,1150,1161,1173,0,0,0,0,0,0,0,0,0,0
1684083333.29966497,98128233,1168,1150,1161,1174,0,0,0,0,0,0,0,0,0,0
1684083333.39962506,98228193,1169,1150,1162,1175,0,0,0,0,0,0,0,0,0,0
1684083333.50041795,98328986,1169,1150,1162,1176,0,0,0,0,0,0,0,0,0,0
1684083333.60037804,98428946,1000,1000,1000,1000,0,0,0,0,0,0,0,0,0,0
1684083333.70033813,98528906,1000,1000,1000,1000,0,0,0,0,0,0,0,0,0,0
1684083333.80029798,98628866,1000,1000,1000,1000,0,0,0,0,0,0,0,0,0,0
1684083333.90025806,98728826,1000,1000,1000,1000,0,0,0,0,0,0,0,0,0,0
1684083334.00021791,98828786,1000,1000,1000,1000,0,0,0,0,0,0,0,0,0,0
1684083334.10017800,98928746,1000,1000,1000,1000,0,0,0,0,0,0,0,0,0,0
1684083334.20013809,99028706,1000,1000,1000,1000,0,0,0,0,0,0,0,0,0,0
1684083334.30009794,99128666,1000,1000,1000,1000,0,0,0,0,0,0,0,0,0,0
1684083334.40005803,99228626,1000,1000,1000,1000,0,0,0,0,0,0,0,0,0,0
1684083334.50001812,99328586,1000,1000,1000,1000,0,0,0,0,0,0,0,0,0,0
1684083334.59997797,99428546,1000,1000,1000,1000,0,0,0,0,0,0,0,0,0,0
1684083334.69993806,99528506,1000,1000,1000,1000,0,0,0,0,0,0,0,0,0,0
1684083334.79989791,99628466,1000,1000,1000,1000,0,0,0,0,0,0,0,0,0,0
1684083334.89985800,99728426,1000,1000,1000,1000,0,0,0,0,0,0,0,0,0,0
1684083334.99981809,99828386,1000,1000,1000,1000,0,0,0,0,0,0,0,0,0,0
1684083335.09977794,99928346,1000,1000,1000,1000,0,0,0,0,0,0,0,0,0,0
1684083335.19973803,100028306,1000,1000,1000,1000,0,0,0,0,0,0,0,0,0,0
1684083335.29969811,100128266,1000,1000,1000,1000,0,0,0,0,0,0,0,0,0,0
1684083335.39965796,100228226,1000,1000,1000,1000,0,0,0,0,0,0,0,0,0,0
1684083335.49961805,100328186,1000,1000,1000,1000,0,0,0,0,0,0,0,0,0,0
1684083335.60041094,100428979,1000,1000,1000,1000,0,0,0,0,0,0,0,0,0,0
1684083335.70037103,100528939,1000,1000,1000,1000,0,0,0,0,0,0,0,0,0,0
1684083335.80033112,100628899,1000,1000,1000,1000,0,0,0,0,0,0,0,0,0,0
1684083335.90029097,100728859,1000,1000,1000,1000,0,0,0,0,0,0,0,0,0,0
1684083336.00025105,100828819,1000,1000,1000,1000,0,0,0,0,0,0,0,0,0,0
1684083336.10021091,100928779,1000,1000,1000,1000,0,0,0,0,0,0,0,0,0,0
1684083336.20017099,101028739,1000,1000,1000,1000,0,0,0,0,0,0,0,0,0,0
1684083336.30013108,101128699,1000,1000,1000,1000,0,0,0,0,0,0,0,0,0,0
1684083336.40009093,101228659,1000,1000,1000,1000,0,0,0,0,0,0,0,0,0,0
1684083336.50005102,101328619,1000,1000,1000,1000,0,0,0,0,0,0,0,0,0,0
1684083336.60001111,101428579,1000,1000,1000,1000,0,0,0,0,0,0,0,0,0,0
1684083336.69997096,101528539,1000,1000,1000,1000,0,0,0,0,0,0,0,0,0,0
1684083336.79993105,101628499,1000,1000,1000,1000,0,0,0,0,0,0,0,0,0,0
1684083336.89989090,101728459,1000,1000,1000,1000,0,0,0,0,0,0,0,0,0,0
1684083336.99985099,101828419,1000,1000,1000,1000,0,0,0,0,0,0,0,0,0,0
1684083337.09981108,101928379,1000,1000,1000,1000,0,0,0,0,0,0,0,0,0,0
1684083337.19977093,102028339,1000,1000,1000,1000,0,0,0,0,0,0,0,0,0,0
1684083337.29973102,102128299,1000,1000,1000,1000,0,0,0,0,0,0,0,0,0,0
1684083337.39969110,102228259,1000,1000,1000,1000,0,0,0,0,0,0,0,0,0,0
1684083337.49965096,102328219,1000,1000,1000,1000,0,0,0,0,0,0,0,0,0,0
1684083337.59961104,102428179,1000,1000,1000,1000,0,0,0,0,0,0,0,0,0,0
1684083337.70040393,102528972,1000,1000,1000,1000,0,0,0,0,0,0,0,0,0,0
1684083337.80036402,102628932,1000,1000,1000,1000,0,0,0,0,0,0,0,0,0,0
1684083337.90032411,102728892,1000,1000,1000,1000,0,0,0,0,0,0,0,0,0,0
1684083338.00028396,102828852,1000,1000,1000,1000,0,0,0,0,0,0,0,0,0,0
1684083338.10024405,102928812,1000,1000,1000,1000,0,0,0,0,0,0,0,0,0,0
1684083338.20020413,103028772,1000,1000,1000,1000,0,0,0,0,0,0,0,0,0,0
1684083338.30016398,103128732,1000,1000,1000,1000,0,0,0,0,0,0,0,0,0,0
1684083338.40012407,103228692,1000,1000,1000,1000,0,0,0,0,0,0,0,0,0,0
1684083338.50008392,103328652,1000,1000,1000,1000,0,0,0,0,0,0,0,0,0,0
1684083338.60004401,103428612,1000,1000,1000,1000,0,0,0,0,0,0,0,0,0,0
1684083338.70000410,103528572,1000,1000,1000,1000,0,0,0,0,0,0,0,0,0,0
1684083338.79996395,103628532,1000,1000,1000,1000,0,0,0,0,0,0,0,0,0,0
1684083338.89992404,103728492,1000,1000,1000,1000,0,0,0,0,0,0,0,0,0,0
1684083338.99988413,103828452,1000,1000,1000,1000,0,0,0,0,0,0,0,0,0,0
1684083339.09984398,103928412,1000,1000,1000,1000,0,0,0,0,0,0,0,0,0,0
1684083339.19980407,104028372,1000,1000,1000,1000,0,0,0,0,0,0,0,0,0,0
1684083339.29976392,104128332,1000,1000,1000,1000,0,0,0,0,0,0,0,0,0,0
1684083339.39972401,104228292,1000,1000,1000,1000,0,0,0,0,0,0,0,0,0,0
1684083339.49968410,104328252,1000,1000,1000,1000,0,0,0,0,0,0,0,0,0,0
1684083339.59964395,104428212,1000,1000,1000,1000,0,0,0,0,0,0,0,0,0,0
1684083339.69960403,104528172,1000,1000,1000,1000,0,0,0,0,0,0,0,0,0,0
1684083339.80039692,104628965,1000,1000,1000,1000,0,0,0,0,0,0,0,0,0,0
1684083339.90035701,104728925,1000,1000,1000,1000,0,0,0,0,0,0,0,0,0,0
1684083340.00031710,104828885,1000,1000,1000,1000,0,0,0,0,0,0,0,0,0,0
1684083340.10027695,104928845,1000,1000,1000,1000,0,0,0,0,0,0,0,0,0,0
1684083340.20023704,105028805,1000,1000,1000,1000,0,0,0,0,0,0,0,0,0,0
1684083340.30019712,105128765,1000,1000,1000,1000,0,0,0,0,0,0,0,0,0,0
1684083340.40015697,105228725,1000,1000,1000,1000,0,0,0,0,0,0,0,0,0,0
1684083340.50011706,105328685,1000,1000,1000,1000,0,0,0,0,0,0,0,0,0,0
1684083340.60007691,105428645,1000,1000,1000,1000,0,0,0,0,0,0,0,0,0,0
1684083340.70003700,105528605,1000,1000,1000,1000,0,0,0,0,0,0,0,0,0,0
1684083340.79999709,105628565,1000,1000,1000,1000,0,0,0,0,0,0,0,0,0,0
1684083340.89995694,105728525,1000,1000,1000,1000,0,0,0,0,0,0,0,0,0,0
1684083340.99991703,105828485,1000,1000,1000,1000,0,0,0,0,0,0,0,0,0,0
1684083341.09987712,105928445,1000,1000,1000,1000,0,0,0,0,0,0,0,0,0,0
1684083341.19983697,106028405,1000,1000,1000,1000,0,0,0,0,0,0,0,0,0,0
1684083341.29979706,106128365,1000,1000,1000,1000,0,0,0,0,0,0,0,0,0,0
1684083341.39975691,106228325,1000,1000,1000,1000,0,0,0,0,0,0,0,0,0,0
1684083341.49971700,106328285,1000,1000,1000,1000,0,0,0,0,0,0,0,0,0,0
1684083341.59967709,106428245,1000,1000,1000,1000,0,0,0,0,0,0,0,0,0,0
1684083341.69963694,106528205,1000,1000,1000,1000,0,0,0,0,0,0,0,0,0,0
1684083341.79959702,106628165,1000,1000,1000,1000,0,0,0,0,0,0,0,0,0,0
1684083341.90038991,106728958,1000,1000,1000,1000,0,0,0,0,0,0,0,0,0,0
1684083342.00035000,106828918,1000,1000,1000,1000,0,0,0,0,0,0,0,0,0,0
1684083342.10031009,106928878,1000,1000,1000,1000,0,0,0,0,0,0,0,0,0,0
1684083342.20026994,107028838,1000,1000,1000,1000,0,0,0,0,0,0,0,0,0,0
1684083342.30023003,107128798,1000,1000,1000,1000,0,0,0,0,0,0,0,0,0,0
1684083342.40019011,107228758,1000,1000,1000,1000,0,0,0,0,0,0,0,0,0,0
1684083342.50014997,107328718,1000,1000,1000,1000,0,0,0,0,0,0,0,0,0,0
1684083342.60011005,107428678,1000,1000,1000,1000,0,0,0,0,0,0,0,0,0,0
1684083342.70006990,107528638,1000,1000,1000,1000,0,0,0,0,0,0,0,0,0,0
1684083342.80002999,107628598,1000,1000,1000,1000,0,0,0,0,0,0,0,0,0,0
1684083342.89999008,107728558,1000,1000,1000,1000,0,0,0,0,0,0,0,0,0,0
1684083342.99994993,107828518,1000,1000,1000,1000,0,0,0,0,0,0,0,0,0,0
1684083343.09991002,107928478,1000,1000,1000,1000,0,0,0,0,0,0,0,0,0,0
1684083343.19987011,108028438,1000,1000,1000,1000,0,0,0,0,0,0,0,0,0,0
1684083343.29982996,108128398,1000,1000,1000,1000,0,0,0,0,0,0,0,0,0,0
1684083343.39979005,108228358,1000,1000,1000,1000,0,0,0,0,0,0,0,0,0,0
1684083343.49975014,108328318,1000,1000,1000,1000,0,0,0,0,0,0,0,0,0,0
1684083343.59970999,108428278,1000,1000,1000,1000,0,0,0,0,0,0,0,0,0,0
1684083343.69967008,108528238,1000,1000,1000,1000,0,0,0,0,0,0,0,0,0,0
1684083343.79962993,108628198,1000,1000,1000,1000,0,0,0,0,0,0,0,0,0,0
1684083343.89959002,108728158,1000,1000,1000,1000,0,0,0,0,0,0,0,0,0,0
1684083344.00038290,108828951,1000,1000,1000,1000,0,0,0,0,0,0,0,0,0,0
1684083344.10034299,108928911,1000,1000,1000,1000,0,0,0,0,0,0,0,0,0,0
1684083344.20030308,109028871,1000,1000,1000,1000,0,0,0,0,0,0,0,0,0,0
1684083344.30026293,109128831,1000,1000,1000,1000,0,0,0,0,0,0,0,0,0,0
1684083344.40022302,109228791,1000,1000,1000,1000,0,0,0,0,0,0,0,0,0,0
1684083344.50018311,109328751,1000,1000,1000,1000,0,0,0,0,0,0,0,0,0,0
1684083344.60014296,109428711,1000,1000,1000,1000,0,0,0,0,0,0,0,0,0,0
1684083344.70010304,109528671,1000,1000,1000,1000,0,0,0,0,0,0,0,0,0,0
1684083344.80006313,109628631,1000,1000,1000,1000,0,0,0,0,0,0,0,0,0,0
1684083344.90002298,109728591,1000,1000,1000,1000,0,0,0,0,0,0,0,0,0,0
1684083344.99998307,109828551,1000,1000,1000,1000,0,0,0,0,0,0,0,0,0,0
1684083345.09994292,109928511,1000,1000,1000,1000,0,0,0,0,0,0,0,0,0,0
1684083345.19990301,110028471,1000,1000,1000,1000,0,0,0,0,0,0,0,0,0,0
1684083345.29986310,110128431,1000,1000,1000,1000,0,0,0,0,0,0,0,0,0,0
1684083345.39982295,110228391,1000,1000,1000,1000,0,0,0,0,0,0,0,0,0,0
1684083345.49978304,110328351,1000,1000,1000,1000,0,0,0,0,0,0,0,0,0,0
1684083345.59974313,110428311,1000,1000,1000,1000,0,0,0,0,0,0,0,0,0,0
1684083345.69970298,110528271,1000,1000,1000,1000,0,0,0,0,0,0,0,0,0,0
1684083345.79966307,110628231,1000,1000,1000,1000,0,0,0,0,0,0,0,0,0,0
1684083345.89962292,110728191,1000,1000,1000,1000,0,0,0,0,0,0,0,0,0,0
1684083346.00041604,110828984,1000,1000,1000,1000,0,0,0,0,0,0,0,0,0,0
1684083346.10037613,110928944,1000,1000,1000,1000,0,0,0,0,0,0,0,0,0,0
1684083346.20033598,111028904,1000,1000,1000,1000,0,0,0,0,0,0,0,0,0,0
1684083346.30029607,111128864,1000,1000,1000,1000,0,0,0,0,0,0,0,0,0,0
1684083346.40025592,111228824,1000,1000,1000,1000,0,0,0,0,0,0,0,0,0,0
1684083346.50021601,111328784,1000,1000,1000,1000,0,0,0,0,0,0,0,0,0,0
1684083346.60017610,111428744,1000,1000,1000,1000,0,0,0,0,0,0,0,0,0,0
1684083346.70013595,111528704,1000,1000,1000,1000,0,0,0,0,0,0,0,0,0,0
1684083346.80009604,111628664,1000,1000,1000,1000,0,0,0,0,0,0,0,0,0,0
1684083346.90005612,111728624,1000,1000,1000,1000,0,0,0,0,0,0,0,0,0,0
1684083347.00001597,111828584,1000,1000,1000,1000,0,0,0,0,0,0,0,0,0,0
1684083347.09997606,111928544,1000,1000,1000,1000,0,0,0,0,0,0,0,0,0,0
1684083347.19993591,112028504,1000,1000,1000,1000,0,0,0,0,0,0,0,0,0,0
1684083347.29989600,112128464,1000,1000,1000,1000,0,0,0,0,0,0,0,0,0,0
1684083347.39985609,112228424,1000,1000,1000,1000,0,0,0,0,0,0,0,0,0,0
1684083347.49981594,112328384,1000,1000,1000,1000,0,0,0,0,0,0,0,0,0,0
1684083347.59977603,112428344,1000,1000,1000,1000,0,0,0,0,0,0,0,0,0,0
1684083347.69973612,112528304,1000,1000,1000,1000,0,0,0,0,0,0,0,0,0,0
1684083347.79969597,112628264,1000,1000,1000,1000,0,0,0,0,0,0,0,0,0,0
1684083347.89965606,112728224,1000,1000,1000,1000,0,0,0,0,0,0,0,0,0,0
1684083347.99961591,112828184,1000,1000,1000,1000,0,0,0,0,0,0,0,0,0,0
1684083348.10040903,112928977,1000,1000,1000,1000,0,0,0,0,0,0,0,0,0,0
1684083348.20036912,113028937,1000,1000,1000,1000,0,0,0,0,0,0,0,0,0,0
1684083348.30032897,113128897,1000,1000,1000,1000,0,0,0,0,0,0,0,0,0,0
1684083348.40028906,113228857,1000,1000,1000,1000,0,0,0,0,0,0,0,0,0,0
1684083348.50024891,113328817,1000,1000,1000,1000,0,0,0,0,0,0,0,0,0,0
