timestamp,TimeUS,C1,C2,C3,C4,C5,C6,C7,C8,C9,C10,C11,C12,C13,C14
1683104149.40000010,70028644,1000,1000,1000,1000,0,0,0,0,0,0,0,0,0,0
1683104149.49995995,70128604,1000,1000,1000,1000,0,0,0,0,0,0,0,0,0,0
1683104149.59992003,70228564,1000,1000,1000,1000,0,0,0,0,0,0,0,0,0,0
1683104149.69988012,70328524,1000,1000,1000,1000,0,0,0,0,0,0,0,0,0,0
1683104149.79983997,70428484,1000,1000,1000,1000,0,0,0,0,0,0,0,0,0,0
1683104149.89980006,70528444,1000,1000,1000,1000,0,0,0,0,0,0,0,0,0,0
1683104149.99975991,70628404,1000,1000,1000,1000,0,0,0,0,0,0,0,0,0,0
1683104150.09972000,70728364,1000,1000,1000,1000,0,0,0,0,0,0,0,0,0,0
1683104150.19968009,70828324,1000,1000,1000,1000,0,0,0,0,0,0,0,0,0,0
1683104150.29963994,70928284,1000,1000,1000,1000,0,0,0,0,0,0,0,0,0,0
1683104150.39960003,71028244,1000,1000,1000,1000,0,0,0,0,0,0,0,0,0,0
1683104150.49956012,71128204,1000,1000,1000,1000,0,0,0,0,0,0,0,0,0,0
1683104150.59951997,71228164,1000,1000,1000,1000,0,0,0,0,0,0,0,0,0,0
1683104150.70031309,71328957,1000,1000,1000,1000,0,0,0,0,0,0,0,0,0,0
1683104150.80027294,71428917,1000,1000,1000,1000,0,0,0,0,0,0,0,0,0,0
1683104150.90023303,71528877,1000,1000,1000,1000,0,0,0,0,0,0,0,0,0,0
1683104151.00019312,71628837,1000,1000,1000,1000,0,0,0,0,0,0,0,0,0,0
1683104151.10015297,71728797,1000,1000,1000,1000,0,0,0,0,0,0,0,0,0,0
1683104151.20011306,71828757,1000,1000,1000,1000,0,0,0,0,0,0,0,0,0,0
1683104151.30007291,71928717,1000,1000,1000,1000,0,0,0,0,0,0,0,0,0,0
1683104151.40003300,72028677,1026,1026,1026,1026,0,0,0,0,0,0,0,0,0,0
1683104151.49999309,72128637,1056,1056,1056,1056,0,0,0,0,0,0,0,0,0,0
1683104151.59995294,72228597,1086,1086,1086,1086,0,0,0,0,0,0,0,0,0,0
1683104151.69991302,72328557,1116,1116,1116,1116,0,0,0,0,0,0,0,0,0,0
1683104151.79987311,72428517,1146,1146,1146,1146,0,0,0,0,0,0,0,0,0,0
1683104151.89983296,72528477,1374,1366,1367,1375,0,0,0,0,0,0,0,0,0,0
1683104151.99979305,72628437,1560,1553,1553,1560,0,0,0,0,0,0,0,0,0,0
1683104152.09975290,72728397,1710,1703,1704,1711,0,0,0,0,0,0,0,0,0,0
1683104152.19971299,72828357,1840,1834,1834,1840,0,0,0,0,0,0,0,0,0,0
1683104152.29967308,72928317,1909,1902,1903,1909,0,0,0,0,0,0,0,0,0,0
1683104152.39963293,73028277,1833,1831,1830,1834,0,0,0,0,0,0,0,0,0,0
1683104152.49959302,73128237,1701,1701,1698,1704,0,0,0,0,0,0,0,0,0,0
1683104152.59955311,73228197,1629,1631,1629,1632,0,0,0,0,0,0,0,0,0,0
1683104152.69951296,73328157,1615,1618,1617,1616,0,0,0,0,0,0,0,0,0,0
1683104152.80030608,73428950,1623,1625,1625,1622,0,0,0,0,0,0,0,0,0,0
1683104152.90026593,73528910,1626,1627,1628,1625,0,0,0,0,0,0,0,0,0,0
1683104153.00022602,73628870,1623,1623,1624,1622,0,0,0,0,0,0,0,0,0,0
1683104153.10018611,73728830,1618,1617,1617,1617,0,0,0,0,0,0,0,0,0,0
1683104153.20014596,73828790,1614,1613,1613,1614,0,0,0,0,0,0,0,0,0,0
1683104153.30010605,73928750,1614,1613,1612,1614,0,0,0,0,0,0,0,0,0,0
1683104153.40006590,74028710,1614,1613,1614,1613,0,0,0,0,0,0,0,0,0,0
1683104153.50002599,74128670,1616,1616,1617,1615,0,0,0,0,0,0,0,0,0,0
1683104153.59998608,74228630,1613,1613,1615,1611,0,0,0,0,0,0,0,0,0,0
1683104153.69994593,74328590,1583,1584,1591,1576,0,0,0,0,0,0,0,0,0,0
1683104153.79990602,74428550,1571,1571,1576,1566,0,0,0,0,0,0,0,0,0,0
1683104153.89986610,74528510,1561,1561,1561,1561,0,0,0,0,0,0,0,0,0,0
1683104153.99982595,74628470,1552,1552,1548,1557,0,0,0,0,0,0,0,0,0,0
1683104154.09978604,74728430,1545,1545,1536,1554,0,0,0,0,0,0,0,0,0,0
1683104154.19974589,74828390,1539,1538,1531,1546,0,0,0,0,0,0,0,0,0,0
1683104154.29970598,74928350,1533,1532,1528,1537,0,0,0,0,0,0,0,0,0,0
1683104154.39966607,75028310,1528,1528,1527,1529,0,0,0,0,0,0,0,0,0,0
1683104154.49962592,75128270,1528,1527,1528,1526,0,0,0,0,0,0,0,0,0,0
1683104154.59958601,75228230,1529,1529,1531,1526,0,0,0,0,0,0,0,0,0,0
1683104154.69954610,75328190,1532,1533,1536,1530,0,0,0,0,0,0,0,0,0,0
1683104154.80033898,75428983,1535,1536,1539,1533,0,0,0,0,0,0,0,0,0,0
1683104154.90029907,75528943,1539,1539,1542,1538,0,0,0,0,0,0,0,0,0,0
1683104155.00025892,75628903,1541,1542,1543,1541,0,0,0,0,0,0,0,0,0,0
1683104155.10021901,75728863,1545,1545,1545,1545,0,0,0,0,0,0,0,0,0,0
1683104155.20017910,75828823,1548,1548,1548,1549,0,0,0,0,0,0,0,0,0,0
1683104155.30013895,75928783,1552,1552,1551,1553,0,0,0,0,0,0,0,0,0,0
1683104155.40009904,76028743,1554,1553,1552,1555,0,0,0,0,0,0,0,0,0,0
1683104155.50005913,76128703,1554,1554,1557,1559,0,0,0,0,0,0,0,0,0,0
1683104155.60001898,76228663,1554,1554,1561,1563,0,0,0,0,0,0,0,0,0,0
1683104155.69997907,76328623,1557,1557,1564,1565,0,0,0,0,0,0,0,0,0,0
1683104155.79993892,76428583,1559,1560,1565,1565,0,0,0,0,0,0,0,0,0,0
1683104155.89989901,76528543,1562,1562,1565,1564,0,0,0,0,0,0,0,0,0,0
1683104155.99985909,76628503,1564,1564,1564,1564,0,0,0,0,0,0,0,0,0,0
1683104156.09981894,76728463,1566,1566,1564,1564,0,0,0,0,0,0,0,0,0,0
1683104156.19977903,76828423,1568,1568,1565,1565,0,0,0,0,0,0,0,0,0,0
1683104156.29973912,76928383,1570,1570,1565,1566,0,0,0,0,0,0,0,0,0,0
1683104156.39969897,77028343,1571,1571,1567,1567,0,0,0,0,0,0,0,0,0,0
1683104156.49965906,77128303,1572,1571,1567,1568,0,0,0,0,0,0,0,0,0,0
1683104156.59961891,77228263,1572,1572,1568,1569,0,0,0,0,0,0,0,0,0,0
1683104156.69957900,77328223,1573,1572,1570,1570,0,0,0,0,0,0,0,0,0,0
1683104156.79953909,77428183,1573,1573,1571,1571,0,0,0,0,0,0,0,0,0,0
1683104156.90033197,77528976,1573,1573,1573,1572,0,0,0,0,0,0,0,0,0,0
1683104157.00029206,77628936,1575,1575,1575,1574,0,0,0,0,0,0,0,0,0,0
1683104157.10025191,77728896,1574,1574,1576,1574,0,0,0,0,0,0,0,0,0,0
1683104157.20021200,77828856,1576,1576,1578,1577,0,0,0,0,0,0,0,0,0,0
1683104157.30017209,77928816,1575,1575,1577,1577,0,0,0,0,0,0,0,0,0,0
1683104157.40013194,78028776,1576,1576,1577,1577,0,0,0,0,0,0,0,0,0,0
1683104157.50009203,78128736,1576,1575,1576,1577,0,0,0,0,0,0,0,0,0,0
1683104157.60005212,78228696,1575,1575,1576,1576,0,0,0,0,0,0,0,0,0,0
1683104157.70001197,78328656,1576,1576,1576,1577,0,0,0,0,0,0,0,0,0,0
1683104157.79997206,78428616,1576,1576,1576,1576,0,0,0,0,0,0,0,0,0,0
1683104157.89993191,78528576,1577,1576,1577,1577,0,0,0,0,0,0,0,0,0,0
1683104157.99989200,78628536,1577,1578,1577,1577,0,0,0,0,0,0,0,0,0,0
1683104158.09985209,78728496,1578,1577,1577,1577,0,0,0,0,0,0,0,0,0,0
1683104158.19981194,78828456,1578,1577,1577,1577,0,0,0,0,0,0,0,0,0,0
1683104158.29977202,78928416,1578,1578,1577,1578,0,0,0,0,0,0,0,0,0,0
1683104158.39973211,79028376,1578,1578,1578,1577,0,0,0,0,0,0,0,0,0,0
1683104158.49969196,79128336,1578,1578,1578,1577,0,0,0,0,0,0,0,0,0,0
1683104158.59965205,79228296,1578,1578,1578,1578,0,0,0,0,0,0,0,0,0,0
1683104158.69961190,79328256,1577,1578,1577,1577,0,0,0,0,0,0,0,0,0,0
1683104158.79957199,79428216,1578,1577,1578,1578,0,0,0,0,0,0,0,0,0,0
1683104158.89953208,79528176,1579,1578,1579,1579,0,0,0,0,0,0,0,0,0,0
1683104159.00032496,79628969,1579,1579,1579,1579,0,0,0,0,0,0,0,0,0,0
1683104159.10028505,79728929,1578,1578,1579,1578,0,0,0,0,0,0,0,0,0,0
1683104159.20024490,79828889,1578,1578,1578,1579,0,0,0,0,0,0,0,0,0,0
1683104159.30020499,79928849,1579,1579,1579,1579,0,0,0,0,0,0,0,0,0,0
1683104159.40016508,80028809,1579,1579,1579,1579,0,0,0,0,0,0,0,0,0,0
1683104159.50012493,80128769,1579,1579,1579,1580,0,0,0,0,0,0,0,0,0,0
1683104159.60008502,80228729,1579,1580,1580,1580,0,0,0,0,0,0,0,0,0,0
1683104159.70004511,80328689,1579,1579,1580,1579,0,0,0,0,0,0,0,0,0,0
1683104159.80000496,80428649,1580,1580,1580,1580,0,0,0,0,0,0,0,0,0,0
1683104159.89996505,80528609,1580,1580,1580,1580,0,0,0,0,0,0,0,0,0,0
1683104159.99992490,80628569,1581,1580,1580,1580,0,0,0,0,0,0,0,0,0,0
1683104160.09988499,80728529,1581,1580,1581,1580,0,0,0,0,0,0,0,0,0,0
1683104160.19984508,80828489,1580,1581,1580,1580,0,0,0,0,0,0,0,0,0,0
1683104160.29980493,80928449,1580,1581,1580,1581,0,0,0,0,0,0,0,0,0,0
1683104160.39976501,81028409,1580,1580,1580,1581,0,0,0,0,0,0,0,0,0,0
1683104160.49972510,81128369,1580,1580,1580,1580,0,0,0,0,0,0,0,0,0,0
1683104160.59968495,81228329,1580,1581,1581,1581,0,0,0,0,0,0,0,0,0,0
1683104160.69964504,81328289,1580,1580,1580,1580,0,0,0,0,0,0,0,0,0,0
1683104160.79960489,81428249,1579,1579,1580,1580,0,0,0,0,0,0,0,0,0,0
1683104160.89956498,81528209,1580,1580,1580,1580,0,0,0,0,0,0,0,0,0,0
1683104160.99952507,81628169,1580,1581,1581,1581,0,0,0,0,0,0,0,0,0,0
1683104161.10031796,81728962,1579,1580,1580,1580,0,0,0,0,0,0,0,0,0,0
1683104161.20027804,81828922,1580,1580,1580,1580,0,0,0,0,0,0,0,0,0,0
1683104161.30023789,81928882,1581,1580,1580,1581,0,0,0,0,0,0,0,0,0,0
1683104161.40019798,82028842,1581,1581,1581,1581,0,0,0,0,0,0,0,0,0,0
1683104161.50015807,82128802,1581,1581,1581,1581,0,0,0,0,0,0,0,0,0,0
1683104161.60011792,82228762,1582,1581,1581,1581,0,0,0,0,0,0,0,0,0,0
1683104161.70007801,82328722,1582,1582,1586,1578,0,0,0,0,0,0,0,0,0,0
1683104161.80003810,82428682,1581,1583,1588,1573,0,0,0,0,0,0,0,0,0,0
1683104161.89999795,82528642,1579,1582,1581,1574,0,0,0,0,0,0,0,0,0,0
1683104161.99995804,82628602,1578,1581,1573,1573,0,0,0,0,0,0,0,0,0,0
1683104162.09991813,82728562,1577,1579,1564,1570,0,0,0,0,0,0,0,0,0,0
1683104162.19987798,82828522,1578,1580,1559,1567,0,0,0,0,0,0,0,0,0,0
1683104162.29983807,82928482,1578,1578,1555,1561,0,0,0,0,0,0,0,0,0,0
1683104162.39979792,83028442,1579,1578,1555,1557,0,0,0,0,0,0,0,0,0,0
1683104162.49975801,83128402,1580,1578,1556,1555,0,0,0,0,0,0,0,0,0,0
1683104162.59971809,83228362,1580,1578,1556,1554,0,0,0,0,0,0,0,0,0,0
1683104162.69967794,83328322,1578,1577,1556,1553,0,0,0,0,0,0,0,0,0,0
1683104162.79963803,83428282,1576,1577,1555,1553,0,0,0,0,0,0,0,0,0,0
1683104162.89959812,83528242,1575,1577,1555,1554,0,0,0,0,0,0,0,0,0,0
1683104162.99955797,83628202,1575,1577,1554,1554,0,0,0,0,0,0,0,0,0,0
1683104163.09951806,83728162,1576,1577,1553,1553,0,0,0,0,0,0,0,0,0,0
1683104163.20031095,83828955,1577,1578,1551,1551,0,0,0,0,0,0,0,0,0,0
1683104163.30027103,83928915,1578,1579,1549,1549,0,0,0,0,0,0,0,0,0,0
1683104163.40023112,84028875,1581,1582,1548,1548,0,0,0,0,0,0,0,0,0,0
1683104163.50019097,84128835,1582,1583,1544,1544,0,0,0,0,0,0,0,0,0,0
1683104163.60015106,84228795,1585,1586,1541,1540,0,0,0,0,0,0,0,0,0,0
1683104163.70011091,84328755,1589,1590,1539,1539,0,0,0,0,0,0,0,0,0,0
1683104163.80007100,84428715,1592,1593,1536,1536,0,0,0,0,0,0,0,0,0,0
1683104163.90003109,84528675,1594,1594,1534,1535,0,0,0,0,0,0,0,0,0,0
1683104163.99999094,84628635,1595,1594,1534,1535,0,0,0,0,0,0,0,0,0,0
1683104164.09995103,84728595,1594,1594,1534,1536,0,0,0,0,0,0,0,0,0,0
1683104164.19991112,84828555,1593,1593,1536,1539,0,0,0,0,0,0,0,0,0,0
1683104164.29987097,84928515,1591,1590,1541,1545,0,0,0,0,0,0,0,0,0,0
1683104164.39983106,85028475,1586,1584,1548,1551,0,0,0,0,0,0,0,0,0,0
1683104164.49979091,85128435,1579,1576,1558,1560,0,0,0,0,0,0,0,0,0,0
1683104164.59975100,85228395,1570,1566,1570,1572,0,0,0,0,0,0,0,0,0,0
1683104164.69971108,85328355,1559,1555,1582,1583,0,0,0,0,0,0,0,0,0,0
1683104164.79967093,85428315,1547,1544,1594,1594,0,0,0,0,0,0,0,0,0,0
1683104164.89963102,85528275,1537,1535,1603,1603,0,0,0,0,0,0,0,0,0,0
1683104164.99959111,85628235,1530,1530,1610,1609,0,0,0,0,0,0,0,0,0,0
1683104165.09955096,85728195,1527,1529,1614,1613,0,0,0,0,0,0,0,0,0,0
1683104165.19951105,85828155,1529,1531,1615,1614,0,0,0,0,0,0,0,0,0,0
1683104165.30030394,85928948,1534,1536,1612,1611,0,0,0,0,0,0,0,0,0,0
1683104165.40026402,86028908,1541,1543,1606,1606,0,0,0,0,0,0,0,0,0,0
1683104165.50022411,86128868,1549,1551,1599,1600,0,0,0,0,0,0,0,0,0,0
1683104165.60018396,86228828,1559,1560,1592,1592,0,0,0,0,0,0,0,0,0,0
1683104165.70014405,86328788,1567,1567,1584,1584,0,0,0,0,0,0,0,0,0,0
1683104165.80010390,86428748,1575,1575,1578,1577,0,0,0,0,0,0,0,0,0,0
1683104165.90006399,86528708,1581,1580,1572,1572,0,0,0,0,0,0,0,0,0,0
1683104166.00002408,86628668,1585,1584,1568,1568,0,0,0,0,0,0,0,0,0,0
1683104166.09998393,86728628,1588,1586,1566,1566,0,0,0,0,0,0,0,0,0,0
1683104166.19994402,86828588,1588,1586,1566,1566,0,0,0,0,0,0,0,0,0,0
1683104166.29990411,86928548,1587,1585,1567,1567,0,0,0,0,0,0,0,0,0,0
1683104166.39986396,87028508,1584,1584,1569,1569,0,0,0,0,0,0,0,0,0,0
1683104166.49982405,87128468,1582,1582,1572,1572,0,0,0,0,0,0,0,0,0,0
1683104166.59978390,87228428,1579,1579,1575,1575,0,0,0,0,0,0,0,0,0,0
1683104166.69974399,87328388,1576,1577,1578,1578,0,0,0,0,0,0,0,0,0,0
1683104166.79970407,87428348,1574,1575,1581,1580,0,0,0,0,0,0,0,0,0,0
1683104166.89966393,87528308,1573,1573,1582,1582,0,0,0,0,0,0,0,0,0,0
1683104166.99962401,87628268,1572,1572,1583,1583,0,0,0,0,0,0,0,0,0,0
1683104167.09958410,87728228,1572,1572,1583,1583,0,0,0,0,0,0,0,0,0,0
1683104167.19954395,87828188,1571,1572,1583,1582,0,0,0,0,0,0,0,0,0,0
1683104167.30033708,87928981,1573,1574,1582,1582,0,0,0,0,0,0,0,0,0,0
1683104167.40029693,88028941,1288,1289,1593,1594,0,0,0,0,0,0,0,0,0,0
1683104167.50025702,88128901,1387,1392,1644,1652,0,0,0,0,0,0,0,0,0,0
1683104167.60021710,88228861,1451,1460,1641,1641,0,0,0,0,0,0,0,0,0,0
1683104167.70017695,88328821,1508,1517,1626,1620,0,0,0,0,0,0,0,0,0,0
1683104167.80013704,88428781,1554,1558,1615,1605,0,0,0,0,0,0,0,0,0,0
1683104167.90009689,88528741,1589,1586,1607,1599,0,0,0,0,0,0,0,0,0,0
1683104168.00005698,88628701,1619,1605,1595,1591,0,0,0,0,0,0,0,0,0,0
1683104168.10001707,88728661,1645,1630,1571,1576,0,0,0,0,0,0,0,0,0,0
1683104168.19997692,88828621,1650,1637,1528,1539,0,0,0,0,0,0,0,0,0,0
1683104168.29993701,88928581,1650,1647,1534,1547,0,0,0,0,0,0,0,0,0,0
1683104168.39989710,89028541,1644,1650,1552,1559,0,0,0,0,0,0,0,0,0,0
1683104168.49985695,89128501,1640,1650,1571,1571,0,0,0,0,0,0,0,0,0,0
1683104168.59981704,89228461,1641,1649,1589,1585,0,0,0,0,0,0,0,0,0,0
1683104168.69977713,89328421,1631,1635,1585,1580,0,0,0,0,0,0,0,0,0,0
1683104168.79973698,89428381,1624,1625,1581,1579,0,0,0,0,0,0,0,0,0,0
1683104168.89969707,89528341,1619,1617,1579,1578,0,0,0,0,0,0,0,0,0,0
1683104168.99965692,89628301,1613,1610,1575,1576,0,0,0,0,0,0,0,0,0,0
1683104169.09961700,89728261,1608,1605,1573,1575,0,0,0,0,0,0,0,0,0,0
1683104169.19957709,89828221,1602,1601,1571,1572,0,0,0,0,0,0,0,0,0,0
1683104169.29953694,89928181,1598,1598,1570,1570,0,0,0,0,0,0,0,0,0,0
1683104169.40033007,90028974,1594,1594,1569,1568,0,0,0,0,0,0,0,0,0,0
1683104169.50028992,90128934,1591,1592,1568,1567,0,0,0,0,0,0,0,0,0,0
1683104169.60025001,90228894,1589,1590,1568,1567,0,0,0,0,0,0,0,0,0,0
1683104169.70021009,90328854,1589,1588,1569,1565,0,0,0,0,0,0,0,0,0,0
1683104169.80016994,90428814,1591,1584,1574,1562,0,0,0,0,0,0,0,0,0,0
1683104169.90013003,90528774,1589,1581,1569,1564,0,0,0,0,0,0,0,0,0,0
1683104170.00009012,90628734,1586,1581,1562,1564,0,0,0,0,0,0,0,0,0,0
1683104170.10004997,90728694,1581,1580,1556,1561,0,0,0,0,0,0,0,0,0,0
1683104170.20001006,90828654,1577,1581,1554,1557,0,0,0,0,0,0,0,0,0,0
1683104170.29996991,90928614,1574,1579,1553,1553,0,0,0,0,0,0,0,0,0,0
1683104170.39993000,91028574,1573,1579,1554,1551,0,0,0,0,0,0,0,0,0,0
1683104170.49989009,91128534,1574,1577,1554,1550,0,0,0,0,0,0,0,0,0,0
1683104170.59984994,91228494,1574,1576,1552,1549,0,0,0,0,0,0,0,0,0,0
1683104170.69981003,91328454,1857,1857,1532,1527,0,0,0,0,0,0,0,0,0,0
1683104170.79977012,91428414,1772,1769,1481,1473,0,0,0,0,0,0,0,0,0,0
1683104170.89972997,91528374,1700,1697,1492,1491,0,0,0,0,0,0,0,0,0,0
1683104170.99969006,91628334,1633,1633,1508,1513,0,0,0,0,0,0,0,0,0,0
1683104171.09964991,91728294,1576,1579,1526,1535,0,0,0,0,0,0,0,0,0,0
1683104171.19960999,91828254,1519,1525,1552,1561,0,0,0,0,0,0,0,0,0,0
1683104171.29957008,91928214,1472,1479,1583,1590,0,0,0,0,0,0,0,0,0,0
1683104171.39952993,92028174,1450,1455,1600,1604,0,0,0,0,0,0,0,0,0,0
1683104171.50032306,92128967,1453,1455,1600,1602,0,0,0,0,0,0,0,0,0,0
1683104171.60028291,92228927,1468,1469,1592,1593,0,0,0,0,0,0,0,0,0,0
1683104171.70024300,92328887,1488,1489,1581,1581,0,0,0,0,0,0,0,0,0,0
1683104171.80020308,92428847,1509,1509,1569,1568,0,0,0,0,0,0,0,0,0,0
1683104171.90016294,92528807,1528,1530,1560,1557,0,0,0,0,0,0,0,0,0,0
1683104172.00012302,92628767,1547,1549,1551,1549,0,0,0,0,0,0,0,0,0,0
1683104172.10008311,92728727,1563,1564,1545,1543,0,0,0,0,0,0,0,0,0,0
1683104172.20004296,92828687,1576,1575,1538,1537,0,0,0,0,0,0,0,0,0,0
1683104172.30000305,92928647,1588,1585,1536,1535,0,0,0,0,0,0,0,0,0,0
1683104172.39996290,93028607,1595,1592,1533,1534,0,0,0,0,0,0,0,0,0,0
1683104172.49992299,93128567,1600,1595,1535,1536,0,0,0,0,0,0,0,0,0,0
1683104172.59988308,93228527,1598,1593,1539,1541,0,0,0,0,0,0,0,0,0,0
1683104172.69984293,93328487,1592,1588,1549,1551,0,0,0,0,0,0,0,0,0,0
1683104172.79980302,93428447,1582,1579,1561,1563,0,0,0,0,0,0,0,0,0,0
1683104172.89976311,93528407,1569,1567,1574,1575,0,0,0,0,0,0,0,0,0,0
1683104172.99972296,93628367,1557,1556,1586,1585,0,0,0,0,0,0,0,0,0,0
1683104173.09968305,93728327,1548,1548,1595,1594,0,0,0,0,0,0,0,0,0,0
1683104173.19964290,93828287,1543,1543,1601,1600,0,0,0,0,0,0,0,0,0,0
1683104173.29960299,93928247,1540,1541,1603,1603,0,0,0,0,0,0,0,0,0,0
1683104173.39956307,94028207,1540,1542,1604,1603,0,0,0,0,0,0,0,0,0,0
1683104173.49952292,94128167,1542,1544,1602,1602,0,0,0,0,0,0,0,0,0,0
1683104173.60031605,94228960,1545,1546,1599,1600,0,0,0,0,0,0,0,0,0,0
1683104173.70027590,94328920,1549,1550,1596,1597,0,0,0,0,0,0,0,0,0,0
1683104173.80023599,94428880,1553,1554,1592,1593,0,0,0,0,0,0,0,0,0,0
1683104173.90019608,94528840,1558,1558,1588,1589,0,0,0,0,0,0,0,0,0,0
1683104174.00015593,94628800,1562,1562,1584,1585,0,0,0,0,0,0,0,0,0,0
1683104174.10011601,94728760,1566,1567,1581,1581,0,0,0,0,0,0,0,0,0,0
1683104174.20007610,94828720,1572,1572,1579,1578,0,0,0,0,0,0,0,0,0,0
1683104174.30003595,94928680,1575,1575,1576,1575,0,0,0,0,0,0,0,0,0,0
1683104174.39999604,95028640,1579,1578,1574,1572,0,0,0,0,0,0,0,0,0,0
1683104174.49995589,95128600,1581,1581,1571,1570,0,0,0,0,0,0,0,0,0,0
1683104174.59991598,95228560,1584,1583,1570,1569,0,0,0,0,0,0,0,0,0,0
1683104174.69987607,95328520,1585,1585,1569,1568,0,0,0,0,0,0,0,0,0,0
1683104174.79983592,95428480,1585,1584,1568,1569,0,0,0,0,0,0,0,0,0,0
1683104174.89979601,95528440,1585,1585,1570,1571,0,0,0,0,0,0,0,0,0,0
1683104174.99975610,95628400,1583,1583,1571,1572,0,0,0,0,0,0,0,0,0,0
1683104175.09971595,95728360,1582,1581,1574,1574,0,0,0,0,0,0,0,0,0,0
1683104175.19967604,95828320,1579,1579,1576,1575,0,0,0,0,0,0,0,0,0,0
1683104175.29963613,95928280,1577,1578,1578,1578,0,0,0,0,0,0,0,0,0,0
1683104175.39959598,96028240,1575,1576,1580,1579,0,0,0,0,0,0,0,0,0,0
1683104175.49955606,96128200,1575,1575,1581,1581,0,0,0,0,0,0,0,0,0,0
1683104175.59951591,96228160,1575,1575,1582,1583,0,0,0,0,0,0,0,0,0,0
1683104175.70030904,96328953,1574,1575,1582,1582,0,0,0,0,0,0,0,0,0,0
1683104175.80026913,96428913,1575,1576,1582,1583,0,0,0,0,0,0,0,0,0,0
1683104175.90022898,96528873,1575,1575,1581,1581,0,0,0,0,0,0,0,0,0,0
1683104176.00018907,96628833,1577,1577,1582,1582,0,0,0,0,0,0,0,0,0,0
1683104176.10014892,96728793,1578,1578,1580,1580,0,0,0,0,0,0,0,0,0,0
1683104176.20010900,96828753,1579,1579,1580,1580,0,0,0,0,0,0,0,0,0,0
1683104176.30006909,96928713,1581,1581,1580,1580,0,0,0,0,0,0,0,0,0,0
1683104176.40002894,97028673,1581,1581,1579,1579,0,0,0,0,0,0,0,0,0,0
1683104176.49998903,97128633,1581,1581,1578,1579,0,0,0,0,0,0,0,0,0,0
1683104176.59994912,97228593,1582,1582,1578,1579,0,0,0,0,0,0,0,0,0,0
1683104176.69990897,97328553,1581,1581,1578,1578,0,0,0,0,0,0,0,0,0,0
1683104176.79986906,97428513,1581,1581,1578,1578,0,0,0,0,0,0,0,0,0,0
1683104176.89982891,97528473,1581,1581,1579,1579,0,0,0,0,0,0,0,0,0,0
1683104176.99978900,97628433,1580,1580,1579,1579,0,0,0,0,0,0,0,0,0,0
1683104177.09974909,97728393,1581,1580,1580,1580,0,0,0,0,0,0,0,0,0,0
1683104177.19970894,97828353,1580,1580,1580,1580,0,0,0,0,0,0,0,0,0,0
1683104177.29966903,97928313,1580,1580,1580,1581,0,0,0,0,0,0,0,0,0,0
1683104177.39962912,98028273,1580,1580,1581,1581,0,0,0,0,0,0,0,0,0,0
1683104177.49958897,98128233,1581,1582,1583,1583,0,0,0,0,0,0,0,0,0,0
1683104177.59954906,98228193,1580,1581,1582,1582,0,0,0,0,0,0,0,0,0,0
1683104177.70034194,98328986,1580,1580,1582,1582,0,0,0,0,0,0,0,0,0,0
1683104177.80030203,98428946,1580,1580,1581,1582,0,0,0,0,0,0,0,0,0,0
1683104177.90026212,98528906,1581,1581,1582,1582,0,0,0,0,0,0,0,0,0,0
1683104178.00022197,98628866,1581,1581,1581,1581,0,0,0,0,0,0,0,0,0,0
1683104178.10018206,98728826,1582,1581,1581,1581,0,0,0,0,0,0,0,0,0,0
1683104178.20014191,98828786,1581,1581,1581,1581,0,0,0,0,0,0,0,0,0,0
1683104178.30010200,98928746,1581,1581,1581,1581,0,0,0,0,0,0,0,0,0,0
1683104178.40006208,99028706,1580,1581,1580,1580,0,0,0,0,0,0,0,0,0,0
1683104178.50002193,99128666,1581,1581,1580,1581,0,0,0,0,0,0,0,0,0,0
1683104178.59998202,99228626,1581,1582,1587,1574,0,0,0,0,0,0,0,0,0,0
1683104178.69994211,99328586,1579,1583,1585,1572,0,0,0,0,0,0,0,0,0,0
1683104178.79990196,99428546,1578,1583,1578,1573,0,0,0,0,0,0,0,0,0,0
1683104178.89986205,99528506,1577,1581,1568,1572,0,0,0,0,0,0,0,0,0,0
1683104178.99982190,99628466,1577,1579,1562,1568,0,0,0,0,0,0,0,0,0,0
1683104179.09978199,99728426,1579,1579,1557,1564,0,0,0,0,0,0,0,0,0,0
1683104179.19974208,99828386,1581,1579,1556,1560,0,0,0,0,0,0,0,0,0,0
1683104179.29970193,99928346,1581,1579,1556,1557,0,0,0,0,0,0,0,0,0,0
1683104179.39966202,100028306,1582,1580,1557,1555,0,0,0,0,0,0,0,0,0,0
1683104179.49962211,100128266,1580,1579,1556,1554,0,0,0,0,0,0,0,0,0,0
1683104179.59958196,100228226,1577,1578,1556,1554,0,0,0,0,0,0,0,0,0,0
1683104179.69954205,100328186,1577,1578,1556,1555,0,0,0,0,0,0,0,0,0,0
1683104179.80033493,100428979,1574,1577,1554,1553,0,0,0,0,0,0,0,0,0,0
1683104179.90029502,100528939,1575,1577,1553,1554,0,0,0,0,0,0,0,0,0,0
1683104180.00025511,100628899,1575,1577,1552,1553,0,0,0,0,0,0,0,0,0,0
1683104180.10021496,100728859,1578,1579,1552,1552,0,0,0,0,0,0,0,0,0,0
1683104180.20017505,100828819,1580,1580,1550,1550,0,0,0,0,0,0,0,0,0,0
1683104180.30013490,100928779,1581,1582,1547,1547,0,0,0,0,0,0,0,0,0,0
1683104180.40009499,101028739,1585,1585,1546,1545,0,0,0,0,0,0,0,0,0,0
1683104180.50005507,101128699,1586,1587,1541,1541,0,0,0,0,0,0,0,0,0,0
1683104180.60001493,101228659,1589,1590,1539,1539,0,0,0,0,0,0,0,0,0,0
1683104180.69997501,101328619,1591,1591,1537,1537,0,0,0,0,0,0,0,0,0,0
1683104180.79993510,101428579,1593,1594,1536,1537,0,0,0,0,0,0,0,0,0,0
1683104180.89989495,101528539,1595,1596,1535,1537,0,0,0,0,0,0,0,0,0,0
1683104180.99985504,101628499,1595,1595,1536,1538,0,0,0,0,0,0,0,0,0,0
1683104181.09981489,101728459,1594,1592,1539,1541,0,0,0,0,0,0,0,0,0,0
1683104181.19977498,101828419,1591,1588,1546,1548,0,0,0,0,0,0,0,0,0,0
1683104181.29973507,101928379,1583,1579,1552,1555,0,0,0,0,0,0,0,0,0,0
1683104181.39969492,102028339,1575,1571,1564,1567,0,0,0,0,0,0,0,0,0,0
1683104181.49965501,102128299,1564,1559,1576,1578,0,0,0,0,0,0,0,0,0,0
1683104181.59961510,102228259,1553,1550,1589,1590,0,0,0,0,0,0,0,0,0,0
1683104181.69957495,102328219,1542,1541,1601,1600,0,0,0,0,0,0,0,0,0,0
1683104181.79953504,102428179,1535,1535,1608,1607,0,0,0,0,0,0,0,0,0,0
1683104181.90032792,102528972,1532,1533,1612,1611,0,0,0,0,0,0,0,0,0,0
1683104182.00028801,102628932,1533,1535,1613,1611,0,0,0,0,0,0,0,0,0,0
1683104182.10024810,102728892,1538,1540,1611,1611,0,0,0,0,0,0,0,0,0,0
1683104182.20020795,102828852,1542,1544,1607,1607,0,0,0,0,0,0,0,0,0,0
1683104182.30016804,102928812,1548,1549,1602,1602,0,0,0,0,0,0,0,0,0,0
1683104182.40012813,103028772,1555,1556,1597,1597,0,0,0,0,0,0,0,0,0,0
1683104182.50008798,103128732,1562,1562,1592,1591,0,0,0,0,0,0,0,0,0,0
1683104182.60004807,103228692,1568,1568,1585,1584,0,0,0,0,0,0,0,0,0,0
1683104182.70000792,103328652,1574,1574,1578,1578,0,0,0,0,0,0,0,0,0,0
1683104182.79996800,103428612,1579,1579,1572,1572,0,0,0,0,0,0,0,0,0,0
1683104182.89992809,103528572,1584,1582,1568,1568,0,0,0,0,0,0,0,0,0,0
1683104182.99988794,103628532,1587,1586,1567,1567,0,0,0,0,0,0,0,0,0,0
1683104183.09984803,103728492,1587,1586,1566,1566,0,0,0,0,0,0,0,0,0,0
1683104183.19980812,103828452,1587,1586,1568,1568,0,0,0,0,0,0,0,0,0,0
1683104183.29976797,103928412,1585,1584,1570,1570,0,0,0,0,0,0,0,0,0,0
1683104183.39972806,104028372,1583,1583,1573,1573,0,0,0,0,0,0,0,0,0,0
1683104183.49968791,104128332,1579,1579,1575,1575,0,0,0,0,0,0,0,0,0,0
1683104183.59964800,104228292,1578,1578,1579,1579,0,0,0,0,0,0,0,0,0,0
1683104183.69960809,104328252,1575,1575,1580,1580,0,0,0,0,0,0,0,0,0,0
1683104183.79956794,104428212,1574,1574,1583,1583,0,0,0,0,0,0,0,0,0,0
1683104183.89952803,104528172,1573,1574,1584,1584,0,0,0,0,0,0,0,0,0,0
1683104184.00032091,104628965,1573,1573,1584,1584,0,0,0,0,0,0,0,0,0,0
1683104184.10028100,104728925,1573,1574,1584,1584,0,0,0,0,0,0,0,0,0,0
1683104184.20024109,104828885,1573,1574,1582,1582,0,0,0,0,0,0,0,0,0,0
1683104184.30020094,104928845,1575,1575,1582,1582,0,0,0,0,0,0,0,0,0,0
1683104184.40016103,105028805,1576,1576,1581,1581,0,0,0,0,0,0,0,0,0,0
1683104184.50012112,105128765,1578,1579,1580,1580,0,0,0,0,0,0,0,0,0,0
1683104184.60008097,105228725,1580,1580,1580,1579,0,0,0,0,0,0,0,0,0,0
1683104184.70004106,105328685,1581,1581,1579,1578,0,0,0,0,0,0,0,0,0,0
1683104184.80000091,105428645,1581,1582,1578,1578,0,0,0,0,0,0,0,0,0,0
1683104184.89996099,105528605,1582,1582,1578,1578,0,0,0,0,0,0,0,0,0,0
1683104184.99992108,105628565,1582,1582,1578,1578,0,0,0,0,0,0,0,0,0,0
1683104185.09988093,105728525,1582,1581,1577,1578,0,0,0,0,0,0,0,0,0,0
1683104185.19984102,105828485,1582,1582,1579,1578,0,0,0,0,0,0,0,0,0,0
1683104185.29980111,105928445,1581,1581,1578,1579,0,0,0,0,0,0,0,0,0,0
1683104185.39976096,106028405,1580,1580,1579,1579,0,0,0,0,0,0,0,0,0,0
1683104185.49972105,106128365,1581,1580,1580,1580,0,0,0,0,0,0,0,0,0,0
1683104185.59968090,106228325,1580,1581,1582,1581,0,0,0,0,0,0,0,0,0,0
1683104185.69964099,106328285,1580,1580,1582,1581,0,0,0,0,0,0,0,0,0,0
1683104185.79960108,106428245,1579,1579,1581,1581,0,0,0,0,0,0,0,0,0,0
1683104185.89956093,106528205,1578,1578,1580,1580,0,0,0,0,0,0,0,0,0,0
1683104185.99952102,106628165,1580,1580,1582,1581,0,0,0,0,0,0,0,0,0,0
1683104186.10031390,106728958,1580,1580,1581,1582,0,0,0,0,0,0,0,0,0,0
1683104186.20027399,106828918,1580,1580,1581,1582,0,0,0,0,0,0,0,0,0,0
1683104186.30023408,106928878,1581,1581,1582,1582,0,0,0,0,0,0,0,0,0,0
1683104186.40019393,107028838,1582,1582,1582,1582,0,0,0,0,0,0,0,0,0,0
1683104186.50015402,107128798,1582,1583,1587,1576,0,0,0,0,0,0,0,0,0,0
1683104186.60011411,107228758,1582,1583,1587,1573,0,0,0,0,0,0,0,0,0,0
1683104186.70007396,107328718,1579,1580,1580,1574,0,0,0,0,0,0,0,0,0,0
1683104186.80003405,107428678,1577,1577,1574,1576,0,0,0,0,0,0,0,0,0,0
1683104186.89999390,107528638,1574,1573,1568,1575,0,0,0,0,0,0,0,0,0,0
1683104186.99995399,107628598,1571,1570,1565,1573,0,0,0,0,0,0,0,0,0,0
1683104187.09991407,107728558,1569,1568,1565,1570,0,0,0,0,0,0,0,0,0,0
1683104187.19987392,107828518,1567,1567,1566,1567,0,0,0,0,0,0,0,0,0,0
1683104187.29983401,107928478,1566,1566,1566,1566,0,0,0,0,0,0,0,0,0,0
1683104187.39979410,108028438,1564,1564,1565,1563,0,0,0,0,0,0,0,0,0,0
1683104187.49975395,108128398,1564,1565,1566,1564,0,0,0,0,0,0,0,0,0,0
1683104187.59971404,108228358,1564,1564,1566,1564,0,0,0,0,0,0,0,0,0,0
1683104187.69967413,108328318,1563,1564,1565,1564,0,0,0,0,0,0,0,0,0,0
1683104187.79963398,108428278,1563,1563,1564,1564,0,0,0,0,0,0,0,0,0,0
1683104187.89959407,108528238,1563,1562,1563,1563,0,0,0,0,0,0,0,0,0,0
1683104187.99955392,108628198,1562,1562,1563,1563,0,0,0,0,0,0,0,0,0,0
1683104188.09951401,108728158,1562,1562,1562,1562,0,0,0,0,0,0,0,0,0,0
1683104188.20030689,108828951,1561,1561,1561,1561,0,0,0,0,0,0,0,0,0,0
1683104188.30026698,108928911,1560,1561,1560,1561,0,0,0,0,0,0,0,0,0,0
1683104188.40022707,109028871,1559,1559,1559,1558,0,0,0,0,0,0,0,0,0,0
1683104188.50018692,109128831,1559,1560,1560,1559,0,0,0,0,0,0,0,0,0,0
1683104188.60014701,109228791,1558,1558,1558,1557,0,0,0,0,0,0,0,0,0,0
1683104188.70010710,109328751,1557,1557,1558,1556,0,0,0,0,0,0,0,0,0,0
1683104188.80006695,109428711,1557,1557,1558,1556,0,0,0,0,0,0,0,0,0,0
1683104188.90002704,109528671,1557,1557,1557,1556,0,0,0,0,0,0,0,0,0,0
1683104188.99998713,109628631,1558,1557,1558,1557,0,0,0,0,0,0,0,0,0,0
1683104189.09994698,109728591,1557,1557,1558,1556,0,0,0,0,0,0,0,0,0,0
1683104189.19990706,109828551,1558,1559,1560,1557,0,0,0,0,0,0,0,0,0,0
1683104189.29986691,109928511,1559,1559,1559,1559,0,0,0,0,0,0,0,0,0,0
1683104189.39982700,110028471,1560,1560,1558,1562,0,0,0,0,0,0,0,0,0,0
1683104189.49978709,110128431,1561,1560,1558,1564,0,0,0,0,0,0,0,0,0,0
1683104189.59974694,110228391,1560,1561,1558,1564,0,0,0,0,0,0,0,0,0,0
1683104189.69970703,110328351,1561,1561,1559,1564,0,0,0,0,0,0,0,0,0,0
1683104189.79966712,110428311,1561,1561,1561,1562,0,0,0,0,0,0,0,0,0,0
1683104189.89962697,110528271,1561,1561,1563,1559,0,0,0,0,0,0,0,0,0,0
1683104189.99958706,110628231,1561,1561,1561,1560,0,0,0,0,0,0,0,0,0,0
1683104190.09954691,110728191,1559,1558,1557,1560,0,0,0,0,0,0,0,0,0,0
1683104190.20034003,110828984,1553,1553,1552,1555,0,0,0,0,0,0,0,0,0,0
1683104190.30030012,110928944,1549,1550,1549,1550,0,0,0,0,0,0,0,0,0,0
1683104190.40025997,111028904,1544,1544,1544,1544,0,0,0,0,0,0,0,0,0,0
1683104190.50022006,111128864,1537,1537,1537,1537,0,0,0,0,0,0,0,0,0,0
1683104190.60017991,111228824,1529,1529,1530,1529,0,0,0,0,0,0,0,0,0,0
1683104190.70014000,111328784,1522,1522,1522,1522,0,0,0,0,0,0,0,0,0,0
1683104190.80010009,111428744,1519,1520,1520,1520,0,0,0,0,0,0,0,0,0,0
1683104190.90005994,111528704,1520,1520,1520,1520,0,0,0,0,0,0,0,0,0,0
1683104191.00002003,111628664,1521,1521,1521,1522,0,0,0,0,0,0,0,0,0,0
1683104191.09998012,111728624,1523,1523,1523,1523,0,0,0,0,0,0,0,0,0,0
1683104191.19993997,111828584,1528,1527,1527,1528,0,0,0,0,0,0,0,0,0,0
1683104191.29990005,111928544,1532,1532,1532,1532,0,0,0,0,0,0,0,0,0,0
1683104191.39985991,112028504,1537,1537,1536,1537,0,0,0,0,0,0,0,0,0,0
1683104191.49981999,112128464,1539,1539,1539,1539,0,0,0,0,0,0,0,0,0,0
1683104191.59978008,112228424,1541,1541,1541,1541,0,0,0,0,0,0,0,0,0,0
1683104191.69973993,112328384,1543,1544,1544,1543,0,0,0,0,0,0,0,0,0,0
1683104191.79970002,112428344,1545,1546,1546,1545,0,0,0,0,0,0,0,0,0,0
1683104191.89966011,112528304,1546,1546,1546,1546,0,0,0,0,0,0,0,0,0,0
1683104191.99961996,112628264,1547,1547,1547,1547,0,0,0,0,0,0,0,0,0,0
1683104192.09958005,112728224,1546,1546,1546,1546,0,0,0,0,0,0,0,0,0,0
1683104192.19953990,112828184,1547,1547,1547,1547,0,0,0,0,0,0,0,0,0,0
1683104192.30033302,112928977,1547,1547,1547,1547,0,0,0,0,0,0,0,0,0,0
1683104192.40029311,113028937,1545,1545,1545,1546,0,0,0,0,0,0,0,0,0,0
1683104192.50025296,113128897,1546,1546,1546,1546,0,0,0,0,0,0,0,0,0,0
1683104192.60021305,113228857,1546,1546,1546,1546,0,0,0,0,0,0,0,0,0,0
1683104192.70017290,113328817,1546,1546,1546,1546,0,0,0,0,0,0,0,0,0,0
1683104192.80013299,113428777,1545,1545,1545,1545,0,0,0,0,0,0,0,0,0,0
1683104192.90009308,113528737,1545,1545,1545,1545,0,0,0,0,0,0,0,0,0,0
1683104193.00005293,113628697,1545,1544,1545,1545,0,0,0,0,0,0,0,0,0,0
1683104193.10001302,113728657,1545,1543,1544,1544,0,0,0,0,0,0,0,0,0,0
1683104193.19997311,113828617,1544,1544,1545,1544,0,0,0,0,0,0,0,0,0,0
1683104193.29993296,113928577,1544,1544,1544,1544,0,0,0,0,0,0,0,0,0,0
1683104193.39989305,114028537,1544,1544,1544,1544,0,0,0,0,0,0,0,0,0,0
1683104193.49985290,114128497,1544,1544,1544,1544,0,0,0,0,0,0,0,0,0,0
1683104193.59981298,114228457,1544,1544,1544,1544,0,0,0,0,0,0,0,0,0,0
1683104193.69977307,114328417,1544,1544,1544,1544,0,0,0,0,0,0,0,0,0,0
1683104193.79973292,114428377,1544,1544,1544,1544,0,0,0,0,0,0,0,0,0,0
1683104193.89969301,114528337,1544,1544,1544,1544,0,0,0,0,0,0,0,0,0,0
1683104193.99965310,114628297,1543,1544,1544,1543,0,0,0,0,0,0,0,0,0,0
1683104194.09961295,114728257,1544,1544,1544,1543,0,0,0,0,0,0,0,0,0,0
1683104194.19957304,114828217,1544,1544,1544,1544,0,0,0,0,0,0,0,0,0,0
1683104194.29953313,114928177,1544,1544,1543,1544,0,0,0,0,0,0,0,0,0,0
1683104194.40032601,115028970,1545,1544,1544,1544,0,0,0,0,0,0,0,0,0,0
1683104194.50028610,115128930,1545,1544,1544,1545,0,0,0,0,0,0,0,0,0,0
1683104194.60024595,115228890,1543,1544,1544,1544,0,0,0,0,0,0,0,0,0,0
1683104194.70020604,115328850,1544,1544,1544,1544,0,0,0,0,0,0,0,0,0,0
1683104194.80016589,115428810,1543,1544,1544,1543,0,0,0,0,0,0,0,0,0,0
1683104194.90012598,115528770,1543,1542,1542,1543,0,0,0,0,0,0,0,0,0,0
1683104195.00008607,115628730,1544,1545,1545,1544,0,0,0,0,0,0,0,0,0,0
1683104195.10004592,115728690,1544,1544,1544,1544,0,0,0,0,0,0,0,0,0,0
1683104195.20000601,115828650,1543,1544,1544,1544,0,0,0,0,0,0,0,0,0,0
1683104195.29996610,115928610,1544,1543,1543,1544,0,0,0,0,0,0,0,0,0,0
1683104195.39992595,116028570,1544,1544,1544,1544,0,0,0,0,0,0,0,0,0,0
1683104195.49988604,116128530,1544,1544,1544,1544,0,0,0,0,0,0,0,0,0,0
1683104195.59984612,116228490,1545,1545,1545,1545,0,0,0,0,0,0,0,0,0,0
1683104195.69980597,116328450,1545,1545,1545,1545,0,0,0,0,0,0,0,0,0,0
1683104195.79976606,116428410,1544,1545,1545,1544,0,0,0,0,0,0,0,0,0,0
1683104195.89972591,116528370,1545,1544,1544,1545,0,0,0,0,0,0,0,0,0,0
1683104195.99968600,116628330,1545,1545,1545,1545,0,0,0,0,0,0,0,0,0,0
1683104196.09964609,116728290,1544,1543,1544,1544,0,0,0,0,0,0,0,0,0,0
1683104196.19960594,116828250,1543,1544,1544,1543,0,0,0,0,0,0,0,0,0,0
1683104196.29956603,116928210,1544,1544,1544,1544,0,0,0,0,0,0,0,0,0,0
1683104196.39952612,117028170,1544,1545,1545,1544,0,0,0,0,0,0,0,0,0,0
1683104196.50031900,117128963,1545,1544,1544,1545,0,0,0,0,0,0,0,0,0,0
1683104196.60027909,117228923,1544,1544,1544,1544,0,0,0,0,0,0,0,0,0,0
1683104196.70023894,117328883,1544,1543,1544,1544,0,0,0,0,0,0,0,0,0,0
1683104196.80019903,117428843,1543,1543,1543,1543,0,0,0,0,0,0,0,0,0,0
1683104196.90015912,117528803,1545,1545,1545,1545,0,0,0,0,0,0,0,0,0,0
1683104197.00011897,117628763,1545,1545,1544,1545,0,0,0,0,0,0,0,0,0,0
1683104197.10007906,117728723,1544,1544,1544,1545,0,0,0,0,0,0,0,0,0,0
1683104197.20003891,117828683,1545,1545,1545,1545,0,0,0,0,0,0,0,0,0,0
1683104197.29999900,117928643,1544,1544,1545,1544,0,0,0,0,0,0,0,0,0,0
1683104197.39995909,118028603,1544,1545,1545,1544,0,0,0,0,0,0,0,0,0,0
1683104197.49991894,118128563,1544,1544,1544,1545,0,0,0,0,0,0,0,0,0,0
1683104197.59987903,118228523,1544,1544,1544,1544,0,0,0,0,0,0,0,0,0,0
1683104197.69983912,118328483,1544,1543,1543,1543,0,0,0,0,0,0,0,0,0,0
1683104197.79979897,118428443,1544,1544,1544,1544,0,0,0,0,0,0,0,0,0,0
1683104197.89975905,118528403,1544,1544,1543,1544,0,0,0,0,0,0,0,0,0,0
1683104197.99971890,118628363,1544,1544,1544,1544,0,0,0,0,0,0,0,0,0,0
1683104198.09967899,118728323,1544,1544,1544,1545,0,0,0,0,0,0,0,0,0,0
1683104198.19963908,118828283,1544,1544,1544,1544,0,0,0,0,0,0,0,0,0,0
1683104198.29959893,118928243,1545,1544,1544,1544,0,0,0,0,0,0,0,0,0,0
1683104198.39955902,119028203,1544,1544,1544,1543,0,0,0,0,0,0,0,0,0,0
1683104198.49951911,119128163,1545,1544,1544,1545,0,0,0,0,0,0,0,0,0,0
1683104198.60031199,119228956,1545,1545,1545,1545,0,0,0,0,0,0,0,0,0,0
1683104198.70027208,119328916,1544,1544,1544,1545,0,0,0,0,0,0,0,0,0,0
1683104198.80023193,119428876,1544,1544,1544,1544,0,0,0,0,0,0,0,0,0,0
1683104198.90019202,119528836,1545,1545,1545,1545,0,0,0,0,0,0,0,0,0,0
1683104199.00015211,119628796,1545,1545,1545,1544,0,0,0,0,0,0,0,0,0,0
1683104199.10011196,119728756,1545,1545,1545,1545,0,0,0,0,0,0,0,0,0,0
1683104199.20007205,119828716,1544,1545,1545,1545,0,0,0,0,0,0,0,0,0,0
1683104199.30003190,119928676,1544,1544,1544,1544,0,0,0,0,0,0,0,0,0,0
1683104199.39999199,120028636,1544,1544,1544,1544,0,0,0,0,0,0,0,0,0,0
1683104199.49995208,120128596,1545,1545,1545,1545,0,0,0,0,0,0,0,0,0,0
1683104199.59991193,120228556,1545,1545,1545,1545,0,0,0,0,0,0,0,0,0,0
1683104199.69987202,120328516,1545,1545,1545,1546,0,0,0,0,0,0,0,0,0,0
1683104199.79983211,120428476,1544,1545,1545,1544,0,0,0,0,0,0,0,0,0,0
1683104199.89979196,120528436,1544,1544,1544,1545,0,0,0,0,0,0,0,0,0,0
1683104199.99975204,120628396,1544,1544,1544,1544,0,0,0,0,0,0,0,0,0,0
1683104200.09971189,120728356,1544,1544,1544,1544,0,0,0,0,0,0,0,0,0,0
1683104200.19967198,120828316,1544,1543,1544,1543,0,0,0,0,0,0,0,0,0,0
1683104200.29963207,120928276,1545,1544,1545,1545,0,0,0,0,0,0,0,0,0,0
1683104200.39959192,121028236,1545,1545,1545,1545,0,0,0,0,0,0,0,0,0,0
1683104200.49955201,121128196,1446,1447,1447,1447,0,0,0,0,0,0,0,0,0,0
1683104200.59951210,121228156,1288,1292,1290,1290,0,0,0,0,0,0,0,0,0,0
1683104200.70030499,121328949,1223,1227,1225,1226,0,0,0,0,0,0,0,0,0,0
1683104200.80026507,121428909,1200,1205,1203,1203,0,0,0,0,0,0,0,0,0,0
1683104200.90022492,121528869,1166,1170,1168,1169,0,0,0,0,0,0,0,0,0,0
1683104201.00018501,121628829,1150,1155,1154,1153,0,0,0,0,0,0,0,0,0,0
1683104201.10014510,121728789,1150,1155,1153,1154,0,0,0,0,0,0,0,0,0,0
1683104201.20010495,121828749,1191,1150,1151,1192,0,0,0,0,0,0,0,0,0,0
1683104201.30006504,121928709,1178,1150,1150,1181,0,0,0,0,0,0,0,0,0,0
1683104201.40002513,122028669,1171,1150,1150,1174,0,0,0,0,0,0,0,0,0,0
1683104201.49998498,122128629,1171,1150,1150,1174,0,0,0,0,0,0,0,0,0,0
1683104201.59994507,122228589,1172,1150,1150,1176,0,0,0,0,0,0,0,0,0,0
1683104201.69990492,122328549,1175,1150,1150,1179,0,0,0,0,0,0,0,0,0,0
1683104201.79986501,122428509,1177,1150,1150,1181,0,0,0,0,0,0,0,0,0,0
1683104201.89982510,122528469,1180,1150,1150,1184,0,0,0,0,0,0,0,0,0,0
1683104201.99978495,122628429,1164,1150,1151,1167,0,0,0,0,0,0,0,0,0,0
1683104202.09974504,122728389,1166,1150,1151,1169,0,0,0,0,0,0,0,0,0,0
1683104202.19970512,122828349,1167,1150,1151,1171,0,0,0,0,0,0,0,0,0,0
1683104202.29966497,122928309,1168,1150,1152,1171,0,0,0,0,0,0,0,0,0,0
1683104202.39962506,123028269,1168,1150,1152,1172,0,0,0,0,0,0,0,0,0,0
1683104202.49958491,123128229,1000,1000,1000,1000,0,0,0,0,0,0,0,0,0,0
1683104202.59954500,123228189,1000,1000,1000,1000,0,0,0,0,0,0,0,0,0,0
1683104202.70033813,123328982,1000,1000,1000,1000,0,0,0,0,0,0,0,0,0,0
1683104202.80029798,123428942,1000,1000,1000,1000,0,0,0,0,0,0,0,0,0,0
1683104202.90025806,123528902,1000,1000,1000,1000,0,0,0,0,0,0,0,0,0,0
1683104203.00021791,123628862,1000,1000,1000,1000,0,0,0,0,0,0,0,0,0,0
1683104203.10017800,123728822,1000,1000,1000,1000,0,0,0,0,0,0,0,0,0,0
1683104203.20013809,123828782,1000,1000,1000,1000,0,0,0,0,0,0,0,0,0,0
1683104203.30009794,123928742,1000,1000,1000,1000,0,0,0,0,0,0,0,0,0,0
1683104203.40005803,124028702,1000,1000,1000,1000,0,0,0,0,0,0,0,0,0,0
1683104203.50001812,124128662,1000,1000,1000,1000,0,0,0,0,0,0,0,0,0,0
1683104203.59997797,124228622,1000,1000,1000,1000,0,0,0,0,0,0,0,0,0,0
1683104203.69993806,124328582,1000,1000,1000,1000,0,0,0,0,0,0,0,0,0,0
1683104203.79989791,124428542,1000,1000,1000,1000,0,0,0,0,0,0,0,0,0,0
1683104203.89985800,124528502,1000,1000,1000,1000,0,0,0,0,0,0,0,0,0,0
1683104203.99981809,124628462,1000,1000,1000,1000,0,0,0,0,0,0,0,0,0,0
1683104204.09977794,124728422,1000,1000,1000,1000,0,0,0,0,0,0,0,0,0,0
1683104204.19973803,124828382,1000,1000,1000,1000,0,0,0,0,0,0,0,0,0,0
1683104204.29969811,124928342,1000,1000,1000,1000,0,0,0,0,0,0,0,0,0,0
1683104204.39965796,125028302,1000,1000,1000,1000,0,0,0,0,0,0,0,0,0,0
1683104204.49961805,125128262,1000,1000,1000,1000,0,0,0,0,0,0,0,0,0,0
1683104204.59957790,125228222,1000,1000,1000,1000,0,0,0,0,0,0,0,0,0,0
1683104204.69953799,125328182,1000,1000,1000,1000,0,0,0,0,0,0,0,0,0,0
1683104204.80033112,125428975,1000,1000,1000,1000,0,0,0,0,0,0,0,0,0,0
1683104204.90029097,125528935,1000,1000,1000,1000,0,0,0,0,0,0,0,0,0,0
1683104205.00025105,125628895,1000,1000,1000,1000,0,0,0,0,0,0,0,0,0,0
1683104205.10021091,125728855,1000,1000,1000,1000,0,0,0,0,0,0,0,0,0,0
1683104205.20017099,125828815,1000,1000,1000,1000,0,0,0,0,0,0,0,0,0,0
1683104205.30013108,125928775,1000,1000,1000,1000,0,0,0,0,0,0,0,0,0,0
1683104205.40009093,126028735,1000,1000,1000,1000,0,0,0,0,0,0,0,0,0,0
1683104205.50005102,126128695,1000,1000,1000,1000,0,0,0,0,0,0,0,0,0,0
1683104205.60001111,126228655,1000,1000,1000,1000,0,0,0,0,0,0,0,0,0,0
1683104205.69997096,126328615,1000,1000,1000,1000,0,0,0,0,0,0,0,0,0,0
1683104205.79993105,126428575,1000,1000,1000,1000,0,0,0,0,0,0,0,0,0,0
1683104205.89989090,126528535,1000,1000,1000,1000,0,0,0,0,0,0,0,0,0,0
1683104205.99985099,126628495,1000,1000,1000,1000,0,0,0,0,0,0,0,0,0,0
1683104206.09981108,126728455,1000,1000,1000,1000,0,0,0,0,0,0,0,0,0,0
1683104206.19977093,126828415,1000,1000,1000,1000,0,0,0,0,0,0,0,0,0,0
1683104206.29973102,126928375,1000,1000,1000,1000,0,0,0,0,0,0,0,0,0,0
1683104206.39969110,127028335,1000,1000,1000,1000,0,0,0,0,0,0,0,0,0,0
1683104206.49965096,127128295,1000,1000,1000,1000,0,0,0,0,0,0,0,0,0,0
1683104206.59961104,127228255,1000,1000,1000,1000,0,0,0,0,0,0,0,0,0,0
1683104206.69957089,127328215,1000,1000,1000,1000,0,0,0,0,0,0,0,0,0,0
1683104206.79953098,127428175,1000,1000,1000,1000,0,0,0,0,0,0,0,0,0,0
1683104206.90032411,127528968,1000,1000,1000,1000,0,0,0,0,0,0,0,0,0,0
1683104207.00028396,127628928,1000,1000,1000,1000,0,0,0,0,0,0,0,0,0,0
1683104207.10024405,127728888,1000,1000,1000,1000,0,0,0,0,0,0,0,0,0,0
1683104207.20020390,127828848,1000,1000,1000,1000,0,0,0,0,0,0,0,0,0,0
1683104207.30016398,127928808,1000,1000,1000,1000,0,0,0,0,0,0,0,0,0,0
1683104207.40012407,128028768,1000,1000,1000,1000,0,0,0,0,0,0,0,0,0,0
1683104207.50008392,128128728,1000,1000,1000,1000,0,0,0,0,0,0,0,0,0,0
1683104207.60004401,128228688,1000,1000,1000,1000,0,0,0,0,0,0,0,0,0,0
1683104207.70000410,128328648,1000,1000,1000,1000,0,0,0,0,0,0,0,0,0,0
1683104207.79996395,128428608,1000,1000,1000,1000,0,0,0,0,0,0,0,0,0,0
1683104207.89992404,128528568,1000,1000,1000,1000,0,0,0,0,0,0,0,0,0,0
1683104207.99988413,128628528,1000,1000,1000,1000,0,0,0,0,0,0,0,0,0,0
1683104208.09984398,128728488,1000,1000,1000,1000,0,0,0,0,0,0,0,0,0,0
1683104208.19980407,128828448,1000,1000,1000,1000,0,0,0,0,0,0,0,0,0,0
1683104208.29976392,128928408,1000,1000,1000,1000,0,0,0,0,0,0,0,0,0,0
1683104208.39972401,129028368,1000,1000,1000,1000,0,0,0,0,0,0,0,0,0,0
1683104208.49968410,129128328,1000,1000,1000,1000,0,0,0,0,0,0,0,0,0,0
1683104208.59964395,129228288,1000,1000,1000,1000,0,0,0,0,0,0,0,0,0,0
1683104208.69960403,129328248,1000,1000,1000,1000,0,0,0,0,0,0,0,0,0,0
1683104208.79956412,129428208,1000,1000,1000,1000,0,0,0,0,0,0,0,0,0,0
1683104208.89952397,129528168,1000,1000,1000,1000,0,0,0,0,0,0,0,0,0,0
1683104209.00031710,129628961,1000,1000,1000,1000,0,0,0,0,0,0,0,0,0,0
1683104209.10027695,129728921,1000,1000,1000,1000,0,0,0,0,0,0,0,0,0,0
1683104209.20023704,129828881,1000,1000,1000,1000,0,0,0,0,0,0,0,0,0,0
1683104209.30019712,129928841,1000,1000,1000,1000,0,0,0,0,0,0,0,0,0,0
1683104209.40015697,130028801,1000,1000,1000,1000,0,0,0,0,0,0,0,0,0,0
1683104209.50011706,130128761,1000,1000,1000,1000,0,0,0,0,0,0,0,0,0,0
1683104209.60007691,130228721,1000,1000,1000,1000,0,0,0,0,0,0,0,0,0,0
1683104209.70003700,130328681,1000,1000,1000,1000,0,0,0,0,0,0,0,0,0,0
1683104209.79999709,130428641,1000,1000,1000,1000,0,0,0,0,0,0,0,0,0,0
1683104209.89995694,130528601,1000,1000,1000,1000,0,0,0,0,0,0,0,0,0,0
1683104209.99991703,130628561,1000,1000,1000,1000,0,0,0,0,0,0,0,0,0,0
1683104210.09987712,130728521,1000,1000,1000,1000,0,0,0,0,0,0,0,0,0,0
1683104210.19983697,130828481,1000,1000,1000,1000,0,0,0,0,0,0,0,0,0,0
1683104210.29979706,130928441,1000,1000,1000,1000,0,0,0,0,0,0,0,0,0,0
1683104210.39975691,131028401,1000,1000,1000,1000,0,0,0,0,0,0,0,0,0,0
1683104210.49971700,131128361,1000,1000,1000,1000,0,0,0,0,0,0,0,0,0,0
1683104210.59967709,131228321,1000,1000,1000,1000,0,0,0,0,0,0,0,0,0,0
1683104210.69963694,131328281,1000,1000,1000,1000,0,0,0,0,0,0,0,0,0,0
1683104210.79959702,131428241,1000,1000,1000,1000,0,0,0,0,0,0,0,0,0,0
1683104210.89955711,131528201,1000,1000,1000,1000,0,0,0,0,0,0,0,0,0,0
1683104210.99951696,131628161,1000,1000,1000,1000,0,0,0,0,0,0,0,0,0,0
1683104211.10031009,131728954,1000,1000,1000,1000,0,0,0,0,0,0,0,0,0,0
