timestamp,TimeUS,C1,C2,C3,C4,C5,C6,C7,C8,C9,C10,C11,C12,C13,C14
1684140969.20000005,51228667,1000,1000,1000,1000,0,0,0,0,0,0,0,0,0,0
1684140969.29996014,51328627,1000,1000,1000,1000,0,0,0,0,0,0,0,0,0,0
1684140969.39991999,51428587,1000,1000,1000,1000,0,0,0,0,0,0,0,0,0,0
1684140969.49988008,51528547,1000,1000,1000,1000,0,0,0,0,0,0,0,0,0,0
1684140969.59983993,51628507,1000,1000,1000,1000,0,0,0,0,0,0,0,0,0,0
1684140969.69980001,51728467,1000,1000,1000,1000,0,0,0,0,0,0,0,0,0,0
1684140969.79976010,51828427,1000,1000,1000,1000,0,0,0,0,0,0,0,0,0,0
1684140969.89971995,51928387,1000,1000,1000,1000,0,0,0,0,0,0,0,0,0,0
1684140969.99968004,52028347,1000,1000,1000,1000,0,0,0,0,0,0,0,0,0,0
1684140970.09964013,52128307,1000,1000,1000,1000,0,0,0,0,0,0,0,0,0,0
1684140970.19959998,52228267,1000,1000,1000,1000,0,0,0,0,0,0,0,0,0,0
1684140970.29956007,52328227,1000,1000,1000,1000,0,0,0,0,0,0,0,0,0,0
1684140970.39951992,52428187,1000,1000,1000,1000,0,0,0,0,0,0,0,0,0,0
1684140970.50031304,52528980,1000,1000,1000,1000,0,0,0,0,0,0,0,0,0,0
1684140970.60027313,52628940,1000,1000,1000,1000,0,0,0,0,0,0,0,0,0,0
1684140970.70023298,52728900,1000,1000,1000,1000,0,0,0,0,0,0,0,0,0,0
1684140970.80019307,52828860,1000,1000,1000,1000,0,0,0,0,0,0,0,0,0,0
1684140970.90015292,52928820,1000,1000,1000,1000,0,0,0,0,0,0,0,0,0,0
1684140971.00011301,53028780,1000,1000,1000,1000,0,0,0,0,0,0,0,0,0,0
1684140971.10007310,53128740,1000,1000,1000,1000,0,0,0,0,0,0,0,0,0,0
1684140971.20003295,53228700,1024,1024,1024,1024,0,0,0,0,0,0,0,0,0,0
1684140971.29999304,53328660,1054,1054,1054,1054,0,0,0,0,0,0,0,0,0,0
1684140971.39995313,53428620,1084,1084,1084,1084,0,0,0,0,0,0,0,0,0,0
1684140971.49991298,53528580,1113,1113,1113,1113,0,0,0,0,0,0,0,0,0,0
1684140971.59987307,53628540,1143,1143,1143,1143,0,0,0,0,0,0,0,0,0,0
1684140971.69983292,53728500,1357,1351,1352,1357,0,0,0,0,0,0,0,0,0,0
1684140971.79979300,53828460,1546,1542,1542,1546,0,0,0,0,0,0,0,0,0,0
1684140971.89975309,53928420,1699,1694,1694,1699,0,0,0,0,0,0,0,0,0,0
1684140971.99971294,54028380,1830,1825,1826,1830,0,0,0,0,0,0,0,0,0,0
1684140972.09967303,54128340,1834,1829,1829,1834,0,0,0,0,0,0,0,0,0,0
1684140972.19963312,54228300,1826,1823,1824,1826,0,0,0,0,0,0,0,0,0,0
1684140972.29959297,54328260,1694,1694,1694,1695,0,0,0,0,0,0,0,0,0,0
1684140972.39955306,54428220,1614,1616,1616,1614,0,0,0,0,0,0,0,0,0,0
1684140972.49951291,54528180,1606,1608,1608,1606,0,0,0,0,0,0,0,0,0,0
1684140972.60030603,54628973,1624,1626,1626,1624,0,0,0,0,0,0,0,0,0,0
1684140972.70026612,54728933,1638,1638,1639,1637,0,0,0,0,0,0,0,0,0,0
1684140972.80022597,54828893,1639,1638,1638,1639,0,0,0,0,0,0,0,0,0,0
1684140972.90018606,54928853,1633,1632,1632,1633,0,0,0,0,0,0,0,0,0,0
1684140973.00014591,55028813,1627,1626,1626,1626,0,0,0,0,0,0,0,0,0,0
1684140973.10010600,55128773,1624,1623,1623,1624,0,0,0,0,0,0,0,0,0,0
1684140973.20006609,55228733,1621,1621,1621,1622,0,0,0,0,0,0,0,0,0,0
1684140973.30002594,55328693,1593,1594,1593,1594,0,0,0,0,0,0,0,0,0,0
1684140973.39998603,55428653,1588,1588,1580,1595,0,0,0,0,0,0,0,0,0,0
1684140973.49994612,55528613,1582,1582,1575,1590,0,0,0,0,0,0,0,0,0,0
1684140973.59990597,55628573,1581,1580,1577,1584,0,0,0,0,0,0,0,0,0,0
1684140973.69986606,55728533,1580,1580,1580,1580,0,0,0,0,0,0,0,0,0,0
1684140973.79982615,55828493,1582,1582,1584,1580,0,0,0,0,0,0,0,0,0,0
1684140973.89978600,55928453,1584,1584,1588,1580,0,0,0,0,0,0,0,0,0,0
1684140973.99974608,56028413,1565,1566,1579,1552,0,0,0,0,0,0,0,0,0,0
1684140974.09970593,56128373,1556,1557,1567,1546,0,0,0,0,0,0,0,0,0,0
1684140974.19966602,56228333,1548,1548,1550,1547,0,0,0,0,0,0,0,0,0,0
1684140974.29962611,56328293,1539,1539,1533,1546,0,0,0,0,0,0,0,0,0,0
1684140974.39958596,56428253,1533,1532,1524,1542,0,0,0,0,0,0,0,0,0,0
1684140974.49954605,56528213,1531,1531,1524,1539,0,0,0,0,0,0,0,0,0,0
1684140974.59950614,56628173,1532,1532,1528,1537,0,0,0,0,0,0,0,0,0,0
1684140974.70029902,56728966,1535,1535,1534,1535,0,0,0,0,0,0,0,0,0,0
1684140974.80025911,56828926,1538,1538,1541,1535,0,0,0,0,0,0,0,0,0,0
1684140974.90021896,56928886,1541,1541,1545,1537,0,0,0,0,0,0,0,0,0,0
1684140975.00017905,57028846,1545,1545,1548,1541,0,0,0,0,0,0,0,0,0,0
1684140975.10013914,57128806,1547,1548,1549,1546,0,0,0,0,0,0,0,0,0,0
1684140975.20009899,57228766,1550,1549,1550,1550,0,0,0,0,0,0,0,0,0,0
1684140975.30005908,57328726,1547,1547,1555,1558,0,0,0,0,0,0,0,0,0,0
1684140975.40001893,57428686,1549,1549,1556,1561,0,0,0,0,0,0,0,0,0,0
1684140975.49997902,57528646,1552,1553,1558,1561,0,0,0,0,0,0,0,0,0,0
1684140975.59993911,57628606,1556,1557,1560,1561,0,0,0,0,0,0,0,0,0,0
1684140975.69989896,57728566,1561,1561,1562,1562,0,0,0,0,0,0,0,0,0,0
1684140975.79985905,57828526,1564,1564,1563,1561,0,0,0,0,0,0,0,0,0,0
1684140975.89981914,57928486,1567,1567,1564,1563,0,0,0,0,0,0,0,0,0,0
1684140975.99977899,58028446,1569,1568,1563,1563,0,0,0,0,0,0,0,0,0,0
1684140976.09973907,58128406,1571,1571,1565,1565,0,0,0,0,0,0,0,0,0,0
1684140976.19969893,58228366,1571,1571,1565,1565,0,0,0,0,0,0,0,0,0,0
1684140976.29965901,58328326,1571,1571,1565,1566,0,0,0,0,0,0,0,0,0,0
1684140976.39961910,58428286,1572,1571,1567,1568,0,0,0,0,0,0,0,0,0,0
1684140976.49957895,58528246,1572,1572,1569,1570,0,0,0,0,0,0,0,0,0,0
1684140976.59953904,58628206,1573,1573,1572,1572,0,0,0,0,0,0,0,0,0,0
1684140976.69949913,58728166,1572,1572,1573,1572,0,0,0,0,0,0,0,0,0,0
1684140976.80029202,58828959,1573,1573,1575,1573,0,0,0,0,0,0,0,0,0,0
1684140976.90025210,58928919,1573,1574,1576,1575,0,0,0,0,0,0,0,0,0,0
1684140977.00021195,59028879,1573,1574,1576,1575,0,0,0,0,0,0,0,0,0,0
1684140977.10017204,59128839,1575,1574,1577,1576,0,0,0,0,0,0,0,0,0,0
1684140977.20013213,59228799,1574,1574,1576,1576,0,0,0,0,0,0,0,0,0,0
1684140977.30009198,59328759,1575,1575,1576,1576,0,0,0,0,0,0,0,0,0,0
1684140977.40005207,59428719,1576,1576,1576,1577,0,0,0,0,0,0,0,0,0,0
1684140977.50001192,59528679,1576,1576,1577,1576,0,0,0,0,0,0,0,0,0,0
1684140977.59997201,59628639,1576,1576,1576,1576,0,0,0,0,0,0,0,0,0,0
1684140977.69993210,59728599,1577,1577,1576,1577,0,0,0,0,0,0,0,0,0,0
1684140977.79989195,59828559,1578,1578,1577,1577,0,0,0,0,0,0,0,0,0,0
1684140977.89985204,59928519,1578,1578,1577,1577,0,0,0,0,0,0,0,0,0,0
1684140977.99981213,60028479,1578,1578,1577,1577,0,0,0,0,0,0,0,0,0,0
1684140978.09977198,60128439,1578,1578,1578,1577,0,0,0,0,0,0,0,0,0,0
1684140978.19973207,60228399,1579,1580,1579,1579,0,0,0,0,0,0,0,0,0,0
1684140978.29969192,60328359,1578,1578,1578,1578,0,0,0,0,0,0,0,0,0,0
1684140978.39965200,60428319,1578,1578,1578,1578,0,0,0,0,0,0,0,0,0,0
1684140978.49961209,60528279,1578,1578,1578,1578,0,0,0,0,0,0,0,0,0,0
1684140978.59957194,60628239,1579,1579,1579,1579,0,0,0,0,0,0,0,0,0,0
1684140978.69953203,60728199,1578,1578,1578,1578,0,0,0,0,0,0,0,0,0,0
1684140978.79949212,60828159,1578,1578,1578,1578,0,0,0,0,0,0,0,0,0,0
1684140978.90028501,60928952,1578,1579,1579,1579,0,0,0,0,0,0,0,0,0,0
1684140979.00024509,61028912,1579,1579,1579,1579,0,0,0,0,0,0,0,0,0,0
1684140979.10020494,61128872,1578,1578,1579,1578,0,0,0,0,0,0,0,0,0,0
1684140979.20016503,61228832,1579,1579,1580,1579,0,0,0,0,0,0,0,0,0,0
1684140979.30012512,61328792,1578,1578,1579,1579,0,0,0,0,0,0,0,0,0,0
1684140979.40008497,61428752,1579,1579,1579,1579,0,0,0,0,0,0,0,0,0,0
1684140979.50004506,61528712,1579,1580,1579,1580,0,0,0,0,0,0,0,0,0,0
1684140979.60000491,61628672,1579,1579,1579,1579,0,0,0,0,0,0,0,0,0,0
1684140979.69996500,61728632,1579,1578,1579,1579,0,0,0,0,0,0,0,0,0,0
1684140979.79992509,61828592,1579,1579,1578,1579,0,0,0,0,0,0,0,0,0,0
1684140979.89988494,61928552,1579,1579,1579,1579,0,0,0,0,0,0,0,0,0,0
1684140979.99984503,62028512,1580,1580,1580,1580,0,0,0,0,0,0,0,0,0,0
1684140980.09980512,62128472,1580,1580,1580,1580,0,0,0,0,0,0,0,0,0,0
1684140980.19976497,62228432,1580,1579,1580,1579,0,0,0,0,0,0,0,0,0,0
1684140980.29972506,62328392,1580,1580,1580,1580,0,0,0,0,0,0,0,0,0,0
1684140980.39968514,62428352,1580,1580,1580,1581,0,0,0,0,0,0,0,0,0,0
1684140980.49964499,62528312,1580,1580,1581,1580,0,0,0,0,0,0,0,0,0,0
1684140980.59960508,62628272,1579,1580,1580,1579,0,0,0,0,0,0,0,0,0,0
1684140980.69956493,62728232,1580,1580,1581,1580,0,0,0,0,0,0,0,0,0,0
1684140980.79952502,62828192,1582,1581,1582,1582,0,0,0,0,0,0,0,0,0,0
1684140980.90031815,62928985,1581,1581,1581,1581,0,0,0,0,0,0,0,0,0,0
1684140981.00027800,63028945,1581,1581,1581,1581,0,0,0,0,0,0,0,0,0,0
1684140981.10023808,63128905,1582,1581,1581,1582,0,0,0,0,0,0,0,0,0,0
1684140981.20019794,63228865,1581,1582,1582,1582,0,0,0,0,0,0,0,0,0,0
1684140981.30015802,63328825,1580,1580,1580,1580,0,0,0,0,0,0,0,0,0,0
1684140981.40011811,63428785,1581,1581,1581,1582,0,0,0,0,0,0,0,0,0,0
1684140981.50007796,63528745,1582,1582,1582,1581,0,0,0,0,0,0,0,0,0,0
1684140981.60003805,63628705,1581,1582,1588,1574,0,0,0,0,0,0,0,0,0,0
1684140981.69999814,63728665,1580,1582,1584,1573,0,0,0,0,0,0,0,0,0,0
1684140981.79995799,63828625,1578,1581,1576,1572,0,0,0,0,0,0,0,0,0,0
1684140981.89991808,63928585,1577,1580,1567,1571,0,0,0,0,0,0,0,0,0,0
1684140981.99987793,64028545,1576,1578,1560,1567,0,0,0,0,0,0,0,0,0,0
1684140982.09983802,64128505,1577,1577,1556,1562,0,0,0,0,0,0,0,0,0,0
1684140982.19979811,64228465,1578,1577,1555,1558,0,0,0,0,0,0,0,0,0,0
1684140982.29975796,64328425,1579,1577,1555,1555,0,0,0,0,0,0,0,0,0,0
1684140982.39971805,64428385,1579,1578,1556,1554,0,0,0,0,0,0,0,0,0,0
1684140982.49967813,64528345,1577,1577,1556,1553,0,0,0,0,0,0,0,0,0,0
1684140982.59963799,64628305,1576,1577,1556,1553,0,0,0,0,0,0,0,0,0,0
1684140982.69959807,64728265,1575,1576,1555,1554,0,0,0,0,0,0,0,0,0,0
1684140982.79955792,64828225,1574,1577,1554,1554,0,0,0,0,0,0,0,0,0,0
1684140982.89951801,64928185,1575,1576,1553,1553,0,0,0,0,0,0,0,0,0,0
1684140983.00031114,65028978,1575,1577,1552,1552,0,0,0,0,0,0,0,0,0,0
1684140983.10027099,65128938,1576,1577,1550,1550,0,0,0,0,0,0,0,0,0,0
1684140983.20023108,65228898,1578,1579,1548,1548,0,0,0,0,0,0,0,0,0,0
1684140983.30019093,65328858,1581,1581,1545,1546,0,0,0,0,0,0,0,0,0,0
1684140983.40015101,65428818,1584,1585,1543,1542,0,0,0,0,0,0,0,0,0,0
1684140983.50011110,65528778,1587,1588,1541,1540,0,0,0,0,0,0,0,0,0,0
1684140983.60007095,65628738,1590,1590,1538,1537,0,0,0,0,0,0,0,0,0,0
1684140983.70003104,65728698,1593,1593,1536,1536,0,0,0,0,0,0,0,0,0,0
1684140983.79999113,65828658,1594,1594,1535,1535,0,0,0,0,0,0,0,0,0,0
1684140983.89995098,65928618,1595,1595,1535,1536,0,0,0,0,0,0,0,0,0,0
1684140983.99991107,66028578,1594,1594,1536,1538,0,0,0,0,0,0,0,0,0,0
1684140984.09987092,66128538,1592,1592,1539,1542,0,0,0,0,0,0,0,0,0,0
1684140984.19983101,66228498,1589,1588,1544,1548,0,0,0,0,0,0,0,0,0,0
1684140984.29979110,66328458,1584,1581,1552,1556,0,0,0,0,0,0,0,0,0,0
1684140984.39975095,66428418,1575,1572,1562,1565,0,0,0,0,0,0,0,0,0,0
1684140984.49971104,66528378,1565,1561,1574,1576,0,0,0,0,0,0,0,0,0,0
1684140984.59967113,66628338,1554,1551,1587,1588,0,0,0,0,0,0,0,0,0,0
1684140984.69963098,66728298,1544,1542,1599,1598,0,0,0,0,0,0,0,0,0,0
1684140984.79959106,66828258,1535,1535,1607,1606,0,0,0,0,0,0,0,0,0,0
1684140984.89955091,66928218,1531,1531,1613,1612,0,0,0,0,0,0,0,0,0,0
1684140984.99951100,67028178,1529,1531,1615,1614,0,0,0,0,0,0,0,0,0,0
1684140985.10030413,67128971,1532,1534,1614,1613,0,0,0,0,0,0,0,0,0,0
1684140985.20026398,67228931,1538,1540,1610,1609,0,0,0,0,0,0,0,0,0,0
1684140985.30022407,67328891,1545,1547,1603,1604,0,0,0,0,0,0,0,0,0,0
1684140985.40018392,67428851,1554,1555,1596,1597,0,0,0,0,0,0,0,0,0,0
1684140985.50014400,67528811,1562,1563,1589,1588,0,0,0,0,0,0,0,0,0,0
1684140985.60010409,67628771,1569,1569,1581,1579,0,0,0,0,0,0,0,0,0,0
1684140985.70006394,67728731,1578,1577,1576,1575,0,0,0,0,0,0,0,0,0,0
1684140985.80002403,67828691,1583,1582,1572,1571,0,0,0,0,0,0,0,0,0,0
1684140985.89998412,67928651,1587,1585,1568,1568,0,0,0,0,0,0,0,0,0,0
1684140985.99994397,68028611,1588,1587,1567,1568,0,0,0,0,0,0,0,0,0,0
1684140986.09990406,68128571,1588,1587,1567,1567,0,0,0,0,0,0,0,0,0,0
1684140986.19986391,68228531,1380,1380,1599,1603,0,0,0,0,0,0,0,0,0,0
1684140986.29982400,68328491,1443,1448,1624,1629,0,0,0,0,0,0,0,0,0,0
1684140986.39978409,68428451,1492,1498,1620,1619,0,0,0,0,0,0,0,0,0,0
1684140986.49974394,68528411,1535,1540,1610,1605,0,0,0,0,0,0,0,0,0,0
1684140986.59970403,68628371,1568,1571,1602,1595,0,0,0,0,0,0,0,0,0,0
1684140986.69966412,68728331,1592,1590,1594,1589,0,0,0,0,0,0,0,0,0,0
1684140986.79962397,68828291,1610,1604,1589,1588,0,0,0,0,0,0,0,0,0,0
1684140986.89958405,68928251,1626,1618,1575,1578,0,0,0,0,0,0,0,0,0,0
1684140986.99954414,69028211,1646,1641,1551,1557,0,0,0,0,0,0,0,0,0,0
1684140987.09950399,69128171,1662,1656,1535,1541,0,0,0,0,0,0,0,0,0,0
1684140987.20029712,69228964,1657,1655,1537,1543,0,0,0,0,0,0,0,0,0,0
1684140987.30025697,69328924,1646,1648,1545,1549,0,0,0,0,0,0,0,0,0,0
1684140987.40021706,69428884,1635,1639,1552,1554,0,0,0,0,0,0,0,0,0,0
1684140987.50017715,69528844,1626,1630,1559,1557,0,0,0,0,0,0,0,0,0,0
1684140987.60013700,69628804,1619,1622,1564,1561,0,0,0,0,0,0,0,0,0,0
1684140987.70009708,69728764,1615,1614,1568,1565,0,0,0,0,0,0,0,0,0,0
1684140987.80005693,69828724,1605,1599,1577,1576,0,0,0,0,0,0,0,0,0,0
1684140987.90001702,69928684,1589,1582,1591,1591,0,0,0,0,0,0,0,0,0,0
1684140987.99997711,70028644,1571,1566,1604,1605,0,0,0,0,0,0,0,0,0,0
1684140988.09993696,70128604,1557,1557,1609,1611,0,0,0,0,0,0,0,0,0,0
1684140988.19989705,70228564,1550,1553,1608,1610,0,0,0,0,0,0,0,0,0,0
1684140988.29985714,70328524,1548,1555,1606,1606,0,0,0,0,0,0,0,0,0,0
1684140988.39981699,70428484,1551,1558,1603,1601,0,0,0,0,0,0,0,0,0,0
1684140988.49977708,70528444,1556,1561,1598,1596,0,0,0,0,0,0,0,0,0,0
1684140988.59973693,70628404,1562,1564,1593,1590,0,0,0,0,0,0,0,0,0,0
1684140988.69969702,70728364,1568,1568,1589,1586,0,0,0,0,0,0,0,0,0,0
1684140988.79965711,70828324,1574,1572,1584,1583,0,0,0,0,0,0,0,0,0,0
1684140988.89961696,70928284,1578,1575,1580,1580,0,0,0,0,0,0,0,0,0,0
1684140988.99957705,71028244,1581,1579,1575,1576,0,0,0,0,0,0,0,0,0,0
1684140989.09953713,71128204,1587,1586,1569,1571,0,0,0,0,0,0,0,0,0,0
1684140989.19949698,71228164,1592,1592,1564,1565,0,0,0,0,0,0,0,0,0,0
1684140989.30029011,71328957,1595,1596,1561,1561,0,0,0,0,0,0,0,0,0,0
1684140989.40024996,71428917,1597,1597,1561,1561,0,0,0,0,0,0,0,0,0,0
1684140989.50021005,71528877,1596,1596,1563,1563,0,0,0,0,0,0,0,0,0,0
1684140989.60017014,71628837,1595,1591,1574,1562,0,0,0,0,0,0,0,0,0,0
1684140989.70012999,71728797,1592,1586,1577,1567,0,0,0,0,0,0,0,0,0,0
1684140989.80009007,71828757,1586,1581,1574,1573,0,0,0,0,0,0,0,0,0,0
1684140989.90004992,71928717,1577,1575,1569,1574,0,0,0,0,0,0,0,0,0,0
1684140990.00001001,72028677,1571,1573,1567,1573,0,0,0,0,0,0,0,0,0,0
1684140990.09997010,72128637,1567,1573,1565,1569,0,0,0,0,0,0,0,0,0,0
1684140990.19992995,72228597,1567,1573,1565,1565,0,0,0,0,0,0,0,0,0,0
1684140990.29989004,72328557,1568,1572,1564,1562,0,0,0,0,0,0,0,0,0,0
1684140990.39985013,72428517,1569,1572,1562,1558,0,0,0,0,0,0,0,0,0,0
1684140990.49980998,72528477,1570,1571,1559,1556,0,0,0,0,0,0,0,0,0,0
1684140990.59977007,72628437,1572,1571,1557,1554,0,0,0,0,0,0,0,0,0,0
1684140990.69972992,72728397,1573,1571,1553,1553,0,0,0,0,0,0,0,0,0,0
1684140990.79969001,72828357,1573,1572,1551,1551,0,0,0,0,0,0,0,0,0,0
1684140990.89965010,72928317,1574,1573,1549,1550,0,0,0,0,0,0,0,0,0,0
1684140990.99960995,73028277,1574,1575,1546,1547,0,0,0,0,0,0,0,0,0,0
1684140991.09957004,73128237,1575,1577,1543,1543,0,0,0,0,0,0,0,0,0,0
1684140991.19953012,73228197,1578,1580,1540,1539,0,0,0,0,0,0,0,0,0,0
1684140991.29948997,73328157,1582,1584,1538,1536,0,0,0,0,0,0,0,0,0,0
1684140991.40028310,73428950,1585,1587,1534,1533,0,0,0,0,0,0,0,0,0,0
1684140991.50024295,73528910,1588,1589,1530,1530,0,0,0,0,0,0,0,0,0,0
1684140991.60020304,73628870,1591,1592,1529,1529,0,0,0,0,0,0,0,0,0,0
1684140991.70016313,73728830,1593,1593,1528,1529,0,0,0,0,0,0,0,0,0,0
1684140991.80012298,73828790,1594,1594,1530,1531,0,0,0,0,0,0,0,0,0,0
1684140991.90008307,73928750,1593,1593,1532,1534,0,0,0,0,0,0,0,0,0,0
1684140992.00004292,74028710,1592,1592,1537,1540,0,0,0,0,0,0,0,0,0,0
1684140992.10000300,74128670,1589,1588,1541,1546,0,0,0,0,0,0,0,0,0,0
1684140992.19996309,74228630,1584,1583,1547,1552,0,0,0,0,0,0,0,0,0,0
1684140992.29992294,74328590,1578,1577,1554,1558,0,0,0,0,0,0,0,0,0,0
1684140992.39988303,74428550,1572,1571,1561,1564,0,0,0,0,0,0,0,0,0,0
1684140992.49984312,74528510,1566,1564,1568,1571,0,0,0,0,0,0,0,0,0,0
1684140992.59980297,74628470,1559,1558,1574,1577,0,0,0,0,0,0,0,0,0,0
1684140992.69976306,74728430,1553,1552,1580,1582,0,0,0,0,0,0,0,0,0,0
1684140992.79972291,74828390,1549,1548,1587,1588,0,0,0,0,0,0,0,0,0,0
1684140992.89968300,74928350,1545,1544,1592,1592,0,0,0,0,0,0,0,0,0,0
1684140992.99964309,75028310,1541,1541,1596,1595,0,0,0,0,0,0,0,0,0,0
1684140993.09960294,75128270,1538,1538,1599,1597,0,0,0,0,0,0,0,0,0,0
1684140993.19956303,75228230,1537,1537,1601,1600,0,0,0,0,0,0,0,0,0,0
1684140993.29952312,75328190,1538,1539,1602,1600,0,0,0,0,0,0,0,0,0,0
1684140993.40031600,75428983,1539,1540,1600,1600,0,0,0,0,0,0,0,0,0,0
1684140993.50027609,75528943,1542,1544,1598,1598,0,0,0,0,0,0,0,0,0,0
1684140993.60023594,75628903,1547,1549,1594,1595,0,0,0,0,0,0,0,0,0,0
1684140993.70019603,75728863,1553,1554,1590,1590,0,0,0,0,0,0,0,0,0,0
1684140993.80015612,75828823,1559,1560,1585,1585,0,0,0,0,0,0,0,0,0,0
1684140993.90011597,75928783,1566,1566,1581,1581,0,0,0,0,0,0,0,0,0,0
1684140994.00007606,76028743,1571,1570,1577,1576,0,0,0,0,0,0,0,0,0,0
1684140994.10003614,76128703,1575,1574,1575,1574,0,0,0,0,0,0,0,0,0,0
1684140994.19999599,76228663,1579,1578,1573,1572,0,0,0,0,0,0,0,0,0,0
1684140994.29995608,76328623,1581,1580,1572,1571,0,0,0,0,0,0,0,0,0,0
1684140994.39991593,76428583,1583,1582,1572,1571,0,0,0,0,0,0,0,0,0,0
1684140994.49987602,76528543,1584,1584,1572,1572,0,0,0,0,0,0,0,0,0,0
1684140994.59983611,76628503,1585,1584,1572,1573,0,0,0,0,0,0,0,0,0,0
1684140994.69979596,76728463,1584,1583,1571,1572,0,0,0,0,0,0,0,0,0,0
1684140994.79975605,76828423,1583,1584,1572,1573,0,0,0,0,0,0,0,0,0,0
1684140994.89971614,76928383,1583,1583,1574,1574,0,0,0,0,0,0,0,0,0,0
1684140994.99967599,77028343,1583,1583,1575,1575,0,0,0,0,0,0,0,0,0,0
1684140995.09963608,77128303,1581,1581,1575,1575,0,0,0,0,0,0,0,0,0,0
1684140995.19959593,77228263,1580,1580,1576,1575,0,0,0,0,0,0,0,0,0,0
1684140995.29955602,77328223,1580,1580,1577,1577,0,0,0,0,0,0,0,0,0,0
1684140995.39951611,77428183,1579,1580,1578,1578,0,0,0,0,0,0,0,0,0,0
1684140995.50030899,77528976,1579,1579,1578,1578,0,0,0,0,0,0,0,0,0,0
1684140995.60026908,77628936,1579,1579,1579,1579,0,0,0,0,0,0,0,0,0,0
1684140995.70022893,77728896,1579,1578,1580,1580,0,0,0,0,0,0,0,0,0,0
1684140995.80018902,77828856,1578,1579,1580,1581,0,0,0,0,0,0,0,0,0,0
1684140995.90014911,77928816,1578,1578,1581,1581,0,0,0,0,0,0,0,0,0,0
1684140996.00010896,78028776,1578,1578,1581,1580,0,0,0,0,0,0,0,0,0,0
1684140996.10006905,78128736,1578,1578,1580,1580,0,0,0,0,0,0,0,0,0,0
1684140996.20002913,78228696,1579,1579,1581,1581,0,0,0,0,0,0,0,0,0,0
1684140996.29998899,78328656,1579,1579,1582,1581,0,0,0,0,0,0,0,0,0,0
1684140996.39994907,78428616,1579,1579,1580,1580,0,0,0,0,0,0,0,0,0,0
1684140996.49990892,78528576,1579,1579,1579,1580,0,0,0,0,0,0,0,0,0,0
1684140996.59986901,78628536,1579,1579,1579,1580,0,0,0,0,0,0,0,0,0,0
1684140996.69982910,78728496,1580,1580,1580,1580,0,0,0,0,0,0,0,0,0,0
1684140996.79978895,78828456,1581,1580,1580,1579,0,0,0,0,0,0,0,0,0,0
1684140996.89974904,78928416,1580,1580,1579,1579,0,0,0,0,0,0,0,0,0,0
1684140996.99970913,79028376,1580,1581,1579,1579,0,0,0,0,0,0,0,0,0,0
1684140997.09966898,79128336,1580,1581,1579,1579,0,0,0,0,0,0,0,0,0,0
1684140997.19962907,79228296,1581,1581,1580,1580,0,0,0,0,0,0,0,0,0,0
1684140997.29958892,79328256,1581,1580,1579,1579,0,0,0,0,0,0,0,0,0,0
1684140997.39954901,79428216,1581,1581,1580,1580,0,0,0,0,0,0,0,0,0,0
1684140997.49950910,79528176,1581,1581,1580,1580,0,0,0,0,0,0,0,0,0,0
1684140997.60030198,79628969,1581,1582,1580,1581,0,0,0,0,0,0,0,0,0,0
1684140997.70026207,79728929,1582,1582,1581,1581,0,0,0,0,0,0,0,0,0,0
1684140997.80022192,79828889,1582,1582,1582,1582,0,0,0,0,0,0,0,0,0,0
1684140997.90018201,79928849,1581,1581,1581,1580,0,0,0,0,0,0,0,0,0,0
1684140998.00014210,80028809,1581,1581,1581,1580,0,0,0,0,0,0,0,0,0,0
1684140998.10010195,80128769,1581,1581,1581,1582,0,0,0,0,0,0,0,0,0,0
1684140998.20006204,80228729,1581,1582,1581,1581,0,0,0,0,0,0,0,0,0,0
1684140998.30002213,80328689,1581,1581,1580,1581,0,0,0,0,0,0,0,0,0,0
1684140998.39998198,80428649,1582,1582,1582,1582,0,0,0,0,0,0,0,0,0,0
1684140998.49994206,80528609,1582,1581,1588,1575,0,0,0,0,0,0,0,0,0,0
1684140998.59990191,80628569,1581,1581,1586,1573,0,0,0,0,0,0,0,0,0,0
1684140998.69986200,80728529,1580,1581,1578,1574,0,0,0,0,0,0,0,0,0,0
1684140998.79982209,80828489,1578,1580,1569,1572,0,0,0,0,0,0,0,0,0,0
1684140998.89978194,80928449,1577,1579,1563,1570,0,0,0,0,0,0,0,0,0,0
1684140998.99974203,81028409,1576,1579,1558,1564,0,0,0,0,0,0,0,0,0,0
1684140999.09970212,81128369,1577,1579,1557,1561,0,0,0,0,0,0,0,0,0,0
1684140999.19966197,81228329,1578,1579,1558,1558,0,0,0,0,0,0,0,0,0,0
1684140999.29962206,81328289,1578,1578,1558,1556,0,0,0,0,0,0,0,0,0,0
1684140999.39958191,81428249,1579,1578,1558,1556,0,0,0,0,0,0,0,0,0,0
1684140999.49954200,81528209,1578,1577,1557,1555,0,0,0,0,0,0,0,0,0,0
1684140999.59950209,81628169,1577,1577,1555,1555,0,0,0,0,0,0,0,0,0,0
1684140999.70029497,81728962,1576,1577,1554,1554,0,0,0,0,0,0,0,0,0,0
1684140999.80025506,81828922,1575,1576,1552,1552,0,0,0,0,0,0,0,0,0,0
1684140999.90021491,81928882,1575,1577,1551,1551,0,0,0,0,0,0,0,0,0,0
1684141000.00017500,82028842,1576,1578,1550,1550,0,0,0,0,0,0,0,0,0,0
1684141000.10013509,82128802,1578,1579,1549,1549,0,0,0,0,0,0,0,0,0,0
1684141000.20009494,82228762,1579,1580,1547,1546,0,0,0,0,0,0,0,0,0,0
1684141000.30005503,82328722,1581,1582,1545,1544,0,0,0,0,0,0,0,0,0,0
1684141000.40001512,82428682,1583,1584,1543,1542,0,0,0,0,0,0,0,0,0,0
1684141000.49997497,82528642,1585,1585,1540,1540,0,0,0,0,0,0,0,0,0,0
1684141000.59993505,82628602,1587,1587,1539,1539,0,0,0,0,0,0,0,0,0,0
1684141000.69989514,82728562,1589,1589,1538,1539,0,0,0,0,0,0,0,0,0,0
1684141000.79985499,82828522,1591,1590,1538,1540,0,0,0,0,0,0,0,0,0,0
1684141000.89981508,82928482,1590,1590,1539,1540,0,0,0,0,0,0,0,0,0,0
1684141000.99977493,83028442,1590,1590,1541,1543,0,0,0,0,0,0,0,0,0,0
1684141001.09973502,83128402,1588,1587,1543,1546,0,0,0,0,0,0,0,0,0,0
1684141001.19969511,83228362,1586,1585,1549,1551,0,0,0,0,0,0,0,0,0,0
1684141001.29965496,83328322,1582,1580,1555,1558,0,0,0,0,0,0,0,0,0,0
1684141001.39961505,83428282,1576,1572,1562,1565,0,0,0,0,0,0,0,0,0,0
1684141001.49957514,83528242,1568,1564,1573,1575,0,0,0,0,0,0,0,0,0,0
1684141001.59953499,83628202,1558,1555,1584,1585,0,0,0,0,0,0,0,0,0,0
1684141001.69949508,83728162,1548,1546,1594,1595,0,0,0,0,0,0,0,0,0,0
1684141001.80028796,83828955,1539,1539,1603,1603,0,0,0,0,0,0,0,0,0,0
1684141001.90024805,83928915,1533,1534,1609,1608,0,0,0,0,0,0,0,0,0,0
1684141002.00020814,84028875,1531,1533,1612,1611,0,0,0,0,0,0,0,0,0,0
1684141002.10016799,84128835,1531,1533,1611,1610,0,0,0,0,0,0,0,0,0,0
1684141002.20012808,84228795,1535,1538,1609,1609,0,0,0,0,0,0,0,0,0,0
1684141002.30008793,84328755,1541,1542,1603,1603,0,0,0,0,0,0,0,0,0,0
1684141002.40004802,84428715,1548,1550,1597,1597,0,0,0,0,0,0,0,0,0,0
1684141002.50000811,84528675,1556,1557,1590,1589,0,0,0,0,0,0,0,0,0,0
1684141002.59996796,84628635,1564,1565,1583,1582,0,0,0,0,0,0,0,0,0,0
1684141002.69992805,84728595,1572,1572,1577,1576,0,0,0,0,0,0,0,0,0,0
1684141002.79988813,84828555,1579,1578,1572,1571,0,0,0,0,0,0,0,0,0,0
1684141002.89984798,84928515,1585,1583,1569,1569,0,0,0,0,0,0,0,0,0,0
1684141002.99980807,85028475,1588,1586,1566,1566,0,0,0,0,0,0,0,0,0,0
1684141003.09976792,85128435,1590,1588,1566,1566,0,0,0,0,0,0,0,0,0,0
1684141003.19972801,85228395,1591,1589,1567,1568,0,0,0,0,0,0,0,0,0,0
1684141003.29968810,85328355,1589,1588,1568,1569,0,0,0,0,0,0,0,0,0,0
1684141003.39964795,85428315,1586,1586,1570,1571,0,0,0,0,0,0,0,0,0,0
1684141003.49960804,85528275,1584,1584,1574,1574,0,0,0,0,0,0,0,0,0,0
1684141003.59956813,85628235,1582,1582,1578,1577,0,0,0,0,0,0,0,0,0,0
1684141003.69952798,85728195,1579,1580,1580,1580,0,0,0,0,0,0,0,0,0,0
1684141003.79948807,85828155,1576,1577,1581,1581,0,0,0,0,0,0,0,0,0,0
1684141003.90028095,85928948,1575,1576,1584,1584,0,0,0,0,0,0,0,0,0,0
1684141004.00024104,86028908,1574,1574,1585,1585,0,0,0,0,0,0,0,0,0,0
1684141004.10020113,86128868,1573,1574,1584,1584,0,0,0,0,0,0,0,0,0,0
1684141004.20016098,86228828,1573,1574,1585,1585,0,0,0,0,0,0,0,0,0,0
1684141004.30012107,86328788,1574,1574,1583,1583,0,0,0,0,0,0,0,0,0,0
1684141004.40008092,86428748,1574,1575,1582,1582,0,0,0,0,0,0,0,0,0,0
1684141004.50004101,86528708,1576,1576,1582,1582,0,0,0,0,0,0,0,0,0,0
1684141004.60000110,86628668,1577,1577,1580,1580,0,0,0,0,0,0,0,0,0,0
1684141004.69996095,86728628,1579,1579,1579,1579,0,0,0,0,0,0,0,0,0,0
1684141004.79992104,86828588,1580,1580,1578,1578,0,0,0,0,0,0,0,0,0,0
1684141004.89988112,86928548,1581,1581,1578,1578,0,0,0,0,0,0,0,0,0,0
1684141004.99984097,87028508,1582,1582,1578,1578,0,0,0,0,0,0,0,0,0,0
1684141005.09980106,87128468,1582,1581,1576,1577,0,0,0,0,0,0,0,0,0,0
1684141005.19976091,87228428,1583,1582,1578,1578,0,0,0,0,0,0,0,0,0,0
1684141005.29972100,87328388,1583,1582,1578,1578,0,0,0,0,0,0,0,0,0,0
1684141005.39968109,87428348,1581,1581,1577,1577,0,0,0,0,0,0,0,0,0,0
1684141005.49964094,87528308,1582,1582,1579,1579,0,0,0,0,0,0,0,0,0,0
1684141005.59960103,87628268,1580,1581,1579,1579,0,0,0,0,0,0,0,0,0,0
1684141005.69956112,87728228,1581,1581,1580,1580,0,0,0,0,0,0,0,0,0,0
1684141005.79952097,87828188,1581,1581,1581,1581,0,0,0,0,0,0,0,0,0,0
1684141005.90031409,87928981,1580,1579,1580,1580,0,0,0,0,0,0,0,0,0,0
1684141006.00027394,88028941,1580,1579,1581,1581,0,0,0,0,0,0,0,0,0,0
1684141006.10023403,88128901,1580,1580,1582,1582,0,0,0,0,0,0,0,0,0,0
1684141006.20019412,88228861,1579,1579,1581,1581,0,0,0,0,0,0,0,0,0,0
1684141006.30015397,88328821,1580,1580,1582,1582,0,0,0,0,0,0,0,0,0,0
1684141006.40011406,88428781,1580,1581,1582,1582,0,0,0,0,0,0,0,0,0,0
1684141006.50007391,88528741,1580,1580,1581,1581,0,0,0,0,0,0,0,0,0,0
1684141006.60003400,88628701,1580,1580,1586,1575,0,0,0,0,0,0,0,0,0,0
1684141006.69999409,88728661,1581,1581,1588,1574,0,0,0,0,0,0,0,0,0,0
1684141006.79995394,88828621,1580,1579,1581,1575,0,0,0,0,0,0,0,0,0,0
1684141006.89991403,88928581,1577,1576,1572,1574,0,0,0,0,0,0,0,0,0,0
1684141006.99987411,89028541,1574,1573,1567,1574,0,0,0,0,0,0,0,0,0,0
1684141007.09983397,89128501,1572,1572,1565,1572,0,0,0,0,0,0,0,0,0,0
1684141007.19979405,89228461,1569,1570,1564,1569,0,0,0,0,0,0,0,0,0,0
1684141007.29975414,89328421,1568,1568,1565,1567,0,0,0,0,0,0,0,0,0,0
1684141007.39971399,89428381,1567,1568,1567,1566,0,0,0,0,0,0,0,0,0,0
1684141007.49967408,89528341,1566,1567,1568,1566,0,0,0,0,0,0,0,0,0,0
1684141007.59963393,89628301,1566,1567,1568,1566,0,0,0,0,0,0,0,0,0,0
1684141007.69959402,89728261,1565,1565,1568,1565,0,0,0,0,0,0,0,0,0,0
1684141007.79955411,89828221,1564,1564,1566,1565,0,0,0,0,0,0,0,0,0,0
1684141007.89951396,89928181,1563,1563,1565,1565,0,0,0,0,0,0,0,0,0,0
1684141008.00030708,90028974,1563,1562,1564,1564,0,0,0,0,0,0,0,0,0,0
1684141008.10026693,90128934,1562,1562,1562,1563,0,0,0,0,0,0,0,0,0,0
1684141008.20022702,90228894,1561,1561,1562,1562,0,0,0,0,0,0,0,0,0,0
1684141008.30018711,90328854,1561,1560,1561,1562,0,0,0,0,0,0,0,0,0,0
1684141008.40014696,90428814,1560,1560,1561,1560,0,0,0,0,0,0,0,0,0,0
1684141008.50010705,90528774,1560,1560,1561,1560,0,0,0,0,0,0,0,0,0,0
1684141008.60006714,90628734,1559,1560,1560,1559,0,0,0,0,0,0,0,0,0,0
1684141008.70002699,90728694,1559,1559,1559,1559,0,0,0,0,0,0,0,0,0,0
1684141008.79998708,90828654,1559,1559,1559,1558,0,0,0,0,0,0,0,0,0,0
1684141008.89994693,90928614,1560,1559,1560,1559,0,0,0,0,0,0,0,0,0,0
1684141008.99990702,91028574,1559,1559,1560,1558,0,0,0,0,0,0,0,0,0,0
1684141009.09986711,91128534,1560,1560,1560,1559,0,0,0,0,0,0,0,0,0,0
1684141009.19982696,91228494,1559,1559,1560,1558,0,0,0,0,0,0,0,0,0,0
1684141009.29978704,91328454,1559,1559,1561,1558,0,0,0,0,0,0,0,0,0,0
1684141009.39974713,91428414,1560,1560,1561,1558,0,0,0,0,0,0,0,0,0,0
1684141009.49970698,91528374,1561,1560,1560,1562,0,0,0,0,0,0,0,0,0,0
1684141009.59966707,91628334,1560,1561,1558,1564,0,0,0,0,0,0,0,0,0,0
1684141009.69962692,91728294,1560,1560,1557,1564,0,0,0,0,0,0,0,0,0,0
1684141009.79958701,91828254,1560,1560,1558,1562,0,0,0,0,0,0,0,0,0,0
1684141009.89954710,91928214,1558,1558,1557,1557,0,0,0,0,0,0,0,0,0,0
1684141009.99950695,92028174,1558,1558,1556,1558,0,0,0,0,0,0,0,0,0,0
1684141010.10030007,92128967,1555,1555,1553,1555,0,0,0,0,0,0,0,0,0,0
1684141010.20025992,92228927,1552,1552,1550,1550,0,0,0,0,0,0,0,0,0,0
1684141010.30022001,92328887,1547,1547,1544,1544,0,0,0,0,0,0,0,0,0,0
1684141010.40018010,92428847,1541,1541,1538,1537,0,0,0,0,0,0,0,0,0,0
1684141010.50013995,92528807,1534,1534,1530,1530,0,0,0,0,0,0,0,0,0,0
1684141010.60010004,92628767,1528,1527,1523,1523,0,0,0,0,0,0,0,0,0,0
1684141010.70006013,92728727,1523,1522,1519,1519,0,0,0,0,0,0,0,0,0,0
1684141010.80001998,92828687,1520,1520,1519,1519,0,0,0,0,0,0,0,0,0,0
1684141010.89998007,92928647,1520,1520,1520,1521,0,0,0,0,0,0,0,0,0,0
1684141010.99993992,93028607,1520,1520,1523,1524,0,0,0,0,0,0,0,0,0,0
1684141011.09990001,93128567,1522,1523,1528,1528,0,0,0,0,0,0,0,0,0,0
1684141011.19986010,93228527,1525,1526,1532,1532,0,0,0,0,0,0,0,0,0,0
1684141011.29981995,93328487,1529,1529,1537,1537,0,0,0,0,0,0,0,0,0,0
1684141011.39978004,93428447,1533,1533,1540,1540,0,0,0,0,0,0,0,0,0,0
1684141011.49974012,93528407,1536,1536,1542,1542,0,0,0,0,0,0,0,0,0,0
1684141011.59969997,93628367,1540,1539,1544,1544,0,0,0,0,0,0,0,0,0,0
1684141011.69966006,93728327,1542,1542,1545,1545,0,0,0,0,0,0,0,0,0,0
1684141011.79961991,93828287,1544,1544,1545,1545,0,0,0,0,0,0,0,0,0,0
1684141011.89958000,93928247,1546,1546,1545,1545,0,0,0,0,0,0,0,0,0,0
1684141011.99954009,94028207,1548,1548,1544,1545,0,0,0,0,0,0,0,0,0,0
1684141012.09949994,94128167,1548,1549,1545,1545,0,0,0,0,0,0,0,0,0,0
1684141012.20029306,94228960,1549,1549,1545,1545,0,0,0,0,0,0,0,0,0,0
1684141012.30025291,94328920,1549,1549,1544,1544,0,0,0,0,0,0,0,0,0,0
1684141012.40021300,94428880,1549,1549,1545,1544,0,0,0,0,0,0,0,0,0,0
1684141012.50017309,94528840,1548,1548,1545,1545,0,0,0,0,0,0,0,0,0,0
1684141012.60013294,94628800,1547,1547,1544,1544,0,0,0,0,0,0,0,0,0,0
1684141012.70009303,94728760,1546,1546,1544,1544,0,0,0,0,0,0,0,0,0,0
1684141012.80005312,94828720,1546,1546,1546,1545,0,0,0,0,0,0,0,0,0,0
1684141012.90001297,94928680,1546,1545,1546,1546,0,0,0,0,0,0,0,0,0,0
1684141012.99997306,95028640,1544,1544,1546,1545,0,0,0,0,0,0,0,0,0,0
1684141013.09993291,95128600,1544,1544,1545,1545,0,0,0,0,0,0,0,0,0,0
1684141013.19989300,95228560,1543,1543,1545,1545,0,0,0,0,0,0,0,0,0,0
1684141013.29985309,95328520,1544,1543,1545,1545,0,0,0,0,0,0,0,0,0,0
1684141013.39981294,95428480,1543,1543,1545,1545,0,0,0,0,0,0,0,0,0,0
1684141013.49977303,95528440,1543,1543,1544,1545,0,0,0,0,0,0,0,0,0,0
1684141013.59973311,95628400,1543,1543,1544,1544,0,0,0,0,0,0,0,0,0,0
1684141013.69969296,95728360,1543,1543,1545,1544,0,0,0,0,0,0,0,0,0,0
1684141013.79965305,95828320,1543,1544,1544,1544,0,0,0,0,0,0,0,0,0,0
1684141013.89961314,95928280,1544,1544,1544,1544,0,0,0,0,0,0,0,0,0,0
1684141013.99957299,96028240,1544,1544,1544,1544,0,0,0,0,0,0,0,0,0,0
1684141014.09953308,96128200,1545,1544,1544,1544,0,0,0,0,0,0,0,0,0,0
1684141014.19949293,96228160,1544,1544,1543,1544,0,0,0,0,0,0,0,0,0,0
1684141014.30028605,96328953,1544,1544,1543,1543,0,0,0,0,0,0,0,0,0,0
1684141014.40024614,96428913,1544,1544,1544,1543,0,0,0,0,0,0,0,0,0,0
1684141014.50020599,96528873,1544,1544,1543,1544,0,0,0,0,0,0,0,0,0,0
1684141014.60016608,96628833,1544,1544,1543,1543,0,0,0,0,0,0,0,0,0,0
1684141014.70012593,96728793,1544,1544,1544,1543,0,0,0,0,0,0,0,0,0,0
1684141014.80008602,96828753,1544,1544,1543,1544,0,0,0,0,0,0,0,0,0,0
1684141014.90004611,96928713,1545,1544,1544,1544,0,0,0,0,0,0,0,0,0,0
1684141015.00000596,97028673,1545,1545,1544,1545,0,0,0,0,0,0,0,0,0,0
1684141015.09996605,97128633,1544,1544,1544,1544,0,0,0,0,0,0,0,0,0,0
1684141015.19992614,97228593,1543,1544,1544,1543,0,0,0,0,0,0,0,0,0,0
1684141015.29988599,97328553,1544,1544,1544,1545,0,0,0,0,0,0,0,0,0,0
1684141015.39984608,97428513,1545,1544,1545,1545,0,0,0,0,0,0,0,0,0,0
1684141015.49980593,97528473,1544,1544,1544,1544,0,0,0,0,0,0,0,0,0,0
1684141015.59976602,97628433,1544,1544,1544,1544,0,0,0,0,0,0,0,0,0,0
1684141015.69972610,97728393,1544,1543,1544,1544,0,0,0,0,0,0,0,0,0,0
1684141015.79968596,97828353,1544,1544,1544,1544,0,0,0,0,0,0,0,0,0,0
1684141015.89964604,97928313,1544,1544,1544,1544,0,0,0,0,0,0,0,0,0,0
1684141015.99960613,98028273,1543,1544,1544,1544,0,0,0,0,0,0,0,0,0,0
1684141016.09956598,98128233,1543,1543,1543,1543,0,0,0,0,0,0,0,0,0,0
1684141016.19952607,98228193,1544,1544,1544,1544,0,0,0,0,0,0,0,0,0,0
1684141016.30031896,98328986,1544,1544,1544,1544,0,0,0,0,0,0,0,0,0,0
1684141016.40027905,98428946,1544,1544,1544,1544,0,0,0,0,0,0,0,0,0,0
1684141016.50023913,98528906,1544,1544,1544,1544,0,0,0,0,0,0,0,0,0,0
1684141016.60019898,98628866,1544,1544,1544,1544,0,0,0,0,0,0,0,0,0,0
1684141016.70015907,98728826,1544,1544,1544,1544,0,0,0,0,0,0,0,0,0,0
1684141016.80011892,98828786,1544,1544,1544,1544,0,0,0,0,0,0,0,0,0,0
1684141016.90007901,98928746,1545,1545,1544,1545,0,0,0,0,0,0,0,0,0,0
1684141017.00003910,99028706,1544,1545,1544,1545,0,0,0,0,0,0,0,0,0,0
1684141017.09999895,99128666,1544,1544,1544,1544,0,0,0,0,0,0,0,0,0,0
1684141017.19995904,99228626,1543,1544,1543,1544,0,0,0,0,0,0,0,0,0,0
1684141017.29991913,99328586,1544,1544,1544,1544,0,0,0,0,0,0,0,0,0,0
1684141017.39987898,99428546,1544,1544,1544,1543,0,0,0,0,0,0,0,0,0,0
1684141017.49983907,99528506,1544,1544,1544,1544,0,0,0,0,0,0,0,0,0,0
1684141017.59979892,99628466,1544,1544,1544,1544,0,0,0,0,0,0,0,0,0,0
1684141017.69975901,99728426,1544,1544,1544,1544,0,0,0,0,0,0,0,0,0,0
1684141017.79971910,99828386,1544,1544,1545,1545,0,0,0,0,0,0,0,0,0,0
1684141017.89967895,99928346,1544,1544,1544,1544,0,0,0,0,0,0,0,0,0,0
1684141017.99963903,100028306,1544,1544,1544,1544,0,0,0,0,0,0,0,0,0,0
1684141018.09959912,100128266,1544,1544,1544,1544,0,0,0,0,0,0,0,0,0,0
1684141018.19955897,100228226,1544,1544,1544,1544,0,0,0,0,0,0,0,0,0,0
1684141018.29951906,100328186,1545,1544,1544,1545,0,0,0,0,0,0,0,0,0,0
1684141018.40031195,100428979,1544,1544,1544,1544,0,0,0,0,0,0,0,0,0,0
1684141018.50027204,100528939,1544,1545,1544,1545,0,0,0,0,0,0,0,0,0,0
1684141018.60023212,100628899,1544,1545,1545,1544,0,0,0,0,0,0,0,0,0,0
1684141018.70019197,100728859,1545,1545,1545,1545,0,0,0,0,0,0,0,0,0,0
1684141018.80015206,100828819,1545,1545,1545,1545,0,0,0,0,0,0,0,0,0,0
1684141018.90011191,100928779,1545,1544,1545,1544,0,0,0,0,0,0,0,0,0,0
1684141019.00007200,101028739,1545,1544,1544,1545,0,0,0,0,0,0,0,0,0,0
1684141019.10003209,101128699,1544,1544,1544,1544,0,0,0,0,0,0,0,0,0,0
1684141019.19999194,101228659,1544,1544,1544,1544,0,0,0,0,0,0,0,0,0,0
1684141019.29995203,101328619,1545,1545,1544,1545,0,0,0,0,0,0,0,0,0,0
1684141019.39991212,101428579,1545,1545,1545,1545,0,0,0,0,0,0,0,0,0,0
1684141019.49987197,101528539,1544,1544,1544,1544,0,0,0,0,0,0,0,0,0,0
1684141019.59983206,101628499,1544,1544,1544,1544,0,0,0,0,0,0,0,0,0,0
1684141019.69979191,101728459,1543,1544,1544,1543,0,0,0,0,0,0,0,0,0,0
1684141019.79975200,101828419,1544,1544,1544,1544,0,0,0,0,0,0,0,0,0,0
1684141019.89971209,101928379,1544,1544,1544,1544,0,0,0,0,0,0,0,0,0,0
1684141019.99967194,102028339,1543,1544,1543,1544,0,0,0,0,0,0,0,0,0,0
1684141020.09963202,102128299,1543,1543,1543,1543,0,0,0,0,0,0,0,0,0,0
1684141020.19959211,102228259,1543,1544,1544,1543,0,0,0,0,0,0,0,0,0,0
1684141020.29955196,102328219,1543,1543,1543,1543,0,0,0,0,0,0,0,0,0,0
1684141020.39951205,102428179,1491,1491,1474,1472,0,0,0,0,0,0,0,0,0,0
1684141020.50030494,102528972,1373,1372,1302,1300,0,0,0,0,0,0,0,0,0,0
1684141020.60026503,102628932,1327,1326,1227,1225,0,0,0,0,0,0,0,0,0,0
1684141020.70022511,102728892,1314,1313,1204,1202,0,0,0,0,0,0,0,0,0,0
1684141020.80018497,102828852,1299,1298,1178,1175,0,0,0,0,0,0,0,0,0,0
1684141020.90014505,102928812,1261,1260,1153,1150,0,0,0,0,0,0,0,0,0,0
1684141021.00010514,103028772,1157,1156,1155,1150,0,0,0,0,0,0,0,0,0,0
1684141021.10006499,103128732,1057,1056,1152,1150,0,0,0,0,0,0,0,0,0,0
1684141021.20002508,103228692,1057,1056,1153,1150,0,0,0,0,0,0,0,0,0,0
1684141021.29998493,103328652,1057,1056,1152,1150,0,0,0,0,0,0,0,0,0,0
1684141021.39994502,103428612,1058,1048,1150,1162,0,0,0,0,0,0,0,0,0,0
1684141021.49990511,103528572,1057,1047,1150,1164,0,0,0,0,0,0,0,0,0,0
1684141021.59986496,103628532,1058,1051,1150,1158,0,0,0,0,0,0,0,0,0,0
1684141021.69982505,103728492,1058,1052,1150,1156,0,0,0,0,0,0,0,0,0,0
1684141021.79978514,103828452,1058,1052,1150,1156,0,0,0,0,0,0,0,0,0,0
1684141021.89974499,103928412,1058,1051,1150,1157,0,0,0,0,0,0,0,0,0,0
1684141021.99970508,104028372,1058,1051,1150,1157,0,0,0,0,0,0,0,0,0,0
1684141022.09966493,104128332,1058,1051,1150,1157,0,0,0,0,0,0,0,0,0,0
1684141022.19962502,104228292,1056,1058,1152,1150,0,0,0,0,0,0,0,0,0,0
1684141022.29958510,104328252,1058,1057,1150,1150,0,0,0,0,0,0,0,0,0,0
1684141022.39954495,104428212,1058,1056,1150,1151,0,0,0,0,0,0,0,0,0,0
1684141022.49950504,104528172,1058,1056,1150,1151,0,0,0,0,0,0,0,0,0,0
1684141022.60029793,104628965,1058,1056,1150,1151,0,0,0,0,0,0,0,0,0,0
1684141022.70025802,104728925,1000,1000,1000,1000,0,0,0,0,0,0,0,0,0,0
1684141022.80021811,104828885,1000,1000,1000,1000,0,0,0,0,0,0,0,0,0,0
1684141022.90017796,104928845,1000,1000,1000,1000,0,0,0,0,0,0,0,0,0,0
1684141023.00013804,105028805,1000,1000,1000,1000,0,0,0,0,0,0,0,0,0,0
1684141023.10009813,105128765,1000,1000,1000,1000,0,0,0,0,0,0,0,0,0,0
1684141023.20005798,105228725,1000,1000,1000,1000,0,0,0,0,0,0,0,0,0,0
1684141023.30001807,105328685,1000,1000,1000,1000,0,0,0,0,0,0,0,0,0,0
1684141023.39997792,105428645,1000,1000,1000,1000,0,0,0,0,0,0,0,0,0,0
1684141023.49993801,105528605,1000,1000,1000,1000,0,0,0,0,0,0,0,0,0,0
1684141023.59989810,105628565,1000,1000,1000,1000,0,0,0,0,0,0,0,0,0,0
1684141023.69985795,105728525,1000,1000,1000,1000,0,0,0,0,0,0,0,0,0,0
1684141023.79981804,105828485,1000,1000,1000,1000,0,0,0,0,0,0,0,0,0,0
1684141023.89977813,105928445,1000,1000,1000,1000,0,0,0,0,0,0,0,0,0,0
1684141023.99973798,106028405,1000,1000,1000,1000,0,0,0,0,0,0,0,0,0,0
1684141024.09969807,106128365,1000,1000,1000,1000,0,0,0,0,0,0,0,0,0,0
1684141024.19965792,106228325,1000,1000,1000,1000,0,0,0,0,0,0,0,0,0,0
1684141024.29961801,106328285,1000,1000,1000,1000,0,0,0,0,0,0,0,0,0,0
1684141024.39957809,106428245,1000,1000,1000,1000,0,0,0,0,0,0,0,0,0,0
1684141024.49953794,106528205,1000,1000,1000,1000,0,0,0,0,0,0,0,0,0,0
1684141024.59949803,106628165,1000,1000,1000,1000,0,0,0,0,0,0,0,0,0,0
1684141024.70029092,106728958,1000,1000,1000,1000,0,0,0,0,0,0,0,0,0,0
1684141024.80025101,106828918,1000,1000,1000,1000,0,0,0,0,0,0,0,0,0,0
1684141024.90021110,106928878,1000,1000,1000,1000,0,0,0,0,0,0,0,0,0,0
1684141025.00017095,107028838,1000,1000,1000,1000,0,0,0,0,0,0,0,0,0,0
1684141025.10013103,107128798,1000,1000,1000,1000,0,0,0,0,0,0,0,0,0,0
1684141025.20009112,107228758,1000,1000,1000,1000,0,0,0,0,0,0,0,0,0,0
1684141025.30005097,107328718,1000,1000,1000,1000,0,0,0,0,0,0,0,0,0,0
1684141025.40001106,107428678,1000,1000,1000,1000,0,0,0,0,0,0,0,0,0,0
1684141025.49997091,107528638,1000,1000,1000,1000,0,0,0,0,0,0,0,0,0,0
1684141025.59993100,107628598,1000,1000,1000,1000,0,0,0,0,0,0,0,0,0,0
1684141025.69989109,107728558,1000,1000,1000,1000,0,0,0,0,0,0,0,0,0,0
1684141025.79985094,107828518,1000,1000,1000,1000,0,0,0,0,0,0,0,0,0,0
1684141025.89981103,107928478,1000,1000,1000,1000,0,0,0,0,0,0,0,0,0,0
1684141025.99977112,108028438,1000,1000,1000,1000,0,0,0,0,0,0,0,0,0,0
1684141026.09973097,108128398,1000,1000,1000,1000,0,0,0,0,0,0,0,0,0,0
1684141026.19969106,108228358,1000,1000,1000,1000,0,0,0,0,0,0,0,0,0,0
1684141026.29965115,108328318,1000,1000,1000,1000,0,0,0,0,0,0,0,0,0,0
1684141026.39961100,108428278,1000,1000,1000,1000,0,0,0,0,0,0,0,0,0,0
1684141026.49957108,108528238,1000,1000,1000,1000,0,0,0,0,0,0,0,0,0,0
1684141026.59953094,108628198,1000,1000,1000,1000,0,0,0,0,0,0,0,0,0,0
1684141026.69949102,108728158,1000,1000,1000,1000,0,0,0,0,0,0,0,0,0,0
1684141026.80028391,108828951,1000,1000,1000,1000,0,0,0,0,0,0,0,0,0,0
1684141026.90024400,108928911,1000,1000,1000,1000,0,0,0,0,0,0,0,0,0,0
1684141027.00020409,109028871,1000,1000,1000,1000,0,0,0,0,0,0,0,0,0,0
1684141027.10016394,109128831,1000,1000,1000,1000,0,0,0,0,0,0,0,0,0,0
1684141027.20012403,109228791,1000,1000,1000,1000,0,0,0,0,0,0,0,0,0,0
1684141027.30008411,109328751,1000,1000,1000,1000,0,0,0,0,0,0,0,0,0,0
1684141027.40004396,109428711,1000,1000,1000,1000,0,0,0,0,0,0,0,0,0,0
1684141027.50000405,109528671,1000,1000,1000,1000,0,0,0,0,0,0,0,0,0,0
1684141027.59996414,109628631,1000,1000,1000,1000,0,0,0,0,0,0,0,0,0,0
1684141027.69992399,109728591,1000,1000,1000,1000,0,0,0,0,0,0,0,0,0,0
1684141027.79988408,109828551,1000,1000,1000,1000,0,0,0,0,0,0,0,0,0,0
1684141027.89984393,109928511,1000,1000,1000,1000,0,0,0,0,0,0,0,0,0,0
1684141027.99980402,110028471,1000,1000,1000,1000,0,0,0,0,0,0,0,0,0,0
1684141028.09976411,110128431,1000,1000,1000,1000,0,0,0,0,0,0,0,0,0,0
1684141028.19972396,110228391,1000,1000,1000,1000,0,0,0,0,0,0,0,0,0,0
1684141028.29968405,110328351,1000,1000,1000,1000,0,0,0,0,0,0,0,0,0,0
1684141028.39964414,110428311,1000,1000,1000,1000,0,0,0,0,0,0,0,0,0,0
1684141028.49960399,110528271,1000,1000,1000,1000,0,0,0,0,0,0,0,0,0,0
1684141028.59956408,110628231,1000,1000,1000,1000,0,0,0,0,0,0,0,0,0,0
1684141028.69952393,110728191,1000,1000,1000,1000,0,0,0,0,0,0,0,0,0,0
1684141028.80031705,110828984,1000,1000,1000,1000,0,0,0,0,0,0,0,0,0,0
1684141028.90027714,110928944,1000,1000,1000,1000,0,0,0,0,0,0,0,0,0,0
1684141029.00023699,111028904,1000,1000,1000,1000,0,0,0,0,0,0,0,0,0,0
1684141029.10019708,111128864,1000,1000,1000,1000,0,0,0,0,0,0,0,0,0,0
1684141029.20015693,111228824,1000,1000,1000,1000,0,0,0,0,0,0,0,0,0,0
1684141029.30011702,111328784,1000,1000,1000,1000,0,0,0,0,0,0,0,0,0,0
1684141029.40007710,111428744,1000,1000,1000,1000,0,0,0,0,0,0,0,0,0,0
1684141029.50003695,111528704,1000,1000,1000,1000,0,0,0,0,0,0,0,0,0,0
1684141029.59999704,111628664,1000,1000,1000,1000,0,0,0,0,0,0,0,0,0,0
1684141029.69995713,111728624,1000,1000,1000,1000,0,0,0,0,0,0,0,0,0,0
1684141029.79991698,111828584,1000,1000,1000,1000,0,0,0,0,0,0,0,0,0,0
1684141029.89987707,111928544,1000,1000,1000,1000,0,0,0,0,0,0,0,0,0,0
1684141029.99983692,112028504,1000,1000,1000,1000,0,0,0,0,0,0,0,0,0,0
1684141030.09979701,112128464,1000,1000,1000,1000,0,0,0,0,0,0,0,0,0,0
1684141030.19975710,112228424,1000,1000,1000,1000,0,0,0,0,0,0,0,0,0,0
1684141030.29971695,112328384,1000,1000,1000,1000,0,0,0,0,0,0,0,0,0,0
1684141030.39967704,112428344,1000,1000,1000,1000,0,0,0,0,0,0,0,0,0,0
1684141030.49963713,112528304,1000,1000,1000,1000,0,0,0,0,0,0,0,0,0,0
1684141030.59959698,112628264,1000,1000,1000,1000,0,0,0,0,0,0,0,0,0,0
1684141030.69955707,112728224,1000,1000,1000,1000,0,0,0,0,0,0,0,0,0,0
1684141030.79951692,112828184,1000,1000,1000,1000,0,0,0,0,0,0,0,0,0,0
1684141030.90031004,112928977,1000,1000,1000,1000,0,0,0,0,0,0,0,0,0,0
1684141031.00027013,113028937,1000,1000,1000,1000,0,0,0,0,0,0,0,0,0,0
1684141031.10022998,113128897,1000,1000,1000,1000,0,0,0,0,0,0,0,0,0,0
1684141031.20019007,113228857,1000,1000,1000,1000,0,0,0,0,0,0,0,0,0,0
1684141031.30014992,113328817,1000,1000,1000,1000,0,0,0,0,0,0,0,0,0,0
1684141031.40011001,113428777,1000,1000,1000,1000,0,0,0,0,0,0,0,0,0,0
1684141031.50007010,113528737,1000,1000,1000,1000,0,0,0,0,0,0,0,0,0,0
1684141031.60002995,113628697,1000,1000,1000,1000,0,0,0,0,0,0,0,0,0,0
1684141031.69999003,113728657,1000,1000,1000,1000,0,0,0,0,0,0,0,0,0,0
1684141031.79995012,113828617,1000,1000,1000,1000,0,0,0,0,0,0,0,0,0,0
1684141031.89990997,113928577,1000,1000,1000,1000,0,0,0,0,0,0,0,0,0,0
1684141031.99987006,114028537,1000,1000,1000,1000,0,0,0,0,0,0,0,0,0,0
1684141032.09982991,114128497,1000,1000,1000,1000,0,0,0,0,0,0,0,0,0,0
1684141032.19979000,114228457,1000,1000,1000,1000,0,0,0,0,0,0,0,0,0,0
1684141032.29975009,114328417,1000,1000,1000,1000,0,0,0,0,0,0,0,0,0,0
1684141032.39970994,114428377,1000,1000,1000,1000,0,0,0,0,0,0,0,0,0,0
1684141032.49967003,114528337,1000,1000,1000,1000,0,0,0,0,0,0,0,0,0,0
1684141032.59963012,114628297,1000,1000,1000,1000,0,0,0,0,0,0,0,0,0,0
1684141032.69958997,114728257,1000,1000,1000,1000,0,0,0,0,0,0,0,0,0,0
1684141032.79955006,114828217,1000,1000,1000,1000,0,0,0,0,0,0,0,0,0,0
1684141032.89951015,114928177,1000,1000,1000,1000,0,0,0,0,0,0,0,0,0,0
1684141033.00030303,115028970,1000,1000,1000,1000,0,0,0,0,0,0,0,0,0,0
1684141033.10026312,115128930,1000,1000,1000,1000,0,0,0,0,0,0,0,0,0,0
1684141033.20022297,115228890,1000,1000,1000,1000,0,0,0,0,0,0,0,0,0,0
1684141033.30018306,115328850,1000,1000,1000,1000,0,0,0,0,0,0,0,0,0,0
1684141033.40014291,115428810,1000,1000,1000,1000,0,0,0,0,0,0,0,0,0,0
1684141033.50010300,115528770,1000,1000,1000,1000,0,0,0,0,0,0,0,0,0,0
1684141033.60006309,115628730,1000,1000,1000,1000,0,0,0,0,0,0,0,0,0,0
1684141033.70002294,115728690,1000,1000,1000,1000,0,0,0,0,0,0,0,0,0,0
1684141033.79998302,115828650,1000,1000,1000,1000,0,0,0,0,0,0,0,0,0,0
1684141033.89994311,115928610,1000,1000,1000,1000,0,0,0,0,0,0,0,0,0,0
1684141033.99990296,116028570,1000,1000,1000,1000,0,0,0,0,0,0,0,0,0,0
1684141034.09986305,116128530,1000,1000,1000,1000,0,0,0,0,0,0,0,0,0,0
1684141034.19982314,116228490,1000,1000,1000,1000,0,0,0,0,0,0,0,0,0,0
1684141034.29978299,116328450,1000,1000,1000,1000,0,0,0,0,0,0,0,0,0,0
1684141034.39974308,116428410,1000,1000,1000,1000,0,0,0,0,0,0,0,0,0,0
1684141034.49970293,116528370,1000,1000,1000,1000,0,0,0,0,0,0,0,0,0,0
1684141034.59966302,116628330,1000,1000,1000,1000,0,0,0,0,0,0,0,0,0,0
1684141034.69962311,116728290,1000,1000,1000,1000,0,0,0,0,0,0,0,0,0,0
1684141034.79958296,116828250,1000,1000,1000,1000,0,0,0,0,0,0,0,0,0,0
1684141034.89954305,116928210,1000,1000,1000,1000,0,0,0,0,0,0,0,0,0,0
1684141034.99950314,117028170,1000,1000,1000,1000,0,0,0,0,0,0,0,0,0,0
1684141035.10029602,117128963,1000,1000,1000,1000,0,0,0,0,0,0,0,0,0,0
1684141035.20025611,117228923,1000,1000,1000,1000,0,0,0,0,0,0,0,0,0,0
1684141035.30021596,117328883,1000,1000,1000,1000,0,0,0,0,0,0,0,0,0,0
1684141035.40017605,117428843,1000,1000,1000,1000,0,0,0,0,0,0,0,0,0,0
1684141035.50013614,117528803,1000,1000,1000,1000,0,0,0,0,0,0,0,0,0,0
1684141035.60009599,117628763,1000,1000,1000,1000,0,0,0,0,0,0,0,0,0,0
1684141035.70005608,117728723,1000,1000,1000,1000,0,0,0,0,0,0,0,0,0,0
1684141035.80001593,117828683,1000,1000,1000,1000,0,0,0,0,0,0,0,0,0,0
1684141035.89997602,117928643,1000,1000,1000,1000,0,0,0,0,0,0,0,0,0,0
1684141035.99993610,118028603,1000,1000,1000,1000,0,0,0,0,0,0,0,0,0,0
1684141036.09989595,118128563,1000,1000,1000,1000,0,0,0,0,0,0,0,0,0,0
1684141036.19985604,118228523,1000,1000,1000,1000,0,0,0,0,0,0,0,0,0,0
1684141036.29981613,118328483,1000,1000,1000,1000,0,0,0,0,0,0,0,0,0,0
1684141036.39977598,118428443,1000,1000,1000,1000,0,0,0,0,0,0,0,0,0,0
1684141036.49973607,118528403,1000,1000,1000,1000,0,0,0,0,0,0,0,0,0,0
1684141036.59969592,118628363,1000,1000,1000,1000,0,0,0,0,0,0,0,0,0,0
1684141036.69965601,118728323,1000,1000,1000,1000,0,0,0,0,0,0,0,0,0,0
1684141036.79961610,118828283,1000,1000,1000,1000,0,0,0,0,0,0,0,0,0,0
1684141036.89957595,118928243,1000,1000,1000,1000,0,0,0,0,0,0,0,0,0,0
1684141036.99953604,119028203,1000,1000,1000,1000,0,0,0,0,0,0,0,0,0,0
1684141037.09949613,119128163,1000,1000,1000,1000,0,0,0,0,0,0,0,0,0,0
1684141037.20028901,119228956,1000,1000,1000,1000,0,0,0,0,0,0,0,0,0,0
1684141037.30024910,119328916,1000,1000,1000,1000,0,0,0,0,0,0,0,0,0,0
1684141037.40020895,119428876,1000,1000,1000,1000,0,0,0,0,0,0,0,0,0,0
1684141037.50016904,119528836,1000,1000,1000,1000,0,0,0,0,0,0,0,0,0,0
1684141037.60012913,119628796,1000,1000,1000,1000,0,0,0,0,0,0,0,0,0,0
