timestamp,TimeUS,C1,C2,C3,C4,C5,C6,C7,C8,C9,C10,C11,C12,C13,C14
1683125879.30004025,45528448,1000,1000,1000,1000,0,0,0,0,0,0,0,0,0,0
1683125879.40000010,45628408,1000,1000,1000,1000,0,0,0,0,0,0,0,0,0,0
1683125879.49996018,45728368,1000,1000,1000,1000,0,0,0,0,0,0,0,0,0,0
1683125879.59992003,45828328,1000,1000,1000,1000,0,0,0,0,0,0,0,0,0,0
1683125879.69988012,45928288,1000,1000,1000,1000,0,0,0,0,0,0,0,0,0,0
1683125879.79984021,46028248,1000,1000,1000,1000,0,0,0,0,0,0,0,0,0,0
1683125879.89980006,46128208,1000,1000,1000,1000,0,0,0,0,0,0,0,0,0,0
1683125879.99976015,46228168,1000,1000,1000,1000,0,0,0,0,0,0,0,0,0,0
1683125880.10055304,46328961,1000,1000,1000,1000,0,0,0,0,0,0,0,0,0,0
1683125880.20051312,46428921,1000,1000,1000,1000,0,0,0,0,0,0,0,0,0,0
1683125880.30047321,46528881,1000,1000,1000,1000,0,0,0,0,0,0,0,0,0,0
1683125880.40043306,46628841,1000,1000,1000,1000,0,0,0,0,0,0,0,0,0,0
1683125880.50039315,46728801,1000,1000,1000,1000,0,0,0,0,0,0,0,0,0,0
1683125880.60035324,46828761,1000,1000,1000,1000,0,0,0,0,0,0,0,0,0,0
1683125880.70031309,46928721,1000,1000,1000,1000,0,0,0,0,0,0,0,0,0,0
1683125880.80027318,47028681,1000,1000,1000,1000,0,0,0,0,0,0,0,0,0,0
1683125880.90023303,47128641,1000,1000,1000,1000,0,0,0,0,0,0,0,0,0,0
1683125881.00019312,47228601,1000,1000,1000,1000,0,0,0,0,0,0,0,0,0,0
1683125881.10015321,47328561,1000,1000,1000,1000,0,0,0,0,0,0,0,0,0,0
1683125881.20011306,47428521,1000,1000,1000,1000,0,0,0,0,0,0,0,0,0,0
1683125881.30007315,47528481,1012,1012,1012,1012,0,0,0,0,0,0,0,0,0,0
1683125881.40003324,47628441,1042,1042,1042,1042,0,0,0,0,0,0,0,0,0,0
1683125881.49999309,47728401,1072,1072,1072,1072,0,0,0,0,0,0,0,0,0,0
1683125881.59995317,47828361,1102,1102,1102,1102,0,0,0,0,0,0,0,0,0,0
1683125881.69991302,47928321,1132,1132,1132,1132,0,0,0,0,0,0,0,0,0,0
1683125881.79987311,48028281,1268,1263,1263,1268,0,0,0,0,0,0,0,0,0,0
1683125881.89983320,48128241,1481,1476,1477,1481,0,0,0,0,0,0,0,0,0,0
1683125881.99979305,48228201,1644,1640,1640,1645,0,0,0,0,0,0,0,0,0,0
1683125882.09975314,48328161,1782,1779,1779,1782,0,0,0,0,0,0,0,0,0,0
1683125882.20054603,48428954,1901,1898,1897,1902,0,0,0,0,0,0,0,0,0,0
1683125882.30050611,48528914,1879,1877,1877,1880,0,0,0,0,0,0,0,0,0,0
1683125882.40046620,48628874,1754,1753,1753,1754,0,0,0,0,0,0,0,0,0,0
1683125882.50042605,48728834,1653,1654,1654,1653,0,0,0,0,0,0,0,0,0,0
1683125882.60038614,48828794,1623,1624,1625,1622,0,0,0,0,0,0,0,0,0,0
1683125882.70034623,48928754,1627,1629,1629,1627,0,0,0,0,0,0,0,0,0,0
1683125882.80030608,49028714,1639,1633,1632,1641,0,0,0,0,0,0,0,0,0,0
1683125882.90026617,49128674,1627,1628,1621,1634,0,0,0,0,0,0,0,0,0,0
1683125883.00022626,49228634,1618,1619,1613,1624,0,0,0,0,0,0,0,0,0,0
1683125883.10018611,49328594,1613,1613,1611,1615,0,0,0,0,0,0,0,0,0,0
1683125883.20014620,49428554,1612,1612,1613,1611,0,0,0,0,0,0,0,0,0,0
1683125883.30010605,49528514,1613,1612,1616,1609,0,0,0,0,0,0,0,0,0,0
1683125883.40006614,49628474,1615,1615,1620,1611,0,0,0,0,0,0,0,0,0,0
1683125883.50002623,49728434,1618,1618,1622,1614,0,0,0,0,0,0,0,0,0,0
1683125883.59998608,49828394,1597,1597,1604,1590,0,0,0,0,0,0,0,0,0,0
1683125883.69994617,49928354,1578,1578,1588,1569,0,0,0,0,0,0,0,0,0,0
1683125883.79990625,50028314,1566,1566,1569,1563,0,0,0,0,0,0,0,0,0,0
1683125883.89986610,50128274,1555,1555,1553,1558,0,0,0,0,0,0,0,0,0,0
1683125883.99982619,50228234,1547,1547,1538,1557,0,0,0,0,0,0,0,0,0,0
1683125884.09978604,50328194,1540,1539,1529,1550,0,0,0,0,0,0,0,0,0,0
1683125884.19974613,50428154,1534,1533,1526,1540,0,0,0,0,0,0,0,0,0,0
1683125884.30053926,50528947,1528,1527,1525,1530,0,0,0,0,0,0,0,0,0,0
1683125884.40049911,50628907,1526,1526,1526,1525,0,0,0,0,0,0,0,0,0,0
1683125884.50045919,50728867,1527,1527,1529,1525,0,0,0,0,0,0,0,0,0,0
1683125884.60041904,50828827,1529,1529,1532,1526,0,0,0,0,0,0,0,0,0,0
1683125884.70037913,50928787,1533,1533,1536,1530,0,0,0,0,0,0,0,0,0,0
1683125884.80033922,51028747,1537,1537,1540,1534,0,0,0,0,0,0,0,0,0,0
1683125884.90029907,51128707,1540,1541,1542,1539,0,0,0,0,0,0,0,0,0,0
1683125885.00025916,51228667,1544,1544,1545,1544,0,0,0,0,0,0,0,0,0,0
1683125885.10021925,51328627,1547,1547,1547,1548,0,0,0,0,0,0,0,0,0,0
1683125885.20017910,51428587,1549,1549,1548,1551,0,0,0,0,0,0,0,0,0,0
1683125885.30013919,51528547,1553,1552,1551,1554,0,0,0,0,0,0,0,0,0,0
1683125885.40009904,51628507,1553,1553,1556,1559,0,0,0,0,0,0,0,0,0,0
1683125885.50005913,51728467,1554,1554,1561,1562,0,0,0,0,0,0,0,0,0,0
1683125885.60001922,51828427,1556,1556,1563,1563,0,0,0,0,0,0,0,0,0,0
1683125885.69997907,51928387,1559,1559,1564,1564,0,0,0,0,0,0,0,0,0,0
1683125885.79993916,52028347,1562,1562,1565,1565,0,0,0,0,0,0,0,0,0,0
1683125885.89989924,52128307,1565,1565,1566,1565,0,0,0,0,0,0,0,0,0,0
1683125885.99985909,52228267,1567,1568,1566,1566,0,0,0,0,0,0,0,0,0,0
1683125886.09981918,52328227,1569,1569,1566,1566,0,0,0,0,0,0,0,0,0,0
1683125886.19977903,52428187,1570,1569,1565,1566,0,0,0,0,0,0,0,0,0,0
1683125886.30057216,52528980,1570,1571,1566,1567,0,0,0,0,0,0,0,0,0,0
1683125886.40053225,52628940,1571,1572,1567,1567,0,0,0,0,0,0,0,0,0,0
1683125886.50049210,52728900,1573,1572,1569,1569,0,0,0,0,0,0,0,0,0,0
1683125886.60045218,52828860,1574,1574,1571,1571,0,0,0,0,0,0,0,0,0,0
1683125886.70041203,52928820,1574,1573,1572,1571,0,0,0,0,0,0,0,0,0,0
1683125886.80037212,53028780,1575,1574,1574,1573,0,0,0,0,0,0,0,0,0,0
1683125886.90033221,53128740,1575,1575,1575,1574,0,0,0,0,0,0,0,0,0,0
1683125887.00029206,53228700,1575,1576,1577,1575,0,0,0,0,0,0,0,0,0,0
1683125887.10025215,53328660,1575,1575,1577,1576,0,0,0,0,0,0,0,0,0,0
1683125887.20021224,53428620,1574,1574,1576,1576,0,0,0,0,0,0,0,0,0,0
1683125887.30017209,53528580,1575,1576,1577,1577,0,0,0,0,0,0,0,0,0,0
1683125887.40013218,53628540,1575,1575,1576,1577,0,0,0,0,0,0,0,0,0,0
1683125887.50009203,53728500,1575,1576,1576,1577,0,0,0,0,0,0,0,0,0,0
1683125887.60005212,53828460,1576,1576,1577,1577,0,0,0,0,0,0,0,0,0,0
1683125887.70001221,53928420,1576,1576,1576,1576,0,0,0,0,0,0,0,0,0,0
1683125887.79997206,54028380,1577,1577,1578,1577,0,0,0,0,0,0,0,0,0,0
1683125887.89993215,54128340,1577,1577,1577,1577,0,0,0,0,0,0,0,0,0,0
1683125887.99989223,54228300,1578,1578,1577,1577,0,0,0,0,0,0,0,0,0,0
1683125888.09985209,54328260,1578,1578,1577,1577,0,0,0,0,0,0,0,0,0,0
1683125888.19981217,54428220,1577,1578,1577,1577,0,0,0,0,0,0,0,0,0,0
1683125888.29977202,54528180,1577,1578,1576,1577,0,0,0,0,0,0,0,0,0,0
1683125888.40056515,54628973,1577,1577,1576,1576,0,0,0,0,0,0,0,0,0,0
1683125888.50052524,54728933,1577,1577,1577,1577,0,0,0,0,0,0,0,0,0,0
1683125888.60048509,54828893,1578,1578,1578,1578,0,0,0,0,0,0,0,0,0,0
1683125888.70044518,54928853,1577,1577,1577,1577,0,0,0,0,0,0,0,0,0,0
1683125888.80040503,55028813,1579,1579,1579,1579,0,0,0,0,0,0,0,0,0,0
1683125888.90036511,55128773,1578,1578,1578,1578,0,0,0,0,0,0,0,0,0,0
1683125889.00032520,55228733,1578,1578,1579,1578,0,0,0,0,0,0,0,0,0,0
1683125889.10028505,55328693,1578,1578,1579,1578,0,0,0,0,0,0,0,0,0,0
1683125889.20024514,55428653,1578,1577,1578,1578,0,0,0,0,0,0,0,0,0,0
1683125889.30020523,55528613,1578,1578,1578,1579,0,0,0,0,0,0,0,0,0,0
1683125889.40016508,55628573,1578,1578,1578,1578,0,0,0,0,0,0,0,0,0,0
1683125889.50012517,55728533,1579,1579,1579,1579,0,0,0,0,0,0,0,0,0,0
1683125889.60008526,55828493,1580,1580,1580,1580,0,0,0,0,0,0,0,0,0,0
1683125889.70004511,55928453,1579,1579,1579,1579,0,0,0,0,0,0,0,0,0,0
1683125889.80000520,56028413,1581,1581,1581,1581,0,0,0,0,0,0,0,0,0,0
1683125889.89996505,56128373,1580,1580,1580,1580,0,0,0,0,0,0,0,0,0,0
1683125889.99992514,56228333,1581,1581,1581,1581,0,0,0,0,0,0,0,0,0,0
1683125890.09988523,56328293,1580,1581,1580,1580,0,0,0,0,0,0,0,0,0,0
1683125890.19984508,56428253,1580,1581,1580,1580,0,0,0,0,0,0,0,0,0,0
1683125890.29980516,56528213,1580,1579,1579,1579,0,0,0,0,0,0,0,0,0,0
1683125890.39976525,56628173,1581,1581,1580,1581,0,0,0,0,0,0,0,0,0,0
1683125890.50055814,56728966,1580,1580,1580,1580,0,0,0,0,0,0,0,0,0,0
1683125890.60051823,56828926,1581,1581,1581,1581,0,0,0,0,0,0,0,0,0,0
1683125890.70047808,56928886,1581,1580,1580,1580,0,0,0,0,0,0,0,0,0,0
1683125890.80043817,57028846,1580,1580,1580,1580,0,0,0,0,0,0,0,0,0,0
1683125890.90039825,57128806,1581,1581,1581,1581,0,0,0,0,0,0,0,0,0,0
1683125891.00035810,57228766,1581,1581,1581,1581,0,0,0,0,0,0,0,0,0,0
1683125891.10031819,57328726,1581,1581,1581,1581,0,0,0,0,0,0,0,0,0,0
1683125891.20027804,57428686,1580,1580,1581,1581,0,0,0,0,0,0,0,0,0,0
1683125891.30023813,57528646,1580,1580,1580,1581,0,0,0,0,0,0,0,0,0,0
1683125891.40019822,57628606,1581,1581,1581,1581,0,0,0,0,0,0,0,0,0,0
1683125891.50015807,57728566,1581,1580,1581,1581,0,0,0,0,0,0,0,0,0,0
1683125891.60011816,57828526,1581,1581,1586,1576,0,0,0,0,0,0,0,0,0,0
1683125891.70007825,57928486,1580,1582,1587,1573,0,0,0,0,0,0,0,0,0,0
1683125891.80003810,58028446,1579,1582,1580,1573,0,0,0,0,0,0,0,0,0,0
1683125891.89999819,58128406,1577,1580,1570,1572,0,0,0,0,0,0,0,0,0,0
1683125891.99995804,58228366,1576,1579,1562,1569,0,0,0,0,0,0,0,0,0,0
1683125892.09991813,58328326,1576,1578,1557,1564,0,0,0,0,0,0,0,0,0,0
1683125892.19987822,58428286,1578,1577,1555,1560,0,0,0,0,0,0,0,0,0,0
1683125892.29983807,58528246,1579,1576,1555,1556,0,0,0,0,0,0,0,0,0,0
1683125892.39979815,58628206,1579,1577,1556,1554,0,0,0,0,0,0,0,0,0,0
1683125892.49975824,58728166,1578,1577,1556,1553,0,0,0,0,0,0,0,0,0,0
1683125892.60055113,58828959,1577,1577,1556,1553,0,0,0,0,0,0,0,0,0,0
1683125892.70051122,58928919,1575,1577,1555,1554,0,0,0,0,0,0,0,0,0,0
1683125892.80047107,59028879,1574,1576,1554,1554,0,0,0,0,0,0,0,0,0,0
1683125892.90043116,59128839,1574,1576,1554,1554,0,0,0,0,0,0,0,0,0,0
1683125893.00039124,59228799,1575,1577,1553,1553,0,0,0,0,0,0,0,0,0,0
1683125893.10035110,59328759,1576,1576,1551,1551,0,0,0,0,0,0,0,0,0,0
1683125893.20031118,59428719,1577,1578,1549,1548,0,0,0,0,0,0,0,0,0,0
1683125893.30027103,59528679,1580,1581,1547,1547,0,0,0,0,0,0,0,0,0,0
1683125893.40023112,59628639,1583,1584,1545,1544,0,0,0,0,0,0,0,0,0,0
1683125893.50019121,59728599,1586,1587,1542,1542,0,0,0,0,0,0,0,0,0,0
1683125893.60015106,59828559,1590,1590,1539,1539,0,0,0,0,0,0,0,0,0,0
1683125893.70011115,59928519,1592,1592,1536,1537,0,0,0,0,0,0,0,0,0,0
1683125893.80007124,60028479,1595,1596,1535,1536,0,0,0,0,0,0,0,0,0,0
1683125893.90003109,60128439,1595,1595,1534,1535,0,0,0,0,0,0,0,0,0,0
1683125893.99999118,60228399,1595,1595,1535,1536,0,0,0,0,0,0,0,0,0,0
1683125894.09995103,60328359,1593,1593,1537,1540,0,0,0,0,0,0,0,0,0,0
1683125894.19991112,60428319,1590,1589,1541,1544,0,0,0,0,0,0,0,0,0,0
1683125894.29987121,60528279,1585,1583,1548,1551,0,0,0,0,0,0,0,0,0,0
1683125894.39983106,60628239,1578,1575,1557,1560,0,0,0,0,0,0,0,0,0,0
1683125894.49979115,60728199,1569,1565,1568,1570,0,0,0,0,0,0,0,0,0,0
1683125894.59975123,60828159,1557,1553,1579,1581,0,0,0,0,0,0,0,0,0,0
1683125894.70054412,60928952,1548,1545,1594,1594,0,0,0,0,0,0,0,0,0,0
1683125894.80050421,61028912,1538,1536,1604,1603,0,0,0,0,0,0,0,0,0,0
1683125894.90046406,61128872,1531,1531,1611,1610,0,0,0,0,0,0,0,0,0,0
1683125895.00042415,61228832,1527,1530,1615,1614,0,0,0,0,0,0,0,0,0,0
1683125895.10038424,61328792,1529,1532,1615,1614,0,0,0,0,0,0,0,0,0,0
1683125895.20034409,61428752,1534,1537,1612,1611,0,0,0,0,0,0,0,0,0,0
1683125895.30030417,61528712,1541,1543,1606,1606,0,0,0,0,0,0,0,0,0,0
1683125895.40026402,61628672,1549,1550,1599,1600,0,0,0,0,0,0,0,0,0,0
1683125895.50022411,61728632,1559,1559,1592,1592,0,0,0,0,0,0,0,0,0,0
1683125895.60018420,61828592,1568,1567,1585,1584,0,0,0,0,0,0,0,0,0,0
1683125895.70014405,61928552,1574,1574,1578,1577,0,0,0,0,0,0,0,0,0,0
1683125895.80010414,62028512,1581,1580,1572,1572,0,0,0,0,0,0,0,0,0,0
1683125895.90006423,62128472,1585,1584,1568,1568,0,0,0,0,0,0,0,0,0,0
1683125896.00002408,62228432,1587,1586,1566,1567,0,0,0,0,0,0,0,0,0,0
1683125896.09998417,62328392,1589,1588,1567,1568,0,0,0,0,0,0,0,0,0,0
1683125896.19994426,62428352,1587,1586,1568,1568,0,0,0,0,0,0,0,0,0,0
1683125896.29990411,62528312,1585,1585,1570,1570,0,0,0,0,0,0,0,0,0,0
1683125896.39986420,62628272,1582,1581,1572,1572,0,0,0,0,0,0,0,0,0,0
1683125896.49982405,62728232,1579,1579,1575,1575,0,0,0,0,0,0,0,0,0,0
1683125896.59978414,62828192,1577,1578,1579,1578,0,0,0,0,0,0,0,0,0,0
1683125896.70057726,62928985,1574,1575,1580,1580,0,0,0,0,0,0,0,0,0,0
1683125896.80053711,63028945,1573,1574,1583,1582,0,0,0,0,0,0,0,0,0,0
1683125896.90049720,63128905,1572,1572,1583,1583,0,0,0,0,0,0,0,0,0,0
1683125897.00045705,63228865,1572,1573,1584,1584,0,0,0,0,0,0,0,0,0,0
1683125897.10041714,63328825,1573,1573,1583,1583,0,0,0,0,0,0,0,0,0,0
1683125897.20037723,63428785,1573,1574,1583,1583,0,0,0,0,0,0,0,0,0,0
1683125897.30033708,63528745,1575,1575,1581,1581,0,0,0,0,0,0,0,0,0,0
1683125897.40029716,63628705,1576,1576,1580,1580,0,0,0,0,0,0,0,0,0,0
1683125897.50025725,63728665,1578,1578,1579,1579,0,0,0,0,0,0,0,0,0,0
1683125897.60021710,63828625,1579,1579,1578,1578,0,0,0,0,0,0,0,0,0,0
1683125897.70017719,63928585,1581,1580,1577,1577,0,0,0,0,0,0,0,0,0,0
1683125897.80013704,64028545,1581,1581,1578,1577,0,0,0,0,0,0,0,0,0,0
1683125897.90009713,64128505,1582,1582,1578,1577,0,0,0,0,0,0,0,0,0,0
1683125898.00005722,64228465,1582,1582,1578,1578,0,0,0,0,0,0,0,0,0,0
1683125898.10001707,64328425,1581,1581,1577,1577,0,0,0,0,0,0,0,0,0,0
1683125898.19997716,64428385,1581,1581,1578,1578,0,0,0,0,0,0,0,0,0,0
1683125898.29993725,64528345,1581,1580,1578,1579,0,0,0,0,0,0,0,0,0,0
1683125898.39989710,64628305,1580,1580,1579,1580,0,0,0,0,0,0,0,0,0,0
1683125898.49985719,64728265,1579,1580,1580,1580,0,0,0,0,0,0,0,0,0,0
1683125898.59981704,64828225,1579,1579,1580,1580,0,0,0,0,0,0,0,0,0,0
1683125898.69977713,64928185,1579,1579,1580,1580,0,0,0,0,0,0,0,0,0,0
1683125898.80057025,65028978,1579,1579,1580,1580,0,0,0,0,0,0,0,0,0,0
1683125898.90053010,65128938,1579,1578,1580,1580,0,0,0,0,0,0,0,0,0,0
1683125899.00049019,65228898,1580,1579,1581,1581,0,0,0,0,0,0,0,0,0,0
1683125899.10045004,65328858,1580,1580,1581,1581,0,0,0,0,0,0,0,0,0,0
1683125899.20041013,65428818,1580,1580,1580,1580,0,0,0,0,0,0,0,0,0,0
1683125899.30037022,65528778,1579,1580,1580,1580,0,0,0,0,0,0,0,0,0,0
1683125899.40033007,65628738,1580,1580,1580,1580,0,0,0,0,0,0,0,0,0,0
1683125899.50029016,65728698,1581,1581,1580,1580,0,0,0,0,0,0,0,0,0,0
1683125899.60025024,65828658,1581,1581,1582,1579,0,0,0,0,0,0,0,0,0,0
1683125899.70021009,65928618,1581,1584,1587,1572,0,0,0,0,0,0,0,0,0,0
1683125899.80017018,66028578,1580,1584,1581,1571,0,0,0,0,0,0,0,0,0,0
1683125899.90013003,66128538,1580,1583,1572,1571,0,0,0,0,0,0,0,0,0,0
1683125900.00009012,66228498,1579,1581,1563,1568,0,0,0,0,0,0,0,0,0,0
1683125900.10005021,66328458,1579,1580,1557,1564,0,0,0,0,0,0,0,0,0,0
1683125900.20001006,66428418,1580,1579,1553,1559,0,0,0,0,0,0,0,0,0,0
1683125900.29997015,66528378,1581,1579,1552,1555,0,0,0,0,0,0,0,0,0,0
1683125900.39993024,66628338,1322,1324,1620,1626,0,0,0,0,0,0,0,0,0,0
1683125900.49989009,66728298,1400,1406,1631,1631,0,0,0,0,0,0,0,0,0,0
1683125900.59985018,66828258,1466,1470,1621,1613,0,0,0,0,0,0,0,0,0,0
1683125900.69981003,66928218,1519,1520,1609,1599,0,0,0,0,0,0,0,0,0,0
1683125900.79977012,67028178,1562,1554,1599,1590,0,0,0,0,0,0,0,0,0,0
1683125900.90056324,67128971,1600,1583,1577,1576,0,0,0,0,0,0,0,0,0,0
1683125901.00052309,67228931,1600,1585,1516,1525,0,0,0,0,0,0,0,0,0,0
1683125901.10048318,67328891,1600,1594,1516,1527,0,0,0,0,0,0,0,0,0,0
1683125901.20044303,67428851,1597,1600,1532,1537,0,0,0,0,0,0,0,0,0,0
1683125901.30040312,67528811,1593,1600,1546,1544,0,0,0,0,0,0,0,0,0,0
1683125901.40036321,67628771,1593,1600,1559,1553,0,0,0,0,0,0,0,0,0,0
1683125901.50032306,67728731,1596,1600,1571,1564,0,0,0,0,0,0,0,0,0,0
1683125901.60028315,67828691,1600,1599,1578,1573,0,0,0,0,0,0,0,0,0,0
1683125901.70024323,67928651,1600,1596,1578,1577,0,0,0,0,0,0,0,0,0,0
1683125901.80020308,68028611,1600,1595,1579,1581,0,0,0,0,0,0,0,0,0,0
1683125901.90016317,68128571,1600,1597,1580,1584,0,0,0,0,0,0,0,0,0,0
1683125902.00012302,68228531,1600,1599,1583,1587,0,0,0,0,0,0,0,0,0,0
1683125902.10008311,68328491,1598,1600,1584,1586,0,0,0,0,0,0,0,0,0,0
1683125902.20004320,68428451,1597,1600,1585,1585,0,0,0,0,0,0,0,0,0,0
1683125902.30000305,68528411,1596,1600,1585,1585,0,0,0,0,0,0,0,0,0,0
1683125902.39996314,68628371,1594,1597,1583,1581,0,0,0,0,0,0,0,0,0,0
1683125902.49992323,68728331,1590,1593,1577,1576,0,0,0,0,0,0,0,0,0,0
1683125902.59988308,68828291,1588,1590,1575,1573,0,0,0,0,0,0,0,0,0,0
1683125902.69984317,68928251,1586,1587,1571,1571,0,0,0,0,0,0,0,0,0,0
1683125902.79980326,69028211,1586,1586,1570,1570,0,0,0,0,0,0,0,0,0,0
1683125902.89976311,69128171,1584,1584,1568,1569,0,0,0,0,0,0,0,0,0,0
1683125903.00055623,69228964,1584,1584,1567,1568,0,0,0,0,0,0,0,0,0,0
1683125903.10051608,69328924,1583,1583,1566,1568,0,0,0,0,0,0,0,0,0,0
1683125903.20047617,69428884,1583,1584,1566,1568,0,0,0,0,0,0,0,0,0,0
1683125903.30043626,69528844,1583,1584,1567,1568,0,0,0,0,0,0,0,0,0,0
1683125903.40039611,69628804,1583,1585,1567,1567,0,0,0,0,0,0,0,0,0,0
1683125903.50035620,69728764,1584,1585,1567,1567,0,0,0,0,0,0,0,0,0,0
1683125903.60031605,69828724,1584,1584,1567,1567,0,0,0,0,0,0,0,0,0,0
1683125903.70027614,69928684,1585,1584,1566,1568,0,0,0,0,0,0,0,0,0,0
1683125903.80023623,70028644,1586,1586,1567,1568,0,0,0,0,0,0,0,0,0,0
1683125903.90019608,70128604,1587,1586,1568,1569,0,0,0,0,0,0,0,0,0,0
1683125904.00015616,70228564,1588,1587,1569,1569,0,0,0,0,0,0,0,0,0,0
1683125904.10011625,70328524,1588,1587,1569,1569,0,0,0,0,0,0,0,0,0,0
1683125904.20007610,70428484,1589,1588,1569,1569,0,0,0,0,0,0,0,0,0,0
1683125904.30003619,70528444,1689,1688,1567,1567,0,0,0,0,0,0,0,0,0,0
1683125904.39999604,70628404,1665,1663,1541,1544,0,0,0,0,0,0,0,0,0,0
1683125904.49995613,70728364,1648,1647,1538,1539,0,0,0,0,0,0,0,0,0,0
1683125904.59991622,70828324,1633,1634,1538,1537,0,0,0,0,0,0,0,0,0,0
1683125904.69987607,70928284,1620,1621,1538,1537,0,0,0,0,0,0,0,0,0,0
1683125904.79983616,71028244,1612,1613,1541,1539,0,0,0,0,0,0,0,0,0,0
1683125904.89979625,71128204,1605,1605,1542,1541,0,0,0,0,0,0,0,0,0,0
1683125904.99975610,71228164,1600,1600,1545,1543,0,0,0,0,0,0,0,0,0,0
1683125905.10054922,71328957,1597,1595,1546,1546,0,0,0,0,0,0,0,0,0,0
1683125905.20050907,71428917,1594,1592,1549,1550,0,0,0,0,0,0,0,0,0,0
1683125905.30046916,71528877,1591,1590,1553,1554,0,0,0,0,0,0,0,0,0,0
1683125905.40042925,71628837,1588,1588,1556,1557,0,0,0,0,0,0,0,0,0,0
1683125905.50038910,71728797,1585,1586,1559,1560,0,0,0,0,0,0,0,0,0,0
1683125905.60034919,71828757,1583,1584,1564,1563,0,0,0,0,0,0,0,0,0,0
1683125905.70030904,71928717,1581,1582,1568,1567,0,0,0,0,0,0,0,0,0,0
1683125905.80026913,72028677,1580,1581,1571,1570,0,0,0,0,0,0,0,0,0,0
1683125905.90022922,72128637,1579,1579,1574,1573,0,0,0,0,0,0,0,0,0,0
1683125906.00018907,72228597,1579,1579,1576,1575,0,0,0,0,0,0,0,0,0,0
1683125906.10014915,72328557,1578,1578,1577,1577,0,0,0,0,0,0,0,0,0,0
1683125906.20010924,72428517,1579,1578,1578,1578,0,0,0,0,0,0,0,0,0,0
1683125906.30006909,72528477,1578,1579,1578,1578,0,0,0,0,0,0,0,0,0,0
1683125906.40002918,72628437,1577,1570,1584,1584,0,0,0,0,0,0,0,0,0,0
1683125906.49998903,72728397,1557,1548,1608,1608,0,0,0,0,0,0,0,0,0,0
1683125906.59994912,72828357,1535,1529,1628,1629,0,0,0,0,0,0,0,0,0,0
1683125906.69990921,72928317,1515,1516,1642,1643,0,0,0,0,0,0,0,0,0,0
1683125906.79986906,73028277,1504,1512,1649,1651,0,0,0,0,0,0,0,0,0,0
1683125906.89982915,73128237,1503,1514,1650,1652,0,0,0,0,0,0,0,0,0,0
1683125906.99978924,73228197,1509,1521,1642,1643,0,0,0,0,0,0,0,0,0,0
1683125907.09974909,73328157,1521,1530,1628,1629,0,0,0,0,0,0,0,0,0,0
1683125907.20054221,73428950,1539,1544,1614,1614,0,0,0,0,0,0,0,0,0,0
1683125907.30050206,73528910,1557,1558,1596,1595,0,0,0,0,0,0,0,0,0,0
1683125907.40046215,73628870,1575,1572,1581,1579,0,0,0,0,0,0,0,0,0,0
1683125907.50042224,73728830,1590,1585,1568,1566,0,0,0,0,0,0,0,0,0,0
1683125907.60038209,73828790,1601,1595,1566,1554,0,0,0,0,0,0,0,0,0,0
1683125907.70034218,73928750,1607,1600,1563,1549,0,0,0,0,0,0,0,0,0,0
1683125907.80030203,74028710,1607,1601,1554,1550,0,0,0,0,0,0,0,0,0,0
1683125907.90026212,74128670,1604,1601,1547,1550,0,0,0,0,0,0,0,0,0,0
1683125908.00022221,74228630,1601,1600,1544,1550,0,0,0,0,0,0,0,0,0,0
1683125908.10018206,74328590,1595,1597,1543,1549,0,0,0,0,0,0,0,0,0,0
1683125908.20014215,74428550,1592,1595,1546,1550,0,0,0,0,0,0,0,0,0,0
1683125908.30010223,74528510,1588,1591,1548,1549,0,0,0,0,0,0,0,0,0,0
1683125908.40006208,74628470,1585,1588,1552,1551,0,0,0,0,0,0,0,0,0,0
1683125908.50002217,74728430,1582,1584,1555,1552,0,0,0,0,0,0,0,0,0,0
1683125908.59998202,74828390,1580,1581,1556,1554,0,0,0,0,0,0,0,0,0,0
1683125908.69994211,74928350,1577,1577,1557,1555,0,0,0,0,0,0,0,0,0,0
1683125908.79990220,75028310,1575,1575,1557,1557,0,0,0,0,0,0,0,0,0,0
1683125908.89986205,75128270,1573,1573,1557,1557,0,0,0,0,0,0,0,0,0,0
1683125908.99982214,75228230,1572,1573,1557,1557,0,0,0,0,0,0,0,0,0,0
1683125909.09978223,75328190,1571,1572,1556,1556,0,0,0,0,0,0,0,0,0,0
1683125909.20057511,75428983,1570,1572,1554,1554,0,0,0,0,0,0,0,0,0,0
1683125909.30053520,75528943,1571,1573,1553,1552,0,0,0,0,0,0,0,0,0,0
1683125909.40049505,75628903,1573,1574,1552,1551,0,0,0,0,0,0,0,0,0,0
1683125909.50045514,75728863,1575,1576,1549,1549,0,0,0,0,0,0,0,0,0,0
1683125909.60041523,75828823,1577,1578,1548,1547,0,0,0,0,0,0,0,0,0,0
1683125909.70037508,75928783,1579,1580,1546,1545,0,0,0,0,0,0,0,0,0,0
1683125909.80033517,76028743,1581,1581,1543,1543,0,0,0,0,0,0,0,0,0,0
1683125909.90029526,76128703,1584,1583,1544,1545,0,0,0,0,0,0,0,0,0,0
1683125910.00025511,76228663,1585,1584,1543,1545,0,0,0,0,0,0,0,0,0,0
1683125910.10021520,76328623,1585,1585,1545,1546,0,0,0,0,0,0,0,0,0,0
1683125910.20017505,76428583,1584,1584,1545,1547,0,0,0,0,0,0,0,0,0,0
1683125910.30013514,76528543,1582,1582,1547,1550,0,0,0,0,0,0,0,0,0,0
1683125910.40009522,76628503,1580,1580,1552,1555,0,0,0,0,0,0,0,0,0,0
1683125910.50005507,76728463,1577,1576,1558,1561,0,0,0,0,0,0,0,0,0,0
1683125910.60001516,76828423,1573,1570,1565,1566,0,0,0,0,0,0,0,0,0,0
1683125910.69997525,76928383,1567,1565,1573,1574,0,0,0,0,0,0,0,0,0,0
1683125910.79993510,77028343,1561,1558,1582,1582,0,0,0,0,0,0,0,0,0,0
1683125910.89989519,77128303,1554,1551,1590,1590,0,0,0,0,0,0,0,0,0,0
1683125910.99985504,77228263,1548,1546,1598,1598,0,0,0,0,0,0,0,0,0,0
1683125911.09981513,77328223,1542,1542,1602,1602,0,0,0,0,0,0,0,0,0,0
1683125911.19977522,77428183,1539,1540,1604,1604,0,0,0,0,0,0,0,0,0,0
1683125911.30056810,77528976,1540,1541,1606,1605,0,0,0,0,0,0,0,0,0,0
1683125911.40052819,77628936,1542,1544,1603,1603,0,0,0,0,0,0,0,0,0,0
1683125911.50048804,77728896,1546,1549,1599,1600,0,0,0,0,0,0,0,0,0,0
1683125911.60044813,77828856,1552,1553,1594,1594,0,0,0,0,0,0,0,0,0,0
1683125911.70040822,77928816,1558,1559,1589,1588,0,0,0,0,0,0,0,0,0,0
1683125911.80036807,78028776,1565,1565,1583,1582,0,0,0,0,0,0,0,0,0,0
1683125911.90032816,78128736,1572,1571,1579,1578,0,0,0,0,0,0,0,0,0,0
1683125912.00028825,78228696,1577,1576,1574,1574,0,0,0,0,0,0,0,0,0,0
1683125912.10024810,78328656,1582,1580,1571,1571,0,0,0,0,0,0,0,0,0,0
1683125912.20020819,78428616,1585,1584,1569,1570,0,0,0,0,0,0,0,0,0,0
1683125912.30016804,78528576,1586,1585,1568,1568,0,0,0,0,0,0,0,0,0,0
1683125912.40012813,78628536,1586,1585,1569,1569,0,0,0,0,0,0,0,0,0,0
1683125912.50008821,78728496,1587,1586,1571,1571,0,0,0,0,0,0,0,0,0,0
1683125912.60004807,78828456,1585,1585,1573,1574,0,0,0,0,0,0,0,0,0,0
1683125912.70000815,78928416,1583,1583,1574,1575,0,0,0,0,0,0,0,0,0,0
1683125912.79996824,79028376,1581,1582,1577,1577,0,0,0,0,0,0,0,0,0,0
1683125912.89992809,79128336,1580,1580,1579,1579,0,0,0,0,0,0,0,0,0,0
1683125912.99988818,79228296,1578,1578,1581,1580,0,0,0,0,0,0,0,0,0,0
1683125913.09984803,79328256,1576,1576,1582,1582,0,0,0,0,0,0,0,0,0,0
1683125913.19980812,79428216,1577,1577,1584,1584,0,0,0,0,0,0,0,0,0,0
1683125913.29976821,79528176,1575,1576,1584,1584,0,0,0,0,0,0,0,0,0,0
1683125913.40056109,79628969,1575,1575,1584,1583,0,0,0,0,0,0,0,0,0,0
1683125913.50052118,79728929,1575,1576,1583,1583,0,0,0,0,0,0,0,0,0,0
1683125913.60048103,79828889,1576,1576,1582,1583,0,0,0,0,0,0,0,0,0,0
1683125913.70044112,79928849,1577,1577,1582,1582,0,0,0,0,0,0,0,0,0,0
1683125913.80040121,80028809,1578,1578,1581,1581,0,0,0,0,0,0,0,0,0,0
1683125913.90036106,80128769,1578,1579,1579,1579,0,0,0,0,0,0,0,0,0,0
1683125914.00032115,80228729,1579,1579,1578,1578,0,0,0,0,0,0,0,0,0,0
1683125914.10028124,80328689,1581,1581,1579,1579,0,0,0,0,0,0,0,0,0,0
1683125914.20024109,80428649,1581,1581,1578,1578,0,0,0,0,0,0,0,0,0,0
1683125914.30020118,80528609,1582,1582,1579,1579,0,0,0,0,0,0,0,0,0,0
1683125914.40016103,80628569,1583,1582,1579,1579,0,0,0,0,0,0,0,0,0,0
1683125914.50012112,80728529,1582,1582,1578,1578,0,0,0,0,0,0,0,0,0,0
1683125914.60008121,80828489,1583,1583,1580,1580,0,0,0,0,0,0,0,0,0,0
1683125914.70004106,80928449,1582,1582,1579,1579,0,0,0,0,0,0,0,0,0,0
1683125914.80000114,81028409,1582,1582,1580,1581,0,0,0,0,0,0,0,0,0,0
1683125914.89996123,81128369,1581,1581,1581,1581,0,0,0,0,0,0,0,0,0,0
1683125914.99992108,81228329,1581,1581,1581,1580,0,0,0,0,0,0,0,0,0,0
1683125915.09988117,81328289,1581,1581,1581,1582,0,0,0,0,0,0,0,0,0,0
1683125915.19984102,81428249,1580,1581,1582,1582,0,0,0,0,0,0,0,0,0,0
1683125915.29980111,81528209,1581,1580,1582,1582,0,0,0,0,0,0,0,0,0,0
1683125915.39976120,81628169,1581,1581,1583,1583,0,0,0,0,0,0,0,0,0,0
1683125915.50055408,81728962,1580,1581,1582,1581,0,0,0,0,0,0,0,0,0,0
1683125915.60051417,81828922,1581,1581,1583,1582,0,0,0,0,0,0,0,0,0,0
1683125915.70047402,81928882,1581,1581,1582,1582,0,0,0,0,0,0,0,0,0,0
1683125915.80043411,82028842,1582,1581,1589,1574,0,0,0,0,0,0,0,0,0,0
1683125915.90039420,82128802,1581,1580,1586,1575,0,0,0,0,0,0,0,0,0,0
1683125916.00035405,82228762,1579,1578,1577,1576,0,0,0,0,0,0,0,0,0,0
1683125916.10031414,82328722,1576,1575,1570,1575,0,0,0,0,0,0,0,0,0,0
1683125916.20027423,82428682,1573,1572,1566,1573,0,0,0,0,0,0,0,0,0,0
1683125916.30023408,82528642,1570,1571,1565,1571,0,0,0,0,0,0,0,0,0,0
1683125916.40019417,82628602,1568,1569,1565,1568,0,0,0,0,0,0,0,0,0,0
1683125916.50015426,82728562,1568,1569,1567,1567,0,0,0,0,0,0,0,0,0,0
1683125916.60011411,82828522,1566,1568,1568,1566,0,0,0,0,0,0,0,0,0,0
1683125916.70007420,82928482,1566,1567,1568,1566,0,0,0,0,0,0,0,0,0,0
1683125916.80003405,83028442,1565,1565,1567,1565,0,0,0,0,0,0,0,0,0,0
1683125916.89999413,83128402,1565,1565,1567,1565,0,0,0,0,0,0,0,0,0,0
1683125916.99995422,83228362,1563,1563,1564,1564,0,0,0,0,0,0,0,0,0,0
1683125917.09991407,83328322,1563,1562,1563,1564,0,0,0,0,0,0,0,0,0,0
1683125917.19987416,83428282,1562,1562,1563,1563,0,0,0,0,0,0,0,0,0,0
1683125917.29983425,83528242,1561,1561,1561,1562,0,0,0,0,0,0,0,0,0,0
1683125917.39979410,83628202,1560,1560,1562,1561,0,0,0,0,0,0,0,0,0,0
1683125917.49975419,83728162,1561,1561,1561,1561,0,0,0,0,0,0,0,0,0,0
1683125917.60054708,83828955,1560,1560,1561,1560,0,0,0,0,0,0,0,0,0,0
1683125917.70050716,83928915,1558,1558,1558,1558,0,0,0,0,0,0,0,0,0,0
1683125917.80046725,84028875,1558,1558,1558,1557,0,0,0,0,0,0,0,0,0,0
1683125917.90042710,84128835,1559,1559,1559,1558,0,0,0,0,0,0,0,0,0,0
1683125918.00038719,84228795,1558,1558,1558,1557,0,0,0,0,0,0,0,0,0,0
1683125918.10034704,84328755,1556,1558,1536,1577,0,0,0,0,0,0,0,0,0,0
1683125918.20030713,84428715,1555,1556,1565,1544,0,0,0,0,0,0,0,0,0,0
1683125918.30026722,84528675,1553,1552,1565,1537,0,0,0,0,0,0,0,0,0,0
1683125918.40022707,84628635,1549,1548,1553,1540,0,0,0,0,0,0,0,0,0,0
1683125918.50018716,84728595,1544,1542,1538,1542,0,0,0,0,0,0,0,0,0,0
1683125918.60014725,84828555,1539,1538,1529,1542,0,0,0,0,0,0,0,0,0,0
1683125918.70010710,84928515,1532,1532,1522,1536,0,0,0,0,0,0,0,0,0,0
1683125918.80006719,85028475,1526,1527,1517,1528,0,0,0,0,0,0,0,0,0,0
1683125918.90002704,85128435,1522,1523,1518,1523,0,0,0,0,0,0,0,0,0,0
1683125918.99998713,85228395,1520,1522,1520,1521,0,0,0,0,0,0,0,0,0,0
1683125919.09994721,85328355,1520,1521,1523,1521,0,0,0,0,0,0,0,0,0,0
1683125919.19990706,85428315,1522,1522,1527,1524,0,0,0,0,0,0,0,0,0,0
1683125919.29986715,85528275,1525,1525,1530,1529,0,0,0,0,0,0,0,0,0,0
1683125919.39982724,85628235,1529,1528,1535,1535,0,0,0,0,0,0,0,0,0,0
1683125919.49978709,85728195,1534,1533,1539,1541,0,0,0,0,0,0,0,0,0,0
1683125919.59974718,85828155,1537,1536,1541,1543,0,0,0,0,0,0,0,0,0,0
1683125919.70054007,85928948,1539,1538,1542,1545,0,0,0,0,0,0,0,0,0,0
1683125919.80050015,86028908,1542,1542,1545,1546,0,0,0,0,0,0,0,0,0,0
1683125919.90046024,86128868,1544,1544,1545,1545,0,0,0,0,0,0,0,0,0,0
1683125920.00042009,86228828,1545,1546,1545,1545,0,0,0,0,0,0,0,0,0,0
1683125920.10038018,86328788,1547,1547,1545,1544,0,0,0,0,0,0,0,0,0,0
1683125920.20034003,86428748,1548,1548,1544,1544,0,0,0,0,0,0,0,0,0,0
1683125920.30030012,86528708,1549,1549,1545,1545,0,0,0,0,0,0,0,0,0,0
1683125920.40026021,86628668,1548,1548,1544,1544,0,0,0,0,0,0,0,0,0,0
1683125920.50022006,86728628,1548,1548,1544,1544,0,0,0,0,0,0,0,0,0,0
1683125920.60018015,86828588,1548,1548,1544,1545,0,0,0,0,0,0,0,0,0,0
1683125920.70014024,86928548,1548,1547,1545,1545,0,0,0,0,0,0,0,0,0,0
1683125920.80010009,87028508,1547,1547,1545,1544,0,0,0,0,0,0,0,0,0,0
1683125920.90006018,87128468,1546,1546,1545,1544,0,0,0,0,0,0,0,0,0,0
1683125921.00002003,87228428,1544,1545,1544,1544,0,0,0,0,0,0,0,0,0,0
1683125921.09998012,87328388,1545,1545,1545,1546,0,0,0,0,0,0,0,0,0,0
1683125921.19994020,87428348,1545,1545,1546,1546,0,0,0,0,0,0,0,0,0,0
1683125921.29990005,87528308,1544,1544,1546,1546,0,0,0,0,0,0,0,0,0,0
1683125921.39986014,87628268,1544,1544,1546,1546,0,0,0,0,0,0,0,0,0,0
1683125921.49982023,87728228,1545,1544,1546,1546,0,0,0,0,0,0,0,0,0,0
1683125921.59978008,87828188,1543,1543,1545,1545,0,0,0,0,0,0,0,0,0,0
1683125921.70057321,87928981,1544,1544,1545,1545,0,0,0,0,0,0,0,0,0,0
1683125921.80053306,88028941,1544,1544,1545,1545,0,0,0,0,0,0,0,0,0,0
1683125921.90049314,88128901,1544,1544,1544,1544,0,0,0,0,0,0,0,0,0,0
1683125922.00045323,88228861,1544,1544,1545,1544,0,0,0,0,0,0,0,0,0,0
1683125922.10041308,88328821,1544,1543,1544,1543,0,0,0,0,0,0,0,0,0,0
1683125922.20037317,88428781,1544,1545,1544,1543,0,0,0,0,0,0,0,0,0,0
1683125922.30033302,88528741,1544,1545,1544,1544,0,0,0,0,0,0,0,0,0,0
1683125922.40029311,88628701,1544,1545,1544,1544,0,0,0,0,0,0,0,0,0,0
1683125922.50025320,88728661,1544,1544,1544,1544,0,0,0,0,0,0,0,0,0,0
1683125922.60021305,88828621,1545,1544,1543,1544,0,0,0,0,0,0,0,0,0,0
1683125922.70017314,88928581,1544,1544,1543,1543,0,0,0,0,0,0,0,0,0,0
1683125922.80013323,89028541,1543,1543,1543,1542,0,0,0,0,0,0,0,0,0,0
1683125922.90009308,89128501,1544,1543,1543,1543,0,0,0,0,0,0,0,0,0,0
1683125923.00005317,89228461,1543,1543,1543,1542,0,0,0,0,0,0,0,0,0,0
1683125923.10001326,89328421,1543,1543,1543,1543,0,0,0,0,0,0,0,0,0,0
1683125923.19997311,89428381,1543,1543,1543,1543,0,0,0,0,0,0,0,0,0,0
1683125923.29993320,89528341,1543,1543,1543,1543,0,0,0,0,0,0,0,0,0,0
1683125923.39989305,89628301,1544,1543,1544,1544,0,0,0,0,0,0,0,0,0,0
1683125923.49985313,89728261,1544,1543,1544,1544,0,0,0,0,0,0,0,0,0,0
1683125923.59981322,89828221,1544,1544,1545,1545,0,0,0,0,0,0,0,0,0,0
1683125923.69977307,89928181,1544,1544,1544,1545,0,0,0,0,0,0,0,0,0,0
1683125923.80056620,90028974,1543,1544,1544,1544,0,0,0,0,0,0,0,0,0,0
1683125923.90052605,90128934,1544,1544,1544,1544,0,0,0,0,0,0,0,0,0,0
1683125924.00048614,90228894,1544,1544,1544,1544,0,0,0,0,0,0,0,0,0,0
1683125924.10044622,90328854,1544,1544,1544,1544,0,0,0,0,0,0,0,0,0,0
1683125924.20040607,90428814,1544,1545,1544,1544,0,0,0,0,0,0,0,0,0,0
1683125924.30036616,90528774,1545,1544,1544,1544,0,0,0,0,0,0,0,0,0,0
1683125924.40032625,90628734,1545,1545,1544,1544,0,0,0,0,0,0,0,0,0,0
1683125924.50028610,90728694,1545,1544,1544,1544,0,0,0,0,0,0,0,0,0,0
1683125924.60024619,90828654,1544,1544,1544,1543,0,0,0,0,0,0,0,0,0,0
1683125924.70020604,90928614,1545,1545,1544,1545,0,0,0,0,0,0,0,0,0,0
1683125924.80016613,91028574,1545,1545,1545,1544,0,0,0,0,0,0,0,0,0,0
1683125924.90012622,91128534,1544,1544,1544,1544,0,0,0,0,0,0,0,0,0,0
1683125925.00008607,91228494,1544,1544,1543,1543,0,0,0,0,0,0,0,0,0,0
1683125925.10004616,91328454,1544,1544,1544,1544,0,0,0,0,0,0,0,0,0,0
1683125925.20000625,91428414,1544,1544,1544,1544,0,0,0,0,0,0,0,0,0,0
1683125925.29996610,91528374,1544,1544,1544,1544,0,0,0,0,0,0,0,0,0,0
1683125925.39992619,91628334,1544,1543,1544,1544,0,0,0,0,0,0,0,0,0,0
1683125925.49988604,91728294,1544,1544,1544,1544,0,0,0,0,0,0,0,0,0,0
1683125925.59984612,91828254,1544,1544,1545,1544,0,0,0,0,0,0,0,0,0,0
1683125925.69980621,91928214,1544,1544,1544,1544,0,0,0,0,0,0,0,0,0,0
1683125925.79976606,92028174,1544,1544,1544,1544,0,0,0,0,0,0,0,0,0,0
1683125925.90055919,92128967,1544,1545,1545,1544,0,0,0,0,0,0,0,0,0,0
1683125926.00051904,92228927,1544,1545,1544,1544,0,0,0,0,0,0,0,0,0,0
1683125926.10047913,92328887,1544,1544,1544,1544,0,0,0,0,0,0,0,0,0,0
1683125926.20043921,92428847,1544,1544,1543,1544,0,0,0,0,0,0,0,0,0,0
1683125926.30039907,92528807,1544,1544,1544,1544,0,0,0,0,0,0,0,0,0,0
1683125926.40035915,92628767,1545,1545,1544,1545,0,0,0,0,0,0,0,0,0,0
1683125926.50031924,92728727,1544,1545,1544,1544,0,0,0,0,0,0,0,0,0,0
1683125926.60027909,92828687,1544,1544,1545,1544,0,0,0,0,0,0,0,0,0,0
1683125926.70023918,92928647,1545,1544,1545,1545,0,0,0,0,0,0,0,0,0,0
1683125926.80019903,93028607,1544,1544,1544,1544,0,0,0,0,0,0,0,0,0,0
1683125926.90015912,93128567,1544,1544,1544,1544,0,0,0,0,0,0,0,0,0,0
1683125927.00011921,93228527,1544,1544,1544,1544,0,0,0,0,0,0,0,0,0,0
1683125927.10007906,93328487,1544,1543,1544,1543,0,0,0,0,0,0,0,0,0,0
1683125927.20003915,93428447,1544,1544,1544,1544,0,0,0,0,0,0,0,0,0,0
1683125927.29999924,93528407,1544,1544,1543,1544,0,0,0,0,0,0,0,0,0,0
1683125927.39995909,93628367,1544,1545,1544,1545,0,0,0,0,0,0,0,0,0,0
1683125927.49991918,93728327,1544,1544,1545,1544,0,0,0,0,0,0,0,0,0,0
1683125927.59987903,93828287,1544,1544,1544,1544,0,0,0,0,0,0,0,0,0,0
1683125927.69983912,93928247,1545,1545,1545,1546,0,0,0,0,0,0,0,0,0,0
1683125927.79979920,94028207,1545,1545,1546,1545,0,0,0,0,0,0,0,0,0,0
1683125927.89975905,94128167,1545,1544,1545,1545,0,0,0,0,0,0,0,0,0,0
1683125928.00055218,94228960,1545,1545,1545,1545,0,0,0,0,0,0,0,0,0,0
1683125928.10051203,94328920,1545,1545,1545,1545,0,0,0,0,0,0,0,0,0,0
1683125928.20047212,94428880,1545,1545,1545,1545,0,0,0,0,0,0,0,0,0,0
1683125928.30043221,94528840,1545,1544,1544,1544,0,0,0,0,0,0,0,0,0,0
1683125928.40039206,94628800,1544,1544,1544,1544,0,0,0,0,0,0,0,0,0,0
1683125928.50035214,94728760,1544,1543,1543,1543,0,0,0,0,0,0,0,0,0,0
1683125928.60031223,94828720,1413,1413,1360,1362,0,0,0,0,0,0,0,0,0,0
1683125928.70027208,94928680,1344,1343,1249,1255,0,0,0,0,0,0,0,0,0,0
1683125928.80023217,95028640,1323,1322,1213,1218,0,0,0,0,0,0,0,0,0,0
1683125928.90019202,95128600,1310,1309,1191,1195,0,0,0,0,0,0,0,0,0,0
1683125929.00015211,95228560,1288,1287,1150,1153,0,0,0,0,0,0,0,0,0,0
1683125929.10011220,95328520,1221,1220,1150,1154,0,0,0,0,0,0,0,0,0,0
1683125929.20007205,95428480,1110,1110,1150,1153,0,0,0,0,0,0,0,0,0,0
1683125929.30003214,95528440,1075,1074,1150,1153,0,0,0,0,0,0,0,0,0,0
1683125929.39999223,95628400,1075,1074,1150,1152,0,0,0,0,0,0,0,0,0,0
1683125929.49995208,95728360,1075,1074,1150,1153,0,0,0,0,0,0,0,0,0,0
1683125929.59991217,95828320,1075,1061,1150,1170,0,0,0,0,0,0,0,0,0,0
1683125929.69987226,95928280,1075,1066,1150,1163,0,0,0,0,0,0,0,0,0,0
1683125929.79983211,96028240,1075,1068,1150,1161,0,0,0,0,0,0,0,0,0,0
1683125929.89979219,96128200,1075,1069,1150,1160,0,0,0,0,0,0,0,0,0,0
1683125929.99975204,96228160,1075,1069,1150,1161,0,0,0,0,0,0,0,0,0,0
1683125930.10054517,96328953,1075,1068,1150,1161,0,0,0,0,0,0,0,0,0,0
1683125930.20050526,96428913,1075,1068,1150,1161,0,0,0,0,0,0,0,0,0,0
1683125930.30046511,96528873,1075,1068,1150,1161,0,0,0,0,0,0,0,0,0,0
1683125930.40042520,96628833,1075,1075,1150,1151,0,0,0,0,0,0,0,0,0,0
1683125930.50038505,96728793,1075,1074,1150,1152,0,0,0,0,0,0,0,0,0,0
1683125930.60034513,96828753,1075,1074,1150,1152,0,0,0,0,0,0,0,0,0,0
1683125930.70030522,96928713,1075,1074,1150,1153,0,0,0,0,0,0,0,0,0,0
1683125930.80026507,97028673,991,990,1150,1151,0,0,0,0,0,0,0,0,0,0
1683125930.90022516,97128633,1000,1000,1000,1000,0,0,0,0,0,0,0,0,0,0
1683125931.00018525,97228593,1000,1000,1000,1000,0,0,0,0,0,0,0,0,0,0
1683125931.10014510,97328553,1000,1000,1000,1000,0,0,0,0,0,0,0,0,0,0
1683125931.20010519,97428513,1000,1000,1000,1000,0,0,0,0,0,0,0,0,0,0
1683125931.30006504,97528473,1000,1000,1000,1000,0,0,0,0,0,0,0,0,0,0
1683125931.40002513,97628433,1000,1000,1000,1000,0,0,0,0,0,0,0,0,0,0
1683125931.49998522,97728393,1000,1000,1000,1000,0,0,0,0,0,0,0,0,0,0
1683125931.59994507,97828353,1000,1000,1000,1000,0,0,0,0,0,0,0,0,0,0
1683125931.69990516,97928313,1000,1000,1000,1000,0,0,0,0,0,0,0,0,0,0
1683125931.79986525,98028273,1000,1000,1000,1000,0,0,0,0,0,0,0,0,0,0
1683125931.89982510,98128233,1000,1000,1000,1000,0,0,0,0,0,0,0,0,0,0
1683125931.99978518,98228193,1000,1000,1000,1000,0,0,0,0,0,0,0,0,0,0
1683125932.10057807,98328986,1000,1000,1000,1000,0,0,0,0,0,0,0,0,0,0
1683125932.20053816,98428946,1000,1000,1000,1000,0,0,0,0,0,0,0,0,0,0
1683125932.30049825,98528906,1000,1000,1000,1000,0,0,0,0,0,0,0,0,0,0
1683125932.40045810,98628866,1000,1000,1000,1000,0,0,0,0,0,0,0,0,0,0
1683125932.50041819,98728826,1000,1000,1000,1000,0,0,0,0,0,0,0,0,0,0
1683125932.60037804,98828786,1000,1000,1000,1000,0,0,0,0,0,0,0,0,0,0
1683125932.70033813,98928746,1000,1000,1000,1000,0,0,0,0,0,0,0,0,0,0
1683125932.80029821,99028706,1000,1000,1000,1000,0,0,0,0,0,0,0,0,0,0
1683125932.90025806,99128666,1000,1000,1000,1000,0,0,0,0,0,0,0,0,0,0
1683125933.00021815,99228626,1000,1000,1000,1000,0,0,0,0,0,0,0,0,0,0
1683125933.10017824,99328586,1000,1000,1000,1000,0,0,0,0,0,0,0,0,0,0
1683125933.20013809,99428546,1000,1000,1000,1000,0,0,0,0,0,0,0,0,0,0
1683125933.30009818,99528506,1000,1000,1000,1000,0,0,0,0,0,0,0,0,0,0
1683125933.40005803,99628466,1000,1000,1000,1000,0,0,0,0,0,0,0,0,0,0
1683125933.50001812,99728426,1000,1000,1000,1000,0,0,0,0,0,0,0,0,0,0
1683125933.59997821,99828386,1000,1000,1000,1000,0,0,0,0,0,0,0,0,0,0
1683125933.69993806,99928346,1000,1000,1000,1000,0,0,0,0,0,0,0,0,0,0
1683125933.79989815,100028306,1000,1000,1000,1000,0,0,0,0,0,0,0,0,0,0
1683125933.89985824,100128266,1000,1000,1000,1000,0,0,0,0,0,0,0,0,0,0
1683125933.99981809,100228226,1000,1000,1000,1000,0,0,0,0,0,0,0,0,0,0
1683125934.09977818,100328186,1000,1000,1000,1000,0,0,0,0,0,0,0,0,0,0
1683125934.20057106,100428979,1000,1000,1000,1000,0,0,0,0,0,0,0,0,0,0
1683125934.30053115,100528939,1000,1000,1000,1000,0,0,0,0,0,0,0,0,0,0
1683125934.40049124,100628899,1000,1000,1000,1000,0,0,0,0,0,0,0,0,0,0
1683125934.50045109,100728859,1000,1000,1000,1000,0,0,0,0,0,0,0,0,0,0
1683125934.60041118,100828819,1000,1000,1000,1000,0,0,0,0,0,0,0,0,0,0
1683125934.70037103,100928779,1000,1000,1000,1000,0,0,0,0,0,0,0,0,0,0
1683125934.80033112,101028739,1000,1000,1000,1000,0,0,0,0,0,0,0,0,0,0
1683125934.90029120,101128699,1000,1000,1000,1000,0,0,0,0,0,0,0,0,0,0
1683125935.00025105,101228659,1000,1000,1000,1000,0,0,0,0,0,0,0,0,0,0
1683125935.10021114,101328619,1000,1000,1000,1000,0,0,0,0,0,0,0,0,0,0
1683125935.20017123,101428579,1000,1000,1000,1000,0,0,0,0,0,0,0,0,0,0
1683125935.30013108,101528539,1000,1000,1000,1000,0,0,0,0,0,0,0,0,0,0
1683125935.40009117,101628499,1000,1000,1000,1000,0,0,0,0,0,0,0,0,0,0
1683125935.50005102,101728459,1000,1000,1000,1000,0,0,0,0,0,0,0,0,0,0
1683125935.60001111,101828419,1000,1000,1000,1000,0,0,0,0,0,0,0,0,0,0
1683125935.69997120,101928379,1000,1000,1000,1000,0,0,0,0,0,0,0,0,0,0
1683125935.79993105,102028339,1000,1000,1000,1000,0,0,0,0,0,0,0,0,0,0
1683125935.89989114,102128299,1000,1000,1000,1000,0,0,0,0,0,0,0,0,0,0
1683125935.99985123,102228259,1000,1000,1000,1000,0,0,0,0,0,0,0,0,0,0
1683125936.09981108,102328219,1000,1000,1000,1000,0,0,0,0,0,0,0,0,0,0
1683125936.19977117,102428179,1000,1000,1000,1000,0,0,0,0,0,0,0,0,0,0
1683125936.30056405,102528972,1000,1000,1000,1000,0,0,0,0,0,0,0,0,0,0
1683125936.40052414,102628932,1000,1000,1000,1000,0,0,0,0,0,0,0,0,0,0
1683125936.50048423,102728892,1000,1000,1000,1000,0,0,0,0,0,0,0,0,0,0
1683125936.60044408,102828852,1000,1000,1000,1000,0,0,0,0,0,0,0,0,0,0
1683125936.70040417,102928812,1000,1000,1000,1000,0,0,0,0,0,0,0,0,0,0
1683125936.80036426,103028772,1000,1000,1000,1000,0,0,0,0,0,0,0,0,0,0
1683125936.90032411,103128732,1000,1000,1000,1000,0,0,0,0,0,0,0,0,0,0
1683125937.00028419,103228692,1000,1000,1000,1000,0,0,0,0,0,0,0,0,0,0
1683125937.10024405,103328652,1000,1000,1000,1000,0,0,0,0,0,0,0,0,0,0
1683125937.20020413,103428612,1000,1000,1000,1000,0,0,0,0,0,0,0,0,0,0
1683125937.30016422,103528572,1000,1000,1000,1000,0,0,0,0,0,0,0,0,0,0
1683125937.40012407,103628532,1000,1000,1000,1000,0,0,0,0,0,0,0,0,0,0
1683125937.50008416,103728492,1000,1000,1000,1000,0,0,0,0,0,0,0,0,0,0
1683125937.60004425,103828452,1000,1000,1000,1000,0,0,0,0,0,0,0,0,0,0
1683125937.70000410,103928412,1000,1000,1000,1000,0,0,0,0,0,0,0,0,0,0
1683125937.79996419,104028372,1000,1000,1000,1000,0,0,0,0,0,0,0,0,0,0
1683125937.89992404,104128332,1000,1000,1000,1000,0,0,0,0,0,0,0,0,0,0
1683125937.99988413,104228292,1000,1000,1000,1000,0,0,0,0,0,0,0,0,0,0
1683125938.09984422,104328252,1000,1000,1000,1000,0,0,0,0,0,0,0,0,0,0
1683125938.19980407,104428212,1000,1000,1000,1000,0,0,0,0,0,0,0,0,0,0
1683125938.29976416,104528172,1000,1000,1000,1000,0,0,0,0,0,0,0,0,0,0
1683125938.40055704,104628965,1000,1000,1000,1000,0,0,0,0,0,0,0,0,0,0
1683125938.50051713,104728925,1000,1000,1000,1000,0,0,0,0,0,0,0,0,0,0
1683125938.60047722,104828885,1000,1000,1000,1000,0,0,0,0,0,0,0,0,0,0
1683125938.70043707,104928845,1000,1000,1000,1000,0,0,0,0,0,0,0,0,0,0
1683125938.80039716,105028805,1000,1000,1000,1000,0,0,0,0,0,0,0,0,0,0
1683125938.90035725,105128765,1000,1000,1000,1000,0,0,0,0,0,0,0,0,0,0
1683125939.00031710,105228725,1000,1000,1000,1000,0,0,0,0,0,0,0,0,0,0
1683125939.10027719,105328685,1000,1000,1000,1000,0,0,0,0,0,0,0,0,0,0
1683125939.20023704,105428645,1000,1000,1000,1000,0,0,0,0,0,0,0,0,0,0
1683125939.30019712,105528605,1000,1000,1000,1000,0,0,0,0,0,0,0,0,0,0
1683125939.40015721,105628565,1000,1000,1000,1000,0,0,0,0,0,0,0,0,0,0
1683125939.50011706,105728525,1000,1000,1000,1000,0,0,0,0,0,0,0,0,0,0
1683125939.60007715,105828485,1000,1000,1000,1000,0,0,0,0,0,0,0,0,0,0
1683125939.70003724,105928445,1000,1000,1000,1000,0,0,0,0,0,0,0,0,0,0
1683125939.79999709,106028405,1000,1000,1000,1000,0,0,0,0,0,0,0,0,0,0
1683125939.89995718,106128365,1000,1000,1000,1000,0,0,0,0,0,0,0,0,0,0
1683125939.99991703,106228325,1000,1000,1000,1000,0,0,0,0,0,0,0,0,0,0
1683125940.09987712,106328285,1000,1000,1000,1000,0,0,0,0,0,0,0,0,0,0
1683125940.19983721,106428245,1000,1000,1000,1000,0,0,0,0,0,0,0,0,0,0
1683125940.29979706,106528205,1000,1000,1000,1000,0,0,0,0,0,0,0,0,0,0
1683125940.39975715,106628165,1000,1000,1000,1000,0,0,0,0,0,0,0,0,0,0
1683125940.50055003,106728958,1000,1000,1000,1000,0,0,0,0,0,0,0,0,0,0
1683125940.60051012,106828918,1000,1000,1000,1000,0,0,0,0,0,0,0,0,0,0
1683125940.70047021,106928878,1000,1000,1000,1000,0,0,0,0,0,0,0,0,0,0
1683125940.80043006,107028838,1000,1000,1000,1000,0,0,0,0,0,0,0,0,0,0
1683125940.90039015,107128798,1000,1000,1000,1000,0,0,0,0,0,0,0,0,0,0
1683125941.00035024,107228758,1000,1000,1000,1000,0,0,0,0,0,0,0,0,0,0
1683125941.10031009,107328718,1000,1000,1000,1000,0,0,0,0,0,0,0,0,0,0
1683125941.20027018,107428678,1000,1000,1000,1000,0,0,0,0,0,0,0,0,0,0
1683125941.30023003,107528638,1000,1000,1000,1000,0,0,0,0,0,0,0,0,0,0
1683125941.40019011,107628598,1000,1000,1000,1000,0,0,0,0,0,0,0,0,0,0
1683125941.50015020,107728558,1000,1000,1000,1000,0,0,0,0,0,0,0,0,0,0
1683125941.60011005,107828518,1000,1000,1000,1000,0,0,0,0,0,0,0,0,0,0
1683125941.70007014,107928478,1000,1000,1000,1000,0,0,0,0,0,0,0,0,0,0
1683125941.80003023,108028438,1000,1000,1000,1000,0,0,0,0,0,0,0,0,0,0
1683125941.89999008,108128398,1000,1000,1000,1000,0,0,0,0,0,0,0,0,0,0
1683125941.99995017,108228358,1000,1000,1000,1000,0,0,0,0,0,0,0,0,0,0
1683125942.09991026,108328318,1000,1000,1000,1000,0,0,0,0,0,0,0,0,0,0
1683125942.19987011,108428278,1000,1000,1000,1000,0,0,0,0,0,0,0,0,0,0
1683125942.29983020,108528238,1000,1000,1000,1000,0,0,0,0,0,0,0,0,0,0
1683125942.39979005,108628198,1000,1000,1000,1000,0,0,0,0,0,0,0,0,0,0
1683125942.49975014,108728158,1000,1000,1000,1000,0,0,0,0,0,0,0,0,0,0
1683125942.60054302,108828951,1000,1000,1000,1000,0,0,0,0,0,0,0,0,0,0
1683125942.70050311,108928911,1000,1000,1000,1000,0,0,0,0,0,0,0,0,0,0
1683125942.80046320,109028871,1000,1000,1000,1000,0,0,0,0,0,0,0,0,0,0
1683125942.90042305,109128831,1000,1000,1000,1000,0,0,0,0,0,0,0,0,0,0
1683125943.00038314,109228791,1000,1000,1000,1000,0,0,0,0,0,0,0,0,0,0
1683125943.10034323,109328751,1000,1000,1000,1000,0,0,0,0,0,0,0,0,0,0
