TimeUS,M1,M2,M3,M4,TimeUS,C1,C2,C3,C4
52183285,1000,1000,1000,1000,52228267,1000,1000,1000,1000
52185784,1000,1000,1000,1000,52328227,1000,1000,1000,1000
52188283,1000,1000,1000,1000,52428187,1000,1000,1000,1000
52190782,1000,1000,1000,1000,52528980,1000,1000,1000,1000
52193281,1000,1000,1000,1000,52628940,1000,1000,1000,1000
52195780,1000,1000,1000,1000,52728900,1000,1000,1000,1000
52198279,1000,1000,1000,1000,52828860,1000,1000,1000,1000
52200778,1000,1000,1000,1000,52928820,1000,1000,1000,1000
52203277,1000,1000,1000,1000,53028780,1000,1000,1000,1000
52205776,1000,1000,1000,1000,53128740,1000,1000,1000,1000
52208275,1000,1000,1000,1000,53228700,1000,1000,1000,1000
52210774,1000,1000,1000,1000,53328660,1000,1000,1000,1000
52213273,1000,1000,1000,1000,53428620,1000,1000,1000,1000
52215772,1000,1000,1000,1000,53528580,1000,1000,1000,1000
52218271,1000,1000,1000,1000,53628540,1000,1000,1000,1000
52220770,1000,1000,1000,1000,53728500,1000,1000,1000,1000
52223269,1000,1000,1000,1000,53828460,1000,1000,1000,1000
52225768,1000,1000,1000,1000,53928420,1000,1000,1000,1000
52228267,1000,1000,1000,1000,54028380,1000,1000,1000,1000
52230766,1000,1000,1000,1000,54128340,1000,1000,1000,1000
52233265,1000,1000,1000,1000,54228300,1013,1013,1013,1013
52235764,1000,1000,1000,1000,54328260,1043,1043,1043,1043
52238263,1000,1000,1000,1000,54428220,1073,1073,1073,1073
52240762,1000,1000,1000,1000,54528180,1103,1103,1103,1103
52243261,1000,1000,1000,1000,54628973,1133,1133,1133,1133
52245760,1000,1000,1000,1000,54728933,1275,1268,1269,1275
52248259,1000,1000,1000,1000,54828893,1486,1481,1481,1486
52250758,1000,1000,1000,1000,54928853,1648,1644,1644,1649
52253257,1000,1000,1000,1000,55028813,1786,1781,1781,1786
52255756,1000,1000,1000,1000,55128773,1837,1832,1832,1837
52258255,1000,1000,1000,1000,55228733,1853,1851,1851,1854
52260754,1000,1000,1000,1000,55328693,1738,1738,1738,1739
52263253,1000,1000,1000,1000,55428653,1635,1636,1636,1635
52265752,1000,1000,1000,1000,55528613,1605,1606,1606,1604
52268251,1000,1000,1000,1000,55628573,1617,1619,1619,1617
52270750,1000,1000,1000,1000,55728533,1628,1627,1626,1630
52273249,1000,1000,1000,1000,55828493,1626,1628,1622,1631
52275748,1000,1000,1000,1000,55928453,1622,1623,1619,1626
52278247,1000,1000,1000,1000,56028413,1618,1618,1618,1618
52280746,1000,1000,1000,1000,56128373,1618,1617,1619,1616
52283245,1000,1000,1000,1000,56228333,1619,1618,1621,1615
52285744,1000,1000,1000,1000,56328293,1620,1619,1622,1616
52288243,1000,1000,1000,1000,56428253,1622,1622,1624,1620
52290742,1000,1000,1000,1000,56528213,1623,1624,1625,1622
52293241,1000,1000,1000,1000,56628173,1609,1610,1612,1608
52295740,1000,1000,1000,1000,56728966,1586,1586,1593,1579
52298239,1000,1000,1000,1000,56828926,1572,1572,1576,1569
52300738,1000,1000,1000,1000,56928886,1562,1563,1562,1564
52303237,1000,1000,1000,1000,57028846,1553,1553,1546,1560
52305736,1000,1000,1000,1000,57128806,1545,1545,1536,1554
52308235,1000,1000,1000,1000,57228766,1539,1538,1531,1545
52310734,1000,1000,1000,1000,57328726,1532,1532,1529,1535
52313233,1000,1000,1000,1000,57428686,1528,1528,1527,1528
52315732,1000,1000,1000,1000,57528646,1527,1527,1529,1525
52318231,1000,1000,1000,1000,57628606,1529,1529,1532,1526
52320730,1000,1000,1000,1000,57728566,1533,1532,1536,1530
52323229,1000,1000,1000,1000,57828526,1535,1536,1538,1533
52325728,1000,1000,1000,1000,57928486,1540,1540,1541,1538
52328227,1000,1000,1000,1000,58028446,1543,1543,1544,1542
52330726,1000,1000,1000,1000,58128406,1546,1545,1545,1546
52333225,1000,1000,1000,1000,58228366,1549,1549,1549,1549
52335724,1000,1000,1000,1000,58328326,1551,1551,1550,1553
52338223,1000,1000,1000,1000,58428286,1553,1552,1552,1555
52340722,1000,1000,1000,1000,58528246,1553,1553,1560,1562
52343221,1000,1000,1000,1000,58628206,1555,1555,1562,1563
52345720,1000,1000,1000,1000,58728166,1558,1558,1564,1564
52348219,1000,1000,1000,1000,58828959,1559,1559,1563,1562
52350718,1000,1000,1000,1000,58928919,1563,1563,1565,1564
52353217,1000,1000,1000,1000,59028879,1566,1566,1565,1565
52355716,1000,1000,1000,1000,59128839,1569,1569,1566,1566
52358215,1000,1000,1000,1000,59228799,1571,1571,1567,1567
52360714,1000,1000,1000,1000,59328759,1571,1571,1566,1567
52363213,1000,1000,1000,1000,59428719,1571,1571,1566,1566
52365712,1000,1000,1000,1000,59528679,1572,1572,1568,1568
52368211,1000,1000,1000,1000,59628639,1572,1572,1568,1568
52370710,1000,1000,1000,1000,59728599,1574,1573,1571,1571
52373209,1000,1000,1000,1000,59828559,1574,1574,1573,1572
52375708,1000,1000,1000,1000,59928519,1575,1575,1575,1574
52378207,1000,1000,1000,1000,60028479,1575,1575,1576,1575
52380706,1000,1000,1000,1000,60128439,1575,1575,1577,1576
52383205,1000,1000,1000,1000,60228399,1575,1574,1576,1576
52385704,1000,1000,1000,1000,60328359,1574,1574,1576,1576
52388203,1000,1000,1000,1000,60428319,1575,1575,1576,1577
52390702,1000,1000,1000,1000,60528279,1576,1576,1577,1578
52393201,1000,1000,1000,1000,60628239,1575,1575,1576,1576
52395700,1000,1000,1000,1000,60728199,1576,1576,1577,1577
52398199,1000,1000,1000,1000,60828159,1577,1577,1577,1577
52400698,1000,1000,1000,1000,60928952,1578,1577,1578,1577
52403197,1000,1000,1000,1000,61028912,1578,1577,1578,1577
52405696,1000,1000,1000,1000,61128872,1577,1577,1576,1577
52408195,1000,1000,1000,1000,61228832,1578,1578,1577,1577
52410694,1000,1000,1000,1000,61328792,1577,1577,1576,1577
52413193,1000,1000,1000,1000,61428752,1578,1578,1577,1577
52415692,1000,1000,1000,1000,61528712,1577,1577,1577,1577
52418191,1000,1000,1000,1000,61628672,1578,1578,1578,1577
52420690,1000,1000,1000,1000,61728632,1579,1578,1579,1578
52423189,1000,1000,1000,1000,61828592,1578,1578,1578,1578
52425688,1000,1000,1000,1000,61928552,1578,1578,1578,1579
52428187,1000,1000,1000,1000,62028512,1578,1579,1578,1579
52430686,1000,1000,1000,1000,62128472,1578,1579,1579,1579
52433185,1000,1000,1000,1000,62228432,1579,1579,1579,1580
52435684,1000,1000,1000,1000,62328392,1579,1578,1579,1579
52438183,1000,1000,1000,1000,62428352,1579,1578,1579,1579
52440682,1000,1000,1000,1000,62528312,1579,1580,1580,1580
52443181,1000,1000,1000,1000,62628272,1579,1579,1579,1579
52445680,1000,1000,1000,1000,62728232,1579,1579,1579,1580
52448179,1000,1000,1000,1000,62828192,1581,1580,1580,1581
52450678,1000,1000,1000,1000,62928985,1580,1580,1580,1580
52453177,1000,1000,1000,1000,63028945,1580,1580,1580,1579
52455676,1000,1000,1000,1000,63128905,1579,1579,1579,1579
52458175,1000,1000,1000,1000,63228865,1579,1579,1579,1579
52460674,1000,1000,1000,1000,63328825,1580,1580,1580,1580
52463173,1000,1000,1000,1000,63428785,1580,1580,1580,1580
52465672,1000,1000,1000,1000,63528745,1580,1580,1580,1580
52468171,1000,1000,1000,1000,63628705,1580,1580,1580,1579
52470670,1000,1000,1000,1000,63728665,1581,1581,1581,1581
52473169,1000,1000,1000,1000,63828625,1580,1579,1580,1580
52475668,1000,1000,1000,1000,63928585,1581,1581,1581,1581
52478167,1000,1000,1000,1000,64028545,1581,1580,1580,1581
52480666,1000,1000,1000,1000,64128505,1580,1581,1581,1581
52483165,1000,1000,1000,1000,64228465,1580,1580,1580,1580
52485664,1000,1000,1000,1000,64328425,1580,1581,1581,1580
52488163,1000,1000,1000,1000,64428385,1580,1580,1581,1580
52490662,1000,1000,1000,1000,64528345,1581,1581,1581,1581
52493161,1000,1000,1000,1000,64628305,1581,1581,1583,1579
52495660,1000,1000,1000,1000,64728265,1581,1582,1588,1573
52498159,1000,1000,1000,1000,64828225,1580,1582,1584,1574
52500658,1000,1000,1000,1000,64928185,1579,1581,1575,1574
52503157,1000,1000,1000,1000,65028978,1576,1579,1565,1571
52505656,1000,1000,1000,1000,65128938,1577,1579,1560,1567
52508155,1000,1000,1000,1000,65228898,1578,1578,1556,1561
52510654,1000,1000,1000,1000,65328858,1579,1578,1555,1558
52513986,1000,1000,1000,1000,65428818,1579,1578,1555,1555
52516485,1000,1000,1000,1000,65528778,1578,1578,1556,1554
52518984,1000,1000,1000,1000,65628738,1577,1577,1556,1553
52521483,1000,1000,1000,1000,65728698,1576,1577,1555,1553
52523982,1000,1000,1000,1000,65828658,1576,1576,1555,1553
52526481,1000,1000,1000,1000,65928618,1574,1576,1553,1553
52528980,1000,1000,1000,1000,66028578,1574,1576,1552,1552
52531479,1000,1000,1000,1000,66128538,1575,1577,1551,1551
52533978,1000,1000,1000,1000,66228498,1576,1578,1549,1549
52536477,1000,1000,1000,1000,66328458,1579,1580,1547,1547
52538976,1000,1000,1000,1000,66428418,1582,1583,1545,1545
52541475,1000,1000,1000,1000,66528378,1585,1586,1542,1542
52543974,1000,1000,1000,1000,66628338,1588,1588,1540,1539
52546473,1000,1000,1000,1000,66728298,1591,1591,1537,1537
52548972,1000,1000,1000,1000,66828258,1594,1594,1535,1535
52551471,1000,1000,1000,1000,66928218,1595,1595,1534,1536
52553970,1000,1000,1000,1000,67028178,1596,1596,1536,1538
52556469,1000,1000,1000,1000,67128971,1594,1594,1537,1539
52558968,1000,1000,1000,1000,67228931,1592,1591,1541,1544
52561467,1000,1000,1000,1000,67328891,1587,1585,1546,1549
52563966,1000,1000,1000,1000,67428851,1581,1578,1555,1558
52566465,1000,1000,1000,1000,67528811,1573,1568,1566,1569
52568964,1000,1000,1000,1000,67628771,1562,1558,1579,1580
52571463,1000,1000,1000,1000,67728731,1550,1547,1591,1591
52573962,1000,1000,1000,1000,67828691,1541,1540,1602,1602
52576461,1000,1000,1000,1000,67928651,1533,1533,1609,1609
52578960,1000,1000,1000,1000,68028611,1529,1531,1614,1613
52581459,1000,1000,1000,1000,68128571,1530,1532,1616,1615
52583958,1000,1000,1000,1000,68228531,1533,1536,1613,1613
52586457,1000,1000,1000,1000,68328491,1539,1541,1608,1607
52588956,1000,1000,1000,1000,68428451,1546,1548,1601,1601
52591455,1000,1000,1000,1000,68528411,1556,1556,1594,1593
52593954,1000,1000,1000,1000,68628371,1565,1564,1586,1586
52596453,1000,1000,1000,1000,68728331,1573,1572,1580,1579
52598952,1000,1000,1000,1000,68828291,1578,1578,1573,1573
52601451,1000,1000,1000,1000,68928251,1584,1583,1570,1569
52603950,1000,1000,1000,1000,69028211,1586,1585,1566,1567
52606449,1000,1000,1000,1000,69128171,1587,1586,1566,1566
52608948,1000,1000,1000,1000,69228964,1587,1585,1566,1566
52611447,1000,1000,1000,1000,69328924,1585,1583,1568,1568
52613946,1000,1000,1000,1000,69428884,1582,1581,1570,1571
52616445,1000,1000,1000,1000,69528844,1580,1580,1575,1575
52618944,1000,1000,1000,1000,69628804,1577,1578,1578,1577
52621443,1000,1000,1000,1000,69728764,1574,1575,1580,1579
52623942,1000,1000,1000,1000,69828724,1573,1574,1582,1582
52626441,1000,1000,1000,1000,69928684,1495,1495,1595,1595
52628940,1000,1000,1000,1000,70028644,1522,1524,1605,1606
52631439,1000,1000,1000,1000,70128604,1542,1545,1601,1600
52633938,1000,1000,1000,1000,70228564,1561,1564,1593,1592
52636437,1000,1000,1000,1000,70328524,1579,1581,1585,1583
52638936,1000,1000,1000,1000,70428484,1593,1593,1575,1574
52641435,1000,1000,1000,1000,70528444,1603,1601,1570,1569
52643934,1000,1000,1000,1000,70628404,1609,1605,1567,1568
52646433,1000,1000,1000,1000,70728364,1609,1605,1565,1566
52648932,1000,1000,1000,1000,70828324,1608,1605,1567,1568
52651431,1000,1000,1000,1000,70928284,1605,1602,1568,1570
52653930,1000,1000,1000,1000,71028244,1600,1599,1570,1571
52656429,1000,1000,1000,1000,71128204,1595,1596,1573,1573
52658928,1000,1000,1000,1000,71228164,1591,1592,1575,1575
52661427,1000,1000,1000,1000,71328957,1587,1588,1578,1577
52663926,1000,1000,1000,1000,71428917,1584,1584,1581,1580
52666425,1000,1000,1000,1000,71528877,1581,1582,1583,1582
52668924,1000,1000,1000,1000,71628837,1577,1578,1584,1583
52671423,1000,1000,1000,1000,71728797,1575,1576,1585,1585
52673922,1000,1000,1000,1000,71828757,1575,1575,1587,1586
52676421,1000,1000,1000,1000,71928717,1573,1574,1587,1586
52678920,1000,1000,1000,1000,72028677,1573,1574,1586,1586
52681419,1000,1000,1000,1000,72128637,1574,1574,1586,1586
52683918,1000,1000,1000,1000,72228597,1574,1575,1584,1584
52686417,1000,1000,1000,1000,72328557,1576,1577,1583,1584
52688916,1000,1000,1000,1000,72428517,1578,1578,1582,1582
52691415,1000,1000,1000,1000,72528477,1580,1580,1581,1581
52693914,1000,1000,1000,1000,72628437,1581,1581,1580,1579
52696413,1000,1000,1000,1000,72728397,1581,1582,1584,1569
52698912,1000,1000,1000,1000,72828357,1583,1583,1581,1569
52701411,1000,1000,1000,1000,72928317,1582,1583,1571,1569
52703910,1000,1000,1000,1000,73028277,1581,1582,1562,1566
52706409,1000,1000,1000,1000,73128237,1581,1582,1557,1564
52708908,1000,1000,1000,1000,73228197,1580,1581,1554,1559
52711407,1000,1000,1000,1000,73328157,1580,1581,1553,1556
52713906,1000,1000,1000,1000,73428950,1580,1580,1553,1554
52716405,1000,1000,1000,1000,73528910,1580,1579,1554,1553
52718904,1000,1000,1000,1000,73628870,1578,1578,1554,1552
52721403,1000,1000,1000,1000,73728830,1577,1577,1554,1552
52723902,1000,1000,1000,1000,73828790,1576,1577,1554,1552
52726401,1000,1000,1000,1000,73928750,1575,1576,1553,1552
52728900,1000,1000,1000,1000,74028710,1576,1577,1552,1552
52731399,1000,1000,1000,1000,74128670,1575,1577,1550,1551
52733898,1000,1000,1000,1000,74228630,1577,1578,1549,1549
52736397,1000,1000,1000,1000,74328590,1578,1580,1547,1547
52738896,1000,1000,1000,1000,74428550,1580,1581,1545,1545
52741395,1000,1000,1000,1000,74528510,1583,1583,1544,1544
52743894,1000,1000,1000,1000,74628470,1585,1585,1542,1542
52746393,1000,1000,1000,1000,74728430,1588,1588,1542,1541
52748892,1000,1000,1000,1000,74828390,1589,1589,1540,1540
52751391,1000,1000,1000,1000,74928350,1590,1590,1540,1541
52753890,1000,1000,1000,1000,75028310,1591,1592,1541,1543
52756389,1000,1000,1000,1000,75128270,1590,1590,1542,1545
52758888,1000,1000,1000,1000,75228230,1589,1588,1546,1549
52761387,1000,1000,1000,1000,75328190,1585,1583,1551,1554
52763886,1000,1000,1000,1000,75428983,1580,1577,1558,1561
52766385,1000,1000,1000,1000,75528943,1572,1568,1567,1570
52768884,1000,1000,1000,1000,75628903,1563,1559,1579,1580
52771383,1000,1000,1000,1000,75728863,1552,1549,1589,1590
52773882,1000,1000,1000,1000,75828823,1542,1541,1598,1598
52776381,1000,1000,1000,1000,75928783,1536,1536,1606,1605
52778880,1000,1000,1000,1000,76028743,1533,1534,1610,1609
52781379,1000,1000,1000,1000,76128703,1532,1534,1611,1610
52783878,1000,1000,1000,1000,76228663,1535,1538,1609,1608
52786377,1000,1000,1000,1000,76328623,1542,1544,1605,1605
52788876,1000,1000,1000,1000,76428583,1549,1550,1599,1599
52791375,1000,1000,1000,1000,76528543,1558,1559,1594,1592
52793874,1000,1000,1000,1000,76628503,1566,1565,1586,1585
52796373,1000,1000,1000,1000,76728463,1573,1573,1580,1579
52798872,1000,1000,1000,1000,76828423,1580,1579,1576,1575
52801371,1000,1000,1000,1000,76928383,1584,1582,1570,1570
52803870,1000,1000,1000,1000,77028343,1586,1585,1567,1568
52806369,1000,1000,1000,1000,77128303,1587,1586,1566,1567
52808868,1000,1000,1000,1000,77228263,1587,1587,1567,1567
52811367,1000,1000,1000,1000,77328223,1587,1586,1570,1570
52813866,1000,1000,1000,1000,77428183,1584,1584,1571,1571
52816365,1000,1000,1000,1000,77528976,1582,1581,1574,1574
52818864,1000,1000,1000,1000,77628936,1579,1579,1577,1577
52821363,1000,1000,1000,1000,77728896,1578,1578,1580,1581
52823862,1000,1000,1000,1000,77828856,1575,1575,1581,1581
52826361,1000,1000,1000,1000,77928816,1574,1574,1583,1583
52828860,1000,1000,1000,1000,78028776,1573,1574,1584,1584
52831359,1000,1000,1000,1000,78128736,1573,1574,1584,1584
52833858,1000,1000,1000,1000,78228696,1574,1574,1584,1584
52836357,1000,1000,1000,1000,78328656,1575,1576,1583,1583
52838856,1000,1000,1000,1000,78428616,1576,1576,1582,1582
52841355,1000,1000,1000,1000,78528576,1577,1577,1580,1580
52843854,1000,1000,1000,1000,78628536,1579,1578,1579,1580
52846353,1000,1000,1000,1000,78728496,1579,1579,1578,1578
52848852,1000,1000,1000,1000,78828456,1581,1580,1578,1578
52851351,1000,1000,1000,1000,78928416,1581,1581,1577,1578
52853850,1000,1000,1000,1000,79028376,1582,1582,1577,1577
52856349,1000,1000,1000,1000,79128336,1582,1582,1578,1578
52858848,1000,1000,1000,1000,79228296,1582,1582,1578,1578
52861347,1000,1000,1000,1000,79328256,1581,1581,1578,1578
52863846,1000,1000,1000,1000,79428216,1581,1581,1579,1579
52866345,1000,1000,1000,1000,79528176,1580,1580,1579,1579
52868844,1000,1000,1000,1000,79628969,1580,1580,1580,1580
52871343,1000,1000,1000,1000,79728929,1579,1580,1580,1580
52873842,1000,1000,1000,1000,79828889,1580,1580,1581,1581
52876341,1000,1000,1000,1000,79928849,1579,1579,1581,1581
52878840,1000,1000,1000,1000,80028809,1580,1580,1581,1582
52881339,1000,1000,1000,1000,80128769,1580,1580,1582,1582
52883838,1000,1000,1000,1000,80228729,1580,1580,1581,1581
52886337,1000,1000,1000,1000,80328689,1580,1580,1581,1581
52888836,1000,1000,1000,1000,80428649,1580,1580,1580,1580
52891335,1000,1000,1000,1000,80528609,1580,1581,1581,1581
52893834,1000,1000,1000,1000,80628569,1581,1582,1581,1581
52896333,1000,1000,1000,1000,80728529,1581,1581,1580,1581
52898832,1000,1000,1000,1000,80828489,1581,1581,1581,1581
52901331,1000,1000,1000,1000,80928449,1581,1580,1580,1580
52903830,1000,1000,1000,1000,81028409,1581,1582,1588,1574
52906329,1000,1000,1000,1000,81128369,1581,1582,1585,1573
52908828,1000,1000,1000,1000,81228329,1581,1583,1578,1574
52911327,1000,1000,1000,1000,81328289,1578,1581,1568,1572
52913826,1000,1000,1000,1000,81428249,1578,1579,1561,1568
52916325,1000,1000,1000,1000,81528209,1578,1579,1557,1564
52918824,1000,1000,1000,1000,81628169,1579,1579,1555,1559
52921323,1000,1000,1000,1000,81728962,1579,1578,1555,1556
52923822,1000,1000,1000,1000,81828922,1579,1578,1555,1554
52926321,1000,1000,1000,1000,81928882,1580,1578,1557,1555
52928820,1000,1000,1000,1000,82028842,1578,1578,1557,1554
52931319,1000,1000,1000,1000,82128802,1577,1577,1556,1554
52933818,1000,1000,1000,1000,82228762,1575,1576,1555,1554
52936317,1000,1000,1000,1000,82328722,1574,1576,1553,1554
52938816,1000,1000,1000,1000,82428682,1574,1577,1552,1553
52941315,1000,1000,1000,1000,82528642,1576,1577,1551,1552
52943814,1000,1000,1000,1000,82628602,1578,1579,1550,1549
52946313,1000,1000,1000,1000,82728562,1579,1580,1547,1546
52948812,1000,1000,1000,1000,82828522,1581,1583,1545,1544
52951311,1000,1000,1000,1000,82928482,1584,1585,1542,1542
52953810,1000,1000,1000,1000,83028442,1587,1587,1540,1539
52956309,1000,1000,1000,1000,83128402,1589,1589,1537,1538
52958808,1000,1000,1000,1000,83228362,1591,1591,1537,1537
52961307,1000,1000,1000,1000,83328322,1592,1592,1537,1538
52963806,1000,1000,1000,1000,83428282,1592,1592,1537,1539
52966305,1000,1000,1000,1000,83528242,1592,1592,1540,1543
52968804,1000,1000,1000,1000,83628202,1589,1588,1545,1548
52971303,1000,1000,1000,1000,83728162,1585,1583,1552,1555
52973802,1000,1000,1000,1000,83828955,1577,1575,1561,1563
52976301,1000,1000,1000,1000,83928915,1569,1565,1571,1573
52978800,1000,1000,1000,1000,84028875,1559,1555,1582,1583
52981299,1000,1000,1000,1000,84128835,1550,1547,1594,1594
52983798,1000,1000,1000,1000,84228795,1541,1540,1603,1602
52986297,1000,1000,1000,1000,84328755,1535,1535,1609,1608
52988796,1000,1000,1000,1000,84428715,1532,1534,1612,1611
52991295,1000,1000,1000,1000,84528675,1533,1535,1612,1611
52993794,1000,1000,1000,1000,84628635,1536,1538,1608,1608
52996293,1000,1000,1000,1000,84728595,1542,1543,1603,1604
52998792,1000,1000,1000,1000,84828555,1549,1551,1598,1597
53001291,1000,1000,1000,1000,84928515,1559,1559,1592,1591
53003790,1000,1000,1000,1000,85028475,1566,1567,1585,1584
53006289,1000,1000,1000,1000,85128435,1574,1573,1579,1578
53008788,1000,1000,1000,1000,85228395,1579,1578,1573,1573
53011287,1000,1000,1000,1000,85328355,1584,1583,1570,1570
53013786,1000,1000,1000,1000,85428315,1587,1585,1567,1567
53016285,1000,1000,1000,1000,85528275,1588,1586,1567,1567
53018784,1000,1000,1000,1000,85628235,1587,1586,1567,1567
53021283,1000,1000,1000,1000,85728195,1587,1586,1570,1570
53023782,1000,1000,1000,1000,85828155,1584,1584,1573,1572
53026281,1000,1000,1000,1000,85928948,1582,1582,1576,1575
53028780,1000,1000,1000,1000,86028908,1579,1579,1578,1578
53031279,1000,1000,1000,1000,86128868,1576,1577,1580,1581
53033778,1000,1000,1000,1000,86228828,1574,1575,1582,1582
53036277,1000,1000,1000,1000,86328788,1573,1573,1583,1583
53038776,1000,1000,1000,1000,86428748,1572,1573,1583,1583
53041275,1000,1000,1000,1000,86528708,1573,1573,1584,1583
53043774,1000,1000,1000,1000,86628668,1574,1574,1583,1584
53046273,1000,1000,1000,1000,86728628,1574,1574,1581,1582
53048772,1000,1000,1000,1000,86828588,1575,1576,1581,1581
53051271,1000,1000,1000,1000,86928548,1577,1577,1580,1580
53053770,1000,1000,1000,1000,87028508,1578,1578,1579,1579
53056269,1000,1000,1000,1000,87128468,1580,1580,1578,1578
53058768,1000,1000,1000,1000,87228428,1581,1581,1578,1578
53061267,1000,1000,1000,1000,87328388,1582,1582,1579,1578
53063766,1000,1000,1000,1000,87428348,1583,1582,1578,1578
53066265,1000,1000,1000,1000,87528308,1583,1582,1578,1578
53068764,1000,1000,1000,1000,87628268,1582,1582,1579,1578
53071263,1000,1000,1000,1000,87728228,1582,1582,1578,1579
53073762,1000,1000,1000,1000,87828188,1581,1581,1579,1579
53076261,1000,1000,1000,1000,87928981,1581,1580,1579,1580
53078760,1000,1000,1000,1000,88028941,1580,1580,1580,1580
53081259,1000,1000,1000,1000,88128901,1580,1580,1581,1581
53083758,1000,1000,1000,1000,88228861,1579,1580,1581,1580
53086257,1000,1000,1000,1000,88328821,1580,1580,1582,1581
53088756,1000,1000,1000,1000,88428781,1580,1581,1582,1582
53091255,1000,1000,1000,1000,88528741,1580,1580,1581,1581
53093754,1000,1000,1000,1000,88628701,1580,1580,1581,1581
53096253,1000,1000,1000,1000,88728661,1580,1580,1581,1581
53098752,1000,1000,1000,1000,88828621,1581,1580,1581,1581
53101251,1000,1000,1000,1000,88928581,1580,1580,1580,1581
53103750,1000,1000,1000,1000,89028541,1581,1581,1586,1575
53106249,1000,1000,1000,1000,89128501,1580,1580,1586,1572
53108748,1000,1000,1000,1000,89228461,1579,1579,1580,1574
53111247,1000,1000,1000,1000,89328421,1576,1575,1572,1574
53113746,1000,1000,1000,1000,89428381,1573,1573,1567,1574
53116245,1000,1000,1000,1000,89528341,1570,1570,1564,1572
53118744,1000,1000,1000,1000,89628301,1569,1569,1565,1570
53121243,1000,1000,1000,1000,89728261,1567,1568,1566,1568
53123742,1000,1000,1000,1000,89828221,1566,1567,1567,1566
53126241,1000,1000,1000,1000,89928181,1565,1565,1567,1565
53128740,1000,1000,1000,1000,90028974,1564,1564,1566,1563
53131239,1000,1000,1000,1000,90128934,1565,1565,1567,1565
53133738,1000,1000,1000,1000,90228894,1565,1564,1566,1565
53136237,1000,1000,1000,1000,90328854,1564,1563,1565,1565
53138736,1000,1000,1000,1000,90428814,1562,1563,1564,1564
53141235,1000,1000,1000,1000,90528774,1562,1562,1563,1563
53143734,1000,1000,1000,1000,90628734,1561,1561,1561,1561
53146233,1000,1000,1000,1000,90728694,1561,1561,1561,1561
53148732,1000,1000,1000,1000,90828654,1561,1561,1561,1561
53151231,1000,1000,1000,1000,90928614,1560,1560,1560,1559
53153730,1000,1000,1000,1000,91028574,1559,1559,1560,1559
53156229,1000,1000,1000,1000,91128534,1559,1558,1558,1558
53158728,1000,1000,1000,1000,91228494,1558,1558,1558,1557
53161227,1000,1000,1000,1000,91328454,1558,1558,1558,1557
53163726,1000,1000,1000,1000,91428414,1558,1558,1558,1557
53166225,1000,1000,1000,1000,91528374,1558,1558,1558,1557
53168724,1000,1000,1000,1000,91628334,1558,1558,1559,1557
53171223,1000,1000,1000,1000,91728294,1558,1558,1560,1557
53173722,1000,1000,1000,1000,91828254,1559,1559,1560,1558
53176221,1000,1000,1000,1000,91928214,1559,1559,1558,1561
53178720,1000,1000,1000,1000,92028174,1560,1560,1557,1563
53181219,1000,1000,1000,1000,92128967,1561,1560,1557,1564
53183718,1000,1000,1000,1000,92228927,1561,1561,1559,1563
53186217,1000,1000,1000,1000,92328887,1562,1562,1560,1563
53188716,1000,1000,1000,1000,92428847,1561,1561,1561,1561
53191215,1000,1000,1000,1000,92528807,1560,1561,1562,1558
53193714,1000,1000,1000,1000,92628767,1559,1559,1560,1556
53196213,1000,1000,1000,1000,92728727,1558,1558,1556,1560
53198712,1000,1000,1000,1000,92828687,1556,1556,1553,1558
53201211,1000,1000,1000,1000,92928647,1551,1551,1548,1552
53203710,1000,1000,1000,1000,93028607,1547,1547,1545,1546
53206209,1000,1000,1000,1000,93128567,1540,1540,1539,1539
53208708,1000,1000,1000,1000,93228527,1533,1533,1532,1531
53211207,1000,1000,1000,1000,93328487,1525,1525,1524,1523
53213706,1000,1000,1000,1000,93428447,1521,1521,1520,1519
53216205,1000,1000,1000,1000,93528407,1519,1518,1518,1518
53218704,1000,1000,1000,1000,93628367,1519,1518,1519,1520
53221203,1000,1000,1000,1000,93728327,1520,1520,1521,1522
53223702,1000,1000,1000,1000,93828287,1523,1523,1525,1526
53226201,1000,1000,1000,1000,93928247,1527,1528,1530,1531
53228700,1000,1000,1000,1000,94028207,1532,1532,1535,1535
53231199,1000,1000,1000,1000,94128167,1537,1536,1540,1539
53233698,1000,1000,1000,1000,94228960,1539,1539,1541,1541
53236197,1000,1000,1000,1000,94328920,1542,1541,1543,1543
53238696,1000,1000,1000,1000,94428880,1544,1543,1544,1544
53241195,1000,1000,1000,1000,94528840,1546,1545,1545,1545
53243694,1000,1000,1000,1000,94628800,1547,1546,1545,1546
53246193,1000,1000,1000,1000,94728760,1547,1548,1546,1546
53248692,1000,1000,1000,1000,94828720,1547,1548,1546,1546
53251191,1000,1000,1000,1000,94928680,1548,1548,1546,1546
53253690,1000,1000,1000,1000,95028640,1547,1547,1545,1545
53256189,1000,1000,1000,1000,95128600,1547,1546,1545,1545
53258688,1000,1000,1000,1000,95228560,1546,1546,1545,1545
53261187,1000,1000,1000,1000,95328520,1546,1546,1545,1545
53263686,1000,1000,1000,1000,95428480,1544,1545,1545,1544
53266185,1000,1000,1000,1000,95528440,1545,1545,1545,1545
53268684,1000,1000,1000,1000,95628400,1545,1545,1545,1545
53271183,1000,1000,1000,1000,95728360,1545,1544,1545,1545
53273682,1000,1000,1000,1000,95828320,1544,1544,1545,1545
53276181,1000,1000,1000,1000,95928280,1544,1544,1545,1545
53278680,1000,1000,1000,1000,96028240,1544,1544,1544,1544
53281179,1000,1000,1000,1000,96128200,1544,1543,1544,1544
53283678,1000,1000,1000,1000,96228160,1544,1544,1544,1544
53286177,1000,1000,1000,1000,96328953,1544,1544,1544,1544
53288676,1000,1000,1000,1000,96428913,1544,1544,1544,1544
53291175,1000,1000,1000,1000,96528873,1544,1544,1544,1544
53293674,1000,1000,1000,1000,96628833,1544,1543,1544,1543
53296173,1000,1000,1000,1000,96728793,1543,1543,1543,1543
53298672,1000,1000,1000,1000,96828753,1544,1544,1544,1544
53301171,1000,1000,1000,1000,96928713,1543,1543,1543,1543
53303670,1000,1000,1000,1000,97028673,1544,1544,1544,1543
53306169,1000,1000,1000,1000,97128633,1544,1544,1544,1545
53308668,1000,1000,1000,1000,97228593,1544,1545,1544,1545
53311167,1000,1000,1000,1000,97328553,1545,1545,1545,1545
53313666,1000,1000,1000,1000,97428513,1545,1544,1544,1544
53316165,1000,1000,1000,1000,97528473,1545,1545,1545,1545
53318664,1000,1000,1000,1000,97628433,1545,1545,1545,1545
53321163,1000,1000,1000,1000,97728393,1545,1544,1544,1545
53323662,1000,1000,1000,1000,97828353,1544,1544,1545,1544
53326161,1000,1000,1000,1000,97928313,1545,1545,1545,1545
53328660,1000,1000,1000,1000,98028273,1545,1545,1545,1545
53331159,1000,1000,1000,1000,98128233,1544,1544,1544,1544
53333658,1000,1000,1000,1000,98228193,1545,1545,1545,1545
53336157,1000,1000,1000,1000,98328986,1544,1544,1544,1544
53338656,1000,1000,1000,1000,98428946,1544,1544,1544,1544
53341155,1000,1000,1000,1000,98528906,1544,1544,1544,1544
53343654,1000,1000,1000,1000,98628866,1544,1544,1544,1544
53346153,1000,1000,1000,1000,98728826,1544,1544,1544,1544
53348652,1000,1000,1000,1000,98828786,1544,1544,1544,1544
53351151,1000,1000,1000,1000,98928746,1544,1544,1543,1544
53353650,1000,1000,1000,1000,99028706,1544,1544,1544,1544
53356149,1000,1000,1000,1000,99128666,1544,1544,1544,1544
53358648,1000,1000,1000,1000,99228626,1544,1544,1544,1544
53361147,1000,1000,1000,1000,99328586,1544,1544,1544,1544
53363646,1000,1000,1000,1000,99428546,1544,1544,1544,1544
53366145,1000,1000,1000,1000,99528506,1544,1544,1544,1544
53368644,1000,1000,1000,1000,99628466,1543,1544,1544,1544
53371143,1000,1000,1000,1000,99728426,1544,1544,1544,1544
53373642,1000,1000,1000,1000,99828386,1544,1544,1544,1544
53376141,1000,1000,1000,1000,99928346,1545,1544,1544,1545
53378640,1000,1000,1000,1000,100028306,1544,1544,1544,1544
53381139,1000,1000,1000,1000,100128266,1545,1544,1544,1545
53383638,1000,1000,1000,1000,100228226,1544,1544,1545,1544
53386137,1000,1000,1000,1000,100328186,1545,1545,1545,1545
53388636,1000,1000,1000,1000,100428979,1544,1544,1544,1544
53391135,1000,1000,1000,1000,100528939,1544,1544,1544,1544
53393634,1000,1000,1000,1000,100628899,1544,1544,1544,1544
53396133,1000,1000,1000,1000,100728859,1545,1544,1544,1545
53398632,1000,1000,1000,1000,100828819,1544,1545,1545,1544
53401131,1000,1000,1000,1000,100928779,1544,1545,1545,1545
53403630,1000,1000,1000,1000,101028739,1544,1545,1544,1545
53406129,1000,1000,1000,1000,101128699,1545,1544,1544,1545
53408628,1000,1000,1000,1000,101228659,1545,1544,1545,1544
53411127,1000,1000,1000,1000,101328619,1545,1544,1544,1545
53413626,1000,1000,1000,1000,101428579,1545,1545,1545,1545
53416125,1000,1000,1000,1000,101528539,1544,1544,1544,1544
53418624,1000,1000,1000,1000,101628499,1544,1544,1544,1544
53421123,1000,1000,1000,1000,101728459,1544,1544,1544,1544
53423622,1000,1000,1000,1000,101828419,1544,1544,1544,1544
53426121,1000,1000,1000,1000,101928379,1545,1545,1545,1545
53428620,1000,1000,1000,1000,102028339,1544,1544,1544,1544
53431119,1000,1000,1000,1000,102128299,1544,1544,1544,1545
53433618,1000,1000,1000,1000,102228259,1544,1545,1544,1544
53436117,1000,1000,1000,1000,102328219,1544,1544,1544,1544
53438616,1000,1000,1000,1000,102428179,1544,1544,1544,1544
53441115,1000,1000,1000,1000,102528972,1544,1544,1544,1543
53443614,1000,1000,1000,1000,102628932,1544,1544,1544,1543
53446113,1000,1000,1000,1000,102728892,1543,1543,1543,1543
53448612,1000,1000,1000,1000,102828852,1543,1543,1543,1543
53451111,1000,1000,1000,1000,102928812,1543,1543,1543,1543
53453610,1000,1000,1000,1000,103028772,1543,1544,1544,1544
53456109,1000,1000,1000,1000,103128732,1498,1498,1493,1492
53458608,1000,1000,1000,1000,103228692,1345,1344,1314,1312
53461107,1000,1000,1000,1000,103328652,1281,1279,1233,1231
53463606,1000,1000,1000,1000,103428612,1261,1260,1208,1205
53466105,1000,1000,1000,1000,103528572,1240,1239,1180,1177
53468604,1000,1000,1000,1000,103628532,1218,1218,1154,1150
53471103,1000,1000,1000,1000,103728492,1209,1209,1153,1150
53473602,1000,1000,1000,1000,103828452,1208,1209,1154,1150
53476101,1000,1000,1000,1000,103928412,1211,1203,1150,1158
53478600,1000,1000,1000,1000,104028372,1210,1192,1150,1173
53481099,1000,1000,1000,1000,104128332,1210,1199,1150,1163
53483598,1000,1000,1000,1000,104228292,1210,1201,1150,1160
53486097,1000,1000,1000,1000,104328252,1210,1201,1150,1160
53488596,1000,1000,1000,1000,104428212,1210,1201,1150,1161
53491095,1000,1000,1000,1000,104528172,1210,1200,1150,1162
53493594,1000,1000,1000,1000,104628965,1210,1200,1150,1162
53496093,1000,1000,1000,1000,104728925,1202,1210,1160,1150
53498592,1000,1000,1000,1000,104828885,1210,1209,1150,1151
53501091,1000,1000,1000,1000,104928845,1210,1208,1150,1152
53503590,1000,1000,1000,1000,105028805,1210,1208,1150,1152
53506089,1000,1000,1000,1000,105128765,1210,1207,1150,1152
53508588,1000,1000,1000,1000,105228725,1054,1054,1146,1146
53511087,1000,1000,1000,1000,105328685,1000,1000,1000,1000
53513586,1000,1000,1000,1000,105428645,1000,1000,1000,1000
53516085,1000,1000,1000,1000,105528605,1000,1000,1000,1000
53518584,1000,1000,1000,1000,105628565,1000,1000,1000,1000
53521083,1000,1000,1000,1000,105728525,1000,1000,1000,1000
53523582,1000,1000,1000,1000,105828485,1000,1000,1000,1000
53526081,1000,1000,1000,1000,105928445,1000,1000,1000,1000
53528580,1000,1000,1000,1000,106028405,1000,1000,1000,1000
53531079,1000,1000,1000,1000,106128365,1000,1000,1000,1000
53533578,1000,1000,1000,1000,106228325,1000,1000,1000,1000
53536077,1000,1000,1000,1000,106328285,1000,1000,1000,1000
53538576,1000,1000,1000,1000,106428245,1000,1000,1000,1000
53541075,1000,1000,1000,1000,106528205,1000,1000,1000,1000
53543574,1000,1000,1000,1000,106628165,1000,1000,1000,1000
53546073,1000,1000,1000,1000,106728958,1000,1000,1000,1000
53548572,1000,1000,1000,1000,106828918,1000,1000,1000,1000
53551071,1000,1000,1000,1000,106928878,1000,1000,1000,1000
53553570,1000,1000,1000,1000,107028838,1000,1000,1000,1000
53556069,1000,1000,1000,1000,107128798,1000,1000,1000,1000
53558568,1000,1000,1000,1000,107228758,1000,1000,1000,1000
53561067,1000,1000,1000,1000,107328718,1000,1000,1000,1000
53563566,1000,1000,1000,1000,107428678,1000,1000,1000,1000
53566065,1000,1000,1000,1000,107528638,1000,1000,1000,1000
53568564,1000,1000,1000,1000,107628598,1000,1000,1000,1000
53571063,1000,1000,1000,1000,107728558,1000,1000,1000,1000
53573562,1000,1000,1000,1000,107828518,1000,1000,1000,1000
53576061,1000,1000,1000,1000,107928478,1000,1000,1000,1000
53578560,1000,1000,1000,1000,108028438,1000,1000,1000,1000
53581059,1000,1000,1000,1000,108128398,1000,1000,1000,1000
53583558,1000,1000,1000,1000,108228358,1000,1000,1000,1000
53586057,1000,1000,1000,1000,108328318,1000,1000,1000,1000
53588556,1000,1000,1000,1000,108428278,1000,1000,1000,1000
53591055,1000,1000,1000,1000,108528238,1000,1000,1000,1000
53593554,1000,1000,1000,1000,108628198,1000,1000,1000,1000
53596053,1000,1000,1000,1000,108728158,1000,1000,1000,1000
53598552,1000,1000,1000,1000,108828951,1000,1000,1000,1000
53601051,1000,1000,1000,1000,108928911,1000,1000,1000,1000
53603550,1000,1000,1000,1000,109028871,1000,1000,1000,1000
53606049,1000,1000,1000,1000,109128831,1000,1000,1000,1000
53608548,1000,1000,1000,1000,109228791,1000,1000,1000,1000
53611047,1000,1000,1000,1000,109328751,1000,1000,1000,1000
53613546,1000,1000,1000,1000,109428711,1000,1000,1000,1000
53616045,1000,1000,1000,1000,109528671,1000,1000,1000,1000
53618544,1000,1000,1000,1000,109628631,1000,1000,1000,1000
53621043,1000,1000,1000,1000,109728591,1000,1000,1000,1000
53623542,1000,1000,1000,1000,109828551,1000,1000,1000,1000
53626041,1000,1000,1000,1000,109928511,1000,1000,1000,1000
53628540,1000,1000,1000,1000,110028471,1000,1000,1000,1000
53631039,1000,1000,1000,1000,110128431,1000,1000,1000,1000
53633538,1000,1000,1000,1000,110228391,1000,1000,1000,1000
53636037,1000,1000,1000,1000,110328351,1000,1000,1000,1000
53638536,1000,1000,1000,1000,110428311,1000,1000,1000,1000
53641035,1000,1000,1000,1000,110528271,1000,1000,1000,1000
53643534,1000,1000,1000,1000,110628231,1000,1000,1000,1000
53646033,1000,1000,1000,1000,110728191,1000,1000,1000,1000
53648532,1000,1000,1000,1000,110828984,1000,1000,1000,1000
53651031,1000,1000,1000,1000,110928944,1000,1000,1000,1000
53653530,1000,1000,1000,1000,111028904,1000,1000,1000,1000
53656029,1000,1000,1000,1000,111128864,1000,1000,1000,1000
53658528,1000,1000,1000,1000,111228824,1000,1000,1000,1000
53661027,1000,1000,1000,1000,111328784,1000,1000,1000,1000
53663526,1000,1000,1000,1000,111428744,1000,1000,1000,1000
53666025,1000,1000,1000,1000,111528704,1000,1000,1000,1000
53668524,1000,1000,1000,1000,111628664,1000,1000,1000,1000
53671023,1000,1000,1000,1000,111728624,1000,1000,1000,1000
53673522,1000,1000,1000,1000,111828584,1000,1000,1000,1000
53676021,1000,1000,1000,1000,111928544,1000,1000,1000,1000
53678520,1000,1000,1000,1000,112028504,1000,1000,1000,1000
53681019,1000,1000,1000,1000,112128464,1000,1000,1000,1000
53683518,1000,1000,1000,1000,112228424,1000,1000,1000,1000
53686017,1000,1000,1000,1000,112328384,1000,1000,1000,1000
53688516,1000,1000,1000,1000,112428344,1000,1000,1000,1000
53691015,1000,1000,1000,1000,112528304,1000,1000,1000,1000
53693514,1000,1000,1000,1000,,,,,
53696013,1000,1000,1000,1000,,,,,
53698512,1000,1000,1000,1000,,,,,
53701011,1000,1000,1000,1000,,,,,
53703510,1000,1000,1000,1000,,,,,
53706009,1000,1000,1000,1000,,,,,
53708508,1000,1000,1000,1000,,,,,
53711007,1000,1000,1000,1000,,,,,
53713506,1000,1000,1000,1000,,,,,
53716005,1000,1000,1000,1000,,,,,
53718504,1000,1000,1000,1000,,,,,
53721003,1000,1000,1000,1000,,,,,
53723502,1000,1000,1000,1000,,,,,
53726001,1000,1000,1000,1000,,,,,
53728500,1000,1000,1000,1000,,,,,
53730999,1000,1000,1000,1000,,,,,
53733498,1000,1000,1000,1000,,,,,
53735997,1000,1000,1000,1000,,,,,
53738496,1000,1000,1000,1000,,,,,
53740995,1000,1000,1000,1000,,,,,
53743494,1000,1000,1000,1000,,,,,
53745993,1000,1000,1000,1000,,,,,
53748492,1000,1000,1000,1000,,,,,
53750991,1000,1000,1000,1000,,,,,
53753490,1000,1000,1000,1000,,,,,
53755989,1000,1000,1000,1000,,,,,
53758488,1000,1000,1000,1000,,,,,
53760987,1000,1000,1000,1000,,,,,
53763486,1000,1000,1000,1000,,,,,
53765985,1000,1000,1000,1000,,,,,
53768484,1000,1000,1000,1000,,,,,
53770983,1000,1000,1000,1000,,,,,
53773482,1000,1000,1000,1000,,,,,
53775981,1000,1000,1000,1000,,,,,
53778480,1000,1000,1000,1000,,,,,
53780979,1000,1000,1000,1000,,,,,
53783478,1000,1000,1000,1000,,,,,
53785977,1000,1000,1000,1000,,,,,
53788476,1000,1000,1000,1000,,,,,
53790975,1000,1000,1000,1000,,,,,
53793474,1000,1000,1000,1000,,,,,
53795973,1000,1000,1000,1000,,,,,
53798472,1000,1000,1000,1000,,,,,
53800971,1000,1000,1000,1000,,,,,
53803470,1000,1000,1000,1000,,,,,
53805969,1000,1000,1000,1000,,,,,
53808468,1000,1000,1000,1000,,,,,
53810967,1000,1000,1000,1000,,,,,
53813466,1000,1000,1000,1000,,,,,
53815965,1000,1000,1000,1000,,,,,
53818464,1000,1000,1000,1000,,,,,
53820963,1000,1000,1000,1000,,,,,
53823462,1000,1000,1000,1000,,,,,
53825961,1000,1000,1000,1000,,,,,
53828460,1000,1000,1000,1000,,,,,
53830959,1000,1000,1000,1000,,,,,
53833458,1000,1000,1000,1000,,,,,
53835957,1000,1000,1000,1000,,,,,
53838456,1000,1000,1000,1000,,,,,
53840955,1000,1000,1000,1000,,,,,
53843454,1000,1000,1000,1000,,,,,
53845953,1000,1000,1000,1000,,,,,
53848452,1000,1000,1000,1000,,,,,
53850951,1000,1000,1000,1000,,,,,
53853450,1000,1000,1000,1000,,,,,
53855949,1000,1000,1000,1000,,,,,
53858448,1000,1000,1000,1000,,,,,
53860947,1000,1000,1000,1000,,,,,
53863446,1000,1000,1000,1000,,,,,
53865945,1000,1000,1000,1000,,,,,
53868444,1000,1000,1000,1000,,,,,
53870943,1000,1000,1000,1000,,,,,
53873442,1000,1000,1000,1000,,,,,
53875941,1000,1000,1000,1000,,,,,
53878440,1000,1000,1000,1000,,,,,
53880939,1000,1000,1000,1000,,,,,
53883438,1000,1000,1000,1000,,,,,
53885937,1000,1000,1000,1000,,,,,
53888436,1000,1000,1000,1000,,,,,
53890935,1000,1000,1000,1000,,,,,
53893434,1000,1000,1000,1000,,,,,
53895933,1000,1000,1000,1000,,,,,
53898432,1000,1000,1000,1000,,,,,
53900931,1000,1000,1000,1000,,,,,
53903430,1000,1000,1000,1000,,,,,
53905929,1000,1000,1000,1000,,,,,
53908428,1000,1000,1000,1000,,,,,
53910927,1000,1000,1000,1000,,,,,
53913426,1000,1000,1000,1000,,,,,
53915925,1000,1000,1000,1000,,,,,
53918424,1000,1000,1000,1000,,,,,
53920923,1000,1000,1000,1000,,,,,
53923422,1000,1000,1000,1000,,,,,
53925921,1000,1000,1000,1000,,,,,
53928420,1000,1000,1000,1000,,,,,
53930919,1000,1000,1000,1000,,,,,
53933418,1000,1000,1000,1000,,,,,
53935917,1000,1000,1000,1000,,,,,
53938416,1000,1000,1000,1000,,,,,
53940915,1000,1000,1000,1000,,,,,
53943414,1000,1000,1000,1000,,,,,
53945913,1000,1000,1000,1000,,,,,
53948412,1000,1000,1000,1000,,,,,
53950911,1000,1000,1000,1000,,,,,
53953410,1000,1000,1000,1000,,,,,
53955909,1000,1000,1000,1000,,,,,
53958408,1000,1000,1000,1000,,,,,
53960907,1000,1000,1000,1000,,,,,
53963406,1000,1000,1000,1000,,,,,
53965905,1000,1000,1000,1000,,,,,
53968404,1000,1000,1000,1000,,,,,
53970903,1000,1000,1000,1000,,,,,
53973402,1000,1000,1000,1000,,,,,
53975901,1000,1000,1000,1000,,,,,
53978400,1000,1000,1000,1000,,,,,
53980899,1000,1000,1000,1000,,,,,
53983398,1000,1000,1000,1000,,,,,
53985897,1000,1000,1000,1000,,,,,
53988396,1000,1000,1000,1000,,,,,
53990895,1000,1000,1000,1000,,,,,
53993394,1000,1000,1000,1000,,,,,
53995893,1000,1000,1000,1000,,,,,
53998392,1000,1000,1000,1000,,,,,
54000891,1000,1000,1000,1000,,,,,
54003390,1000,1000,1000,1000,,,,,
54005889,1000,1000,1000,1000,,,,,
54008388,1000,1000,1000,1000,,,,,
54010887,1000,1000,1000,1000,,,,,
54013386,1000,1000,1000,1000,,,,,
54015885,1000,1000,1000,1000,,,,,
54018384,1000,1000,1000,1000,,,,,
54020883,1000,1000,1000,1000,,,,,
54023382,1000,1000,1000,1000,,,,,
54025881,1000,1000,1000,1000,,,,,
54028380,1000,1000,1000,1000,,,,,
54030879,1000,1000,1000,1000,,,,,
54033378,1000,1000,1000,1000,,,,,
54035877,1000,1000,1000,1000,,,,,
54038376,1000,1000,1000,1000,,,,,
54040875,1000,1000,1000,1000,,,,,
54043374,1000,1000,1000,1000,,,,,
54045873,1000,1000,1000,1000,,,,,
54048372,1000,1000,1000,1000,,,,,
54050871,1000,1000,1000,1000,,,,,
54053370,1000,1000,1000,1000,,,,,
54055869,1000,1000,1000,1000,,,,,
54058368,1000,1000,1000,1000,,,,,
54060867,1000,1000,1000,1000,,,,,
54063366,1000,1000,1000,1000,,,,,
54065865,1000,1000,1000,1000,,,,,
54068364,1000,1000,1000,1000,,,,,
54070863,1000,1000,1000,1000,,,,,
54073362,1000,1000,1000,1000,,,,,
54075861,1000,1000,1000,1000,,,,,
54078360,1000,1000,1000,1000,,,,,
54080859,1000,1000,1000,1000,,,,,
54083358,1000,1000,1000,1000,,,,,
54085857,1000,1000,1000,1000,,,,,
54088356,1000,1000,1000,1000,,,,,
54090855,1000,1000,1000,1000,,,,,
54093354,1000,1000,1000,1000,,,,,
54095853,1000,1000,1000,1000,,,,,
54098352,1000,1000,1000,1000,,,,,
54100851,1000,1000,1000,1000,,,,,
54103350,1000,1000,1000,1000,,,,,
54105849,1000,1000,1000,1000,,,,,
54108348,1000,1000,1000,1000,,,,,
54110847,1000,1000,1000,1000,,,,,
54113346,1000,1000,1000,1000,,,,,
54115845,1000,1000,1000,1000,,,,,
54118344,1000,1000,1000,1000,,,,,
54120843,1000,1000,1000,1000,,,,,
54123342,1000,1000,1000,1000,,,,,
54125841,1000,1000,1000,1000,,,,,
54128340,1000,1000,1000,1000,,,,,
54130839,1000,1000,1000,1000,,,,,
54133338,1000,1000,1000,1000,,,,,
54135837,1000,1000,1000,1000,,,,,
54138336,1000,1000,1000,1000,,,,,
54140835,1000,1000,1000,1000,,,,,
54143334,1000,1000,1000,1000,,,,,
54145833,1000,1000,1000,1000,,,,,
54148332,1000,1000,1000,1000,,,,,
54150831,1000,1000,1000,1000,,,,,
54153330,1000,1000,1000,1000,,,,,
54155829,1000,1000,1000,1000,,,,,
54158328,1000,1000,1000,1000,,,,,
54160827,1000,1000,1000,1000,,,,,
54163326,1000,1000,1000,1000,,,,,
54165825,1000,1000,1000,1000,,,,,
54168324,1000,1000,1000,1000,,,,,
54170823,1000,1000,1000,1000,,,,,
54173322,1000,1000,1000,1000,,,,,
54175821,1000,1000,1000,1000,,,,,
54178320,1000,1000,1000,1000,,,,,
54180819,1000,1000,1000,1000,,,,,
54183318,1000,1000,1000,1000,,,,,
54185817,1000,1000,1000,1000,,,,,
54188316,1000,1000,1000,1000,,,,,
54190815,1001,1001,1001,1001,,,,,
54193314,1002,1002,1002,1002,,,,,
54195813,1003,1003,1003,1003,,,,,
54198312,1003,1003,1003,1003,,,,,
54200811,1004,1004,1004,1004,,,,,
54203310,1005,1005,1005,1005,,,,,
54205809,1006,1006,1006,1006,,,,,
54208308,1006,1006,1006,1006,,,,,
54210807,1007,1007,1007,1007,,,,,
54213306,1008,1008,1008,1008,,,,,
54215805,1009,1009,1009,1009,,,,,
54218304,1009,1009,1009,1009,,,,,
54220803,1010,1010,1010,1010,,,,,
54223302,1011,1011,1011,1011,,,,,
54225801,1012,1012,1012,1012,,,,,
54228300,1012,1012,1012,1012,,,,,
54230799,1013,1013,1013,1013,,,,,
54233298,1014,1014,1014,1014,,,,,
54235797,1015,1015,1015,1015,,,,,
54238296,1015,1015,1015,1015,,,,,
54240795,1016,1016,1016,1016,,,,,
54243294,1017,1017,1017,1017,,,,,
54245793,1018,1018,1018,1018,,,,,
54248292,1018,1018,1018,1018,,,,,
54250791,1019,1019,1019,1019,,,,,
54253290,1020,1020,1020,1020,,,,,
54255789,1021,1021,1021,1021,,,,,
54258288,1021,1021,1021,1021,,,,,
54260787,1022,1022,1022,1022,,,,,
54263286,1023,1023,1023,1023,,,,,
54265785,1024,1024,1024,1024,,,,,
54268284,1024,1024,1024,1024,,,,,
54270783,1025,1025,1025,1025,,,,,
54273282,1026,1026,1026,1026,,,,,
54275781,1027,1027,1027,1027,,,,,
54278280,1027,1027,1027,1027,,,,,
54280779,1028,1028,1028,1028,,,,,
54283278,1029,1029,1029,1029,,,,,
54285777,1030,1030,1030,1030,,,,,
54288276,1030,1030,1030,1030,,,,,
54290775,1031,1031,1031,1031,,,,,
54293274,1032,1032,1032,1032,,,,,
54295773,1033,1033,1033,1033,,,,,
54298272,1033,1033,1033,1033,,,,,
54300771,1034,1034,1034,1034,,,,,
54303270,1035,1035,1035,1035,,,,,
54305769,1036,1036,1036,1036,,,,,
54308268,1036,1036,1036,1036,,,,,
54310767,1037,1037,1037,1037,,,,,
54313266,1038,1038,1038,1038,,,,,
54315765,1039,1039,1039,1039,,,,,
54318264,1039,1039,1039,1039,,,,,
54320763,1040,1040,1040,1040,,,,,
54323262,1041,1041,1041,1041,,,,,
54325761,1042,1042,1042,1042,,,,,
54328260,1042,1042,1042,1042,,,,,
54330759,1043,1043,1043,1043,,,,,
54333258,1044,1044,1044,1044,,,,,
54335757,1045,1045,1045,1045,,,,,
54338256,1045,1045,1045,1045,,,,,
54340755,1046,1046,1046,1046,,,,,
54343254,1047,1047,1047,1047,,,,,
54345753,1048,1048,1048,1048,,,,,
54348252,1048,1048,1048,1048,,,,,
54350751,1049,1049,1049,1049,,,,,
54353250,1050,1050,1050,1050,,,,,
54355749,1051,1051,1051,1051,,,,,
54358248,1051,1051,1051,1051,,,,,
54360747,1052,1052,1052,1052,,,,,
54363246,1053,1053,1053,1053,,,,,
54365745,1054,1054,1054,1054,,,,,
54368244,1054,1054,1054,1054,,,,,
54370743,1055,1055,1055,1055,,,,,
54373242,1056,1056,1056,1056,,,,,
54375741,1057,1057,1057,1057,,,,,
54378240,1057,1057,1057,1057,,,,,
54380739,1058,1058,1058,1058,,,,,
54383238,1059,1059,1059,1059,,,,,
54385737,1060,1060,1060,1060,,,,,
54388236,1060,1060,1060,1060,,,,,
54390735,1061,1061,1061,1061,,,,,
54393234,1062,1062,1062,1062,,,,,
54395733,1063,1063,1063,1063,,,,,
54398232,1063,1063,1063,1063,,,,,
54400731,1064,1064,1064,1064,,,,,
54403230,1065,1065,1065,1065,,,,,
54405729,1066,1066,1066,1066,,,,,
54408228,1066,1066,1066,1066,,,,,
54410727,1067,1067,1067,1067,,,,,
54413226,1068,1068,1068,1068,,,,,
54415725,1069,1069,1069,1069,,,,,
54418224,1069,1069,1069,1069,,,,,
54420723,1070,1070,1070,1070,,,,,
54423222,1071,1071,1071,1071,,,,,
54425721,1072,1072,1072,1072,,,,,
54428220,1072,1072,1072,1072,,,,,
54430719,1073,1073,1073,1073,,,,,
54433218,1074,1074,1074,1074,,,,,
54435717,1075,1075,1075,1075,,,,,
54438216,1075,1075,1075,1075,,,,,
54440715,1076,1076,1076,1076,,,,,
54443214,1077,1077,1077,1077,,,,,
54445713,1078,1078,1078,1078,,,,,
54448212,1078,1078,1078,1078,,,,,
54450711,1079,1079,1079,1079,,,,,
54453210,1080,1080,1080,1080,,,,,
54455709,1081,1081,1081,1081,,,,,
54458208,1081,1081,1081,1081,,,,,
54460707,1082,1082,1082,1082,,,,,
54463206,1083,1083,1083,1083,,,,,
54465705,1084,1084,1084,1084,,,,,
54468204,1084,1084,1084,1084,,,,,
54470703,1085,1085,1085,1085,,,,,
54473202,1086,1086,1086,1086,,,,,
54475701,1087,1087,1087,1087,,,,,
54478200,1087,1087,1087,1087,,,,,
54480699,1088,1088,1088,1088,,,,,
54483198,1089,1089,1089,1089,,,,,
54485697,1090,1090,1090,1090,,,,,
54488196,1090,1090,1090,1090,,,,,
54490695,1091,1091,1091,1091,,,,,
54493194,1092,1092,1092,1092,,,,,
54495693,1093,1093,1093,1093,,,,,
54498192,1093,1093,1093,1093,,,,,
54500691,1094,1094,1094,1094,,,,,
54503190,1095,1095,1095,1095,,,,,
54505689,1096,1096,1096,1096,,,,,
54508188,1096,1096,1096,1096,,,,,
54510687,1097,1097,1097,1097,,,,,
54513186,1098,1098,1098,1098,,,,,
54515685,1099,1099,1099,1099,,,,,
54518184,1099,1099,1099,1099,,,,,
54520683,1100,1100,1100,1100,,,,,
54523182,1101,1101,1101,1101,,,,,
54525681,1101,1101,1101,1101,,,,,
54528180,1102,1102,1102,1102,,,,,
54530679,1103,1103,1103,1103,,,,,
54533178,1104,1104,1104,1104,,,,,
54535677,1104,1104,1104,1104,,,,,
54538176,1105,1105,1105,1105,,,,,
54540675,1106,1106,1106,1106,,,,,
54543174,1107,1107,1107,1107,,,,,
54545673,1107,1107,1107,1107,,,,,
54548172,1108,1108,1108,1108,,,,,
54550671,1109,1109,1109,1109,,,,,
54553170,1110,1110,1110,1110,,,,,
54555669,1110,1110,1110,1110,,,,,
54558168,1111,1111,1111,1111,,,,,
54560667,1112,1112,1112,1112,,,,,
54563166,1113,1113,1113,1113,,,,,
54565665,1113,1113,1113,1113,,,,,
54568164,1114,1114,1114,1114,,,,,
54570663,1115,1115,1115,1115,,,,,
54573162,1116,1116,1116,1116,,,,,
54575661,1116,1116,1116,1116,,,,,
54578160,1117,1117,1117,1117,,,,,
54580659,1118,1118,1118,1118,,,,,
54583158,1119,1119,1119,1119,,,,,
54585657,1119,1119,1119,1119,,,,,
54588156,1120,1120,1120,1120,,,,,
54590655,1121,1121,1121,1121,,,,,
54593154,1122,1122,1122,1122,,,,,
54596486,1122,1122,1122,1122,,,,,
54598985,1123,1123,1123,1123,,,,,
54601484,1124,1124,1124,1124,,,,,
54603983,1125,1125,1125,1125,,,,,
54606482,1125,1125,1125,1125,,,,,
54608981,1126,1126,1126,1126,,,,,
54611480,1127,1127,1127,1127,,,,,
54613979,1128,1128,1128,1128,,,,,
54616478,1128,1128,1128,1128,,,,,
54618977,1129,1129,1129,1129,,,,,
54621476,1130,1130,1130,1130,,,,,
54623975,1131,1131,1131,1131,,,,,
54626474,1131,1131,1131,1131,,,,,
54628973,1132,1132,1132,1132,,,,,
54631472,1133,1133,1133,1133,,,,,
54633971,1134,1134,1134,1134,,,,,
54636470,1134,1134,1134,1134,,,,,
54638969,1135,1135,1135,1135,,,,,
54641468,1136,1136,1136,1136,,,,,
54643967,1137,1137,1137,1137,,,,,
54646466,1137,1137,1137,1137,,,,,
54648965,1138,1138,1138,1138,,,,,
54651464,1139,1139,1139,1139,,,,,
54653963,1140,1140,1140,1140,,,,,
54656462,1140,1140,1140,1140,,,,,
54658961,1141,1141,1141,1141,,,,,
54661460,1142,1142,1142,1142,,,,,
54663959,1143,1143,1143,1143,,,,,
54666458,1143,1143,1143,1143,,,,,
54668957,1144,1144,1144,1144,,,,,
54671456,1145,1145,1145,1145,,,,,
54673955,1146,1146,1146,1146,,,,,
54676454,1146,1146,1146,1146,,,,,
54678953,1147,1147,1147,1147,,,,,
54681452,1148,1148,1148,1148,,,,,
54683951,1149,1149,1149,1149,,,,,
54686450,1149,1149,1149,1149,,,,,
54688949,1150,1150,1150,1150,,,,,
54691448,1161,1153,1154,1162,,,,,
54693947,1170,1162,1162,1170,,,,,
54696446,1177,1170,1170,1178,,,,,
54698945,1185,1177,1178,1186,,,,,
54701444,1193,1185,1185,1193,,,,,
54703943,1200,1193,1193,1201,,,,,
54706442,1207,1200,1200,1208,,,,,
54708941,1215,1207,1208,1215,,,,,
54711440,1222,1214,1215,1222,,,,,
54713939,1229,1221,1222,1229,,,,,
54716438,1236,1228,1229,1236,,,,,
54718937,1242,1235,1236,1243,,,,,
54721436,1249,1242,1242,1249,,,,,
54723935,1256,1249,1249,1256,,,,,
54726434,1262,1255,1256,1263,,,,,
54728933,1269,1262,1262,1269,,,,,
54731432,1275,1268,1269,1275,,,,,
54733931,1281,1275,1275,1282,,,,,
54736430,1288,1281,1281,1288,,,,,
54738929,1294,1287,1287,1294,,,,,
54741428,1300,1293,1294,1300,,,,,
54743927,1306,1299,1300,1306,,,,,
54746426,1312,1305,1306,1312,,,,,
54748925,1318,1311,1312,1318,,,,,
54751424,1323,1317,1317,1324,,,,,
54753923,1329,1323,1323,1330,,,,,
54756422,1335,1329,1329,1335,,,,,
54758921,1340,1334,1335,1341,,,,,
54761420,1346,1340,1340,1346,,,,,
54763919,1352,1346,1346,1352,,,,,
54766418,1357,1351,1351,1357,,,,,
54768917,1363,1357,1357,1363,,,,,
54771416,1368,1362,1362,1368,,,,,
54773915,1373,1368,1368,1374,,,,,
54776414,1379,1373,1373,1379,,,,,
54778913,1384,1378,1378,1384,,,,,
54781412,1389,1383,1384,1389,,,,,
54783911,1394,1389,1389,1395,,,,,
54786410,1399,1394,1394,1400,,,,,
54788909,1404,1399,1399,1405,,,,,
54791408,1410,1404,1404,1410,,,,,
54793907,1415,1409,1409,1415,,,,,
54796406,1420,1414,1414,1420,,,,,
54798905,1424,1419,1419,1425,,,,,
54801404,1429,1424,1424,1430,,,,,
54803903,1434,1429,1429,1435,,,,,
54806402,1439,1434,1434,1439,,,,,
54808901,1444,1439,1439,1444,,,,,
54811400,1449,1443,1444,1449,,,,,
54813899,1453,1448,1448,1454,,,,,
54816398,1458,1453,1453,1458,,,,,
54818897,1463,1458,1458,1463,,,,,
54821396,1467,1462,1462,1468,,,,,
54823895,1472,1467,1467,1472,,,,,
54826394,1477,1471,1472,1477,,,,,
54828893,1481,1476,1476,1481,,,,,
54831392,1486,1481,1481,1486,,,,,
54833891,1490,1485,1485,1490,,,,,
54836390,1495,1490,1490,1495,,,,,
54838889,1499,1494,1494,1499,,,,,
54841388,1503,1499,1499,1504,,,,,
54843887,1508,1503,1503,1508,,,,,
54846386,1512,1507,1508,1513,,,,,
54848885,1517,1512,1512,1517,,,,,
54851384,1521,1516,1516,1521,,,,,
54853883,1525,1520,1521,1526,,,,,
54856382,1529,1525,1525,1530,,,,,
54858881,1534,1529,1529,1534,,,,,
54861380,1538,1533,1533,1538,,,,,
54863879,1542,1537,1538,1543,,,,,
54866378,1546,1542,1542,1547,,,,,
54868877,1550,1546,1546,1551,,,,,
54871376,1555,1550,1550,1555,,,,,
54873875,1559,1554,1554,1559,,,,,
54876374,1563,1558,1558,1563,,,,,
54878873,1567,1562,1562,1567,,,,,
54881372,1571,1566,1566,1571,,,,,
54883871,1575,1570,1570,1575,,,,,
54886370,1579,1574,1575,1579,,,,,
54888869,1583,1578,1579,1583,,,,,
54891368,1587,1582,1582,1587,,,,,
54893867,1591,1586,1586,1591,,,,,
54896366,1595,1590,1590,1595,,,,,
54898865,1599,1594,1594,1599,,,,,
54901364,1603,1598,1598,1603,,,,,
54903863,1607,1602,1602,1607,,,,,
54906362,1610,1606,1606,1611,,,,,
54908861,1614,1610,1610,1615,,,,,
54911360,1618,1614,1614,1619,,,,,
54913859,1622,1618,1618,1622,,,,,
54916358,1626,1621,1621,1626,,,,,
54918857,1629,1625,1625,1630,,,,,
54921356,1633,1629,1629,1634,,,,,
54923855,1637,1633,1633,1638,,,,,
54926354,1641,1636,1636,1641,,,,,
54928853,1644,1640,1640,1645,,,,,
54931352,1648,1644,1644,1649,,,,,
54933851,1652,1648,1648,1652,,,,,
54936350,1656,1651,1651,1656,,,,,
54938849,1659,1655,1655,1660,,,,,
54941348,1663,1659,1659,1663,,,,,
54943847,1666,1662,1662,1667,,,,,
54946346,1670,1666,1666,1671,,,,,
54948845,1674,1669,1669,1674,,,,,
54951344,1677,1673,1673,1678,,,,,
54953843,1681,1677,1677,1681,,,,,
54956342,1684,1680,1680,1685,,,,,
54958841,1688,1684,1684,1688,,,,,
54961340,1692,1687,1687,1692,,,,,
54963839,1695,1691,1691,1696,,,,,
54966338,1699,1694,1694,1699,,,,,
54968837,1702,1698,1698,1703,,,,,
54971336,1706,1701,1701,1706,,,,,
54973835,1709,1705,1705,1709,,,,,
54976334,1712,1708,1708,1713,,,,,
54978833,1716,1712,1712,1716,,,,,
54981332,1719,1715,1715,1720,,,,,
54983831,1723,1719,1719,1723,,,,,
54986330,1726,1722,1722,1727,,,,,
54988829,1730,1725,1725,1730,,,,,
54991328,1733,1729,1729,1733,,,,,
54993827,1736,1732,1732,1737,,,,,
54996326,1740,1736,1735,1740,,,,,
54998825,1743,1739,1739,1744,,,,,
55001324,1746,1742,1742,1747,,,,,
55003823,1750,1746,1745,1750,,,,,
55006322,1753,1749,1749,1754,,,,,
55008821,1756,1752,1752,1757,,,,,
55011320,1760,1755,1755,1760,,,,,
55013819,1763,1759,1759,1764,,,,,
55016318,1766,1762,1762,1767,,,,,
55018817,1769,1765,1765,1770,,,,,
55021316,1773,1769,1768,1773,,,,,
55023815,1776,1772,1772,1777,,,,,
55026314,1779,1775,1775,1780,,,,,
55028813,1782,1778,1778,1783,,,,,
55031312,1786,1781,1781,1786,,,,,
55033811,1789,1785,1784,1790,,,,,
55036310,1792,1788,1788,1793,,,,,
55038809,1795,1791,1791,1796,,,,,
55041308,1798,1794,1794,1799,,,,,
55043807,1802,1797,1797,1802,,,,,
55046306,1805,1801,1800,1806,,,,,
55048805,1808,1804,1803,1809,,,,,
55051304,1811,1807,1806,1812,,,,,
55053803,1814,1810,1810,1815,,,,,
55056302,1817,1813,1813,1818,,,,,
55058801,1820,1816,1816,1821,,,,,
55061300,1824,1819,1819,1824,,,,,
55063799,1827,1822,1822,1827,,,,,
55066298,1830,1825,1825,1830,,,,,
55068797,1833,1828,1828,1833,,,,,
55071296,1836,1831,1831,1837,,,,,
55073795,1839,1834,1834,1840,,,,,
55076294,1842,1838,1837,1843,,,,,
55078793,1845,1841,1840,1846,,,,,
55081292,1848,1844,1844,1849,,,,,
55083791,1851,1847,1847,1852,,,,,
55086290,1852,1848,1848,1853,,,,,
55088789,1851,1846,1846,1851,,,,,
55091288,1850,1845,1845,1850,,,,,
55093787,1849,1844,1844,1849,,,,,
55096286,1847,1843,1843,1848,,,,,
55098785,1846,1841,1841,1846,,,,,
55101284,1845,1840,1840,1845,,,,,
55103783,1844,1839,1839,1844,,,,,
55106282,1843,1838,1838,1843,,,,,
55108781,1842,1837,1837,1842,,,,,
55111280,1841,1836,1836,1841,,,,,
55113779,1840,1835,1836,1841,,,,,
55116278,1840,1835,1835,1840,,,,,
55118777,1839,1834,1834,1839,,,,,
55121276,1838,1833,1834,1839,,,,,
55123775,1838,1833,1833,1838,,,,,
55126274,1837,1832,1833,1838,,,,,
55128773,1837,1832,1832,1837,,,,,
55131272,1837,1832,1832,1837,,,,,
55133771,1837,1832,1832,1837,,,,,
55136270,1837,1832,1832,1837,,,,,
55138769,1837,1832,1832,1837,,,,,
55141268,1837,1832,1832,1837,,,,,
55143767,1837,1832,1832,1837,,,,,
55146266,1837,1832,1832,1837,,,,,
55148765,1837,1832,1832,1838,,,,,
55151264,1838,1833,1833,1838,,,,,
55153763,1838,1833,1833,1838,,,,,
55156262,1838,1833,1834,1839,,,,,
55158761,1839,1834,1834,1839,,,,,
55161260,1840,1835,1835,1840,,,,,
55163759,1840,1835,1835,1840,,,,,
55166258,1841,1836,1836,1841,,,,,
55168757,1841,1836,1837,1842,,,,,
55171256,1842,1837,1837,1842,,,,,
55173755,1843,1838,1838,1843,,,,,
55176254,1844,1839,1839,1844,,,,,
55178753,1844,1840,1840,1845,,,,,
55181252,1845,1840,1840,1846,,,,,
55183751,1846,1841,1841,1847,,,,,
55186250,1847,1842,1842,1848,,,,,
55188749,1848,1843,1843,1848,,,,,
55191248,1849,1844,1844,1849,,,,,
55193747,1850,1845,1845,1850,,,,,
55196246,1851,1846,1846,1851,,,,,
55198745,1852,1847,1847,1852,,,,,
55201244,1853,1849,1848,1853,,,,,
55203743,1854,1850,1849,1854,,,,,
55206242,1854,1851,1850,1855,,,,,
55208741,1855,1851,1851,1855,,,,,
55211240,1855,1852,1852,1856,,,,,
55213739,1856,1853,1852,1856,,,,,
55216238,1856,1853,1853,1857,,,,,
55218737,1856,1853,1853,1857,,,,,
55221236,1856,1853,1853,1856,,,,,
55223735,1856,1853,1853,1856,,,,,
55226234,1855,1852,1852,1856,,,,,
55228733,1854,1852,1852,1855,,,,,
55231232,1853,1851,1851,1854,,,,,
55233731,1852,1850,1850,1853,,,,,
55236230,1851,1849,1848,1852,,,,,
55238729,1850,1847,1847,1850,,,,,
55241228,1848,1846,1845,1849,,,,,
55243727,1846,1844,1844,1847,,,,,
55246226,1844,1842,1842,1845,,,,,
55248725,1842,1840,1840,1843,,,,,
55251224,1840,1838,1838,1841,,,,,
55253723,1838,1836,1836,1838,,,,,
55256222,1836,1833,1833,1836,,,,,
55258721,1833,1831,1831,1833,,,,,
55261220,1830,1828,1828,1831,,,,,
55263719,1828,1825,1826,1828,,,,,
55266218,1825,1823,1823,1825,,,,,
55268717,1822,1820,1820,1822,,,,,
55271216,1819,1817,1817,1820,,,,,
55273715,1816,1814,1814,1817,,,,,
55276214,1813,1811,1811,1813,,,,,
55278713,1810,1808,1808,1810,,,,,
55281212,1807,1805,1805,1807,,,,,
55283711,1803,1802,1802,1804,,,,,
55286210,1800,1798,1798,1801,,,,,
55288709,1797,1795,1795,1797,,,,,
55291208,1793,1792,1792,1794,,,,,
55293707,1790,1788,1788,1790,,,,,
55296206,1787,1785,1785,1787,,,,,
55298705,1783,1782,1782,1784,,,,,
55301204,1780,1778,1778,1780,,,,,
55303703,1776,1775,1775,1777,,,,,
55306202,1773,1771,1771,1773,,,,,
55308701,1769,1768,1768,1770,,,,,
55311200,1766,1764,1765,1766,,,,,
55313699,1762,1761,1761,1763,,,,,
55316198,1759,1758,1758,1759,,,,,
55318697,1755,1754,1754,1756,,,,,
55321196,1752,1751,1751,1752,,,,,
55323695,1749,1748,1748,1749,,,,,
55326194,1745,1744,1744,1746,,,,,
55328693,1742,1741,1741,1742,,,,,
55331192,1738,1738,1738,1739,,,,,
55333691,1735,1735,1734,1736,,,,,
55336190,1732,1731,1731,1732,,,,,
55338689,1728,1728,1728,1729,,,,,
55341188,1725,1725,1725,1726,,,,,
55343687,1722,1722,1722,1723,,,,,
55346186,1719,1719,1718,1719,,,,,
55348685,1716,1715,1715,1716,,,,,
55351184,1712,1712,1712,1713,,,,,
55353683,1709,1709,1709,1710,,,,,
55356182,1706,1706,1706,1707,,,,,
55358681,1703,1703,1703,1704,,,,,
55361180,1700,1700,1700,1701,,,,,
55363679,1697,1697,1697,1698,,,,,
55366178,1694,1694,1694,1695,,,,,
55368677,1691,1692,1692,1692,,,,,
55371176,1688,1689,1689,1689,,,,,
55373675,1686,1686,1686,1686,,,,,
55376174,1683,1683,1683,1683,,,,,
55378673,1680,1681,1681,1680,,,,,
55381172,1677,1678,1678,1678,,,,,
55383671,1675,1675,1675,1675,,,,,
55386170,1672,1673,1673,1673,,,,,
55388669,1670,1670,1670,1670,,,,,
55391168,1667,1668,1668,1668,,,,,
55393667,1665,1666,1666,1665,,,,,
55396166,1662,1663,1663,1663,,,,,
55398665,1660,1661,1661,1660,,,,,
55401164,1658,1659,1659,1658,,,,,
55403663,1656,1657,1657,1656,,,,,
55406162,1653,1654,1655,1654,,,,,
55408661,1651,1652,1652,1652,,,,,
55411160,1649,1650,1650,1650,,,,,
55413659,1647,1648,1648,1648,,,,,
55416158,1645,1646,1647,1646,,,,,
55418657,1643,1645,1645,1644,,,,,
55421156,1642,1643,1643,1642,,,,,
55423655,1640,1641,1641,1640,,,,,
55426154,1638,1639,1639,1638,,,,,
55428653,1636,1638,1638,1637,,,,,
55431152,1635,1636,1636,1635,,,,,
55433651,1633,1634,1634,1633,,,,,
55436150,1631,1633,1633,1632,,,,,
55438649,1630,1631,1631,1630,,,,,
55441148,1628,1630,1630,1629,,,,,
55443647,1627,1628,1628,1627,,,,,
55446146,1625,1627,1627,1626,,,,,
55448645,1624,1626,1626,1624,,,,,
55451144,1623,1624,1625,1623,,,,,
55453643,1622,1623,1623,1622,,,,,
55456142,1620,1622,1622,1621,,,,,
55458641,1619,1621,1621,1620,,,,,
55461140,1618,1620,1620,1618,,,,,
55463639,1617,1619,1619,1617,,,,,
55466138,1616,1618,1618,1616,,,,,
55468637,1615,1617,1617,1615,,,,,
55471136,1614,1616,1616,1615,,,,,
55473635,1614,1615,1615,1614,,,,,
55476134,1613,1614,1615,1613,,,,,
55478633,1612,1613,1614,1612,,,,,
55481132,1611,1613,1613,1611,,,,,
55483631,1611,1612,1612,1611,,,,,
55486130,1610,1611,1612,1610,,,,,
55488629,1609,1611,1611,1609,,,,,
55491128,1609,1610,1611,1609,,,,,
55493627,1608,1610,1610,1608,,,,,
55496126,1608,1609,1609,1608,,,,,
55498625,1607,1609,1609,1607,,,,,
55501124,1607,1608,1608,1607,,,,,
55503623,1606,1608,1608,1606,,,,,
55506122,1606,1607,1608,1606,,,,,
55508621,1606,1607,1607,1605,,,,,
55511120,1605,1607,1607,1605,,,,,
55513619,1605,1606,1607,1605,,,,,
