TimeUS,M1,M2,M3,M4,TimeUS,C1,C2,C3,C4
69008219,1000,1000,1000,1000,69028211,1000,1000,1000,1000
69010718,1000,1000,1000,1000,69128171,1000,1000,1000,1000
69013217,1000,1000,1000,1000,69228964,1000,1000,1000,1000
69015716,1000,1000,1000,1000,69328924,1000,1000,1000,1000
69018215,1000,1000,1000,1000,69428884,1000,1000,1000,1000
69020714,1000,1000,1000,1000,69528844,1000,1000,1000,1000
69023213,1000,1000,1000,1000,69628804,1000,1000,1000,1000
69025712,1000,1000,1000,1000,69728764,1000,1000,1000,1000
69028211,1000,1000,1000,1000,69828724,1000,1000,1000,1000
69030710,1000,1000,1000,1000,69928684,1000,1000,1000,1000
69033209,1000,1000,1000,1000,70028644,1000,1000,1000,1000
69035708,1000,1000,1000,1000,70128604,1000,1000,1000,1000
69038207,1000,1000,1000,1000,70228564,1000,1000,1000,1000
69040706,1000,1000,1000,1000,70328524,1000,1000,1000,1000
69043205,1000,1000,1000,1000,70428484,1000,1000,1000,1000
69045704,1000,1000,1000,1000,70528444,1000,1000,1000,1000
69048203,1000,1000,1000,1000,70628404,1000,1000,1000,1000
69050702,1000,1000,1000,1000,70728364,1000,1000,1000,1000
69053201,1000,1000,1000,1000,70828324,1000,1000,1000,1000
69055700,1000,1000,1000,1000,70928284,1000,1000,1000,1000
69058199,1000,1000,1000,1000,71028244,1006,1006,1006,1006
69060698,1000,1000,1000,1000,71128204,1036,1036,1036,1036
69063197,1000,1000,1000,1000,71228164,1066,1066,1066,1066
69065696,1000,1000,1000,1000,71328957,1096,1096,1096,1096
69068195,1000,1000,1000,1000,71428917,1125,1125,1125,1125
69070694,1000,1000,1000,1000,71528877,1209,1198,1199,1210
69073193,1000,1000,1000,1000,71628837,1440,1432,1433,1440
69075692,1000,1000,1000,1000,71728797,1611,1605,1605,1612
69078191,1000,1000,1000,1000,71828757,1754,1748,1748,1754
69080690,1000,1000,1000,1000,71928717,1879,1872,1873,1879
69083189,1000,1000,1000,1000,72028677,1912,1909,1909,1913
69085688,1000,1000,1000,1000,72128637,1801,1799,1800,1801
69088187,1000,1000,1000,1000,72228597,1690,1692,1692,1691
69090686,1000,1000,1000,1000,72328557,1643,1646,1646,1644
69093185,1000,1000,1000,1000,72428517,1640,1644,1644,1641
69095684,1000,1000,1000,1000,72528477,1642,1641,1638,1645
69098183,1000,1000,1000,1000,72628437,1635,1638,1629,1643
69100682,1000,1000,1000,1000,72728397,1627,1629,1624,1633
69103181,1000,1000,1000,1000,72828357,1620,1621,1620,1621
69105680,1000,1000,1000,1000,72928317,1618,1616,1620,1614
69108179,1000,1000,1000,1000,73028277,1618,1615,1621,1612
69110678,1000,1000,1000,1000,73128237,1605,1603,1611,1597
69113177,1000,1000,1000,1000,73228197,1583,1583,1598,1567
69115676,1000,1000,1000,1000,73328157,1569,1570,1578,1561
69118175,1000,1000,1000,1000,73428950,1558,1559,1558,1560
69120674,1000,1000,1000,1000,73528910,1549,1549,1543,1556
69123173,1000,1000,1000,1000,73628870,1542,1541,1530,1553
69125672,1000,1000,1000,1000,73728830,1538,1536,1526,1548
69128171,1000,1000,1000,1000,73828790,1532,1531,1524,1537
69130670,1000,1000,1000,1000,73928750,1528,1526,1524,1528
69133169,1000,1000,1000,1000,74028710,1524,1524,1525,1522
69135668,1000,1000,1000,1000,74128670,1525,1526,1528,1523
69138167,1000,1000,1000,1000,74228630,1529,1529,1531,1526
69140666,1000,1000,1000,1000,74328590,1532,1532,1535,1530
69143165,1000,1000,1000,1000,74428550,1536,1536,1538,1534
69145664,1000,1000,1000,1000,74528510,1539,1539,1541,1538
69148163,1000,1000,1000,1000,74628470,1543,1543,1544,1542
69150662,1000,1000,1000,1000,74728430,1546,1546,1547,1547
69153161,1000,1000,1000,1000,74828390,1550,1550,1550,1550
69155660,1000,1000,1000,1000,74928350,1553,1553,1552,1554
69158159,1000,1000,1000,1000,75028310,1554,1554,1553,1556
69160658,1000,1000,1000,1000,75128270,1559,1559,1555,1557
69163157,1000,1000,1000,1000,75228230,1560,1559,1558,1559
69165656,1000,1000,1000,1000,75328190,1561,1560,1562,1563
69168155,1000,1000,1000,1000,75428983,1561,1561,1566,1566
69170654,1000,1000,1000,1000,75528943,1562,1562,1567,1567
69173986,1000,1000,1000,1000,75628903,1563,1563,1569,1569
69176485,1000,1000,1000,1000,75728863,1565,1565,1570,1570
69178984,1000,1000,1000,1000,75828823,1566,1567,1570,1570
69181483,1000,1000,1000,1000,75928783,1567,1567,1569,1569
69183982,1000,1000,1000,1000,76028743,1570,1570,1569,1570
69186481,1000,1000,1000,1000,76128703,1570,1571,1569,1570
69188980,1000,1000,1000,1000,76228663,1573,1573,1570,1571
69191479,1000,1000,1000,1000,76328623,1574,1574,1571,1570
69193978,1000,1000,1000,1000,76428583,1575,1575,1572,1571
69196477,1000,1000,1000,1000,76528543,1576,1575,1573,1571
69198976,1000,1000,1000,1000,76628503,1576,1576,1574,1572
69201475,1000,1000,1000,1000,76728463,1576,1576,1574,1573
69203974,1000,1000,1000,1000,76828423,1576,1575,1574,1573
69206473,1000,1000,1000,1000,76928383,1575,1575,1574,1574
69208972,1000,1000,1000,1000,77028343,1575,1575,1575,1575
69211471,1000,1000,1000,1000,77128303,1575,1575,1575,1576
69213970,1000,1000,1000,1000,77228263,1576,1576,1577,1577
69216469,1000,1000,1000,1000,77328223,1575,1575,1576,1576
69218968,1000,1000,1000,1000,77428183,1575,1576,1576,1577
69221467,1000,1000,1000,1000,77528976,1576,1577,1578,1578
69223966,1000,1000,1000,1000,77628936,1576,1576,1577,1576
69226465,1000,1000,1000,1000,77728896,1577,1577,1578,1578
69228964,1000,1000,1000,1000,77828856,1577,1577,1578,1577
69231463,1000,1000,1000,1000,77928816,1578,1578,1578,1578
69233962,1000,1000,1000,1000,78028776,1578,1578,1579,1578
69236461,1000,1000,1000,1000,78128736,1579,1579,1579,1579
69238960,1000,1000,1000,1000,78228696,1578,1579,1578,1578
69241459,1000,1000,1000,1000,78328656,1578,1578,1578,1578
69243958,1000,1000,1000,1000,78428616,1578,1578,1578,1578
69246457,1000,1000,1000,1000,78528576,1578,1578,1578,1578
69248956,1000,1000,1000,1000,78628536,1578,1578,1578,1578
69251455,1000,1000,1000,1000,78728496,1579,1579,1579,1579
69253954,1000,1000,1000,1000,78828456,1579,1579,1579,1579
69256453,1000,1000,1000,1000,78928416,1578,1578,1579,1578
69258952,1000,1000,1000,1000,79028376,1579,1579,1579,1579
69261451,1000,1000,1000,1000,79128336,1578,1578,1578,1578
69263950,1000,1000,1000,1000,79228296,1579,1579,1579,1579
69266449,1000,1000,1000,1000,79328256,1580,1579,1580,1580
69268948,1000,1000,1000,1000,79428216,1580,1579,1580,1579
69271447,1000,1000,1000,1000,79528176,1579,1579,1579,1579
69273946,1000,1000,1000,1000,79628969,1579,1579,1579,1579
69276445,1000,1000,1000,1000,79728929,1580,1579,1580,1580
69278944,1000,1000,1000,1000,79828889,1579,1579,1579,1579
69281443,1000,1000,1000,1000,79928849,1579,1579,1579,1579
69283942,1000,1000,1000,1000,80028809,1579,1580,1580,1579
69286441,1000,1000,1000,1000,80128769,1579,1580,1580,1580
69288940,1000,1000,1000,1000,80228729,1580,1579,1580,1579
69291439,1000,1000,1000,1000,80328689,1581,1581,1581,1580
69293938,1000,1000,1000,1000,80428649,1581,1581,1581,1581
69296437,1000,1000,1000,1000,80528609,1582,1581,1581,1582
69298936,1000,1000,1000,1000,80628569,1581,1581,1581,1581
69301435,1000,1000,1000,1000,80728529,1582,1582,1582,1582
69303934,1000,1000,1000,1000,80828489,1580,1581,1580,1581
69306433,1000,1000,1000,1000,80928449,1581,1581,1581,1581
69308932,1000,1000,1000,1000,81028409,1580,1580,1581,1580
69311431,1000,1000,1000,1000,81128369,1580,1580,1580,1580
69313930,1000,1000,1000,1000,81228329,1581,1581,1581,1580
69316429,1000,1000,1000,1000,81328289,1580,1581,1587,1573
69318928,1000,1000,1000,1000,81428249,1580,1582,1585,1573
69321427,1000,1000,1000,1000,81528209,1579,1582,1576,1574
69323926,1000,1000,1000,1000,81628169,1577,1580,1568,1572
69326425,1000,1000,1000,1000,81728962,1577,1579,1561,1568
69328924,1000,1000,1000,1000,81828922,1578,1578,1557,1563
69331423,1000,1000,1000,1000,81928882,1579,1577,1555,1558
69333922,1000,1000,1000,1000,82028842,1579,1578,1554,1555
69336421,1000,1000,1000,1000,82128802,1579,1578,1555,1554
69338920,1000,1000,1000,1000,82228762,1578,1578,1556,1552
69341419,1000,1000,1000,1000,82328722,1578,1578,1556,1553
69343918,1000,1000,1000,1000,82428682,1576,1577,1555,1554
69346417,1000,1000,1000,1000,82528642,1575,1576,1554,1554
69348916,1000,1000,1000,1000,82628602,1575,1577,1553,1553
69351415,1000,1000,1000,1000,82728562,1575,1577,1551,1551
69353914,1000,1000,1000,1000,82828522,1576,1578,1549,1549
69356413,1000,1000,1000,1000,82928482,1578,1579,1547,1546
69358912,1000,1000,1000,1000,83028442,1581,1582,1545,1544
69361411,1000,1000,1000,1000,83128402,1584,1585,1542,1542
69363910,1000,1000,1000,1000,83228362,1588,1588,1540,1539
69366409,1000,1000,1000,1000,83328322,1590,1591,1537,1537
69368908,1000,1000,1000,1000,83428282,1593,1594,1536,1536
69371407,1000,1000,1000,1000,83528242,1594,1593,1534,1535
69373906,1000,1000,1000,1000,83628202,1596,1595,1535,1537
69376405,1000,1000,1000,1000,83728162,1595,1594,1536,1539
69378904,1000,1000,1000,1000,83828955,1593,1592,1541,1544
69381403,1000,1000,1000,1000,83928915,1588,1587,1546,1550
69383902,1000,1000,1000,1000,84028875,1582,1579,1554,1558
69386401,1000,1000,1000,1000,84128835,1574,1570,1565,1568
69388900,1000,1000,1000,1000,84228795,1563,1559,1577,1579
69391399,1000,1000,1000,1000,84328755,1551,1548,1589,1590
69393898,1000,1000,1000,1000,84428715,1541,1539,1601,1600
69396397,1000,1000,1000,1000,84528675,1533,1532,1609,1608
69398896,1000,1000,1000,1000,84628635,1528,1530,1614,1613
69401395,1000,1000,1000,1000,84728595,1529,1531,1616,1615
69403894,1000,1000,1000,1000,84828555,1533,1535,1614,1613
69406393,1000,1000,1000,1000,84928515,1539,1541,1609,1609
69408892,1000,1000,1000,1000,85028475,1547,1548,1601,1602
69411391,1000,1000,1000,1000,85128435,1555,1556,1594,1595
69413890,1000,1000,1000,1000,85228395,1564,1564,1587,1586
69416389,1000,1000,1000,1000,85328355,1572,1572,1580,1579
69418888,1000,1000,1000,1000,85428315,1579,1578,1574,1573
69421387,1000,1000,1000,1000,85528275,1584,1582,1570,1569
69423886,1000,1000,1000,1000,85628235,1586,1585,1567,1566
69426385,1000,1000,1000,1000,85728195,1587,1587,1566,1566
69428884,1000,1000,1000,1000,85828155,1587,1586,1566,1567
69431383,1000,1000,1000,1000,85928948,1585,1584,1568,1568
69433882,1000,1000,1000,1000,86028908,1583,1582,1571,1571
69436381,1000,1000,1000,1000,86128868,1579,1579,1573,1573
69438880,1000,1000,1000,1000,86228828,1577,1577,1577,1577
69441379,1000,1000,1000,1000,86328788,1575,1575,1579,1580
69443878,1000,1000,1000,1000,86428748,1573,1574,1582,1582
69446377,1000,1000,1000,1000,86528708,1571,1572,1582,1582
69448876,1000,1000,1000,1000,86628668,1571,1573,1583,1583
69451375,1000,1000,1000,1000,86728628,1571,1572,1583,1583
69453874,1000,1000,1000,1000,86828588,1574,1575,1584,1583
69456373,1000,1000,1000,1000,86928548,1575,1575,1582,1582
69458872,1000,1000,1000,1000,87028508,1577,1576,1581,1581
69461371,1000,1000,1000,1000,87128468,1578,1577,1579,1580
69463870,1000,1000,1000,1000,87228428,1580,1579,1579,1579
69466369,1000,1000,1000,1000,87328388,1580,1580,1578,1578
69468868,1000,1000,1000,1000,87428348,1581,1581,1578,1577
69471367,1000,1000,1000,1000,87528308,1581,1581,1577,1577
69473866,1000,1000,1000,1000,87628268,1337,1339,1621,1626
69476365,1000,1000,1000,1000,87728228,1413,1419,1643,1649
69478864,1000,1000,1000,1000,87828188,1473,1482,1636,1633
69481363,1000,1000,1000,1000,87928981,1526,1533,1624,1616
69483862,1000,1000,1000,1000,88028941,1567,1569,1614,1605
69486361,1000,1000,1000,1000,88128901,1598,1592,1607,1601
69488860,1000,1000,1000,1000,88228861,1628,1614,1591,1589
69491359,1000,1000,1000,1000,88328821,1650,1636,1560,1567
69493858,1000,1000,1000,1000,88428781,1650,1640,1527,1541
69496357,1000,1000,1000,1000,88528741,1650,1649,1544,1555
69498856,1000,1000,1000,1000,88628701,1643,1650,1560,1564
69501355,1000,1000,1000,1000,88728661,1640,1650,1578,1577
69503854,1000,1000,1000,1000,88828621,1638,1645,1590,1584
69506353,1000,1000,1000,1000,88928581,1629,1633,1586,1581
69508852,1000,1000,1000,1000,89028541,1623,1623,1582,1579
69511351,1000,1000,1000,1000,89128501,1617,1615,1579,1578
69513850,1000,1000,1000,1000,89228461,1612,1609,1576,1577
69516349,1000,1000,1000,1000,89328421,1609,1600,1578,1569
69518848,1000,1000,1000,1000,89428381,1603,1594,1573,1569
69521347,1000,1000,1000,1000,89528341,1596,1590,1566,1568
69523846,1000,1000,1000,1000,89628301,1588,1588,1560,1563
69526345,1000,1000,1000,1000,89728261,1581,1585,1555,1557
69528844,1000,1000,1000,1000,89828221,1576,1582,1554,1552
69531343,1000,1000,1000,1000,89928181,1574,1579,1553,1549
69533842,1000,1000,1000,1000,90028974,1574,1576,1553,1548
69536341,1000,1000,1000,1000,90128934,1573,1574,1552,1548
69538840,1000,1000,1000,1000,90228894,1860,1859,1534,1530
69541339,1000,1000,1000,1000,90328854,1780,1777,1467,1461
69543838,1000,1000,1000,1000,90428814,1725,1724,1457,1458
69546337,1000,1000,1000,1000,90528774,1675,1677,1462,1466
69548836,1000,1000,1000,1000,90628734,1629,1634,1473,1478
69551335,1000,1000,1000,1000,90728694,1587,1593,1491,1496
69553834,1000,1000,1000,1000,90828654,1535,1541,1527,1532
69556333,1000,1000,1000,1000,90928614,1479,1483,1573,1578
69558832,1000,1000,1000,1000,91028574,1439,1441,1609,1613
69561331,1000,1000,1000,1000,91128534,1432,1432,1621,1624
69563830,1000,1000,1000,1000,91228494,1447,1447,1618,1619
69566329,1000,1000,1000,1000,91328454,1470,1470,1608,1608
69568828,1000,1000,1000,1000,91428414,1494,1496,1596,1595
69571327,1000,1000,1000,1000,91528374,1517,1519,1584,1583
69573826,1000,1000,1000,1000,91628334,1536,1538,1573,1572
69576325,1000,1000,1000,1000,91728294,1553,1554,1565,1563
69578824,1000,1000,1000,1000,91828254,1567,1566,1556,1556
69581323,1000,1000,1000,1000,91928214,1578,1576,1551,1551
69583822,1000,1000,1000,1000,92028174,1586,1583,1548,1548
69586321,1000,1000,1000,1000,92128967,1592,1588,1547,1548
69588820,1000,1000,1000,1000,92228927,1594,1590,1548,1549
69591319,1000,1000,1000,1000,92328887,1592,1587,1552,1554
69593818,1000,1000,1000,1000,92428847,1584,1580,1559,1560
69596317,1000,1000,1000,1000,92528807,1575,1573,1569,1570
69598816,1000,1000,1000,1000,92628767,1565,1564,1580,1580
69601315,1000,1000,1000,1000,92728727,1556,1556,1590,1589
69603814,1000,1000,1000,1000,92828687,1549,1550,1596,1595
69606313,1000,1000,1000,1000,92928647,1546,1548,1600,1599
69608812,1000,1000,1000,1000,93028607,1546,1547,1601,1600
69611311,1000,1000,1000,1000,93128567,1546,1548,1599,1599
69613810,1000,1000,1000,1000,93228527,1550,1552,1598,1598
69616309,1000,1000,1000,1000,93328487,1554,1555,1594,1595
69618808,1000,1000,1000,1000,93428447,1558,1558,1590,1591
69621307,1000,1000,1000,1000,93528407,1562,1562,1586,1587
69623806,1000,1000,1000,1000,93628367,1567,1567,1583,1583
69626305,1000,1000,1000,1000,93728327,1572,1572,1580,1579
69628804,1000,1000,1000,1000,93828287,1576,1576,1577,1576
69631303,1000,1000,1000,1000,93928247,1579,1579,1573,1572
69633802,1000,1000,1000,1000,94028207,1583,1583,1571,1571
69636301,1000,1000,1000,1000,94128167,1585,1584,1569,1569
69638800,1000,1000,1000,1000,94228960,1586,1585,1569,1570
69641299,1000,1000,1000,1000,94328920,1585,1585,1569,1570
69643798,1000,1000,1000,1000,94428880,1584,1584,1571,1571
69646297,1000,1000,1000,1000,94528840,1583,1583,1574,1574
69648796,1000,1000,1000,1000,94628800,1581,1581,1576,1576
69651295,1000,1000,1000,1000,94728760,1579,1579,1579,1578
69653794,1000,1000,1000,1000,94828720,1577,1577,1580,1580
69656293,1000,1000,1000,1000,94928680,1576,1577,1581,1581
69658792,1000,1000,1000,1000,95028640,1574,1575,1581,1582
69661291,1000,1000,1000,1000,95128600,1574,1574,1582,1582
69663790,1000,1000,1000,1000,95228560,1575,1575,1583,1583
69666289,1000,1000,1000,1000,95328520,1575,1576,1582,1582
69668788,1000,1000,1000,1000,95428480,1577,1577,1582,1582
69671287,1000,1000,1000,1000,95528440,1578,1578,1581,1582
69673786,1000,1000,1000,1000,95628400,1579,1578,1580,1580
69676285,1000,1000,1000,1000,95728360,1579,1579,1579,1579
69678784,1000,1000,1000,1000,95828320,1580,1581,1580,1578
69681283,1000,1000,1000,1000,95928280,1580,1580,1578,1577
69683782,1000,1000,1000,1000,96028240,1581,1581,1578,1578
69686281,1000,1000,1000,1000,96128200,1582,1582,1578,1579
69688780,1000,1000,1000,1000,96228160,1582,1582,1579,1579
69691279,1000,1000,1000,1000,96328953,1582,1581,1579,1580
69693778,1000,1000,1000,1000,96428913,1582,1581,1580,1580
69696277,1000,1000,1000,1000,96528873,1580,1581,1580,1580
69698776,1000,1000,1000,1000,96628833,1580,1581,1580,1580
69701275,1000,1000,1000,1000,96728793,1580,1580,1580,1580
69703774,1000,1000,1000,1000,96828753,1580,1580,1581,1581
69706273,1000,1000,1000,1000,96928713,1579,1579,1580,1580
69708772,1000,1000,1000,1000,97028673,1580,1580,1582,1582
69711271,1000,1000,1000,1000,97128633,1580,1580,1581,1582
69713770,1000,1000,1000,1000,97228593,1580,1581,1581,1581
69716269,1000,1000,1000,1000,97328553,1580,1581,1581,1581
69718768,1000,1000,1000,1000,97428513,1580,1580,1580,1581
69721267,1000,1000,1000,1000,97528473,1580,1580,1581,1580
69723766,1000,1000,1000,1000,97628433,1581,1581,1581,1581
69726265,1000,1000,1000,1000,97728393,1581,1581,1581,1581
69728764,1000,1000,1000,1000,97828353,1582,1582,1581,1581
69731263,1000,1000,1000,1000,97928313,1582,1583,1588,1574
69733762,1000,1000,1000,1000,98028273,1581,1584,1585,1574
69736261,1000,1000,1000,1000,98128233,1579,1582,1577,1573
69738760,1000,1000,1000,1000,98228193,1577,1580,1567,1571
69741259,1000,1000,1000,1000,98328986,1577,1579,1560,1568
69743758,1000,1000,1000,1000,98428946,1578,1579,1556,1563
69746257,1000,1000,1000,1000,98528906,1580,1578,1555,1559
69748756,1000,1000,1000,1000,98628866,1581,1578,1556,1556
69751255,1000,1000,1000,1000,98728826,1581,1579,1556,1554
69753754,1000,1000,1000,1000,98828786,1579,1579,1556,1554
69756253,1000,1000,1000,1000,98928746,1578,1578,1556,1554
69758752,1000,1000,1000,1000,99028706,1576,1577,1555,1554
69761251,1000,1000,1000,1000,99128666,1575,1577,1554,1554
69763750,1000,1000,1000,1000,99228626,1574,1576,1553,1553
69766249,1000,1000,1000,1000,99328586,1576,1577,1553,1553
69768748,1000,1000,1000,1000,99428546,1577,1578,1551,1551
69771247,1000,1000,1000,1000,99528506,1579,1580,1549,1549
69773746,1000,1000,1000,1000,99628466,1581,1582,1546,1546
69776245,1000,1000,1000,1000,99728426,1584,1584,1544,1543
69778744,1000,1000,1000,1000,99828386,1587,1588,1542,1541
69781243,1000,1000,1000,1000,99928346,1589,1590,1539,1539
69783742,1000,1000,1000,1000,100028306,1592,1592,1537,1537
69786241,1000,1000,1000,1000,100128266,1594,1594,1536,1536
69788740,1000,1000,1000,1000,100228226,1595,1596,1535,1537
69791239,1000,1000,1000,1000,100328186,1595,1594,1536,1538
69793738,1000,1000,1000,1000,100428979,1593,1591,1539,1542
69796237,1000,1000,1000,1000,100528939,1590,1587,1546,1549
69798736,1000,1000,1000,1000,100628899,1582,1579,1554,1557
69801235,1000,1000,1000,1000,100728859,1573,1569,1566,1568
69803734,1000,1000,1000,1000,100828819,1563,1559,1578,1580
69806233,1000,1000,1000,1000,100928779,1552,1548,1591,1591
69808732,1000,1000,1000,1000,101028739,1540,1539,1601,1601
69811231,1000,1000,1000,1000,101128699,1534,1534,1609,1608
69813730,1000,1000,1000,1000,101228659,1531,1533,1613,1612
69816229,1000,1000,1000,1000,101328619,1532,1534,1612,1612
69818728,1000,1000,1000,1000,101428579,1537,1539,1611,1611
69821227,1000,1000,1000,1000,101528539,1543,1544,1607,1607
69823726,1000,1000,1000,1000,101628499,1550,1551,1603,1603
69826225,1000,1000,1000,1000,101728459,1556,1557,1596,1596
69828724,1000,1000,1000,1000,101828419,1563,1563,1590,1590
69831223,1000,1000,1000,1000,101928379,1571,1571,1584,1583
69833722,1000,1000,1000,1000,102028339,1577,1576,1577,1577
69836221,1000,1000,1000,1000,102128299,1583,1582,1573,1573
69838720,1000,1000,1000,1000,102228259,1585,1585,1568,1569
69841219,1000,1000,1000,1000,102328219,1588,1586,1566,1567
69843718,1000,1000,1000,1000,102428179,1588,1587,1566,1567
69846217,1000,1000,1000,1000,102528972,1586,1585,1568,1568
69848716,1000,1000,1000,1000,102628932,1585,1584,1571,1570
69851215,1000,1000,1000,1000,102728892,1581,1581,1573,1572
69853714,1000,1000,1000,1000,102828852,1579,1579,1576,1576
69856213,1000,1000,1000,1000,102928812,1576,1576,1579,1579
69858712,1000,1000,1000,1000,103028772,1574,1575,1581,1581
69861211,1000,1000,1000,1000,103128732,1572,1573,1582,1582
69863710,1000,1000,1000,1000,103228692,1572,1573,1583,1583
69866209,1000,1000,1000,1000,103328652,1573,1573,1584,1583
69868708,1000,1000,1000,1000,103428612,1573,1573,1584,1583
69871207,1000,1000,1000,1000,103528572,1574,1574,1583,1583
69873706,1000,1000,1000,1000,103628532,1576,1576,1582,1582
69876205,1000,1000,1000,1000,103728492,1576,1576,1580,1580
69878704,1000,1000,1000,1000,103828452,1578,1578,1579,1579
69881203,1000,1000,1000,1000,103928412,1579,1579,1578,1578
69883702,1000,1000,1000,1000,104028372,1580,1579,1577,1577
69886201,1000,1000,1000,1000,104128332,1581,1581,1578,1577
69888700,1000,1000,1000,1000,104228292,1582,1581,1577,1577
69891199,1000,1000,1000,1000,104328252,1582,1581,1578,1578
69893698,1000,1000,1000,1000,104428212,1581,1581,1577,1577
69896197,1000,1000,1000,1000,104528172,1580,1580,1578,1578
69898696,1000,1000,1000,1000,104628965,1580,1580,1578,1579
69901195,1000,1000,1000,1000,104728925,1579,1580,1579,1579
69903694,1000,1000,1000,1000,104828885,1580,1580,1580,1580
69906193,1000,1000,1000,1000,104928845,1580,1580,1581,1581
69908692,1000,1000,1000,1000,105028805,1580,1580,1581,1581
69911191,1000,1000,1000,1000,105128765,1579,1580,1581,1581
69913690,1000,1000,1000,1000,105228725,1580,1580,1582,1582
69916189,1000,1000,1000,1000,105328685,1580,1579,1581,1581
69918688,1000,1000,1000,1000,105428645,1581,1580,1582,1582
69921187,1000,1000,1000,1000,105528605,1581,1581,1582,1581
69923686,1000,1000,1000,1000,105628565,1580,1580,1581,1581
69926185,1000,1000,1000,1000,105728525,1581,1581,1581,1581
69928684,1000,1000,1000,1000,105828485,1581,1582,1586,1575
69931183,1000,1000,1000,1000,105928445,1581,1581,1586,1572
69933682,1000,1000,1000,1000,106028405,1579,1579,1580,1574
69936181,1000,1000,1000,1000,106128365,1575,1576,1573,1574
69938680,1000,1000,1000,1000,106228325,1572,1572,1567,1574
69941179,1000,1000,1000,1000,106328285,1569,1569,1564,1571
69943678,1000,1000,1000,1000,106428245,1567,1567,1563,1569
69946177,1000,1000,1000,1000,106528205,1566,1566,1565,1567
69948676,1000,1000,1000,1000,106628165,1566,1565,1566,1565
69951175,1000,1000,1000,1000,106728958,1566,1566,1568,1565
69953674,1000,1000,1000,1000,106828918,1564,1565,1567,1564
69956173,1000,1000,1000,1000,106928878,1565,1565,1567,1565
69958672,1000,1000,1000,1000,107028838,1564,1564,1565,1564
69961171,1000,1000,1000,1000,107128798,1563,1562,1564,1564
69963670,1000,1000,1000,1000,107228758,1562,1562,1563,1563
69966169,1000,1000,1000,1000,107328718,1561,1561,1562,1562
69968668,1000,1000,1000,1000,107428678,1561,1561,1562,1561
69971167,1000,1000,1000,1000,107528638,1562,1561,1562,1562
69973666,1000,1000,1000,1000,107628598,1561,1561,1561,1561
69976165,1000,1000,1000,1000,107728558,1559,1559,1559,1559
69978664,1000,1000,1000,1000,107828518,1558,1558,1558,1557
69981163,1000,1000,1000,1000,107928478,1559,1558,1558,1558
69983662,1000,1000,1000,1000,108028438,1557,1558,1558,1556
69986161,1000,1000,1000,1000,108128398,1558,1557,1558,1557
69988660,1000,1000,1000,1000,108228358,1557,1557,1558,1556
69991159,1000,1000,1000,1000,108328318,1558,1558,1559,1557
69993658,1000,1000,1000,1000,108428278,1558,1558,1559,1557
69996157,1000,1000,1000,1000,108528238,1557,1558,1559,1556
69998656,1000,1000,1000,1000,108628198,1558,1558,1558,1558
70001155,1000,1000,1000,1000,108728158,1560,1560,1558,1562
70003654,1000,1000,1000,1000,108828951,1561,1561,1557,1564
70006153,1000,1000,1000,1000,108928911,1561,1561,1558,1565
70008652,1000,1000,1000,1000,109028871,1563,1562,1560,1564
70011151,1000,1000,1000,1000,109128831,1563,1563,1563,1564
70013650,1000,1000,1000,1000,109228791,1563,1563,1564,1562
70016149,1000,1000,1000,1000,109328751,1561,1561,1563,1559
70018648,1000,1000,1000,1000,109428711,1560,1561,1562,1559
70021147,1000,1000,1000,1000,109528671,1559,1559,1556,1562
70023646,1000,1000,1000,1000,109628631,1556,1556,1553,1560
70026145,1000,1000,1000,1000,109728591,1552,1551,1550,1554
70028644,1000,1000,1000,1000,109828551,1546,1546,1545,1546
70031143,1000,1000,1000,1000,109928511,1539,1539,1540,1539
70033642,1000,1000,1000,1000,110028471,1532,1532,1533,1531
70036141,1000,1000,1000,1000,110128431,1524,1524,1525,1523
70038640,1000,1000,1000,1000,110228391,1519,1520,1521,1519
70041139,1000,1000,1000,1000,110328351,1519,1518,1519,1519
70043638,1000,1000,1000,1000,110428311,1520,1520,1520,1520
70046137,1000,1000,1000,1000,110528271,1522,1522,1521,1522
70048636,1000,1000,1000,1000,110628231,1526,1526,1525,1526
70051135,1000,1000,1000,1000,110728191,1530,1530,1529,1530
70053634,1000,1000,1000,1000,110828984,1534,1535,1535,1535
70056133,1000,1000,1000,1000,110928944,1538,1538,1539,1538
70058632,1000,1000,1000,1000,111028904,1541,1541,1541,1541
70061131,1000,1000,1000,1000,111128864,1543,1543,1543,1543
70063630,1000,1000,1000,1000,111228824,1545,1545,1545,1545
70066129,1000,1000,1000,1000,111328784,1546,1545,1545,1545
70068628,1000,1000,1000,1000,111428744,1545,1546,1546,1546
70071127,1000,1000,1000,1000,111528704,1545,1546,1546,1545
70073626,1000,1000,1000,1000,111628664,1545,1546,1546,1545
70076125,1000,1000,1000,1000,111728624,1546,1546,1546,1546
70078624,1000,1000,1000,1000,111828584,1546,1546,1546,1545
70081123,1000,1000,1000,1000,111928544,1546,1546,1546,1546
70083622,1000,1000,1000,1000,112028504,1546,1546,1546,1546
70086121,1000,1000,1000,1000,112128464,1546,1546,1546,1546
70088620,1000,1000,1000,1000,112228424,1545,1546,1546,1545
70091119,1000,1000,1000,1000,112328384,1545,1545,1545,1545
70093618,1000,1000,1000,1000,112428344,1545,1545,1545,1544
70096117,1000,1000,1000,1000,112528304,1544,1544,1544,1544
70098616,1000,1000,1000,1000,112628264,1544,1545,1544,1545
70101115,1000,1000,1000,1000,112728224,1544,1544,1544,1544
70103614,1000,1000,1000,1000,112828184,1544,1544,1544,1544
70106113,1000,1000,1000,1000,112928977,1544,1544,1544,1544
70108612,1000,1000,1000,1000,113028937,1544,1544,1544,1543
70111111,1000,1000,1000,1000,113128897,1544,1544,1544,1544
70113610,1000,1000,1000,1000,113228857,1544,1544,1544,1544
70116109,1000,1000,1000,1000,113328817,1543,1543,1544,1544
70118608,1000,1000,1000,1000,113428777,1543,1544,1544,1544
70121107,1000,1000,1000,1000,113528737,1544,1544,1544,1544
70123606,1000,1000,1000,1000,113628697,1543,1543,1543,1543
70126105,1000,1000,1000,1000,113728657,1544,1544,1544,1544
70128604,1000,1000,1000,1000,113828617,1544,1544,1544,1544
70131103,1000,1000,1000,1000,113928577,1545,1545,1545,1545
70133602,1000,1000,1000,1000,114028537,1545,1545,1545,1545
70136101,1000,1000,1000,1000,114128497,1546,1545,1545,1545
70138600,1000,1000,1000,1000,114228457,1544,1545,1544,1544
70141099,1000,1000,1000,1000,114328417,1544,1544,1544,1544
70143598,1000,1000,1000,1000,114428377,1544,1544,1544,1544
70146097,1000,1000,1000,1000,114528337,1544,1544,1544,1544
70148596,1000,1000,1000,1000,114628297,1544,1544,1544,1544
70151095,1000,1000,1000,1000,114728257,1544,1544,1544,1544
70153594,1000,1000,1000,1000,114828217,1544,1544,1544,1544
70156093,1000,1000,1000,1000,114928177,1543,1543,1543,1543
70158592,1000,1000,1000,1000,115028970,1544,1544,1544,1544
70161091,1000,1000,1000,1000,115128930,1544,1543,1543,1544
70163590,1000,1000,1000,1000,115228890,1543,1544,1543,1543
70166089,1000,1000,1000,1000,115328850,1544,1544,1543,1544
70168588,1000,1000,1000,1000,115428810,1544,1545,1545,1544
70171087,1000,1000,1000,1000,115528770,1544,1544,1544,1544
70173586,1000,1000,1000,1000,115628730,1545,1545,1545,1545
70176085,1000,1000,1000,1000,115728690,1545,1544,1544,1545
70178584,1000,1000,1000,1000,115828650,1544,1544,1544,1544
70181083,1000,1000,1000,1000,115928610,1544,1544,1544,1544
70183582,1000,1000,1000,1000,116028570,1544,1545,1545,1544
70186081,1000,1000,1000,1000,116128530,1545,1545,1545,1545
70188580,1000,1000,1000,1000,116228490,1545,1544,1544,1545
70191079,1000,1000,1000,1000,116328450,1545,1545,1544,1545
70193578,1000,1000,1000,1000,116428410,1544,1544,1545,1544
70196077,1000,1000,1000,1000,116528370,1545,1545,1546,1545
70198576,1000,1000,1000,1000,116628330,1544,1544,1544,1544
70201075,1000,1000,1000,1000,116728290,1543,1544,1544,1544
70203574,1000,1000,1000,1000,116828250,1544,1544,1544,1544
70206073,1000,1000,1000,1000,116928210,1544,1544,1543,1545
70208572,1000,1000,1000,1000,117028170,1545,1545,1545,1545
70211071,1000,1000,1000,1000,117128963,1544,1544,1544,1544
70213570,1000,1000,1000,1000,117228923,1544,1544,1544,1544
70216069,1000,1000,1000,1000,117328883,1544,1544,1544,1544
70218568,1000,1000,1000,1000,117428843,1544,1544,1544,1544
70221067,1000,1000,1000,1000,117528803,1544,1543,1544,1544
70223566,1000,1000,1000,1000,117628763,1543,1544,1544,1544
70226065,1000,1000,1000,1000,117728723,1544,1544,1544,1544
70228564,1000,1000,1000,1000,117828683,1544,1544,1544,1544
70231063,1000,1000,1000,1000,117928643,1544,1544,1544,1544
70233562,1000,1000,1000,1000,118028603,1543,1544,1544,1544
70236061,1000,1000,1000,1000,118128563,1544,1543,1544,1544
70238560,1000,1000,1000,1000,118228523,1545,1545,1546,1545
70241059,1000,1000,1000,1000,118328483,1544,1544,1544,1544
70243558,1000,1000,1000,1000,118428443,1544,1544,1544,1544
70246057,1000,1000,1000,1000,118528403,1544,1544,1544,1544
70248556,1000,1000,1000,1000,118628363,1544,1544,1544,1544
70251055,1000,1000,1000,1000,118728323,1544,1544,1544,1544
70253554,1000,1000,1000,1000,118828283,1544,1544,1543,1544
70256053,1000,1000,1000,1000,118928243,1544,1544,1544,1544
70258552,1000,1000,1000,1000,119028203,1544,1544,1544,1544
70261051,1000,1000,1000,1000,119128163,1545,1544,1545,1544
70263550,1000,1000,1000,1000,119228956,1544,1544,1544,1544
70266049,1000,1000,1000,1000,119328916,1545,1545,1545,1545
70268548,1000,1000,1000,1000,119428876,1544,1544,1544,1544
70271047,1000,1000,1000,1000,119528836,1545,1545,1545,1545
70273546,1000,1000,1000,1000,119628796,1544,1544,1544,1544
70276045,1000,1000,1000,1000,119728756,1545,1544,1544,1545
70278544,1000,1000,1000,1000,119828716,1544,1544,1544,1544
70281043,1000,1000,1000,1000,119928676,1544,1544,1544,1544
70283542,1000,1000,1000,1000,120028636,1379,1379,1379,1379
70286041,1000,1000,1000,1000,120128596,1259,1260,1260,1260
70288540,1000,1000,1000,1000,120228556,1217,1219,1219,1219
70291039,1000,1000,1000,1000,120328516,1197,1197,1198,1198
70293538,1000,1000,1000,1000,120428476,1154,1155,1156,1155
70296037,1000,1000,1000,1000,120528436,1150,1150,1150,1151
70298536,1000,1000,1000,1000,120628396,1150,1151,1152,1151
70301035,1000,1000,1000,1000,120728356,1191,1150,1150,1193
70303534,1000,1000,1000,1000,120828316,1177,1150,1151,1179
70306033,1000,1000,1000,1000,120928276,1173,1150,1151,1176
70308532,1000,1000,1000,1000,121028236,1174,1150,1151,1176
70311031,1000,1000,1000,1000,121128196,1176,1150,1151,1179
70313530,1000,1000,1000,1000,121228156,1178,1150,1151,1181
70316029,1000,1000,1000,1000,121328949,1181,1150,1152,1184
70318528,1000,1000,1000,1000,121428909,1183,1150,1152,1186
70321027,1000,1000,1000,1000,121528869,1167,1150,1152,1169
70323526,1000,1000,1000,1000,121628829,1168,1150,1152,1171
70326025,1000,1000,1000,1000,121728789,1169,1150,1152,1172
70328524,1000,1000,1000,1000,121828749,1170,1150,1153,1173
70331023,1000,1000,1000,1000,121928709,1171,1150,1153,1174
70333522,1000,1000,1000,1000,122028669,1000,1000,1000,1000
70336021,1000,1000,1000,1000,122128629,1000,1000,1000,1000
70338520,1000,1000,1000,1000,122228589,1000,1000,1000,1000
70341019,1000,1000,1000,1000,122328549,1000,1000,1000,1000
70343518,1000,1000,1000,1000,122428509,1000,1000,1000,1000
70346017,1000,1000,1000,1000,122528469,1000,1000,1000,1000
70348516,1000,1000,1000,1000,122628429,1000,1000,1000,1000
70351015,1000,1000,1000,1000,122728389,1000,1000,1000,1000
70353514,1000,1000,1000,1000,122828349,1000,1000,1000,1000
70356013,1000,1000,1000,1000,122928309,1000,1000,1000,1000
70358512,1000,1000,1000,1000,123028269,1000,1000,1000,1000
70361011,1000,1000,1000,1000,123128229,1000,1000,1000,1000
70363510,1000,1000,1000,1000,123228189,1000,1000,1000,1000
70366009,1000,1000,1000,1000,123328982,1000,1000,1000,1000
70368508,1000,1000,1000,1000,123428942,1000,1000,1000,1000
70371007,1000,1000,1000,1000,123528902,1000,1000,1000,1000
70373506,1000,1000,1000,1000,123628862,1000,1000,1000,1000
70376005,1000,1000,1000,1000,123728822,1000,1000,1000,1000
70378504,1000,1000,1000,1000,123828782,1000,1000,1000,1000
70381003,1000,1000,1000,1000,123928742,1000,1000,1000,1000
70383502,1000,1000,1000,1000,124028702,1000,1000,1000,1000
70386001,1000,1000,1000,1000,124128662,1000,1000,1000,1000
70388500,1000,1000,1000,1000,124228622,1000,1000,1000,1000
70390999,1000,1000,1000,1000,124328582,1000,1000,1000,1000
70393498,1000,1000,1000,1000,124428542,1000,1000,1000,1000
70395997,1000,1000,1000,1000,124528502,1000,1000,1000,1000
70398496,1000,1000,1000,1000,124628462,1000,1000,1000,1000
70400995,1000,1000,1000,1000,124728422,1000,1000,1000,1000
70403494,1000,1000,1000,1000,124828382,1000,1000,1000,1000
70405993,1000,1000,1000,1000,124928342,1000,1000,1000,1000
70408492,1000,1000,1000,1000,125028302,1000,1000,1000,1000
70410991,1000,1000,1000,1000,125128262,1000,1000,1000,1000
70413490,1000,1000,1000,1000,125228222,1000,1000,1000,1000
70415989,1000,1000,1000,1000,125328182,1000,1000,1000,1000
70418488,1000,1000,1000,1000,125428975,1000,1000,1000,1000
70420987,1000,1000,1000,1000,125528935,1000,1000,1000,1000
70423486,1000,1000,1000,1000,125628895,1000,1000,1000,1000
70425985,1000,1000,1000,1000,125728855,1000,1000,1000,1000
70428484,1000,1000,1000,1000,125828815,1000,1000,1000,1000
70430983,1000,1000,1000,1000,125928775,1000,1000,1000,1000
70433482,1000,1000,1000,1000,126028735,1000,1000,1000,1000
70435981,1000,1000,1000,1000,126128695,1000,1000,1000,1000
70438480,1000,1000,1000,1000,126228655,1000,1000,1000,1000
70440979,1000,1000,1000,1000,126328615,1000,1000,1000,1000
70443478,1000,1000,1000,1000,126428575,1000,1000,1000,1000
70445977,1000,1000,1000,1000,126528535,1000,1000,1000,1000
70448476,1000,1000,1000,1000,126628495,1000,1000,1000,1000
70450975,1000,1000,1000,1000,126728455,1000,1000,1000,1000
70453474,1000,1000,1000,1000,126828415,1000,1000,1000,1000
70455973,1000,1000,1000,1000,126928375,1000,1000,1000,1000
70458472,1000,1000,1000,1000,127028335,1000,1000,1000,1000
70460971,1000,1000,1000,1000,127128295,1000,1000,1000,1000
70463470,1000,1000,1000,1000,127228255,1000,1000,1000,1000
70465969,1000,1000,1000,1000,127328215,1000,1000,1000,1000
70468468,1000,1000,1000,1000,127428175,1000,1000,1000,1000
70470967,1000,1000,1000,1000,127528968,1000,1000,1000,1000
70473466,1000,1000,1000,1000,127628928,1000,1000,1000,1000
70475965,1000,1000,1000,1000,127728888,1000,1000,1000,1000
70478464,1000,1000,1000,1000,127828848,1000,1000,1000,1000
70480963,1000,1000,1000,1000,127928808,1000,1000,1000,1000
70483462,1000,1000,1000,1000,128028768,1000,1000,1000,1000
70485961,1000,1000,1000,1000,128128728,1000,1000,1000,1000
70488460,1000,1000,1000,1000,128228688,1000,1000,1000,1000
70490959,1000,1000,1000,1000,128328648,1000,1000,1000,1000
70493458,1000,1000,1000,1000,128428608,1000,1000,1000,1000
70495957,1000,1000,1000,1000,128528568,1000,1000,1000,1000
70498456,1000,1000,1000,1000,128628528,1000,1000,1000,1000
70500955,1000,1000,1000,1000,128728488,1000,1000,1000,1000
70503454,1000,1000,1000,1000,128828448,1000,1000,1000,1000
70505953,1000,1000,1000,1000,128928408,1000,1000,1000,1000
70508452,1000,1000,1000,1000,129028368,1000,1000,1000,1000
70510951,1000,1000,1000,1000,129128328,1000,1000,1000,1000
70513450,1000,1000,1000,1000,129228288,1000,1000,1000,1000
70515949,1000,1000,1000,1000,129328248,1000,1000,1000,1000
70518448,1000,1000,1000,1000,129428208,1000,1000,1000,1000
70520947,1000,1000,1000,1000,129528168,1000,1000,1000,1000
70523446,1000,1000,1000,1000,129628961,1000,1000,1000,1000
70525945,1000,1000,1000,1000,129728921,1000,1000,1000,1000
70528444,1000,1000,1000,1000,129828881,1000,1000,1000,1000
70530943,1000,1000,1000,1000,129928841,1000,1000,1000,1000
70533442,1000,1000,1000,1000,130028801,1000,1000,1000,1000
70535941,1000,1000,1000,1000,130128761,1000,1000,1000,1000
70538440,1000,1000,1000,1000,130228721,1000,1000,1000,1000
70540939,1000,1000,1000,1000,130328681,1000,1000,1000,1000
70543438,1000,1000,1000,1000,130428641,1000,1000,1000,1000
70545937,1000,1000,1000,1000,130528601,1000,1000,1000,1000
70548436,1000,1000,1000,1000,130628561,1000,1000,1000,1000
70550935,1000,1000,1000,1000,130728521,1000,1000,1000,1000
70553434,1000,1000,1000,1000,130828481,1000,1000,1000,1000
70555933,1000,1000,1000,1000,130928441,1000,1000,1000,1000
70558432,1000,1000,1000,1000,131028401,1000,1000,1000,1000
70560931,1000,1000,1000,1000,131128361,1000,1000,1000,1000
70563430,1000,1000,1000,1000,131228321,1000,1000,1000,1000
70565929,1000,1000,1000,1000,131328281,1000,1000,1000,1000
70568428,1000,1000,1000,1000,131428241,1000,1000,1000,1000
70570927,1000,1000,1000,1000,131528201,1000,1000,1000,1000
70573426,1000,1000,1000,1000,131628161,1000,1000,1000,1000
70575925,1000,1000,1000,1000,131728954,1000,1000,1000,1000
70578424,1000,1000,1000,1000,131828914,1000,1000,1000,1000
70580923,1000,1000,1000,1000,131928874,1000,1000,1000,1000
70583422,1000,1000,1000,1000,132028834,1000,1000,1000,1000
70585921,1000,1000,1000,1000,132128794,1000,1000,1000,1000
70588420,1000,1000,1000,1000,132228754,1000,1000,1000,1000
70590919,1000,1000,1000,1000,132328714,1000,1000,1000,1000
70593418,1000,1000,1000,1000,132428674,1000,1000,1000,1000
70595917,1000,1000,1000,1000,132528634,1000,1000,1000,1000
70598416,1000,1000,1000,1000,132628594,1000,1000,1000,1000
70600915,1000,1000,1000,1000,132728554,1000,1000,1000,1000
70603414,1000,1000,1000,1000,132828514,1000,1000,1000,1000
70605913,1000,1000,1000,1000,132928474,1000,1000,1000,1000
70608412,1000,1000,1000,1000,133028434,1000,1000,1000,1000
70610911,1000,1000,1000,1000,133128394,1000,1000,1000,1000
70613410,1000,1000,1000,1000,133228354,1000,1000,1000,1000
70615909,1000,1000,1000,1000,133328314,1000,1000,1000,1000
70618408,1000,1000,1000,1000,133428274,1000,1000,1000,1000
70620907,1000,1000,1000,1000,133528234,1000,1000,1000,1000
70623406,1000,1000,1000,1000,133628194,1000,1000,1000,1000
70625905,1000,1000,1000,1000,133728154,1000,1000,1000,1000
70628404,1000,1000,1000,1000,133828947,1000,1000,1000,1000
70630903,1000,1000,1000,1000,133928907,1000,1000,1000,1000
70633402,1000,1000,1000,1000,134028867,1000,1000,1000,1000
70635901,1000,1000,1000,1000,134128827,1000,1000,1000,1000
70638400,1000,1000,1000,1000,134228787,1000,1000,1000,1000
70640899,1000,1000,1000,1000,134328747,1000,1000,1000,1000
70643398,1000,1000,1000,1000,134428707,1000,1000,1000,1000
70645897,1000,1000,1000,1000,134528667,1000,1000,1000,1000
70648396,1000,1000,1000,1000,134628627,1000,1000,1000,1000
70650895,1000,1000,1000,1000,134728587,1000,1000,1000,1000
70653394,1000,1000,1000,1000,134828547,1000,1000,1000,1000
70655893,1000,1000,1000,1000,134928507,1000,1000,1000,1000
70658392,1000,1000,1000,1000,135028467,1000,1000,1000,1000
70660891,1000,1000,1000,1000,135128427,1000,1000,1000,1000
70663390,1000,1000,1000,1000,135228387,1000,1000,1000,1000
70665889,1000,1000,1000,1000,135328347,1000,1000,1000,1000
70668388,1000,1000,1000,1000,135428307,1000,1000,1000,1000
70670887,1000,1000,1000,1000,135528267,1000,1000,1000,1000
70673386,1000,1000,1000,1000,135628227,1000,1000,1000,1000
70675885,1000,1000,1000,1000,135728187,1000,1000,1000,1000
70678384,1000,1000,1000,1000,135828980,1000,1000,1000,1000
70680883,1000,1000,1000,1000,135928940,1000,1000,1000,1000
70683382,1000,1000,1000,1000,136028900,1000,1000,1000,1000
70685881,1000,1000,1000,1000,136128860,1000,1000,1000,1000
70688380,1000,1000,1000,1000,136228820,1000,1000,1000,1000
70690879,1000,1000,1000,1000,136328780,1000,1000,1000,1000
70693378,1000,1000,1000,1000,136428740,1000,1000,1000,1000
70695877,1000,1000,1000,1000,136528700,1000,1000,1000,1000
70698376,1000,1000,1000,1000,136628660,1000,1000,1000,1000
70700875,1000,1000,1000,1000,136728620,1000,1000,1000,1000
70703374,1000,1000,1000,1000,136828580,1000,1000,1000,1000
70705873,1000,1000,1000,1000,136928540,1000,1000,1000,1000
70708372,1000,1000,1000,1000,,,,,
70710871,1000,1000,1000,1000,,,,,
70713370,1000,1000,1000,1000,,,,,
70715869,1000,1000,1000,1000,,,,,
70718368,1000,1000,1000,1000,,,,,
70720867,1000,1000,1000,1000,,,,,
70723366,1000,1000,1000,1000,,,,,
70725865,1000,1000,1000,1000,,,,,
70728364,1000,1000,1000,1000,,,,,
70730863,1000,1000,1000,1000,,,,,
70733362,1000,1000,1000,1000,,,,,
70735861,1000,1000,1000,1000,,,,,
70738360,1000,1000,1000,1000,,,,,
70740859,1000,1000,1000,1000,,,,,
70743358,1000,1000,1000,1000,,,,,
70745857,1000,1000,1000,1000,,,,,
70748356,1000,1000,1000,1000,,,,,
70750855,1000,1000,1000,1000,,,,,
70753354,1000,1000,1000,1000,,,,,
70755853,1000,1000,1000,1000,,,,,
70758352,1000,1000,1000,1000,,,,,
70760851,1000,1000,1000,1000,,,,,
70763350,1000,1000,1000,1000,,,,,
70765849,1000,1000,1000,1000,,,,,
70768348,1000,1000,1000,1000,,,,,
70770847,1000,1000,1000,1000,,,,,
70773346,1000,1000,1000,1000,,,,,
70775845,1000,1000,1000,1000,,,,,
70778344,1000,1000,1000,1000,,,,,
70780843,1000,1000,1000,1000,,,,,
70783342,1000,1000,1000,1000,,,,,
70785841,1000,1000,1000,1000,,,,,
70788340,1000,1000,1000,1000,,,,,
70790839,1000,1000,1000,1000,,,,,
70793338,1000,1000,1000,1000,,,,,
70795837,1000,1000,1000,1000,,,,,
70798336,1000,1000,1000,1000,,,,,
70800835,1000,1000,1000,1000,,,,,
70803334,1000,1000,1000,1000,,,,,
70805833,1000,1000,1000,1000,,,,,
70808332,1000,1000,1000,1000,,,,,
70810831,1000,1000,1000,1000,,,,,
70813330,1000,1000,1000,1000,,,,,
70815829,1000,1000,1000,1000,,,,,
70818328,1000,1000,1000,1000,,,,,
70820827,1000,1000,1000,1000,,,,,
70823326,1000,1000,1000,1000,,,,,
70825825,1000,1000,1000,1000,,,,,
70828324,1000,1000,1000,1000,,,,,
70830823,1000,1000,1000,1000,,,,,
70833322,1000,1000,1000,1000,,,,,
70835821,1000,1000,1000,1000,,,,,
70838320,1000,1000,1000,1000,,,,,
70840819,1000,1000,1000,1000,,,,,
70843318,1000,1000,1000,1000,,,,,
70845817,1000,1000,1000,1000,,,,,
70848316,1000,1000,1000,1000,,,,,
70850815,1000,1000,1000,1000,,,,,
70853314,1000,1000,1000,1000,,,,,
70855813,1000,1000,1000,1000,,,,,
70858312,1000,1000,1000,1000,,,,,
70860811,1000,1000,1000,1000,,,,,
70863310,1000,1000,1000,1000,,,,,
70865809,1000,1000,1000,1000,,,,,
70868308,1000,1000,1000,1000,,,,,
70870807,1000,1000,1000,1000,,,,,
70873306,1000,1000,1000,1000,,,,,
70875805,1000,1000,1000,1000,,,,,
70878304,1000,1000,1000,1000,,,,,
70880803,1000,1000,1000,1000,,,,,
70883302,1000,1000,1000,1000,,,,,
70885801,1000,1000,1000,1000,,,,,
70888300,1000,1000,1000,1000,,,,,
70890799,1000,1000,1000,1000,,,,,
70893298,1000,1000,1000,1000,,,,,
70895797,1000,1000,1000,1000,,,,,
70898296,1000,1000,1000,1000,,,,,
70900795,1000,1000,1000,1000,,,,,
70903294,1000,1000,1000,1000,,,,,
70905793,1000,1000,1000,1000,,,,,
70908292,1000,1000,1000,1000,,,,,
70910791,1000,1000,1000,1000,,,,,
70913290,1000,1000,1000,1000,,,,,
70915789,1000,1000,1000,1000,,,,,
70918288,1000,1000,1000,1000,,,,,
70920787,1000,1000,1000,1000,,,,,
70923286,1000,1000,1000,1000,,,,,
70925785,1000,1000,1000,1000,,,,,
70928284,1000,1000,1000,1000,,,,,
70930783,1000,1000,1000,1000,,,,,
70933282,1000,1000,1000,1000,,,,,
70935781,1000,1000,1000,1000,,,,,
70938280,1000,1000,1000,1000,,,,,
70940779,1000,1000,1000,1000,,,,,
70943278,1000,1000,1000,1000,,,,,
70945777,1000,1000,1000,1000,,,,,
70948276,1000,1000,1000,1000,,,,,
70950775,1000,1000,1000,1000,,,,,
70953274,1000,1000,1000,1000,,,,,
70955773,1000,1000,1000,1000,,,,,
70958272,1000,1000,1000,1000,,,,,
70960771,1000,1000,1000,1000,,,,,
70963270,1000,1000,1000,1000,,,,,
70965769,1000,1000,1000,1000,,,,,
70968268,1000,1000,1000,1000,,,,,
70970767,1000,1000,1000,1000,,,,,
70973266,1000,1000,1000,1000,,,,,
70975765,1000,1000,1000,1000,,,,,
70978264,1000,1000,1000,1000,,,,,
70980763,1000,1000,1000,1000,,,,,
70983262,1000,1000,1000,1000,,,,,
70985761,1000,1000,1000,1000,,,,,
70988260,1000,1000,1000,1000,,,,,
70990759,1000,1000,1000,1000,,,,,
70993258,1000,1000,1000,1000,,,,,
70995757,1000,1000,1000,1000,,,,,
70998256,1000,1000,1000,1000,,,,,
71000755,1000,1000,1000,1000,,,,,
71003254,1000,1000,1000,1000,,,,,
71005753,1000,1000,1000,1000,,,,,
71008252,1000,1000,1000,1000,,,,,
71010751,1000,1000,1000,1000,,,,,
71013250,1000,1000,1000,1000,,,,,
71015749,1001,1001,1001,1001,,,,,
71018248,1002,1002,1002,1002,,,,,
71020747,1003,1003,1003,1003,,,,,
71023246,1003,1003,1003,1003,,,,,
71025745,1004,1004,1004,1004,,,,,
71028244,1005,1005,1005,1005,,,,,
71030743,1006,1006,1006,1006,,,,,
71033242,1006,1006,1006,1006,,,,,
71035741,1007,1007,1007,1007,,,,,
71038240,1008,1008,1008,1008,,,,,
71040739,1009,1009,1009,1009,,,,,
71043238,1009,1009,1009,1009,,,,,
71045737,1010,1010,1010,1010,,,,,
71048236,1011,1011,1011,1011,,,,,
71050735,1012,1012,1012,1012,,,,,
71053234,1012,1012,1012,1012,,,,,
71055733,1013,1013,1013,1013,,,,,
71058232,1014,1014,1014,1014,,,,,
71060731,1015,1015,1015,1015,,,,,
71063230,1015,1015,1015,1015,,,,,
71065729,1016,1016,1016,1016,,,,,
71068228,1017,1017,1017,1017,,,,,
71070727,1018,1018,1018,1018,,,,,
71073226,1018,1018,1018,1018,,,,,
71075725,1019,1019,1019,1019,,,,,
71078224,1020,1020,1020,1020,,,,,
71080723,1021,1021,1021,1021,,,,,
71083222,1021,1021,1021,1021,,,,,
71085721,1022,1022,1022,1022,,,,,
71088220,1023,1023,1023,1023,,,,,
71090719,1024,1024,1024,1024,,,,,
71093218,1024,1024,1024,1024,,,,,
71095717,1025,1025,1025,1025,,,,,
71098216,1026,1026,1026,1026,,,,,
71100715,1027,1027,1027,1027,,,,,
71103214,1027,1027,1027,1027,,,,,
71105713,1028,1028,1028,1028,,,,,
71108212,1029,1029,1029,1029,,,,,
71110711,1030,1030,1030,1030,,,,,
71113210,1030,1030,1030,1030,,,,,
71115709,1031,1031,1031,1031,,,,,
71118208,1032,1032,1032,1032,,,,,
71120707,1033,1033,1033,1033,,,,,
71123206,1033,1033,1033,1033,,,,,
71125705,1034,1034,1034,1034,,,,,
71128204,1035,1035,1035,1035,,,,,
71130703,1036,1036,1036,1036,,,,,
71133202,1036,1036,1036,1036,,,,,
71135701,1037,1037,1037,1037,,,,,
71138200,1038,1038,1038,1038,,,,,
71140699,1039,1039,1039,1039,,,,,
71143198,1039,1039,1039,1039,,,,,
71145697,1040,1040,1040,1040,,,,,
71148196,1041,1041,1041,1041,,,,,
71150695,1042,1042,1042,1042,,,,,
71153194,1042,1042,1042,1042,,,,,
71155693,1043,1043,1043,1043,,,,,
71158192,1044,1044,1044,1044,,,,,
71160691,1045,1045,1045,1045,,,,,
71163190,1045,1045,1045,1045,,,,,
71165689,1046,1046,1046,1046,,,,,
71168188,1047,1047,1047,1047,,,,,
71170687,1048,1048,1048,1048,,,,,
71173186,1048,1048,1048,1048,,,,,
71175685,1049,1049,1049,1049,,,,,
71178184,1050,1050,1050,1050,,,,,
71180683,1051,1051,1051,1051,,,,,
71183182,1051,1051,1051,1051,,,,,
71185681,1052,1052,1052,1052,,,,,
71188180,1053,1053,1053,1053,,,,,
71190679,1054,1054,1054,1054,,,,,
71193178,1054,1054,1054,1054,,,,,
71195677,1055,1055,1055,1055,,,,,
71198176,1056,1056,1056,1056,,,,,
71200675,1057,1057,1057,1057,,,,,
71203174,1057,1057,1057,1057,,,,,
71205673,1058,1058,1058,1058,,,,,
71208172,1059,1059,1059,1059,,,,,
71210671,1060,1060,1060,1060,,,,,
71213170,1060,1060,1060,1060,,,,,
71215669,1061,1061,1061,1061,,,,,
71218168,1062,1062,1062,1062,,,,,
71220667,1063,1063,1063,1063,,,,,
71223166,1063,1063,1063,1063,,,,,
71225665,1064,1064,1064,1064,,,,,
71228164,1065,1065,1065,1065,,,,,
71230663,1066,1066,1066,1066,,,,,
71233162,1066,1066,1066,1066,,,,,
71235661,1067,1067,1067,1067,,,,,
71238160,1068,1068,1068,1068,,,,,
71240659,1069,1069,1069,1069,,,,,
71243158,1069,1069,1069,1069,,,,,
71245657,1070,1070,1070,1070,,,,,
71248156,1071,1071,1071,1071,,,,,
71250655,1072,1072,1072,1072,,,,,
71253154,1072,1072,1072,1072,,,,,
71256486,1073,1073,1073,1073,,,,,
71258985,1074,1074,1074,1074,,,,,
71261484,1075,1075,1075,1075,,,,,
71263983,1075,1075,1075,1075,,,,,
71266482,1076,1076,1076,1076,,,,,
71268981,1077,1077,1077,1077,,,,,
71271480,1078,1078,1078,1078,,,,,
71273979,1078,1078,1078,1078,,,,,
71276478,1079,1079,1079,1079,,,,,
71278977,1080,1080,1080,1080,,,,,
71281476,1081,1081,1081,1081,,,,,
71283975,1081,1081,1081,1081,,,,,
71286474,1082,1082,1082,1082,,,,,
71288973,1083,1083,1083,1083,,,,,
71291472,1084,1084,1084,1084,,,,,
71293971,1084,1084,1084,1084,,,,,
71296470,1085,1085,1085,1085,,,,,
71298969,1086,1086,1086,1086,,,,,
71301468,1087,1087,1087,1087,,,,,
71303967,1087,1087,1087,1087,,,,,
71306466,1088,1088,1088,1088,,,,,
71308965,1089,1089,1089,1089,,,,,
71311464,1090,1090,1090,1090,,,,,
71313963,1090,1090,1090,1090,,,,,
71316462,1091,1091,1091,1091,,,,,
71318961,1092,1092,1092,1092,,,,,
71321460,1093,1093,1093,1093,,,,,
71323959,1093,1093,1093,1093,,,,,
71326458,1094,1094,1094,1094,,,,,
71328957,1095,1095,1095,1095,,,,,
71331456,1096,1096,1096,1096,,,,,
71333955,1096,1096,1096,1096,,,,,
71336454,1097,1097,1097,1097,,,,,
71338953,1098,1098,1098,1098,,,,,
71341452,1099,1099,1099,1099,,,,,
71343951,1099,1099,1099,1099,,,,,
71346450,1100,1100,1100,1100,,,,,
71348949,1101,1101,1101,1101,,,,,
71351448,1101,1101,1101,1101,,,,,
71353947,1102,1102,1102,1102,,,,,
71356446,1103,1103,1103,1103,,,,,
71358945,1104,1104,1104,1104,,,,,
71361444,1104,1104,1104,1104,,,,,
71363943,1105,1105,1105,1105,,,,,
71366442,1106,1106,1106,1106,,,,,
71368941,1107,1107,1107,1107,,,,,
71371440,1107,1107,1107,1107,,,,,
71373939,1108,1108,1108,1108,,,,,
71376438,1109,1109,1109,1109,,,,,
71378937,1110,1110,1110,1110,,,,,
71381436,1110,1110,1110,1110,,,,,
71383935,1111,1111,1111,1111,,,,,
71386434,1112,1112,1112,1112,,,,,
71388933,1113,1113,1113,1113,,,,,
71391432,1113,1113,1113,1113,,,,,
71393931,1114,1114,1114,1114,,,,,
71396430,1115,1115,1115,1115,,,,,
71398929,1116,1116,1116,1116,,,,,
71401428,1116,1116,1116,1116,,,,,
71403927,1117,1117,1117,1117,,,,,
71406426,1118,1118,1118,1118,,,,,
71408925,1119,1119,1119,1119,,,,,
71411424,1119,1119,1119,1119,,,,,
71413923,1120,1120,1120,1120,,,,,
71416422,1121,1121,1121,1121,,,,,
71418921,1122,1122,1122,1122,,,,,
71421420,1122,1122,1122,1122,,,,,
71423919,1123,1123,1123,1123,,,,,
71426418,1124,1124,1124,1124,,,,,
71428917,1125,1125,1125,1125,,,,,
71431416,1125,1125,1125,1125,,,,,
71433915,1126,1126,1126,1126,,,,,
71436414,1127,1127,1127,1127,,,,,
71438913,1128,1128,1128,1128,,,,,
71441412,1128,1128,1128,1128,,,,,
71443911,1129,1129,1129,1129,,,,,
71446410,1130,1130,1130,1130,,,,,
71448909,1131,1131,1131,1131,,,,,
71451408,1131,1131,1131,1131,,,,,
71453907,1132,1132,1132,1132,,,,,
71456406,1133,1133,1133,1133,,,,,
71458905,1134,1134,1134,1134,,,,,
71461404,1134,1134,1134,1134,,,,,
71463903,1135,1135,1135,1135,,,,,
71466402,1136,1136,1136,1136,,,,,
71468901,1137,1137,1137,1137,,,,,
71471400,1137,1137,1137,1137,,,,,
71473899,1138,1138,1138,1138,,,,,
71476398,1139,1139,1139,1139,,,,,
71478897,1140,1140,1140,1140,,,,,
71481396,1140,1140,1140,1140,,,,,
71483895,1141,1141,1141,1141,,,,,
71486394,1142,1142,1142,1142,,,,,
71488893,1143,1143,1143,1143,,,,,
71491392,1143,1143,1143,1143,,,,,
71493891,1144,1144,1144,1144,,,,,
71496390,1145,1145,1145,1145,,,,,
71498889,1146,1146,1146,1146,,,,,
71501388,1146,1146,1146,1146,,,,,
71503887,1147,1147,1147,1147,,,,,
71506386,1148,1148,1148,1148,,,,,
71508885,1149,1149,1149,1149,,,,,
71511384,1149,1149,1149,1149,,,,,
71513883,1150,1150,1150,1150,,,,,
71516382,1163,1151,1152,1164,,,,,
71518881,1171,1160,1160,1172,,,,,
71521380,1179,1167,1168,1180,,,,,
71523879,1187,1175,1176,1187,,,,,
71526378,1194,1183,1184,1195,,,,,
71528877,1202,1191,1191,1202,,,,,
71531376,1209,1198,1199,1210,,,,,
71533875,1216,1205,1206,1217,,,,,
71536374,1223,1213,1213,1224,,,,,
71538873,1230,1220,1220,1231,,,,,
71541372,1237,1227,1227,1238,,,,,
71543871,1244,1234,1234,1244,,,,,
71546370,1250,1240,1241,1251,,,,,
71548869,1257,1247,1248,1258,,,,,
71551368,1264,1254,1254,1264,,,,,
71553867,1270,1260,1261,1271,,,,,
71556366,1276,1267,1267,1277,,,,,
71558865,1283,1273,1274,1283,,,,,
71561364,1289,1279,1280,1289,,,,,
71563863,1295,1286,1286,1296,,,,,
71566362,1301,1292,1292,1302,,,,,
71568861,1307,1298,1298,1308,,,,,
71571360,1313,1304,1304,1313,,,,,
71573859,1319,1310,1310,1319,,,,,
71576358,1325,1316,1316,1325,,,,,
71578857,1330,1322,1322,1331,,,,,
71581356,1336,1327,1328,1337,,,,,
71583855,1342,1333,1334,1342,,,,,
71586354,1347,1339,1339,1348,,,,,
71588853,1353,1344,1345,1353,,,,,
71591352,1358,1350,1350,1359,,,,,
71593851,1364,1355,1356,1364,,,,,
71596350,1369,1361,1361,1369,,,,,
71598849,1374,1366,1367,1375,,,,,
71601348,1380,1372,1372,1380,,,,,
71603847,1385,1377,1377,1385,,,,,
71606346,1390,1382,1383,1391,,,,,
71608845,1395,1387,1388,1396,,,,,
71611344,1400,1392,1393,1401,,,,,
71613843,1406,1398,1398,1406,,,,,
71616342,1411,1403,1403,1411,,,,,
71618841,1416,1408,1408,1416,,,,,
71621340,1421,1413,1413,1421,,,,,
71623839,1426,1418,1418,1426,,,,,
71626338,1430,1423,1423,1431,,,,,
71628837,1435,1428,1428,1436,,,,,
71631336,1440,1432,1433,1440,,,,,
71633835,1445,1437,1438,1445,,,,,
71636334,1450,1442,1443,1450,,,,,
71638833,1454,1447,1447,1455,,,,,
71641332,1459,1452,1452,1459,,,,,
71643831,1464,1456,1457,1464,,,,,
71646330,1468,1461,1462,1469,,,,,
71648829,1473,1466,1466,1473,,,,,
71651328,1478,1470,1471,1478,,,,,
71653827,1482,1475,1475,1483,,,,,
71656326,1487,1479,1480,1487,,,,,
71658825,1491,1484,1484,1492,,,,,
71661324,1496,1488,1489,1496,,,,,
71663823,1500,1493,1493,1500,,,,,
71666322,1505,1497,1498,1505,,,,,
71668821,1509,1502,1502,1509,,,,,
71671320,1513,1506,1507,1514,,,,,
71673819,1518,1510,1511,1518,,,,,
71676318,1522,1515,1515,1522,,,,,
71678817,1526,1519,1520,1527,,,,,
71681316,1530,1523,1524,1531,,,,,
71683815,1535,1528,1528,1535,,,,,
71686314,1539,1532,1532,1539,,,,,
71688813,1543,1536,1537,1544,,,,,
71691312,1547,1540,1541,1548,,,,,
71693811,1551,1545,1545,1552,,,,,
71696310,1556,1549,1549,1556,,,,,
71698809,1560,1553,1553,1560,,,,,
71701308,1564,1557,1557,1564,,,,,
71703807,1568,1561,1561,1568,,,,,
71706306,1572,1565,1566,1572,,,,,
71708805,1576,1569,1570,1576,,,,,
71711304,1580,1573,1574,1580,,,,,
71713803,1584,1577,1578,1584,,,,,
71716302,1588,1581,1582,1588,,,,,
71718801,1592,1585,1586,1592,,,,,
71721300,1596,1589,1589,1596,,,,,
71723799,1600,1593,1593,1600,,,,,
71726298,1604,1597,1597,1604,,,,,
71728797,1608,1601,1601,1608,,,,,
71731296,1611,1605,1605,1612,,,,,
71733795,1615,1609,1609,1616,,,,,
71736294,1619,1612,1613,1620,,,,,
71738793,1623,1616,1617,1623,,,,,
71741292,1627,1620,1620,1627,,,,,
71743791,1631,1624,1624,1631,,,,,
71746290,1634,1628,1628,1635,,,,,
71748789,1638,1631,1632,1639,,,,,
71751288,1642,1635,1635,1642,,,,,
71753787,1646,1639,1639,1646,,,,,
71756286,1649,1643,1643,1650,,,,,
71758785,1653,1646,1647,1653,,,,,
71761284,1657,1650,1650,1657,,,,,
71763783,1660,1654,1654,1661,,,,,
71766282,1664,1657,1658,1665,,,,,
71768781,1668,1661,1661,1668,,,,,
71771280,1671,1665,1665,1672,,,,,
71773779,1675,1668,1668,1675,,,,,
71776278,1678,1672,1672,1679,,,,,
71778777,1682,1675,1676,1683,,,,,
71781276,1685,1679,1679,1686,,,,,
71783775,1689,1683,1683,1690,,,,,
71786274,1693,1686,1686,1693,,,,,
71788773,1696,1690,1690,1697,,,,,
71791272,1700,1693,1693,1700,,,,,
71793771,1703,1697,1697,1704,,,,,
71796270,1707,1700,1700,1707,,,,,
71798769,1710,1704,1704,1711,,,,,
71801268,1713,1707,1707,1714,,,,,
71803767,1717,1711,1711,1718,,,,,
71806266,1720,1714,1714,1721,,,,,
71808765,1724,1717,1718,1724,,,,,
71811264,1727,1721,1721,1728,,,,,
71813763,1731,1724,1724,1731,,,,,
71816262,1734,1728,1728,1735,,,,,
71818761,1737,1731,1731,1738,,,,,
71821260,1741,1734,1735,1741,,,,,
71823759,1744,1738,1738,1745,,,,,
71826258,1747,1741,1741,1748,,,,,
71828757,1751,1744,1745,1751,,,,,
71831256,1754,1748,1748,1754,,,,,
71833755,1757,1751,1751,1758,,,,,
71836254,1761,1754,1755,1761,,,,,
71838753,1764,1758,1758,1764,,,,,
71841252,1767,1761,1761,1768,,,,,
71843751,1770,1764,1764,1771,,,,,
71846250,1774,1767,1768,1774,,,,,
71848749,1777,1771,1771,1777,,,,,
71851248,1780,1774,1774,1781,,,,,
71853747,1783,1777,1777,1784,,,,,
71856246,1787,1780,1781,1787,,,,,
71858745,1790,1784,1784,1790,,,,,
71861244,1793,1787,1787,1793,,,,,
71863743,1796,1790,1790,1797,,,,,
71866242,1799,1793,1794,1800,,,,,
71868741,1803,1796,1797,1803,,,,,
71871240,1806,1799,1800,1806,,,,,
71873739,1809,1803,1803,1809,,,,,
71876238,1812,1806,1806,1812,,,,,
71878737,1815,1809,1809,1815,,,,,
71881236,1818,1812,1812,1818,,,,,
71883735,1821,1815,1816,1822,,,,,
71886234,1824,1818,1819,1825,,,,,
71888733,1828,1821,1822,1828,,,,,
71891232,1831,1824,1825,1831,,,,,
71893731,1834,1827,1828,1834,,,,,
71896230,1837,1830,1831,1837,,,,,
71898729,1840,1833,1834,1840,,,,,
71901228,1843,1837,1837,1843,,,,,
71903727,1846,1840,1840,1846,,,,,
71906226,1849,1843,1843,1849,,,,,
71908725,1852,1846,1846,1852,,,,,
71911224,1855,1849,1849,1855,,,,,
71913723,1858,1852,1852,1858,,,,,
71916222,1861,1855,1855,1861,,,,,
71918721,1864,1858,1858,1864,,,,,
71921220,1867,1861,1861,1867,,,,,
71923719,1870,1864,1864,1870,,,,,
71926218,1873,1867,1867,1873,,,,,
71928717,1876,1870,1870,1876,,,,,
71931216,1879,1872,1873,1879,,,,,
71933715,1882,1875,1876,1882,,,,,
71936214,1885,1878,1879,1885,,,,,
71938713,1888,1881,1882,1888,,,,,
71941212,1891,1884,1885,1891,,,,,
71943711,1894,1887,1888,1894,,,,,
71946210,1896,1890,1890,1897,,,,,
71948709,1899,1893,1893,1900,,,,,
71951208,1902,1896,1896,1903,,,,,
71953707,1905,1899,1899,1905,,,,,
71956206,1908,1902,1902,1908,,,,,
71958705,1911,1904,1905,1911,,,,,
71961204,1914,1907,1908,1914,,,,,
71963703,1917,1910,1911,1917,,,,,
71966202,1919,1913,1913,1920,,,,,
71968701,1922,1916,1916,1923,,,,,
71971200,1925,1919,1919,1925,,,,,
71973699,1928,1921,1922,1928,,,,,
71976198,1927,1921,1921,1927,,,,,
71978697,1926,1920,1920,1927,,,,,
71981196,1925,1919,1919,1926,,,,,
71983695,1925,1919,1919,1925,,,,,
71986194,1924,1918,1918,1925,,,,,
71988693,1924,1917,1918,1924,,,,,
71991192,1923,1917,1917,1924,,,,,
71993691,1923,1916,1916,1923,,,,,
71996190,1922,1916,1916,1923,,,,,
71998689,1922,1915,1916,1922,,,,,
72001188,1921,1915,1915,1922,,,,,
72003687,1921,1915,1915,1921,,,,,
72006186,1920,1914,1914,1921,,,,,
72008685,1920,1914,1914,1920,,,,,
72011184,1919,1914,1914,1920,,,,,
72013683,1919,1914,1914,1919,,,,,
72016182,1918,1913,1913,1919,,,,,
72018681,1917,1913,1913,1918,,,,,
72021180,1917,1912,1912,1917,,,,,
72023679,1916,1911,1912,1916,,,,,
72026178,1915,1911,1911,1915,,,,,
72028677,1914,1910,1910,1914,,,,,
72031176,1912,1909,1909,1913,,,,,
72033675,1911,1907,1908,1912,,,,,
72036174,1910,1906,1906,1910,,,,,
72038673,1908,1905,1905,1909,,,,,
72041172,1906,1903,1903,1907,,,,,
72043671,1905,1901,1901,1905,,,,,
72046170,1903,1899,1900,1903,,,,,
72048669,1901,1897,1898,1901,,,,,
72051168,1899,1895,1896,1899,,,,,
72053667,1896,1893,1893,1897,,,,,
72056166,1894,1891,1891,1895,,,,,
72058665,1892,1889,1889,1892,,,,,
72061164,1889,1886,1886,1890,,,,,
72063663,1887,1884,1884,1887,,,,,
72066162,1884,1881,1881,1884,,,,,
72068661,1881,1878,1879,1882,,,,,
72071160,1878,1876,1876,1879,,,,,
72073659,1876,1873,1873,1876,,,,,
72076158,1873,1870,1870,1873,,,,,
72078657,1870,1867,1867,1870,,,,,
72081156,1867,1864,1865,1867,,,,,
72083655,1864,1861,1862,1864,,,,,
72086154,1861,1858,1858,1861,,,,,
72088653,1857,1855,1855,1858,,,,,
72091152,1854,1852,1852,1855,,,,,
72093651,1851,1849,1849,1851,,,,,
72096150,1848,1845,1846,1848,,,,,
72098649,1844,1842,1843,1845,,,,,
72101148,1841,1839,1839,1841,,,,,
72103647,1838,1836,1836,1838,,,,,
72106146,1834,1832,1833,1835,,,,,
72108645,1831,1829,1829,1831,,,,,
72111144,1828,1826,1826,1828,,,,,
72113643,1824,1822,1823,1825,,,,,
72116142,1821,1819,1819,1821,,,,,
72118641,1818,1816,1816,1818,,,,,
72121140,1814,1812,1813,1814,,,,,
72123639,1811,1809,1809,1811,,,,,
72126138,1808,1806,1806,1808,,,,,
72128637,1804,1802,1803,1804,,,,,
72131136,1801,1799,1800,1801,,,,,
72133635,1798,1796,1796,1798,,,,,
72136134,1794,1792,1793,1794,,,,,
72138633,1791,1789,1790,1791,,,,,
72141132,1788,1786,1786,1788,,,,,
72143631,1784,1783,1783,1785,,,,,
72146130,1781,1780,1780,1781,,,,,
72148629,1778,1776,1777,1778,,,,,
72151128,1775,1773,1774,1775,,,,,
72153627,1771,1770,1771,1772,,,,,
72156126,1768,1767,1768,1768,,,,,
72158625,1765,1764,1764,1765,,,,,
72161124,1762,1761,1761,1762,,,,,
72163623,1759,1758,1758,1759,,,,,
72166122,1756,1755,1755,1756,,,,,
72168621,1753,1752,1753,1753,,,,,
72171120,1750,1749,1750,1750,,,,,
72173619,1747,1746,1747,1747,,,,,
72176118,1744,1744,1744,1744,,,,,
72178617,1741,1741,1741,1741,,,,,
72181116,1738,1738,1739,1739,,,,,
72183615,1736,1735,1736,1736,,,,,
72186114,1733,1733,1733,1733,,,,,
