timestamp,TimeUS,C1,C2,C3,C4,C5,C6,C7,C8,C9,C10,C11,C12,C13,C14
1683187932.40000010,55428653,1000,1000,1000,1000,0,0,0,0,0,0,0,0,0,0
1683187932.49996018,55528613,1000,1000,1000,1000,0,0,0,0,0,0,0,0,0,0
1683187932.59992003,55628573,1000,1000,1000,1000,0,0,0,0,0,0,0,0,0,0
1683187932.69988012,55728533,1000,1000,1000,1000,0,0,0,0,0,0,0,0,0,0
1683187932.79984021,55828493,1000,1000,1000,1000,0,0,0,0,0,0,0,0,0,0
1683187932.89980006,55928453,1000,1000,1000,1000,0,0,0,0,0,0,0,0,0,0
1683187932.99976015,56028413,1000,1000,1000,1000,0,0,0,0,0,0,0,0,0,0
1683187933.09972000,56128373,1000,1000,1000,1000,0,0,0,0,0,0,0,0,0,0
1683187933.19968009,56228333,1000,1000,1000,1000,0,0,0,0,0,0,0,0,0,0
1683187933.29964018,56328293,1000,1000,1000,1000,0,0,0,0,0,0,0,0,0,0
1683187933.39960003,56428253,1000,1000,1000,1000,0,0,0,0,0,0,0,0,0,0
1683187933.49956012,56528213,1000,1000,1000,1000,0,0,0,0,0,0,0,0,0,0
1683187933.59952021,56628173,1000,1000,1000,1000,0,0,0,0,0,0,0,0,0,0
1683187933.70031309,56728966,1000,1000,1000,1000,0,0,0,0,0,0,0,0,0,0
1683187933.80027318,56828926,1000,1000,1000,1000,0,0,0,0,0,0,0,0,0,0
1683187933.90023303,56928886,1000,1000,1000,1000,0,0,0,0,0,0,0,0,0,0
1683187934.00019312,57028846,1000,1000,1000,1000,0,0,0,0,0,0,0,0,0,0
1683187934.10015321,57128806,1000,1000,1000,1000,0,0,0,0,0,0,0,0,0,0
1683187934.20011306,57228766,1000,1000,1000,1000,0,0,0,0,0,0,0,0,0,0
1683187934.30007315,57328726,1000,1000,1000,1000,0,0,0,0,0,0,0,0,0,0
1683187934.40003300,57428686,1014,1014,1014,1014,0,0,0,0,0,0,0,0,0,0
1683187934.49999309,57528646,1044,1044,1044,1044,0,0,0,0,0,0,0,0,0,0
1683187934.59995317,57628606,1074,1074,1074,1074,0,0,0,0,0,0,0,0,0,0
1683187934.69991302,57728566,1104,1104,1104,1104,0,0,0,0,0,0,0,0,0,0
1683187934.79987311,57828526,1134,1134,1134,1134,0,0,0,0,0,0,0,0,0,0
1683187934.89983320,57928486,1282,1274,1275,1282,0,0,0,0,0,0,0,0,0,0
1683187934.99979305,58028446,1490,1485,1485,1491,0,0,0,0,0,0,0,0,0,0
1683187935.09975314,58128406,1652,1647,1648,1652,0,0,0,0,0,0,0,0,0,0
1683187935.19971299,58228366,1789,1784,1785,1789,0,0,0,0,0,0,0,0,0,0
1683187935.29967308,58328326,1848,1842,1843,1848,0,0,0,0,0,0,0,0,0,0
1683187935.39963317,58428286,1857,1854,1855,1858,0,0,0,0,0,0,0,0,0,0
1683187935.49959302,58528246,1740,1739,1739,1741,0,0,0,0,0,0,0,0,0,0
1683187935.59955311,58628206,1639,1640,1641,1639,0,0,0,0,0,0,0,0,0,0
1683187935.69951320,58728166,1611,1614,1614,1611,0,0,0,0,0,0,0,0,0,0
1683187935.80030608,58828959,1624,1626,1626,1624,0,0,0,0,0,0,0,0,0,0
1683187935.90026617,58928919,1632,1631,1629,1634,0,0,0,0,0,0,0,0,0,0
1683187936.00022602,59028879,1630,1632,1625,1637,0,0,0,0,0,0,0,0,0,0
1683187936.10018611,59128839,1624,1625,1620,1628,0,0,0,0,0,0,0,0,0,0
1683187936.20014620,59228799,1619,1620,1619,1620,0,0,0,0,0,0,0,0,0,0
1683187936.30010605,59328759,1618,1618,1620,1616,0,0,0,0,0,0,0,0,0,0
1683187936.40006614,59428719,1618,1618,1622,1614,0,0,0,0,0,0,0,0,0,0
1683187936.50002599,59528679,1622,1621,1625,1618,0,0,0,0,0,0,0,0,0,0
1683187936.59998608,59628639,1623,1622,1626,1620,0,0,0,0,0,0,0,0,0,0
1683187936.69994617,59728599,1620,1619,1621,1618,0,0,0,0,0,0,0,0,0,0
1683187936.79990602,59828559,1589,1588,1597,1580,0,0,0,0,0,0,0,0,0,0
1683187936.89986610,59928519,1575,1576,1581,1571,0,0,0,0,0,0,0,0,0,0
1683187936.99982619,60028479,1564,1565,1564,1565,0,0,0,0,0,0,0,0,0,0
1683187937.09978604,60128439,1554,1554,1549,1559,0,0,0,0,0,0,0,0,0,0
1683187937.19974613,60228399,1547,1547,1537,1557,0,0,0,0,0,0,0,0,0,0
1683187937.29970598,60328359,1541,1540,1531,1549,0,0,0,0,0,0,0,0,0,0
1683187937.39966607,60428319,1535,1534,1529,1539,0,0,0,0,0,0,0,0,0,0
1683187937.49962616,60528279,1529,1528,1527,1529,0,0,0,0,0,0,0,0,0,0
1683187937.59958601,60628239,1527,1527,1528,1526,0,0,0,0,0,0,0,0,0,0
1683187937.69954610,60728199,1529,1529,1531,1526,0,0,0,0,0,0,0,0,0,0
1683187937.79950619,60828159,1531,1531,1534,1528,0,0,0,0,0,0,0,0,0,0
1683187937.90029907,60928952,1535,1536,1539,1533,0,0,0,0,0,0,0,0,0,0
1683187938.00025916,61028912,1538,1539,1541,1536,0,0,0,0,0,0,0,0,0,0
1683187938.10021901,61128872,1542,1542,1543,1541,0,0,0,0,0,0,0,0,0,0
1683187938.20017910,61228832,1545,1545,1546,1545,0,0,0,0,0,0,0,0,0,0
1683187938.30013919,61328792,1548,1548,1548,1549,0,0,0,0,0,0,0,0,0,0
1683187938.40009904,61428752,1549,1549,1548,1550,0,0,0,0,0,0,0,0,0,0
1683187938.50005913,61528712,1553,1552,1551,1554,0,0,0,0,0,0,0,0,0,0
1683187938.60001898,61628672,1554,1554,1554,1557,0,0,0,0,0,0,0,0,0,0
1683187938.69997907,61728632,1556,1556,1559,1561,0,0,0,0,0,0,0,0,0,0
1683187938.79993916,61828592,1557,1558,1562,1563,0,0,0,0,0,0,0,0,0,0
1683187938.89989901,61928552,1559,1560,1564,1564,0,0,0,0,0,0,0,0,0,0
1683187938.99985909,62028512,1561,1562,1566,1565,0,0,0,0,0,0,0,0,0,0
1683187939.09981918,62128472,1565,1565,1568,1567,0,0,0,0,0,0,0,0,0,0
1683187939.19977903,62228432,1566,1567,1568,1567,0,0,0,0,0,0,0,0,0,0
1683187939.29973912,62328392,1568,1568,1568,1568,0,0,0,0,0,0,0,0,0,0
1683187939.39969921,62428352,1569,1569,1567,1568,0,0,0,0,0,0,0,0,0,0
1683187939.49965906,62528312,1570,1571,1567,1568,0,0,0,0,0,0,0,0,0,0
1683187939.59961915,62628272,1571,1572,1568,1568,0,0,0,0,0,0,0,0,0,0
1683187939.69957900,62728232,1572,1573,1569,1569,0,0,0,0,0,0,0,0,0,0
1683187939.79953909,62828192,1574,1574,1570,1571,0,0,0,0,0,0,0,0,0,0
1683187939.90033221,62928985,1574,1574,1571,1571,0,0,0,0,0,0,0,0,0,0
1683187940.00029206,63028945,1575,1575,1574,1572,0,0,0,0,0,0,0,0,0,0
1683187940.10025215,63128905,1575,1575,1574,1572,0,0,0,0,0,0,0,0,0,0
1683187940.20021200,63228865,1575,1575,1574,1573,0,0,0,0,0,0,0,0,0,0
1683187940.30017209,63328825,1575,1575,1575,1575,0,0,0,0,0,0,0,0,0,0
1683187940.40013218,63428785,1575,1575,1575,1575,0,0,0,0,0,0,0,0,0,0
1683187940.50009203,63528745,1574,1575,1575,1575,0,0,0,0,0,0,0,0,0,0
1683187940.60005212,63628705,1575,1575,1576,1576,0,0,0,0,0,0,0,0,0,0
1683187940.70001221,63728665,1576,1576,1577,1577,0,0,0,0,0,0,0,0,0,0
1683187940.79997206,63828625,1576,1576,1577,1577,0,0,0,0,0,0,0,0,0,0
1683187940.89993215,63928585,1577,1576,1577,1577,0,0,0,0,0,0,0,0,0,0
1683187940.99989200,64028545,1577,1577,1578,1577,0,0,0,0,0,0,0,0,0,0
1683187941.09985209,64128505,1577,1577,1577,1577,0,0,0,0,0,0,0,0,0,0
1683187941.19981217,64228465,1576,1577,1576,1577,0,0,0,0,0,0,0,0,0,0
1683187941.29977202,64328425,1577,1577,1577,1577,0,0,0,0,0,0,0,0,0,0
1683187941.39973211,64428385,1577,1577,1577,1576,0,0,0,0,0,0,0,0,0,0
1683187941.49969220,64528345,1578,1577,1577,1577,0,0,0,0,0,0,0,0,0,0
1683187941.59965205,64628305,1577,1578,1577,1577,0,0,0,0,0,0,0,0,0,0
1683187941.69961214,64728265,1578,1578,1578,1578,0,0,0,0,0,0,0,0,0,0
1683187941.79957199,64828225,1578,1578,1578,1578,0,0,0,0,0,0,0,0,0,0
1683187941.89953208,64928185,1578,1578,1578,1578,0,0,0,0,0,0,0,0,0,0
1683187942.00032520,65028978,1578,1578,1578,1578,0,0,0,0,0,0,0,0,0,0
1683187942.10028505,65128938,1579,1579,1579,1579,0,0,0,0,0,0,0,0,0,0
1683187942.20024514,65228898,1579,1578,1579,1579,0,0,0,0,0,0,0,0,0,0
1683187942.30020499,65328858,1579,1579,1579,1580,0,0,0,0,0,0,0,0,0,0
1683187942.40016508,65428818,1580,1579,1580,1580,0,0,0,0,0,0,0,0,0,0
1683187942.50012517,65528778,1579,1579,1579,1580,0,0,0,0,0,0,0,0,0,0
1683187942.60008502,65628738,1578,1578,1578,1578,0,0,0,0,0,0,0,0,0,0
1683187942.70004511,65728698,1579,1579,1579,1580,0,0,0,0,0,0,0,0,0,0
1683187942.80000520,65828658,1578,1578,1578,1578,0,0,0,0,0,0,0,0,0,0
1683187942.89996505,65928618,1579,1580,1580,1579,0,0,0,0,0,0,0,0,0,0
1683187942.99992514,66028578,1580,1580,1580,1579,0,0,0,0,0,0,0,0,0,0
1683187943.09988499,66128538,1580,1579,1580,1579,0,0,0,0,0,0,0,0,0,0
1683187943.19984508,66228498,1580,1580,1580,1580,0,0,0,0,0,0,0,0,0,0
1683187943.29980516,66328458,1580,1580,1580,1580,0,0,0,0,0,0,0,0,0,0
1683187943.39976501,66428418,1580,1580,1581,1580,0,0,0,0,0,0,0,0,0,0
1683187943.49972510,66528378,1580,1580,1580,1581,0,0,0,0,0,0,0,0,0,0
1683187943.59968519,66628338,1580,1581,1580,1580,0,0,0,0,0,0,0,0,0,0
1683187943.69964504,66728298,1580,1580,1580,1581,0,0,0,0,0,0,0,0,0,0
1683187943.79960513,66828258,1580,1580,1580,1581,0,0,0,0,0,0,0,0,0,0
1683187943.89956498,66928218,1581,1581,1581,1581,0,0,0,0,0,0,0,0,0,0
1683187943.99952507,67028178,1581,1581,1581,1581,0,0,0,0,0,0,0,0,0,0
1683187944.10031819,67128971,1582,1582,1582,1582,0,0,0,0,0,0,0,0,0,0
1683187944.20027804,67228931,1581,1581,1582,1581,0,0,0,0,0,0,0,0,0,0
1683187944.30023813,67328891,1581,1581,1581,1581,0,0,0,0,0,0,0,0,0,0
1683187944.40019798,67428851,1581,1581,1581,1581,0,0,0,0,0,0,0,0,0,0
1683187944.50015807,67528811,1582,1581,1581,1581,0,0,0,0,0,0,0,0,0,0
1683187944.60011816,67628771,1581,1581,1581,1581,0,0,0,0,0,0,0,0,0,0
1683187944.70007801,67728731,1581,1581,1581,1581,0,0,0,0,0,0,0,0,0,0
1683187944.80003810,67828691,1583,1583,1588,1577,0,0,0,0,0,0,0,0,0,0
1683187944.89999819,67928651,1582,1583,1588,1573,0,0,0,0,0,0,0,0,0,0
1683187944.99995804,68028611,1580,1584,1581,1575,0,0,0,0,0,0,0,0,0,0
1683187945.09991813,68128571,1578,1582,1571,1573,0,0,0,0,0,0,0,0,0,0
1683187945.19987798,68228531,1577,1580,1564,1571,0,0,0,0,0,0,0,0,0,0
1683187945.29983807,68328491,1578,1578,1558,1565,0,0,0,0,0,0,0,0,0,0
1683187945.39979815,68428451,1579,1578,1556,1560,0,0,0,0,0,0,0,0,0,0
1683187945.49975801,68528411,1580,1578,1556,1558,0,0,0,0,0,0,0,0,0,0
1683187945.59971809,68628371,1580,1578,1556,1555,0,0,0,0,0,0,0,0,0,0
1683187945.69967818,68728331,1579,1578,1557,1554,0,0,0,0,0,0,0,0,0,0
1683187945.79963803,68828291,1577,1577,1556,1553,0,0,0,0,0,0,0,0,0,0
1683187945.89959812,68928251,1575,1577,1555,1553,0,0,0,0,0,0,0,0,0,0
1683187945.99955821,69028211,1575,1577,1555,1554,0,0,0,0,0,0,0,0,0,0
1683187946.09951806,69128171,1575,1576,1553,1554,0,0,0,0,0,0,0,0,0,0
1683187946.20031118,69228964,1575,1576,1552,1553,0,0,0,0,0,0,0,0,0,0
1683187946.30027103,69328924,1576,1578,1551,1551,0,0,0,0,0,0,0,0,0,0
1683187946.40023112,69428884,1578,1579,1549,1549,0,0,0,0,0,0,0,0,0,0
1683187946.50019121,69528844,1581,1581,1547,1546,0,0,0,0,0,0,0,0,0,0
1683187946.60015106,69628804,1583,1583,1543,1543,0,0,0,0,0,0,0,0,0,0
1683187946.70011115,69728764,1586,1587,1541,1541,0,0,0,0,0,0,0,0,0,0
1683187946.80007100,69828724,1589,1590,1538,1537,0,0,0,0,0,0,0,0,0,0
1683187946.90003109,69928684,1592,1592,1536,1536,0,0,0,0,0,0,0,0,0,0
1683187946.99999118,70028644,1594,1594,1533,1535,0,0,0,0,0,0,0,0,0,0
1683187947.09995103,70128604,1595,1594,1533,1535,0,0,0,0,0,0,0,0,0,0
1683187947.19991112,70228564,1595,1595,1535,1537,0,0,0,0,0,0,0,0,0,0
1683187947.29987121,70328524,1593,1593,1537,1540,0,0,0,0,0,0,0,0,0,0
1683187947.39983106,70428484,1591,1590,1542,1545,0,0,0,0,0,0,0,0,0,0
1683187947.49979115,70528444,1585,1583,1549,1552,0,0,0,0,0,0,0,0,0,0
1683187947.59975100,70628404,1578,1575,1559,1562,0,0,0,0,0,0,0,0,0,0
1683187947.69971108,70728364,1568,1564,1570,1573,0,0,0,0,0,0,0,0,0,0
1683187947.79967117,70828324,1557,1553,1583,1584,0,0,0,0,0,0,0,0,0,0
1683187947.89963102,70928284,1546,1543,1595,1595,0,0,0,0,0,0,0,0,0,0
1683187947.99959111,71028244,1537,1536,1605,1604,0,0,0,0,0,0,0,0,0,0
1683187948.09955120,71128204,1530,1530,1612,1610,0,0,0,0,0,0,0,0,0,0
1683187948.19951105,71228164,1529,1530,1616,1615,0,0,0,0,0,0,0,0,0,0
1683187948.30030417,71328957,1530,1533,1616,1615,0,0,0,0,0,0,0,0,0,0
1683187948.40026402,71428917,1535,1538,1612,1612,0,0,0,0,0,0,0,0,0,0
1683187948.50022411,71528877,1542,1544,1606,1607,0,0,0,0,0,0,0,0,0,0
1683187948.60018420,71628837,1550,1552,1599,1599,0,0,0,0,0,0,0,0,0,0
1683187948.70014405,71728797,1560,1561,1592,1592,0,0,0,0,0,0,0,0,0,0
1683187948.80010414,71828757,1568,1568,1584,1583,0,0,0,0,0,0,0,0,0,0
1683187948.90006399,71928717,1576,1576,1578,1577,0,0,0,0,0,0,0,0,0,0
1683187949.00002408,72028677,1582,1581,1573,1572,0,0,0,0,0,0,0,0,0,0
1683187949.09998417,72128637,1586,1584,1568,1568,0,0,0,0,0,0,0,0,0,0
1683187949.19994402,72228597,1588,1586,1566,1566,0,0,0,0,0,0,0,0,0,0
1683187949.29990411,72328557,1588,1587,1566,1566,0,0,0,0,0,0,0,0,0,0
1683187949.39986420,72428517,1586,1585,1567,1567,0,0,0,0,0,0,0,0,0,0
1683187949.49982405,72528477,1584,1583,1569,1569,0,0,0,0,0,0,0,0,0,0
1683187949.59978414,72628437,1581,1582,1573,1573,0,0,0,0,0,0,0,0,0,0
1683187949.69974399,72728397,1579,1579,1575,1576,0,0,0,0,0,0,0,0,0,0
1683187949.79970407,72828357,1576,1576,1578,1578,0,0,0,0,0,0,0,0,0,0
1683187949.89966416,72928317,1574,1575,1581,1581,0,0,0,0,0,0,0,0,0,0
1683187949.99962401,73028277,1572,1573,1582,1582,0,0,0,0,0,0,0,0,0,0
1683187950.09958410,73128237,1572,1572,1583,1583,0,0,0,0,0,0,0,0,0,0
1683187950.19954419,73228197,1571,1572,1583,1583,0,0,0,0,0,0,0,0,0,0
1683187950.29950404,73328157,1572,1573,1583,1583,0,0,0,0,0,0,0,0,0,0
1683187950.40029716,73428950,1572,1573,1581,1581,0,0,0,0,0,0,0,0,0,0
1683187950.50025702,73528910,1575,1576,1581,1582,0,0,0,0,0,0,0,0,0,0
1683187950.60021710,73628870,1576,1576,1580,1580,0,0,0,0,0,0,0,0,0,0
1683187950.70017719,73728830,1578,1578,1579,1579,0,0,0,0,0,0,0,0,0,0
1683187950.80013704,73828790,1579,1579,1578,1578,0,0,0,0,0,0,0,0,0,0
1683187950.90009713,73928750,1581,1581,1578,1578,0,0,0,0,0,0,0,0,0,0
1683187951.00005698,74028710,1581,1581,1577,1577,0,0,0,0,0,0,0,0,0,0
1683187951.10001707,74128670,1581,1581,1576,1577,0,0,0,0,0,0,0,0,0,0
1683187951.19997716,74228630,1581,1581,1577,1577,0,0,0,0,0,0,0,0,0,0
1683187951.29993701,74328590,1582,1581,1577,1578,0,0,0,0,0,0,0,0,0,0
1683187951.39989710,74428550,1581,1581,1578,1578,0,0,0,0,0,0,0,0,0,0
1683187951.49985719,74528510,1581,1581,1579,1579,0,0,0,0,0,0,0,0,0,0
1683187951.59981704,74628470,1581,1581,1580,1580,0,0,0,0,0,0,0,0,0,0
1683187951.69977713,74728430,1580,1580,1581,1580,0,0,0,0,0,0,0,0,0,0
1683187951.79973698,74828390,1579,1580,1580,1581,0,0,0,0,0,0,0,0,0,0
1683187951.89969707,74928350,1579,1579,1580,1580,0,0,0,0,0,0,0,0,0,0
1683187951.99965715,75028310,1579,1579,1581,1581,0,0,0,0,0,0,0,0,0,0
1683187952.09961700,75128270,1579,1579,1581,1580,0,0,0,0,0,0,0,0,0,0
1683187952.19957709,75228230,1579,1579,1581,1581,0,0,0,0,0,0,0,0,0,0
1683187952.29953718,75328190,1578,1578,1580,1579,0,0,0,0,0,0,0,0,0,0
1683187952.40033007,75428983,1580,1579,1580,1580,0,0,0,0,0,0,0,0,0,0
1683187952.50029016,75528943,1580,1581,1581,1581,0,0,0,0,0,0,0,0,0,0
1683187952.60025001,75628903,1581,1581,1581,1580,0,0,0,0,0,0,0,0,0,0
1683187952.70021009,75728863,1580,1580,1580,1580,0,0,0,0,0,0,0,0,0,0
1683187952.80017018,75828823,1581,1582,1584,1577,0,0,0,0,0,0,0,0,0,0
1683187952.90013003,75928783,1581,1584,1586,1571,0,0,0,0,0,0,0,0,0,0
1683187953.00009012,76028743,1581,1584,1579,1571,0,0,0,0,0,0,0,0,0,0
1683187953.10005021,76128703,1580,1582,1569,1570,0,0,0,0,0,0,0,0,0,0
1683187953.20001006,76228663,1580,1582,1562,1568,0,0,0,0,0,0,0,0,0,0
1683187953.29997015,76328623,1580,1580,1556,1563,0,0,0,0,0,0,0,0,0,0
1683187953.39993000,76428583,1581,1581,1554,1559,0,0,0,0,0,0,0,0,0,0
1683187953.49989009,76528543,1582,1580,1553,1555,0,0,0,0,0,0,0,0,0,0
1683187953.59985018,76628503,1582,1581,1553,1553,0,0,0,0,0,0,0,0,0,0
1683187953.69981003,76728463,1580,1580,1554,1552,0,0,0,0,0,0,0,0,0,0
1683187953.79977012,76828423,1579,1579,1554,1552,0,0,0,0,0,0,0,0,0,0
1683187953.89973021,76928383,1578,1579,1554,1553,0,0,0,0,0,0,0,0,0,0
1683187953.99969006,77028343,1576,1578,1553,1553,0,0,0,0,0,0,0,0,0,0
1683187954.09965014,77128303,1576,1578,1553,1554,0,0,0,0,0,0,0,0,0,0
1683187954.19960999,77228263,1577,1579,1553,1553,0,0,0,0,0,0,0,0,0,0
1683187954.29957008,77328223,1578,1579,1552,1552,0,0,0,0,0,0,0,0,0,0
1683187954.39953017,77428183,1579,1579,1549,1549,0,0,0,0,0,0,0,0,0,0
1683187954.50032306,77528976,1581,1582,1548,1548,0,0,0,0,0,0,0,0,0,0
1683187954.60028315,77628936,1583,1584,1546,1546,0,0,0,0,0,0,0,0,0,0
1683187954.70024300,77728896,1585,1586,1544,1544,0,0,0,0,0,0,0,0,0,0
1683187954.80020308,77828856,1588,1589,1543,1543,0,0,0,0,0,0,0,0,0,0
1683187954.90016317,77928816,1589,1590,1540,1541,0,0,0,0,0,0,0,0,0,0
1683187955.00012302,78028776,1591,1592,1538,1540,0,0,0,0,0,0,0,0,0,0
1683187955.10008311,78128736,1592,1592,1539,1540,0,0,0,0,0,0,0,0,0,0
1683187955.20004320,78228696,1592,1590,1541,1543,0,0,0,0,0,0,0,0,0,0
1683187955.30000305,78328656,1589,1587,1546,1548,0,0,0,0,0,0,0,0,0,0
1683187955.39996314,78428616,1584,1581,1554,1556,0,0,0,0,0,0,0,0,0,0
1683187955.49992299,78528576,1577,1573,1564,1566,0,0,0,0,0,0,0,0,0,0
1683187955.59988308,78628536,1568,1564,1575,1576,0,0,0,0,0,0,0,0,0,0
1683187955.69984317,78728496,1557,1555,1585,1587,0,0,0,0,0,0,0,0,0,0
1683187955.79980302,78828456,1549,1547,1596,1596,0,0,0,0,0,0,0,0,0,0
1683187955.89976311,78928416,1542,1542,1604,1604,0,0,0,0,0,0,0,0,0,0
1683187955.99972320,79028376,1537,1538,1608,1607,0,0,0,0,0,0,0,0,0,0
1683187956.09968305,79128336,1536,1538,1611,1610,0,0,0,0,0,0,0,0,0,0
1683187956.19964314,79228296,1539,1541,1610,1610,0,0,0,0,0,0,0,0,0,0
1683187956.29960299,79328256,1544,1545,1608,1606,0,0,0,0,0,0,0,0,0,0
1683187956.39956307,79428216,1549,1551,1602,1601,0,0,0,0,0,0,0,0,0,0
1683187956.49952316,79528176,1557,1558,1596,1595,0,0,0,0,0,0,0,0,0,0
1683187956.60031605,79628969,1564,1565,1590,1588,0,0,0,0,0,0,0,0,0,0
1683187956.70027614,79728929,1572,1572,1583,1583,0,0,0,0,0,0,0,0,0,0
1683187956.80023599,79828889,1578,1577,1577,1578,0,0,0,0,0,0,0,0,0,0
1683187956.90019608,79928849,1581,1580,1572,1572,0,0,0,0,0,0,0,0,0,0
1683187957.00015616,80028809,1584,1583,1570,1570,0,0,0,0,0,0,0,0,0,0
1683187957.10011601,80128769,1584,1583,1567,1567,0,0,0,0,0,0,0,0,0,0
1683187957.20007610,80228729,1585,1584,1568,1568,0,0,0,0,0,0,0,0,0,0
1683187957.30003619,80328689,1585,1584,1571,1571,0,0,0,0,0,0,0,0,0,0
1683187957.39999604,80428649,1583,1582,1572,1572,0,0,0,0,0,0,0,0,0,0
1683187957.49995613,80528609,1581,1581,1575,1575,0,0,0,0,0,0,0,0,0,0
1683187957.59991598,80628569,1579,1579,1578,1577,0,0,0,0,0,0,0,0,0,0
1683187957.69987607,80728529,1576,1577,1580,1580,0,0,0,0,0,0,0,0,0,0
1683187957.79983616,80828489,1575,1576,1583,1582,0,0,0,0,0,0,0,0,0,0
1683187957.89979601,80928449,1573,1574,1582,1582,0,0,0,0,0,0,0,0,0,0
1683187957.99975610,81028409,1574,1575,1584,1584,0,0,0,0,0,0,0,0,0,0
1683187958.09971619,81128369,1574,1575,1584,1584,0,0,0,0,0,0,0,0,0,0
1683187958.19967604,81228329,1575,1574,1583,1583,0,0,0,0,0,0,0,0,0,0
1683187958.29963613,81328289,1575,1576,1582,1583,0,0,0,0,0,0,0,0,0,0
1683187958.39959598,81428249,1576,1576,1581,1581,0,0,0,0,0,0,0,0,0,0
1683187958.49955606,81528209,1578,1578,1581,1581,0,0,0,0,0,0,0,0,0,0
1683187958.59951615,81628169,1579,1579,1580,1580,0,0,0,0,0,0,0,0,0,0
1683187958.70030904,81728962,1580,1580,1579,1579,0,0,0,0,0,0,0,0,0,0
1683187958.80026913,81828922,1581,1581,1578,1578,0,0,0,0,0,0,0,0,0,0
1683187958.90022898,81928882,1582,1581,1578,1578,0,0,0,0,0,0,0,0,0,0
1683187959.00018907,82028842,1582,1582,1578,1578,0,0,0,0,0,0,0,0,0,0
1683187959.10014915,82128802,1583,1582,1579,1579,0,0,0,0,0,0,0,0,0,0
1683187959.20010900,82228762,1581,1581,1578,1578,0,0,0,0,0,0,0,0,0,0
1683187959.30006909,82328722,1582,1582,1580,1580,0,0,0,0,0,0,0,0,0,0
1683187959.40002918,82428682,1581,1582,1580,1580,0,0,0,0,0,0,0,0,0,0
1683187959.49998903,82528642,1580,1580,1580,1580,0,0,0,0,0,0,0,0,0,0
1683187959.59994912,82628602,1580,1580,1580,1581,0,0,0,0,0,0,0,0,0,0
1683187959.69990921,82728562,1580,1579,1580,1581,0,0,0,0,0,0,0,0,0,0
1683187959.79986906,82828522,1579,1580,1581,1581,0,0,0,0,0,0,0,0,0,0
1683187959.89982915,82928482,1580,1580,1581,1582,0,0,0,0,0,0,0,0,0,0
1683187959.99978900,83028442,1580,1580,1582,1581,0,0,0,0,0,0,0,0,0,0
1683187960.09974909,83128402,1580,1580,1581,1581,0,0,0,0,0,0,0,0,0,0
1683187960.19970918,83228362,1581,1581,1582,1582,0,0,0,0,0,0,0,0,0,0
1683187960.29966903,83328322,1580,1581,1581,1581,0,0,0,0,0,0,0,0,0,0
1683187960.39962912,83428282,1580,1580,1580,1580,0,0,0,0,0,0,0,0,0,0
1683187960.49958920,83528242,1582,1581,1581,1581,0,0,0,0,0,0,0,0,0,0
1683187960.59954906,83628202,1580,1581,1580,1580,0,0,0,0,0,0,0,0,0,0
1683187960.69950914,83728162,1581,1581,1581,1580,0,0,0,0,0,0,0,0,0,0
1683187960.80030203,83828955,1581,1581,1580,1580,0,0,0,0,0,0,0,0,0,0
1683187960.90026212,83928915,1580,1580,1581,1578,0,0,0,0,0,0,0,0,0,0
1683187961.00022221,84028875,1581,1583,1587,1572,0,0,0,0,0,0,0,0,0,0
1683187961.10018206,84128835,1579,1582,1581,1571,0,0,0,0,0,0,0,0,0,0
1683187961.20014215,84228795,1578,1580,1572,1571,0,0,0,0,0,0,0,0,0,0
1683187961.30010200,84328755,1577,1579,1564,1570,0,0,0,0,0,0,0,0,0,0
1683187961.40006208,84428715,1577,1579,1559,1566,0,0,0,0,0,0,0,0,0,0
1683187961.50002217,84528675,1579,1579,1556,1562,0,0,0,0,0,0,0,0,0,0
1683187961.59998202,84628635,1580,1579,1555,1558,0,0,0,0,0,0,0,0,0,0
1683187961.69994211,84728595,1580,1578,1555,1554,0,0,0,0,0,0,0,0,0,0
1683187961.79990220,84828555,1579,1578,1555,1553,0,0,0,0,0,0,0,0,0,0
1683187961.89986205,84928515,1579,1578,1556,1554,0,0,0,0,0,0,0,0,0,0
1683187961.99982214,85028475,1578,1578,1556,1554,0,0,0,0,0,0,0,0,0,0
1683187962.09978199,85128435,1576,1577,1555,1554,0,0,0,0,0,0,0,0,0,0
1683187962.19974208,85228395,1577,1578,1555,1555,0,0,0,0,0,0,0,0,0,0
1683187962.29970217,85328355,1575,1577,1554,1554,0,0,0,0,0,0,0,0,0,0
1683187962.39966202,85428315,1576,1578,1552,1553,0,0,0,0,0,0,0,0,0,0
1683187962.49962211,85528275,1577,1579,1550,1551,0,0,0,0,0,0,0,0,0,0
1683187962.59958220,85628235,1579,1580,1548,1548,0,0,0,0,0,0,0,0,0,0
1683187962.69954205,85728195,1582,1583,1547,1546,0,0,0,0,0,0,0,0,0,0
1683187962.79950213,85828155,1585,1586,1545,1544,0,0,0,0,0,0,0,0,0,0
1683187962.90029502,85928948,1587,1587,1542,1541,0,0,0,0,0,0,0,0,0,0
1683187963.00025511,86028908,1590,1591,1541,1541,0,0,0,0,0,0,0,0,0,0
1683187963.10021520,86128868,1592,1592,1538,1539,0,0,0,0,0,0,0,0,0,0
1683187963.20017505,86228828,1592,1593,1537,1538,0,0,0,0,0,0,0,0,0,0
1683187963.30013514,86328788,1593,1593,1537,1538,0,0,0,0,0,0,0,0,0,0
1683187963.40009499,86428748,1592,1592,1538,1540,0,0,0,0,0,0,0,0,0,0
1683187963.50005507,86528708,1590,1589,1542,1545,0,0,0,0,0,0,0,0,0,0
1683187963.60001516,86628668,1586,1584,1548,1551,0,0,0,0,0,0,0,0,0,0
1683187963.69997501,86728628,1581,1577,1559,1561,0,0,0,0,0,0,0,0,0,0
1683187963.79993510,86828588,1571,1567,1568,1570,0,0,0,0,0,0,0,0,0,0
1683187963.89989519,86928548,1560,1556,1580,1581,0,0,0,0,0,0,0,0,0,0
1683187963.99985504,87028508,1550,1547,1591,1592,0,0,0,0,0,0,0,0,0,0
1683187964.09981513,87128468,1540,1539,1600,1600,0,0,0,0,0,0,0,0,0,0
1683187964.19977498,87228428,1534,1535,1608,1607,0,0,0,0,0,0,0,0,0,0
1683187964.29973507,87328388,1532,1533,1612,1611,0,0,0,0,0,0,0,0,0,0
1683187964.39969516,87428348,1532,1534,1612,1611,0,0,0,0,0,0,0,0,0,0
1683187964.49965501,87528308,1537,1539,1610,1609,0,0,0,0,0,0,0,0,0,0
1683187964.59961510,87628268,1543,1545,1605,1605,0,0,0,0,0,0,0,0,0,0
1683187964.69957519,87728228,1552,1552,1599,1599,0,0,0,0,0,0,0,0,0,0
1683187964.79953504,87828188,1560,1560,1593,1591,0,0,0,0,0,0,0,0,0,0
1683187964.90032816,87928981,1568,1568,1586,1585,0,0,0,0,0,0,0,0,0,0
1683187965.00028801,88028941,1574,1574,1580,1578,0,0,0,0,0,0,0,0,0,0
1683187965.10024810,88128901,1579,1579,1573,1574,0,0,0,0,0,0,0,0,0,0
1683187965.20020819,88228861,1583,1582,1569,1570,0,0,0,0,0,0,0,0,0,0
1683187965.30016804,88328821,1586,1584,1567,1568,0,0,0,0,0,0,0,0,0,0
1683187965.40012813,88428781,1586,1586,1567,1568,0,0,0,0,0,0,0,0,0,0
1683187965.50008798,88528741,1586,1585,1568,1568,0,0,0,0,0,0,0,0,0,0
1683187965.60004807,88628701,1585,1584,1571,1571,0,0,0,0,0,0,0,0,0,0
1683187965.70000815,88728661,1582,1582,1574,1573,0,0,0,0,0,0,0,0,0,0
1683187965.79996800,88828621,1581,1580,1577,1577,0,0,0,0,0,0,0,0,0,0
1683187965.89992809,88928581,1578,1578,1579,1579,0,0,0,0,0,0,0,0,0,0
1683187965.99988818,89028541,1575,1576,1581,1581,0,0,0,0,0,0,0,0,0,0
1683187966.09984803,89128501,1574,1575,1583,1583,0,0,0,0,0,0,0,0,0,0
1683187966.19980812,89228461,1573,1574,1583,1584,0,0,0,0,0,0,0,0,0,0
1683187966.29976821,89328421,1572,1573,1583,1583,0,0,0,0,0,0,0,0,0,0
1683187966.39972806,89428381,1574,1574,1584,1583,0,0,0,0,0,0,0,0,0,0
1683187966.49968815,89528341,1574,1574,1583,1582,0,0,0,0,0,0,0,0,0,0
1683187966.59964800,89628301,1575,1575,1581,1582,0,0,0,0,0,0,0,0,0,0
1683187966.69960809,89728261,1577,1577,1580,1581,0,0,0,0,0,0,0,0,0,0
1683187966.79956818,89828221,1578,1578,1580,1580,0,0,0,0,0,0,0,0,0,0
1683187966.89952803,89928181,1578,1578,1578,1578,0,0,0,0,0,0,0,0,0,0
1683187967.00032115,90028974,1580,1580,1578,1578,0,0,0,0,0,0,0,0,0,0
1683187967.10028100,90128934,1581,1581,1578,1578,0,0,0,0,0,0,0,0,0,0
1683187967.20024109,90228894,1581,1581,1577,1577,0,0,0,0,0,0,0,0,0,0
1683187967.30020118,90328854,1581,1580,1576,1578,0,0,0,0,0,0,0,0,0,0
1683187967.40016103,90428814,1582,1581,1578,1578,0,0,0,0,0,0,0,0,0,0
1683187967.50012112,90528774,1582,1581,1579,1579,0,0,0,0,0,0,0,0,0,0
1683187967.60008121,90628734,1581,1581,1579,1579,0,0,0,0,0,0,0,0,0,0
1683187967.70004106,90728694,1582,1582,1581,1581,0,0,0,0,0,0,0,0,0,0
1683187967.80000114,90828654,1580,1580,1580,1580,0,0,0,0,0,0,0,0,0,0
1683187967.89996099,90928614,1579,1580,1580,1580,0,0,0,0,0,0,0,0,0,0
1683187967.99992108,91028574,1579,1579,1580,1580,0,0,0,0,0,0,0,0,0,0
1683187968.09988117,91128534,1579,1579,1581,1581,0,0,0,0,0,0,0,0,0,0
1683187968.19984102,91228494,1579,1579,1581,1582,0,0,0,0,0,0,0,0,0,0
1683187968.29980111,91328454,1580,1580,1581,1581,0,0,0,0,0,0,0,0,0,0
1683187968.39976120,91428414,1580,1580,1581,1581,0,0,0,0,0,0,0,0,0,0
1683187968.49972105,91528374,1582,1582,1583,1583,0,0,0,0,0,0,0,0,0,0
1683187968.59968114,91628334,1581,1581,1582,1582,0,0,0,0,0,0,0,0,0,0
1683187968.69964099,91728294,1580,1580,1580,1580,0,0,0,0,0,0,0,0,0,0
1683187968.79960108,91828254,1581,1581,1581,1581,0,0,0,0,0,0,0,0,0,0
1683187968.89956117,91928214,1581,1582,1586,1573,0,0,0,0,0,0,0,0,0,0
1683187968.99952102,92028174,1581,1581,1586,1572,0,0,0,0,0,0,0,0,0,0
1683187969.10031414,92128967,1578,1578,1578,1574,0,0,0,0,0,0,0,0,0,0
1683187969.20027399,92228927,1575,1575,1572,1575,0,0,0,0,0,0,0,0,0,0
1683187969.30023408,92328887,1572,1571,1567,1574,0,0,0,0,0,0,0,0,0,0
1683187969.40019417,92428847,1570,1568,1565,1572,0,0,0,0,0,0,0,0,0,0
1683187969.50015402,92528807,1569,1568,1566,1570,0,0,0,0,0,0,0,0,0,0
1683187969.60011411,92628767,1568,1568,1567,1568,0,0,0,0,0,0,0,0,0,0
1683187969.70007420,92728727,1566,1566,1566,1565,0,0,0,0,0,0,0,0,0,0
1683187969.80003405,92828687,1566,1566,1568,1565,0,0,0,0,0,0,0,0,0,0
1683187969.89999413,92928647,1565,1565,1567,1564,0,0,0,0,0,0,0,0,0,0
1683187969.99995399,93028607,1564,1564,1566,1564,0,0,0,0,0,0,0,0,0,0
1683187970.09991407,93128567,1563,1564,1564,1564,0,0,0,0,0,0,0,0,0,0
1683187970.19987416,93228527,1562,1563,1563,1563,0,0,0,0,0,0,0,0,0,0
1683187970.29983401,93328487,1562,1562,1563,1563,0,0,0,0,0,0,0,0,0,0
1683187970.39979410,93428447,1562,1562,1562,1562,0,0,0,0,0,0,0,0,0,0
1683187970.49975419,93528407,1561,1561,1561,1562,0,0,0,0,0,0,0,0,0,0
1683187970.59971404,93628367,1562,1561,1562,1561,0,0,0,0,0,0,0,0,0,0
1683187970.69967413,93728327,1561,1561,1561,1560,0,0,0,0,0,0,0,0,0,0
1683187970.79963398,93828287,1559,1560,1560,1559,0,0,0,0,0,0,0,0,0,0
1683187970.89959407,93928247,1560,1560,1560,1559,0,0,0,0,0,0,0,0,0,0
1683187970.99955416,94028207,1558,1558,1558,1557,0,0,0,0,0,0,0,0,0,0
1683187971.09951401,94128167,1558,1558,1558,1557,0,0,0,0,0,0,0,0,0,0
1683187971.20030713,94228960,1558,1558,1558,1557,0,0,0,0,0,0,0,0,0,0
1683187971.30026698,94328920,1558,1557,1558,1557,0,0,0,0,0,0,0,0,0,0
1683187971.40022707,94428880,1558,1558,1559,1558,0,0,0,0,0,0,0,0,0,0
1683187971.50018716,94528840,1558,1557,1559,1556,0,0,0,0,0,0,0,0,0,0
1683187971.60014701,94628800,1558,1558,1560,1557,0,0,0,0,0,0,0,0,0,0
1683187971.70010710,94728760,1558,1558,1558,1559,0,0,0,0,0,0,0,0,0,0
1683187971.80006719,94828720,1558,1558,1556,1560,0,0,0,0,0,0,0,0,0,0
1683187971.90002704,94928680,1559,1558,1556,1562,0,0,0,0,0,0,0,0,0,0
1683187971.99998713,95028640,1559,1559,1555,1562,0,0,0,0,0,0,0,0,0,0
1683187972.09994698,95128600,1555,1555,1552,1558,0,0,0,0,0,0,0,0,0,0
1683187972.19990706,95228560,1551,1551,1550,1552,0,0,0,0,0,0,0,0,0,0
1683187972.29986715,95328520,1545,1545,1545,1545,0,0,0,0,0,0,0,0,0,0
1683187972.39982700,95428480,1539,1539,1539,1538,0,0,0,0,0,0,0,0,0,0
1683187972.49978709,95528440,1532,1532,1532,1531,0,0,0,0,0,0,0,0,0,0
1683187972.59974718,95628400,1523,1523,1524,1523,0,0,0,0,0,0,0,0,0,0
1683187972.69970703,95728360,1520,1520,1520,1520,0,0,0,0,0,0,0,0,0,0
1683187972.79966712,95828320,1521,1520,1520,1521,0,0,0,0,0,0,0,0,0,0
1683187972.89962721,95928280,1521,1522,1521,1522,0,0,0,0,0,0,0,0,0,0
1683187972.99958706,96028240,1523,1522,1522,1523,0,0,0,0,0,0,0,0,0,0
1683187973.09954715,96128200,1527,1527,1526,1527,0,0,0,0,0,0,0,0,0,0
1683187973.19950700,96228160,1531,1531,1530,1531,0,0,0,0,0,0,0,0,0,0
1683187973.30030012,96328953,1536,1536,1536,1537,0,0,0,0,0,0,0,0,0,0
1683187973.40026021,96428913,1540,1540,1540,1540,0,0,0,0,0,0,0,0,0,0
1683187973.50022006,96528873,1541,1542,1542,1542,0,0,0,0,0,0,0,0,0,0
1683187973.60018015,96628833,1543,1543,1544,1543,0,0,0,0,0,0,0,0,0,0
1683187973.70014000,96728793,1545,1544,1545,1544,0,0,0,0,0,0,0,0,0,0
1683187973.80010009,96828753,1545,1545,1545,1545,0,0,0,0,0,0,0,0,0,0
1683187973.90006018,96928713,1546,1546,1546,1546,0,0,0,0,0,0,0,0,0,0
1683187974.00002003,97028673,1546,1546,1546,1546,0,0,0,0,0,0,0,0,0,0
1683187974.09998012,97128633,1545,1546,1546,1546,0,0,0,0,0,0,0,0,0,0
1683187974.19994020,97228593,1546,1546,1546,1546,0,0,0,0,0,0,0,0,0,0
1683187974.29990005,97328553,1546,1546,1546,1546,0,0,0,0,0,0,0,0,0,0
1683187974.39986014,97428513,1546,1546,1546,1546,0,0,0,0,0,0,0,0,0,0
1683187974.49981999,97528473,1546,1545,1546,1546,0,0,0,0,0,0,0,0,0,0
1683187974.59978008,97628433,1546,1546,1546,1545,0,0,0,0,0,0,0,0,0,0
1683187974.69974017,97728393,1545,1545,1545,1545,0,0,0,0,0,0,0,0,0,0
1683187974.79970002,97828353,1546,1547,1547,1546,0,0,0,0,0,0,0,0,0,0
1683187974.89966011,97928313,1546,1546,1546,1546,0,0,0,0,0,0,0,0,0,0
1683187974.99962020,98028273,1545,1546,1546,1546,0,0,0,0,0,0,0,0,0,0
1683187975.09958005,98128233,1545,1545,1545,1545,0,0,0,0,0,0,0,0,0,0
1683187975.19954014,98228193,1545,1545,1545,1545,0,0,0,0,0,0,0,0,0,0
1683187975.30033302,98328986,1545,1545,1545,1545,0,0,0,0,0,0,0,0,0,0
1683187975.40029311,98428946,1544,1545,1545,1544,0,0,0,0,0,0,0,0,0,0
1683187975.50025320,98528906,1544,1544,1545,1544,0,0,0,0,0,0,0,0,0,0
1683187975.60021305,98628866,1544,1544,1544,1544,0,0,0,0,0,0,0,0,0,0
1683187975.70017314,98728826,1545,1544,1544,1545,0,0,0,0,0,0,0,0,0,0
1683187975.80013299,98828786,1545,1545,1545,1545,0,0,0,0,0,0,0,0,0,0
1683187975.90009308,98928746,1544,1544,1544,1544,0,0,0,0,0,0,0,0,0,0
1683187976.00005317,99028706,1545,1545,1545,1544,0,0,0,0,0,0,0,0,0,0
1683187976.10001302,99128666,1544,1544,1544,1544,0,0,0,0,0,0,0,0,0,0
1683187976.19997311,99228626,1543,1543,1543,1544,0,0,0,0,0,0,0,0,0,0
1683187976.29993320,99328586,1544,1543,1543,1543,0,0,0,0,0,0,0,0,0,0
1683187976.39989305,99428546,1544,1543,1544,1543,0,0,0,0,0,0,0,0,0,0
1683187976.49985313,99528506,1544,1544,1544,1544,0,0,0,0,0,0,0,0,0,0
1683187976.59981298,99628466,1544,1544,1544,1544,0,0,0,0,0,0,0,0,0,0
1683187976.69977307,99728426,1543,1544,1544,1543,0,0,0,0,0,0,0,0,0,0
1683187976.79973316,99828386,1544,1544,1544,1544,0,0,0,0,0,0,0,0,0,0
1683187976.89969301,99928346,1544,1543,1543,1544,0,0,0,0,0,0,0,0,0,0
1683187976.99965310,100028306,1544,1544,1544,1544,0,0,0,0,0,0,0,0,0,0
1683187977.09961319,100128266,1544,1543,1543,1543,0,0,0,0,0,0,0,0,0,0
1683187977.19957304,100228226,1544,1544,1544,1544,0,0,0,0,0,0,0,0,0,0
1683187977.29953313,100328186,1544,1544,1544,1544,0,0,0,0,0,0,0,0,0,0
1683187977.40032601,100428979,1544,1544,1544,1544,0,0,0,0,0,0,0,0,0,0
1683187977.50028610,100528939,1544,1544,1544,1544,0,0,0,0,0,0,0,0,0,0
1683187977.60024619,100628899,1543,1543,1543,1543,0,0,0,0,0,0,0,0,0,0
1683187977.70020604,100728859,1544,1545,1544,1545,0,0,0,0,0,0,0,0,0,0
1683187977.80016613,100828819,1544,1545,1544,1545,0,0,0,0,0,0,0,0,0,0
1683187977.90012598,100928779,1544,1544,1544,1545,0,0,0,0,0,0,0,0,0,0
1683187978.00008607,101028739,1544,1545,1544,1545,0,0,0,0,0,0,0,0,0,0
1683187978.10004616,101128699,1545,1544,1545,1545,0,0,0,0,0,0,0,0,0,0
1683187978.20000601,101228659,1545,1545,1545,1545,0,0,0,0,0,0,0,0,0,0
1683187978.29996610,101328619,1545,1545,1545,1544,0,0,0,0,0,0,0,0,0,0
1683187978.39992619,101428579,1544,1545,1545,1544,0,0,0,0,0,0,0,0,0,0
1683187978.49988604,101528539,1545,1545,1544,1545,0,0,0,0,0,0,0,0,0,0
1683187978.59984612,101628499,1545,1545,1544,1544,0,0,0,0,0,0,0,0,0,0
1683187978.69980597,101728459,1544,1544,1544,1544,0,0,0,0,0,0,0,0,0,0
1683187978.79976606,101828419,1545,1545,1545,1545,0,0,0,0,0,0,0,0,0,0
1683187978.89972615,101928379,1545,1545,1545,1545,0,0,0,0,0,0,0,0,0,0
1683187978.99968600,102028339,1544,1544,1544,1544,0,0,0,0,0,0,0,0,0,0
1683187979.09964609,102128299,1544,1544,1544,1544,0,0,0,0,0,0,0,0,0,0
1683187979.19960618,102228259,1544,1544,1544,1544,0,0,0,0,0,0,0,0,0,0
1683187979.29956603,102328219,1544,1543,1543,1544,0,0,0,0,0,0,0,0,0,0
1683187979.39952612,102428179,1543,1543,1544,1543,0,0,0,0,0,0,0,0,0,0
1683187979.50031900,102528972,1543,1543,1543,1543,0,0,0,0,0,0,0,0,0,0
1683187979.60027909,102628932,1543,1543,1543,1543,0,0,0,0,0,0,0,0,0,0
1683187979.70023918,102728892,1544,1544,1543,1544,0,0,0,0,0,0,0,0,0,0
1683187979.80019903,102828852,1544,1545,1545,1545,0,0,0,0,0,0,0,0,0,0
1683187979.90015912,102928812,1544,1544,1544,1544,0,0,0,0,0,0,0,0,0,0
1683187980.00011921,103028772,1544,1544,1544,1544,0,0,0,0,0,0,0,0,0,0
1683187980.10007906,103128732,1544,1543,1544,1544,0,0,0,0,0,0,0,0,0,0
1683187980.20003915,103228692,1543,1544,1544,1544,0,0,0,0,0,0,0,0,0,0
1683187980.29999900,103328652,1543,1543,1543,1543,0,0,0,0,0,0,0,0,0,0
1683187980.39995909,103428612,1544,1544,1544,1544,0,0,0,0,0,0,0,0,0,0
1683187980.49991918,103528572,1546,1544,1545,1545,0,0,0,0,0,0,0,0,0,0
1683187980.59987903,103628532,1545,1545,1545,1545,0,0,0,0,0,0,0,0,0,0
1683187980.69983912,103728492,1544,1544,1544,1544,0,0,0,0,0,0,0,0,0,0
1683187980.79979920,103828452,1545,1545,1545,1544,0,0,0,0,0,0,0,0,0,0
1683187980.89975905,103928412,1544,1544,1544,1544,0,0,0,0,0,0,0,0,0,0
1683187980.99971914,104028372,1544,1544,1544,1544,0,0,0,0,0,0,0,0,0,0
1683187981.09967899,104128332,1544,1544,1544,1544,0,0,0,0,0,0,0,0,0,0
1683187981.19963908,104228292,1545,1545,1545,1545,0,0,0,0,0,0,0,0,0,0
1683187981.29959917,104328252,1544,1544,1544,1544,0,0,0,0,0,0,0,0,0,0
1683187981.39955902,104428212,1543,1543,1543,1543,0,0,0,0,0,0,0,0,0,0
1683187981.49951911,104528172,1544,1544,1544,1544,0,0,0,0,0,0,0,0,0,0
1683187981.60031199,104628965,1544,1544,1544,1544,0,0,0,0,0,0,0,0,0,0
1683187981.70027208,104728925,1545,1544,1544,1545,0,0,0,0,0,0,0,0,0,0
1683187981.80023217,104828885,1544,1544,1544,1544,0,0,0,0,0,0,0,0,0,0
1683187981.90019202,104928845,1545,1545,1545,1545,0,0,0,0,0,0,0,0,0,0
1683187982.00015211,105028805,1544,1544,1544,1544,0,0,0,0,0,0,0,0,0,0
1683187982.10011220,105128765,1544,1544,1544,1544,0,0,0,0,0,0,0,0,0,0
1683187982.20007205,105228725,1543,1543,1543,1543,0,0,0,0,0,0,0,0,0,0
1683187982.30003214,105328685,1545,1544,1545,1545,0,0,0,0,0,0,0,0,0,0
1683187982.39999199,105428645,1473,1472,1473,1472,0,0,0,0,0,0,0,0,0,0
1683187982.49995208,105528605,1302,1302,1302,1301,0,0,0,0,0,0,0,0,0,0
1683187982.59991217,105628565,1226,1227,1228,1226,0,0,0,0,0,0,0,0,0,0
1683187982.69987202,105728525,1205,1204,1205,1204,0,0,0,0,0,0,0,0,0,0
1683187982.79983211,105828485,1178,1177,1179,1177,0,0,0,0,0,0,0,0,0,0
1683187982.89979219,105928445,1151,1150,1152,1150,0,0,0,0,0,0,0,0,0,0
1683187982.99975204,106028405,1151,1150,1153,1150,0,0,0,0,0,0,0,0,0,0
1683187983.09971213,106128365,1180,1150,1150,1181,0,0,0,0,0,0,0,0,0,0
1683187983.19967198,106228325,1177,1150,1150,1178,0,0,0,0,0,0,0,0,0,0
1683187983.29963207,106328285,1171,1150,1150,1171,0,0,0,0,0,0,0,0,0,0
1683187983.39959216,106428245,1170,1150,1151,1170,0,0,0,0,0,0,0,0,0,0
1683187983.49955201,106528205,1172,1150,1151,1172,0,0,0,0,0,0,0,0,0,0
1683187983.59951210,106628165,1174,1150,1151,1174,0,0,0,0,0,0,0,0,0,0
1683187983.70030499,106728958,1176,1150,1151,1176,0,0,0,0,0,0,0,0,0,0
1683187983.80026507,106828918,1178,1150,1151,1178,0,0,0,0,0,0,0,0,0,0
1683187983.90022516,106928878,1161,1150,1151,1161,0,0,0,0,0,0,0,0,0,0
1683187984.00018501,107028838,1165,1150,1151,1165,0,0,0,0,0,0,0,0,0,0
1683187984.10014510,107128798,1167,1150,1151,1166,0,0,0,0,0,0,0,0,0,0
1683187984.20010519,107228758,1167,1150,1151,1167,0,0,0,0,0,0,0,0,0,0
1683187984.30006504,107328718,1168,1150,1151,1168,0,0,0,0,0,0,0,0,0,0
1683187984.40002513,107428678,1000,1000,1000,1000,0,0,0,0,0,0,0,0,0,0
1683187984.49998498,107528638,1000,1000,1000,1000,0,0,0,0,0,0,0,0,0,0
1683187984.59994507,107628598,1000,1000,1000,1000,0,0,0,0,0,0,0,0,0,0
1683187984.69990516,107728558,1000,1000,1000,1000,0,0,0,0,0,0,0,0,0,0
1683187984.79986501,107828518,1000,1000,1000,1000,0,0,0,0,0,0,0,0,0,0
1683187984.89982510,107928478,1000,1000,1000,1000,0,0,0,0,0,0,0,0,0,0
1683187984.99978518,108028438,1000,1000,1000,1000,0,0,0,0,0,0,0,0,0,0
1683187985.09974504,108128398,1000,1000,1000,1000,0,0,0,0,0,0,0,0,0,0
1683187985.19970512,108228358,1000,1000,1000,1000,0,0,0,0,0,0,0,0,0,0
1683187985.29966521,108328318,1000,1000,1000,1000,0,0,0,0,0,0,0,0,0,0
1683187985.39962506,108428278,1000,1000,1000,1000,0,0,0,0,0,0,0,0,0,0
1683187985.49958515,108528238,1000,1000,1000,1000,0,0,0,0,0,0,0,0,0,0
1683187985.59954500,108628198,1000,1000,1000,1000,0,0,0,0,0,0,0,0,0,0
1683187985.69950509,108728158,1000,1000,1000,1000,0,0,0,0,0,0,0,0,0,0
1683187985.80029798,108828951,1000,1000,1000,1000,0,0,0,0,0,0,0,0,0,0
1683187985.90025806,108928911,1000,1000,1000,1000,0,0,0,0,0,0,0,0,0,0
1683187986.00021815,109028871,1000,1000,1000,1000,0,0,0,0,0,0,0,0,0,0
1683187986.10017800,109128831,1000,1000,1000,1000,0,0,0,0,0,0,0,0,0,0
1683187986.20013809,109228791,1000,1000,1000,1000,0,0,0,0,0,0,0,0,0,0
1683187986.30009818,109328751,1000,1000,1000,1000,0,0,0,0,0,0,0,0,0,0
1683187986.40005803,109428711,1000,1000,1000,1000,0,0,0,0,0,0,0,0,0,0
1683187986.50001812,109528671,1000,1000,1000,1000,0,0,0,0,0,0,0,0,0,0
1683187986.59997821,109628631,1000,1000,1000,1000,0,0,0,0,0,0,0,0,0,0
1683187986.69993806,109728591,1000,1000,1000,1000,0,0,0,0,0,0,0,0,0,0
1683187986.79989815,109828551,1000,1000,1000,1000,0,0,0,0,0,0,0,0,0,0
1683187986.89985800,109928511,1000,1000,1000,1000,0,0,0,0,0,0,0,0,0,0
1683187986.99981809,110028471,1000,1000,1000,1000,0,0,0,0,0,0,0,0,0,0
1683187987.09977818,110128431,1000,1000,1000,1000,0,0,0,0,0,0,0,0,0,0
1683187987.19973803,110228391,1000,1000,1000,1000,0,0,0,0,0,0,0,0,0,0
1683187987.29969811,110328351,1000,1000,1000,1000,0,0,0,0,0,0,0,0,0,0
1683187987.39965820,110428311,1000,1000,1000,1000,0,0,0,0,0,0,0,0,0,0
1683187987.49961805,110528271,1000,1000,1000,1000,0,0,0,0,0,0,0,0,0,0
1683187987.59957814,110628231,1000,1000,1000,1000,0,0,0,0,0,0,0,0,0,0
1683187987.69953799,110728191,1000,1000,1000,1000,0,0,0,0,0,0,0,0,0,0
1683187987.80033112,110828984,1000,1000,1000,1000,0,0,0,0,0,0,0,0,0,0
1683187987.90029120,110928944,1000,1000,1000,1000,0,0,0,0,0,0,0,0,0,0
1683187988.00025105,111028904,1000,1000,1000,1000,0,0,0,0,0,0,0,0,0,0
1683187988.10021114,111128864,1000,1000,1000,1000,0,0,0,0,0,0,0,0,0,0
1683187988.20017099,111228824,1000,1000,1000,1000,0,0,0,0,0,0,0,0,0,0
1683187988.30013108,111328784,1000,1000,1000,1000,0,0,0,0,0,0,0,0,0,0
1683187988.40009117,111428744,1000,1000,1000,1000,0,0,0,0,0,0,0,0,0,0
1683187988.50005102,111528704,1000,1000,1000,1000,0,0,0,0,0,0,0,0,0,0
1683187988.60001111,111628664,1000,1000,1000,1000,0,0,0,0,0,0,0,0,0,0
1683187988.69997120,111728624,1000,1000,1000,1000,0,0,0,0,0,0,0,0,0,0
1683187988.79993105,111828584,1000,1000,1000,1000,0,0,0,0,0,0,0,0,0,0
1683187988.89989114,111928544,1000,1000,1000,1000,0,0,0,0,0,0,0,0,0,0
1683187988.99985099,112028504,1000,1000,1000,1000,0,0,0,0,0,0,0,0,0,0
1683187989.09981108,112128464,1000,1000,1000,1000,0,0,0,0,0,0,0,0,0,0
1683187989.19977117,112228424,1000,1000,1000,1000,0,0,0,0,0,0,0,0,0,0
1683187989.29973102,112328384,1000,1000,1000,1000,0,0,0,0,0,0,0,0,0,0
1683187989.39969110,112428344,1000,1000,1000,1000,0,0,0,0,0,0,0,0,0,0
1683187989.49965119,112528304,1000,1000,1000,1000,0,0,0,0,0,0,0,0,0,0
1683187989.59961104,112628264,1000,1000,1000,1000,0,0,0,0,0,0,0,0,0,0
1683187989.69957113,112728224,1000,1000,1000,1000,0,0,0,0,0,0,0,0,0,0
1683187989.79953098,112828184,1000,1000,1000,1000,0,0,0,0,0,0,0,0,0,0
1683187989.90032411,112928977,1000,1000,1000,1000,0,0,0,0,0,0,0,0,0,0
1683187990.00028419,113028937,1000,1000,1000,1000,0,0,0,0,0,0,0,0,0,0
1683187990.10024405,113128897,1000,1000,1000,1000,0,0,0,0,0,0,0,0,0,0
1683187990.20020413,113228857,1000,1000,1000,1000,0,0,0,0,0,0,0,0,0,0
1683187990.30016398,113328817,1000,1000,1000,1000,0,0,0,0,0,0,0,0,0,0
1683187990.40012407,113428777,1000,1000,1000,1000,0,0,0,0,0,0,0,0,0,0
1683187990.50008416,113528737,1000,1000,1000,1000,0,0,0,0,0,0,0,0,0,0
1683187990.60004401,113628697,1000,1000,1000,1000,0,0,0,0,0,0,0,0,0,0
1683187990.70000410,113728657,1000,1000,1000,1000,0,0,0,0,0,0,0,0,0,0
1683187990.79996419,113828617,1000,1000,1000,1000,0,0,0,0,0,0,0,0,0,0
1683187990.89992404,113928577,1000,1000,1000,1000,0,0,0,0,0,0,0,0,0,0
1683187990.99988413,114028537,1000,1000,1000,1000,0,0,0,0,0,0,0,0,0,0
1683187991.09984398,114128497,1000,1000,1000,1000,0,0,0,0,0,0,0,0,0,0
1683187991.19980407,114228457,1000,1000,1000,1000,0,0,0,0,0,0,0,0,0,0
1683187991.29976416,114328417,1000,1000,1000,1000,0,0,0,0,0,0,0,0,0,0
1683187991.39972401,114428377,1000,1000,1000,1000,0,0,0,0,0,0,0,0,0,0
1683187991.49968410,114528337,1000,1000,1000,1000,0,0,0,0,0,0,0,0,0,0
1683187991.59964418,114628297,1000,1000,1000,1000,0,0,0,0,0,0,0,0,0,0
1683187991.69960403,114728257,1000,1000,1000,1000,0,0,0,0,0,0,0,0,0,0
1683187991.79956412,114828217,1000,1000,1000,1000,0,0,0,0,0,0,0,0,0,0
1683187991.89952421,114928177,1000,1000,1000,1000,0,0,0,0,0,0,0,0,0,0
1683187992.00031710,115028970,1000,1000,1000,1000,0,0,0,0,0,0,0,0,0,0
1683187992.10027719,115128930,1000,1000,1000,1000,0,0,0,0,0,0,0,0,0,0
1683187992.20023704,115228890,1000,1000,1000,1000,0,0,0,0,0,0,0,0,0,0
1683187992.30019712,115328850,1000,1000,1000,1000,0,0,0,0,0,0,0,0,0,0
1683187992.40015697,115428810,1000,1000,1000,1000,0,0,0,0,0,0,0,0,0,0
1683187992.50011706,115528770,1000,1000,1000,1000,0,0,0,0,0,0,0,0,0,0
1683187992.60007715,115628730,1000,1000,1000,1000,0,0,0,0,0,0,0,0,0,0
1683187992.70003700,115728690,1000,1000,1000,1000,0,0,0,0,0,0,0,0,0,0
1683187992.79999709,115828650,1000,1000,1000,1000,0,0,0,0,0,0,0,0,0,0
1683187992.89995718,115928610,1000,1000,1000,1000,0,0,0,0,0,0,0,0,0,0
1683187992.99991703,116028570,1000,1000,1000,1000,0,0,0,0,0,0,0,0,0,0
1683187993.09987712,116128530,1000,1000,1000,1000,0,0,0,0,0,0,0,0,0,0
1683187993.19983721,116228490,1000,1000,1000,1000,0,0,0,0,0,0,0,0,0,0
1683187993.29979706,116328450,1000,1000,1000,1000,0,0,0,0,0,0,0,0,0,0
1683187993.39975715,116428410,1000,1000,1000,1000,0,0,0,0,0,0,0,0,0,0
1683187993.49971700,116528370,1000,1000,1000,1000,0,0,0,0,0,0,0,0,0,0
1683187993.59967709,116628330,1000,1000,1000,1000,0,0,0,0,0,0,0,0,0,0
1683187993.69963717,116728290,1000,1000,1000,1000,0,0,0,0,0,0,0,0,0,0
1683187993.79959702,116828250,1000,1000,1000,1000,0,0,0,0,0,0,0,0,0,0
1683187993.89955711,116928210,1000,1000,1000,1000,0,0,0,0,0,0,0,0,0,0
1683187993.99951720,117028170,1000,1000,1000,1000,0,0,0,0,0,0,0,0,0,0
1683187994.10031009,117128963,1000,1000,1000,1000,0,0,0,0,0,0,0,0,0,0
1683187994.20027018,117228923,1000,1000,1000,1000,0,0,0,0,0,0,0,0,0,0
1683187994.30023003,117328883,1000,1000,1000,1000,0,0,0,0,0,0,0,0,0,0
1683187994.40019011,117428843,1000,1000,1000,1000,0,0,0,0,0,0,0,0,0,0
1683187994.50015020,117528803,1000,1000,1000,1000,0,0,0,0,0,0,0,0,0,0
1683187994.60011005,117628763,1000,1000,1000,1000,0,0,0,0,0,0,0,0,0,0
1683187994.70007014,117728723,1000,1000,1000,1000,0,0,0,0,0,0,0,0,0,0
1683187994.80002999,117828683,1000,1000,1000,1000,0,0,0,0,0,0,0,0,0,0
1683187994.89999008,117928643,1000,1000,1000,1000,0,0,0,0,0,0,0,0,0,0
1683187994.99995017,118028603,1000,1000,1000,1000,0,0,0,0,0,0,0,0,0,0
1683187995.09991002,118128563,1000,1000,1000,1000,0,0,0,0,0,0,0,0,0,0
1683187995.19987011,118228523,1000,1000,1000,1000,0,0,0,0,0,0,0,0,0,0
1683187995.29983020,118328483,1000,1000,1000,1000,0,0,0,0,0,0,0,0,0,0
1683187995.39979005,118428443,1000,1000,1000,1000,0,0,0,0,0,0,0,0,0,0
1683187995.49975014,118528403,1000,1000,1000,1000,0,0,0,0,0,0,0,0,0,0
1683187995.59970999,118628363,1000,1000,1000,1000,0,0,0,0,0,0,0,0,0,0
1683187995.69967008,118728323,1000,1000,1000,1000,0,0,0,0,0,0,0,0,0,0
1683187995.79963017,118828283,1000,1000,1000,1000,0,0,0,0,0,0,0,0,0,0
1683187995.89959002,118928243,1000,1000,1000,1000,0,0,0,0,0,0,0,0,0,0
1683187995.99955010,119028203,1000,1000,1000,1000,0,0,0,0,0,0,0,0,0,0
1683187996.09951019,119128163,1000,1000,1000,1000,0,0,0,0,0,0,0,0,0,0
1683187996.20030308,119228956,1000,1000,1000,1000,0,0,0,0,0,0,0,0,0,0
1683187996.30026317,119328916,1000,1000,1000,1000,0,0,0,0,0,0,0,0,0,0
1683187996.40022302,119428876,1000,1000,1000,1000,0,0,0,0,0,0,0,0,0,0
1683187996.50018311,119528836,1000,1000,1000,1000,0,0,0,0,0,0,0,0,0,0
1683187996.60014319,119628796,1000,1000,1000,1000,0,0,0,0,0,0,0,0,0,0
1683187996.70010304,119728756,1000,1000,1000,1000,0,0,0,0,0,0,0,0,0,0
1683187996.80006313,119828716,1000,1000,1000,1000,0,0,0,0,0,0,0,0,0,0
1683187996.90002298,119928676,1000,1000,1000,1000,0,0,0,0,0,0,0,0,0,0
1683187996.99998307,120028636,1000,1000,1000,1000,0,0,0,0,0,0,0,0,0,0
1683187997.09994316,120128596,1000,1000,1000,1000,0,0,0,0,0,0,0,0,0,0
1683187997.19990301,120228556,1000,1000,1000,1000,0,0,0,0,0,0,0,0,0,0
1683187997.29986310,120328516,1000,1000,1000,1000,0,0,0,0,0,0,0,0,0,0
1683187997.39982319,120428476,1000,1000,1000,1000,0,0,0,0,0,0,0,0,0,0
1683187997.49978304,120528436,1000,1000,1000,1000,0,0,0,0,0,0,0,0,0,0
1683187997.59974313,120628396,1000,1000,1000,1000,0,0,0,0,0,0,0,0,0,0
1683187997.69970298,120728356,1000,1000,1000,1000,0,0,0,0,0,0,0,0,0,0
1683187997.79966307,120828316,1000,1000,1000,1000,0,0,0,0,0,0,0,0,0,0
1683187997.89962316,120928276,1000,1000,1000,1000,0,0,0,0,0,0,0,0,0,0
1683187997.99958301,121028236,1000,1000,1000,1000,0,0,0,0,0,0,0,0,0,0
1683187998.09954309,121128196,1000,1000,1000,1000,0,0,0,0,0,0,0,0,0,0
1683187998.19950318,121228156,1000,1000,1000,1000,0,0,0,0,0,0,0,0,0,0
1683187998.30029607,121328949,1000,1000,1000,1000,0,0,0,0,0,0,0,0,0,0
1683187998.40025616,121428909,1000,1000,1000,1000,0,0,0,0,0,0,0,0,0,0
1683187998.50021601,121528869,1000,1000,1000,1000,0,0,0,0,0,0,0,0,0,0
1683187998.60017610,121628829,1000,1000,1000,1000,0,0,0,0,0,0,0,0,0,0
1683187998.70013618,121728789,1000,1000,1000,1000,0,0,0,0,0,0,0,0,0,0
1683187998.80009604,121828749,1000,1000,1000,1000,0,0,0,0,0,0,0,0,0,0
1683187998.90005612,121928709,1000,1000,1000,1000,0,0,0,0,0,0,0,0,0,0
1683187999.00001621,122028669,1000,1000,1000,1000,0,0,0,0,0,0,0,0,0,0
1683187999.09997606,122128629,1000,1000,1000,1000,0,0,0,0,0,0,0,0,0,0
1683187999.19993615,122228589,1000,1000,1000,1000,0,0,0,0,0,0,0,0,0,0
1683187999.29989600,122328549,1000,1000,1000,1000,0,0,0,0,0,0,0,0,0,0
