timestamp,TimeUS,C1,C2,C3,C4,C5,C6,C7,C8,C9,C10,C11,C12,C13,C14
1683119381.40000010,52828860,1000,1000,1000,1000,0,0,0,0,0,0,0,0,0,0
1683119381.49995995,52928820,1000,1000,1000,1000,0,0,0,0,0,0,0,0,0,0
1683119381.59992003,53028780,1000,1000,1000,1000,0,0,0,0,0,0,0,0,0,0
1683119381.69988012,53128740,1000,1000,1000,1000,0,0,0,0,0,0,0,0,0,0
1683119381.79983997,53228700,1000,1000,1000,1000,0,0,0,0,0,0,0,0,0,0
1683119381.89980006,53328660,1000,1000,1000,1000,0,0,0,0,0,0,0,0,0,0
1683119381.99976015,53428620,1000,1000,1000,1000,0,0,0,0,0,0,0,0,0,0
1683119382.09972000,53528580,1000,1000,1000,1000,0,0,0,0,0,0,0,0,0,0
1683119382.19968009,53628540,1000,1000,1000,1000,0,0,0,0,0,0,0,0,0,0
1683119382.29963994,53728500,1000,1000,1000,1000,0,0,0,0,0,0,0,0,0,0
1683119382.39960003,53828460,1000,1000,1000,1000,0,0,0,0,0,0,0,0,0,0
1683119382.49956012,53928420,1000,1000,1000,1000,0,0,0,0,0,0,0,0,0,0
1683119382.59951997,54028380,1000,1000,1000,1000,0,0,0,0,0,0,0,0,0,0
1683119382.69948006,54128340,1000,1000,1000,1000,0,0,0,0,0,0,0,0,0,0
1683119382.79944015,54228300,1000,1000,1000,1000,0,0,0,0,0,0,0,0,0,0
1683119382.89940000,54328260,1000,1000,1000,1000,0,0,0,0,0,0,0,0,0,0
1683119382.99936008,54428220,1000,1000,1000,1000,0,0,0,0,0,0,0,0,0,0
1683119383.09931993,54528180,1000,1000,1000,1000,0,0,0,0,0,0,0,0,0,0
1683119383.20011306,54628973,1000,1000,1000,1000,0,0,0,0,0,0,0,0,0,0
1683119383.30007315,54728933,1000,1000,1000,1000,0,0,0,0,0,0,0,0,0,0
1683119383.40003300,54828893,1024,1024,1024,1024,0,0,0,0,0,0,0,0,0,0
1683119383.49999309,54928853,1054,1054,1054,1054,0,0,0,0,0,0,0,0,0,0
1683119383.59995294,55028813,1084,1084,1084,1084,0,0,0,0,0,0,0,0,0,0
1683119383.69991302,55128773,1113,1113,1113,1113,0,0,0,0,0,0,0,0,0,0
1683119383.79987311,55228733,1143,1143,1143,1143,0,0,0,0,0,0,0,0,0,0
1683119383.89983296,55328693,1357,1351,1351,1358,0,0,0,0,0,0,0,0,0,0
1683119383.99979305,55428653,1546,1541,1542,1547,0,0,0,0,0,0,0,0,0,0
1683119384.09975314,55528613,1699,1694,1694,1699,0,0,0,0,0,0,0,0,0,0
1683119384.19971299,55628573,1830,1825,1825,1830,0,0,0,0,0,0,0,0,0,0
1683119384.29967308,55728533,1896,1891,1891,1896,0,0,0,0,0,0,0,0,0,0
1683119384.39963317,55828493,1841,1840,1840,1841,0,0,0,0,0,0,0,0,0,0
1683119384.49959302,55928453,1716,1715,1716,1716,0,0,0,0,0,0,0,0,0,0
1683119384.59955311,56028413,1643,1645,1645,1644,0,0,0,0,0,0,0,0,0,0
1683119384.69951296,56128373,1632,1634,1634,1632,0,0,0,0,0,0,0,0,0,0
1683119384.79947305,56228333,1642,1644,1643,1642,0,0,0,0,0,0,0,0,0,0
1683119384.89943314,56328293,1646,1647,1647,1646,0,0,0,0,0,0,0,0,0,0
1683119384.99939299,56428253,1632,1632,1626,1638,0,0,0,0,0,0,0,0,0,0
1683119385.09935308,56528213,1619,1619,1611,1627,0,0,0,0,0,0,0,0,0,0
1683119385.19931316,56628173,1610,1611,1606,1615,0,0,0,0,0,0,0,0,0,0
1683119385.30010605,56728966,1609,1609,1609,1609,0,0,0,0,0,0,0,0,0,0
1683119385.40006614,56828926,1611,1611,1614,1608,0,0,0,0,0,0,0,0,0,0
1683119385.50002599,56928886,1616,1616,1620,1612,0,0,0,0,0,0,0,0,0,0
1683119385.59998608,57028846,1591,1592,1606,1577,0,0,0,0,0,0,0,0,0,0
1683119385.69994617,57128806,1578,1578,1594,1562,0,0,0,0,0,0,0,0,0,0
1683119385.79990602,57228766,1566,1566,1572,1561,0,0,0,0,0,0,0,0,0,0
1683119385.89986610,57328726,1556,1556,1553,1559,0,0,0,0,0,0,0,0,0,0
1683119385.99982595,57428686,1546,1546,1536,1557,0,0,0,0,0,0,0,0,0,0
1683119386.09978604,57528646,1541,1540,1528,1553,0,0,0,0,0,0,0,0,0,0
1683119386.19974613,57628606,1534,1534,1525,1543,0,0,0,0,0,0,0,0,0,0
1683119386.29970598,57728566,1529,1529,1524,1533,0,0,0,0,0,0,0,0,0,0
1683119386.39966607,57828526,1526,1526,1526,1526,0,0,0,0,0,0,0,0,0,0
1683119386.49962616,57928486,1527,1527,1529,1525,0,0,0,0,0,0,0,0,0,0
1683119386.59958601,58028446,1529,1528,1531,1525,0,0,0,0,0,0,0,0,0,0
1683119386.69954610,58128406,1531,1531,1534,1529,0,0,0,0,0,0,0,0,0,0
1683119386.79950595,58228366,1536,1536,1539,1533,0,0,0,0,0,0,0,0,0,0
1683119386.89946604,58328326,1540,1540,1542,1538,0,0,0,0,0,0,0,0,0,0
1683119386.99942613,58428286,1543,1544,1545,1543,0,0,0,0,0,0,0,0,0,0
1683119387.09938598,58528246,1546,1546,1546,1547,0,0,0,0,0,0,0,0,0,0
1683119387.19934607,58628206,1550,1549,1549,1550,0,0,0,0,0,0,0,0,0,0
1683119387.29930615,58728166,1553,1552,1551,1554,0,0,0,0,0,0,0,0,0,0
1683119387.40009904,58828959,1555,1553,1554,1556,0,0,0,0,0,0,0,0,0,0
1683119387.50005913,58928919,1555,1554,1558,1560,0,0,0,0,0,0,0,0,0,0
1683119387.60001898,59028879,1556,1557,1562,1563,0,0,0,0,0,0,0,0,0,0
1683119387.69997907,59128839,1558,1559,1563,1564,0,0,0,0,0,0,0,0,0,0
1683119387.79993916,59228799,1560,1561,1565,1565,0,0,0,0,0,0,0,0,0,0
1683119387.89989901,59328759,1563,1563,1566,1565,0,0,0,0,0,0,0,0,0,0
1683119387.99985909,59428719,1565,1565,1566,1566,0,0,0,0,0,0,0,0,0,0
1683119388.09981894,59528679,1568,1567,1567,1567,0,0,0,0,0,0,0,0,0,0
1683119388.19977903,59628639,1570,1569,1567,1567,0,0,0,0,0,0,0,0,0,0
1683119388.29973912,59728599,1571,1571,1567,1567,0,0,0,0,0,0,0,0,0,0
1683119388.39969897,59828559,1571,1572,1568,1568,0,0,0,0,0,0,0,0,0,0
1683119388.49965906,59928519,1572,1573,1569,1569,0,0,0,0,0,0,0,0,0,0
1683119388.59961915,60028479,1574,1574,1570,1571,0,0,0,0,0,0,0,0,0,0
1683119388.69957900,60128439,1575,1574,1572,1572,0,0,0,0,0,0,0,0,0,0
1683119388.79953909,60228399,1575,1575,1573,1572,0,0,0,0,0,0,0,0,0,0
1683119388.89949894,60328359,1574,1574,1574,1573,0,0,0,0,0,0,0,0,0,0
1683119388.99945903,60428319,1574,1575,1575,1574,0,0,0,0,0,0,0,0,0,0
1683119389.09941912,60528279,1575,1575,1576,1575,0,0,0,0,0,0,0,0,0,0
1683119389.19937897,60628239,1575,1575,1576,1575,0,0,0,0,0,0,0,0,0,0
1683119389.29933906,60728199,1575,1575,1576,1576,0,0,0,0,0,0,0,0,0,0
1683119389.39929914,60828159,1575,1575,1576,1576,0,0,0,0,0,0,0,0,0,0
1683119389.50009203,60928952,1576,1576,1577,1577,0,0,0,0,0,0,0,0,0,0
1683119389.60005212,61028912,1575,1576,1577,1577,0,0,0,0,0,0,0,0,0,0
1683119389.70001197,61128872,1576,1576,1577,1577,0,0,0,0,0,0,0,0,0,0
1683119389.79997206,61228832,1577,1577,1577,1577,0,0,0,0,0,0,0,0,0,0
1683119389.89993215,61328792,1577,1577,1577,1577,0,0,0,0,0,0,0,0,0,0
1683119389.99989200,61428752,1577,1577,1576,1576,0,0,0,0,0,0,0,0,0,0
1683119390.09985209,61528712,1577,1576,1576,1576,0,0,0,0,0,0,0,0,0,0
1683119390.19981194,61628672,1578,1578,1577,1577,0,0,0,0,0,0,0,0,0,0
1683119390.29977202,61728632,1578,1578,1578,1577,0,0,0,0,0,0,0,0,0,0
1683119390.39973211,61828592,1579,1579,1578,1578,0,0,0,0,0,0,0,0,0,0
1683119390.49969196,61928552,1578,1578,1578,1578,0,0,0,0,0,0,0,0,0,0
1683119390.59965205,62028512,1578,1578,1578,1578,0,0,0,0,0,0,0,0,0,0
1683119390.69961214,62128472,1579,1579,1578,1579,0,0,0,0,0,0,0,0,0,0
1683119390.79957199,62228432,1579,1578,1578,1578,0,0,0,0,0,0,0,0,0,0
1683119390.89953208,62328392,1578,1577,1577,1578,0,0,0,0,0,0,0,0,0,0
1683119390.99949217,62428352,1579,1578,1579,1579,0,0,0,0,0,0,0,0,0,0
1683119391.09945202,62528312,1578,1578,1578,1578,0,0,0,0,0,0,0,0,0,0
1683119391.19941211,62628272,1578,1578,1579,1579,0,0,0,0,0,0,0,0,0,0
1683119391.29937196,62728232,1578,1578,1579,1579,0,0,0,0,0,0,0,0,0,0
1683119391.39933205,62828192,1579,1578,1579,1579,0,0,0,0,0,0,0,0,0,0
1683119391.50012517,62928985,1579,1579,1579,1579,0,0,0,0,0,0,0,0,0,0
1683119391.60008502,63028945,1579,1579,1579,1579,0,0,0,0,0,0,0,0,0,0
1683119391.70004511,63128905,1579,1579,1579,1579,0,0,0,0,0,0,0,0,0,0
1683119391.80000496,63228865,1580,1579,1579,1579,0,0,0,0,0,0,0,0,0,0
1683119391.89996505,63328825,1580,1579,1579,1579,0,0,0,0,0,0,0,0,0,0
1683119391.99992514,63428785,1580,1580,1580,1580,0,0,0,0,0,0,0,0,0,0
1683119392.09988499,63528745,1580,1579,1579,1580,0,0,0,0,0,0,0,0,0,0
1683119392.19984508,63628705,1579,1579,1579,1579,0,0,0,0,0,0,0,0,0,0
1683119392.29980516,63728665,1580,1581,1580,1581,0,0,0,0,0,0,0,0,0,0
1683119392.39976501,63828625,1580,1580,1580,1580,0,0,0,0,0,0,0,0,0,0
1683119392.49972510,63928585,1581,1581,1581,1581,0,0,0,0,0,0,0,0,0,0
1683119392.59968495,64028545,1580,1581,1581,1580,0,0,0,0,0,0,0,0,0,0
1683119392.69964504,64128505,1582,1581,1582,1582,0,0,0,0,0,0,0,0,0,0
1683119392.79960513,64228465,1580,1580,1580,1581,0,0,0,0,0,0,0,0,0,0
1683119392.89956498,64328425,1581,1581,1581,1581,0,0,0,0,0,0,0,0,0,0
1683119392.99952507,64428385,1581,1580,1581,1580,0,0,0,0,0,0,0,0,0,0
1683119393.09948516,64528345,1581,1581,1581,1581,0,0,0,0,0,0,0,0,0,0
1683119393.19944501,64628305,1581,1581,1581,1581,0,0,0,0,0,0,0,0,0,0
1683119393.29940510,64728265,1580,1581,1580,1580,0,0,0,0,0,0,0,0,0,0
1683119393.39936495,64828225,1579,1580,1579,1579,0,0,0,0,0,0,0,0,0,0
1683119393.49932504,64928185,1580,1580,1580,1581,0,0,0,0,0,0,0,0,0,0
1683119393.60011816,65028978,1581,1581,1580,1580,0,0,0,0,0,0,0,0,0,0
1683119393.70007801,65128938,1581,1582,1588,1573,0,0,0,0,0,0,0,0,0,0
1683119393.80003810,65228898,1581,1583,1585,1573,0,0,0,0,0,0,0,0,0,0
1683119393.89999795,65328858,1579,1581,1576,1573,0,0,0,0,0,0,0,0,0,0
1683119393.99995804,65428818,1577,1580,1568,1572,0,0,0,0,0,0,0,0,0,0
1683119394.09991813,65528778,1577,1579,1561,1568,0,0,0,0,0,0,0,0,0,0
1683119394.19987798,65628738,1577,1578,1556,1563,0,0,0,0,0,0,0,0,0,0
1683119394.29983807,65728698,1579,1577,1555,1559,0,0,0,0,0,0,0,0,0,0
1683119394.39979815,65828658,1579,1578,1556,1555,0,0,0,0,0,0,0,0,0,0
1683119394.49975801,65928618,1578,1578,1556,1554,0,0,0,0,0,0,0,0,0,0
1683119394.59971809,66028578,1577,1577,1555,1553,0,0,0,0,0,0,0,0,0,0
1683119394.69967794,66128538,1576,1577,1556,1554,0,0,0,0,0,0,0,0,0,0
1683119394.79963803,66228498,1575,1576,1555,1553,0,0,0,0,0,0,0,0,0,0
1683119394.89959812,66328458,1575,1575,1554,1553,0,0,0,0,0,0,0,0,0,0
1683119394.99955797,66428418,1575,1576,1553,1553,0,0,0,0,0,0,0,0,0,0
1683119395.09951806,66528378,1575,1576,1551,1551,0,0,0,0,0,0,0,0,0,0
1683119395.19947815,66628338,1576,1578,1550,1550,0,0,0,0,0,0,0,0,0,0
1683119395.29943800,66728298,1578,1579,1547,1547,0,0,0,0,0,0,0,0,0,0
1683119395.39939809,66828258,1581,1582,1545,1545,0,0,0,0,0,0,0,0,0,0
1683119395.49935794,66928218,1584,1585,1543,1543,0,0,0,0,0,0,0,0,0,0
1683119395.59931803,67028178,1587,1587,1540,1539,0,0,0,0,0,0,0,0,0,0
1683119395.70011115,67128971,1590,1590,1538,1537,0,0,0,0,0,0,0,0,0,0
1683119395.80007100,67228931,1592,1593,1536,1535,0,0,0,0,0,0,0,0,0,0
1683119395.90003109,67328891,1594,1594,1534,1535,0,0,0,0,0,0,0,0,0,0
1683119395.99999094,67428851,1595,1595,1535,1536,0,0,0,0,0,0,0,0,0,0
1683119396.09995103,67528811,1594,1593,1535,1537,0,0,0,0,0,0,0,0,0,0
1683119396.19991112,67628771,1592,1591,1538,1541,0,0,0,0,0,0,0,0,0,0
1683119396.29987097,67728731,1588,1587,1544,1547,0,0,0,0,0,0,0,0,0,0
1683119396.39983106,67828691,1583,1581,1552,1555,0,0,0,0,0,0,0,0,0,0
1683119396.49979115,67928651,1573,1570,1560,1563,0,0,0,0,0,0,0,0,0,0
1683119396.59975100,68028611,1564,1560,1573,1575,0,0,0,0,0,0,0,0,0,0
1683119396.69971108,68128571,1553,1549,1586,1586,0,0,0,0,0,0,0,0,0,0
1683119396.79967093,68228531,1543,1540,1597,1597,0,0,0,0,0,0,0,0,0,0
1683119396.89963102,68328491,1535,1534,1607,1607,0,0,0,0,0,0,0,0,0,0
1683119396.99959111,68428451,1530,1531,1613,1612,0,0,0,0,0,0,0,0,0,0
1683119397.09955096,68528411,1529,1530,1616,1614,0,0,0,0,0,0,0,0,0,0
1683119397.19951105,68628371,1530,1533,1613,1613,0,0,0,0,0,0,0,0,0,0
1683119397.29947114,68728331,1536,1538,1609,1609,0,0,0,0,0,0,0,0,0,0
1683119397.39943099,68828291,1544,1545,1603,1603,0,0,0,0,0,0,0,0,0,0
1683119397.49939108,68928251,1554,1555,1597,1597,0,0,0,0,0,0,0,0,0,0
1683119397.59935117,69028211,1562,1562,1589,1588,0,0,0,0,0,0,0,0,0,0
1683119397.69931102,69128171,1570,1570,1582,1581,0,0,0,0,0,0,0,0,0,0
1683119397.80010414,69228964,1578,1577,1576,1575,0,0,0,0,0,0,0,0,0,0
1683119397.90006399,69328924,1583,1581,1570,1570,0,0,0,0,0,0,0,0,0,0
1683119398.00002408,69428884,1586,1585,1567,1567,0,0,0,0,0,0,0,0,0,0
1683119398.09998417,69528844,1588,1586,1566,1566,0,0,0,0,0,0,0,0,0,0
1683119398.19994402,69628804,1587,1586,1566,1566,0,0,0,0,0,0,0,0,0,0
1683119398.29990411,69728764,1587,1585,1568,1569,0,0,0,0,0,0,0,0,0,0
1683119398.39986396,69828724,1584,1584,1571,1571,0,0,0,0,0,0,0,0,0,0
1683119398.49982405,69928684,1582,1582,1574,1574,0,0,0,0,0,0,0,0,0,0
1683119398.59978414,70028644,1579,1579,1577,1577,0,0,0,0,0,0,0,0,0,0
1683119398.69974399,70128604,1576,1576,1579,1579,0,0,0,0,0,0,0,0,0,0
1683119398.79970407,70228564,1575,1575,1582,1582,0,0,0,0,0,0,0,0,0,0
1683119398.89966416,70328524,1573,1574,1584,1583,0,0,0,0,0,0,0,0,0,0
1683119398.99962401,70428484,1573,1574,1585,1584,0,0,0,0,0,0,0,0,0,0
1683119399.09958410,70528444,1573,1573,1584,1584,0,0,0,0,0,0,0,0,0,0
1683119399.19954395,70628404,1574,1574,1584,1585,0,0,0,0,0,0,0,0,0,0
1683119399.29950404,70728364,1574,1574,1582,1582,0,0,0,0,0,0,0,0,0,0
1683119399.39946413,70828324,1575,1576,1581,1581,0,0,0,0,0,0,0,0,0,0
1683119399.49942398,70928284,1576,1576,1579,1579,0,0,0,0,0,0,0,0,0,0
1683119399.59938407,71028244,1579,1579,1579,1579,0,0,0,0,0,0,0,0,0,0
1683119399.69934416,71128204,1580,1580,1579,1579,0,0,0,0,0,0,0,0,0,0
1683119399.79930401,71228164,1581,1581,1578,1578,0,0,0,0,0,0,0,0,0,0
1683119399.90009713,71328957,1581,1581,1577,1577,0,0,0,0,0,0,0,0,0,0
1683119400.00005698,71428917,1581,1581,1577,1577,0,0,0,0,0,0,0,0,0,0
1683119400.10001707,71528877,1581,1581,1577,1577,0,0,0,0,0,0,0,0,0,0
1683119400.19997716,71628837,1581,1581,1578,1578,0,0,0,0,0,0,0,0,0,0
1683119400.29993701,71728797,1581,1581,1578,1578,0,0,0,0,0,0,0,0,0,0
1683119400.39989710,71828757,1581,1581,1579,1579,0,0,0,0,0,0,0,0,0,0
1683119400.49985695,71928717,1580,1580,1579,1579,0,0,0,0,0,0,0,0,0,0
1683119400.59981704,72028677,1579,1579,1580,1579,0,0,0,0,0,0,0,0,0,0
1683119400.69977713,72128637,1579,1579,1580,1580,0,0,0,0,0,0,0,0,0,0
1683119400.79973698,72228597,1361,1364,1637,1645,0,0,0,0,0,0,0,0,0,0
1683119400.89969707,72328557,1428,1436,1645,1649,0,0,0,0,0,0,0,0,0,0
1683119400.99965715,72428517,1487,1497,1635,1630,0,0,0,0,0,0,0,0,0,0
1683119401.09961700,72528477,1537,1543,1622,1614,0,0,0,0,0,0,0,0,0,0
1683119401.19957709,72628437,1576,1576,1614,1604,0,0,0,0,0,0,0,0,0,0
1683119401.29953694,72728397,1606,1596,1606,1599,0,0,0,0,0,0,0,0,0,0
1683119401.39949703,72828357,1635,1619,1586,1586,0,0,0,0,0,0,0,0,0,0
1683119401.49945712,72928317,1650,1636,1547,1555,0,0,0,0,0,0,0,0,0,0
1683119401.59941697,73028277,1650,1642,1528,1542,0,0,0,0,0,0,0,0,0,0
1683119401.69937706,73128237,1650,1649,1553,1553,0,0,0,0,0,0,0,0,0,0
1683119401.79933715,73228197,1649,1650,1576,1570,0,0,0,0,0,0,0,0,0,0
1683119401.89929700,73328157,1641,1643,1581,1578,0,0,0,0,0,0,0,0,0,0
1683119402.00009012,73428950,1628,1630,1574,1574,0,0,0,0,0,0,0,0,0,0
1683119402.10004997,73528910,1617,1620,1570,1570,0,0,0,0,0,0,0,0,0,0
1683119402.20001006,73628870,1609,1611,1567,1566,0,0,0,0,0,0,0,0,0,0
1683119402.29997015,73728830,1602,1603,1564,1561,0,0,0,0,0,0,0,0,0,0
1683119402.39993000,73828790,1596,1596,1561,1558,0,0,0,0,0,0,0,0,0,0
1683119402.49989009,73928750,1591,1589,1557,1555,0,0,0,0,0,0,0,0,0,0
1683119402.59984994,74028710,1586,1584,1554,1552,0,0,0,0,0,0,0,0,0,0
1683119402.69981003,74128670,1581,1579,1550,1549,0,0,0,0,0,0,0,0,0,0
1683119402.79977012,74228630,1577,1577,1548,1548,0,0,0,0,0,0,0,0,0,0
1683119402.89972997,74328590,1574,1575,1547,1546,0,0,0,0,0,0,0,0,0,0
1683119402.99969006,74428550,1570,1572,1545,1544,0,0,0,0,0,0,0,0,0,0
1683119403.09965014,74528510,1673,1674,1525,1522,0,0,0,0,0,0,0,0,0,0
1683119403.19960999,74628470,1646,1647,1510,1508,0,0,0,0,0,0,0,0,0,0
1683119403.29957008,74728430,1626,1627,1509,1508,0,0,0,0,0,0,0,0,0,0
1683119403.39952993,74828390,1609,1611,1509,1509,0,0,0,0,0,0,0,0,0,0
1683119403.49949002,74928350,1596,1599,1511,1511,0,0,0,0,0,0,0,0,0,0
1683119403.59945011,75028310,1586,1589,1515,1514,0,0,0,0,0,0,0,0,0,0
1683119403.69940996,75128270,1579,1581,1519,1520,0,0,0,0,0,0,0,0,0,0
1683119403.79937005,75228230,1574,1575,1524,1526,0,0,0,0,0,0,0,0,0,0
1683119403.89933014,75328190,1569,1570,1529,1531,0,0,0,0,0,0,0,0,0,0
1683119404.00012302,75428983,1566,1568,1535,1538,0,0,0,0,0,0,0,0,0,0
1683119404.10008311,75528943,1565,1566,1541,1544,0,0,0,0,0,0,0,0,0,0
1683119404.20004296,75628903,1563,1565,1546,1550,0,0,0,0,0,0,0,0,0,0
1683119404.30000305,75728863,1563,1563,1550,1553,0,0,0,0,0,0,0,0,0,0
1683119404.39996314,75828823,1563,1563,1555,1557,0,0,0,0,0,0,0,0,0,0
1683119404.49992299,75928783,1564,1562,1558,1560,0,0,0,0,0,0,0,0,0,0
1683119404.59988308,76028743,1566,1564,1564,1565,0,0,0,0,0,0,0,0,0,0
1683119404.69984317,76128703,1567,1564,1566,1567,0,0,0,0,0,0,0,0,0,0
1683119404.79980302,76228663,1568,1563,1570,1573,0,0,0,0,0,0,0,0,0,0
1683119404.89976311,76328623,1556,1548,1588,1591,0,0,0,0,0,0,0,0,0,0
1683119404.99972296,76428583,1537,1531,1610,1611,0,0,0,0,0,0,0,0,0,0
1683119405.09968305,76528543,1520,1518,1628,1628,0,0,0,0,0,0,0,0,0,0
1683119405.19964314,76628503,1509,1511,1640,1638,0,0,0,0,0,0,0,0,0,0
1683119405.29960299,76728463,1505,1510,1643,1640,0,0,0,0,0,0,0,0,0,0
1683119405.39956307,76828423,1508,1516,1639,1638,0,0,0,0,0,0,0,0,0,0
1683119405.49952316,76928383,1518,1525,1630,1629,0,0,0,0,0,0,0,0,0,0
1683119405.59948301,77028343,1531,1536,1618,1616,0,0,0,0,0,0,0,0,0,0
1683119405.69944310,77128303,1547,1550,1603,1602,0,0,0,0,0,0,0,0,0,0
1683119405.79940295,77228263,1562,1562,1587,1587,0,0,0,0,0,0,0,0,0,0
1683119405.89936304,77328223,1576,1575,1575,1574,0,0,0,0,0,0,0,0,0,0
1683119405.99932313,77428183,1589,1586,1565,1565,0,0,0,0,0,0,0,0,0,0
1683119406.10011601,77528976,1597,1593,1560,1559,0,0,0,0,0,0,0,0,0,0
1683119406.20007610,77628936,1600,1596,1556,1557,0,0,0,0,0,0,0,0,0,0
1683119406.30003595,77728896,1600,1597,1557,1558,0,0,0,0,0,0,0,0,0,0
1683119406.39999604,77828856,1599,1597,1560,1561,0,0,0,0,0,0,0,0,0,0
1683119406.49995613,77928816,1596,1595,1563,1564,0,0,0,0,0,0,0,0,0,0
1683119406.59991598,78028776,1593,1593,1566,1566,0,0,0,0,0,0,0,0,0,0
1683119406.69987607,78128736,1589,1589,1570,1569,0,0,0,0,0,0,0,0,0,0
1683119406.79983616,78228696,1586,1587,1573,1573,0,0,0,0,0,0,0,0,0,0
1683119406.89979601,78328656,1582,1582,1575,1575,0,0,0,0,0,0,0,0,0,0
1683119406.99975610,78428616,1580,1580,1579,1579,0,0,0,0,0,0,0,0,0,0
1683119407.09971595,78528576,1578,1578,1582,1582,0,0,0,0,0,0,0,0,0,0
1683119407.19967604,78628536,1576,1577,1585,1584,0,0,0,0,0,0,0,0,0,0
1683119407.29963613,78728496,1574,1575,1586,1586,0,0,0,0,0,0,0,0,0,0
1683119407.39959598,78828456,1574,1574,1588,1587,0,0,0,0,0,0,0,0,0,0
1683119407.49955606,78928416,1572,1572,1586,1586,0,0,0,0,0,0,0,0,0,0
1683119407.59951615,79028376,1572,1573,1587,1586,0,0,0,0,0,0,0,0,0,0
1683119407.69947600,79128336,1573,1573,1586,1585,0,0,0,0,0,0,0,0,0,0
1683119407.79943609,79228296,1574,1575,1584,1585,0,0,0,0,0,0,0,0,0,0
1683119407.89939594,79328256,1576,1577,1584,1584,0,0,0,0,0,0,0,0,0,0
1683119407.99935603,79428216,1578,1578,1582,1582,0,0,0,0,0,0,0,0,0,0
1683119408.09931612,79528176,1579,1580,1580,1580,0,0,0,0,0,0,0,0,0,0
1683119408.20010900,79628969,1581,1581,1579,1579,0,0,0,0,0,0,0,0,0,0
1683119408.30006909,79728929,1582,1582,1578,1578,0,0,0,0,0,0,0,0,0,0
1683119408.40002894,79828889,1583,1582,1577,1577,0,0,0,0,0,0,0,0,0,0
1683119408.49998903,79928849,1583,1583,1577,1577,0,0,0,0,0,0,0,0,0,0
1683119408.59994912,80028809,1584,1584,1578,1578,0,0,0,0,0,0,0,0,0,0
1683119408.69990897,80128769,1583,1583,1578,1577,0,0,0,0,0,0,0,0,0,0
1683119408.79986906,80228729,1583,1582,1577,1578,0,0,0,0,0,0,0,0,0,0
1683119408.89982915,80328689,1582,1582,1578,1578,0,0,0,0,0,0,0,0,0,0
1683119408.99978900,80428649,1582,1582,1579,1579,0,0,0,0,0,0,0,0,0,0
1683119409.09974909,80528609,1581,1581,1579,1580,0,0,0,0,0,0,0,0,0,0
1683119409.19970894,80628569,1580,1580,1581,1581,0,0,0,0,0,0,0,0,0,0
1683119409.29966903,80728529,1580,1580,1581,1581,0,0,0,0,0,0,0,0,0,0
1683119409.39962912,80828489,1579,1580,1581,1582,0,0,0,0,0,0,0,0,0,0
1683119409.49958897,80928449,1579,1580,1582,1582,0,0,0,0,0,0,0,0,0,0
1683119409.59954906,81028409,1580,1580,1583,1582,0,0,0,0,0,0,0,0,0,0
1683119409.69950914,81128369,1580,1580,1582,1582,0,0,0,0,0,0,0,0,0,0
1683119409.79946899,81228329,1581,1581,1584,1583,0,0,0,0,0,0,0,0,0,0
1683119409.89942908,81328289,1582,1582,1587,1579,0,0,0,0,0,0,0,0,0,0
1683119409.99938893,81428249,1581,1581,1588,1574,0,0,0,0,0,0,0,0,0,0
1683119410.09934902,81528209,1580,1582,1582,1574,0,0,0,0,0,0,0,0,0,0
1683119410.19930911,81628169,1578,1580,1571,1572,0,0,0,0,0,0,0,0,0,0
1683119410.30010200,81728962,1577,1579,1563,1568,0,0,0,0,0,0,0,0,0,0
1683119410.40006208,81828922,1577,1579,1558,1565,0,0,0,0,0,0,0,0,0,0
1683119410.50002193,81928882,1578,1579,1555,1560,0,0,0,0,0,0,0,0,0,0
1683119410.59998202,82028842,1578,1578,1554,1556,0,0,0,0,0,0,0,0,0,0
1683119410.69994211,82128802,1579,1578,1555,1555,0,0,0,0,0,0,0,0,0,0
1683119410.79990196,82228762,1579,1578,1556,1554,0,0,0,0,0,0,0,0,0,0
1683119410.89986205,82328722,1578,1578,1557,1554,0,0,0,0,0,0,0,0,0,0
1683119410.99982214,82428682,1577,1577,1556,1554,0,0,0,0,0,0,0,0,0,0
1683119411.09978199,82528642,1576,1577,1555,1555,0,0,0,0,0,0,0,0,0,0
1683119411.19974208,82628602,1575,1577,1554,1554,0,0,0,0,0,0,0,0,0,0
1683119411.29970217,82728562,1575,1576,1553,1553,0,0,0,0,0,0,0,0,0,0
1683119411.39966202,82828522,1576,1577,1552,1551,0,0,0,0,0,0,0,0,0,0
1683119411.49962211,82928482,1576,1578,1550,1550,0,0,0,0,0,0,0,0,0,0
1683119411.59958196,83028442,1578,1579,1548,1548,0,0,0,0,0,0,0,0,0,0
1683119411.69954205,83128402,1580,1581,1546,1546,0,0,0,0,0,0,0,0,0,0
1683119411.79950213,83228362,1582,1583,1544,1543,0,0,0,0,0,0,0,0,0,0
1683119411.89946198,83328322,1584,1585,1542,1541,0,0,0,0,0,0,0,0,0,0
1683119411.99942207,83428282,1587,1588,1540,1540,0,0,0,0,0,0,0,0,0,0
1683119412.09938216,83528242,1588,1589,1538,1538,0,0,0,0,0,0,0,0,0,0
1683119412.19934201,83628202,1590,1590,1538,1538,0,0,0,0,0,0,0,0,0,0
1683119412.29930210,83728162,1591,1590,1538,1540,0,0,0,0,0,0,0,0,0,0
1683119412.40009499,83828955,1591,1591,1539,1542,0,0,0,0,0,0,0,0,0,0
1683119412.50005507,83928915,1589,1589,1542,1544,0,0,0,0,0,0,0,0,0,0
1683119412.60001516,84028875,1586,1586,1546,1549,0,0,0,0,0,0,0,0,0,0
1683119412.69997501,84128835,1583,1581,1553,1556,0,0,0,0,0,0,0,0,0,0
1683119412.79993510,84228795,1577,1574,1562,1564,0,0,0,0,0,0,0,0,0,0
1683119412.89989495,84328755,1568,1565,1572,1574,0,0,0,0,0,0,0,0,0,0
1683119412.99985504,84428715,1558,1555,1583,1584,0,0,0,0,0,0,0,0,0,0
1683119413.09981513,84528675,1549,1547,1594,1594,0,0,0,0,0,0,0,0,0,0
1683119413.19977498,84628635,1541,1540,1602,1602,0,0,0,0,0,0,0,0,0,0
1683119413.29973507,84728595,1535,1535,1608,1608,0,0,0,0,0,0,0,0,0,0
1683119413.39969516,84828555,1532,1534,1612,1611,0,0,0,0,0,0,0,0,0,0
1683119413.49965501,84928515,1533,1535,1612,1611,0,0,0,0,0,0,0,0,0,0
1683119413.59961510,85028475,1536,1538,1608,1608,0,0,0,0,0,0,0,0,0,0
1683119413.69957495,85128435,1541,1543,1603,1603,0,0,0,0,0,0,0,0,0,0
1683119413.79953504,85228395,1548,1549,1597,1597,0,0,0,0,0,0,0,0,0,0
1683119413.89949512,85328355,1556,1557,1590,1589,0,0,0,0,0,0,0,0,0,0
1683119413.99945498,85428315,1565,1565,1584,1583,0,0,0,0,0,0,0,0,0,0
1683119414.09941506,85528275,1572,1571,1578,1577,0,0,0,0,0,0,0,0,0,0
1683119414.19937515,85628235,1578,1578,1573,1572,0,0,0,0,0,0,0,0,0,0
1683119414.29933500,85728195,1583,1582,1569,1569,0,0,0,0,0,0,0,0,0,0
1683119414.39929509,85828155,1586,1585,1567,1567,0,0,0,0,0,0,0,0,0,0
1683119414.50008798,85928948,1588,1587,1566,1567,0,0,0,0,0,0,0,0,0,0
1683119414.60004807,86028908,1589,1587,1567,1568,0,0,0,0,0,0,0,0,0,0
1683119414.70000815,86128868,1587,1586,1568,1569,0,0,0,0,0,0,0,0,0,0
1683119414.79996800,86228828,1585,1585,1571,1571,0,0,0,0,0,0,0,0,0,0
1683119414.89992809,86328788,1582,1583,1574,1574,0,0,0,0,0,0,0,0,0,0
1683119414.99988794,86428748,1580,1581,1577,1577,0,0,0,0,0,0,0,0,0,0
1683119415.09984803,86528708,1578,1578,1580,1579,0,0,0,0,0,0,0,0,0,0
1683119415.19980812,86628668,1576,1576,1582,1581,0,0,0,0,0,0,0,0,0,0
1683119415.29976797,86728628,1574,1575,1583,1583,0,0,0,0,0,0,0,0,0,0
1683119415.39972806,86828588,1573,1573,1584,1583,0,0,0,0,0,0,0,0,0,0
1683119415.49968815,86928548,1572,1573,1584,1584,0,0,0,0,0,0,0,0,0,0
1683119415.59964800,87028508,1573,1574,1583,1584,0,0,0,0,0,0,0,0,0,0
1683119415.69960809,87128468,1574,1575,1584,1583,0,0,0,0,0,0,0,0,0,0
1683119415.79956794,87228428,1575,1576,1582,1582,0,0,0,0,0,0,0,0,0,0
1683119415.89952803,87328388,1576,1576,1581,1581,0,0,0,0,0,0,0,0,0,0
1683119415.99948812,87428348,1578,1578,1580,1580,0,0,0,0,0,0,0,0,0,0
1683119416.09944797,87528308,1579,1578,1578,1578,0,0,0,0,0,0,0,0,0,0
1683119416.19940805,87628268,1581,1580,1578,1579,0,0,0,0,0,0,0,0,0,0
1683119416.29936814,87728228,1580,1580,1576,1576,0,0,0,0,0,0,0,0,0,0
1683119416.39932799,87828188,1582,1581,1577,1577,0,0,0,0,0,0,0,0,0,0
1683119416.50012112,87928981,1582,1582,1577,1577,0,0,0,0,0,0,0,0,0,0
1683119416.60008097,88028941,1582,1582,1578,1578,0,0,0,0,0,0,0,0,0,0
1683119416.70004106,88128901,1582,1583,1579,1579,0,0,0,0,0,0,0,0,0,0
1683119416.80000114,88228861,1582,1582,1579,1580,0,0,0,0,0,0,0,0,0,0
1683119416.89996099,88328821,1582,1582,1580,1581,0,0,0,0,0,0,0,0,0,0
1683119416.99992108,88428781,1581,1581,1580,1579,0,0,0,0,0,0,0,0,0,0
1683119417.09988093,88528741,1581,1581,1581,1581,0,0,0,0,0,0,0,0,0,0
1683119417.19984102,88628701,1580,1580,1580,1581,0,0,0,0,0,0,0,0,0,0
1683119417.29980111,88728661,1580,1579,1581,1581,0,0,0,0,0,0,0,0,0,0
1683119417.39976096,88828621,1579,1580,1582,1581,0,0,0,0,0,0,0,0,0,0
1683119417.49972105,88928581,1580,1580,1582,1582,0,0,0,0,0,0,0,0,0,0
1683119417.59968114,89028541,1579,1580,1581,1581,0,0,0,0,0,0,0,0,0,0
1683119417.69964099,89128501,1581,1581,1582,1582,0,0,0,0,0,0,0,0,0,0
1683119417.79960108,89228461,1581,1581,1582,1582,0,0,0,0,0,0,0,0,0,0
1683119417.89956117,89328421,1580,1580,1581,1581,0,0,0,0,0,0,0,0,0,0
1683119417.99952102,89428381,1582,1582,1587,1577,0,0,0,0,0,0,0,0,0,0
1683119418.09948111,89528341,1581,1580,1586,1572,0,0,0,0,0,0,0,0,0,0
1683119418.19944096,89628301,1580,1580,1581,1575,0,0,0,0,0,0,0,0,0,0
1683119418.29940104,89728261,1577,1576,1573,1575,0,0,0,0,0,0,0,0,0,0
1683119418.39936113,89828221,1573,1573,1567,1574,0,0,0,0,0,0,0,0,0,0
1683119418.49932098,89928181,1570,1570,1563,1571,0,0,0,0,0,0,0,0,0,0
1683119418.60011411,90028974,1569,1569,1565,1569,0,0,0,0,0,0,0,0,0,0
1683119418.70007396,90128934,1567,1567,1565,1567,0,0,0,0,0,0,0,0,0,0
1683119418.80003405,90228894,1566,1567,1567,1566,0,0,0,0,0,0,0,0,0,0
1683119418.89999413,90328854,1565,1565,1567,1564,0,0,0,0,0,0,0,0,0,0
1683119418.99995399,90428814,1564,1565,1567,1564,0,0,0,0,0,0,0,0,0,0
1683119419.09991407,90528774,1564,1564,1566,1565,0,0,0,0,0,0,0,0,0,0
1683119419.19987416,90628734,1564,1564,1566,1565,0,0,0,0,0,0,0,0,0,0
1683119419.29983401,90728694,1563,1563,1565,1565,0,0,0,0,0,0,0,0,0,0
1683119419.39979410,90828654,1562,1562,1563,1563,0,0,0,0,0,0,0,0,0,0
1683119419.49975395,90928614,1562,1562,1563,1563,0,0,0,0,0,0,0,0,0,0
1683119419.59971404,91028574,1561,1561,1562,1562,0,0,0,0,0,0,0,0,0,0
1683119419.69967413,91128534,1561,1561,1562,1562,0,0,0,0,0,0,0,0,0,0
1683119419.79963398,91228494,1561,1560,1561,1560,0,0,0,0,0,0,0,0,0,0
1683119419.89959407,91328454,1560,1560,1561,1560,0,0,0,0,0,0,0,0,0,0
1683119419.99955416,91428414,1560,1560,1560,1559,0,0,0,0,0,0,0,0,0,0
1683119420.09951401,91528374,1559,1559,1559,1558,0,0,0,0,0,0,0,0,0,0
1683119420.19947410,91628334,1560,1559,1559,1558,0,0,0,0,0,0,0,0,0,0
1683119420.29943395,91728294,1559,1558,1558,1557,0,0,0,0,0,0,0,0,0,0
1683119420.39939404,91828254,1558,1558,1558,1557,0,0,0,0,0,0,0,0,0,0
1683119420.49935412,91928214,1559,1559,1559,1558,0,0,0,0,0,0,0,0,0,0
1683119420.59931397,92028174,1558,1559,1559,1557,0,0,0,0,0,0,0,0,0,0
1683119420.70010710,92128967,1559,1558,1560,1557,0,0,0,0,0,0,0,0,0,0
1683119420.80006695,92228927,1559,1558,1560,1558,0,0,0,0,0,0,0,0,0,0
1683119420.90002704,92328887,1559,1559,1558,1561,0,0,0,0,0,0,0,0,0,0
1683119420.99998713,92428847,1560,1559,1557,1563,0,0,0,0,0,0,0,0,0,0
1683119421.09994698,92528807,1559,1559,1556,1563,0,0,0,0,0,0,0,0,0,0
1683119421.19990706,92628767,1558,1559,1557,1560,0,0,0,0,0,0,0,0,0,0
1683119421.29986715,92728727,1557,1558,1557,1557,0,0,0,0,0,0,0,0,0,0
1683119421.39982700,92828687,1558,1558,1557,1559,0,0,0,0,0,0,0,0,0,0
1683119421.49978709,92928647,1556,1556,1555,1556,0,0,0,0,0,0,0,0,0,0
1683119421.59974694,93028607,1553,1553,1551,1552,0,0,0,0,0,0,0,0,0,0
1683119421.69970703,93128567,1548,1548,1546,1546,0,0,0,0,0,0,0,0,0,0
1683119421.79966712,93228527,1543,1543,1540,1540,0,0,0,0,0,0,0,0,0,0
1683119421.89962697,93328487,1535,1536,1533,1532,0,0,0,0,0,0,0,0,0,0
1683119421.99958706,93428447,1528,1528,1524,1524,0,0,0,0,0,0,0,0,0,0
1683119422.09954715,93528407,1523,1523,1520,1520,0,0,0,0,0,0,0,0,0,0
1683119422.19950700,93628367,1521,1520,1519,1519,0,0,0,0,0,0,0,0,0,0
1683119422.29946709,93728327,1520,1520,1520,1521,0,0,0,0,0,0,0,0,0,0
1683119422.39942694,93828287,1521,1521,1523,1523,0,0,0,0,0,0,0,0,0,0
1683119422.49938703,93928247,1523,1523,1527,1527,0,0,0,0,0,0,0,0,0,0
1683119422.59934711,94028207,1526,1526,1531,1531,0,0,0,0,0,0,0,0,0,0
1683119422.69930696,94128167,1531,1531,1536,1537,0,0,0,0,0,0,0,0,0,0
1683119422.80010009,94228960,1534,1534,1539,1539,0,0,0,0,0,0,0,0,0,0
1683119422.90005994,94328920,1538,1538,1542,1542,0,0,0,0,0,0,0,0,0,0
1683119423.00002003,94428880,1540,1540,1544,1543,0,0,0,0,0,0,0,0,0,0
1683119423.09998012,94528840,1542,1542,1544,1543,0,0,0,0,0,0,0,0,0,0
1683119423.19993997,94628800,1544,1544,1544,1544,0,0,0,0,0,0,0,0,0,0
1683119423.29990005,94728760,1545,1546,1545,1544,0,0,0,0,0,0,0,0,0,0
1683119423.39986014,94828720,1546,1547,1544,1545,0,0,0,0,0,0,0,0,0,0
1683119423.49981999,94928680,1547,1547,1544,1544,0,0,0,0,0,0,0,0,0,0
1683119423.59978008,95028640,1547,1547,1544,1544,0,0,0,0,0,0,0,0,0,0
1683119423.69973993,95128600,1548,1548,1545,1545,0,0,0,0,0,0,0,0,0,0
1683119423.79970002,95228560,1548,1548,1545,1545,0,0,0,0,0,0,0,0,0,0
1683119423.89966011,95328520,1548,1548,1546,1546,0,0,0,0,0,0,0,0,0,0
1683119423.99961996,95428480,1547,1547,1546,1546,0,0,0,0,0,0,0,0,0,0
1683119424.09958005,95528440,1547,1547,1546,1546,0,0,0,0,0,0,0,0,0,0
1683119424.19954014,95628400,1546,1546,1546,1546,0,0,0,0,0,0,0,0,0,0
1683119424.29949999,95728360,1545,1545,1545,1545,0,0,0,0,0,0,0,0,0,0
1683119424.39946008,95828320,1545,1545,1546,1546,0,0,0,0,0,0,0,0,0,0
1683119424.49942017,95928280,1545,1545,1546,1546,0,0,0,0,0,0,0,0,0,0
1683119424.59938002,96028240,1544,1544,1545,1545,0,0,0,0,0,0,0,0,0,0
1683119424.69934011,96128200,1544,1543,1545,1545,0,0,0,0,0,0,0,0,0,0
1683119424.79929996,96228160,1545,1544,1545,1545,0,0,0,0,0,0,0,0,0,0
1683119424.90009308,96328953,1544,1543,1545,1545,0,0,0,0,0,0,0,0,0,0
1683119425.00005317,96428913,1544,1544,1545,1544,0,0,0,0,0,0,0,0,0,0
1683119425.10001302,96528873,1544,1544,1544,1544,0,0,0,0,0,0,0,0,0,0
1683119425.19997311,96628833,1544,1545,1545,1544,0,0,0,0,0,0,0,0,0,0
1683119425.29993296,96728793,1544,1544,1544,1544,0,0,0,0,0,0,0,0,0,0
1683119425.39989305,96828753,1543,1544,1543,1543,0,0,0,0,0,0,0,0,0,0
1683119425.49985313,96928713,1545,1544,1544,1544,0,0,0,0,0,0,0,0,0,0
1683119425.59981298,97028673,1545,1545,1544,1544,0,0,0,0,0,0,0,0,0,0
1683119425.69977307,97128633,1544,1544,1544,1544,0,0,0,0,0,0,0,0,0,0
1683119425.79973316,97228593,1544,1544,1543,1544,0,0,0,0,0,0,0,0,0,0
1683119425.89969301,97328553,1544,1544,1544,1544,0,0,0,0,0,0,0,0,0,0
1683119425.99965310,97428513,1544,1544,1544,1544,0,0,0,0,0,0,0,0,0,0
1683119426.09961295,97528473,1544,1544,1544,1544,0,0,0,0,0,0,0,0,0,0
1683119426.19957304,97628433,1544,1544,1544,1544,0,0,0,0,0,0,0,0,0,0
1683119426.29953313,97728393,1543,1543,1543,1543,0,0,0,0,0,0,0,0,0,0
1683119426.39949298,97828353,1543,1544,1544,1543,0,0,0,0,0,0,0,0,0,0
1683119426.49945307,97928313,1544,1543,1543,1544,0,0,0,0,0,0,0,0,0,0
1683119426.59941316,98028273,1544,1544,1544,1544,0,0,0,0,0,0,0,0,0,0
1683119426.69937301,98128233,1544,1543,1544,1544,0,0,0,0,0,0,0,0,0,0
1683119426.79933310,98228193,1544,1544,1544,1544,0,0,0,0,0,0,0,0,0,0
1683119426.90012598,98328986,1544,1545,1545,1545,0,0,0,0,0,0,0,0,0,0
1683119427.00008607,98428946,1544,1545,1545,1545,0,0,0,0,0,0,0,0,0,0
1683119427.10004616,98528906,1544,1544,1544,1544,0,0,0,0,0,0,0,0,0,0
1683119427.20000601,98628866,1544,1544,1545,1544,0,0,0,0,0,0,0,0,0,0
1683119427.29996610,98728826,1545,1545,1545,1545,0,0,0,0,0,0,0,0,0,0
1683119427.39992595,98828786,1544,1544,1544,1544,0,0,0,0,0,0,0,0,0,0
1683119427.49988604,98928746,1545,1545,1545,1545,0,0,0,0,0,0,0,0,0,0
1683119427.59984612,99028706,1544,1544,1544,1544,0,0,0,0,0,0,0,0,0,0
1683119427.69980597,99128666,1544,1544,1543,1544,0,0,0,0,0,0,0,0,0,0
1683119427.79976606,99228626,1545,1544,1544,1544,0,0,0,0,0,0,0,0,0,0
1683119427.89972615,99328586,1544,1543,1543,1544,0,0,0,0,0,0,0,0,0,0
1683119427.99968600,99428546,1544,1544,1544,1544,0,0,0,0,0,0,0,0,0,0
1683119428.09964609,99528506,1544,1544,1544,1544,0,0,0,0,0,0,0,0,0,0
1683119428.19960594,99628466,1544,1544,1544,1544,0,0,0,0,0,0,0,0,0,0
1683119428.29956603,99728426,1544,1544,1544,1544,0,0,0,0,0,0,0,0,0,0
1683119428.39952612,99828386,1544,1544,1544,1544,0,0,0,0,0,0,0,0,0,0
1683119428.49948597,99928346,1544,1544,1544,1544,0,0,0,0,0,0,0,0,0,0
1683119428.59944606,100028306,1544,1544,1544,1544,0,0,0,0,0,0,0,0,0,0
1683119428.69940615,100128266,1544,1544,1543,1544,0,0,0,0,0,0,0,0,0,0
1683119428.79936600,100228226,1544,1544,1544,1544,0,0,0,0,0,0,0,0,0,0
1683119428.89932609,100328186,1544,1544,1544,1545,0,0,0,0,0,0,0,0,0,0
1683119429.00011897,100428979,1545,1545,1545,1545,0,0,0,0,0,0,0,0,0,0
1683119429.10007906,100528939,1545,1544,1545,1545,0,0,0,0,0,0,0,0,0,0
1683119429.20003915,100628899,1544,1545,1545,1545,0,0,0,0,0,0,0,0,0,0
1683119429.29999900,100728859,1545,1545,1545,1545,0,0,0,0,0,0,0,0,0,0
1683119429.39995909,100828819,1545,1545,1545,1545,0,0,0,0,0,0,0,0,0,0
1683119429.49991894,100928779,1545,1544,1545,1545,0,0,0,0,0,0,0,0,0,0
1683119429.59987903,101028739,1545,1545,1545,1545,0,0,0,0,0,0,0,0,0,0
1683119429.69983912,101128699,1545,1545,1545,1545,0,0,0,0,0,0,0,0,0,0
1683119429.79979897,101228659,1545,1545,1545,1545,0,0,0,0,0,0,0,0,0,0
1683119429.89975905,101328619,1544,1545,1544,1544,0,0,0,0,0,0,0,0,0,0
1683119429.99971914,101428579,1544,1544,1544,1544,0,0,0,0,0,0,0,0,0,0
1683119430.09967899,101528539,1544,1544,1544,1544,0,0,0,0,0,0,0,0,0,0
1683119430.19963908,101628499,1544,1544,1544,1544,0,0,0,0,0,0,0,0,0,0
1683119430.29959893,101728459,1544,1544,1544,1544,0,0,0,0,0,0,0,0,0,0
1683119430.39955902,101828419,1543,1543,1543,1543,0,0,0,0,0,0,0,0,0,0
1683119430.49951911,101928379,1544,1543,1543,1544,0,0,0,0,0,0,0,0,0,0
1683119430.59947896,102028339,1544,1544,1544,1544,0,0,0,0,0,0,0,0,0,0
1683119430.69943905,102128299,1543,1544,1544,1544,0,0,0,0,0,0,0,0,0,0
1683119430.79939914,102228259,1543,1544,1544,1544,0,0,0,0,0,0,0,0,0,0
1683119430.89935899,102328219,1544,1544,1545,1544,0,0,0,0,0,0,0,0,0,0
1683119430.99931908,102428179,1544,1544,1544,1544,0,0,0,0,0,0,0,0,0,0
1683119431.10011196,102528972,1544,1544,1544,1545,0,0,0,0,0,0,0,0,0,0
1683119431.20007205,102628932,1544,1544,1545,1544,0,0,0,0,0,0,0,0,0,0
1683119431.30003214,102728892,1544,1544,1544,1544,0,0,0,0,0,0,0,0,0,0
1683119431.39999199,102828852,1545,1545,1545,1545,0,0,0,0,0,0,0,0,0,0
1683119431.49995208,102928812,1544,1544,1544,1544,0,0,0,0,0,0,0,0,0,0
1683119431.59991217,103028772,1545,1545,1545,1544,0,0,0,0,0,0,0,0,0,0
1683119431.69987202,103128732,1545,1544,1544,1544,0,0,0,0,0,0,0,0,0,0
1683119431.79983211,103228692,1508,1507,1499,1499,0,0,0,0,0,0,0,0,0,0
1683119431.89979196,103328652,1373,1372,1321,1321,0,0,0,0,0,0,0,0,0,0
1683119431.99975204,103428612,1316,1316,1240,1238,0,0,0,0,0,0,0,0,0,0
1683119432.09971213,103528572,1301,1299,1215,1213,0,0,0,0,0,0,0,0,0,0
1683119432.19967198,103628532,1286,1285,1193,1190,0,0,0,0,0,0,0,0,0,0
1683119432.29963207,103728492,1262,1260,1152,1150,0,0,0,0,0,0,0,0,0,0
1683119432.39959216,103828452,1170,1169,1152,1150,0,0,0,0,0,0,0,0,0,0
1683119432.49955201,103928412,1135,1134,1152,1150,0,0,0,0,0,0,0,0,0,0
1683119432.59951210,104028372,1135,1133,1152,1150,0,0,0,0,0,0,0,0,0,0
1683119432.69947195,104128332,1135,1133,1152,1150,0,0,0,0,0,0,0,0,0,0
1683119432.79943204,104228292,1135,1121,1150,1169,0,0,0,0,0,0,0,0,0,0
1683119432.89939213,104328252,1135,1127,1150,1161,0,0,0,0,0,0,0,0,0,0
1683119432.99935198,104428212,1136,1129,1150,1157,0,0,0,0,0,0,0,0,0,0
1683119433.09931207,104528172,1136,1129,1150,1157,0,0,0,0,0,0,0,0,0,0
1683119433.20010495,104628965,1136,1129,1150,1157,0,0,0,0,0,0,0,0,0,0
1683119433.30006504,104728925,1136,1128,1150,1158,0,0,0,0,0,0,0,0,0,0
1683119433.40002513,104828885,1136,1128,1150,1158,0,0,0,0,0,0,0,0,0,0
1683119433.49998498,104928845,1136,1128,1150,1158,0,0,0,0,0,0,0,0,0,0
1683119433.59994507,105028805,1135,1135,1150,1150,0,0,0,0,0,0,0,0,0,0
1683119433.69990516,105128765,1135,1134,1150,1151,0,0,0,0,0,0,0,0,0,0
1683119433.79986501,105228725,1135,1134,1150,1151,0,0,0,0,0,0,0,0,0,0
1683119433.89982510,105328685,1135,1133,1150,1151,0,0,0,0,0,0,0,0,0,0
1683119433.99978495,105428645,1047,1046,1150,1150,0,0,0,0,0,0,0,0,0,0
1683119434.09974504,105528605,1000,1000,1000,1000,0,0,0,0,0,0,0,0,0,0
1683119434.19970512,105628565,1000,1000,1000,1000,0,0,0,0,0,0,0,0,0,0
1683119434.29966497,105728525,1000,1000,1000,1000,0,0,0,0,0,0,0,0,0,0
1683119434.39962506,105828485,1000,1000,1000,1000,0,0,0,0,0,0,0,0,0,0
1683119434.49958515,105928445,1000,1000,1000,1000,0,0,0,0,0,0,0,0,0,0
1683119434.59954500,106028405,1000,1000,1000,1000,0,0,0,0,0,0,0,0,0,0
1683119434.69950509,106128365,1000,1000,1000,1000,0,0,0,0,0,0,0,0,0,0
1683119434.79946494,106228325,1000,1000,1000,1000,0,0,0,0,0,0,0,0,0,0
1683119434.89942503,106328285,1000,1000,1000,1000,0,0,0,0,0,0,0,0,0,0
1683119434.99938512,106428245,1000,1000,1000,1000,0,0,0,0,0,0,0,0,0,0
1683119435.09934497,106528205,1000,1000,1000,1000,0,0,0,0,0,0,0,0,0,0
1683119435.19930506,106628165,1000,1000,1000,1000,0,0,0,0,0,0,0,0,0,0
1683119435.30009794,106728958,1000,1000,1000,1000,0,0,0,0,0,0,0,0,0,0
1683119435.40005803,106828918,1000,1000,1000,1000,0,0,0,0,0,0,0,0,0,0
1683119435.50001812,106928878,1000,1000,1000,1000,0,0,0,0,0,0,0,0,0,0
1683119435.59997797,107028838,1000,1000,1000,1000,0,0,0,0,0,0,0,0,0,0
1683119435.69993806,107128798,1000,1000,1000,1000,0,0,0,0,0,0,0,0,0,0
1683119435.79989815,107228758,1000,1000,1000,1000,0,0,0,0,0,0,0,0,0,0
1683119435.89985800,107328718,1000,1000,1000,1000,0,0,0,0,0,0,0,0,0,0
1683119435.99981809,107428678,1000,1000,1000,1000,0,0,0,0,0,0,0,0,0,0
1683119436.09977794,107528638,1000,1000,1000,1000,0,0,0,0,0,0,0,0,0,0
1683119436.19973803,107628598,1000,1000,1000,1000,0,0,0,0,0,0,0,0,0,0
1683119436.29969811,107728558,1000,1000,1000,1000,0,0,0,0,0,0,0,0,0,0
1683119436.39965796,107828518,1000,1000,1000,1000,0,0,0,0,0,0,0,0,0,0
1683119436.49961805,107928478,1000,1000,1000,1000,0,0,0,0,0,0,0,0,0,0
1683119436.59957814,108028438,1000,1000,1000,1000,0,0,0,0,0,0,0,0,0,0
1683119436.69953799,108128398,1000,1000,1000,1000,0,0,0,0,0,0,0,0,0,0
1683119436.79949808,108228358,1000,1000,1000,1000,0,0,0,0,0,0,0,0,0,0
1683119436.89945817,108328318,1000,1000,1000,1000,0,0,0,0,0,0,0,0,0,0
1683119436.99941802,108428278,1000,1000,1000,1000,0,0,0,0,0,0,0,0,0,0
1683119437.09937811,108528238,1000,1000,1000,1000,0,0,0,0,0,0,0,0,0,0
1683119437.19933796,108628198,1000,1000,1000,1000,0,0,0,0,0,0,0,0,0,0
1683119437.29929805,108728158,1000,1000,1000,1000,0,0,0,0,0,0,0,0,0,0
1683119437.40009093,108828951,1000,1000,1000,1000,0,0,0,0,0,0,0,0,0,0
1683119437.50005102,108928911,1000,1000,1000,1000,0,0,0,0,0,0,0,0,0,0
1683119437.60001111,109028871,1000,1000,1000,1000,0,0,0,0,0,0,0,0,0,0
1683119437.69997096,109128831,1000,1000,1000,1000,0,0,0,0,0,0,0,0,0,0
1683119437.79993105,109228791,1000,1000,1000,1000,0,0,0,0,0,0,0,0,0,0
1683119437.89989114,109328751,1000,1000,1000,1000,0,0,0,0,0,0,0,0,0,0
1683119437.99985099,109428711,1000,1000,1000,1000,0,0,0,0,0,0,0,0,0,0
1683119438.09981108,109528671,1000,1000,1000,1000,0,0,0,0,0,0,0,0,0,0
1683119438.19977117,109628631,1000,1000,1000,1000,0,0,0,0,0,0,0,0,0,0
1683119438.29973102,109728591,1000,1000,1000,1000,0,0,0,0,0,0,0,0,0,0
1683119438.39969110,109828551,1000,1000,1000,1000,0,0,0,0,0,0,0,0,0,0
1683119438.49965096,109928511,1000,1000,1000,1000,0,0,0,0,0,0,0,0,0,0
1683119438.59961104,110028471,1000,1000,1000,1000,0,0,0,0,0,0,0,0,0,0
1683119438.69957113,110128431,1000,1000,1000,1000,0,0,0,0,0,0,0,0,0,0
1683119438.79953098,110228391,1000,1000,1000,1000,0,0,0,0,0,0,0,0,0,0
1683119438.89949107,110328351,1000,1000,1000,1000,0,0,0,0,0,0,0,0,0,0
1683119438.99945116,110428311,1000,1000,1000,1000,0,0,0,0,0,0,0,0,0,0
1683119439.09941101,110528271,1000,1000,1000,1000,0,0,0,0,0,0,0,0,0,0
1683119439.19937110,110628231,1000,1000,1000,1000,0,0,0,0,0,0,0,0,0,0
1683119439.29933095,110728191,1000,1000,1000,1000,0,0,0,0,0,0,0,0,0,0
1683119439.40012407,110828984,1000,1000,1000,1000,0,0,0,0,0,0,0,0,0,0
1683119439.50008416,110928944,1000,1000,1000,1000,0,0,0,0,0,0,0,0,0,0
1683119439.60004401,111028904,1000,1000,1000,1000,0,0,0,0,0,0,0,0,0,0
1683119439.70000410,111128864,1000,1000,1000,1000,0,0,0,0,0,0,0,0,0,0
1683119439.79996395,111228824,1000,1000,1000,1000,0,0,0,0,0,0,0,0,0,0
1683119439.89992404,111328784,1000,1000,1000,1000,0,0,0,0,0,0,0,0,0,0
1683119439.99988413,111428744,1000,1000,1000,1000,0,0,0,0,0,0,0,0,0,0
1683119440.09984398,111528704,1000,1000,1000,1000,0,0,0,0,0,0,0,0,0,0
1683119440.19980407,111628664,1000,1000,1000,1000,0,0,0,0,0,0,0,0,0,0
1683119440.29976416,111728624,1000,1000,1000,1000,0,0,0,0,0,0,0,0,0,0
1683119440.39972401,111828584,1000,1000,1000,1000,0,0,0,0,0,0,0,0,0,0
1683119440.49968410,111928544,1000,1000,1000,1000,0,0,0,0,0,0,0,0,0,0
1683119440.59964395,112028504,1000,1000,1000,1000,0,0,0,0,0,0,0,0,0,0
1683119440.69960403,112128464,1000,1000,1000,1000,0,0,0,0,0,0,0,0,0,0
1683119440.79956412,112228424,1000,1000,1000,1000,0,0,0,0,0,0,0,0,0,0
1683119440.89952397,112328384,1000,1000,1000,1000,0,0,0,0,0,0,0,0,0,0
1683119440.99948406,112428344,1000,1000,1000,1000,0,0,0,0,0,0,0,0,0,0
1683119441.09944415,112528304,1000,1000,1000,1000,0,0,0,0,0,0,0,0,0,0
1683119441.19940400,112628264,1000,1000,1000,1000,0,0,0,0,0,0,0,0,0,0
1683119441.29936409,112728224,1000,1000,1000,1000,0,0,0,0,0,0,0,0,0,0
1683119441.39932394,112828184,1000,1000,1000,1000,0,0,0,0,0,0,0,0,0,0
1683119441.50011706,112928977,1000,1000,1000,1000,0,0,0,0,0,0,0,0,0,0
1683119441.60007715,113028937,1000,1000,1000,1000,0,0,0,0,0,0,0,0,0,0
1683119441.70003700,113128897,1000,1000,1000,1000,0,0,0,0,0,0,0,0,0,0
1683119441.79999709,113228857,1000,1000,1000,1000,0,0,0,0,0,0,0,0,0,0
1683119441.89995694,113328817,1000,1000,1000,1000,0,0,0,0,0,0,0,0,0,0
1683119441.99991703,113428777,1000,1000,1000,1000,0,0,0,0,0,0,0,0,0,0
1683119442.09987712,113528737,1000,1000,1000,1000,0,0,0,0,0,0,0,0,0,0
1683119442.19983697,113628697,1000,1000,1000,1000,0,0,0,0,0,0,0,0,0,0
1683119442.29979706,113728657,1000,1000,1000,1000,0,0,0,0,0,0,0,0,0,0
1683119442.39975715,113828617,1000,1000,1000,1000,0,0,0,0,0,0,0,0,0,0
1683119442.49971700,113928577,1000,1000,1000,1000,0,0,0,0,0,0,0,0,0,0
1683119442.59967709,114028537,1000,1000,1000,1000,0,0,0,0,0,0,0,0,0,0
1683119442.69963694,114128497,1000,1000,1000,1000,0,0,0,0,0,0,0,0,0,0
1683119442.79959702,114228457,1000,1000,1000,1000,0,0,0,0,0,0,0,0,0,0
1683119442.89955711,114328417,1000,1000,1000,1000,0,0,0,0,0,0,0,0,0,0
1683119442.99951696,114428377,1000,1000,1000,1000,0,0,0,0,0,0,0,0,0,0
1683119443.09947705,114528337,1000,1000,1000,1000,0,0,0,0,0,0,0,0,0,0
1683119443.19943714,114628297,1000,1000,1000,1000,0,0,0,0,0,0,0,0,0,0
1683119443.29939699,114728257,1000,1000,1000,1000,0,0,0,0,0,0,0,0,0,0
1683119443.39935708,114828217,1000,1000,1000,1000,0,0,0,0,0,0,0,0,0,0
1683119443.49931717,114928177,1000,1000,1000,1000,0,0,0,0,0,0,0,0,0,0
1683119443.60011005,115028970,1000,1000,1000,1000,0,0,0,0,0,0,0,0,0,0
1683119443.70007014,115128930,1000,1000,1000,1000,0,0,0,0,0,0,0,0,0,0
1683119443.80002999,115228890,1000,1000,1000,1000,0,0,0,0,0,0,0,0,0,0
1683119443.89999008,115328850,1000,1000,1000,1000,0,0,0,0,0,0,0,0,0,0
1683119443.99994993,115428810,1000,1000,1000,1000,0,0,0,0,0,0,0,0,0,0
1683119444.09991002,115528770,1000,1000,1000,1000,0,0,0,0,0,0,0,0,0,0
1683119444.19987011,115628730,1000,1000,1000,1000,0,0,0,0,0,0,0,0,0,0
1683119444.29982996,115728690,1000,1000,1000,1000,0,0,0,0,0,0,0,0,0,0
1683119444.39979005,115828650,1000,1000,1000,1000,0,0,0,0,0,0,0,0,0,0
1683119444.49975014,115928610,1000,1000,1000,1000,0,0,0,0,0,0,0,0,0,0
1683119444.59970999,116028570,1000,1000,1000,1000,0,0,0,0,0,0,0,0,0,0
1683119444.69967008,116128530,1000,1000,1000,1000,0,0,0,0,0,0,0,0,0,0
1683119444.79963017,116228490,1000,1000,1000,1000,0,0,0,0,0,0,0,0,0,0
1683119444.89959002,116328450,1000,1000,1000,1000,0,0,0,0,0,0,0,0,0,0
1683119444.99955010,116428410,1000,1000,1000,1000,0,0,0,0,0,0,0,0,0,0
1683119445.09950995,116528370,1000,1000,1000,1000,0,0,0,0,0,0,0,0,0,0
1683119445.19947004,116628330,1000,1000,1000,1000,0,0,0,0,0,0,0,0,0,0
1683119445.29943013,116728290,1000,1000,1000,1000,0,0,0,0,0,0,0,0,0,0
1683119445.39938998,116828250,1000,1000,1000,1000,0,0,0,0,0,0,0,0,0,0
1683119445.49935007,116928210,1000,1000,1000,1000,0,0,0,0,0,0,0,0,0,0
1683119445.59931016,117028170,1000,1000,1000,1000,0,0,0,0,0,0,0,0,0,0
1683119445.70010304,117128963,1000,1000,1000,1000,0,0,0,0,0,0,0,0,0,0
1683119445.80006313,117228923,1000,1000,1000,1000,0,0,0,0,0,0,0,0,0,0
1683119445.90002298,117328883,1000,1000,1000,1000,0,0,0,0,0,0,0,0,0,0
1683119445.99998307,117428843,1000,1000,1000,1000,0,0,0,0,0,0,0,0,0,0
1683119446.09994316,117528803,1000,1000,1000,1000,0,0,0,0,0,0,0,0,0,0
1683119446.19990301,117628763,1000,1000,1000,1000,0,0,0,0,0,0,0,0,0,0
1683119446.29986310,117728723,1000,1000,1000,1000,0,0,0,0,0,0,0,0,0,0
1683119446.39982295,117828683,1000,1000,1000,1000,0,0,0,0,0,0,0,0,0,0
1683119446.49978304,117928643,1000,1000,1000,1000,0,0,0,0,0,0,0,0,0,0
1683119446.59974313,118028603,1000,1000,1000,1000,0,0,0,0,0,0,0,0,0,0
1683119446.69970298,118128563,1000,1000,1000,1000,0,0,0,0,0,0,0,0,0,0
1683119446.79966307,118228523,1000,1000,1000,1000,0,0,0,0,0,0,0,0,0,0
1683119446.89962316,118328483,1000,1000,1000,1000,0,0,0,0,0,0,0,0,0,0
1683119446.99958301,118428443,1000,1000,1000,1000,0,0,0,0,0,0,0,0,0,0
