timestamp,TimeUS,C1,C2,C3,C4,C5,C6,C7,C8,C9,C10,C11,C12,C13,C14
1684154143.90003991,42728735,1000,1000,1000,1000,0,0,0,0,0,0,0,0,0,0
1684154144.00000000,42828695,1000,1000,1000,1000,0,0,0,0,0,0,0,0,0,0
1684154144.09995985,42928655,1000,1000,1000,1000,0,0,0,0,0,0,0,0,0,0
1684154144.19991994,43028615,1000,1000,1000,1000,0,0,0,0,0,0,0,0,0,0
1684154144.29988003,43128575,1000,1000,1000,1000,0,0,0,0,0,0,0,0,0,0
1684154144.39983988,43228535,1000,1000,1000,1000,0,0,0,0,0,0,0,0,0,0
1684154144.49979997,43328495,1000,1000,1000,1000,0,0,0,0,0,0,0,0,0,0
1684154144.59976006,43428455,1000,1000,1000,1000,0,0,0,0,0,0,0,0,0,0
1684154144.69971991,43528415,1000,1000,1000,1000,0,0,0,0,0,0,0,0,0,0
1684154144.79967999,43628375,1000,1000,1000,1000,0,0,0,0,0,0,0,0,0,0
1684154144.89963984,43728335,1000,1000,1000,1000,0,0,0,0,0,0,0,0,0,0
1684154144.99959993,43828295,1000,1000,1000,1000,0,0,0,0,0,0,0,0,0,0
1684154145.09956002,43928255,1000,1000,1000,1000,0,0,0,0,0,0,0,0,0,0
1684154145.19951987,44028215,1000,1000,1000,1000,0,0,0,0,0,0,0,0,0,0
1684154145.29947996,44128175,1000,1000,1000,1000,0,0,0,0,0,0,0,0,0,0
1684154145.40027285,44228968,1000,1000,1000,1000,0,0,0,0,0,0,0,0,0,0
1684154145.50023293,44328928,1000,1000,1000,1000,0,0,0,0,0,0,0,0,0,0
1684154145.60019302,44428888,1000,1000,1000,1000,0,0,0,0,0,0,0,0,0,0
1684154145.70015287,44528848,1000,1000,1000,1000,0,0,0,0,0,0,0,0,0,0
1684154145.80011296,44628808,1000,1000,1000,1000,0,0,0,0,0,0,0,0,0,0
1684154145.90007305,44728768,1012,1012,1012,1012,0,0,0,0,0,0,0,0,0,0
1684154146.00003290,44828728,1042,1042,1042,1042,0,0,0,0,0,0,0,0,0,0
1684154146.09999299,44928688,1072,1072,1072,1072,0,0,0,0,0,0,0,0,0,0
1684154146.19995284,45028648,1102,1102,1102,1102,0,0,0,0,0,0,0,0,0,0
1684154146.29991293,45128608,1132,1132,1132,1132,0,0,0,0,0,0,0,0,0,0
1684154146.39987302,45228568,1268,1262,1262,1269,0,0,0,0,0,0,0,0,0,0
1684154146.49983287,45328528,1481,1476,1476,1482,0,0,0,0,0,0,0,0,0,0
1684154146.59979296,45428488,1644,1640,1640,1645,0,0,0,0,0,0,0,0,0,0
1684154146.69975305,45528448,1782,1778,1778,1783,0,0,0,0,0,0,0,0,0,0
1684154146.79971290,45628408,1893,1889,1889,1893,0,0,0,0,0,0,0,0,0,0
1684154146.89967299,45728368,1869,1866,1866,1870,0,0,0,0,0,0,0,0,0,0
1684154146.99963284,45828328,1742,1742,1740,1744,0,0,0,0,0,0,0,0,0,0
1684154147.09959292,45928288,1639,1640,1638,1641,0,0,0,0,0,0,0,0,0,0
1684154147.19955301,46028248,1605,1606,1606,1605,0,0,0,0,0,0,0,0,0,0
1684154147.29951286,46128208,1610,1611,1612,1610,0,0,0,0,0,0,0,0,0,0
1684154147.39947295,46228168,1620,1621,1621,1619,0,0,0,0,0,0,0,0,0,0
1684154147.50026584,46328961,1620,1620,1621,1619,0,0,0,0,0,0,0,0,0,0
1684154147.60022593,46428921,1616,1616,1616,1616,0,0,0,0,0,0,0,0,0,0
1684154147.70018601,46528881,1614,1613,1613,1613,0,0,0,0,0,0,0,0,0,0
1684154147.80014586,46628841,1614,1613,1613,1614,0,0,0,0,0,0,0,0,0,0
1684154147.90010595,46728801,1614,1614,1614,1614,0,0,0,0,0,0,0,0,0,0
1684154148.00006604,46828761,1616,1616,1617,1615,0,0,0,0,0,0,0,0,0,0
1684154148.10002589,46928721,1619,1619,1620,1618,0,0,0,0,0,0,0,0,0,0
1684154148.19998598,47028681,1621,1620,1622,1620,0,0,0,0,0,0,0,0,0,0
1684154148.29994583,47128641,1599,1599,1602,1596,0,0,0,0,0,0,0,0,0,0
1684154148.39990592,47228601,1580,1581,1586,1574,0,0,0,0,0,0,0,0,0,0
1684154148.49986601,47328561,1569,1569,1572,1567,0,0,0,0,0,0,0,0,0,0
1684154148.59982586,47428521,1558,1559,1557,1560,0,0,0,0,0,0,0,0,0,0
1684154148.69978595,47528481,1550,1550,1543,1558,0,0,0,0,0,0,0,0,0,0
1684154148.79974604,47628441,1543,1543,1535,1551,0,0,0,0,0,0,0,0,0,0
1684154148.89970589,47728401,1537,1536,1531,1542,0,0,0,0,0,0,0,0,0,0
1684154148.99966598,47828361,1530,1529,1527,1532,0,0,0,0,0,0,0,0,0,0
1684154149.09962583,47928321,1528,1528,1528,1528,0,0,0,0,0,0,0,0,0,0
1684154149.19958591,48028281,1529,1530,1531,1528,0,0,0,0,0,0,0,0,0,0
1684154149.29954600,48128241,1531,1531,1534,1528,0,0,0,0,0,0,0,0,0,0
1684154149.39950585,48228201,1534,1534,1537,1531,0,0,0,0,0,0,0,0,0,0
1684154149.49946594,48328161,1537,1537,1540,1535,0,0,0,0,0,0,0,0,0,0
1684154149.60025883,48428954,1540,1541,1542,1539,0,0,0,0,0,0,0,0,0,0
1684154149.70021892,48528914,1544,1545,1545,1544,0,0,0,0,0,0,0,0,0,0
1684154149.80017900,48628874,1547,1547,1547,1548,0,0,0,0,0,0,0,0,0,0
1684154149.90013885,48728834,1550,1550,1550,1551,0,0,0,0,0,0,0,0,0,0
1684154150.00009894,48828794,1552,1551,1550,1553,0,0,0,0,0,0,0,0,0,0
1684154150.10005903,48928754,1555,1552,1555,1558,0,0,0,0,0,0,0,0,0,0
1684154150.20001888,49028714,1550,1550,1563,1565,0,0,0,0,0,0,0,0,0,0
1684154150.29997897,49128674,1552,1553,1564,1566,0,0,0,0,0,0,0,0,0,0
1684154150.39993906,49228634,1556,1557,1565,1564,0,0,0,0,0,0,0,0,0,0
1684154150.49989891,49328594,1562,1562,1565,1564,0,0,0,0,0,0,0,0,0,0
1684154150.59985900,49428554,1565,1565,1563,1563,0,0,0,0,0,0,0,0,0,0
1684154150.69981885,49528514,1569,1569,1564,1564,0,0,0,0,0,0,0,0,0,0
1684154150.79977894,49628474,1571,1571,1563,1563,0,0,0,0,0,0,0,0,0,0
1684154150.89973903,49728434,1573,1573,1565,1565,0,0,0,0,0,0,0,0,0,0
1684154150.99969888,49828394,1574,1573,1565,1565,0,0,0,0,0,0,0,0,0,0
1684154151.09965897,49928354,1573,1573,1566,1566,0,0,0,0,0,0,0,0,0,0
1684154151.19961905,50028314,1574,1573,1567,1568,0,0,0,0,0,0,0,0,0,0
1684154151.29957891,50128274,1573,1573,1569,1569,0,0,0,0,0,0,0,0,0,0
1684154151.39953899,50228234,1573,1573,1571,1572,0,0,0,0,0,0,0,0,0,0
1684154151.49949884,50328194,1572,1572,1573,1572,0,0,0,0,0,0,0,0,0,0
1684154151.59945893,50428154,1572,1572,1574,1573,0,0,0,0,0,0,0,0,0,0
1684154151.70025206,50528947,1573,1573,1576,1575,0,0,0,0,0,0,0,0,0,0
1684154151.80021191,50628907,1573,1573,1577,1576,0,0,0,0,0,0,0,0,0,0
1684154151.90017200,50728867,1573,1573,1577,1576,0,0,0,0,0,0,0,0,0,0
1684154152.00013185,50828827,1574,1575,1577,1578,0,0,0,0,0,0,0,0,0,0
1684154152.10009193,50928787,1574,1574,1576,1577,0,0,0,0,0,0,0,0,0,0
1684154152.20005202,51028747,1576,1576,1577,1577,0,0,0,0,0,0,0,0,0,0
1684154152.30001187,51128707,1576,1576,1577,1577,0,0,0,0,0,0,0,0,0,0
1684154152.39997196,51228667,1576,1576,1576,1576,0,0,0,0,0,0,0,0,0,0
1684154152.49993205,51328627,1577,1577,1577,1576,0,0,0,0,0,0,0,0,0,0
1684154152.59989190,51428587,1577,1577,1576,1576,0,0,0,0,0,0,0,0,0,0
1684154152.69985199,51528547,1578,1578,1577,1576,0,0,0,0,0,0,0,0,0,0
1684154152.79981184,51628507,1578,1579,1577,1577,0,0,0,0,0,0,0,0,0,0
1684154152.89977193,51728467,1579,1578,1577,1577,0,0,0,0,0,0,0,0,0,0
1684154152.99973202,51828427,1580,1579,1578,1578,0,0,0,0,0,0,0,0,0,0
1684154153.09969187,51928387,1579,1579,1578,1578,0,0,0,0,0,0,0,0,0,0
1684154153.19965196,52028347,1579,1579,1578,1578,0,0,0,0,0,0,0,0,0,0
1684154153.29961205,52128307,1578,1577,1577,1577,0,0,0,0,0,0,0,0,0,0
1684154153.39957190,52228267,1578,1579,1579,1578,0,0,0,0,0,0,0,0,0,0
1684154153.49953198,52328227,1578,1578,1578,1578,0,0,0,0,0,0,0,0,0,0
1684154153.59949183,52428187,1578,1578,1578,1579,0,0,0,0,0,0,0,0,0,0
1684154153.70028496,52528980,1579,1579,1579,1580,0,0,0,0,0,0,0,0,0,0
1684154153.80024505,52628940,1578,1578,1579,1579,0,0,0,0,0,0,0,0,0,0
1684154153.90020490,52728900,1579,1579,1580,1579,0,0,0,0,0,0,0,0,0,0
1684154154.00016499,52828860,1578,1579,1579,1579,0,0,0,0,0,0,0,0,0,0
1684154154.10012484,52928820,1578,1579,1579,1579,0,0,0,0,0,0,0,0,0,0
1684154154.20008492,53028780,1579,1579,1580,1579,0,0,0,0,0,0,0,0,0,0
1684154154.30004501,53128740,1580,1579,1580,1580,0,0,0,0,0,0,0,0,0,0
1684154154.40000486,53228700,1579,1579,1579,1579,0,0,0,0,0,0,0,0,0,0
1684154154.49996495,53328660,1581,1580,1580,1580,0,0,0,0,0,0,0,0,0,0
1684154154.59992504,53428620,1580,1580,1580,1580,0,0,0,0,0,0,0,0,0,0
1684154154.69988489,53528580,1580,1581,1580,1580,0,0,0,0,0,0,0,0,0,0
1684154154.79984498,53628540,1580,1580,1580,1579,0,0,0,0,0,0,0,0,0,0
1684154154.89980483,53728500,1580,1580,1579,1580,0,0,0,0,0,0,0,0,0,0
1684154154.99976492,53828460,1581,1580,1580,1580,0,0,0,0,0,0,0,0,0,0
1684154155.09972501,53928420,1580,1580,1580,1580,0,0,0,0,0,0,0,0,0,0
1684154155.19968486,54028380,1580,1580,1580,1579,0,0,0,0,0,0,0,0,0,0
1684154155.29964495,54128340,1580,1580,1580,1581,0,0,0,0,0,0,0,0,0,0
1684154155.39960504,54228300,1581,1581,1581,1581,0,0,0,0,0,0,0,0,0,0
1684154155.49956489,54328260,1581,1581,1581,1581,0,0,0,0,0,0,0,0,0,0
1684154155.59952497,54428220,1580,1580,1581,1581,0,0,0,0,0,0,0,0,0,0
1684154155.69948483,54528180,1581,1581,1582,1582,0,0,0,0,0,0,0,0,0,0
1684154155.80027795,54628973,1580,1580,1581,1581,0,0,0,0,0,0,0,0,0,0
1684154155.90023804,54728933,1581,1581,1581,1581,0,0,0,0,0,0,0,0,0,0
1684154156.00019789,54828893,1581,1581,1581,1581,0,0,0,0,0,0,0,0,0,0
1684154156.10015798,54928853,1581,1581,1581,1581,0,0,0,0,0,0,0,0,0,0
1684154156.20011783,55028813,1581,1581,1581,1581,0,0,0,0,0,0,0,0,0,0
1684154156.30007792,55128773,1581,1581,1582,1579,0,0,0,0,0,0,0,0,0,0
1684154156.40003800,55228733,1581,1582,1588,1573,0,0,0,0,0,0,0,0,0,0
1684154156.49999785,55328693,1581,1584,1584,1575,0,0,0,0,0,0,0,0,0,0
1684154156.59995794,55428653,1579,1582,1576,1575,0,0,0,0,0,0,0,0,0,0
1684154156.69991803,55528613,1577,1580,1566,1571,0,0,0,0,0,0,0,0,0,0
1684154156.79987788,55628573,1578,1579,1561,1568,0,0,0,0,0,0,0,0,0,0
1684154156.89983797,55728533,1578,1578,1557,1562,0,0,0,0,0,0,0,0,0,0
1684154156.99979806,55828493,1579,1578,1556,1559,0,0,0,0,0,0,0,0,0,0
1684154157.09975791,55928453,1579,1578,1556,1556,0,0,0,0,0,0,0,0,0,0
1684154157.19971800,56028413,1579,1577,1556,1554,0,0,0,0,0,0,0,0,0,0
1684154157.29967785,56128373,1578,1577,1556,1553,0,0,0,0,0,0,0,0,0,0
1684154157.39963794,56228333,1576,1577,1556,1553,0,0,0,0,0,0,0,0,0,0
1684154157.49959803,56328293,1575,1576,1555,1554,0,0,0,0,0,0,0,0,0,0
1684154157.59955788,56428253,1573,1575,1553,1553,0,0,0,0,0,0,0,0,0,0
1684154157.69951797,56528213,1574,1576,1552,1553,0,0,0,0,0,0,0,0,0,0
1684154157.79947805,56628173,1574,1575,1550,1550,0,0,0,0,0,0,0,0,0,0
1684154157.90027094,56728966,1576,1576,1548,1548,0,0,0,0,0,0,0,0,0,0
1684154158.00023103,56828926,1578,1579,1547,1546,0,0,0,0,0,0,0,0,0,0
1684154158.10019088,56928886,1581,1582,1545,1544,0,0,0,0,0,0,0,0,0,0
1684154158.20015097,57028846,1583,1585,1542,1541,0,0,0,0,0,0,0,0,0,0
1684154158.30011106,57128806,1587,1588,1539,1539,0,0,0,0,0,0,0,0,0,0
1684154158.40007091,57228766,1590,1591,1537,1537,0,0,0,0,0,0,0,0,0,0
1684154158.50003099,57328726,1593,1592,1534,1535,0,0,0,0,0,0,0,0,0,0
1684154158.59999084,57428686,1595,1594,1534,1535,0,0,0,0,0,0,0,0,0,0
1684154158.69995093,57528646,1595,1594,1534,1536,0,0,0,0,0,0,0,0,0,0
1684154158.79991102,57628606,1594,1594,1536,1538,0,0,0,0,0,0,0,0,0,0
1684154158.89987087,57728566,1592,1591,1539,1542,0,0,0,0,0,0,0,0,0,0
1684154158.99983096,57828526,1588,1586,1545,1549,0,0,0,0,0,0,0,0,0,0
1684154159.09979105,57928486,1581,1579,1554,1557,0,0,0,0,0,0,0,0,0,0
1684154159.19975090,58028446,1574,1570,1565,1567,0,0,0,0,0,0,0,0,0,0
1684154159.29971099,58128406,1563,1559,1577,1579,0,0,0,0,0,0,0,0,0,0
1684154159.39967084,58228366,1552,1548,1589,1590,0,0,0,0,0,0,0,0,0,0
1684154159.49963093,58328326,1541,1539,1600,1600,0,0,0,0,0,0,0,0,0,0
1684154159.59959102,58428286,1533,1533,1609,1608,0,0,0,0,0,0,0,0,0,0
1684154159.69955087,58528246,1529,1530,1614,1613,0,0,0,0,0,0,0,0,0,0
1684154159.79951096,58628206,1528,1530,1615,1614,0,0,0,0,0,0,0,0,0,0
1684154159.89947104,58728166,1291,1293,1614,1613,0,0,0,0,0,0,0,0,0,0
1684154160.00026393,58828959,1382,1388,1657,1662,0,0,0,0,0,0,0,0,0,0
1684154160.10022402,58928919,1442,1450,1650,1651,0,0,0,0,0,0,0,0,0,0
1684154160.20018387,59028879,1498,1505,1630,1625,0,0,0,0,0,0,0,0,0,0
1684154160.30014396,59128839,1548,1552,1607,1600,0,0,0,0,0,0,0,0,0,0
1684154160.40010405,59228799,1585,1583,1590,1583,0,0,0,0,0,0,0,0,0,0
1684154160.50006390,59328759,1609,1603,1581,1578,0,0,0,0,0,0,0,0,0,0
1684154160.60002398,59428719,1624,1614,1576,1576,0,0,0,0,0,0,0,0,0,0
1684154160.69998384,59528679,1641,1631,1558,1562,0,0,0,0,0,0,0,0,0,0
1684154160.79994392,59628639,1658,1652,1533,1540,0,0,0,0,0,0,0,0,0,0
1684154160.89990401,59728599,1662,1658,1527,1536,0,0,0,0,0,0,0,0,0,0
1684154160.99986386,59828559,1651,1653,1535,1541,0,0,0,0,0,0,0,0,0,0
1684154161.09982395,59928519,1639,1644,1544,1546,0,0,0,0,0,0,0,0,0,0
1684154161.19978404,60028479,1628,1635,1552,1551,0,0,0,0,0,0,0,0,0,0
1684154161.29974389,60128439,1622,1626,1559,1556,0,0,0,0,0,0,0,0,0,0
1684154161.39970398,60228399,1617,1618,1564,1560,0,0,0,0,0,0,0,0,0,0
1684154161.49966383,60328359,1613,1609,1567,1564,0,0,0,0,0,0,0,0,0,0
1684154161.59962392,60428319,1602,1594,1578,1577,0,0,0,0,0,0,0,0,0,0
1684154161.69958401,60528279,1584,1576,1593,1594,0,0,0,0,0,0,0,0,0,0
1684154161.79954386,60628239,1565,1560,1605,1607,0,0,0,0,0,0,0,0,0,0
1684154161.89950395,60728199,1551,1552,1609,1610,0,0,0,0,0,0,0,0,0,0
1684154161.99946404,60828159,1546,1551,1608,1609,0,0,0,0,0,0,0,0,0,0
1684154162.10025692,60928952,1545,1552,1605,1605,0,0,0,0,0,0,0,0,0,0
1684154162.20021701,61028912,1549,1556,1603,1600,0,0,0,0,0,0,0,0,0,0
1684154162.30017686,61128872,1555,1560,1599,1595,0,0,0,0,0,0,0,0,0,0
1684154162.40013695,61228832,1562,1564,1594,1590,0,0,0,0,0,0,0,0,0,0
1684154162.50009704,61328792,1568,1567,1589,1586,0,0,0,0,0,0,0,0,0,0
1684154162.60005689,61428752,1573,1571,1583,1583,0,0,0,0,0,0,0,0,0,0
1684154162.70001698,61528712,1577,1574,1578,1579,0,0,0,0,0,0,0,0,0,0
1684154162.79997683,61628672,1580,1578,1576,1577,0,0,0,0,0,0,0,0,0,0
1684154162.89993691,61728632,1583,1582,1573,1574,0,0,0,0,0,0,0,0,0,0
1684154162.99989700,61828592,1588,1588,1567,1567,0,0,0,0,0,0,0,0,0,0
1684154163.09985685,61928552,1592,1593,1562,1563,0,0,0,0,0,0,0,0,0,0
1684154163.19981694,62028512,1596,1596,1562,1562,0,0,0,0,0,0,0,0,0,0
1684154163.29977703,62128472,1596,1596,1562,1562,0,0,0,0,0,0,0,0,0,0
1684154163.39973688,62228432,1595,1595,1565,1565,0,0,0,0,0,0,0,0,0,0
1684154163.49969697,62328392,1592,1591,1570,1570,0,0,0,0,0,0,0,0,0,0
1684154163.59965706,62428352,1588,1587,1575,1575,0,0,0,0,0,0,0,0,0,0
1684154163.69961691,62528312,1583,1582,1579,1580,0,0,0,0,0,0,0,0,0,0
1684154163.79957700,62628272,1579,1579,1582,1584,0,0,0,0,0,0,0,0,0,0
1684154163.89953685,62728232,1576,1577,1584,1584,0,0,0,0,0,0,0,0,0,0
1684154163.99949694,62828192,1576,1577,1584,1584,0,0,0,0,0,0,0,0,0,0
1684154164.10029006,62928985,1576,1577,1583,1584,0,0,0,0,0,0,0,0,0,0
1684154164.20024991,63028945,1576,1577,1583,1582,0,0,0,0,0,0,0,0,0,0
1684154164.30021000,63128905,1577,1578,1583,1582,0,0,0,0,0,0,0,0,0,0
1684154164.40016985,63228865,1580,1578,1589,1576,0,0,0,0,0,0,0,0,0,0
1684154164.50012994,63328825,1581,1576,1586,1574,0,0,0,0,0,0,0,0,0,0
1684154164.60009003,63428785,1580,1576,1576,1574,0,0,0,0,0,0,0,0,0,0
1684154164.70004988,63528745,1578,1576,1567,1571,0,0,0,0,0,0,0,0,0,0
1684154164.80000997,63628705,1576,1577,1562,1568,0,0,0,0,0,0,0,0,0,0
1684154164.89997005,63728665,1573,1578,1558,1562,0,0,0,0,0,0,0,0,0,0
1684154164.99992990,63828625,1573,1578,1558,1558,0,0,0,0,0,0,0,0,0,0
1684154165.09988999,63928585,1574,1578,1558,1556,0,0,0,0,0,0,0,0,0,0
1684154165.19984984,64028545,1575,1577,1557,1554,0,0,0,0,0,0,0,0,0,0
1684154165.29980993,64128505,1576,1576,1556,1553,0,0,0,0,0,0,0,0,0,0
1684154165.39977002,64228465,1577,1576,1555,1553,0,0,0,0,0,0,0,0,0,0
1684154165.49972987,64328425,1576,1575,1552,1552,0,0,0,0,0,0,0,0,0,0
1684154165.59968996,64428385,1576,1575,1551,1551,0,0,0,0,0,0,0,0,0,0
1684154165.69965005,64528345,1575,1575,1547,1549,0,0,0,0,0,0,0,0,0,0
1684154165.79960990,64628305,1575,1576,1546,1547,0,0,0,0,0,0,0,0,0,0
1684154165.89956999,64728265,1575,1577,1544,1544,0,0,0,0,0,0,0,0,0,0
1684154165.99952984,64828225,1576,1578,1543,1542,0,0,0,0,0,0,0,0,0,0
1684154166.09948993,64928185,1577,1579,1541,1540,0,0,0,0,0,0,0,0,0,0
1684154166.20028305,65028978,1580,1581,1540,1539,0,0,0,0,0,0,0,0,0,0
1684154166.30024290,65128938,1583,1583,1539,1538,0,0,0,0,0,0,0,0,0,0
1684154166.40020299,65228898,1585,1585,1537,1537,0,0,0,0,0,0,0,0,0,0
1684154166.50016284,65328858,1587,1587,1536,1536,0,0,0,0,0,0,0,0,0,0
1684154166.60012293,65428818,1588,1588,1535,1537,0,0,0,0,0,0,0,0,0,0
1684154166.70008302,65528778,1589,1588,1536,1538,0,0,0,0,0,0,0,0,0,0
1684154166.80004287,65628738,1588,1588,1537,1541,0,0,0,0,0,0,0,0,0,0
1684154166.90000296,65728698,1587,1586,1541,1544,0,0,0,0,0,0,0,0,0,0
1684154166.99996305,65828658,1585,1585,1547,1550,0,0,0,0,0,0,0,0,0,0
1684154167.09992290,65928618,1581,1580,1552,1555,0,0,0,0,0,0,0,0,0,0
1684154167.19988298,66028578,1576,1574,1557,1560,0,0,0,0,0,0,0,0,0,0
1684154167.29984283,66128538,1570,1569,1564,1567,0,0,0,0,0,0,0,0,0,0
1684154167.39980292,66228498,1565,1563,1570,1573,0,0,0,0,0,0,0,0,0,0
1684154167.49976301,66328458,1558,1557,1577,1579,0,0,0,0,0,0,0,0,0,0
1684154167.59972286,66428418,1552,1551,1582,1583,0,0,0,0,0,0,0,0,0,0
1684154167.69968295,66528378,1548,1547,1589,1589,0,0,0,0,0,0,0,0,0,0
1684154167.79964304,66628338,1544,1543,1595,1594,0,0,0,0,0,0,0,0,0,0
1684154167.89960289,66728298,1541,1540,1600,1599,0,0,0,0,0,0,0,0,0,0
1684154167.99956298,66828258,1538,1539,1603,1602,0,0,0,0,0,0,0,0,0,0
1684154168.09952283,66928218,1537,1538,1605,1604,0,0,0,0,0,0,0,0,0,0
1684154168.19948292,67028178,1538,1539,1604,1603,0,0,0,0,0,0,0,0,0,0
1684154168.30027604,67128971,1541,1543,1601,1602,0,0,0,0,0,0,0,0,0,0
1684154168.40023589,67228931,1546,1547,1596,1597,0,0,0,0,0,0,0,0,0,0
1684154168.50019598,67328891,1553,1554,1592,1592,0,0,0,0,0,0,0,0,0,0
1684154168.60015583,67428851,1560,1561,1586,1586,0,0,0,0,0,0,0,0,0,0
1684154168.70011592,67528811,1568,1568,1581,1581,0,0,0,0,0,0,0,0,0,0
1684154168.80007601,67628771,1573,1573,1577,1575,0,0,0,0,0,0,0,0,0,0
1684154168.90003586,67728731,1579,1578,1575,1573,0,0,0,0,0,0,0,0,0,0
1684154168.99999595,67828691,1582,1581,1572,1571,0,0,0,0,0,0,0,0,0,0
1684154169.09995604,67928651,1584,1582,1570,1570,0,0,0,0,0,0,0,0,0,0
1684154169.19991589,68028611,1585,1584,1570,1570,0,0,0,0,0,0,0,0,0,0
1684154169.29987597,68128571,1585,1584,1570,1571,0,0,0,0,0,0,0,0,0,0
1684154169.39983582,68228531,1585,1585,1571,1572,0,0,0,0,0,0,0,0,0,0
1684154169.49979591,68328491,1584,1584,1572,1572,0,0,0,0,0,0,0,0,0,0
1684154169.59975600,68428451,1583,1583,1572,1573,0,0,0,0,0,0,0,0,0,0
1684154169.69971585,68528411,1583,1583,1575,1575,0,0,0,0,0,0,0,0,0,0
1684154169.79967594,68628371,1582,1582,1576,1576,0,0,0,0,0,0,0,0,0,0
1684154169.89963603,68728331,1580,1581,1577,1576,0,0,0,0,0,0,0,0,0,0
1684154169.99959588,68828291,1581,1581,1579,1578,0,0,0,0,0,0,0,0,0,0
1684154170.09955597,68928251,1579,1580,1579,1579,0,0,0,0,0,0,0,0,0,0
1684154170.19951606,69028211,1578,1578,1579,1579,0,0,0,0,0,0,0,0,0,0
1684154170.29947591,69128171,1577,1577,1579,1579,0,0,0,0,0,0,0,0,0,0
1684154170.40026903,69228964,1576,1577,1579,1579,0,0,0,0,0,0,0,0,0,0
1684154170.50022888,69328924,1577,1577,1580,1580,0,0,0,0,0,0,0,0,0,0
1684154170.60018897,69428884,1577,1577,1581,1580,0,0,0,0,0,0,0,0,0,0
1684154170.70014906,69528844,1576,1577,1580,1580,0,0,0,0,0,0,0,0,0,0
1684154170.80010891,69628804,1577,1577,1581,1581,0,0,0,0,0,0,0,0,0,0
1684154170.90006900,69728764,1577,1577,1580,1581,0,0,0,0,0,0,0,0,0,0
1684154171.00002885,69828724,1578,1579,1581,1581,0,0,0,0,0,0,0,0,0,0
1684154171.09998894,69928684,1579,1579,1581,1581,0,0,0,0,0,0,0,0,0,0
1684154171.19994903,70028644,1579,1579,1580,1580,0,0,0,0,0,0,0,0,0,0
1684154171.29990888,70128604,1580,1580,1580,1580,0,0,0,0,0,0,0,0,0,0
1684154171.39986897,70228564,1580,1580,1579,1580,0,0,0,0,0,0,0,0,0,0
1684154171.49982905,70328524,1580,1581,1579,1580,0,0,0,0,0,0,0,0,0,0
1684154171.59978890,70428484,1581,1581,1580,1580,0,0,0,0,0,0,0,0,0,0
1684154171.69974899,70528444,1581,1581,1580,1579,0,0,0,0,0,0,0,0,0,0
1684154171.79970884,70628404,1581,1581,1579,1579,0,0,0,0,0,0,0,0,0,0
1684154171.89966893,70728364,1582,1582,1580,1580,0,0,0,0,0,0,0,0,0,0
1684154171.99962902,70828324,1582,1582,1581,1580,0,0,0,0,0,0,0,0,0,0
1684154172.09958887,70928284,1582,1581,1580,1580,0,0,0,0,0,0,0,0,0,0
1684154172.19954896,71028244,1581,1581,1579,1579,0,0,0,0,0,0,0,0,0,0
1684154172.29950905,71128204,1581,1580,1579,1579,0,0,0,0,0,0,0,0,0,0
1684154172.39946890,71228164,1580,1580,1579,1579,0,0,0,0,0,0,0,0,0,0
1684154172.50026202,71328957,1580,1581,1580,1580,0,0,0,0,0,0,0,0,0,0
1684154172.60022187,71428917,1580,1580,1580,1580,0,0,0,0,0,0,0,0,0,0
1684154172.70018196,71528877,1581,1581,1581,1581,0,0,0,0,0,0,0,0,0,0
1684154172.80014205,71628837,1580,1580,1580,1580,0,0,0,0,0,0,0,0,0,0
1684154172.90010190,71728797,1580,1580,1581,1580,0,0,0,0,0,0,0,0,0,0
1684154173.00006199,71828757,1580,1581,1581,1581,0,0,0,0,0,0,0,0,0,0
1684154173.10002184,71928717,1581,1581,1582,1581,0,0,0,0,0,0,0,0,0,0
1684154173.19998193,72028677,1581,1581,1587,1576,0,0,0,0,0,0,0,0,0,0
1684154173.29994202,72128637,1581,1581,1588,1573,0,0,0,0,0,0,0,0,0,0
1684154173.39990187,72228597,1581,1581,1580,1574,0,0,0,0,0,0,0,0,0,0
1684154173.49986196,72328557,1578,1579,1569,1571,0,0,0,0,0,0,0,0,0,0
1684154173.59982204,72428517,1576,1578,1562,1568,0,0,0,0,0,0,0,0,0,0
1684154173.69978189,72528477,1576,1578,1558,1564,0,0,0,0,0,0,0,0,0,0
1684154173.79974198,72628437,1576,1577,1555,1559,0,0,0,0,0,0,0,0,0,0
1684154173.89970183,72728397,1577,1577,1555,1556,0,0,0,0,0,0,0,0,0,0
1684154173.99966192,72828357,1578,1578,1556,1555,0,0,0,0,0,0,0,0,0,0
1684154174.09962201,72928317,1577,1577,1556,1554,0,0,0,0,0,0,0,0,0,0
1684154174.19958186,73028277,1577,1577,1556,1554,0,0,0,0,0,0,0,0,0,0
1684154174.29954195,73128237,1577,1577,1556,1554,0,0,0,0,0,0,0,0,0,0
1684154174.39950204,73228197,1786,1786,1521,1517,0,0,0,0,0,0,0,0,0,0
1684154174.49946189,73328157,1724,1722,1492,1489,0,0,0,0,0,0,0,0,0,0
1684154174.60025501,73428950,1669,1668,1501,1504,0,0,0,0,0,0,0,0,0,0
1684154174.70021486,73528910,1613,1614,1521,1527,0,0,0,0,0,0,0,0,0,0
1684154174.80017495,73628870,1564,1566,1544,1550,0,0,0,0,0,0,0,0,0,0
1684154174.90013504,73728830,1533,1535,1558,1563,0,0,0,0,0,0,0,0,0,0
1684154175.00009489,73828790,1517,1520,1564,1565,0,0,0,0,0,0,0,0,0,0
1684154175.10005498,73928750,1513,1516,1564,1565,0,0,0,0,0,0,0,0,0,0
1684154175.20001483,74028710,1517,1520,1563,1563,0,0,0,0,0,0,0,0,0,0
1684154175.29997492,74128670,1525,1526,1560,1560,0,0,0,0,0,0,0,0,0,0
1684154175.39993501,74228630,1530,1531,1559,1560,0,0,0,0,0,0,0,0,0,0
1684154175.49989486,74328590,1536,1537,1559,1560,0,0,0,0,0,0,0,0,0,0
1684154175.59985495,74428550,1545,1546,1556,1557,0,0,0,0,0,0,0,0,0,0
1684154175.69981503,74528510,1556,1556,1552,1552,0,0,0,0,0,0,0,0,0,0
1684154175.79977489,74628470,1565,1564,1549,1550,0,0,0,0,0,0,0,0,0,0
1684154175.89973497,74728430,1571,1569,1550,1550,0,0,0,0,0,0,0,0,0,0
1684154175.99969482,74828390,1575,1573,1553,1554,0,0,0,0,0,0,0,0,0,0
1684154176.09965491,74928350,1576,1573,1558,1558,0,0,0,0,0,0,0,0,0,0
1684154176.19961500,75028310,1575,1571,1565,1565,0,0,0,0,0,0,0,0,0,0
1684154176.29957485,75128270,1573,1568,1573,1572,0,0,0,0,0,0,0,0,0,0
1684154176.39953494,75228230,1568,1565,1581,1579,0,0,0,0,0,0,0,0,0,0
1684154176.49949503,75328190,1563,1562,1588,1586,0,0,0,0,0,0,0,0,0,0
1684154176.60028791,75428983,1559,1559,1593,1591,0,0,0,0,0,0,0,0,0,0
1684154176.70024800,75528943,1555,1555,1598,1597,0,0,0,0,0,0,0,0,0,0
1684154176.80020785,75628903,1548,1549,1604,1603,0,0,0,0,0,0,0,0,0,0
1684154176.90016794,75728863,1544,1545,1609,1609,0,0,0,0,0,0,0,0,0,0
1684154177.00012803,75828823,1543,1545,1610,1611,0,0,0,0,0,0,0,0,0,0
1684154177.10008788,75928783,1546,1546,1608,1609,0,0,0,0,0,0,0,0,0,0
1684154177.20004797,76028743,1551,1552,1603,1603,0,0,0,0,0,0,0,0,0,0
1684154177.30000806,76128703,1559,1559,1595,1595,0,0,0,0,0,0,0,0,0,0
1684154177.39996791,76228663,1565,1566,1587,1587,0,0,0,0,0,0,0,0,0,0
1684154177.49992800,76328623,1570,1571,1582,1582,0,0,0,0,0,0,0,0,0,0
1684154177.59988785,76428583,1574,1574,1580,1580,0,0,0,0,0,0,0,0,0,0
1684154177.69984794,76528543,1575,1575,1578,1578,0,0,0,0,0,0,0,0,0,0
1684154177.79980803,76628503,1578,1577,1578,1577,0,0,0,0,0,0,0,0,0,0
1684154177.89976788,76728463,1579,1578,1577,1577,0,0,0,0,0,0,0,0,0,0
1684154177.99972796,76828423,1579,1578,1577,1576,0,0,0,0,0,0,0,0,0,0
1684154178.09968805,76928383,1577,1577,1576,1575,0,0,0,0,0,0,0,0,0,0
1684154178.19964790,77028343,1578,1577,1575,1576,0,0,0,0,0,0,0,0,0,0
1684154178.29960799,77128303,1578,1578,1576,1576,0,0,0,0,0,0,0,0,0,0
1684154178.39956784,77228263,1577,1577,1576,1575,0,0,0,0,0,0,0,0,0,0
1684154178.49952793,77328223,1578,1578,1576,1576,0,0,0,0,0,0,0,0,0,0
1684154178.59948802,77428183,1578,1578,1577,1577,0,0,0,0,0,0,0,0,0,0
1684154178.70028090,77528976,1578,1578,1576,1577,0,0,0,0,0,0,0,0,0,0
1684154178.80024099,77628936,1577,1576,1576,1576,0,0,0,0,0,0,0,0,0,0
1684154178.90020084,77728896,1578,1577,1577,1577,0,0,0,0,0,0,0,0,0,0
1684154179.00016093,77828856,1577,1578,1577,1577,0,0,0,0,0,0,0,0,0,0
1684154179.10012102,77928816,1578,1578,1578,1578,0,0,0,0,0,0,0,0,0,0
1684154179.20008087,78028776,1577,1578,1578,1578,0,0,0,0,0,0,0,0,0,0
1684154179.30004096,78128736,1577,1578,1579,1578,0,0,0,0,0,0,0,0,0,0
1684154179.40000105,78228696,1578,1578,1578,1579,0,0,0,0,0,0,0,0,0,0
1684154179.49996090,78328656,1578,1578,1578,1579,0,0,0,0,0,0,0,0,0,0
1684154179.59992099,78428616,1578,1578,1578,1579,0,0,0,0,0,0,0,0,0,0
1684154179.69988084,78528576,1579,1578,1579,1579,0,0,0,0,0,0,0,0,0,0
1684154179.79984093,78628536,1578,1578,1578,1578,0,0,0,0,0,0,0,0,0,0
1684154179.89980102,78728496,1579,1579,1579,1579,0,0,0,0,0,0,0,0,0,0
1684154179.99976087,78828456,1579,1579,1580,1579,0,0,0,0,0,0,0,0,0,0
1684154180.09972095,78928416,1578,1579,1579,1578,0,0,0,0,0,0,0,0,0,0
1684154180.19968104,79028376,1578,1578,1578,1579,0,0,0,0,0,0,0,0,0,0
1684154180.29964089,79128336,1579,1579,1579,1580,0,0,0,0,0,0,0,0,0,0
1684154180.39960098,79228296,1580,1580,1579,1580,0,0,0,0,0,0,0,0,0,0
1684154180.49956083,79328256,1580,1580,1580,1580,0,0,0,0,0,0,0,0,0,0
1684154180.59952092,79428216,1580,1580,1580,1580,0,0,0,0,0,0,0,0,0,0
1684154180.69948101,79528176,1580,1580,1580,1580,0,0,0,0,0,0,0,0,0,0
1684154180.80027390,79628969,1580,1580,1580,1580,0,0,0,0,0,0,0,0,0,0
1684154180.90023398,79728929,1581,1581,1581,1580,0,0,0,0,0,0,0,0,0,0
1684154181.00019383,79828889,1580,1580,1579,1580,0,0,0,0,0,0,0,0,0,0
1684154181.10015392,79928849,1580,1580,1580,1580,0,0,0,0,0,0,0,0,0,0
1684154181.20011401,80028809,1581,1581,1581,1581,0,0,0,0,0,0,0,0,0,0
1684154181.30007386,80128769,1580,1580,1580,1580,0,0,0,0,0,0,0,0,0,0
1684154181.40003395,80228729,1581,1582,1582,1578,0,0,0,0,0,0,0,0,0,0
1684154181.49999404,80328689,1581,1583,1587,1572,0,0,0,0,0,0,0,0,0,0
1684154181.59995389,80428649,1579,1582,1583,1573,0,0,0,0,0,0,0,0,0,0
1684154181.69991398,80528609,1576,1579,1576,1576,0,0,0,0,0,0,0,0,0,0
1684154181.79987383,80628569,1573,1574,1569,1575,0,0,0,0,0,0,0,0,0,0
1684154181.89983392,80728529,1572,1570,1566,1573,0,0,0,0,0,0,0,0,0,0
1684154181.99979401,80828489,1570,1568,1565,1570,0,0,0,0,0,0,0,0,0,0
1684154182.09975386,80928449,1569,1566,1565,1568,0,0,0,0,0,0,0,0,0,0
1684154182.19971395,81028409,1568,1566,1566,1566,0,0,0,0,0,0,0,0,0,0
1684154182.29967403,81128369,1566,1565,1566,1564,0,0,0,0,0,0,0,0,0,0
1684154182.39963388,81228329,1565,1566,1567,1564,0,0,0,0,0,0,0,0,0,0
1684154182.49959397,81328289,1564,1565,1567,1564,0,0,0,0,0,0,0,0,0,0
1684154182.59955382,81428249,1563,1564,1565,1564,0,0,0,0,0,0,0,0,0,0
1684154182.69951391,81528209,1564,1565,1565,1565,0,0,0,0,0,0,0,0,0,0
1684154182.79947400,81628169,1561,1561,1562,1563,0,0,0,0,0,0,0,0,0,0
1684154182.90026689,81728962,1561,1561,1562,1562,0,0,0,0,0,0,0,0,0,0
1684154183.00022697,81828922,1561,1561,1562,1562,0,0,0,0,0,0,0,0,0,0
1684154183.10018682,81928882,1562,1561,1561,1562,0,0,0,0,0,0,0,0,0,0
1684154183.20014691,82028842,1560,1560,1560,1560,0,0,0,0,0,0,0,0,0,0
1684154183.30010700,82128802,1561,1560,1561,1560,0,0,0,0,0,0,0,0,0,0
1684154183.40006685,82228762,1559,1559,1560,1558,0,0,0,0,0,0,0,0,0,0
1684154183.50002694,82328722,1558,1558,1559,1558,0,0,0,0,0,0,0,0,0,0
1684154183.59998703,82428682,1556,1557,1557,1555,0,0,0,0,0,0,0,0,0,0
1684154183.69994688,82528642,1553,1554,1554,1553,0,0,0,0,0,0,0,0,0,0
1684154183.79990697,82628602,1554,1553,1548,1559,0,0,0,0,0,0,0,0,0,0
1684154183.89986706,82728562,1556,1554,1557,1552,0,0,0,0,0,0,0,0,0,0
1684154183.99982691,82828522,1551,1553,1561,1542,0,0,0,0,0,0,0,0,0,0
1684154184.09978700,82928482,1547,1551,1553,1545,0,0,0,0,0,0,0,0,0,0
1684154184.19974685,83028442,1543,1546,1544,1546,0,0,0,0,0,0,0,0,0,0
1684154184.29970694,83128402,1538,1538,1534,1543,0,0,0,0,0,0,0,0,0,0
1684154184.39966702,83228362,1534,1533,1528,1538,0,0,0,0,0,0,0,0,0,0
1684154184.49962687,83328322,1527,1525,1522,1530,0,0,0,0,0,0,0,0,0,0
1684154184.59958696,83428282,1524,1522,1521,1525,0,0,0,0,0,0,0,0,0,0
1684154184.69954705,83528242,1523,1521,1522,1522,0,0,0,0,0,0,0,0,0,0
1684154184.79950690,83628202,1523,1522,1523,1522,0,0,0,0,0,0,0,0,0,0
1684154184.89946699,83728162,1525,1524,1525,1524,0,0,0,0,0,0,0,0,0,0
1684154185.00025988,83828955,1527,1528,1529,1527,0,0,0,0,0,0,0,0,0,0
1684154185.10021996,83928915,1531,1532,1532,1532,0,0,0,0,0,0,0,0,0,0
1684154185.20018005,84028875,1536,1537,1536,1538,0,0,0,0,0,0,0,0,0,0
1684154185.30013990,84128835,1540,1540,1540,1541,0,0,0,0,0,0,0,0,0,0
1684154185.40009999,84228795,1543,1543,1543,1543,0,0,0,0,0,0,0,0,0,0
1684154185.50005984,84328755,1544,1544,1544,1545,0,0,0,0,0,0,0,0,0,0
1684154185.60001993,84428715,1546,1545,1546,1546,0,0,0,0,0,0,0,0,0,0
1684154185.69998002,84528675,1547,1546,1547,1547,0,0,0,0,0,0,0,0,0,0
1684154185.79993987,84628635,1547,1547,1547,1547,0,0,0,0,0,0,0,0,0,0
1684154185.89989996,84728595,1546,1547,1547,1547,0,0,0,0,0,0,0,0,0,0
1684154185.99986005,84828555,1547,1547,1547,1547,0,0,0,0,0,0,0,0,0,0
1684154186.09981990,84928515,1546,1547,1547,1546,0,0,0,0,0,0,0,0,0,0
1684154186.19977999,85028475,1546,1546,1546,1546,0,0,0,0,0,0,0,0,0,0
1684154186.29973984,85128435,1545,1545,1545,1544,0,0,0,0,0,0,0,0,0,0
1684154186.39969993,85228395,1545,1545,1545,1545,0,0,0,0,0,0,0,0,0,0
1684154186.49966002,85328355,1546,1546,1546,1545,0,0,0,0,0,0,0,0,0,0
1684154186.59961987,85428315,1546,1545,1545,1545,0,0,0,0,0,0,0,0,0,0
1684154186.69957995,85528275,1545,1545,1545,1545,0,0,0,0,0,0,0,0,0,0
1684154186.79954004,85628235,1545,1545,1545,1545,0,0,0,0,0,0,0,0,0,0
1684154186.89949989,85728195,1545,1544,1545,1545,0,0,0,0,0,0,0,0,0,0
1684154186.99945998,85828155,1545,1545,1545,1545,0,0,0,0,0,0,0,0,0,0
1684154187.10025287,85928948,1544,1544,1544,1544,0,0,0,0,0,0,0,0,0,0
1684154187.20021296,86028908,1544,1544,1544,1544,0,0,0,0,0,0,0,0,0,0
1684154187.30017304,86128868,1543,1544,1544,1544,0,0,0,0,0,0,0,0,0,0
1684154187.40013289,86228828,1544,1544,1544,1544,0,0,0,0,0,0,0,0,0,0
1684154187.50009298,86328788,1544,1544,1544,1544,0,0,0,0,0,0,0,0,0,0
1684154187.60005283,86428748,1545,1544,1544,1544,0,0,0,0,0,0,0,0,0,0
1684154187.70001292,86528708,1545,1545,1545,1545,0,0,0,0,0,0,0,0,0,0
1684154187.79997301,86628668,1545,1544,1545,1544,0,0,0,0,0,0,0,0,0,0
1684154187.89993286,86728628,1544,1544,1544,1544,0,0,0,0,0,0,0,0,0,0
1684154187.99989295,86828588,1545,1545,1545,1545,0,0,0,0,0,0,0,0,0,0
1684154188.09985304,86928548,1545,1545,1545,1545,0,0,0,0,0,0,0,0,0,0
1684154188.19981289,87028508,1545,1544,1545,1544,0,0,0,0,0,0,0,0,0,0
1684154188.29977298,87128468,1544,1544,1544,1544,0,0,0,0,0,0,0,0,0,0
1684154188.39973283,87228428,1545,1545,1545,1545,0,0,0,0,0,0,0,0,0,0
1684154188.49969292,87328388,1545,1545,1545,1545,0,0,0,0,0,0,0,0,0,0
1684154188.59965301,87428348,1544,1545,1544,1544,0,0,0,0,0,0,0,0,0,0
1684154188.69961286,87528308,1544,1543,1544,1544,0,0,0,0,0,0,0,0,0,0
1684154188.79957294,87628268,1544,1543,1544,1544,0,0,0,0,0,0,0,0,0,0
1684154188.89953303,87728228,1544,1543,1544,1544,0,0,0,0,0,0,0,0,0,0
1684154188.99949288,87828188,1544,1544,1545,1544,0,0,0,0,0,0,0,0,0,0
1684154189.10028601,87928981,1544,1544,1544,1544,0,0,0,0,0,0,0,0,0,0
1684154189.20024586,88028941,1543,1543,1543,1542,0,0,0,0,0,0,0,0,0,0
1684154189.30020595,88128901,1544,1544,1544,1544,0,0,0,0,0,0,0,0,0,0
1684154189.40016603,88228861,1543,1543,1543,1543,0,0,0,0,0,0,0,0,0,0
1684154189.50012589,88328821,1544,1544,1544,1544,0,0,0,0,0,0,0,0,0,0
1684154189.60008597,88428781,1544,1544,1544,1545,0,0,0,0,0,0,0,0,0,0
1684154189.70004582,88528741,1544,1544,1544,1545,0,0,0,0,0,0,0,0,0,0
1684154189.80000591,88628701,1544,1544,1544,1544,0,0,0,0,0,0,0,0,0,0
1684154189.89996600,88728661,1543,1543,1543,1543,0,0,0,0,0,0,0,0,0,0
1684154189.99992585,88828621,1544,1543,1544,1543,0,0,0,0,0,0,0,0,0,0
1684154190.09988594,88928581,1544,1543,1544,1544,0,0,0,0,0,0,0,0,0,0
1684154190.19984603,89028541,1545,1545,1545,1545,0,0,0,0,0,0,0,0,0,0
1684154190.29980588,89128501,1544,1544,1544,1544,0,0,0,0,0,0,0,0,0,0
1684154190.39976597,89228461,1543,1544,1544,1543,0,0,0,0,0,0,0,0,0,0
1684154190.49972606,89328421,1544,1543,1544,1544,0,0,0,0,0,0,0,0,0,0
1684154190.59968591,89428381,1544,1544,1544,1545,0,0,0,0,0,0,0,0,0,0
1684154190.69964600,89528341,1544,1544,1544,1544,0,0,0,0,0,0,0,0,0,0
1684154190.79960585,89628301,1544,1544,1544,1544,0,0,0,0,0,0,0,0,0,0
1684154190.89956594,89728261,1545,1544,1544,1545,0,0,0,0,0,0,0,0,0,0
1684154190.99952602,89828221,1544,1545,1545,1544,0,0,0,0,0,0,0,0,0,0
1684154191.09948587,89928181,1544,1544,1544,1544,0,0,0,0,0,0,0,0,0,0
1684154191.20027900,90028974,1545,1545,1545,1545,0,0,0,0,0,0,0,0,0,0
1684154191.30023885,90128934,1544,1544,1544,1544,0,0,0,0,0,0,0,0,0,0
1684154191.40019894,90228894,1545,1544,1544,1545,0,0,0,0,0,0,0,0,0,0
1684154191.50015903,90328854,1544,1543,1544,1544,0,0,0,0,0,0,0,0,0,0
1684154191.60011888,90428814,1545,1544,1544,1544,0,0,0,0,0,0,0,0,0,0
1684154191.70007896,90528774,1545,1545,1545,1545,0,0,0,0,0,0,0,0,0,0
1684154191.80003905,90628734,1544,1544,1544,1544,0,0,0,0,0,0,0,0,0,0
1684154191.89999890,90728694,1544,1545,1545,1545,0,0,0,0,0,0,0,0,0,0
1684154191.99995899,90828654,1544,1544,1544,1544,0,0,0,0,0,0,0,0,0,0
1684154192.09991884,90928614,1544,1544,1544,1544,0,0,0,0,0,0,0,0,0,0
1684154192.19987893,91028574,1544,1544,1544,1544,0,0,0,0,0,0,0,0,0,0
1684154192.29983902,91128534,1544,1544,1545,1545,0,0,0,0,0,0,0,0,0,0
1684154192.39979887,91228494,1544,1544,1544,1544,0,0,0,0,0,0,0,0,0,0
1684154192.49975896,91328454,1543,1543,1543,1544,0,0,0,0,0,0,0,0,0,0
1684154192.59971905,91428414,1543,1544,1543,1543,0,0,0,0,0,0,0,0,0,0
1684154192.69967890,91528374,1544,1544,1544,1544,0,0,0,0,0,0,0,0,0,0
1684154192.79963899,91628334,1544,1544,1544,1544,0,0,0,0,0,0,0,0,0,0
1684154192.89959884,91728294,1544,1544,1543,1544,0,0,0,0,0,0,0,0,0,0
1684154192.99955893,91828254,1543,1543,1543,1543,0,0,0,0,0,0,0,0,0,0
1684154193.09951901,91928214,1544,1544,1544,1544,0,0,0,0,0,0,0,0,0,0
1684154193.19947886,92028174,1544,1544,1544,1544,0,0,0,0,0,0,0,0,0,0
1684154193.30027199,92128967,1545,1543,1544,1544,0,0,0,0,0,0,0,0,0,0
1684154193.40023184,92228927,1544,1544,1544,1545,0,0,0,0,0,0,0,0,0,0
1684154193.50019193,92328887,1544,1544,1544,1544,0,0,0,0,0,0,0,0,0,0
1684154193.60015202,92428847,1544,1544,1544,1543,0,0,0,0,0,0,0,0,0,0
1684154193.70011187,92528807,1544,1544,1544,1544,0,0,0,0,0,0,0,0,0,0
1684154193.80007195,92628767,1543,1544,1544,1544,0,0,0,0,0,0,0,0,0,0
1684154193.90003204,92728727,1543,1543,1543,1543,0,0,0,0,0,0,0,0,0,0
1684154193.99999189,92828687,1544,1544,1544,1544,0,0,0,0,0,0,0,0,0,0
1684154194.09995198,92928647,1544,1544,1544,1544,0,0,0,0,0,0,0,0,0,0
1684154194.19991183,93028607,1543,1543,1544,1543,0,0,0,0,0,0,0,0,0,0
1684154194.29987192,93128567,1387,1385,1387,1387,0,0,0,0,0,0,0,0,0,0
1684154194.39983201,93228527,1261,1258,1260,1262,0,0,0,0,0,0,0,0,0,0
1684154194.49979186,93328487,1216,1213,1216,1218,0,0,0,0,0,0,0,0,0,0
1684154194.59975195,93428447,1196,1194,1198,1199,0,0,0,0,0,0,0,0,0,0
1684154194.69971204,93528407,1155,1151,1156,1157,0,0,0,0,0,0,0,0,0,0
1684154194.79967189,93628367,1152,1150,1155,1156,0,0,0,0,0,0,0,0,0,0
1684154194.89963198,93728327,1153,1150,1156,1157,0,0,0,0,0,0,0,0,0,0
1684154194.99959183,93828287,1182,1150,1156,1187,0,0,0,0,0,0,0,0,0,0
1684154195.09955192,93928247,1174,1150,1158,1179,0,0,0,0,0,0,0,0,0,0
1684154195.19951200,94028207,1172,1150,1159,1177,0,0,0,0,0,0,0,0,0,0
1684154195.29947186,94128167,1173,1150,1160,1178,0,0,0,0,0,0,0,0,0,0
1684154195.40026498,94228960,1175,1150,1161,1180,0,0,0,0,0,0,0,0,0,0
1684154195.50022483,94328920,1177,1150,1161,1183,0,0,0,0,0,0,0,0,0,0
1684154195.60018492,94428880,1178,1150,1162,1185,0,0,0,0,0,0,0,0,0,0
1684154195.70014501,94528840,1180,1150,1162,1187,0,0,0,0,0,0,0,0,0,0
1684154195.80010486,94628800,1166,1150,1162,1174,0,0,0,0,0,0,0,0,0,0
1684154195.90006495,94728760,1167,1150,1163,1176,0,0,0,0,0,0,0,0,0,0
1684154196.00002503,94828720,1168,1150,1163,1177,0,0,0,0,0,0,0,0,0,0
1684154196.09998488,94928680,1169,1150,1164,1179,0,0,0,0,0,0,0,0,0,0
1684154196.19994497,95028640,1169,1150,1165,1180,0,0,0,0,0,0,0,0,0,0
1684154196.29990482,95128600,1000,1000,1000,1000,0,0,0,0,0,0,0,0,0,0
1684154196.39986491,95228560,1000,1000,1000,1000,0,0,0,0,0,0,0,0,0,0
1684154196.49982500,95328520,1000,1000,1000,1000,0,0,0,0,0,0,0,0,0,0
1684154196.59978485,95428480,1000,1000,1000,1000,0,0,0,0,0,0,0,0,0,0
1684154196.69974494,95528440,1000,1000,1000,1000,0,0,0,0,0,0,0,0,0,0
1684154196.79970503,95628400,1000,1000,1000,1000,0,0,0,0,0,0,0,0,0,0
1684154196.89966488,95728360,1000,1000,1000,1000,0,0,0,0,0,0,0,0,0,0
1684154196.99962497,95828320,1000,1000,1000,1000,0,0,0,0,0,0,0,0,0,0
1684154197.09958506,95928280,1000,1000,1000,1000,0,0,0,0,0,0,0,0,0,0
1684154197.19954491,96028240,1000,1000,1000,1000,0,0,0,0,0,0,0,0,0,0
1684154197.29950500,96128200,1000,1000,1000,1000,0,0,0,0,0,0,0,0,0,0
1684154197.39946485,96228160,1000,1000,1000,1000,0,0,0,0,0,0,0,0,0,0
1684154197.50025797,96328953,1000,1000,1000,1000,0,0,0,0,0,0,0,0,0,0
1684154197.60021806,96428913,1000,1000,1000,1000,0,0,0,0,0,0,0,0,0,0
1684154197.70017791,96528873,1000,1000,1000,1000,0,0,0,0,0,0,0,0,0,0
1684154197.80013800,96628833,1000,1000,1000,1000,0,0,0,0,0,0,0,0,0,0
1684154197.90009785,96728793,1000,1000,1000,1000,0,0,0,0,0,0,0,0,0,0
1684154198.00005794,96828753,1000,1000,1000,1000,0,0,0,0,0,0,0,0,0,0
1684154198.10001802,96928713,1000,1000,1000,1000,0,0,0,0,0,0,0,0,0,0
1684154198.19997787,97028673,1000,1000,1000,1000,0,0,0,0,0,0,0,0,0,0
1684154198.29993796,97128633,1000,1000,1000,1000,0,0,0,0,0,0,0,0,0,0
1684154198.39989805,97228593,1000,1000,1000,1000,0,0,0,0,0,0,0,0,0,0
1684154198.49985790,97328553,1000,1000,1000,1000,0,0,0,0,0,0,0,0,0,0
1684154198.59981799,97428513,1000,1000,1000,1000,0,0,0,0,0,0,0,0,0,0
1684154198.69977784,97528473,1000,1000,1000,1000,0,0,0,0,0,0,0,0,0,0
1684154198.79973793,97628433,1000,1000,1000,1000,0,0,0,0,0,0,0,0,0,0
1684154198.89969802,97728393,1000,1000,1000,1000,0,0,0,0,0,0,0,0,0,0
1684154198.99965787,97828353,1000,1000,1000,1000,0,0,0,0,0,0,0,0,0,0
1684154199.09961796,97928313,1000,1000,1000,1000,0,0,0,0,0,0,0,0,0,0
1684154199.19957805,98028273,1000,1000,1000,1000,0,0,0,0,0,0,0,0,0,0
1684154199.29953790,98128233,1000,1000,1000,1000,0,0,0,0,0,0,0,0,0,0
1684154199.39949799,98228193,1000,1000,1000,1000,0,0,0,0,0,0,0,0,0,0
1684154199.50029087,98328986,1000,1000,1000,1000,0,0,0,0,0,0,0,0,0,0
1684154199.60025096,98428946,1000,1000,1000,1000,0,0,0,0,0,0,0,0,0,0
1684154199.70021105,98528906,1000,1000,1000,1000,0,0,0,0,0,0,0,0,0,0
1684154199.80017090,98628866,1000,1000,1000,1000,0,0,0,0,0,0,0,0,0,0
1684154199.90013099,98728826,1000,1000,1000,1000,0,0,0,0,0,0,0,0,0,0
1684154200.00009084,98828786,1000,1000,1000,1000,0,0,0,0,0,0,0,0,0,0
1684154200.10005093,98928746,1000,1000,1000,1000,0,0,0,0,0,0,0,0,0,0
1684154200.20001101,99028706,1000,1000,1000,1000,0,0,0,0,0,0,0,0,0,0
1684154200.29997087,99128666,1000,1000,1000,1000,0,0,0,0,0,0,0,0,0,0
1684154200.39993095,99228626,1000,1000,1000,1000,0,0,0,0,0,0,0,0,0,0
1684154200.49989104,99328586,1000,1000,1000,1000,0,0,0,0,0,0,0,0,0,0
1684154200.59985089,99428546,1000,1000,1000,1000,0,0,0,0,0,0,0,0,0,0
1684154200.69981098,99528506,1000,1000,1000,1000,0,0,0,0,0,0,0,0,0,0
1684154200.79977083,99628466,1000,1000,1000,1000,0,0,0,0,0,0,0,0,0,0
1684154200.89973092,99728426,1000,1000,1000,1000,0,0,0,0,0,0,0,0,0,0
1684154200.99969101,99828386,1000,1000,1000,1000,0,0,0,0,0,0,0,0,0,0
1684154201.09965086,99928346,1000,1000,1000,1000,0,0,0,0,0,0,0,0,0,0
1684154201.19961095,100028306,1000,1000,1000,1000,0,0,0,0,0,0,0,0,0,0
1684154201.29957104,100128266,1000,1000,1000,1000,0,0,0,0,0,0,0,0,0,0
1684154201.39953089,100228226,1000,1000,1000,1000,0,0,0,0,0,0,0,0,0,0
1684154201.49949098,100328186,1000,1000,1000,1000,0,0,0,0,0,0,0,0,0,0
1684154201.60028386,100428979,1000,1000,1000,1000,0,0,0,0,0,0,0,0,0,0
1684154201.70024395,100528939,1000,1000,1000,1000,0,0,0,0,0,0,0,0,0,0
1684154201.80020404,100628899,1000,1000,1000,1000,0,0,0,0,0,0,0,0,0,0
1684154201.90016389,100728859,1000,1000,1000,1000,0,0,0,0,0,0,0,0,0,0
1684154202.00012398,100828819,1000,1000,1000,1000,0,0,0,0,0,0,0,0,0,0
1684154202.10008383,100928779,1000,1000,1000,1000,0,0,0,0,0,0,0,0,0,0
1684154202.20004392,101028739,1000,1000,1000,1000,0,0,0,0,0,0,0,0,0,0
1684154202.30000401,101128699,1000,1000,1000,1000,0,0,0,0,0,0,0,0,0,0
1684154202.39996386,101228659,1000,1000,1000,1000,0,0,0,0,0,0,0,0,0,0
1684154202.49992394,101328619,1000,1000,1000,1000,0,0,0,0,0,0,0,0,0,0
1684154202.59988403,101428579,1000,1000,1000,1000,0,0,0,0,0,0,0,0,0,0
1684154202.69984388,101528539,1000,1000,1000,1000,0,0,0,0,0,0,0,0,0,0
1684154202.79980397,101628499,1000,1000,1000,1000,0,0,0,0,0,0,0,0,0,0
1684154202.89976382,101728459,1000,1000,1000,1000,0,0,0,0,0,0,0,0,0,0
1684154202.99972391,101828419,1000,1000,1000,1000,0,0,0,0,0,0,0,0,0,0
1684154203.09968400,101928379,1000,1000,1000,1000,0,0,0,0,0,0,0,0,0,0
1684154203.19964385,102028339,1000,1000,1000,1000,0,0,0,0,0,0,0,0,0,0
1684154203.29960394,102128299,1000,1000,1000,1000,0,0,0,0,0,0,0,0,0,0
1684154203.39956403,102228259,1000,1000,1000,1000,0,0,0,0,0,0,0,0,0,0
1684154203.49952388,102328219,1000,1000,1000,1000,0,0,0,0,0,0,0,0,0,0
1684154203.59948397,102428179,1000,1000,1000,1000,0,0,0,0,0,0,0,0,0,0
1684154203.70027685,102528972,1000,1000,1000,1000,0,0,0,0,0,0,0,0,0,0
1684154203.80023694,102628932,1000,1000,1000,1000,0,0,0,0,0,0,0,0,0,0
1684154203.90019703,102728892,1000,1000,1000,1000,0,0,0,0,0,0,0,0,0,0
1684154204.00015688,102828852,1000,1000,1000,1000,0,0,0,0,0,0,0,0,0,0
1684154204.10011697,102928812,1000,1000,1000,1000,0,0,0,0,0,0,0,0,0,0
1684154204.20007706,103028772,1000,1000,1000,1000,0,0,0,0,0,0,0,0,0,0
1684154204.30003691,103128732,1000,1000,1000,1000,0,0,0,0,0,0,0,0,0,0
1684154204.39999700,103228692,1000,1000,1000,1000,0,0,0,0,0,0,0,0,0,0
1684154204.49995685,103328652,1000,1000,1000,1000,0,0,0,0,0,0,0,0,0,0
1684154204.59991693,103428612,1000,1000,1000,1000,0,0,0,0,0,0,0,0,0,0
1684154204.69987702,103528572,1000,1000,1000,1000,0,0,0,0,0,0,0,0,0,0
1684154204.79983687,103628532,1000,1000,1000,1000,0,0,0,0,0,0,0,0,0,0
1684154204.89979696,103728492,1000,1000,1000,1000,0,0,0,0,0,0,0,0,0,0
1684154204.99975705,103828452,1000,1000,1000,1000,0,0,0,0,0,0,0,0,0,0
1684154205.09971690,103928412,1000,1000,1000,1000,0,0,0,0,0,0,0,0,0,0
1684154205.19967699,104028372,1000,1000,1000,1000,0,0,0,0,0,0,0,0,0,0
1684154205.29963684,104128332,1000,1000,1000,1000,0,0,0,0,0,0,0,0,0,0
1684154205.39959693,104228292,1000,1000,1000,1000,0,0,0,0,0,0,0,0,0,0
1684154205.49955702,104328252,1000,1000,1000,1000,0,0,0,0,0,0,0,0,0,0
1684154205.59951687,104428212,1000,1000,1000,1000,0,0,0,0,0,0,0,0,0,0
1684154205.69947696,104528172,1000,1000,1000,1000,0,0,0,0,0,0,0,0,0,0
1684154205.80026984,104628965,1000,1000,1000,1000,0,0,0,0,0,0,0,0,0,0
1684154205.90022993,104728925,1000,1000,1000,1000,0,0,0,0,0,0,0,0,0,0
1684154206.00019002,104828885,1000,1000,1000,1000,0,0,0,0,0,0,0,0,0,0
1684154206.10014987,104928845,1000,1000,1000,1000,0,0,0,0,0,0,0,0,0,0
1684154206.20010996,105028805,1000,1000,1000,1000,0,0,0,0,0,0,0,0,0,0
1684154206.30007005,105128765,1000,1000,1000,1000,0,0,0,0,0,0,0,0,0,0
1684154206.40002990,105228725,1000,1000,1000,1000,0,0,0,0,0,0,0,0,0,0
1684154206.49998999,105328685,1000,1000,1000,1000,0,0,0,0,0,0,0,0,0,0
1684154206.59994984,105428645,1000,1000,1000,1000,0,0,0,0,0,0,0,0,0,0
1684154206.69990993,105528605,1000,1000,1000,1000,0,0,0,0,0,0,0,0,0,0
1684154206.79987001,105628565,1000,1000,1000,1000,0,0,0,0,0,0,0,0,0,0
1684154206.89982986,105728525,1000,1000,1000,1000,0,0,0,0,0,0,0,0,0,0
1684154206.99978995,105828485,1000,1000,1000,1000,0,0,0,0,0,0,0,0,0,0
1684154207.09975004,105928445,1000,1000,1000,1000,0,0,0,0,0,0,0,0,0,0
1684154207.19970989,106028405,1000,1000,1000,1000,0,0,0,0,0,0,0,0,0,0
1684154207.29966998,106128365,1000,1000,1000,1000,0,0,0,0,0,0,0,0,0,0
1684154207.39962983,106228325,1000,1000,1000,1000,0,0,0,0,0,0,0,0,0,0
1684154207.49958992,106328285,1000,1000,1000,1000,0,0,0,0,0,0,0,0,0,0
1684154207.59955001,106428245,1000,1000,1000,1000,0,0,0,0,0,0,0,0,0,0
1684154207.69950986,106528205,1000,1000,1000,1000,0,0,0,0,0,0,0,0,0,0
1684154207.79946995,106628165,1000,1000,1000,1000,0,0,0,0,0,0,0,0,0,0
1684154207.90026283,106728958,1000,1000,1000,1000,0,0,0,0,0,0,0,0,0,0
1684154208.00022292,106828918,1000,1000,1000,1000,0,0,0,0,0,0,0,0,0,0
1684154208.10018301,106928878,1000,1000,1000,1000,0,0,0,0,0,0,0,0,0,0
1684154208.20014286,107028838,1000,1000,1000,1000,0,0,0,0,0,0,0,0,0,0
1684154208.30010295,107128798,1000,1000,1000,1000,0,0,0,0,0,0,0,0,0,0
1684154208.40006304,107228758,1000,1000,1000,1000,0,0,0,0,0,0,0,0,0,0
1684154208.50002289,107328718,1000,1000,1000,1000,0,0,0,0,0,0,0,0,0,0
1684154208.59998298,107428678,1000,1000,1000,1000,0,0,0,0,0,0,0,0,0,0
1684154208.69994283,107528638,1000,1000,1000,1000,0,0,0,0,0,0,0,0,0,0
1684154208.79990292,107628598,1000,1000,1000,1000,0,0,0,0,0,0,0,0,0,0
1684154208.89986300,107728558,1000,1000,1000,1000,0,0,0,0,0,0,0,0,0,0
1684154208.99982285,107828518,1000,1000,1000,1000,0,0,0,0,0,0,0,0,0,0
1684154209.09978294,107928478,1000,1000,1000,1000,0,0,0,0,0,0,0,0,0,0
1684154209.19974303,108028438,1000,1000,1000,1000,0,0,0,0,0,0,0,0,0,0
1684154209.29970288,108128398,1000,1000,1000,1000,0,0,0,0,0,0,0,0,0,0
1684154209.39966297,108228358,1000,1000,1000,1000,0,0,0,0,0,0,0,0,0,0
1684154209.49962306,108328318,1000,1000,1000,1000,0,0,0,0,0,0,0,0,0,0
1684154209.59958291,108428278,1000,1000,1000,1000,0,0,0,0,0,0,0,0,0,0
1684154209.69954300,108528238,1000,1000,1000,1000,0,0,0,0,0,0,0,0,0,0
1684154209.79950285,108628198,1000,1000,1000,1000,0,0,0,0,0,0,0,0,0,0
1684154209.89946294,108728158,1000,1000,1000,1000,0,0,0,0,0,0,0,0,0,0
1684154210.00025582,108828951,1000,1000,1000,1000,0,0,0,0,0,0,0,0,0,0
1684154210.10021591,108928911,1000,1000,1000,1000,0,0,0,0,0,0,0,0,0,0
1684154210.20017600,109028871,1000,1000,1000,1000,0,0,0,0,0,0,0,0,0,0
1684154210.30013585,109128831,1000,1000,1000,1000,0,0,0,0,0,0,0,0,0,0
1684154210.40009594,109228791,1000,1000,1000,1000,0,0,0,0,0,0,0,0,0,0
1684154210.50005603,109328751,1000,1000,1000,1000,0,0,0,0,0,0,0,0,0,0
1684154210.60001588,109428711,1000,1000,1000,1000,0,0,0,0,0,0,0,0,0,0
1684154210.69997597,109528671,1000,1000,1000,1000,0,0,0,0,0,0,0,0,0,0
1684154210.79993606,109628631,1000,1000,1000,1000,0,0,0,0,0,0,0,0,0,0
1684154210.89989591,109728591,1000,1000,1000,1000,0,0,0,0,0,0,0,0,0,0
1684154210.99985600,109828551,1000,1000,1000,1000,0,0,0,0,0,0,0,0,0,0
1684154211.09981585,109928511,1000,1000,1000,1000,0,0,0,0,0,0,0,0,0,0
1684154211.19977593,110028471,1000,1000,1000,1000,0,0,0,0,0,0,0,0,0,0
