TimeUS,M1,M2,M3,M4,TimeUS,C1,C2,C3,C4
53116245,1000,1000,1000,1000,53128740,1000,1000,1000,1000
53118744,1000,1000,1000,1000,53228700,1000,1000,1000,1000
53121243,1000,1000,1000,1000,53328660,1000,1000,1000,1000
53123742,1000,1000,1000,1000,53428620,1000,1000,1000,1000
53126241,1000,1000,1000,1000,53528580,1000,1000,1000,1000
53128740,1000,1000,1000,1000,53628540,1000,1000,1000,1000
53131239,1000,1000,1000,1000,53728500,1000,1000,1000,1000
53133738,1000,1000,1000,1000,53828460,1000,1000,1000,1000
53136237,1000,1000,1000,1000,53928420,1000,1000,1000,1000
53138736,1000,1000,1000,1000,54028380,1000,1000,1000,1000
53141235,1000,1000,1000,1000,54128340,1000,1000,1000,1000
53143734,1000,1000,1000,1000,54228300,1000,1000,1000,1000
53146233,1000,1000,1000,1000,54328260,1000,1000,1000,1000
53148732,1000,1000,1000,1000,54428220,1000,1000,1000,1000
53151231,1000,1000,1000,1000,54528180,1000,1000,1000,1000
53153730,1000,1000,1000,1000,54628973,1000,1000,1000,1000
53156229,1000,1000,1000,1000,54728933,1000,1000,1000,1000
53158728,1000,1000,1000,1000,54828893,1000,1000,1000,1000
53161227,1000,1000,1000,1000,54928853,1000,1000,1000,1000
53163726,1000,1000,1000,1000,55028813,1000,1000,1000,1000
53166225,1000,1000,1000,1000,55128773,1003,1003,1003,1003
53168724,1000,1000,1000,1000,55228733,1033,1033,1033,1033
53171223,1000,1000,1000,1000,55328693,1063,1063,1063,1063
53173722,1000,1000,1000,1000,55428653,1093,1093,1093,1093
53176221,1000,1000,1000,1000,55528613,1123,1123,1123,1123
53178720,1000,1000,1000,1000,55628573,1185,1177,1178,1185
53181219,1000,1000,1000,1000,55728533,1425,1419,1419,1425
53183718,1000,1000,1000,1000,55828493,1599,1594,1594,1599
53186217,1000,1000,1000,1000,55928453,1744,1738,1739,1743
53188716,1000,1000,1000,1000,56028413,1844,1839,1839,1844
53191215,1000,1000,1000,1000,56128373,1852,1847,1847,1852
53193714,1000,1000,1000,1000,56228333,1784,1782,1783,1784
53196213,1000,1000,1000,1000,56328293,1661,1661,1661,1661
53198712,1000,1000,1000,1000,56428253,1607,1609,1609,1607
53201211,1000,1000,1000,1000,56528213,1610,1613,1613,1611
53203710,1000,1000,1000,1000,56628173,1629,1631,1630,1629
53206209,1000,1000,1000,1000,56728966,1636,1638,1637,1637
53208708,1000,1000,1000,1000,56828926,1629,1627,1625,1630
53211207,1000,1000,1000,1000,56928886,1616,1616,1609,1622
53213706,1000,1000,1000,1000,57028846,1609,1610,1605,1614
53216205,1000,1000,1000,1000,57128806,1608,1608,1607,1609
53218704,1000,1000,1000,1000,57228766,1612,1612,1614,1610
53221203,1000,1000,1000,1000,57328726,1617,1617,1620,1613
53223702,1000,1000,1000,1000,57428686,1620,1619,1623,1616
53226201,1000,1000,1000,1000,57528646,1623,1622,1625,1619
53228700,1000,1000,1000,1000,57628606,1596,1596,1605,1586
53231199,1000,1000,1000,1000,57728566,1579,1579,1589,1570
53233698,1000,1000,1000,1000,57828526,1568,1568,1570,1566
53236197,1000,1000,1000,1000,57928486,1557,1558,1553,1562
53238696,1000,1000,1000,1000,58028446,1549,1548,1539,1559
53241195,1000,1000,1000,1000,58128406,1541,1541,1532,1550
53243694,1000,1000,1000,1000,58228366,1535,1535,1529,1541
53246193,1000,1000,1000,1000,58328326,1529,1529,1527,1531
53248692,1000,1000,1000,1000,58428286,1529,1528,1529,1527
53251191,1000,1000,1000,1000,58528246,1530,1530,1532,1527
53253690,1000,1000,1000,1000,58628206,1532,1532,1535,1528
53256189,1000,1000,1000,1000,58728166,1535,1535,1538,1531
53258688,1000,1000,1000,1000,58828959,1539,1539,1542,1536
53261187,1000,1000,1000,1000,58928919,1541,1541,1543,1540
53263686,1000,1000,1000,1000,59028879,1544,1545,1545,1545
53266185,1000,1000,1000,1000,59128839,1547,1548,1547,1549
53268684,1000,1000,1000,1000,59228799,1550,1550,1549,1552
53271183,1000,1000,1000,1000,59328759,1553,1552,1551,1555
53273682,1000,1000,1000,1000,59428719,1553,1553,1555,1558
53276181,1000,1000,1000,1000,59528679,1555,1555,1559,1561
53278680,1000,1000,1000,1000,59628639,1558,1558,1562,1562
53281179,1000,1000,1000,1000,59728599,1559,1559,1564,1562
53283678,1000,1000,1000,1000,59828559,1562,1562,1565,1564
53286177,1000,1000,1000,1000,59928519,1564,1565,1566,1565
53288676,1000,1000,1000,1000,60028479,1566,1567,1567,1566
53291175,1000,1000,1000,1000,60128439,1569,1569,1568,1568
53293674,1000,1000,1000,1000,60228399,1570,1570,1568,1568
53296173,1000,1000,1000,1000,60328359,1571,1571,1568,1569
53298672,1000,1000,1000,1000,60428319,1572,1572,1569,1569
53301171,1000,1000,1000,1000,60528279,1572,1573,1570,1570
53303670,1000,1000,1000,1000,60628239,1573,1574,1571,1571
53306169,1000,1000,1000,1000,60728199,1574,1574,1572,1572
53308668,1000,1000,1000,1000,60828159,1574,1574,1573,1572
53311167,1000,1000,1000,1000,60928952,1574,1574,1574,1573
53313666,1000,1000,1000,1000,61028912,1575,1575,1575,1574
53316165,1000,1000,1000,1000,61128872,1575,1575,1576,1575
53318664,1000,1000,1000,1000,61228832,1575,1574,1575,1575
53321163,1000,1000,1000,1000,61328792,1575,1575,1575,1576
53323662,1000,1000,1000,1000,61428752,1576,1576,1576,1576
53326161,1000,1000,1000,1000,61528712,1576,1575,1576,1576
53328660,1000,1000,1000,1000,61628672,1577,1577,1577,1578
53331159,1000,1000,1000,1000,61728632,1576,1576,1577,1577
53333658,1000,1000,1000,1000,61828592,1577,1577,1578,1577
53336157,1000,1000,1000,1000,61928552,1577,1577,1578,1577
53338656,1000,1000,1000,1000,62028512,1578,1578,1578,1578
53341155,1000,1000,1000,1000,62128472,1578,1578,1577,1578
53343654,1000,1000,1000,1000,62228432,1579,1579,1579,1579
53346153,1000,1000,1000,1000,62328392,1579,1579,1578,1578
53348652,1000,1000,1000,1000,62428352,1579,1579,1578,1578
53351151,1000,1000,1000,1000,62528312,1579,1579,1579,1578
53353650,1000,1000,1000,1000,62628272,1578,1578,1578,1578
53356149,1000,1000,1000,1000,62728232,1579,1579,1579,1579
53358648,1000,1000,1000,1000,62828192,1578,1578,1578,1578
53361147,1000,1000,1000,1000,62928985,1579,1579,1579,1579
53363646,1000,1000,1000,1000,63028945,1579,1579,1579,1579
53366145,1000,1000,1000,1000,63128905,1578,1578,1578,1579
53368644,1000,1000,1000,1000,63228865,1579,1579,1579,1579
53371143,1000,1000,1000,1000,63328825,1579,1579,1579,1579
53373642,1000,1000,1000,1000,63428785,1579,1579,1579,1579
53376141,1000,1000,1000,1000,63528745,1578,1578,1579,1579
53378640,1000,1000,1000,1000,63628705,1578,1578,1578,1578
53381139,1000,1000,1000,1000,63728665,1579,1579,1579,1579
53383638,1000,1000,1000,1000,63828625,1579,1580,1580,1579
53386137,1000,1000,1000,1000,63928585,1580,1580,1580,1580
53388636,1000,1000,1000,1000,64028545,1579,1579,1579,1579
53391135,1000,1000,1000,1000,64128505,1579,1579,1579,1579
53393634,1000,1000,1000,1000,64228465,1579,1579,1579,1579
53396133,1000,1000,1000,1000,64328425,1580,1580,1580,1580
53398632,1000,1000,1000,1000,64428385,1580,1580,1580,1580
53401131,1000,1000,1000,1000,64528345,1580,1580,1580,1580
53403630,1000,1000,1000,1000,64628305,1579,1579,1580,1579
53406129,1000,1000,1000,1000,64728265,1580,1580,1580,1580
53408628,1000,1000,1000,1000,64828225,1581,1581,1581,1581
53411127,1000,1000,1000,1000,64928185,1581,1581,1581,1581
53413626,1000,1000,1000,1000,65028978,1580,1580,1580,1580
53416125,1000,1000,1000,1000,65128938,1580,1581,1581,1581
53418624,1000,1000,1000,1000,65228898,1580,1581,1581,1581
53421123,1000,1000,1000,1000,65328858,1581,1581,1581,1581
53423622,1000,1000,1000,1000,65428818,1581,1581,1580,1581
53426121,1000,1000,1000,1000,65528778,1581,1581,1581,1581
53428620,1000,1000,1000,1000,65628738,1580,1581,1587,1573
53431119,1000,1000,1000,1000,65728698,1579,1581,1584,1572
53433618,1000,1000,1000,1000,65828658,1577,1581,1576,1572
53436117,1000,1000,1000,1000,65928618,1576,1580,1567,1571
53438616,1000,1000,1000,1000,66028578,1576,1578,1560,1567
53441115,1000,1000,1000,1000,66128538,1577,1577,1556,1562
53443614,1000,1000,1000,1000,66228498,1579,1578,1556,1559
53446113,1000,1000,1000,1000,66328458,1579,1578,1555,1556
53448612,1000,1000,1000,1000,66428418,1579,1577,1556,1554
53451111,1000,1000,1000,1000,66528378,1579,1578,1556,1555
53453610,1000,1000,1000,1000,66628338,1577,1578,1557,1554
53456109,1000,1000,1000,1000,66728298,1575,1577,1555,1554
53458608,1000,1000,1000,1000,66828258,1575,1576,1554,1554
53461107,1000,1000,1000,1000,66928218,1575,1576,1553,1553
53463606,1000,1000,1000,1000,67028178,1575,1576,1551,1551
53466105,1000,1000,1000,1000,67128971,1576,1577,1549,1549
53468604,1000,1000,1000,1000,67228931,1578,1579,1547,1547
53471103,1000,1000,1000,1000,67328891,1581,1581,1545,1545
53473602,1000,1000,1000,1000,67428851,1584,1585,1543,1542
53476101,1000,1000,1000,1000,67528811,1587,1588,1540,1540
53478600,1000,1000,1000,1000,67628771,1591,1591,1539,1538
53481099,1000,1000,1000,1000,67728731,1593,1593,1536,1536
53483598,1000,1000,1000,1000,67828691,1595,1594,1535,1535
53486097,1000,1000,1000,1000,67928651,1595,1595,1534,1537
53488596,1000,1000,1000,1000,68028611,1594,1594,1535,1538
53491095,1000,1000,1000,1000,68128571,1592,1592,1539,1542
53493594,1000,1000,1000,1000,68228531,1588,1587,1544,1547
53496093,1000,1000,1000,1000,68328491,1582,1580,1552,1555
53498592,1000,1000,1000,1000,68428451,1574,1571,1562,1564
53501091,1000,1000,1000,1000,68528411,1565,1560,1575,1576
53503590,1000,1000,1000,1000,68628371,1553,1550,1587,1588
53506089,1000,1000,1000,1000,68728331,1543,1541,1599,1600
53508588,1000,1000,1000,1000,68828291,1534,1533,1607,1607
53511087,1000,1000,1000,1000,68928251,1530,1530,1614,1612
53513586,1000,1000,1000,1000,69028211,1529,1531,1616,1615
53516085,1000,1000,1000,1000,69128171,1530,1533,1614,1613
53518584,1000,1000,1000,1000,69228964,1537,1539,1610,1609
53521083,1000,1000,1000,1000,69328924,1544,1546,1602,1603
53523582,1000,1000,1000,1000,69428884,1553,1554,1596,1596
53526081,1000,1000,1000,1000,69528844,1562,1562,1588,1588
53528580,1000,1000,1000,1000,69628804,1572,1571,1582,1581
53531079,1000,1000,1000,1000,69728764,1578,1577,1575,1574
53533578,1000,1000,1000,1000,69828724,1582,1581,1570,1569
53536077,1000,1000,1000,1000,69928684,1586,1584,1567,1566
53538576,1000,1000,1000,1000,70028644,1588,1586,1566,1566
53541075,1000,1000,1000,1000,70128604,1587,1585,1565,1566
53543574,1000,1000,1000,1000,70228564,1585,1585,1567,1567
53546073,1000,1000,1000,1000,70328524,1583,1583,1571,1570
53548572,1000,1000,1000,1000,70428484,1581,1581,1574,1574
53551071,1000,1000,1000,1000,70528444,1578,1578,1576,1576
53553570,1000,1000,1000,1000,70628404,1575,1576,1579,1579
53556069,1000,1000,1000,1000,70728364,1631,1630,1566,1564
53558568,1000,1000,1000,1000,70828324,1609,1608,1566,1565
53561067,1000,1000,1000,1000,70928284,1589,1588,1572,1572
53563566,1000,1000,1000,1000,71028244,1573,1573,1579,1581
53566065,1000,1000,1000,1000,71128204,1560,1561,1586,1588
53568564,1000,1000,1000,1000,71228164,1553,1554,1591,1592
53571063,1000,1000,1000,1000,71328957,1550,1553,1593,1593
53573562,1000,1000,1000,1000,71428917,1551,1553,1593,1592
53576061,1000,1000,1000,1000,71528877,1555,1558,1592,1591
53578560,1000,1000,1000,1000,71628837,1560,1562,1589,1589
53581059,1000,1000,1000,1000,71728797,1565,1566,1585,1585
53583558,1000,1000,1000,1000,71828757,1569,1570,1581,1582
53586057,1000,1000,1000,1000,71928717,1574,1574,1578,1578
53588556,1000,1000,1000,1000,72028677,1579,1578,1576,1576
53591055,1000,1000,1000,1000,72128637,1582,1581,1573,1573
53593554,1000,1000,1000,1000,72228597,1586,1585,1573,1573
53596053,1000,1000,1000,1000,72328557,1588,1586,1572,1572
53598552,1000,1000,1000,1000,72428517,1588,1587,1572,1572
53601051,1000,1000,1000,1000,72528477,1588,1587,1574,1573
53603550,1000,1000,1000,1000,72628437,1585,1585,1574,1574
53606049,1000,1000,1000,1000,72728397,1584,1584,1577,1577
53608548,1000,1000,1000,1000,72828357,1582,1583,1579,1579
53611047,1000,1000,1000,1000,72928317,1580,1581,1581,1581
53613546,1000,1000,1000,1000,73028277,1578,1579,1582,1582
53616045,1000,1000,1000,1000,73128237,1578,1578,1583,1583
53618544,1000,1000,1000,1000,73228197,1578,1578,1584,1585
53621043,1000,1000,1000,1000,73328157,1578,1578,1585,1585
53623542,1000,1000,1000,1000,73428950,1577,1577,1584,1584
53626041,1000,1000,1000,1000,73528910,1578,1578,1583,1583
53628540,1000,1000,1000,1000,73628870,1578,1581,1588,1575
53631039,1000,1000,1000,1000,73728830,1578,1584,1585,1572
53633538,1000,1000,1000,1000,73828790,1579,1584,1575,1571
53636037,1000,1000,1000,1000,73928750,1579,1582,1565,1569
53638536,1000,1000,1000,1000,74028710,1581,1582,1558,1565
53641035,1000,1000,1000,1000,74128670,1582,1581,1552,1559
53643534,1000,1000,1000,1000,74228630,1583,1581,1550,1554
53646033,1000,1000,1000,1000,74328590,1584,1581,1551,1551
53648532,1000,1000,1000,1000,74428550,1584,1582,1553,1550
53651031,1000,1000,1000,1000,74528510,1582,1582,1553,1551
53653530,1000,1000,1000,1000,74628470,1581,1581,1555,1552
53656029,1000,1000,1000,1000,74728430,1578,1580,1554,1553
53658528,1000,1000,1000,1000,74828390,1576,1578,1553,1553
53661027,1000,1000,1000,1000,74928350,1576,1578,1552,1554
53663526,1000,1000,1000,1000,75028310,1577,1578,1552,1553
53666025,1000,1000,1000,1000,75128270,1578,1579,1551,1551
53668524,1000,1000,1000,1000,75228230,1579,1580,1550,1549
53671023,1000,1000,1000,1000,75328190,1581,1582,1547,1547
53673522,1000,1000,1000,1000,75428983,1584,1585,1546,1546
53676021,1000,1000,1000,1000,75528943,1587,1588,1544,1544
53678520,1000,1000,1000,1000,75628903,1590,1591,1541,1542
53681019,1000,1000,1000,1000,75728863,1594,1594,1540,1541
53683518,1000,1000,1000,1000,75828823,1595,1595,1539,1542
53686017,1000,1000,1000,1000,75928783,1594,1593,1541,1544
53688516,1000,1000,1000,1000,76028743,1592,1589,1546,1548
53691015,1000,1000,1000,1000,76128703,1585,1581,1552,1555
53693514,1000,1000,1000,1000,76228663,1579,1574,1563,1565
53696013,1000,1000,1000,1000,76328623,1569,1564,1574,1575
53698512,1000,1000,1000,1000,76428583,1559,1557,1585,1586
53701011,1000,1000,1000,1000,76528543,1549,1548,1595,1595
53703510,1000,1000,1000,1000,76628503,1543,1543,1603,1602
53706009,1000,1000,1000,1000,76728463,1540,1541,1607,1607
53708508,1000,1000,1000,1000,76828423,1541,1542,1609,1608
53711007,1000,1000,1000,1000,76928383,1544,1546,1608,1608
53713506,1000,1000,1000,1000,77028343,1548,1549,1606,1605
53716005,1000,1000,1000,1000,77128303,1553,1554,1603,1601
53718504,1000,1000,1000,1000,77228263,1558,1559,1598,1596
53721003,1000,1000,1000,1000,77328223,1564,1564,1593,1592
53723502,1000,1000,1000,1000,77428183,1569,1570,1587,1587
53726001,1000,1000,1000,1000,77528976,1574,1574,1581,1582
53728500,1000,1000,1000,1000,77628936,1579,1578,1576,1577
53730999,1000,1000,1000,1000,77728896,1583,1582,1573,1574
53733498,1000,1000,1000,1000,77828856,1584,1583,1571,1570
53735997,1000,1000,1000,1000,77928816,1585,1584,1570,1570
53738496,1000,1000,1000,1000,78028776,1584,1583,1569,1570
53740995,1000,1000,1000,1000,78128736,1584,1583,1572,1572
53743494,1000,1000,1000,1000,78228696,1582,1581,1574,1574
53745993,1000,1000,1000,1000,78328656,1580,1579,1577,1576
53748492,1000,1000,1000,1000,78428616,1576,1577,1578,1578
53750991,1000,1000,1000,1000,78528576,1575,1575,1580,1580
53753490,1000,1000,1000,1000,78628536,1573,1574,1581,1581
53755989,1000,1000,1000,1000,78728496,1573,1575,1583,1583
53758488,1000,1000,1000,1000,78828456,1575,1575,1584,1584
53760987,1000,1000,1000,1000,78928416,1574,1574,1583,1582
53763486,1000,1000,1000,1000,79028376,1574,1575,1581,1581
53765985,1000,1000,1000,1000,79128336,1576,1576,1582,1582
53768484,1000,1000,1000,1000,79228296,1578,1577,1581,1581
53770983,1000,1000,1000,1000,79328256,1580,1579,1581,1581
53773482,1000,1000,1000,1000,79428216,1579,1579,1579,1578
53775981,1000,1000,1000,1000,79528176,1581,1581,1579,1579
53778480,1000,1000,1000,1000,79628969,1581,1581,1579,1579
53780979,1000,1000,1000,1000,79728929,1581,1582,1578,1579
53783478,1000,1000,1000,1000,79828889,1580,1580,1577,1578
53785977,1000,1000,1000,1000,79928849,1580,1580,1578,1578
53788476,1000,1000,1000,1000,80028809,1581,1581,1579,1579
53790975,1000,1000,1000,1000,80128769,1580,1580,1579,1579
53793474,1000,1000,1000,1000,80228729,1580,1581,1580,1580
53795973,1000,1000,1000,1000,80328689,1579,1579,1579,1579
53798472,1000,1000,1000,1000,80428649,1579,1579,1580,1580
53800971,1000,1000,1000,1000,80528609,1579,1580,1581,1581
53803470,1000,1000,1000,1000,80628569,1580,1581,1582,1582
53805969,1000,1000,1000,1000,80728529,1580,1580,1582,1581
53808468,1000,1000,1000,1000,80828489,1580,1580,1581,1581
53810967,1000,1000,1000,1000,80928449,1581,1581,1582,1582
53813466,1000,1000,1000,1000,81028409,1580,1581,1581,1581
53815965,1000,1000,1000,1000,81128369,1581,1581,1581,1581
53818464,1000,1000,1000,1000,81228329,1581,1581,1581,1581
53820963,1000,1000,1000,1000,81328289,1582,1582,1582,1581
53823462,1000,1000,1000,1000,81428249,1581,1581,1581,1581
53825961,1000,1000,1000,1000,81528209,1582,1582,1582,1582
53828460,1000,1000,1000,1000,81628169,1581,1582,1584,1577
53830959,1000,1000,1000,1000,81728962,1581,1583,1587,1573
53833458,1000,1000,1000,1000,81828922,1580,1584,1581,1573
53835957,1000,1000,1000,1000,81928882,1578,1581,1571,1572
53838456,1000,1000,1000,1000,82028842,1578,1580,1563,1569
53840955,1000,1000,1000,1000,82128802,1578,1579,1558,1565
53843454,1000,1000,1000,1000,82228762,1579,1579,1555,1560
53845953,1000,1000,1000,1000,82328722,1581,1579,1555,1557
53848452,1000,1000,1000,1000,82428682,1580,1578,1555,1554
53850951,1000,1000,1000,1000,82528642,1580,1578,1556,1553
53853450,1000,1000,1000,1000,82628602,1578,1578,1556,1553
53855949,1000,1000,1000,1000,82728562,1576,1578,1555,1554
53858448,1000,1000,1000,1000,82828522,1576,1578,1555,1555
53860947,1000,1000,1000,1000,82928482,1576,1577,1554,1554
53863446,1000,1000,1000,1000,83028442,1576,1578,1553,1554
53865945,1000,1000,1000,1000,83128402,1577,1578,1551,1552
53868444,1000,1000,1000,1000,83228362,1578,1579,1550,1549
53870943,1000,1000,1000,1000,83328322,1580,1580,1547,1547
53873442,1000,1000,1000,1000,83428282,1582,1583,1544,1544
53875941,1000,1000,1000,1000,83528242,1585,1585,1542,1542
53878440,1000,1000,1000,1000,83628202,1587,1587,1539,1539
53880939,1000,1000,1000,1000,83728162,1589,1590,1538,1538
53883438,1000,1000,1000,1000,83828955,1591,1592,1537,1537
53885937,1000,1000,1000,1000,83928915,1593,1594,1536,1537
53888436,1000,1000,1000,1000,84028875,1593,1593,1536,1538
53890935,1000,1000,1000,1000,84128835,1592,1591,1540,1542
53893434,1000,1000,1000,1000,84228795,1590,1588,1545,1548
53895933,1000,1000,1000,1000,84328755,1583,1580,1552,1555
53898432,1000,1000,1000,1000,84428715,1575,1571,1563,1565
53900931,1000,1000,1000,1000,84528675,1565,1561,1575,1576
53903430,1000,1000,1000,1000,84628635,1555,1551,1586,1587
53905929,1000,1000,1000,1000,84728595,1545,1543,1598,1598
53908428,1000,1000,1000,1000,84828555,1537,1536,1606,1605
53910927,1000,1000,1000,1000,84928515,1533,1534,1611,1610
53913426,1000,1000,1000,1000,85028475,1533,1535,1613,1612
53915925,1000,1000,1000,1000,85128435,1536,1538,1611,1610
53918424,1000,1000,1000,1000,85228395,1542,1544,1607,1607
53920923,1000,1000,1000,1000,85328355,1549,1550,1602,1601
53923422,1000,1000,1000,1000,85428315,1557,1557,1596,1595
53925921,1000,1000,1000,1000,85528275,1565,1565,1589,1589
53928420,1000,1000,1000,1000,85628235,1573,1572,1583,1582
53930919,1000,1000,1000,1000,85728195,1579,1579,1578,1577
53933418,1000,1000,1000,1000,85828155,1583,1582,1572,1572
53935917,1000,1000,1000,1000,85928948,1585,1584,1569,1569
53938416,1000,1000,1000,1000,86028908,1586,1584,1567,1568
53940915,1000,1000,1000,1000,86128868,1586,1585,1568,1569
53943414,1000,1000,1000,1000,86228828,1583,1583,1569,1569
53945913,1000,1000,1000,1000,86328788,1582,1581,1572,1572
53948412,1000,1000,1000,1000,86428748,1579,1579,1575,1574
53950911,1000,1000,1000,1000,86528708,1577,1576,1577,1577
53953410,1000,1000,1000,1000,86628668,1574,1574,1579,1579
53955909,1000,1000,1000,1000,86728628,1572,1573,1581,1581
53958408,1000,1000,1000,1000,86828588,1572,1573,1582,1582
53960907,1000,1000,1000,1000,86928548,1572,1573,1583,1583
53963406,1000,1000,1000,1000,87028508,1574,1574,1584,1583
53965905,1000,1000,1000,1000,87128468,1574,1575,1583,1582
53968404,1000,1000,1000,1000,87228428,1576,1576,1582,1582
53970903,1000,1000,1000,1000,87328388,1577,1577,1580,1580
53973402,1000,1000,1000,1000,87428348,1578,1578,1579,1579
53975901,1000,1000,1000,1000,87528308,1580,1579,1579,1579
53978400,1000,1000,1000,1000,87628268,1580,1580,1578,1578
53980899,1000,1000,1000,1000,87728228,1581,1581,1578,1578
53983398,1000,1000,1000,1000,87828188,1580,1580,1577,1577
53985897,1000,1000,1000,1000,87928981,1580,1580,1577,1577
53988396,1000,1000,1000,1000,88028941,1581,1581,1578,1579
53990895,1000,1000,1000,1000,88128901,1580,1581,1578,1578
53993394,1000,1000,1000,1000,88228861,1581,1581,1579,1579
53995893,1000,1000,1000,1000,88328821,1581,1580,1580,1579
53998392,1000,1000,1000,1000,88428781,1580,1580,1580,1580
54000891,1000,1000,1000,1000,88528741,1579,1578,1580,1579
54003390,1000,1000,1000,1000,88628701,1579,1579,1580,1580
54005889,1000,1000,1000,1000,88728661,1579,1580,1581,1581
54008388,1000,1000,1000,1000,88828621,1579,1580,1581,1581
54010887,1000,1000,1000,1000,88928581,1580,1580,1581,1582
54013386,1000,1000,1000,1000,89028541,1580,1581,1582,1582
54015885,1000,1000,1000,1000,89128501,1580,1580,1581,1581
54018384,1000,1000,1000,1000,89228461,1580,1580,1581,1580
54020883,1000,1000,1000,1000,89328421,1581,1581,1581,1581
54023382,1000,1000,1000,1000,89428381,1581,1581,1581,1581
54025881,1000,1000,1000,1000,89528341,1581,1582,1584,1577
54028380,1000,1000,1000,1000,89628301,1581,1583,1587,1572
54030879,1000,1000,1000,1000,89728261,1580,1580,1582,1574
54033378,1000,1000,1000,1000,89828221,1576,1576,1574,1575
54035877,1000,1000,1000,1000,89928181,1573,1572,1568,1575
54038376,1000,1000,1000,1000,90028974,1569,1569,1565,1572
54040875,1000,1000,1000,1000,90128934,1568,1567,1565,1570
54043374,1000,1000,1000,1000,90228894,1566,1566,1565,1568
54045873,1000,1000,1000,1000,90328854,1566,1565,1566,1565
54048372,1000,1000,1000,1000,90428814,1566,1566,1568,1565
54050871,1000,1000,1000,1000,90528774,1566,1566,1567,1565
54053370,1000,1000,1000,1000,90628734,1566,1566,1567,1565
54055869,1000,1000,1000,1000,90728694,1564,1564,1565,1564
54058368,1000,1000,1000,1000,90828654,1564,1564,1564,1564
54060867,1000,1000,1000,1000,90928614,1563,1563,1563,1563
54063366,1000,1000,1000,1000,91028574,1562,1563,1563,1563
54065865,1000,1000,1000,1000,91128534,1562,1562,1562,1562
54068364,1000,1000,1000,1000,91228494,1561,1561,1562,1561
54070863,1000,1000,1000,1000,91328454,1561,1561,1561,1561
54073362,1000,1000,1000,1000,91428414,1560,1560,1560,1560
54075861,1000,1000,1000,1000,91528374,1559,1558,1559,1558
54078360,1000,1000,1000,1000,91628334,1558,1558,1559,1558
54080859,1000,1000,1000,1000,91728294,1558,1558,1558,1558
54083358,1000,1000,1000,1000,91828254,1558,1558,1558,1557
54085857,1000,1000,1000,1000,91928214,1558,1558,1558,1557
54088356,1000,1000,1000,1000,92028174,1557,1557,1558,1557
54090855,1000,1000,1000,1000,92128967,1557,1557,1558,1556
54093354,1000,1000,1000,1000,92228927,1557,1557,1559,1555
54095853,1000,1000,1000,1000,92328887,1559,1559,1559,1558
54098352,1000,1000,1000,1000,92428847,1559,1559,1557,1560
54100851,1000,1000,1000,1000,92528807,1560,1560,1557,1563
54103350,1000,1000,1000,1000,92628767,1561,1560,1557,1564
54105849,1000,1000,1000,1000,92728727,1561,1561,1558,1563
54108348,1000,1000,1000,1000,92828687,1561,1562,1561,1562
54110847,1000,1000,1000,1000,92928647,1560,1560,1561,1559
54113346,1000,1000,1000,1000,93028607,1561,1560,1561,1560
54115845,1000,1000,1000,1000,93128567,1558,1558,1558,1559
54118344,1000,1000,1000,1000,93228527,1554,1554,1554,1556
54120843,1000,1000,1000,1000,93328487,1549,1549,1550,1551
54123342,1000,1000,1000,1000,93428447,1542,1542,1543,1544
54125841,1000,1000,1000,1000,93528407,1536,1536,1537,1538
54128340,1000,1000,1000,1000,93628367,1528,1528,1530,1530
54130839,1000,1000,1000,1000,93728327,1521,1521,1523,1523
54133338,1000,1000,1000,1000,93828287,1519,1519,1520,1520
54135837,1000,1000,1000,1000,93928247,1520,1520,1519,1520
54138336,1000,1000,1000,1000,94028207,1522,1522,1521,1521
54140835,1000,1000,1000,1000,94128167,1526,1526,1523,1524
54143334,1000,1000,1000,1000,94228960,1529,1529,1526,1527
54145833,1000,1000,1000,1000,94328920,1534,1533,1531,1531
54148332,1000,1000,1000,1000,94428880,1539,1538,1536,1536
54150831,1000,1000,1000,1000,94528840,1541,1541,1539,1539
54153330,1000,1000,1000,1000,94628800,1542,1542,1541,1541
54155829,1000,1000,1000,1000,94728760,1543,1543,1543,1543
54158328,1000,1000,1000,1000,94828720,1545,1545,1545,1545
54160827,1000,1000,1000,1000,94928680,1545,1546,1547,1546
54163326,1000,1000,1000,1000,95028640,1545,1545,1547,1546
54165825,1000,1000,1000,1000,95128600,1545,1545,1547,1546
54168324,1000,1000,1000,1000,95228560,1544,1544,1546,1546
54170823,1000,1000,1000,1000,95328520,1545,1545,1547,1547
54173322,1000,1000,1000,1000,95428480,1544,1545,1546,1546
54175821,1000,1000,1000,1000,95528440,1545,1545,1546,1546
54178320,1000,1000,1000,1000,95628400,1545,1546,1546,1546
54180819,1000,1000,1000,1000,95728360,1544,1544,1544,1544
54183318,1000,1000,1000,1000,95828320,1546,1546,1545,1545
54185817,1000,1000,1000,1000,95928280,1545,1545,1545,1544
54188316,1000,1000,1000,1000,96028240,1545,1545,1544,1544
54190815,1000,1000,1000,1000,96128200,1545,1545,1544,1544
54193314,1000,1000,1000,1000,96228160,1545,1545,1544,1545
54195813,1000,1000,1000,1000,96328953,1546,1546,1545,1545
54198312,1000,1000,1000,1000,96428913,1545,1545,1545,1544
54200811,1000,1000,1000,1000,96528873,1545,1545,1545,1545
54203310,1000,1000,1000,1000,96628833,1544,1544,1544,1544
54205809,1000,1000,1000,1000,96728793,1544,1543,1544,1544
54208308,1000,1000,1000,1000,96828753,1542,1543,1543,1543
54210807,1000,1000,1000,1000,96928713,1543,1543,1543,1543
54213306,1000,1000,1000,1000,97028673,1543,1543,1543,1543
54215805,1000,1000,1000,1000,97128633,1543,1543,1544,1543
54218304,1000,1000,1000,1000,97228593,1543,1543,1544,1543
54220803,1000,1000,1000,1000,97328553,1544,1543,1543,1544
54223302,1000,1000,1000,1000,97428513,1545,1545,1545,1545
54225801,1000,1000,1000,1000,97528473,1543,1544,1544,1543
54228300,1000,1000,1000,1000,97628433,1545,1544,1544,1544
54230799,1000,1000,1000,1000,97728393,1545,1544,1544,1544
54233298,1000,1000,1000,1000,97828353,1544,1544,1544,1544
54235797,1000,1000,1000,1000,97928313,1544,1544,1544,1543
54238296,1000,1000,1000,1000,98028273,1544,1545,1544,1544
54240795,1000,1000,1000,1000,98128233,1545,1545,1545,1545
54243294,1000,1000,1000,1000,98228193,1544,1545,1544,1545
54245793,1000,1000,1000,1000,98328986,1545,1544,1544,1544
54248292,1000,1000,1000,1000,98428946,1544,1545,1545,1544
54250791,1000,1000,1000,1000,98528906,1544,1544,1545,1544
54253290,1000,1000,1000,1000,98628866,1544,1544,1544,1544
54255789,1000,1000,1000,1000,98728826,1545,1545,1545,1545
54258288,1000,1000,1000,1000,98828786,1545,1545,1545,1545
54260787,1000,1000,1000,1000,98928746,1546,1546,1546,1546
54263286,1000,1000,1000,1000,99028706,1545,1545,1545,1545
54265785,1000,1000,1000,1000,99128666,1545,1545,1545,1545
54268284,1000,1000,1000,1000,99228626,1543,1544,1544,1544
54270783,1000,1000,1000,1000,99328586,1544,1544,1544,1544
54273282,1000,1000,1000,1000,99428546,1544,1544,1544,1544
54275781,1000,1000,1000,1000,99528506,1545,1545,1545,1545
54278280,1000,1000,1000,1000,99628466,1544,1544,1544,1544
54280779,1000,1000,1000,1000,99728426,1544,1544,1544,1544
54283278,1000,1000,1000,1000,99828386,1545,1545,1545,1545
54285777,1000,1000,1000,1000,99928346,1545,1545,1544,1545
54288276,1000,1000,1000,1000,100028306,1545,1545,1544,1545
54290775,1000,1000,1000,1000,100128266,1544,1544,1544,1544
54293274,1000,1000,1000,1000,100228226,1543,1544,1544,1544
54295773,1000,1000,1000,1000,100328186,1543,1543,1544,1543
54298272,1000,1000,1000,1000,100428979,1544,1543,1544,1544
54300771,1000,1000,1000,1000,100528939,1544,1544,1544,1544
54303270,1000,1000,1000,1000,100628899,1543,1543,1543,1543
54305769,1000,1000,1000,1000,100728859,1543,1543,1543,1544
54308268,1000,1000,1000,1000,100828819,1545,1545,1545,1545
54310767,1000,1000,1000,1000,100928779,1544,1544,1544,1544
54313266,1000,1000,1000,1000,101028739,1545,1545,1545,1545
54315765,1000,1000,1000,1000,101128699,1544,1544,1544,1544
54318264,1000,1000,1000,1000,101228659,1544,1545,1545,1544
54320763,1000,1000,1000,1000,101328619,1544,1544,1544,1544
54323262,1000,1000,1000,1000,101428579,1544,1544,1544,1544
54325761,1000,1000,1000,1000,101528539,1546,1545,1545,1545
54328260,1000,1000,1000,1000,101628499,1544,1544,1544,1544
54330759,1000,1000,1000,1000,101728459,1544,1544,1544,1545
54333258,1000,1000,1000,1000,101828419,1544,1545,1545,1545
54335757,1000,1000,1000,1000,101928379,1545,1544,1544,1544
54338256,1000,1000,1000,1000,102028339,1544,1544,1544,1544
54340755,1000,1000,1000,1000,102128299,1545,1545,1545,1545
54343254,1000,1000,1000,1000,102228259,1545,1545,1545,1545
54345753,1000,1000,1000,1000,102328219,1544,1544,1544,1544
54348252,1000,1000,1000,1000,102428179,1544,1544,1544,1544
54350751,1000,1000,1000,1000,102528972,1544,1544,1544,1544
54353250,1000,1000,1000,1000,102628932,1545,1545,1545,1545
54355749,1000,1000,1000,1000,102728892,1545,1544,1545,1544
54358248,1000,1000,1000,1000,102828852,1544,1545,1545,1544
54360747,1000,1000,1000,1000,102928812,1544,1544,1544,1544
54363246,1000,1000,1000,1000,103028772,1544,1545,1545,1545
54365745,1000,1000,1000,1000,103128732,1544,1544,1544,1545
54368244,1000,1000,1000,1000,103228692,1544,1544,1544,1544
54370743,1000,1000,1000,1000,103328652,1545,1544,1544,1545
54373242,1000,1000,1000,1000,103428612,1544,1544,1544,1544
54375741,1000,1000,1000,1000,103528572,1476,1473,1482,1482
54378240,1000,1000,1000,1000,103628532,1272,1267,1312,1309
54380739,1000,1000,1000,1000,103728492,1236,1230,1283,1281
54383238,1000,1000,1000,1000,103828452,1235,1230,1283,1280
54385737,1000,1000,1000,1000,103928412,1236,1230,1283,1281
54388236,1000,1000,1000,1000,104028372,1235,1230,1283,1280
54390735,1000,1000,1000,1000,104128332,1237,1230,1284,1281
54393234,1000,1000,1000,1000,104228292,1262,1230,1274,1299
54395733,1000,1000,1000,1000,104328252,1254,1230,1281,1297
54398232,1000,1000,1000,1000,104428212,1250,1230,1282,1293
54400731,1000,1000,1000,1000,104528172,1251,1230,1282,1294
54403230,1000,1000,1000,1000,104628965,1254,1230,1282,1295
54405729,1000,1000,1000,1000,104728925,1255,1230,1282,1296
54408228,1000,1000,1000,1000,104828885,1255,1230,1282,1296
54410727,1000,1000,1000,1000,104928845,1256,1230,1281,1296
54413226,1000,1000,1000,1000,105028805,1239,1230,1281,1285
54415725,1000,1000,1000,1000,105128765,1241,1230,1281,1286
54418224,1000,1000,1000,1000,105228725,1242,1230,1281,1287
54420723,1000,1000,1000,1000,105328685,1243,1230,1281,1288
54423222,1000,1000,1000,1000,105428645,1243,1230,1281,1288
54425721,1000,1000,1000,1000,105528605,1000,1000,1000,1000
54428220,1000,1000,1000,1000,105628565,1000,1000,1000,1000
54430719,1000,1000,1000,1000,105728525,1000,1000,1000,1000
54433218,1000,1000,1000,1000,105828485,1000,1000,1000,1000
54435717,1000,1000,1000,1000,105928445,1000,1000,1000,1000
54438216,1000,1000,1000,1000,106028405,1000,1000,1000,1000
54440715,1000,1000,1000,1000,106128365,1000,1000,1000,1000
54443214,1000,1000,1000,1000,106228325,1000,1000,1000,1000
54445713,1000,1000,1000,1000,106328285,1000,1000,1000,1000
54448212,1000,1000,1000,1000,106428245,1000,1000,1000,1000
54450711,1000,1000,1000,1000,106528205,1000,1000,1000,1000
54453210,1000,1000,1000,1000,106628165,1000,1000,1000,1000
54455709,1000,1000,1000,1000,106728958,1000,1000,1000,1000
54458208,1000,1000,1000,1000,106828918,1000,1000,1000,1000
54460707,1000,1000,1000,1000,106928878,1000,1000,1000,1000
54463206,1000,1000,1000,1000,107028838,1000,1000,1000,1000
54465705,1000,1000,1000,1000,107128798,1000,1000,1000,1000
54468204,1000,1000,1000,1000,107228758,1000,1000,1000,1000
54470703,1000,1000,1000,1000,107328718,1000,1000,1000,1000
54473202,1000,1000,1000,1000,107428678,1000,1000,1000,1000
54475701,1000,1000,1000,1000,107528638,1000,1000,1000,1000
54478200,1000,1000,1000,1000,107628598,1000,1000,1000,1000
54480699,1000,1000,1000,1000,107728558,1000,1000,1000,1000
54483198,1000,1000,1000,1000,107828518,1000,1000,1000,1000
54485697,1000,1000,1000,1000,107928478,1000,1000,1000,1000
54488196,1000,1000,1000,1000,108028438,1000,1000,1000,1000
54490695,1000,1000,1000,1000,108128398,1000,1000,1000,1000
54493194,1000,1000,1000,1000,108228358,1000,1000,1000,1000
54495693,1000,1000,1000,1000,108328318,1000,1000,1000,1000
54498192,1000,1000,1000,1000,108428278,1000,1000,1000,1000
54500691,1000,1000,1000,1000,108528238,1000,1000,1000,1000
54503190,1000,1000,1000,1000,108628198,1000,1000,1000,1000
54505689,1000,1000,1000,1000,108728158,1000,1000,1000,1000
54508188,1000,1000,1000,1000,108828951,1000,1000,1000,1000
54510687,1000,1000,1000,1000,108928911,1000,1000,1000,1000
54513186,1000,1000,1000,1000,109028871,1000,1000,1000,1000
54515685,1000,1000,1000,1000,109128831,1000,1000,1000,1000
54518184,1000,1000,1000,1000,109228791,1000,1000,1000,1000
54520683,1000,1000,1000,1000,109328751,1000,1000,1000,1000
54523182,1000,1000,1000,1000,109428711,1000,1000,1000,1000
54525681,1000,1000,1000,1000,109528671,1000,1000,1000,1000
54528180,1000,1000,1000,1000,109628631,1000,1000,1000,1000
54530679,1000,1000,1000,1000,109728591,1000,1000,1000,1000
54533178,1000,1000,1000,1000,109828551,1000,1000,1000,1000
54535677,1000,1000,1000,1000,109928511,1000,1000,1000,1000
54538176,1000,1000,1000,1000,110028471,1000,1000,1000,1000
54540675,1000,1000,1000,1000,110128431,1000,1000,1000,1000
54543174,1000,1000,1000,1000,110228391,1000,1000,1000,1000
54545673,1000,1000,1000,1000,110328351,1000,1000,1000,1000
54548172,1000,1000,1000,1000,110428311,1000,1000,1000,1000
54550671,1000,1000,1000,1000,110528271,1000,1000,1000,1000
54553170,1000,1000,1000,1000,110628231,1000,1000,1000,1000
54555669,1000,1000,1000,1000,110728191,1000,1000,1000,1000
54558168,1000,1000,1000,1000,110828984,1000,1000,1000,1000
54560667,1000,1000,1000,1000,110928944,1000,1000,1000,1000
54563166,1000,1000,1000,1000,111028904,1000,1000,1000,1000
54565665,1000,1000,1000,1000,111128864,1000,1000,1000,1000
54568164,1000,1000,1000,1000,111228824,1000,1000,1000,1000
54570663,1000,1000,1000,1000,111328784,1000,1000,1000,1000
54573162,1000,1000,1000,1000,111428744,1000,1000,1000,1000
54575661,1000,1000,1000,1000,111528704,1000,1000,1000,1000
54578160,1000,1000,1000,1000,111628664,1000,1000,1000,1000
54580659,1000,1000,1000,1000,111728624,1000,1000,1000,1000
54583158,1000,1000,1000,1000,111828584,1000,1000,1000,1000
54585657,1000,1000,1000,1000,111928544,1000,1000,1000,1000
54588156,1000,1000,1000,1000,112028504,1000,1000,1000,1000
54590655,1000,1000,1000,1000,112128464,1000,1000,1000,1000
54593154,1000,1000,1000,1000,112228424,1000,1000,1000,1000
54596486,1000,1000,1000,1000,112328384,1000,1000,1000,1000
54598985,1000,1000,1000,1000,112428344,1000,1000,1000,1000
54601484,1000,1000,1000,1000,112528304,1000,1000,1000,1000
54603983,1000,1000,1000,1000,112628264,1000,1000,1000,1000
54606482,1000,1000,1000,1000,112728224,1000,1000,1000,1000
54608981,1000,1000,1000,1000,112828184,1000,1000,1000,1000
54611480,1000,1000,1000,1000,112928977,1000,1000,1000,1000
54613979,1000,1000,1000,1000,113028937,1000,1000,1000,1000
54616478,1000,1000,1000,1000,113128897,1000,1000,1000,1000
54618977,1000,1000,1000,1000,113228857,1000,1000,1000,1000
54621476,1000,1000,1000,1000,113328817,1000,1000,1000,1000
54623975,1000,1000,1000,1000,113428777,1000,1000,1000,1000
54626474,1000,1000,1000,1000,113528737,1000,1000,1000,1000
54628973,1000,1000,1000,1000,113628697,1000,1000,1000,1000
54631472,1000,1000,1000,1000,113728657,1000,1000,1000,1000
54633971,1000,1000,1000,1000,113828617,1000,1000,1000,1000
54636470,1000,1000,1000,1000,113928577,1000,1000,1000,1000
54638969,1000,1000,1000,1000,114028537,1000,1000,1000,1000
54641468,1000,1000,1000,1000,114128497,1000,1000,1000,1000
54643967,1000,1000,1000,1000,114228457,1000,1000,1000,1000
54646466,1000,1000,1000,1000,114328417,1000,1000,1000,1000
54648965,1000,1000,1000,1000,114428377,1000,1000,1000,1000
54651464,1000,1000,1000,1000,114528337,1000,1000,1000,1000
54653963,1000,1000,1000,1000,114628297,1000,1000,1000,1000
54656462,1000,1000,1000,1000,114728257,1000,1000,1000,1000
54658961,1000,1000,1000,1000,114828217,1000,1000,1000,1000
54661460,1000,1000,1000,1000,114928177,1000,1000,1000,1000
54663959,1000,1000,1000,1000,115028970,1000,1000,1000,1000
54666458,1000,1000,1000,1000,115128930,1000,1000,1000,1000
54668957,1000,1000,1000,1000,115228890,1000,1000,1000,1000
54671456,1000,1000,1000,1000,115328850,1000,1000,1000,1000
54673955,1000,1000,1000,1000,115428810,1000,1000,1000,1000
54676454,1000,1000,1000,1000,115528770,1000,1000,1000,1000
54678953,1000,1000,1000,1000,115628730,1000,1000,1000,1000
54681452,1000,1000,1000,1000,115728690,1000,1000,1000,1000
54683951,1000,1000,1000,1000,115828650,1000,1000,1000,1000
54686450,1000,1000,1000,1000,115928610,1000,1000,1000,1000
54688949,1000,1000,1000,1000,116028570,1000,1000,1000,1000
54691448,1000,1000,1000,1000,116128530,1000,1000,1000,1000
54693947,1000,1000,1000,1000,116228490,1000,1000,1000,1000
54696446,1000,1000,1000,1000,116328450,1000,1000,1000,1000
54698945,1000,1000,1000,1000,116428410,1000,1000,1000,1000
54701444,1000,1000,1000,1000,116528370,1000,1000,1000,1000
54703943,1000,1000,1000,1000,116628330,1000,1000,1000,1000
54706442,1000,1000,1000,1000,116728290,1000,1000,1000,1000
54708941,1000,1000,1000,1000,116828250,1000,1000,1000,1000
54711440,1000,1000,1000,1000,116928210,1000,1000,1000,1000
54713939,1000,1000,1000,1000,117028170,1000,1000,1000,1000
54716438,1000,1000,1000,1000,117128963,1000,1000,1000,1000
54718937,1000,1000,1000,1000,117228923,1000,1000,1000,1000
54721436,1000,1000,1000,1000,117328883,1000,1000,1000,1000
54723935,1000,1000,1000,1000,117428843,1000,1000,1000,1000
54726434,1000,1000,1000,1000,117528803,1000,1000,1000,1000
54728933,1000,1000,1000,1000,117628763,1000,1000,1000,1000
54731432,1000,1000,1000,1000,117728723,1000,1000,1000,1000
54733931,1000,1000,1000,1000,117828683,1000,1000,1000,1000
54736430,1000,1000,1000,1000,117928643,1000,1000,1000,1000
54738929,1000,1000,1000,1000,118028603,1000,1000,1000,1000
54741428,1000,1000,1000,1000,118128563,1000,1000,1000,1000
54743927,1000,1000,1000,1000,118228523,1000,1000,1000,1000
54746426,1000,1000,1000,1000,118328483,1000,1000,1000,1000
54748925,1000,1000,1000,1000,118428443,1000,1000,1000,1000
54751424,1000,1000,1000,1000,118528403,1000,1000,1000,1000
54753923,1000,1000,1000,1000,118628363,1000,1000,1000,1000
54756422,1000,1000,1000,1000,118728323,1000,1000,1000,1000
54758921,1000,1000,1000,1000,118828283,1000,1000,1000,1000
54761420,1000,1000,1000,1000,118928243,1000,1000,1000,1000
54763919,1000,1000,1000,1000,119028203,1000,1000,1000,1000
54766418,1000,1000,1000,1000,119128163,1000,1000,1000,1000
54768917,1000,1000,1000,1000,119228956,1000,1000,1000,1000
54771416,1000,1000,1000,1000,119328916,1000,1000,1000,1000
54773915,1000,1000,1000,1000,119428876,1000,1000,1000,1000
54776414,1000,1000,1000,1000,119528836,1000,1000,1000,1000
54778913,1000,1000,1000,1000,119628796,1000,1000,1000,1000
54781412,1000,1000,1000,1000,119728756,1000,1000,1000,1000
54783911,1000,1000,1000,1000,119828716,1000,1000,1000,1000
54786410,1000,1000,1000,1000,119928676,1000,1000,1000,1000
54788909,1000,1000,1000,1000,120028636,1000,1000,1000,1000
54791408,1000,1000,1000,1000,120128596,1000,1000,1000,1000
54793907,1000,1000,1000,1000,120228556,1000,1000,1000,1000
54796406,1000,1000,1000,1000,120328516,1000,1000,1000,1000
54798905,1000,1000,1000,1000,120428476,1000,1000,1000,1000
54801404,1000,1000,1000,1000,,,,,
54803903,1000,1000,1000,1000,,,,,
54806402,1000,1000,1000,1000,,,,,
54808901,1000,1000,1000,1000,,,,,
54811400,1000,1000,1000,1000,,,,,
54813899,1000,1000,1000,1000,,,,,
54816398,1000,1000,1000,1000,,,,,
54818897,1000,1000,1000,1000,,,,,
54821396,1000,1000,1000,1000,,,,,
54823895,1000,1000,1000,1000,,,,,
54826394,1000,1000,1000,1000,,,,,
54828893,1000,1000,1000,1000,,,,,
54831392,1000,1000,1000,1000,,,,,
54833891,1000,1000,1000,1000,,,,,
54836390,1000,1000,1000,1000,,,,,
54838889,1000,1000,1000,1000,,,,,
54841388,1000,1000,1000,1000,,,,,
54843887,1000,1000,1000,1000,,,,,
54846386,1000,1000,1000,1000,,,,,
54848885,1000,1000,1000,1000,,,,,
54851384,1000,1000,1000,1000,,,,,
54853883,1000,1000,1000,1000,,,,,
54856382,1000,1000,1000,1000,,,,,
54858881,1000,1000,1000,1000,,,,,
54861380,1000,1000,1000,1000,,,,,
54863879,1000,1000,1000,1000,,,,,
54866378,1000,1000,1000,1000,,,,,
54868877,1000,1000,1000,1000,,,,,
54871376,1000,1000,1000,1000,,,,,
54873875,1000,1000,1000,1000,,,,,
54876374,1000,1000,1000,1000,,,,,
54878873,1000,1000,1000,1000,,,,,
54881372,1000,1000,1000,1000,,,,,
54883871,1000,1000,1000,1000,,,,,
54886370,1000,1000,1000,1000,,,,,
54888869,1000,1000,1000,1000,,,,,
54891368,1000,1000,1000,1000,,,,,
54893867,1000,1000,1000,1000,,,,,
54896366,1000,1000,1000,1000,,,,,
54898865,1000,1000,1000,1000,,,,,
54901364,1000,1000,1000,1000,,,,,
54903863,1000,1000,1000,1000,,,,,
54906362,1000,1000,1000,1000,,,,,
54908861,1000,1000,1000,1000,,,,,
54911360,1000,1000,1000,1000,,,,,
54913859,1000,1000,1000,1000,,,,,
54916358,1000,1000,1000,1000,,,,,
54918857,1000,1000,1000,1000,,,,,
54921356,1000,1000,1000,1000,,,,,
54923855,1000,1000,1000,1000,,,,,
54926354,1000,1000,1000,1000,,,,,
54928853,1000,1000,1000,1000,,,,,
54931352,1000,1000,1000,1000,,,,,
54933851,1000,1000,1000,1000,,,,,
54936350,1000,1000,1000,1000,,,,,
54938849,1000,1000,1000,1000,,,,,
54941348,1000,1000,1000,1000,,,,,
54943847,1000,1000,1000,1000,,,,,
54946346,1000,1000,1000,1000,,,,,
54948845,1000,1000,1000,1000,,,,,
54951344,1000,1000,1000,1000,,,,,
54953843,1000,1000,1000,1000,,,,,
54956342,1000,1000,1000,1000,,,,,
54958841,1000,1000,1000,1000,,,,,
54961340,1000,1000,1000,1000,,,,,
54963839,1000,1000,1000,1000,,,,,
54966338,1000,1000,1000,1000,,,,,
54968837,1000,1000,1000,1000,,,,,
54971336,1000,1000,1000,1000,,,,,
54973835,1000,1000,1000,1000,,,,,
54976334,1000,1000,1000,1000,,,,,
54978833,1000,1000,1000,1000,,,,,
54981332,1000,1000,1000,1000,,,,,
54983831,1000,1000,1000,1000,,,,,
54986330,1000,1000,1000,1000,,,,,
54988829,1000,1000,1000,1000,,,,,
54991328,1000,1000,1000,1000,,,,,
54993827,1000,1000,1000,1000,,,,,
54996326,1000,1000,1000,1000,,,,,
54998825,1000,1000,1000,1000,,,,,
55001324,1000,1000,1000,1000,,,,,
55003823,1000,1000,1000,1000,,,,,
55006322,1000,1000,1000,1000,,,,,
55008821,1000,1000,1000,1000,,,,,
55011320,1000,1000,1000,1000,,,,,
55013819,1000,1000,1000,1000,,,,,
55016318,1000,1000,1000,1000,,,,,
55018817,1000,1000,1000,1000,,,,,
55021316,1000,1000,1000,1000,,,,,
55023815,1000,1000,1000,1000,,,,,
55026314,1000,1000,1000,1000,,,,,
55028813,1000,1000,1000,1000,,,,,
55031312,1000,1000,1000,1000,,,,,
55033811,1000,1000,1000,1000,,,,,
55036310,1000,1000,1000,1000,,,,,
55038809,1000,1000,1000,1000,,,,,
55041308,1000,1000,1000,1000,,,,,
55043807,1000,1000,1000,1000,,,,,
55046306,1000,1000,1000,1000,,,,,
55048805,1000,1000,1000,1000,,,,,
55051304,1000,1000,1000,1000,,,,,
55053803,1000,1000,1000,1000,,,,,
55056302,1000,1000,1000,1000,,,,,
55058801,1000,1000,1000,1000,,,,,
55061300,1000,1000,1000,1000,,,,,
55063799,1000,1000,1000,1000,,,,,
55066298,1000,1000,1000,1000,,,,,
55068797,1000,1000,1000,1000,,,,,
55071296,1000,1000,1000,1000,,,,,
55073795,1000,1000,1000,1000,,,,,
55076294,1000,1000,1000,1000,,,,,
55078793,1000,1000,1000,1000,,,,,
55081292,1000,1000,1000,1000,,,,,
55083791,1000,1000,1000,1000,,,,,
55086290,1000,1000,1000,1000,,,,,
55088789,1000,1000,1000,1000,,,,,
55091288,1000,1000,1000,1000,,,,,
55093787,1000,1000,1000,1000,,,,,
55096286,1000,1000,1000,1000,,,,,
55098785,1000,1000,1000,1000,,,,,
55101284,1000,1000,1000,1000,,,,,
55103783,1000,1000,1000,1000,,,,,
55106282,1000,1000,1000,1000,,,,,
55108781,1000,1000,1000,1000,,,,,
55111280,1000,1000,1000,1000,,,,,
55113779,1000,1000,1000,1000,,,,,
55116278,1000,1000,1000,1000,,,,,
55118777,1000,1000,1000,1000,,,,,
55121276,1000,1000,1000,1000,,,,,
55123775,1001,1001,1001,1001,,,,,
55126274,1002,1002,1002,1002,,,,,
55128773,1003,1003,1003,1003,,,,,
55131272,1003,1003,1003,1003,,,,,
55133771,1004,1004,1004,1004,,,,,
55136270,1005,1005,1005,1005,,,,,
55138769,1006,1006,1006,1006,,,,,
55141268,1006,1006,1006,1006,,,,,
55143767,1007,1007,1007,1007,,,,,
55146266,1008,1008,1008,1008,,,,,
55148765,1009,1009,1009,1009,,,,,
55151264,1009,1009,1009,1009,,,,,
55153763,1010,1010,1010,1010,,,,,
55156262,1011,1011,1011,1011,,,,,
55158761,1012,1012,1012,1012,,,,,
55161260,1012,1012,1012,1012,,,,,
55163759,1013,1013,1013,1013,,,,,
55166258,1014,1014,1014,1014,,,,,
55168757,1015,1015,1015,1015,,,,,
55171256,1015,1015,1015,1015,,,,,
55173755,1016,1016,1016,1016,,,,,
55176254,1017,1017,1017,1017,,,,,
55178753,1018,1018,1018,1018,,,,,
55181252,1018,1018,1018,1018,,,,,
55183751,1019,1019,1019,1019,,,,,
55186250,1020,1020,1020,1020,,,,,
55188749,1021,1021,1021,1021,,,,,
55191248,1021,1021,1021,1021,,,,,
55193747,1022,1022,1022,1022,,,,,
55196246,1023,1023,1023,1023,,,,,
55198745,1024,1024,1024,1024,,,,,
55201244,1024,1024,1024,1024,,,,,
55203743,1025,1025,1025,1025,,,,,
55206242,1026,1026,1026,1026,,,,,
55208741,1027,1027,1027,1027,,,,,
55211240,1027,1027,1027,1027,,,,,
55213739,1028,1028,1028,1028,,,,,
55216238,1029,1029,1029,1029,,,,,
55218737,1030,1030,1030,1030,,,,,
55221236,1030,1030,1030,1030,,,,,
55223735,1031,1031,1031,1031,,,,,
55226234,1032,1032,1032,1032,,,,,
55228733,1033,1033,1033,1033,,,,,
55231232,1033,1033,1033,1033,,,,,
55233731,1034,1034,1034,1034,,,,,
55236230,1035,1035,1035,1035,,,,,
55238729,1036,1036,1036,1036,,,,,
55241228,1036,1036,1036,1036,,,,,
55243727,1037,1037,1037,1037,,,,,
55246226,1038,1038,1038,1038,,,,,
55248725,1039,1039,1039,1039,,,,,
55251224,1039,1039,1039,1039,,,,,
55253723,1040,1040,1040,1040,,,,,
55256222,1041,1041,1041,1041,,,,,
55258721,1042,1042,1042,1042,,,,,
55261220,1042,1042,1042,1042,,,,,
55263719,1043,1043,1043,1043,,,,,
55266218,1044,1044,1044,1044,,,,,
55268717,1045,1045,1045,1045,,,,,
55271216,1045,1045,1045,1045,,,,,
55273715,1046,1046,1046,1046,,,,,
55276214,1047,1047,1047,1047,,,,,
55278713,1048,1048,1048,1048,,,,,
55281212,1048,1048,1048,1048,,,,,
55283711,1049,1049,1049,1049,,,,,
55286210,1050,1050,1050,1050,,,,,
55288709,1051,1051,1051,1051,,,,,
55291208,1051,1051,1051,1051,,,,,
55293707,1052,1052,1052,1052,,,,,
55296206,1053,1053,1053,1053,,,,,
55298705,1054,1054,1054,1054,,,,,
55301204,1054,1054,1054,1054,,,,,
55303703,1055,1055,1055,1055,,,,,
55306202,1056,1056,1056,1056,,,,,
55308701,1057,1057,1057,1057,,,,,
55311200,1057,1057,1057,1057,,,,,
55313699,1058,1058,1058,1058,,,,,
55316198,1059,1059,1059,1059,,,,,
55318697,1060,1060,1060,1060,,,,,
55321196,1060,1060,1060,1060,,,,,
55323695,1061,1061,1061,1061,,,,,
55326194,1062,1062,1062,1062,,,,,
55328693,1063,1063,1063,1063,,,,,
55331192,1063,1063,1063,1063,,,,,
55333691,1064,1064,1064,1064,,,,,
55336190,1065,1065,1065,1065,,,,,
55338689,1066,1066,1066,1066,,,,,
55341188,1066,1066,1066,1066,,,,,
55343687,1067,1067,1067,1067,,,,,
55346186,1068,1068,1068,1068,,,,,
55348685,1069,1069,1069,1069,,,,,
55351184,1069,1069,1069,1069,,,,,
55353683,1070,1070,1070,1070,,,,,
55356182,1071,1071,1071,1071,,,,,
55358681,1072,1072,1072,1072,,,,,
55361180,1072,1072,1072,1072,,,,,
55363679,1073,1073,1073,1073,,,,,
55366178,1074,1074,1074,1074,,,,,
55368677,1075,1075,1075,1075,,,,,
55371176,1075,1075,1075,1075,,,,,
55373675,1076,1076,1076,1076,,,,,
55376174,1077,1077,1077,1077,,,,,
55378673,1078,1078,1078,1078,,,,,
55381172,1078,1078,1078,1078,,,,,
55383671,1079,1079,1079,1079,,,,,
55386170,1080,1080,1080,1080,,,,,
55388669,1081,1081,1081,1081,,,,,
55391168,1081,1081,1081,1081,,,,,
55393667,1082,1082,1082,1082,,,,,
55396166,1083,1083,1083,1083,,,,,
55398665,1084,1084,1084,1084,,,,,
55401164,1084,1084,1084,1084,,,,,
55403663,1085,1085,1085,1085,,,,,
55406162,1086,1086,1086,1086,,,,,
55408661,1087,1087,1087,1087,,,,,
55411160,1087,1087,1087,1087,,,,,
55413659,1088,1088,1088,1088,,,,,
55416158,1089,1089,1089,1089,,,,,
55418657,1090,1090,1090,1090,,,,,
55421156,1090,1090,1090,1090,,,,,
55423655,1091,1091,1091,1091,,,,,
55426154,1092,1092,1092,1092,,,,,
55428653,1093,1093,1093,1093,,,,,
55431152,1093,1093,1093,1093,,,,,
55433651,1094,1094,1094,1094,,,,,
55436150,1095,1095,1095,1095,,,,,
55438649,1096,1096,1096,1096,,,,,
55441148,1096,1096,1096,1096,,,,,
55443647,1097,1097,1097,1097,,,,,
55446146,1098,1098,1098,1098,,,,,
55448645,1099,1099,1099,1099,,,,,
55451144,1099,1099,1099,1099,,,,,
55453643,1100,1100,1100,1100,,,,,
55456142,1101,1101,1101,1101,,,,,
55458641,1101,1101,1101,1101,,,,,
55461140,1102,1102,1102,1102,,,,,
55463639,1103,1103,1103,1103,,,,,
55466138,1104,1104,1104,1104,,,,,
55468637,1104,1104,1104,1104,,,,,
55471136,1105,1105,1105,1105,,,,,
55473635,1106,1106,1106,1106,,,,,
55476134,1107,1107,1107,1107,,,,,
55478633,1107,1107,1107,1107,,,,,
55481132,1108,1108,1108,1108,,,,,
55483631,1109,1109,1109,1109,,,,,
55486130,1110,1110,1110,1110,,,,,
55488629,1110,1110,1110,1110,,,,,
55491128,1111,1111,1111,1111,,,,,
55493627,1112,1112,1112,1112,,,,,
55496126,1113,1113,1113,1113,,,,,
55498625,1113,1113,1113,1113,,,,,
55501124,1114,1114,1114,1114,,,,,
55503623,1115,1115,1115,1115,,,,,
55506122,1116,1116,1116,1116,,,,,
55508621,1116,1116,1116,1116,,,,,
55511120,1117,1117,1117,1117,,,,,
55513619,1118,1118,1118,1118,,,,,
55516118,1119,1119,1119,1119,,,,,
55518617,1119,1119,1119,1119,,,,,
55521116,1120,1120,1120,1120,,,,,
55523615,1121,1121,1121,1121,,,,,
55526114,1122,1122,1122,1122,,,,,
55528613,1122,1122,1122,1122,,,,,
55531112,1123,1123,1123,1123,,,,,
55533611,1124,1124,1124,1124,,,,,
55536110,1125,1125,1125,1125,,,,,
55538609,1125,1125,1125,1125,,,,,
55541108,1126,1126,1126,1126,,,,,
55543607,1127,1127,1127,1127,,,,,
55546106,1128,1128,1128,1128,,,,,
55548605,1128,1128,1128,1128,,,,,
55551104,1129,1129,1129,1129,,,,,
55553603,1130,1130,1130,1130,,,,,
55556102,1131,1131,1131,1131,,,,,
55558601,1131,1131,1131,1131,,,,,
55561100,1132,1132,1132,1132,,,,,
55563599,1133,1133,1133,1133,,,,,
55566098,1134,1134,1134,1134,,,,,
55568597,1134,1134,1134,1134,,,,,
55571096,1135,1135,1135,1135,,,,,
55573595,1136,1136,1136,1136,,,,,
55576094,1137,1137,1137,1137,,,,,
55578593,1137,1137,1137,1137,,,,,
55581092,1138,1138,1138,1138,,,,,
55583591,1139,1139,1139,1139,,,,,
55586090,1140,1140,1140,1140,,,,,
55588589,1140,1140,1140,1140,,,,,
55591088,1141,1141,1141,1141,,,,,
55593587,1142,1142,1142,1142,,,,,
55596086,1143,1143,1143,1143,,,,,
55598585,1143,1143,1143,1143,,,,,
55601084,1144,1144,1144,1144,,,,,
55603583,1145,1145,1145,1145,,,,,
55606082,1146,1146,1146,1146,,,,,
55608581,1146,1146,1146,1146,,,,,
55611080,1147,1147,1147,1147,,,,,
55613579,1148,1148,1148,1148,,,,,
55616078,1149,1149,1149,1149,,,,,
55618577,1149,1149,1149,1149,,,,,
55621076,1150,1150,1150,1150,,,,,
55623575,1161,1153,1154,1162,,,,,
55626074,1169,1162,1162,1170,,,,,
55628573,1177,1170,1170,1178,,,,,
55631072,1185,1177,1178,1185,,,,,
55633571,1193,1185,1186,1193,,,,,
55636070,1200,1193,1193,1200,,,,,
55638569,1207,1200,1200,1208,,,,,
55641068,1215,1207,1208,1215,,,,,
55643567,1222,1214,1215,1222,,,,,
55646066,1229,1222,1222,1229,,,,,
55648565,1236,1228,1229,1236,,,,,
55651064,1242,1235,1236,1243,,,,,
55653563,1249,1242,1243,1249,,,,,
55656062,1256,1249,1249,1256,,,,,
55658561,1262,1255,1256,1262,,,,,
55661060,1269,1262,1262,1269,,,,,
55663559,1275,1268,1269,1275,,,,,
55666058,1281,1275,1275,1282,,,,,
55668557,1288,1281,1281,1288,,,,,
55671056,1294,1287,1288,1294,,,,,
55673555,1300,1293,1294,1300,,,,,
55676054,1306,1299,1300,1306,,,,,
55678553,1312,1305,1306,1312,,,,,
55681052,1318,1311,1312,1318,,,,,
55683551,1323,1317,1318,1324,,,,,
55686050,1329,1323,1323,1329,,,,,
55688549,1335,1329,1329,1335,,,,,
55691048,1341,1334,1335,1341,,,,,
55693547,1346,1340,1340,1346,,,,,
55696046,1352,1345,1346,1352,,,,,
55698545,1357,1351,1352,1357,,,,,
55701044,1363,1356,1357,1363,,,,,
55703543,1368,1362,1363,1368,,,,,
55706042,1374,1367,1368,1374,,,,,
55708541,1379,1373,1373,1379,,,,,
55711040,1384,1378,1378,1384,,,,,
55713539,1389,1383,1384,1389,,,,,
55716038,1394,1388,1389,1395,,,,,
55718537,1400,1394,1394,1400,,,,,
55721036,1405,1399,1399,1405,,,,,
55723535,1410,1404,1404,1410,,,,,
55726034,1415,1409,1409,1415,,,,,
55728533,1420,1414,1414,1420,,,,,
55731032,1425,1419,1419,1425,,,,,
55733531,1430,1424,1424,1430,,,,,
55736030,1434,1429,1429,1435,,,,,
55738529,1439,1434,1434,1439,,,,,
55741028,1444,1438,1439,1444,,,,,
55743527,1449,1443,1444,1449,,,,,
55746026,1454,1448,1448,1454,,,,,
55748525,1458,1453,1453,1458,,,,,
55751024,1463,1457,1458,1463,,,,,
55753523,1468,1462,1462,1468,,,,,
55756022,1472,1467,1467,1472,,,,,
55758521,1477,1471,1472,1477,,,,,
55761020,1481,1476,1476,1482,,,,,
55763519,1486,1480,1481,1486,,,,,
55766018,1490,1485,1485,1491,,,,,
55768517,1495,1490,1490,1495,,,,,
55771016,1499,1494,1494,1499,,,,,
55773515,1504,1498,1499,1504,,,,,
55776014,1508,1503,1503,1508,,,,,
55778513,1512,1507,1507,1513,,,,,
55781012,1517,1512,1512,1517,,,,,
55783511,1521,1516,1516,1521,,,,,
55786010,1525,1520,1520,1526,,,,,
55788509,1530,1525,1525,1530,,,,,
55791008,1534,1529,1529,1534,,,,,
55793507,1538,1533,1533,1538,,,,,
55796006,1542,1537,1537,1543,,,,,
55798505,1546,1541,1542,1547,,,,,
55801004,1551,1546,1546,1551,,,,,
55803503,1555,1550,1550,1555,,,,,
55806002,1559,1554,1554,1559,,,,,
55808501,1563,1558,1558,1563,,,,,
55811000,1567,1562,1562,1567,,,,,
55813499,1571,1566,1566,1571,,,,,
55815998,1575,1570,1570,1575,,,,,
55818497,1579,1574,1575,1579,,,,,
55820996,1583,1578,1579,1583,,,,,
55823495,1587,1582,1583,1587,,,,,
55825994,1591,1586,1587,1591,,,,,
55828493,1595,1590,1591,1595,,,,,
55830992,1599,1594,1594,1599,,,,,
55833491,1603,1598,1598,1603,,,,,
55835990,1607,1602,1602,1607,,,,,
55838489,1611,1606,1606,1611,,,,,
55840988,1614,1610,1610,1615,,,,,
55843487,1618,1613,1614,1618,,,,,
55845986,1622,1617,1618,1622,,,,,
55848485,1626,1621,1622,1626,,,,,
55850984,1630,1625,1625,1630,,,,,
55853483,1634,1629,1629,1633,,,,,
55855982,1637,1632,1633,1637,,,,,
55858481,1641,1636,1637,1641,,,,,
55860980,1645,1640,1640,1645,,,,,
55863479,1648,1644,1644,1648,,,,,
55865978,1652,1647,1648,1652,,,,,
55868477,1656,1651,1652,1656,,,,,
55870976,1660,1655,1655,1659,,,,,
55873475,1663,1658,1659,1663,,,,,
55875974,1667,1662,1663,1667,,,,,
55878473,1670,1666,1666,1670,,,,,
55880972,1674,1669,1670,1674,,,,,
55883471,1678,1673,1673,1677,,,,,
55885970,1681,1676,1677,1681,,,,,
55888469,1685,1680,1680,1685,,,,,
55890968,1688,1683,1684,1688,,,,,
55893467,1692,1687,1688,1692,,,,,
55895966,1695,1691,1691,1695,,,,,
55898465,1699,1694,1695,1699,,,,,
55900964,1702,1698,1698,1702,,,,,
55903463,1706,1701,1702,1706,,,,,
55905962,1709,1704,1705,1709,,,,,
55908461,1713,1708,1708,1713,,,,,
55910960,1716,1711,1712,1716,,,,,
55913459,1720,1715,1715,1720,,,,,
55915958,1723,1718,1719,1723,,,,,
55918457,1727,1722,1722,1726,,,,,
55920956,1730,1725,1726,1730,,,,,
55923455,1733,1728,1729,1733,,,,,
55925954,1737,1732,1732,1737,,,,,
55928453,1740,1735,1736,1740,,,,,
55930952,1744,1738,1739,1743,,,,,
55933451,1747,1742,1742,1747,,,,,
55935950,1750,1745,1746,1750,,,,,
55938449,1754,1748,1749,1753,,,,,
55940948,1757,1752,1752,1757,,,,,
55943447,1760,1755,1756,1760,,,,,
55945946,1763,1758,1759,1763,,,,,
55948445,1767,1762,1762,1767,,,,,
55950944,1770,1765,1765,1770,,,,,
55953443,1773,1768,1769,1773,,,,,
55955942,1776,1771,1772,1776,,,,,
55958441,1780,1775,1775,1780,,,,,
55960940,1783,1778,1778,1783,,,,,
55963439,1786,1781,1782,1786,,,,,
55965938,1789,1784,1785,1789,,,,,
55968437,1793,1787,1788,1792,,,,,
55970936,1796,1791,1791,1796,,,,,
55973435,1799,1794,1794,1799,,,,,
55975934,1802,1797,1797,1802,,,,,
55978433,1805,1800,1801,1805,,,,,
55980932,1808,1803,1804,1808,,,,,
55983431,1811,1806,1807,1811,,,,,
55985930,1815,1810,1810,1815,,,,,
55988429,1818,1813,1813,1818,,,,,
55990928,1821,1816,1816,1821,,,,,
55993427,1824,1819,1819,1824,,,,,
55995926,1827,1822,1822,1827,,,,,
55998425,1830,1825,1826,1830,,,,,
56000924,1833,1828,1829,1833,,,,,
56003423,1836,1831,1832,1836,,,,,
56005922,1839,1834,1835,1839,,,,,
56008421,1842,1837,1838,1842,,,,,
56010920,1845,1840,1841,1845,,,,,
56013419,1848,1843,1844,1848,,,,,
56015918,1851,1846,1847,1851,,,,,
56018417,1850,1845,1846,1850,,,,,
56020916,1849,1844,1844,1849,,,,,
56023415,1848,1843,1843,1848,,,,,
56025914,1846,1842,1842,1846,,,,,
56028413,1845,1840,1841,1845,,,,,
56030912,1844,1839,1839,1844,,,,,
56033411,1843,1838,1838,1843,,,,,
56035910,1842,1837,1837,1842,,,,,
56038409,1841,1836,1836,1841,,,,,
56040908,1840,1835,1835,1840,,,,,
56043407,1839,1834,1834,1839,,,,,
56045906,1838,1833,1833,1838,,,,,
56048405,1837,1832,1833,1837,,,,,
56050904,1837,1832,1832,1837,,,,,
56053403,1836,1831,1831,1836,,,,,
56055902,1835,1831,1831,1836,,,,,
56058401,1835,1830,1830,1835,,,,,
56060900,1835,1830,1830,1835,,,,,
56063399,1835,1830,1830,1835,,,,,
56065898,1835,1830,1830,1835,,,,,
56068397,1835,1830,1830,1835,,,,,
56070896,1835,1830,1830,1835,,,,,
56073395,1835,1830,1830,1835,,,,,
56075894,1835,1830,1830,1835,,,,,
56078393,1835,1830,1831,1835,,,,,
56080892,1836,1831,1831,1836,,,,,
56083391,1836,1831,1831,1836,,,,,
56085890,1837,1832,1832,1837,,,,,
56088389,1837,1832,1833,1837,,,,,
56090888,1838,1833,1833,1838,,,,,
56093387,1838,1833,1834,1839,,,,,
56095886,1839,1834,1834,1839,,,,,
56098385,1840,1835,1835,1840,,,,,
56100884,1841,1836,1836,1841,,,,,
56103383,1841,1836,1837,1842,,,,,
56105882,1842,1837,1837,1842,,,,,
56108381,1843,1838,1838,1843,,,,,
56110880,1844,1839,1839,1844,,,,,
56113379,1845,1840,1840,1845,,,,,
56115878,1846,1841,1841,1846,,,,,
56118377,1847,1842,1842,1847,,,,,
56120876,1848,1843,1843,1848,,,,,
56123375,1849,1844,1844,1849,,,,,
56125874,1850,1845,1845,1850,,,,,
56128373,1851,1846,1846,1851,,,,,
56130872,1852,1847,1847,1852,,,,,
56133371,1852,1848,1848,1853,,,,,
56135870,1853,1849,1849,1854,,,,,
56138369,1854,1850,1850,1855,,,,,
56140868,1855,1851,1851,1855,,,,,
56143367,1855,1852,1852,1856,,,,,
56145866,1856,1852,1852,1856,,,,,
56148365,1856,1853,1853,1857,,,,,
56150864,1856,1853,1853,1857,,,,,
56153363,1856,1853,1853,1857,,,,,
56155862,1856,1853,1853,1856,,,,,
56158361,1855,1852,1853,1856,,,,,
56160860,1855,1852,1852,1855,,,,,
56163359,1854,1851,1851,1854,,,,,
56165858,1853,1850,1850,1853,,,,,
56168357,1852,1849,1849,1852,,,,,
56170856,1850,1847,1848,1850,,,,,
56173355,1848,1846,1846,1849,,,,,
56175854,1847,1844,1844,1847,,,,,
56178353,1845,1842,1842,1845,,,,,
56180852,1843,1840,1840,1843,,,,,
56183351,1841,1838,1838,1841,,,,,
56185850,1838,1836,1836,1838,,,,,
56188349,1836,1833,1834,1836,,,,,
56190848,1833,1831,1831,1833,,,,,
56193347,1831,1828,1828,1831,,,,,
56195846,1828,1825,1826,1828,,,,,
56198345,1825,1823,1823,1825,,,,,
56200844,1822,1820,1820,1822,,,,,
56203343,1819,1817,1817,1819,,,,,
56205842,1816,1814,1815,1816,,,,,
56208341,1813,1811,1811,1813,,,,,
56210840,1810,1808,1808,1810,,,,,
56213339,1807,1805,1805,1807,,,,,
56215838,1804,1802,1802,1804,,,,,
56218337,1801,1799,1799,1801,,,,,
56220836,1798,1795,1796,1798,,,,,
56223335,1794,1792,1793,1794,,,,,
56225834,1791,1789,1789,1791,,,,,
56228333,1788,1785,1786,1788,,,,,
56230832,1784,1782,1783,1784,,,,,
56233331,1781,1779,1780,1781,,,,,
56235830,1778,1776,1776,1777,,,,,
56238329,1774,1772,1773,1774,,,,,
56240828,1771,1769,1770,1771,,,,,
56243327,1768,1766,1766,1767,,,,,
56245826,1764,1762,1763,1764,,,,,
56248325,1761,1759,1760,1761,,,,,
56250824,1757,1756,1756,1757,,,,,
56253323,1754,1752,1753,1754,,,,,
56255822,1751,1749,1750,1750,,,,,
56258321,1747,1746,1746,1747,,,,,
56260820,1744,1742,1743,1744,,,,,
56263319,1740,1739,1740,1740,,,,,
56265818,1737,1736,1736,1737,,,,,
56268317,1734,1732,1733,1733,,,,,
56270816,1730,1729,1730,1730,,,,,
56273315,1727,1726,1726,1727,,,,,
56275814,1724,1723,1723,1723,,,,,
56278313,1720,1719,1720,1720,,,,,
56280812,1717,1716,1717,1717,,,,,
56283311,1714,1713,1714,1714,,,,,
56285810,1711,1710,1711,1710,,,,,
56288309,1708,1707,1707,1707,,,,,
56290808,1704,1704,1704,1704,,,,,
56293307,1701,1700,1701,1701,,,,,
56295806,1698,1697,1698,1698,,,,,
56298305,1695,1694,1695,1695,,,,,
56300804,1692,1692,1692,1692,,,,,
56303303,1689,1689,1689,1689,,,,,
56305802,1686,1686,1687,1686,,,,,
56308301,1684,1683,1684,1683,,,,,
56310800,1681,1680,1681,1681,,,,,
56313299,1678,1678,1678,1678,,,,,
56315798,1676,1675,1676,1675,,,,,
