timestamp,TimeUS,C1,C2,C3,C4,C5,C6,C7,C8,C9,C10,C11,C12,C13,C14
1683189819.00000000,42828695,1000,1000,1000,1000,0,0,0,0,0,0,0,0,0,0
1683189819.09995985,42928655,1000,1000,1000,1000,0,0,0,0,0,0,0,0,0,0
1683189819.19991994,43028615,1000,1000,1000,1000,0,0,0,0,0,0,0,0,0,0
1683189819.29988003,43128575,1000,1000,1000,1000,0,0,0,0,0,0,0,0,0,0
1683189819.39983988,43228535,1000,1000,1000,1000,0,0,0,0,0,0,0,0,0,0
1683189819.49979997,43328495,1000,1000,1000,1000,0,0,0,0,0,0,0,0,0,0
1683189819.59976006,43428455,1000,1000,1000,1000,0,0,0,0,0,0,0,0,0,0
1683189819.69971991,43528415,1000,1000,1000,1000,0,0,0,0,0,0,0,0,0,0
1683189819.79967999,43628375,1000,1000,1000,1000,0,0,0,0,0,0,0,0,0,0
1683189819.89963984,43728335,1000,1000,1000,1000,0,0,0,0,0,0,0,0,0,0
1683189819.99959993,43828295,1000,1000,1000,1000,0,0,0,0,0,0,0,0,0,0
1683189820.09956002,43928255,1000,1000,1000,1000,0,0,0,0,0,0,0,0,0,0
1683189820.19951987,44028215,1000,1000,1000,1000,0,0,0,0,0,0,0,0,0,0
1683189820.29947996,44128175,1000,1000,1000,1000,0,0,0,0,0,0,0,0,0,0
1683189820.40027285,44228968,1000,1000,1000,1000,0,0,0,0,0,0,0,0,0,0
1683189820.50023293,44328928,1000,1000,1000,1000,0,0,0,0,0,0,0,0,0,0
1683189820.60019302,44428888,1000,1000,1000,1000,0,0,0,0,0,0,0,0,0,0
1683189820.70015287,44528848,1000,1000,1000,1000,0,0,0,0,0,0,0,0,0,0
1683189820.80011296,44628808,1000,1000,1000,1000,0,0,0,0,0,0,0,0,0,0
1683189820.90007305,44728768,1000,1000,1000,1000,0,0,0,0,0,0,0,0,0,0
1683189821.00003290,44828728,1012,1012,1012,1012,0,0,0,0,0,0,0,0,0,0
1683189821.09999299,44928688,1042,1042,1042,1042,0,0,0,0,0,0,0,0,0,0
1683189821.19995284,45028648,1072,1072,1072,1072,0,0,0,0,0,0,0,0,0,0
1683189821.29991293,45128608,1102,1102,1102,1102,0,0,0,0,0,0,0,0,0,0
1683189821.39987302,45228568,1132,1132,1132,1132,0,0,0,0,0,0,0,0,0,0
1683189821.49983287,45328528,1269,1262,1262,1269,0,0,0,0,0,0,0,0,0,0
1683189821.59979296,45428488,1481,1476,1476,1481,0,0,0,0,0,0,0,0,0,0
1683189821.69975305,45528448,1645,1640,1640,1645,0,0,0,0,0,0,0,0,0,0
1683189821.79971290,45628408,1782,1778,1779,1783,0,0,0,0,0,0,0,0,0,0
1683189821.89967299,45728368,1902,1898,1897,1903,0,0,0,0,0,0,0,0,0,0
1683189821.99963284,45828328,1871,1869,1868,1873,0,0,0,0,0,0,0,0,0,0
1683189822.09959292,45928288,1743,1742,1741,1744,0,0,0,0,0,0,0,0,0,0
1683189822.19955301,46028248,1640,1641,1641,1641,0,0,0,0,0,0,0,0,0,0
1683189822.29951286,46128208,1607,1608,1608,1608,0,0,0,0,0,0,0,0,0,0
1683189822.39947295,46228168,1609,1611,1611,1609,0,0,0,0,0,0,0,0,0,0
1683189822.50026584,46328961,1616,1617,1617,1616,0,0,0,0,0,0,0,0,0,0
1683189822.60022593,46428921,1616,1617,1617,1616,0,0,0,0,0,0,0,0,0,0
1683189822.70018601,46528881,1612,1611,1612,1611,0,0,0,0,0,0,0,0,0,0
1683189822.80014586,46628841,1609,1608,1608,1609,0,0,0,0,0,0,0,0,0,0
1683189822.90010595,46728801,1609,1608,1608,1609,0,0,0,0,0,0,0,0,0,0
1683189823.00006604,46828761,1610,1610,1609,1611,0,0,0,0,0,0,0,0,0,0
1683189823.10002589,46928721,1614,1614,1614,1613,0,0,0,0,0,0,0,0,0,0
1683189823.19998598,47028681,1617,1617,1617,1616,0,0,0,0,0,0,0,0,0,0
1683189823.29994583,47128641,1619,1620,1620,1618,0,0,0,0,0,0,0,0,0,0
1683189823.39990592,47228601,1607,1607,1609,1605,0,0,0,0,0,0,0,0,0,0
1683189823.49986601,47328561,1582,1583,1589,1576,0,0,0,0,0,0,0,0,0,0
1683189823.59982586,47428521,1571,1571,1575,1567,0,0,0,0,0,0,0,0,0,0
1683189823.69978595,47528481,1559,1559,1559,1560,0,0,0,0,0,0,0,0,0,0
1683189823.79974604,47628441,1551,1550,1543,1558,0,0,0,0,0,0,0,0,0,0
1683189823.89970589,47728401,1543,1542,1534,1551,0,0,0,0,0,0,0,0,0,0
1683189823.99966598,47828361,1536,1535,1530,1541,0,0,0,0,0,0,0,0,0,0
1683189824.09962583,47928321,1530,1529,1527,1532,0,0,0,0,0,0,0,0,0,0
1683189824.19958591,48028281,1528,1528,1528,1528,0,0,0,0,0,0,0,0,0,0
1683189824.29954600,48128241,1527,1528,1530,1526,0,0,0,0,0,0,0,0,0,0
1683189824.39950585,48228201,1531,1531,1534,1528,0,0,0,0,0,0,0,0,0,0
1683189824.49946594,48328161,1534,1534,1537,1531,0,0,0,0,0,0,0,0,0,0
1683189824.60025883,48428954,1538,1538,1540,1536,0,0,0,0,0,0,0,0,0,0
1683189824.70021892,48528914,1541,1540,1542,1540,0,0,0,0,0,0,0,0,0,0
1683189824.80017900,48628874,1544,1545,1545,1544,0,0,0,0,0,0,0,0,0,0
1683189824.90013885,48728834,1548,1547,1547,1548,0,0,0,0,0,0,0,0,0,0
1683189825.00009894,48828794,1551,1551,1550,1551,0,0,0,0,0,0,0,0,0,0
1683189825.10005903,48928754,1553,1553,1552,1554,0,0,0,0,0,0,0,0,0,0
1683189825.20001888,49028714,1554,1552,1556,1558,0,0,0,0,0,0,0,0,0,0
1683189825.29997897,49128674,1551,1550,1563,1565,0,0,0,0,0,0,0,0,0,0
1683189825.39993906,49228634,1553,1554,1565,1566,0,0,0,0,0,0,0,0,0,0
1683189825.49989891,49328594,1557,1558,1565,1565,0,0,0,0,0,0,0,0,0,0
1683189825.59985900,49428554,1562,1562,1565,1565,0,0,0,0,0,0,0,0,0,0
1683189825.69981885,49528514,1565,1566,1564,1563,0,0,0,0,0,0,0,0,0,0
1683189825.79977894,49628474,1569,1569,1564,1564,0,0,0,0,0,0,0,0,0,0
1683189825.89973903,49728434,1571,1570,1563,1563,0,0,0,0,0,0,0,0,0,0
1683189825.99969888,49828394,1573,1572,1565,1565,0,0,0,0,0,0,0,0,0,0
1683189826.09965897,49928354,1574,1573,1566,1565,0,0,0,0,0,0,0,0,0,0
1683189826.19961905,50028314,1573,1573,1566,1567,0,0,0,0,0,0,0,0,0,0
1683189826.29957891,50128274,1573,1573,1568,1568,0,0,0,0,0,0,0,0,0,0
1683189826.39953899,50228234,1573,1573,1570,1570,0,0,0,0,0,0,0,0,0,0
1683189826.49949884,50328194,1573,1573,1572,1572,0,0,0,0,0,0,0,0,0,0
1683189826.59945893,50428154,1572,1573,1573,1572,0,0,0,0,0,0,0,0,0,0
1683189826.70025206,50528947,1572,1573,1574,1573,0,0,0,0,0,0,0,0,0,0
1683189826.80021191,50628907,1572,1573,1575,1574,0,0,0,0,0,0,0,0,0,0
1683189826.90017200,50728867,1574,1573,1577,1575,0,0,0,0,0,0,0,0,0,0
1683189827.00013185,50828827,1574,1574,1578,1576,0,0,0,0,0,0,0,0,0,0
1683189827.10009193,50928787,1575,1574,1577,1577,0,0,0,0,0,0,0,0,0,0
1683189827.20005202,51028747,1576,1576,1578,1578,0,0,0,0,0,0,0,0,0,0
1683189827.30001187,51128707,1575,1576,1577,1577,0,0,0,0,0,0,0,0,0,0
1683189827.39997196,51228667,1576,1575,1576,1577,0,0,0,0,0,0,0,0,0,0
1683189827.49993205,51328627,1577,1577,1577,1578,0,0,0,0,0,0,0,0,0,0
1683189827.59989190,51428587,1577,1577,1577,1576,0,0,0,0,0,0,0,0,0,0
1683189827.69985199,51528547,1577,1577,1577,1576,0,0,0,0,0,0,0,0,0,0
1683189827.79981184,51628507,1577,1577,1577,1576,0,0,0,0,0,0,0,0,0,0
1683189827.89977193,51728467,1577,1577,1576,1576,0,0,0,0,0,0,0,0,0,0
1683189827.99973202,51828427,1578,1578,1577,1577,0,0,0,0,0,0,0,0,0,0
1683189828.09969187,51928387,1577,1577,1576,1576,0,0,0,0,0,0,0,0,0,0
1683189828.19965196,52028347,1579,1578,1578,1577,0,0,0,0,0,0,0,0,0,0
1683189828.29961205,52128307,1578,1578,1578,1578,0,0,0,0,0,0,0,0,0,0
1683189828.39957190,52228267,1579,1579,1579,1579,0,0,0,0,0,0,0,0,0,0
1683189828.49953198,52328227,1579,1578,1578,1579,0,0,0,0,0,0,0,0,0,0
1683189828.59949183,52428187,1578,1578,1579,1579,0,0,0,0,0,0,0,0,0,0
1683189828.70028496,52528980,1578,1579,1579,1579,0,0,0,0,0,0,0,0,0,0
1683189828.80024505,52628940,1578,1578,1579,1578,0,0,0,0,0,0,0,0,0,0
1683189828.90020490,52728900,1578,1578,1579,1579,0,0,0,0,0,0,0,0,0,0
1683189829.00016499,52828860,1578,1579,1579,1579,0,0,0,0,0,0,0,0,0,0
1683189829.10012484,52928820,1579,1579,1579,1579,0,0,0,0,0,0,0,0,0,0
1683189829.20008492,53028780,1579,1579,1579,1579,0,0,0,0,0,0,0,0,0,0
1683189829.30004501,53128740,1579,1579,1579,1579,0,0,0,0,0,0,0,0,0,0
1683189829.40000486,53228700,1580,1580,1580,1580,0,0,0,0,0,0,0,0,0,0
1683189829.49996495,53328660,1581,1581,1581,1581,0,0,0,0,0,0,0,0,0,0
1683189829.59992504,53428620,1581,1580,1581,1580,0,0,0,0,0,0,0,0,0,0
1683189829.69988489,53528580,1581,1580,1580,1580,0,0,0,0,0,0,0,0,0,0
1683189829.79984498,53628540,1580,1580,1580,1581,0,0,0,0,0,0,0,0,0,0
1683189829.89980483,53728500,1581,1581,1580,1581,0,0,0,0,0,0,0,0,0,0
1683189829.99976492,53828460,1580,1580,1580,1580,0,0,0,0,0,0,0,0,0,0
1683189830.09972501,53928420,1580,1581,1581,1580,0,0,0,0,0,0,0,0,0,0
1683189830.19968486,54028380,1580,1580,1581,1580,0,0,0,0,0,0,0,0,0,0
1683189830.29964495,54128340,1581,1581,1581,1581,0,0,0,0,0,0,0,0,0,0
1683189830.39960504,54228300,1581,1581,1581,1581,0,0,0,0,0,0,0,0,0,0
1683189830.49956489,54328260,1580,1580,1580,1581,0,0,0,0,0,0,0,0,0,0
1683189830.59952497,54428220,1581,1581,1581,1581,0,0,0,0,0,0,0,0,0,0
1683189830.69948483,54528180,1580,1580,1581,1581,0,0,0,0,0,0,0,0,0,0
1683189830.80027795,54628973,1580,1580,1580,1580,0,0,0,0,0,0,0,0,0,0
1683189830.90023804,54728933,1580,1580,1580,1581,0,0,0,0,0,0,0,0,0,0
1683189831.00019789,54828893,1581,1581,1581,1581,0,0,0,0,0,0,0,0,0,0
1683189831.10015798,54928853,1581,1581,1581,1581,0,0,0,0,0,0,0,0,0,0
1683189831.20011783,55028813,1581,1581,1581,1581,0,0,0,0,0,0,0,0,0,0
1683189831.30007792,55128773,1581,1581,1581,1581,0,0,0,0,0,0,0,0,0,0
1683189831.40003800,55228733,1582,1582,1583,1580,0,0,0,0,0,0,0,0,0,0
1683189831.49999785,55328693,1580,1582,1588,1573,0,0,0,0,0,0,0,0,0,0
1683189831.59995794,55428653,1579,1582,1583,1573,0,0,0,0,0,0,0,0,0,0
1683189831.69991803,55528613,1579,1581,1575,1573,0,0,0,0,0,0,0,0,0,0
1683189831.79987788,55628573,1578,1580,1567,1571,0,0,0,0,0,0,0,0,0,0
1683189831.89983797,55728533,1577,1579,1560,1567,0,0,0,0,0,0,0,0,0,0
1683189831.99979806,55828493,1578,1578,1557,1562,0,0,0,0,0,0,0,0,0,0
1683189832.09975791,55928453,1578,1577,1555,1558,0,0,0,0,0,0,0,0,0,0
1683189832.19971800,56028413,1579,1577,1555,1556,0,0,0,0,0,0,0,0,0,0
1683189832.29967785,56128373,1579,1578,1556,1554,0,0,0,0,0,0,0,0,0,0
1683189832.39963794,56228333,1578,1578,1557,1554,0,0,0,0,0,0,0,0,0,0
1683189832.49959803,56328293,1576,1577,1556,1554,0,0,0,0,0,0,0,0,0,0
1683189832.59955788,56428253,1576,1577,1555,1555,0,0,0,0,0,0,0,0,0,0
1683189832.69951797,56528213,1575,1576,1554,1554,0,0,0,0,0,0,0,0,0,0
1683189832.79947805,56628173,1574,1576,1553,1553,0,0,0,0,0,0,0,0,0,0
1683189832.90027094,56728966,1576,1577,1552,1552,0,0,0,0,0,0,0,0,0,0
1683189833.00023103,56828926,1576,1578,1550,1550,0,0,0,0,0,0,0,0,0,0
1683189833.10019088,56928886,1579,1581,1548,1548,0,0,0,0,0,0,0,0,0,0
1683189833.20015097,57028846,1581,1583,1546,1545,0,0,0,0,0,0,0,0,0,0
1683189833.30011106,57128806,1584,1585,1542,1542,0,0,0,0,0,0,0,0,0,0
1683189833.40007091,57228766,1588,1588,1539,1539,0,0,0,0,0,0,0,0,0,0
1683189833.50003099,57328726,1590,1590,1536,1536,0,0,0,0,0,0,0,0,0,0
1683189833.59999084,57428686,1593,1593,1534,1535,0,0,0,0,0,0,0,0,0,0
1683189833.69995093,57528646,1595,1594,1534,1535,0,0,0,0,0,0,0,0,0,0
1683189833.79991102,57628606,1595,1595,1535,1536,0,0,0,0,0,0,0,0,0,0
1683189833.89987087,57728566,1595,1595,1536,1539,0,0,0,0,0,0,0,0,0,0
1683189833.99983096,57828526,1592,1592,1539,1542,0,0,0,0,0,0,0,0,0,0
1683189834.09979105,57928486,1588,1586,1545,1548,0,0,0,0,0,0,0,0,0,0
1683189834.19975090,58028446,1583,1580,1554,1557,0,0,0,0,0,0,0,0,0,0
1683189834.29971099,58128406,1575,1570,1564,1567,0,0,0,0,0,0,0,0,0,0
1683189834.39967084,58228366,1564,1559,1576,1578,0,0,0,0,0,0,0,0,0,0
1683189834.49963093,58328326,1552,1548,1589,1590,0,0,0,0,0,0,0,0,0,0
1683189834.59959102,58428286,1541,1539,1600,1600,0,0,0,0,0,0,0,0,0,0
1683189834.69955087,58528246,1533,1532,1608,1608,0,0,0,0,0,0,0,0,0,0
1683189834.79951096,58628206,1528,1529,1614,1613,0,0,0,0,0,0,0,0,0,0
1683189834.89947104,58728166,1527,1530,1616,1614,0,0,0,0,0,0,0,0,0,0
1683189835.00026393,58828959,1531,1534,1614,1613,0,0,0,0,0,0,0,0,0,0
1683189835.10022402,58928919,1537,1539,1608,1609,0,0,0,0,0,0,0,0,0,0
1683189835.20018387,59028879,1546,1547,1602,1603,0,0,0,0,0,0,0,0,0,0
1683189835.30014396,59128839,1555,1555,1594,1595,0,0,0,0,0,0,0,0,0,0
1683189835.40010405,59228799,1564,1563,1587,1587,0,0,0,0,0,0,0,0,0,0
1683189835.50006390,59328759,1571,1571,1580,1579,0,0,0,0,0,0,0,0,0,0
1683189835.60002398,59428719,1577,1577,1574,1572,0,0,0,0,0,0,0,0,0,0
1683189835.69998384,59528679,1584,1582,1570,1569,0,0,0,0,0,0,0,0,0,0
1683189835.79994392,59628639,1587,1586,1567,1567,0,0,0,0,0,0,0,0,0,0
1683189835.89990401,59728599,1588,1587,1566,1566,0,0,0,0,0,0,0,0,0,0
1683189835.99986386,59828559,1588,1587,1567,1567,0,0,0,0,0,0,0,0,0,0
1683189836.09982395,59928519,1585,1584,1567,1568,0,0,0,0,0,0,0,0,0,0
1683189836.19978404,60028479,1583,1583,1571,1571,0,0,0,0,0,0,0,0,0,0
1683189836.29974389,60128439,1581,1581,1574,1574,0,0,0,0,0,0,0,0,0,0
1683189836.39970398,60228399,1578,1578,1577,1577,0,0,0,0,0,0,0,0,0,0
1683189836.49966383,60328359,1575,1576,1580,1580,0,0,0,0,0,0,0,0,0,0
1683189836.59962392,60428319,1573,1573,1581,1581,0,0,0,0,0,0,0,0,0,0
1683189836.69958401,60528279,1572,1572,1583,1583,0,0,0,0,0,0,0,0,0,0
1683189836.79954386,60628239,1572,1573,1584,1584,0,0,0,0,0,0,0,0,0,0
1683189836.89950395,60728199,1572,1573,1584,1584,0,0,0,0,0,0,0,0,0,0
1683189836.99946404,60828159,1573,1574,1583,1583,0,0,0,0,0,0,0,0,0,0
1683189837.10025692,60928952,1575,1575,1582,1582,0,0,0,0,0,0,0,0,0,0
1683189837.20021701,61028912,1576,1576,1581,1580,0,0,0,0,0,0,0,0,0,0
1683189837.30017686,61128872,1577,1576,1579,1579,0,0,0,0,0,0,0,0,0,0
1683189837.40013695,61228832,1578,1579,1578,1578,0,0,0,0,0,0,0,0,0,0
1683189837.50009704,61328792,1580,1580,1578,1577,0,0,0,0,0,0,0,0,0,0
1683189837.60005689,61428752,1581,1580,1577,1577,0,0,0,0,0,0,0,0,0,0
1683189837.70001698,61528712,1582,1581,1577,1577,0,0,0,0,0,0,0,0,0,0
1683189837.79997683,61628672,1581,1581,1577,1577,0,0,0,0,0,0,0,0,0,0
1683189837.89993691,61728632,1582,1582,1578,1578,0,0,0,0,0,0,0,0,0,0
1683189837.99989700,61828592,1582,1582,1578,1578,0,0,0,0,0,0,0,0,0,0
1683189838.09985685,61928552,1581,1581,1578,1578,0,0,0,0,0,0,0,0,0,0
1683189838.19981694,62028512,1581,1581,1580,1580,0,0,0,0,0,0,0,0,0,0
1683189838.29977703,62128472,1581,1581,1581,1580,0,0,0,0,0,0,0,0,0,0
1683189838.39973688,62228432,1580,1580,1581,1581,0,0,0,0,0,0,0,0,0,0
1683189838.49969697,62328392,1579,1579,1580,1580,0,0,0,0,0,0,0,0,0,0
1683189838.59965706,62428352,1579,1579,1580,1581,0,0,0,0,0,0,0,0,0,0
1683189838.69961691,62528312,1578,1579,1580,1580,0,0,0,0,0,0,0,0,0,0
1683189838.79957700,62628272,1579,1579,1580,1580,0,0,0,0,0,0,0,0,0,0
1683189838.89953685,62728232,1580,1580,1581,1581,0,0,0,0,0,0,0,0,0,0
1683189838.99949694,62828192,1580,1579,1580,1581,0,0,0,0,0,0,0,0,0,0
1683189839.10029006,62928985,1581,1581,1581,1581,0,0,0,0,0,0,0,0,0,0
1683189839.20024991,63028945,1581,1581,1582,1581,0,0,0,0,0,0,0,0,0,0
1683189839.30021000,63128905,1581,1581,1581,1581,0,0,0,0,0,0,0,0,0,0
1683189839.40016985,63228865,1581,1581,1581,1580,0,0,0,0,0,0,0,0,0,0
1683189839.50012994,63328825,1582,1584,1588,1574,0,0,0,0,0,0,0,0,0,0
1683189839.60009003,63428785,1581,1584,1584,1572,0,0,0,0,0,0,0,0,0,0
1683189839.70004988,63528745,1580,1584,1576,1572,0,0,0,0,0,0,0,0,0,0
1683189839.80000997,63628705,1579,1581,1566,1569,0,0,0,0,0,0,0,0,0,0
1683189839.89997005,63728665,1579,1581,1559,1566,0,0,0,0,0,0,0,0,0,0
1683189839.99992990,63828625,1580,1579,1554,1561,0,0,0,0,0,0,0,0,0,0
1683189840.09988999,63928585,1580,1579,1552,1556,0,0,0,0,0,0,0,0,0,0
1683189840.19984984,64028545,1581,1580,1553,1554,0,0,0,0,0,0,0,0,0,0
1683189840.29980993,64128505,1580,1579,1553,1552,0,0,0,0,0,0,0,0,0,0
1683189840.39977002,64228465,1580,1580,1554,1552,0,0,0,0,0,0,0,0,0,0
1683189840.49972987,64328425,1579,1579,1555,1553,0,0,0,0,0,0,0,0,0,0
1683189840.59968996,64428385,1577,1579,1555,1554,0,0,0,0,0,0,0,0,0,0
1683189840.69965005,64528345,1577,1578,1554,1554,0,0,0,0,0,0,0,0,0,0
1683189840.79960990,64628305,1576,1577,1553,1553,0,0,0,0,0,0,0,0,0,0
1683189840.89956999,64728265,1577,1578,1552,1553,0,0,0,0,0,0,0,0,0,0
1683189840.99952984,64828225,1577,1579,1550,1550,0,0,0,0,0,0,0,0,0,0
1683189841.09948993,64928185,1579,1580,1548,1549,0,0,0,0,0,0,0,0,0,0
1683189841.20028305,65028978,1581,1583,1546,1546,0,0,0,0,0,0,0,0,0,0
1683189841.30024290,65128938,1584,1585,1545,1545,0,0,0,0,0,0,0,0,0,0
1683189841.40020299,65228898,1586,1587,1543,1543,0,0,0,0,0,0,0,0,0,0
1683189841.50016284,65328858,1589,1589,1542,1542,0,0,0,0,0,0,0,0,0,0
1683189841.60012293,65428818,1591,1592,1540,1541,0,0,0,0,0,0,0,0,0,0
1683189841.70008302,65528778,1592,1592,1538,1540,0,0,0,0,0,0,0,0,0,0
1683189841.80004287,65628738,1593,1593,1539,1542,0,0,0,0,0,0,0,0,0,0
1683189841.90000296,65728698,1592,1590,1542,1545,0,0,0,0,0,0,0,0,0,0
1683189841.99996305,65828658,1588,1585,1548,1550,0,0,0,0,0,0,0,0,0,0
1683189842.09992290,65928618,1583,1579,1556,1558,0,0,0,0,0,0,0,0,0,0
1683189842.19988298,66028578,1575,1570,1566,1568,0,0,0,0,0,0,0,0,0,0
1683189842.29984283,66128538,1564,1561,1577,1578,0,0,0,0,0,0,0,0,0,0
1683189842.39980292,66228498,1556,1553,1589,1590,0,0,0,0,0,0,0,0,0,0
1683189842.49976301,66328458,1548,1545,1598,1599,0,0,0,0,0,0,0,0,0,0
1683189842.59972286,66428418,1540,1540,1606,1605,0,0,0,0,0,0,0,0,0,0
1683189842.69968295,66528378,1536,1537,1610,1609,0,0,0,0,0,0,0,0,0,0
1683189842.79964304,66628338,1536,1538,1612,1611,0,0,0,0,0,0,0,0,0,0
1683189842.89960289,66728298,1538,1541,1610,1609,0,0,0,0,0,0,0,0,0,0
1683189842.99956298,66828258,1544,1546,1606,1606,0,0,0,0,0,0,0,0,0,0
1683189843.09952283,66928218,1551,1552,1601,1600,0,0,0,0,0,0,0,0,0,0
1683189843.19948292,67028178,1558,1559,1594,1593,0,0,0,0,0,0,0,0,0,0
1683189843.30027604,67128971,1566,1566,1587,1587,0,0,0,0,0,0,0,0,0,0
1683189843.40023589,67228931,1572,1572,1580,1580,0,0,0,0,0,0,0,0,0,0
1683189843.50019598,67328891,1578,1577,1575,1575,0,0,0,0,0,0,0,0,0,0
1683189843.60015583,67428851,1582,1581,1571,1571,0,0,0,0,0,0,0,0,0,0
1683189843.70011592,67528811,1585,1584,1569,1569,0,0,0,0,0,0,0,0,0,0
1683189843.80007601,67628771,1586,1585,1569,1568,0,0,0,0,0,0,0,0,0,0
1683189843.90003586,67728731,1586,1585,1569,1568,0,0,0,0,0,0,0,0,0,0
1683189843.99999595,67828691,1584,1583,1570,1570,0,0,0,0,0,0,0,0,0,0
1683189844.09995604,67928651,1583,1582,1573,1573,0,0,0,0,0,0,0,0,0,0
1683189844.19991589,68028611,1581,1580,1575,1576,0,0,0,0,0,0,0,0,0,0
1683189844.29987597,68128571,1577,1578,1577,1578,0,0,0,0,0,0,0,0,0,0
1683189844.39983582,68228531,1575,1575,1579,1579,0,0,0,0,0,0,0,0,0,0
1683189844.49979591,68328491,1573,1574,1581,1581,0,0,0,0,0,0,0,0,0,0
1683189844.59975600,68428451,1572,1573,1582,1582,0,0,0,0,0,0,0,0,0,0
1683189844.69971585,68528411,1573,1574,1583,1583,0,0,0,0,0,0,0,0,0,0
1683189844.79967594,68628371,1573,1573,1583,1583,0,0,0,0,0,0,0,0,0,0
1683189844.89963603,68728331,1574,1574,1583,1583,0,0,0,0,0,0,0,0,0,0
1683189844.99959588,68828291,1576,1576,1583,1583,0,0,0,0,0,0,0,0,0,0
1683189845.09955597,68928251,1577,1577,1581,1581,0,0,0,0,0,0,0,0,0,0
1683189845.19951606,69028211,1578,1578,1581,1580,0,0,0,0,0,0,0,0,0,0
1683189845.29947591,69128171,1579,1579,1579,1579,0,0,0,0,0,0,0,0,0,0
1683189845.40026903,69228964,1580,1580,1578,1579,0,0,0,0,0,0,0,0,0,0
1683189845.50022888,69328924,1581,1581,1578,1578,0,0,0,0,0,0,0,0,0,0
1683189845.60018897,69428884,1582,1581,1578,1578,0,0,0,0,0,0,0,0,0,0
1683189845.70014906,69528844,1583,1582,1579,1579,0,0,0,0,0,0,0,0,0,0
1683189845.80010891,69628804,1583,1582,1579,1579,0,0,0,0,0,0,0,0,0,0
1683189845.90006900,69728764,1582,1582,1579,1579,0,0,0,0,0,0,0,0,0,0
1683189846.00002885,69828724,1583,1582,1581,1580,0,0,0,0,0,0,0,0,0,0
1683189846.09998894,69928684,1581,1582,1580,1581,0,0,0,0,0,0,0,0,0,0
1683189846.19994903,70028644,1581,1581,1580,1581,0,0,0,0,0,0,0,0,0,0
1683189846.29990888,70128604,1580,1580,1580,1580,0,0,0,0,0,0,0,0,0,0
1683189846.39986897,70228564,1580,1580,1581,1581,0,0,0,0,0,0,0,0,0,0
1683189846.49982905,70328524,1580,1580,1581,1581,0,0,0,0,0,0,0,0,0,0
1683189846.59978890,70428484,1580,1580,1581,1581,0,0,0,0,0,0,0,0,0,0
1683189846.69974899,70528444,1580,1580,1582,1581,0,0,0,0,0,0,0,0,0,0
1683189846.79970884,70628404,1579,1580,1581,1581,0,0,0,0,0,0,0,0,0,0
1683189846.89966893,70728364,1580,1580,1581,1581,0,0,0,0,0,0,0,0,0,0
1683189846.99962902,70828324,1580,1580,1581,1581,0,0,0,0,0,0,0,0,0,0
1683189847.09958887,70928284,1581,1580,1580,1580,0,0,0,0,0,0,0,0,0,0
1683189847.19954896,71028244,1581,1581,1580,1580,0,0,0,0,0,0,0,0,0,0
1683189847.29950905,71128204,1581,1581,1581,1581,0,0,0,0,0,0,0,0,0,0
1683189847.39946890,71228164,1581,1581,1580,1581,0,0,0,0,0,0,0,0,0,0
1683189847.50026202,71328957,1581,1581,1581,1581,0,0,0,0,0,0,0,0,0,0
1683189847.60022187,71428917,1582,1582,1583,1579,0,0,0,0,0,0,0,0,0,0
1683189847.70018196,71528877,1581,1583,1587,1572,0,0,0,0,0,0,0,0,0,0
1683189847.80014205,71628837,1579,1583,1582,1572,0,0,0,0,0,0,0,0,0,0
1683189847.90010190,71728797,1578,1581,1573,1572,0,0,0,0,0,0,0,0,0,0
1683189848.00006199,71828757,1576,1579,1564,1569,0,0,0,0,0,0,0,0,0,0
1683189848.10002184,71928717,1577,1579,1559,1566,0,0,0,0,0,0,0,0,0,0
1683189848.19998193,72028677,1578,1578,1556,1561,0,0,0,0,0,0,0,0,0,0
1683189848.29994202,72128637,1579,1578,1554,1557,0,0,0,0,0,0,0,0,0,0
1683189848.39990187,72228597,1579,1578,1555,1554,0,0,0,0,0,0,0,0,0,0
1683189848.49986196,72328557,1579,1578,1555,1554,0,0,0,0,0,0,0,0,0,0
1683189848.59982204,72428517,1578,1578,1556,1554,0,0,0,0,0,0,0,0,0,0
1683189848.69978189,72528477,1578,1578,1557,1555,0,0,0,0,0,0,0,0,0,0
1683189848.79974198,72628437,1577,1578,1557,1555,0,0,0,0,0,0,0,0,0,0
1683189848.89970183,72728397,1576,1578,1555,1554,0,0,0,0,0,0,0,0,0,0
1683189848.99966192,72828357,1575,1577,1553,1553,0,0,0,0,0,0,0,0,0,0
1683189849.09962201,72928317,1575,1577,1551,1552,0,0,0,0,0,0,0,0,0,0
1683189849.19958186,73028277,1576,1577,1549,1550,0,0,0,0,0,0,0,0,0,0
1683189849.29954195,73128237,1579,1580,1548,1549,0,0,0,0,0,0,0,0,0,0
1683189849.39950204,73228197,1582,1582,1546,1546,0,0,0,0,0,0,0,0,0,0
1683189849.49946189,73328157,1584,1585,1544,1543,0,0,0,0,0,0,0,0,0,0
1683189849.60025501,73428950,1586,1587,1541,1540,0,0,0,0,0,0,0,0,0,0
1683189849.70021486,73528910,1589,1589,1539,1539,0,0,0,0,0,0,0,0,0,0
1683189849.80017495,73628870,1591,1591,1537,1538,0,0,0,0,0,0,0,0,0,0
1683189849.90013504,73728830,1593,1593,1537,1538,0,0,0,0,0,0,0,0,0,0
1683189850.00009489,73828790,1594,1595,1538,1540,0,0,0,0,0,0,0,0,0,0
1683189850.10005498,73928750,1593,1593,1539,1542,0,0,0,0,0,0,0,0,0,0
1683189850.20001483,74028710,1591,1590,1543,1546,0,0,0,0,0,0,0,0,0,0
1683189850.29997492,74128670,1587,1584,1549,1552,0,0,0,0,0,0,0,0,0,0
1683189850.39993501,74228630,1581,1578,1558,1561,0,0,0,0,0,0,0,0,0,0
1683189850.49989486,74328590,1572,1568,1568,1570,0,0,0,0,0,0,0,0,0,0
1683189850.59985495,74428550,1562,1558,1580,1581,0,0,0,0,0,0,0,0,0,0
1683189850.69981503,74528510,1552,1549,1592,1592,0,0,0,0,0,0,0,0,0,0
1683189850.79977489,74628470,1542,1540,1600,1600,0,0,0,0,0,0,0,0,0,0
1683189850.89973497,74728430,1535,1535,1608,1607,0,0,0,0,0,0,0,0,0,0
1683189850.99969482,74828390,1532,1533,1612,1610,0,0,0,0,0,0,0,0,0,0
1683189851.09965491,74928350,1533,1535,1613,1612,0,0,0,0,0,0,0,0,0,0
1683189851.19961500,75028310,1536,1539,1610,1610,0,0,0,0,0,0,0,0,0,0
1683189851.29957485,75128270,1544,1545,1607,1607,0,0,0,0,0,0,0,0,0,0
1683189851.39953494,75228230,1551,1552,1600,1600,0,0,0,0,0,0,0,0,0,0
1683189851.49949503,75328190,1559,1559,1593,1592,0,0,0,0,0,0,0,0,0,0
1683189851.60028791,75428983,1567,1567,1587,1586,0,0,0,0,0,0,0,0,0,0
1683189851.70024800,75528943,1574,1573,1579,1578,0,0,0,0,0,0,0,0,0,0
1683189851.80020785,75628903,1580,1579,1574,1574,0,0,0,0,0,0,0,0,0,0
1683189851.90016794,75728863,1584,1582,1570,1570,0,0,0,0,0,0,0,0,0,0
1683189852.00012803,75828823,1586,1585,1568,1568,0,0,0,0,0,0,0,0,0,0
1683189852.10008788,75928783,1586,1585,1567,1567,0,0,0,0,0,0,0,0,0,0
1683189852.20004797,76028743,1585,1584,1567,1567,0,0,0,0,0,0,0,0,0,0
1683189852.30000806,76128703,1585,1584,1570,1570,0,0,0,0,0,0,0,0,0,0
1683189852.39996791,76228663,1583,1582,1573,1573,0,0,0,0,0,0,0,0,0,0
1683189852.49992800,76328623,1580,1580,1576,1575,0,0,0,0,0,0,0,0,0,0
1683189852.59988785,76428583,1577,1577,1578,1578,0,0,0,0,0,0,0,0,0,0
1683189852.69984794,76528543,1576,1576,1581,1580,0,0,0,0,0,0,0,0,0,0
1683189852.79980803,76628503,1573,1573,1581,1581,0,0,0,0,0,0,0,0,0,0
1683189852.89976788,76728463,1572,1573,1582,1582,0,0,0,0,0,0,0,0,0,0
1683189852.99972796,76828423,1572,1573,1583,1583,0,0,0,0,0,0,0,0,0,0
1683189853.09968805,76928383,1573,1574,1583,1583,0,0,0,0,0,0,0,0,0,0
1683189853.19964790,77028343,1574,1574,1583,1583,0,0,0,0,0,0,0,0,0,0
1683189853.29960799,77128303,1575,1575,1582,1582,0,0,0,0,0,0,0,0,0,0
1683189853.39956784,77228263,1577,1577,1581,1581,0,0,0,0,0,0,0,0,0,0
1683189853.49952793,77328223,1578,1578,1580,1580,0,0,0,0,0,0,0,0,0,0
1683189853.59948802,77428183,1580,1579,1579,1580,0,0,0,0,0,0,0,0,0,0
1683189853.70028090,77528976,1580,1580,1578,1578,0,0,0,0,0,0,0,0,0,0
1683189853.80024099,77628936,1581,1581,1578,1578,0,0,0,0,0,0,0,0,0,0
1683189853.90020084,77728896,1582,1582,1578,1578,0,0,0,0,0,0,0,0,0,0
1683189854.00016093,77828856,1582,1582,1579,1578,0,0,0,0,0,0,0,0,0,0
1683189854.10012102,77928816,1582,1582,1579,1578,0,0,0,0,0,0,0,0,0,0
1683189854.20008087,78028776,1582,1582,1579,1579,0,0,0,0,0,0,0,0,0,0
1683189854.30004096,78128736,1582,1581,1579,1580,0,0,0,0,0,0,0,0,0,0
1683189854.40000105,78228696,1581,1581,1580,1580,0,0,0,0,0,0,0,0,0,0
1683189854.49996090,78328656,1580,1580,1580,1580,0,0,0,0,0,0,0,0,0,0
1683189854.59992099,78428616,1580,1580,1581,1580,0,0,0,0,0,0,0,0,0,0
1683189854.69988084,78528576,1579,1580,1581,1581,0,0,0,0,0,0,0,0,0,0
1683189854.79984093,78628536,1579,1579,1581,1581,0,0,0,0,0,0,0,0,0,0
1683189854.89980102,78728496,1579,1579,1580,1581,0,0,0,0,0,0,0,0,0,0
1683189854.99976087,78828456,1579,1579,1581,1580,0,0,0,0,0,0,0,0,0,0
1683189855.09972095,78928416,1579,1579,1581,1581,0,0,0,0,0,0,0,0,0,0
1683189855.19968104,79028376,1580,1580,1581,1580,0,0,0,0,0,0,0,0,0,0
1683189855.29964089,79128336,1580,1580,1580,1580,0,0,0,0,0,0,0,0,0,0
1683189855.39960098,79228296,1580,1580,1580,1580,0,0,0,0,0,0,0,0,0,0
1683189855.49956083,79328256,1580,1581,1580,1580,0,0,0,0,0,0,0,0,0,0
1683189855.59952092,79428216,1581,1582,1585,1575,0,0,0,0,0,0,0,0,0,0
1683189855.69948101,79528176,1580,1580,1585,1572,0,0,0,0,0,0,0,0,0,0
1683189855.80027390,79628969,1579,1579,1580,1574,0,0,0,0,0,0,0,0,0,0
1683189855.90023398,79728929,1576,1575,1573,1575,0,0,0,0,0,0,0,0,0,0
1683189856.00019383,79828889,1573,1573,1568,1575,0,0,0,0,0,0,0,0,0,0
1683189856.10015392,79928849,1570,1570,1565,1572,0,0,0,0,0,0,0,0,0,0
1683189856.20011401,80028809,1568,1568,1565,1569,0,0,0,0,0,0,0,0,0,0
1683189856.30007386,80128769,1566,1567,1565,1567,0,0,0,0,0,0,0,0,0,0
1683189856.40003395,80228729,1566,1566,1567,1566,0,0,0,0,0,0,0,0,0,0
1683189856.49999404,80328689,1565,1565,1566,1564,0,0,0,0,0,0,0,0,0,0
1683189856.59995389,80428649,1564,1564,1566,1564,0,0,0,0,0,0,0,0,0,0
1683189856.69991398,80528609,1565,1565,1566,1564,0,0,0,0,0,0,0,0,0,0
1683189856.79987383,80628569,1564,1564,1565,1564,0,0,0,0,0,0,0,0,0,0
1683189856.89983392,80728529,1563,1563,1563,1564,0,0,0,0,0,0,0,0,0,0
1683189856.99979401,80828489,1563,1563,1563,1563,0,0,0,0,0,0,0,0,0,0
1683189857.09975386,80928449,1562,1562,1562,1563,0,0,0,0,0,0,0,0,0,0
1683189857.19971395,81028409,1561,1561,1562,1561,0,0,0,0,0,0,0,0,0,0
1683189857.29967403,81128369,1561,1561,1561,1561,0,0,0,0,0,0,0,0,0,0
1683189857.39963388,81228329,1560,1561,1561,1560,0,0,0,0,0,0,0,0,0,0
1683189857.49959397,81328289,1560,1559,1559,1559,0,0,0,0,0,0,0,0,0,0
1683189857.59955382,81428249,1559,1559,1559,1558,0,0,0,0,0,0,0,0,0,0
1683189857.69951391,81528209,1558,1558,1558,1557,0,0,0,0,0,0,0,0,0,0
1683189857.79947400,81628169,1558,1558,1558,1557,0,0,0,0,0,0,0,0,0,0
1683189857.90026689,81728962,1558,1558,1558,1557,0,0,0,0,0,0,0,0,0,0
1683189858.00022697,81828922,1558,1558,1559,1558,0,0,0,0,0,0,0,0,0,0
1683189858.10018682,81928882,1559,1558,1559,1557,0,0,0,0,0,0,0,0,0,0
1683189858.20014691,82028842,1558,1558,1559,1557,0,0,0,0,0,0,0,0,0,0
1683189858.30010700,82128802,1558,1558,1559,1556,0,0,0,0,0,0,0,0,0,0
1683189858.40006685,82228762,1559,1559,1559,1559,0,0,0,0,0,0,0,0,0,0
1683189858.50002694,82328722,1559,1559,1557,1561,0,0,0,0,0,0,0,0,0,0
1683189858.59998703,82428682,1560,1560,1558,1563,0,0,0,0,0,0,0,0,0,0
1683189858.69994688,82528642,1561,1561,1558,1564,0,0,0,0,0,0,0,0,0,0
1683189858.79990697,82628602,1561,1561,1559,1563,0,0,0,0,0,0,0,0,0,0
1683189858.89986706,82728562,1562,1562,1561,1564,0,0,0,0,0,0,0,0,0,0
1683189858.99982691,82828522,1561,1561,1562,1560,0,0,0,0,0,0,0,0,0,0
1683189859.09978700,82928482,1562,1562,1563,1560,0,0,0,0,0,0,0,0,0,0
1683189859.19974685,83028442,1560,1560,1561,1559,0,0,0,0,0,0,0,0,0,0
1683189859.29970694,83128402,1559,1559,1557,1561,0,0,0,0,0,0,0,0,0,0
1683189859.39966702,83228362,1555,1555,1552,1557,0,0,0,0,0,0,0,0,0,0
1683189859.49962687,83328322,1550,1550,1549,1552,0,0,0,0,0,0,0,0,0,0
1683189859.59958696,83428282,1545,1545,1544,1545,0,0,0,0,0,0,0,0,0,0
1683189859.69954705,83528242,1537,1537,1538,1537,0,0,0,0,0,0,0,0,0,0
1683189859.79950690,83628202,1531,1531,1532,1530,0,0,0,0,0,0,0,0,0,0
1683189859.89946699,83728162,1523,1523,1524,1523,0,0,0,0,0,0,0,0,0,0
1683189860.00025988,83828955,1520,1520,1520,1520,0,0,0,0,0,0,0,0,0,0
1683189860.10021996,83928915,1520,1519,1520,1520,0,0,0,0,0,0,0,0,0,0
1683189860.20018005,84028875,1520,1520,1520,1520,0,0,0,0,0,0,0,0,0,0
1683189860.30013990,84128835,1522,1523,1523,1523,0,0,0,0,0,0,0,0,0,0
1683189860.40009999,84228795,1526,1526,1526,1526,0,0,0,0,0,0,0,0,0,0
1683189860.50005984,84328755,1530,1530,1530,1530,0,0,0,0,0,0,0,0,0,0
1683189860.60001993,84428715,1535,1536,1536,1535,0,0,0,0,0,0,0,0,0,0
1683189860.69998002,84528675,1539,1539,1539,1538,0,0,0,0,0,0,0,0,0,0
1683189860.79993987,84628635,1541,1541,1541,1541,0,0,0,0,0,0,0,0,0,0
1683189860.89989996,84728595,1543,1543,1543,1543,0,0,0,0,0,0,0,0,0,0
1683189860.99986005,84828555,1544,1544,1544,1544,0,0,0,0,0,0,0,0,0,0
1683189861.09981990,84928515,1545,1545,1546,1545,0,0,0,0,0,0,0,0,0,0
1683189861.19977999,85028475,1545,1545,1545,1545,0,0,0,0,0,0,0,0,0,0
1683189861.29973984,85128435,1546,1546,1546,1545,0,0,0,0,0,0,0,0,0,0
1683189861.39969993,85228395,1546,1545,1546,1545,0,0,0,0,0,0,0,0,0,0
1683189861.49966002,85328355,1546,1546,1546,1547,0,0,0,0,0,0,0,0,0,0
1683189861.59961987,85428315,1546,1546,1546,1546,0,0,0,0,0,0,0,0,0,0
1683189861.69957995,85528275,1546,1546,1547,1546,0,0,0,0,0,0,0,0,0,0
1683189861.79954004,85628235,1545,1546,1545,1545,0,0,0,0,0,0,0,0,0,0
1683189861.89949989,85728195,1545,1545,1545,1545,0,0,0,0,0,0,0,0,0,0
1683189861.99945998,85828155,1546,1546,1545,1546,0,0,0,0,0,0,0,0,0,0
1683189862.10025287,85928948,1546,1546,1546,1546,0,0,0,0,0,0,0,0,0,0
1683189862.20021296,86028908,1545,1545,1545,1544,0,0,0,0,0,0,0,0,0,0
1683189862.30017304,86128868,1546,1546,1546,1546,0,0,0,0,0,0,0,0,0,0
1683189862.40013289,86228828,1545,1545,1545,1545,0,0,0,0,0,0,0,0,0,0
1683189862.50009298,86328788,1545,1545,1545,1545,0,0,0,0,0,0,0,0,0,0
1683189862.60005283,86428748,1544,1544,1544,1544,0,0,0,0,0,0,0,0,0,0
1683189862.70001292,86528708,1544,1544,1544,1544,0,0,0,0,0,0,0,0,0,0
1683189862.79997301,86628668,1544,1544,1544,1544,0,0,0,0,0,0,0,0,0,0
1683189862.89993286,86728628,1544,1544,1544,1544,0,0,0,0,0,0,0,0,0,0
1683189862.99989295,86828588,1543,1543,1543,1543,0,0,0,0,0,0,0,0,0,0
1683189863.09985304,86928548,1544,1543,1543,1543,0,0,0,0,0,0,0,0,0,0
1683189863.19981289,87028508,1544,1543,1543,1543,0,0,0,0,0,0,0,0,0,0
1683189863.29977298,87128468,1544,1544,1544,1544,0,0,0,0,0,0,0,0,0,0
1683189863.39973283,87228428,1544,1543,1543,1543,0,0,0,0,0,0,0,0,0,0
1683189863.49969292,87328388,1544,1544,1544,1544,0,0,0,0,0,0,0,0,0,0
1683189863.59965301,87428348,1544,1544,1544,1544,0,0,0,0,0,0,0,0,0,0
1683189863.69961286,87528308,1544,1544,1544,1544,0,0,0,0,0,0,0,0,0,0
1683189863.79957294,87628268,1544,1544,1544,1544,0,0,0,0,0,0,0,0,0,0
1683189863.89953303,87728228,1544,1545,1545,1545,0,0,0,0,0,0,0,0,0,0
1683189863.99949288,87828188,1544,1544,1544,1544,0,0,0,0,0,0,0,0,0,0
1683189864.10028601,87928981,1544,1544,1544,1545,0,0,0,0,0,0,0,0,0,0
1683189864.20024586,88028941,1545,1545,1545,1545,0,0,0,0,0,0,0,0,0,0
1683189864.30020595,88128901,1544,1544,1545,1544,0,0,0,0,0,0,0,0,0,0
1683189864.40016603,88228861,1544,1545,1545,1544,0,0,0,0,0,0,0,0,0,0
1683189864.50012589,88328821,1545,1545,1545,1545,0,0,0,0,0,0,0,0,0,0
1683189864.60008597,88428781,1544,1544,1544,1544,0,0,0,0,0,0,0,0,0,0
1683189864.70004582,88528741,1545,1544,1544,1544,0,0,0,0,0,0,0,0,0,0
1683189864.80000591,88628701,1544,1544,1544,1544,0,0,0,0,0,0,0,0,0,0
1683189864.89996600,88728661,1545,1544,1545,1544,0,0,0,0,0,0,0,0,0,0
1683189864.99992585,88828621,1544,1544,1544,1544,0,0,0,0,0,0,0,0,0,0
1683189865.09988594,88928581,1544,1544,1544,1544,0,0,0,0,0,0,0,0,0,0
1683189865.19984603,89028541,1544,1544,1544,1544,0,0,0,0,0,0,0,0,0,0
1683189865.29980588,89128501,1545,1545,1545,1545,0,0,0,0,0,0,0,0,0,0
1683189865.39976597,89228461,1545,1544,1545,1544,0,0,0,0,0,0,0,0,0,0
1683189865.49972606,89328421,1544,1544,1544,1544,0,0,0,0,0,0,0,0,0,0
1683189865.59968591,89428381,1544,1544,1544,1543,0,0,0,0,0,0,0,0,0,0
1683189865.69964600,89528341,1544,1544,1544,1544,0,0,0,0,0,0,0,0,0,0
1683189865.79960585,89628301,1543,1543,1543,1543,0,0,0,0,0,0,0,0,0,0
1683189865.89956594,89728261,1544,1543,1544,1543,0,0,0,0,0,0,0,0,0,0
1683189865.99952602,89828221,1544,1544,1544,1544,0,0,0,0,0,0,0,0,0,0
1683189866.09948587,89928181,1545,1544,1544,1545,0,0,0,0,0,0,0,0,0,0
1683189866.20027900,90028974,1543,1544,1543,1544,0,0,0,0,0,0,0,0,0,0
1683189866.30023885,90128934,1544,1545,1545,1545,0,0,0,0,0,0,0,0,0,0
1683189866.40019894,90228894,1543,1543,1543,1543,0,0,0,0,0,0,0,0,0,0
1683189866.50015903,90328854,1544,1544,1544,1544,0,0,0,0,0,0,0,0,0,0
1683189866.60011888,90428814,1543,1543,1543,1543,0,0,0,0,0,0,0,0,0,0
1683189866.70007896,90528774,1544,1544,1544,1544,0,0,0,0,0,0,0,0,0,0
1683189866.80003905,90628734,1543,1543,1543,1543,0,0,0,0,0,0,0,0,0,0
1683189866.89999890,90728694,1544,1543,1543,1543,0,0,0,0,0,0,0,0,0,0
1683189866.99995899,90828654,1544,1544,1544,1544,0,0,0,0,0,0,0,0,0,0
1683189867.09991884,90928614,1543,1544,1543,1544,0,0,0,0,0,0,0,0,0,0
1683189867.19987893,91028574,1544,1544,1544,1544,0,0,0,0,0,0,0,0,0,0
1683189867.29983902,91128534,1543,1543,1543,1543,0,0,0,0,0,0,0,0,0,0
1683189867.39979887,91228494,1544,1544,1544,1544,0,0,0,0,0,0,0,0,0,0
1683189867.49975896,91328454,1544,1543,1544,1544,0,0,0,0,0,0,0,0,0,0
1683189867.59971905,91428414,1544,1544,1545,1544,0,0,0,0,0,0,0,0,0,0
1683189867.69967890,91528374,1544,1544,1545,1544,0,0,0,0,0,0,0,0,0,0
1683189867.79963899,91628334,1543,1544,1544,1544,0,0,0,0,0,0,0,0,0,0
1683189867.89959884,91728294,1544,1544,1544,1544,0,0,0,0,0,0,0,0,0,0
1683189867.99955893,91828254,1545,1545,1545,1545,0,0,0,0,0,0,0,0,0,0
1683189868.09951901,91928214,1544,1544,1544,1544,0,0,0,0,0,0,0,0,0,0
1683189868.19947886,92028174,1544,1545,1545,1544,0,0,0,0,0,0,0,0,0,0
1683189868.30027199,92128967,1545,1545,1545,1545,0,0,0,0,0,0,0,0,0,0
1683189868.40023184,92228927,1544,1545,1545,1545,0,0,0,0,0,0,0,0,0,0
1683189868.50019193,92328887,1544,1544,1544,1544,0,0,0,0,0,0,0,0,0,0
1683189868.60015202,92428847,1544,1544,1544,1544,0,0,0,0,0,0,0,0,0,0
1683189868.70011187,92528807,1544,1544,1544,1544,0,0,0,0,0,0,0,0,0,0
1683189868.80007195,92628767,1545,1545,1545,1545,0,0,0,0,0,0,0,0,0,0
1683189868.90003204,92728727,1545,1544,1544,1544,0,0,0,0,0,0,0,0,0,0
1683189868.99999189,92828687,1545,1545,1545,1545,0,0,0,0,0,0,0,0,0,0
1683189869.09995198,92928647,1545,1545,1545,1545,0,0,0,0,0,0,0,0,0,0
1683189869.19991183,93028607,1545,1545,1545,1544,0,0,0,0,0,0,0,0,0,0
1683189869.29987192,93128567,1544,1544,1544,1544,0,0,0,0,0,0,0,0,0,0
1683189869.39983201,93228527,1544,1544,1544,1544,0,0,0,0,0,0,0,0,0,0
1683189869.49979186,93328487,1544,1544,1544,1544,0,0,0,0,0,0,0,0,0,0
1683189869.59975195,93428447,1545,1545,1545,1545,0,0,0,0,0,0,0,0,0,0
1683189869.69971204,93528407,1542,1543,1543,1542,0,0,0,0,0,0,0,0,0,0
1683189869.79967189,93628367,1356,1356,1357,1356,0,0,0,0,0,0,0,0,0,0
1683189869.89963198,93728327,1251,1248,1250,1249,0,0,0,0,0,0,0,0,0,0
1683189869.99959183,93828287,1215,1215,1216,1215,0,0,0,0,0,0,0,0,0,0
1683189870.09955192,93928247,1193,1192,1193,1193,0,0,0,0,0,0,0,0,0,0
1683189870.19951200,94028207,1150,1150,1151,1150,0,0,0,0,0,0,0,0,0,0
1683189870.29947186,94128167,1151,1150,1151,1150,0,0,0,0,0,0,0,0,0,0
1683189870.40026498,94228960,1151,1150,1151,1150,0,0,0,0,0,0,0,0,0,0
1683189870.50022483,94328920,1179,1150,1151,1179,0,0,0,0,0,0,0,0,0,0
1683189870.60018492,94428880,1170,1150,1151,1169,0,0,0,0,0,0,0,0,0,0
1683189870.70014501,94528840,1168,1150,1151,1168,0,0,0,0,0,0,0,0,0,0
1683189870.80010486,94628800,1169,1150,1151,1168,0,0,0,0,0,0,0,0,0,0
1683189870.90006495,94728760,1171,1150,1151,1170,0,0,0,0,0,0,0,0,0,0
1683189871.00002503,94828720,1172,1150,1151,1172,0,0,0,0,0,0,0,0,0,0
1683189871.09998488,94928680,1175,1150,1152,1174,0,0,0,0,0,0,0,0,0,0
1683189871.19994497,95028640,1167,1150,1152,1166,0,0,0,0,0,0,0,0,0,0
1683189871.29990482,95128600,1163,1150,1151,1163,0,0,0,0,0,0,0,0,0,0
1683189871.39986491,95228560,1164,1150,1151,1164,0,0,0,0,0,0,0,0,0,0
1683189871.49982500,95328520,1165,1150,1151,1165,0,0,0,0,0,0,0,0,0,0
1683189871.59978485,95428480,1166,1150,1151,1165,0,0,0,0,0,0,0,0,0,0
1683189871.69974494,95528440,1150,1150,1150,1150,0,0,0,0,0,0,0,0,0,0
1683189871.79970503,95628400,1000,1000,1000,1000,0,0,0,0,0,0,0,0,0,0
1683189871.89966488,95728360,1000,1000,1000,1000,0,0,0,0,0,0,0,0,0,0
1683189871.99962497,95828320,1000,1000,1000,1000,0,0,0,0,0,0,0,0,0,0
1683189872.09958506,95928280,1000,1000,1000,1000,0,0,0,0,0,0,0,0,0,0
1683189872.19954491,96028240,1000,1000,1000,1000,0,0,0,0,0,0,0,0,0,0
1683189872.29950500,96128200,1000,1000,1000,1000,0,0,0,0,0,0,0,0,0,0
1683189872.39946485,96228160,1000,1000,1000,1000,0,0,0,0,0,0,0,0,0,0
1683189872.50025797,96328953,1000,1000,1000,1000,0,0,0,0,0,0,0,0,0,0
1683189872.60021806,96428913,1000,1000,1000,1000,0,0,0,0,0,0,0,0,0,0
1683189872.70017791,96528873,1000,1000,1000,1000,0,0,0,0,0,0,0,0,0,0
1683189872.80013800,96628833,1000,1000,1000,1000,0,0,0,0,0,0,0,0,0,0
1683189872.90009785,96728793,1000,1000,1000,1000,0,0,0,0,0,0,0,0,0,0
1683189873.00005794,96828753,1000,1000,1000,1000,0,0,0,0,0,0,0,0,0,0
1683189873.10001802,96928713,1000,1000,1000,1000,0,0,0,0,0,0,0,0,0,0
1683189873.19997787,97028673,1000,1000,1000,1000,0,0,0,0,0,0,0,0,0,0
1683189873.29993796,97128633,1000,1000,1000,1000,0,0,0,0,0,0,0,0,0,0
1683189873.39989805,97228593,1000,1000,1000,1000,0,0,0,0,0,0,0,0,0,0
1683189873.49985790,97328553,1000,1000,1000,1000,0,0,0,0,0,0,0,0,0,0
1683189873.59981799,97428513,1000,1000,1000,1000,0,0,0,0,0,0,0,0,0,0
1683189873.69977784,97528473,1000,1000,1000,1000,0,0,0,0,0,0,0,0,0,0
1683189873.79973793,97628433,1000,1000,1000,1000,0,0,0,0,0,0,0,0,0,0
1683189873.89969802,97728393,1000,1000,1000,1000,0,0,0,0,0,0,0,0,0,0
1683189873.99965787,97828353,1000,1000,1000,1000,0,0,0,0,0,0,0,0,0,0
1683189874.09961796,97928313,1000,1000,1000,1000,0,0,0,0,0,0,0,0,0,0
1683189874.19957805,98028273,1000,1000,1000,1000,0,0,0,0,0,0,0,0,0,0
1683189874.29953790,98128233,1000,1000,1000,1000,0,0,0,0,0,0,0,0,0,0
1683189874.39949799,98228193,1000,1000,1000,1000,0,0,0,0,0,0,0,0,0,0
1683189874.50029087,98328986,1000,1000,1000,1000,0,0,0,0,0,0,0,0,0,0
1683189874.60025096,98428946,1000,1000,1000,1000,0,0,0,0,0,0,0,0,0,0
1683189874.70021105,98528906,1000,1000,1000,1000,0,0,0,0,0,0,0,0,0,0
1683189874.80017090,98628866,1000,1000,1000,1000,0,0,0,0,0,0,0,0,0,0
1683189874.90013099,98728826,1000,1000,1000,1000,0,0,0,0,0,0,0,0,0,0
1683189875.00009084,98828786,1000,1000,1000,1000,0,0,0,0,0,0,0,0,0,0
1683189875.10005093,98928746,1000,1000,1000,1000,0,0,0,0,0,0,0,0,0,0
1683189875.20001101,99028706,1000,1000,1000,1000,0,0,0,0,0,0,0,0,0,0
1683189875.29997087,99128666,1000,1000,1000,1000,0,0,0,0,0,0,0,0,0,0
1683189875.39993095,99228626,1000,1000,1000,1000,0,0,0,0,0,0,0,0,0,0
1683189875.49989104,99328586,1000,1000,1000,1000,0,0,0,0,0,0,0,0,0,0
1683189875.59985089,99428546,1000,1000,1000,1000,0,0,0,0,0,0,0,0,0,0
1683189875.69981098,99528506,1000,1000,1000,1000,0,0,0,0,0,0,0,0,0,0
1683189875.79977083,99628466,1000,1000,1000,1000,0,0,0,0,0,0,0,0,0,0
1683189875.89973092,99728426,1000,1000,1000,1000,0,0,0,0,0,0,0,0,0,0
1683189875.99969101,99828386,1000,1000,1000,1000,0,0,0,0,0,0,0,0,0,0
1683189876.09965086,99928346,1000,1000,1000,1000,0,0,0,0,0,0,0,0,0,0
1683189876.19961095,100028306,1000,1000,1000,1000,0,0,0,0,0,0,0,0,0,0
1683189876.29957104,100128266,1000,1000,1000,1000,0,0,0,0,0,0,0,0,0,0
1683189876.39953089,100228226,1000,1000,1000,1000,0,0,0,0,0,0,0,0,0,0
1683189876.49949098,100328186,1000,1000,1000,1000,0,0,0,0,0,0,0,0,0,0
1683189876.60028386,100428979,1000,1000,1000,1000,0,0,0,0,0,0,0,0,0,0
1683189876.70024395,100528939,1000,1000,1000,1000,0,0,0,0,0,0,0,0,0,0
1683189876.80020404,100628899,1000,1000,1000,1000,0,0,0,0,0,0,0,0,0,0
1683189876.90016389,100728859,1000,1000,1000,1000,0,0,0,0,0,0,0,0,0,0
1683189877.00012398,100828819,1000,1000,1000,1000,0,0,0,0,0,0,0,0,0,0
1683189877.10008383,100928779,1000,1000,1000,1000,0,0,0,0,0,0,0,0,0,0
1683189877.20004392,101028739,1000,1000,1000,1000,0,0,0,0,0,0,0,0,0,0
1683189877.30000401,101128699,1000,1000,1000,1000,0,0,0,0,0,0,0,0,0,0
1683189877.39996386,101228659,1000,1000,1000,1000,0,0,0,0,0,0,0,0,0,0
1683189877.49992394,101328619,1000,1000,1000,1000,0,0,0,0,0,0,0,0,0,0
1683189877.59988403,101428579,1000,1000,1000,1000,0,0,0,0,0,0,0,0,0,0
1683189877.69984388,101528539,1000,1000,1000,1000,0,0,0,0,0,0,0,0,0,0
1683189877.79980397,101628499,1000,1000,1000,1000,0,0,0,0,0,0,0,0,0,0
1683189877.89976382,101728459,1000,1000,1000,1000,0,0,0,0,0,0,0,0,0,0
1683189877.99972391,101828419,1000,1000,1000,1000,0,0,0,0,0,0,0,0,0,0
1683189878.09968400,101928379,1000,1000,1000,1000,0,0,0,0,0,0,0,0,0,0
1683189878.19964385,102028339,1000,1000,1000,1000,0,0,0,0,0,0,0,0,0,0
1683189878.29960394,102128299,1000,1000,1000,1000,0,0,0,0,0,0,0,0,0,0
1683189878.39956403,102228259,1000,1000,1000,1000,0,0,0,0,0,0,0,0,0,0
1683189878.49952388,102328219,1000,1000,1000,1000,0,0,0,0,0,0,0,0,0,0
1683189878.59948397,102428179,1000,1000,1000,1000,0,0,0,0,0,0,0,0,0,0
1683189878.70027685,102528972,1000,1000,1000,1000,0,0,0,0,0,0,0,0,0,0
1683189878.80023694,102628932,1000,1000,1000,1000,0,0,0,0,0,0,0,0,0,0
1683189878.90019703,102728892,1000,1000,1000,1000,0,0,0,0,0,0,0,0,0,0
1683189879.00015688,102828852,1000,1000,1000,1000,0,0,0,0,0,0,0,0,0,0
1683189879.10011697,102928812,1000,1000,1000,1000,0,0,0,0,0,0,0,0,0,0
1683189879.20007706,103028772,1000,1000,1000,1000,0,0,0,0,0,0,0,0,0,0
1683189879.30003691,103128732,1000,1000,1000,1000,0,0,0,0,0,0,0,0,0,0
1683189879.39999700,103228692,1000,1000,1000,1000,0,0,0,0,0,0,0,0,0,0
1683189879.49995685,103328652,1000,1000,1000,1000,0,0,0,0,0,0,0,0,0,0
1683189879.59991693,103428612,1000,1000,1000,1000,0,0,0,0,0,0,0,0,0,0
1683189879.69987702,103528572,1000,1000,1000,1000,0,0,0,0,0,0,0,0,0,0
1683189879.79983687,103628532,1000,1000,1000,1000,0,0,0,0,0,0,0,0,0,0
1683189879.89979696,103728492,1000,1000,1000,1000,0,0,0,0,0,0,0,0,0,0
1683189879.99975705,103828452,1000,1000,1000,1000,0,0,0,0,0,0,0,0,0,0
1683189880.09971690,103928412,1000,1000,1000,1000,0,0,0,0,0,0,0,0,0,0
1683189880.19967699,104028372,1000,1000,1000,1000,0,0,0,0,0,0,0,0,0,0
1683189880.29963684,104128332,1000,1000,1000,1000,0,0,0,0,0,0,0,0,0,0
1683189880.39959693,104228292,1000,1000,1000,1000,0,0,0,0,0,0,0,0,0,0
1683189880.49955702,104328252,1000,1000,1000,1000,0,0,0,0,0,0,0,0,0,0
1683189880.59951687,104428212,1000,1000,1000,1000,0,0,0,0,0,0,0,0,0,0
1683189880.69947696,104528172,1000,1000,1000,1000,0,0,0,0,0,0,0,0,0,0
1683189880.80026984,104628965,1000,1000,1000,1000,0,0,0,0,0,0,0,0,0,0
1683189880.90022993,104728925,1000,1000,1000,1000,0,0,0,0,0,0,0,0,0,0
1683189881.00019002,104828885,1000,1000,1000,1000,0,0,0,0,0,0,0,0,0,0
1683189881.10014987,104928845,1000,1000,1000,1000,0,0,0,0,0,0,0,0,0,0
1683189881.20010996,105028805,1000,1000,1000,1000,0,0,0,0,0,0,0,0,0,0
1683189881.30007005,105128765,1000,1000,1000,1000,0,0,0,0,0,0,0,0,0,0
1683189881.40002990,105228725,1000,1000,1000,1000,0,0,0,0,0,0,0,0,0,0
1683189881.49998999,105328685,1000,1000,1000,1000,0,0,0,0,0,0,0,0,0,0
1683189881.59994984,105428645,1000,1000,1000,1000,0,0,0,0,0,0,0,0,0,0
1683189881.69990993,105528605,1000,1000,1000,1000,0,0,0,0,0,0,0,0,0,0
1683189881.79987001,105628565,1000,1000,1000,1000,0,0,0,0,0,0,0,0,0,0
1683189881.89982986,105728525,1000,1000,1000,1000,0,0,0,0,0,0,0,0,0,0
1683189881.99978995,105828485,1000,1000,1000,1000,0,0,0,0,0,0,0,0,0,0
1683189882.09975004,105928445,1000,1000,1000,1000,0,0,0,0,0,0,0,0,0,0
1683189882.19970989,106028405,1000,1000,1000,1000,0,0,0,0,0,0,0,0,0,0
1683189882.29966998,106128365,1000,1000,1000,1000,0,0,0,0,0,0,0,0,0,0
1683189882.39962983,106228325,1000,1000,1000,1000,0,0,0,0,0,0,0,0,0,0
1683189882.49958992,106328285,1000,1000,1000,1000,0,0,0,0,0,0,0,0,0,0
1683189882.59955001,106428245,1000,1000,1000,1000,0,0,0,0,0,0,0,0,0,0
1683189882.69950986,106528205,1000,1000,1000,1000,0,0,0,0,0,0,0,0,0,0
1683189882.79946995,106628165,1000,1000,1000,1000,0,0,0,0,0,0,0,0,0,0
1683189882.90026283,106728958,1000,1000,1000,1000,0,0,0,0,0,0,0,0,0,0
1683189883.00022292,106828918,1000,1000,1000,1000,0,0,0,0,0,0,0,0,0,0
1683189883.10018301,106928878,1000,1000,1000,1000,0,0,0,0,0,0,0,0,0,0
1683189883.20014286,107028838,1000,1000,1000,1000,0,0,0,0,0,0,0,0,0,0
1683189883.30010295,107128798,1000,1000,1000,1000,0,0,0,0,0,0,0,0,0,0
1683189883.40006304,107228758,1000,1000,1000,1000,0,0,0,0,0,0,0,0,0,0
1683189883.50002289,107328718,1000,1000,1000,1000,0,0,0,0,0,0,0,0,0,0
1683189883.59998298,107428678,1000,1000,1000,1000,0,0,0,0,0,0,0,0,0,0
1683189883.69994283,107528638,1000,1000,1000,1000,0,0,0,0,0,0,0,0,0,0
1683189883.79990292,107628598,1000,1000,1000,1000,0,0,0,0,0,0,0,0,0,0
1683189883.89986300,107728558,1000,1000,1000,1000,0,0,0,0,0,0,0,0,0,0
1683189883.99982285,107828518,1000,1000,1000,1000,0,0,0,0,0,0,0,0,0,0
1683189884.09978294,107928478,1000,1000,1000,1000,0,0,0,0,0,0,0,0,0,0
1683189884.19974303,108028438,1000,1000,1000,1000,0,0,0,0,0,0,0,0,0,0
1683189884.29970288,108128398,1000,1000,1000,1000,0,0,0,0,0,0,0,0,0,0
1683189884.39966297,108228358,1000,1000,1000,1000,0,0,0,0,0,0,0,0,0,0
1683189884.49962306,108328318,1000,1000,1000,1000,0,0,0,0,0,0,0,0,0,0
1683189884.59958291,108428278,1000,1000,1000,1000,0,0,0,0,0,0,0,0,0,0
1683189884.69954300,108528238,1000,1000,1000,1000,0,0,0,0,0,0,0,0,0,0
1683189884.79950285,108628198,1000,1000,1000,1000,0,0,0,0,0,0,0,0,0,0
1683189884.89946294,108728158,1000,1000,1000,1000,0,0,0,0,0,0,0,0,0,0
1683189885.00025582,108828951,1000,1000,1000,1000,0,0,0,0,0,0,0,0,0,0
1683189885.10021591,108928911,1000,1000,1000,1000,0,0,0,0,0,0,0,0,0,0
1683189885.20017600,109028871,1000,1000,1000,1000,0,0,0,0,0,0,0,0,0,0
1683189885.30013585,109128831,1000,1000,1000,1000,0,0,0,0,0,0,0,0,0,0
1683189885.40009594,109228791,1000,1000,1000,1000,0,0,0,0,0,0,0,0,0,0
1683189885.50005603,109328751,1000,1000,1000,1000,0,0,0,0,0,0,0,0,0,0
1683189885.60001588,109428711,1000,1000,1000,1000,0,0,0,0,0,0,0,0,0,0
1683189885.69997597,109528671,1000,1000,1000,1000,0,0,0,0,0,0,0,0,0,0
1683189885.79993606,109628631,1000,1000,1000,1000,0,0,0,0,0,0,0,0,0,0
1683189885.89989591,109728591,1000,1000,1000,1000,0,0,0,0,0,0,0,0,0,0
1683189885.99985600,109828551,1000,1000,1000,1000,0,0,0,0,0,0,0,0,0,0
1683189886.09981585,109928511,1000,1000,1000,1000,0,0,0,0,0,0,0,0,0,0
1683189886.19977593,110028471,1000,1000,1000,1000,0,0,0,0,0,0,0,0,0,0
1683189886.29973602,110128431,1000,1000,1000,1000,0,0,0,0,0,0,0,0,0,0
1683189886.39969587,110228391,1000,1000,1000,1000,0,0,0,0,0,0,0,0,0,0
1683189886.49965596,110328351,1000,1000,1000,1000,0,0,0,0,0,0,0,0,0,0
1683189886.59961605,110428311,1000,1000,1000,1000,0,0,0,0,0,0,0,0,0,0
1683189886.69957590,110528271,1000,1000,1000,1000,0,0,0,0,0,0,0,0,0,0
