timestamp,TimeUS,C1,C2,C3,C4,C5,C6,C7,C8,C9,C10,C11,C12,C13,C14
1684061737.14002419,240768654,1000,1000,1000,1000,0,0,0,0,0,0,0,0,0,0
1684061737.23998404,240868614,1000,1000,1000,1000,0,0,0,0,0,0,0,0,0,0
1684061737.33994412,240968574,1000,1000,1000,1000,0,0,0,0,0,0,0,0,0,0
1684061737.43990397,241068534,1000,1000,1000,1000,0,0,0,0,0,0,0,0,0,0
1684061737.53986406,241168494,1000,1000,1000,1000,0,0,0,0,0,0,0,0,0,0
1684061737.63982415,241268454,1000,1000,1000,1000,0,0,0,0,0,0,0,0,0,0
1684061737.73978400,241368414,1000,1000,1000,1000,0,0,0,0,0,0,0,0,0,0
1684061737.83974409,241468374,1000,1000,1000,1000,0,0,0,0,0,0,0,0,0,0
1684061737.93970418,241568334,1000,1000,1000,1000,0,0,0,0,0,0,0,0,0,0
1684061738.03966403,241668294,1000,1000,1000,1000,0,0,0,0,0,0,0,0,0,0
1684061738.13962412,241768254,1000,1000,1000,1000,0,0,0,0,0,0,0,0,0,0
1684061738.23958397,241868214,1000,1000,1000,1000,0,0,0,0,0,0,0,0,0,0
1684061738.33954406,241968174,1000,1000,1000,1000,0,0,0,0,0,0,0,0,0,0
1684061738.44033718,242068967,1000,1000,1000,1000,0,0,0,0,0,0,0,0,0,0
1684061738.54029703,242168927,1000,1000,1000,1000,0,0,0,0,0,0,0,0,0,0
1684061738.64025712,242268887,1000,1000,1000,1000,0,0,0,0,0,0,0,0,0,0
1684061738.74021697,242368847,1000,1000,1000,1000,0,0,0,0,0,0,0,0,0,0
1684061738.84017706,242468807,1000,1000,1000,1000,0,0,0,0,0,0,0,0,0,0
1684061738.94013715,242568767,1000,1000,1000,1000,0,0,0,0,0,0,0,0,0,0
1684061739.04009700,242668727,1000,1000,1000,1000,0,0,0,0,0,0,0,0,0,0
1684061739.14005709,242768687,1008,1008,1008,1008,0,0,0,0,0,0,0,0,0,0
1684061739.24001718,242868647,1038,1038,1038,1038,0,0,0,0,0,0,0,0,0,0
1684061739.33997703,242968607,1068,1068,1068,1068,0,0,0,0,0,0,0,0,0,0
1684061739.43993711,243068567,1098,1098,1098,1098,0,0,0,0,0,0,0,0,0,0
1684061739.53989697,243168527,1128,1128,1128,1128,0,0,0,0,0,0,0,0,0,0
1684061739.63985705,243268487,1241,1207,1209,1243,0,0,0,0,0,0,0,0,0,0
1684061739.73981714,243368447,1463,1437,1438,1465,0,0,0,0,0,0,0,0,0,0
1684061739.83977699,243468407,1631,1608,1609,1632,0,0,0,0,0,0,0,0,0,0
1684061739.93973708,243568367,1771,1749,1750,1773,0,0,0,0,0,0,0,0,0,0
1684061740.03969717,243668327,1895,1873,1874,1896,0,0,0,0,0,0,0,0,0,0
1684061740.13965702,243768287,1909,1895,1896,1909,0,0,0,0,0,0,0,0,0,0
1684061740.23961711,243868247,1787,1782,1783,1787,0,0,0,0,0,0,0,0,0,0
1684061740.33957696,243968207,1672,1674,1673,1675,0,0,0,0,0,0,0,0,0,0
1684061740.43953705,244068167,1624,1635,1631,1630,0,0,0,0,0,0,0,0,0,0
1684061740.54033017,244168960,1622,1635,1632,1626,0,0,0,0,0,0,0,0,0,0
1684061740.64029002,244268920,1631,1640,1639,1632,0,0,0,0,0,0,0,0,0,0
1684061740.74025011,244368880,1634,1637,1638,1632,0,0,0,0,0,0,0,0,0,0
1684061740.84020996,244468840,1632,1630,1632,1629,0,0,0,0,0,0,0,0,0,0
1684061740.94017005,244568800,1625,1619,1622,1622,0,0,0,0,0,0,0,0,0,0
1684061741.04013014,244668760,1620,1614,1616,1617,0,0,0,0,0,0,0,0,0,0
1684061741.14008999,244768720,1617,1614,1614,1616,0,0,0,0,0,0,0,0,0,0
1684061741.24005008,244868680,1616,1614,1614,1615,0,0,0,0,0,0,0,0,0,0
1684061741.34001017,244968640,1595,1597,1599,1591,0,0,0,0,0,0,0,0,0,0
1684061741.43997002,245068600,1575,1580,1585,1569,0,0,0,0,0,0,0,0,0,0
1684061741.53993011,245168560,1563,1567,1569,1561,0,0,0,0,0,0,0,0,0,0
1684061741.63989019,245268520,1556,1558,1556,1558,0,0,0,0,0,0,0,0,0,0
1684061741.73985004,245368480,1548,1547,1543,1553,0,0,0,0,0,0,0,0,0,0
1684061741.83981013,245468440,1543,1540,1532,1551,0,0,0,0,0,0,0,0,0,0
1684061741.93976998,245568400,1537,1534,1527,1543,0,0,0,0,0,0,0,0,0,0
1684061742.03973007,245668360,1532,1529,1525,1534,0,0,0,0,0,0,0,0,0,0
1684061742.13969016,245768320,1527,1526,1525,1526,0,0,0,0,0,0,0,0,0,0
1684061742.23965001,245868280,1527,1527,1528,1525,0,0,0,0,0,0,0,0,0,0
1684061742.33961010,245968240,1527,1528,1531,1524,0,0,0,0,0,0,0,0,0,0
1684061742.43957019,246068200,1530,1531,1534,1527,0,0,0,0,0,0,0,0,0,0
1684061742.53953004,246168160,1534,1535,1538,1533,0,0,0,0,0,0,0,0,0,0
1684061742.64032316,246268953,1538,1538,1540,1538,0,0,0,0,0,0,0,0,0,0
1684061742.74028301,246368913,1542,1542,1543,1542,0,0,0,0,0,0,0,0,0,0
1684061742.84024310,246468873,1545,1544,1546,1546,0,0,0,0,0,0,0,0,0,0
1684061742.94020319,246568833,1548,1548,1549,1549,0,0,0,0,0,0,0,0,0,0
1684061743.04016304,246668793,1551,1551,1552,1552,0,0,0,0,0,0,0,0,0,0
1684061743.14012313,246768753,1553,1554,1554,1554,0,0,0,0,0,0,0,0,0,0
1684061743.24008298,246868713,1556,1556,1556,1557,0,0,0,0,0,0,0,0,0,0
1684061743.34004307,246968673,1557,1557,1556,1557,0,0,0,0,0,0,0,0,0,0
1684061743.44000316,247068633,1559,1561,1558,1559,0,0,0,0,0,0,0,0,0,0
1684061743.53996301,247168593,1578,1579,1543,1545,0,0,0,0,0,0,0,0,0,0
1684061743.63992310,247268553,1578,1576,1546,1547,0,0,0,0,0,0,0,0,0,0
1684061743.73988318,247368513,1571,1568,1556,1557,0,0,0,0,0,0,0,0,0,0
1684061743.83984303,247468473,1565,1562,1567,1567,0,0,0,0,0,0,0,0,0,0
1684061743.93980312,247568433,1558,1557,1575,1574,0,0,0,0,0,0,0,0,0,0
1684061744.03976297,247668393,1554,1555,1580,1579,0,0,0,0,0,0,0,0,0,0
1684061744.13972306,247768353,1554,1556,1583,1582,0,0,0,0,0,0,0,0,0,0
1684061744.23968315,247868313,1555,1557,1582,1582,0,0,0,0,0,0,0,0,0,0
1684061744.33964300,247968273,1558,1560,1581,1581,0,0,0,0,0,0,0,0,0,0
1684061744.43960309,248068233,1563,1564,1578,1579,0,0,0,0,0,0,0,0,0,0
1684061744.53956318,248168193,1567,1567,1575,1575,0,0,0,0,0,0,0,0,0,0
1684061744.64035606,248268986,1573,1573,1574,1574,0,0,0,0,0,0,0,0,0,0
1684061744.74031615,248368946,1576,1576,1571,1570,0,0,0,0,0,0,0,0,0,0
1684061744.84027600,248468906,1579,1578,1569,1568,0,0,0,0,0,0,0,0,0,0
1684061744.94023609,248568866,1581,1581,1569,1568,0,0,0,0,0,0,0,0,0,0
1684061745.04019618,248668826,1582,1582,1568,1567,0,0,0,0,0,0,0,0,0,0
1684061745.14015603,248768786,1583,1583,1570,1569,0,0,0,0,0,0,0,0,0,0
1684061745.24011612,248868746,1582,1581,1570,1570,0,0,0,0,0,0,0,0,0,0
1684061745.34007597,248968706,1581,1581,1572,1572,0,0,0,0,0,0,0,0,0,0
1684061745.44003606,249068666,1579,1579,1572,1574,0,0,0,0,0,0,0,0,0,0
1684061745.53999615,249168626,1577,1578,1575,1575,0,0,0,0,0,0,0,0,0,0
1684061745.63995600,249268586,1576,1576,1577,1576,0,0,0,0,0,0,0,0,0,0
1684061745.73991609,249368546,1575,1575,1578,1578,0,0,0,0,0,0,0,0,0,0
1684061745.83987617,249468506,1575,1574,1578,1579,0,0,0,0,0,0,0,0,0,0
1684061745.93983603,249568466,1574,1575,1579,1579,0,0,0,0,0,0,0,0,0,0
1684061746.03979611,249668426,1575,1575,1581,1580,0,0,0,0,0,0,0,0,0,0
1684061746.13975596,249768386,1575,1575,1580,1580,0,0,0,0,0,0,0,0,0,0
1684061746.23971605,249868346,1575,1575,1579,1579,0,0,0,0,0,0,0,0,0,0
1684061746.33967614,249968306,1576,1577,1579,1579,0,0,0,0,0,0,0,0,0,0
1684061746.43963599,250068266,1577,1577,1579,1579,0,0,0,0,0,0,0,0,0,0
1684061746.53959608,250168226,1578,1578,1579,1579,0,0,0,0,0,0,0,0,0,0
1684061746.63955617,250268186,1579,1578,1577,1577,0,0,0,0,0,0,0,0,0,0
1684061746.74034905,250368979,1580,1579,1578,1578,0,0,0,0,0,0,0,0,0,0
1684061746.84030914,250468939,1579,1579,1577,1577,0,0,0,0,0,0,0,0,0,0
1684061746.94026899,250568899,1580,1580,1578,1578,0,0,0,0,0,0,0,0,0,0
1684061747.04022908,250668859,1580,1580,1578,1578,0,0,0,0,0,0,0,0,0,0
1684061747.14018917,250768819,1580,1579,1578,1578,0,0,0,0,0,0,0,0,0,0
1684061747.24014902,250868779,1580,1580,1579,1579,0,0,0,0,0,0,0,0,0,0
1684061747.34010911,250968739,1580,1580,1580,1580,0,0,0,0,0,0,0,0,0,0
1684061747.44006896,251068699,1580,1580,1580,1580,0,0,0,0,0,0,0,0,0,0
1684061747.54002905,251168659,1579,1579,1580,1580,0,0,0,0,0,0,0,0,0,0
1684061747.63998914,251268619,1579,1579,1580,1580,0,0,0,0,0,0,0,0,0,0
1684061747.73994899,251368579,1580,1580,1581,1581,0,0,0,0,0,0,0,0,0,0
1684061747.83990908,251468539,1579,1579,1580,1580,0,0,0,0,0,0,0,0,0,0
1684061747.93986917,251568499,1579,1579,1581,1580,0,0,0,0,0,0,0,0,0,0
1684061748.03982902,251668459,1579,1579,1581,1580,0,0,0,0,0,0,0,0,0,0
1684061748.13978910,251768419,1580,1580,1581,1581,0,0,0,0,0,0,0,0,0,0
1684061748.23974919,251868379,1580,1580,1581,1581,0,0,0,0,0,0,0,0,0,0
1684061748.33970904,251968339,1579,1579,1579,1580,0,0,0,0,0,0,0,0,0,0
1684061748.43966913,252068299,1579,1579,1579,1579,0,0,0,0,0,0,0,0,0,0
1684061748.53962898,252168259,1579,1579,1578,1579,0,0,0,0,0,0,0,0,0,0
1684061748.63958907,252268219,1580,1580,1580,1580,0,0,0,0,0,0,0,0,0,0
1684061748.73954916,252368179,1580,1579,1579,1579,0,0,0,0,0,0,0,0,0,0
1684061748.84034204,252468972,1579,1579,1579,1579,0,0,0,0,0,0,0,0,0,0
1684061748.94030213,252568932,1580,1580,1580,1580,0,0,0,0,0,0,0,0,0,0
1684061749.04026198,252668892,1580,1580,1581,1580,0,0,0,0,0,0,0,0,0,0
1684061749.14022207,252768852,1581,1581,1581,1581,0,0,0,0,0,0,0,0,0,0
1684061749.24018216,252868812,1581,1580,1580,1580,0,0,0,0,0,0,0,0,0,0
1684061749.34014201,252968772,1580,1580,1580,1581,0,0,0,0,0,0,0,0,0,0
1684061749.44010210,253068732,1580,1580,1580,1581,0,0,0,0,0,0,0,0,0,0
1684061749.54006219,253168692,1580,1582,1585,1577,0,0,0,0,0,0,0,0,0,0
1684061749.64002204,253268652,1580,1583,1587,1572,0,0,0,0,0,0,0,0,0,0
1684061749.73998213,253368612,1580,1584,1582,1573,0,0,0,0,0,0,0,0,0,0
1684061749.83994198,253468572,1579,1581,1571,1571,0,0,0,0,0,0,0,0,0,0
1684061749.93990207,253568532,1579,1581,1564,1570,0,0,0,0,0,0,0,0,0,0
1684061750.03986216,253668492,1579,1580,1557,1565,0,0,0,0,0,0,0,0,0,0
1684061750.13982201,253768452,1581,1581,1554,1560,0,0,0,0,0,0,0,0,0,0
1684061750.23978209,253868412,1582,1580,1553,1555,0,0,0,0,0,0,0,0,0,0
1684061750.33974218,253968372,1582,1580,1553,1552,0,0,0,0,0,0,0,0,0,0
1684061750.43970203,254068332,1582,1581,1554,1552,0,0,0,0,0,0,0,0,0,0
1684061750.53966212,254168292,1581,1582,1555,1553,0,0,0,0,0,0,0,0,0,0
1684061750.63962197,254268252,1579,1581,1554,1552,0,0,0,0,0,0,0,0,0,0
1684061750.73958206,254368212,1579,1580,1553,1552,0,0,0,0,0,0,0,0,0,0
1684061750.83954215,254468172,1578,1580,1552,1552,0,0,0,0,0,0,0,0,0,0
1684061750.94033504,254568965,1579,1581,1551,1551,0,0,0,0,0,0,0,0,0,0
1684061751.04029512,254668925,1579,1581,1549,1549,0,0,0,0,0,0,0,0,0,0
1684061751.14025497,254768885,1582,1583,1547,1547,0,0,0,0,0,0,0,0,0,0
1684061751.24021506,254868845,1584,1585,1544,1544,0,0,0,0,0,0,0,0,0,0
1684061751.34017515,254968805,1587,1587,1542,1541,0,0,0,0,0,0,0,0,0,0
1684061751.44013500,255068765,1590,1590,1540,1539,0,0,0,0,0,0,0,0,0,0
1684061751.54009509,255168725,1593,1594,1538,1538,0,0,0,0,0,0,0,0,0,0
1684061751.64005518,255268685,1596,1595,1537,1537,0,0,0,0,0,0,0,0,0,0
1684061751.74001503,255368645,1596,1596,1535,1537,0,0,0,0,0,0,0,0,0,0
1684061751.83997512,255468605,1596,1596,1536,1539,0,0,0,0,0,0,0,0,0,0
1684061751.93993497,255568565,1595,1594,1539,1542,0,0,0,0,0,0,0,0,0,0
1684061752.03989506,255668525,1591,1589,1545,1548,0,0,0,0,0,0,0,0,0,0
1684061752.13985515,255768485,1585,1582,1553,1556,0,0,0,0,0,0,0,0,0,0
1684061752.23981500,255868445,1576,1573,1564,1567,0,0,0,0,0,0,0,0,0,0
1684061752.33977509,255968405,1565,1561,1576,1578,0,0,0,0,0,0,0,0,0,0
1684061752.43973517,256068365,1554,1551,1590,1591,0,0,0,0,0,0,0,0,0,0
1684061752.53969502,256168325,1543,1540,1601,1601,0,0,0,0,0,0,0,0,0,0
1684061752.63965511,256268285,1533,1533,1610,1609,0,0,0,0,0,0,0,0,0,0
1684061752.73961496,256368245,1529,1530,1616,1614,0,0,0,0,0,0,0,0,0,0
1684061752.83957505,256468205,1528,1530,1617,1616,0,0,0,0,0,0,0,0,0,0
1684061752.93953514,256568165,1531,1534,1615,1614,0,0,0,0,0,0,0,0,0,0
1684061753.04032803,256668958,1538,1540,1610,1610,0,0,0,0,0,0,0,0,0,0
1684061753.14028811,256768918,1545,1547,1603,1604,0,0,0,0,0,0,0,0,0,0
1684061753.24024796,256868878,1555,1556,1596,1596,0,0,0,0,0,0,0,0,0,0
1684061753.34020805,256968838,1563,1564,1588,1587,0,0,0,0,0,0,0,0,0,0
1684061753.44016814,257068798,1572,1571,1580,1579,0,0,0,0,0,0,0,0,0,0
1684061753.54012799,257168758,1578,1577,1573,1573,0,0,0,0,0,0,0,0,0,0
1684061753.64008808,257268718,1584,1583,1569,1569,0,0,0,0,0,0,0,0,0,0
1684061753.74004817,257368678,1588,1587,1568,1567,0,0,0,0,0,0,0,0,0,0
1684061753.84000802,257468638,1588,1587,1566,1565,0,0,0,0,0,0,0,0,0,0
1684061753.93996811,257568598,1588,1586,1566,1566,0,0,0,0,0,0,0,0,0,0
1684061754.03992796,257668558,1585,1584,1567,1568,0,0,0,0,0,0,0,0,0,0
1684061754.13988805,257768518,1582,1582,1569,1570,0,0,0,0,0,0,0,0,0,0
1684061754.23984814,257868478,1580,1580,1573,1574,0,0,0,0,0,0,0,0,0,0
1684061754.33980799,257968438,1362,1365,1620,1625,0,0,0,0,0,0,0,0,0,0
1684061754.43976808,258068398,1427,1433,1639,1642,0,0,0,0,0,0,0,0,0,0
1684061754.53972816,258168358,1481,1490,1633,1629,0,0,0,0,0,0,0,0,0,0
1684061754.63968801,258268318,1530,1537,1621,1614,0,0,0,0,0,0,0,0,0,0
1684061754.73964810,258368278,1568,1569,1610,1603,0,0,0,0,0,0,0,0,0,0
1684061754.83960819,258468238,1595,1592,1602,1598,0,0,0,0,0,0,0,0,0,0
1684061754.93956804,258568198,1617,1606,1592,1591,0,0,0,0,0,0,0,0,0,0
1684061755.03952813,258668158,1640,1629,1569,1573,0,0,0,0,0,0,0,0,0,0
1684061755.14032102,258768951,1660,1650,1544,1553,0,0,0,0,0,0,0,0,0,0
1684061755.24028111,258868911,1661,1656,1540,1550,0,0,0,0,0,0,0,0,0,0
1684061755.34024119,258968871,1650,1653,1547,1554,0,0,0,0,0,0,0,0,0,0
1684061755.44020104,259068831,1638,1645,1554,1556,0,0,0,0,0,0,0,0,0,0
1684061755.54016113,259168791,1628,1636,1561,1559,0,0,0,0,0,0,0,0,0,0
1684061755.64012098,259268751,1622,1627,1567,1562,0,0,0,0,0,0,0,0,0,0
1684061755.74008107,259368711,1617,1619,1570,1566,0,0,0,0,0,0,0,0,0,0
1684061755.84004116,259468671,1614,1612,1571,1569,0,0,0,0,0,0,0,0,0,0
1684061755.94000101,259568631,1610,1606,1571,1571,0,0,0,0,0,0,0,0,0,0
1684061756.03996110,259668591,1606,1602,1571,1571,0,0,0,0,0,0,0,0,0,0
1684061756.13992119,259768551,1603,1600,1570,1572,0,0,0,0,0,0,0,0,0,0
1684061756.23988104,259868511,1598,1597,1569,1570,0,0,0,0,0,0,0,0,0,0
1684061756.33984113,259968471,1594,1595,1568,1568,0,0,0,0,0,0,0,0,0,0
1684061756.43980098,260068431,1590,1589,1574,1573,0,0,0,0,0,0,0,0,0,0
1684061756.53976107,260168391,1577,1575,1586,1585,0,0,0,0,0,0,0,0,0,0
1684061756.63972116,260268351,1563,1560,1599,1599,0,0,0,0,0,0,0,0,0,0
1684061756.73968101,260368311,1551,1551,1608,1608,0,0,0,0,0,0,0,0,0,0
1684061756.83964109,260468271,1545,1548,1609,1610,0,0,0,0,0,0,0,0,0,0
1684061756.93960118,260568231,1546,1551,1608,1608,0,0,0,0,0,0,0,0,0,0
1684061757.03956103,260668191,1548,1553,1603,1602,0,0,0,0,0,0,0,0,0,0
1684061757.14035416,260768984,1554,1558,1599,1597,0,0,0,0,0,0,0,0,0,0
1684061757.24031401,260868944,1561,1564,1594,1592,0,0,0,0,0,0,0,0,0,0
1684061757.34027410,260968904,1567,1568,1590,1587,0,0,0,0,0,0,0,0,0,0
1684061757.44023418,261068864,1577,1573,1589,1573,0,0,0,0,0,0,0,0,0,0
1684061757.54019403,261168824,1588,1580,1575,1566,0,0,0,0,0,0,0,0,0,0
1684061757.64015412,261268784,1595,1587,1557,1559,0,0,0,0,0,0,0,0,0,0
1684061757.74011397,261368744,1598,1594,1543,1550,0,0,0,0,0,0,0,0,0,0
1684061757.84007406,261468704,1599,1599,1537,1543,0,0,0,0,0,0,0,0,0,0
1684061757.94003415,261568664,1598,1601,1535,1538,0,0,0,0,0,0,0,0,0,0
1684061758.03999400,261668624,1594,1599,1537,1536,0,0,0,0,0,0,0,0,0,0
1684061758.13995409,261768584,1590,1594,1542,1539,0,0,0,0,0,0,0,0,0,0
1684061758.23991418,261868544,1585,1587,1548,1545,0,0,0,0,0,0,0,0,0,0
1684061758.33987403,261968504,1578,1580,1553,1552,0,0,0,0,0,0,0,0,0,0
1684061758.43983412,262068464,1572,1573,1559,1558,0,0,0,0,0,0,0,0,0,0
1684061758.53979397,262168424,1566,1567,1563,1562,0,0,0,0,0,0,0,0,0,0
1684061758.63975406,262268384,1563,1563,1565,1565,0,0,0,0,0,0,0,0,0,0
1684061758.73971415,262368344,1561,1562,1564,1564,0,0,0,0,0,0,0,0,0,0
1684061758.83967400,262468304,1561,1563,1560,1560,0,0,0,0,0,0,0,0,0,0
1684061758.93963408,262568264,1564,1565,1555,1555,0,0,0,0,0,0,0,0,0,0
1684061759.03959417,262668224,1569,1570,1549,1548,0,0,0,0,0,0,0,0,0,0
1684061759.13955402,262768184,1575,1577,1542,1541,0,0,0,0,0,0,0,0,0,0
1684061759.24034715,262868977,1582,1583,1536,1535,0,0,0,0,0,0,0,0,0,0
1684061759.34030700,262968937,1588,1588,1531,1531,0,0,0,0,0,0,0,0,0,0
1684061759.44026709,263068897,1592,1592,1529,1529,0,0,0,0,0,0,0,0,0,0
1684061759.54022717,263168857,1593,1593,1530,1531,0,0,0,0,0,0,0,0,0,0
1684061759.64018703,263268817,1592,1591,1533,1536,0,0,0,0,0,0,0,0,0,0
1684061759.74014711,263368777,1590,1590,1537,1540,0,0,0,0,0,0,0,0,0,0
1684061759.84010696,263468737,1588,1588,1541,1544,0,0,0,0,0,0,0,0,0,0
1684061759.94006705,263568697,1587,1588,1545,1547,0,0,0,0,0,0,0,0,0,0
1684061760.04002714,263668657,1585,1584,1550,1553,0,0,0,0,0,0,0,0,0,0
1684061760.13998699,263768617,1577,1576,1557,1561,0,0,0,0,0,0,0,0,0,0
1684061760.23994708,263868577,1570,1569,1565,1569,0,0,0,0,0,0,0,0,0,0
1684061760.33990717,263968537,1564,1562,1573,1576,0,0,0,0,0,0,0,0,0,0
1684061760.43986702,264068497,1557,1556,1578,1581,0,0,0,0,0,0,0,0,0,0
1684061760.53982711,264168457,1553,1553,1584,1585,0,0,0,0,0,0,0,0,0,0
1684061760.63978696,264268417,1549,1549,1588,1587,0,0,0,0,0,0,0,0,0,0
1684061760.73974705,264368377,1546,1546,1591,1589,0,0,0,0,0,0,0,0,0,0
1684061760.83970714,264468337,1545,1545,1593,1592,0,0,0,0,0,0,0,0,0,0
1684061760.93966699,264568297,1545,1545,1595,1593,0,0,0,0,0,0,0,0,0,0
1684061761.03962708,264668257,1545,1545,1596,1594,0,0,0,0,0,0,0,0,0,0
1684061761.13958716,264768217,1546,1547,1594,1594,0,0,0,0,0,0,0,0,0,0
1684061761.23954701,264868177,1548,1549,1593,1593,0,0,0,0,0,0,0,0,0,0
1684061761.34034014,264968970,1550,1552,1591,1591,0,0,0,0,0,0,0,0,0,0
1684061761.44029999,265068930,1554,1556,1589,1590,0,0,0,0,0,0,0,0,0,0
1684061761.54026008,265168890,1558,1559,1586,1586,0,0,0,0,0,0,0,0,0,0
1684061761.64022017,265268850,1563,1563,1585,1584,0,0,0,0,0,0,0,0,0,0
1684061761.74018002,265368810,1566,1566,1581,1580,0,0,0,0,0,0,0,0,0,0
1684061761.84014010,265468770,1570,1570,1581,1579,0,0,0,0,0,0,0,0,0,0
1684061761.94010019,265568730,1574,1573,1579,1578,0,0,0,0,0,0,0,0,0,0
1684061762.04006004,265668690,1576,1575,1576,1576,0,0,0,0,0,0,0,0,0,0
1684061762.14002013,265768650,1578,1577,1574,1575,0,0,0,0,0,0,0,0,0,0
1684061762.23997998,265868610,1580,1579,1575,1575,0,0,0,0,0,0,0,0,0,0
1684061762.33994007,265968570,1580,1580,1573,1573,0,0,0,0,0,0,0,0,0,0
1684061762.43990016,266068530,1581,1581,1573,1573,0,0,0,0,0,0,0,0,0,0
1684061762.53986001,266168490,1581,1581,1573,1573,0,0,0,0,0,0,0,0,0,0
1684061762.63982010,266268450,1583,1583,1575,1574,0,0,0,0,0,0,0,0,0,0
1684061762.73978019,266368410,1582,1582,1575,1574,0,0,0,0,0,0,0,0,0,0
1684061762.83974004,266468370,1582,1582,1575,1575,0,0,0,0,0,0,0,0,0,0
1684061762.93970013,266568330,1582,1581,1575,1575,0,0,0,0,0,0,0,0,0,0
1684061763.03965998,266668290,1581,1581,1575,1575,0,0,0,0,0,0,0,0,0,0
1684061763.13962007,266768250,1581,1581,1576,1576,0,0,0,0,0,0,0,0,0,0
1684061763.23958015,266868210,1581,1581,1577,1577,0,0,0,0,0,0,0,0,0,0
1684061763.33954000,266968170,1580,1580,1577,1577,0,0,0,0,0,0,0,0,0,0
1684061763.44033313,267068963,1580,1580,1578,1578,0,0,0,0,0,0,0,0,0,0
1684061763.54029298,267168923,1580,1581,1580,1579,0,0,0,0,0,0,0,0,0,0
1684061763.64025307,267268883,1579,1580,1579,1579,0,0,0,0,0,0,0,0,0,0
1684061763.74021316,267368843,1579,1579,1579,1579,0,0,0,0,0,0,0,0,0,0
1684061763.84017301,267468803,1579,1579,1579,1579,0,0,0,0,0,0,0,0,0,0
1684061763.94013309,267568763,1578,1579,1579,1579,0,0,0,0,0,0,0,0,0,0
1684061764.04009318,267668723,1578,1578,1579,1579,0,0,0,0,0,0,0,0,0,0
1684061764.14005303,267768683,1580,1579,1581,1580,0,0,0,0,0,0,0,0,0,0
1684061764.24001312,267868643,1579,1579,1580,1580,0,0,0,0,0,0,0,0,0,0
1684061764.33997297,267968603,1579,1579,1580,1580,0,0,0,0,0,0,0,0,0,0
1684061764.43993306,268068563,1579,1579,1580,1580,0,0,0,0,0,0,0,0,0,0
1684061764.53989315,268168523,1579,1579,1579,1579,0,0,0,0,0,0,0,0,0,0
1684061764.63985300,268268483,1579,1579,1579,1579,0,0,0,0,0,0,0,0,0,0
1684061764.73981309,268368443,1580,1580,1580,1580,0,0,0,0,0,0,0,0,0,0
1684061764.83977318,268468403,1580,1580,1580,1580,0,0,0,0,0,0,0,0,0,0
1684061764.93973303,268568363,1580,1580,1580,1580,0,0,0,0,0,0,0,0,0,0
1684061765.03969312,268668323,1580,1580,1580,1580,0,0,0,0,0,0,0,0,0,0
1684061765.13965297,268768283,1580,1580,1581,1580,0,0,0,0,0,0,0,0,0,0
1684061765.23961306,268868243,1581,1581,1581,1581,0,0,0,0,0,0,0,0,0,0
1684061765.33957314,268968203,1581,1580,1580,1580,0,0,0,0,0,0,0,0,0,0
1684061765.43953300,269068163,1581,1581,1580,1581,0,0,0,0,0,0,0,0,0,0
1684061765.54032612,269168956,1581,1581,1581,1581,0,0,0,0,0,0,0,0,0,0
1684061765.64028597,269268916,1581,1581,1581,1581,0,0,0,0,0,0,0,0,0,0
1684061765.74024606,269368876,1581,1582,1581,1581,0,0,0,0,0,0,0,0,0,0
1684061765.84020615,269468836,1581,1581,1581,1581,0,0,0,0,0,0,0,0,0,0
1684061765.94016600,269568796,1582,1582,1581,1581,0,0,0,0,0,0,0,0,0,0
1684061766.04012609,269668756,1582,1582,1581,1581,0,0,0,0,0,0,0,0,0,0
1684061766.14008617,269768716,1581,1582,1586,1576,0,0,0,0,0,0,0,0,0,0
1684061766.24004602,269868676,1582,1582,1587,1573,0,0,0,0,0,0,0,0,0,0
1684061766.34000611,269968636,1581,1582,1580,1574,0,0,0,0,0,0,0,0,0,0
1684061766.43996596,270068596,1579,1580,1570,1572,0,0,0,0,0,0,0,0,0,0
1684061766.53992605,270168556,1578,1580,1563,1569,0,0,0,0,0,0,0,0,0,0
1684061766.63988614,270268516,1577,1579,1558,1564,0,0,0,0,0,0,0,0,0,0
1684061766.73984599,270368476,1577,1579,1556,1560,0,0,0,0,0,0,0,0,0,0
1684061766.83980608,270468436,1577,1578,1556,1557,0,0,0,0,0,0,0,0,0,0
1684061766.93976617,270568396,1578,1579,1557,1556,0,0,0,0,0,0,0,0,0,0
1684061767.03972602,270668356,1579,1578,1557,1555,0,0,0,0,0,0,0,0,0,0
1684061767.13968611,270768316,1579,1578,1557,1555,0,0,0,0,0,0,0,0,0,0
1684061767.23964596,270868276,1578,1578,1556,1554,0,0,0,0,0,0,0,0,0,0
1684061767.33960605,270968236,1578,1579,1555,1554,0,0,0,0,0,0,0,0,0,0
1684061767.43956614,271068196,1578,1579,1554,1554,0,0,0,0,0,0,0,0,0,0
1684061767.53952599,271168156,1578,1579,1552,1552,0,0,0,0,0,0,0,0,0,0
1684061767.64031911,271268949,1578,1579,1551,1551,0,0,0,0,0,0,0,0,0,0
1684061767.74027896,271368909,1579,1581,1549,1550,0,0,0,0,0,0,0,0,0,0
1684061767.84023905,271468869,1581,1582,1548,1548,0,0,0,0,0,0,0,0,0,0
1684061767.94019914,271568829,1583,1584,1547,1547,0,0,0,0,0,0,0,0,0,0
1684061768.04015899,271668789,1584,1585,1545,1545,0,0,0,0,0,0,0,0,0,0
1684061768.14011908,271768749,1586,1587,1544,1544,0,0,0,0,0,0,0,0,0,0
1684061768.24007916,271868709,1587,1587,1543,1542,0,0,0,0,0,0,0,0,0,0
1684061768.34003901,271968669,1589,1589,1543,1543,0,0,0,0,0,0,0,0,0,0
1684061768.43999910,272068629,1590,1589,1543,1544,0,0,0,0,0,0,0,0,0,0
1684061768.53995919,272168589,1590,1590,1544,1545,0,0,0,0,0,0,0,0,0,0
1684061768.63991904,272268549,1590,1590,1545,1548,0,0,0,0,0,0,0,0,0,0
1684061768.73987913,272368509,1588,1587,1548,1550,0,0,0,0,0,0,0,0,0,0
1684061768.83983898,272468469,1585,1584,1552,1555,0,0,0,0,0,0,0,0,0,0
1684061768.93979907,272568429,1581,1579,1559,1562,0,0,0,0,0,0,0,0,0,0
1684061769.03975916,272668389,1576,1573,1566,1568,0,0,0,0,0,0,0,0,0,0
1684061769.13971901,272768349,1569,1565,1574,1576,0,0,0,0,0,0,0,0,0,0
1684061769.23967910,272868309,1561,1558,1584,1586,0,0,0,0,0,0,0,0,0,0
1684061769.33963919,272968269,1551,1550,1593,1594,0,0,0,0,0,0,0,0,0,0
1684061769.43959904,273068229,1544,1544,1602,1602,0,0,0,0,0,0,0,0,0,0
1684061769.53955913,273168189,1539,1539,1608,1607,0,0,0,0,0,0,0,0,0,0
1684061769.64035201,273268982,1536,1538,1611,1609,0,0,0,0,0,0,0,0,0,0
1684061769.74031210,273368942,1536,1538,1611,1610,0,0,0,0,0,0,0,0,0,0
1684061769.84027219,273468902,1538,1541,1607,1607,0,0,0,0,0,0,0,0,0,0
1684061769.94023204,273568862,1543,1545,1602,1602,0,0,0,0,0,0,0,0,0,0
1684061770.04019213,273668822,1550,1552,1597,1596,0,0,0,0,0,0,0,0,0,0
1684061770.14015198,273768782,1558,1558,1590,1589,0,0,0,0,0,0,0,0,0,0
1684061770.24011207,273868742,1566,1565,1584,1583,0,0,0,0,0,0,0,0,0,0
1684061770.34007215,273968702,1572,1572,1578,1577,0,0,0,0,0,0,0,0,0,0
1684061770.44003201,274068662,1578,1577,1572,1572,0,0,0,0,0,0,0,0,0,0
1684061770.53999209,274168622,1583,1582,1569,1569,0,0,0,0,0,0,0,0,0,0
1684061770.63995218,274268582,1586,1584,1566,1566,0,0,0,0,0,0,0,0,0,0
1684061770.73991203,274368542,1588,1586,1566,1566,0,0,0,0,0,0,0,0,0,0
1684061770.83987212,274468502,1589,1587,1567,1568,0,0,0,0,0,0,0,0,0,0
1684061770.93983197,274568462,1587,1587,1569,1569,0,0,0,0,0,0,0,0,0,0
1684061771.03979206,274668422,1586,1586,1572,1572,0,0,0,0,0,0,0,0,0,0
1684061771.13975215,274768382,1584,1583,1573,1573,0,0,0,0,0,0,0,0,0,0
1684061771.23971200,274868342,1581,1582,1576,1576,0,0,0,0,0,0,0,0,0,0
1684061771.33967209,274968302,1578,1579,1578,1578,0,0,0,0,0,0,0,0,0,0
1684061771.43963218,275068262,1577,1577,1581,1581,0,0,0,0,0,0,0,0,0,0
1684061771.53959203,275168222,1576,1576,1583,1583,0,0,0,0,0,0,0,0,0,0
1684061771.63955212,275268182,1575,1576,1585,1584,0,0,0,0,0,0,0,0,0,0
1684061771.74034500,275368975,1574,1575,1585,1585,0,0,0,0,0,0,0,0,0,0
1684061771.84030509,275468935,1574,1575,1585,1585,0,0,0,0,0,0,0,0,0,0
1684061771.94026518,275568895,1575,1575,1584,1584,0,0,0,0,0,0,0,0,0,0
1684061772.04022503,275668855,1575,1576,1583,1584,0,0,0,0,0,0,0,0,0,0
1684061772.14018512,275768815,1575,1576,1581,1582,0,0,0,0,0,0,0,0,0,0
1684061772.24014497,275868775,1576,1576,1579,1580,0,0,0,0,0,0,0,0,0,0
1684061772.34010506,275968735,1577,1578,1578,1579,0,0,0,0,0,0,0,0,0,0
1684061772.44006515,276068695,1579,1579,1578,1578,0,0,0,0,0,0,0,0,0,0
1684061772.54002500,276168655,1581,1581,1579,1578,0,0,0,0,0,0,0,0,0,0
1684061772.63998508,276268615,1582,1581,1578,1577,0,0,0,0,0,0,0,0,0,0
1684061772.73994517,276368575,1583,1582,1579,1578,0,0,0,0,0,0,0,0,0,0
1684061772.83990502,276468535,1583,1582,1578,1578,0,0,0,0,0,0,0,0,0,0
1684061772.93986511,276568495,1583,1582,1579,1579,0,0,0,0,0,0,0,0,0,0
1684061773.03982496,276668455,1583,1583,1579,1580,0,0,0,0,0,0,0,0,0,0
1684061773.13978505,276768415,1582,1582,1579,1579,0,0,0,0,0,0,0,0,0,0
1684061773.23974514,276868375,1581,1581,1579,1579,0,0,0,0,0,0,0,0,0,0
1684061773.33970499,276968335,1581,1581,1580,1580,0,0,0,0,0,0,0,0,0,0
1684061773.43966508,277068295,1581,1582,1582,1582,0,0,0,0,0,0,0,0,0,0
1684061773.53962517,277168255,1581,1581,1582,1582,0,0,0,0,0,0,0,0,0,0
1684061773.63958502,277268215,1581,1581,1582,1582,0,0,0,0,0,0,0,0,0,0
1684061773.73954511,277368175,1581,1581,1582,1582,0,0,0,0,0,0,0,0,0,0
1684061773.84033799,277468968,1581,1580,1583,1582,0,0,0,0,0,0,0,0,0,0
1684061773.94029808,277568928,1581,1581,1583,1583,0,0,0,0,0,0,0,0,0,0
1684061774.04025817,277668888,1580,1581,1581,1582,0,0,0,0,0,0,0,0,0,0
1684061774.14021802,277768848,1581,1581,1585,1578,0,0,0,0,0,0,0,0,0,0
1684061774.24017811,277868808,1581,1581,1588,1573,0,0,0,0,0,0,0,0,0,0
1684061774.34013796,277968768,1579,1579,1582,1574,0,0,0,0,0,0,0,0,0,0
1684061774.44009805,278068728,1576,1575,1573,1574,0,0,0,0,0,0,0,0,0,0
1684061774.54005814,278168688,1574,1573,1567,1574,0,0,0,0,0,0,0,0,0,0
1684061774.64001799,278268648,1571,1570,1564,1571,0,0,0,0,0,0,0,0,0,0
1684061774.73997808,278368608,1569,1569,1563,1569,0,0,0,0,0,0,0,0,0,0
1684061774.83993816,278468568,1567,1568,1564,1567,0,0,0,0,0,0,0,0,0,0
1684061774.93989801,278568528,1567,1568,1567,1566,0,0,0,0,0,0,0,0,0,0
1684061775.03985810,278668488,1566,1567,1568,1565,0,0,0,0,0,0,0,0,0,0
1684061775.13981819,278768448,1566,1566,1569,1566,0,0,0,0,0,0,0,0,0,0
1684061775.23977804,278868408,1566,1566,1568,1566,0,0,0,0,0,0,0,0,0,0
1684061775.33973813,278968368,1566,1565,1568,1567,0,0,0,0,0,0,0,0,0,0
1684061775.43969798,279068328,1565,1565,1567,1567,0,0,0,0,0,0,0,0,0,0
1684061775.53965807,279168288,1563,1563,1564,1565,0,0,0,0,0,0,0,0,0,0
1684061775.63961816,279268248,1563,1563,1564,1565,0,0,0,0,0,0,0,0,0,0
1684061775.73957801,279368208,1562,1563,1563,1563,0,0,0,0,0,0,0,0,0,0
1684061775.83953810,279468168,1563,1563,1564,1563,0,0,0,0,0,0,0,0,0,0
1684061775.94033098,279568961,1562,1562,1563,1561,0,0,0,0,0,0,0,0,0,0
1684061776.04029107,279668921,1562,1562,1562,1561,0,0,0,0,0,0,0,0,0,0
1684061776.14025116,279768881,1561,1560,1561,1560,0,0,0,0,0,0,0,0,0,0
1684061776.24021101,279868841,1561,1561,1560,1560,0,0,0,0,0,0,0,0,0,0
1684061776.34017110,279968801,1560,1560,1560,1559,0,0,0,0,0,0,0,0,0,0
1684061776.44013119,280068761,1560,1559,1560,1558,0,0,0,0,0,0,0,0,0,0
1684061776.54009104,280168721,1559,1559,1560,1558,0,0,0,0,0,0,0,0,0,0
1684061776.64005113,280268681,1560,1559,1561,1559,0,0,0,0,0,0,0,0,0,0
1684061776.74001098,280368641,1559,1559,1560,1558,0,0,0,0,0,0,0,0,0,0
1684061776.83997107,280468601,1559,1558,1560,1557,0,0,0,0,0,0,0,0,0,0
1684061776.93993115,280568561,1560,1559,1561,1560,0,0,0,0,0,0,0,0,0,0
1684061777.03989100,280668521,1560,1560,1559,1563,0,0,0,0,0,0,0,0,0,0
1684061777.13985109,280768481,1560,1561,1558,1564,0,0,0,0,0,0,0,0,0,0
1684061777.23981118,280868441,1561,1561,1558,1565,0,0,0,0,0,0,0,0,0,0
1684061777.33977103,280968401,1561,1562,1559,1565,0,0,0,0,0,0,0,0,0,0
1684061777.43973112,281068361,1561,1562,1561,1563,0,0,0,0,0,0,0,0,0,0
1684061777.53969097,281168321,1562,1562,1563,1560,0,0,0,0,0,0,0,0,0,0
1684061777.63965106,281268281,1562,1561,1563,1558,0,0,0,0,0,0,0,0,0,0
1684061777.73961115,281368241,1562,1561,1560,1560,0,0,0,0,0,0,0,0,0,0
1684061777.83957100,281468201,1560,1560,1556,1560,0,0,0,0,0,0,0,0,0,0
1684061777.93953109,281568161,1556,1556,1552,1556,0,0,0,0,0,0,0,0,0,0
1684061778.04032397,281668954,1552,1552,1547,1549,0,0,0,0,0,0,0,0,0,0
1684061778.14028406,281768914,1546,1546,1541,1541,0,0,0,0,0,0,0,0,0,0
1684061778.24024415,281868874,1539,1539,1535,1534,0,0,0,0,0,0,0,0,0,0
1684061778.34020400,281968834,1532,1532,1528,1526,0,0,0,0,0,0,0,0,0,0
1684061778.44016409,282068794,1525,1525,1521,1520,0,0,0,0,0,0,0,0,0,0
1684061778.54012418,282168754,1522,1521,1519,1519,0,0,0,0,0,0,0,0,0,0
1684061778.64008403,282268714,1519,1519,1519,1519,0,0,0,0,0,0,0,0,0,0
1684061778.74004412,282368674,1519,1519,1521,1522,0,0,0,0,0,0,0,0,0,0
1684061778.84000397,282468634,1520,1519,1524,1525,0,0,0,0,0,0,0,0,0,0
1684061778.93996406,282568594,1522,1522,1529,1529,0,0,0,0,0,0,0,0,0,0
1684061779.03992414,282668554,1526,1526,1535,1535,0,0,0,0,0,0,0,0,0,0
1684061779.13988400,282768514,1530,1531,1539,1539,0,0,0,0,0,0,0,0,0,0
1684061779.23984408,282868474,1534,1534,1542,1542,0,0,0,0,0,0,0,0,0,0
1684061779.33980417,282968434,1537,1537,1543,1543,0,0,0,0,0,0,0,0,0,0
1684061779.43976402,283068394,1540,1540,1544,1544,0,0,0,0,0,0,0,0,0,0
1684061779.53972411,283168354,1542,1543,1544,1544,0,0,0,0,0,0,0,0,0,0
1684061779.63968396,283268314,1544,1545,1544,1544,0,0,0,0,0,0,0,0,0,0
1684061779.73964405,283368274,1546,1546,1544,1543,0,0,0,0,0,0,0,0,0,0
1684061779.83960414,283468234,1548,1548,1544,1544,0,0,0,0,0,0,0,0,0,0
1684061779.93956399,283568194,1549,1549,1544,1544,0,0,0,0,0,0,0,0,0,0
1684061780.03952408,283668154,1550,1550,1545,1545,0,0,0,0,0,0,0,0,0,0
1684061780.14031696,283768947,1550,1550,1545,1545,0,0,0,0,0,0,0,0,0,0
1684061780.24027705,283868907,1549,1549,1544,1544,0,0,0,0,0,0,0,0,0,0
1684061780.34023714,283968867,1548,1549,1545,1544,0,0,0,0,0,0,0,0,0,0
1684061780.44019699,284068827,1548,1548,1545,1545,0,0,0,0,0,0,0,0,0,0
1684061780.54015708,284168787,1547,1547,1545,1545,0,0,0,0,0,0,0,0,0,0
1684061780.64011717,284268747,1545,1546,1545,1545,0,0,0,0,0,0,0,0,0,0
1684061780.74007702,284368707,1545,1545,1546,1546,0,0,0,0,0,0,0,0,0,0
1684061780.84003711,284468667,1545,1544,1546,1545,0,0,0,0,0,0,0,0,0,0
1684061780.93999720,284568627,1544,1543,1545,1545,0,0,0,0,0,0,0,0,0,0
1684061781.03995705,284668587,1544,1544,1546,1546,0,0,0,0,0,0,0,0,0,0
1684061781.13991714,284768547,1543,1543,1545,1545,0,0,0,0,0,0,0,0,0,0
1684061781.23987699,284868507,1543,1543,1545,1545,0,0,0,0,0,0,0,0,0,0
1684061781.33983707,284968467,1543,1543,1545,1544,0,0,0,0,0,0,0,0,0,0
1684061781.43979716,285068427,1543,1543,1544,1545,0,0,0,0,0,0,0,0,0,0
1684061781.53975701,285168387,1542,1543,1544,1543,0,0,0,0,0,0,0,0,0,0
1684061781.63971710,285268347,1543,1543,1543,1543,0,0,0,0,0,0,0,0,0,0
1684061781.73967719,285368307,1543,1543,1543,1543,0,0,0,0,0,0,0,0,0,0
1684061781.83963704,285468267,1544,1543,1544,1543,0,0,0,0,0,0,0,0,0,0
1684061781.93959713,285568227,1543,1543,1543,1543,0,0,0,0,0,0,0,0,0,0
1684061782.03955698,285668187,1544,1544,1544,1544,0,0,0,0,0,0,0,0,0,0
1684061782.14035010,285768980,1544,1544,1544,1543,0,0,0,0,0,0,0,0,0,0
1684061782.24031019,285868940,1543,1544,1543,1543,0,0,0,0,0,0,0,0,0,0
1684061782.34027004,285968900,1544,1544,1543,1543,0,0,0,0,0,0,0,0,0,0
1684061782.44023013,286068860,1544,1544,1543,1544,0,0,0,0,0,0,0,0,0,0
1684061782.54018998,286168820,1543,1543,1543,1543,0,0,0,0,0,0,0,0,0,0
1684061782.64015007,286268780,1544,1544,1544,1543,0,0,0,0,0,0,0,0,0,0
1684061782.74011016,286368740,1544,1544,1544,1544,0,0,0,0,0,0,0,0,0,0
1684061782.84007001,286468700,1544,1544,1545,1545,0,0,0,0,0,0,0,0,0,0
1684061782.94003010,286568660,1544,1544,1544,1544,0,0,0,0,0,0,0,0,0,0
1684061783.03999019,286668620,1545,1544,1545,1545,0,0,0,0,0,0,0,0,0,0
1684061783.13995004,286768580,1545,1544,1545,1545,0,0,0,0,0,0,0,0,0,0
1684061783.23991013,286868540,1545,1544,1545,1545,0,0,0,0,0,0,0,0,0,0
1684061783.33986998,286968500,1544,1544,1544,1544,0,0,0,0,0,0,0,0,0,0
1684061783.43983006,287068460,1544,1544,1544,1544,0,0,0,0,0,0,0,0,0,0
1684061783.53979015,287168420,1544,1544,1544,1543,0,0,0,0,0,0,0,0,0,0
1684061783.63975000,287268380,1545,1545,1545,1545,0,0,0,0,0,0,0,0,0,0
1684061783.73971009,287368340,1544,1544,1544,1544,0,0,0,0,0,0,0,0,0,0
1684061783.83967018,287468300,1544,1544,1544,1544,0,0,0,0,0,0,0,0,0,0
1684061783.93963003,287568260,1545,1545,1545,1544,0,0,0,0,0,0,0,0,0,0
1684061784.03959012,287668220,1544,1545,1545,1545,0,0,0,0,0,0,0,0,0,0
1684061784.13954997,287768180,1545,1545,1545,1545,0,0,0,0,0,0,0,0,0,0
1684061784.24034309,287868973,1545,1544,1545,1545,0,0,0,0,0,0,0,0,0,0
1684061784.34030318,287968933,1545,1545,1546,1546,0,0,0,0,0,0,0,0,0,0
1684061784.44026303,288068893,1545,1546,1545,1546,0,0,0,0,0,0,0,0,0,0
1684061784.54022312,288168853,1545,1545,1545,1544,0,0,0,0,0,0,0,0,0,0
1684061784.64018297,288268813,1545,1545,1545,1545,0,0,0,0,0,0,0,0,0,0
1684061784.74014306,288368773,1544,1544,1544,1544,0,0,0,0,0,0,0,0,0,0
1684061784.84010315,288468733,1544,1544,1544,1543,0,0,0,0,0,0,0,0,0,0
1684061784.94006300,288568693,1543,1544,1544,1543,0,0,0,0,0,0,0,0,0,0
1684061785.04002309,288668653,1544,1544,1544,1544,0,0,0,0,0,0,0,0,0,0
1684061785.13998318,288768613,1544,1544,1544,1544,0,0,0,0,0,0,0,0,0,0
1684061785.23994303,288868573,1544,1544,1544,1544,0,0,0,0,0,0,0,0,0,0
1684061785.33990312,288968533,1543,1544,1544,1543,0,0,0,0,0,0,0,0,0,0
1684061785.43986297,289068493,1544,1544,1544,1544,0,0,0,0,0,0,0,0,0,0
1684061785.53982306,289168453,1544,1544,1544,1544,0,0,0,0,0,0,0,0,0,0
1684061785.63978314,289268413,1544,1544,1545,1545,0,0,0,0,0,0,0,0,0,0
1684061785.73974299,289368373,1544,1544,1544,1544,0,0,0,0,0,0,0,0,0,0
1684061785.83970308,289468333,1544,1543,1544,1544,0,0,0,0,0,0,0,0,0,0
1684061785.93966317,289568293,1544,1543,1544,1543,0,0,0,0,0,0,0,0,0,0
1684061786.03962302,289668253,1544,1544,1544,1544,0,0,0,0,0,0,0,0,0,0
1684061786.13958311,289768213,1544,1544,1545,1544,0,0,0,0,0,0,0,0,0,0
1684061786.23954296,289868173,1543,1544,1544,1543,0,0,0,0,0,0,0,0,0,0
1684061786.34033608,289968966,1544,1544,1544,1544,0,0,0,0,0,0,0,0,0,0
1684061786.44029617,290068926,1544,1544,1544,1544,0,0,0,0,0,0,0,0,0,0
1684061786.54025602,290168886,1543,1544,1543,1543,0,0,0,0,0,0,0,0,0,0
1684061786.64021611,290268846,1544,1544,1544,1544,0,0,0,0,0,0,0,0,0,0
1684061786.74017596,290368806,1544,1543,1544,1543,0,0,0,0,0,0,0,0,0,0
1684061786.84013605,290468766,1544,1543,1544,1544,0,0,0,0,0,0,0,0,0,0
1684061786.94009614,290568726,1544,1544,1544,1544,0,0,0,0,0,0,0,0,0,0
1684061787.04005599,290668686,1544,1544,1544,1544,0,0,0,0,0,0,0,0,0,0
1684061787.14001608,290768646,1544,1544,1544,1544,0,0,0,0,0,0,0,0,0,0
1684061787.23997617,290868606,1544,1544,1544,1544,0,0,0,0,0,0,0,0,0,0
1684061787.33993602,290968566,1544,1545,1545,1545,0,0,0,0,0,0,0,0,0,0
1684061787.43989611,291068526,1544,1545,1545,1545,0,0,0,0,0,0,0,0,0,0
1684061787.53985620,291168486,1544,1545,1545,1545,0,0,0,0,0,0,0,0,0,0
1684061787.63981605,291268446,1545,1545,1545,1545,0,0,0,0,0,0,0,0,0,0
1684061787.73977613,291368406,1545,1544,1545,1544,0,0,0,0,0,0,0,0,0,0
1684061787.83973598,291468366,1544,1544,1544,1544,0,0,0,0,0,0,0,0,0,0
1684061787.93969607,291568326,1544,1545,1544,1544,0,0,0,0,0,0,0,0,0,0
1684061788.03965616,291668286,1544,1544,1544,1544,0,0,0,0,0,0,0,0,0,0
1684061788.13961601,291768246,1544,1544,1544,1544,0,0,0,0,0,0,0,0,0,0
1684061788.23957610,291868206,1544,1545,1544,1544,0,0,0,0,0,0,0,0,0,0
1684061788.33953619,291968166,1434,1435,1390,1389,0,0,0,0,0,0,0,0,0,0
1684061788.44032907,292068959,1353,1354,1262,1259,0,0,0,0,0,0,0,0,0,0
1684061788.54028916,292168919,1327,1328,1216,1213,0,0,0,0,0,0,0,0,0,0
1684061788.64024901,292268879,1315,1317,1194,1191,0,0,0,0,0,0,0,0,0,0
1684061788.74020910,292368839,1293,1295,1153,1150,0,0,0,0,0,0,0,0,0,0
1684061788.84016919,292468799,1233,1235,1154,1150,0,0,0,0,0,0,0,0,0,0
1684061788.94012904,292568759,1124,1127,1154,1150,0,0,0,0,0,0,0,0,0,0
1684061789.04008913,292668719,1048,1051,1153,1150,0,0,0,0,0,0,0,0,0,0
1684061789.14004898,292768679,1048,1051,1153,1150,0,0,0,0,0,0,0,0,0,0
1684061789.24000907,292868639,1048,1051,1153,1150,0,0,0,0,0,0,0,0,0,0
1684061789.33996916,292968599,1050,1015,1150,1197,0,0,0,0,0,0,0,0,0,0
1684061789.43992901,293068559,1050,1024,1150,1186,0,0,0,0,0,0,0,0,0,0
1684061789.53988910,293168519,1050,1033,1150,1175,0,0,0,0,0,0,0,0,0,0
1684061789.63984919,293268479,1050,1035,1150,1172,0,0,0,0,0,0,0,0,0,0
1684061789.73980904,293368439,1050,1034,1150,1173,0,0,0,0,0,0,0,0,0,0
1684061789.83976912,293468399,1050,1034,1150,1174,0,0,0,0,0,0,0,0,0,0
1684061789.93972898,293568359,1050,1033,1150,1175,0,0,0,0,0,0,0,0,0,0
1684061790.03968906,293668319,1050,1032,1150,1175,0,0,0,0,0,0,0,0,0,0
1684061790.13964915,293768279,1049,1051,1152,1150,0,0,0,0,0,0,0,0,0,0
1684061790.23960900,293868239,1051,1048,1150,1153,0,0,0,0,0,0,0,0,0,0
1684061790.33956909,293968199,1051,1047,1150,1154,0,0,0,0,0,0,0,0,0,0
1684061790.43952918,294068159,1051,1047,1150,1155,0,0,0,0,0,0,0,0,0,0
1684061790.54032207,294168952,1051,1046,1150,1156,0,0,0,0,0,0,0,0,0,0
1684061790.64028215,294268912,1000,1000,1000,1000,0,0,0,0,0,0,0,0,0,0
1684061790.74024200,294368872,1000,1000,1000,1000,0,0,0,0,0,0,0,0,0,0
1684061790.84020209,294468832,1000,1000,1000,1000,0,0,0,0,0,0,0,0,0,0
1684061790.94016218,294568792,1000,1000,1000,1000,0,0,0,0,0,0,0,0,0,0
1684061791.04012203,294668752,1000,1000,1000,1000,0,0,0,0,0,0,0,0,0,0
1684061791.14008212,294768712,1000,1000,1000,1000,0,0,0,0,0,0,0,0,0,0
1684061791.24004197,294868672,1000,1000,1000,1000,0,0,0,0,0,0,0,0,0,0
1684061791.34000206,294968632,1000,1000,1000,1000,0,0,0,0,0,0,0,0,0,0
1684061791.43996215,295068592,1000,1000,1000,1000,0,0,0,0,0,0,0,0,0,0
1684061791.53992200,295168552,1000,1000,1000,1000,0,0,0,0,0,0,0,0,0,0
1684061791.63988209,295268512,1000,1000,1000,1000,0,0,0,0,0,0,0,0,0,0
1684061791.73984218,295368472,1000,1000,1000,1000,0,0,0,0,0,0,0,0,0,0
1684061791.83980203,295468432,1000,1000,1000,1000,0,0,0,0,0,0,0,0,0,0
1684061791.93976212,295568392,1000,1000,1000,1000,0,0,0,0,0,0,0,0,0,0
1684061792.03972197,295668352,1000,1000,1000,1000,0,0,0,0,0,0,0,0,0,0
1684061792.13968205,295768312,1000,1000,1000,1000,0,0,0,0,0,0,0,0,0,0
1684061792.23964214,295868272,1000,1000,1000,1000,0,0,0,0,0,0,0,0,0,0
1684061792.33960199,295968232,1000,1000,1000,1000,0,0,0,0,0,0,0,0,0,0
1684061792.43956208,296068192,1000,1000,1000,1000,0,0,0,0,0,0,0,0,0,0
1684061792.54035497,296168985,1000,1000,1000,1000,0,0,0,0,0,0,0,0,0,0
1684061792.64031506,296268945,1000,1000,1000,1000,0,0,0,0,0,0,0,0,0,0
1684061792.74027514,296368905,1000,1000,1000,1000,0,0,0,0,0,0,0,0,0,0
1684061792.84023499,296468865,1000,1000,1000,1000,0,0,0,0,0,0,0,0,0,0
1684061792.94019508,296568825,1000,1000,1000,1000,0,0,0,0,0,0,0,0,0,0
1684061793.04015517,296668785,1000,1000,1000,1000,0,0,0,0,0,0,0,0,0,0
1684061793.14011502,296768745,1000,1000,1000,1000,0,0,0,0,0,0,0,0,0,0
1684061793.24007511,296868705,1000,1000,1000,1000,0,0,0,0,0,0,0,0,0,0
1684061793.34003496,296968665,1000,1000,1000,1000,0,0,0,0,0,0,0,0,0,0
1684061793.43999505,297068625,1000,1000,1000,1000,0,0,0,0,0,0,0,0,0,0
1684061793.53995514,297168585,1000,1000,1000,1000,0,0,0,0,0,0,0,0,0,0
1684061793.63991499,297268545,1000,1000,1000,1000,0,0,0,0,0,0,0,0,0,0
1684061793.73987508,297368505,1000,1000,1000,1000,0,0,0,0,0,0,0,0,0,0
1684061793.83983517,297468465,1000,1000,1000,1000,0,0,0,0,0,0,0,0,0,0
1684061793.93979502,297568425,1000,1000,1000,1000,0,0,0,0,0,0,0,0,0,0
1684061794.03975511,297668385,1000,1000,1000,1000,0,0,0,0,0,0,0,0,0,0
1684061794.13971519,297768345,1000,1000,1000,1000,0,0,0,0,0,0,0,0,0,0
1684061794.23967505,297868305,1000,1000,1000,1000,0,0,0,0,0,0,0,0,0,0
1684061794.33963513,297968265,1000,1000,1000,1000,0,0,0,0,0,0,0,0,0,0
1684061794.43959498,298068225,1000,1000,1000,1000,0,0,0,0,0,0,0,0,0,0
1684061794.53955507,298168185,1000,1000,1000,1000,0,0,0,0,0,0,0,0,0,0
1684061794.64034820,298268978,1000,1000,1000,1000,0,0,0,0,0,0,0,0,0,0
1684061794.74030805,298368938,1000,1000,1000,1000,0,0,0,0,0,0,0,0,0,0
1684061794.84026814,298468898,1000,1000,1000,1000,0,0,0,0,0,0,0,0,0,0
1684061794.94022799,298568858,1000,1000,1000,1000,0,0,0,0,0,0,0,0,0,0
1684061795.04018807,298668818,1000,1000,1000,1000,0,0,0,0,0,0,0,0,0,0
1684061795.14014816,298768778,1000,1000,1000,1000,0,0,0,0,0,0,0,0,0,0
1684061795.24010801,298868738,1000,1000,1000,1000,0,0,0,0,0,0,0,0,0,0
1684061795.34006810,298968698,1000,1000,1000,1000,0,0,0,0,0,0,0,0,0,0
1684061795.44002819,299068658,1000,1000,1000,1000,0,0,0,0,0,0,0,0,0,0
1684061795.53998804,299168618,1000,1000,1000,1000,0,0,0,0,0,0,0,0,0,0
1684061795.63994813,299268578,1000,1000,1000,1000,0,0,0,0,0,0,0,0,0,0
1684061795.73990798,299368538,1000,1000,1000,1000,0,0,0,0,0,0,0,0,0,0
1684061795.83986807,299468498,1000,1000,1000,1000,0,0,0,0,0,0,0,0,0,0
1684061795.93982816,299568458,1000,1000,1000,1000,0,0,0,0,0,0,0,0,0,0
1684061796.03978801,299668418,1000,1000,1000,1000,0,0,0,0,0,0,0,0,0,0
1684061796.13974810,299768378,1000,1000,1000,1000,0,0,0,0,0,0,0,0,0,0
1684061796.23970819,299868338,1000,1000,1000,1000,0,0,0,0,0,0,0,0,0,0
1684061796.33966804,299968298,1000,1000,1000,1000,0,0,0,0,0,0,0,0,0,0
1684061796.43962812,300068258,1000,1000,1000,1000,0,0,0,0,0,0,0,0,0,0
1684061796.53958797,300168218,1000,1000,1000,1000,0,0,0,0,0,0,0,0,0,0
1684061796.63954806,300268178,1000,1000,1000,1000,0,0,0,0,0,0,0,0,0,0
1684061796.74034119,300368971,1000,1000,1000,1000,0,0,0,0,0,0,0,0,0,0
1684061796.84030104,300468931,1000,1000,1000,1000,0,0,0,0,0,0,0,0,0,0
1684061796.94026113,300568891,1000,1000,1000,1000,0,0,0,0,0,0,0,0,0,0
1684061797.04022098,300668851,1000,1000,1000,1000,0,0,0,0,0,0,0,0,0,0
1684061797.14018106,300768811,1000,1000,1000,1000,0,0,0,0,0,0,0,0,0,0
1684061797.24014115,300868771,1000,1000,1000,1000,0,0,0,0,0,0,0,0,0,0
1684061797.34010100,300968731,1000,1000,1000,1000,0,0,0,0,0,0,0,0,0,0
1684061797.44006109,301068691,1000,1000,1000,1000,0,0,0,0,0,0,0,0,0,0
1684061797.54002118,301168651,1000,1000,1000,1000,0,0,0,0,0,0,0,0,0,0
1684061797.63998103,301268611,1000,1000,1000,1000,0,0,0,0,0,0,0,0,0,0
1684061797.73994112,301368571,1000,1000,1000,1000,0,0,0,0,0,0,0,0,0,0
1684061797.83990097,301468531,1000,1000,1000,1000,0,0,0,0,0,0,0,0,0,0
1684061797.93986106,301568491,1000,1000,1000,1000,0,0,0,0,0,0,0,0,0,0
1684061798.03982115,301668451,1000,1000,1000,1000,0,0,0,0,0,0,0,0,0,0
1684061798.13978100,301768411,1000,1000,1000,1000,0,0,0,0,0,0,0,0,0,0
1684061798.23974109,301868371,1000,1000,1000,1000,0,0,0,0,0,0,0,0,0,0
1684061798.33970118,301968331,1000,1000,1000,1000,0,0,0,0,0,0,0,0,0,0
1684061798.43966103,302068291,1000,1000,1000,1000,0,0,0,0,0,0,0,0,0,0
1684061798.53962111,302168251,1000,1000,1000,1000,0,0,0,0,0,0,0,0,0,0
1684061798.63958097,302268211,1000,1000,1000,1000,0,0,0,0,0,0,0,0,0,0
1684061798.73954105,302368171,1000,1000,1000,1000,0,0,0,0,0,0,0,0,0,0
1684061798.84033418,302468964,1000,1000,1000,1000,0,0,0,0,0,0,0,0,0,0
1684061798.94029403,302568924,1000,1000,1000,1000,0,0,0,0,0,0,0,0,0,0
1684061799.04025412,302668884,1000,1000,1000,1000,0,0,0,0,0,0,0,0,0,0
1684061799.14021397,302768844,1000,1000,1000,1000,0,0,0,0,0,0,0,0,0,0
1684061799.24017406,302868804,1000,1000,1000,1000,0,0,0,0,0,0,0,0,0,0
1684061799.34013414,302968764,1000,1000,1000,1000,0,0,0,0,0,0,0,0,0,0
1684061799.44009399,303068724,1000,1000,1000,1000,0,0,0,0,0,0,0,0,0,0
1684061799.54005408,303168684,1000,1000,1000,1000,0,0,0,0,0,0,0,0,0,0
1684061799.64001417,303268644,1000,1000,1000,1000,0,0,0,0,0,0,0,0,0,0
1684061799.73997402,303368604,1000,1000,1000,1000,0,0,0,0,0,0,0,0,0,0
1684061799.83993411,303468564,1000,1000,1000,1000,0,0,0,0,0,0,0,0,0,0
1684061799.93989396,303568524,1000,1000,1000,1000,0,0,0,0,0,0,0,0,0,0
1684061800.03985405,303668484,1000,1000,1000,1000,0,0,0,0,0,0,0,0,0,0
1684061800.13981414,303768444,1000,1000,1000,1000,0,0,0,0,0,0,0,0,0,0
1684061800.23977399,303868404,1000,1000,1000,1000,0,0,0,0,0,0,0,0,0,0
1684061800.33973408,303968364,1000,1000,1000,1000,0,0,0,0,0,0,0,0,0,0
1684061800.43969417,304068324,1000,1000,1000,1000,0,0,0,0,0,0,0,0,0,0
1684061800.53965402,304168284,1000,1000,1000,1000,0,0,0,0,0,0,0,0,0,0
1684061800.63961411,304268244,1000,1000,1000,1000,0,0,0,0,0,0,0,0,0,0
1684061800.73957419,304368204,1000,1000,1000,1000,0,0,0,0,0,0,0,0,0,0
1684061800.83953404,304468164,1000,1000,1000,1000,0,0,0,0,0,0,0,0,0,0
1684061800.94032717,304568957,1000,1000,1000,1000,0,0,0,0,0,0,0,0,0,0
1684061801.04028702,304668917,1000,1000,1000,1000,0,0,0,0,0,0,0,0,0,0
1684061801.14024711,304768877,1000,1000,1000,1000,0,0,0,0,0,0,0,0,0,0
1684061801.24020720,304868837,1000,1000,1000,1000,0,0,0,0,0,0,0,0,0,0
1684061801.34016705,304968797,1000,1000,1000,1000,0,0,0,0,0,0,0,0,0,0
1684061801.44012713,305068757,1000,1000,1000,1000,0,0,0,0,0,0,0,0,0,0
1684061801.54008698,305168717,1000,1000,1000,1000,0,0,0,0,0,0,0,0,0,0
1684061801.64004707,305268677,1000,1000,1000,1000,0,0,0,0,0,0,0,0,0,0
1684061801.74000716,305368637,1000,1000,1000,1000,0,0,0,0,0,0,0,0,0,0
1684061801.83996701,305468597,1000,1000,1000,1000,0,0,0,0,0,0,0,0,0,0
1684061801.93992710,305568557,1000,1000,1000,1000,0,0,0,0,0,0,0,0,0,0
1684061802.03988719,305668517,1000,1000,1000,1000,0,0,0,0,0,0,0,0,0,0
1684061802.13984704,305768477,1000,1000,1000,1000,0,0,0,0,0,0,0,0,0,0
1684061802.23980713,305868437,1000,1000,1000,1000,0,0,0,0,0,0,0,0,0,0
1684061802.33976698,305968397,1000,1000,1000,1000,0,0,0,0,0,0,0,0,0,0
1684061802.43972707,306068357,1000,1000,1000,1000,0,0,0,0,0,0,0,0,0,0
1684061802.53968716,306168317,1000,1000,1000,1000,0,0,0,0,0,0,0,0,0,0
1684061802.63964701,306268277,1000,1000,1000,1000,0,0,0,0,0,0,0,0,0,0
1684061802.73960710,306368237,1000,1000,1000,1000,0,0,0,0,0,0,0,0,0,0
1684061802.83956718,306468197,1000,1000,1000,1000,0,0,0,0,0,0,0,0,0,0
1684061802.93952703,306568157,1000,1000,1000,1000,0,0,0,0,0,0,0,0,0,0
1684061803.04032016,306668950,1000,1000,1000,1000,0,0,0,0,0,0,0,0,0,0
1684061803.14028001,306768910,1000,1000,1000,1000,0,0,0,0,0,0,0,0,0,0
1684061803.24024010,306868870,1000,1000,1000,1000,0,0,0,0,0,0,0,0,0,0
1684061803.34020019,306968830,1000,1000,1000,1000,0,0,0,0,0,0,0,0,0,0
1684061803.44016004,307068790,1000,1000,1000,1000,0,0,0,0,0,0,0,0,0,0
1684061803.54012012,307168750,1000,1000,1000,1000,0,0,0,0,0,0,0,0,0,0
1684061803.64007998,307268710,1000,1000,1000,1000,0,0,0,0,0,0,0,0,0,0
1684061803.74004006,307368670,1000,1000,1000,1000,0,0,0,0,0,0,0,0,0,0
1684061803.84000015,307468630,1000,1000,1000,1000,0,0,0,0,0,0,0,0,0,0
1684061803.93996000,307568590,1000,1000,1000,1000,0,0,0,0,0,0,0,0,0,0
1684061804.03992009,307668550,1000,1000,1000,1000,0,0,0,0,0,0,0,0,0,0
1684061804.13988018,307768510,1000,1000,1000,1000,0,0,0,0,0,0,0,0,0,0
1684061804.23984003,307868470,1000,1000,1000,1000,0,0,0,0,0,0,0,0,0,0
1684061804.33980012,307968430,1000,1000,1000,1000,0,0,0,0,0,0,0,0,0,0
1684061804.43975997,308068390,1000,1000,1000,1000,0,0,0,0,0,0,0,0,0,0
1684061804.53972006,308168350,1000,1000,1000,1000,0,0,0,0,0,0,0,0,0,0
1684061804.63968015,308268310,1000,1000,1000,1000,0,0,0,0,0,0,0,0,0,0
1684061804.73964000,308368270,1000,1000,1000,1000,0,0,0,0,0,0,0,0,0,0
1684061804.83960009,308468230,1000,1000,1000,1000,0,0,0,0,0,0,0,0,0,0
1684061804.93956017,308568190,1000,1000,1000,1000,0,0,0,0,0,0,0,0,0,0
1684061805.04035306,308668983,1000,1000,1000,1000,0,0,0,0,0,0,0,0,0,0
1684061805.14031315,308768943,1000,1000,1000,1000,0,0,0,0,0,0,0,0,0,0
1684061805.24027300,308868903,1000,1000,1000,1000,0,0,0,0,0,0,0,0,0,0
1684061805.34023309,308968863,1000,1000,1000,1000,0,0,0,0,0,0,0,0,0,0
1684061805.44019318,309068823,1000,1000,1000,1000,0,0,0,0,0,0,0,0,0,0
1684061805.54015303,309168783,1000,1000,1000,1000,0,0,0,0,0,0,0,0,0,0
