TimeUS,M1,M2,M3,M4,TimeUS,C1,C2,C3,C4
45118612,1000,1000,1000,1000,45128608,1000,1000,1000,1000
45121111,1000,1000,1000,1000,45228568,1000,1000,1000,1000
45123610,1000,1000,1000,1000,45328528,1000,1000,1000,1000
45126109,1000,1000,1000,1000,45428488,1000,1000,1000,1000
45128608,1000,1000,1000,1000,45528448,1000,1000,1000,1000
45131107,1000,1000,1000,1000,45628408,1000,1000,1000,1000
45133606,1000,1000,1000,1000,45728368,1000,1000,1000,1000
45136105,1000,1000,1000,1000,45828328,1000,1000,1000,1000
45138604,1000,1000,1000,1000,45928288,1000,1000,1000,1000
45141103,1000,1000,1000,1000,46028248,1000,1000,1000,1000
45143602,1000,1000,1000,1000,46128208,1000,1000,1000,1000
45146101,1000,1000,1000,1000,46228168,1000,1000,1000,1000
45148600,1000,1000,1000,1000,46328961,1000,1000,1000,1000
45151099,1000,1000,1000,1000,46428921,1000,1000,1000,1000
45153598,1000,1000,1000,1000,46528881,1000,1000,1000,1000
45156097,1000,1000,1000,1000,46628841,1000,1000,1000,1000
45158596,1000,1000,1000,1000,46728801,1000,1000,1000,1000
45161095,1000,1000,1000,1000,46828761,1000,1000,1000,1000
45163594,1000,1000,1000,1000,46928721,1000,1000,1000,1000
45166093,1000,1000,1000,1000,47028681,1000,1000,1000,1000
45168592,1000,1000,1000,1000,47128641,1003,1003,1003,1003
45171091,1000,1000,1000,1000,47228601,1033,1033,1033,1033
45173590,1000,1000,1000,1000,47328561,1063,1063,1063,1063
45176089,1000,1000,1000,1000,47428521,1093,1093,1093,1093
45178588,1000,1000,1000,1000,47528481,1122,1122,1122,1122
45181087,1000,1000,1000,1000,47628441,1176,1170,1171,1177
45183586,1000,1000,1000,1000,47728401,1419,1415,1415,1419
45186085,1000,1000,1000,1000,47828361,1594,1591,1591,1595
45188584,1000,1000,1000,1000,47928321,1740,1735,1736,1740
45191083,1000,1000,1000,1000,48028281,1866,1862,1862,1866
45193582,1000,1000,1000,1000,48128241,1887,1884,1884,1887
45196081,1000,1000,1000,1000,48228201,1793,1792,1792,1793
45198580,1000,1000,1000,1000,48328161,1670,1671,1671,1671
45201079,1000,1000,1000,1000,48428954,1618,1619,1620,1618
45203578,1000,1000,1000,1000,48528914,1616,1617,1618,1616
45206077,1000,1000,1000,1000,48628874,1627,1628,1628,1627
45208576,1000,1000,1000,1000,48728834,1629,1630,1630,1630
45211075,1000,1000,1000,1000,48828794,1626,1626,1625,1626
45213574,1000,1000,1000,1000,48928754,1618,1617,1617,1618
45216073,1000,1000,1000,1000,49028714,1614,1613,1613,1614
45218572,1000,1000,1000,1000,49128674,1613,1611,1611,1613
45221071,1000,1000,1000,1000,49228634,1613,1612,1612,1613
45223570,1000,1000,1000,1000,49328594,1614,1615,1615,1614
45226069,1000,1000,1000,1000,49428554,1596,1597,1596,1596
45228568,1000,1000,1000,1000,49528514,1575,1575,1575,1575
45231067,1000,1000,1000,1000,49628474,1563,1563,1563,1563
45233566,1000,1000,1000,1000,49728434,1554,1555,1553,1556
45236065,1000,1000,1000,1000,49828394,1548,1548,1545,1552
45238564,1000,1000,1000,1000,49928354,1543,1542,1539,1547
45241063,1000,1000,1000,1000,50028314,1538,1538,1535,1541
45243562,1000,1000,1000,1000,50128274,1536,1536,1535,1537
45246061,1000,1000,1000,1000,50228234,1536,1536,1537,1536
45248560,1000,1000,1000,1000,50328194,1538,1537,1540,1535
45251059,1000,1000,1000,1000,50428154,1541,1541,1543,1538
45253558,1000,1000,1000,1000,50528947,1545,1545,1547,1543
45256057,1000,1000,1000,1000,50628907,1543,1543,1550,1536
45258556,1000,1000,1000,1000,50728867,1543,1543,1549,1537
45261055,1000,1000,1000,1000,50828827,1544,1544,1544,1544
45263554,1000,1000,1000,1000,50928787,1544,1544,1540,1548
45266053,1000,1000,1000,1000,51028747,1544,1544,1538,1551
45268552,1000,1000,1000,1000,51128707,1546,1545,1540,1551
45271051,1000,1000,1000,1000,51228667,1548,1548,1545,1551
45273550,1000,1000,1000,1000,51328627,1551,1552,1551,1552
45276049,1000,1000,1000,1000,51428587,1555,1556,1558,1553
45278548,1000,1000,1000,1000,51528547,1559,1558,1562,1555
45281047,1000,1000,1000,1000,51628507,1560,1560,1563,1557
45283546,1000,1000,1000,1000,51728467,1562,1562,1563,1560
45286045,1000,1000,1000,1000,51828427,1563,1563,1562,1563
45288544,1000,1000,1000,1000,51928387,1558,1558,1566,1569
45291043,1000,1000,1000,1000,52028347,1558,1558,1567,1571
45293542,1000,1000,1000,1000,52128307,1560,1560,1566,1569
45296041,1000,1000,1000,1000,52228267,1562,1563,1566,1567
45298540,1000,1000,1000,1000,52328227,1564,1565,1565,1565
45301039,1000,1000,1000,1000,52428187,1567,1567,1565,1565
45303538,1000,1000,1000,1000,52528980,1570,1569,1565,1565
45306037,1000,1000,1000,1000,52628940,1571,1571,1566,1565
45308536,1000,1000,1000,1000,52728900,1571,1571,1565,1565
45311035,1000,1000,1000,1000,52828860,1572,1572,1566,1566
45313534,1000,1000,1000,1000,52928820,1573,1572,1567,1567
45316033,1000,1000,1000,1000,53028780,1572,1572,1568,1568
45318532,1000,1000,1000,1000,53128740,1573,1573,1571,1571
45321031,1000,1000,1000,1000,53228700,1573,1573,1572,1572
45323530,1000,1000,1000,1000,53328660,1574,1574,1575,1574
45326029,1000,1000,1000,1000,53428620,1574,1574,1576,1575
45328528,1000,1000,1000,1000,53528580,1574,1575,1577,1576
45331027,1000,1000,1000,1000,53628540,1574,1575,1577,1576
45333526,1000,1000,1000,1000,53728500,1574,1574,1577,1576
45336025,1000,1000,1000,1000,53828460,1575,1575,1578,1577
45338524,1000,1000,1000,1000,53928420,1576,1576,1577,1577
45341023,1000,1000,1000,1000,54028380,1577,1577,1578,1578
45343522,1000,1000,1000,1000,54128340,1577,1576,1577,1577
45346021,1000,1000,1000,1000,54228300,1577,1577,1577,1577
45348520,1000,1000,1000,1000,54328260,1579,1578,1578,1578
45351019,1000,1000,1000,1000,54428220,1578,1578,1577,1577
45353518,1000,1000,1000,1000,54528180,1578,1578,1577,1578
45356017,1000,1000,1000,1000,54628973,1578,1578,1577,1577
45358516,1000,1000,1000,1000,54728933,1578,1578,1577,1577
45361015,1000,1000,1000,1000,54828893,1578,1577,1577,1577
45363514,1000,1000,1000,1000,54928853,1578,1578,1577,1578
45366013,1000,1000,1000,1000,55028813,1578,1578,1578,1578
45368512,1000,1000,1000,1000,55128773,1578,1578,1578,1578
45371011,1000,1000,1000,1000,55228733,1577,1578,1578,1578
45373510,1000,1000,1000,1000,55328693,1579,1578,1579,1579
45376009,1000,1000,1000,1000,55428653,1579,1579,1580,1580
45378508,1000,1000,1000,1000,55528613,1580,1580,1580,1580
45381007,1000,1000,1000,1000,55628573,1579,1579,1579,1579
45383506,1000,1000,1000,1000,55728533,1579,1579,1579,1579
45386005,1000,1000,1000,1000,55828493,1580,1580,1580,1580
45388504,1000,1000,1000,1000,55928453,1580,1579,1580,1580
45391003,1000,1000,1000,1000,56028413,1580,1580,1580,1581
45393502,1000,1000,1000,1000,56128373,1580,1579,1580,1580
45396001,1000,1000,1000,1000,56228333,1581,1581,1581,1581
45398500,1000,1000,1000,1000,56328293,1580,1580,1581,1580
45400999,1000,1000,1000,1000,56428253,1579,1580,1580,1579
45403498,1000,1000,1000,1000,56528213,1580,1580,1580,1580
45405997,1000,1000,1000,1000,56628173,1581,1580,1580,1580
45408496,1000,1000,1000,1000,56728966,1581,1580,1581,1581
45410995,1000,1000,1000,1000,56828926,1580,1580,1580,1580
45413494,1000,1000,1000,1000,56928886,1581,1581,1580,1581
45415993,1000,1000,1000,1000,57028846,1580,1581,1581,1580
45418492,1000,1000,1000,1000,57128806,1582,1582,1582,1582
45420991,1000,1000,1000,1000,57228766,1582,1582,1582,1582
45423490,1000,1000,1000,1000,57328726,1581,1581,1581,1581
45425989,1000,1000,1000,1000,57428686,1580,1580,1580,1581
45428488,1000,1000,1000,1000,57528646,1580,1580,1580,1580
45430987,1000,1000,1000,1000,57628606,1581,1580,1581,1581
45433486,1000,1000,1000,1000,57728566,1581,1580,1580,1581
45435985,1000,1000,1000,1000,57828526,1580,1580,1580,1580
45438484,1000,1000,1000,1000,57928486,1581,1581,1581,1581
45440983,1000,1000,1000,1000,58028446,1580,1581,1580,1581
45443482,1000,1000,1000,1000,58128406,1580,1581,1581,1580
45445981,1000,1000,1000,1000,58228366,1581,1582,1588,1574
45448480,1000,1000,1000,1000,58328326,1581,1583,1586,1574
45450979,1000,1000,1000,1000,58428286,1579,1582,1577,1574
45453478,1000,1000,1000,1000,58528246,1577,1579,1567,1571
45455977,1000,1000,1000,1000,58628206,1576,1579,1561,1567
45458476,1000,1000,1000,1000,58728166,1578,1579,1557,1563
45460975,1000,1000,1000,1000,58828959,1579,1577,1555,1559
45463474,1000,1000,1000,1000,58928919,1580,1577,1555,1556
45465973,1000,1000,1000,1000,59028879,1580,1578,1557,1555
45468472,1000,1000,1000,1000,59128839,1577,1577,1555,1553
45470971,1000,1000,1000,1000,59228799,1577,1577,1556,1554
45473470,1000,1000,1000,1000,59328759,1576,1577,1556,1554
45475969,1000,1000,1000,1000,59428719,1574,1576,1554,1554
45478468,1000,1000,1000,1000,59528679,1576,1577,1554,1554
45480967,1000,1000,1000,1000,59628639,1575,1577,1552,1553
45483466,1000,1000,1000,1000,59728599,1577,1578,1550,1551
45485965,1000,1000,1000,1000,59828559,1578,1579,1547,1547
45488464,1000,1000,1000,1000,59928519,1580,1582,1545,1545
45490963,1000,1000,1000,1000,60028479,1584,1584,1543,1542
45493462,1000,1000,1000,1000,60128439,1586,1587,1540,1539
45495961,1000,1000,1000,1000,60228399,1590,1591,1538,1538
45498460,1000,1000,1000,1000,60328359,1592,1592,1536,1536
45500959,1000,1000,1000,1000,60428319,1595,1595,1535,1536
45503458,1000,1000,1000,1000,60528279,1596,1596,1536,1538
45505957,1000,1000,1000,1000,60628239,1595,1596,1537,1539
45508456,1000,1000,1000,1000,60728199,1593,1592,1540,1542
45510955,1000,1000,1000,1000,60828159,1589,1588,1544,1546
45513454,1000,1000,1000,1000,60928952,1583,1580,1551,1554
45515953,1000,1000,1000,1000,61028912,1576,1573,1562,1565
45518452,1000,1000,1000,1000,61128872,1566,1561,1573,1575
45520951,1000,1000,1000,1000,61228832,1554,1550,1585,1586
45523450,1000,1000,1000,1000,61328792,1544,1541,1597,1597
45525949,1000,1000,1000,1000,61428752,1535,1534,1606,1605
45528448,1000,1000,1000,1000,61528712,1530,1530,1613,1611
45530947,1000,1000,1000,1000,61628672,1529,1531,1615,1614
45533446,1000,1000,1000,1000,61728632,1530,1533,1614,1613
45535945,1000,1000,1000,1000,61828592,1536,1538,1609,1609
45538444,1000,1000,1000,1000,61928552,1543,1545,1603,1604
45540943,1000,1000,1000,1000,62028512,1552,1553,1596,1596
45543442,1000,1000,1000,1000,62128472,1561,1562,1589,1588
45545941,1000,1000,1000,1000,62228432,1569,1568,1581,1580
45548440,1000,1000,1000,1000,62328392,1577,1576,1576,1575
45550939,1000,1000,1000,1000,62428352,1322,1324,1636,1643
45553438,1000,1000,1000,1000,62528312,1403,1410,1645,1648
45555937,1000,1000,1000,1000,62628272,1472,1481,1633,1627
45558436,1000,1000,1000,1000,62728232,1527,1532,1622,1613
45560935,1000,1000,1000,1000,62828192,1570,1568,1616,1607
45563434,1000,1000,1000,1000,62928985,1600,1584,1587,1583
45565933,1000,1000,1000,1000,63028945,1600,1585,1515,1523
45568432,1000,1000,1000,1000,63128905,1600,1591,1480,1496
45570931,1000,1000,1000,1000,63228865,1597,1600,1495,1506
45573430,1000,1000,1000,1000,63328825,1592,1600,1512,1515
45575929,1000,1000,1000,1000,63428785,1591,1600,1532,1529
45578428,1000,1000,1000,1000,63528745,1594,1600,1550,1545
45580927,1000,1000,1000,1000,63628705,1599,1600,1564,1560
45583426,1000,1000,1000,1000,63728665,1600,1597,1569,1567
45585925,1000,1000,1000,1000,63828625,1600,1596,1572,1573
45588424,1000,1000,1000,1000,63928585,1600,1597,1575,1578
45590923,1000,1000,1000,1000,64028545,1600,1598,1579,1581
45593422,1000,1000,1000,1000,64128505,1600,1596,1585,1578
45595921,1000,1000,1000,1000,64228465,1600,1595,1587,1581
45598420,1000,1000,1000,1000,64328425,1600,1595,1587,1585
45600919,1000,1000,1000,1000,64428385,1600,1596,1587,1588
45603418,1000,1000,1000,1000,64528345,1600,1598,1588,1589
45605917,1000,1000,1000,1000,64628305,1599,1600,1588,1589
45608416,1000,1000,1000,1000,64728265,1597,1600,1584,1588
45610915,1000,1000,1000,1000,64828225,1595,1600,1583,1585
45613414,1000,1000,1000,1000,64928185,1595,1600,1584,1583
45615913,1000,1000,1000,1000,65028978,1596,1600,1585,1583
45618412,1000,1000,1000,1000,65128938,1598,1600,1586,1584
45620911,1000,1000,1000,1000,65228898,1599,1600,1587,1585
45623410,1000,1000,1000,1000,65328858,1600,1599,1586,1585
45625909,1000,1000,1000,1000,65428818,1596,1600,1579,1585
45628408,1000,1000,1000,1000,65528778,1594,1600,1577,1581
45630907,1000,1000,1000,1000,65628738,1593,1600,1577,1578
45633406,1000,1000,1000,1000,65728698,1594,1600,1578,1577
45635905,1000,1000,1000,1000,65828658,1596,1600,1579,1577
45638404,1000,1000,1000,1000,65928618,1598,1600,1579,1578
45640903,1000,1000,1000,1000,66028578,1600,1599,1579,1579
45643402,1000,1000,1000,1000,66128538,1600,1599,1577,1578
45645901,1000,1000,1000,1000,66228498,1600,1595,1572,1576
45648400,1000,1000,1000,1000,66328458,1600,1583,1575,1563
45650899,1000,1000,1000,1000,66428418,1600,1583,1578,1574
45653398,1000,1000,1000,1000,66528378,1600,1587,1580,1584
45655897,1000,1000,1000,1000,66628338,1600,1595,1583,1590
45658396,1000,1000,1000,1000,66728298,1587,1590,1570,1576
45660895,1000,1000,1000,1000,66828258,1577,1585,1562,1564
45663394,1000,1000,1000,1000,66928218,1572,1581,1557,1555
45665893,1000,1000,1000,1000,67028178,1570,1577,1555,1550
45668392,1000,1000,1000,1000,67128971,1570,1574,1553,1547
45670891,1000,1000,1000,1000,67228931,1571,1571,1552,1547
45673390,1000,1000,1000,1000,67328891,1572,1569,1550,1547
45675889,1000,1000,1000,1000,67428851,1572,1569,1548,1547
45678388,1000,1000,1000,1000,67528811,1571,1568,1546,1547
45680887,1000,1000,1000,1000,67628771,1570,1569,1547,1547
45683386,1000,1000,1000,1000,67728731,1569,1570,1545,1546
45685885,1000,1000,1000,1000,67828691,1568,1571,1546,1547
45688384,1000,1000,1000,1000,67928651,1567,1571,1546,1545
45690883,1000,1000,1000,1000,68028611,1568,1572,1548,1546
45693382,1000,1000,1000,1000,68128571,1568,1571,1548,1546
45695881,1000,1000,1000,1000,68228531,1569,1571,1548,1547
45698380,1000,1000,1000,1000,68328491,1570,1571,1548,1547
45700879,1000,1000,1000,1000,68428451,1571,1571,1549,1549
45703378,1000,1000,1000,1000,68528411,1571,1571,1549,1549
45705877,1000,1000,1000,1000,68628371,1569,1570,1550,1551
45708376,1000,1000,1000,1000,68728331,1568,1569,1551,1552
45710875,1000,1000,1000,1000,68828291,1568,1569,1552,1554
45713374,1000,1000,1000,1000,68928251,1569,1570,1552,1553
45715873,1000,1000,1000,1000,69028211,1571,1572,1552,1553
45718372,1000,1000,1000,1000,69128171,1574,1574,1551,1552
45720871,1000,1000,1000,1000,69228964,1575,1575,1551,1553
45723370,1000,1000,1000,1000,69328924,1576,1575,1552,1554
45725869,1000,1000,1000,1000,69428884,1576,1574,1555,1557
45728368,1000,1000,1000,1000,69528844,1573,1571,1558,1561
45730867,1000,1000,1000,1000,69628804,1568,1567,1564,1566
45733366,1000,1000,1000,1000,69728764,1563,1562,1570,1574
45735865,1000,1000,1000,1000,69828724,1558,1558,1575,1578
45738364,1000,1000,1000,1000,69928684,1555,1555,1579,1580
45740863,1000,1000,1000,1000,70028644,1553,1553,1582,1582
45743362,1000,1000,1000,1000,70128604,1552,1551,1584,1583
45745861,1000,1000,1000,1000,70228564,1552,1551,1586,1585
45748360,1000,1000,1000,1000,70328524,1552,1551,1586,1586
45750859,1000,1000,1000,1000,70428484,1552,1552,1587,1587
45753358,1000,1000,1000,1000,70528444,1553,1553,1587,1587
45755857,1000,1000,1000,1000,70628404,1555,1555,1587,1587
45758356,1000,1000,1000,1000,70728364,1557,1557,1586,1586
45760855,1000,1000,1000,1000,70828324,1558,1559,1584,1584
45763354,1000,1000,1000,1000,70928284,1561,1562,1584,1584
45765853,1000,1000,1000,1000,71028244,1564,1564,1583,1583
45768352,1000,1000,1000,1000,71128204,1566,1567,1582,1582
45770851,1000,1000,1000,1000,71228164,1569,1569,1582,1580
45773350,1000,1000,1000,1000,71328957,1572,1571,1581,1579
45775849,1000,1000,1000,1000,71428917,1574,1573,1580,1579
45778348,1000,1000,1000,1000,71528877,1577,1575,1579,1579
45780847,1000,1000,1000,1000,71628837,1577,1577,1577,1577
45783346,1000,1000,1000,1000,71728797,1578,1577,1576,1576
45785845,1000,1000,1000,1000,71828757,1580,1579,1576,1577
45788344,1000,1000,1000,1000,71928717,1580,1580,1576,1575
45790843,1000,1000,1000,1000,72028677,1581,1581,1575,1576
45793342,1000,1000,1000,1000,72128637,1581,1581,1575,1575
45795841,1000,1000,1000,1000,72228597,1581,1581,1575,1575
45798340,1000,1000,1000,1000,72328557,1582,1582,1576,1576
45800839,1000,1000,1000,1000,72428517,1582,1582,1577,1576
45803338,1000,1000,1000,1000,72528477,1582,1582,1576,1576
45805837,1000,1000,1000,1000,72628437,1583,1582,1577,1577
45808336,1000,1000,1000,1000,72728397,1582,1582,1578,1578
45810835,1000,1000,1000,1000,72828357,1582,1582,1578,1578
45813334,1000,1000,1000,1000,72928317,1581,1581,1578,1578
45815833,1000,1000,1000,1000,73028277,1581,1581,1578,1578
45818332,1000,1000,1000,1000,73128237,1581,1581,1578,1578
45820831,1000,1000,1000,1000,73228197,1581,1581,1579,1579
45823330,1000,1000,1000,1000,73328157,1581,1581,1579,1579
45825829,1000,1000,1000,1000,73428950,1580,1581,1579,1579
45828328,1000,1000,1000,1000,73528910,1581,1580,1580,1579
45830827,1000,1000,1000,1000,73628870,1580,1580,1579,1579
45833326,1000,1000,1000,1000,73728830,1580,1580,1579,1580
45835825,1000,1000,1000,1000,73828790,1580,1580,1579,1580
45838324,1000,1000,1000,1000,73928750,1580,1580,1580,1580
45840823,1000,1000,1000,1000,74028710,1580,1580,1579,1580
45843322,1000,1000,1000,1000,74128670,1579,1580,1579,1579
45845821,1000,1000,1000,1000,74228630,1580,1580,1579,1579
45848320,1000,1000,1000,1000,74328590,1580,1580,1579,1580
45850819,1000,1000,1000,1000,74428550,1580,1580,1580,1580
45853318,1000,1000,1000,1000,74528510,1580,1580,1581,1581
45855817,1000,1000,1000,1000,74628470,1580,1580,1580,1580
45858316,1000,1000,1000,1000,74728430,1581,1580,1581,1581
45860815,1000,1000,1000,1000,74828390,1580,1580,1581,1580
45863314,1000,1000,1000,1000,74928350,1581,1581,1581,1581
45865813,1000,1000,1000,1000,75028310,1581,1581,1581,1581
45868312,1000,1000,1000,1000,75128270,1581,1581,1581,1581
45870811,1000,1000,1000,1000,75228230,1581,1582,1581,1581
45873310,1000,1000,1000,1000,75328190,1581,1581,1581,1581
45875809,1000,1000,1000,1000,75428983,1582,1582,1585,1578
45878308,1000,1000,1000,1000,75528943,1582,1581,1588,1573
45880807,1000,1000,1000,1000,75628903,1581,1580,1581,1573
45883306,1000,1000,1000,1000,75728863,1579,1579,1571,1572
45885805,1000,1000,1000,1000,75828823,1576,1578,1563,1569
45888304,1000,1000,1000,1000,75928783,1575,1577,1558,1565
45890803,1000,1000,1000,1000,76028743,1574,1577,1557,1561
45893302,1000,1000,1000,1000,76128703,1574,1576,1556,1558
45895801,1000,1000,1000,1000,76228663,1575,1576,1557,1556
45898300,1000,1000,1000,1000,76328623,1575,1575,1558,1555
45900799,1000,1000,1000,1000,76428583,1575,1575,1557,1555
45903298,1000,1000,1000,1000,76528543,1575,1575,1556,1555
45905797,1000,1000,1000,1000,76628503,1575,1575,1554,1554
45908296,1000,1000,1000,1000,76728463,1575,1575,1553,1553
45910795,1000,1000,1000,1000,76828423,1575,1576,1552,1552
45913294,1000,1000,1000,1000,76928383,1575,1577,1550,1550
45915793,1000,1000,1000,1000,77028343,1576,1578,1549,1549
45918292,1000,1000,1000,1000,77128303,1577,1579,1547,1546
45920791,1000,1000,1000,1000,77228263,1579,1580,1545,1545
45923290,1000,1000,1000,1000,77328223,1581,1582,1543,1543
45925789,1000,1000,1000,1000,77428183,1583,1584,1542,1542
45928288,1000,1000,1000,1000,77528976,1586,1586,1540,1540
45930787,1000,1000,1000,1000,77628936,1588,1587,1539,1539
45933286,1000,1000,1000,1000,77728896,1589,1589,1538,1539
45935785,1000,1000,1000,1000,77828856,1589,1589,1538,1540
45938284,1000,1000,1000,1000,77928816,1590,1589,1542,1543
45940783,1000,1000,1000,1000,78028776,1589,1588,1544,1546
45943282,1000,1000,1000,1000,78128736,1587,1586,1547,1550
45945781,1000,1000,1000,1000,78228696,1584,1582,1550,1554
45948280,1000,1000,1000,1000,78328656,1579,1578,1557,1560
45950779,1000,1000,1000,1000,78428616,1574,1573,1564,1567
45953278,1000,1000,1000,1000,78528576,1568,1566,1573,1575
45955777,1000,1000,1000,1000,78628536,1560,1558,1581,1582
45958276,1000,1000,1000,1000,78728496,1552,1550,1591,1591
45960775,1000,1000,1000,1000,78828456,1545,1543,1600,1600
45963274,1000,1000,1000,1000,78928416,1538,1538,1607,1606
45965773,1000,1000,1000,1000,79028376,1534,1534,1610,1610
45968272,1000,1000,1000,1000,79128336,1532,1534,1611,1610
45970771,1000,1000,1000,1000,79228296,1533,1535,1608,1607
45973270,1000,1000,1000,1000,79328256,1537,1540,1604,1604
45975769,1000,1000,1000,1000,79428216,1543,1546,1598,1598
45978268,1000,1000,1000,1000,79528176,1551,1552,1591,1591
45980767,1000,1000,1000,1000,79628969,1559,1560,1585,1584
45983266,1000,1000,1000,1000,79728929,1568,1567,1579,1578
45985765,1000,1000,1000,1000,79828889,1575,1574,1574,1573
45988264,1000,1000,1000,1000,79928849,1580,1578,1568,1568
45990763,1000,1000,1000,1000,80028809,1585,1583,1566,1566
45993262,1000,1000,1000,1000,80128769,1588,1586,1566,1566
45995761,1000,1000,1000,1000,80228729,1588,1587,1566,1566
45998260,1000,1000,1000,1000,80328689,1589,1587,1567,1568
46000759,1000,1000,1000,1000,80428649,1588,1587,1570,1570
46003258,1000,1000,1000,1000,80528609,1586,1586,1573,1572
46005757,1000,1000,1000,1000,80628569,1584,1585,1575,1575
46008256,1000,1000,1000,1000,80728529,1583,1583,1577,1577
46010755,1000,1000,1000,1000,80828489,1581,1581,1579,1579
46013254,1000,1000,1000,1000,80928449,1578,1578,1580,1579
46015753,1000,1000,1000,1000,81028409,1576,1577,1581,1582
46018252,1000,1000,1000,1000,81128369,1574,1575,1582,1583
46020751,1000,1000,1000,1000,81228329,1573,1574,1583,1583
46023250,1000,1000,1000,1000,81328289,1574,1574,1584,1583
46025749,1000,1000,1000,1000,81428249,1574,1574,1584,1583
46028248,1000,1000,1000,1000,81528209,1575,1575,1583,1583
46030747,1000,1000,1000,1000,81628169,1575,1575,1581,1581
46033246,1000,1000,1000,1000,81728962,1576,1577,1581,1581
46035745,1000,1000,1000,1000,81828922,1577,1577,1579,1579
46038244,1000,1000,1000,1000,81928882,1578,1578,1578,1578
46040743,1000,1000,1000,1000,82028842,1579,1579,1577,1578
46043242,1000,1000,1000,1000,82128802,1580,1580,1577,1577
46045741,1000,1000,1000,1000,82228762,1582,1581,1578,1578
46048240,1000,1000,1000,1000,82328722,1582,1581,1578,1577
46050739,1000,1000,1000,1000,82428682,1581,1582,1577,1577
46053238,1000,1000,1000,1000,82528642,1582,1582,1578,1578
46055737,1000,1000,1000,1000,82628602,1582,1582,1579,1579
46058236,1000,1000,1000,1000,82728562,1582,1581,1579,1579
46060735,1000,1000,1000,1000,82828522,1581,1581,1579,1580
46063234,1000,1000,1000,1000,82928482,1582,1582,1581,1581
46065733,1000,1000,1000,1000,83028442,1581,1582,1582,1581
46068232,1000,1000,1000,1000,83128402,1582,1581,1582,1582
46070731,1000,1000,1000,1000,83228362,1581,1581,1582,1581
46073230,1000,1000,1000,1000,83328322,1580,1580,1581,1581
46075729,1000,1000,1000,1000,83428282,1580,1580,1582,1581
46078228,1000,1000,1000,1000,83528242,1580,1581,1582,1581
46080727,1000,1000,1000,1000,83628202,1581,1581,1582,1582
46083226,1000,1000,1000,1000,83728162,1581,1581,1588,1576
46085725,1000,1000,1000,1000,83828955,1580,1580,1587,1574
46088224,1000,1000,1000,1000,83928915,1578,1577,1578,1574
46090723,1000,1000,1000,1000,84028875,1576,1575,1571,1574
46093222,1000,1000,1000,1000,84128835,1573,1572,1566,1573
46095721,1000,1000,1000,1000,84228795,1570,1570,1563,1570
46098220,1000,1000,1000,1000,84328755,1567,1568,1563,1567
46100719,1000,1000,1000,1000,84428715,1566,1567,1564,1565
46103218,1000,1000,1000,1000,84528675,1566,1567,1566,1565
46105717,1000,1000,1000,1000,84628635,1565,1566,1567,1564
46108216,1000,1000,1000,1000,84728595,1565,1565,1568,1565
46110715,1000,1000,1000,1000,84828555,1564,1564,1567,1565
46113214,1000,1000,1000,1000,84928515,1564,1563,1566,1565
46115713,1000,1000,1000,1000,85028475,1563,1563,1564,1565
46118212,1000,1000,1000,1000,85128435,1562,1562,1563,1564
46120711,1000,1000,1000,1000,85228395,1561,1562,1563,1563
46123210,1000,1000,1000,1000,85328355,1561,1561,1563,1562
46125709,1000,1000,1000,1000,85428315,1561,1562,1563,1562
46128208,1000,1000,1000,1000,85528275,1561,1561,1561,1561
46130707,1000,1000,1000,1000,85628235,1560,1560,1560,1560
46133206,1000,1000,1000,1000,85728195,1560,1560,1560,1560
46135705,1000,1000,1000,1000,85828155,1561,1560,1560,1560
46138204,1000,1000,1000,1000,85928948,1560,1560,1560,1559
46140703,1000,1000,1000,1000,86028908,1559,1560,1560,1558
46143202,1000,1000,1000,1000,86128868,1559,1559,1559,1558
46145701,1000,1000,1000,1000,86228828,1559,1559,1559,1558
46148200,1000,1000,1000,1000,86328788,1559,1559,1560,1558
46150699,1000,1000,1000,1000,86428748,1559,1558,1560,1557
46153198,1000,1000,1000,1000,86528708,1559,1559,1560,1558
46155697,1000,1000,1000,1000,86628668,1560,1559,1559,1561
46158196,1000,1000,1000,1000,86728628,1560,1560,1557,1563
46160695,1000,1000,1000,1000,86828588,1560,1560,1558,1564
46163194,1000,1000,1000,1000,86928548,1560,1561,1558,1564
46165693,1000,1000,1000,1000,87028508,1560,1561,1560,1563
46168192,1000,1000,1000,1000,87128468,1560,1561,1561,1560
46170691,1000,1000,1000,1000,87228428,1559,1560,1561,1556
46173190,1000,1000,1000,1000,87328388,1559,1559,1560,1556
46175689,1000,1000,1000,1000,87428348,1559,1558,1555,1559
46178188,1000,1000,1000,1000,87528308,1556,1556,1551,1556
46180687,1000,1000,1000,1000,87628268,1553,1553,1548,1552
46183186,1000,1000,1000,1000,87728228,1548,1547,1543,1544
46185685,1000,1000,1000,1000,87828188,1543,1543,1538,1537
46188184,1000,1000,1000,1000,87928981,1536,1536,1531,1529
46190683,1000,1000,1000,1000,88028941,1529,1529,1524,1523
46193182,1000,1000,1000,1000,88128901,1524,1524,1520,1518
46195681,1000,1000,1000,1000,88228861,1521,1522,1520,1519
46198180,1000,1000,1000,1000,88328821,1520,1520,1520,1520
46200679,1000,1000,1000,1000,88428781,1520,1520,1524,1525
46203178,1000,1000,1000,1000,88528741,1522,1522,1528,1530
46205677,1000,1000,1000,1000,88628701,1524,1523,1532,1532
46208176,1000,1000,1000,1000,88728661,1527,1527,1536,1537
46210675,1000,1000,1000,1000,88828621,1531,1531,1541,1540
46213174,1000,1000,1000,1000,88928581,1534,1534,1542,1542
46215673,1000,1000,1000,1000,89028541,1537,1537,1543,1543
46218172,1000,1000,1000,1000,89128501,1540,1540,1544,1544
46220671,1000,1000,1000,1000,89228461,1542,1543,1544,1544
46223170,1000,1000,1000,1000,89328421,1545,1545,1545,1545
46225669,1000,1000,1000,1000,89428381,1548,1548,1546,1546
46228168,1000,1000,1000,1000,89528341,1549,1549,1545,1544
46230667,1000,1000,1000,1000,89628301,1549,1549,1544,1543
46233166,1000,1000,1000,1000,89728261,1549,1549,1543,1542
46235665,1000,1000,1000,1000,89828221,1550,1550,1543,1544
46238164,1000,1000,1000,1000,89928181,1550,1550,1544,1544
46240663,1000,1000,1000,1000,90028974,1548,1549,1544,1544
46243162,1000,1000,1000,1000,90128934,1548,1548,1545,1545
46245661,1000,1000,1000,1000,90228894,1547,1548,1545,1545
46248160,1000,1000,1000,1000,90328854,1547,1546,1546,1545
46250659,1000,1000,1000,1000,90428814,1546,1546,1546,1545
46253158,1000,1000,1000,1000,90528774,1545,1545,1547,1546
46255657,1000,1000,1000,1000,90628734,1544,1544,1546,1546
46258156,1000,1000,1000,1000,90728694,1543,1543,1545,1545
46260655,1000,1000,1000,1000,90828654,1543,1543,1546,1545
46263154,1000,1000,1000,1000,90928614,1544,1543,1546,1546
46266486,1000,1000,1000,1000,91028574,1544,1543,1546,1545
46268985,1000,1000,1000,1000,91128534,1543,1543,1544,1544
46271484,1000,1000,1000,1000,91228494,1543,1544,1545,1545
46273983,1000,1000,1000,1000,91328454,1543,1543,1543,1544
46276482,1000,1000,1000,1000,91428414,1544,1544,1544,1545
46278981,1000,1000,1000,1000,91528374,1544,1544,1543,1543
46281480,1000,1000,1000,1000,91628334,1545,1545,1545,1544
46283979,1000,1000,1000,1000,91728294,1545,1545,1544,1544
46286478,1000,1000,1000,1000,91828254,1545,1545,1544,1543
46288977,1000,1000,1000,1000,91928214,1544,1544,1542,1543
46291476,1000,1000,1000,1000,92028174,1544,1544,1543,1544
46293975,1000,1000,1000,1000,92128967,1544,1544,1543,1544
46296474,1000,1000,1000,1000,92228927,1544,1544,1543,1544
46298973,1000,1000,1000,1000,92328887,1545,1544,1544,1544
46301472,1000,1000,1000,1000,92428847,1545,1545,1545,1545
46303971,1000,1000,1000,1000,92528807,1545,1545,1545,1545
46306470,1000,1000,1000,1000,92628767,1544,1545,1545,1544
46308969,1000,1000,1000,1000,92728727,1545,1544,1545,1545
46311468,1000,1000,1000,1000,92828687,1545,1545,1545,1546
46313967,1000,1000,1000,1000,92928647,1544,1544,1544,1545
46316466,1000,1000,1000,1000,93028607,1544,1544,1544,1544
46318965,1000,1000,1000,1000,93128567,1544,1544,1544,1544
46321464,1000,1000,1000,1000,93228527,1544,1544,1544,1544
46323963,1000,1000,1000,1000,93328487,1544,1544,1544,1544
46326462,1000,1000,1000,1000,93428447,1544,1544,1545,1544
46328961,1000,1000,1000,1000,93528407,1545,1545,1545,1545
46331460,1000,1000,1000,1000,93628367,1544,1545,1545,1545
46333959,1000,1000,1000,1000,93728327,1545,1544,1545,1545
46336458,1000,1000,1000,1000,93828287,1545,1545,1545,1545
46338957,1000,1000,1000,1000,93928247,1545,1545,1545,1545
46341456,1000,1000,1000,1000,94028207,1545,1545,1545,1545
46343955,1000,1000,1000,1000,94128167,1545,1545,1545,1545
46346454,1000,1000,1000,1000,94228960,1544,1544,1544,1544
46348953,1000,1000,1000,1000,94328920,1545,1545,1544,1545
46351452,1000,1000,1000,1000,94428880,1544,1544,1544,1544
46353951,1000,1000,1000,1000,94528840,1544,1545,1544,1544
46356450,1000,1000,1000,1000,94628800,1544,1544,1544,1544
46358949,1000,1000,1000,1000,94728760,1544,1544,1544,1544
46361448,1000,1000,1000,1000,94828720,1544,1545,1544,1544
46363947,1000,1000,1000,1000,94928680,1544,1544,1544,1544
46366446,1000,1000,1000,1000,95028640,1544,1545,1545,1545
46368945,1000,1000,1000,1000,95128600,1545,1544,1544,1544
46371444,1000,1000,1000,1000,95228560,1545,1544,1544,1544
46373943,1000,1000,1000,1000,95328520,1544,1544,1544,1544
46376442,1000,1000,1000,1000,95428480,1544,1544,1544,1545
46378941,1000,1000,1000,1000,95528440,1544,1545,1545,1545
46381440,1000,1000,1000,1000,95628400,1544,1544,1544,1544
46383939,1000,1000,1000,1000,95728360,1545,1545,1545,1545
46386438,1000,1000,1000,1000,95828320,1545,1545,1545,1544
46388937,1000,1000,1000,1000,95928280,1544,1545,1545,1544
46391436,1000,1000,1000,1000,96028240,1544,1545,1544,1544
46393935,1000,1000,1000,1000,96128200,1545,1544,1544,1544
46396434,1000,1000,1000,1000,96228160,1545,1545,1544,1544
46398933,1000,1000,1000,1000,96328953,1544,1544,1544,1544
46401432,1000,1000,1000,1000,96428913,1544,1544,1544,1544
46403931,1000,1000,1000,1000,96528873,1545,1544,1544,1545
46406430,1000,1000,1000,1000,96628833,1545,1545,1545,1545
46408929,1000,1000,1000,1000,96728793,1545,1545,1545,1545
46411428,1000,1000,1000,1000,96828753,1544,1544,1544,1544
46413927,1000,1000,1000,1000,96928713,1544,1544,1545,1545
46416426,1000,1000,1000,1000,97028673,1544,1544,1545,1544
46418925,1000,1000,1000,1000,97128633,1544,1545,1545,1545
46421424,1000,1000,1000,1000,97228593,1544,1544,1544,1544
46423923,1000,1000,1000,1000,97328553,1544,1544,1544,1544
46426422,1000,1000,1000,1000,97428513,1545,1545,1545,1545
46428921,1000,1000,1000,1000,97528473,1544,1544,1543,1544
46431420,1000,1000,1000,1000,97628433,1544,1544,1543,1543
46433919,1000,1000,1000,1000,97728393,1544,1544,1544,1544
46436418,1000,1000,1000,1000,97828353,1479,1479,1447,1446
46438917,1000,1000,1000,1000,97928313,1387,1385,1293,1292
46441416,1000,1000,1000,1000,98028273,1354,1352,1230,1228
46443915,1000,1000,1000,1000,98128233,1343,1342,1209,1208
46446414,1000,1000,1000,1000,98228193,1329,1328,1180,1178
46448913,1000,1000,1000,1000,98328986,1297,1296,1152,1150
46451412,1000,1000,1000,1000,98428946,1212,1211,1153,1150
46453911,1000,1000,1000,1000,98528906,1117,1115,1153,1150
46456410,1000,1000,1000,1000,98628866,1011,1009,1153,1150
46458909,1000,1000,1000,1000,98728826,978,976,1152,1150
46461408,1000,1000,1000,1000,98828786,978,976,1153,1150
46463907,1000,1000,1000,1000,98928746,978,976,1152,1150
46466406,1000,1000,1000,1000,99028706,978,963,1150,1170
46468905,1000,1000,1000,1000,99128666,979,969,1150,1162
46471404,1000,1000,1000,1000,99228626,979,971,1150,1158
46473903,1000,1000,1000,1000,99328586,979,972,1150,1158
46476402,1000,1000,1000,1000,99428546,979,972,1150,1158
46478901,1000,1000,1000,1000,99528506,979,971,1150,1158
46481400,1000,1000,1000,1000,99628466,979,971,1150,1158
46483899,1000,1000,1000,1000,99728426,979,971,1150,1159
46486398,1000,1000,1000,1000,99828386,979,977,1150,1150
46488897,1000,1000,1000,1000,99928346,979,977,1150,1151
46491396,1000,1000,1000,1000,100028306,979,976,1150,1151
46493895,1000,1000,1000,1000,100128266,979,976,1150,1152
46496394,1000,1000,1000,1000,100228226,876,874,1150,1150
46498893,1000,1000,1000,1000,100328186,1000,1000,1000,1000
46501392,1000,1000,1000,1000,100428979,1000,1000,1000,1000
46503891,1000,1000,1000,1000,100528939,1000,1000,1000,1000
46506390,1000,1000,1000,1000,100628899,1000,1000,1000,1000
46508889,1000,1000,1000,1000,100728859,1000,1000,1000,1000
46511388,1000,1000,1000,1000,100828819,1000,1000,1000,1000
46513887,1000,1000,1000,1000,100928779,1000,1000,1000,1000
46516386,1000,1000,1000,1000,101028739,1000,1000,1000,1000
46518885,1000,1000,1000,1000,101128699,1000,1000,1000,1000
46521384,1000,1000,1000,1000,101228659,1000,1000,1000,1000
46523883,1000,1000,1000,1000,101328619,1000,1000,1000,1000
46526382,1000,1000,1000,1000,101428579,1000,1000,1000,1000
46528881,1000,1000,1000,1000,101528539,1000,1000,1000,1000
46531380,1000,1000,1000,1000,101628499,1000,1000,1000,1000
46533879,1000,1000,1000,1000,101728459,1000,1000,1000,1000
46536378,1000,1000,1000,1000,101828419,1000,1000,1000,1000
46538877,1000,1000,1000,1000,101928379,1000,1000,1000,1000
46541376,1000,1000,1000,1000,102028339,1000,1000,1000,1000
46543875,1000,1000,1000,1000,102128299,1000,1000,1000,1000
46546374,1000,1000,1000,1000,102228259,1000,1000,1000,1000
46548873,1000,1000,1000,1000,102328219,1000,1000,1000,1000
46551372,1000,1000,1000,1000,102428179,1000,1000,1000,1000
46553871,1000,1000,1000,1000,102528972,1000,1000,1000,1000
46556370,1000,1000,1000,1000,102628932,1000,1000,1000,1000
46558869,1000,1000,1000,1000,102728892,1000,1000,1000,1000
46561368,1000,1000,1000,1000,102828852,1000,1000,1000,1000
46563867,1000,1000,1000,1000,102928812,1000,1000,1000,1000
46566366,1000,1000,1000,1000,103028772,1000,1000,1000,1000
46568865,1000,1000,1000,1000,103128732,1000,1000,1000,1000
46571364,1000,1000,1000,1000,103228692,1000,1000,1000,1000
46573863,1000,1000,1000,1000,103328652,1000,1000,1000,1000
46576362,1000,1000,1000,1000,103428612,1000,1000,1000,1000
46578861,1000,1000,1000,1000,103528572,1000,1000,1000,1000
46581360,1000,1000,1000,1000,103628532,1000,1000,1000,1000
46583859,1000,1000,1000,1000,103728492,1000,1000,1000,1000
46586358,1000,1000,1000,1000,103828452,1000,1000,1000,1000
46588857,1000,1000,1000,1000,103928412,1000,1000,1000,1000
46591356,1000,1000,1000,1000,104028372,1000,1000,1000,1000
46593855,1000,1000,1000,1000,104128332,1000,1000,1000,1000
46596354,1000,1000,1000,1000,104228292,1000,1000,1000,1000
46598853,1000,1000,1000,1000,104328252,1000,1000,1000,1000
46601352,1000,1000,1000,1000,104428212,1000,1000,1000,1000
46603851,1000,1000,1000,1000,104528172,1000,1000,1000,1000
46606350,1000,1000,1000,1000,104628965,1000,1000,1000,1000
46608849,1000,1000,1000,1000,104728925,1000,1000,1000,1000
46611348,1000,1000,1000,1000,104828885,1000,1000,1000,1000
46613847,1000,1000,1000,1000,104928845,1000,1000,1000,1000
46616346,1000,1000,1000,1000,105028805,1000,1000,1000,1000
46618845,1000,1000,1000,1000,105128765,1000,1000,1000,1000
46621344,1000,1000,1000,1000,105228725,1000,1000,1000,1000
46623843,1000,1000,1000,1000,105328685,1000,1000,1000,1000
46626342,1000,1000,1000,1000,105428645,1000,1000,1000,1000
46628841,1000,1000,1000,1000,105528605,1000,1000,1000,1000
46631340,1000,1000,1000,1000,105628565,1000,1000,1000,1000
46633839,1000,1000,1000,1000,105728525,1000,1000,1000,1000
46636338,1000,1000,1000,1000,105828485,1000,1000,1000,1000
46638837,1000,1000,1000,1000,105928445,1000,1000,1000,1000
46641336,1000,1000,1000,1000,106028405,1000,1000,1000,1000
46643835,1000,1000,1000,1000,106128365,1000,1000,1000,1000
46646334,1000,1000,1000,1000,106228325,1000,1000,1000,1000
46648833,1000,1000,1000,1000,106328285,1000,1000,1000,1000
46651332,1000,1000,1000,1000,106428245,1000,1000,1000,1000
46653831,1000,1000,1000,1000,106528205,1000,1000,1000,1000
46656330,1000,1000,1000,1000,106628165,1000,1000,1000,1000
46658829,1000,1000,1000,1000,106728958,1000,1000,1000,1000
46661328,1000,1000,1000,1000,106828918,1000,1000,1000,1000
46663827,1000,1000,1000,1000,106928878,1000,1000,1000,1000
46666326,1000,1000,1000,1000,107028838,1000,1000,1000,1000
46668825,1000,1000,1000,1000,107128798,1000,1000,1000,1000
46671324,1000,1000,1000,1000,107228758,1000,1000,1000,1000
46673823,1000,1000,1000,1000,107328718,1000,1000,1000,1000
46676322,1000,1000,1000,1000,107428678,1000,1000,1000,1000
46678821,1000,1000,1000,1000,107528638,1000,1000,1000,1000
46681320,1000,1000,1000,1000,107628598,1000,1000,1000,1000
46683819,1000,1000,1000,1000,107728558,1000,1000,1000,1000
46686318,1000,1000,1000,1000,107828518,1000,1000,1000,1000
46688817,1000,1000,1000,1000,107928478,1000,1000,1000,1000
46691316,1000,1000,1000,1000,108028438,1000,1000,1000,1000
46693815,1000,1000,1000,1000,108128398,1000,1000,1000,1000
46696314,1000,1000,1000,1000,108228358,1000,1000,1000,1000
46698813,1000,1000,1000,1000,108328318,1000,1000,1000,1000
46701312,1000,1000,1000,1000,108428278,1000,1000,1000,1000
46703811,1000,1000,1000,1000,108528238,1000,1000,1000,1000
46706310,1000,1000,1000,1000,108628198,1000,1000,1000,1000
46708809,1000,1000,1000,1000,108728158,1000,1000,1000,1000
46711308,1000,1000,1000,1000,108828951,1000,1000,1000,1000
46713807,1000,1000,1000,1000,108928911,1000,1000,1000,1000
46716306,1000,1000,1000,1000,109028871,1000,1000,1000,1000
46718805,1000,1000,1000,1000,109128831,1000,1000,1000,1000
46721304,1000,1000,1000,1000,109228791,1000,1000,1000,1000
46723803,1000,1000,1000,1000,109328751,1000,1000,1000,1000
46726302,1000,1000,1000,1000,109428711,1000,1000,1000,1000
46728801,1000,1000,1000,1000,109528671,1000,1000,1000,1000
46731300,1000,1000,1000,1000,109628631,1000,1000,1000,1000
46733799,1000,1000,1000,1000,109728591,1000,1000,1000,1000
46736298,1000,1000,1000,1000,109828551,1000,1000,1000,1000
46738797,1000,1000,1000,1000,109928511,1000,1000,1000,1000
46741296,1000,1000,1000,1000,110028471,1000,1000,1000,1000
46743795,1000,1000,1000,1000,110128431,1000,1000,1000,1000
46746294,1000,1000,1000,1000,110228391,1000,1000,1000,1000
46748793,1000,1000,1000,1000,110328351,1000,1000,1000,1000
46751292,1000,1000,1000,1000,110428311,1000,1000,1000,1000
46753791,1000,1000,1000,1000,110528271,1000,1000,1000,1000
46756290,1000,1000,1000,1000,110628231,1000,1000,1000,1000
46758789,1000,1000,1000,1000,110728191,1000,1000,1000,1000
46761288,1000,1000,1000,1000,110828984,1000,1000,1000,1000
46763787,1000,1000,1000,1000,110928944,1000,1000,1000,1000
46766286,1000,1000,1000,1000,111028904,1000,1000,1000,1000
46768785,1000,1000,1000,1000,111128864,1000,1000,1000,1000
46771284,1000,1000,1000,1000,111228824,1000,1000,1000,1000
46773783,1000,1000,1000,1000,111328784,1000,1000,1000,1000
46776282,1000,1000,1000,1000,111428744,1000,1000,1000,1000
46778781,1000,1000,1000,1000,111528704,1000,1000,1000,1000
46781280,1000,1000,1000,1000,111628664,1000,1000,1000,1000
46783779,1000,1000,1000,1000,111728624,1000,1000,1000,1000
46786278,1000,1000,1000,1000,111828584,1000,1000,1000,1000
46788777,1000,1000,1000,1000,111928544,1000,1000,1000,1000
46791276,1000,1000,1000,1000,112028504,1000,1000,1000,1000
46793775,1000,1000,1000,1000,112128464,1000,1000,1000,1000
46796274,1000,1000,1000,1000,112228424,1000,1000,1000,1000
46798773,1000,1000,1000,1000,112328384,1000,1000,1000,1000
46801272,1000,1000,1000,1000,112428344,1000,1000,1000,1000
46803771,1000,1000,1000,1000,112528304,1000,1000,1000,1000
46806270,1000,1000,1000,1000,112628264,1000,1000,1000,1000
46808769,1000,1000,1000,1000,112728224,1000,1000,1000,1000
46811268,1000,1000,1000,1000,112828184,1000,1000,1000,1000
46813767,1000,1000,1000,1000,112928977,1000,1000,1000,1000
46816266,1000,1000,1000,1000,113028937,1000,1000,1000,1000
46818765,1000,1000,1000,1000,113128897,1000,1000,1000,1000
46821264,1000,1000,1000,1000,113228857,1000,1000,1000,1000
46823763,1000,1000,1000,1000,113328817,1000,1000,1000,1000
46826262,1000,1000,1000,1000,113428777,1000,1000,1000,1000
46828761,1000,1000,1000,1000,113528737,1000,1000,1000,1000
46831260,1000,1000,1000,1000,113628697,1000,1000,1000,1000
46833759,1000,1000,1000,1000,113728657,1000,1000,1000,1000
46836258,1000,1000,1000,1000,113828617,1000,1000,1000,1000
46838757,1000,1000,1000,1000,113928577,1000,1000,1000,1000
46841256,1000,1000,1000,1000,114028537,1000,1000,1000,1000
46843755,1000,1000,1000,1000,114128497,1000,1000,1000,1000
46846254,1000,1000,1000,1000,114228457,1000,1000,1000,1000
46848753,1000,1000,1000,1000,114328417,1000,1000,1000,1000
46851252,1000,1000,1000,1000,114428377,1000,1000,1000,1000
46853751,1000,1000,1000,1000,114528337,1000,1000,1000,1000
46856250,1000,1000,1000,1000,114628297,1000,1000,1000,1000
46858749,1000,1000,1000,1000,114728257,1000,1000,1000,1000
46861248,1000,1000,1000,1000,114828217,1000,1000,1000,1000
46863747,1000,1000,1000,1000,114928177,1000,1000,1000,1000
46866246,1000,1000,1000,1000,115028970,1000,1000,1000,1000
46868745,1000,1000,1000,1000,115128930,1000,1000,1000,1000
46871244,1000,1000,1000,1000,115228890,1000,1000,1000,1000
46873743,1000,1000,1000,1000,,,,,
46876242,1000,1000,1000,1000,,,,,
46878741,1000,1000,1000,1000,,,,,
46881240,1000,1000,1000,1000,,,,,
46883739,1000,1000,1000,1000,,,,,
46886238,1000,1000,1000,1000,,,,,
46888737,1000,1000,1000,1000,,,,,
46891236,1000,1000,1000,1000,,,,,
46893735,1000,1000,1000,1000,,,,,
46896234,1000,1000,1000,1000,,,,,
46898733,1000,1000,1000,1000,,,,,
46901232,1000,1000,1000,1000,,,,,
46903731,1000,1000,1000,1000,,,,,
46906230,1000,1000,1000,1000,,,,,
46908729,1000,1000,1000,1000,,,,,
46911228,1000,1000,1000,1000,,,,,
46913727,1000,1000,1000,1000,,,,,
46916226,1000,1000,1000,1000,,,,,
46918725,1000,1000,1000,1000,,,,,
46921224,1000,1000,1000,1000,,,,,
46923723,1000,1000,1000,1000,,,,,
46926222,1000,1000,1000,1000,,,,,
46928721,1000,1000,1000,1000,,,,,
46931220,1000,1000,1000,1000,,,,,
46933719,1000,1000,1000,1000,,,,,
46936218,1000,1000,1000,1000,,,,,
46938717,1000,1000,1000,1000,,,,,
46941216,1000,1000,1000,1000,,,,,
46943715,1000,1000,1000,1000,,,,,
46946214,1000,1000,1000,1000,,,,,
46948713,1000,1000,1000,1000,,,,,
46951212,1000,1000,1000,1000,,,,,
46953711,1000,1000,1000,1000,,,,,
46956210,1000,1000,1000,1000,,,,,
46958709,1000,1000,1000,1000,,,,,
46961208,1000,1000,1000,1000,,,,,
46963707,1000,1000,1000,1000,,,,,
46966206,1000,1000,1000,1000,,,,,
46968705,1000,1000,1000,1000,,,,,
46971204,1000,1000,1000,1000,,,,,
46973703,1000,1000,1000,1000,,,,,
46976202,1000,1000,1000,1000,,,,,
46978701,1000,1000,1000,1000,,,,,
46981200,1000,1000,1000,1000,,,,,
46983699,1000,1000,1000,1000,,,,,
46986198,1000,1000,1000,1000,,,,,
46988697,1000,1000,1000,1000,,,,,
46991196,1000,1000,1000,1000,,,,,
46993695,1000,1000,1000,1000,,,,,
46996194,1000,1000,1000,1000,,,,,
46998693,1000,1000,1000,1000,,,,,
47001192,1000,1000,1000,1000,,,,,
47003691,1000,1000,1000,1000,,,,,
47006190,1000,1000,1000,1000,,,,,
47008689,1000,1000,1000,1000,,,,,
47011188,1000,1000,1000,1000,,,,,
47013687,1000,1000,1000,1000,,,,,
47016186,1000,1000,1000,1000,,,,,
47018685,1000,1000,1000,1000,,,,,
47021184,1000,1000,1000,1000,,,,,
47023683,1000,1000,1000,1000,,,,,
47026182,1000,1000,1000,1000,,,,,
47028681,1000,1000,1000,1000,,,,,
47031180,1000,1000,1000,1000,,,,,
47033679,1000,1000,1000,1000,,,,,
47036178,1000,1000,1000,1000,,,,,
47038677,1000,1000,1000,1000,,,,,
47041176,1000,1000,1000,1000,,,,,
47043675,1000,1000,1000,1000,,,,,
47046174,1000,1000,1000,1000,,,,,
47048673,1000,1000,1000,1000,,,,,
47051172,1000,1000,1000,1000,,,,,
47053671,1000,1000,1000,1000,,,,,
47056170,1000,1000,1000,1000,,,,,
47058669,1000,1000,1000,1000,,,,,
47061168,1000,1000,1000,1000,,,,,
47063667,1000,1000,1000,1000,,,,,
47066166,1000,1000,1000,1000,,,,,
47068665,1000,1000,1000,1000,,,,,
47071164,1000,1000,1000,1000,,,,,
47073663,1000,1000,1000,1000,,,,,
47076162,1000,1000,1000,1000,,,,,
47078661,1000,1000,1000,1000,,,,,
47081160,1000,1000,1000,1000,,,,,
47083659,1000,1000,1000,1000,,,,,
47086158,1000,1000,1000,1000,,,,,
47088657,1000,1000,1000,1000,,,,,
47091156,1000,1000,1000,1000,,,,,
47093655,1000,1000,1000,1000,,,,,
47096154,1000,1000,1000,1000,,,,,
47098653,1000,1000,1000,1000,,,,,
47101152,1000,1000,1000,1000,,,,,
47103651,1000,1000,1000,1000,,,,,
47106150,1000,1000,1000,1000,,,,,
47108649,1000,1000,1000,1000,,,,,
47111148,1000,1000,1000,1000,,,,,
47113647,1000,1000,1000,1000,,,,,
47116146,1000,1000,1000,1000,,,,,
47118645,1000,1000,1000,1000,,,,,
47121144,1000,1000,1000,1000,,,,,
47123643,1000,1000,1000,1000,,,,,
47126142,1001,1001,1001,1001,,,,,
47128641,1002,1002,1002,1002,,,,,
47131140,1003,1003,1003,1003,,,,,
47133639,1003,1003,1003,1003,,,,,
47136138,1004,1004,1004,1004,,,,,
47138637,1005,1005,1005,1005,,,,,
47141136,1006,1006,1006,1006,,,,,
47143635,1006,1006,1006,1006,,,,,
47146134,1007,1007,1007,1007,,,,,
47148633,1008,1008,1008,1008,,,,,
47151132,1009,1009,1009,1009,,,,,
47153631,1009,1009,1009,1009,,,,,
47156130,1010,1010,1010,1010,,,,,
47158629,1011,1011,1011,1011,,,,,
47161128,1012,1012,1012,1012,,,,,
47163627,1012,1012,1012,1012,,,,,
47166126,1013,1013,1013,1013,,,,,
47168625,1014,1014,1014,1014,,,,,
47171124,1015,1015,1015,1015,,,,,
47173623,1015,1015,1015,1015,,,,,
47176122,1016,1016,1016,1016,,,,,
47178621,1017,1017,1017,1017,,,,,
47181120,1018,1018,1018,1018,,,,,
47183619,1018,1018,1018,1018,,,,,
47186118,1019,1019,1019,1019,,,,,
47188617,1020,1020,1020,1020,,,,,
47191116,1021,1021,1021,1021,,,,,
47193615,1021,1021,1021,1021,,,,,
47196114,1022,1022,1022,1022,,,,,
47198613,1023,1023,1023,1023,,,,,
47201112,1024,1024,1024,1024,,,,,
47203611,1024,1024,1024,1024,,,,,
47206110,1025,1025,1025,1025,,,,,
47208609,1026,1026,1026,1026,,,,,
47211108,1027,1027,1027,1027,,,,,
47213607,1027,1027,1027,1027,,,,,
47216106,1028,1028,1028,1028,,,,,
47218605,1029,1029,1029,1029,,,,,
47221104,1030,1030,1030,1030,,,,,
47223603,1030,1030,1030,1030,,,,,
47226102,1031,1031,1031,1031,,,,,
47228601,1032,1032,1032,1032,,,,,
47231100,1033,1033,1033,1033,,,,,
47233599,1033,1033,1033,1033,,,,,
47236098,1034,1034,1034,1034,,,,,
47238597,1035,1035,1035,1035,,,,,
47241096,1036,1036,1036,1036,,,,,
47243595,1036,1036,1036,1036,,,,,
47246094,1037,1037,1037,1037,,,,,
47248593,1038,1038,1038,1038,,,,,
47251092,1039,1039,1039,1039,,,,,
47253591,1039,1039,1039,1039,,,,,
47256090,1040,1040,1040,1040,,,,,
47258589,1041,1041,1041,1041,,,,,
47261088,1042,1042,1042,1042,,,,,
47263587,1042,1042,1042,1042,,,,,
47266086,1043,1043,1043,1043,,,,,
47268585,1044,1044,1044,1044,,,,,
47271084,1045,1045,1045,1045,,,,,
47273583,1045,1045,1045,1045,,,,,
47276082,1046,1046,1046,1046,,,,,
47278581,1047,1047,1047,1047,,,,,
47281080,1048,1048,1048,1048,,,,,
47283579,1048,1048,1048,1048,,,,,
47286078,1049,1049,1049,1049,,,,,
47288577,1050,1050,1050,1050,,,,,
47291076,1051,1051,1051,1051,,,,,
47293575,1051,1051,1051,1051,,,,,
47296074,1052,1052,1052,1052,,,,,
47298573,1053,1053,1053,1053,,,,,
47301072,1054,1054,1054,1054,,,,,
47303571,1054,1054,1054,1054,,,,,
47306070,1055,1055,1055,1055,,,,,
47308569,1056,1056,1056,1056,,,,,
47311068,1057,1057,1057,1057,,,,,
47313567,1057,1057,1057,1057,,,,,
47316066,1058,1058,1058,1058,,,,,
47318565,1059,1059,1059,1059,,,,,
47321064,1060,1060,1060,1060,,,,,
47323563,1060,1060,1060,1060,,,,,
47326062,1061,1061,1061,1061,,,,,
47328561,1062,1062,1062,1062,,,,,
47331060,1063,1063,1063,1063,,,,,
47333559,1063,1063,1063,1063,,,,,
47336058,1064,1064,1064,1064,,,,,
47338557,1065,1065,1065,1065,,,,,
47341056,1066,1066,1066,1066,,,,,
47343555,1066,1066,1066,1066,,,,,
47346054,1067,1067,1067,1067,,,,,
47348553,1068,1068,1068,1068,,,,,
47351052,1069,1069,1069,1069,,,,,
47353551,1069,1069,1069,1069,,,,,
47356050,1070,1070,1070,1070,,,,,
47358549,1071,1071,1071,1071,,,,,
47361048,1072,1072,1072,1072,,,,,
47363547,1072,1072,1072,1072,,,,,
47366046,1073,1073,1073,1073,,,,,
47368545,1074,1074,1074,1074,,,,,
47371044,1075,1075,1075,1075,,,,,
47373543,1075,1075,1075,1075,,,,,
47376042,1076,1076,1076,1076,,,,,
47378541,1077,1077,1077,1077,,,,,
47381040,1078,1078,1078,1078,,,,,
47383539,1078,1078,1078,1078,,,,,
47386038,1079,1079,1079,1079,,,,,
47388537,1080,1080,1080,1080,,,,,
47391036,1081,1081,1081,1081,,,,,
47393535,1081,1081,1081,1081,,,,,
47396034,1082,1082,1082,1082,,,,,
47398533,1083,1083,1083,1083,,,,,
47401032,1084,1084,1084,1084,,,,,
47403531,1084,1084,1084,1084,,,,,
47406030,1085,1085,1085,1085,,,,,
47408529,1086,1086,1086,1086,,,,,
47411028,1087,1087,1087,1087,,,,,
47413527,1087,1087,1087,1087,,,,,
47416026,1088,1088,1088,1088,,,,,
47418525,1089,1089,1089,1089,,,,,
47421024,1090,1090,1090,1090,,,,,
47423523,1090,1090,1090,1090,,,,,
47426022,1091,1091,1091,1091,,,,,
47428521,1092,1092,1092,1092,,,,,
47431020,1093,1093,1093,1093,,,,,
47433519,1093,1093,1093,1093,,,,,
47436018,1094,1094,1094,1094,,,,,
47438517,1095,1095,1095,1095,,,,,
47441016,1096,1096,1096,1096,,,,,
47443515,1096,1096,1096,1096,,,,,
47446014,1097,1097,1097,1097,,,,,
47448513,1098,1098,1098,1098,,,,,
47451012,1099,1099,1099,1099,,,,,
47453511,1099,1099,1099,1099,,,,,
47456010,1100,1100,1100,1100,,,,,
47458509,1101,1101,1101,1101,,,,,
47461008,1101,1101,1101,1101,,,,,
47463507,1102,1102,1102,1102,,,,,
47466006,1103,1103,1103,1103,,,,,
47468505,1104,1104,1104,1104,,,,,
47471004,1104,1104,1104,1104,,,,,
47473503,1105,1105,1105,1105,,,,,
47476002,1106,1106,1106,1106,,,,,
47478501,1107,1107,1107,1107,,,,,
47481000,1107,1107,1107,1107,,,,,
47483499,1108,1108,1108,1108,,,,,
47485998,1109,1109,1109,1109,,,,,
47488497,1110,1110,1110,1110,,,,,
47490996,1110,1110,1110,1110,,,,,
47493495,1111,1111,1111,1111,,,,,
47495994,1112,1112,1112,1112,,,,,
47498493,1113,1113,1113,1113,,,,,
47500992,1113,1113,1113,1113,,,,,
47503491,1114,1114,1114,1114,,,,,
47505990,1115,1115,1115,1115,,,,,
47508489,1116,1116,1116,1116,,,,,
47510988,1116,1116,1116,1116,,,,,
47513487,1117,1117,1117,1117,,,,,
47515986,1118,1118,1118,1118,,,,,
47518485,1119,1119,1119,1119,,,,,
47520984,1119,1119,1119,1119,,,,,
47523483,1120,1120,1120,1120,,,,,
47525982,1121,1121,1121,1121,,,,,
47528481,1122,1122,1122,1122,,,,,
47530980,1122,1122,1122,1122,,,,,
47533479,1123,1123,1123,1123,,,,,
47535978,1124,1124,1124,1124,,,,,
47538477,1125,1125,1125,1125,,,,,
47540976,1125,1125,1125,1125,,,,,
47543475,1126,1126,1126,1126,,,,,
47545974,1127,1127,1127,1127,,,,,
47548473,1128,1128,1128,1128,,,,,
47550972,1128,1128,1128,1128,,,,,
47553471,1129,1129,1129,1129,,,,,
47555970,1130,1130,1130,1130,,,,,
47558469,1131,1131,1131,1131,,,,,
47560968,1131,1131,1131,1131,,,,,
47563467,1132,1132,1132,1132,,,,,
47565966,1133,1133,1133,1133,,,,,
47568465,1134,1134,1134,1134,,,,,
47570964,1134,1134,1134,1134,,,,,
47573463,1135,1135,1135,1135,,,,,
47575962,1136,1136,1136,1136,,,,,
47578461,1137,1137,1137,1137,,,,,
47580960,1137,1137,1137,1137,,,,,
47583459,1138,1138,1138,1138,,,,,
47585958,1139,1139,1139,1139,,,,,
47588457,1140,1140,1140,1140,,,,,
47590956,1140,1140,1140,1140,,,,,
47593455,1141,1141,1141,1141,,,,,
47595954,1142,1142,1142,1142,,,,,
47598453,1143,1143,1143,1143,,,,,
47600952,1143,1143,1143,1143,,,,,
47603451,1144,1144,1144,1144,,,,,
47605950,1145,1145,1145,1145,,,,,
47608449,1146,1146,1146,1146,,,,,
47610948,1146,1146,1146,1146,,,,,
47613447,1147,1147,1147,1147,,,,,
47615946,1148,1148,1148,1148,,,,,
47618445,1149,1149,1149,1149,,,,,
47620944,1149,1149,1149,1149,,,,,
47623443,1150,1150,1150,1150,,,,,
47625942,1161,1154,1155,1161,,,,,
47628441,1169,1163,1163,1169,,,,,
47630940,1176,1170,1171,1177,,,,,
47633439,1184,1178,1179,1185,,,,,
47635938,1192,1186,1186,1192,,,,,
47638437,1199,1193,1194,1200,,,,,
47640936,1206,1201,1201,1207,,,,,
47643435,1214,1208,1209,1214,,,,,
47645934,1221,1215,1216,1221,,,,,
47648433,1228,1222,1223,1228,,,,,
47650932,1235,1229,1230,1235,,,,,
47653431,1241,1236,1237,1242,,,,,
47655930,1248,1243,1243,1249,,,,,
47658429,1255,1250,1250,1255,,,,,
47660928,1261,1256,1257,1262,,,,,
47663427,1268,1263,1263,1268,,,,,
47665926,1274,1269,1269,1275,,,,,
47668425,1281,1275,1276,1281,,,,,
47670924,1287,1282,1282,1287,,,,,
47673423,1293,1288,1288,1293,,,,,
47675922,1299,1294,1294,1299,,,,,
47678421,1305,1300,1300,1305,,,,,
47680920,1311,1306,1306,1311,,,,,
47683419,1317,1312,1312,1317,,,,,
47685918,1323,1318,1318,1323,,,,,
47688417,1328,1324,1324,1329,,,,,
47690916,1334,1329,1330,1334,,,,,
47693415,1340,1335,1335,1340,,,,,
47695914,1345,1341,1341,1346,,,,,
47698413,1351,1346,1347,1351,,,,,
47700912,1357,1352,1352,1357,,,,,
47703411,1362,1357,1358,1362,,,,,
47705910,1367,1363,1363,1368,,,,,
47708409,1373,1368,1368,1373,,,,,
47710908,1378,1373,1374,1378,,,,,
47713407,1383,1379,1379,1384,,,,,
47715906,1389,1384,1384,1389,,,,,
47718405,1394,1389,1389,1394,,,,,
47720904,1399,1394,1395,1399,,,,,
47723403,1404,1399,1400,1404,,,,,
47725902,1409,1405,1405,1409,,,,,
47728401,1414,1410,1410,1414,,,,,
47730900,1419,1415,1415,1419,,,,,
47733399,1424,1420,1420,1424,,,,,
47735898,1429,1424,1425,1429,,,,,
47738397,1434,1429,1430,1434,,,,,
47740896,1439,1434,1434,1439,,,,,
47743395,1443,1439,1439,1444,,,,,
47745894,1448,1444,1444,1448,,,,,
47748393,1453,1449,1449,1453,,,,,
47750892,1458,1453,1454,1458,,,,,
47753391,1462,1458,1458,1463,,,,,
47755890,1467,1463,1463,1467,,,,,
47758389,1472,1467,1468,1472,,,,,
47760888,1476,1472,1472,1476,,,,,
47763387,1481,1476,1477,1481,,,,,
47765886,1485,1481,1481,1486,,,,,
47768385,1490,1486,1486,1490,,,,,
47770884,1494,1490,1490,1494,,,,,
47773383,1499,1495,1495,1499,,,,,
47775882,1503,1499,1499,1503,,,,,
47778381,1507,1503,1504,1508,,,,,
47780880,1512,1508,1508,1512,,,,,
47783379,1516,1512,1512,1516,,,,,
47785878,1520,1517,1517,1521,,,,,
47788377,1525,1521,1521,1525,,,,,
47790876,1529,1525,1525,1529,,,,,
47793375,1533,1529,1530,1534,,,,,
47795874,1537,1534,1534,1538,,,,,
47798373,1542,1538,1538,1542,,,,,
47800872,1546,1542,1542,1546,,,,,
47803371,1550,1546,1546,1550,,,,,
47805870,1554,1550,1551,1554,,,,,
47808369,1558,1555,1555,1559,,,,,
47810868,1562,1559,1559,1563,,,,,
47813367,1566,1563,1563,1567,,,,,
47815866,1570,1567,1567,1571,,,,,
47818365,1574,1571,1571,1575,,,,,
47820864,1578,1575,1575,1579,,,,,
47823363,1582,1579,1579,1583,,,,,
47825862,1586,1583,1583,1587,,,,,
47828361,1590,1587,1587,1591,,,,,
47830860,1594,1591,1591,1595,,,,,
47833359,1598,1595,1595,1599,,,,,
47835858,1602,1599,1599,1602,,,,,
47838357,1606,1603,1603,1606,,,,,
47840856,1610,1606,1607,1610,,,,,
47843355,1614,1610,1611,1614,,,,,
47845854,1618,1614,1614,1618,,,,,
47848353,1621,1618,1618,1622,,,,,
47850852,1625,1622,1622,1625,,,,,
47853351,1629,1626,1626,1629,,,,,
47855850,1633,1629,1630,1633,,,,,
47858349,1637,1633,1633,1637,,,,,
47860848,1640,1637,1637,1641,,,,,
47863347,1644,1640,1641,1644,,,,,
47865846,1648,1644,1645,1648,,,,,
47868345,1652,1648,1648,1652,,,,,
47870844,1655,1652,1652,1655,,,,,
47873343,1659,1655,1656,1659,,,,,
47875842,1663,1659,1659,1663,,,,,
47878341,1666,1662,1663,1666,,,,,
47880840,1670,1666,1666,1670,,,,,
47883339,1674,1670,1670,1674,,,,,
47885838,1677,1673,1674,1677,,,,,
47888337,1681,1677,1677,1681,,,,,
47890836,1684,1680,1681,1684,,,,,
47893335,1688,1684,1684,1688,,,,,
47895834,1691,1687,1688,1691,,,,,
47898333,1695,1691,1691,1695,,,,,
47900832,1698,1694,1695,1699,,,,,
47903331,1702,1698,1698,1702,,,,,
47905830,1706,1701,1702,1706,,,,,
47908329,1709,1705,1705,1709,,,,,
47910828,1712,1708,1709,1712,,,,,
47913327,1716,1712,1712,1716,,,,,
47915826,1719,1715,1716,1719,,,,,
47918325,1723,1719,1719,1723,,,,,
47920824,1726,1722,1722,1726,,,,,
47923323,1730,1725,1726,1730,,,,,
47925822,1733,1729,1729,1733,,,,,
47928321,1736,1732,1732,1736,,,,,
47930820,1740,1735,1736,1740,,,,,
47933319,1743,1739,1739,1743,,,,,
47935818,1746,1742,1743,1746,,,,,
47938317,1750,1745,1746,1750,,,,,
47940816,1753,1749,1749,1753,,,,,
47943315,1756,1752,1753,1756,,,,,
47945814,1760,1755,1756,1760,,,,,
47948313,1763,1759,1759,1763,,,,,
47950812,1766,1762,1762,1766,,,,,
47953311,1770,1765,1766,1770,,,,,
47955810,1773,1768,1769,1773,,,,,
47958309,1776,1772,1772,1776,,,,,
47960808,1779,1775,1775,1779,,,,,
47963307,1783,1778,1779,1783,,,,,
47965806,1786,1781,1782,1786,,,,,
47968305,1789,1785,1785,1789,,,,,
47970804,1792,1788,1788,1792,,,,,
47973303,1795,1791,1791,1795,,,,,
47975802,1798,1794,1795,1798,,,,,
47978301,1802,1797,1798,1802,,,,,
47980800,1805,1801,1801,1805,,,,,
47983299,1808,1804,1804,1808,,,,,
47985798,1811,1807,1807,1811,,,,,
47988297,1814,1810,1810,1814,,,,,
47990796,1817,1813,1814,1817,,,,,
47993295,1820,1816,1817,1820,,,,,
47995794,1823,1819,1820,1823,,,,,
47998293,1826,1823,1823,1826,,,,,
48000792,1830,1826,1826,1830,,,,,
48003291,1833,1829,1829,1833,,,,,
48005790,1836,1832,1832,1836,,,,,
48008289,1839,1835,1835,1839,,,,,
48010788,1842,1838,1838,1842,,,,,
48013287,1845,1841,1841,1845,,,,,
48015786,1848,1844,1844,1848,,,,,
48018285,1851,1847,1847,1851,,,,,
48020784,1854,1850,1850,1854,,,,,
48023283,1857,1853,1853,1857,,,,,
48025782,1860,1856,1856,1860,,,,,
48028281,1863,1859,1859,1863,,,,,
48030780,1866,1862,1862,1866,,,,,
48033279,1869,1865,1865,1869,,,,,
48035778,1872,1868,1868,1872,,,,,
48038277,1875,1871,1871,1875,,,,,
48040776,1878,1874,1874,1878,,,,,
48043275,1880,1877,1877,1881,,,,,
48045774,1883,1880,1880,1884,,,,,
48048273,1886,1883,1883,1886,,,,,
48050772,1889,1886,1886,1889,,,,,
48053271,1892,1889,1889,1892,,,,,
48055770,1895,1892,1892,1895,,,,,
48058269,1895,1892,1892,1896,,,,,
48060768,1894,1891,1891,1895,,,,,
48063267,1893,1890,1890,1894,,,,,
48065766,1893,1889,1889,1893,,,,,
48068265,1892,1888,1888,1892,,,,,
48070764,1891,1887,1888,1891,,,,,
48073263,1890,1886,1887,1890,,,,,
48075762,1889,1886,1886,1889,,,,,
48078261,1888,1885,1885,1888,,,,,
48080760,1888,1884,1884,1888,,,,,
48083259,1887,1883,1884,1887,,,,,
48085758,1886,1883,1883,1886,,,,,
48088257,1886,1882,1883,1886,,,,,
48090756,1885,1882,1882,1885,,,,,
48093255,1885,1881,1882,1885,,,,,
48095754,1885,1881,1881,1885,,,,,
48098253,1885,1881,1881,1884,,,,,
48100752,1885,1881,1881,1884,,,,,
48103251,1885,1881,1881,1884,,,,,
48105750,1885,1881,1881,1885,,,,,
48108249,1885,1881,1881,1885,,,,,
48110748,1885,1881,1882,1885,,,,,
48113247,1885,1882,1882,1885,,,,,
48115746,1886,1882,1882,1886,,,,,
48118245,1886,1882,1883,1886,,,,,
48120744,1886,1883,1883,1886,,,,,
48123243,1887,1883,1884,1887,,,,,
48125742,1887,1883,1884,1887,,,,,
48128241,1887,1884,1884,1887,,,,,
48130740,1887,1884,1884,1887,,,,,
48133239,1887,1884,1884,1887,,,,,
48135738,1887,1884,1884,1887,,,,,
48138237,1886,1883,1884,1886,,,,,
48140736,1886,1883,1883,1886,,,,,
48143235,1885,1882,1883,1885,,,,,
48145734,1884,1882,1882,1884,,,,,
48148233,1883,1881,1881,1883,,,,,
48150732,1882,1880,1880,1882,,,,,
48153231,1881,1878,1879,1881,,,,,
48155730,1880,1877,1877,1880,,,,,
48158229,1878,1875,1876,1878,,,,,
48160728,1876,1874,1874,1876,,,,,
48163227,1874,1872,1872,1874,,,,,
48165726,1872,1870,1870,1872,,,,,
48168225,1870,1868,1868,1870,,,,,
48170724,1868,1866,1866,1868,,,,,
48173223,1866,1863,1863,1866,,,,,
48175722,1863,1861,1861,1863,,,,,
48178221,1861,1858,1858,1861,,,,,
48180720,1858,1855,1856,1858,,,,,
48183219,1855,1853,1853,1855,,,,,
48185718,1852,1850,1850,1852,,,,,
48188217,1849,1847,1847,1850,,,,,
48190716,1846,1844,1844,1847,,,,,
48193215,1843,1841,1841,1844,,,,,
48195714,1840,1838,1838,1840,,,,,
48198213,1837,1835,1835,1837,,,,,
48200712,1834,1832,1832,1834,,,,,
48203211,1831,1829,1829,1831,,,,,
48205710,1827,1825,1826,1828,,,,,
48208209,1824,1822,1822,1824,,,,,
48210708,1821,1819,1819,1821,,,,,
48213207,1817,1816,1816,1818,,,,,
48215706,1814,1812,1812,1814,,,,,
48218205,1811,1809,1809,1811,,,,,
48220704,1807,1805,1806,1807,,,,,
48223203,1804,1802,1802,1804,,,,,
48225702,1800,1799,1799,1800,,,,,
48228201,1797,1795,1795,1797,,,,,
48230700,1793,1792,1792,1793,,,,,
48233199,1789,1788,1788,1790,,,,,
48235698,1786,1785,1785,1786,,,,,
48238197,1782,1781,1781,1783,,,,,
48240696,1779,1778,1778,1779,,,,,
48243195,1775,1774,1774,1776,,,,,
48245694,1772,1771,1771,1772,,,,,
48248193,1768,1767,1767,1769,,,,,
48250692,1765,1764,1764,1766,,,,,
48253191,1762,1761,1760,1762,,,,,
48255690,1758,1757,1757,1759,,,,,
48258189,1755,1754,1754,1755,,,,,
48260688,1752,1751,1751,1752,,,,,
48263187,1748,1747,1747,1749,,,,,
48265686,1745,1744,1744,1745,,,,,
48268185,1742,1741,1741,1742,,,,,
48270684,1738,1738,1738,1739,,,,,
48273183,1735,1734,1734,1735,,,,,
48275682,1732,1731,1731,1732,,,,,
