timestamp,TimeUS,C1,C2,C3,C4,C5,C6,C7,C8,C9,C10,C11,C12,C13,C14
1684059521.10003996,61928552,1000,1000,1000,1000,0,0,0,0,0,0,0,0,0,0
1684059521.20000005,62028512,1000,1000,1000,1000,0,0,0,0,0,0,0,0,0,0
1684059521.29996014,62128472,1000,1000,1000,1000,0,0,0,0,0,0,0,0,0,0
1684059521.39991999,62228432,1000,1000,1000,1000,0,0,0,0,0,0,0,0,0,0
1684059521.49988008,62328392,1000,1000,1000,1000,0,0,0,0,0,0,0,0,0,0
1684059521.59984016,62428352,1000,1000,1000,1000,0,0,0,0,0,0,0,0,0,0
1684059521.69980001,62528312,1000,1000,1000,1000,0,0,0,0,0,0,0,0,0,0
1684059521.79976010,62628272,1000,1000,1000,1000,0,0,0,0,0,0,0,0,0,0
1684059521.89971995,62728232,1000,1000,1000,1000,0,0,0,0,0,0,0,0,0,0
1684059521.99968004,62828192,1000,1000,1000,1000,0,0,0,0,0,0,0,0,0,0
1684059522.10047317,62928985,1000,1000,1000,1000,0,0,0,0,0,0,0,0,0,0
1684059522.20043302,63028945,1000,1000,1000,1000,0,0,0,0,0,0,0,0,0,0
1684059522.30039310,63128905,1000,1000,1000,1000,0,0,0,0,0,0,0,0,0,0
1684059522.40035295,63228865,1000,1000,1000,1000,0,0,0,0,0,0,0,0,0,0
1684059522.50031304,63328825,1000,1000,1000,1000,0,0,0,0,0,0,0,0,0,0
1684059522.60027313,63428785,1000,1000,1000,1000,0,0,0,0,0,0,0,0,0,0
1684059522.70023298,63528745,1000,1000,1000,1000,0,0,0,0,0,0,0,0,0,0
1684059522.80019307,63628705,1000,1000,1000,1000,0,0,0,0,0,0,0,0,0,0
1684059522.90015316,63728665,1000,1000,1000,1000,0,0,0,0,0,0,0,0,0,0
1684059523.00011301,63828625,1000,1000,1000,1000,0,0,0,0,0,0,0,0,0,0
1684059523.10007310,63928585,1024,1024,1024,1024,0,0,0,0,0,0,0,0,0,0
1684059523.20003295,64028545,1054,1054,1054,1054,0,0,0,0,0,0,0,0,0,0
1684059523.29999304,64128505,1084,1084,1084,1084,0,0,0,0,0,0,0,0,0,0
1684059523.39995313,64228465,1114,1114,1114,1114,0,0,0,0,0,0,0,0,0,0
1684059523.49991298,64328425,1144,1144,1144,1144,0,0,0,0,0,0,0,0,0,0
1684059523.59987307,64428385,1363,1356,1356,1364,0,0,0,0,0,0,0,0,0,0
1684059523.69983315,64528345,1551,1545,1545,1551,0,0,0,0,0,0,0,0,0,0
1684059523.79979300,64628305,1703,1697,1697,1703,0,0,0,0,0,0,0,0,0,0
1684059523.89975309,64728265,1834,1828,1828,1834,0,0,0,0,0,0,0,0,0,0
1684059523.99971294,64828225,1919,1913,1913,1919,0,0,0,0,0,0,0,0,0,0
1684059524.09967303,64928185,1850,1848,1848,1851,0,0,0,0,0,0,0,0,0,0
1684059524.20046616,65028978,1722,1722,1722,1722,0,0,0,0,0,0,0,0,0,0
1684059524.30042601,65128938,1649,1650,1648,1651,0,0,0,0,0,0,0,0,0,0
1684059524.40038610,65228898,1631,1634,1629,1638,0,0,0,0,0,0,0,0,0,0
1684059524.50034595,65328858,1636,1639,1636,1640,0,0,0,0,0,0,0,0,0,0
1684059524.60030603,65428818,1640,1642,1642,1641,0,0,0,0,0,0,0,0,0,0
1684059524.70026612,65528778,1636,1635,1638,1633,0,0,0,0,0,0,0,0,0,0
1684059524.80022597,65628738,1628,1627,1631,1624,0,0,0,0,0,0,0,0,0,0
1684059524.90018606,65728698,1622,1621,1624,1618,0,0,0,0,0,0,0,0,0,0
1684059525.00014615,65828658,1618,1617,1619,1615,0,0,0,0,0,0,0,0,0,0
1684059525.10010600,65928618,1618,1617,1618,1617,0,0,0,0,0,0,0,0,0,0
1684059525.20006609,66028578,1587,1587,1594,1580,0,0,0,0,0,0,0,0,0,0
1684059525.30002594,66128538,1572,1573,1579,1566,0,0,0,0,0,0,0,0,0,0
1684059525.39998603,66228498,1561,1562,1563,1561,0,0,0,0,0,0,0,0,0,0
1684059525.49994612,66328458,1553,1553,1550,1556,0,0,0,0,0,0,0,0,0,0
1684059525.59990597,66428418,1546,1546,1540,1552,0,0,0,0,0,0,0,0,0,0
1684059525.69986606,66528378,1540,1539,1531,1548,0,0,0,0,0,0,0,0,0,0
1684059525.79982615,66628338,1535,1534,1527,1541,0,0,0,0,0,0,0,0,0,0
1684059525.89978600,66728298,1530,1529,1526,1532,0,0,0,0,0,0,0,0,0,0
1684059525.99974608,66828258,1525,1525,1525,1525,0,0,0,0,0,0,0,0,0,0
1684059526.09970593,66928218,1526,1526,1527,1525,0,0,0,0,0,0,0,0,0,0
1684059526.19966602,67028178,1529,1528,1531,1526,0,0,0,0,0,0,0,0,0,0
1684059526.30045915,67128971,1531,1531,1534,1528,0,0,0,0,0,0,0,0,0,0
1684059526.40041900,67228931,1535,1535,1537,1533,0,0,0,0,0,0,0,0,0,0
1684059526.50037909,67328891,1538,1539,1540,1537,0,0,0,0,0,0,0,0,0,0
1684059526.60033894,67428851,1542,1542,1543,1541,0,0,0,0,0,0,0,0,0,0
1684059526.70029902,67528811,1545,1545,1545,1545,0,0,0,0,0,0,0,0,0,0
1684059526.80025911,67628771,1548,1547,1547,1548,0,0,0,0,0,0,0,0,0,0
1684059526.90021896,67728731,1550,1550,1550,1551,0,0,0,0,0,0,0,0,0,0
1684059527.00017905,67828691,1553,1553,1552,1554,0,0,0,0,0,0,0,0,0,0
1684059527.10013914,67928651,1556,1556,1555,1557,0,0,0,0,0,0,0,0,0,0
1684059527.20009899,68028611,1556,1556,1557,1559,0,0,0,0,0,0,0,0,0,0
1684059527.30005908,68128571,1558,1558,1561,1561,0,0,0,0,0,0,0,0,0,0
1684059527.40001893,68228531,1559,1560,1563,1564,0,0,0,0,0,0,0,0,0,0
1684059527.49997902,68328491,1561,1561,1566,1565,0,0,0,0,0,0,0,0,0,0
1684059527.59993911,68428451,1563,1563,1567,1567,0,0,0,0,0,0,0,0,0,0
1684059527.69989896,68528411,1565,1565,1567,1567,0,0,0,0,0,0,0,0,0,0
1684059527.79985905,68628371,1567,1567,1568,1567,0,0,0,0,0,0,0,0,0,0
1684059527.89981914,68728331,1568,1568,1568,1568,0,0,0,0,0,0,0,0,0,0
1684059527.99977899,68828291,1569,1569,1567,1568,0,0,0,0,0,0,0,0,0,0
1684059528.09973907,68928251,1571,1570,1568,1569,0,0,0,0,0,0,0,0,0,0
1684059528.19969916,69028211,1572,1572,1569,1569,0,0,0,0,0,0,0,0,0,0
1684059528.29965901,69128171,1574,1573,1570,1570,0,0,0,0,0,0,0,0,0,0
1684059528.40045214,69228964,1573,1573,1571,1570,0,0,0,0,0,0,0,0,0,0
1684059528.50041199,69328924,1575,1575,1573,1572,0,0,0,0,0,0,0,0,0,0
1684059528.60037208,69428884,1575,1575,1574,1573,0,0,0,0,0,0,0,0,0,0
1684059528.70033216,69528844,1575,1575,1575,1574,0,0,0,0,0,0,0,0,0,0
1684059528.80029202,69628804,1575,1576,1575,1575,0,0,0,0,0,0,0,0,0,0
1684059528.90025210,69728764,1576,1576,1576,1576,0,0,0,0,0,0,0,0,0,0
1684059529.00021195,69828724,1577,1577,1577,1577,0,0,0,0,0,0,0,0,0,0
1684059529.10017204,69928684,1576,1575,1576,1577,0,0,0,0,0,0,0,0,0,0
1684059529.20013213,70028644,1577,1577,1577,1577,0,0,0,0,0,0,0,0,0,0
1684059529.30009198,70128604,1577,1577,1577,1577,0,0,0,0,0,0,0,0,0,0
1684059529.40005207,70228564,1576,1576,1577,1577,0,0,0,0,0,0,0,0,0,0
1684059529.50001216,70328524,1576,1577,1577,1577,0,0,0,0,0,0,0,0,0,0
1684059529.59997201,70428484,1577,1578,1578,1578,0,0,0,0,0,0,0,0,0,0
1684059529.69993210,70528444,1577,1577,1578,1577,0,0,0,0,0,0,0,0,0,0
1684059529.79989195,70628404,1577,1577,1577,1577,0,0,0,0,0,0,0,0,0,0
1684059529.89985204,70728364,1578,1578,1578,1578,0,0,0,0,0,0,0,0,0,0
1684059529.99981213,70828324,1578,1578,1577,1578,0,0,0,0,0,0,0,0,0,0
1684059530.09977198,70928284,1578,1578,1578,1578,0,0,0,0,0,0,0,0,0,0
1684059530.19973207,71028244,1578,1577,1577,1577,0,0,0,0,0,0,0,0,0,0
1684059530.29969215,71128204,1579,1578,1578,1578,0,0,0,0,0,0,0,0,0,0
1684059530.39965200,71228164,1578,1579,1579,1578,0,0,0,0,0,0,0,0,0,0
1684059530.50044513,71328957,1579,1579,1579,1579,0,0,0,0,0,0,0,0,0,0
1684059530.60040498,71428917,1579,1579,1579,1579,0,0,0,0,0,0,0,0,0,0
1684059530.70036507,71528877,1580,1580,1579,1580,0,0,0,0,0,0,0,0,0,0
1684059530.80032516,71628837,1580,1580,1580,1580,0,0,0,0,0,0,0,0,0,0
1684059530.90028501,71728797,1579,1579,1580,1579,0,0,0,0,0,0,0,0,0,0
1684059531.00024509,71828757,1580,1580,1580,1580,0,0,0,0,0,0,0,0,0,0
1684059531.10020494,71928717,1579,1580,1580,1580,0,0,0,0,0,0,0,0,0,0
1684059531.20016503,72028677,1580,1579,1580,1580,0,0,0,0,0,0,0,0,0,0
1684059531.30012512,72128637,1580,1580,1580,1580,0,0,0,0,0,0,0,0,0,0
1684059531.40008497,72228597,1579,1579,1579,1579,0,0,0,0,0,0,0,0,0,0
1684059531.50004506,72328557,1579,1579,1579,1580,0,0,0,0,0,0,0,0,0,0
1684059531.60000515,72428517,1580,1580,1580,1580,0,0,0,0,0,0,0,0,0,0
1684059531.69996500,72528477,1579,1580,1579,1580,0,0,0,0,0,0,0,0,0,0
1684059531.79992509,72628437,1580,1579,1579,1579,0,0,0,0,0,0,0,0,0,0
1684059531.89988494,72728397,1580,1579,1579,1580,0,0,0,0,0,0,0,0,0,0
1684059531.99984503,72828357,1580,1580,1580,1580,0,0,0,0,0,0,0,0,0,0
1684059532.09980512,72928317,1580,1580,1580,1580,0,0,0,0,0,0,0,0,0,0
1684059532.19976497,73028277,1580,1580,1580,1580,0,0,0,0,0,0,0,0,0,0
1684059532.29972506,73128237,1580,1580,1580,1580,0,0,0,0,0,0,0,0,0,0
1684059532.39968514,73228197,1581,1581,1581,1581,0,0,0,0,0,0,0,0,0,0
1684059532.49964499,73328157,1581,1580,1580,1580,0,0,0,0,0,0,0,0,0,0
1684059532.60043812,73428950,1581,1581,1581,1581,0,0,0,0,0,0,0,0,0,0
1684059532.70039797,73528910,1580,1580,1580,1580,0,0,0,0,0,0,0,0,0,0
1684059532.80035806,73628870,1580,1580,1580,1580,0,0,0,0,0,0,0,0,0,0
1684059532.90031815,73728830,1580,1580,1580,1580,0,0,0,0,0,0,0,0,0,0
1684059533.00027800,73828790,1580,1580,1581,1581,0,0,0,0,0,0,0,0,0,0
1684059533.10023808,73928750,1580,1580,1580,1580,0,0,0,0,0,0,0,0,0,0
1684059533.20019794,74028710,1581,1581,1581,1581,0,0,0,0,0,0,0,0,0,0
1684059533.30015802,74128670,1581,1581,1584,1577,0,0,0,0,0,0,0,0,0,0
1684059533.40011811,74228630,1580,1582,1587,1572,0,0,0,0,0,0,0,0,0,0
1684059533.50007796,74328590,1580,1583,1582,1574,0,0,0,0,0,0,0,0,0,0
1684059533.60003805,74428550,1578,1580,1573,1573,0,0,0,0,0,0,0,0,0,0
1684059533.69999814,74528510,1578,1579,1564,1571,0,0,0,0,0,0,0,0,0,0
1684059533.79995799,74628470,1578,1579,1559,1566,0,0,0,0,0,0,0,0,0,0
1684059533.89991808,74728430,1579,1578,1556,1561,0,0,0,0,0,0,0,0,0,0
1684059533.99987793,74828390,1579,1577,1555,1557,0,0,0,0,0,0,0,0,0,0
1684059534.09983802,74928350,1580,1578,1556,1556,0,0,0,0,0,0,0,0,0,0
1684059534.19979811,75028310,1579,1579,1556,1554,0,0,0,0,0,0,0,0,0,0
1684059534.29975796,75128270,1577,1578,1556,1554,0,0,0,0,0,0,0,0,0,0
1684059534.39971805,75228230,1576,1577,1556,1554,0,0,0,0,0,0,0,0,0,0
1684059534.49967813,75328190,1575,1576,1554,1553,0,0,0,0,0,0,0,0,0,0
1684059534.60047102,75428983,1575,1577,1554,1553,0,0,0,0,0,0,0,0,0,0
1684059534.70043111,75528943,1576,1577,1553,1553,0,0,0,0,0,0,0,0,0,0
1684059534.80039096,75628903,1575,1576,1550,1550,0,0,0,0,0,0,0,0,0,0
1684059534.90035105,75728863,1577,1578,1548,1549,0,0,0,0,0,0,0,0,0,0
1684059535.00031114,75828823,1578,1580,1546,1545,0,0,0,0,0,0,0,0,0,0
1684059535.10027099,75928783,1581,1583,1544,1543,0,0,0,0,0,0,0,0,0,0
1684059535.20023108,76028743,1585,1586,1541,1540,0,0,0,0,0,0,0,0,0,0
1684059535.30019116,76128703,1587,1588,1537,1537,0,0,0,0,0,0,0,0,0,0
1684059535.40015101,76228663,1591,1592,1536,1536,0,0,0,0,0,0,0,0,0,0
1684059535.50011110,76328623,1594,1593,1534,1535,0,0,0,0,0,0,0,0,0,0
1684059535.60007095,76428583,1595,1595,1534,1535,0,0,0,0,0,0,0,0,0,0
1684059535.70003104,76528543,1595,1594,1535,1536,0,0,0,0,0,0,0,0,0,0
1684059535.79999113,76628503,1594,1594,1538,1540,0,0,0,0,0,0,0,0,0,0
1684059535.89995098,76728463,1591,1590,1542,1545,0,0,0,0,0,0,0,0,0,0
1684059535.99991107,76828423,1586,1584,1548,1551,0,0,0,0,0,0,0,0,0,0
1684059536.09987116,76928383,1580,1577,1558,1561,0,0,0,0,0,0,0,0,0,0
1684059536.19983101,77028343,1570,1567,1568,1570,0,0,0,0,0,0,0,0,0,0
1684059536.29979110,77128303,1559,1555,1580,1582,0,0,0,0,0,0,0,0,0,0
1684059536.39975095,77228263,1548,1545,1593,1593,0,0,0,0,0,0,0,0,0,0
1684059536.49971104,77328223,1539,1537,1604,1603,0,0,0,0,0,0,0,0,0,0
1684059536.59967113,77428183,1532,1532,1611,1610,0,0,0,0,0,0,0,0,0,0
1684059536.70046401,77528976,1530,1531,1616,1614,0,0,0,0,0,0,0,0,0,0
1684059536.80042410,77628936,1529,1531,1615,1614,0,0,0,0,0,0,0,0,0,0
1684059536.90038395,77728896,1533,1535,1611,1611,0,0,0,0,0,0,0,0,0,0
1684059537.00034404,77828856,1539,1542,1606,1606,0,0,0,0,0,0,0,0,0,0
1684059537.10030413,77928816,1548,1550,1599,1600,0,0,0,0,0,0,0,0,0,0
1684059537.20026398,78028776,1558,1558,1592,1592,0,0,0,0,0,0,0,0,0,0
1684059537.30022407,78128736,1567,1566,1585,1584,0,0,0,0,0,0,0,0,0,0
1684059537.40018415,78228696,1574,1574,1578,1577,0,0,0,0,0,0,0,0,0,0
1684059537.50014400,78328656,1581,1580,1573,1572,0,0,0,0,0,0,0,0,0,0
1684059537.60010409,78428616,1585,1584,1568,1568,0,0,0,0,0,0,0,0,0,0
1684059537.70006394,78528576,1587,1586,1566,1566,0,0,0,0,0,0,0,0,0,0
1684059537.80002403,78628536,1588,1586,1565,1566,0,0,0,0,0,0,0,0,0,0
1684059537.89998412,78728496,1587,1586,1567,1567,0,0,0,0,0,0,0,0,0,0
1684059537.99994397,78828456,1584,1583,1568,1569,0,0,0,0,0,0,0,0,0,0
1684059538.09990406,78928416,1581,1582,1572,1571,0,0,0,0,0,0,0,0,0,0
1684059538.19986415,79028376,1579,1579,1575,1575,0,0,0,0,0,0,0,0,0,0
1684059538.29982400,79128336,1575,1576,1577,1577,0,0,0,0,0,0,0,0,0,0
1684059538.39978409,79228296,1575,1575,1581,1580,0,0,0,0,0,0,0,0,0,0
1684059538.49974394,79328256,1573,1574,1582,1582,0,0,0,0,0,0,0,0,0,0
1684059538.59970403,79428216,1573,1573,1584,1584,0,0,0,0,0,0,0,0,0,0
1684059538.69966412,79528176,1476,1478,1610,1614,0,0,0,0,0,0,0,0,0,0
1684059538.80045700,79628969,1508,1512,1613,1614,0,0,0,0,0,0,0,0,0,0
1684059538.90041709,79728929,1538,1543,1606,1604,0,0,0,0,0,0,0,0,0,0
1684059539.00037694,79828889,1565,1569,1594,1590,0,0,0,0,0,0,0,0,0,0
1684059539.10033703,79928849,1588,1589,1582,1579,0,0,0,0,0,0,0,0,0,0
1684059539.20029712,80028809,1603,1601,1574,1572,0,0,0,0,0,0,0,0,0,0
1684059539.30025697,80128769,1613,1608,1569,1569,0,0,0,0,0,0,0,0,0,0
1684059539.40021706,80228729,1616,1611,1567,1569,0,0,0,0,0,0,0,0,0,0
1684059539.50017715,80328689,1616,1612,1566,1569,0,0,0,0,0,0,0,0,0,0
1684059539.60013700,80428649,1613,1610,1566,1569,0,0,0,0,0,0,0,0,0,0
1684059539.70009708,80528609,1609,1608,1567,1569,0,0,0,0,0,0,0,0,0,0
1684059539.80005693,80628569,1605,1606,1569,1571,0,0,0,0,0,0,0,0,0,0
1684059539.90001702,80728529,1600,1602,1571,1571,0,0,0,0,0,0,0,0,0,0
1684059539.99997711,80828489,1597,1598,1574,1573,0,0,0,0,0,0,0,0,0,0
1684059540.09993696,80928449,1595,1595,1576,1575,0,0,0,0,0,0,0,0,0,0
1684059540.19989705,81028409,1591,1591,1578,1577,0,0,0,0,0,0,0,0,0,0
1684059540.29985714,81128369,1588,1588,1579,1579,0,0,0,0,0,0,0,0,0,0
1684059540.39981699,81228329,1585,1585,1580,1580,0,0,0,0,0,0,0,0,0,0
1684059540.49977708,81328289,1582,1582,1580,1580,0,0,0,0,0,0,0,0,0,0
1684059540.59973693,81428249,1580,1580,1582,1581,0,0,0,0,0,0,0,0,0,0
1684059540.69969702,81528209,1578,1579,1583,1582,0,0,0,0,0,0,0,0,0,0
1684059540.79965711,81628169,1577,1577,1583,1582,0,0,0,0,0,0,0,0,0,0
1684059540.90044999,81728962,1575,1576,1583,1583,0,0,0,0,0,0,0,0,0,0
1684059541.00041008,81828922,1575,1576,1583,1583,0,0,0,0,0,0,0,0,0,0
1684059541.10036993,81928882,1575,1575,1583,1583,0,0,0,0,0,0,0,0,0,0
1684059541.20033002,82028842,1576,1576,1583,1583,0,0,0,0,0,0,0,0,0,0
1684059541.30029011,82128802,1575,1576,1584,1581,0,0,0,0,0,0,0,0,0,0
1684059541.40024996,82228762,1576,1577,1588,1573,0,0,0,0,0,0,0,0,0,0
1684059541.50021005,82328722,1577,1577,1582,1572,0,0,0,0,0,0,0,0,0,0
1684059541.60017014,82428682,1577,1577,1573,1572,0,0,0,0,0,0,0,0,0,0
1684059541.70012999,82528642,1576,1578,1566,1570,0,0,0,0,0,0,0,0,0,0
1684059541.80009007,82628602,1575,1577,1559,1565,0,0,0,0,0,0,0,0,0,0
1684059541.90005016,82728562,1575,1577,1555,1561,0,0,0,0,0,0,0,0,0,0
1684059542.00001001,82828522,1575,1577,1554,1557,0,0,0,0,0,0,0,0,0,0
1684059542.09997010,82928482,1577,1578,1556,1555,0,0,0,0,0,0,0,0,0,0
1684059542.19992995,83028442,1578,1578,1556,1554,0,0,0,0,0,0,0,0,0,0
1684059542.29989004,83128402,1578,1578,1555,1553,0,0,0,0,0,0,0,0,0,0
1684059542.39985013,83228362,1578,1578,1554,1552,0,0,0,0,0,0,0,0,0,0
1684059542.49980998,83328322,1577,1577,1552,1552,0,0,0,0,0,0,0,0,0,0
1684059542.59977007,83428282,1577,1577,1551,1550,0,0,0,0,0,0,0,0,0,0
1684059542.69973016,83528242,1577,1578,1549,1550,0,0,0,0,0,0,0,0,0,0
1684059542.79969001,83628202,1577,1579,1548,1549,0,0,0,0,0,0,0,0,0,0
1684059542.89965010,83728162,1577,1579,1546,1546,0,0,0,0,0,0,0,0,0,0
1684059543.00044298,83828955,1579,1581,1545,1545,0,0,0,0,0,0,0,0,0,0
1684059543.10040307,83928915,1581,1582,1544,1543,0,0,0,0,0,0,0,0,0,0
1684059543.20036316,84028875,1583,1584,1542,1541,0,0,0,0,0,0,0,0,0,0
1684059543.30032301,84128835,1586,1586,1541,1540,0,0,0,0,0,0,0,0,0,0
1684059543.40028310,84228795,1588,1587,1539,1539,0,0,0,0,0,0,0,0,0,0
1684059543.50024295,84328755,1589,1589,1539,1540,0,0,0,0,0,0,0,0,0,0
1684059543.60020304,84428715,1590,1590,1539,1541,0,0,0,0,0,0,0,0,0,0
1684059543.70016313,84528675,1590,1589,1541,1543,0,0,0,0,0,0,0,0,0,0
1684059543.80012298,84628635,1589,1588,1542,1545,0,0,0,0,0,0,0,0,0,0
1684059543.90008307,84728595,1587,1587,1545,1549,0,0,0,0,0,0,0,0,0,0
1684059544.00004315,84828555,1584,1584,1550,1553,0,0,0,0,0,0,0,0,0,0
1684059544.10000300,84928515,1580,1578,1556,1560,0,0,0,0,0,0,0,0,0,0
1684059544.19996309,85028475,1574,1572,1564,1567,0,0,0,0,0,0,0,0,0,0
1684059544.29992294,85128435,1567,1564,1572,1575,0,0,0,0,0,0,0,0,0,0
1684059544.39988303,85228395,1559,1556,1582,1583,0,0,0,0,0,0,0,0,0,0
1684059544.49984312,85328355,1550,1547,1592,1592,0,0,0,0,0,0,0,0,0,0
1684059544.59980297,85428315,1541,1539,1601,1601,0,0,0,0,0,0,0,0,0,0
1684059544.69976306,85528275,1535,1535,1609,1608,0,0,0,0,0,0,0,0,0,0
1684059544.79972315,85628235,1531,1532,1612,1611,0,0,0,0,0,0,0,0,0,0
1684059544.89968300,85728195,1532,1534,1613,1611,0,0,0,0,0,0,0,0,0,0
1684059544.99964309,85828155,1535,1537,1609,1609,0,0,0,0,0,0,0,0,0,0
1684059545.10043597,85928948,1540,1542,1603,1603,0,0,0,0,0,0,0,0,0,0
1684059545.20039606,86028908,1548,1549,1596,1596,0,0,0,0,0,0,0,0,0,0
1684059545.30035615,86128868,1558,1558,1591,1590,0,0,0,0,0,0,0,0,0,0
1684059545.40031600,86228828,1566,1566,1584,1583,0,0,0,0,0,0,0,0,0,0
1684059545.50027609,86328788,1574,1573,1577,1576,0,0,0,0,0,0,0,0,0,0
1684059545.60023594,86428748,1580,1579,1572,1571,0,0,0,0,0,0,0,0,0,0
1684059545.70019603,86528708,1585,1583,1568,1567,0,0,0,0,0,0,0,0,0,0
1684059545.80015612,86628668,1588,1586,1566,1566,0,0,0,0,0,0,0,0,0,0
1684059545.90011597,86728628,1589,1587,1566,1566,0,0,0,0,0,0,0,0,0,0
1684059546.00007606,86828588,1588,1587,1567,1568,0,0,0,0,0,0,0,0,0,0
1684059546.10003614,86928548,1586,1586,1569,1569,0,0,0,0,0,0,0,0,0,0
1684059546.19999599,87028508,1584,1584,1571,1571,0,0,0,0,0,0,0,0,0,0
1684059546.29995608,87128468,1582,1582,1573,1574,0,0,0,0,0,0,0,0,0,0
1684059546.39991593,87228428,1580,1580,1576,1576,0,0,0,0,0,0,0,0,0,0
1684059546.49987602,87328388,1578,1578,1579,1579,0,0,0,0,0,0,0,0,0,0
1684059546.59983611,87428348,1576,1577,1581,1581,0,0,0,0,0,0,0,0,0,0
1684059546.69979596,87528308,1575,1576,1584,1583,0,0,0,0,0,0,0,0,0,0
1684059546.79975605,87628268,1575,1575,1585,1585,0,0,0,0,0,0,0,0,0,0
1684059546.89971614,87728228,1574,1574,1584,1585,0,0,0,0,0,0,0,0,0,0
1684059546.99967599,87828188,1574,1574,1583,1584,0,0,0,0,0,0,0,0,0,0
1684059547.10046911,87928981,1573,1574,1582,1582,0,0,0,0,0,0,0,0,0,0
1684059547.20042896,88028941,1575,1576,1583,1583,0,0,0,0,0,0,0,0,0,0
1684059547.30038905,88128901,1576,1577,1581,1581,0,0,0,0,0,0,0,0,0,0
1684059547.40034914,88228861,1578,1579,1581,1581,0,0,0,0,0,0,0,0,0,0
1684059547.50030899,88328821,1579,1579,1579,1579,0,0,0,0,0,0,0,0,0,0
1684059547.60026908,88428781,1580,1580,1578,1578,0,0,0,0,0,0,0,0,0,0
1684059547.70022893,88528741,1581,1581,1577,1577,0,0,0,0,0,0,0,0,0,0
1684059547.80018902,88628701,1582,1582,1578,1578,0,0,0,0,0,0,0,0,0,0
1684059547.90014911,88728661,1583,1582,1578,1578,0,0,0,0,0,0,0,0,0,0
1684059548.00010896,88828621,1583,1582,1578,1578,0,0,0,0,0,0,0,0,0,0
1684059548.10006905,88928581,1582,1582,1578,1578,0,0,0,0,0,0,0,0,0,0
1684059548.20002913,89028541,1581,1582,1578,1579,0,0,0,0,0,0,0,0,0,0
1684059548.29998899,89128501,1581,1581,1579,1579,0,0,0,0,0,0,0,0,0,0
1684059548.39994907,89228461,1580,1581,1579,1579,0,0,0,0,0,0,0,0,0,0
1684059548.49990916,89328421,1580,1580,1580,1580,0,0,0,0,0,0,0,0,0,0
1684059548.59986901,89428381,1580,1580,1581,1581,0,0,0,0,0,0,0,0,0,0
1684059548.69982910,89528341,1580,1579,1581,1580,0,0,0,0,0,0,0,0,0,0
1684059548.79978895,89628301,1580,1580,1582,1582,0,0,0,0,0,0,0,0,0,0
1684059548.89974904,89728261,1580,1580,1582,1582,0,0,0,0,0,0,0,0,0,0
1684059548.99970913,89828221,1579,1580,1581,1581,0,0,0,0,0,0,0,0,0,0
1684059549.09966898,89928181,1580,1580,1582,1582,0,0,0,0,0,0,0,0,0,0
1684059549.20046210,90028974,1579,1580,1580,1580,0,0,0,0,0,0,0,0,0,0
1684059549.30042195,90128934,1580,1580,1580,1580,0,0,0,0,0,0,0,0,0,0
1684059549.40038204,90228894,1581,1581,1581,1582,0,0,0,0,0,0,0,0,0,0
1684059549.50034213,90328854,1581,1581,1581,1581,0,0,0,0,0,0,0,0,0,0
1684059549.60030198,90428814,1581,1582,1581,1581,0,0,0,0,0,0,0,0,0,0
1684059549.70026207,90528774,1581,1581,1580,1580,0,0,0,0,0,0,0,0,0,0
1684059549.80022216,90628734,1582,1582,1587,1574,0,0,0,0,0,0,0,0,0,0
1684059549.90018201,90728694,1581,1582,1585,1571,0,0,0,0,0,0,0,0,0,0
1684059550.00014210,90828654,1580,1582,1577,1573,0,0,0,0,0,0,0,0,0,0
1684059550.10010195,90928614,1578,1580,1568,1571,0,0,0,0,0,0,0,0,0,0
1684059550.20006204,91028574,1577,1579,1561,1568,0,0,0,0,0,0,0,0,0,0
1684059550.30002213,91128534,1577,1579,1556,1563,0,0,0,0,0,0,0,0,0,0
1684059550.39998198,91228494,1578,1579,1555,1559,0,0,0,0,0,0,0,0,0,0
1684059550.49994206,91328454,1580,1579,1556,1556,0,0,0,0,0,0,0,0,0,0
1684059550.59990215,91428414,1580,1578,1556,1555,0,0,0,0,0,0,0,0,0,0
1684059550.69986200,91528374,1579,1577,1556,1554,0,0,0,0,0,0,0,0,0,0
1684059550.79982209,91628334,1578,1577,1556,1554,0,0,0,0,0,0,0,0,0,0
1684059550.89978194,91728294,1577,1578,1556,1555,0,0,0,0,0,0,0,0,0,0
1684059550.99974203,91828254,1575,1577,1555,1554,0,0,0,0,0,0,0,0,0,0
1684059551.09970212,91928214,1575,1577,1554,1554,0,0,0,0,0,0,0,0,0,0
1684059551.19966197,92028174,1575,1577,1552,1552,0,0,0,0,0,0,0,0,0,0
1684059551.30045509,92128967,1576,1577,1551,1551,0,0,0,0,0,0,0,0,0,0
1684059551.40041494,92228927,1577,1579,1549,1549,0,0,0,0,0,0,0,0,0,0
1684059551.50037503,92328887,1579,1580,1547,1547,0,0,0,0,0,0,0,0,0,0
1684059551.60033512,92428847,1580,1581,1543,1543,0,0,0,0,0,0,0,0,0,0
1684059551.70029497,92528807,1583,1584,1542,1541,0,0,0,0,0,0,0,0,0,0
1684059551.80025506,92628767,1587,1588,1541,1540,0,0,0,0,0,0,0,0,0,0
1684059551.90021515,92728727,1590,1589,1539,1540,0,0,0,0,0,0,0,0,0,0
1684059552.00017500,92828687,1591,1591,1538,1538,0,0,0,0,0,0,0,0,0,0
1684059552.10013509,92928647,1591,1592,1537,1539,0,0,0,0,0,0,0,0,0,0
1684059552.20009494,93028607,1592,1592,1539,1541,0,0,0,0,0,0,0,0,0,0
1684059552.30005503,93128567,1590,1590,1539,1542,0,0,0,0,0,0,0,0,0,0
1684059552.40001512,93228527,1588,1587,1543,1546,0,0,0,0,0,0,0,0,0,0
1684059552.49997497,93328487,1584,1583,1550,1553,0,0,0,0,0,0,0,0,0,0
1684059552.59993505,93428447,1579,1576,1558,1562,0,0,0,0,0,0,0,0,0,0
1684059552.69989514,93528407,1571,1567,1569,1571,0,0,0,0,0,0,0,0,0,0
1684059552.79985499,93628367,1562,1558,1581,1582,0,0,0,0,0,0,0,0,0,0
1684059552.89981508,93728327,1552,1549,1592,1593,0,0,0,0,0,0,0,0,0,0
1684059552.99977493,93828287,1543,1541,1601,1601,0,0,0,0,0,0,0,0,0,0
1684059553.09973502,93928247,1538,1538,1609,1608,0,0,0,0,0,0,0,0,0,0
1684059553.19969511,94028207,1533,1534,1611,1610,0,0,0,0,0,0,0,0,0,0
1684059553.29965496,94128167,1533,1535,1612,1612,0,0,0,0,0,0,0,0,0,0
1684059553.40044808,94228960,1535,1539,1610,1609,0,0,0,0,0,0,0,0,0,0
1684059553.50040793,94328920,1541,1543,1605,1605,0,0,0,0,0,0,0,0,0,0
1684059553.60036802,94428880,1547,1548,1598,1598,0,0,0,0,0,0,0,0,0,0
1684059553.70032811,94528840,1556,1557,1593,1592,0,0,0,0,0,0,0,0,0,0
1684059553.80028796,94628800,1564,1564,1585,1585,0,0,0,0,0,0,0,0,0,0
1684059553.90024805,94728760,1572,1571,1580,1579,0,0,0,0,0,0,0,0,0,0
1684059554.00020814,94828720,1578,1577,1574,1574,0,0,0,0,0,0,0,0,0,0
1684059554.10016799,94928680,1583,1582,1570,1571,0,0,0,0,0,0,0,0,0,0
1684059554.20012808,95028640,1586,1585,1568,1568,0,0,0,0,0,0,0,0,0,0
1684059554.30008793,95128600,1588,1586,1567,1567,0,0,0,0,0,0,0,0,0,0
1684059554.40004802,95228560,1587,1586,1567,1567,0,0,0,0,0,0,0,0,0,0
1684059554.50000811,95328520,1586,1585,1568,1568,0,0,0,0,0,0,0,0,0,0
1684059554.59996796,95428480,1584,1584,1571,1571,0,0,0,0,0,0,0,0,0,0
1684059554.69992805,95528440,1581,1581,1572,1573,0,0,0,0,0,0,0,0,0,0
1684059554.79988813,95628400,1580,1579,1576,1577,0,0,0,0,0,0,0,0,0,0
1684059554.89984798,95728360,1577,1577,1579,1579,0,0,0,0,0,0,0,0,0,0
1684059554.99980807,95828320,1576,1576,1582,1582,0,0,0,0,0,0,0,0,0,0
1684059555.09976816,95928280,1574,1575,1583,1583,0,0,0,0,0,0,0,0,0,0
1684059555.19972801,96028240,1573,1574,1584,1584,0,0,0,0,0,0,0,0,0,0
1684059555.29968810,96128200,1573,1573,1584,1584,0,0,0,0,0,0,0,0,0,0
1684059555.39964795,96228160,1574,1575,1584,1584,0,0,0,0,0,0,0,0,0,0
1684059555.50044107,96328953,1574,1575,1583,1583,0,0,0,0,0,0,0,0,0,0
1684059555.60040116,96428913,1576,1576,1582,1582,0,0,0,0,0,0,0,0,0,0
1684059555.70036101,96528873,1578,1578,1582,1582,0,0,0,0,0,0,0,0,0,0
1684059555.80032110,96628833,1579,1579,1581,1580,0,0,0,0,0,0,0,0,0,0
1684059555.90028095,96728793,1580,1580,1580,1580,0,0,0,0,0,0,0,0,0,0
1684059556.00024104,96828753,1581,1580,1578,1579,0,0,0,0,0,0,0,0,0,0
1684059556.10020113,96928713,1582,1582,1578,1579,0,0,0,0,0,0,0,0,0,0
1684059556.20016098,97028673,1582,1582,1578,1578,0,0,0,0,0,0,0,0,0,0
1684059556.30012107,97128633,1583,1583,1578,1578,0,0,0,0,0,0,0,0,0,0
1684059556.40008116,97228593,1582,1582,1578,1578,0,0,0,0,0,0,0,0,0,0
1684059556.50004101,97328553,1581,1581,1578,1578,0,0,0,0,0,0,0,0,0,0
1684059556.60000110,97428513,1582,1581,1579,1579,0,0,0,0,0,0,0,0,0,0
1684059556.69996095,97528473,1582,1581,1580,1579,0,0,0,0,0,0,0,0,0,0
1684059556.79992104,97628433,1581,1581,1580,1580,0,0,0,0,0,0,0,0,0,0
1684059556.89988112,97728393,1581,1581,1581,1581,0,0,0,0,0,0,0,0,0,0
1684059556.99984097,97828353,1580,1581,1581,1582,0,0,0,0,0,0,0,0,0,0
1684059557.09980106,97928313,1580,1580,1581,1581,0,0,0,0,0,0,0,0,0,0
1684059557.19976115,98028273,1579,1580,1581,1581,0,0,0,0,0,0,0,0,0,0
1684059557.29972100,98128233,1580,1580,1582,1582,0,0,0,0,0,0,0,0,0,0
1684059557.39968109,98228193,1580,1580,1582,1582,0,0,0,0,0,0,0,0,0,0
1684059557.50047398,98328986,1581,1580,1582,1582,0,0,0,0,0,0,0,0,0,0
1684059557.60043406,98428946,1580,1580,1582,1581,0,0,0,0,0,0,0,0,0,0
1684059557.70039415,98528906,1581,1581,1582,1581,0,0,0,0,0,0,0,0,0,0
1684059557.80035400,98628866,1581,1581,1585,1577,0,0,0,0,0,0,0,0,0,0
1684059557.90031409,98728826,1581,1581,1588,1573,0,0,0,0,0,0,0,0,0,0
1684059558.00027394,98828786,1579,1580,1582,1574,0,0,0,0,0,0,0,0,0,0
1684059558.10023403,98928746,1577,1576,1574,1574,0,0,0,0,0,0,0,0,0,0
1684059558.20019412,99028706,1574,1573,1567,1573,0,0,0,0,0,0,0,0,0,0
1684059558.30015397,99128666,1571,1571,1564,1572,0,0,0,0,0,0,0,0,0,0
1684059558.40011406,99228626,1568,1569,1563,1569,0,0,0,0,0,0,0,0,0,0
1684059558.50007415,99328586,1567,1568,1565,1567,0,0,0,0,0,0,0,0,0,0
1684059558.60003400,99428546,1566,1567,1566,1565,0,0,0,0,0,0,0,0,0,0
1684059558.69999409,99528506,1566,1566,1567,1564,0,0,0,0,0,0,0,0,0,0
1684059558.79995394,99628466,1565,1565,1567,1564,0,0,0,0,0,0,0,0,0,0
1684059558.89991403,99728426,1564,1563,1566,1564,0,0,0,0,0,0,0,0,0,0
1684059558.99987411,99828386,1564,1563,1565,1565,0,0,0,0,0,0,0,0,0,0
1684059559.09983397,99928346,1562,1563,1564,1564,0,0,0,0,0,0,0,0,0,0
1684059559.19979405,100028306,1563,1562,1564,1564,0,0,0,0,0,0,0,0,0,0
1684059559.29975414,100128266,1561,1561,1562,1563,0,0,0,0,0,0,0,0,0,0
1684059559.39971399,100228226,1561,1562,1562,1562,0,0,0,0,0,0,0,0,0,0
1684059559.49967408,100328186,1561,1562,1562,1562,0,0,0,0,0,0,0,0,0,0
1684059559.60046697,100428979,1561,1561,1561,1561,0,0,0,0,0,0,0,0,0,0
1684059559.70042706,100528939,1561,1561,1561,1560,0,0,0,0,0,0,0,0,0,0
1684059559.80038714,100628899,1560,1560,1560,1559,0,0,0,0,0,0,0,0,0,0
1684059559.90034699,100728859,1560,1559,1559,1558,0,0,0,0,0,0,0,0,0,0
1684059560.00030708,100828819,1558,1558,1558,1557,0,0,0,0,0,0,0,0,0,0
1684059560.10026693,100928779,1559,1559,1558,1558,0,0,0,0,0,0,0,0,0,0
1684059560.20022702,101028739,1558,1558,1559,1557,0,0,0,0,0,0,0,0,0,0
1684059560.30018711,101128699,1558,1557,1558,1557,0,0,0,0,0,0,0,0,0,0
1684059560.40014696,101228659,1558,1558,1559,1557,0,0,0,0,0,0,0,0,0,0
1684059560.50010705,101328619,1558,1558,1560,1556,0,0,0,0,0,0,0,0,0,0
1684059560.60006714,101428579,1558,1559,1560,1557,0,0,0,0,0,0,0,0,0,0
1684059560.70002699,101528539,1559,1558,1558,1560,0,0,0,0,0,0,0,0,0,0
1684059560.79998708,101628499,1560,1560,1557,1563,0,0,0,0,0,0,0,0,0,0
1684059560.89994693,101728459,1561,1561,1558,1565,0,0,0,0,0,0,0,0,0,0
1684059560.99990702,101828419,1562,1562,1560,1565,0,0,0,0,0,0,0,0,0,0
1684059561.09986711,101928379,1562,1562,1561,1565,0,0,0,0,0,0,0,0,0,0
1684059561.19982696,102028339,1562,1562,1563,1561,0,0,0,0,0,0,0,0,0,0
1684059561.29978704,102128299,1561,1561,1562,1559,0,0,0,0,0,0,0,0,0,0
1684059561.39974713,102228259,1560,1560,1561,1557,0,0,0,0,0,0,0,0,0,0
1684059561.49970698,102328219,1559,1559,1556,1560,0,0,0,0,0,0,0,0,0,0
1684059561.59966707,102428179,1557,1557,1553,1558,0,0,0,0,0,0,0,0,0,0
1684059561.70045996,102528972,1552,1552,1548,1552,0,0,0,0,0,0,0,0,0,0
1684059561.80042005,102628932,1547,1547,1544,1545,0,0,0,0,0,0,0,0,0,0
1684059561.90038013,102728892,1541,1542,1539,1539,0,0,0,0,0,0,0,0,0,0
1684059562.00033998,102828852,1534,1534,1532,1531,0,0,0,0,0,0,0,0,0,0
1684059562.10030007,102928812,1525,1526,1524,1522,0,0,0,0,0,0,0,0,0,0
1684059562.20026016,103028772,1522,1521,1520,1519,0,0,0,0,0,0,0,0,0,0
1684059562.30022001,103128732,1520,1520,1520,1519,0,0,0,0,0,0,0,0,0,0
1684059562.40018010,103228692,1520,1520,1521,1521,0,0,0,0,0,0,0,0,0,0
1684059562.50013995,103328652,1521,1521,1523,1524,0,0,0,0,0,0,0,0,0,0
1684059562.60010004,103428612,1523,1523,1526,1527,0,0,0,0,0,0,0,0,0,0
1684059562.70006013,103528572,1526,1527,1531,1531,0,0,0,0,0,0,0,0,0,0
1684059562.80001998,103628532,1531,1532,1536,1536,0,0,0,0,0,0,0,0,0,0
1684059562.89998007,103728492,1535,1534,1539,1539,0,0,0,0,0,0,0,0,0,0
1684059562.99994016,103828452,1538,1538,1542,1542,0,0,0,0,0,0,0,0,0,0
1684059563.09990001,103928412,1541,1541,1544,1543,0,0,0,0,0,0,0,0,0,0
1684059563.19986010,104028372,1543,1544,1545,1544,0,0,0,0,0,0,0,0,0,0
1684059563.29981995,104128332,1546,1546,1545,1545,0,0,0,0,0,0,0,0,0,0
1684059563.39978004,104228292,1546,1547,1545,1545,0,0,0,0,0,0,0,0,0,0
1684059563.49974012,104328252,1547,1547,1545,1544,0,0,0,0,0,0,0,0,0,0
1684059563.59969997,104428212,1548,1548,1545,1545,0,0,0,0,0,0,0,0,0,0
1684059563.69966006,104528172,1548,1548,1545,1545,0,0,0,0,0,0,0,0,0,0
1684059563.80045295,104628965,1547,1548,1545,1545,0,0,0,0,0,0,0,0,0,0
1684059563.90041304,104728925,1547,1548,1545,1545,0,0,0,0,0,0,0,0,0,0
1684059564.00037313,104828885,1548,1548,1546,1546,0,0,0,0,0,0,0,0,0,0
1684059564.10033298,104928845,1547,1547,1546,1546,0,0,0,0,0,0,0,0,0,0
1684059564.20029306,105028805,1546,1546,1545,1545,0,0,0,0,0,0,0,0,0,0
1684059564.30025315,105128765,1545,1544,1545,1545,0,0,0,0,0,0,0,0,0,0
1684059564.40021300,105228725,1545,1545,1546,1545,0,0,0,0,0,0,0,0,0,0
1684059564.50017309,105328685,1545,1546,1546,1546,0,0,0,0,0,0,0,0,0,0
1684059564.60013294,105428645,1545,1545,1546,1546,0,0,0,0,0,0,0,0,0,0
1684059564.70009303,105528605,1544,1544,1545,1545,0,0,0,0,0,0,0,0,0,0
1684059564.80005312,105628565,1543,1543,1544,1544,0,0,0,0,0,0,0,0,0,0
1684059564.90001297,105728525,1544,1543,1545,1544,0,0,0,0,0,0,0,0,0,0
1684059564.99997306,105828485,1543,1543,1544,1544,0,0,0,0,0,0,0,0,0,0
1684059565.09993315,105928445,1544,1543,1544,1544,0,0,0,0,0,0,0,0,0,0
1684059565.19989300,106028405,1544,1544,1544,1543,0,0,0,0,0,0,0,0,0,0
1684059565.29985309,106128365,1544,1543,1544,1543,0,0,0,0,0,0,0,0,0,0
1684059565.39981294,106228325,1544,1544,1544,1544,0,0,0,0,0,0,0,0,0,0
1684059565.49977303,106328285,1543,1543,1543,1543,0,0,0,0,0,0,0,0,0,0
1684059565.59973311,106428245,1544,1544,1544,1544,0,0,0,0,0,0,0,0,0,0
1684059565.69969296,106528205,1544,1544,1543,1544,0,0,0,0,0,0,0,0,0,0
1684059565.79965305,106628165,1544,1545,1545,1544,0,0,0,0,0,0,0,0,0,0
1684059565.90044594,106728958,1544,1544,1544,1544,0,0,0,0,0,0,0,0,0,0
1684059566.00040603,106828918,1544,1544,1544,1544,0,0,0,0,0,0,0,0,0,0
1684059566.10036612,106928878,1544,1543,1543,1543,0,0,0,0,0,0,0,0,0,0
1684059566.20032597,107028838,1544,1544,1544,1544,0,0,0,0,0,0,0,0,0,0
1684059566.30028605,107128798,1544,1544,1544,1545,0,0,0,0,0,0,0,0,0,0
1684059566.40024614,107228758,1544,1544,1544,1544,0,0,0,0,0,0,0,0,0,0
1684059566.50020599,107328718,1545,1544,1544,1544,0,0,0,0,0,0,0,0,0,0
1684059566.60016608,107428678,1545,1545,1545,1545,0,0,0,0,0,0,0,0,0,0
1684059566.70012593,107528638,1544,1544,1544,1545,0,0,0,0,0,0,0,0,0,0
1684059566.80008602,107628598,1544,1544,1544,1544,0,0,0,0,0,0,0,0,0,0
1684059566.90004611,107728558,1544,1544,1544,1544,0,0,0,0,0,0,0,0,0,0
1684059567.00000596,107828518,1544,1544,1544,1544,0,0,0,0,0,0,0,0,0,0
1684059567.09996605,107928478,1544,1543,1543,1544,0,0,0,0,0,0,0,0,0,0
1684059567.19992614,108028438,1544,1544,1544,1544,0,0,0,0,0,0,0,0,0,0
1684059567.29988599,108128398,1543,1543,1543,1543,0,0,0,0,0,0,0,0,0,0
1684059567.39984608,108228358,1544,1544,1544,1544,0,0,0,0,0,0,0,0,0,0
1684059567.49980617,108328318,1543,1543,1543,1543,0,0,0,0,0,0,0,0,0,0
1684059567.59976602,108428278,1544,1544,1544,1544,0,0,0,0,0,0,0,0,0,0
1684059567.69972610,108528238,1543,1543,1543,1544,0,0,0,0,0,0,0,0,0,0
1684059567.79968596,108628198,1544,1545,1545,1545,0,0,0,0,0,0,0,0,0,0
1684059567.89964604,108728158,1545,1545,1545,1545,0,0,0,0,0,0,0,0,0,0
1684059568.00043893,108828951,1544,1544,1544,1544,0,0,0,0,0,0,0,0,0,0
1684059568.10039902,108928911,1544,1544,1544,1545,0,0,0,0,0,0,0,0,0,0
1684059568.20035911,109028871,1544,1544,1544,1544,0,0,0,0,0,0,0,0,0,0
1684059568.30031896,109128831,1545,1545,1545,1545,0,0,0,0,0,0,0,0,0,0
1684059568.40027905,109228791,1545,1545,1545,1544,0,0,0,0,0,0,0,0,0,0
1684059568.50023913,109328751,1544,1545,1544,1544,0,0,0,0,0,0,0,0,0,0
1684059568.60019898,109428711,1543,1545,1544,1544,0,0,0,0,0,0,0,0,0,0
1684059568.70015907,109528671,1544,1544,1544,1544,0,0,0,0,0,0,0,0,0,0
1684059568.80011916,109628631,1545,1545,1545,1545,0,0,0,0,0,0,0,0,0,0
1684059568.90007901,109728591,1544,1544,1544,1545,0,0,0,0,0,0,0,0,0,0
1684059569.00003910,109828551,1544,1544,1544,1544,0,0,0,0,0,0,0,0,0,0
1684059569.09999895,109928511,1544,1543,1544,1543,0,0,0,0,0,0,0,0,0,0
1684059569.19995904,110028471,1544,1544,1544,1544,0,0,0,0,0,0,0,0,0,0
1684059569.29991913,110128431,1544,1544,1544,1544,0,0,0,0,0,0,0,0,0,0
1684059569.39987898,110228391,1544,1544,1544,1545,0,0,0,0,0,0,0,0,0,0
1684059569.49983907,110328351,1546,1545,1545,1546,0,0,0,0,0,0,0,0,0,0
1684059569.59979916,110428311,1544,1545,1545,1544,0,0,0,0,0,0,0,0,0,0
1684059569.69975901,110528271,1545,1545,1544,1545,0,0,0,0,0,0,0,0,0,0
1684059569.79971910,110628231,1545,1545,1545,1545,0,0,0,0,0,0,0,0,0,0
1684059569.89967895,110728191,1545,1545,1545,1545,0,0,0,0,0,0,0,0,0,0
1684059570.00047207,110828984,1545,1545,1545,1545,0,0,0,0,0,0,0,0,0,0
1684059570.10043216,110928944,1545,1545,1545,1545,0,0,0,0,0,0,0,0,0,0
1684059570.20039201,111028904,1543,1544,1544,1543,0,0,0,0,0,0,0,0,0,0
1684059570.30035210,111128864,1544,1544,1543,1544,0,0,0,0,0,0,0,0,0,0
1684059570.40031195,111228824,1543,1543,1543,1543,0,0,0,0,0,0,0,0,0,0
1684059570.50027204,111328784,1544,1544,1544,1544,0,0,0,0,0,0,0,0,0,0
1684059570.60023212,111428744,1544,1544,1543,1544,0,0,0,0,0,0,0,0,0,0
1684059570.70019197,111528704,1544,1543,1544,1544,0,0,0,0,0,0,0,0,0,0
1684059570.80015206,111628664,1543,1543,1543,1543,0,0,0,0,0,0,0,0,0,0
1684059570.90011215,111728624,1544,1544,1544,1544,0,0,0,0,0,0,0,0,0,0
1684059571.00007200,111828584,1544,1544,1545,1545,0,0,0,0,0,0,0,0,0,0
1684059571.10003209,111928544,1544,1544,1544,1545,0,0,0,0,0,0,0,0,0,0
1684059571.19999194,112028504,1544,1544,1545,1544,0,0,0,0,0,0,0,0,0,0
1684059571.29995203,112128464,1544,1544,1544,1544,0,0,0,0,0,0,0,0,0,0
1684059571.39991212,112228424,1545,1545,1545,1545,0,0,0,0,0,0,0,0,0,0
1684059571.49987197,112328384,1545,1545,1544,1545,0,0,0,0,0,0,0,0,0,0
1684059571.59983206,112428344,1544,1544,1544,1544,0,0,0,0,0,0,0,0,0,0
1684059571.69979215,112528304,1545,1545,1545,1544,0,0,0,0,0,0,0,0,0,0
1684059571.79975200,112628264,1544,1545,1544,1544,0,0,0,0,0,0,0,0,0,0
1684059571.89971209,112728224,1497,1498,1488,1489,0,0,0,0,0,0,0,0,0,0
1684059571.99967194,112828184,1356,1359,1315,1314,0,0,0,0,0,0,0,0,0,0
1684059572.10046506,112928977,1299,1301,1236,1236,0,0,0,0,0,0,0,0,0,0
1684059572.20042515,113028937,1281,1284,1212,1212,0,0,0,0,0,0,0,0,0,0
1684059572.30038500,113128897,1263,1264,1183,1184,0,0,0,0,0,0,0,0,0,0
1684059572.40034509,113228857,1240,1242,1150,1150,0,0,0,0,0,0,0,0,0,0
1684059572.50030494,113328817,1183,1185,1150,1150,0,0,0,0,0,0,0,0,0,0
1684059572.60026503,113428777,1183,1185,1150,1150,0,0,0,0,0,0,0,0,0,0
1684059572.70022511,113528737,1183,1185,1150,1150,0,0,0,0,0,0,0,0,0,0
1684059572.80018497,113628697,1184,1167,1150,1173,0,0,0,0,0,0,0,0,0,0
1684059572.90014505,113728657,1184,1173,1150,1166,0,0,0,0,0,0,0,0,0,0
1684059573.00010514,113828617,1184,1177,1150,1161,0,0,0,0,0,0,0,0,0,0
1684059573.10006499,113928577,1184,1177,1150,1160,0,0,0,0,0,0,0,0,0,0
1684059573.20002508,114028537,1184,1177,1150,1160,0,0,0,0,0,0,0,0,0,0
1684059573.29998493,114128497,1184,1177,1150,1161,0,0,0,0,0,0,0,0,0,0
1684059573.39994502,114228457,1184,1176,1150,1161,0,0,0,0,0,0,0,0,0,0
1684059573.49990511,114328417,1184,1176,1150,1162,0,0,0,0,0,0,0,0,0,0
1684059573.59986496,114428377,1184,1184,1150,1150,0,0,0,0,0,0,0,0,0,0
1684059573.69982505,114528337,1185,1183,1150,1151,0,0,0,0,0,0,0,0,0,0
1684059573.79978514,114628297,1184,1183,1150,1152,0,0,0,0,0,0,0,0,0,0
1684059573.89974499,114728257,1184,1182,1150,1152,0,0,0,0,0,0,0,0,0,0
1684059573.99970508,114828217,1184,1182,1150,1152,0,0,0,0,0,0,0,0,0,0
1684059574.09966516,114928177,1000,1000,1000,1000,0,0,0,0,0,0,0,0,0,0
1684059574.20045805,115028970,1000,1000,1000,1000,0,0,0,0,0,0,0,0,0,0
1684059574.30041814,115128930,1000,1000,1000,1000,0,0,0,0,0,0,0,0,0,0
1684059574.40037799,115228890,1000,1000,1000,1000,0,0,0,0,0,0,0,0,0,0
1684059574.50033808,115328850,1000,1000,1000,1000,0,0,0,0,0,0,0,0,0,0
1684059574.60029793,115428810,1000,1000,1000,1000,0,0,0,0,0,0,0,0,0,0
1684059574.70025802,115528770,1000,1000,1000,1000,0,0,0,0,0,0,0,0,0,0
1684059574.80021811,115628730,1000,1000,1000,1000,0,0,0,0,0,0,0,0,0,0
1684059574.90017796,115728690,1000,1000,1000,1000,0,0,0,0,0,0,0,0,0,0
1684059575.00013804,115828650,1000,1000,1000,1000,0,0,0,0,0,0,0,0,0,0
1684059575.10009813,115928610,1000,1000,1000,1000,0,0,0,0,0,0,0,0,0,0
1684059575.20005798,116028570,1000,1000,1000,1000,0,0,0,0,0,0,0,0,0,0
1684059575.30001807,116128530,1000,1000,1000,1000,0,0,0,0,0,0,0,0,0,0
1684059575.39997816,116228490,1000,1000,1000,1000,0,0,0,0,0,0,0,0,0,0
1684059575.49993801,116328450,1000,1000,1000,1000,0,0,0,0,0,0,0,0,0,0
1684059575.59989810,116428410,1000,1000,1000,1000,0,0,0,0,0,0,0,0,0,0
1684059575.69985795,116528370,1000,1000,1000,1000,0,0,0,0,0,0,0,0,0,0
1684059575.79981804,116628330,1000,1000,1000,1000,0,0,0,0,0,0,0,0,0,0
1684059575.89977813,116728290,1000,1000,1000,1000,0,0,0,0,0,0,0,0,0,0
1684059575.99973798,116828250,1000,1000,1000,1000,0,0,0,0,0,0,0,0,0,0
1684059576.09969807,116928210,1000,1000,1000,1000,0,0,0,0,0,0,0,0,0,0
1684059576.19965816,117028170,1000,1000,1000,1000,0,0,0,0,0,0,0,0,0,0
1684059576.30045104,117128963,1000,1000,1000,1000,0,0,0,0,0,0,0,0,0,0
1684059576.40041113,117228923,1000,1000,1000,1000,0,0,0,0,0,0,0,0,0,0
1684059576.50037098,117328883,1000,1000,1000,1000,0,0,0,0,0,0,0,0,0,0
1684059576.60033107,117428843,1000,1000,1000,1000,0,0,0,0,0,0,0,0,0,0
1684059576.70029116,117528803,1000,1000,1000,1000,0,0,0,0,0,0,0,0,0,0
1684059576.80025101,117628763,1000,1000,1000,1000,0,0,0,0,0,0,0,0,0,0
1684059576.90021110,117728723,1000,1000,1000,1000,0,0,0,0,0,0,0,0,0,0
1684059577.00017095,117828683,1000,1000,1000,1000,0,0,0,0,0,0,0,0,0,0
1684059577.10013103,117928643,1000,1000,1000,1000,0,0,0,0,0,0,0,0,0,0
1684059577.20009112,118028603,1000,1000,1000,1000,0,0,0,0,0,0,0,0,0,0
1684059577.30005097,118128563,1000,1000,1000,1000,0,0,0,0,0,0,0,0,0,0
1684059577.40001106,118228523,1000,1000,1000,1000,0,0,0,0,0,0,0,0,0,0
1684059577.49997115,118328483,1000,1000,1000,1000,0,0,0,0,0,0,0,0,0,0
1684059577.59993100,118428443,1000,1000,1000,1000,0,0,0,0,0,0,0,0,0,0
1684059577.69989109,118528403,1000,1000,1000,1000,0,0,0,0,0,0,0,0,0,0
1684059577.79985094,118628363,1000,1000,1000,1000,0,0,0,0,0,0,0,0,0,0
1684059577.89981103,118728323,1000,1000,1000,1000,0,0,0,0,0,0,0,0,0,0
1684059577.99977112,118828283,1000,1000,1000,1000,0,0,0,0,0,0,0,0,0,0
1684059578.09973097,118928243,1000,1000,1000,1000,0,0,0,0,0,0,0,0,0,0
1684059578.19969106,119028203,1000,1000,1000,1000,0,0,0,0,0,0,0,0,0,0
1684059578.29965115,119128163,1000,1000,1000,1000,0,0,0,0,0,0,0,0,0,0
1684059578.40044403,119228956,1000,1000,1000,1000,0,0,0,0,0,0,0,0,0,0
1684059578.50040412,119328916,1000,1000,1000,1000,0,0,0,0,0,0,0,0,0,0
1684059578.60036397,119428876,1000,1000,1000,1000,0,0,0,0,0,0,0,0,0,0
1684059578.70032406,119528836,1000,1000,1000,1000,0,0,0,0,0,0,0,0,0,0
1684059578.80028415,119628796,1000,1000,1000,1000,0,0,0,0,0,0,0,0,0,0
1684059578.90024400,119728756,1000,1000,1000,1000,0,0,0,0,0,0,0,0,0,0
1684059579.00020409,119828716,1000,1000,1000,1000,0,0,0,0,0,0,0,0,0,0
1684059579.10016394,119928676,1000,1000,1000,1000,0,0,0,0,0,0,0,0,0,0
1684059579.20012403,120028636,1000,1000,1000,1000,0,0,0,0,0,0,0,0,0,0
1684059579.30008411,120128596,1000,1000,1000,1000,0,0,0,0,0,0,0,0,0,0
1684059579.40004396,120228556,1000,1000,1000,1000,0,0,0,0,0,0,0,0,0,0
1684059579.50000405,120328516,1000,1000,1000,1000,0,0,0,0,0,0,0,0,0,0
1684059579.59996414,120428476,1000,1000,1000,1000,0,0,0,0,0,0,0,0,0,0
1684059579.69992399,120528436,1000,1000,1000,1000,0,0,0,0,0,0,0,0,0,0
1684059579.79988408,120628396,1000,1000,1000,1000,0,0,0,0,0,0,0,0,0,0
1684059579.89984393,120728356,1000,1000,1000,1000,0,0,0,0,0,0,0,0,0,0
1684059579.99980402,120828316,1000,1000,1000,1000,0,0,0,0,0,0,0,0,0,0
1684059580.09976411,120928276,1000,1000,1000,1000,0,0,0,0,0,0,0,0,0,0
1684059580.19972396,121028236,1000,1000,1000,1000,0,0,0,0,0,0,0,0,0,0
1684059580.29968405,121128196,1000,1000,1000,1000,0,0,0,0,0,0,0,0,0,0
1684059580.39964414,121228156,1000,1000,1000,1000,0,0,0,0,0,0,0,0,0,0
1684059580.50043702,121328949,1000,1000,1000,1000,0,0,0,0,0,0,0,0,0,0
1684059580.60039711,121428909,1000,1000,1000,1000,0,0,0,0,0,0,0,0,0,0
1684059580.70035696,121528869,1000,1000,1000,1000,0,0,0,0,0,0,0,0,0,0
1684059580.80031705,121628829,1000,1000,1000,1000,0,0,0,0,0,0,0,0,0,0
1684059580.90027714,121728789,1000,1000,1000,1000,0,0,0,0,0,0,0,0,0,0
1684059581.00023699,121828749,1000,1000,1000,1000,0,0,0,0,0,0,0,0,0,0
1684059581.10019708,121928709,1000,1000,1000,1000,0,0,0,0,0,0,0,0,0,0
1684059581.20015717,122028669,1000,1000,1000,1000,0,0,0,0,0,0,0,0,0,0
1684059581.30011702,122128629,1000,1000,1000,1000,0,0,0,0,0,0,0,0,0,0
1684059581.40007710,122228589,1000,1000,1000,1000,0,0,0,0,0,0,0,0,0,0
1684059581.50003695,122328549,1000,1000,1000,1000,0,0,0,0,0,0,0,0,0,0
1684059581.59999704,122428509,1000,1000,1000,1000,0,0,0,0,0,0,0,0,0,0
1684059581.69995713,122528469,1000,1000,1000,1000,0,0,0,0,0,0,0,0,0,0
1684059581.79991698,122628429,1000,1000,1000,1000,0,0,0,0,0,0,0,0,0,0
1684059581.89987707,122728389,1000,1000,1000,1000,0,0,0,0,0,0,0,0,0,0
1684059581.99983716,122828349,1000,1000,1000,1000,0,0,0,0,0,0,0,0,0,0
1684059582.09979701,122928309,1000,1000,1000,1000,0,0,0,0,0,0,0,0,0,0
1684059582.19975710,123028269,1000,1000,1000,1000,0,0,0,0,0,0,0,0,0,0
1684059582.29971695,123128229,1000,1000,1000,1000,0,0,0,0,0,0,0,0,0,0
1684059582.39967704,123228189,1000,1000,1000,1000,0,0,0,0,0,0,0,0,0,0
1684059582.50047016,123328982,1000,1000,1000,1000,0,0,0,0,0,0,0,0,0,0
1684059582.60043001,123428942,1000,1000,1000,1000,0,0,0,0,0,0,0,0,0,0
1684059582.70039010,123528902,1000,1000,1000,1000,0,0,0,0,0,0,0,0,0,0
1684059582.80034995,123628862,1000,1000,1000,1000,0,0,0,0,0,0,0,0,0,0
1684059582.90031004,123728822,1000,1000,1000,1000,0,0,0,0,0,0,0,0,0,0
1684059583.00027013,123828782,1000,1000,1000,1000,0,0,0,0,0,0,0,0,0,0
1684059583.10022998,123928742,1000,1000,1000,1000,0,0,0,0,0,0,0,0,0,0
1684059583.20019007,124028702,1000,1000,1000,1000,0,0,0,0,0,0,0,0,0,0
1684059583.30015016,124128662,1000,1000,1000,1000,0,0,0,0,0,0,0,0,0,0
1684059583.40011001,124228622,1000,1000,1000,1000,0,0,0,0,0,0,0,0,0,0
1684059583.50007010,124328582,1000,1000,1000,1000,0,0,0,0,0,0,0,0,0,0
1684059583.60002995,124428542,1000,1000,1000,1000,0,0,0,0,0,0,0,0,0,0
1684059583.69999003,124528502,1000,1000,1000,1000,0,0,0,0,0,0,0,0,0,0
1684059583.79995012,124628462,1000,1000,1000,1000,0,0,0,0,0,0,0,0,0,0
1684059583.89990997,124728422,1000,1000,1000,1000,0,0,0,0,0,0,0,0,0,0
1684059583.99987006,124828382,1000,1000,1000,1000,0,0,0,0,0,0,0,0,0,0
1684059584.09983015,124928342,1000,1000,1000,1000,0,0,0,0,0,0,0,0,0,0
1684059584.19979000,125028302,1000,1000,1000,1000,0,0,0,0,0,0,0,0,0,0
1684059584.29975009,125128262,1000,1000,1000,1000,0,0,0,0,0,0,0,0,0,0
1684059584.39970994,125228222,1000,1000,1000,1000,0,0,0,0,0,0,0,0,0,0
1684059584.49967003,125328182,1000,1000,1000,1000,0,0,0,0,0,0,0,0,0,0
1684059584.60046315,125428975,1000,1000,1000,1000,0,0,0,0,0,0,0,0,0,0
1684059584.70042300,125528935,1000,1000,1000,1000,0,0,0,0,0,0,0,0,0,0
1684059584.80038309,125628895,1000,1000,1000,1000,0,0,0,0,0,0,0,0,0,0
1684059584.90034294,125728855,1000,1000,1000,1000,0,0,0,0,0,0,0,0,0,0
1684059585.00030303,125828815,1000,1000,1000,1000,0,0,0,0,0,0,0,0,0,0
1684059585.10026312,125928775,1000,1000,1000,1000,0,0,0,0,0,0,0,0,0,0
1684059585.20022297,126028735,1000,1000,1000,1000,0,0,0,0,0,0,0,0,0,0
1684059585.30018306,126128695,1000,1000,1000,1000,0,0,0,0,0,0,0,0,0,0
1684059585.40014315,126228655,1000,1000,1000,1000,0,0,0,0,0,0,0,0,0,0
1684059585.50010300,126328615,1000,1000,1000,1000,0,0,0,0,0,0,0,0,0,0
1684059585.60006309,126428575,1000,1000,1000,1000,0,0,0,0,0,0,0,0,0,0
1684059585.70002294,126528535,1000,1000,1000,1000,0,0,0,0,0,0,0,0,0,0
1684059585.79998302,126628495,1000,1000,1000,1000,0,0,0,0,0,0,0,0,0,0
1684059585.89994311,126728455,1000,1000,1000,1000,0,0,0,0,0,0,0,0,0,0
1684059585.99990296,126828415,1000,1000,1000,1000,0,0,0,0,0,0,0,0,0,0
1684059586.09986305,126928375,1000,1000,1000,1000,0,0,0,0,0,0,0,0,0,0
1684059586.19982314,127028335,1000,1000,1000,1000,0,0,0,0,0,0,0,0,0,0
1684059586.29978299,127128295,1000,1000,1000,1000,0,0,0,0,0,0,0,0,0,0
1684059586.39974308,127228255,1000,1000,1000,1000,0,0,0,0,0,0,0,0,0,0
1684059586.49970293,127328215,1000,1000,1000,1000,0,0,0,0,0,0,0,0,0,0
1684059586.59966302,127428175,1000,1000,1000,1000,0,0,0,0,0,0,0,0,0,0
1684059586.70045614,127528968,1000,1000,1000,1000,0,0,0,0,0,0,0,0,0,0
1684059586.80041599,127628928,1000,1000,1000,1000,0,0,0,0,0,0,0,0,0,0
1684059586.90037608,127728888,1000,1000,1000,1000,0,0,0,0,0,0,0,0,0,0
1684059587.00033593,127828848,1000,1000,1000,1000,0,0,0,0,0,0,0,0,0,0
1684059587.10029602,127928808,1000,1000,1000,1000,0,0,0,0,0,0,0,0,0,0
1684059587.20025611,128028768,1000,1000,1000,1000,0,0,0,0,0,0,0,0,0,0
1684059587.30021596,128128728,1000,1000,1000,1000,0,0,0,0,0,0,0,0,0,0
1684059587.40017605,128228688,1000,1000,1000,1000,0,0,0,0,0,0,0,0,0,0
1684059587.50013614,128328648,1000,1000,1000,1000,0,0,0,0,0,0,0,0,0,0
1684059587.60009599,128428608,1000,1000,1000,1000,0,0,0,0,0,0,0,0,0,0
1684059587.70005608,128528568,1000,1000,1000,1000,0,0,0,0,0,0,0,0,0,0
1684059587.80001616,128628528,1000,1000,1000,1000,0,0,0,0,0,0,0,0,0,0
1684059587.89997602,128728488,1000,1000,1000,1000,0,0,0,0,0,0,0,0,0,0
1684059587.99993610,128828448,1000,1000,1000,1000,0,0,0,0,0,0,0,0,0,0
1684059588.09989595,128928408,1000,1000,1000,1000,0,0,0,0,0,0,0,0,0,0
1684059588.19985604,129028368,1000,1000,1000,1000,0,0,0,0,0,0,0,0,0,0
1684059588.29981613,129128328,1000,1000,1000,1000,0,0,0,0,0,0,0,0,0,0
1684059588.39977598,129228288,1000,1000,1000,1000,0,0,0,0,0,0,0,0,0,0
1684059588.49973607,129328248,1000,1000,1000,1000,0,0,0,0,0,0,0,0,0,0
1684059588.59969616,129428208,1000,1000,1000,1000,0,0,0,0,0,0,0,0,0,0
1684059588.69965601,129528168,1000,1000,1000,1000,0,0,0,0,0,0,0,0,0,0
1684059588.80044913,129628961,1000,1000,1000,1000,0,0,0,0,0,0,0,0,0,0
1684059588.90040898,129728921,1000,1000,1000,1000,0,0,0,0,0,0,0,0,0,0
1684059589.00036907,129828881,1000,1000,1000,1000,0,0,0,0,0,0,0,0,0,0
