TimeUS,M1,M2,M3,M4,TimeUS,C1,C2,C3,C4
82271245,1000,1000,1000,1000,82328722,1000,1000,1000,1000
82273744,1000,1000,1000,1000,82428682,1000,1000,1000,1000
82276243,1000,1000,1000,1000,82528642,1000,1000,1000,1000
82278742,1000,1000,1000,1000,82628602,1000,1000,1000,1000
82281241,1000,1000,1000,1000,82728562,1000,1000,1000,1000
82283740,1000,1000,1000,1000,82828522,1000,1000,1000,1000
82286239,1000,1000,1000,1000,82928482,1000,1000,1000,1000
82288738,1000,1000,1000,1000,83028442,1000,1000,1000,1000
82291237,1000,1000,1000,1000,83128402,1000,1000,1000,1000
82293736,1000,1000,1000,1000,83228362,1000,1000,1000,1000
82296235,1000,1000,1000,1000,83328322,1000,1000,1000,1000
82298734,1000,1000,1000,1000,83428282,1000,1000,1000,1000
82301233,1000,1000,1000,1000,83528242,1000,1000,1000,1000
82303732,1000,1000,1000,1000,83628202,1000,1000,1000,1000
82306231,1000,1000,1000,1000,83728162,1000,1000,1000,1000
82308730,1000,1000,1000,1000,83828955,1000,1000,1000,1000
82311229,1000,1000,1000,1000,83928915,1000,1000,1000,1000
82313728,1000,1000,1000,1000,84028875,1000,1000,1000,1000
82316227,1000,1000,1000,1000,84128835,1000,1000,1000,1000
82318726,1000,1000,1000,1000,84228795,1000,1000,1000,1000
82321225,1000,1000,1000,1000,84328755,1017,1017,1017,1017
82323724,1000,1000,1000,1000,84428715,1047,1047,1047,1047
82326223,1000,1000,1000,1000,84528675,1077,1077,1077,1077
82328722,1000,1000,1000,1000,84628635,1107,1107,1107,1107
82331221,1000,1000,1000,1000,84728595,1137,1137,1137,1137
82333720,1000,1000,1000,1000,84828555,1307,1297,1298,1308
82336219,1000,1000,1000,1000,84928515,1510,1501,1502,1510
82338718,1000,1000,1000,1000,85028475,1668,1661,1661,1668
82341217,1000,1000,1000,1000,85128435,1803,1796,1796,1803
82343716,1000,1000,1000,1000,85228395,1876,1868,1869,1876
82346215,1000,1000,1000,1000,85328355,1856,1852,1853,1856
82348714,1000,1000,1000,1000,85428315,1725,1725,1725,1726
82351213,1000,1000,1000,1000,85528275,1634,1636,1637,1635
82353712,1000,1000,1000,1000,85628235,1613,1616,1616,1613
82356211,1000,1000,1000,1000,85728195,1622,1625,1625,1622
82358710,1000,1000,1000,1000,85828155,1632,1634,1634,1632
82361209,1000,1000,1000,1000,85928948,1632,1632,1632,1632
82363708,1000,1000,1000,1000,86028908,1617,1615,1612,1620
82366207,1000,1000,1000,1000,86128868,1606,1605,1597,1613
82368706,1000,1000,1000,1000,86228828,1602,1601,1597,1606
82371205,1000,1000,1000,1000,86328788,1603,1603,1602,1604
82373704,1000,1000,1000,1000,86428748,1608,1608,1610,1606
82376203,1000,1000,1000,1000,86528708,1614,1614,1618,1610
82378702,1000,1000,1000,1000,86628668,1618,1618,1622,1614
82381201,1000,1000,1000,1000,86728628,1597,1598,1607,1588
82383700,1000,1000,1000,1000,86828588,1578,1579,1592,1566
82386199,1000,1000,1000,1000,86928548,1566,1566,1572,1561
82388698,1000,1000,1000,1000,87028508,1556,1556,1552,1561
82391197,1000,1000,1000,1000,87128468,1548,1547,1537,1559
82393696,1000,1000,1000,1000,87228428,1540,1539,1529,1551
82396195,1000,1000,1000,1000,87328388,1534,1533,1526,1541
82398694,1000,1000,1000,1000,87428348,1529,1529,1526,1531
82401193,1000,1000,1000,1000,87528308,1528,1528,1528,1527
82403692,1000,1000,1000,1000,87628268,1529,1529,1532,1526
82406191,1000,1000,1000,1000,87728228,1532,1532,1535,1529
82408690,1000,1000,1000,1000,87828188,1536,1536,1539,1532
82411189,1000,1000,1000,1000,87928981,1539,1539,1542,1536
82413688,1000,1000,1000,1000,88028941,1542,1543,1544,1541
82416187,1000,1000,1000,1000,88128901,1545,1546,1546,1546
82418686,1000,1000,1000,1000,88228861,1548,1548,1548,1549
82421185,1000,1000,1000,1000,88328821,1551,1551,1550,1553
82423684,1000,1000,1000,1000,88428781,1554,1553,1552,1555
82426183,1000,1000,1000,1000,88528741,1555,1555,1556,1559
82428682,1000,1000,1000,1000,88628701,1556,1557,1559,1561
82431181,1000,1000,1000,1000,88728661,1559,1558,1563,1563
82433680,1000,1000,1000,1000,88828621,1561,1561,1566,1565
82436179,1000,1000,1000,1000,88928581,1562,1562,1566,1565
82438678,1000,1000,1000,1000,89028541,1564,1564,1567,1566
82441177,1000,1000,1000,1000,89128501,1566,1566,1568,1568
82443676,1000,1000,1000,1000,89228461,1568,1568,1567,1568
82446175,1000,1000,1000,1000,89328421,1569,1569,1567,1567
82448674,1000,1000,1000,1000,89428381,1571,1571,1568,1569
82451173,1000,1000,1000,1000,89528341,1571,1571,1568,1569
82453672,1000,1000,1000,1000,89628301,1572,1572,1568,1569
82456171,1000,1000,1000,1000,89728261,1573,1573,1570,1570
82458670,1000,1000,1000,1000,89828221,1574,1574,1572,1571
82461169,1000,1000,1000,1000,89928181,1575,1574,1573,1572
82463668,1000,1000,1000,1000,90028974,1576,1576,1575,1573
82466167,1000,1000,1000,1000,90128934,1577,1577,1577,1575
82468666,1000,1000,1000,1000,90228894,1576,1576,1576,1576
82471165,1000,1000,1000,1000,90328854,1576,1576,1576,1576
82473664,1000,1000,1000,1000,90428814,1576,1576,1576,1577
82476163,1000,1000,1000,1000,90528774,1576,1575,1576,1577
82478662,1000,1000,1000,1000,90628734,1575,1576,1576,1577
82481161,1000,1000,1000,1000,90728694,1576,1576,1577,1576
82483660,1000,1000,1000,1000,90828654,1577,1577,1577,1577
82486159,1000,1000,1000,1000,90928614,1576,1576,1577,1576
82488658,1000,1000,1000,1000,91028574,1577,1577,1577,1577
82491157,1000,1000,1000,1000,91128534,1577,1577,1578,1577
82493656,1000,1000,1000,1000,91228494,1578,1579,1579,1578
82496155,1000,1000,1000,1000,91328454,1579,1578,1578,1578
82498654,1000,1000,1000,1000,91428414,1578,1577,1577,1578
82501153,1000,1000,1000,1000,91528374,1579,1579,1578,1578
82503652,1000,1000,1000,1000,91628334,1578,1578,1578,1578
82506151,1000,1000,1000,1000,91728294,1579,1579,1579,1579
82508650,1000,1000,1000,1000,91828254,1579,1579,1579,1579
82511149,1000,1000,1000,1000,91928214,1579,1579,1579,1579
82513648,1000,1000,1000,1000,92028174,1579,1579,1579,1579
82516147,1000,1000,1000,1000,92128967,1580,1580,1580,1580
82518646,1000,1000,1000,1000,92228927,1579,1579,1580,1580
82521145,1000,1000,1000,1000,92328887,1580,1579,1580,1580
82523644,1000,1000,1000,1000,92428847,1580,1580,1580,1580
82526143,1000,1000,1000,1000,92528807,1580,1579,1580,1580
82528642,1000,1000,1000,1000,92628767,1580,1580,1580,1580
82531141,1000,1000,1000,1000,92728727,1579,1579,1579,1580
82533640,1000,1000,1000,1000,92828687,1580,1580,1580,1580
82536139,1000,1000,1000,1000,92928647,1579,1580,1580,1580
82538638,1000,1000,1000,1000,93028607,1581,1581,1581,1581
82541137,1000,1000,1000,1000,93128567,1580,1580,1581,1580
82543636,1000,1000,1000,1000,93228527,1581,1581,1581,1581
82546135,1000,1000,1000,1000,93328487,1580,1579,1580,1580
82548634,1000,1000,1000,1000,93428447,1580,1580,1580,1580
82551133,1000,1000,1000,1000,93528407,1579,1579,1579,1579
82553632,1000,1000,1000,1000,93628367,1580,1580,1580,1580
82556131,1000,1000,1000,1000,93728327,1581,1581,1581,1581
82558630,1000,1000,1000,1000,93828287,1580,1581,1581,1581
82561129,1000,1000,1000,1000,93928247,1580,1580,1580,1580
82563628,1000,1000,1000,1000,94028207,1581,1581,1581,1581
82566127,1000,1000,1000,1000,94128167,1581,1581,1580,1581
82568626,1000,1000,1000,1000,94228960,1581,1581,1581,1581
82571125,1000,1000,1000,1000,94328920,1581,1580,1580,1580
82573624,1000,1000,1000,1000,94428880,1581,1581,1582,1581
82576123,1000,1000,1000,1000,94528840,1581,1581,1581,1581
82578622,1000,1000,1000,1000,94628800,1581,1582,1582,1581
82581121,1000,1000,1000,1000,94728760,1581,1582,1589,1574
82583620,1000,1000,1000,1000,94828720,1580,1582,1585,1573
82586119,1000,1000,1000,1000,94928680,1579,1582,1577,1575
82588618,1000,1000,1000,1000,95028640,1578,1581,1568,1572
82591117,1000,1000,1000,1000,95128600,1578,1580,1561,1569
82593616,1000,1000,1000,1000,95228560,1578,1579,1557,1563
82596115,1000,1000,1000,1000,95328520,1579,1578,1555,1558
82598614,1000,1000,1000,1000,95428480,1579,1578,1555,1555
82601113,1000,1000,1000,1000,95528440,1579,1578,1556,1554
82603612,1000,1000,1000,1000,95628400,1579,1578,1556,1554
82606111,1000,1000,1000,1000,95728360,1577,1578,1555,1554
82608610,1000,1000,1000,1000,95828320,1576,1577,1555,1553
82611109,1000,1000,1000,1000,95928280,1576,1577,1554,1554
82613608,1000,1000,1000,1000,96028240,1575,1577,1553,1553
82616107,1000,1000,1000,1000,96128200,1576,1577,1552,1552
82618606,1000,1000,1000,1000,96228160,1577,1578,1550,1550
82621105,1000,1000,1000,1000,96328953,1579,1580,1548,1548
82623604,1000,1000,1000,1000,96428913,1582,1583,1546,1545
82626103,1000,1000,1000,1000,96528873,1584,1585,1542,1542
82628602,1000,1000,1000,1000,96628833,1587,1588,1539,1539
82631101,1000,1000,1000,1000,96728793,1591,1591,1537,1537
82633600,1000,1000,1000,1000,96828753,1594,1594,1536,1535
82636099,1000,1000,1000,1000,96928713,1595,1594,1534,1535
82638598,1000,1000,1000,1000,97028673,1596,1595,1535,1536
82641097,1000,1000,1000,1000,97128633,1595,1595,1536,1539
82643596,1000,1000,1000,1000,97228593,1593,1592,1540,1543
82646095,1000,1000,1000,1000,97328553,1588,1586,1545,1548
82648594,1000,1000,1000,1000,97428513,1581,1578,1553,1556
82651093,1000,1000,1000,1000,97528473,1573,1569,1565,1568
82653592,1000,1000,1000,1000,97628433,1563,1559,1577,1579
82656091,1000,1000,1000,1000,97728393,1552,1548,1591,1591
82658590,1000,1000,1000,1000,97828353,1541,1539,1602,1601
82661089,1000,1000,1000,1000,97928313,1533,1533,1610,1610
82663588,1000,1000,1000,1000,98028273,1528,1530,1615,1614
82666087,1000,1000,1000,1000,98128233,1528,1530,1616,1615
82668586,1000,1000,1000,1000,98228193,1531,1533,1612,1612
82671085,1000,1000,1000,1000,98328986,1537,1539,1608,1608
82673584,1000,1000,1000,1000,98428946,1546,1548,1602,1602
82676083,1000,1000,1000,1000,98528906,1555,1556,1594,1594
82678582,1000,1000,1000,1000,98628866,1564,1565,1587,1586
82681081,1000,1000,1000,1000,98728826,1573,1573,1580,1579
82683580,1000,1000,1000,1000,98828786,1580,1579,1574,1573
82686079,1000,1000,1000,1000,98928746,1585,1583,1570,1569
82688578,1000,1000,1000,1000,99028706,1588,1586,1567,1567
82691077,1000,1000,1000,1000,99128666,1588,1587,1566,1566
82693576,1000,1000,1000,1000,99228626,1587,1586,1566,1566
82696075,1000,1000,1000,1000,99328586,1370,1370,1580,1582
82698574,1000,1000,1000,1000,99428546,1441,1444,1621,1626
82701073,1000,1000,1000,1000,99528506,1487,1493,1620,1620
82703572,1000,1000,1000,1000,99628466,1529,1536,1611,1606
82706071,1000,1000,1000,1000,99728426,1563,1567,1602,1595
82708570,1000,1000,1000,1000,99828386,1589,1588,1594,1589
82711069,1000,1000,1000,1000,99928346,1607,1601,1588,1586
82713568,1000,1000,1000,1000,100028306,1618,1610,1583,1584
82716067,1000,1000,1000,1000,100128266,1634,1627,1564,1569
82718566,1000,1000,1000,1000,100228226,1649,1645,1544,1549
82721065,1000,1000,1000,1000,100328186,1656,1654,1533,1538
82723564,1000,1000,1000,1000,100428979,1652,1652,1535,1539
82726063,1000,1000,1000,1000,100528939,1642,1644,1543,1545
82728562,1000,1000,1000,1000,100628899,1632,1635,1551,1551
82731061,1000,1000,1000,1000,100728859,1622,1623,1561,1560
82733560,1000,1000,1000,1000,100828819,1608,1605,1575,1573
82736059,1000,1000,1000,1000,100928779,1591,1587,1592,1591
82738558,1000,1000,1000,1000,101028739,1573,1570,1603,1603
82741057,1000,1000,1000,1000,101128699,1561,1561,1609,1609
82743556,1000,1000,1000,1000,101228659,1555,1557,1608,1608
82746055,1000,1000,1000,1000,101328619,1553,1557,1604,1604
82748554,1000,1000,1000,1000,101428579,1555,1560,1601,1600
82751053,1000,1000,1000,1000,101528539,1558,1563,1597,1595
82753552,1000,1000,1000,1000,101628499,1563,1566,1593,1590
82756051,1000,1000,1000,1000,101728459,1568,1569,1589,1586
82758550,1000,1000,1000,1000,101828419,1573,1572,1585,1583
82761049,1000,1000,1000,1000,101928379,1577,1575,1580,1580
82763548,1000,1000,1000,1000,102028339,1580,1577,1577,1577
82766047,1000,1000,1000,1000,102128299,1581,1580,1574,1575
82768546,1000,1000,1000,1000,102228259,1583,1583,1574,1574
82771045,1000,1000,1000,1000,102328219,1586,1586,1571,1571
82773544,1000,1000,1000,1000,102428179,1589,1589,1568,1568
82776043,1000,1000,1000,1000,102528972,1591,1591,1566,1566
82778542,1000,1000,1000,1000,102628932,1593,1592,1568,1567
82781041,1000,1000,1000,1000,102728892,1593,1590,1576,1563
82783540,1000,1000,1000,1000,102828852,1591,1586,1574,1565
82786039,1000,1000,1000,1000,102928812,1588,1583,1569,1569
82788538,1000,1000,1000,1000,103028772,1581,1579,1564,1569
82791037,1000,1000,1000,1000,103128732,1576,1579,1562,1568
82793536,1000,1000,1000,1000,103228692,1573,1577,1561,1563
82796035,1000,1000,1000,1000,103328652,1572,1577,1561,1561
82798534,1000,1000,1000,1000,103428612,1571,1576,1560,1557
82801033,1000,1000,1000,1000,103528572,1572,1575,1559,1556
82803532,1000,1000,1000,1000,103628532,1573,1573,1557,1554
82806031,1000,1000,1000,1000,103728492,1574,1573,1555,1553
82808530,1000,1000,1000,1000,103828452,1574,1573,1553,1552
82811029,1000,1000,1000,1000,103928412,1573,1573,1551,1551
82813528,1000,1000,1000,1000,104028372,1573,1574,1548,1549
82816027,1000,1000,1000,1000,104128332,1573,1574,1545,1546
82818526,1000,1000,1000,1000,104228292,1574,1576,1545,1545
82821025,1000,1000,1000,1000,104328252,1575,1577,1542,1541
82823524,1000,1000,1000,1000,104428212,1577,1579,1540,1539
82826023,1000,1000,1000,1000,104528172,1579,1581,1538,1537
82828522,1000,1000,1000,1000,104628965,1583,1584,1538,1537
82831021,1000,1000,1000,1000,104728925,1586,1586,1537,1536
82833520,1000,1000,1000,1000,104828885,1588,1588,1535,1536
82836019,1000,1000,1000,1000,104928845,1591,1590,1535,1537
82838518,1000,1000,1000,1000,105028805,1592,1591,1535,1538
82841017,1000,1000,1000,1000,105128765,1591,1590,1537,1541
82843516,1000,1000,1000,1000,105228725,1589,1588,1542,1545
82846015,1000,1000,1000,1000,105328685,1584,1584,1546,1550
82848514,1000,1000,1000,1000,105428645,1580,1579,1553,1556
82851013,1000,1000,1000,1000,105528605,1575,1573,1559,1563
82853512,1000,1000,1000,1000,105628565,1569,1567,1565,1569
82856011,1000,1000,1000,1000,105728525,1562,1561,1571,1574
82858510,1000,1000,1000,1000,105828485,1557,1556,1579,1580
82861009,1000,1000,1000,1000,105928445,1552,1551,1586,1586
82863508,1000,1000,1000,1000,106028405,1548,1546,1592,1591
82866007,1000,1000,1000,1000,106128365,1544,1543,1597,1595
82868506,1000,1000,1000,1000,106228325,1540,1540,1600,1599
82871005,1000,1000,1000,1000,106328285,1538,1538,1602,1600
82873504,1000,1000,1000,1000,106428245,1537,1538,1603,1602
82876003,1000,1000,1000,1000,106528205,1538,1540,1602,1602
82878502,1000,1000,1000,1000,106628165,1540,1543,1599,1599
82881001,1000,1000,1000,1000,106728958,1546,1548,1595,1595
82883500,1000,1000,1000,1000,106828918,1552,1553,1589,1590
82885999,1000,1000,1000,1000,106928878,1560,1560,1584,1585
82888498,1000,1000,1000,1000,107028838,1566,1566,1579,1579
82890997,1000,1000,1000,1000,107128798,1572,1572,1577,1575
82893496,1000,1000,1000,1000,107228758,1577,1576,1574,1572
82895995,1000,1000,1000,1000,107328718,1582,1580,1573,1573
82898494,1000,1000,1000,1000,107428678,1583,1582,1571,1571
82900993,1000,1000,1000,1000,107528638,1585,1583,1571,1572
82903492,1000,1000,1000,1000,107628598,1585,1584,1571,1572
82905991,1000,1000,1000,1000,107728558,1585,1585,1572,1573
82908490,1000,1000,1000,1000,107828518,1585,1584,1573,1573
82910989,1000,1000,1000,1000,107928478,1584,1584,1574,1574
82913488,1000,1000,1000,1000,108028438,1583,1583,1575,1574
82915987,1000,1000,1000,1000,108128398,1582,1582,1575,1575
82918486,1000,1000,1000,1000,108228358,1581,1582,1576,1576
82920985,1000,1000,1000,1000,108328318,1581,1581,1578,1577
82923484,1000,1000,1000,1000,108428278,1579,1579,1577,1577
82925983,1000,1000,1000,1000,108528238,1578,1578,1577,1577
82928482,1000,1000,1000,1000,108628198,1578,1578,1578,1578
82930981,1000,1000,1000,1000,108728158,1577,1577,1579,1579
82933480,1000,1000,1000,1000,108828951,1577,1577,1580,1580
82935979,1000,1000,1000,1000,108928911,1577,1577,1581,1580
82938478,1000,1000,1000,1000,109028871,1577,1578,1580,1581
82940977,1000,1000,1000,1000,109128831,1577,1578,1580,1581
82943476,1000,1000,1000,1000,109228791,1577,1578,1581,1581
82945975,1000,1000,1000,1000,109328751,1578,1578,1581,1580
82948474,1000,1000,1000,1000,109428711,1578,1579,1580,1580
82950973,1000,1000,1000,1000,109528671,1579,1579,1580,1580
82953472,1000,1000,1000,1000,109628631,1580,1579,1580,1580
82955971,1000,1000,1000,1000,109728591,1581,1580,1581,1580
82958470,1000,1000,1000,1000,109828551,1580,1580,1580,1580
82960969,1000,1000,1000,1000,109928511,1581,1581,1580,1580
82963468,1000,1000,1000,1000,110028471,1581,1581,1579,1580
82965967,1000,1000,1000,1000,110128431,1581,1581,1579,1580
82968466,1000,1000,1000,1000,110228391,1581,1581,1579,1580
82970965,1000,1000,1000,1000,110328351,1581,1581,1580,1579
82973464,1000,1000,1000,1000,110428311,1581,1581,1580,1579
82975963,1000,1000,1000,1000,110528271,1582,1581,1580,1580
82978462,1000,1000,1000,1000,110628231,1582,1581,1581,1580
82980961,1000,1000,1000,1000,110728191,1581,1581,1580,1580
82983460,1000,1000,1000,1000,110828984,1581,1581,1580,1580
82985959,1000,1000,1000,1000,110928944,1581,1581,1581,1581
82988458,1000,1000,1000,1000,111028904,1581,1581,1581,1581
82990957,1000,1000,1000,1000,111128864,1582,1582,1582,1582
82993456,1000,1000,1000,1000,111228824,1582,1581,1582,1582
82995955,1000,1000,1000,1000,111328784,1582,1581,1582,1582
82998454,1000,1000,1000,1000,111428744,1581,1582,1584,1580
83000953,1000,1000,1000,1000,111528704,1582,1582,1589,1574
83003452,1000,1000,1000,1000,111628664,1580,1581,1583,1573
83005951,1000,1000,1000,1000,111728624,1578,1580,1573,1573
83008450,1000,1000,1000,1000,111828584,1576,1578,1564,1569
83010949,1000,1000,1000,1000,111928544,1576,1578,1559,1566
83013448,1000,1000,1000,1000,112028504,1576,1578,1556,1561
83015947,1000,1000,1000,1000,112128464,1577,1578,1556,1558
83018446,1000,1000,1000,1000,112228424,1578,1578,1557,1556
83020945,1000,1000,1000,1000,112328384,1578,1577,1556,1555
83023444,1000,1000,1000,1000,112428344,1579,1578,1558,1556
83025943,1000,1000,1000,1000,112528304,1578,1578,1556,1555
83028442,1000,1000,1000,1000,112628264,1577,1577,1555,1554
83030941,1000,1000,1000,1000,112728224,1577,1578,1554,1554
83033440,1000,1000,1000,1000,112828184,1576,1577,1552,1552
83035939,1000,1000,1000,1000,112928977,1576,1577,1550,1551
83038438,1000,1000,1000,1000,113028937,1577,1579,1549,1550
83040937,1000,1000,1000,1000,113128897,1579,1580,1548,1548
83043436,1000,1000,1000,1000,113228857,1580,1582,1547,1547
83045935,1000,1000,1000,1000,113328817,1582,1583,1545,1544
83048434,1000,1000,1000,1000,113428777,1584,1585,1543,1542
83050933,1000,1000,1000,1000,113528737,1586,1586,1540,1540
83053432,1000,1000,1000,1000,113628697,1588,1588,1540,1540
83055931,1000,1000,1000,1000,113728657,1590,1589,1540,1540
83058430,1000,1000,1000,1000,113828617,1590,1591,1540,1542
83060929,1000,1000,1000,1000,113928577,1590,1590,1541,1543
83063428,1000,1000,1000,1000,114028537,1590,1591,1545,1547
83065927,1000,1000,1000,1000,114128497,1588,1587,1547,1551
83068426,1000,1000,1000,1000,114228457,1585,1583,1553,1556
83070925,1000,1000,1000,1000,114328417,1580,1577,1560,1563
83073424,1000,1000,1000,1000,114428377,1573,1570,1570,1572
83075923,1000,1000,1000,1000,114528337,1564,1561,1581,1582
83078422,1000,1000,1000,1000,114628297,1555,1552,1592,1592
83080921,1000,1000,1000,1000,114728257,1545,1543,1600,1600
83083420,1000,1000,1000,1000,114828217,1538,1538,1607,1606
83085919,1000,1000,1000,1000,114928177,1533,1534,1610,1610
83088418,1000,1000,1000,1000,115028970,1532,1534,1611,1610
83090917,1000,1000,1000,1000,115128930,1534,1537,1609,1608
83093416,1000,1000,1000,1000,115228890,1539,1542,1606,1605
83095915,1000,1000,1000,1000,115328850,1545,1547,1598,1598
83098414,1000,1000,1000,1000,115428810,1554,1554,1592,1592
83100913,1000,1000,1000,1000,115528770,1561,1561,1586,1585
83103412,1000,1000,1000,1000,115628730,1569,1569,1579,1579
83105911,1000,1000,1000,1000,115728690,1577,1575,1575,1574
83108410,1000,1000,1000,1000,115828650,1582,1581,1571,1570
83110909,1000,1000,1000,1000,115928610,1587,1585,1568,1568
83113408,1000,1000,1000,1000,116028570,1588,1586,1566,1566
83115907,1000,1000,1000,1000,116128530,1589,1588,1567,1568
83118406,1000,1000,1000,1000,116228490,1588,1588,1568,1568
83120905,1000,1000,1000,1000,116328450,1586,1586,1570,1570
83123404,1000,1000,1000,1000,116428410,1584,1584,1573,1573
83125903,1000,1000,1000,1000,116528370,1582,1582,1575,1575
83128402,1000,1000,1000,1000,116628330,1579,1579,1578,1578
83130901,1000,1000,1000,1000,116728290,1577,1577,1581,1581
83133400,1000,1000,1000,1000,116828250,1576,1576,1584,1583
83135899,1000,1000,1000,1000,116928210,1575,1576,1585,1585
83138398,1000,1000,1000,1000,117028170,1574,1575,1585,1585
83140897,1000,1000,1000,1000,117128963,1574,1574,1585,1585
83143396,1000,1000,1000,1000,117228923,1574,1574,1583,1584
83145895,1000,1000,1000,1000,117328883,1574,1575,1582,1583
83148394,1000,1000,1000,1000,117428843,1575,1576,1581,1581
83150893,1000,1000,1000,1000,117528803,1577,1577,1580,1580
83153392,1000,1000,1000,1000,117628763,1578,1578,1579,1579
83155891,1000,1000,1000,1000,117728723,1580,1579,1579,1579
83158390,1000,1000,1000,1000,117828683,1581,1580,1578,1578
83160889,1000,1000,1000,1000,117928643,1581,1580,1577,1576
83163388,1000,1000,1000,1000,118028603,1581,1581,1577,1576
83165887,1000,1000,1000,1000,118128563,1582,1581,1577,1576
83168386,1000,1000,1000,1000,118228523,1581,1581,1577,1577
83170885,1000,1000,1000,1000,118328483,1581,1582,1578,1579
83173384,1000,1000,1000,1000,118428443,1581,1582,1579,1580
83175883,1000,1000,1000,1000,118528403,1581,1581,1580,1580
83178382,1000,1000,1000,1000,118628363,1580,1581,1580,1580
83180881,1000,1000,1000,1000,118728323,1580,1580,1580,1580
83183380,1000,1000,1000,1000,118828283,1580,1581,1582,1581
83185879,1000,1000,1000,1000,118928243,1580,1580,1582,1581
83188378,1000,1000,1000,1000,119028203,1579,1580,1581,1581
83190877,1000,1000,1000,1000,119128163,1580,1580,1581,1581
83193376,1000,1000,1000,1000,119228956,1580,1579,1581,1581
83195875,1000,1000,1000,1000,119328916,1580,1580,1581,1582
83198374,1000,1000,1000,1000,119428876,1581,1580,1582,1581
83200873,1000,1000,1000,1000,119528836,1581,1581,1585,1578
83203372,1000,1000,1000,1000,119628796,1582,1582,1589,1574
83205871,1000,1000,1000,1000,119728756,1580,1579,1583,1574
83208370,1000,1000,1000,1000,119828716,1578,1578,1575,1576
83210869,1000,1000,1000,1000,119928676,1574,1574,1568,1574
83213368,1000,1000,1000,1000,120028636,1571,1571,1564,1572
83215867,1000,1000,1000,1000,120128596,1570,1569,1564,1570
83218366,1000,1000,1000,1000,120228556,1568,1569,1565,1568
83220865,1000,1000,1000,1000,120328516,1567,1568,1567,1566
83223364,1000,1000,1000,1000,120428476,1566,1567,1568,1566
83225863,1000,1000,1000,1000,120528436,1567,1566,1569,1566
83228362,1000,1000,1000,1000,120628396,1565,1565,1567,1564
83230861,1000,1000,1000,1000,120728356,1564,1563,1565,1564
83233360,1000,1000,1000,1000,120828316,1563,1563,1565,1565
83235859,1000,1000,1000,1000,120928276,1562,1562,1563,1564
83238358,1000,1000,1000,1000,121028236,1562,1563,1563,1564
83240857,1000,1000,1000,1000,121128196,1562,1562,1563,1563
83243356,1000,1000,1000,1000,121228156,1561,1561,1563,1562
83245855,1000,1000,1000,1000,121328949,1561,1561,1562,1562
83248354,1000,1000,1000,1000,121428909,1561,1560,1561,1560
83250853,1000,1000,1000,1000,121528869,1560,1560,1561,1560
83253352,1000,1000,1000,1000,121628829,1560,1560,1560,1560
83255851,1000,1000,1000,1000,121728789,1560,1559,1559,1559
83258350,1000,1000,1000,1000,121828749,1559,1560,1560,1558
83260849,1000,1000,1000,1000,121928709,1560,1560,1560,1558
83263348,1000,1000,1000,1000,122028669,1560,1560,1560,1559
83265847,1000,1000,1000,1000,122128629,1559,1559,1559,1558
83268346,1000,1000,1000,1000,122228589,1560,1559,1561,1558
83270845,1000,1000,1000,1000,122328549,1560,1559,1560,1559
83273344,1000,1000,1000,1000,122428509,1559,1559,1559,1561
83275843,1000,1000,1000,1000,122528469,1560,1560,1558,1563
83278342,1000,1000,1000,1000,122628429,1561,1561,1558,1564
83280841,1000,1000,1000,1000,122728389,1561,1562,1560,1565
83283340,1000,1000,1000,1000,122828349,1562,1563,1561,1564
83285839,1000,1000,1000,1000,122928309,1561,1562,1562,1562
83288338,1000,1000,1000,1000,123028269,1561,1561,1562,1559
83290837,1000,1000,1000,1000,123128229,1560,1560,1561,1557
83293336,1000,1000,1000,1000,123228189,1560,1559,1557,1560
83295835,1000,1000,1000,1000,123328982,1557,1557,1552,1558
83298334,1000,1000,1000,1000,123428942,1554,1553,1549,1553
83300833,1000,1000,1000,1000,123528902,1549,1549,1545,1547
83303332,1000,1000,1000,1000,123628862,1543,1543,1540,1540
83305831,1000,1000,1000,1000,123728822,1536,1536,1533,1531
83308330,1000,1000,1000,1000,123828782,1529,1530,1526,1524
83310829,1000,1000,1000,1000,123928742,1523,1523,1520,1519
83313328,1000,1000,1000,1000,124028702,1520,1521,1520,1518
83315827,1000,1000,1000,1000,124128662,1519,1519,1519,1519
83318326,1000,1000,1000,1000,124228622,1519,1519,1521,1522
83320825,1000,1000,1000,1000,124328582,1520,1520,1525,1526
83323324,1000,1000,1000,1000,124428542,1524,1524,1530,1530
83325823,1000,1000,1000,1000,124528502,1529,1528,1535,1536
83328322,1000,1000,1000,1000,124628462,1533,1532,1540,1540
83330821,1000,1000,1000,1000,124728422,1536,1536,1543,1542
83333320,1000,1000,1000,1000,124828382,1539,1540,1544,1544
83335819,1000,1000,1000,1000,124928342,1541,1541,1544,1543
83338318,1000,1000,1000,1000,125028302,1544,1544,1544,1544
83340817,1000,1000,1000,1000,125128262,1545,1545,1544,1544
83343316,1000,1000,1000,1000,125228222,1547,1547,1545,1544
83345815,1000,1000,1000,1000,125328182,1547,1548,1544,1544
83348314,1000,1000,1000,1000,125428975,1548,1549,1544,1544
83350813,1000,1000,1000,1000,125528935,1549,1549,1544,1544
83353312,1000,1000,1000,1000,125628895,1549,1549,1545,1545
83355811,1000,1000,1000,1000,125728855,1548,1548,1545,1544
83358310,1000,1000,1000,1000,125828815,1547,1547,1544,1544
83360809,1000,1000,1000,1000,125928775,1546,1546,1545,1545
83363308,1000,1000,1000,1000,126028735,1546,1546,1545,1544
83365807,1000,1000,1000,1000,126128695,1545,1545,1545,1545
83368306,1000,1000,1000,1000,126228655,1545,1545,1546,1546
83370805,1000,1000,1000,1000,126328615,1544,1543,1545,1545
83373304,1000,1000,1000,1000,126428575,1543,1544,1546,1546
83375803,1000,1000,1000,1000,126528535,1544,1544,1546,1546
83378302,1000,1000,1000,1000,126628495,1544,1544,1546,1546
83380801,1000,1000,1000,1000,126728455,1544,1544,1546,1546
83383300,1000,1000,1000,1000,126828415,1544,1544,1545,1544
83385799,1000,1000,1000,1000,126928375,1544,1544,1545,1545
83388298,1000,1000,1000,1000,127028335,1544,1544,1545,1545
83390797,1000,1000,1000,1000,127128295,1545,1545,1544,1545
83393296,1000,1000,1000,1000,127228255,1544,1545,1544,1544
83395795,1000,1000,1000,1000,127328215,1545,1545,1544,1544
83398294,1000,1000,1000,1000,127428175,1544,1545,1544,1543
83400793,1000,1000,1000,1000,127528968,1545,1544,1543,1543
83403292,1000,1000,1000,1000,127628928,1545,1544,1544,1544
83405791,1000,1000,1000,1000,127728888,1544,1544,1543,1543
83408290,1000,1000,1000,1000,127828848,1544,1544,1543,1543
83410789,1000,1000,1000,1000,127928808,1543,1544,1543,1543
83413288,1000,1000,1000,1000,128028768,1544,1544,1544,1544
83415787,1000,1000,1000,1000,128128728,1543,1543,1543,1543
83418286,1000,1000,1000,1000,128228688,1543,1543,1544,1544
83420785,1000,1000,1000,1000,128328648,1544,1543,1544,1544
83423284,1000,1000,1000,1000,128428608,1543,1543,1544,1544
83425783,1000,1000,1000,1000,128528568,1543,1543,1544,1544
83428282,1000,1000,1000,1000,128628528,1544,1544,1544,1545
83430781,1000,1000,1000,1000,128728488,1544,1544,1544,1545
83433280,1000,1000,1000,1000,128828448,1544,1545,1545,1545
83435779,1000,1000,1000,1000,128928408,1544,1544,1545,1544
83438278,1000,1000,1000,1000,129028368,1545,1545,1545,1544
83440777,1000,1000,1000,1000,129128328,1545,1544,1544,1544
83443276,1000,1000,1000,1000,129228288,1545,1545,1544,1545
83445775,1000,1000,1000,1000,129328248,1545,1545,1544,1544
83448274,1000,1000,1000,1000,129428208,1544,1544,1544,1544
83450773,1000,1000,1000,1000,129528168,1545,1544,1544,1544
83453272,1000,1000,1000,1000,129628961,1544,1545,1544,1544
83455771,1000,1000,1000,1000,129728921,1544,1544,1544,1544
83458270,1000,1000,1000,1000,129828881,1544,1544,1544,1544
83460769,1000,1000,1000,1000,129928841,1544,1544,1544,1544
83463268,1000,1000,1000,1000,130028801,1544,1544,1544,1544
83465767,1000,1000,1000,1000,130128761,1544,1543,1543,1543
83468266,1000,1000,1000,1000,130228721,1544,1544,1544,1544
83470765,1000,1000,1000,1000,130328681,1544,1544,1545,1544
83473264,1000,1000,1000,1000,130428641,1544,1545,1545,1545
83475763,1000,1000,1000,1000,130528601,1544,1544,1544,1545
83478262,1000,1000,1000,1000,130628561,1544,1544,1544,1544
83480761,1000,1000,1000,1000,130728521,1544,1544,1544,1544
83483260,1000,1000,1000,1000,130828481,1544,1544,1544,1544
83485759,1000,1000,1000,1000,130928441,1544,1545,1544,1544
83488258,1000,1000,1000,1000,131028401,1545,1545,1545,1545
83490757,1000,1000,1000,1000,131128361,1544,1544,1543,1544
83493256,1000,1000,1000,1000,131228321,1544,1544,1544,1544
83495755,1000,1000,1000,1000,131328281,1545,1544,1544,1544
83498254,1000,1000,1000,1000,131428241,1544,1544,1544,1544
83500753,1000,1000,1000,1000,131528201,1544,1544,1544,1544
83503252,1000,1000,1000,1000,131628161,1544,1544,1544,1544
83505751,1000,1000,1000,1000,131728954,1544,1544,1544,1544
83508250,1000,1000,1000,1000,131828914,1544,1544,1544,1544
83510749,1000,1000,1000,1000,131928874,1544,1543,1543,1544
83513248,1000,1000,1000,1000,132028834,1544,1544,1544,1544
83515747,1000,1000,1000,1000,132128794,1545,1544,1544,1545
83518246,1000,1000,1000,1000,132228754,1544,1543,1543,1544
83520745,1000,1000,1000,1000,132328714,1544,1544,1544,1545
83523244,1000,1000,1000,1000,132428674,1544,1544,1545,1544
83525743,1000,1000,1000,1000,132528634,1545,1544,1545,1545
83528242,1000,1000,1000,1000,132628594,1544,1544,1544,1544
83530741,1000,1000,1000,1000,132728554,1545,1544,1544,1544
83533240,1000,1000,1000,1000,132828514,1544,1544,1544,1543
83535739,1000,1000,1000,1000,132928474,1544,1544,1544,1543
83538238,1000,1000,1000,1000,133028434,1544,1544,1544,1544
83540737,1000,1000,1000,1000,133128394,1545,1544,1544,1545
83543236,1000,1000,1000,1000,133228354,1545,1545,1545,1544
83545735,1000,1000,1000,1000,133328314,1545,1545,1544,1545
83548234,1000,1000,1000,1000,133428274,1543,1544,1544,1543
83550733,1000,1000,1000,1000,133528234,1545,1545,1545,1545
83553232,1000,1000,1000,1000,133628194,1544,1545,1545,1545
83555731,1000,1000,1000,1000,133728154,1452,1452,1421,1421
83558230,1000,1000,1000,1000,133828947,1354,1356,1278,1278
83560729,1000,1000,1000,1000,133928907,1321,1322,1223,1224
83563228,1000,1000,1000,1000,134028867,1309,1310,1203,1203
83565727,1000,1000,1000,1000,134128827,1288,1289,1165,1165
83568226,1000,1000,1000,1000,134228787,1263,1264,1151,1150
83570725,1000,1000,1000,1000,134328747,1130,1131,1150,1150
83573224,1000,1000,1000,1000,134428707,1087,1088,1150,1150
83575723,1000,1000,1000,1000,134528667,1087,1088,1150,1150
83578222,1000,1000,1000,1000,134628627,1087,1088,1150,1150
83580721,1000,1000,1000,1000,134728587,1087,1068,1150,1176
83583220,1000,1000,1000,1000,134828547,1087,1076,1150,1166
83585719,1000,1000,1000,1000,134928507,1087,1079,1150,1162
83588218,1000,1000,1000,1000,135028467,1087,1080,1150,1161
83590717,1000,1000,1000,1000,135128427,1087,1080,1150,1161
83593216,1000,1000,1000,1000,135228387,1087,1079,1150,1162
83595715,1000,1000,1000,1000,135328347,1087,1079,1150,1162
83598214,1000,1000,1000,1000,135428307,1088,1079,1150,1162
83600713,1000,1000,1000,1000,135528267,1088,1087,1150,1150
83603212,1000,1000,1000,1000,135628227,1088,1086,1150,1151
83605711,1000,1000,1000,1000,135728187,1088,1086,1150,1152
83608210,1000,1000,1000,1000,135828980,1088,1086,1150,1152
83610709,1000,1000,1000,1000,135928940,1036,1034,1150,1151
83613208,1000,1000,1000,1000,136028900,1000,1000,1000,1000
83615707,1000,1000,1000,1000,136128860,1000,1000,1000,1000
83618206,1000,1000,1000,1000,136228820,1000,1000,1000,1000
83620705,1000,1000,1000,1000,136328780,1000,1000,1000,1000
83623204,1000,1000,1000,1000,136428740,1000,1000,1000,1000
83625703,1000,1000,1000,1000,136528700,1000,1000,1000,1000
83628202,1000,1000,1000,1000,136628660,1000,1000,1000,1000
83630701,1000,1000,1000,1000,136728620,1000,1000,1000,1000
83633200,1000,1000,1000,1000,136828580,1000,1000,1000,1000
83635699,1000,1000,1000,1000,136928540,1000,1000,1000,1000
83638198,1000,1000,1000,1000,137028500,1000,1000,1000,1000
83640697,1000,1000,1000,1000,137128460,1000,1000,1000,1000
83643196,1000,1000,1000,1000,137228420,1000,1000,1000,1000
83645695,1000,1000,1000,1000,137328380,1000,1000,1000,1000
83648194,1000,1000,1000,1000,137428340,1000,1000,1000,1000
83650693,1000,1000,1000,1000,137528300,1000,1000,1000,1000
83653192,1000,1000,1000,1000,137628260,1000,1000,1000,1000
83655691,1000,1000,1000,1000,137728220,1000,1000,1000,1000
83658190,1000,1000,1000,1000,137828180,1000,1000,1000,1000
83660689,1000,1000,1000,1000,137928973,1000,1000,1000,1000
83663188,1000,1000,1000,1000,138028933,1000,1000,1000,1000
83665687,1000,1000,1000,1000,138128893,1000,1000,1000,1000
83668186,1000,1000,1000,1000,138228853,1000,1000,1000,1000
83670685,1000,1000,1000,1000,138328813,1000,1000,1000,1000
83673184,1000,1000,1000,1000,138428773,1000,1000,1000,1000
83675683,1000,1000,1000,1000,138528733,1000,1000,1000,1000
83678182,1000,1000,1000,1000,138628693,1000,1000,1000,1000
83680681,1000,1000,1000,1000,138728653,1000,1000,1000,1000
83683180,1000,1000,1000,1000,138828613,1000,1000,1000,1000
83685679,1000,1000,1000,1000,138928573,1000,1000,1000,1000
83688178,1000,1000,1000,1000,139028533,1000,1000,1000,1000
83690677,1000,1000,1000,1000,139128493,1000,1000,1000,1000
83693176,1000,1000,1000,1000,139228453,1000,1000,1000,1000
83695675,1000,1000,1000,1000,139328413,1000,1000,1000,1000
83698174,1000,1000,1000,1000,139428373,1000,1000,1000,1000
83700673,1000,1000,1000,1000,139528333,1000,1000,1000,1000
83703172,1000,1000,1000,1000,139628293,1000,1000,1000,1000
83705671,1000,1000,1000,1000,139728253,1000,1000,1000,1000
83708170,1000,1000,1000,1000,139828213,1000,1000,1000,1000
83710669,1000,1000,1000,1000,139928173,1000,1000,1000,1000
83713168,1000,1000,1000,1000,140028966,1000,1000,1000,1000
83715667,1000,1000,1000,1000,140128926,1000,1000,1000,1000
83718166,1000,1000,1000,1000,140228886,1000,1000,1000,1000
83720665,1000,1000,1000,1000,140328846,1000,1000,1000,1000
83723164,1000,1000,1000,1000,140428806,1000,1000,1000,1000
83725663,1000,1000,1000,1000,140528766,1000,1000,1000,1000
83728162,1000,1000,1000,1000,140628726,1000,1000,1000,1000
83730661,1000,1000,1000,1000,140728686,1000,1000,1000,1000
83733160,1000,1000,1000,1000,140828646,1000,1000,1000,1000
83735659,1000,1000,1000,1000,140928606,1000,1000,1000,1000
83738158,1000,1000,1000,1000,141028566,1000,1000,1000,1000
83740657,1000,1000,1000,1000,141128526,1000,1000,1000,1000
83743156,1000,1000,1000,1000,141228486,1000,1000,1000,1000
83745655,1000,1000,1000,1000,141328446,1000,1000,1000,1000
83748154,1000,1000,1000,1000,141428406,1000,1000,1000,1000
83751486,1000,1000,1000,1000,141528366,1000,1000,1000,1000
83753985,1000,1000,1000,1000,141628326,1000,1000,1000,1000
83756484,1000,1000,1000,1000,141728286,1000,1000,1000,1000
83758983,1000,1000,1000,1000,141828246,1000,1000,1000,1000
83761482,1000,1000,1000,1000,141928206,1000,1000,1000,1000
83763981,1000,1000,1000,1000,142028166,1000,1000,1000,1000
83766480,1000,1000,1000,1000,142128959,1000,1000,1000,1000
83768979,1000,1000,1000,1000,142228919,1000,1000,1000,1000
83771478,1000,1000,1000,1000,142328879,1000,1000,1000,1000
83773977,1000,1000,1000,1000,142428839,1000,1000,1000,1000
83776476,1000,1000,1000,1000,142528799,1000,1000,1000,1000
83778975,1000,1000,1000,1000,142628759,1000,1000,1000,1000
83781474,1000,1000,1000,1000,142728719,1000,1000,1000,1000
83783973,1000,1000,1000,1000,142828679,1000,1000,1000,1000
83786472,1000,1000,1000,1000,142928639,1000,1000,1000,1000
83788971,1000,1000,1000,1000,143028599,1000,1000,1000,1000
83791470,1000,1000,1000,1000,143128559,1000,1000,1000,1000
83793969,1000,1000,1000,1000,143228519,1000,1000,1000,1000
83796468,1000,1000,1000,1000,143328479,1000,1000,1000,1000
83798967,1000,1000,1000,1000,143428439,1000,1000,1000,1000
83801466,1000,1000,1000,1000,143528399,1000,1000,1000,1000
83803965,1000,1000,1000,1000,143628359,1000,1000,1000,1000
83806464,1000,1000,1000,1000,143728319,1000,1000,1000,1000
83808963,1000,1000,1000,1000,143828279,1000,1000,1000,1000
83811462,1000,1000,1000,1000,143928239,1000,1000,1000,1000
83813961,1000,1000,1000,1000,144028199,1000,1000,1000,1000
83816460,1000,1000,1000,1000,144128159,1000,1000,1000,1000
83818959,1000,1000,1000,1000,144228952,1000,1000,1000,1000
83821458,1000,1000,1000,1000,144328912,1000,1000,1000,1000
83823957,1000,1000,1000,1000,144428872,1000,1000,1000,1000
83826456,1000,1000,1000,1000,144528832,1000,1000,1000,1000
83828955,1000,1000,1000,1000,144628792,1000,1000,1000,1000
83831454,1000,1000,1000,1000,144728752,1000,1000,1000,1000
83833953,1000,1000,1000,1000,144828712,1000,1000,1000,1000
83836452,1000,1000,1000,1000,144928672,1000,1000,1000,1000
83838951,1000,1000,1000,1000,145028632,1000,1000,1000,1000
83841450,1000,1000,1000,1000,145128592,1000,1000,1000,1000
83843949,1000,1000,1000,1000,145228552,1000,1000,1000,1000
83846448,1000,1000,1000,1000,145328512,1000,1000,1000,1000
83848947,1000,1000,1000,1000,145428472,1000,1000,1000,1000
83851446,1000,1000,1000,1000,145528432,1000,1000,1000,1000
83853945,1000,1000,1000,1000,145628392,1000,1000,1000,1000
83856444,1000,1000,1000,1000,145728352,1000,1000,1000,1000
83858943,1000,1000,1000,1000,145828312,1000,1000,1000,1000
83861442,1000,1000,1000,1000,145928272,1000,1000,1000,1000
83863941,1000,1000,1000,1000,146028232,1000,1000,1000,1000
83866440,1000,1000,1000,1000,146128192,1000,1000,1000,1000
83868939,1000,1000,1000,1000,146228985,1000,1000,1000,1000
83871438,1000,1000,1000,1000,146328945,1000,1000,1000,1000
83873937,1000,1000,1000,1000,146428905,1000,1000,1000,1000
83876436,1000,1000,1000,1000,146528865,1000,1000,1000,1000
83878935,1000,1000,1000,1000,146628825,1000,1000,1000,1000
83881434,1000,1000,1000,1000,146728785,1000,1000,1000,1000
83883933,1000,1000,1000,1000,146828745,1000,1000,1000,1000
83886432,1000,1000,1000,1000,146928705,1000,1000,1000,1000
83888931,1000,1000,1000,1000,147028665,1000,1000,1000,1000
83891430,1000,1000,1000,1000,147128625,1000,1000,1000,1000
83893929,1000,1000,1000,1000,147228585,1000,1000,1000,1000
83896428,1000,1000,1000,1000,147328545,1000,1000,1000,1000
83898927,1000,1000,1000,1000,147428505,1000,1000,1000,1000
83901426,1000,1000,1000,1000,147528465,1000,1000,1000,1000
83903925,1000,1000,1000,1000,147628425,1000,1000,1000,1000
83906424,1000,1000,1000,1000,147728385,1000,1000,1000,1000
83908923,1000,1000,1000,1000,147828345,1000,1000,1000,1000
83911422,1000,1000,1000,1000,147928305,1000,1000,1000,1000
83913921,1000,1000,1000,1000,148028265,1000,1000,1000,1000
83916420,1000,1000,1000,1000,148128225,1000,1000,1000,1000
83918919,1000,1000,1000,1000,148228185,1000,1000,1000,1000
83921418,1000,1000,1000,1000,148328978,1000,1000,1000,1000
83923917,1000,1000,1000,1000,148428938,1000,1000,1000,1000
83926416,1000,1000,1000,1000,148528898,1000,1000,1000,1000
83928915,1000,1000,1000,1000,148628858,1000,1000,1000,1000
83931414,1000,1000,1000,1000,148728818,1000,1000,1000,1000
83933913,1000,1000,1000,1000,148828778,1000,1000,1000,1000
83936412,1000,1000,1000,1000,148928738,1000,1000,1000,1000
83938911,1000,1000,1000,1000,149028698,1000,1000,1000,1000
83941410,1000,1000,1000,1000,149128658,1000,1000,1000,1000
83943909,1000,1000,1000,1000,149228618,1000,1000,1000,1000
83946408,1000,1000,1000,1000,149328578,1000,1000,1000,1000
83948907,1000,1000,1000,1000,149428538,1000,1000,1000,1000
83951406,1000,1000,1000,1000,149528498,1000,1000,1000,1000
83953905,1000,1000,1000,1000,149628458,1000,1000,1000,1000
83956404,1000,1000,1000,1000,149728418,1000,1000,1000,1000
83958903,1000,1000,1000,1000,149828378,1000,1000,1000,1000
83961402,1000,1000,1000,1000,149928338,1000,1000,1000,1000
83963901,1000,1000,1000,1000,150028298,1000,1000,1000,1000
83966400,1000,1000,1000,1000,150128258,1000,1000,1000,1000
83968899,1000,1000,1000,1000,150228218,1000,1000,1000,1000
83971398,1000,1000,1000,1000,150328178,1000,1000,1000,1000
83973897,1000,1000,1000,1000,150428971,1000,1000,1000,1000
83976396,1000,1000,1000,1000,150528931,1000,1000,1000,1000
83978895,1000,1000,1000,1000,150628891,1000,1000,1000,1000
83981394,1000,1000,1000,1000,150728851,1000,1000,1000,1000
83983893,1000,1000,1000,1000,150828811,1000,1000,1000,1000
83986392,1000,1000,1000,1000,150928771,1000,1000,1000,1000
83988891,1000,1000,1000,1000,,,,,
83991390,1000,1000,1000,1000,,,,,
83993889,1000,1000,1000,1000,,,,,
83996388,1000,1000,1000,1000,,,,,
83998887,1000,1000,1000,1000,,,,,
84001386,1000,1000,1000,1000,,,,,
84003885,1000,1000,1000,1000,,,,,
84006384,1000,1000,1000,1000,,,,,
84008883,1000,1000,1000,1000,,,,,
84011382,1000,1000,1000,1000,,,,,
84013881,1000,1000,1000,1000,,,,,
84016380,1000,1000,1000,1000,,,,,
84018879,1000,1000,1000,1000,,,,,
84021378,1000,1000,1000,1000,,,,,
84023877,1000,1000,1000,1000,,,,,
84026376,1000,1000,1000,1000,,,,,
84028875,1000,1000,1000,1000,,,,,
84031374,1000,1000,1000,1000,,,,,
84033873,1000,1000,1000,1000,,,,,
84036372,1000,1000,1000,1000,,,,,
84038871,1000,1000,1000,1000,,,,,
84041370,1000,1000,1000,1000,,,,,
84043869,1000,1000,1000,1000,,,,,
84046368,1000,1000,1000,1000,,,,,
84048867,1000,1000,1000,1000,,,,,
84051366,1000,1000,1000,1000,,,,,
84053865,1000,1000,1000,1000,,,,,
84056364,1000,1000,1000,1000,,,,,
84058863,1000,1000,1000,1000,,,,,
84061362,1000,1000,1000,1000,,,,,
84063861,1000,1000,1000,1000,,,,,
84066360,1000,1000,1000,1000,,,,,
84068859,1000,1000,1000,1000,,,,,
84071358,1000,1000,1000,1000,,,,,
84073857,1000,1000,1000,1000,,,,,
84076356,1000,1000,1000,1000,,,,,
84078855,1000,1000,1000,1000,,,,,
84081354,1000,1000,1000,1000,,,,,
84083853,1000,1000,1000,1000,,,,,
84086352,1000,1000,1000,1000,,,,,
84088851,1000,1000,1000,1000,,,,,
84091350,1000,1000,1000,1000,,,,,
84093849,1000,1000,1000,1000,,,,,
84096348,1000,1000,1000,1000,,,,,
84098847,1000,1000,1000,1000,,,,,
84101346,1000,1000,1000,1000,,,,,
84103845,1000,1000,1000,1000,,,,,
84106344,1000,1000,1000,1000,,,,,
84108843,1000,1000,1000,1000,,,,,
84111342,1000,1000,1000,1000,,,,,
84113841,1000,1000,1000,1000,,,,,
84116340,1000,1000,1000,1000,,,,,
84118839,1000,1000,1000,1000,,,,,
84121338,1000,1000,1000,1000,,,,,
84123837,1000,1000,1000,1000,,,,,
84126336,1000,1000,1000,1000,,,,,
84128835,1000,1000,1000,1000,,,,,
84131334,1000,1000,1000,1000,,,,,
84133833,1000,1000,1000,1000,,,,,
84136332,1000,1000,1000,1000,,,,,
84138831,1000,1000,1000,1000,,,,,
84141330,1000,1000,1000,1000,,,,,
84143829,1000,1000,1000,1000,,,,,
84146328,1000,1000,1000,1000,,,,,
84148827,1000,1000,1000,1000,,,,,
84151326,1000,1000,1000,1000,,,,,
84153825,1000,1000,1000,1000,,,,,
84156324,1000,1000,1000,1000,,,,,
84158823,1000,1000,1000,1000,,,,,
84161322,1000,1000,1000,1000,,,,,
84163821,1000,1000,1000,1000,,,,,
84166320,1000,1000,1000,1000,,,,,
84168819,1000,1000,1000,1000,,,,,
84171318,1000,1000,1000,1000,,,,,
84173817,1000,1000,1000,1000,,,,,
84176316,1000,1000,1000,1000,,,,,
84178815,1000,1000,1000,1000,,,,,
84181314,1000,1000,1000,1000,,,,,
84183813,1000,1000,1000,1000,,,,,
84186312,1000,1000,1000,1000,,,,,
84188811,1000,1000,1000,1000,,,,,
84191310,1000,1000,1000,1000,,,,,
84193809,1000,1000,1000,1000,,,,,
84196308,1000,1000,1000,1000,,,,,
84198807,1000,1000,1000,1000,,,,,
84201306,1000,1000,1000,1000,,,,,
84203805,1000,1000,1000,1000,,,,,
84206304,1000,1000,1000,1000,,,,,
84208803,1000,1000,1000,1000,,,,,
84211302,1000,1000,1000,1000,,,,,
84213801,1000,1000,1000,1000,,,,,
84216300,1000,1000,1000,1000,,,,,
84218799,1000,1000,1000,1000,,,,,
84221298,1000,1000,1000,1000,,,,,
84223797,1000,1000,1000,1000,,,,,
84226296,1000,1000,1000,1000,,,,,
84228795,1000,1000,1000,1000,,,,,
84231294,1000,1000,1000,1000,,,,,
84233793,1000,1000,1000,1000,,,,,
84236292,1000,1000,1000,1000,,,,,
84238791,1000,1000,1000,1000,,,,,
84241290,1000,1000,1000,1000,,,,,
84243789,1000,1000,1000,1000,,,,,
84246288,1000,1000,1000,1000,,,,,
84248787,1000,1000,1000,1000,,,,,
84251286,1000,1000,1000,1000,,,,,
84253785,1000,1000,1000,1000,,,,,
84256284,1000,1000,1000,1000,,,,,
84258783,1000,1000,1000,1000,,,,,
84261282,1000,1000,1000,1000,,,,,
84263781,1000,1000,1000,1000,,,,,
84266280,1000,1000,1000,1000,,,,,
84268779,1000,1000,1000,1000,,,,,
84271278,1000,1000,1000,1000,,,,,
84273777,1000,1000,1000,1000,,,,,
84276276,1000,1000,1000,1000,,,,,
84278775,1001,1001,1001,1001,,,,,
84281274,1002,1002,1002,1002,,,,,
84283773,1003,1003,1003,1003,,,,,
84286272,1003,1003,1003,1003,,,,,
84288771,1004,1004,1004,1004,,,,,
84291270,1005,1005,1005,1005,,,,,
84293769,1006,1006,1006,1006,,,,,
84296268,1006,1006,1006,1006,,,,,
84298767,1007,1007,1007,1007,,,,,
84301266,1008,1008,1008,1008,,,,,
84303765,1009,1009,1009,1009,,,,,
84306264,1009,1009,1009,1009,,,,,
84308763,1010,1010,1010,1010,,,,,
84311262,1011,1011,1011,1011,,,,,
84313761,1012,1012,1012,1012,,,,,
84316260,1012,1012,1012,1012,,,,,
84318759,1013,1013,1013,1013,,,,,
84321258,1014,1014,1014,1014,,,,,
84323757,1015,1015,1015,1015,,,,,
84326256,1015,1015,1015,1015,,,,,
84328755,1016,1016,1016,1016,,,,,
84331254,1017,1017,1017,1017,,,,,
84333753,1018,1018,1018,1018,,,,,
84336252,1018,1018,1018,1018,,,,,
84338751,1019,1019,1019,1019,,,,,
84341250,1020,1020,1020,1020,,,,,
84343749,1021,1021,1021,1021,,,,,
84346248,1021,1021,1021,1021,,,,,
84348747,1022,1022,1022,1022,,,,,
84351246,1023,1023,1023,1023,,,,,
84353745,1024,1024,1024,1024,,,,,
84356244,1024,1024,1024,1024,,,,,
84358743,1025,1025,1025,1025,,,,,
84361242,1026,1026,1026,1026,,,,,
84363741,1027,1027,1027,1027,,,,,
84366240,1027,1027,1027,1027,,,,,
84368739,1028,1028,1028,1028,,,,,
84371238,1029,1029,1029,1029,,,,,
84373737,1030,1030,1030,1030,,,,,
84376236,1030,1030,1030,1030,,,,,
84378735,1031,1031,1031,1031,,,,,
84381234,1032,1032,1032,1032,,,,,
84383733,1033,1033,1033,1033,,,,,
84386232,1033,1033,1033,1033,,,,,
84388731,1034,1034,1034,1034,,,,,
84391230,1035,1035,1035,1035,,,,,
84393729,1036,1036,1036,1036,,,,,
84396228,1036,1036,1036,1036,,,,,
84398727,1037,1037,1037,1037,,,,,
84401226,1038,1038,1038,1038,,,,,
84403725,1039,1039,1039,1039,,,,,
84406224,1039,1039,1039,1039,,,,,
84408723,1040,1040,1040,1040,,,,,
84411222,1041,1041,1041,1041,,,,,
84413721,1042,1042,1042,1042,,,,,
84416220,1042,1042,1042,1042,,,,,
84418719,1043,1043,1043,1043,,,,,
84421218,1044,1044,1044,1044,,,,,
84423717,1045,1045,1045,1045,,,,,
84426216,1045,1045,1045,1045,,,,,
84428715,1046,1046,1046,1046,,,,,
84431214,1047,1047,1047,1047,,,,,
84433713,1048,1048,1048,1048,,,,,
84436212,1048,1048,1048,1048,,,,,
84438711,1049,1049,1049,1049,,,,,
84441210,1050,1050,1050,1050,,,,,
84443709,1051,1051,1051,1051,,,,,
84446208,1051,1051,1051,1051,,,,,
84448707,1052,1052,1052,1052,,,,,
84451206,1053,1053,1053,1053,,,,,
84453705,1054,1054,1054,1054,,,,,
84456204,1054,1054,1054,1054,,,,,
84458703,1055,1055,1055,1055,,,,,
84461202,1056,1056,1056,1056,,,,,
84463701,1057,1057,1057,1057,,,,,
84466200,1057,1057,1057,1057,,,,,
84468699,1058,1058,1058,1058,,,,,
84471198,1059,1059,1059,1059,,,,,
84473697,1060,1060,1060,1060,,,,,
84476196,1060,1060,1060,1060,,,,,
84478695,1061,1061,1061,1061,,,,,
84481194,1062,1062,1062,1062,,,,,
84483693,1063,1063,1063,1063,,,,,
84486192,1063,1063,1063,1063,,,,,
84488691,1064,1064,1064,1064,,,,,
84491190,1065,1065,1065,1065,,,,,
84493689,1066,1066,1066,1066,,,,,
84496188,1066,1066,1066,1066,,,,,
84498687,1067,1067,1067,1067,,,,,
84501186,1068,1068,1068,1068,,,,,
84503685,1069,1069,1069,1069,,,,,
84506184,1069,1069,1069,1069,,,,,
84508683,1070,1070,1070,1070,,,,,
84511182,1071,1071,1071,1071,,,,,
84513681,1072,1072,1072,1072,,,,,
84516180,1072,1072,1072,1072,,,,,
84518679,1073,1073,1073,1073,,,,,
84521178,1074,1074,1074,1074,,,,,
84523677,1075,1075,1075,1075,,,,,
84526176,1075,1075,1075,1075,,,,,
84528675,1076,1076,1076,1076,,,,,
84531174,1077,1077,1077,1077,,,,,
84533673,1078,1078,1078,1078,,,,,
84536172,1078,1078,1078,1078,,,,,
84538671,1079,1079,1079,1079,,,,,
84541170,1080,1080,1080,1080,,,,,
84543669,1081,1081,1081,1081,,,,,
84546168,1081,1081,1081,1081,,,,,
84548667,1082,1082,1082,1082,,,,,
84551166,1083,1083,1083,1083,,,,,
84553665,1084,1084,1084,1084,,,,,
84556164,1084,1084,1084,1084,,,,,
84558663,1085,1085,1085,1085,,,,,
84561162,1086,1086,1086,1086,,,,,
84563661,1087,1087,1087,1087,,,,,
84566160,1087,1087,1087,1087,,,,,
84568659,1088,1088,1088,1088,,,,,
84571158,1089,1089,1089,1089,,,,,
84573657,1090,1090,1090,1090,,,,,
84576156,1090,1090,1090,1090,,,,,
84578655,1091,1091,1091,1091,,,,,
84581154,1092,1092,1092,1092,,,,,
84583653,1093,1093,1093,1093,,,,,
84586152,1093,1093,1093,1093,,,,,
84588651,1094,1094,1094,1094,,,,,
84591150,1095,1095,1095,1095,,,,,
84593649,1096,1096,1096,1096,,,,,
84596148,1096,1096,1096,1096,,,,,
84598647,1097,1097,1097,1097,,,,,
84601146,1098,1098,1098,1098,,,,,
84603645,1099,1099,1099,1099,,,,,
84606144,1099,1099,1099,1099,,,,,
84608643,1100,1100,1100,1100,,,,,
84611142,1101,1101,1101,1101,,,,,
84613641,1101,1101,1101,1101,,,,,
84616140,1102,1102,1102,1102,,,,,
84618639,1103,1103,1103,1103,,,,,
84621138,1104,1104,1104,1104,,,,,
84623637,1104,1104,1104,1104,,,,,
84626136,1105,1105,1105,1105,,,,,
84628635,1106,1106,1106,1106,,,,,
84631134,1107,1107,1107,1107,,,,,
84633633,1107,1107,1107,1107,,,,,
84636132,1108,1108,1108,1108,,,,,
84638631,1109,1109,1109,1109,,,,,
84641130,1110,1110,1110,1110,,,,,
84643629,1110,1110,1110,1110,,,,,
84646128,1111,1111,1111,1111,,,,,
84648627,1112,1112,1112,1112,,,,,
84651126,1113,1113,1113,1113,,,,,
84653625,1113,1113,1113,1113,,,,,
84656124,1114,1114,1114,1114,,,,,
84658623,1115,1115,1115,1115,,,,,
84661122,1116,1116,1116,1116,,,,,
84663621,1116,1116,1116,1116,,,,,
84666120,1117,1117,1117,1117,,,,,
84668619,1118,1118,1118,1118,,,,,
84671118,1119,1119,1119,1119,,,,,
84673617,1119,1119,1119,1119,,,,,
84676116,1120,1120,1120,1120,,,,,
84678615,1121,1121,1121,1121,,,,,
84681114,1122,1122,1122,1122,,,,,
84683613,1122,1122,1122,1122,,,,,
84686112,1123,1123,1123,1123,,,,,
84688611,1124,1124,1124,1124,,,,,
84691110,1125,1125,1125,1125,,,,,
84693609,1125,1125,1125,1125,,,,,
84696108,1126,1126,1126,1126,,,,,
84698607,1127,1127,1127,1127,,,,,
84701106,1128,1128,1128,1128,,,,,
84703605,1128,1128,1128,1128,,,,,
84706104,1129,1129,1129,1129,,,,,
84708603,1130,1130,1130,1130,,,,,
84711102,1131,1131,1131,1131,,,,,
84713601,1131,1131,1131,1131,,,,,
84716100,1132,1132,1132,1132,,,,,
84718599,1133,1133,1133,1133,,,,,
84721098,1134,1134,1134,1134,,,,,
84723597,1134,1134,1134,1134,,,,,
84726096,1135,1135,1135,1135,,,,,
84728595,1136,1136,1136,1136,,,,,
84731094,1137,1137,1137,1137,,,,,
84733593,1137,1137,1137,1137,,,,,
84736092,1138,1138,1138,1138,,,,,
84738591,1139,1139,1139,1139,,,,,
84741090,1140,1140,1140,1140,,,,,
84743589,1140,1140,1140,1140,,,,,
84746088,1141,1141,1141,1141,,,,,
84748587,1142,1142,1142,1142,,,,,
84751086,1143,1143,1143,1143,,,,,
84753585,1143,1143,1143,1143,,,,,
84756084,1144,1144,1144,1144,,,,,
84758583,1145,1145,1145,1145,,,,,
84761082,1146,1146,1146,1146,,,,,
84763581,1146,1146,1146,1146,,,,,
84766080,1147,1147,1147,1147,,,,,
84768579,1148,1148,1148,1148,,,,,
84771078,1149,1149,1149,1149,,,,,
84773577,1149,1149,1149,1149,,,,,
84776076,1150,1150,1150,1150,,,,,
84778575,1164,1151,1152,1164,,,,,
84781074,1172,1159,1160,1172,,,,,
84783573,1179,1167,1168,1180,,,,,
84786072,1187,1175,1176,1188,,,,,
84788571,1195,1183,1183,1195,,,,,
84791070,1202,1190,1191,1203,,,,,
84793569,1209,1198,1198,1210,,,,,
84796068,1217,1205,1206,1217,,,,,
84798567,1224,1212,1213,1224,,,,,
84801066,1231,1219,1220,1231,,,,,
84803565,1237,1226,1227,1238,,,,,
84806064,1244,1233,1234,1245,,,,,
84808563,1251,1240,1241,1251,,,,,
84811062,1257,1247,1248,1258,,,,,
84813561,1264,1253,1254,1264,,,,,
84816060,1270,1260,1261,1271,,,,,
84818559,1277,1266,1267,1277,,,,,
84821058,1283,1273,1273,1283,,,,,
84823557,1289,1279,1280,1290,,,,,
84826056,1295,1285,1286,1296,,,,,
84828555,1301,1291,1292,1302,,,,,
84831054,1307,1297,1298,1308,,,,,
84833553,1313,1304,1304,1314,,,,,
84836052,1319,1309,1310,1320,,,,,
84838551,1325,1315,1316,1325,,,,,
84841050,1331,1321,1322,1331,,,,,
84843549,1336,1327,1328,1337,,,,,
84846048,1342,1333,1333,1343,,,,,
84848547,1348,1338,1339,1348,,,,,
84851046,1353,1344,1344,1354,,,,,
84853545,1359,1349,1350,1359,,,,,
84856044,1364,1355,1355,1365,,,,,
84858543,1369,1360,1361,1370,,,,,
84861042,1375,1366,1366,1375,,,,,
84863541,1380,1371,1372,1381,,,,,
84866040,1385,1376,1377,1386,,,,,
84868539,1391,1382,1382,1391,,,,,
84871038,1396,1387,1387,1396,,,,,
84873537,1401,1392,1392,1401,,,,,
84876036,1406,1397,1398,1407,,,,,
84878535,1411,1402,1403,1412,,,,,
84881034,1416,1407,1408,1417,,,,,
84883533,1421,1412,1413,1422,,,,,
84886032,1426,1417,1418,1426,,,,,
84888531,1431,1422,1423,1431,,,,,
84891030,1436,1427,1428,1436,,,,,
84893529,1441,1432,1432,1441,,,,,
84896028,1445,1437,1437,1446,,,,,
84898527,1450,1442,1442,1451,,,,,
84901026,1455,1446,1447,1455,,,,,
84903525,1460,1451,1452,1460,,,,,
84906024,1464,1456,1456,1465,,,,,
84908523,1469,1460,1461,1469,,,,,
84911022,1474,1465,1466,1474,,,,,
84913521,1478,1470,1470,1479,,,,,
84916020,1483,1474,1475,1483,,,,,
84918519,1487,1479,1479,1488,,,,,
84921018,1492,1483,1484,1492,,,,,
84923517,1496,1488,1488,1497,,,,,
84926016,1501,1492,1493,1501,,,,,
84928515,1505,1497,1497,1505,,,,,
84931014,1510,1501,1502,1510,,,,,
84933513,1514,1505,1506,1514,,,,,
84936012,1518,1510,1510,1519,,,,,
84938511,1523,1514,1515,1523,,,,,
84941010,1527,1519,1519,1527,,,,,
84943509,1531,1523,1523,1531,,,,,
84946008,1535,1527,1528,1536,,,,,
84948507,1540,1531,1532,1540,,,,,
84951006,1544,1536,1536,1544,,,,,
84953505,1548,1540,1540,1548,,,,,
84956004,1552,1544,1544,1552,,,,,
84958503,1556,1548,1549,1557,,,,,
84961002,1560,1552,1553,1561,,,,,
84963501,1564,1556,1557,1565,,,,,
84966000,1568,1560,1561,1569,,,,,
84968499,1573,1565,1565,1573,,,,,
84970998,1577,1569,1569,1577,,,,,
84973497,1581,1573,1573,1581,,,,,
84975996,1585,1577,1577,1585,,,,,
84978495,1589,1581,1581,1589,,,,,
84980994,1593,1585,1585,1593,,,,,
84983493,1596,1589,1589,1597,,,,,
84985992,1600,1593,1593,1601,,,,,
84988491,1604,1596,1597,1605,,,,,
84990990,1608,1600,1601,1608,,,,,
84993489,1612,1604,1605,1612,,,,,
84995988,1616,1608,1609,1616,,,,,
84998487,1620,1612,1613,1620,,,,,
85000986,1623,1616,1616,1624,,,,,
85003485,1627,1620,1620,1628,,,,,
85005984,1631,1623,1624,1631,,,,,
85008483,1635,1627,1628,1635,,,,,
85010982,1639,1631,1631,1639,,,,,
85013481,1642,1635,1635,1643,,,,,
85015980,1646,1638,1639,1646,,,,,
85018479,1650,1642,1643,1650,,,,,
85020978,1653,1646,1646,1654,,,,,
85023477,1657,1650,1650,1657,,,,,
85025976,1661,1653,1654,1661,,,,,
85028475,1664,1657,1657,1665,,,,,
85030974,1668,1661,1661,1668,,,,,
85033473,1672,1664,1665,1672,,,,,
85035972,1675,1668,1668,1676,,,,,
85038471,1679,1671,1672,1679,,,,,
85040970,1682,1675,1675,1683,,,,,
85043469,1686,1679,1679,1686,,,,,
85045968,1689,1682,1683,1690,,,,,
85048467,1693,1686,1686,1693,,,,,
85050966,1696,1689,1690,1697,,,,,
85053465,1700,1693,1693,1700,,,,,
85055964,1703,1696,1697,1704,,,,,
85058463,1707,1700,1700,1707,,,,,
85060962,1710,1703,1704,1711,,,,,
85063461,1714,1707,1707,1714,,,,,
85065960,1717,1710,1710,1718,,,,,
85068459,1721,1714,1714,1721,,,,,
85070958,1724,1717,1717,1725,,,,,
85073457,1727,1721,1721,1728,,,,,
85075956,1731,1724,1724,1731,,,,,
85078455,1734,1727,1728,1735,,,,,
85080954,1738,1731,1731,1738,,,,,
85083453,1741,1734,1734,1742,,,,,
85085952,1744,1737,1738,1745,,,,,
85088451,1748,1741,1741,1748,,,,,
85090950,1751,1744,1744,1752,,,,,
85093449,1754,1748,1748,1755,,,,,
85095948,1758,1751,1751,1758,,,,,
85098447,1761,1754,1754,1761,,,,,
85100946,1764,1757,1757,1765,,,,,
85103445,1767,1761,1761,1768,,,,,
85105944,1771,1764,1764,1771,,,,,
85108443,1774,1767,1767,1775,,,,,
85110942,1777,1770,1771,1778,,,,,
85113441,1780,1774,1774,1781,,,,,
85115940,1784,1777,1777,1784,,,,,
85118439,1787,1780,1780,1787,,,,,
85120938,1790,1783,1783,1791,,,,,
85123437,1793,1787,1787,1794,,,,,
85125936,1796,1790,1790,1797,,,,,
85128435,1800,1793,1793,1800,,,,,
85130934,1803,1796,1796,1803,,,,,
85133433,1806,1799,1799,1806,,,,,
85135932,1809,1802,1803,1810,,,,,
85138431,1812,1806,1806,1813,,,,,
85140930,1815,1809,1809,1816,,,,,
85143429,1818,1812,1812,1819,,,,,
85145928,1822,1815,1815,1822,,,,,
85148427,1825,1818,1818,1825,,,,,
85150926,1828,1821,1821,1828,,,,,
85153425,1831,1824,1824,1831,,,,,
85155924,1834,1827,1827,1834,,,,,
85158423,1837,1830,1831,1837,,,,,
85160922,1840,1833,1834,1840,,,,,
85163421,1843,1837,1837,1844,,,,,
85165920,1846,1840,1840,1847,,,,,
85168419,1849,1843,1843,1850,,,,,
85170918,1852,1846,1846,1853,,,,,
85173417,1855,1849,1849,1856,,,,,
85175916,1858,1852,1852,1859,,,,,
85178415,1861,1855,1855,1862,,,,,
85180914,1864,1858,1858,1865,,,,,
85183413,1867,1861,1861,1868,,,,,
85185912,1870,1864,1864,1871,,,,,
85188411,1873,1866,1867,1874,,,,,
85190910,1876,1869,1870,1877,,,,,
85193409,1879,1872,1873,1879,,,,,
85195908,1882,1875,1876,1882,,,,,
85198407,1885,1878,1878,1885,,,,,
85200906,1886,1879,1880,1887,,,,,
85203405,1885,1878,1878,1885,,,,,
85205904,1884,1877,1877,1884,,,,,
85208403,1883,1876,1876,1883,,,,,
85210902,1882,1875,1875,1882,,,,,
85213401,1881,1874,1874,1881,,,,,
85215900,1880,1873,1873,1880,,,,,
85218399,1879,1872,1872,1879,,,,,
85220898,1878,1871,1871,1879,,,,,
85223397,1878,1870,1871,1878,,,,,
85225896,1877,1870,1870,1877,,,,,
85228395,1876,1869,1869,1877,,,,,
85230894,1876,1868,1869,1876,,,,,
85233393,1875,1868,1868,1875,,,,,
85235892,1875,1867,1868,1875,,,,,
85238391,1874,1867,1867,1875,,,,,
85240890,1874,1867,1867,1874,,,,,
85243389,1874,1866,1867,1874,,,,,
85245888,1874,1866,1866,1874,,,,,
85248387,1874,1866,1866,1874,,,,,
85250886,1874,1866,1866,1874,,,,,
85253385,1874,1866,1866,1874,,,,,
85255884,1874,1866,1867,1874,,,,,
85258383,1874,1867,1867,1875,,,,,
85260882,1875,1867,1867,1875,,,,,
85263381,1875,1867,1868,1875,,,,,
85265880,1876,1868,1868,1876,,,,,
85268379,1876,1868,1869,1876,,,,,
85270878,1877,1869,1869,1877,,,,,
85273377,1877,1870,1870,1877,,,,,
85275876,1878,1870,1871,1878,,,,,
85278375,1878,1871,1871,1878,,,,,
85280874,1878,1872,1872,1879,,,,,
85283373,1879,1872,1873,1879,,,,,
85285872,1879,1873,1873,1879,,,,,
85288371,1879,1873,1873,1879,,,,,
85290870,1879,1873,1874,1879,,,,,
85293369,1879,1873,1874,1879,,,,,
85295868,1878,1873,1873,1879,,,,,
85298367,1878,1873,1873,1878,,,,,
85300866,1877,1872,1872,1877,,,,,
85303365,1876,1871,1872,1876,,,,,
85305864,1875,1870,1871,1875,,,,,
85308363,1874,1869,1870,1874,,,,,
85310862,1873,1868,1868,1873,,,,,
85313361,1871,1866,1867,1871,,,,,
85315860,1869,1865,1865,1869,,,,,
85318359,1867,1863,1863,1868,,,,,
85320858,1865,1861,1862,1866,,,,,
85323357,1863,1859,1859,1863,,,,,
85325856,1861,1857,1857,1861,,,,,
85328355,1859,1854,1855,1859,,,,,
85330854,1856,1852,1853,1856,,,,,
85333353,1854,1850,1850,1854,,,,,
85335852,1851,1847,1848,1851,,,,,
85338351,1848,1844,1845,1848,,,,,
85340850,1845,1842,1842,1845,,,,,
85343349,1842,1839,1839,1843,,,,,
85345848,1839,1836,1836,1840,,,,,
85348347,1836,1833,1833,1837,,,,,
85350846,1833,1830,1831,1833,,,,,
85353345,1830,1827,1828,1830,,,,,
85355844,1827,1824,1824,1827,,,,,
85358343,1824,1821,1821,1824,,,,,
85360842,1820,1818,1818,1821,,,,,
85363341,1817,1815,1815,1817,,,,,
85365840,1814,1811,1812,1814,,,,,
85368339,1811,1808,1809,1811,,,,,
85370838,1807,1805,1805,1807,,,,,
85373337,1804,1802,1802,1804,,,,,
85375836,1800,1798,1799,1801,,,,,
85378335,1797,1795,1795,1797,,,,,
85380834,1793,1792,1792,1794,,,,,
85383333,1790,1788,1789,1790,,,,,
85385832,1787,1785,1785,1787,,,,,
85388331,1783,1781,1782,1783,,,,,
85390830,1779,1778,1778,1780,,,,,
85393329,1776,1775,1775,1776,,,,,
85395828,1772,1771,1771,1773,,,,,
85398327,1769,1768,1768,1769,,,,,
85400826,1765,1764,1765,1766,,,,,
85403325,1762,1761,1761,1762,,,,,
85405824,1759,1758,1758,1759,,,,,
85408323,1755,1754,1754,1756,,,,,
85410822,1752,1751,1751,1752,,,,,
85413321,1748,1748,1748,1749,,,,,
85415820,1745,1744,1745,1746,,,,,
85418319,1742,1741,1741,1742,,,,,
85420818,1738,1738,1738,1739,,,,,
85423317,1735,1735,1735,1736,,,,,
85425816,1732,1731,1732,1732,,,,,
