timestamp,TimeUS,C1,C2,C3,C4,C5,C6,C7,C8,C9,C10,C11,C12,C13,C14
1684154767.70003986,46328961,1000,1000,1000,1000,0,0,0,0,0,0,0,0,0,0
1684154767.79999995,46428921,1000,1000,1000,1000,0,0,0,0,0,0,0,0,0,0
1684154767.89996004,46528881,1000,1000,1000,1000,0,0,0,0,0,0,0,0,0,0
1684154767.99991989,46628841,1000,1000,1000,1000,0,0,0,0,0,0,0,0,0,0
1684154768.09987998,46728801,1000,1000,1000,1000,0,0,0,0,0,0,0,0,0,0
1684154768.19984007,46828761,1000,1000,1000,1000,0,0,0,0,0,0,0,0,0,0
1684154768.29979992,46928721,1000,1000,1000,1000,0,0,0,0,0,0,0,0,0,0
1684154768.39976001,47028681,1000,1000,1000,1000,0,0,0,0,0,0,0,0,0,0
1684154768.49971986,47128641,1000,1000,1000,1000,0,0,0,0,0,0,0,0,0,0
1684154768.59967995,47228601,1000,1000,1000,1000,0,0,0,0,0,0,0,0,0,0
1684154768.69964004,47328561,1000,1000,1000,1000,0,0,0,0,0,0,0,0,0,0
1684154768.79959989,47428521,1000,1000,1000,1000,0,0,0,0,0,0,0,0,0,0
1684154768.89955997,47528481,1000,1000,1000,1000,0,0,0,0,0,0,0,0,0,0
1684154768.99952006,47628441,1000,1000,1000,1000,0,0,0,0,0,0,0,0,0,0
1684154769.09947991,47728401,1000,1000,1000,1000,0,0,0,0,0,0,0,0,0,0
1684154769.19944000,47828361,1000,1000,1000,1000,0,0,0,0,0,0,0,0,0,0
1684154769.29939985,47928321,1000,1000,1000,1000,0,0,0,0,0,0,0,0,0,0
1684154769.39935994,48028281,1000,1000,1000,1000,0,0,0,0,0,0,0,0,0,0
1684154769.49932003,48128241,1000,1000,1000,1000,0,0,0,0,0,0,0,0,0,0
1684154769.59927988,48228201,1000,1000,1000,1000,0,0,0,0,0,0,0,0,0,0
1684154769.69923997,48328161,1023,1023,1023,1023,0,0,0,0,0,0,0,0,0,0
1684154769.80003285,48428954,1053,1053,1053,1053,0,0,0,0,0,0,0,0,0,0
1684154769.89999294,48528914,1083,1083,1083,1083,0,0,0,0,0,0,0,0,0,0
1684154769.99995303,48628874,1113,1113,1113,1113,0,0,0,0,0,0,0,0,0,0
1684154770.09991288,48728834,1143,1143,1143,1143,0,0,0,0,0,0,0,0,0,0
1684154770.19987297,48828794,1351,1346,1347,1351,0,0,0,0,0,0,0,0,0,0
1684154770.29983306,48928754,1542,1538,1538,1542,0,0,0,0,0,0,0,0,0,0
1684154770.39979291,49028714,1695,1691,1691,1695,0,0,0,0,0,0,0,0,0,0
1684154770.49975300,49128674,1827,1822,1823,1827,0,0,0,0,0,0,0,0,0,0
1684154770.59971309,49228634,1860,1856,1856,1860,0,0,0,0,0,0,0,0,0,0
1684154770.69967294,49328594,1830,1828,1828,1830,0,0,0,0,0,0,0,0,0,0
1684154770.79963303,49428554,1701,1701,1701,1701,0,0,0,0,0,0,0,0,0,0
1684154770.89959288,49528514,1625,1626,1626,1625,0,0,0,0,0,0,0,0,0,0
1684154770.99955297,49628474,1613,1615,1615,1613,0,0,0,0,0,0,0,0,0,0
1684154771.09951305,49728434,1626,1628,1628,1626,0,0,0,0,0,0,0,0,0,0
1684154771.19947290,49828394,1635,1636,1636,1635,0,0,0,0,0,0,0,0,0,0
1684154771.29943299,49928354,1635,1635,1635,1635,0,0,0,0,0,0,0,0,0,0
1684154771.39939308,50028314,1628,1625,1626,1627,0,0,0,0,0,0,0,0,0,0
1684154771.49935293,50128274,1608,1606,1599,1614,0,0,0,0,0,0,0,0,0,0
1684154771.59931302,50228234,1603,1602,1595,1609,0,0,0,0,0,0,0,0,0,0
1684154771.69927287,50328194,1602,1601,1598,1604,0,0,0,0,0,0,0,0,0,0
1684154771.79923296,50428154,1605,1605,1605,1603,0,0,0,0,0,0,0,0,0,0
1684154771.90002608,50528947,1610,1610,1613,1607,0,0,0,0,0,0,0,0,0,0
1684154771.99998593,50628907,1617,1617,1621,1613,0,0,0,0,0,0,0,0,0,0
1684154772.09994602,50728867,1591,1592,1605,1579,0,0,0,0,0,0,0,0,0,0
1684154772.19990587,50828827,1576,1577,1591,1562,0,0,0,0,0,0,0,0,0,0
1684154772.29986596,50928787,1565,1565,1571,1560,0,0,0,0,0,0,0,0,0,0
1684154772.39982605,51028747,1555,1554,1549,1561,0,0,0,0,0,0,0,0,0,0
1684154772.49978590,51128707,1546,1545,1534,1557,0,0,0,0,0,0,0,0,0,0
1684154772.59974599,51228667,1539,1538,1527,1550,0,0,0,0,0,0,0,0,0,0
1684154772.69970608,51328627,1533,1532,1525,1540,0,0,0,0,0,0,0,0,0,0
1684154772.79966593,51428587,1528,1528,1525,1531,0,0,0,0,0,0,0,0,0,0
1684154772.89962602,51528547,1527,1527,1528,1527,0,0,0,0,0,0,0,0,0,0
1684154772.99958587,51628507,1529,1530,1532,1527,0,0,0,0,0,0,0,0,0,0
1684154773.09954596,51728467,1532,1533,1536,1529,0,0,0,0,0,0,0,0,0,0
1684154773.19950604,51828427,1536,1536,1540,1532,0,0,0,0,0,0,0,0,0,0
1684154773.29946589,51928387,1540,1539,1543,1537,0,0,0,0,0,0,0,0,0,0
1684154773.39942598,52028347,1543,1543,1545,1542,0,0,0,0,0,0,0,0,0,0
1684154773.49938607,52128307,1547,1547,1547,1547,0,0,0,0,0,0,0,0,0,0
1684154773.59934592,52228267,1549,1550,1548,1550,0,0,0,0,0,0,0,0,0,0
1684154773.69930601,52328227,1552,1551,1550,1553,0,0,0,0,0,0,0,0,0,0
1684154773.79926586,52428187,1551,1551,1556,1559,0,0,0,0,0,0,0,0,0,0
1684154773.90005898,52528980,1551,1551,1560,1563,0,0,0,0,0,0,0,0,0,0
1684154774.00001907,52628940,1553,1554,1562,1563,0,0,0,0,0,0,0,0,0,0
1684154774.09997892,52728900,1557,1558,1564,1564,0,0,0,0,0,0,0,0,0,0
1684154774.19993901,52828860,1561,1562,1564,1563,0,0,0,0,0,0,0,0,0,0
1684154774.29989886,52928820,1565,1564,1564,1563,0,0,0,0,0,0,0,0,0,0
1684154774.39985895,53028780,1567,1567,1564,1563,0,0,0,0,0,0,0,0,0,0
1684154774.49981904,53128740,1570,1569,1565,1564,0,0,0,0,0,0,0,0,0,0
1684154774.59977889,53228700,1572,1571,1565,1566,0,0,0,0,0,0,0,0,0,0
1684154774.69973898,53328660,1573,1573,1566,1566,0,0,0,0,0,0,0,0,0,0
1684154774.79969907,53428620,1573,1573,1568,1568,0,0,0,0,0,0,0,0,0,0
1684154774.89965892,53528580,1574,1572,1568,1569,0,0,0,0,0,0,0,0,0,0
1684154774.99961901,53628540,1573,1573,1570,1570,0,0,0,0,0,0,0,0,0,0
1684154775.09957886,53728500,1573,1574,1572,1572,0,0,0,0,0,0,0,0,0,0
1684154775.19953895,53828460,1573,1574,1574,1573,0,0,0,0,0,0,0,0,0,0
1684154775.29949903,53928420,1574,1574,1576,1574,0,0,0,0,0,0,0,0,0,0
1684154775.39945889,54028380,1574,1574,1577,1575,0,0,0,0,0,0,0,0,0,0
1684154775.49941897,54128340,1574,1574,1576,1576,0,0,0,0,0,0,0,0,0,0
1684154775.59937906,54228300,1574,1574,1576,1576,0,0,0,0,0,0,0,0,0,0
1684154775.69933891,54328260,1574,1575,1576,1576,0,0,0,0,0,0,0,0,0,0
1684154775.79929900,54428220,1575,1575,1577,1577,0,0,0,0,0,0,0,0,0,0
1684154775.89925885,54528180,1576,1575,1576,1577,0,0,0,0,0,0,0,0,0,0
1684154776.00005198,54628973,1576,1576,1576,1576,0,0,0,0,0,0,0,0,0,0
1684154776.10001206,54728933,1576,1576,1576,1577,0,0,0,0,0,0,0,0,0,0
1684154776.19997191,54828893,1577,1577,1577,1577,0,0,0,0,0,0,0,0,0,0
1684154776.29993200,54928853,1577,1578,1577,1577,0,0,0,0,0,0,0,0,0,0
1684154776.39989185,55028813,1579,1579,1578,1578,0,0,0,0,0,0,0,0,0,0
1684154776.49985194,55128773,1578,1578,1578,1577,0,0,0,0,0,0,0,0,0,0
1684154776.59981203,55228733,1578,1578,1577,1578,0,0,0,0,0,0,0,0,0,0
1684154776.69977188,55328693,1578,1578,1577,1578,0,0,0,0,0,0,0,0,0,0
1684154776.79973197,55428653,1578,1578,1578,1578,0,0,0,0,0,0,0,0,0,0
1684154776.89969206,55528613,1578,1578,1578,1578,0,0,0,0,0,0,0,0,0,0
1684154776.99965191,55628573,1578,1578,1578,1578,0,0,0,0,0,0,0,0,0,0
1684154777.09961200,55728533,1578,1578,1578,1579,0,0,0,0,0,0,0,0,0,0
1684154777.19957209,55828493,1579,1578,1578,1578,0,0,0,0,0,0,0,0,0,0
1684154777.29953194,55928453,1579,1579,1579,1579,0,0,0,0,0,0,0,0,0,0
1684154777.39949203,56028413,1580,1580,1580,1580,0,0,0,0,0,0,0,0,0,0
1684154777.49945188,56128373,1579,1579,1579,1579,0,0,0,0,0,0,0,0,0,0
1684154777.59941196,56228333,1578,1579,1579,1579,0,0,0,0,0,0,0,0,0,0
1684154777.69937205,56328293,1579,1580,1580,1580,0,0,0,0,0,0,0,0,0,0
1684154777.79933190,56428253,1580,1580,1580,1580,0,0,0,0,0,0,0,0,0,0
1684154777.89929199,56528213,1579,1579,1579,1579,0,0,0,0,0,0,0,0,0,0
1684154777.99925208,56628173,1580,1581,1580,1580,0,0,0,0,0,0,0,0,0,0
1684154778.10004497,56728966,1580,1580,1580,1580,0,0,0,0,0,0,0,0,0,0
1684154778.20000505,56828926,1580,1580,1579,1580,0,0,0,0,0,0,0,0,0,0
1684154778.29996490,56928886,1581,1581,1581,1581,0,0,0,0,0,0,0,0,0,0
1684154778.39992499,57028846,1580,1580,1580,1580,0,0,0,0,0,0,0,0,0,0
1684154778.49988508,57128806,1580,1580,1580,1579,0,0,0,0,0,0,0,0,0,0
1684154778.59984493,57228766,1580,1579,1580,1580,0,0,0,0,0,0,0,0,0,0
1684154778.69980502,57328726,1580,1580,1580,1580,0,0,0,0,0,0,0,0,0,0
1684154778.79976487,57428686,1581,1581,1581,1581,0,0,0,0,0,0,0,0,0,0
1684154778.89972496,57528646,1581,1580,1581,1580,0,0,0,0,0,0,0,0,0,0
1684154778.99968505,57628606,1581,1581,1581,1581,0,0,0,0,0,0,0,0,0,0
1684154779.09964490,57728566,1581,1580,1581,1581,0,0,0,0,0,0,0,0,0,0
1684154779.19960499,57828526,1581,1580,1581,1580,0,0,0,0,0,0,0,0,0,0
1684154779.29956508,57928486,1581,1581,1582,1582,0,0,0,0,0,0,0,0,0,0
1684154779.39952493,58028446,1581,1582,1581,1582,0,0,0,0,0,0,0,0,0,0
1684154779.49948502,58128406,1581,1581,1581,1581,0,0,0,0,0,0,0,0,0,0
1684154779.59944487,58228366,1580,1580,1580,1581,0,0,0,0,0,0,0,0,0,0
1684154779.69940495,58328326,1582,1581,1582,1582,0,0,0,0,0,0,0,0,0,0
1684154779.79936504,58428286,1581,1581,1581,1581,0,0,0,0,0,0,0,0,0,0
1684154779.89932489,58528246,1581,1581,1581,1581,0,0,0,0,0,0,0,0,0,0
1684154779.99928498,58628206,1581,1582,1583,1580,0,0,0,0,0,0,0,0,0,0
1684154780.09924507,58728166,1580,1582,1588,1573,0,0,0,0,0,0,0,0,0,0
1684154780.20003796,58828959,1580,1582,1583,1573,0,0,0,0,0,0,0,0,0,0
1684154780.29999804,58928919,1578,1581,1574,1573,0,0,0,0,0,0,0,0,0,0
1684154780.39995790,59028879,1577,1579,1565,1571,0,0,0,0,0,0,0,0,0,0
1684154780.49991798,59128839,1577,1579,1560,1567,0,0,0,0,0,0,0,0,0,0
1684154780.59987807,59228799,1577,1577,1555,1561,0,0,0,0,0,0,0,0,0,0
1684154780.69983792,59328759,1579,1578,1555,1558,0,0,0,0,0,0,0,0,0,0
1684154780.79979801,59428719,1579,1577,1556,1555,0,0,0,0,0,0,0,0,0,0
1684154780.89975786,59528679,1579,1578,1556,1554,0,0,0,0,0,0,0,0,0,0
1684154780.99971795,59628639,1577,1578,1557,1554,0,0,0,0,0,0,0,0,0,0
1684154781.09967804,59728599,1576,1577,1556,1554,0,0,0,0,0,0,0,0,0,0
1684154781.19963789,59828559,1575,1576,1555,1554,0,0,0,0,0,0,0,0,0,0
1684154781.29959798,59928519,1574,1576,1554,1554,0,0,0,0,0,0,0,0,0,0
1684154781.39955807,60028479,1575,1577,1553,1553,0,0,0,0,0,0,0,0,0,0
1684154781.49951792,60128439,1575,1577,1551,1552,0,0,0,0,0,0,0,0,0,0
1684154781.59947801,60228399,1576,1577,1549,1549,0,0,0,0,0,0,0,0,0,0
1684154781.69943786,60328359,1578,1580,1547,1547,0,0,0,0,0,0,0,0,0,0
1684154781.79939795,60428319,1581,1581,1545,1544,0,0,0,0,0,0,0,0,0,0
1684154781.89935803,60528279,1584,1585,1542,1542,0,0,0,0,0,0,0,0,0,0
1684154781.99931788,60628239,1587,1587,1539,1539,0,0,0,0,0,0,0,0,0,0
1684154782.09927797,60728199,1589,1590,1537,1536,0,0,0,0,0,0,0,0,0,0
1684154782.19923806,60828159,1592,1593,1535,1535,0,0,0,0,0,0,0,0,0,0
1684154782.30003095,60928952,1595,1594,1535,1535,0,0,0,0,0,0,0,0,0,0
1684154782.39999104,61028912,1594,1594,1534,1536,0,0,0,0,0,0,0,0,0,0
1684154782.49995089,61128872,1593,1593,1535,1538,0,0,0,0,0,0,0,0,0,0
1684154782.59991097,61228832,1591,1591,1539,1542,0,0,0,0,0,0,0,0,0,0
1684154782.69987106,61328792,1588,1587,1545,1549,0,0,0,0,0,0,0,0,0,0
1684154782.79983091,61428752,1582,1580,1554,1557,0,0,0,0,0,0,0,0,0,0
1684154782.89979100,61528712,1574,1570,1565,1567,0,0,0,0,0,0,0,0,0,0
1684154782.99975085,61628672,1564,1559,1576,1578,0,0,0,0,0,0,0,0,0,0
1684154783.09971094,61728632,1552,1548,1588,1589,0,0,0,0,0,0,0,0,0,0
1684154783.19967103,61828592,1543,1540,1600,1600,0,0,0,0,0,0,0,0,0,0
1684154783.29963088,61928552,1534,1533,1608,1608,0,0,0,0,0,0,0,0,0,0
1684154783.39959097,62028512,1530,1531,1614,1613,0,0,0,0,0,0,0,0,0,0
1684154783.49955106,62128472,1529,1531,1615,1614,0,0,0,0,0,0,0,0,0,0
1684154783.59951091,62228432,1532,1535,1613,1613,0,0,0,0,0,0,0,0,0,0
1684154783.69947100,62328392,1538,1541,1610,1609,0,0,0,0,0,0,0,0,0,0
1684154783.79943109,62428352,1546,1548,1603,1603,0,0,0,0,0,0,0,0,0,0
1684154783.89939094,62528312,1555,1555,1595,1595,0,0,0,0,0,0,0,0,0,0
1684154783.99935102,62628272,1565,1565,1589,1589,0,0,0,0,0,0,0,0,0,0
1684154784.09931087,62728232,1572,1571,1581,1580,0,0,0,0,0,0,0,0,0,0
1684154784.19927096,62828192,1579,1578,1575,1574,0,0,0,0,0,0,0,0,0,0
1684154784.30006409,62928985,1420,1421,1611,1616,0,0,0,0,0,0,0,0,0,0
1684154784.40002394,63028945,1474,1479,1616,1618,0,0,0,0,0,0,0,0,0,0
1684154784.49998403,63128905,1522,1527,1607,1603,0,0,0,0,0,0,0,0,0,0
1684154784.59994388,63228865,1560,1563,1594,1589,0,0,0,0,0,0,0,0,0,0
1684154784.69990396,63328825,1588,1587,1587,1582,0,0,0,0,0,0,0,0,0,0
1684154784.79986405,63428785,1606,1602,1582,1579,0,0,0,0,0,0,0,0,0,0
1684154784.89982390,63528745,1617,1611,1578,1579,0,0,0,0,0,0,0,0,0,0
1684154784.99978399,63628705,1630,1624,1567,1570,0,0,0,0,0,0,0,0,0,0
1684154785.09974408,63728665,1646,1642,1548,1553,0,0,0,0,0,0,0,0,0,0
1684154785.19970393,63828625,1654,1653,1535,1541,0,0,0,0,0,0,0,0,0,0
1684154785.29966402,63928585,1654,1654,1533,1537,0,0,0,0,0,0,0,0,0,0
1684154785.39962387,64028545,1646,1647,1538,1540,0,0,0,0,0,0,0,0,0,0
1684154785.49958396,64128505,1635,1637,1548,1550,0,0,0,0,0,0,0,0,0,0
1684154785.59954405,64228465,1622,1622,1563,1562,0,0,0,0,0,0,0,0,0,0
1684154785.69950390,64328425,1606,1603,1579,1578,0,0,0,0,0,0,0,0,0,0
1684154785.79946399,64428385,1586,1583,1595,1593,0,0,0,0,0,0,0,0,0,0
1684154785.89942408,64528345,1570,1568,1605,1604,0,0,0,0,0,0,0,0,0,0
1684154785.99938393,64628305,1561,1561,1608,1608,0,0,0,0,0,0,0,0,0,0
1684154786.09934402,64728265,1556,1559,1607,1606,0,0,0,0,0,0,0,0,0,0
1684154786.19930387,64828225,1555,1559,1603,1603,0,0,0,0,0,0,0,0,0,0
1684154786.29926395,64928185,1557,1562,1600,1599,0,0,0,0,0,0,0,0,0,0
1684154786.40005708,65028978,1561,1564,1595,1594,0,0,0,0,0,0,0,0,0,0
1684154786.50001693,65128938,1565,1567,1591,1589,0,0,0,0,0,0,0,0,0,0
1684154786.59997702,65228898,1570,1570,1588,1585,0,0,0,0,0,0,0,0,0,0
1684154786.69993687,65328858,1574,1574,1584,1583,0,0,0,0,0,0,0,0,0,0
1684154786.79989696,65428818,1577,1576,1579,1580,0,0,0,0,0,0,0,0,0,0
1684154786.89985704,65528778,1579,1578,1576,1577,0,0,0,0,0,0,0,0,0,0
1684154786.99981689,65628738,1581,1580,1574,1575,0,0,0,0,0,0,0,0,0,0
1684154787.09977698,65728698,1583,1582,1573,1574,0,0,0,0,0,0,0,0,0,0
1684154787.19973707,65828658,1584,1585,1574,1574,0,0,0,0,0,0,0,0,0,0
1684154787.29969692,65928618,1585,1585,1573,1573,0,0,0,0,0,0,0,0,0,0
1684154787.39965701,66028578,1586,1586,1573,1573,0,0,0,0,0,0,0,0,0,0
1684154787.49961686,66128538,1586,1586,1573,1573,0,0,0,0,0,0,0,0,0,0
1684154787.59957695,66228498,1586,1586,1573,1573,0,0,0,0,0,0,0,0,0,0
1684154787.69953704,66328458,1587,1587,1574,1575,0,0,0,0,0,0,0,0,0,0
1684154787.79949689,66428418,1587,1586,1575,1575,0,0,0,0,0,0,0,0,0,0
1684154787.89945698,66528378,1586,1585,1575,1575,0,0,0,0,0,0,0,0,0,0
1684154787.99941707,66628338,1585,1584,1576,1576,0,0,0,0,0,0,0,0,0,0
1684154788.09937692,66728298,1585,1583,1583,1570,0,0,0,0,0,0,0,0,0,0
1684154788.19933701,66828258,1585,1581,1581,1570,0,0,0,0,0,0,0,0,0,0
1684154788.29929686,66928218,1584,1580,1574,1572,0,0,0,0,0,0,0,0,0,0
1684154788.39925694,67028178,1580,1578,1565,1569,0,0,0,0,0,0,0,0,0,0
1684154788.50005007,67128971,1577,1579,1561,1566,0,0,0,0,0,0,0,0,0,0
1684154788.60000992,67228931,1574,1579,1559,1563,0,0,0,0,0,0,0,0,0,0
1684154788.69997001,67328891,1573,1578,1558,1559,0,0,0,0,0,0,0,0,0,0
1684154788.79992986,67428851,1572,1576,1558,1556,0,0,0,0,0,0,0,0,0,0
1684154788.89988995,67528811,1573,1575,1558,1555,0,0,0,0,0,0,0,0,0,0
1684154788.99985003,67628771,1573,1573,1556,1553,0,0,0,0,0,0,0,0,0,0
1684154789.09980989,67728731,1573,1572,1555,1553,0,0,0,0,0,0,0,0,0,0
1684154789.19976997,67828691,1573,1572,1553,1553,0,0,0,0,0,0,0,0,0,0
1684154789.29973006,67928651,1573,1573,1551,1552,0,0,0,0,0,0,0,0,0,0
1684154789.39968991,68028611,1573,1573,1550,1551,0,0,0,0,0,0,0,0,0,0
1684154789.49965000,68128571,1573,1574,1548,1549,0,0,0,0,0,0,0,0,0,0
1684154789.59960985,68228531,1573,1575,1546,1546,0,0,0,0,0,0,0,0,0,0
1684154789.69956994,68328491,1574,1577,1545,1544,0,0,0,0,0,0,0,0,0,0
1684154789.79953003,68428451,1577,1579,1543,1542,0,0,0,0,0,0,0,0,0,0
1684154789.89948988,68528411,1579,1580,1540,1540,0,0,0,0,0,0,0,0,0,0
1684154789.99944997,68628371,1582,1583,1539,1538,0,0,0,0,0,0,0,0,0,0
1684154790.09941006,68728331,1585,1585,1538,1537,0,0,0,0,0,0,0,0,0,0
1684154790.19936991,68828291,1587,1587,1536,1536,0,0,0,0,0,0,0,0,0,0
1684154790.29933000,68928251,1590,1589,1535,1537,0,0,0,0,0,0,0,0,0,0
1684154790.39929008,69028211,1591,1591,1537,1538,0,0,0,0,0,0,0,0,0,0
1684154790.49924994,69128171,1591,1590,1538,1541,0,0,0,0,0,0,0,0,0,0
1684154790.60004306,69228964,1590,1589,1542,1544,0,0,0,0,0,0,0,0,0,0
1684154790.70000291,69328924,1586,1585,1545,1548,0,0,0,0,0,0,0,0,0,0
1684154790.79996300,69428884,1582,1581,1550,1554,0,0,0,0,0,0,0,0,0,0
1684154790.89992309,69528844,1577,1575,1556,1560,0,0,0,0,0,0,0,0,0,0
1684154790.99988294,69628804,1571,1569,1563,1566,0,0,0,0,0,0,0,0,0,0
1684154791.09984303,69728764,1563,1562,1569,1571,0,0,0,0,0,0,0,0,0,0
1684154791.19980288,69828724,1558,1557,1577,1578,0,0,0,0,0,0,0,0,0,0
1684154791.29976296,69928684,1553,1551,1584,1584,0,0,0,0,0,0,0,0,0,0
1684154791.39972305,70028644,1548,1546,1591,1591,0,0,0,0,0,0,0,0,0,0
1684154791.49968290,70128604,1543,1542,1597,1596,0,0,0,0,0,0,0,0,0,0
1684154791.59964299,70228564,1539,1538,1601,1600,0,0,0,0,0,0,0,0,0,0
1684154791.69960308,70328524,1535,1536,1604,1603,0,0,0,0,0,0,0,0,0,0
1684154791.79956293,70428484,1534,1536,1606,1605,0,0,0,0,0,0,0,0,0,0
1684154791.89952302,70528444,1535,1537,1605,1604,0,0,0,0,0,0,0,0,0,0
1684154791.99948287,70628404,1539,1541,1601,1601,0,0,0,0,0,0,0,0,0,0
1684154792.09944296,70728364,1545,1547,1596,1596,0,0,0,0,0,0,0,0,0,0
1684154792.19940305,70828324,1553,1554,1590,1590,0,0,0,0,0,0,0,0,0,0
1684154792.29936290,70928284,1560,1561,1583,1584,0,0,0,0,0,0,0,0,0,0
1684154792.39932299,71028244,1569,1569,1579,1579,0,0,0,0,0,0,0,0,0,0
1684154792.49928308,71128204,1574,1574,1574,1573,0,0,0,0,0,0,0,0,0,0
1684154792.59924293,71228164,1579,1578,1572,1570,0,0,0,0,0,0,0,0,0,0
1684154792.70003605,71328957,1583,1581,1571,1570,0,0,0,0,0,0,0,0,0,0
1684154792.79999590,71428917,1585,1584,1570,1570,0,0,0,0,0,0,0,0,0,0
1684154792.89995599,71528877,1585,1584,1569,1569,0,0,0,0,0,0,0,0,0,0
1684154792.99991608,71628837,1585,1584,1568,1570,0,0,0,0,0,0,0,0,0,0
1684154793.09987593,71728797,1584,1584,1570,1571,0,0,0,0,0,0,0,0,0,0
1684154793.19983602,71828757,1583,1583,1571,1572,0,0,0,0,0,0,0,0,0,0
1684154793.29979587,71928717,1582,1583,1573,1573,0,0,0,0,0,0,0,0,0,0
1684154793.39975595,72028677,1582,1582,1575,1575,0,0,0,0,0,0,0,0,0,0
1684154793.49971604,72128637,1580,1580,1576,1575,0,0,0,0,0,0,0,0,0,0
1684154793.59967589,72228597,1580,1580,1578,1577,0,0,0,0,0,0,0,0,0,0
1684154793.69963598,72328557,1580,1580,1580,1579,0,0,0,0,0,0,0,0,0,0
1684154793.79959607,72428517,1579,1579,1580,1580,0,0,0,0,0,0,0,0,0,0
1684154793.89955592,72528477,1578,1578,1580,1581,0,0,0,0,0,0,0,0,0,0
1684154793.99951601,72628437,1578,1579,1582,1581,0,0,0,0,0,0,0,0,0,0
1684154794.09947586,72728397,1577,1577,1581,1581,0,0,0,0,0,0,0,0,0,0
1684154794.19943595,72828357,1577,1578,1582,1582,0,0,0,0,0,0,0,0,0,0
1684154794.29939604,72928317,1577,1577,1581,1581,0,0,0,0,0,0,0,0,0,0
1684154794.39935589,73028277,1577,1577,1581,1581,0,0,0,0,0,0,0,0,0,0
1684154794.49931598,73128237,1577,1577,1580,1580,0,0,0,0,0,0,0,0,0,0
1684154794.59927607,73228197,1577,1577,1579,1579,0,0,0,0,0,0,0,0,0,0
1684154794.69923592,73328157,1578,1578,1579,1579,0,0,0,0,0,0,0,0,0,0
1684154794.80002904,73428950,1578,1578,1579,1579,0,0,0,0,0,0,0,0,0,0
1684154794.89998889,73528910,1579,1578,1579,1578,0,0,0,0,0,0,0,0,0,0
1684154794.99994898,73628870,1580,1579,1579,1579,0,0,0,0,0,0,0,0,0,0
1684154795.09990907,73728830,1580,1580,1579,1579,0,0,0,0,0,0,0,0,0,0
1684154795.19986892,73828790,1580,1580,1579,1579,0,0,0,0,0,0,0,0,0,0
1684154795.29982901,73928750,1581,1581,1579,1579,0,0,0,0,0,0,0,0,0,0
1684154795.39978886,74028710,1581,1581,1580,1580,0,0,0,0,0,0,0,0,0,0
1684154795.49974895,74128670,1581,1581,1579,1580,0,0,0,0,0,0,0,0,0,0
1684154795.59970903,74228630,1581,1582,1580,1580,0,0,0,0,0,0,0,0,0,0
1684154795.69966888,74328590,1581,1581,1580,1580,0,0,0,0,0,0,0,0,0,0
1684154795.79962897,74428550,1582,1582,1581,1581,0,0,0,0,0,0,0,0,0,0
1684154795.89958906,74528510,1582,1582,1582,1581,0,0,0,0,0,0,0,0,0,0
1684154795.99954891,74628470,1581,1582,1581,1581,0,0,0,0,0,0,0,0,0,0
1684154796.09950900,74728430,1581,1581,1581,1581,0,0,0,0,0,0,0,0,0,0
1684154796.19946885,74828390,1581,1581,1580,1581,0,0,0,0,0,0,0,0,0,0
1684154796.29942894,74928350,1582,1582,1581,1582,0,0,0,0,0,0,0,0,0,0
1684154796.39938903,75028310,1582,1582,1582,1582,0,0,0,0,0,0,0,0,0,0
1684154796.49934888,75128270,1581,1581,1581,1581,0,0,0,0,0,0,0,0,0,0
1684154796.59930897,75228230,1581,1581,1581,1581,0,0,0,0,0,0,0,0,0,0
1684154796.69926906,75328190,1581,1581,1581,1582,0,0,0,0,0,0,0,0,0,0
1684154796.80006194,75428983,1581,1581,1582,1581,0,0,0,0,0,0,0,0,0,0
1684154796.90002203,75528943,1582,1582,1587,1577,0,0,0,0,0,0,0,0,0,0
1684154796.99998188,75628903,1581,1582,1587,1573,0,0,0,0,0,0,0,0,0,0
1684154797.09994197,75728863,1580,1581,1579,1573,0,0,0,0,0,0,0,0,0,0
1684154797.19990206,75828823,1578,1580,1570,1572,0,0,0,0,0,0,0,0,0,0
1684154797.29986191,75928783,1576,1578,1561,1568,0,0,0,0,0,0,0,0,0,0
1684154797.39982200,76028743,1576,1578,1558,1564,0,0,0,0,0,0,0,0,0,0
1684154797.49978209,76128703,1576,1577,1555,1559,0,0,0,0,0,0,0,0,0,0
1684154797.59974194,76228663,1577,1577,1555,1556,0,0,0,0,0,0,0,0,0,0
1684154797.69970202,76328623,1578,1577,1556,1555,0,0,0,0,0,0,0,0,0,0
1684154797.79966187,76428583,1578,1577,1556,1554,0,0,0,0,0,0,0,0,0,0
1684154797.89962196,76528543,1577,1576,1555,1554,0,0,0,0,0,0,0,0,0,0
1684154797.99958205,76628503,1576,1577,1556,1554,0,0,0,0,0,0,0,0,0,0
1684154798.09954190,76728463,1575,1576,1554,1553,0,0,0,0,0,0,0,0,0,0
1684154798.19950199,76828423,1575,1576,1554,1553,0,0,0,0,0,0,0,0,0,0
1684154798.29946208,76928383,1575,1576,1552,1552,0,0,0,0,0,0,0,0,0,0
1684154798.39942193,77028343,1575,1577,1550,1550,0,0,0,0,0,0,0,0,0,0
1684154798.49938202,77128303,1576,1577,1548,1548,0,0,0,0,0,0,0,0,0,0
1684154798.59934187,77228263,1577,1579,1546,1546,0,0,0,0,0,0,0,0,0,0
1684154798.69930196,77328223,1579,1581,1544,1545,0,0,0,0,0,0,0,0,0,0
1684154798.79926205,77428183,1582,1583,1543,1543,0,0,0,0,0,0,0,0,0,0
1684154798.90005493,77528976,1585,1585,1542,1541,0,0,0,0,0,0,0,0,0,0
1684154799.00001502,77628936,1587,1587,1540,1540,0,0,0,0,0,0,0,0,0,0
1684154799.09997487,77728896,1589,1589,1539,1539,0,0,0,0,0,0,0,0,0,0
1684154799.19993496,77828856,1591,1590,1539,1539,0,0,0,0,0,0,0,0,0,0
1684154799.29989505,77928816,1590,1590,1539,1540,0,0,0,0,0,0,0,0,0,0
1684154799.39985490,78028776,1589,1590,1539,1542,0,0,0,0,0,0,0,0,0,0
1684154799.49981499,78128736,1589,1589,1542,1546,0,0,0,0,0,0,0,0,0,0
1684154799.59977508,78228696,1586,1586,1546,1550,0,0,0,0,0,0,0,0,0,0
1684154799.69973493,78328656,1583,1581,1553,1557,0,0,0,0,0,0,0,0,0,0
1684154799.79969501,78428616,1577,1574,1562,1564,0,0,0,0,0,0,0,0,0,0
1684154799.89965487,78528576,1569,1565,1573,1575,0,0,0,0,0,0,0,0,0,0
1684154799.99961495,78628536,1727,1720,1538,1535,0,0,0,0,0,0,0,0,0,0
1684154800.09957504,78728496,1664,1656,1543,1543,0,0,0,0,0,0,0,0,0,0
1684154800.19953489,78828456,1601,1596,1566,1568,0,0,0,0,0,0,0,0,0,0
1684154800.29949498,78928416,1550,1548,1589,1590,0,0,0,0,0,0,0,0,0,0
1684154800.39945507,79028376,1517,1519,1602,1602,0,0,0,0,0,0,0,0,0,0
1684154800.49941492,79128336,1501,1504,1608,1606,0,0,0,0,0,0,0,0,0,0
1684154800.59937501,79228296,1494,1498,1613,1610,0,0,0,0,0,0,0,0,0,0
1684154800.69933486,79328256,1477,1480,1627,1624,0,0,0,0,0,0,0,0,0,0
1684154800.79929495,79428216,1467,1470,1639,1638,0,0,0,0,0,0,0,0,0,0
1684154800.89925504,79528176,1473,1476,1640,1641,0,0,0,0,0,0,0,0,0,0
1684154801.00004792,79628969,1490,1494,1629,1633,0,0,0,0,0,0,0,0,0,0
1684154801.10000801,79728929,1513,1517,1610,1615,0,0,0,0,0,0,0,0,0,0
1684154801.19996786,79828889,1542,1545,1587,1591,0,0,0,0,0,0,0,0,0,0
1684154801.29992795,79928849,1569,1571,1568,1570,0,0,0,0,0,0,0,0,0,0
1684154801.39988804,80028809,1585,1584,1555,1556,0,0,0,0,0,0,0,0,0,0
1684154801.49984789,80128769,1596,1593,1553,1552,0,0,0,0,0,0,0,0,0,0
1684154801.59980798,80228729,1601,1597,1555,1552,0,0,0,0,0,0,0,0,0,0
1684154801.69976807,80328689,1601,1598,1558,1554,0,0,0,0,0,0,0,0,0,0
1684154801.79972792,80428649,1599,1596,1562,1559,0,0,0,0,0,0,0,0,0,0
1684154801.89968801,80528609,1597,1595,1566,1564,0,0,0,0,0,0,0,0,0,0
1684154801.99964786,80628569,1594,1593,1571,1569,0,0,0,0,0,0,0,0,0,0
1684154802.09960794,80728529,1589,1590,1573,1573,0,0,0,0,0,0,0,0,0,0
1684154802.19956803,80828489,1586,1586,1577,1577,0,0,0,0,0,0,0,0,0,0
1684154802.29952788,80928449,1584,1584,1580,1580,0,0,0,0,0,0,0,0,0,0
1684154802.39948797,81028409,1582,1582,1583,1584,0,0,0,0,0,0,0,0,0,0
1684154802.49944806,81128369,1580,1580,1586,1586,0,0,0,0,0,0,0,0,0,0
1684154802.59940791,81228329,1577,1578,1585,1585,0,0,0,0,0,0,0,0,0,0
1684154802.69936800,81328289,1576,1576,1586,1586,0,0,0,0,0,0,0,0,0,0
1684154802.79932785,81428249,1575,1575,1586,1586,0,0,0,0,0,0,0,0,0,0
1684154802.89928794,81528209,1575,1575,1586,1586,0,0,0,0,0,0,0,0,0,0
1684154802.99924803,81628169,1575,1575,1586,1586,0,0,0,0,0,0,0,0,0,0
1684154803.10004091,81728962,1576,1576,1586,1586,0,0,0,0,0,0,0,0,0,0
1684154803.20000100,81828922,1575,1575,1585,1585,0,0,0,0,0,0,0,0,0,0
1684154803.29996085,81928882,1575,1576,1584,1584,0,0,0,0,0,0,0,0,0,0
1684154803.39992094,82028842,1576,1576,1583,1583,0,0,0,0,0,0,0,0,0,0
1684154803.49988103,82128802,1577,1577,1583,1583,0,0,0,0,0,0,0,0,0,0
1684154803.59984088,82228762,1578,1578,1583,1582,0,0,0,0,0,0,0,0,0,0
1684154803.69980097,82328722,1578,1578,1582,1581,0,0,0,0,0,0,0,0,0,0
1684154803.79976106,82428682,1578,1578,1581,1581,0,0,0,0,0,0,0,0,0,0
1684154803.89972091,82528642,1579,1578,1580,1580,0,0,0,0,0,0,0,0,0,0
1684154803.99968100,82628602,1579,1579,1580,1580,0,0,0,0,0,0,0,0,0,0
1684154804.09964108,82728562,1580,1579,1580,1580,0,0,0,0,0,0,0,0,0,0
1684154804.19960093,82828522,1581,1581,1581,1580,0,0,0,0,0,0,0,0,0,0
1684154804.29956102,82928482,1581,1581,1581,1580,0,0,0,0,0,0,0,0,0,0
1684154804.39952087,83028442,1581,1582,1580,1581,0,0,0,0,0,0,0,0,0,0
1684154804.49948096,83128402,1580,1580,1579,1579,0,0,0,0,0,0,0,0,0,0
1684154804.59944105,83228362,1581,1580,1579,1580,0,0,0,0,0,0,0,0,0,0
1684154804.69940090,83328322,1581,1580,1579,1580,0,0,0,0,0,0,0,0,0,0
1684154804.79936099,83428282,1581,1581,1580,1580,0,0,0,0,0,0,0,0,0,0
1684154804.89932108,83528242,1580,1580,1580,1579,0,0,0,0,0,0,0,0,0,0
1684154804.99928093,83628202,1581,1583,1584,1574,0,0,0,0,0,0,0,0,0,0
1684154805.09924102,83728162,1579,1584,1585,1571,0,0,0,0,0,0,0,0,0,0
1684154805.20003390,83828955,1577,1581,1578,1573,0,0,0,0,0,0,0,0,0,0
1684154805.29999399,83928915,1574,1576,1571,1575,0,0,0,0,0,0,0,0,0,0
1684154805.39995408,84028875,1573,1572,1567,1574,0,0,0,0,0,0,0,0,0,0
1684154805.49991393,84128835,1571,1569,1565,1571,0,0,0,0,0,0,0,0,0,0
1684154805.59987402,84228795,1570,1567,1565,1569,0,0,0,0,0,0,0,0,0,0
1684154805.69983387,84328755,1569,1567,1567,1567,0,0,0,0,0,0,0,0,0,0
1684154805.79979396,84428715,1568,1566,1567,1565,0,0,0,0,0,0,0,0,0,0
1684154805.89975405,84528675,1566,1566,1567,1564,0,0,0,0,0,0,0,0,0,0
1684154805.99971390,84628635,1565,1566,1567,1565,0,0,0,0,0,0,0,0,0,0
1684154806.09967399,84728595,1564,1565,1566,1565,0,0,0,0,0,0,0,0,0,0
1684154806.19963408,84828555,1563,1564,1565,1564,0,0,0,0,0,0,0,0,0,0
1684154806.29959393,84928515,1562,1562,1563,1564,0,0,0,0,0,0,0,0,0,0
1684154806.39955401,85028475,1561,1561,1562,1563,0,0,0,0,0,0,0,0,0,0
1684154806.49951386,85128435,1563,1562,1563,1564,0,0,0,0,0,0,0,0,0,0
1684154806.59947395,85228395,1561,1561,1562,1562,0,0,0,0,0,0,0,0,0,0
1684154806.69943404,85328355,1561,1561,1562,1562,0,0,0,0,0,0,0,0,0,0
1684154806.79939389,85428315,1561,1560,1562,1561,0,0,0,0,0,0,0,0,0,0
1684154806.89935398,85528275,1560,1559,1560,1560,0,0,0,0,0,0,0,0,0,0
1684154806.99931407,85628235,1559,1558,1559,1558,0,0,0,0,0,0,0,0,0,0
1684154807.09927392,85728195,1558,1558,1558,1558,0,0,0,0,0,0,0,0,0,0
1684154807.19923401,85828155,1558,1559,1559,1557,0,0,0,0,0,0,0,0,0,0
1684154807.30002689,85928948,1557,1558,1558,1556,0,0,0,0,0,0,0,0,0,0
1684154807.39998698,86028908,1557,1557,1557,1556,0,0,0,0,0,0,0,0,0,0
1684154807.49994707,86128868,1559,1559,1559,1558,0,0,0,0,0,0,0,0,0,0
1684154807.59990692,86228828,1558,1558,1558,1557,0,0,0,0,0,0,0,0,0,0
1684154807.69986701,86328788,1558,1558,1559,1557,0,0,0,0,0,0,0,0,0,0
1684154807.79982686,86428748,1558,1559,1559,1557,0,0,0,0,0,0,0,0,0,0
1684154807.89978695,86528708,1559,1560,1558,1561,0,0,0,0,0,0,0,0,0,0
1684154807.99974704,86628668,1561,1560,1558,1563,0,0,0,0,0,0,0,0,0,0
1684154808.09970689,86728628,1562,1561,1557,1564,0,0,0,0,0,0,0,0,0,0
1684154808.19966698,86828588,1562,1560,1559,1563,0,0,0,0,0,0,0,0,0,0
1684154808.29962707,86928548,1562,1560,1560,1562,0,0,0,0,0,0,0,0,0,0
1684154808.39958692,87028508,1561,1561,1562,1560,0,0,0,0,0,0,0,0,0,0
1684154808.49954700,87128468,1560,1560,1562,1558,0,0,0,0,0,0,0,0,0,0
1684154808.59950686,87228428,1559,1560,1560,1559,0,0,0,0,0,0,0,0,0,0
1684154808.69946694,87328388,1558,1558,1556,1561,0,0,0,0,0,0,0,0,0,0
1684154808.79942703,87428348,1555,1554,1552,1557,0,0,0,0,0,0,0,0,0,0
1684154808.89938688,87528308,1550,1550,1549,1552,0,0,0,0,0,0,0,0,0,0
1684154808.99934697,87628268,1545,1544,1545,1545,0,0,0,0,0,0,0,0,0,0
1684154809.09930706,87728228,1538,1538,1539,1538,0,0,0,0,0,0,0,0,0,0
1684154809.19926691,87828188,1530,1530,1531,1530,0,0,0,0,0,0,0,0,0,0
1684154809.30006003,87928981,1522,1522,1523,1521,0,0,0,0,0,0,0,0,0,0
1684154809.40001988,88028941,1520,1520,1521,1520,0,0,0,0,0,0,0,0,0,0
1684154809.49997997,88128901,1519,1519,1519,1520,0,0,0,0,0,0,0,0,0,0
1684154809.59994006,88228861,1520,1520,1520,1521,0,0,0,0,0,0,0,0,0,0
1684154809.69989991,88328821,1522,1522,1522,1523,0,0,0,0,0,0,0,0,0,0
1684154809.79986000,88428781,1526,1526,1525,1526,0,0,0,0,0,0,0,0,0,0
1684154809.89981985,88528741,1530,1530,1530,1530,0,0,0,0,0,0,0,0,0,0
1684154809.99977994,88628701,1535,1535,1535,1535,0,0,0,0,0,0,0,0,0,0
1684154810.09974003,88728661,1539,1538,1539,1538,0,0,0,0,0,0,0,0,0,0
1684154810.19969988,88828621,1541,1541,1541,1541,0,0,0,0,0,0,0,0,0,0
1684154810.29965997,88928581,1543,1543,1543,1543,0,0,0,0,0,0,0,0,0,0
1684154810.39962006,89028541,1544,1544,1544,1544,0,0,0,0,0,0,0,0,0,0
1684154810.49957991,89128501,1546,1546,1546,1545,0,0,0,0,0,0,0,0,0,0
1684154810.59954000,89228461,1546,1546,1547,1546,0,0,0,0,0,0,0,0,0,0
1684154810.69950008,89328421,1546,1547,1546,1547,0,0,0,0,0,0,0,0,0,0
1684154810.79945993,89428381,1546,1546,1546,1546,0,0,0,0,0,0,0,0,0,0
1684154810.89942002,89528341,1547,1546,1546,1547,0,0,0,0,0,0,0,0,0,0
1684154810.99937987,89628301,1546,1546,1546,1546,0,0,0,0,0,0,0,0,0,0
1684154811.09933996,89728261,1547,1547,1547,1547,0,0,0,0,0,0,0,0,0,0
1684154811.19930005,89828221,1545,1546,1546,1545,0,0,0,0,0,0,0,0,0,0
1684154811.29925990,89928181,1545,1545,1546,1545,0,0,0,0,0,0,0,0,0,0
1684154811.40005302,90028974,1545,1545,1545,1545,0,0,0,0,0,0,0,0,0,0
1684154811.50001287,90128934,1545,1545,1545,1545,0,0,0,0,0,0,0,0,0,0
1684154811.59997296,90228894,1545,1545,1545,1545,0,0,0,0,0,0,0,0,0,0
1684154811.69993305,90328854,1545,1544,1545,1544,0,0,0,0,0,0,0,0,0,0
1684154811.79989290,90428814,1544,1544,1545,1544,0,0,0,0,0,0,0,0,0,0
1684154811.89985299,90528774,1545,1544,1544,1544,0,0,0,0,0,0,0,0,0,0
1684154811.99981308,90628734,1544,1544,1544,1544,0,0,0,0,0,0,0,0,0,0
1684154812.09977293,90728694,1544,1544,1544,1544,0,0,0,0,0,0,0,0,0,0
1684154812.19973302,90828654,1544,1544,1544,1544,0,0,0,0,0,0,0,0,0,0
1684154812.29969287,90928614,1544,1543,1543,1544,0,0,0,0,0,0,0,0,0,0
1684154812.39965296,91028574,1545,1545,1545,1545,0,0,0,0,0,0,0,0,0,0
1684154812.49961305,91128534,1545,1545,1545,1545,0,0,0,0,0,0,0,0,0,0
1684154812.59957290,91228494,1545,1544,1545,1545,0,0,0,0,0,0,0,0,0,0
1684154812.69953299,91328454,1544,1544,1544,1544,0,0,0,0,0,0,0,0,0,0
1684154812.79949307,91428414,1544,1544,1544,1544,0,0,0,0,0,0,0,0,0,0
1684154812.89945292,91528374,1544,1544,1545,1544,0,0,0,0,0,0,0,0,0,0
1684154812.99941301,91628334,1543,1544,1543,1544,0,0,0,0,0,0,0,0,0,0
1684154813.09937286,91728294,1545,1544,1544,1545,0,0,0,0,0,0,0,0,0,0
1684154813.19933295,91828254,1544,1544,1544,1545,0,0,0,0,0,0,0,0,0,0
1684154813.29929304,91928214,1544,1544,1543,1544,0,0,0,0,0,0,0,0,0,0
1684154813.39925289,92028174,1544,1543,1544,1544,0,0,0,0,0,0,0,0,0,0
1684154813.50004601,92128967,1544,1544,1544,1544,0,0,0,0,0,0,0,0,0,0
1684154813.60000587,92228927,1544,1544,1544,1544,0,0,0,0,0,0,0,0,0,0
1684154813.69996595,92328887,1543,1543,1543,1543,0,0,0,0,0,0,0,0,0,0
1684154813.79992604,92428847,1544,1544,1544,1544,0,0,0,0,0,0,0,0,0,0
1684154813.89988589,92528807,1544,1543,1544,1544,0,0,0,0,0,0,0,0,0,0
1684154813.99984598,92628767,1544,1543,1544,1543,0,0,0,0,0,0,0,0,0,0
1684154814.09980607,92728727,1543,1543,1544,1543,0,0,0,0,0,0,0,0,0,0
1684154814.19976592,92828687,1544,1543,1544,1544,0,0,0,0,0,0,0,0,0,0
1684154814.29972601,92928647,1544,1544,1544,1544,0,0,0,0,0,0,0,0,0,0
1684154814.39968586,93028607,1544,1545,1544,1544,0,0,0,0,0,0,0,0,0,0
1684154814.49964595,93128567,1545,1545,1545,1545,0,0,0,0,0,0,0,0,0,0
1684154814.59960604,93228527,1544,1544,1544,1544,0,0,0,0,0,0,0,0,0,0
1684154814.69956589,93328487,1544,1544,1544,1544,0,0,0,0,0,0,0,0,0,0
1684154814.79952598,93428447,1544,1544,1544,1544,0,0,0,0,0,0,0,0,0,0
1684154814.89948606,93528407,1544,1544,1544,1544,0,0,0,0,0,0,0,0,0,0
1684154814.99944592,93628367,1544,1544,1544,1544,0,0,0,0,0,0,0,0,0,0
1684154815.09940600,93728327,1544,1544,1544,1544,0,0,0,0,0,0,0,0,0,0
1684154815.19936585,93828287,1543,1544,1544,1544,0,0,0,0,0,0,0,0,0,0
1684154815.29932594,93928247,1545,1545,1545,1545,0,0,0,0,0,0,0,0,0,0
1684154815.39928603,94028207,1544,1545,1544,1545,0,0,0,0,0,0,0,0,0,0
1684154815.49924588,94128167,1545,1545,1544,1545,0,0,0,0,0,0,0,0,0,0
1684154815.60003901,94228960,1545,1546,1545,1545,0,0,0,0,0,0,0,0,0,0
1684154815.69999886,94328920,1544,1544,1544,1544,0,0,0,0,0,0,0,0,0,0
1684154815.79995894,94428880,1545,1545,1545,1545,0,0,0,0,0,0,0,0,0,0
1684154815.89991903,94528840,1544,1544,1544,1544,0,0,0,0,0,0,0,0,0,0
1684154815.99987888,94628800,1545,1545,1545,1545,0,0,0,0,0,0,0,0,0,0
1684154816.09983897,94728760,1544,1543,1544,1544,0,0,0,0,0,0,0,0,0,0
1684154816.19979906,94828720,1544,1544,1544,1544,0,0,0,0,0,0,0,0,0,0
1684154816.29975891,94928680,1544,1544,1544,1544,0,0,0,0,0,0,0,0,0,0
1684154816.39971900,95028640,1543,1544,1544,1544,0,0,0,0,0,0,0,0,0,0
1684154816.49967885,95128600,1544,1544,1544,1545,0,0,0,0,0,0,0,0,0,0
1684154816.59963894,95228560,1544,1544,1545,1544,0,0,0,0,0,0,0,0,0,0
1684154816.69959903,95328520,1545,1545,1545,1545,0,0,0,0,0,0,0,0,0,0
1684154816.79955888,95428480,1545,1545,1545,1545,0,0,0,0,0,0,0,0,0,0
1684154816.89951897,95528440,1544,1544,1544,1544,0,0,0,0,0,0,0,0,0,0
1684154816.99947906,95628400,1545,1545,1545,1545,0,0,0,0,0,0,0,0,0,0
1684154817.09943891,95728360,1544,1543,1544,1544,0,0,0,0,0,0,0,0,0,0
1684154817.19939899,95828320,1544,1544,1544,1544,0,0,0,0,0,0,0,0,0,0
1684154817.29935908,95928280,1544,1544,1544,1544,0,0,0,0,0,0,0,0,0,0
1684154817.39931893,96028240,1544,1545,1545,1544,0,0,0,0,0,0,0,0,0,0
1684154817.49927902,96128200,1545,1545,1545,1544,0,0,0,0,0,0,0,0,0,0
1684154817.59923887,96228160,1544,1544,1544,1544,0,0,0,0,0,0,0,0,0,0
1684154817.70003200,96328953,1545,1545,1545,1545,0,0,0,0,0,0,0,0,0,0
1684154817.79999208,96428913,1544,1544,1544,1544,0,0,0,0,0,0,0,0,0,0
1684154817.89995193,96528873,1545,1544,1544,1545,0,0,0,0,0,0,0,0,0,0
1684154817.99991202,96628833,1545,1545,1545,1545,0,0,0,0,0,0,0,0,0,0
1684154818.09987187,96728793,1545,1544,1545,1544,0,0,0,0,0,0,0,0,0,0
1684154818.19983196,96828753,1544,1544,1544,1544,0,0,0,0,0,0,0,0,0,0
1684154818.29979205,96928713,1545,1545,1545,1546,0,0,0,0,0,0,0,0,0,0
1684154818.39975190,97028673,1545,1545,1545,1546,0,0,0,0,0,0,0,0,0,0
1684154818.49971199,97128633,1544,1544,1544,1544,0,0,0,0,0,0,0,0,0,0
1684154818.59967208,97228593,1544,1544,1545,1544,0,0,0,0,0,0,0,0,0,0
1684154818.69963193,97328553,1544,1543,1543,1544,0,0,0,0,0,0,0,0,0,0
1684154818.79959202,97428513,1544,1544,1544,1544,0,0,0,0,0,0,0,0,0,0
1684154818.89955187,97528473,1545,1544,1544,1544,0,0,0,0,0,0,0,0,0,0
1684154818.99951196,97628433,1544,1544,1545,1544,0,0,0,0,0,0,0,0,0,0
1684154819.09947205,97728393,1489,1487,1488,1488,0,0,0,0,0,0,0,0,0,0
1684154819.19943190,97828353,1315,1312,1314,1314,0,0,0,0,0,0,0,0,0,0
1684154819.29939198,97928313,1237,1232,1236,1237,0,0,0,0,0,0,0,0,0,0
1684154819.39935207,98028273,1211,1207,1212,1211,0,0,0,0,0,0,0,0,0,0
1684154819.49931192,98128233,1182,1177,1183,1183,0,0,0,0,0,0,0,0,0,0
1684154819.59927201,98228193,1155,1150,1156,1156,0,0,0,0,0,0,0,0,0,0
1684154819.70006490,98328986,1156,1150,1157,1158,0,0,0,0,0,0,0,0,0,0
1684154819.80002499,98428946,1175,1150,1155,1180,0,0,0,0,0,0,0,0,0,0
1684154819.89998507,98528906,1179,1150,1157,1184,0,0,0,0,0,0,0,0,0,0
1684154819.99994493,98628866,1174,1150,1159,1178,0,0,0,0,0,0,0,0,0,0
1684154820.09990501,98728826,1174,1150,1160,1178,0,0,0,0,0,0,0,0,0,0
1684154820.19986486,98828786,1175,1150,1161,1180,0,0,0,0,0,0,0,0,0,0
1684154820.29982495,98928746,1177,1150,1161,1182,0,0,0,0,0,0,0,0,0,0
1684154820.39978504,99028706,1179,1150,1162,1185,0,0,0,0,0,0,0,0,0,0
1684154820.49974489,99128666,1181,1150,1163,1187,0,0,0,0,0,0,0,0,0,0
1684154820.59970498,99228626,1162,1150,1163,1169,0,0,0,0,0,0,0,0,0,0
1684154820.69966507,99328586,1168,1150,1163,1176,0,0,0,0,0,0,0,0,0,0
1684154820.79962492,99428546,1169,1150,1163,1178,0,0,0,0,0,0,0,0,0,0
1684154820.89958501,99528506,1170,1150,1164,1179,0,0,0,0,0,0,0,0,0,0
1684154820.99954486,99628466,1170,1150,1165,1180,0,0,0,0,0,0,0,0,0,0
1684154821.09950495,99728426,1000,1000,1000,1000,0,0,0,0,0,0,0,0,0,0
1684154821.19946504,99828386,1000,1000,1000,1000,0,0,0,0,0,0,0,0,0,0
1684154821.29942489,99928346,1000,1000,1000,1000,0,0,0,0,0,0,0,0,0,0
1684154821.39938498,100028306,1000,1000,1000,1000,0,0,0,0,0,0,0,0,0,0
1684154821.49934506,100128266,1000,1000,1000,1000,0,0,0,0,0,0,0,0,0,0
1684154821.59930491,100228226,1000,1000,1000,1000,0,0,0,0,0,0,0,0,0,0
1684154821.69926500,100328186,1000,1000,1000,1000,0,0,0,0,0,0,0,0,0,0
1684154821.80005789,100428979,1000,1000,1000,1000,0,0,0,0,0,0,0,0,0,0
1684154821.90001798,100528939,1000,1000,1000,1000,0,0,0,0,0,0,0,0,0,0
1684154821.99997807,100628899,1000,1000,1000,1000,0,0,0,0,0,0,0,0,0,0
1684154822.09993792,100728859,1000,1000,1000,1000,0,0,0,0,0,0,0,0,0,0
1684154822.19989800,100828819,1000,1000,1000,1000,0,0,0,0,0,0,0,0,0,0
1684154822.29985785,100928779,1000,1000,1000,1000,0,0,0,0,0,0,0,0,0,0
1684154822.39981794,101028739,1000,1000,1000,1000,0,0,0,0,0,0,0,0,0,0
1684154822.49977803,101128699,1000,1000,1000,1000,0,0,0,0,0,0,0,0,0,0
1684154822.59973788,101228659,1000,1000,1000,1000,0,0,0,0,0,0,0,0,0,0
1684154822.69969797,101328619,1000,1000,1000,1000,0,0,0,0,0,0,0,0,0,0
1684154822.79965806,101428579,1000,1000,1000,1000,0,0,0,0,0,0,0,0,0,0
1684154822.89961791,101528539,1000,1000,1000,1000,0,0,0,0,0,0,0,0,0,0
1684154822.99957800,101628499,1000,1000,1000,1000,0,0,0,0,0,0,0,0,0,0
1684154823.09953785,101728459,1000,1000,1000,1000,0,0,0,0,0,0,0,0,0,0
1684154823.19949794,101828419,1000,1000,1000,1000,0,0,0,0,0,0,0,0,0,0
1684154823.29945803,101928379,1000,1000,1000,1000,0,0,0,0,0,0,0,0,0,0
1684154823.39941788,102028339,1000,1000,1000,1000,0,0,0,0,0,0,0,0,0,0
1684154823.49937797,102128299,1000,1000,1000,1000,0,0,0,0,0,0,0,0,0,0
1684154823.59933805,102228259,1000,1000,1000,1000,0,0,0,0,0,0,0,0,0,0
1684154823.69929790,102328219,1000,1000,1000,1000,0,0,0,0,0,0,0,0,0,0
1684154823.79925799,102428179,1000,1000,1000,1000,0,0,0,0,0,0,0,0,0,0
1684154823.90005088,102528972,1000,1000,1000,1000,0,0,0,0,0,0,0,0,0,0
1684154824.00001097,102628932,1000,1000,1000,1000,0,0,0,0,0,0,0,0,0,0
1684154824.09997106,102728892,1000,1000,1000,1000,0,0,0,0,0,0,0,0,0,0
1684154824.19993091,102828852,1000,1000,1000,1000,0,0,0,0,0,0,0,0,0,0
1684154824.29989100,102928812,1000,1000,1000,1000,0,0,0,0,0,0,0,0,0,0
1684154824.39985108,103028772,1000,1000,1000,1000,0,0,0,0,0,0,0,0,0,0
1684154824.49981093,103128732,1000,1000,1000,1000,0,0,0,0,0,0,0,0,0,0
1684154824.59977102,103228692,1000,1000,1000,1000,0,0,0,0,0,0,0,0,0,0
1684154824.69973087,103328652,1000,1000,1000,1000,0,0,0,0,0,0,0,0,0,0
1684154824.79969096,103428612,1000,1000,1000,1000,0,0,0,0,0,0,0,0,0,0
1684154824.89965105,103528572,1000,1000,1000,1000,0,0,0,0,0,0,0,0,0,0
1684154824.99961090,103628532,1000,1000,1000,1000,0,0,0,0,0,0,0,0,0,0
1684154825.09957099,103728492,1000,1000,1000,1000,0,0,0,0,0,0,0,0,0,0
1684154825.19953108,103828452,1000,1000,1000,1000,0,0,0,0,0,0,0,0,0,0
1684154825.29949093,103928412,1000,1000,1000,1000,0,0,0,0,0,0,0,0,0,0
1684154825.39945102,104028372,1000,1000,1000,1000,0,0,0,0,0,0,0,0,0,0
1684154825.49941087,104128332,1000,1000,1000,1000,0,0,0,0,0,0,0,0,0,0
1684154825.59937096,104228292,1000,1000,1000,1000,0,0,0,0,0,0,0,0,0,0
1684154825.69933105,104328252,1000,1000,1000,1000,0,0,0,0,0,0,0,0,0,0
1684154825.79929090,104428212,1000,1000,1000,1000,0,0,0,0,0,0,0,0,0,0
1684154825.89925098,104528172,1000,1000,1000,1000,0,0,0,0,0,0,0,0,0,0
1684154826.00004387,104628965,1000,1000,1000,1000,0,0,0,0,0,0,0,0,0,0
1684154826.10000396,104728925,1000,1000,1000,1000,0,0,0,0,0,0,0,0,0,0
1684154826.19996405,104828885,1000,1000,1000,1000,0,0,0,0,0,0,0,0,0,0
1684154826.29992390,104928845,1000,1000,1000,1000,0,0,0,0,0,0,0,0,0,0
1684154826.39988399,105028805,1000,1000,1000,1000,0,0,0,0,0,0,0,0,0,0
1684154826.49984407,105128765,1000,1000,1000,1000,0,0,0,0,0,0,0,0,0,0
1684154826.59980392,105228725,1000,1000,1000,1000,0,0,0,0,0,0,0,0,0,0
1684154826.69976401,105328685,1000,1000,1000,1000,0,0,0,0,0,0,0,0,0,0
1684154826.79972386,105428645,1000,1000,1000,1000,0,0,0,0,0,0,0,0,0,0
1684154826.89968395,105528605,1000,1000,1000,1000,0,0,0,0,0,0,0,0,0,0
1684154826.99964404,105628565,1000,1000,1000,1000,0,0,0,0,0,0,0,0,0,0
1684154827.09960389,105728525,1000,1000,1000,1000,0,0,0,0,0,0,0,0,0,0
1684154827.19956398,105828485,1000,1000,1000,1000,0,0,0,0,0,0,0,0,0,0
1684154827.29952407,105928445,1000,1000,1000,1000,0,0,0,0,0,0,0,0,0,0
1684154827.39948392,106028405,1000,1000,1000,1000,0,0,0,0,0,0,0,0,0,0
1684154827.49944401,106128365,1000,1000,1000,1000,0,0,0,0,0,0,0,0,0,0
1684154827.59940386,106228325,1000,1000,1000,1000,0,0,0,0,0,0,0,0,0,0
1684154827.69936395,106328285,1000,1000,1000,1000,0,0,0,0,0,0,0,0,0,0
1684154827.79932404,106428245,1000,1000,1000,1000,0,0,0,0,0,0,0,0,0,0
1684154827.89928389,106528205,1000,1000,1000,1000,0,0,0,0,0,0,0,0,0,0
1684154827.99924397,106628165,1000,1000,1000,1000,0,0,0,0,0,0,0,0,0,0
1684154828.10003686,106728958,1000,1000,1000,1000,0,0,0,0,0,0,0,0,0,0
1684154828.19999695,106828918,1000,1000,1000,1000,0,0,0,0,0,0,0,0,0,0
1684154828.29995704,106928878,1000,1000,1000,1000,0,0,0,0,0,0,0,0,0,0
1684154828.39991689,107028838,1000,1000,1000,1000,0,0,0,0,0,0,0,0,0,0
1684154828.49987698,107128798,1000,1000,1000,1000,0,0,0,0,0,0,0,0,0,0
1684154828.59983706,107228758,1000,1000,1000,1000,0,0,0,0,0,0,0,0,0,0
1684154828.69979692,107328718,1000,1000,1000,1000,0,0,0,0,0,0,0,0,0,0
1684154828.79975700,107428678,1000,1000,1000,1000,0,0,0,0,0,0,0,0,0,0
1684154828.89971685,107528638,1000,1000,1000,1000,0,0,0,0,0,0,0,0,0,0
1684154828.99967694,107628598,1000,1000,1000,1000,0,0,0,0,0,0,0,0,0,0
1684154829.09963703,107728558,1000,1000,1000,1000,0,0,0,0,0,0,0,0,0,0
1684154829.19959688,107828518,1000,1000,1000,1000,0,0,0,0,0,0,0,0,0,0
1684154829.29955697,107928478,1000,1000,1000,1000,0,0,0,0,0,0,0,0,0,0
1684154829.39951706,108028438,1000,1000,1000,1000,0,0,0,0,0,0,0,0,0,0
1684154829.49947691,108128398,1000,1000,1000,1000,0,0,0,0,0,0,0,0,0,0
1684154829.59943700,108228358,1000,1000,1000,1000,0,0,0,0,0,0,0,0,0,0
1684154829.69939709,108328318,1000,1000,1000,1000,0,0,0,0,0,0,0,0,0,0
1684154829.79935694,108428278,1000,1000,1000,1000,0,0,0,0,0,0,0,0,0,0
1684154829.89931703,108528238,1000,1000,1000,1000,0,0,0,0,0,0,0,0,0,0
1684154829.99927688,108628198,1000,1000,1000,1000,0,0,0,0,0,0,0,0,0,0
1684154830.09923697,108728158,1000,1000,1000,1000,0,0,0,0,0,0,0,0,0,0
1684154830.20002985,108828951,1000,1000,1000,1000,0,0,0,0,0,0,0,0,0,0
1684154830.29998994,108928911,1000,1000,1000,1000,0,0,0,0,0,0,0,0,0,0
1684154830.39995003,109028871,1000,1000,1000,1000,0,0,0,0,0,0,0,0,0,0
1684154830.49990988,109128831,1000,1000,1000,1000,0,0,0,0,0,0,0,0,0,0
1684154830.59986997,109228791,1000,1000,1000,1000,0,0,0,0,0,0,0,0,0,0
1684154830.69983006,109328751,1000,1000,1000,1000,0,0,0,0,0,0,0,0,0,0
1684154830.79978991,109428711,1000,1000,1000,1000,0,0,0,0,0,0,0,0,0,0
1684154830.89974999,109528671,1000,1000,1000,1000,0,0,0,0,0,0,0,0,0,0
1684154830.99971008,109628631,1000,1000,1000,1000,0,0,0,0,0,0,0,0,0,0
1684154831.09966993,109728591,1000,1000,1000,1000,0,0,0,0,0,0,0,0,0,0
1684154831.19963002,109828551,1000,1000,1000,1000,0,0,0,0,0,0,0,0,0,0
1684154831.29958987,109928511,1000,1000,1000,1000,0,0,0,0,0,0,0,0,0,0
1684154831.39954996,110028471,1000,1000,1000,1000,0,0,0,0,0,0,0,0,0,0
1684154831.49951005,110128431,1000,1000,1000,1000,0,0,0,0,0,0,0,0,0,0
1684154831.59946990,110228391,1000,1000,1000,1000,0,0,0,0,0,0,0,0,0,0
1684154831.69942999,110328351,1000,1000,1000,1000,0,0,0,0,0,0,0,0,0,0
1684154831.79939008,110428311,1000,1000,1000,1000,0,0,0,0,0,0,0,0,0,0
1684154831.89934993,110528271,1000,1000,1000,1000,0,0,0,0,0,0,0,0,0,0
1684154831.99931002,110628231,1000,1000,1000,1000,0,0,0,0,0,0,0,0,0,0
1684154832.09926987,110728191,1000,1000,1000,1000,0,0,0,0,0,0,0,0,0,0
1684154832.20006299,110828984,1000,1000,1000,1000,0,0,0,0,0,0,0,0,0,0
1684154832.30002308,110928944,1000,1000,1000,1000,0,0,0,0,0,0,0,0,0,0
1684154832.39998293,111028904,1000,1000,1000,1000,0,0,0,0,0,0,0,0,0,0
1684154832.49994302,111128864,1000,1000,1000,1000,0,0,0,0,0,0,0,0,0,0
1684154832.59990287,111228824,1000,1000,1000,1000,0,0,0,0,0,0,0,0,0,0
1684154832.69986296,111328784,1000,1000,1000,1000,0,0,0,0,0,0,0,0,0,0
1684154832.79982305,111428744,1000,1000,1000,1000,0,0,0,0,0,0,0,0,0,0
1684154832.89978290,111528704,1000,1000,1000,1000,0,0,0,0,0,0,0,0,0,0
1684154832.99974298,111628664,1000,1000,1000,1000,0,0,0,0,0,0,0,0,0,0
1684154833.09970307,111728624,1000,1000,1000,1000,0,0,0,0,0,0,0,0,0,0
1684154833.19966292,111828584,1000,1000,1000,1000,0,0,0,0,0,0,0,0,0,0
1684154833.29962301,111928544,1000,1000,1000,1000,0,0,0,0,0,0,0,0,0,0
