TimeUS,M1,M2,M3,M4,TimeUS,C1,C2,C3,C4
46118212,1000,1000,1000,1000,46128208,1000,1000,1000,1000
46120711,1000,1000,1000,1000,46228168,1000,1000,1000,1000
46123210,1000,1000,1000,1000,46328961,1000,1000,1000,1000
46125709,1000,1000,1000,1000,46428921,1000,1000,1000,1000
46128208,1000,1000,1000,1000,46528881,1000,1000,1000,1000
46130707,1000,1000,1000,1000,46628841,1000,1000,1000,1000
46133206,1000,1000,1000,1000,46728801,1000,1000,1000,1000
46135705,1000,1000,1000,1000,46828761,1000,1000,1000,1000
46138204,1000,1000,1000,1000,46928721,1000,1000,1000,1000
46140703,1000,1000,1000,1000,47028681,1000,1000,1000,1000
46143202,1000,1000,1000,1000,47128641,1000,1000,1000,1000
46145701,1000,1000,1000,1000,47228601,1000,1000,1000,1000
46148200,1000,1000,1000,1000,47328561,1000,1000,1000,1000
46150699,1000,1000,1000,1000,47428521,1000,1000,1000,1000
46153198,1000,1000,1000,1000,47528481,1000,1000,1000,1000
46155697,1000,1000,1000,1000,47628441,1000,1000,1000,1000
46158196,1000,1000,1000,1000,47728401,1000,1000,1000,1000
46160695,1000,1000,1000,1000,47828361,1000,1000,1000,1000
46163194,1000,1000,1000,1000,47928321,1000,1000,1000,1000
46165693,1000,1000,1000,1000,48028281,1000,1000,1000,1000
46168192,1000,1000,1000,1000,48128241,1003,1003,1003,1003
46170691,1000,1000,1000,1000,48228201,1033,1033,1033,1033
46173190,1000,1000,1000,1000,48328161,1063,1063,1063,1063
46175689,1000,1000,1000,1000,48428954,1093,1093,1093,1093
46178188,1000,1000,1000,1000,48528914,1122,1122,1122,1122
46180687,1000,1000,1000,1000,48628874,1177,1170,1171,1177
46183186,1000,1000,1000,1000,48728834,1419,1415,1415,1419
46185685,1000,1000,1000,1000,48828794,1595,1591,1591,1595
46188184,1000,1000,1000,1000,48928754,1740,1736,1736,1740
46190683,1000,1000,1000,1000,49028714,1860,1857,1857,1860
46193182,1000,1000,1000,1000,49128674,1859,1855,1856,1859
46195681,1000,1000,1000,1000,49228634,1786,1784,1784,1786
46198180,1000,1000,1000,1000,49328594,1663,1662,1663,1662
46200679,1000,1000,1000,1000,49428554,1609,1611,1610,1609
46203178,1000,1000,1000,1000,49528514,1611,1613,1613,1612
46205677,1000,1000,1000,1000,49628474,1628,1630,1630,1628
46208176,1000,1000,1000,1000,49728434,1637,1637,1637,1636
46210675,1000,1000,1000,1000,49828394,1634,1633,1633,1633
46213174,1000,1000,1000,1000,49928354,1627,1626,1626,1627
46215673,1000,1000,1000,1000,50028314,1621,1621,1620,1621
46218172,1000,1000,1000,1000,50128274,1618,1618,1618,1619
46220671,1000,1000,1000,1000,50228234,1618,1618,1618,1618
46223170,1000,1000,1000,1000,50328194,1619,1619,1619,1619
46225669,1000,1000,1000,1000,50428154,1620,1620,1620,1620
46228168,1000,1000,1000,1000,50528947,1621,1621,1621,1621
46230667,1000,1000,1000,1000,50628907,1622,1622,1622,1622
46233166,1000,1000,1000,1000,50728867,1620,1623,1622,1621
46235665,1000,1000,1000,1000,50828827,1589,1589,1589,1589
46238164,1000,1000,1000,1000,50928787,1577,1576,1576,1577
46240663,1000,1000,1000,1000,51028747,1566,1566,1565,1566
46243162,1000,1000,1000,1000,51128707,1555,1555,1554,1556
46245661,1000,1000,1000,1000,51228667,1546,1546,1545,1547
46248160,1000,1000,1000,1000,51328627,1536,1536,1535,1537
46250659,1000,1000,1000,1000,51428587,1527,1527,1527,1528
46253158,1000,1000,1000,1000,51528547,1517,1517,1517,1517
46255657,1000,1000,1000,1000,51628507,1512,1512,1512,1512
46258156,1000,1000,1000,1000,51728467,1509,1509,1509,1509
46260655,1000,1000,1000,1000,51828427,1508,1508,1507,1508
46263154,1000,1000,1000,1000,51928387,1507,1507,1507,1508
46266486,1000,1000,1000,1000,52028347,1506,1506,1506,1507
46268985,1000,1000,1000,1000,52128307,1506,1505,1505,1506
46271484,1000,1000,1000,1000,52228267,1505,1505,1505,1505
46273983,1000,1000,1000,1000,52328227,1506,1506,1506,1506
46276482,1000,1000,1000,1000,52428187,1512,1512,1512,1512
46278981,1000,1000,1000,1000,52528980,1538,1538,1544,1531
46281480,1000,1000,1000,1000,52628940,1548,1548,1552,1544
46283979,1000,1000,1000,1000,52728900,1556,1556,1555,1556
46286478,1000,1000,1000,1000,52828860,1560,1560,1556,1563
46288977,1000,1000,1000,1000,52928820,1563,1563,1558,1568
46291476,1000,1000,1000,1000,53028780,1565,1564,1560,1569
46293975,1000,1000,1000,1000,53128740,1566,1566,1564,1569
46296474,1000,1000,1000,1000,53228700,1569,1569,1570,1568
46298973,1000,1000,1000,1000,53328660,1570,1570,1573,1567
46301472,1000,1000,1000,1000,53428620,1571,1571,1575,1568
46303971,1000,1000,1000,1000,53528580,1572,1572,1574,1570
46306470,1000,1000,1000,1000,53628540,1571,1571,1572,1570
46308969,1000,1000,1000,1000,53728500,1570,1570,1569,1572
46311468,1000,1000,1000,1000,53828460,1565,1565,1573,1578
46313967,1000,1000,1000,1000,53928420,1563,1564,1573,1578
46316466,1000,1000,1000,1000,54028380,1565,1566,1573,1575
46318965,1000,1000,1000,1000,54128340,1566,1567,1571,1571
46321464,1000,1000,1000,1000,54228300,1569,1569,1569,1569
46323963,1000,1000,1000,1000,54328260,1571,1570,1568,1567
46326462,1000,1000,1000,1000,54428220,1572,1573,1567,1566
46328961,1000,1000,1000,1000,54528180,1573,1573,1566,1565
46331460,1000,1000,1000,1000,54628973,1574,1573,1565,1565
46333959,1000,1000,1000,1000,54728933,1574,1573,1565,1567
46336458,1000,1000,1000,1000,54828893,1574,1573,1567,1568
46338957,1000,1000,1000,1000,54928853,1574,1573,1569,1570
46341456,1000,1000,1000,1000,55028813,1573,1573,1571,1571
46343955,1000,1000,1000,1000,55128773,1573,1574,1573,1573
46346454,1000,1000,1000,1000,55228733,1574,1574,1576,1574
46348953,1000,1000,1000,1000,55328693,1573,1574,1577,1575
46351452,1000,1000,1000,1000,55428653,1574,1574,1577,1576
46353951,1000,1000,1000,1000,55528613,1574,1574,1577,1577
46356450,1000,1000,1000,1000,55628573,1575,1575,1578,1577
46358949,1000,1000,1000,1000,55728533,1576,1576,1578,1578
46361448,1000,1000,1000,1000,55828493,1576,1576,1578,1578
46363947,1000,1000,1000,1000,55928453,1577,1576,1577,1578
46366446,1000,1000,1000,1000,56028413,1578,1578,1578,1578
46368945,1000,1000,1000,1000,56128373,1578,1578,1578,1578
46371444,1000,1000,1000,1000,56228333,1578,1579,1578,1578
46373943,1000,1000,1000,1000,56328293,1578,1578,1577,1577
46376442,1000,1000,1000,1000,56428253,1578,1578,1577,1577
46378941,1000,1000,1000,1000,56528213,1579,1579,1578,1578
46381440,1000,1000,1000,1000,56628173,1579,1579,1578,1578
46383939,1000,1000,1000,1000,56728966,1579,1579,1578,1578
46386438,1000,1000,1000,1000,56828926,1579,1579,1578,1578
46388937,1000,1000,1000,1000,56928886,1579,1579,1579,1579
46391436,1000,1000,1000,1000,57028846,1579,1579,1579,1579
46393935,1000,1000,1000,1000,57128806,1578,1579,1579,1579
46396434,1000,1000,1000,1000,57228766,1579,1579,1579,1579
46398933,1000,1000,1000,1000,57328726,1579,1579,1580,1580
46401432,1000,1000,1000,1000,57428686,1580,1580,1580,1580
46403931,1000,1000,1000,1000,57528646,1579,1579,1580,1580
46406430,1000,1000,1000,1000,57628606,1579,1579,1579,1579
46408929,1000,1000,1000,1000,57728566,1579,1579,1580,1580
46411428,1000,1000,1000,1000,57828526,1579,1579,1580,1580
46413927,1000,1000,1000,1000,57928486,1580,1581,1581,1580
46416426,1000,1000,1000,1000,58028446,1580,1579,1580,1579
46418925,1000,1000,1000,1000,58128406,1580,1580,1580,1580
46421424,1000,1000,1000,1000,58228366,1580,1581,1580,1580
46423923,1000,1000,1000,1000,58328326,1580,1580,1580,1580
46426422,1000,1000,1000,1000,58428286,1580,1580,1580,1580
46428921,1000,1000,1000,1000,58528246,1581,1581,1581,1580
46431420,1000,1000,1000,1000,58628206,1580,1581,1580,1580
46433919,1000,1000,1000,1000,58728166,1580,1580,1580,1580
46436418,1000,1000,1000,1000,58828959,1581,1581,1581,1581
46438917,1000,1000,1000,1000,58928919,1581,1581,1580,1581
46441416,1000,1000,1000,1000,59028879,1581,1582,1582,1581
46443915,1000,1000,1000,1000,59128839,1581,1581,1581,1581
46446414,1000,1000,1000,1000,59228799,1581,1581,1581,1581
46448913,1000,1000,1000,1000,59328759,1581,1581,1581,1581
46451412,1000,1000,1000,1000,59428719,1581,1581,1581,1581
46453911,1000,1000,1000,1000,59528679,1580,1580,1580,1581
46456410,1000,1000,1000,1000,59628639,1580,1580,1580,1580
46458909,1000,1000,1000,1000,59728599,1580,1580,1580,1580
46461408,1000,1000,1000,1000,59828559,1580,1581,1580,1581
46463907,1000,1000,1000,1000,59928519,1581,1581,1581,1581
46466406,1000,1000,1000,1000,60028479,1581,1581,1583,1579
46468905,1000,1000,1000,1000,60128439,1581,1582,1588,1573
46471404,1000,1000,1000,1000,60228399,1580,1583,1584,1573
46473903,1000,1000,1000,1000,60328359,1578,1581,1575,1574
46476402,1000,1000,1000,1000,60428319,1577,1580,1566,1572
46478901,1000,1000,1000,1000,60528279,1577,1578,1559,1566
46481400,1000,1000,1000,1000,60628239,1578,1578,1557,1562
46483899,1000,1000,1000,1000,60728199,1578,1578,1555,1558
46486398,1000,1000,1000,1000,60828159,1579,1578,1555,1556
46488897,1000,1000,1000,1000,60928952,1578,1578,1556,1554
46491396,1000,1000,1000,1000,61028912,1578,1578,1556,1554
46493895,1000,1000,1000,1000,61128872,1576,1577,1556,1553
46496394,1000,1000,1000,1000,61228832,1575,1576,1554,1554
46498893,1000,1000,1000,1000,61328792,1575,1576,1554,1555
46501392,1000,1000,1000,1000,61428752,1575,1577,1553,1554
46503891,1000,1000,1000,1000,61528712,1574,1576,1550,1551
46506390,1000,1000,1000,1000,61628672,1576,1578,1549,1549
46508889,1000,1000,1000,1000,61728632,1578,1580,1548,1547
46511388,1000,1000,1000,1000,61828592,1580,1581,1544,1544
46513887,1000,1000,1000,1000,61928552,1584,1584,1542,1541
46516386,1000,1000,1000,1000,62028512,1587,1587,1539,1539
46518885,1000,1000,1000,1000,62128472,1591,1591,1537,1537
46521384,1000,1000,1000,1000,62228432,1592,1593,1535,1535
46523883,1000,1000,1000,1000,62328392,1594,1594,1534,1535
46526382,1000,1000,1000,1000,62428352,1594,1594,1535,1536
46528881,1000,1000,1000,1000,62528312,1594,1594,1537,1539
46531380,1000,1000,1000,1000,62628272,1591,1591,1540,1543
46533879,1000,1000,1000,1000,62728232,1588,1586,1546,1549
46536378,1000,1000,1000,1000,62828192,1581,1578,1554,1556
46538877,1000,1000,1000,1000,62928985,1573,1569,1564,1567
46541376,1000,1000,1000,1000,63028945,1563,1559,1577,1578
46543875,1000,1000,1000,1000,63128905,1551,1548,1589,1590
46546374,1000,1000,1000,1000,63228865,1540,1538,1599,1599
46548873,1000,1000,1000,1000,63328825,1534,1533,1608,1607
46551372,1000,1000,1000,1000,63428785,1530,1531,1613,1612
46553871,1000,1000,1000,1000,63528745,1530,1531,1615,1614
46556370,1000,1000,1000,1000,63628705,1532,1535,1613,1612
46558869,1000,1000,1000,1000,63728665,1539,1541,1609,1608
46561368,1000,1000,1000,1000,63828625,1547,1548,1602,1602
46563867,1000,1000,1000,1000,63928585,1556,1556,1595,1595
46566366,1000,1000,1000,1000,64028545,1563,1564,1586,1586
46568865,1000,1000,1000,1000,64128505,1572,1571,1580,1579
46571364,1000,1000,1000,1000,64228465,1579,1578,1575,1574
46573863,1000,1000,1000,1000,64328425,1583,1582,1570,1569
46576362,1000,1000,1000,1000,64428385,1587,1585,1567,1567
46578861,1000,1000,1000,1000,64528345,1587,1585,1566,1566
46581360,1000,1000,1000,1000,64628305,1242,1241,1571,1571
46583859,1000,1000,1000,1000,64728265,1354,1360,1643,1652
46586358,1000,1000,1000,1000,64828225,1424,1434,1644,1645
46588857,1000,1000,1000,1000,64928185,1486,1495,1635,1628
46591356,1000,1000,1000,1000,65028978,1536,1540,1627,1617
46593855,1000,1000,1000,1000,65128938,1576,1569,1620,1609
46596354,1000,1000,1000,1000,65228898,1600,1584,1580,1578
46598853,1000,1000,1000,1000,65328858,1600,1587,1509,1519
46601352,1000,1000,1000,1000,65428818,1600,1592,1484,1500
46603851,1000,1000,1000,1000,65528778,1597,1600,1501,1511
46606350,1000,1000,1000,1000,65628738,1591,1600,1517,1519
46608849,1000,1000,1000,1000,65728698,1591,1600,1536,1533
46611348,1000,1000,1000,1000,65828658,1594,1600,1554,1548
46613847,1000,1000,1000,1000,65928618,1599,1600,1566,1563
46616346,1000,1000,1000,1000,66028578,1600,1596,1570,1569
46618845,1000,1000,1000,1000,66128538,1600,1596,1572,1574
46621344,1000,1000,1000,1000,66228498,1600,1596,1576,1578
46623843,1000,1000,1000,1000,66328458,1600,1598,1579,1582
46626342,1000,1000,1000,1000,66428418,1599,1600,1583,1584
46628841,1000,1000,1000,1000,66528378,1598,1600,1585,1584
46631340,1000,1000,1000,1000,66628338,1600,1599,1588,1584
46633839,1000,1000,1000,1000,66728298,1600,1599,1588,1587
46636338,1000,1000,1000,1000,66828258,1599,1600,1588,1588
46638837,1000,1000,1000,1000,66928218,1599,1600,1587,1588
46641336,1000,1000,1000,1000,67028178,1599,1600,1587,1586
46643835,1000,1000,1000,1000,67128971,1600,1599,1587,1586
46646334,1000,1000,1000,1000,67228931,1600,1599,1587,1586
46648833,1000,1000,1000,1000,67328891,1600,1599,1587,1586
46651332,1000,1000,1000,1000,67428851,1599,1600,1586,1586
46653831,1000,1000,1000,1000,67528811,1599,1600,1585,1586
46656330,1000,1000,1000,1000,67628771,1599,1600,1585,1585
46658829,1000,1000,1000,1000,67728731,1600,1599,1585,1585
46661328,1000,1000,1000,1000,67828691,1599,1600,1584,1584
46663827,1000,1000,1000,1000,67928651,1600,1599,1584,1584
46666326,1000,1000,1000,1000,68028611,1600,1599,1585,1583
46668825,1000,1000,1000,1000,68128571,1600,1590,1580,1575
46671324,1000,1000,1000,1000,68228531,1600,1590,1578,1579
46673823,1000,1000,1000,1000,68328491,1600,1596,1580,1585
46676322,1000,1000,1000,1000,68428451,1593,1594,1575,1578
46678821,1000,1000,1000,1000,68528411,1589,1595,1575,1575
46681320,1000,1000,1000,1000,68628371,1588,1594,1575,1572
46683819,1000,1000,1000,1000,68728331,1589,1593,1575,1571
46686318,1000,1000,1000,1000,68828291,1588,1589,1572,1568
46688817,1000,1000,1000,1000,68928251,1587,1587,1569,1566
46691316,1000,1000,1000,1000,69028211,1586,1584,1565,1564
46693815,1000,1000,1000,1000,69128171,1583,1582,1561,1561
46696314,1000,1000,1000,1000,69228964,1581,1579,1557,1558
46698813,1000,1000,1000,1000,69328924,1577,1578,1554,1555
46701312,1000,1000,1000,1000,69428884,1574,1576,1551,1551
46703811,1000,1000,1000,1000,69528844,1572,1574,1549,1549
46706310,1000,1000,1000,1000,69628804,1570,1572,1548,1546
46708809,1000,1000,1000,1000,69728764,1570,1571,1547,1545
46711308,1000,1000,1000,1000,69828724,1569,1570,1546,1545
46713807,1000,1000,1000,1000,69928684,1569,1569,1546,1546
46716306,1000,1000,1000,1000,70028644,1568,1569,1546,1545
46718805,1000,1000,1000,1000,70128604,1569,1569,1547,1546
46721304,1000,1000,1000,1000,70228564,1569,1569,1547,1547
46723803,1000,1000,1000,1000,70328524,1569,1569,1546,1547
46726302,1000,1000,1000,1000,70428484,1569,1570,1547,1547
46728801,1000,1000,1000,1000,70528444,1570,1570,1548,1548
46731300,1000,1000,1000,1000,70628404,1571,1571,1548,1549
46733799,1000,1000,1000,1000,70728364,1571,1572,1548,1550
46736298,1000,1000,1000,1000,70828324,1572,1573,1548,1551
46738797,1000,1000,1000,1000,70928284,1573,1574,1550,1551
46741296,1000,1000,1000,1000,71028244,1574,1575,1551,1552
46743795,1000,1000,1000,1000,71128204,1575,1575,1551,1553
46746294,1000,1000,1000,1000,71228164,1576,1576,1551,1553
46748793,1000,1000,1000,1000,71328957,1576,1577,1552,1554
46751292,1000,1000,1000,1000,71428917,1577,1577,1552,1554
46753791,1000,1000,1000,1000,71528877,1578,1579,1554,1555
46756290,1000,1000,1000,1000,71628837,1579,1579,1555,1556
46758789,1000,1000,1000,1000,71728797,1580,1580,1556,1556
46761288,1000,1000,1000,1000,71828757,1581,1579,1557,1558
46763787,1000,1000,1000,1000,71928717,1582,1581,1559,1559
46766286,1000,1000,1000,1000,72028677,1582,1581,1559,1560
46768785,1000,1000,1000,1000,72128637,1583,1581,1562,1562
46771284,1000,1000,1000,1000,72228597,1575,1568,1578,1580
46773783,1000,1000,1000,1000,72328557,1558,1551,1598,1600
46776282,1000,1000,1000,1000,72428517,1545,1541,1609,1611
46778781,1000,1000,1000,1000,72528477,1537,1537,1613,1615
46781280,1000,1000,1000,1000,72628437,1533,1538,1615,1614
46783779,1000,1000,1000,1000,72728397,1534,1541,1616,1612
46786278,1000,1000,1000,1000,72828357,1538,1544,1613,1609
46788777,1000,1000,1000,1000,72928317,1543,1548,1608,1604
46791276,1000,1000,1000,1000,73028277,1550,1552,1603,1600
46793775,1000,1000,1000,1000,73128237,1556,1557,1596,1595
46796274,1000,1000,1000,1000,73228197,1563,1562,1589,1590
46798773,1000,1000,1000,1000,73328157,1568,1567,1584,1584
46801272,1000,1000,1000,1000,73428950,1573,1571,1579,1580
46803771,1000,1000,1000,1000,73528910,1577,1575,1576,1576
46806270,1000,1000,1000,1000,73628870,1580,1579,1574,1574
46808769,1000,1000,1000,1000,73728830,1583,1583,1573,1573
46811268,1000,1000,1000,1000,73828790,1585,1585,1572,1572
46813767,1000,1000,1000,1000,73928750,1586,1586,1572,1571
46816266,1000,1000,1000,1000,74028710,1587,1587,1572,1572
46818765,1000,1000,1000,1000,74128670,1588,1587,1572,1572
46821264,1000,1000,1000,1000,74228630,1588,1588,1573,1573
46823763,1000,1000,1000,1000,74328590,1588,1588,1574,1574
46826262,1000,1000,1000,1000,74428550,1587,1586,1574,1574
46828761,1000,1000,1000,1000,74528510,1586,1586,1574,1575
46831260,1000,1000,1000,1000,74628470,1586,1585,1575,1575
46833759,1000,1000,1000,1000,74728430,1585,1585,1576,1576
46836258,1000,1000,1000,1000,74828390,1584,1584,1577,1577
46838757,1000,1000,1000,1000,74928350,1584,1584,1578,1578
46841256,1000,1000,1000,1000,75028310,1583,1583,1578,1578
46843755,1000,1000,1000,1000,75128270,1582,1582,1579,1579
46846254,1000,1000,1000,1000,75228230,1581,1581,1579,1579
46848753,1000,1000,1000,1000,75328190,1581,1581,1580,1579
46851252,1000,1000,1000,1000,75428983,1580,1580,1580,1580
46853751,1000,1000,1000,1000,75528943,1579,1580,1579,1580
46856250,1000,1000,1000,1000,75628903,1579,1579,1580,1580
46858749,1000,1000,1000,1000,75728863,1579,1579,1580,1580
46861248,1000,1000,1000,1000,75828823,1579,1579,1580,1579
46863747,1000,1000,1000,1000,75928783,1580,1580,1581,1582
46866246,1000,1000,1000,1000,76028743,1579,1580,1581,1580
46868745,1000,1000,1000,1000,76128703,1580,1579,1581,1581
46871244,1000,1000,1000,1000,76228663,1580,1580,1582,1582
46873743,1000,1000,1000,1000,76328623,1580,1580,1581,1581
46876242,1000,1000,1000,1000,76428583,1581,1581,1583,1582
46878741,1000,1000,1000,1000,76528543,1580,1581,1581,1581
46881240,1000,1000,1000,1000,76628503,1580,1580,1581,1580
46883739,1000,1000,1000,1000,76728463,1580,1581,1580,1581
46886238,1000,1000,1000,1000,76828423,1581,1581,1581,1581
46888737,1000,1000,1000,1000,76928383,1580,1581,1580,1580
46891236,1000,1000,1000,1000,77028343,1581,1581,1581,1581
46893735,1000,1000,1000,1000,77128303,1582,1581,1587,1574
46896234,1000,1000,1000,1000,77228263,1581,1580,1584,1573
46898733,1000,1000,1000,1000,77328223,1580,1579,1577,1572
46901232,1000,1000,1000,1000,77428183,1577,1578,1567,1570
46903731,1000,1000,1000,1000,77528976,1575,1577,1560,1567
46906230,1000,1000,1000,1000,77628936,1574,1576,1557,1563
46908729,1000,1000,1000,1000,77728896,1574,1576,1557,1560
46911228,1000,1000,1000,1000,77828856,1574,1576,1557,1557
46913727,1000,1000,1000,1000,77928816,1574,1575,1558,1556
46916226,1000,1000,1000,1000,78028776,1574,1575,1557,1555
46918725,1000,1000,1000,1000,78128736,1575,1574,1557,1555
46921224,1000,1000,1000,1000,78228696,1574,1574,1556,1554
46923723,1000,1000,1000,1000,78328656,1575,1575,1555,1554
46926222,1000,1000,1000,1000,78428616,1575,1575,1552,1553
46928721,1000,1000,1000,1000,78528576,1575,1576,1551,1552
46931220,1000,1000,1000,1000,78628536,1576,1577,1550,1550
46933719,1000,1000,1000,1000,78728496,1576,1578,1548,1548
46936218,1000,1000,1000,1000,78828456,1577,1580,1547,1546
46938717,1000,1000,1000,1000,78928416,1580,1581,1546,1545
46941216,1000,1000,1000,1000,79028376,1582,1583,1543,1542
46943715,1000,1000,1000,1000,79128336,1585,1586,1543,1542
46946214,1000,1000,1000,1000,79228296,1587,1587,1541,1540
46948713,1000,1000,1000,1000,79328256,1589,1588,1539,1539
46951212,1000,1000,1000,1000,79428216,1590,1589,1538,1539
46953711,1000,1000,1000,1000,79528176,1591,1590,1540,1541
46956210,1000,1000,1000,1000,79628969,1591,1590,1542,1544
46958709,1000,1000,1000,1000,79728929,1589,1588,1544,1547
46961208,1000,1000,1000,1000,79828889,1586,1585,1547,1550
46963707,1000,1000,1000,1000,79928849,1582,1582,1551,1555
46966206,1000,1000,1000,1000,80028809,1577,1577,1558,1561
46968705,1000,1000,1000,1000,80128769,1572,1571,1565,1568
46971204,1000,1000,1000,1000,80228729,1567,1564,1574,1576
46973703,1000,1000,1000,1000,80328689,1559,1556,1582,1583
46976202,1000,1000,1000,1000,80428649,1551,1548,1591,1590
46978701,1000,1000,1000,1000,80528609,1543,1541,1600,1599
46981200,1000,1000,1000,1000,80628569,1536,1536,1607,1605
46983699,1000,1000,1000,1000,80728529,1532,1533,1610,1609
46986198,1000,1000,1000,1000,80828489,1530,1533,1610,1610
46988697,1000,1000,1000,1000,80928449,1531,1534,1607,1607
46991196,1000,1000,1000,1000,81028409,1536,1539,1602,1602
46993695,1000,1000,1000,1000,81128369,1543,1545,1597,1597
46996194,1000,1000,1000,1000,81228329,1551,1552,1590,1590
46998693,1000,1000,1000,1000,81328289,1559,1560,1584,1583
47001192,1000,1000,1000,1000,81428249,1567,1566,1577,1576
47003691,1000,1000,1000,1000,81528209,1575,1574,1573,1572
47006190,1000,1000,1000,1000,81628169,1581,1580,1568,1568
47008689,1000,1000,1000,1000,81728962,1585,1584,1566,1566
47011188,1000,1000,1000,1000,81828922,1588,1587,1566,1566
47013687,1000,1000,1000,1000,81928882,1590,1588,1567,1567
47016186,1000,1000,1000,1000,82028842,1589,1588,1568,1569
47018685,1000,1000,1000,1000,82128802,1589,1588,1571,1571
47021184,1000,1000,1000,1000,82228762,1587,1586,1572,1573
47023683,1000,1000,1000,1000,82328722,1585,1585,1575,1575
47026182,1000,1000,1000,1000,82428682,1583,1583,1577,1577
47028681,1000,1000,1000,1000,82528642,1581,1582,1579,1579
47031180,1000,1000,1000,1000,82628602,1579,1580,1581,1580
47033679,1000,1000,1000,1000,82728562,1577,1578,1582,1582
47036178,1000,1000,1000,1000,82828522,1576,1577,1584,1583
47038677,1000,1000,1000,1000,82928482,1575,1576,1584,1584
47041176,1000,1000,1000,1000,83028442,1575,1575,1584,1584
47043675,1000,1000,1000,1000,83128402,1575,1575,1584,1585
47046174,1000,1000,1000,1000,83228362,1574,1575,1583,1583
47048673,1000,1000,1000,1000,83328322,1575,1576,1581,1582
47051172,1000,1000,1000,1000,83428282,1576,1576,1581,1581
47053671,1000,1000,1000,1000,83528242,1578,1578,1581,1581
47056170,1000,1000,1000,1000,83628202,1580,1579,1580,1580
47058669,1000,1000,1000,1000,83728162,1580,1579,1579,1579
47061168,1000,1000,1000,1000,83828955,1581,1581,1578,1578
47063667,1000,1000,1000,1000,83928915,1582,1582,1579,1579
47066166,1000,1000,1000,1000,84028875,1583,1582,1579,1579
47068665,1000,1000,1000,1000,84128835,1582,1582,1578,1578
47071164,1000,1000,1000,1000,84228795,1582,1583,1577,1579
47073663,1000,1000,1000,1000,84328755,1582,1582,1577,1578
47076162,1000,1000,1000,1000,84428715,1582,1581,1578,1579
47078661,1000,1000,1000,1000,84528675,1582,1582,1580,1580
47081160,1000,1000,1000,1000,84628635,1582,1582,1582,1581
47083659,1000,1000,1000,1000,84728595,1581,1581,1582,1581
47086158,1000,1000,1000,1000,84828555,1581,1581,1582,1582
47088657,1000,1000,1000,1000,84928515,1581,1581,1582,1582
47091156,1000,1000,1000,1000,85028475,1581,1581,1582,1583
47093655,1000,1000,1000,1000,85128435,1581,1581,1582,1582
47096154,1000,1000,1000,1000,85228395,1581,1581,1582,1582
47098653,1000,1000,1000,1000,85328355,1581,1581,1582,1582
47101152,1000,1000,1000,1000,85428315,1580,1580,1587,1575
47103651,1000,1000,1000,1000,85528275,1581,1579,1586,1574
47106150,1000,1000,1000,1000,85628235,1578,1577,1579,1574
47108649,1000,1000,1000,1000,85728195,1575,1574,1570,1573
47111148,1000,1000,1000,1000,85828155,1572,1572,1565,1572
47113647,1000,1000,1000,1000,85928948,1570,1570,1563,1571
47116146,1000,1000,1000,1000,86028908,1568,1569,1563,1567
47118645,1000,1000,1000,1000,86128868,1567,1568,1566,1567
47121144,1000,1000,1000,1000,86228828,1566,1567,1567,1565
47123643,1000,1000,1000,1000,86328788,1566,1566,1567,1565
47126142,1000,1000,1000,1000,86428748,1565,1565,1568,1565
47128641,1000,1000,1000,1000,86528708,1565,1565,1568,1566
47131140,1000,1000,1000,1000,86628668,1564,1564,1566,1565
47133639,1000,1000,1000,1000,86728628,1563,1562,1564,1564
47136138,1000,1000,1000,1000,86828588,1562,1562,1563,1564
47138637,1000,1000,1000,1000,86928548,1561,1561,1562,1562
47141136,1000,1000,1000,1000,87028508,1561,1561,1561,1562
47143635,1000,1000,1000,1000,87128468,1560,1560,1561,1561
47146134,1000,1000,1000,1000,87228428,1560,1560,1560,1560
47148633,1000,1000,1000,1000,87328388,1560,1560,1561,1560
47151132,1000,1000,1000,1000,87428348,1560,1560,1561,1560
47153631,1000,1000,1000,1000,87528308,1560,1560,1560,1559
47156130,1000,1000,1000,1000,87628268,1560,1560,1561,1559
47158629,1000,1000,1000,1000,87728228,1560,1560,1560,1559
47161128,1000,1000,1000,1000,87828188,1560,1559,1560,1559
47163627,1000,1000,1000,1000,87928981,1560,1559,1560,1559
47166126,1000,1000,1000,1000,88028941,1559,1559,1559,1558
47168625,1000,1000,1000,1000,88128901,1559,1558,1559,1557
47171124,1000,1000,1000,1000,88228861,1559,1558,1560,1558
47173623,1000,1000,1000,1000,88328821,1560,1559,1558,1561
47176122,1000,1000,1000,1000,88428781,1560,1560,1558,1563
47178621,1000,1000,1000,1000,88528741,1559,1561,1557,1563
47181120,1000,1000,1000,1000,88628701,1560,1561,1558,1562
47183619,1000,1000,1000,1000,88728661,1559,1560,1558,1560
47186118,1000,1000,1000,1000,88828621,1558,1558,1558,1556
47188617,1000,1000,1000,1000,88928581,1558,1558,1559,1557
47191116,1000,1000,1000,1000,89028541,1558,1558,1555,1558
47193615,1000,1000,1000,1000,89128501,1555,1555,1552,1555
47196114,1000,1000,1000,1000,89228461,1551,1551,1547,1549
47198613,1000,1000,1000,1000,89328421,1547,1547,1543,1544
47201112,1000,1000,1000,1000,89428381,1542,1542,1537,1536
47203611,1000,1000,1000,1000,89528341,1535,1535,1530,1529
47206110,1000,1000,1000,1000,89628301,1529,1529,1524,1523
47208609,1000,1000,1000,1000,89728261,1524,1523,1519,1519
47211108,1000,1000,1000,1000,89828221,1521,1521,1518,1519
47213607,1000,1000,1000,1000,89928181,1520,1520,1520,1521
47216106,1000,1000,1000,1000,90028974,1519,1519,1523,1523
47218605,1000,1000,1000,1000,90128934,1521,1521,1528,1528
47221104,1000,1000,1000,1000,90228894,1525,1525,1534,1534
47223603,1000,1000,1000,1000,90328854,1529,1528,1538,1538
47226102,1000,1000,1000,1000,90428814,1533,1532,1543,1542
47228601,1000,1000,1000,1000,90528774,1536,1536,1545,1544
47231100,1000,1000,1000,1000,90628734,1538,1539,1545,1545
47233599,1000,1000,1000,1000,90728694,1542,1542,1546,1545
47236098,1000,1000,1000,1000,90828654,1544,1544,1545,1545
47238597,1000,1000,1000,1000,90928614,1546,1546,1545,1545
47241096,1000,1000,1000,1000,91028574,1548,1549,1545,1545
47243595,1000,1000,1000,1000,91128534,1550,1550,1545,1545
47246094,1000,1000,1000,1000,91228494,1549,1550,1544,1543
47248593,1000,1000,1000,1000,91328454,1551,1550,1545,1544
47251092,1000,1000,1000,1000,91428414,1550,1550,1544,1544
47253591,1000,1000,1000,1000,91528374,1550,1549,1544,1544
47256090,1000,1000,1000,1000,91628334,1549,1549,1545,1545
47258589,1000,1000,1000,1000,91728294,1548,1548,1545,1545
47261088,1000,1000,1000,1000,91828254,1547,1547,1545,1545
47263587,1000,1000,1000,1000,91928214,1546,1546,1545,1545
47266086,1000,1000,1000,1000,92028174,1545,1545,1545,1546
47268585,1000,1000,1000,1000,92128967,1544,1545,1546,1545
47271084,1000,1000,1000,1000,92228927,1544,1544,1546,1546
47273583,1000,1000,1000,1000,92328887,1544,1544,1546,1546
47276082,1000,1000,1000,1000,92428847,1544,1544,1547,1547
47278581,1000,1000,1000,1000,92528807,1543,1543,1545,1545
47281080,1000,1000,1000,1000,92628767,1542,1542,1544,1544
47283579,1000,1000,1000,1000,92728727,1542,1542,1544,1544
47286078,1000,1000,1000,1000,92828687,1543,1543,1545,1544
47288577,1000,1000,1000,1000,92928647,1544,1544,1545,1545
47291076,1000,1000,1000,1000,93028607,1543,1544,1544,1544
47293575,1000,1000,1000,1000,93128567,1545,1545,1544,1545
47296074,1000,1000,1000,1000,93228527,1545,1545,1544,1544
47298573,1000,1000,1000,1000,93328487,1544,1544,1543,1543
47301072,1000,1000,1000,1000,93428447,1544,1545,1543,1543
47303571,1000,1000,1000,1000,93528407,1545,1544,1543,1543
47306070,1000,1000,1000,1000,93628367,1545,1545,1543,1544
47308569,1000,1000,1000,1000,93728327,1544,1544,1543,1543
47311068,1000,1000,1000,1000,93828287,1544,1544,1543,1543
47313567,1000,1000,1000,1000,93928247,1545,1545,1545,1545
47316066,1000,1000,1000,1000,94028207,1545,1545,1545,1545
47318565,1000,1000,1000,1000,94128167,1545,1545,1546,1546
47321064,1000,1000,1000,1000,94228960,1545,1545,1545,1545
47323563,1000,1000,1000,1000,94328920,1544,1544,1544,1545
47326062,1000,1000,1000,1000,94428880,1544,1545,1545,1545
47328561,1000,1000,1000,1000,94528840,1544,1544,1544,1544
47331060,1000,1000,1000,1000,94628800,1544,1543,1544,1543
47333559,1000,1000,1000,1000,94728760,1544,1543,1544,1544
47336058,1000,1000,1000,1000,94828720,1544,1544,1544,1543
47338557,1000,1000,1000,1000,94928680,1544,1544,1544,1545
47341056,1000,1000,1000,1000,95028640,1544,1544,1544,1544
47343555,1000,1000,1000,1000,95128600,1543,1543,1543,1543
47346054,1000,1000,1000,1000,95228560,1544,1544,1544,1544
47348553,1000,1000,1000,1000,95328520,1544,1544,1545,1544
47351052,1000,1000,1000,1000,95428480,1544,1544,1544,1544
47353551,1000,1000,1000,1000,95528440,1544,1544,1544,1545
47356050,1000,1000,1000,1000,95628400,1544,1544,1545,1544
47358549,1000,1000,1000,1000,95728360,1544,1544,1543,1544
47361048,1000,1000,1000,1000,95828320,1544,1544,1544,1544
47363547,1000,1000,1000,1000,95928280,1545,1545,1545,1545
47366046,1000,1000,1000,1000,96028240,1544,1544,1543,1544
47368545,1000,1000,1000,1000,96128200,1544,1544,1544,1544
47371044,1000,1000,1000,1000,96228160,1544,1544,1544,1543
47373543,1000,1000,1000,1000,96328953,1544,1544,1544,1543
47376042,1000,1000,1000,1000,96428913,1544,1544,1544,1544
47378541,1000,1000,1000,1000,96528873,1544,1544,1544,1544
47381040,1000,1000,1000,1000,96628833,1544,1544,1544,1544
47383539,1000,1000,1000,1000,96728793,1544,1544,1544,1545
47386038,1000,1000,1000,1000,96828753,1544,1544,1544,1544
47388537,1000,1000,1000,1000,96928713,1544,1544,1544,1545
47391036,1000,1000,1000,1000,97028673,1544,1544,1545,1545
47393535,1000,1000,1000,1000,97128633,1543,1543,1543,1543
47396034,1000,1000,1000,1000,97228593,1544,1544,1545,1544
47398533,1000,1000,1000,1000,97328553,1545,1544,1545,1544
47401032,1000,1000,1000,1000,97428513,1545,1545,1545,1545
47403531,1000,1000,1000,1000,97528473,1544,1544,1544,1545
47406030,1000,1000,1000,1000,97628433,1544,1545,1544,1544
47408529,1000,1000,1000,1000,97728393,1544,1545,1544,1545
47411028,1000,1000,1000,1000,97828353,1544,1544,1544,1544
47413527,1000,1000,1000,1000,97928313,1544,1544,1544,1544
47416026,1000,1000,1000,1000,98028273,1545,1545,1545,1545
47418525,1000,1000,1000,1000,98128233,1545,1544,1544,1545
47421024,1000,1000,1000,1000,98228193,1544,1545,1544,1544
47423523,1000,1000,1000,1000,98328986,1544,1545,1544,1544
47426022,1000,1000,1000,1000,98428946,1544,1544,1544,1544
47428521,1000,1000,1000,1000,98528906,1545,1544,1544,1544
47431020,1000,1000,1000,1000,98628866,1545,1545,1545,1544
47433519,1000,1000,1000,1000,98728826,1545,1544,1545,1545
47436018,1000,1000,1000,1000,98828786,1544,1544,1544,1544
47438517,1000,1000,1000,1000,98928746,1545,1545,1545,1546
47441016,1000,1000,1000,1000,99028706,1544,1544,1544,1544
47443515,1000,1000,1000,1000,99128666,1545,1545,1545,1545
47446014,1000,1000,1000,1000,99228626,1544,1545,1545,1545
47448513,1000,1000,1000,1000,99328586,1544,1544,1544,1545
47451012,1000,1000,1000,1000,99428546,1522,1522,1511,1511
47453511,1000,1000,1000,1000,99528506,1407,1406,1330,1327
47456010,1000,1000,1000,1000,99628466,1359,1358,1243,1238
47458509,1000,1000,1000,1000,99728426,1346,1344,1216,1212
47461008,1000,1000,1000,1000,99828386,1336,1334,1194,1191
47463507,1000,1000,1000,1000,99928346,1312,1310,1152,1150
47466006,1000,1000,1000,1000,100028306,1230,1228,1153,1150
47468505,1000,1000,1000,1000,100128266,1136,1133,1153,1150
47471004,1000,1000,1000,1000,100228226,1033,1029,1154,1150
47473503,1000,1000,1000,1000,100328186,961,958,1152,1150
47476002,1000,1000,1000,1000,100428979,960,958,1152,1150
47478501,1000,1000,1000,1000,100528939,961,958,1152,1150
47481000,1000,1000,1000,1000,100628899,961,947,1150,1165
47483499,1000,1000,1000,1000,100728859,961,951,1150,1161
47485998,1000,1000,1000,1000,100828819,961,953,1150,1157
47488497,1000,1000,1000,1000,100928779,961,954,1150,1156
47490996,1000,1000,1000,1000,101028739,962,954,1150,1156
47493495,1000,1000,1000,1000,101128699,962,953,1150,1157
47495994,1000,1000,1000,1000,101228659,962,953,1150,1157
47498493,1000,1000,1000,1000,101328619,962,953,1150,1157
47500992,1000,1000,1000,1000,101428579,960,960,1150,1150
47503491,1000,1000,1000,1000,101528539,960,959,1150,1151
47505990,1000,1000,1000,1000,101628499,961,958,1150,1151
47508489,1000,1000,1000,1000,101728459,961,958,1150,1151
47510988,1000,1000,1000,1000,101828419,961,958,1150,1151
47513487,1000,1000,1000,1000,101928379,1000,1000,1000,1000
47515986,1000,1000,1000,1000,102028339,1000,1000,1000,1000
47518485,1000,1000,1000,1000,102128299,1000,1000,1000,1000
47520984,1000,1000,1000,1000,102228259,1000,1000,1000,1000
47523483,1000,1000,1000,1000,102328219,1000,1000,1000,1000
47525982,1000,1000,1000,1000,102428179,1000,1000,1000,1000
47528481,1000,1000,1000,1000,102528972,1000,1000,1000,1000
47530980,1000,1000,1000,1000,102628932,1000,1000,1000,1000
47533479,1000,1000,1000,1000,102728892,1000,1000,1000,1000
47535978,1000,1000,1000,1000,102828852,1000,1000,1000,1000
47538477,1000,1000,1000,1000,102928812,1000,1000,1000,1000
47540976,1000,1000,1000,1000,103028772,1000,1000,1000,1000
47543475,1000,1000,1000,1000,103128732,1000,1000,1000,1000
47545974,1000,1000,1000,1000,103228692,1000,1000,1000,1000
47548473,1000,1000,1000,1000,103328652,1000,1000,1000,1000
47550972,1000,1000,1000,1000,103428612,1000,1000,1000,1000
47553471,1000,1000,1000,1000,103528572,1000,1000,1000,1000
47555970,1000,1000,1000,1000,103628532,1000,1000,1000,1000
47558469,1000,1000,1000,1000,103728492,1000,1000,1000,1000
47560968,1000,1000,1000,1000,103828452,1000,1000,1000,1000
47563467,1000,1000,1000,1000,103928412,1000,1000,1000,1000
47565966,1000,1000,1000,1000,104028372,1000,1000,1000,1000
47568465,1000,1000,1000,1000,104128332,1000,1000,1000,1000
47570964,1000,1000,1000,1000,104228292,1000,1000,1000,1000
47573463,1000,1000,1000,1000,104328252,1000,1000,1000,1000
47575962,1000,1000,1000,1000,104428212,1000,1000,1000,1000
47578461,1000,1000,1000,1000,104528172,1000,1000,1000,1000
47580960,1000,1000,1000,1000,104628965,1000,1000,1000,1000
47583459,1000,1000,1000,1000,104728925,1000,1000,1000,1000
47585958,1000,1000,1000,1000,104828885,1000,1000,1000,1000
47588457,1000,1000,1000,1000,104928845,1000,1000,1000,1000
47590956,1000,1000,1000,1000,105028805,1000,1000,1000,1000
47593455,1000,1000,1000,1000,105128765,1000,1000,1000,1000
47595954,1000,1000,1000,1000,105228725,1000,1000,1000,1000
47598453,1000,1000,1000,1000,105328685,1000,1000,1000,1000
47600952,1000,1000,1000,1000,105428645,1000,1000,1000,1000
47603451,1000,1000,1000,1000,105528605,1000,1000,1000,1000
47605950,1000,1000,1000,1000,105628565,1000,1000,1000,1000
47608449,1000,1000,1000,1000,105728525,1000,1000,1000,1000
47610948,1000,1000,1000,1000,105828485,1000,1000,1000,1000
47613447,1000,1000,1000,1000,105928445,1000,1000,1000,1000
47615946,1000,1000,1000,1000,106028405,1000,1000,1000,1000
47618445,1000,1000,1000,1000,106128365,1000,1000,1000,1000
47620944,1000,1000,1000,1000,106228325,1000,1000,1000,1000
47623443,1000,1000,1000,1000,106328285,1000,1000,1000,1000
47625942,1000,1000,1000,1000,106428245,1000,1000,1000,1000
47628441,1000,1000,1000,1000,106528205,1000,1000,1000,1000
47630940,1000,1000,1000,1000,106628165,1000,1000,1000,1000
47633439,1000,1000,1000,1000,106728958,1000,1000,1000,1000
47635938,1000,1000,1000,1000,106828918,1000,1000,1000,1000
47638437,1000,1000,1000,1000,106928878,1000,1000,1000,1000
47640936,1000,1000,1000,1000,107028838,1000,1000,1000,1000
47643435,1000,1000,1000,1000,107128798,1000,1000,1000,1000
47645934,1000,1000,1000,1000,107228758,1000,1000,1000,1000
47648433,1000,1000,1000,1000,107328718,1000,1000,1000,1000
47650932,1000,1000,1000,1000,107428678,1000,1000,1000,1000
47653431,1000,1000,1000,1000,107528638,1000,1000,1000,1000
47655930,1000,1000,1000,1000,107628598,1000,1000,1000,1000
47658429,1000,1000,1000,1000,107728558,1000,1000,1000,1000
47660928,1000,1000,1000,1000,107828518,1000,1000,1000,1000
47663427,1000,1000,1000,1000,107928478,1000,1000,1000,1000
47665926,1000,1000,1000,1000,108028438,1000,1000,1000,1000
47668425,1000,1000,1000,1000,108128398,1000,1000,1000,1000
47670924,1000,1000,1000,1000,108228358,1000,1000,1000,1000
47673423,1000,1000,1000,1000,108328318,1000,1000,1000,1000
47675922,1000,1000,1000,1000,108428278,1000,1000,1000,1000
47678421,1000,1000,1000,1000,108528238,1000,1000,1000,1000
47680920,1000,1000,1000,1000,108628198,1000,1000,1000,1000
47683419,1000,1000,1000,1000,108728158,1000,1000,1000,1000
47685918,1000,1000,1000,1000,108828951,1000,1000,1000,1000
47688417,1000,1000,1000,1000,108928911,1000,1000,1000,1000
47690916,1000,1000,1000,1000,109028871,1000,1000,1000,1000
47693415,1000,1000,1000,1000,109128831,1000,1000,1000,1000
47695914,1000,1000,1000,1000,109228791,1000,1000,1000,1000
47698413,1000,1000,1000,1000,109328751,1000,1000,1000,1000
47700912,1000,1000,1000,1000,109428711,1000,1000,1000,1000
47703411,1000,1000,1000,1000,109528671,1000,1000,1000,1000
47705910,1000,1000,1000,1000,109628631,1000,1000,1000,1000
47708409,1000,1000,1000,1000,109728591,1000,1000,1000,1000
47710908,1000,1000,1000,1000,109828551,1000,1000,1000,1000
47713407,1000,1000,1000,1000,109928511,1000,1000,1000,1000
47715906,1000,1000,1000,1000,110028471,1000,1000,1000,1000
47718405,1000,1000,1000,1000,110128431,1000,1000,1000,1000
47720904,1000,1000,1000,1000,110228391,1000,1000,1000,1000
47723403,1000,1000,1000,1000,110328351,1000,1000,1000,1000
47725902,1000,1000,1000,1000,110428311,1000,1000,1000,1000
47728401,1000,1000,1000,1000,110528271,1000,1000,1000,1000
47730900,1000,1000,1000,1000,110628231,1000,1000,1000,1000
47733399,1000,1000,1000,1000,110728191,1000,1000,1000,1000
47735898,1000,1000,1000,1000,110828984,1000,1000,1000,1000
47738397,1000,1000,1000,1000,110928944,1000,1000,1000,1000
47740896,1000,1000,1000,1000,111028904,1000,1000,1000,1000
47743395,1000,1000,1000,1000,111128864,1000,1000,1000,1000
47745894,1000,1000,1000,1000,111228824,1000,1000,1000,1000
47748393,1000,1000,1000,1000,111328784,1000,1000,1000,1000
47750892,1000,1000,1000,1000,111428744,1000,1000,1000,1000
47753391,1000,1000,1000,1000,111528704,1000,1000,1000,1000
47755890,1000,1000,1000,1000,111628664,1000,1000,1000,1000
47758389,1000,1000,1000,1000,111728624,1000,1000,1000,1000
47760888,1000,1000,1000,1000,111828584,1000,1000,1000,1000
47763387,1000,1000,1000,1000,111928544,1000,1000,1000,1000
47765886,1000,1000,1000,1000,112028504,1000,1000,1000,1000
47768385,1000,1000,1000,1000,112128464,1000,1000,1000,1000
47770884,1000,1000,1000,1000,112228424,1000,1000,1000,1000
47773383,1000,1000,1000,1000,112328384,1000,1000,1000,1000
47775882,1000,1000,1000,1000,112428344,1000,1000,1000,1000
47778381,1000,1000,1000,1000,112528304,1000,1000,1000,1000
47780880,1000,1000,1000,1000,112628264,1000,1000,1000,1000
47783379,1000,1000,1000,1000,112728224,1000,1000,1000,1000
47785878,1000,1000,1000,1000,112828184,1000,1000,1000,1000
47788377,1000,1000,1000,1000,112928977,1000,1000,1000,1000
47790876,1000,1000,1000,1000,113028937,1000,1000,1000,1000
47793375,1000,1000,1000,1000,113128897,1000,1000,1000,1000
47795874,1000,1000,1000,1000,113228857,1000,1000,1000,1000
47798373,1000,1000,1000,1000,113328817,1000,1000,1000,1000
47800872,1000,1000,1000,1000,113428777,1000,1000,1000,1000
47803371,1000,1000,1000,1000,113528737,1000,1000,1000,1000
47805870,1000,1000,1000,1000,113628697,1000,1000,1000,1000
47808369,1000,1000,1000,1000,113728657,1000,1000,1000,1000
47810868,1000,1000,1000,1000,113828617,1000,1000,1000,1000
47813367,1000,1000,1000,1000,113928577,1000,1000,1000,1000
47815866,1000,1000,1000,1000,114028537,1000,1000,1000,1000
47818365,1000,1000,1000,1000,114128497,1000,1000,1000,1000
47820864,1000,1000,1000,1000,114228457,1000,1000,1000,1000
47823363,1000,1000,1000,1000,114328417,1000,1000,1000,1000
47825862,1000,1000,1000,1000,114428377,1000,1000,1000,1000
47828361,1000,1000,1000,1000,114528337,1000,1000,1000,1000
47830860,1000,1000,1000,1000,114628297,1000,1000,1000,1000
47833359,1000,1000,1000,1000,114728257,1000,1000,1000,1000
47835858,1000,1000,1000,1000,114828217,1000,1000,1000,1000
47838357,1000,1000,1000,1000,114928177,1000,1000,1000,1000
47840856,1000,1000,1000,1000,115028970,1000,1000,1000,1000
47843355,1000,1000,1000,1000,115128930,1000,1000,1000,1000
47845854,1000,1000,1000,1000,115228890,1000,1000,1000,1000
47848353,1000,1000,1000,1000,115328850,1000,1000,1000,1000
47850852,1000,1000,1000,1000,115428810,1000,1000,1000,1000
47853351,1000,1000,1000,1000,115528770,1000,1000,1000,1000
47855850,1000,1000,1000,1000,115628730,1000,1000,1000,1000
47858349,1000,1000,1000,1000,115728690,1000,1000,1000,1000
47860848,1000,1000,1000,1000,115828650,1000,1000,1000,1000
47863347,1000,1000,1000,1000,115928610,1000,1000,1000,1000
47865846,1000,1000,1000,1000,116028570,1000,1000,1000,1000
47868345,1000,1000,1000,1000,116128530,1000,1000,1000,1000
47870844,1000,1000,1000,1000,116228490,1000,1000,1000,1000
47873343,1000,1000,1000,1000,116328450,1000,1000,1000,1000
47875842,1000,1000,1000,1000,116428410,1000,1000,1000,1000
47878341,1000,1000,1000,1000,116528370,1000,1000,1000,1000
47880840,1000,1000,1000,1000,116628330,1000,1000,1000,1000
47883339,1000,1000,1000,1000,116728290,1000,1000,1000,1000
47885838,1000,1000,1000,1000,116828250,1000,1000,1000,1000
47888337,1000,1000,1000,1000,,,,,
47890836,1000,1000,1000,1000,,,,,
47893335,1000,1000,1000,1000,,,,,
47895834,1000,1000,1000,1000,,,,,
47898333,1000,1000,1000,1000,,,,,
47900832,1000,1000,1000,1000,,,,,
47903331,1000,1000,1000,1000,,,,,
47905830,1000,1000,1000,1000,,,,,
47908329,1000,1000,1000,1000,,,,,
47910828,1000,1000,1000,1000,,,,,
47913327,1000,1000,1000,1000,,,,,
47915826,1000,1000,1000,1000,,,,,
47918325,1000,1000,1000,1000,,,,,
47920824,1000,1000,1000,1000,,,,,
47923323,1000,1000,1000,1000,,,,,
47925822,1000,1000,1000,1000,,,,,
47928321,1000,1000,1000,1000,,,,,
47930820,1000,1000,1000,1000,,,,,
47933319,1000,1000,1000,1000,,,,,
47935818,1000,1000,1000,1000,,,,,
47938317,1000,1000,1000,1000,,,,,
47940816,1000,1000,1000,1000,,,,,
47943315,1000,1000,1000,1000,,,,,
47945814,1000,1000,1000,1000,,,,,
47948313,1000,1000,1000,1000,,,,,
47950812,1000,1000,1000,1000,,,,,
47953311,1000,1000,1000,1000,,,,,
47955810,1000,1000,1000,1000,,,,,
47958309,1000,1000,1000,1000,,,,,
47960808,1000,1000,1000,1000,,,,,
47963307,1000,1000,1000,1000,,,,,
47965806,1000,1000,1000,1000,,,,,
47968305,1000,1000,1000,1000,,,,,
47970804,1000,1000,1000,1000,,,,,
47973303,1000,1000,1000,1000,,,,,
47975802,1000,1000,1000,1000,,,,,
47978301,1000,1000,1000,1000,,,,,
47980800,1000,1000,1000,1000,,,,,
47983299,1000,1000,1000,1000,,,,,
47985798,1000,1000,1000,1000,,,,,
47988297,1000,1000,1000,1000,,,,,
47990796,1000,1000,1000,1000,,,,,
47993295,1000,1000,1000,1000,,,,,
47995794,1000,1000,1000,1000,,,,,
47998293,1000,1000,1000,1000,,,,,
48000792,1000,1000,1000,1000,,,,,
48003291,1000,1000,1000,1000,,,,,
48005790,1000,1000,1000,1000,,,,,
48008289,1000,1000,1000,1000,,,,,
48010788,1000,1000,1000,1000,,,,,
48013287,1000,1000,1000,1000,,,,,
48015786,1000,1000,1000,1000,,,,,
48018285,1000,1000,1000,1000,,,,,
48020784,1000,1000,1000,1000,,,,,
48023283,1000,1000,1000,1000,,,,,
48025782,1000,1000,1000,1000,,,,,
48028281,1000,1000,1000,1000,,,,,
48030780,1000,1000,1000,1000,,,,,
48033279,1000,1000,1000,1000,,,,,
48035778,1000,1000,1000,1000,,,,,
48038277,1000,1000,1000,1000,,,,,
48040776,1000,1000,1000,1000,,,,,
48043275,1000,1000,1000,1000,,,,,
48045774,1000,1000,1000,1000,,,,,
48048273,1000,1000,1000,1000,,,,,
48050772,1000,1000,1000,1000,,,,,
48053271,1000,1000,1000,1000,,,,,
48055770,1000,1000,1000,1000,,,,,
48058269,1000,1000,1000,1000,,,,,
48060768,1000,1000,1000,1000,,,,,
48063267,1000,1000,1000,1000,,,,,
48065766,1000,1000,1000,1000,,,,,
48068265,1000,1000,1000,1000,,,,,
48070764,1000,1000,1000,1000,,,,,
48073263,1000,1000,1000,1000,,,,,
48075762,1000,1000,1000,1000,,,,,
48078261,1000,1000,1000,1000,,,,,
48080760,1000,1000,1000,1000,,,,,
48083259,1000,1000,1000,1000,,,,,
48085758,1000,1000,1000,1000,,,,,
48088257,1000,1000,1000,1000,,,,,
48090756,1000,1000,1000,1000,,,,,
48093255,1000,1000,1000,1000,,,,,
48095754,1000,1000,1000,1000,,,,,
48098253,1000,1000,1000,1000,,,,,
48100752,1000,1000,1000,1000,,,,,
48103251,1000,1000,1000,1000,,,,,
48105750,1000,1000,1000,1000,,,,,
48108249,1000,1000,1000,1000,,,,,
48110748,1000,1000,1000,1000,,,,,
48113247,1000,1000,1000,1000,,,,,
48115746,1000,1000,1000,1000,,,,,
48118245,1000,1000,1000,1000,,,,,
48120744,1000,1000,1000,1000,,,,,
48123243,1000,1000,1000,1000,,,,,
48125742,1001,1001,1001,1001,,,,,
48128241,1002,1002,1002,1002,,,,,
48130740,1003,1003,1003,1003,,,,,
48133239,1003,1003,1003,1003,,,,,
48135738,1004,1004,1004,1004,,,,,
48138237,1005,1005,1005,1005,,,,,
48140736,1006,1006,1006,1006,,,,,
48143235,1006,1006,1006,1006,,,,,
48145734,1007,1007,1007,1007,,,,,
48148233,1008,1008,1008,1008,,,,,
48150732,1009,1009,1009,1009,,,,,
48153231,1009,1009,1009,1009,,,,,
48155730,1010,1010,1010,1010,,,,,
48158229,1011,1011,1011,1011,,,,,
48160728,1012,1012,1012,1012,,,,,
48163227,1012,1012,1012,1012,,,,,
48165726,1013,1013,1013,1013,,,,,
48168225,1014,1014,1014,1014,,,,,
48170724,1015,1015,1015,1015,,,,,
48173223,1015,1015,1015,1015,,,,,
48175722,1016,1016,1016,1016,,,,,
48178221,1017,1017,1017,1017,,,,,
48180720,1018,1018,1018,1018,,,,,
48183219,1018,1018,1018,1018,,,,,
48185718,1019,1019,1019,1019,,,,,
48188217,1020,1020,1020,1020,,,,,
48190716,1021,1021,1021,1021,,,,,
48193215,1021,1021,1021,1021,,,,,
48195714,1022,1022,1022,1022,,,,,
48198213,1023,1023,1023,1023,,,,,
48200712,1024,1024,1024,1024,,,,,
48203211,1024,1024,1024,1024,,,,,
48205710,1025,1025,1025,1025,,,,,
48208209,1026,1026,1026,1026,,,,,
48210708,1027,1027,1027,1027,,,,,
48213207,1027,1027,1027,1027,,,,,
48215706,1028,1028,1028,1028,,,,,
48218205,1029,1029,1029,1029,,,,,
48220704,1030,1030,1030,1030,,,,,
48223203,1030,1030,1030,1030,,,,,
48225702,1031,1031,1031,1031,,,,,
48228201,1032,1032,1032,1032,,,,,
48230700,1033,1033,1033,1033,,,,,
48233199,1033,1033,1033,1033,,,,,
48235698,1034,1034,1034,1034,,,,,
48238197,1035,1035,1035,1035,,,,,
48240696,1036,1036,1036,1036,,,,,
48243195,1036,1036,1036,1036,,,,,
48245694,1037,1037,1037,1037,,,,,
48248193,1038,1038,1038,1038,,,,,
48250692,1039,1039,1039,1039,,,,,
48253191,1039,1039,1039,1039,,,,,
48255690,1040,1040,1040,1040,,,,,
48258189,1041,1041,1041,1041,,,,,
48260688,1042,1042,1042,1042,,,,,
48263187,1042,1042,1042,1042,,,,,
48265686,1043,1043,1043,1043,,,,,
48268185,1044,1044,1044,1044,,,,,
48270684,1045,1045,1045,1045,,,,,
48273183,1045,1045,1045,1045,,,,,
48275682,1046,1046,1046,1046,,,,,
48278181,1047,1047,1047,1047,,,,,
48280680,1048,1048,1048,1048,,,,,
48283179,1048,1048,1048,1048,,,,,
48285678,1049,1049,1049,1049,,,,,
48288177,1050,1050,1050,1050,,,,,
48290676,1051,1051,1051,1051,,,,,
48293175,1051,1051,1051,1051,,,,,
48295674,1052,1052,1052,1052,,,,,
48298173,1053,1053,1053,1053,,,,,
48300672,1054,1054,1054,1054,,,,,
48303171,1054,1054,1054,1054,,,,,
48305670,1055,1055,1055,1055,,,,,
48308169,1056,1056,1056,1056,,,,,
48310668,1057,1057,1057,1057,,,,,
48313167,1057,1057,1057,1057,,,,,
48315666,1058,1058,1058,1058,,,,,
48318165,1059,1059,1059,1059,,,,,
48320664,1060,1060,1060,1060,,,,,
48323163,1060,1060,1060,1060,,,,,
48325662,1061,1061,1061,1061,,,,,
48328161,1062,1062,1062,1062,,,,,
48330660,1063,1063,1063,1063,,,,,
48333159,1063,1063,1063,1063,,,,,
48335658,1064,1064,1064,1064,,,,,
48338157,1065,1065,1065,1065,,,,,
48340656,1066,1066,1066,1066,,,,,
48343155,1066,1066,1066,1066,,,,,
48345654,1067,1067,1067,1067,,,,,
48348986,1068,1068,1068,1068,,,,,
48351485,1069,1069,1069,1069,,,,,
48353984,1069,1069,1069,1069,,,,,
48356483,1070,1070,1070,1070,,,,,
48358982,1071,1071,1071,1071,,,,,
48361481,1072,1072,1072,1072,,,,,
48363980,1072,1072,1072,1072,,,,,
48366479,1073,1073,1073,1073,,,,,
48368978,1074,1074,1074,1074,,,,,
48371477,1075,1075,1075,1075,,,,,
48373976,1075,1075,1075,1075,,,,,
48376475,1076,1076,1076,1076,,,,,
48378974,1077,1077,1077,1077,,,,,
48381473,1078,1078,1078,1078,,,,,
48383972,1078,1078,1078,1078,,,,,
48386471,1079,1079,1079,1079,,,,,
48388970,1080,1080,1080,1080,,,,,
48391469,1081,1081,1081,1081,,,,,
48393968,1081,1081,1081,1081,,,,,
48396467,1082,1082,1082,1082,,,,,
48398966,1083,1083,1083,1083,,,,,
48401465,1084,1084,1084,1084,,,,,
48403964,1084,1084,1084,1084,,,,,
48406463,1085,1085,1085,1085,,,,,
48408962,1086,1086,1086,1086,,,,,
48411461,1087,1087,1087,1087,,,,,
48413960,1087,1087,1087,1087,,,,,
48416459,1088,1088,1088,1088,,,,,
48418958,1089,1089,1089,1089,,,,,
48421457,1090,1090,1090,1090,,,,,
48423956,1090,1090,1090,1090,,,,,
48426455,1091,1091,1091,1091,,,,,
48428954,1092,1092,1092,1092,,,,,
48431453,1093,1093,1093,1093,,,,,
48433952,1093,1093,1093,1093,,,,,
48436451,1094,1094,1094,1094,,,,,
48438950,1095,1095,1095,1095,,,,,
48441449,1096,1096,1096,1096,,,,,
48443948,1096,1096,1096,1096,,,,,
48446447,1097,1097,1097,1097,,,,,
48448946,1098,1098,1098,1098,,,,,
48451445,1099,1099,1099,1099,,,,,
48453944,1099,1099,1099,1099,,,,,
48456443,1100,1100,1100,1100,,,,,
48458942,1101,1101,1101,1101,,,,,
48461441,1101,1101,1101,1101,,,,,
48463940,1102,1102,1102,1102,,,,,
48466439,1103,1103,1103,1103,,,,,
48468938,1104,1104,1104,1104,,,,,
48471437,1104,1104,1104,1104,,,,,
48473936,1105,1105,1105,1105,,,,,
48476435,1106,1106,1106,1106,,,,,
48478934,1107,1107,1107,1107,,,,,
48481433,1107,1107,1107,1107,,,,,
48483932,1108,1108,1108,1108,,,,,
48486431,1109,1109,1109,1109,,,,,
48488930,1110,1110,1110,1110,,,,,
48491429,1110,1110,1110,1110,,,,,
48493928,1111,1111,1111,1111,,,,,
48496427,1112,1112,1112,1112,,,,,
48498926,1113,1113,1113,1113,,,,,
48501425,1113,1113,1113,1113,,,,,
48503924,1114,1114,1114,1114,,,,,
48506423,1115,1115,1115,1115,,,,,
48508922,1116,1116,1116,1116,,,,,
48511421,1116,1116,1116,1116,,,,,
48513920,1117,1117,1117,1117,,,,,
48516419,1118,1118,1118,1118,,,,,
48518918,1119,1119,1119,1119,,,,,
48521417,1119,1119,1119,1119,,,,,
48523916,1120,1120,1120,1120,,,,,
48526415,1121,1121,1121,1121,,,,,
48528914,1122,1122,1122,1122,,,,,
48531413,1122,1122,1122,1122,,,,,
48533912,1123,1123,1123,1123,,,,,
48536411,1124,1124,1124,1124,,,,,
48538910,1125,1125,1125,1125,,,,,
48541409,1125,1125,1125,1125,,,,,
48543908,1126,1126,1126,1126,,,,,
48546407,1127,1127,1127,1127,,,,,
48548906,1128,1128,1128,1128,,,,,
48551405,1128,1128,1128,1128,,,,,
48553904,1129,1129,1129,1129,,,,,
48556403,1130,1130,1130,1130,,,,,
48558902,1131,1131,1131,1131,,,,,
48561401,1131,1131,1131,1131,,,,,
48563900,1132,1132,1132,1132,,,,,
48566399,1133,1133,1133,1133,,,,,
48568898,1134,1134,1134,1134,,,,,
48571397,1134,1134,1134,1134,,,,,
48573896,1135,1135,1135,1135,,,,,
48576395,1136,1136,1136,1136,,,,,
48578894,1137,1137,1137,1137,,,,,
48581393,1137,1137,1137,1137,,,,,
48583892,1138,1138,1138,1138,,,,,
48586391,1139,1139,1139,1139,,,,,
48588890,1140,1140,1140,1140,,,,,
48591389,1140,1140,1140,1140,,,,,
48593888,1141,1141,1141,1141,,,,,
48596387,1142,1142,1142,1142,,,,,
48598886,1143,1143,1143,1143,,,,,
48601385,1143,1143,1143,1143,,,,,
48603884,1144,1144,1144,1144,,,,,
48606383,1145,1145,1145,1145,,,,,
48608882,1146,1146,1146,1146,,,,,
48611381,1146,1146,1146,1146,,,,,
48613880,1147,1147,1147,1147,,,,,
48616379,1148,1148,1148,1148,,,,,
48618878,1149,1149,1149,1149,,,,,
48621377,1149,1149,1149,1149,,,,,
48623876,1150,1150,1150,1150,,,,,
48626375,1161,1154,1155,1161,,,,,
48628874,1169,1162,1163,1169,,,,,
48631373,1177,1170,1171,1177,,,,,
48633872,1184,1178,1179,1185,,,,,
48636371,1192,1186,1186,1192,,,,,
48638870,1199,1193,1194,1200,,,,,
48641369,1207,1201,1201,1207,,,,,
48643868,1214,1208,1208,1214,,,,,
48646367,1221,1215,1216,1221,,,,,
48648866,1228,1222,1223,1228,,,,,
48651365,1235,1229,1230,1235,,,,,
48653864,1242,1236,1236,1242,,,,,
48656363,1248,1243,1243,1249,,,,,
48658862,1255,1250,1250,1255,,,,,
48661361,1262,1256,1256,1262,,,,,
48663860,1268,1263,1263,1268,,,,,
48666359,1274,1269,1269,1275,,,,,
48668858,1281,1275,1276,1281,,,,,
48671357,1287,1282,1282,1287,,,,,
48673856,1293,1288,1288,1293,,,,,
48676355,1299,1294,1294,1299,,,,,
48678854,1305,1300,1300,1305,,,,,
48681353,1311,1306,1306,1311,,,,,
48683852,1317,1312,1312,1317,,,,,
48686351,1323,1318,1318,1323,,,,,
48688850,1329,1324,1324,1329,,,,,
48691349,1334,1329,1330,1334,,,,,
48693848,1340,1335,1335,1340,,,,,
48696347,1346,1341,1341,1346,,,,,
48698846,1351,1346,1347,1351,,,,,
48701345,1357,1352,1352,1357,,,,,
48703844,1362,1357,1358,1362,,,,,
48706343,1367,1363,1363,1368,,,,,
48708842,1373,1368,1368,1373,,,,,
48711341,1378,1373,1374,1378,,,,,
48713840,1383,1379,1379,1384,,,,,
48716339,1389,1384,1384,1389,,,,,
48718838,1394,1389,1389,1394,,,,,
48721337,1399,1394,1395,1399,,,,,
48723836,1404,1399,1400,1404,,,,,
48726335,1409,1405,1405,1409,,,,,
48728834,1414,1410,1410,1414,,,,,
48731333,1419,1415,1415,1419,,,,,
48733832,1424,1420,1420,1424,,,,,
48736331,1429,1424,1425,1429,,,,,
48738830,1434,1429,1430,1434,,,,,
48741329,1439,1434,1434,1439,,,,,
48743828,1443,1439,1439,1444,,,,,
48746327,1448,1444,1444,1448,,,,,
48748826,1453,1449,1449,1453,,,,,
48751325,1458,1453,1454,1458,,,,,
48753824,1462,1458,1458,1463,,,,,
48756323,1467,1463,1463,1467,,,,,
48758822,1472,1467,1468,1472,,,,,
48761321,1476,1472,1472,1476,,,,,
48763820,1481,1477,1477,1481,,,,,
48766319,1485,1481,1481,1485,,,,,
48768818,1490,1486,1486,1490,,,,,
48771317,1494,1490,1490,1494,,,,,
48773816,1499,1495,1495,1499,,,,,
48776315,1503,1499,1499,1503,,,,,
48778814,1507,1503,1504,1508,,,,,
48781313,1512,1508,1508,1512,,,,,
48783812,1516,1512,1512,1516,,,,,
48786311,1520,1517,1517,1521,,,,,
48788810,1525,1521,1521,1525,,,,,
48791309,1529,1525,1525,1529,,,,,
48793808,1533,1529,1529,1534,,,,,
48796307,1537,1534,1534,1538,,,,,
48798806,1542,1538,1538,1542,,,,,
48801305,1546,1542,1542,1546,,,,,
48803804,1550,1546,1546,1550,,,,,
48806303,1554,1550,1550,1555,,,,,
48808802,1558,1555,1555,1559,,,,,
48811301,1562,1559,1559,1563,,,,,
48813800,1567,1563,1563,1567,,,,,
48816299,1571,1567,1567,1571,,,,,
48818798,1575,1571,1571,1575,,,,,
48821297,1579,1575,1575,1579,,,,,
48823796,1583,1579,1579,1583,,,,,
48826295,1587,1583,1583,1587,,,,,
48828794,1591,1587,1587,1591,,,,,
48831293,1595,1591,1591,1595,,,,,
48833792,1598,1595,1595,1599,,,,,
48836291,1602,1599,1599,1603,,,,,
48838790,1606,1602,1602,1607,,,,,
48841289,1610,1606,1606,1610,,,,,
48843788,1614,1610,1610,1614,,,,,
48846287,1618,1614,1614,1618,,,,,
48848786,1622,1618,1618,1622,,,,,
48851285,1626,1622,1622,1626,,,,,
48853784,1629,1625,1625,1630,,,,,
48856283,1633,1629,1629,1633,,,,,
48858782,1637,1633,1633,1637,,,,,
48861281,1641,1637,1637,1641,,,,,
48863780,1644,1640,1640,1645,,,,,
48866279,1648,1644,1644,1648,,,,,
48868778,1652,1648,1648,1652,,,,,
48871277,1656,1651,1652,1656,,,,,
48873776,1659,1655,1655,1659,,,,,
48876275,1663,1659,1659,1663,,,,,
48878774,1667,1662,1663,1667,,,,,
48881273,1670,1666,1666,1670,,,,,
48883772,1674,1669,1670,1674,,,,,
48886271,1677,1673,1673,1677,,,,,
48888770,1681,1677,1677,1681,,,,,
48891269,1684,1680,1681,1685,,,,,
48893768,1688,1684,1684,1688,,,,,
48896267,1692,1687,1688,1692,,,,,
48898766,1695,1691,1691,1695,,,,,
48901265,1699,1694,1695,1699,,,,,
48903764,1702,1698,1698,1702,,,,,
48906263,1705,1701,1702,1706,,,,,
48908762,1709,1705,1705,1709,,,,,
48911261,1712,1708,1709,1713,,,,,
48913760,1716,1712,1712,1716,,,,,
48916259,1719,1715,1715,1719,,,,,
48918758,1723,1719,1719,1723,,,,,
48921257,1726,1722,1722,1726,,,,,
48923756,1729,1726,1726,1730,,,,,
48926255,1733,1729,1729,1733,,,,,
48928754,1736,1732,1732,1736,,,,,
48931253,1740,1736,1736,1740,,,,,
48933752,1743,1739,1739,1743,,,,,
48936251,1746,1742,1742,1747,,,,,
48938750,1750,1746,1746,1750,,,,,
48941249,1753,1749,1749,1753,,,,,
48943748,1756,1752,1752,1756,,,,,
48946247,1760,1756,1756,1760,,,,,
48948746,1763,1759,1759,1763,,,,,
48951245,1766,1762,1762,1766,,,,,
48953744,1769,1765,1766,1770,,,,,
48956243,1773,1769,1769,1773,,,,,
48958742,1776,1772,1772,1776,,,,,
48961241,1779,1775,1775,1779,,,,,
48963740,1782,1778,1779,1783,,,,,
48966239,1786,1782,1782,1786,,,,,
48968738,1789,1785,1785,1789,,,,,
48971237,1792,1788,1788,1792,,,,,
48973736,1795,1791,1791,1795,,,,,
48976235,1798,1794,1795,1798,,,,,
48978734,1802,1798,1798,1802,,,,,
48981233,1805,1801,1801,1805,,,,,
48983732,1808,1804,1804,1808,,,,,
48986231,1811,1807,1807,1811,,,,,
48988730,1814,1810,1810,1814,,,,,
48991229,1817,1813,1813,1817,,,,,
48993728,1820,1816,1817,1820,,,,,
48996227,1823,1819,1820,1823,,,,,
48998726,1826,1823,1823,1827,,,,,
49001225,1830,1826,1826,1830,,,,,
49003724,1833,1829,1829,1833,,,,,
49006223,1836,1832,1832,1836,,,,,
49008722,1839,1835,1835,1839,,,,,
49011221,1842,1838,1838,1842,,,,,
49013720,1845,1841,1841,1845,,,,,
49016219,1848,1844,1844,1848,,,,,
49018718,1851,1847,1847,1851,,,,,
49021217,1854,1850,1850,1854,,,,,
49023716,1857,1853,1853,1857,,,,,
49026215,1860,1856,1856,1860,,,,,
49028714,1862,1858,1858,1862,,,,,
49031213,1860,1857,1857,1860,,,,,
49033712,1859,1855,1856,1859,,,,,
49036211,1858,1854,1854,1858,,,,,
49038710,1856,1853,1853,1857,,,,,
49041209,1855,1852,1852,1855,,,,,
49043708,1854,1851,1851,1854,,,,,
49046207,1853,1850,1850,1853,,,,,
49048706,1852,1848,1849,1852,,,,,
49051205,1851,1848,1848,1851,,,,,
49053704,1850,1847,1847,1850,,,,,
49056203,1849,1846,1846,1850,,,,,
49058702,1849,1845,1845,1849,,,,,
49061201,1848,1844,1845,1848,,,,,
49063700,1848,1844,1844,1848,,,,,
49066199,1847,1843,1844,1847,,,,,
49068698,1847,1843,1843,1847,,,,,
49071197,1847,1843,1843,1847,,,,,
49073696,1846,1843,1843,1846,,,,,
49076195,1846,1842,1843,1846,,,,,
49078694,1846,1842,1843,1846,,,,,
49081193,1846,1842,1843,1846,,,,,
49083692,1846,1843,1843,1846,,,,,
49086191,1847,1843,1843,1847,,,,,
49088690,1847,1843,1843,1847,,,,,
49091189,1847,1843,1844,1847,,,,,
49093688,1848,1844,1844,1848,,,,,
49096187,1848,1844,1845,1848,,,,,
49098686,1849,1845,1845,1849,,,,,
49101185,1849,1845,1846,1849,,,,,
49103684,1850,1846,1846,1850,,,,,
49106183,1851,1846,1847,1851,,,,,
49108682,1851,1847,1848,1851,,,,,
49111181,1852,1848,1848,1852,,,,,
49113680,1853,1849,1849,1853,,,,,
49116179,1854,1850,1850,1854,,,,,
49118678,1855,1851,1851,1855,,,,,
49121177,1856,1851,1852,1856,,,,,
49123676,1857,1852,1853,1857,,,,,
49126175,1858,1853,1854,1857,,,,,
49128674,1859,1854,1855,1858,,,,,
49131173,1859,1855,1856,1859,,,,,
49133672,1860,1856,1857,1860,,,,,
49136171,1861,1857,1858,1861,,,,,
49138670,1861,1858,1858,1861,,,,,
49141169,1862,1859,1859,1862,,,,,
49143668,1862,1859,1859,1862,,,,,
49146167,1862,1859,1860,1862,,,,,
49148666,1862,1860,1860,1862,,,,,
49151165,1862,1859,1860,1862,,,,,
49153664,1862,1859,1860,1862,,,,,
49156163,1861,1859,1859,1861,,,,,
49158662,1861,1858,1858,1861,,,,,
49161161,1860,1857,1857,1860,,,,,
49163660,1859,1856,1856,1859,,,,,
49166159,1857,1855,1855,1858,,,,,
49168658,1856,1854,1854,1856,,,,,
49171157,1855,1852,1852,1855,,,,,
49173656,1853,1850,1851,1853,,,,,
49176155,1851,1849,1849,1851,,,,,
49178654,1849,1847,1847,1849,,,,,
49181153,1847,1844,1845,1847,,,,,
49183652,1845,1842,1843,1845,,,,,
49186151,1842,1840,1840,1842,,,,,
49188650,1840,1837,1838,1840,,,,,
49191149,1837,1835,1835,1837,,,,,
49193648,1834,1832,1832,1834,,,,,
49196147,1831,1829,1830,1831,,,,,
49198646,1829,1826,1827,1828,,,,,
49201145,1826,1823,1824,1826,,,,,
49203644,1823,1820,1821,1822,,,,,
49206143,1819,1817,1818,1819,,,,,
49208642,1816,1814,1815,1816,,,,,
49211141,1813,1811,1811,1813,,,,,
49213640,1810,1808,1808,1810,,,,,
49216139,1806,1805,1805,1806,,,,,
49218638,1803,1801,1802,1803,,,,,
49221137,1800,1798,1798,1800,,,,,
49223636,1796,1795,1795,1796,,,,,
49226135,1793,1791,1791,1793,,,,,
49228634,1789,1788,1788,1789,,,,,
49231133,1786,1784,1784,1786,,,,,
49233632,1782,1781,1781,1782,,,,,
49236131,1779,1777,1778,1779,,,,,
49238630,1775,1774,1774,1775,,,,,
49241129,1772,1770,1771,1772,,,,,
49243628,1768,1767,1767,1768,,,,,
49246127,1765,1764,1764,1765,,,,,
49248626,1761,1760,1761,1761,,,,,
49251125,1758,1757,1757,1758,,,,,
49253624,1755,1753,1754,1755,,,,,
49256123,1751,1750,1750,1751,,,,,
49258622,1748,1747,1747,1748,,,,,
49261121,1744,1743,1744,1744,,,,,
49263620,1741,1740,1740,1741,,,,,
