TimeUS,M1,M2,M3,M4,TimeUS,C1,C2,C3,C4
43485932,1000,1000,1000,1000,43528415,1000,1000,1000,1000
43488431,1000,1000,1000,1000,43628375,1000,1000,1000,1000
43490930,1000,1000,1000,1000,43728335,1000,1000,1000,1000
43493429,1000,1000,1000,1000,43828295,1000,1000,1000,1000
43495928,1000,1000,1000,1000,43928255,1000,1000,1000,1000
43498427,1000,1000,1000,1000,44028215,1000,1000,1000,1000
43500926,1000,1000,1000,1000,44128175,1000,1000,1000,1000
43503425,1000,1000,1000,1000,44228968,1000,1000,1000,1000
43505924,1000,1000,1000,1000,44328928,1000,1000,1000,1000
43508423,1000,1000,1000,1000,44428888,1000,1000,1000,1000
43510922,1000,1000,1000,1000,44528848,1000,1000,1000,1000
43513421,1000,1000,1000,1000,44628808,1000,1000,1000,1000
43515920,1000,1000,1000,1000,44728768,1000,1000,1000,1000
43518419,1000,1000,1000,1000,44828728,1000,1000,1000,1000
43520918,1000,1000,1000,1000,44928688,1000,1000,1000,1000
43523417,1000,1000,1000,1000,45028648,1000,1000,1000,1000
43525916,1000,1000,1000,1000,45128608,1000,1000,1000,1000
43528415,1000,1000,1000,1000,45228568,1000,1000,1000,1000
43530914,1000,1000,1000,1000,45328528,1000,1000,1000,1000
43533413,1000,1000,1000,1000,45428488,1000,1000,1000,1000
43535912,1000,1000,1000,1000,45528448,1012,1012,1012,1012
43538411,1000,1000,1000,1000,45628408,1042,1042,1042,1042
43540910,1000,1000,1000,1000,45728368,1072,1072,1072,1072
43543409,1000,1000,1000,1000,45828328,1102,1102,1102,1102
43545908,1000,1000,1000,1000,45928288,1132,1132,1132,1132
43548407,1000,1000,1000,1000,46028248,1268,1263,1263,1268
43550906,1000,1000,1000,1000,46128208,1481,1476,1477,1481
43553405,1000,1000,1000,1000,46228168,1644,1640,1641,1644
43555904,1000,1000,1000,1000,46328961,1782,1778,1779,1782
43558403,1000,1000,1000,1000,46428921,1899,1896,1896,1899
43560902,1000,1000,1000,1000,46528881,1878,1876,1876,1878
43563401,1000,1000,1000,1000,46628841,1753,1753,1753,1754
43565900,1000,1000,1000,1000,46728801,1654,1655,1655,1654
43568399,1000,1000,1000,1000,46828761,1623,1624,1625,1622
43570898,1000,1000,1000,1000,46928721,1628,1630,1630,1629
43573397,1000,1000,1000,1000,47028681,1637,1638,1638,1637
43575896,1000,1000,1000,1000,47128641,1637,1637,1636,1637
43578395,1000,1000,1000,1000,47228601,1629,1628,1628,1629
43580894,1000,1000,1000,1000,47328561,1620,1619,1619,1620
43583393,1000,1000,1000,1000,47428521,1599,1599,1590,1607
43585892,1000,1000,1000,1000,47528481,1594,1593,1585,1602
43588391,1000,1000,1000,1000,47628441,1594,1593,1589,1597
43590890,1000,1000,1000,1000,47728401,1597,1597,1597,1596
43593389,1000,1000,1000,1000,47828361,1602,1603,1605,1599
43595888,1000,1000,1000,1000,47928321,1594,1594,1601,1586
43598387,1000,1000,1000,1000,48028281,1574,1575,1594,1555
43600886,1000,1000,1000,1000,48128241,1564,1564,1577,1552
43603385,1000,1000,1000,1000,48228201,1553,1554,1554,1555
43605884,1000,1000,1000,1000,48328161,1544,1544,1534,1554
43608383,1000,1000,1000,1000,48428954,1537,1537,1524,1550
43610882,1000,1000,1000,1000,48528914,1532,1531,1521,1542
43613381,1000,1000,1000,1000,48628874,1527,1527,1522,1533
43615880,1000,1000,1000,1000,48728834,1527,1527,1526,1528
43618379,1000,1000,1000,1000,48828794,1529,1529,1531,1527
43620878,1000,1000,1000,1000,48928754,1533,1533,1536,1529
43623377,1000,1000,1000,1000,49028714,1537,1537,1541,1532
43625876,1000,1000,1000,1000,49128674,1540,1540,1544,1537
43628375,1000,1000,1000,1000,49228634,1544,1544,1546,1542
43630874,1000,1000,1000,1000,49328594,1547,1547,1547,1547
43633373,1000,1000,1000,1000,49428554,1549,1549,1548,1550
43635872,1000,1000,1000,1000,49528514,1552,1552,1550,1554
43638371,1000,1000,1000,1000,49628474,1550,1550,1558,1562
43640870,1000,1000,1000,1000,49728434,1552,1552,1561,1564
43643369,1000,1000,1000,1000,49828394,1555,1556,1564,1564
43645868,1000,1000,1000,1000,49928354,1559,1560,1564,1563
43648367,1000,1000,1000,1000,50028314,1562,1562,1564,1562
43650866,1000,1000,1000,1000,50128274,1566,1566,1564,1563
43653365,1000,1000,1000,1000,50228234,1568,1568,1564,1564
43655864,1000,1000,1000,1000,50328194,1571,1571,1565,1565
43658363,1000,1000,1000,1000,50428154,1571,1571,1565,1565
43660862,1000,1000,1000,1000,50528947,1573,1573,1566,1567
43663361,1000,1000,1000,1000,50628907,1574,1573,1568,1568
43665860,1000,1000,1000,1000,50728867,1574,1573,1569,1569
43668359,1000,1000,1000,1000,50828827,1573,1573,1570,1570
43670858,1000,1000,1000,1000,50928787,1572,1573,1572,1572
43673357,1000,1000,1000,1000,51028747,1573,1573,1574,1573
43675856,1000,1000,1000,1000,51128707,1573,1574,1576,1574
43678355,1000,1000,1000,1000,51228667,1574,1575,1577,1576
43680854,1000,1000,1000,1000,51328627,1574,1574,1577,1576
43683353,1000,1000,1000,1000,51428587,1575,1575,1578,1578
43685852,1000,1000,1000,1000,51528547,1575,1575,1576,1577
43688351,1000,1000,1000,1000,51628507,1575,1576,1577,1577
43690850,1000,1000,1000,1000,51728467,1575,1575,1576,1576
43693349,1000,1000,1000,1000,51828427,1577,1577,1577,1576
43695848,1000,1000,1000,1000,51928387,1577,1577,1577,1577
43698347,1000,1000,1000,1000,52028347,1578,1578,1577,1577
43700846,1000,1000,1000,1000,52128307,1578,1578,1577,1577
43703345,1000,1000,1000,1000,52228267,1578,1577,1576,1576
43705844,1000,1000,1000,1000,52328227,1578,1578,1577,1577
43708343,1000,1000,1000,1000,52428187,1578,1578,1577,1577
43710842,1000,1000,1000,1000,52528980,1577,1578,1577,1577
43713341,1000,1000,1000,1000,52628940,1577,1577,1577,1577
43715840,1000,1000,1000,1000,52728900,1577,1577,1576,1577
43718339,1000,1000,1000,1000,52828860,1577,1577,1577,1577
43720838,1000,1000,1000,1000,52928820,1577,1577,1578,1577
43723337,1000,1000,1000,1000,53028780,1579,1578,1579,1579
43725836,1000,1000,1000,1000,53128740,1579,1578,1579,1579
43728335,1000,1000,1000,1000,53228700,1579,1579,1580,1580
43730834,1000,1000,1000,1000,53328660,1580,1580,1580,1581
43733333,1000,1000,1000,1000,53428620,1580,1580,1580,1580
43735832,1000,1000,1000,1000,53528580,1580,1580,1580,1580
43738331,1000,1000,1000,1000,53628540,1579,1579,1579,1579
43740830,1000,1000,1000,1000,53728500,1579,1578,1579,1578
43743329,1000,1000,1000,1000,53828460,1579,1579,1579,1580
43745828,1000,1000,1000,1000,53928420,1579,1579,1579,1579
43748327,1000,1000,1000,1000,54028380,1579,1579,1579,1579
43750826,1000,1000,1000,1000,54128340,1578,1578,1578,1578
43753325,1000,1000,1000,1000,54228300,1579,1579,1579,1579
43755824,1000,1000,1000,1000,54328260,1579,1580,1579,1579
43758323,1000,1000,1000,1000,54428220,1580,1580,1580,1580
43760822,1000,1000,1000,1000,54528180,1580,1580,1580,1580
43763321,1000,1000,1000,1000,54628973,1580,1580,1580,1580
43765820,1000,1000,1000,1000,54728933,1581,1581,1581,1581
43768319,1000,1000,1000,1000,54828893,1580,1581,1581,1581
43770818,1000,1000,1000,1000,54928853,1581,1581,1581,1581
43773317,1000,1000,1000,1000,55028813,1581,1582,1581,1581
43775816,1000,1000,1000,1000,55128773,1581,1582,1581,1582
43778315,1000,1000,1000,1000,55228733,1580,1581,1581,1581
43780814,1000,1000,1000,1000,55328693,1581,1580,1581,1580
43783313,1000,1000,1000,1000,55428653,1582,1582,1582,1582
43785812,1000,1000,1000,1000,55528613,1581,1581,1581,1581
43788311,1000,1000,1000,1000,55628573,1581,1581,1581,1581
43790810,1000,1000,1000,1000,55728533,1581,1580,1581,1581
43793309,1000,1000,1000,1000,55828493,1582,1582,1587,1576
43795808,1000,1000,1000,1000,55928453,1580,1582,1587,1572
43798307,1000,1000,1000,1000,56028413,1579,1582,1579,1573
43800806,1000,1000,1000,1000,56128373,1577,1580,1570,1572
43803305,1000,1000,1000,1000,56228333,1577,1579,1563,1570
43805804,1000,1000,1000,1000,56328293,1577,1578,1558,1565
43808303,1000,1000,1000,1000,56428253,1579,1578,1556,1560
43810802,1000,1000,1000,1000,56528213,1579,1577,1555,1557
43813301,1000,1000,1000,1000,56628173,1579,1578,1556,1555
43815800,1000,1000,1000,1000,56728966,1579,1577,1556,1554
43818299,1000,1000,1000,1000,56828926,1578,1578,1557,1554
43820798,1000,1000,1000,1000,56928886,1576,1577,1556,1555
43823297,1000,1000,1000,1000,57028846,1576,1577,1556,1555
43825796,1000,1000,1000,1000,57128806,1574,1576,1553,1554
43828295,1000,1000,1000,1000,57228766,1575,1577,1552,1553
43830794,1000,1000,1000,1000,57328726,1577,1577,1551,1552
43833293,1000,1000,1000,1000,57428686,1577,1578,1549,1549
43835792,1000,1000,1000,1000,57528646,1580,1581,1547,1547
43838291,1000,1000,1000,1000,57628606,1582,1583,1544,1543
43840790,1000,1000,1000,1000,57728566,1585,1586,1541,1541
43843289,1000,1000,1000,1000,57828526,1589,1589,1539,1538
43845788,1000,1000,1000,1000,57928486,1591,1592,1536,1536
43848287,1000,1000,1000,1000,58028446,1594,1594,1535,1536
43850786,1000,1000,1000,1000,58128406,1596,1595,1535,1536
43853285,1000,1000,1000,1000,58228366,1595,1594,1535,1537
43855784,1000,1000,1000,1000,58328326,1594,1593,1537,1540
43858283,1000,1000,1000,1000,58428286,1591,1590,1542,1545
43860782,1000,1000,1000,1000,58528246,1586,1584,1549,1552
43863281,1000,1000,1000,1000,58628206,1579,1576,1558,1560
43865780,1000,1000,1000,1000,58728166,1568,1565,1568,1570
43868279,1000,1000,1000,1000,58828959,1558,1554,1580,1582
43870778,1000,1000,1000,1000,58928919,1547,1543,1592,1593
43873277,1000,1000,1000,1000,59028879,1538,1536,1603,1603
43875776,1000,1000,1000,1000,59128839,1531,1532,1611,1610
43878275,1000,1000,1000,1000,59228799,1529,1530,1614,1613
43880774,1000,1000,1000,1000,59328759,1531,1533,1615,1615
43883273,1000,1000,1000,1000,59428719,1535,1538,1613,1612
43885772,1000,1000,1000,1000,59528679,1541,1543,1606,1606
43888271,1000,1000,1000,1000,59628639,1549,1551,1599,1600
43890770,1000,1000,1000,1000,59728599,1558,1558,1591,1591
43893269,1000,1000,1000,1000,59828559,1567,1567,1584,1584
43895768,1000,1000,1000,1000,59928519,1575,1574,1578,1577
43898267,1000,1000,1000,1000,60028479,1581,1580,1573,1572
43900766,1000,1000,1000,1000,60128439,1584,1583,1568,1568
43903265,1000,1000,1000,1000,60228399,1587,1586,1567,1566
43905764,1000,1000,1000,1000,60328359,1588,1586,1566,1566
43908263,1000,1000,1000,1000,60428319,1587,1586,1567,1567
43910762,1000,1000,1000,1000,60528279,1585,1585,1570,1571
43913261,1000,1000,1000,1000,60628239,1583,1583,1573,1573
43915760,1000,1000,1000,1000,60728199,1580,1580,1576,1576
43918259,1000,1000,1000,1000,60828159,1577,1577,1579,1578
43920758,1000,1000,1000,1000,60928952,1574,1575,1580,1580
43923257,1000,1000,1000,1000,61028912,1573,1573,1582,1582
43925756,1000,1000,1000,1000,61128872,1572,1572,1583,1583
43928255,1000,1000,1000,1000,61228832,1571,1572,1583,1583
43930754,1000,1000,1000,1000,61328792,1572,1573,1583,1583
43933253,1000,1000,1000,1000,61428752,1573,1574,1582,1582
43935752,1000,1000,1000,1000,61528712,1574,1575,1581,1581
43938251,1000,1000,1000,1000,61628672,1577,1577,1581,1580
43940750,1000,1000,1000,1000,61728632,1578,1577,1578,1579
43943249,1000,1000,1000,1000,61828592,1578,1578,1577,1577
43945748,1000,1000,1000,1000,61928552,1580,1580,1577,1577
43948247,1000,1000,1000,1000,62028512,1581,1581,1577,1577
43950746,1000,1000,1000,1000,62128472,1581,1581,1577,1577
43953245,1000,1000,1000,1000,62228432,1581,1581,1577,1577
43955744,1000,1000,1000,1000,62328392,1581,1581,1578,1577
43958243,1000,1000,1000,1000,62428352,1582,1582,1579,1579
43960742,1000,1000,1000,1000,62528312,1582,1582,1580,1580
43963241,1000,1000,1000,1000,62628272,1581,1581,1579,1579
43965740,1000,1000,1000,1000,62728232,1580,1580,1580,1580
43968239,1000,1000,1000,1000,62828192,1580,1580,1581,1581
43970738,1000,1000,1000,1000,62928985,1579,1580,1581,1581
43973237,1000,1000,1000,1000,63028945,1579,1580,1581,1581
43975736,1000,1000,1000,1000,63128905,1581,1580,1582,1582
43978235,1000,1000,1000,1000,63228865,1580,1580,1582,1582
43980734,1000,1000,1000,1000,63328825,1580,1580,1581,1581
43983233,1000,1000,1000,1000,63428785,1579,1580,1580,1580
43985732,1000,1000,1000,1000,63528745,1580,1580,1581,1581
43988231,1000,1000,1000,1000,63628705,1581,1581,1581,1581
43990730,1000,1000,1000,1000,63728665,1582,1581,1581,1581
43993229,1000,1000,1000,1000,63828625,1581,1581,1584,1576
43995728,1000,1000,1000,1000,63928585,1580,1583,1586,1571
43998227,1000,1000,1000,1000,64028545,1580,1584,1579,1571
44000726,1000,1000,1000,1000,64128505,1579,1582,1570,1570
44003225,1000,1000,1000,1000,64228465,1578,1580,1561,1567
44005724,1000,1000,1000,1000,64328425,1578,1579,1554,1562
44008223,1000,1000,1000,1000,64428385,1580,1579,1553,1558
44010722,1000,1000,1000,1000,64528345,1582,1580,1553,1555
44013221,1000,1000,1000,1000,64628305,1581,1579,1553,1552
44015720,1000,1000,1000,1000,64728265,1581,1579,1554,1552
44018219,1000,1000,1000,1000,64828225,1579,1579,1554,1552
44020718,1000,1000,1000,1000,64928185,1577,1579,1555,1553
44023217,1000,1000,1000,1000,65028978,1577,1579,1555,1554
44025716,1000,1000,1000,1000,65128938,1576,1578,1554,1553
44028215,1000,1000,1000,1000,65228898,1576,1578,1552,1553
44030714,1000,1000,1000,1000,65328858,1577,1578,1550,1551
44033213,1000,1000,1000,1000,65428818,1578,1580,1549,1549
44035712,1000,1000,1000,1000,65528778,1580,1581,1547,1547
44038211,1000,1000,1000,1000,65628738,1582,1583,1545,1544
44040710,1000,1000,1000,1000,65728698,1585,1585,1543,1542
44043209,1000,1000,1000,1000,65828658,1588,1588,1542,1542
44045708,1000,1000,1000,1000,65928618,1589,1590,1540,1540
44048207,1000,1000,1000,1000,66028578,1591,1593,1539,1540
44050706,1000,1000,1000,1000,66128538,1593,1593,1539,1541
44053205,1000,1000,1000,1000,66228498,1592,1591,1541,1543
44055704,1000,1000,1000,1000,66328458,1591,1588,1546,1549
44058203,1000,1000,1000,1000,66428418,1585,1582,1553,1555
44060702,1000,1000,1000,1000,66528378,1578,1574,1563,1565
44063201,1000,1000,1000,1000,66628338,1570,1566,1574,1576
44065700,1000,1000,1000,1000,66728298,1559,1556,1584,1585
44068199,1000,1000,1000,1000,66828258,1549,1548,1594,1595
44070698,1000,1000,1000,1000,66928218,1542,1542,1603,1603
44073197,1000,1000,1000,1000,67028178,1536,1537,1607,1606
44075696,1000,1000,1000,1000,67128971,1536,1536,1610,1609
44078195,1000,1000,1000,1000,67228931,1537,1539,1610,1609
44080694,1000,1000,1000,1000,67328891,1540,1543,1606,1606
44083193,1000,1000,1000,1000,67428851,1547,1549,1602,1601
44085692,1000,1000,1000,1000,67528811,1555,1555,1596,1595
44088191,1000,1000,1000,1000,67628771,1562,1562,1588,1588
44090690,1000,1000,1000,1000,67728731,1569,1569,1582,1582
44093189,1000,1000,1000,1000,67828691,1575,1574,1576,1576
44095688,1000,1000,1000,1000,67928651,1581,1580,1573,1573
44098187,1000,1000,1000,1000,68028611,1584,1583,1570,1570
44100686,1000,1000,1000,1000,68128571,1585,1584,1568,1569
44103185,1000,1000,1000,1000,68228531,1586,1585,1569,1569
44105684,1000,1000,1000,1000,68328491,1586,1585,1571,1571
44108183,1000,1000,1000,1000,68428451,1584,1584,1573,1573
44110682,1000,1000,1000,1000,68528411,1582,1582,1576,1575
44113181,1000,1000,1000,1000,68628371,1580,1579,1578,1577
44115680,1000,1000,1000,1000,68728331,1577,1577,1580,1579
44118179,1000,1000,1000,1000,68828291,1576,1577,1582,1582
44120678,1000,1000,1000,1000,68928251,1574,1575,1583,1583
44123177,1000,1000,1000,1000,69028211,1574,1575,1584,1584
44125676,1000,1000,1000,1000,69128171,1573,1574,1583,1583
44128175,1000,1000,1000,1000,69228964,1574,1574,1583,1583
44130674,1000,1000,1000,1000,69328924,1575,1575,1582,1582
44133173,1000,1000,1000,1000,69428884,1576,1577,1582,1582
44135672,1000,1000,1000,1000,69528844,1576,1577,1579,1579
44138171,1000,1000,1000,1000,69628804,1578,1578,1579,1579
44140670,1000,1000,1000,1000,69728764,1579,1579,1578,1578
44143169,1000,1000,1000,1000,69828724,1580,1580,1578,1578
44145668,1000,1000,1000,1000,69928684,1580,1580,1577,1577
44148167,1000,1000,1000,1000,70028644,1581,1581,1578,1578
44150666,1000,1000,1000,1000,70128604,1582,1581,1578,1578
44153165,1000,1000,1000,1000,70228564,1581,1581,1578,1578
44155664,1000,1000,1000,1000,70328524,1581,1581,1579,1579
44158163,1000,1000,1000,1000,70428484,1580,1580,1579,1579
44160662,1000,1000,1000,1000,70528444,1580,1581,1580,1580
44163161,1000,1000,1000,1000,70628404,1579,1580,1580,1579
44165660,1000,1000,1000,1000,70728364,1579,1579,1580,1580
44168159,1000,1000,1000,1000,70828324,1578,1578,1579,1579
44170658,1000,1000,1000,1000,70928284,1579,1579,1580,1581
44173157,1000,1000,1000,1000,71028244,1580,1580,1581,1581
44175656,1000,1000,1000,1000,71128204,1580,1580,1581,1581
44178155,1000,1000,1000,1000,71228164,1580,1580,1581,1581
44180654,1000,1000,1000,1000,71328957,1581,1581,1582,1581
44183986,1000,1000,1000,1000,71428917,1581,1581,1581,1581
44186485,1000,1000,1000,1000,71528877,1581,1581,1581,1581
44188984,1000,1000,1000,1000,71628837,1582,1582,1582,1582
44191483,1000,1000,1000,1000,71728797,1582,1582,1581,1581
44193982,1000,1000,1000,1000,71828757,1581,1582,1581,1581
44196481,1000,1000,1000,1000,71928717,1581,1582,1581,1581
44198980,1000,1000,1000,1000,72028677,1581,1582,1587,1574
44201479,1000,1000,1000,1000,72128637,1581,1583,1586,1573
44203978,1000,1000,1000,1000,72228597,1580,1582,1577,1573
44206477,1000,1000,1000,1000,72328557,1577,1580,1567,1571
44208976,1000,1000,1000,1000,72428517,1577,1580,1562,1568
44211475,1000,1000,1000,1000,72528477,1577,1579,1556,1563
44213974,1000,1000,1000,1000,72628437,1579,1578,1555,1559
44216473,1000,1000,1000,1000,72728397,1580,1578,1554,1555
44218972,1000,1000,1000,1000,72828357,1579,1577,1555,1553
44221471,1000,1000,1000,1000,72928317,1578,1578,1556,1553
44223970,1000,1000,1000,1000,73028277,1578,1578,1556,1553
44226469,1000,1000,1000,1000,73128237,1576,1577,1556,1554
44228968,1000,1000,1000,1000,73228197,1575,1576,1554,1553
44231467,1000,1000,1000,1000,73328157,1575,1576,1553,1554
44233966,1000,1000,1000,1000,73428950,1576,1577,1551,1553
44236465,1000,1000,1000,1000,73528910,1577,1577,1550,1551
44238964,1000,1000,1000,1000,73628870,1578,1579,1548,1548
44241463,1000,1000,1000,1000,73728830,1580,1581,1546,1546
44243962,1000,1000,1000,1000,73828790,1582,1583,1544,1543
44246461,1000,1000,1000,1000,73928750,1586,1587,1543,1542
44248960,1000,1000,1000,1000,74028710,1589,1589,1540,1540
44251459,1000,1000,1000,1000,74128670,1590,1590,1537,1538
44253958,1000,1000,1000,1000,74228630,1591,1592,1536,1537
44256457,1000,1000,1000,1000,74328590,1594,1594,1537,1539
44258956,1000,1000,1000,1000,74428550,1593,1594,1538,1539
44261455,1000,1000,1000,1000,74528510,1593,1591,1542,1543
44263954,1000,1000,1000,1000,74628470,1589,1586,1546,1549
44266453,1000,1000,1000,1000,74728430,1584,1580,1555,1557
44268952,1000,1000,1000,1000,74828390,1575,1571,1563,1566
44271451,1000,1000,1000,1000,74928350,1566,1562,1576,1578
44273950,1000,1000,1000,1000,75028310,1554,1551,1587,1588
44276449,1000,1000,1000,1000,75128270,1544,1543,1598,1598
44278948,1000,1000,1000,1000,75228230,1537,1537,1606,1605
44281447,1000,1000,1000,1000,75328190,1533,1534,1611,1610
44283946,1000,1000,1000,1000,75428983,1531,1533,1613,1611
44286445,1000,1000,1000,1000,75528943,1535,1536,1611,1610
44288944,1000,1000,1000,1000,75628903,1540,1542,1607,1607
44291443,1000,1000,1000,1000,75728863,1547,1549,1601,1601
44293942,1000,1000,1000,1000,75828823,1555,1556,1594,1594
44296441,1000,1000,1000,1000,75928783,1564,1564,1588,1587
44298940,1000,1000,1000,1000,76028743,1572,1571,1581,1581
44301439,1000,1000,1000,1000,76128703,1578,1577,1575,1575
44303938,1000,1000,1000,1000,76228663,1583,1581,1571,1571
44306437,1000,1000,1000,1000,76328623,1586,1585,1569,1569
44308936,1000,1000,1000,1000,76428583,1587,1586,1568,1568
44311435,1000,1000,1000,1000,76528543,1587,1585,1568,1568
44313934,1000,1000,1000,1000,76628503,1585,1584,1569,1570
44316433,1000,1000,1000,1000,76728463,1583,1582,1571,1572
44318932,1000,1000,1000,1000,76828423,1580,1580,1574,1574
44321431,1000,1000,1000,1000,76928383,1578,1579,1578,1578
44323930,1000,1000,1000,1000,77028343,1576,1577,1580,1580
44326429,1000,1000,1000,1000,77128303,1575,1575,1583,1582
44328928,1000,1000,1000,1000,77228263,1573,1574,1584,1583
44331427,1000,1000,1000,1000,77328223,1573,1574,1584,1585
44333926,1000,1000,1000,1000,77428183,1574,1574,1584,1585
44336425,1000,1000,1000,1000,77528976,1576,1576,1585,1585
44338924,1000,1000,1000,1000,77628936,1575,1575,1582,1582
44341423,1000,1000,1000,1000,77728896,1577,1577,1582,1581
44343922,1000,1000,1000,1000,77828856,1578,1578,1580,1580
44346421,1000,1000,1000,1000,77928816,1579,1579,1580,1579
44348920,1000,1000,1000,1000,78028776,1580,1580,1578,1578
44351419,1000,1000,1000,1000,78128736,1580,1581,1577,1578
44353918,1000,1000,1000,1000,78228696,1580,1580,1576,1577
44356417,1000,1000,1000,1000,78328656,1581,1581,1577,1578
44358916,1000,1000,1000,1000,78428616,1582,1581,1578,1578
44361415,1000,1000,1000,1000,78528576,1581,1580,1577,1577
44363914,1000,1000,1000,1000,78628536,1581,1580,1578,1578
44366413,1000,1000,1000,1000,78728496,1581,1581,1580,1580
44368912,1000,1000,1000,1000,78828456,1579,1580,1579,1579
44371411,1000,1000,1000,1000,78928416,1579,1580,1580,1580
44373910,1000,1000,1000,1000,79028376,1579,1579,1580,1580
44376409,1000,1000,1000,1000,79128336,1579,1579,1580,1581
44378908,1000,1000,1000,1000,79228296,1579,1579,1581,1581
44381407,1000,1000,1000,1000,79328256,1580,1579,1581,1581
44383906,1000,1000,1000,1000,79428216,1579,1580,1581,1581
44386405,1000,1000,1000,1000,79528176,1580,1580,1581,1581
44388904,1000,1000,1000,1000,79628969,1580,1580,1581,1581
44391403,1000,1000,1000,1000,79728929,1580,1580,1581,1580
44393902,1000,1000,1000,1000,79828889,1581,1581,1582,1581
44396401,1000,1000,1000,1000,79928849,1581,1581,1582,1578
44398900,1000,1000,1000,1000,80028809,1581,1582,1587,1572
44401399,1000,1000,1000,1000,80128769,1580,1581,1583,1574
44403898,1000,1000,1000,1000,80228729,1578,1578,1577,1576
44406397,1000,1000,1000,1000,80328689,1575,1574,1570,1575
44408896,1000,1000,1000,1000,80428649,1572,1571,1567,1574
44411395,1000,1000,1000,1000,80528609,1570,1570,1566,1572
44413894,1000,1000,1000,1000,80628569,1568,1568,1566,1569
44416393,1000,1000,1000,1000,80728529,1566,1567,1566,1567
44418892,1000,1000,1000,1000,80828489,1566,1566,1567,1565
44421391,1000,1000,1000,1000,80928449,1565,1565,1567,1565
44423890,1000,1000,1000,1000,81028409,1565,1565,1567,1565
44426389,1000,1000,1000,1000,81128369,1564,1564,1565,1564
44428888,1000,1000,1000,1000,81228329,1563,1563,1564,1564
44431387,1000,1000,1000,1000,81328289,1563,1562,1563,1563
44433886,1000,1000,1000,1000,81428249,1562,1562,1563,1563
44436385,1000,1000,1000,1000,81528209,1562,1562,1562,1562
44438884,1000,1000,1000,1000,81628169,1561,1561,1562,1561
44441383,1000,1000,1000,1000,81728962,1561,1561,1561,1561
44443882,1000,1000,1000,1000,81828922,1560,1560,1560,1560
44446381,1000,1000,1000,1000,81928882,1559,1560,1559,1559
44448880,1000,1000,1000,1000,82028842,1559,1559,1559,1558
44451379,1000,1000,1000,1000,82128802,1558,1557,1558,1557
44453878,1000,1000,1000,1000,82228762,1557,1557,1557,1556
44456377,1000,1000,1000,1000,82328722,1558,1557,1557,1557
44458876,1000,1000,1000,1000,82428682,1557,1558,1558,1557
44461375,1000,1000,1000,1000,82528642,1558,1558,1559,1557
44463874,1000,1000,1000,1000,82628602,1558,1558,1559,1556
44466373,1000,1000,1000,1000,82728562,1560,1559,1561,1558
44468872,1000,1000,1000,1000,82828522,1559,1559,1558,1560
44471371,1000,1000,1000,1000,82928482,1561,1561,1558,1563
44473870,1000,1000,1000,1000,83028442,1561,1561,1558,1564
44476369,1000,1000,1000,1000,83128402,1561,1561,1559,1564
44478868,1000,1000,1000,1000,83228362,1562,1562,1560,1563
44481367,1000,1000,1000,1000,83328322,1562,1563,1563,1563
44483866,1000,1000,1000,1000,83428282,1561,1562,1563,1560
44486365,1000,1000,1000,1000,83528242,1561,1560,1562,1559
44488864,1000,1000,1000,1000,83628202,1559,1559,1557,1561
44491363,1000,1000,1000,1000,83728162,1556,1555,1554,1558
44493862,1000,1000,1000,1000,83828955,1551,1551,1549,1552
44496361,1000,1000,1000,1000,83928915,1545,1545,1544,1545
44498860,1000,1000,1000,1000,84028875,1538,1539,1539,1538
44501359,1000,1000,1000,1000,84128835,1532,1531,1532,1531
44503858,1000,1000,1000,1000,84228795,1524,1524,1524,1523
44506357,1000,1000,1000,1000,84328755,1521,1521,1521,1520
44508856,1000,1000,1000,1000,84428715,1519,1520,1520,1519
44511355,1000,1000,1000,1000,84528675,1520,1520,1520,1521
44513854,1000,1000,1000,1000,84628635,1523,1523,1523,1523
44516353,1000,1000,1000,1000,84728595,1527,1527,1526,1528
44518852,1000,1000,1000,1000,84828555,1531,1531,1531,1531
44521351,1000,1000,1000,1000,84928515,1535,1535,1535,1535
44523850,1000,1000,1000,1000,85028475,1539,1539,1539,1539
44526349,1000,1000,1000,1000,85128435,1542,1542,1542,1542
44528848,1000,1000,1000,1000,85228395,1543,1543,1544,1543
44531347,1000,1000,1000,1000,85328355,1544,1544,1544,1544
44533846,1000,1000,1000,1000,85428315,1546,1546,1546,1546
44536345,1000,1000,1000,1000,85528275,1546,1545,1545,1545
44538844,1000,1000,1000,1000,85628235,1546,1546,1546,1546
44541343,1000,1000,1000,1000,85728195,1546,1546,1546,1546
44543842,1000,1000,1000,1000,85828155,1546,1547,1546,1546
44546341,1000,1000,1000,1000,85928948,1546,1546,1546,1546
44548840,1000,1000,1000,1000,86028908,1546,1546,1546,1546
44551339,1000,1000,1000,1000,86128868,1545,1545,1545,1545
44553838,1000,1000,1000,1000,86228828,1546,1546,1546,1546
44556337,1000,1000,1000,1000,86328788,1545,1544,1545,1544
44558836,1000,1000,1000,1000,86428748,1544,1544,1544,1544
44561335,1000,1000,1000,1000,86528708,1545,1545,1545,1545
44563834,1000,1000,1000,1000,86628668,1544,1545,1544,1545
44566333,1000,1000,1000,1000,86728628,1545,1545,1545,1545
44568832,1000,1000,1000,1000,86828588,1544,1543,1544,1544
44571331,1000,1000,1000,1000,86928548,1545,1544,1545,1544
44573830,1000,1000,1000,1000,87028508,1543,1544,1544,1543
44576329,1000,1000,1000,1000,87128468,1543,1544,1543,1543
44578828,1000,1000,1000,1000,87228428,1544,1544,1544,1544
44581327,1000,1000,1000,1000,87328388,1544,1544,1544,1544
44583826,1000,1000,1000,1000,87428348,1544,1544,1544,1544
44586325,1000,1000,1000,1000,87528308,1544,1544,1544,1544
44588824,1000,1000,1000,1000,87628268,1544,1544,1544,1544
44591323,1000,1000,1000,1000,87728228,1545,1544,1544,1544
44593822,1000,1000,1000,1000,87828188,1544,1544,1544,1544
44596321,1000,1000,1000,1000,87928981,1544,1544,1544,1544
44598820,1000,1000,1000,1000,88028941,1544,1544,1544,1544
44601319,1000,1000,1000,1000,88128901,1544,1544,1544,1544
44603818,1000,1000,1000,1000,88228861,1544,1543,1543,1544
44606317,1000,1000,1000,1000,88328821,1544,1543,1543,1544
44608816,1000,1000,1000,1000,88428781,1544,1545,1545,1544
44611315,1000,1000,1000,1000,88528741,1544,1544,1544,1543
44613814,1000,1000,1000,1000,88628701,1544,1544,1544,1544
44616313,1000,1000,1000,1000,88728661,1545,1544,1545,1545
44618812,1000,1000,1000,1000,88828621,1544,1544,1544,1544
44621311,1000,1000,1000,1000,88928581,1545,1544,1545,1545
44623810,1000,1000,1000,1000,89028541,1544,1544,1544,1544
44626309,1000,1000,1000,1000,89128501,1546,1545,1545,1546
44628808,1000,1000,1000,1000,89228461,1545,1545,1545,1546
44631307,1000,1000,1000,1000,89328421,1545,1545,1545,1545
44633806,1000,1000,1000,1000,89428381,1545,1544,1545,1544
44636305,1000,1000,1000,1000,89528341,1546,1545,1545,1545
44638804,1000,1000,1000,1000,89628301,1545,1546,1545,1545
44641303,1000,1000,1000,1000,89728261,1545,1545,1544,1545
44643802,1000,1000,1000,1000,89828221,1544,1545,1545,1544
44646301,1000,1000,1000,1000,89928181,1544,1544,1544,1544
44648800,1000,1000,1000,1000,90028974,1544,1544,1544,1545
44651299,1000,1000,1000,1000,90128934,1544,1544,1544,1544
44653798,1000,1000,1000,1000,90228894,1543,1543,1543,1543
44656297,1000,1000,1000,1000,90328854,1544,1544,1544,1544
44658796,1000,1000,1000,1000,90428814,1544,1545,1545,1545
44661295,1000,1000,1000,1000,90528774,1544,1544,1544,1544
44663794,1000,1000,1000,1000,90628734,1543,1544,1544,1543
44666293,1000,1000,1000,1000,90728694,1544,1543,1543,1544
44668792,1000,1000,1000,1000,90828654,1544,1544,1544,1543
44671291,1000,1000,1000,1000,90928614,1544,1544,1544,1544
44673790,1000,1000,1000,1000,91028574,1544,1544,1544,1544
44676289,1000,1000,1000,1000,91128534,1544,1544,1544,1544
44678788,1000,1000,1000,1000,91228494,1543,1544,1543,1544
44681287,1000,1000,1000,1000,91328454,1544,1544,1544,1544
44683786,1000,1000,1000,1000,91428414,1543,1544,1544,1543
44686285,1000,1000,1000,1000,91528374,1545,1544,1545,1545
44688784,1000,1000,1000,1000,91628334,1544,1544,1544,1544
44691283,1000,1000,1000,1000,91728294,1544,1544,1544,1544
44693782,1000,1000,1000,1000,91828254,1544,1543,1544,1543
44696281,1000,1000,1000,1000,91928214,1545,1544,1545,1545
44698780,1000,1000,1000,1000,92028174,1544,1544,1544,1544
44701279,1000,1000,1000,1000,92128967,1544,1544,1544,1545
44703778,1000,1000,1000,1000,92228927,1544,1545,1544,1545
44706277,1000,1000,1000,1000,92328887,1545,1545,1545,1545
44708776,1000,1000,1000,1000,92428847,1544,1544,1544,1544
44711275,1000,1000,1000,1000,92528807,1544,1544,1545,1544
44713774,1000,1000,1000,1000,92628767,1543,1544,1544,1544
44716273,1000,1000,1000,1000,92728727,1543,1543,1543,1543
44718772,1000,1000,1000,1000,92828687,1544,1544,1544,1544
44721271,1000,1000,1000,1000,92928647,1544,1544,1544,1544
44723770,1000,1000,1000,1000,93028607,1545,1545,1544,1545
44726269,1000,1000,1000,1000,93128567,1544,1544,1544,1544
44728768,1000,1000,1000,1000,93228527,1545,1545,1545,1545
44731267,1000,1000,1000,1000,93328487,1545,1545,1545,1545
44733766,1000,1000,1000,1000,93428447,1544,1544,1544,1543
44736265,1000,1000,1000,1000,93528407,1544,1544,1545,1544
44738764,1000,1000,1000,1000,93628367,1544,1544,1545,1544
44741263,1000,1000,1000,1000,93728327,1545,1544,1544,1545
44743762,1000,1000,1000,1000,93828287,1544,1545,1544,1544
44746261,1000,1000,1000,1000,93928247,1543,1544,1543,1544
44748760,1000,1000,1000,1000,94028207,1521,1522,1521,1522
44751259,1000,1000,1000,1000,94128167,1334,1333,1334,1333
44753758,1000,1000,1000,1000,94228960,1241,1240,1242,1240
44756257,1000,1000,1000,1000,94328920,1215,1212,1214,1214
44758756,1000,1000,1000,1000,94428880,1194,1192,1193,1193
44761255,1000,1000,1000,1000,94528840,1152,1150,1151,1151
44763754,1000,1000,1000,1000,94628800,1151,1150,1151,1150
44766253,1000,1000,1000,1000,94728760,1155,1150,1151,1154
44768752,1000,1000,1000,1000,94828720,1179,1150,1151,1178
44771251,1000,1000,1000,1000,94928680,1171,1150,1151,1170
44773750,1000,1000,1000,1000,95028640,1169,1150,1151,1168
44776249,1000,1000,1000,1000,95128600,1170,1150,1151,1169
44778748,1000,1000,1000,1000,95228560,1172,1150,1151,1171
44781247,1000,1000,1000,1000,95328520,1174,1150,1151,1173
44783746,1000,1000,1000,1000,95428480,1175,1150,1151,1174
44786245,1000,1000,1000,1000,95528440,1153,1150,1151,1152
44788744,1000,1000,1000,1000,95628400,1164,1150,1151,1163
44791243,1000,1000,1000,1000,95728360,1165,1150,1151,1165
44793742,1000,1000,1000,1000,95828320,1166,1150,1151,1165
44796241,1000,1000,1000,1000,95928280,1166,1150,1151,1166
44798740,1000,1000,1000,1000,96028240,1149,1149,1149,1149
44801239,1000,1000,1000,1000,96128200,1000,1000,1000,1000
44803738,1000,1000,1000,1000,96228160,1000,1000,1000,1000
44806237,1000,1000,1000,1000,96328953,1000,1000,1000,1000
44808736,1000,1000,1000,1000,96428913,1000,1000,1000,1000
44811235,1000,1000,1000,1000,96528873,1000,1000,1000,1000
44813734,1000,1000,1000,1000,96628833,1000,1000,1000,1000
44816233,1000,1000,1000,1000,96728793,1000,1000,1000,1000
44818732,1000,1000,1000,1000,96828753,1000,1000,1000,1000
44821231,1000,1000,1000,1000,96928713,1000,1000,1000,1000
44823730,1000,1000,1000,1000,97028673,1000,1000,1000,1000
44826229,1000,1000,1000,1000,97128633,1000,1000,1000,1000
44828728,1000,1000,1000,1000,97228593,1000,1000,1000,1000
44831227,1000,1000,1000,1000,97328553,1000,1000,1000,1000
44833726,1000,1000,1000,1000,97428513,1000,1000,1000,1000
44836225,1000,1000,1000,1000,97528473,1000,1000,1000,1000
44838724,1000,1000,1000,1000,97628433,1000,1000,1000,1000
44841223,1000,1000,1000,1000,97728393,1000,1000,1000,1000
44843722,1000,1000,1000,1000,97828353,1000,1000,1000,1000
44846221,1000,1000,1000,1000,97928313,1000,1000,1000,1000
44848720,1000,1000,1000,1000,98028273,1000,1000,1000,1000
44851219,1000,1000,1000,1000,98128233,1000,1000,1000,1000
44853718,1000,1000,1000,1000,98228193,1000,1000,1000,1000
44856217,1000,1000,1000,1000,98328986,1000,1000,1000,1000
44858716,1000,1000,1000,1000,98428946,1000,1000,1000,1000
44861215,1000,1000,1000,1000,98528906,1000,1000,1000,1000
44863714,1000,1000,1000,1000,98628866,1000,1000,1000,1000
44866213,1000,1000,1000,1000,98728826,1000,1000,1000,1000
44868712,1000,1000,1000,1000,98828786,1000,1000,1000,1000
44871211,1000,1000,1000,1000,98928746,1000,1000,1000,1000
44873710,1000,1000,1000,1000,99028706,1000,1000,1000,1000
44876209,1000,1000,1000,1000,99128666,1000,1000,1000,1000
44878708,1000,1000,1000,1000,99228626,1000,1000,1000,1000
44881207,1000,1000,1000,1000,99328586,1000,1000,1000,1000
44883706,1000,1000,1000,1000,99428546,1000,1000,1000,1000
44886205,1000,1000,1000,1000,99528506,1000,1000,1000,1000
44888704,1000,1000,1000,1000,99628466,1000,1000,1000,1000
44891203,1000,1000,1000,1000,99728426,1000,1000,1000,1000
44893702,1000,1000,1000,1000,99828386,1000,1000,1000,1000
44896201,1000,1000,1000,1000,99928346,1000,1000,1000,1000
44898700,1000,1000,1000,1000,100028306,1000,1000,1000,1000
44901199,1000,1000,1000,1000,100128266,1000,1000,1000,1000
44903698,1000,1000,1000,1000,100228226,1000,1000,1000,1000
44906197,1000,1000,1000,1000,100328186,1000,1000,1000,1000
44908696,1000,1000,1000,1000,100428979,1000,1000,1000,1000
44911195,1000,1000,1000,1000,100528939,1000,1000,1000,1000
44913694,1000,1000,1000,1000,100628899,1000,1000,1000,1000
44916193,1000,1000,1000,1000,100728859,1000,1000,1000,1000
44918692,1000,1000,1000,1000,100828819,1000,1000,1000,1000
44921191,1000,1000,1000,1000,100928779,1000,1000,1000,1000
44923690,1000,1000,1000,1000,101028739,1000,1000,1000,1000
44926189,1000,1000,1000,1000,101128699,1000,1000,1000,1000
44928688,1000,1000,1000,1000,101228659,1000,1000,1000,1000
44931187,1000,1000,1000,1000,101328619,1000,1000,1000,1000
44933686,1000,1000,1000,1000,101428579,1000,1000,1000,1000
44936185,1000,1000,1000,1000,101528539,1000,1000,1000,1000
44938684,1000,1000,1000,1000,101628499,1000,1000,1000,1000
44941183,1000,1000,1000,1000,101728459,1000,1000,1000,1000
44943682,1000,1000,1000,1000,101828419,1000,1000,1000,1000
44946181,1000,1000,1000,1000,101928379,1000,1000,1000,1000
44948680,1000,1000,1000,1000,102028339,1000,1000,1000,1000
44951179,1000,1000,1000,1000,102128299,1000,1000,1000,1000
44953678,1000,1000,1000,1000,102228259,1000,1000,1000,1000
44956177,1000,1000,1000,1000,102328219,1000,1000,1000,1000
44958676,1000,1000,1000,1000,102428179,1000,1000,1000,1000
44961175,1000,1000,1000,1000,102528972,1000,1000,1000,1000
44963674,1000,1000,1000,1000,102628932,1000,1000,1000,1000
44966173,1000,1000,1000,1000,102728892,1000,1000,1000,1000
44968672,1000,1000,1000,1000,102828852,1000,1000,1000,1000
44971171,1000,1000,1000,1000,102928812,1000,1000,1000,1000
44973670,1000,1000,1000,1000,103028772,1000,1000,1000,1000
44976169,1000,1000,1000,1000,103128732,1000,1000,1000,1000
44978668,1000,1000,1000,1000,103228692,1000,1000,1000,1000
44981167,1000,1000,1000,1000,103328652,1000,1000,1000,1000
44983666,1000,1000,1000,1000,103428612,1000,1000,1000,1000
44986165,1000,1000,1000,1000,103528572,1000,1000,1000,1000
44988664,1000,1000,1000,1000,103628532,1000,1000,1000,1000
44991163,1000,1000,1000,1000,103728492,1000,1000,1000,1000
44993662,1000,1000,1000,1000,103828452,1000,1000,1000,1000
44996161,1000,1000,1000,1000,103928412,1000,1000,1000,1000
44998660,1000,1000,1000,1000,104028372,1000,1000,1000,1000
45001159,1000,1000,1000,1000,104128332,1000,1000,1000,1000
45003658,1000,1000,1000,1000,104228292,1000,1000,1000,1000
45006157,1000,1000,1000,1000,104328252,1000,1000,1000,1000
45008656,1000,1000,1000,1000,104428212,1000,1000,1000,1000
45011155,1000,1000,1000,1000,104528172,1000,1000,1000,1000
45013654,1000,1000,1000,1000,104628965,1000,1000,1000,1000
45016153,1000,1000,1000,1000,104728925,1000,1000,1000,1000
45018652,1000,1000,1000,1000,104828885,1000,1000,1000,1000
45021151,1000,1000,1000,1000,104928845,1000,1000,1000,1000
45023650,1000,1000,1000,1000,105028805,1000,1000,1000,1000
45026149,1000,1000,1000,1000,105128765,1000,1000,1000,1000
45028648,1000,1000,1000,1000,105228725,1000,1000,1000,1000
45031147,1000,1000,1000,1000,105328685,1000,1000,1000,1000
45033646,1000,1000,1000,1000,105428645,1000,1000,1000,1000
45036145,1000,1000,1000,1000,105528605,1000,1000,1000,1000
45038644,1000,1000,1000,1000,105628565,1000,1000,1000,1000
45041143,1000,1000,1000,1000,105728525,1000,1000,1000,1000
45043642,1000,1000,1000,1000,105828485,1000,1000,1000,1000
45046141,1000,1000,1000,1000,105928445,1000,1000,1000,1000
45048640,1000,1000,1000,1000,106028405,1000,1000,1000,1000
45051139,1000,1000,1000,1000,106128365,1000,1000,1000,1000
45053638,1000,1000,1000,1000,106228325,1000,1000,1000,1000
45056137,1000,1000,1000,1000,106328285,1000,1000,1000,1000
45058636,1000,1000,1000,1000,106428245,1000,1000,1000,1000
45061135,1000,1000,1000,1000,106528205,1000,1000,1000,1000
45063634,1000,1000,1000,1000,106628165,1000,1000,1000,1000
45066133,1000,1000,1000,1000,106728958,1000,1000,1000,1000
45068632,1000,1000,1000,1000,106828918,1000,1000,1000,1000
45071131,1000,1000,1000,1000,106928878,1000,1000,1000,1000
45073630,1000,1000,1000,1000,107028838,1000,1000,1000,1000
45076129,1000,1000,1000,1000,107128798,1000,1000,1000,1000
45078628,1000,1000,1000,1000,107228758,1000,1000,1000,1000
45081127,1000,1000,1000,1000,107328718,1000,1000,1000,1000
45083626,1000,1000,1000,1000,107428678,1000,1000,1000,1000
45086125,1000,1000,1000,1000,107528638,1000,1000,1000,1000
45088624,1000,1000,1000,1000,107628598,1000,1000,1000,1000
45091123,1000,1000,1000,1000,107728558,1000,1000,1000,1000
45093622,1000,1000,1000,1000,107828518,1000,1000,1000,1000
45096121,1000,1000,1000,1000,107928478,1000,1000,1000,1000
45098620,1000,1000,1000,1000,108028438,1000,1000,1000,1000
45101119,1000,1000,1000,1000,108128398,1000,1000,1000,1000
45103618,1000,1000,1000,1000,108228358,1000,1000,1000,1000
45106117,1000,1000,1000,1000,108328318,1000,1000,1000,1000
45108616,1000,1000,1000,1000,108428278,1000,1000,1000,1000
45111115,1000,1000,1000,1000,108528238,1000,1000,1000,1000
45113614,1000,1000,1000,1000,108628198,1000,1000,1000,1000
45116113,1000,1000,1000,1000,108728158,1000,1000,1000,1000
45118612,1000,1000,1000,1000,108828951,1000,1000,1000,1000
45121111,1000,1000,1000,1000,108928911,1000,1000,1000,1000
45123610,1000,1000,1000,1000,109028871,1000,1000,1000,1000
45126109,1000,1000,1000,1000,109128831,1000,1000,1000,1000
45128608,1000,1000,1000,1000,109228791,1000,1000,1000,1000
45131107,1000,1000,1000,1000,109328751,1000,1000,1000,1000
45133606,1000,1000,1000,1000,109428711,1000,1000,1000,1000
45136105,1000,1000,1000,1000,109528671,1000,1000,1000,1000
45138604,1000,1000,1000,1000,109628631,1000,1000,1000,1000
45141103,1000,1000,1000,1000,109728591,1000,1000,1000,1000
45143602,1000,1000,1000,1000,109828551,1000,1000,1000,1000
45146101,1000,1000,1000,1000,109928511,1000,1000,1000,1000
45148600,1000,1000,1000,1000,110028471,1000,1000,1000,1000
45151099,1000,1000,1000,1000,110128431,1000,1000,1000,1000
45153598,1000,1000,1000,1000,110228391,1000,1000,1000,1000
45156097,1000,1000,1000,1000,110328351,1000,1000,1000,1000
45158596,1000,1000,1000,1000,110428311,1000,1000,1000,1000
45161095,1000,1000,1000,1000,110528271,1000,1000,1000,1000
45163594,1000,1000,1000,1000,110628231,1000,1000,1000,1000
45166093,1000,1000,1000,1000,110728191,1000,1000,1000,1000
45168592,1000,1000,1000,1000,110828984,1000,1000,1000,1000
45171091,1000,1000,1000,1000,110928944,1000,1000,1000,1000
45173590,1000,1000,1000,1000,,,,,
45176089,1000,1000,1000,1000,,,,,
45178588,1000,1000,1000,1000,,,,,
45181087,1000,1000,1000,1000,,,,,
45183586,1000,1000,1000,1000,,,,,
45186085,1000,1000,1000,1000,,,,,
45188584,1000,1000,1000,1000,,,,,
45191083,1000,1000,1000,1000,,,,,
45193582,1000,1000,1000,1000,,,,,
45196081,1000,1000,1000,1000,,,,,
45198580,1000,1000,1000,1000,,,,,
45201079,1000,1000,1000,1000,,,,,
45203578,1000,1000,1000,1000,,,,,
45206077,1000,1000,1000,1000,,,,,
45208576,1000,1000,1000,1000,,,,,
45211075,1000,1000,1000,1000,,,,,
45213574,1000,1000,1000,1000,,,,,
45216073,1000,1000,1000,1000,,,,,
45218572,1000,1000,1000,1000,,,,,
45221071,1000,1000,1000,1000,,,,,
45223570,1000,1000,1000,1000,,,,,
45226069,1000,1000,1000,1000,,,,,
45228568,1000,1000,1000,1000,,,,,
45231067,1000,1000,1000,1000,,,,,
45233566,1000,1000,1000,1000,,,,,
45236065,1000,1000,1000,1000,,,,,
45238564,1000,1000,1000,1000,,,,,
45241063,1000,1000,1000,1000,,,,,
45243562,1000,1000,1000,1000,,,,,
45246061,1000,1000,1000,1000,,,,,
45248560,1000,1000,1000,1000,,,,,
45251059,1000,1000,1000,1000,,,,,
45253558,1000,1000,1000,1000,,,,,
45256057,1000,1000,1000,1000,,,,,
45258556,1000,1000,1000,1000,,,,,
45261055,1000,1000,1000,1000,,,,,
45263554,1000,1000,1000,1000,,,,,
45266053,1000,1000,1000,1000,,,,,
45268552,1000,1000,1000,1000,,,,,
45271051,1000,1000,1000,1000,,,,,
45273550,1000,1000,1000,1000,,,,,
45276049,1000,1000,1000,1000,,,,,
45278548,1000,1000,1000,1000,,,,,
45281047,1000,1000,1000,1000,,,,,
45283546,1000,1000,1000,1000,,,,,
45286045,1000,1000,1000,1000,,,,,
45288544,1000,1000,1000,1000,,,,,
45291043,1000,1000,1000,1000,,,,,
45293542,1000,1000,1000,1000,,,,,
45296041,1000,1000,1000,1000,,,,,
45298540,1000,1000,1000,1000,,,,,
45301039,1000,1000,1000,1000,,,,,
45303538,1000,1000,1000,1000,,,,,
45306037,1000,1000,1000,1000,,,,,
45308536,1000,1000,1000,1000,,,,,
45311035,1000,1000,1000,1000,,,,,
45313534,1000,1000,1000,1000,,,,,
45316033,1000,1000,1000,1000,,,,,
45318532,1000,1000,1000,1000,,,,,
45321031,1000,1000,1000,1000,,,,,
45323530,1000,1000,1000,1000,,,,,
45326029,1000,1000,1000,1000,,,,,
45328528,1000,1000,1000,1000,,,,,
45331027,1000,1000,1000,1000,,,,,
45333526,1000,1000,1000,1000,,,,,
45336025,1000,1000,1000,1000,,,,,
45338524,1000,1000,1000,1000,,,,,
45341023,1000,1000,1000,1000,,,,,
45343522,1000,1000,1000,1000,,,,,
45346021,1000,1000,1000,1000,,,,,
45348520,1000,1000,1000,1000,,,,,
45351019,1000,1000,1000,1000,,,,,
45353518,1000,1000,1000,1000,,,,,
45356017,1000,1000,1000,1000,,,,,
45358516,1000,1000,1000,1000,,,,,
45361015,1000,1000,1000,1000,,,,,
45363514,1000,1000,1000,1000,,,,,
45366013,1000,1000,1000,1000,,,,,
45368512,1000,1000,1000,1000,,,,,
45371011,1000,1000,1000,1000,,,,,
45373510,1000,1000,1000,1000,,,,,
45376009,1000,1000,1000,1000,,,,,
45378508,1000,1000,1000,1000,,,,,
45381007,1000,1000,1000,1000,,,,,
45383506,1000,1000,1000,1000,,,,,
45386005,1000,1000,1000,1000,,,,,
45388504,1000,1000,1000,1000,,,,,
45391003,1000,1000,1000,1000,,,,,
45393502,1000,1000,1000,1000,,,,,
45396001,1000,1000,1000,1000,,,,,
45398500,1000,1000,1000,1000,,,,,
45400999,1000,1000,1000,1000,,,,,
45403498,1000,1000,1000,1000,,,,,
45405997,1000,1000,1000,1000,,,,,
45408496,1000,1000,1000,1000,,,,,
45410995,1000,1000,1000,1000,,,,,
45413494,1000,1000,1000,1000,,,,,
45415993,1000,1000,1000,1000,,,,,
45418492,1000,1000,1000,1000,,,,,
45420991,1000,1000,1000,1000,,,,,
45423490,1000,1000,1000,1000,,,,,
45425989,1000,1000,1000,1000,,,,,
45428488,1000,1000,1000,1000,,,,,
45430987,1000,1000,1000,1000,,,,,
45433486,1000,1000,1000,1000,,,,,
45435985,1000,1000,1000,1000,,,,,
45438484,1000,1000,1000,1000,,,,,
45440983,1000,1000,1000,1000,,,,,
45443482,1000,1000,1000,1000,,,,,
45445981,1000,1000,1000,1000,,,,,
45448480,1000,1000,1000,1000,,,,,
45450979,1000,1000,1000,1000,,,,,
45453478,1000,1000,1000,1000,,,,,
45455977,1000,1000,1000,1000,,,,,
45458476,1000,1000,1000,1000,,,,,
45460975,1000,1000,1000,1000,,,,,
45463474,1000,1000,1000,1000,,,,,
45465973,1000,1000,1000,1000,,,,,
45468472,1000,1000,1000,1000,,,,,
45470971,1000,1000,1000,1000,,,,,
45473470,1000,1000,1000,1000,,,,,
45475969,1000,1000,1000,1000,,,,,
45478468,1000,1000,1000,1000,,,,,
45480967,1000,1000,1000,1000,,,,,
45483466,1000,1000,1000,1000,,,,,
45485965,1000,1000,1000,1000,,,,,
45488464,1000,1000,1000,1000,,,,,
45490963,1000,1000,1000,1000,,,,,
45493462,1001,1001,1001,1001,,,,,
45495961,1002,1002,1002,1002,,,,,
45498460,1003,1003,1003,1003,,,,,
45500959,1003,1003,1003,1003,,,,,
45503458,1004,1004,1004,1004,,,,,
45505957,1005,1005,1005,1005,,,,,
45508456,1006,1006,1006,1006,,,,,
45510955,1006,1006,1006,1006,,,,,
45513454,1007,1007,1007,1007,,,,,
45515953,1008,1008,1008,1008,,,,,
45518452,1009,1009,1009,1009,,,,,
45520951,1009,1009,1009,1009,,,,,
45523450,1010,1010,1010,1010,,,,,
45525949,1011,1011,1011,1011,,,,,
45528448,1012,1012,1012,1012,,,,,
45530947,1012,1012,1012,1012,,,,,
45533446,1013,1013,1013,1013,,,,,
45535945,1014,1014,1014,1014,,,,,
45538444,1015,1015,1015,1015,,,,,
45540943,1015,1015,1015,1015,,,,,
45543442,1016,1016,1016,1016,,,,,
45545941,1017,1017,1017,1017,,,,,
45548440,1018,1018,1018,1018,,,,,
45550939,1018,1018,1018,1018,,,,,
45553438,1019,1019,1019,1019,,,,,
45555937,1020,1020,1020,1020,,,,,
45558436,1021,1021,1021,1021,,,,,
45560935,1021,1021,1021,1021,,,,,
45563434,1022,1022,1022,1022,,,,,
45565933,1023,1023,1023,1023,,,,,
45568432,1024,1024,1024,1024,,,,,
45570931,1024,1024,1024,1024,,,,,
45573430,1025,1025,1025,1025,,,,,
45575929,1026,1026,1026,1026,,,,,
45578428,1027,1027,1027,1027,,,,,
45580927,1027,1027,1027,1027,,,,,
45583426,1028,1028,1028,1028,,,,,
45585925,1029,1029,1029,1029,,,,,
45588424,1030,1030,1030,1030,,,,,
45590923,1030,1030,1030,1030,,,,,
45593422,1031,1031,1031,1031,,,,,
45595921,1032,1032,1032,1032,,,,,
45598420,1033,1033,1033,1033,,,,,
45600919,1033,1033,1033,1033,,,,,
45603418,1034,1034,1034,1034,,,,,
45605917,1035,1035,1035,1035,,,,,
45608416,1036,1036,1036,1036,,,,,
45610915,1036,1036,1036,1036,,,,,
45613414,1037,1037,1037,1037,,,,,
45615913,1038,1038,1038,1038,,,,,
45618412,1039,1039,1039,1039,,,,,
45620911,1039,1039,1039,1039,,,,,
45623410,1040,1040,1040,1040,,,,,
45625909,1041,1041,1041,1041,,,,,
45628408,1042,1042,1042,1042,,,,,
45630907,1042,1042,1042,1042,,,,,
45633406,1043,1043,1043,1043,,,,,
45635905,1044,1044,1044,1044,,,,,
45638404,1045,1045,1045,1045,,,,,
45640903,1045,1045,1045,1045,,,,,
45643402,1046,1046,1046,1046,,,,,
45645901,1047,1047,1047,1047,,,,,
45648400,1048,1048,1048,1048,,,,,
45650899,1048,1048,1048,1048,,,,,
45653398,1049,1049,1049,1049,,,,,
45655897,1050,1050,1050,1050,,,,,
45658396,1051,1051,1051,1051,,,,,
45660895,1051,1051,1051,1051,,,,,
45663394,1052,1052,1052,1052,,,,,
45665893,1053,1053,1053,1053,,,,,
45668392,1054,1054,1054,1054,,,,,
45670891,1054,1054,1054,1054,,,,,
45673390,1055,1055,1055,1055,,,,,
45675889,1056,1056,1056,1056,,,,,
45678388,1057,1057,1057,1057,,,,,
45680887,1057,1057,1057,1057,,,,,
45683386,1058,1058,1058,1058,,,,,
45685885,1059,1059,1059,1059,,,,,
45688384,1060,1060,1060,1060,,,,,
45690883,1060,1060,1060,1060,,,,,
45693382,1061,1061,1061,1061,,,,,
45695881,1062,1062,1062,1062,,,,,
45698380,1063,1063,1063,1063,,,,,
45700879,1063,1063,1063,1063,,,,,
45703378,1064,1064,1064,1064,,,,,
45705877,1065,1065,1065,1065,,,,,
45708376,1066,1066,1066,1066,,,,,
45710875,1066,1066,1066,1066,,,,,
45713374,1067,1067,1067,1067,,,,,
45715873,1068,1068,1068,1068,,,,,
45718372,1069,1069,1069,1069,,,,,
45720871,1069,1069,1069,1069,,,,,
45723370,1070,1070,1070,1070,,,,,
45725869,1071,1071,1071,1071,,,,,
45728368,1072,1072,1072,1072,,,,,
45730867,1072,1072,1072,1072,,,,,
45733366,1073,1073,1073,1073,,,,,
45735865,1074,1074,1074,1074,,,,,
45738364,1075,1075,1075,1075,,,,,
45740863,1075,1075,1075,1075,,,,,
45743362,1076,1076,1076,1076,,,,,
45745861,1077,1077,1077,1077,,,,,
45748360,1078,1078,1078,1078,,,,,
45750859,1078,1078,1078,1078,,,,,
45753358,1079,1079,1079,1079,,,,,
45755857,1080,1080,1080,1080,,,,,
45758356,1081,1081,1081,1081,,,,,
45760855,1081,1081,1081,1081,,,,,
45763354,1082,1082,1082,1082,,,,,
45765853,1083,1083,1083,1083,,,,,
45768352,1084,1084,1084,1084,,,,,
45770851,1084,1084,1084,1084,,,,,
45773350,1085,1085,1085,1085,,,,,
45775849,1086,1086,1086,1086,,,,,
45778348,1087,1087,1087,1087,,,,,
45780847,1087,1087,1087,1087,,,,,
45783346,1088,1088,1088,1088,,,,,
45785845,1089,1089,1089,1089,,,,,
45788344,1090,1090,1090,1090,,,,,
45790843,1090,1090,1090,1090,,,,,
45793342,1091,1091,1091,1091,,,,,
45795841,1092,1092,1092,1092,,,,,
45798340,1093,1093,1093,1093,,,,,
45800839,1093,1093,1093,1093,,,,,
45803338,1094,1094,1094,1094,,,,,
45805837,1095,1095,1095,1095,,,,,
45808336,1096,1096,1096,1096,,,,,
45810835,1096,1096,1096,1096,,,,,
45813334,1097,1097,1097,1097,,,,,
45815833,1098,1098,1098,1098,,,,,
45818332,1099,1099,1099,1099,,,,,
45820831,1099,1099,1099,1099,,,,,
45823330,1100,1100,1100,1100,,,,,
45825829,1101,1101,1101,1101,,,,,
45828328,1101,1101,1101,1101,,,,,
45830827,1102,1102,1102,1102,,,,,
45833326,1103,1103,1103,1103,,,,,
45835825,1104,1104,1104,1104,,,,,
45838324,1104,1104,1104,1104,,,,,
45840823,1105,1105,1105,1105,,,,,
45843322,1106,1106,1106,1106,,,,,
45845821,1107,1107,1107,1107,,,,,
45848320,1107,1107,1107,1107,,,,,
45850819,1108,1108,1108,1108,,,,,
45853318,1109,1109,1109,1109,,,,,
45855817,1110,1110,1110,1110,,,,,
45858316,1110,1110,1110,1110,,,,,
45860815,1111,1111,1111,1111,,,,,
45863314,1112,1112,1112,1112,,,,,
45865813,1113,1113,1113,1113,,,,,
45868312,1113,1113,1113,1113,,,,,
45870811,1114,1114,1114,1114,,,,,
45873310,1115,1115,1115,1115,,,,,
45875809,1116,1116,1116,1116,,,,,
45878308,1116,1116,1116,1116,,,,,
45880807,1117,1117,1117,1117,,,,,
45883306,1118,1118,1118,1118,,,,,
45885805,1119,1119,1119,1119,,,,,
45888304,1119,1119,1119,1119,,,,,
45890803,1120,1120,1120,1120,,,,,
45893302,1121,1121,1121,1121,,,,,
45895801,1122,1122,1122,1122,,,,,
45898300,1122,1122,1122,1122,,,,,
45900799,1123,1123,1123,1123,,,,,
45903298,1124,1124,1124,1124,,,,,
45905797,1125,1125,1125,1125,,,,,
45908296,1125,1125,1125,1125,,,,,
45910795,1126,1126,1126,1126,,,,,
45913294,1127,1127,1127,1127,,,,,
45915793,1128,1128,1128,1128,,,,,
45918292,1128,1128,1128,1128,,,,,
45920791,1129,1129,1129,1129,,,,,
45923290,1130,1130,1130,1130,,,,,
45925789,1131,1131,1131,1131,,,,,
45928288,1131,1131,1131,1131,,,,,
45930787,1132,1132,1132,1132,,,,,
45933286,1133,1133,1133,1133,,,,,
45935785,1134,1134,1134,1134,,,,,
45938284,1134,1134,1134,1134,,,,,
45940783,1135,1135,1135,1135,,,,,
45943282,1136,1136,1136,1136,,,,,
45945781,1137,1137,1137,1137,,,,,
45948280,1137,1137,1137,1137,,,,,
45950779,1138,1138,1138,1138,,,,,
45953278,1139,1139,1139,1139,,,,,
45955777,1140,1140,1140,1140,,,,,
45958276,1140,1140,1140,1140,,,,,
45960775,1141,1141,1141,1141,,,,,
45963274,1142,1142,1142,1142,,,,,
45965773,1143,1143,1143,1143,,,,,
45968272,1143,1143,1143,1143,,,,,
45970771,1144,1144,1144,1144,,,,,
45973270,1145,1145,1145,1145,,,,,
45975769,1146,1146,1146,1146,,,,,
45978268,1146,1146,1146,1146,,,,,
45980767,1147,1147,1147,1147,,,,,
45983266,1148,1148,1148,1148,,,,,
45985765,1149,1149,1149,1149,,,,,
45988264,1149,1149,1149,1149,,,,,
45990763,1150,1150,1150,1150,,,,,
45993262,1161,1154,1155,1161,,,,,
45995761,1169,1162,1163,1169,,,,,
45998260,1177,1170,1171,1177,,,,,
46000759,1184,1178,1179,1185,,,,,
46003258,1192,1186,1186,1192,,,,,
46005757,1199,1193,1194,1200,,,,,
46008256,1207,1201,1201,1207,,,,,
46010755,1214,1208,1208,1214,,,,,
46013254,1221,1215,1216,1221,,,,,
46015753,1228,1222,1223,1228,,,,,
46018252,1235,1229,1230,1235,,,,,
46020751,1242,1236,1236,1242,,,,,
46023250,1248,1243,1243,1249,,,,,
46025749,1255,1249,1250,1255,,,,,
46028248,1262,1256,1257,1262,,,,,
46030747,1268,1263,1263,1268,,,,,
46033246,1274,1269,1269,1275,,,,,
46035745,1281,1275,1276,1281,,,,,
46038244,1287,1282,1282,1287,,,,,
46040743,1293,1288,1288,1293,,,,,
46043242,1299,1294,1294,1299,,,,,
46045741,1305,1300,1300,1305,,,,,
46048240,1311,1306,1306,1311,,,,,
46050739,1317,1312,1312,1317,,,,,
46053238,1323,1318,1318,1323,,,,,
46055737,1329,1324,1324,1329,,,,,
46058236,1334,1329,1330,1335,,,,,
46060735,1340,1335,1335,1340,,,,,
46063234,1346,1341,1341,1346,,,,,
46065733,1351,1346,1347,1351,,,,,
46068232,1357,1352,1352,1357,,,,,
46070731,1362,1357,1358,1362,,,,,
46073230,1367,1363,1363,1368,,,,,
46075729,1373,1368,1368,1373,,,,,
46078228,1378,1373,1374,1378,,,,,
46080727,1383,1379,1379,1384,,,,,
46083226,1389,1384,1384,1389,,,,,
46085725,1394,1389,1389,1394,,,,,
46088224,1399,1394,1395,1399,,,,,
46090723,1404,1399,1400,1404,,,,,
46093222,1409,1404,1405,1409,,,,,
46095721,1414,1409,1410,1414,,,,,
46098220,1419,1414,1415,1419,,,,,
46100719,1424,1419,1420,1424,,,,,
46103218,1429,1424,1425,1429,,,,,
46105717,1434,1429,1430,1434,,,,,
46108216,1439,1434,1434,1439,,,,,
46110715,1443,1439,1439,1444,,,,,
46113214,1448,1444,1444,1448,,,,,
46115713,1453,1448,1449,1453,,,,,
46118212,1458,1453,1454,1458,,,,,
46120711,1462,1458,1458,1463,,,,,
46123210,1467,1463,1463,1467,,,,,
46125709,1472,1467,1468,1472,,,,,
46128208,1476,1472,1472,1476,,,,,
46130707,1481,1476,1477,1481,,,,,
46133206,1485,1481,1481,1485,,,,,
46135705,1490,1485,1486,1490,,,,,
46138204,1494,1490,1490,1494,,,,,
46140703,1499,1494,1495,1499,,,,,
46143202,1503,1499,1499,1503,,,,,
46145701,1508,1503,1504,1508,,,,,
46148200,1512,1508,1508,1512,,,,,
46150699,1516,1512,1512,1516,,,,,
46153198,1521,1516,1517,1521,,,,,
46155697,1525,1521,1521,1525,,,,,
46158196,1529,1525,1525,1529,,,,,
46160695,1533,1529,1530,1533,,,,,
46163194,1538,1534,1534,1538,,,,,
46165693,1542,1538,1538,1542,,,,,
46168192,1546,1542,1542,1546,,,,,
46170691,1550,1546,1547,1550,,,,,
46173190,1554,1550,1551,1554,,,,,
46175689,1558,1554,1555,1558,,,,,
46178188,1563,1558,1559,1563,,,,,
46180687,1567,1563,1563,1567,,,,,
46183186,1571,1567,1567,1571,,,,,
46185685,1575,1571,1571,1575,,,,,
46188184,1579,1575,1575,1579,,,,,
46190683,1583,1579,1579,1583,,,,,
46193182,1587,1583,1583,1587,,,,,
46195681,1591,1587,1587,1591,,,,,
46198180,1595,1590,1591,1595,,,,,
46200679,1599,1594,1595,1599,,,,,
46203178,1603,1598,1599,1602,,,,,
46205677,1606,1602,1603,1606,,,,,
46208176,1610,1606,1607,1610,,,,,
46210675,1614,1610,1611,1614,,,,,
46213174,1618,1614,1614,1618,,,,,
46215673,1622,1618,1618,1622,,,,,
46218172,1626,1621,1622,1626,,,,,
46220671,1629,1625,1626,1629,,,,,
46223170,1633,1629,1630,1633,,,,,
46225669,1637,1633,1633,1637,,,,,
46228168,1641,1636,1637,1641,,,,,
46230667,1644,1640,1641,1644,,,,,
46233166,1648,1644,1645,1648,,,,,
46235665,1652,1648,1648,1652,,,,,
46238164,1655,1651,1652,1655,,,,,
46240663,1659,1655,1656,1659,,,,,
46243162,1663,1659,1659,1663,,,,,
46245661,1666,1662,1663,1666,,,,,
46248160,1670,1666,1666,1670,,,,,
46250659,1674,1670,1670,1674,,,,,
46253158,1677,1673,1674,1677,,,,,
46255657,1681,1677,1677,1681,,,,,
46258156,1684,1680,1681,1684,,,,,
46260655,1688,1684,1684,1688,,,,,
46263154,1691,1687,1688,1691,,,,,
46266486,1695,1691,1691,1695,,,,,
46268985,1698,1694,1695,1698,,,,,
46271484,1702,1698,1698,1702,,,,,
46273983,1705,1701,1702,1705,,,,,
46276482,1709,1705,1705,1709,,,,,
46278981,1712,1708,1709,1712,,,,,
46281480,1716,1712,1712,1716,,,,,
46283979,1719,1715,1716,1719,,,,,
46286478,1723,1719,1719,1723,,,,,
46288977,1726,1722,1723,1726,,,,,
46291476,1729,1725,1726,1730,,,,,
46293975,1733,1729,1729,1733,,,,,
46296474,1736,1732,1733,1736,,,,,
46298973,1740,1736,1736,1740,,,,,
46301472,1743,1739,1739,1743,,,,,
46303971,1746,1742,1743,1746,,,,,
46306470,1750,1746,1746,1750,,,,,
46308969,1753,1749,1749,1753,,,,,
46311468,1756,1752,1753,1756,,,,,
46313967,1760,1756,1756,1760,,,,,
46316466,1763,1759,1759,1763,,,,,
46318965,1766,1762,1762,1766,,,,,
46321464,1769,1765,1766,1769,,,,,
46323963,1773,1769,1769,1773,,,,,
46326462,1776,1772,1772,1776,,,,,
46328961,1779,1775,1775,1779,,,,,
46331460,1782,1778,1779,1782,,,,,
46333959,1786,1782,1782,1786,,,,,
46336458,1789,1785,1785,1789,,,,,
46338957,1792,1788,1788,1792,,,,,
46341456,1795,1791,1792,1795,,,,,
46343955,1798,1794,1795,1798,,,,,
46346454,1801,1798,1798,1801,,,,,
46348953,1805,1801,1801,1805,,,,,
46351452,1808,1804,1804,1808,,,,,
46353951,1811,1807,1807,1811,,,,,
46356450,1814,1810,1811,1814,,,,,
46358949,1817,1813,1814,1817,,,,,
46361448,1820,1817,1817,1820,,,,,
46363947,1823,1820,1820,1823,,,,,
46366446,1826,1823,1823,1826,,,,,
46368945,1829,1826,1826,1829,,,,,
46371444,1832,1829,1829,1832,,,,,
46373943,1835,1832,1832,1835,,,,,
46376442,1839,1835,1835,1839,,,,,
46378941,1842,1838,1838,1842,,,,,
46381440,1845,1841,1842,1845,,,,,
46383939,1848,1844,1845,1848,,,,,
46386438,1851,1847,1848,1851,,,,,
46388937,1854,1850,1851,1854,,,,,
46391436,1857,1853,1854,1857,,,,,
46393935,1860,1856,1857,1860,,,,,
46396434,1863,1859,1860,1863,,,,,
46398933,1866,1862,1863,1866,,,,,
46401432,1869,1865,1866,1869,,,,,
46403931,1872,1868,1869,1872,,,,,
46406430,1875,1871,1872,1874,,,,,
46408929,1877,1874,1875,1877,,,,,
46411428,1880,1877,1877,1880,,,,,
46413927,1883,1880,1880,1883,,,,,
46416426,1886,1883,1883,1886,,,,,
46418925,1889,1886,1886,1889,,,,,
46421424,1892,1889,1889,1892,,,,,
46423923,1895,1892,1892,1895,,,,,
46426422,1898,1894,1895,1898,,,,,
46428921,1900,1897,1897,1900,,,,,
46431420,1899,1896,1896,1899,,,,,
46433919,1898,1895,1895,1898,,,,,
46436418,1897,1894,1894,1897,,,,,
46438917,1896,1893,1893,1896,,,,,
46441416,1896,1892,1892,1895,,,,,
46443915,1895,1891,1892,1895,,,,,
46446414,1894,1890,1891,1894,,,,,
46448913,1893,1890,1890,1893,,,,,
46451412,1893,1889,1890,1893,,,,,
46453911,1892,1888,1889,1892,,,,,
46456410,1892,1888,1888,1892,,,,,
46458909,1891,1887,1888,1891,,,,,
46461408,1891,1887,1888,1891,,,,,
46463907,1891,1887,1887,1890,,,,,
46466406,1890,1886,1887,1890,,,,,
46468905,1890,1886,1887,1890,,,,,
46471404,1890,1886,1887,1890,,,,,
46473903,1890,1886,1887,1890,,,,,
46476402,1890,1886,1887,1890,,,,,
46478901,1890,1886,1887,1890,,,,,
46481400,1891,1886,1887,1890,,,,,
46483899,1891,1887,1887,1891,,,,,
46486398,1891,1887,1888,1891,,,,,
46488897,1891,1887,1888,1891,,,,,
46491396,1891,1888,1888,1891,,,,,
46493895,1891,1888,1888,1891,,,,,
46496394,1891,1888,1888,1892,,,,,
46498893,1891,1888,1889,1891,,,,,
46501392,1891,1888,1889,1891,,,,,
46503891,1891,1888,1888,1891,,,,,
46506390,1891,1888,1888,1891,,,,,
46508889,1890,1887,1888,1890,,,,,
46511388,1889,1887,1887,1889,,,,,
46513887,1888,1886,1886,1889,,,,,
46516386,1887,1885,1885,1888,,,,,
46518885,1886,1884,1884,1886,,,,,
46521384,1885,1882,1882,1885,,,,,
46523883,1883,1881,1881,1884,,,,,
46526382,1882,1879,1879,1882,,,,,
46528881,1880,1878,1878,1880,,,,,
46531380,1878,1876,1876,1878,,,,,
46533879,1876,1874,1874,1876,,,,,
46536378,1874,1872,1872,1874,,,,,
46538877,1871,1870,1869,1872,,,,,
46541376,1869,1867,1867,1870,,,,,
46543875,1867,1865,1865,1867,,,,,
46546374,1864,1862,1862,1865,,,,,
46548873,1861,1860,1860,1862,,,,,
46551372,1859,1857,1857,1859,,,,,
46553871,1856,1854,1854,1856,,,,,
46556370,1853,1851,1851,1853,,,,,
46558869,1850,1848,1848,1850,,,,,
46561368,1847,1845,1845,1847,,,,,
46563867,1844,1842,1842,1844,,,,,
46566366,1840,1839,1839,1841,,,,,
46568865,1837,1836,1836,1838,,,,,
46571364,1834,1833,1833,1835,,,,,
46573863,1831,1830,1829,1831,,,,,
46576362,1827,1826,1826,1828,,,,,
46578861,1824,1823,1823,1825,,,,,
46581360,1821,1820,1820,1821,,,,,
46583859,1817,1816,1816,1818,,,,,
46586358,1814,1813,1813,1815,,,,,
46588857,1811,1810,1810,1811,,,,,
46591356,1807,1806,1806,1808,,,,,
46593855,1804,1803,1803,1805,,,,,
46596354,1801,1800,1800,1801,,,,,
46598853,1797,1796,1796,1798,,,,,
46601352,1794,1793,1793,1794,,,,,
46603851,1790,1790,1790,1791,,,,,
46606350,1787,1786,1786,1787,,,,,
46608849,1784,1783,1783,1784,,,,,
46611348,1780,1780,1780,1781,,,,,
46613847,1777,1776,1776,1777,,,,,
46616346,1773,1773,1773,1774,,,,,
46618845,1770,1770,1770,1770,,,,,
46621344,1767,1766,1766,1767,,,,,
46623843,1763,1763,1763,1764,,,,,
46626342,1760,1760,1760,1760,,,,,
46628841,1757,1756,1756,1757,,,,,
46631340,1753,1753,1753,1754,,,,,
46633839,1750,1750,1750,1750,,,,,
46636338,1747,1747,1747,1747,,,,,
46638837,1743,1743,1743,1744,,,,,
46641336,1740,1740,1740,1741,,,,,
46643835,1737,1737,1737,1738,,,,,
46646334,1734,1734,1734,1734,,,,,
46648833,1731,1731,1731,1731,,,,,
46651332,1728,1728,1728,1728,,,,,
46653831,1725,1725,1725,1725,,,,,
46656330,1722,1722,1722,1722,,,,,
46658829,1719,1719,1719,1719,,,,,
46661328,1716,1716,1716,1716,,,,,
46663827,1713,1713,1713,1713,,,,,
46666326,1710,1710,1710,1710,,,,,
46668825,1707,1708,1708,1708,,,,,
46671324,1705,1705,1705,1705,,,,,
46673823,1702,1702,1702,1702,,,,,
46676322,1699,1700,1700,1699,,,,,
46678821,1697,1697,1697,1697,,,,,
46681320,1694,1695,1695,1694,,,,,
46683819,1692,1692,1692,1692,,,,,
46686318,1689,1690,1690,1689,,,,,
46688817,1687,1687,1688,1687,,,,,
46691316,1685,1685,1685,1685,,,,,
