TimeUS,M1,M2,M3,M4,TimeUS,C1,C2,C3,C4
149111165,1000,1000,1000,1000,149128658,1000,1000,1000,1000
149113664,1000,1000,1000,1000,149228618,1000,1000,1000,1000
149116163,1000,1000,1000,1000,149328578,1000,1000,1000,1000
149118662,1000,1000,1000,1000,149428538,1000,1000,1000,1000
149121161,1000,1000,1000,1000,149528498,1000,1000,1000,1000
149123660,1000,1000,1000,1000,149628458,1000,1000,1000,1000
149126159,1000,1000,1000,1000,149728418,1000,1000,1000,1000
149128658,1000,1000,1000,1000,149828378,1000,1000,1000,1000
149131157,1000,1000,1000,1000,149928338,1000,1000,1000,1000
149133656,1000,1000,1000,1000,150028298,1000,1000,1000,1000
149136155,1000,1000,1000,1000,150128258,1000,1000,1000,1000
149138654,1000,1000,1000,1000,150228218,1000,1000,1000,1000
149141153,1000,1000,1000,1000,150328178,1000,1000,1000,1000
149143652,1000,1000,1000,1000,150428971,1000,1000,1000,1000
149146151,1000,1000,1000,1000,150528931,1000,1000,1000,1000
149148650,1000,1000,1000,1000,150628891,1000,1000,1000,1000
149151149,1000,1000,1000,1000,150728851,1000,1000,1000,1000
149153648,1000,1000,1000,1000,150828811,1000,1000,1000,1000
149156147,1000,1000,1000,1000,150928771,1000,1000,1000,1000
149158646,1000,1000,1000,1000,151028731,1000,1000,1000,1000
149161145,1000,1000,1000,1000,151128691,1005,1005,1005,1005
149163644,1000,1000,1000,1000,151228651,1035,1035,1035,1035
149166143,1000,1000,1000,1000,151328611,1065,1065,1065,1065
149168642,1000,1000,1000,1000,151428571,1095,1095,1095,1095
149171141,1000,1000,1000,1000,151528531,1125,1125,1125,1125
149173640,1000,1000,1000,1000,151628491,1207,1185,1186,1208
149176139,1000,1000,1000,1000,151728451,1439,1423,1424,1440
149178638,1000,1000,1000,1000,151828411,1611,1597,1598,1612
149181137,1000,1000,1000,1000,151928371,1754,1741,1741,1755
149183636,1000,1000,1000,1000,152028331,1861,1848,1848,1862
149186135,1000,1000,1000,1000,152128291,1864,1852,1852,1864
149188634,1000,1000,1000,1000,152228251,1778,1774,1775,1778
149191133,1000,1000,1000,1000,152328211,1655,1657,1657,1656
149193632,1000,1000,1000,1000,152428171,1606,1612,1612,1606
149196131,1000,1000,1000,1000,152528964,1611,1617,1617,1611
149198630,1000,1000,1000,1000,152628924,1629,1633,1633,1629
149201129,1000,1000,1000,1000,152728884,1636,1638,1638,1636
149203628,1000,1000,1000,1000,152828844,1633,1633,1632,1633
149206127,1000,1000,1000,1000,152928804,1626,1624,1624,1626
149208626,1000,1000,1000,1000,153028764,1622,1619,1619,1621
149211125,1000,1000,1000,1000,153128724,1607,1606,1603,1610
149213624,1000,1000,1000,1000,153228684,1598,1596,1587,1605
149216123,1000,1000,1000,1000,153328644,1596,1593,1586,1601
149218622,1000,1000,1000,1000,153428604,1596,1595,1592,1597
149221121,1000,1000,1000,1000,153528564,1600,1599,1600,1598
149223620,1000,1000,1000,1000,153628524,1603,1604,1608,1600
149226119,1000,1000,1000,1000,153728484,1587,1589,1600,1577
149228618,1000,1000,1000,1000,153828444,1571,1574,1592,1554
149231117,1000,1000,1000,1000,153928404,1561,1562,1572,1555
149233616,1000,1000,1000,1000,154028364,1552,1552,1549,1557
149236115,1000,1000,1000,1000,154128324,1543,1542,1533,1555
149238614,1000,1000,1000,1000,154228284,1537,1536,1525,1549
149241113,1000,1000,1000,1000,154328244,1531,1530,1522,1539
149243612,1000,1000,1000,1000,154428204,1529,1529,1525,1532
149246111,1000,1000,1000,1000,154528164,1530,1529,1529,1529
149248610,1000,1000,1000,1000,154628957,1533,1533,1535,1529
149251109,1000,1000,1000,1000,154728917,1536,1537,1540,1531
149253608,1000,1000,1000,1000,154828877,1539,1540,1543,1534
149256107,1000,1000,1000,1000,154928837,1543,1543,1546,1540
149258606,1000,1000,1000,1000,155028797,1547,1547,1548,1546
149261105,1000,1000,1000,1000,155128757,1550,1550,1549,1551
149263604,1000,1000,1000,1000,155228717,1551,1551,1550,1553
149266103,1000,1000,1000,1000,155328677,1554,1553,1552,1556
149268602,1000,1000,1000,1000,155428637,1557,1557,1553,1556
149271101,1000,1000,1000,1000,155528597,1558,1558,1557,1559
149273600,1000,1000,1000,1000,155628557,1559,1559,1562,1561
149276099,1000,1000,1000,1000,155728517,1560,1560,1565,1565
149278598,1000,1000,1000,1000,155828477,1561,1561,1567,1566
149281097,1000,1000,1000,1000,155928437,1562,1562,1568,1567
149283596,1000,1000,1000,1000,156028397,1563,1565,1569,1568
149286095,1000,1000,1000,1000,156128357,1566,1566,1569,1569
149288594,1000,1000,1000,1000,156228317,1567,1568,1569,1569
149291093,1000,1000,1000,1000,156328277,1571,1570,1569,1570
149293592,1000,1000,1000,1000,156428237,1572,1572,1570,1570
149296091,1000,1000,1000,1000,156528197,1574,1574,1570,1571
149298590,1000,1000,1000,1000,156628157,1574,1574,1571,1570
149301089,1000,1000,1000,1000,156728950,1575,1575,1571,1571
149303588,1000,1000,1000,1000,156828910,1576,1576,1573,1572
149306087,1000,1000,1000,1000,156928870,1577,1577,1574,1573
149308586,1000,1000,1000,1000,157028830,1576,1577,1575,1573
149311085,1000,1000,1000,1000,157128790,1577,1577,1576,1575
149313584,1000,1000,1000,1000,157228750,1576,1577,1576,1575
149316083,1000,1000,1000,1000,157328710,1577,1576,1576,1577
149318582,1000,1000,1000,1000,157428670,1576,1576,1577,1577
149321081,1000,1000,1000,1000,157528630,1576,1576,1577,1577
149323580,1000,1000,1000,1000,157628590,1576,1576,1577,1578
149326079,1000,1000,1000,1000,157728550,1576,1576,1578,1578
149328578,1000,1000,1000,1000,157828510,1576,1577,1578,1578
149331077,1000,1000,1000,1000,157928470,1576,1576,1577,1577
149333576,1000,1000,1000,1000,158028430,1577,1577,1578,1577
149336075,1000,1000,1000,1000,158128390,1578,1577,1578,1578
149338574,1000,1000,1000,1000,158228350,1578,1579,1579,1578
149341073,1000,1000,1000,1000,158328310,1578,1578,1578,1578
149343572,1000,1000,1000,1000,158428270,1577,1577,1577,1577
149346071,1000,1000,1000,1000,158528230,1578,1578,1577,1578
149348570,1000,1000,1000,1000,158628190,1579,1579,1578,1578
149351069,1000,1000,1000,1000,158728983,1580,1580,1579,1579
149353568,1000,1000,1000,1000,158828943,1580,1580,1580,1579
149356067,1000,1000,1000,1000,158928903,1579,1578,1578,1578
149358566,1000,1000,1000,1000,159028863,1578,1579,1579,1578
149361065,1000,1000,1000,1000,159128823,1579,1578,1579,1579
149363564,1000,1000,1000,1000,159228783,1579,1580,1580,1579
149366063,1000,1000,1000,1000,159328743,1578,1578,1579,1579
149368562,1000,1000,1000,1000,159428703,1579,1579,1579,1579
149371061,1000,1000,1000,1000,159528663,1579,1578,1579,1579
149373560,1000,1000,1000,1000,159628623,1579,1578,1579,1579
149376059,1000,1000,1000,1000,159728583,1579,1579,1579,1580
149378558,1000,1000,1000,1000,159828543,1580,1580,1580,1580
149381057,1000,1000,1000,1000,159928503,1580,1580,1580,1580
149383556,1000,1000,1000,1000,160028463,1580,1580,1580,1580
149386055,1000,1000,1000,1000,160128423,1580,1581,1581,1581
149388554,1000,1000,1000,1000,160228383,1580,1580,1580,1580
149391053,1000,1000,1000,1000,160328343,1580,1580,1580,1580
149393552,1000,1000,1000,1000,160428303,1581,1581,1581,1581
149396051,1000,1000,1000,1000,160528263,1581,1580,1580,1581
149398550,1000,1000,1000,1000,160628223,1580,1580,1580,1580
149401049,1000,1000,1000,1000,160728183,1580,1580,1580,1581
149403548,1000,1000,1000,1000,160828976,1580,1580,1580,1580
149406047,1000,1000,1000,1000,160928936,1581,1581,1581,1581
149408546,1000,1000,1000,1000,161028896,1580,1580,1581,1580
149411045,1000,1000,1000,1000,161128856,1580,1580,1580,1581
149413544,1000,1000,1000,1000,161228816,1580,1580,1580,1580
149416043,1000,1000,1000,1000,161328776,1581,1581,1581,1581
149418542,1000,1000,1000,1000,161428736,1581,1581,1581,1581
149421041,1000,1000,1000,1000,161528696,1580,1580,1580,1580
149423540,1000,1000,1000,1000,161628656,1581,1582,1586,1575
149426039,1000,1000,1000,1000,161728616,1580,1582,1587,1572
149428538,1000,1000,1000,1000,161828576,1579,1582,1579,1573
149431037,1000,1000,1000,1000,161928536,1578,1581,1571,1572
149433536,1000,1000,1000,1000,162028496,1578,1580,1563,1569
149436035,1000,1000,1000,1000,162128456,1579,1581,1558,1566
149438534,1000,1000,1000,1000,162228416,1579,1579,1555,1559
149441033,1000,1000,1000,1000,162328376,1581,1579,1554,1556
149443532,1000,1000,1000,1000,162428336,1581,1580,1555,1554
149446031,1000,1000,1000,1000,162528296,1581,1580,1556,1553
149448530,1000,1000,1000,1000,162628256,1580,1579,1555,1553
149451029,1000,1000,1000,1000,162728216,1578,1579,1554,1553
149453528,1000,1000,1000,1000,162828176,1577,1578,1554,1553
149456027,1000,1000,1000,1000,162928969,1575,1577,1552,1552
149458526,1000,1000,1000,1000,163028929,1576,1578,1551,1551
149461025,1000,1000,1000,1000,163128889,1577,1579,1549,1549
149463524,1000,1000,1000,1000,163228849,1579,1580,1547,1547
149466023,1000,1000,1000,1000,163328809,1582,1582,1545,1545
149468522,1000,1000,1000,1000,163428769,1584,1586,1543,1542
149471021,1000,1000,1000,1000,163528729,1588,1588,1540,1540
149473520,1000,1000,1000,1000,163628689,1591,1592,1538,1537
149476019,1000,1000,1000,1000,163728649,1594,1594,1536,1537
149478518,1000,1000,1000,1000,163828609,1595,1595,1535,1536
149481017,1000,1000,1000,1000,163928569,1597,1596,1536,1538
149483516,1000,1000,1000,1000,164028529,1316,1323,1617,1622
149486015,1000,1000,1000,1000,164128489,1397,1403,1630,1629
149488514,1000,1000,1000,1000,164228449,1463,1465,1626,1620
149491013,1000,1000,1000,1000,164328409,1515,1511,1621,1613
149493512,1000,1000,1000,1000,164428369,1558,1546,1614,1610
149496011,1000,1000,1000,1000,164528329,1569,1553,1572,1581
149498510,1000,1000,1000,1000,164628289,1600,1592,1558,1571
149501009,1000,1000,1000,1000,164728249,1598,1600,1559,1570
149503508,1000,1000,1000,1000,164828209,1591,1600,1560,1564
149506007,1000,1000,1000,1000,164928169,1590,1600,1567,1564
149508506,1000,1000,1000,1000,165028962,1592,1600,1575,1569
149511005,1000,1000,1000,1000,165128922,1610,1613,1582,1577
149513504,1000,1000,1000,1000,165228882,1613,1610,1585,1582
149516003,1000,1000,1000,1000,165328842,1613,1607,1584,1586
149518502,1000,1000,1000,1000,165428802,1613,1607,1586,1589
149521001,1000,1000,1000,1000,165528762,1613,1609,1588,1592
149523500,1000,1000,1000,1000,165628722,1612,1611,1592,1594
149525999,1000,1000,1000,1000,165728682,1605,1607,1586,1588
149528498,1000,1000,1000,1000,165828642,1603,1606,1587,1586
149530997,1000,1000,1000,1000,165928602,1599,1603,1584,1582
149533496,1000,1000,1000,1000,166028562,1598,1601,1584,1581
149535995,1000,1000,1000,1000,166128522,1599,1598,1583,1581
149538494,1000,1000,1000,1000,166228482,1598,1597,1582,1580
149540993,1000,1000,1000,1000,166328442,1597,1594,1579,1579
149543492,1000,1000,1000,1000,166368426,1596,1594,1578,1579
149545991,1000,1000,1000,1000,166468386,1594,1593,1576,1577
149548490,1000,1000,1000,1000,166568346,1591,1591,1573,1573
149550989,1000,1000,1000,1000,166668306,1589,1589,1571,1571
149553488,1000,1000,1000,1000,166768266,1586,1587,1569,1569
149555987,1000,1000,1000,1000,166868226,1585,1586,1568,1567
149558486,1000,1000,1000,1000,166968186,1584,1585,1567,1566
149560985,1000,1000,1000,1000,167068979,1585,1584,1568,1567
149563484,1000,1000,1000,1000,167168939,1584,1583,1567,1566
149565983,1000,1000,1000,1000,167268899,1584,1583,1567,1567
149568482,1000,1000,1000,1000,167368859,1572,1572,1568,1569
149570981,1000,1000,1000,1000,167468819,1575,1575,1571,1571
149573480,1000,1000,1000,1000,167568779,1577,1577,1571,1571
149575979,1000,1000,1000,1000,167668739,1579,1579,1572,1572
149578478,1000,1000,1000,1000,167768699,1581,1581,1572,1572
149580977,1000,1000,1000,1000,167868659,1582,1582,1572,1572
149583476,1000,1000,1000,1000,167968619,1583,1583,1572,1572
149585975,1000,1000,1000,1000,168068579,1584,1583,1571,1571
149588474,1000,1000,1000,1000,168168539,1585,1585,1571,1572
149590973,1000,1000,1000,1000,168268499,1069,1077,1561,1569
149593472,1000,1000,1000,1000,168368459,1591,1600,1501,1498
149595971,1000,1000,1000,1000,168468419,1600,1599,1510,1499
149598470,1000,1000,1000,1000,168568379,1600,1594,1520,1515
149600969,1000,1000,1000,1000,168668339,1600,1593,1531,1532
149603468,1000,1000,1000,1000,168768299,1600,1594,1542,1547
149605967,1000,1000,1000,1000,168868259,1697,1694,1554,1558
149608466,1000,1000,1000,1000,168968219,1697,1696,1576,1576
149610965,1000,1000,1000,1000,169068179,1696,1697,1599,1599
149613464,1000,1000,1000,1000,169168972,1695,1697,1616,1616
149615963,1000,1000,1000,1000,169268932,1688,1690,1620,1620
149618462,1000,1000,1000,1000,169368892,1663,1665,1597,1597
149620961,1000,1000,1000,1000,169468852,1636,1631,1598,1597
149623460,1000,1000,1000,1000,169568812,1603,1595,1615,1603
149625959,1000,1000,1000,1000,169668772,1575,1568,1617,1607
149628458,1000,1000,1000,1000,169768732,1550,1551,1610,1609
149630957,1000,1000,1000,1000,169868692,1531,1539,1602,1607
149633456,1000,1000,1000,1000,169968652,1517,1530,1596,1603
149635955,1000,1000,1000,1000,170068612,1509,1522,1594,1600
149638454,1000,1000,1000,1000,170168572,1509,1518,1593,1596
149640953,1000,1000,1000,1000,170268532,1513,1517,1588,1588
149643452,1000,1000,1000,1000,170368492,1522,1522,1581,1579
149645951,1000,1000,1000,1000,170468452,1533,1530,1572,1569
149648450,1000,1000,1000,1000,170568412,1543,1540,1560,1557
149650949,1000,1000,1000,1000,170668372,1555,1552,1551,1548
149653448,1000,1000,1000,1000,170768332,1565,1563,1541,1540
149655947,1000,1000,1000,1000,170868292,1573,1572,1536,1536
149658446,1000,1000,1000,1000,170968252,1579,1578,1533,1533
149660945,1000,1000,1000,1000,171068212,1582,1582,1531,1530
149663444,1000,1000,1000,1000,171168172,1585,1586,1532,1531
149665943,1000,1000,1000,1000,171268965,1588,1589,1533,1532
149668442,1000,1000,1000,1000,171368925,1590,1590,1534,1534
149670941,1000,1000,1000,1000,171468885,1592,1592,1536,1536
149673440,1000,1000,1000,1000,171568845,1592,1592,1537,1538
149675939,1000,1000,1000,1000,171668805,1593,1592,1539,1540
149678438,1000,1000,1000,1000,171768765,1592,1592,1540,1541
149680937,1000,1000,1000,1000,171868725,1591,1591,1542,1543
149683436,1000,1000,1000,1000,171968685,1590,1590,1545,1546
149685935,1000,1000,1000,1000,172068645,1587,1587,1546,1548
149688434,1000,1000,1000,1000,172168605,1584,1583,1549,1552
149690933,1000,1000,1000,1000,172268565,1581,1580,1554,1556
149693432,1000,1000,1000,1000,172368525,1576,1576,1557,1559
149695931,1000,1000,1000,1000,172468485,1572,1572,1563,1565
149698430,1000,1000,1000,1000,172568445,1568,1567,1569,1570
149700929,1000,1000,1000,1000,172668405,1563,1561,1575,1576
149703428,1000,1000,1000,1000,172768365,1557,1555,1581,1582
149705927,1000,1000,1000,1000,172868325,1551,1549,1589,1589
149708426,1000,1000,1000,1000,172968285,1546,1545,1596,1596
149710925,1000,1000,1000,1000,173068245,1542,1541,1600,1600
149713424,1000,1000,1000,1000,173168205,1540,1540,1602,1602
149715923,1000,1000,1000,1000,173268165,1540,1541,1601,1601
149718422,1000,1000,1000,1000,173368958,1543,1544,1600,1599
149720921,1000,1000,1000,1000,173468918,1547,1548,1596,1596
149723420,1000,1000,1000,1000,173568878,1552,1553,1591,1591
149725919,1000,1000,1000,1000,173668838,1558,1559,1586,1586
149728418,1000,1000,1000,1000,173768798,1565,1565,1582,1581
149730917,1000,1000,1000,1000,173868758,1571,1571,1578,1577
149733416,1000,1000,1000,1000,173968718,1576,1575,1575,1574
149735915,1000,1000,1000,1000,174068678,1581,1579,1573,1572
149738414,1000,1000,1000,1000,174168638,1583,1582,1571,1571
149740913,1000,1000,1000,1000,174268598,1584,1583,1570,1570
149743412,1000,1000,1000,1000,174368558,1584,1584,1570,1570
149745911,1000,1000,1000,1000,174468518,1584,1583,1571,1572
149748410,1000,1000,1000,1000,174568478,1584,1583,1574,1574
149750909,1000,1000,1000,1000,174668438,1582,1582,1575,1575
149753408,1000,1000,1000,1000,174768398,1580,1581,1576,1577
149755907,1000,1000,1000,1000,174868358,1580,1580,1579,1579
149758406,1000,1000,1000,1000,174968318,1577,1578,1579,1579
149760905,1000,1000,1000,1000,175068278,1577,1577,1582,1581
149763404,1000,1000,1000,1000,175168238,1577,1577,1583,1583
149765903,1000,1000,1000,1000,175268198,1576,1576,1584,1583
149768402,1000,1000,1000,1000,175368158,1576,1576,1584,1583
149770901,1000,1000,1000,1000,175468951,1576,1577,1584,1583
149773400,1000,1000,1000,1000,175568911,1577,1577,1583,1583
149775899,1000,1000,1000,1000,175668871,1577,1577,1582,1582
149778398,1000,1000,1000,1000,175768831,1578,1578,1581,1581
149780897,1000,1000,1000,1000,175868791,1579,1579,1581,1580
149783396,1000,1000,1000,1000,175968751,1580,1580,1580,1580
149785895,1000,1000,1000,1000,176068711,1581,1581,1580,1579
149788394,1000,1000,1000,1000,176168671,1581,1581,1579,1578
149790893,1000,1000,1000,1000,176268631,1581,1581,1578,1578
149793392,1000,1000,1000,1000,176368591,1583,1582,1579,1579
149795891,1000,1000,1000,1000,176468551,1583,1583,1580,1580
149798390,1000,1000,1000,1000,176568511,1582,1582,1579,1579
149800889,1000,1000,1000,1000,176668471,1582,1582,1579,1580
149803388,1000,1000,1000,1000,176768431,1581,1581,1579,1579
149805887,1000,1000,1000,1000,176868391,1581,1581,1580,1580
149808386,1000,1000,1000,1000,176968351,1581,1581,1580,1581
149810885,1000,1000,1000,1000,177068311,1580,1580,1580,1580
149813384,1000,1000,1000,1000,177168271,1580,1580,1581,1581
149815883,1000,1000,1000,1000,177268231,1580,1581,1581,1581
149818382,1000,1000,1000,1000,177368191,1580,1580,1582,1581
149820881,1000,1000,1000,1000,177468984,1580,1580,1581,1582
149823380,1000,1000,1000,1000,177568944,1581,1580,1581,1581
149825879,1000,1000,1000,1000,177668904,1581,1580,1581,1581
149828378,1000,1000,1000,1000,177768864,1581,1581,1582,1582
149830877,1000,1000,1000,1000,177868824,1581,1582,1582,1582
149833376,1000,1000,1000,1000,177968784,1581,1581,1581,1581
149835875,1000,1000,1000,1000,178068744,1581,1581,1581,1581
149838374,1000,1000,1000,1000,178168704,1582,1582,1581,1582
149840873,1000,1000,1000,1000,178268664,1582,1582,1583,1580
149843372,1000,1000,1000,1000,178368624,1582,1583,1589,1574
149845871,1000,1000,1000,1000,178468584,1581,1583,1584,1573
149848370,1000,1000,1000,1000,178568544,1580,1582,1575,1574
149850869,1000,1000,1000,1000,178668504,1578,1580,1566,1570
149853368,1000,1000,1000,1000,178768464,1578,1580,1560,1566
149855867,1000,1000,1000,1000,178868424,1578,1580,1556,1562
149858366,1000,1000,1000,1000,178968384,1579,1579,1555,1557
149860865,1000,1000,1000,1000,179068344,1580,1579,1555,1555
149863364,1000,1000,1000,1000,179168304,1580,1579,1556,1555
149865863,1000,1000,1000,1000,179268264,1579,1578,1556,1553
149868362,1000,1000,1000,1000,179368224,1578,1578,1556,1554
149870861,1000,1000,1000,1000,179468184,1577,1578,1555,1554
149873360,1000,1000,1000,1000,179568977,1576,1578,1554,1554
149875859,1000,1000,1000,1000,179668937,1576,1578,1553,1553
149878358,1000,1000,1000,1000,179768897,1576,1578,1552,1552
149880857,1000,1000,1000,1000,179868857,1577,1578,1550,1550
149883356,1000,1000,1000,1000,179968817,1579,1580,1549,1548
149885855,1000,1000,1000,1000,180068777,1580,1581,1546,1545
149888354,1000,1000,1000,1000,180168737,1485,1486,1544,1543
149890853,1000,1000,1000,1000,180268697,1513,1515,1564,1565
149893352,1000,1000,1000,1000,180368657,1534,1536,1565,1563
149895851,1000,1000,1000,1000,180468617,1555,1555,1560,1558
149898350,1000,1000,1000,1000,180568577,1572,1571,1556,1554
149900849,1000,1000,1000,1000,180668537,1585,1584,1551,1550
149903348,1000,1000,1000,1000,180768497,1596,1594,1549,1550
149905847,1000,1000,1000,1000,180868457,1594,1591,1544,1546
149908346,1000,1000,1000,1000,180968417,1594,1592,1540,1543
149910845,1000,1000,1000,1000,181068377,1594,1592,1542,1546
149913344,1000,1000,1000,1000,181168337,1594,1593,1550,1555
149915843,1000,1000,1000,1000,181268297,1592,1591,1559,1563
149918342,1000,1000,1000,1000,181368257,1588,1587,1567,1570
149920841,1000,1000,1000,1000,181468217,1583,1583,1574,1576
149923340,1000,1000,1000,1000,181568177,1580,1579,1583,1584
149925839,1000,1000,1000,1000,181668970,1576,1573,1588,1589
149928338,1000,1000,1000,1000,181768930,1572,1570,1593,1594
149930837,1000,1000,1000,1000,181868890,1568,1567,1597,1596
149933336,1000,1000,1000,1000,181968850,1564,1564,1598,1597
149935835,1000,1000,1000,1000,182068810,1561,1561,1599,1598
149938334,1000,1000,1000,1000,182168770,1559,1560,1599,1598
149940833,1000,1000,1000,1000,182268730,1559,1560,1600,1597
149943332,1000,1000,1000,1000,182368690,1559,1560,1598,1596
149945831,1000,1000,1000,1000,182468650,1560,1561,1596,1594
149948330,1000,1000,1000,1000,182568610,1561,1562,1592,1591
149950829,1000,1000,1000,1000,182668570,1563,1564,1589,1589
149953328,1000,1000,1000,1000,182768530,1565,1566,1586,1586
149955827,1000,1000,1000,1000,182868490,1568,1568,1582,1583
149958326,1000,1000,1000,1000,182968450,1570,1571,1580,1580
149960825,1000,1000,1000,1000,183068410,1573,1574,1579,1579
149963324,1000,1000,1000,1000,183168370,1575,1575,1577,1576
149965823,1000,1000,1000,1000,183268330,1578,1578,1576,1576
149968322,1000,1000,1000,1000,183368290,1580,1579,1575,1575
149970821,1000,1000,1000,1000,183468250,1580,1580,1573,1574
149973320,1000,1000,1000,1000,183568210,1581,1581,1573,1574
149975819,1000,1000,1000,1000,183668170,1581,1581,1573,1574
149978318,1000,1000,1000,1000,183768963,1582,1582,1574,1574
149980817,1000,1000,1000,1000,183868923,1582,1582,1575,1575
149983316,1000,1000,1000,1000,183968883,1581,1582,1574,1574
149985815,1000,1000,1000,1000,184068843,1582,1581,1575,1575
149988314,1000,1000,1000,1000,184168803,1582,1581,1576,1576
149990813,1000,1000,1000,1000,184268763,1583,1582,1578,1578
149993312,1000,1000,1000,1000,184368723,1582,1581,1579,1578
149995811,1000,1000,1000,1000,184468683,1582,1581,1580,1579
149998310,1000,1000,1000,1000,184568643,1581,1581,1579,1580
150000809,1000,1000,1000,1000,184668603,1580,1580,1579,1580
150003308,1000,1000,1000,1000,184768563,1580,1581,1580,1580
150005807,1000,1000,1000,1000,184868523,1580,1580,1580,1580
150008306,1000,1000,1000,1000,184968483,1579,1580,1580,1580
150010805,1000,1000,1000,1000,185068443,1578,1579,1580,1580
150013304,1000,1000,1000,1000,185168403,1579,1580,1581,1580
150015803,1000,1000,1000,1000,185268363,1580,1580,1582,1581
150018302,1000,1000,1000,1000,185368323,1580,1579,1581,1581
150020801,1000,1000,1000,1000,185468283,1580,1580,1581,1581
150023300,1000,1000,1000,1000,185568243,1580,1580,1581,1582
150025799,1000,1000,1000,1000,185668203,1580,1580,1580,1581
150028298,1000,1000,1000,1000,185768163,1579,1580,1580,1580
150030797,1000,1000,1000,1000,185868956,1580,1580,1580,1580
150033296,1000,1000,1000,1000,185968916,1580,1581,1581,1581
150035795,1000,1000,1000,1000,186068876,1581,1581,1581,1580
150038294,1000,1000,1000,1000,186168836,1581,1581,1581,1581
150040793,1000,1000,1000,1000,186268796,1581,1581,1581,1581
150043292,1000,1000,1000,1000,186368756,1581,1581,1588,1573
150045791,1000,1000,1000,1000,186468716,1581,1579,1585,1574
150048290,1000,1000,1000,1000,186568676,1579,1576,1576,1574
150050789,1000,1000,1000,1000,186668636,1575,1573,1569,1573
150053288,1000,1000,1000,1000,186768596,1572,1571,1564,1571
150055787,1000,1000,1000,1000,186868556,1569,1570,1563,1569
150058286,1000,1000,1000,1000,186968516,1567,1569,1564,1567
150060785,1000,1000,1000,1000,187068476,1565,1568,1565,1565
150063284,1000,1000,1000,1000,187168436,1565,1567,1566,1565
150065783,1000,1000,1000,1000,187268396,1566,1567,1569,1565
150068282,1000,1000,1000,1000,187368356,1565,1565,1568,1565
150070781,1000,1000,1000,1000,187468316,1564,1564,1566,1565
150073280,1000,1000,1000,1000,187568276,1564,1563,1565,1565
150075779,1000,1000,1000,1000,187668236,1562,1562,1564,1564
150078278,1000,1000,1000,1000,187768196,1562,1562,1564,1565
150080777,1000,1000,1000,1000,187868156,1562,1561,1563,1564
150083276,1000,1000,1000,1000,187968949,1562,1562,1564,1564
150085775,1000,1000,1000,1000,188068909,1561,1561,1563,1562
150088274,1000,1000,1000,1000,188168869,1560,1561,1562,1561
150090773,1000,1000,1000,1000,188268829,1561,1561,1561,1561
150093272,1000,1000,1000,1000,188368789,1561,1561,1562,1561
150095771,1000,1000,1000,1000,188468749,1561,1560,1561,1560
150098270,1000,1000,1000,1000,188568709,1560,1560,1560,1559
150100769,1000,1000,1000,1000,188668669,1561,1560,1560,1559
150103268,1000,1000,1000,1000,188768629,1560,1559,1560,1558
150105767,1000,1000,1000,1000,188868589,1560,1559,1560,1558
150108266,1000,1000,1000,1000,188968549,1560,1559,1560,1559
150110765,1000,1000,1000,1000,189068509,1560,1559,1561,1559
150113264,1000,1000,1000,1000,189168469,1560,1558,1558,1559
150115763,1000,1000,1000,1000,189268429,1561,1560,1558,1562
150118262,1000,1000,1000,1000,189368389,1560,1561,1558,1563
150120761,1000,1000,1000,1000,189468349,1560,1562,1558,1564
150123260,1000,1000,1000,1000,189568309,1560,1562,1559,1563
150125759,1000,1000,1000,1000,189668269,1560,1561,1560,1561
150128258,1000,1000,1000,1000,189768229,1560,1561,1562,1559
150130757,1000,1000,1000,1000,189868189,1562,1562,1564,1560
150133256,1000,1000,1000,1000,189968982,1562,1561,1561,1561
150135755,1000,1000,1000,1000,190068942,1560,1558,1555,1560
150138254,1000,1000,1000,1000,190168902,1556,1555,1550,1555
150140753,1000,1000,1000,1000,190268862,1551,1551,1545,1548
150143252,1000,1000,1000,1000,190368822,1545,1545,1539,1540
150145751,1000,1000,1000,1000,190468782,1539,1540,1534,1533
150148250,1000,1000,1000,1000,190568742,1532,1533,1527,1525
150150749,1000,1000,1000,1000,190668702,1525,1525,1519,1518
150153248,1000,1000,1000,1000,190768662,1521,1521,1517,1516
150155747,1000,1000,1000,1000,190868622,1518,1518,1517,1517
150158246,1000,1000,1000,1000,190968582,1517,1517,1519,1520
150160745,1000,1000,1000,1000,191068542,1519,1518,1524,1525
150163244,1000,1000,1000,1000,191168502,1521,1521,1530,1530
150165743,1000,1000,1000,1000,191268462,1524,1524,1535,1535
150168242,1000,1000,1000,1000,191368422,1529,1528,1540,1540
150170741,1000,1000,1000,1000,191468382,1531,1531,1542,1542
150173240,1000,1000,1000,1000,191568342,1535,1535,1544,1543
150175739,1000,1000,1000,1000,191668302,1538,1539,1545,1545
150178238,1000,1000,1000,1000,191768262,1541,1542,1545,1545
150180737,1000,1000,1000,1000,191868222,1544,1544,1544,1544
150183236,1000,1000,1000,1000,191968182,1546,1546,1544,1544
150185735,1000,1000,1000,1000,192068975,1548,1548,1543,1543
150188234,1000,1000,1000,1000,192168935,1549,1549,1544,1543
150190733,1000,1000,1000,1000,192268895,1550,1550,1543,1543
150193232,1000,1000,1000,1000,192368855,1550,1550,1543,1542
150195731,1000,1000,1000,1000,192468815,1550,1550,1543,1543
150198230,1000,1000,1000,1000,192568775,1550,1550,1544,1544
150200729,1000,1000,1000,1000,192668735,1548,1548,1544,1543
150203228,1000,1000,1000,1000,192768695,1547,1547,1544,1544
150205727,1000,1000,1000,1000,192868655,1547,1547,1545,1545
150208226,1000,1000,1000,1000,192968615,1545,1545,1545,1545
150210725,1000,1000,1000,1000,193068575,1544,1544,1546,1545
150213224,1000,1000,1000,1000,193168535,1544,1544,1546,1546
150215723,1000,1000,1000,1000,193268495,1543,1543,1545,1545
150218222,1000,1000,1000,1000,193368455,1542,1542,1545,1545
150220721,1000,1000,1000,1000,193468415,1543,1543,1546,1546
150223220,1000,1000,1000,1000,193568375,1543,1543,1546,1546
150225719,1000,1000,1000,1000,193668335,1542,1542,1545,1545
150228218,1000,1000,1000,1000,193768295,1543,1543,1545,1545
150230717,1000,1000,1000,1000,193868255,1543,1543,1544,1544
150233216,1000,1000,1000,1000,193968215,1544,1544,1545,1544
150235715,1000,1000,1000,1000,194068175,1544,1544,1544,1544
150238214,1000,1000,1000,1000,194168968,1544,1544,1543,1543
150240713,1000,1000,1000,1000,194268928,1544,1544,1544,1543
150243212,1000,1000,1000,1000,194368888,1544,1545,1543,1543
150245711,1000,1000,1000,1000,194468848,1545,1545,1544,1544
150248210,1000,1000,1000,1000,194568808,1545,1544,1543,1543
150250709,1000,1000,1000,1000,194668768,1545,1545,1544,1544
150253208,1000,1000,1000,1000,194768728,1544,1544,1543,1543
150255707,1000,1000,1000,1000,194868688,1544,1544,1544,1544
150258206,1000,1000,1000,1000,194968648,1545,1545,1545,1545
150260705,1000,1000,1000,1000,195068608,1545,1545,1545,1545
150263204,1000,1000,1000,1000,195168568,1544,1544,1544,1544
150265703,1000,1000,1000,1000,195268528,1544,1545,1545,1545
150268202,1000,1000,1000,1000,195368488,1544,1544,1544,1544
150270701,1000,1000,1000,1000,195468448,1544,1544,1545,1545
150273200,1000,1000,1000,1000,195568408,1545,1545,1545,1545
150275699,1000,1000,1000,1000,195668368,1544,1544,1545,1545
150278198,1000,1000,1000,1000,195768328,1544,1544,1544,1544
150280697,1000,1000,1000,1000,195868288,1544,1544,1544,1544
150283196,1000,1000,1000,1000,195968248,1544,1544,1544,1544
150285695,1000,1000,1000,1000,196068208,1545,1544,1544,1544
150288194,1000,1000,1000,1000,196168168,1544,1544,1544,1544
150290693,1000,1000,1000,1000,196268961,1544,1544,1544,1544
150293192,1000,1000,1000,1000,196368921,1544,1544,1543,1543
150295691,1000,1000,1000,1000,196468881,1545,1545,1544,1544
150298190,1000,1000,1000,1000,196568841,1544,1544,1544,1544
150300689,1000,1000,1000,1000,196668801,1545,1545,1545,1545
150303188,1000,1000,1000,1000,196768761,1544,1544,1544,1544
150305687,1000,1000,1000,1000,196868721,1544,1544,1544,1544
150308186,1000,1000,1000,1000,196968681,1544,1545,1545,1544
150310685,1000,1000,1000,1000,197068641,1544,1544,1544,1543
150313184,1000,1000,1000,1000,197168601,1544,1544,1544,1544
150315683,1000,1000,1000,1000,197268561,1544,1544,1544,1544
150318182,1000,1000,1000,1000,197368521,1544,1544,1544,1544
150320681,1000,1000,1000,1000,197468481,1544,1545,1545,1545
150323180,1000,1000,1000,1000,197568441,1544,1544,1544,1544
150325679,1000,1000,1000,1000,197668401,1545,1545,1545,1545
150328178,1000,1000,1000,1000,197768361,1545,1545,1545,1544
150330677,1000,1000,1000,1000,197868321,1545,1545,1545,1545
150333176,1000,1000,1000,1000,197968281,1544,1545,1544,1544
150335675,1000,1000,1000,1000,198068241,1545,1545,1545,1544
150338174,1000,1000,1000,1000,198168201,1544,1544,1544,1544
150340673,1000,1000,1000,1000,198268161,1544,1544,1544,1544
150343172,1000,1000,1000,1000,198368954,1544,1544,1544,1544
150345671,1000,1000,1000,1000,198468914,1545,1544,1544,1544
150348170,1000,1000,1000,1000,198568874,1545,1545,1545,1545
150350669,1000,1000,1000,1000,198668834,1544,1544,1545,1544
150353168,1000,1000,1000,1000,198768794,1544,1544,1544,1544
150355667,1000,1000,1000,1000,198868754,1544,1544,1544,1544
150358166,1000,1000,1000,1000,198968714,1544,1544,1544,1544
150360665,1000,1000,1000,1000,199068674,1544,1544,1544,1544
150363164,1000,1000,1000,1000,199168634,1544,1545,1544,1545
150365663,1000,1000,1000,1000,199268594,1545,1545,1545,1545
150368162,1000,1000,1000,1000,199368554,1545,1545,1545,1545
150370661,1000,1000,1000,1000,199468514,1545,1544,1545,1544
150373160,1000,1000,1000,1000,199568474,1544,1544,1544,1544
150375659,1000,1000,1000,1000,199668434,1545,1544,1545,1544
150378158,1000,1000,1000,1000,199768394,1544,1544,1544,1544
150380657,1000,1000,1000,1000,199868354,1544,1544,1544,1544
150383156,1000,1000,1000,1000,199968314,1544,1545,1545,1545
150385655,1000,1000,1000,1000,200068274,1545,1544,1545,1545
150388154,1000,1000,1000,1000,200168234,1544,1544,1544,1544
150391486,1000,1000,1000,1000,200268194,1544,1544,1544,1544
150393985,1000,1000,1000,1000,200368154,1544,1544,1544,1544
150396484,1000,1000,1000,1000,200468947,1538,1538,1535,1535
150398983,1000,1000,1000,1000,200568907,1416,1418,1345,1345
150401482,1000,1000,1000,1000,200668867,1360,1363,1242,1243
150403981,1000,1000,1000,1000,200768827,1344,1346,1209,1210
150406480,1000,1000,1000,1000,200868787,1333,1334,1185,1186
150408979,1000,1000,1000,1000,200968747,1310,1311,1150,1150
150411478,1000,1000,1000,1000,201068707,1226,1228,1150,1150
150413977,1000,1000,1000,1000,201168667,1130,1132,1150,1150
150416476,1000,1000,1000,1000,201268627,1023,1026,1150,1150
150418975,1000,1000,1000,1000,201368587,956,958,1150,1150
150421474,1000,1000,1000,1000,201468547,956,958,1150,1150
150423973,1000,1000,1000,1000,201568507,956,958,1150,1150
150426472,1000,1000,1000,1000,201668467,957,930,1150,1185
150428971,1000,1000,1000,1000,201768427,957,939,1150,1175
150431470,1000,1000,1000,1000,201868387,956,945,1150,1168
150433969,1000,1000,1000,1000,201968347,956,946,1150,1166
150436468,1000,1000,1000,1000,202068307,956,946,1150,1167
150438967,1000,1000,1000,1000,202168267,956,945,1150,1167
150441466,1000,1000,1000,1000,202268227,956,945,1150,1168
150443965,1000,1000,1000,1000,202368187,956,944,1150,1169
150446464,1000,1000,1000,1000,202468980,957,958,1150,1150
150448963,1000,1000,1000,1000,202568940,957,956,1150,1152
150451462,1000,1000,1000,1000,202668900,957,955,1150,1153
150453961,1000,1000,1000,1000,202768860,957,955,1150,1153
150456460,1000,1000,1000,1000,202868820,957,954,1150,1154
150458959,1000,1000,1000,1000,202968780,1000,1000,1000,1000
150461458,1000,1000,1000,1000,203068740,1000,1000,1000,1000
150463957,1000,1000,1000,1000,203168700,1000,1000,1000,1000
150466456,1000,1000,1000,1000,203268660,1000,1000,1000,1000
150468955,1000,1000,1000,1000,203368620,1000,1000,1000,1000
150471454,1000,1000,1000,1000,203468580,1000,1000,1000,1000
150473953,1000,1000,1000,1000,203568540,1000,1000,1000,1000
150476452,1000,1000,1000,1000,203668500,1000,1000,1000,1000
150478951,1000,1000,1000,1000,203768460,1000,1000,1000,1000
150481450,1000,1000,1000,1000,203868420,1000,1000,1000,1000
150483949,1000,1000,1000,1000,203968380,1000,1000,1000,1000
150486448,1000,1000,1000,1000,204068340,1000,1000,1000,1000
150488947,1000,1000,1000,1000,204168300,1000,1000,1000,1000
150491446,1000,1000,1000,1000,204268260,1000,1000,1000,1000
150493945,1000,1000,1000,1000,204368220,1000,1000,1000,1000
150496444,1000,1000,1000,1000,204468180,1000,1000,1000,1000
150498943,1000,1000,1000,1000,204568973,1000,1000,1000,1000
150501442,1000,1000,1000,1000,204668933,1000,1000,1000,1000
150503941,1000,1000,1000,1000,204768893,1000,1000,1000,1000
150506440,1000,1000,1000,1000,204868853,1000,1000,1000,1000
150508939,1000,1000,1000,1000,204968813,1000,1000,1000,1000
150511438,1000,1000,1000,1000,205068773,1000,1000,1000,1000
150513937,1000,1000,1000,1000,205168733,1000,1000,1000,1000
150516436,1000,1000,1000,1000,205268693,1000,1000,1000,1000
150518935,1000,1000,1000,1000,205368653,1000,1000,1000,1000
150521434,1000,1000,1000,1000,205468613,1000,1000,1000,1000
150523933,1000,1000,1000,1000,205568573,1000,1000,1000,1000
150526432,1000,1000,1000,1000,205668533,1000,1000,1000,1000
150528931,1000,1000,1000,1000,205768493,1000,1000,1000,1000
150531430,1000,1000,1000,1000,205868453,1000,1000,1000,1000
150533929,1000,1000,1000,1000,205968413,1000,1000,1000,1000
150536428,1000,1000,1000,1000,206068373,1000,1000,1000,1000
150538927,1000,1000,1000,1000,206168333,1000,1000,1000,1000
150541426,1000,1000,1000,1000,206268293,1000,1000,1000,1000
150543925,1000,1000,1000,1000,206368253,1000,1000,1000,1000
150546424,1000,1000,1000,1000,206468213,1000,1000,1000,1000
150548923,1000,1000,1000,1000,206568173,1000,1000,1000,1000
150551422,1000,1000,1000,1000,206668966,1000,1000,1000,1000
150553921,1000,1000,1000,1000,206768926,1000,1000,1000,1000
150556420,1000,1000,1000,1000,206868886,1000,1000,1000,1000
150558919,1000,1000,1000,1000,206968846,1000,1000,1000,1000
150561418,1000,1000,1000,1000,207068806,1000,1000,1000,1000
150563917,1000,1000,1000,1000,207168766,1000,1000,1000,1000
150566416,1000,1000,1000,1000,207268726,1000,1000,1000,1000
150568915,1000,1000,1000,1000,207368686,1000,1000,1000,1000
150571414,1000,1000,1000,1000,207468646,1000,1000,1000,1000
150573913,1000,1000,1000,1000,207568606,1000,1000,1000,1000
150576412,1000,1000,1000,1000,207668566,1000,1000,1000,1000
150578911,1000,1000,1000,1000,207768526,1000,1000,1000,1000
150581410,1000,1000,1000,1000,207868486,1000,1000,1000,1000
150583909,1000,1000,1000,1000,207968446,1000,1000,1000,1000
150586408,1000,1000,1000,1000,208068406,1000,1000,1000,1000
150588907,1000,1000,1000,1000,208168366,1000,1000,1000,1000
150591406,1000,1000,1000,1000,208268326,1000,1000,1000,1000
150593905,1000,1000,1000,1000,208368286,1000,1000,1000,1000
150596404,1000,1000,1000,1000,208468246,1000,1000,1000,1000
150598903,1000,1000,1000,1000,208568206,1000,1000,1000,1000
150601402,1000,1000,1000,1000,208668166,1000,1000,1000,1000
150603901,1000,1000,1000,1000,208768959,1000,1000,1000,1000
150606400,1000,1000,1000,1000,208868919,1000,1000,1000,1000
150608899,1000,1000,1000,1000,208968879,1000,1000,1000,1000
150611398,1000,1000,1000,1000,209068839,1000,1000,1000,1000
150613897,1000,1000,1000,1000,209168799,1000,1000,1000,1000
150616396,1000,1000,1000,1000,209268759,1000,1000,1000,1000
150618895,1000,1000,1000,1000,209368719,1000,1000,1000,1000
150621394,1000,1000,1000,1000,209468679,1000,1000,1000,1000
150623893,1000,1000,1000,1000,209568639,1000,1000,1000,1000
150626392,1000,1000,1000,1000,209668599,1000,1000,1000,1000
150628891,1000,1000,1000,1000,209768559,1000,1000,1000,1000
150631390,1000,1000,1000,1000,209868519,1000,1000,1000,1000
150633889,1000,1000,1000,1000,209968479,1000,1000,1000,1000
150636388,1000,1000,1000,1000,210068439,1000,1000,1000,1000
150638887,1000,1000,1000,1000,210168399,1000,1000,1000,1000
150641386,1000,1000,1000,1000,210268359,1000,1000,1000,1000
150643885,1000,1000,1000,1000,210368319,1000,1000,1000,1000
150646384,1000,1000,1000,1000,210468279,1000,1000,1000,1000
150648883,1000,1000,1000,1000,210568239,1000,1000,1000,1000
150651382,1000,1000,1000,1000,210668199,1000,1000,1000,1000
150653881,1000,1000,1000,1000,210768159,1000,1000,1000,1000
150656380,1000,1000,1000,1000,210868952,1000,1000,1000,1000
150658879,1000,1000,1000,1000,210968912,1000,1000,1000,1000
150661378,1000,1000,1000,1000,211068872,1000,1000,1000,1000
150663877,1000,1000,1000,1000,211168832,1000,1000,1000,1000
150666376,1000,1000,1000,1000,211268792,1000,1000,1000,1000
150668875,1000,1000,1000,1000,211368752,1000,1000,1000,1000
150671374,1000,1000,1000,1000,211468712,1000,1000,1000,1000
150673873,1000,1000,1000,1000,211568672,1000,1000,1000,1000
150676372,1000,1000,1000,1000,211668632,1000,1000,1000,1000
150678871,1000,1000,1000,1000,211768592,1000,1000,1000,1000
150681370,1000,1000,1000,1000,211868552,1000,1000,1000,1000
150683869,1000,1000,1000,1000,211968512,1000,1000,1000,1000
150686368,1000,1000,1000,1000,212068472,1000,1000,1000,1000
150688867,1000,1000,1000,1000,212168432,1000,1000,1000,1000
150691366,1000,1000,1000,1000,212268392,1000,1000,1000,1000
150693865,1000,1000,1000,1000,212368352,1000,1000,1000,1000
150696364,1000,1000,1000,1000,212468312,1000,1000,1000,1000
150698863,1000,1000,1000,1000,212568272,1000,1000,1000,1000
150701362,1000,1000,1000,1000,212668232,1000,1000,1000,1000
150703861,1000,1000,1000,1000,212768192,1000,1000,1000,1000
150706360,1000,1000,1000,1000,212868985,1000,1000,1000,1000
150708859,1000,1000,1000,1000,212968945,1000,1000,1000,1000
150711358,1000,1000,1000,1000,213068905,1000,1000,1000,1000
150713857,1000,1000,1000,1000,213168865,1000,1000,1000,1000
150716356,1000,1000,1000,1000,213268825,1000,1000,1000,1000
150718855,1000,1000,1000,1000,213368785,1000,1000,1000,1000
150721354,1000,1000,1000,1000,213468745,1000,1000,1000,1000
150723853,1000,1000,1000,1000,213568705,1000,1000,1000,1000
150726352,1000,1000,1000,1000,213668665,1000,1000,1000,1000
150728851,1000,1000,1000,1000,213768625,1000,1000,1000,1000
150731350,1000,1000,1000,1000,213868585,1000,1000,1000,1000
150733849,1000,1000,1000,1000,213968545,1000,1000,1000,1000
150736348,1000,1000,1000,1000,214068505,1000,1000,1000,1000
150738847,1000,1000,1000,1000,214168465,1000,1000,1000,1000
150741346,1000,1000,1000,1000,214268425,1000,1000,1000,1000
150743845,1000,1000,1000,1000,214368385,1000,1000,1000,1000
150746344,1000,1000,1000,1000,214468345,1000,1000,1000,1000
150748843,1000,1000,1000,1000,214568305,1000,1000,1000,1000
150751342,1000,1000,1000,1000,214668265,1000,1000,1000,1000
150753841,1000,1000,1000,1000,214768225,1000,1000,1000,1000
150756340,1000,1000,1000,1000,214868185,1000,1000,1000,1000
150758839,1000,1000,1000,1000,214968978,1000,1000,1000,1000
150761338,1000,1000,1000,1000,215068938,1000,1000,1000,1000
150763837,1000,1000,1000,1000,215168898,1000,1000,1000,1000
150766336,1000,1000,1000,1000,215268858,1000,1000,1000,1000
150768835,1000,1000,1000,1000,215368818,1000,1000,1000,1000
150771334,1000,1000,1000,1000,215468778,1000,1000,1000,1000
150773833,1000,1000,1000,1000,215568738,1000,1000,1000,1000
150776332,1000,1000,1000,1000,215668698,1000,1000,1000,1000
150778831,1000,1000,1000,1000,215768658,1000,1000,1000,1000
150781330,1000,1000,1000,1000,215868618,1000,1000,1000,1000
150783829,1000,1000,1000,1000,215968578,1000,1000,1000,1000
150786328,1000,1000,1000,1000,216068538,1000,1000,1000,1000
150788827,1000,1000,1000,1000,216168498,1000,1000,1000,1000
150791326,1000,1000,1000,1000,216268458,1000,1000,1000,1000
150793825,1000,1000,1000,1000,216368418,1000,1000,1000,1000
150796324,1000,1000,1000,1000,216468378,1000,1000,1000,1000
150798823,1000,1000,1000,1000,216568338,1000,1000,1000,1000
150801322,1000,1000,1000,1000,216668298,1000,1000,1000,1000
150803821,1000,1000,1000,1000,216768258,1000,1000,1000,1000
150806320,1000,1000,1000,1000,216868218,1000,1000,1000,1000
150808819,1000,1000,1000,1000,216968178,1000,1000,1000,1000
150811318,1000,1000,1000,1000,217068971,1000,1000,1000,1000
150813817,1000,1000,1000,1000,217168931,1000,1000,1000,1000
150816316,1000,1000,1000,1000,217268891,1000,1000,1000,1000
150818815,1000,1000,1000,1000,217368851,1000,1000,1000,1000
150821314,1000,1000,1000,1000,217468811,1000,1000,1000,1000
150823813,1000,1000,1000,1000,217568771,1000,1000,1000,1000
150826312,1000,1000,1000,1000,217668731,1000,1000,1000,1000
150828811,1000,1000,1000,1000,217768691,1000,1000,1000,1000
150831310,1000,1000,1000,1000,217868651,1000,1000,1000,1000
150833809,1000,1000,1000,1000,,,,,
150836308,1000,1000,1000,1000,,,,,
150838807,1000,1000,1000,1000,,,,,
150841306,1000,1000,1000,1000,,,,,
150843805,1000,1000,1000,1000,,,,,
150846304,1000,1000,1000,1000,,,,,
150848803,1000,1000,1000,1000,,,,,
150851302,1000,1000,1000,1000,,,,,
150853801,1000,1000,1000,1000,,,,,
150856300,1000,1000,1000,1000,,,,,
150858799,1000,1000,1000,1000,,,,,
150861298,1000,1000,1000,1000,,,,,
150863797,1000,1000,1000,1000,,,,,
150866296,1000,1000,1000,1000,,,,,
150868795,1000,1000,1000,1000,,,,,
150871294,1000,1000,1000,1000,,,,,
150873793,1000,1000,1000,1000,,,,,
150876292,1000,1000,1000,1000,,,,,
150878791,1000,1000,1000,1000,,,,,
150881290,1000,1000,1000,1000,,,,,
150883789,1000,1000,1000,1000,,,,,
150886288,1000,1000,1000,1000,,,,,
150888787,1000,1000,1000,1000,,,,,
150891286,1000,1000,1000,1000,,,,,
150893785,1000,1000,1000,1000,,,,,
150896284,1000,1000,1000,1000,,,,,
150898783,1000,1000,1000,1000,,,,,
150901282,1000,1000,1000,1000,,,,,
150903781,1000,1000,1000,1000,,,,,
150906280,1000,1000,1000,1000,,,,,
150908779,1000,1000,1000,1000,,,,,
150911278,1000,1000,1000,1000,,,,,
150913777,1000,1000,1000,1000,,,,,
150916276,1000,1000,1000,1000,,,,,
150918775,1000,1000,1000,1000,,,,,
150921274,1000,1000,1000,1000,,,,,
150923773,1000,1000,1000,1000,,,,,
150926272,1000,1000,1000,1000,,,,,
150928771,1000,1000,1000,1000,,,,,
150931270,1000,1000,1000,1000,,,,,
150933769,1000,1000,1000,1000,,,,,
150936268,1000,1000,1000,1000,,,,,
150938767,1000,1000,1000,1000,,,,,
150941266,1000,1000,1000,1000,,,,,
150943765,1000,1000,1000,1000,,,,,
150946264,1000,1000,1000,1000,,,,,
150948763,1000,1000,1000,1000,,,,,
150951262,1000,1000,1000,1000,,,,,
150953761,1000,1000,1000,1000,,,,,
150956260,1000,1000,1000,1000,,,,,
150958759,1000,1000,1000,1000,,,,,
150961258,1000,1000,1000,1000,,,,,
150963757,1000,1000,1000,1000,,,,,
150966256,1000,1000,1000,1000,,,,,
150968755,1000,1000,1000,1000,,,,,
150971254,1000,1000,1000,1000,,,,,
150973753,1000,1000,1000,1000,,,,,
150976252,1000,1000,1000,1000,,,,,
150978751,1000,1000,1000,1000,,,,,
150981250,1000,1000,1000,1000,,,,,
150983749,1000,1000,1000,1000,,,,,
150986248,1000,1000,1000,1000,,,,,
150988747,1000,1000,1000,1000,,,,,
150991246,1000,1000,1000,1000,,,,,
150993745,1000,1000,1000,1000,,,,,
150996244,1000,1000,1000,1000,,,,,
150998743,1000,1000,1000,1000,,,,,
151001242,1000,1000,1000,1000,,,,,
151003741,1000,1000,1000,1000,,,,,
151006240,1000,1000,1000,1000,,,,,
151008739,1000,1000,1000,1000,,,,,
151011238,1000,1000,1000,1000,,,,,
151013737,1000,1000,1000,1000,,,,,
151016236,1000,1000,1000,1000,,,,,
151018735,1000,1000,1000,1000,,,,,
151021234,1000,1000,1000,1000,,,,,
151023733,1000,1000,1000,1000,,,,,
151026232,1000,1000,1000,1000,,,,,
151028731,1000,1000,1000,1000,,,,,
151031230,1000,1000,1000,1000,,,,,
151033729,1000,1000,1000,1000,,,,,
151036228,1000,1000,1000,1000,,,,,
151038727,1000,1000,1000,1000,,,,,
151041226,1000,1000,1000,1000,,,,,
151043725,1000,1000,1000,1000,,,,,
151046224,1000,1000,1000,1000,,,,,
151048723,1000,1000,1000,1000,,,,,
151051222,1000,1000,1000,1000,,,,,
151053721,1000,1000,1000,1000,,,,,
151056220,1000,1000,1000,1000,,,,,
151058719,1000,1000,1000,1000,,,,,
151061218,1000,1000,1000,1000,,,,,
151063717,1000,1000,1000,1000,,,,,
151066216,1000,1000,1000,1000,,,,,
151068715,1000,1000,1000,1000,,,,,
151071214,1000,1000,1000,1000,,,,,
151073713,1000,1000,1000,1000,,,,,
151076212,1000,1000,1000,1000,,,,,
151078711,1000,1000,1000,1000,,,,,
151081210,1000,1000,1000,1000,,,,,
151083709,1000,1000,1000,1000,,,,,
151086208,1000,1000,1000,1000,,,,,
151088707,1000,1000,1000,1000,,,,,
151091206,1000,1000,1000,1000,,,,,
151093705,1000,1000,1000,1000,,,,,
151096204,1000,1000,1000,1000,,,,,
151098703,1000,1000,1000,1000,,,,,
151101202,1000,1000,1000,1000,,,,,
151103701,1000,1000,1000,1000,,,,,
151106200,1000,1000,1000,1000,,,,,
151108699,1000,1000,1000,1000,,,,,
151111198,1000,1000,1000,1000,,,,,
151113697,1000,1000,1000,1000,,,,,
151116196,1000,1000,1000,1000,,,,,
151118695,1001,1001,1001,1001,,,,,
151121194,1002,1002,1002,1002,,,,,
151123693,1003,1003,1003,1003,,,,,
151126192,1003,1003,1003,1003,,,,,
151128691,1004,1004,1004,1004,,,,,
151131190,1005,1005,1005,1005,,,,,
151133689,1006,1006,1006,1006,,,,,
151136188,1006,1006,1006,1006,,,,,
151138687,1007,1007,1007,1007,,,,,
151141186,1008,1008,1008,1008,,,,,
151143685,1009,1009,1009,1009,,,,,
151146184,1009,1009,1009,1009,,,,,
151148683,1010,1010,1010,1010,,,,,
151151182,1011,1011,1011,1011,,,,,
151153681,1012,1012,1012,1012,,,,,
151156180,1012,1012,1012,1012,,,,,
151158679,1013,1013,1013,1013,,,,,
151161178,1014,1014,1014,1014,,,,,
151163677,1015,1015,1015,1015,,,,,
151166176,1015,1015,1015,1015,,,,,
151168675,1016,1016,1016,1016,,,,,
151171174,1017,1017,1017,1017,,,,,
151173673,1018,1018,1018,1018,,,,,
151176172,1018,1018,1018,1018,,,,,
151178671,1019,1019,1019,1019,,,,,
151181170,1020,1020,1020,1020,,,,,
151183669,1021,1021,1021,1021,,,,,
151186168,1021,1021,1021,1021,,,,,
151188667,1022,1022,1022,1022,,,,,
151191166,1023,1023,1023,1023,,,,,
151193665,1024,1024,1024,1024,,,,,
151196164,1024,1024,1024,1024,,,,,
151198663,1025,1025,1025,1025,,,,,
151201162,1026,1026,1026,1026,,,,,
151203661,1027,1027,1027,1027,,,,,
151206160,1027,1027,1027,1027,,,,,
151208659,1028,1028,1028,1028,,,,,
151211158,1029,1029,1029,1029,,,,,
151213657,1030,1030,1030,1030,,,,,
151216156,1030,1030,1030,1030,,,,,
151218655,1031,1031,1031,1031,,,,,
151221154,1032,1032,1032,1032,,,,,
151223653,1033,1033,1033,1033,,,,,
151226152,1033,1033,1033,1033,,,,,
151228651,1034,1034,1034,1034,,,,,
151231150,1035,1035,1035,1035,,,,,
151233649,1036,1036,1036,1036,,,,,
151236148,1036,1036,1036,1036,,,,,
151238647,1037,1037,1037,1037,,,,,
151241146,1038,1038,1038,1038,,,,,
151243645,1039,1039,1039,1039,,,,,
151246144,1039,1039,1039,1039,,,,,
151248643,1040,1040,1040,1040,,,,,
151251142,1041,1041,1041,1041,,,,,
151253641,1042,1042,1042,1042,,,,,
151256140,1042,1042,1042,1042,,,,,
151258639,1043,1043,1043,1043,,,,,
151261138,1044,1044,1044,1044,,,,,
151263637,1045,1045,1045,1045,,,,,
151266136,1045,1045,1045,1045,,,,,
151268635,1046,1046,1046,1046,,,,,
151271134,1047,1047,1047,1047,,,,,
151273633,1048,1048,1048,1048,,,,,
151276132,1048,1048,1048,1048,,,,,
151278631,1049,1049,1049,1049,,,,,
151281130,1050,1050,1050,1050,,,,,
151283629,1051,1051,1051,1051,,,,,
151286128,1051,1051,1051,1051,,,,,
151288627,1052,1052,1052,1052,,,,,
151291126,1053,1053,1053,1053,,,,,
151293625,1054,1054,1054,1054,,,,,
151296124,1054,1054,1054,1054,,,,,
151298623,1055,1055,1055,1055,,,,,
151301122,1056,1056,1056,1056,,,,,
151303621,1057,1057,1057,1057,,,,,
151306120,1057,1057,1057,1057,,,,,
151308619,1058,1058,1058,1058,,,,,
151311118,1059,1059,1059,1059,,,,,
151313617,1060,1060,1060,1060,,,,,
151316116,1060,1060,1060,1060,,,,,
151318615,1061,1061,1061,1061,,,,,
151321114,1062,1062,1062,1062,,,,,
151323613,1063,1063,1063,1063,,,,,
151326112,1063,1063,1063,1063,,,,,
151328611,1064,1064,1064,1064,,,,,
151331110,1065,1065,1065,1065,,,,,
151333609,1066,1066,1066,1066,,,,,
151336108,1066,1066,1066,1066,,,,,
151338607,1067,1067,1067,1067,,,,,
151341106,1068,1068,1068,1068,,,,,
151343605,1069,1069,1069,1069,,,,,
151346104,1069,1069,1069,1069,,,,,
151348603,1070,1070,1070,1070,,,,,
151351102,1071,1071,1071,1071,,,,,
151353601,1072,1072,1072,1072,,,,,
151356100,1072,1072,1072,1072,,,,,
151358599,1073,1073,1073,1073,,,,,
151361098,1074,1074,1074,1074,,,,,
151363597,1075,1075,1075,1075,,,,,
151366096,1075,1075,1075,1075,,,,,
151368595,1076,1076,1076,1076,,,,,
151371094,1077,1077,1077,1077,,,,,
151373593,1078,1078,1078,1078,,,,,
151376092,1078,1078,1078,1078,,,,,
151378591,1079,1079,1079,1079,,,,,
151381090,1080,1080,1080,1080,,,,,
151383589,1081,1081,1081,1081,,,,,
151386088,1081,1081,1081,1081,,,,,
151388587,1082,1082,1082,1082,,,,,
151391086,1083,1083,1083,1083,,,,,
151393585,1084,1084,1084,1084,,,,,
151396084,1084,1084,1084,1084,,,,,
151398583,1085,1085,1085,1085,,,,,
151401082,1086,1086,1086,1086,,,,,
151403581,1087,1087,1087,1087,,,,,
151406080,1087,1087,1087,1087,,,,,
151408579,1088,1088,1088,1088,,,,,
151411078,1089,1089,1089,1089,,,,,
151413577,1090,1090,1090,1090,,,,,
151416076,1090,1090,1090,1090,,,,,
151418575,1091,1091,1091,1091,,,,,
151421074,1092,1092,1092,1092,,,,,
151423573,1093,1093,1093,1093,,,,,
151426072,1093,1093,1093,1093,,,,,
151428571,1094,1094,1094,1094,,,,,
151431070,1095,1095,1095,1095,,,,,
151433569,1096,1096,1096,1096,,,,,
151436068,1096,1096,1096,1096,,,,,
151438567,1097,1097,1097,1097,,,,,
151441066,1098,1098,1098,1098,,,,,
151443565,1099,1099,1099,1099,,,,,
151446064,1099,1099,1099,1099,,,,,
151448563,1100,1100,1100,1100,,,,,
151451062,1101,1101,1101,1101,,,,,
151453561,1101,1101,1101,1101,,,,,
151456060,1102,1102,1102,1102,,,,,
151458559,1103,1103,1103,1103,,,,,
151461058,1104,1104,1104,1104,,,,,
151463557,1104,1104,1104,1104,,,,,
151466056,1105,1105,1105,1105,,,,,
151468555,1106,1106,1106,1106,,,,,
151471054,1107,1107,1107,1107,,,,,
151473553,1107,1107,1107,1107,,,,,
151476052,1108,1108,1108,1108,,,,,
151478551,1109,1109,1109,1109,,,,,
151481050,1110,1110,1110,1110,,,,,
151483549,1110,1110,1110,1110,,,,,
151486048,1111,1111,1111,1111,,,,,
151488547,1112,1112,1112,1112,,,,,
151491046,1113,1113,1113,1113,,,,,
151493545,1113,1113,1113,1113,,,,,
151496044,1114,1114,1114,1114,,,,,
151498543,1115,1115,1115,1115,,,,,
151501042,1116,1116,1116,1116,,,,,
151503541,1116,1116,1116,1116,,,,,
151506040,1117,1117,1117,1117,,,,,
151508539,1118,1118,1118,1118,,,,,
151511038,1119,1119,1119,1119,,,,,
151513537,1119,1119,1119,1119,,,,,
151516036,1120,1120,1120,1120,,,,,
151518535,1121,1121,1121,1121,,,,,
151521034,1122,1122,1122,1122,,,,,
151523533,1122,1122,1122,1122,,,,,
151526032,1123,1123,1123,1123,,,,,
151528531,1124,1124,1124,1124,,,,,
151531030,1125,1125,1125,1125,,,,,
151533529,1125,1125,1125,1125,,,,,
151536028,1126,1126,1126,1126,,,,,
151538527,1127,1127,1127,1127,,,,,
151541026,1128,1128,1128,1128,,,,,
151543525,1128,1128,1128,1128,,,,,
151546024,1129,1129,1129,1129,,,,,
151548523,1130,1130,1130,1130,,,,,
151551022,1131,1131,1131,1131,,,,,
151553521,1131,1131,1131,1131,,,,,
151556020,1132,1132,1132,1132,,,,,
151558519,1133,1133,1133,1133,,,,,
151561018,1134,1134,1134,1134,,,,,
151563517,1134,1134,1134,1134,,,,,
151566016,1135,1135,1135,1135,,,,,
151568515,1136,1136,1136,1136,,,,,
151571014,1137,1137,1137,1137,,,,,
151573513,1137,1137,1137,1137,,,,,
151576012,1138,1138,1138,1138,,,,,
151578511,1139,1139,1139,1139,,,,,
151581010,1140,1140,1140,1140,,,,,
151583509,1140,1140,1140,1140,,,,,
151586008,1141,1141,1141,1141,,,,,
151588507,1142,1142,1142,1142,,,,,
151591006,1143,1143,1143,1143,,,,,
151593505,1143,1143,1143,1143,,,,,
151596004,1144,1144,1144,1144,,,,,
151598503,1145,1145,1145,1145,,,,,
151601002,1146,1146,1146,1146,,,,,
151603501,1146,1146,1146,1146,,,,,
151606000,1147,1147,1147,1147,,,,,
151608499,1148,1148,1148,1148,,,,,
151610998,1149,1149,1149,1149,,,,,
151613497,1149,1149,1149,1149,,,,,
151615996,1150,1150,1150,1150,,,,,
151618495,1165,1150,1150,1166,,,,,
151620994,1176,1154,1155,1178,,,,,
151623493,1184,1162,1163,1185,,,,,
151625992,1192,1170,1171,1193,,,,,
151628491,1199,1178,1179,1200,,,,,
151630990,1207,1185,1186,1208,,,,,
151633489,1214,1193,1194,1215,,,,,
151635988,1221,1200,1201,1222,,,,,
151638487,1228,1207,1208,1229,,,,,
151640986,1235,1215,1216,1236,,,,,
151643485,1242,1222,1223,1243,,,,,
151645984,1248,1229,1229,1249,,,,,
151648483,1255,1235,1236,1256,,,,,
151650982,1262,1242,1243,1263,,,,,
151653481,1268,1249,1250,1269,,,,,
151655980,1274,1255,1256,1275,,,,,
151658479,1281,1262,1263,1282,,,,,
151660978,1287,1268,1269,1288,,,,,
151663477,1293,1275,1275,1294,,,,,
151665976,1299,1281,1282,1300,,,,,
151668475,1305,1287,1288,1306,,,,,
151670974,1311,1293,1294,1312,,,,,
151673473,1317,1299,1300,1318,,,,,
151675972,1323,1305,1306,1324,,,,,
151678471,1329,1311,1312,1330,,,,,
151680970,1335,1317,1318,1336,,,,,
151683469,1340,1323,1323,1341,,,,,
151685968,1346,1328,1329,1347,,,,,
151688467,1352,1334,1335,1352,,,,,
151690966,1357,1340,1340,1358,,,,,
151693465,1363,1345,1346,1363,,,,,
151695964,1368,1351,1351,1369,,,,,
151698463,1373,1356,1357,1374,,,,,
151700962,1379,1361,1362,1380,,,,,
151703461,1384,1367,1368,1385,,,,,
151705960,1389,1372,1373,1390,,,,,
151708459,1394,1377,1378,1395,,,,,
151710958,1400,1383,1383,1400,,,,,
151713457,1405,1388,1389,1406,,,,,
151715956,1410,1393,1394,1411,,,,,
151718455,1415,1398,1399,1416,,,,,
151720954,1420,1403,1404,1421,,,,,
151723453,1425,1408,1409,1426,,,,,
151725952,1430,1413,1414,1431,,,,,
151728451,1435,1418,1419,1435,,,,,
151730950,1439,1423,1424,1440,,,,,
151733449,1444,1428,1429,1445,,,,,
151735948,1449,1433,1434,1450,,,,,
151738447,1454,1438,1438,1455,,,,,
151740946,1459,1442,1443,1459,,,,,
151743445,1463,1447,1448,1464,,,,,
151745944,1468,1452,1453,1469,,,,,
151748443,1472,1457,1457,1473,,,,,
151750942,1477,1461,1462,1478,,,,,
151753441,1482,1466,1467,1482,,,,,
151755940,1486,1471,1471,1487,,,,,
151758439,1491,1475,1476,1491,,,,,
151760938,1495,1480,1480,1496,,,,,
151763437,1499,1484,1485,1500,,,,,
151765936,1504,1489,1489,1505,,,,,
151768435,1508,1493,1494,1509,,,,,
151770934,1513,1498,1498,1513,,,,,
151773433,1517,1502,1503,1518,,,,,
151775932,1521,1507,1507,1522,,,,,
151778431,1526,1511,1511,1526,,,,,
151780930,1530,1515,1516,1531,,,,,
151783429,1534,1520,1520,1535,,,,,
151785928,1538,1524,1524,1539,,,,,
151788427,1543,1528,1529,1543,,,,,
151790926,1547,1532,1533,1548,,,,,
151793425,1551,1537,1537,1552,,,,,
151795924,1555,1541,1541,1556,,,,,
151798423,1559,1545,1545,1560,,,,,
151800922,1563,1549,1550,1564,,,,,
151803421,1567,1553,1554,1568,,,,,
151805920,1571,1557,1558,1572,,,,,
151808419,1575,1561,1562,1576,,,,,
151810918,1579,1565,1566,1580,,,,,
151813417,1583,1569,1570,1584,,,,,
151815916,1587,1573,1574,1588,,,,,
151818415,1591,1577,1578,1592,,,,,
151820914,1595,1581,1582,1596,,,,,
151823413,1599,1585,1586,1600,,,,,
151825912,1603,1589,1590,1604,,,,,
151828411,1607,1593,1594,1608,,,,,
151830910,1611,1597,1598,1612,,,,,
151833409,1615,1601,1602,1615,,,,,
151835908,1619,1605,1606,1619,,,,,
151838407,1623,1609,1610,1623,,,,,
151840906,1626,1613,1613,1627,,,,,
151843405,1630,1616,1617,1631,,,,,
151845904,1634,1620,1621,1635,,,,,
151848403,1638,1624,1625,1638,,,,,
151850902,1641,1628,1628,1642,,,,,
151853401,1645,1632,1632,1646,,,,,
151855900,1649,1635,1636,1650,,,,,
151858399,1653,1639,1640,1653,,,,,
151860898,1656,1643,1643,1657,,,,,
151863397,1660,1646,1647,1661,,,,,
151865896,1664,1650,1651,1664,,,,,
151868395,1667,1654,1654,1668,,,,,
151870894,1671,1657,1658,1671,,,,,
151873393,1675,1661,1662,1675,,,,,
151875892,1678,1665,1665,1679,,,,,
151878391,1682,1668,1669,1682,,,,,
151880890,1685,1672,1672,1686,,,,,
151883389,1689,1675,1676,1689,,,,,
151885888,1692,1679,1679,1693,,,,,
151888387,1696,1682,1683,1697,,,,,
151890886,1699,1686,1687,1700,,,,,
151893385,1703,1690,1690,1704,,,,,
151895884,1706,1693,1693,1707,,,,,
151898383,1710,1696,1697,1711,,,,,
151900882,1713,1700,1700,1714,,,,,
151903381,1717,1703,1704,1718,,,,,
151905880,1720,1707,1707,1721,,,,,
151908379,1724,1710,1711,1725,,,,,
151910878,1727,1714,1714,1728,,,,,
151913377,1731,1717,1718,1731,,,,,
151915876,1734,1721,1721,1735,,,,,
151918375,1737,1724,1724,1738,,,,,
151920874,1741,1727,1728,1742,,,,,
151923373,1744,1731,1731,1745,,,,,
151925872,1747,1734,1734,1748,,,,,
151928371,1751,1737,1738,1752,,,,,
151930870,1754,1741,1741,1755,,,,,
151933369,1757,1744,1744,1758,,,,,
151935868,1761,1747,1748,1762,,,,,
151938367,1764,1751,1751,1765,,,,,
151940866,1767,1754,1754,1768,,,,,
151943365,1771,1757,1758,1771,,,,,
151945864,1774,1761,1761,1775,,,,,
151948363,1777,1764,1764,1778,,,,,
151950862,1780,1767,1767,1781,,,,,
151953361,1783,1770,1771,1784,,,,,
151955860,1787,1774,1774,1788,,,,,
151958359,1790,1777,1777,1791,,,,,
151960858,1793,1780,1780,1794,,,,,
151963357,1796,1783,1784,1797,,,,,
151965856,1799,1787,1787,1800,,,,,
151968355,1803,1790,1790,1804,,,,,
151970854,1806,1793,1793,1807,,,,,
151973353,1809,1796,1796,1810,,,,,
151975852,1812,1799,1799,1813,,,,,
151978351,1815,1802,1803,1816,,,,,
151980850,1818,1806,1806,1819,,,,,
151983349,1821,1809,1809,1822,,,,,
151985848,1824,1812,1812,1825,,,,,
151988347,1828,1815,1815,1828,,,,,
151990846,1831,1818,1818,1832,,,,,
151993345,1834,1821,1821,1835,,,,,
151995844,1837,1824,1824,1838,,,,,
151998343,1840,1827,1827,1841,,,,,
152000842,1843,1830,1831,1844,,,,,
152003341,1846,1833,1834,1847,,,,,
152005840,1849,1836,1837,1850,,,,,
152008339,1852,1839,1840,1853,,,,,
152010838,1855,1842,1843,1856,,,,,
152013337,1858,1845,1846,1859,,,,,
152015836,1861,1848,1849,1862,,,,,
152018335,1864,1851,1852,1865,,,,,
152020834,1865,1853,1853,1866,,,,,
152023333,1864,1852,1852,1865,,,,,
152025832,1863,1850,1851,1864,,,,,
152028331,1862,1849,1849,1863,,,,,
152030830,1861,1848,1848,1862,,,,,
152033329,1860,1847,1847,1860,,,,,
152035828,1859,1846,1846,1859,,,,,
152038327,1858,1845,1845,1858,,,,,
152040826,1857,1843,1844,1857,,,,,
152043325,1856,1843,1843,1856,,,,,
152045824,1855,1842,1842,1856,,,,,
152048323,1854,1841,1841,1855,,,,,
152050822,1854,1840,1841,1854,,,,,
152053321,1853,1840,1840,1854,,,,,
152055820,1853,1839,1840,1853,,,,,
152058319,1852,1839,1839,1853,,,,,
152060818,1852,1838,1839,1852,,,,,
152063317,1852,1838,1838,1852,,,,,
152065816,1851,1838,1838,1852,,,,,
152068315,1851,1837,1838,1852,,,,,
152070814,1851,1837,1838,1852,,,,,
152073313,1851,1837,1838,1852,,,,,
152075812,1851,1837,1838,1852,,,,,
152078311,1851,1837,1838,1852,,,,,
152080810,1852,1838,1838,1852,,,,,
152083309,1852,1838,1839,1852,,,,,
152085808,1852,1838,1839,1853,,,,,
152088307,1853,1838,1839,1853,,,,,
152090806,1853,1839,1840,1853,,,,,
152093305,1854,1839,1840,1854,,,,,
152095804,1854,1840,1841,1855,,,,,
152098303,1855,1840,1841,1855,,,,,
152100802,1855,1841,1842,1856,,,,,
152103301,1856,1842,1842,1856,,,,,
152105800,1857,1842,1843,1857,,,,,
152108299,1858,1843,1844,1858,,,,,
152110798,1858,1844,1845,1859,,,,,
152113297,1859,1845,1845,1859,,,,,
152115796,1860,1845,1846,1860,,,,,
152118295,1861,1846,1847,1861,,,,,
152120794,1862,1847,1848,1862,,,,,
152123293,1862,1848,1849,1863,,,,,
152125792,1863,1850,1850,1863,,,,,
152128291,1863,1850,1851,1864,,,,,
152130790,1864,1852,1852,1864,,,,,
152133289,1864,1852,1853,1865,,,,,
152135788,1864,1853,1854,1865,,,,,
152138287,1865,1854,1854,1865,,,,,
152140786,1865,1854,1855,1865,,,,,
152143285,1864,1854,1855,1865,,,,,
152145784,1864,1854,1855,1864,,,,,
152148283,1863,1854,1854,1864,,,,,
152150782,1863,1853,1854,1863,,,,,
152153281,1862,1852,1853,1862,,,,,
152155780,1860,1851,1852,1861,,,,,
152158279,1859,1850,1851,1859,,,,,
152160778,1858,1849,1850,1858,,,,,
