timestamp,TimeUS,C1,C2,C3,C4,C5,C6,C7,C8,C9,C10,C11,C12,C13,C14
1683183484.20000005,46828761,1000,1000,1000,1000,0,0,0,0,0,0,0,0,0,0
1683183484.29995990,46928721,1000,1000,1000,1000,0,0,0,0,0,0,0,0,0,0
1683183484.39991999,47028681,1000,1000,1000,1000,0,0,0,0,0,0,0,0,0,0
1683183484.49987984,47128641,1000,1000,1000,1000,0,0,0,0,0,0,0,0,0,0
1683183484.59983993,47228601,1000,1000,1000,1000,0,0,0,0,0,0,0,0,0,0
1683183484.69980001,47328561,1000,1000,1000,1000,0,0,0,0,0,0,0,0,0,0
1683183484.79975986,47428521,1000,1000,1000,1000,0,0,0,0,0,0,0,0,0,0
1683183484.89971995,47528481,1000,1000,1000,1000,0,0,0,0,0,0,0,0,0,0
1683183484.99968004,47628441,1000,1000,1000,1000,0,0,0,0,0,0,0,0,0,0
1683183485.09963989,47728401,1000,1000,1000,1000,0,0,0,0,0,0,0,0,0,0
1683183485.19959998,47828361,1000,1000,1000,1000,0,0,0,0,0,0,0,0,0,0
1683183485.29955983,47928321,1000,1000,1000,1000,0,0,0,0,0,0,0,0,0,0
1683183485.39951992,48028281,1000,1000,1000,1000,0,0,0,0,0,0,0,0,0,0
1683183485.49948001,48128241,1000,1000,1000,1000,0,0,0,0,0,0,0,0,0,0
1683183485.59943986,48228201,1000,1000,1000,1000,0,0,0,0,0,0,0,0,0,0
1683183485.69939995,48328161,1000,1000,1000,1000,0,0,0,0,0,0,0,0,0,0
1683183485.80019283,48428954,1000,1000,1000,1000,0,0,0,0,0,0,0,0,0,0
1683183485.90015292,48528914,1000,1000,1000,1000,0,0,0,0,0,0,0,0,0,0
1683183486.00011301,48628874,1000,1000,1000,1000,0,0,0,0,0,0,0,0,0,0
1683183486.10007286,48728834,1000,1000,1000,1000,0,0,0,0,0,0,0,0,0,0
1683183486.20003295,48828794,1003,1003,1003,1003,0,0,0,0,0,0,0,0,0,0
1683183486.29999304,48928754,1033,1033,1033,1033,0,0,0,0,0,0,0,0,0,0
1683183486.39995289,49028714,1063,1063,1063,1063,0,0,0,0,0,0,0,0,0,0
1683183486.49991298,49128674,1093,1093,1093,1093,0,0,0,0,0,0,0,0,0,0
1683183486.59987307,49228634,1122,1122,1122,1122,0,0,0,0,0,0,0,0,0,0
1683183486.69983292,49328594,1177,1170,1171,1177,0,0,0,0,0,0,0,0,0,0
1683183486.79979300,49428554,1419,1414,1415,1419,0,0,0,0,0,0,0,0,0,0
1683183486.89975286,49528514,1595,1590,1591,1595,0,0,0,0,0,0,0,0,0,0
1683183486.99971294,49628474,1740,1736,1736,1740,0,0,0,0,0,0,0,0,0,0
1683183487.09967303,49728434,1866,1862,1862,1866,0,0,0,0,0,0,0,0,0,0
1683183487.19963288,49828394,1913,1910,1910,1914,0,0,0,0,0,0,0,0,0,0
1683183487.29959297,49928354,1811,1810,1811,1812,0,0,0,0,0,0,0,0,0,0
1683183487.39955306,50028314,1695,1695,1696,1694,0,0,0,0,0,0,0,0,0,0
1683183487.49951291,50128274,1640,1642,1642,1640,0,0,0,0,0,0,0,0,0,0
1683183487.59947300,50228234,1636,1638,1638,1636,0,0,0,0,0,0,0,0,0,0
1683183487.69943285,50328194,1642,1643,1643,1642,0,0,0,0,0,0,0,0,0,0
1683183487.79939294,50428154,1641,1642,1642,1642,0,0,0,0,0,0,0,0,0,0
1683183487.90018606,50528947,1635,1634,1634,1635,0,0,0,0,0,0,0,0,0,0
1683183488.00014591,50628907,1623,1622,1622,1623,0,0,0,0,0,0,0,0,0,0
1683183488.10010600,50728867,1595,1595,1589,1601,0,0,0,0,0,0,0,0,0,0
1683183488.20006585,50828827,1586,1585,1576,1595,0,0,0,0,0,0,0,0,0,0
1683183488.30002594,50928787,1583,1582,1576,1588,0,0,0,0,0,0,0,0,0,0
1683183488.39998603,51028747,1583,1583,1581,1584,0,0,0,0,0,0,0,0,0,0
1683183488.49994588,51128707,1586,1586,1589,1584,0,0,0,0,0,0,0,0,0,0
1683183488.59990597,51228667,1588,1588,1593,1583,0,0,0,0,0,0,0,0,0,0
1683183488.69986606,51328627,1566,1567,1587,1547,0,0,0,0,0,0,0,0,0,0
1683183488.79982591,51428587,1557,1557,1572,1543,0,0,0,0,0,0,0,0,0,0
1683183488.89978600,51528547,1548,1548,1549,1548,0,0,0,0,0,0,0,0,0,0
1683183488.99974585,51628507,1540,1540,1531,1550,0,0,0,0,0,0,0,0,0,0
1683183489.09970593,51728467,1533,1533,1522,1545,0,0,0,0,0,0,0,0,0,0
1683183489.19966602,51828427,1529,1528,1519,1538,0,0,0,0,0,0,0,0,0,0
1683183489.29962587,51928387,1527,1527,1521,1532,0,0,0,0,0,0,0,0,0,0
1683183489.39958596,52028347,1528,1528,1527,1529,0,0,0,0,0,0,0,0,0,0
1683183489.49954605,52128307,1531,1531,1533,1529,0,0,0,0,0,0,0,0,0,0
1683183489.59950590,52228267,1535,1535,1539,1531,0,0,0,0,0,0,0,0,0,0
1683183489.69946599,52328227,1540,1540,1545,1535,0,0,0,0,0,0,0,0,0,0
1683183489.79942584,52428187,1543,1544,1547,1540,0,0,0,0,0,0,0,0,0,0
1683183489.90021896,52528980,1548,1547,1549,1546,0,0,0,0,0,0,0,0,0,0
1683183490.00017905,52628940,1550,1550,1549,1550,0,0,0,0,0,0,0,0,0,0
1683183490.10013890,52728900,1551,1551,1549,1553,0,0,0,0,0,0,0,0,0,0
1683183490.20009899,52828860,1550,1550,1555,1561,0,0,0,0,0,0,0,0,0,0
1683183490.30005884,52928820,1550,1550,1560,1564,0,0,0,0,0,0,0,0,0,0
1683183490.40001893,53028780,1554,1554,1563,1564,0,0,0,0,0,0,0,0,0,0
1683183490.49997902,53128740,1557,1558,1564,1563,0,0,0,0,0,0,0,0,0,0
1683183490.59993887,53228700,1561,1562,1563,1563,0,0,0,0,0,0,0,0,0,0
1683183490.69989896,53328660,1565,1566,1564,1563,0,0,0,0,0,0,0,0,0,0
1683183490.79985905,53428620,1568,1568,1564,1563,0,0,0,0,0,0,0,0,0,0
1683183490.89981890,53528580,1571,1570,1564,1563,0,0,0,0,0,0,0,0,0,0
1683183490.99977899,53628540,1573,1572,1565,1565,0,0,0,0,0,0,0,0,0,0
1683183491.09973884,53728500,1573,1574,1566,1567,0,0,0,0,0,0,0,0,0,0
1683183491.19969893,53828460,1574,1574,1568,1568,0,0,0,0,0,0,0,0,0,0
1683183491.29965901,53928420,1574,1573,1569,1569,0,0,0,0,0,0,0,0,0,0
1683183491.39961886,54028380,1574,1573,1570,1571,0,0,0,0,0,0,0,0,0,0
1683183491.49957895,54128340,1574,1574,1572,1572,0,0,0,0,0,0,0,0,0,0
1683183491.59953904,54228300,1573,1574,1574,1573,0,0,0,0,0,0,0,0,0,0
1683183491.69949889,54328260,1573,1573,1576,1573,0,0,0,0,0,0,0,0,0,0
1683183491.79945898,54428220,1572,1573,1576,1574,0,0,0,0,0,0,0,0,0,0
1683183491.89941883,54528180,1573,1574,1577,1576,0,0,0,0,0,0,0,0,0,0
1683183492.00021195,54628973,1573,1573,1576,1575,0,0,0,0,0,0,0,0,0,0
1683183492.10017204,54728933,1574,1574,1577,1576,0,0,0,0,0,0,0,0,0,0
1683183492.20013189,54828893,1575,1575,1577,1577,0,0,0,0,0,0,0,0,0,0
1683183492.30009198,54928853,1576,1575,1577,1577,0,0,0,0,0,0,0,0,0,0
1683183492.40005183,55028813,1576,1576,1576,1577,0,0,0,0,0,0,0,0,0,0
1683183492.50001192,55128773,1576,1577,1577,1576,0,0,0,0,0,0,0,0,0,0
1683183492.59997201,55228733,1577,1577,1577,1576,0,0,0,0,0,0,0,0,0,0
1683183492.69993186,55328693,1577,1578,1577,1576,0,0,0,0,0,0,0,0,0,0
1683183492.79989195,55428653,1579,1579,1578,1578,0,0,0,0,0,0,0,0,0,0
1683183492.89985204,55528613,1578,1578,1577,1577,0,0,0,0,0,0,0,0,0,0
1683183492.99981189,55628573,1578,1577,1577,1576,0,0,0,0,0,0,0,0,0,0
1683183493.09977198,55728533,1578,1578,1577,1578,0,0,0,0,0,0,0,0,0,0
1683183493.19973207,55828493,1579,1579,1578,1578,0,0,0,0,0,0,0,0,0,0
1683183493.29969192,55928453,1578,1578,1578,1578,0,0,0,0,0,0,0,0,0,0
1683183493.39965200,56028413,1578,1578,1578,1578,0,0,0,0,0,0,0,0,0,0
1683183493.49961185,56128373,1579,1579,1579,1579,0,0,0,0,0,0,0,0,0,0
1683183493.59957194,56228333,1578,1578,1579,1578,0,0,0,0,0,0,0,0,0,0
1683183493.69953203,56328293,1578,1578,1578,1578,0,0,0,0,0,0,0,0,0,0
1683183493.79949188,56428253,1578,1578,1579,1579,0,0,0,0,0,0,0,0,0,0
1683183493.89945197,56528213,1578,1578,1579,1579,0,0,0,0,0,0,0,0,0,0
1683183493.99941206,56628173,1578,1578,1579,1579,0,0,0,0,0,0,0,0,0,0
1683183494.10020494,56728966,1579,1578,1579,1579,0,0,0,0,0,0,0,0,0,0
1683183494.20016503,56828926,1579,1579,1579,1579,0,0,0,0,0,0,0,0,0,0
1683183494.30012488,56928886,1578,1578,1578,1578,0,0,0,0,0,0,0,0,0,0
1683183494.40008497,57028846,1579,1579,1579,1579,0,0,0,0,0,0,0,0,0,0
1683183494.50004506,57128806,1579,1580,1580,1580,0,0,0,0,0,0,0,0,0,0
1683183494.60000491,57228766,1579,1580,1579,1579,0,0,0,0,0,0,0,0,0,0
1683183494.69996500,57328726,1580,1580,1580,1580,0,0,0,0,0,0,0,0,0,0
1683183494.79992485,57428686,1580,1579,1580,1580,0,0,0,0,0,0,0,0,0,0
1683183494.89988494,57528646,1580,1580,1580,1580,0,0,0,0,0,0,0,0,0,0
1683183494.99984503,57628606,1580,1579,1579,1579,0,0,0,0,0,0,0,0,0,0
1683183495.09980488,57728566,1580,1580,1580,1580,0,0,0,0,0,0,0,0,0,0
1683183495.19976497,57828526,1580,1581,1581,1581,0,0,0,0,0,0,0,0,0,0
1683183495.29972506,57928486,1580,1581,1580,1581,0,0,0,0,0,0,0,0,0,0
1683183495.39968491,58028446,1580,1580,1580,1580,0,0,0,0,0,0,0,0,0,0
1683183495.49964499,58128406,1581,1580,1581,1580,0,0,0,0,0,0,0,0,0,0
1683183495.59960485,58228366,1581,1581,1580,1581,0,0,0,0,0,0,0,0,0,0
1683183495.69956493,58328326,1581,1580,1580,1580,0,0,0,0,0,0,0,0,0,0
1683183495.79952502,58428286,1581,1581,1581,1581,0,0,0,0,0,0,0,0,0,0
1683183495.89948487,58528246,1581,1581,1581,1581,0,0,0,0,0,0,0,0,0,0
1683183495.99944496,58628206,1581,1580,1581,1581,0,0,0,0,0,0,0,0,0,0
1683183496.09940505,58728166,1580,1581,1581,1581,0,0,0,0,0,0,0,0,0,0
1683183496.20019794,58828959,1581,1581,1582,1581,0,0,0,0,0,0,0,0,0,0
1683183496.30015802,58928919,1582,1582,1582,1582,0,0,0,0,0,0,0,0,0,0
1683183496.40011787,59028879,1582,1582,1583,1582,0,0,0,0,0,0,0,0,0,0
1683183496.50007796,59128839,1580,1581,1588,1573,0,0,0,0,0,0,0,0,0,0
1683183496.60003805,59228799,1580,1582,1584,1573,0,0,0,0,0,0,0,0,0,0
1683183496.69999790,59328759,1578,1581,1576,1573,0,0,0,0,0,0,0,0,0,0
1683183496.79995799,59428719,1577,1580,1567,1572,0,0,0,0,0,0,0,0,0,0
1683183496.89991784,59528679,1577,1579,1560,1568,0,0,0,0,0,0,0,0,0,0
1683183496.99987793,59628639,1577,1578,1557,1563,0,0,0,0,0,0,0,0,0,0
1683183497.09983802,59728599,1579,1577,1555,1559,0,0,0,0,0,0,0,0,0,0
1683183497.19979787,59828559,1579,1577,1555,1555,0,0,0,0,0,0,0,0,0,0
1683183497.29975796,59928519,1579,1578,1556,1554,0,0,0,0,0,0,0,0,0,0
1683183497.39971805,60028479,1578,1578,1557,1554,0,0,0,0,0,0,0,0,0,0
1683183497.49967790,60128439,1577,1577,1556,1554,0,0,0,0,0,0,0,0,0,0
1683183497.59963799,60228399,1576,1577,1556,1554,0,0,0,0,0,0,0,0,0,0
1683183497.69959784,60328359,1575,1576,1555,1554,0,0,0,0,0,0,0,0,0,0
1683183497.79955792,60428319,1574,1576,1553,1553,0,0,0,0,0,0,0,0,0,0
1683183497.89951801,60528279,1575,1577,1552,1553,0,0,0,0,0,0,0,0,0,0
1683183497.99947786,60628239,1576,1577,1550,1550,0,0,0,0,0,0,0,0,0,0
1683183498.09943795,60728199,1579,1579,1548,1549,0,0,0,0,0,0,0,0,0,0
1683183498.19939804,60828159,1581,1582,1546,1546,0,0,0,0,0,0,0,0,0,0
1683183498.30019093,60928952,1584,1585,1544,1543,0,0,0,0,0,0,0,0,0,0
1683183498.40015101,61028912,1586,1587,1540,1539,0,0,0,0,0,0,0,0,0,0
1683183498.50011086,61128872,1590,1590,1538,1537,0,0,0,0,0,0,0,0,0,0
1683183498.60007095,61228832,1592,1593,1535,1535,0,0,0,0,0,0,0,0,0,0
1683183498.70003104,61328792,1594,1594,1534,1535,0,0,0,0,0,0,0,0,0,0
1683183498.79999089,61428752,1594,1594,1534,1535,0,0,0,0,0,0,0,0,0,0
1683183498.89995098,61528712,1595,1594,1536,1538,0,0,0,0,0,0,0,0,0,0
1683183498.99991083,61628672,1593,1592,1538,1541,0,0,0,0,0,0,0,0,0,0
1683183499.09987092,61728632,1590,1588,1544,1547,0,0,0,0,0,0,0,0,0,0
1683183499.19983101,61828592,1585,1582,1553,1556,0,0,0,0,0,0,0,0,0,0
1683183499.29979086,61928552,1576,1573,1562,1565,0,0,0,0,0,0,0,0,0,0
1683183499.39975095,62028512,1565,1561,1573,1575,0,0,0,0,0,0,0,0,0,0
1683183499.49971104,62128472,1554,1551,1586,1587,0,0,0,0,0,0,0,0,0,0
1683183499.59967089,62228432,1543,1541,1597,1597,0,0,0,0,0,0,0,0,0,0
1683183499.69963098,62328392,1535,1534,1607,1606,0,0,0,0,0,0,0,0,0,0
1683183499.79959106,62428352,1530,1530,1613,1611,0,0,0,0,0,0,0,0,0,0
1683183499.89955091,62528312,1527,1529,1614,1614,0,0,0,0,0,0,0,0,0,0
1683183499.99951100,62628272,1531,1534,1614,1614,0,0,0,0,0,0,0,0,0,0
1683183500.09947085,62728232,1536,1539,1610,1610,0,0,0,0,0,0,0,0,0,0
1683183500.19943094,62828192,1544,1546,1604,1604,0,0,0,0,0,0,0,0,0,0
1683183500.30022407,62928985,1552,1554,1597,1597,0,0,0,0,0,0,0,0,0,0
1683183500.40018392,63028945,1562,1561,1589,1588,0,0,0,0,0,0,0,0,0,0
1683183500.50014400,63128905,1570,1569,1582,1581,0,0,0,0,0,0,0,0,0,0
1683183500.60010386,63228865,1578,1577,1577,1576,0,0,0,0,0,0,0,0,0,0
1683183500.70006394,63328825,1582,1581,1571,1570,0,0,0,0,0,0,0,0,0,0
1683183500.80002403,63428785,1587,1585,1568,1568,0,0,0,0,0,0,0,0,0,0
1683183500.89998388,63528745,1588,1587,1567,1567,0,0,0,0,0,0,0,0,0,0
1683183500.99994397,63628705,1588,1587,1567,1568,0,0,0,0,0,0,0,0,0,0
1683183501.09990406,63728665,1587,1586,1569,1569,0,0,0,0,0,0,0,0,0,0
1683183501.19986391,63828625,1584,1584,1571,1571,0,0,0,0,0,0,0,0,0,0
1683183501.29982400,63928585,1581,1581,1574,1574,0,0,0,0,0,0,0,0,0,0
1683183501.39978385,64028545,1578,1578,1576,1576,0,0,0,0,0,0,0,0,0,0
1683183501.49974394,64128505,1576,1576,1579,1579,0,0,0,0,0,0,0,0,0,0
1683183501.59970403,64228465,1574,1575,1582,1581,0,0,0,0,0,0,0,0,0,0
1683183501.69966388,64328425,1572,1573,1582,1582,0,0,0,0,0,0,0,0,0,0
1683183501.79962397,64428385,1572,1573,1584,1584,0,0,0,0,0,0,0,0,0,0
1683183501.89958405,64528345,1572,1573,1583,1583,0,0,0,0,0,0,0,0,0,0
1683183501.99954391,64628305,1574,1574,1584,1584,0,0,0,0,0,0,0,0,0,0
1683183502.09950399,64728265,1575,1575,1583,1583,0,0,0,0,0,0,0,0,0,0
1683183502.19946384,64828225,1576,1576,1581,1581,0,0,0,0,0,0,0,0,0,0
1683183502.29942393,64928185,1577,1577,1580,1580,0,0,0,0,0,0,0,0,0,0
1683183502.40021706,65028978,1578,1578,1579,1579,0,0,0,0,0,0,0,0,0,0
1683183502.50017691,65128938,1580,1580,1578,1578,0,0,0,0,0,0,0,0,0,0
1683183502.60013700,65228898,1581,1581,1578,1578,0,0,0,0,0,0,0,0,0,0
1683183502.70009685,65328858,1581,1581,1577,1577,0,0,0,0,0,0,0,0,0,0
1683183502.80005693,65428818,1582,1581,1578,1577,0,0,0,0,0,0,0,0,0,0
1683183502.90001702,65528778,1582,1582,1578,1578,0,0,0,0,0,0,0,0,0,0
1683183502.99997687,65628738,1582,1582,1579,1579,0,0,0,0,0,0,0,0,0,0
1683183503.09993696,65728698,1324,1327,1644,1653,0,0,0,0,0,0,0,0,0,0
1683183503.19989705,65828658,1400,1409,1655,1659,0,0,0,0,0,0,0,0,0,0
1683183503.29985690,65928618,1468,1479,1645,1640,0,0,0,0,0,0,0,0,0,0
1683183503.39981699,66028578,1523,1531,1634,1624,0,0,0,0,0,0,0,0,0,0
1683183503.49977684,66128538,1568,1568,1627,1616,0,0,0,0,0,0,0,0,0,0
1683183503.59973693,66228498,1600,1583,1601,1593,0,0,0,0,0,0,0,0,0,0
1683183503.69969702,66328458,1600,1583,1528,1534,0,0,0,0,0,0,0,0,0,0
1683183503.79965687,66428418,1600,1588,1479,1495,0,0,0,0,0,0,0,0,0,0
1683183503.89961696,66528378,1599,1600,1491,1505,0,0,0,0,0,0,0,0,0,0
1683183503.99957705,66628338,1592,1600,1507,1511,0,0,0,0,0,0,0,0,0,0
1683183504.09953690,66728298,1590,1600,1527,1525,0,0,0,0,0,0,0,0,0,0
1683183504.19949698,66828258,1593,1600,1545,1540,0,0,0,0,0,0,0,0,0,0
1683183504.29945683,66928218,1597,1600,1561,1556,0,0,0,0,0,0,0,0,0,0
1683183504.39941692,67028178,1600,1597,1568,1566,0,0,0,0,0,0,0,0,0,0
1683183504.50021005,67128971,1600,1591,1571,1565,0,0,0,0,0,0,0,0,0,0
1683183504.60016990,67228931,1600,1586,1572,1569,0,0,0,0,0,0,0,0,0,0
1683183504.70012999,67328891,1600,1590,1575,1579,0,0,0,0,0,0,0,0,0,0
1683183504.80008984,67428851,1600,1596,1580,1586,0,0,0,0,0,0,0,0,0,0
1683183504.90004992,67528811,1597,1600,1584,1587,0,0,0,0,0,0,0,0,0,0
1683183505.00001001,67628771,1595,1600,1586,1584,0,0,0,0,0,0,0,0,0,0
1683183505.09996986,67728731,1596,1600,1590,1585,0,0,0,0,0,0,0,0,0,0
1683183505.19992995,67828691,1598,1600,1592,1586,0,0,0,0,0,0,0,0,0,0
1683183505.29989004,67928651,1600,1598,1591,1587,0,0,0,0,0,0,0,0,0,0
1683183505.39984989,68028611,1600,1597,1588,1586,0,0,0,0,0,0,0,0,0,0
1683183505.49980998,68128571,1600,1598,1586,1586,0,0,0,0,0,0,0,0,0,0
1683183505.59976983,68228531,1600,1598,1586,1586,0,0,0,0,0,0,0,0,0,0
1683183505.69972992,68328491,1600,1599,1586,1587,0,0,0,0,0,0,0,0,0,0
1683183505.79969001,68428451,1599,1600,1585,1586,0,0,0,0,0,0,0,0,0,0
1683183505.89964986,68528411,1599,1600,1585,1584,0,0,0,0,0,0,0,0,0,0
1683183505.99960995,68628371,1599,1600,1586,1584,0,0,0,0,0,0,0,0,0,0
1683183506.09957004,68728331,1600,1599,1586,1584,0,0,0,0,0,0,0,0,0,0
1683183506.19952989,68828291,1600,1599,1585,1584,0,0,0,0,0,0,0,0,0,0
1683183506.29948997,68928251,1600,1599,1584,1584,0,0,0,0,0,0,0,0,0,0
1683183506.39945006,69028211,1592,1591,1573,1573,0,0,0,0,0,0,0,0,0,0
1683183506.49940991,69128171,1587,1587,1566,1566,0,0,0,0,0,0,0,0,0,0
1683183506.60020304,69228964,1582,1582,1559,1560,0,0,0,0,0,0,0,0,0,0
1683183506.70016289,69328924,1577,1578,1555,1555,0,0,0,0,0,0,0,0,0,0
1683183506.80012298,69428884,1574,1575,1551,1552,0,0,0,0,0,0,0,0,0,0
1683183506.90008307,69528844,1571,1573,1549,1550,0,0,0,0,0,0,0,0,0,0
1683183507.00004292,69628804,1570,1571,1549,1549,0,0,0,0,0,0,0,0,0,0
1683183507.10000300,69728764,1568,1570,1547,1548,0,0,0,0,0,0,0,0,0,0
1683183507.19996285,69828724,1568,1570,1549,1548,0,0,0,0,0,0,0,0,0,0
1683183507.29992294,69928684,1566,1569,1548,1547,0,0,0,0,0,0,0,0,0,0
1683183507.39988303,70028644,1567,1570,1550,1548,0,0,0,0,0,0,0,0,0,0
1683183507.49984288,70128604,1568,1570,1550,1550,0,0,0,0,0,0,0,0,0,0
1683183507.59980297,70228564,1569,1571,1551,1552,0,0,0,0,0,0,0,0,0,0
1683183507.69976306,70328524,1570,1572,1552,1553,0,0,0,0,0,0,0,0,0,0
1683183507.79972291,70428484,1572,1573,1554,1554,0,0,0,0,0,0,0,0,0,0
1683183507.89968300,70528444,1574,1575,1556,1557,0,0,0,0,0,0,0,0,0,0
1683183507.99964285,70628404,1575,1576,1556,1556,0,0,0,0,0,0,0,0,0,0
1683183508.09960294,70728364,1577,1578,1557,1558,0,0,0,0,0,0,0,0,0,0
1683183508.19956303,70828324,1579,1580,1559,1560,0,0,0,0,0,0,0,0,0,0
1683183508.29952288,70928284,1582,1582,1561,1562,0,0,0,0,0,0,0,0,0,0
1683183508.39948297,71028244,1583,1584,1562,1563,0,0,0,0,0,0,0,0,0,0
1683183508.49944305,71128204,1585,1586,1562,1564,0,0,0,0,0,0,0,0,0,0
1683183508.59940290,71228164,1586,1587,1563,1564,0,0,0,0,0,0,0,0,0,0
1683183508.70019603,71328957,1589,1588,1566,1566,0,0,0,0,0,0,0,0,0,0
1683183508.80015588,71428917,1591,1590,1567,1567,0,0,0,0,0,0,0,0,0,0
1683183508.90011597,71528877,1592,1591,1567,1568,0,0,0,0,0,0,0,0,0,0
1683183509.00007606,71628837,1593,1591,1567,1568,0,0,0,0,0,0,0,0,0,0
1683183509.10003591,71728797,1593,1591,1568,1568,0,0,0,0,0,0,0,0,0,0
1683183509.19999599,71828757,1592,1591,1568,1569,0,0,0,0,0,0,0,0,0,0
1683183509.29995584,71928717,1592,1592,1569,1569,0,0,0,0,0,0,0,0,0,0
1683183509.39991593,72028677,1591,1592,1569,1569,0,0,0,0,0,0,0,0,0,0
1683183509.49987602,72128637,1590,1590,1569,1568,0,0,0,0,0,0,0,0,0,0
1683183509.59983587,72228597,1591,1591,1570,1570,0,0,0,0,0,0,0,0,0,0
1683183509.69979596,72328557,1591,1590,1571,1570,0,0,0,0,0,0,0,0,0,0
1683183509.79975605,72428517,1590,1590,1570,1570,0,0,0,0,0,0,0,0,0,0
1683183509.89971590,72528477,1590,1590,1571,1570,0,0,0,0,0,0,0,0,0,0
1683183509.99967599,72628437,1590,1589,1570,1570,0,0,0,0,0,0,0,0,0,0
1683183510.09963584,72728397,1590,1590,1571,1571,0,0,0,0,0,0,0,0,0,0
1683183510.19959593,72828357,1589,1589,1570,1570,0,0,0,0,0,0,0,0,0,0
1683183510.29955602,72928317,1589,1589,1570,1570,0,0,0,0,0,0,0,0,0,0
1683183510.39951587,73028277,1589,1589,1569,1569,0,0,0,0,0,0,0,0,0,0
1683183510.49947596,73128237,1589,1589,1569,1568,0,0,0,0,0,0,0,0,0,0
1683183510.59943604,73228197,1589,1589,1568,1568,0,0,0,0,0,0,0,0,0,0
1683183510.69939590,73328157,1589,1584,1572,1571,0,0,0,0,0,0,0,0,0,0
1683183510.80018902,73428950,1574,1566,1593,1592,0,0,0,0,0,0,0,0,0,0
1683183510.90014887,73528910,1557,1551,1608,1610,0,0,0,0,0,0,0,0,0,0
1683183511.00010896,73628870,1545,1543,1616,1618,0,0,0,0,0,0,0,0,0,0
1683183511.10006905,73728830,1537,1541,1617,1620,0,0,0,0,0,0,0,0,0,0
1683183511.20002890,73828790,1535,1542,1617,1617,0,0,0,0,0,0,0,0,0,0
1683183511.29998899,73928750,1536,1545,1613,1613,0,0,0,0,0,0,0,0,0,0
1683183511.39994884,74028710,1540,1549,1610,1608,0,0,0,0,0,0,0,0,0,0
1683183511.49990892,74128670,1547,1553,1605,1603,0,0,0,0,0,0,0,0,0,0
1683183511.59986901,74228630,1554,1556,1598,1596,0,0,0,0,0,0,0,0,0,0
1683183511.69982886,74328590,1562,1561,1592,1591,0,0,0,0,0,0,0,0,0,0
1683183511.79978895,74428550,1568,1566,1586,1586,0,0,0,0,0,0,0,0,0,0
1683183511.89974904,74528510,1574,1570,1581,1582,0,0,0,0,0,0,0,0,0,0
1683183511.99970889,74628470,1578,1575,1577,1578,0,0,0,0,0,0,0,0,0,0
1683183512.09966898,74728430,1582,1580,1576,1576,0,0,0,0,0,0,0,0,0,0
1683183512.19962883,74828390,1584,1583,1574,1574,0,0,0,0,0,0,0,0,0,0
1683183512.29958892,74928350,1586,1585,1572,1573,0,0,0,0,0,0,0,0,0,0
1683183512.39954901,75028310,1587,1587,1572,1572,0,0,0,0,0,0,0,0,0,0
1683183512.49950886,75128270,1588,1589,1572,1573,0,0,0,0,0,0,0,0,0,0
1683183512.59946895,75228230,1588,1588,1572,1572,0,0,0,0,0,0,0,0,0,0
1683183512.69942904,75328190,1588,1588,1572,1572,0,0,0,0,0,0,0,0,0,0
1683183512.80022192,75428983,1588,1588,1572,1573,0,0,0,0,0,0,0,0,0,0
1683183512.90018201,75528943,1588,1587,1573,1574,0,0,0,0,0,0,0,0,0,0
1683183513.00014186,75628903,1588,1587,1580,1570,0,0,0,0,0,0,0,0,0,0
1683183513.10010195,75728863,1588,1584,1581,1568,0,0,0,0,0,0,0,0,0,0
1683183513.20006204,75828823,1587,1583,1575,1571,0,0,0,0,0,0,0,0,0,0
1683183513.30002189,75928783,1584,1581,1566,1569,0,0,0,0,0,0,0,0,0,0
1683183513.39998198,76028743,1579,1580,1559,1565,0,0,0,0,0,0,0,0,0,0
1683183513.49994206,76128703,1576,1580,1558,1563,0,0,0,0,0,0,0,0,0,0
1683183513.59990191,76228663,1574,1579,1557,1558,0,0,0,0,0,0,0,0,0,0
1683183513.69986200,76328623,1572,1577,1557,1555,0,0,0,0,0,0,0,0,0,0
1683183513.79982185,76428583,1573,1576,1558,1555,0,0,0,0,0,0,0,0,0,0
1683183513.89978194,76528543,1573,1574,1557,1554,0,0,0,0,0,0,0,0,0,0
1683183513.99974203,76628503,1574,1574,1557,1555,0,0,0,0,0,0,0,0,0,0
1683183514.09970188,76728463,1573,1572,1555,1554,0,0,0,0,0,0,0,0,0,0
1683183514.19966197,76828423,1573,1572,1554,1554,0,0,0,0,0,0,0,0,0,0
1683183514.29962206,76928383,1573,1573,1553,1554,0,0,0,0,0,0,0,0,0,0
1683183514.39958191,77028343,1573,1573,1552,1552,0,0,0,0,0,0,0,0,0,0
1683183514.49954200,77128303,1573,1574,1550,1551,0,0,0,0,0,0,0,0,0,0
1683183514.59950185,77228263,1573,1575,1549,1549,0,0,0,0,0,0,0,0,0,0
1683183514.69946194,77328223,1573,1576,1546,1546,0,0,0,0,0,0,0,0,0,0
1683183514.79942203,77428183,1576,1578,1546,1545,0,0,0,0,0,0,0,0,0,0
1683183514.90021491,77528976,1578,1579,1544,1543,0,0,0,0,0,0,0,0,0,0
1683183515.00017500,77628936,1581,1581,1543,1542,0,0,0,0,0,0,0,0,0,0
1683183515.10013485,77728896,1583,1583,1541,1541,0,0,0,0,0,0,0,0,0,0
1683183515.20009494,77828856,1585,1585,1540,1541,0,0,0,0,0,0,0,0,0,0
1683183515.30005503,77928816,1587,1586,1540,1541,0,0,0,0,0,0,0,0,0,0
1683183515.40001488,78028776,1587,1587,1540,1542,0,0,0,0,0,0,0,0,0,0
1683183515.49997497,78128736,1587,1586,1542,1544,0,0,0,0,0,0,0,0,0,0
1683183515.59993505,78228696,1586,1585,1544,1547,0,0,0,0,0,0,0,0,0,0
1683183515.69989491,78328656,1583,1583,1547,1550,0,0,0,0,0,0,0,0,0,0
1683183515.79985499,78428616,1581,1581,1551,1554,0,0,0,0,0,0,0,0,0,0
1683183515.89981484,78528576,1577,1576,1555,1559,0,0,0,0,0,0,0,0,0,0
1683183515.99977493,78628536,1573,1572,1562,1564,0,0,0,0,0,0,0,0,0,0
1683183516.09973502,78728496,1569,1567,1569,1571,0,0,0,0,0,0,0,0,0,0
1683183516.19969487,78828456,1563,1561,1575,1576,0,0,0,0,0,0,0,0,0,0
1683183516.29965496,78928416,1558,1556,1582,1583,0,0,0,0,0,0,0,0,0,0
1683183516.39961505,79028376,1552,1550,1588,1588,0,0,0,0,0,0,0,0,0,0
1683183516.49957490,79128336,1547,1546,1595,1595,0,0,0,0,0,0,0,0,0,0
1683183516.59953499,79228296,1543,1543,1601,1600,0,0,0,0,0,0,0,0,0,0
1683183516.69949484,79328256,1538,1539,1605,1604,0,0,0,0,0,0,0,0,0,0
1683183516.79945493,79428216,1536,1538,1605,1605,0,0,0,0,0,0,0,0,0,0
1683183516.89941502,79528176,1536,1538,1603,1603,0,0,0,0,0,0,0,0,0,0
1683183517.00020790,79628969,1541,1543,1601,1601,0,0,0,0,0,0,0,0,0,0
1683183517.10016799,79728929,1546,1548,1597,1597,0,0,0,0,0,0,0,0,0,0
1683183517.20012784,79828889,1552,1553,1590,1590,0,0,0,0,0,0,0,0,0,0
1683183517.30008793,79928849,1559,1560,1585,1584,0,0,0,0,0,0,0,0,0,0
1683183517.40004802,80028809,1567,1567,1581,1580,0,0,0,0,0,0,0,0,0,0
1683183517.50000787,80128769,1574,1573,1575,1574,0,0,0,0,0,0,0,0,0,0
1683183517.59996796,80228729,1579,1578,1572,1571,0,0,0,0,0,0,0,0,0,0
1683183517.69992805,80328689,1583,1582,1570,1570,0,0,0,0,0,0,0,0,0,0
1683183517.79988790,80428649,1585,1583,1569,1569,0,0,0,0,0,0,0,0,0,0
1683183517.89984798,80528609,1586,1584,1569,1569,0,0,0,0,0,0,0,0,0,0
1683183517.99980783,80628569,1587,1586,1570,1570,0,0,0,0,0,0,0,0,0,0
1683183518.09976792,80728529,1586,1585,1570,1571,0,0,0,0,0,0,0,0,0,0
1683183518.19972801,80828489,1586,1586,1573,1573,0,0,0,0,0,0,0,0,0,0
1683183518.29968786,80928449,1584,1585,1574,1574,0,0,0,0,0,0,0,0,0,0
1683183518.39964795,81028409,1583,1583,1575,1575,0,0,0,0,0,0,0,0,0,0
1683183518.49960804,81128369,1582,1582,1577,1576,0,0,0,0,0,0,0,0,0,0
1683183518.59956789,81228329,1581,1581,1578,1578,0,0,0,0,0,0,0,0,0,0
1683183518.69952798,81328289,1580,1580,1579,1580,0,0,0,0,0,0,0,0,0,0
1683183518.79948783,81428249,1579,1579,1580,1580,0,0,0,0,0,0,0,0,0,0
1683183518.89944792,81528209,1578,1578,1581,1581,0,0,0,0,0,0,0,0,0,0
1683183518.99940801,81628169,1577,1578,1581,1582,0,0,0,0,0,0,0,0,0,0
1683183519.10020089,81728962,1577,1577,1582,1582,0,0,0,0,0,0,0,0,0,0
1683183519.20016098,81828922,1576,1577,1581,1581,0,0,0,0,0,0,0,0,0,0
1683183519.30012083,81928882,1576,1577,1582,1582,0,0,0,0,0,0,0,0,0,0
1683183519.40008092,82028842,1576,1577,1581,1581,0,0,0,0,0,0,0,0,0,0
1683183519.50004101,82128802,1577,1577,1581,1581,0,0,0,0,0,0,0,0,0,0
1683183519.60000086,82228762,1577,1578,1581,1581,0,0,0,0,0,0,0,0,0,0
1683183519.69996095,82328722,1578,1578,1580,1580,0,0,0,0,0,0,0,0,0,0
1683183519.79992104,82428682,1579,1579,1581,1581,0,0,0,0,0,0,0,0,0,0
1683183519.89988089,82528642,1580,1580,1580,1580,0,0,0,0,0,0,0,0,0,0
1683183519.99984097,82628602,1580,1580,1579,1580,0,0,0,0,0,0,0,0,0,0
1683183520.09980106,82728562,1581,1581,1579,1579,0,0,0,0,0,0,0,0,0,0
1683183520.19976091,82828522,1581,1581,1579,1579,0,0,0,0,0,0,0,0,0,0
1683183520.29972100,82928482,1582,1581,1579,1579,0,0,0,0,0,0,0,0,0,0
1683183520.39968085,83028442,1582,1582,1580,1580,0,0,0,0,0,0,0,0,0,0
1683183520.49964094,83128402,1581,1581,1579,1579,0,0,0,0,0,0,0,0,0,0
1683183520.59960103,83228362,1582,1582,1580,1580,0,0,0,0,0,0,0,0,0,0
1683183520.69956088,83328322,1582,1582,1581,1581,0,0,0,0,0,0,0,0,0,0
1683183520.79952097,83428282,1582,1582,1580,1580,0,0,0,0,0,0,0,0,0,0
1683183520.89948106,83528242,1582,1582,1581,1582,0,0,0,0,0,0,0,0,0,0
1683183520.99944091,83628202,1581,1581,1580,1580,0,0,0,0,0,0,0,0,0,0
1683183521.09940100,83728162,1581,1581,1581,1581,0,0,0,0,0,0,0,0,0,0
1683183521.20019388,83828955,1581,1581,1581,1581,0,0,0,0,0,0,0,0,0,0
1683183521.30015397,83928915,1581,1581,1583,1580,0,0,0,0,0,0,0,0,0,0
1683183521.40011406,84028875,1580,1580,1588,1573,0,0,0,0,0,0,0,0,0,0
1683183521.50007391,84128835,1579,1578,1583,1574,0,0,0,0,0,0,0,0,0,0
1683183521.60003400,84228795,1577,1575,1575,1574,0,0,0,0,0,0,0,0,0,0
1683183521.69999385,84328755,1573,1572,1568,1573,0,0,0,0,0,0,0,0,0,0
1683183521.79995394,84428715,1571,1571,1565,1572,0,0,0,0,0,0,0,0,0,0
1683183521.89991403,84528675,1568,1569,1563,1569,0,0,0,0,0,0,0,0,0,0
1683183521.99987388,84628635,1566,1568,1564,1567,0,0,0,0,0,0,0,0,0,0
1683183522.09983397,84728595,1566,1567,1566,1567,0,0,0,0,0,0,0,0,0,0
1683183522.19979405,84828555,1566,1567,1569,1566,0,0,0,0,0,0,0,0,0,0
1683183522.29975390,84928515,1565,1566,1569,1566,0,0,0,0,0,0,0,0,0,0
1683183522.39971399,85028475,1565,1565,1567,1565,0,0,0,0,0,0,0,0,0,0
1683183522.49967384,85128435,1565,1564,1567,1565,0,0,0,0,0,0,0,0,0,0
1683183522.59963393,85228395,1564,1563,1565,1564,0,0,0,0,0,0,0,0,0,0
1683183522.69959402,85328355,1563,1562,1563,1564,0,0,0,0,0,0,0,0,0,0
1683183522.79955387,85428315,1562,1561,1561,1562,0,0,0,0,0,0,0,0,0,0
1683183522.89951396,85528275,1561,1561,1561,1561,0,0,0,0,0,0,0,0,0,0
1683183522.99947405,85628235,1561,1561,1561,1561,0,0,0,0,0,0,0,0,0,0
1683183523.09943390,85728195,1560,1561,1561,1561,0,0,0,0,0,0,0,0,0,0
1683183523.19939399,85828155,1560,1561,1561,1559,0,0,0,0,0,0,0,0,0,0
1683183523.30018687,85928948,1559,1559,1559,1558,0,0,0,0,0,0,0,0,0,0
1683183523.40014696,86028908,1560,1560,1560,1559,0,0,0,0,0,0,0,0,0,0
1683183523.50010705,86128868,1559,1558,1559,1558,0,0,0,0,0,0,0,0,0,0
1683183523.60006690,86228828,1559,1558,1559,1558,0,0,0,0,0,0,0,0,0,0
1683183523.70002699,86328788,1559,1559,1559,1558,0,0,0,0,0,0,0,0,0,0
1683183523.79998684,86428748,1559,1559,1560,1559,0,0,0,0,0,0,0,0,0,0
1683183523.89994693,86528708,1559,1558,1560,1559,0,0,0,0,0,0,0,0,0,0
1683183523.99990702,86628668,1559,1558,1560,1558,0,0,0,0,0,0,0,0,0,0
1683183524.09986687,86728628,1559,1559,1561,1558,0,0,0,0,0,0,0,0,0,0
1683183524.19982696,86828588,1559,1559,1560,1559,0,0,0,0,0,0,0,0,0,0
1683183524.29978704,86928548,1560,1559,1558,1562,0,0,0,0,0,0,0,0,0,0
1683183524.39974689,87028508,1560,1560,1558,1564,0,0,0,0,0,0,0,0,0,0
1683183524.49970698,87128468,1560,1561,1558,1564,0,0,0,0,0,0,0,0,0,0
1683183524.59966683,87228428,1560,1561,1559,1563,0,0,0,0,0,0,0,0,0,0
1683183524.69962692,87328388,1559,1560,1559,1560,0,0,0,0,0,0,0,0,0,0
1683183524.79958701,87428348,1559,1559,1560,1557,0,0,0,0,0,0,0,0,0,0
1683183524.89954686,87528308,1560,1559,1558,1559,0,0,0,0,0,0,0,0,0,0
1683183524.99950695,87628268,1558,1558,1555,1558,0,0,0,0,0,0,0,0,0,0
1683183525.09946704,87728228,1555,1555,1551,1553,0,0,0,0,0,0,0,0,0,0
1683183525.19942689,87828188,1551,1551,1547,1549,0,0,0,0,0,0,0,0,0,0
1683183525.30022001,87928981,1545,1546,1540,1540,0,0,0,0,0,0,0,0,0,0
1683183525.40017986,88028941,1539,1540,1534,1533,0,0,0,0,0,0,0,0,0,0
1683183525.50013995,88128901,1532,1532,1526,1525,0,0,0,0,0,0,0,0,0,0
1683183525.60010004,88228861,1526,1526,1519,1519,0,0,0,0,0,0,0,0,0,0
1683183525.70005989,88328821,1522,1522,1518,1518,0,0,0,0,0,0,0,0,0,0
1683183525.80001998,88428781,1520,1520,1519,1519,0,0,0,0,0,0,0,0,0,0
1683183525.89997983,88528741,1520,1520,1522,1523,0,0,0,0,0,0,0,0,0,0
1683183525.99993992,88628701,1519,1519,1524,1525,0,0,0,0,0,0,0,0,0,0
1683183526.09990001,88728661,1522,1522,1530,1530,0,0,0,0,0,0,0,0,0,0
1683183526.19985986,88828621,1525,1524,1534,1534,0,0,0,0,0,0,0,0,0,0
1683183526.29981995,88928581,1529,1529,1539,1540,0,0,0,0,0,0,0,0,0,0
1683183526.39978004,89028541,1532,1533,1542,1542,0,0,0,0,0,0,0,0,0,0
1683183526.49973989,89128501,1536,1536,1545,1545,0,0,0,0,0,0,0,0,0,0
1683183526.59969997,89228461,1539,1539,1545,1545,0,0,0,0,0,0,0,0,0,0
1683183526.69966006,89328421,1542,1542,1545,1545,0,0,0,0,0,0,0,0,0,0
1683183526.79961991,89428381,1544,1545,1545,1545,0,0,0,0,0,0,0,0,0,0
1683183526.89958000,89528341,1546,1547,1544,1544,0,0,0,0,0,0,0,0,0,0
1683183526.99953985,89628301,1548,1548,1544,1544,0,0,0,0,0,0,0,0,0,0
1683183527.09949994,89728261,1549,1549,1544,1543,0,0,0,0,0,0,0,0,0,0
1683183527.19946003,89828221,1551,1550,1544,1544,0,0,0,0,0,0,0,0,0,0
1683183527.29941988,89928181,1550,1550,1544,1543,0,0,0,0,0,0,0,0,0,0
1683183527.40021300,90028974,1549,1550,1544,1543,0,0,0,0,0,0,0,0,0,0
1683183527.50017285,90128934,1549,1550,1544,1544,0,0,0,0,0,0,0,0,0,0
1683183527.60013294,90228894,1548,1549,1544,1545,0,0,0,0,0,0,0,0,0,0
1683183527.70009303,90328854,1547,1548,1545,1545,0,0,0,0,0,0,0,0,0,0
1683183527.80005288,90428814,1546,1546,1544,1544,0,0,0,0,0,0,0,0,0,0
1683183527.90001297,90528774,1546,1545,1545,1545,0,0,0,0,0,0,0,0,0,0
1683183527.99997306,90628734,1544,1544,1545,1545,0,0,0,0,0,0,0,0,0,0
1683183528.09993291,90728694,1543,1543,1545,1545,0,0,0,0,0,0,0,0,0,0
1683183528.19989300,90828654,1543,1543,1546,1545,0,0,0,0,0,0,0,0,0,0
1683183528.29985285,90928614,1543,1543,1546,1546,0,0,0,0,0,0,0,0,0,0
1683183528.39981294,91028574,1543,1543,1546,1546,0,0,0,0,0,0,0,0,0,0
1683183528.49977303,91128534,1542,1543,1545,1545,0,0,0,0,0,0,0,0,0,0
1683183528.59973288,91228494,1543,1543,1545,1545,0,0,0,0,0,0,0,0,0,0
1683183528.69969296,91328454,1543,1543,1544,1545,0,0,0,0,0,0,0,0,0,0
1683183528.79965305,91428414,1543,1543,1544,1544,0,0,0,0,0,0,0,0,0,0
1683183528.89961290,91528374,1544,1543,1544,1544,0,0,0,0,0,0,0,0,0,0
1683183528.99957299,91628334,1543,1543,1543,1543,0,0,0,0,0,0,0,0,0,0
1683183529.09953284,91728294,1544,1544,1544,1544,0,0,0,0,0,0,0,0,0,0
1683183529.19949293,91828254,1544,1544,1543,1543,0,0,0,0,0,0,0,0,0,0
1683183529.29945302,91928214,1545,1545,1544,1543,0,0,0,0,0,0,0,0,0,0
1683183529.39941287,92028174,1544,1544,1542,1543,0,0,0,0,0,0,0,0,0,0
1683183529.50020599,92128967,1545,1545,1543,1544,0,0,0,0,0,0,0,0,0,0
1683183529.60016584,92228927,1544,1544,1544,1543,0,0,0,0,0,0,0,0,0,0
1683183529.70012593,92328887,1545,1545,1544,1544,0,0,0,0,0,0,0,0,0,0
1683183529.80008602,92428847,1544,1545,1544,1544,0,0,0,0,0,0,0,0,0,0
1683183529.90004587,92528807,1544,1544,1543,1543,0,0,0,0,0,0,0,0,0,0
1683183530.00000596,92628767,1544,1544,1544,1544,0,0,0,0,0,0,0,0,0,0
1683183530.09996605,92728727,1544,1544,1544,1544,0,0,0,0,0,0,0,0,0,0
1683183530.19992590,92828687,1545,1544,1545,1545,0,0,0,0,0,0,0,0,0,0
1683183530.29988599,92928647,1544,1544,1544,1545,0,0,0,0,0,0,0,0,0,0
1683183530.39984584,93028607,1544,1545,1545,1545,0,0,0,0,0,0,0,0,0,0
1683183530.49980593,93128567,1544,1544,1544,1544,0,0,0,0,0,0,0,0,0,0
1683183530.59976602,93228527,1544,1545,1545,1544,0,0,0,0,0,0,0,0,0,0
1683183530.69972587,93328487,1544,1545,1545,1545,0,0,0,0,0,0,0,0,0,0
1683183530.79968596,93428447,1544,1544,1544,1544,0,0,0,0,0,0,0,0,0,0
1683183530.89964604,93528407,1544,1544,1544,1545,0,0,0,0,0,0,0,0,0,0
1683183530.99960589,93628367,1544,1544,1543,1544,0,0,0,0,0,0,0,0,0,0
1683183531.09956598,93728327,1545,1544,1544,1544,0,0,0,0,0,0,0,0,0,0
1683183531.19952583,93828287,1544,1544,1544,1544,0,0,0,0,0,0,0,0,0,0
1683183531.29948592,93928247,1545,1544,1544,1544,0,0,0,0,0,0,0,0,0,0
1683183531.39944601,94028207,1544,1544,1544,1544,0,0,0,0,0,0,0,0,0,0
1683183531.49940586,94128167,1544,1544,1544,1544,0,0,0,0,0,0,0,0,0,0
1683183531.60019898,94228960,1544,1544,1544,1544,0,0,0,0,0,0,0,0,0,0
1683183531.70015883,94328920,1544,1544,1544,1544,0,0,0,0,0,0,0,0,0,0
1683183531.80011892,94428880,1543,1544,1543,1543,0,0,0,0,0,0,0,0,0,0
1683183531.90007901,94528840,1544,1544,1543,1544,0,0,0,0,0,0,0,0,0,0
1683183532.00003886,94628800,1544,1544,1544,1543,0,0,0,0,0,0,0,0,0,0
1683183532.09999895,94728760,1544,1544,1544,1544,0,0,0,0,0,0,0,0,0,0
1683183532.19995904,94828720,1543,1543,1544,1543,0,0,0,0,0,0,0,0,0,0
1683183532.29991889,94928680,1544,1544,1544,1544,0,0,0,0,0,0,0,0,0,0
1683183532.39987898,95028640,1544,1544,1544,1544,0,0,0,0,0,0,0,0,0,0
1683183532.49983883,95128600,1544,1544,1545,1545,0,0,0,0,0,0,0,0,0,0
1683183532.59979892,95228560,1544,1544,1545,1545,0,0,0,0,0,0,0,0,0,0
1683183532.69975901,95328520,1543,1544,1544,1544,0,0,0,0,0,0,0,0,0,0
1683183532.79971886,95428480,1543,1544,1544,1544,0,0,0,0,0,0,0,0,0,0
1683183532.89967895,95528440,1543,1544,1543,1543,0,0,0,0,0,0,0,0,0,0
1683183532.99963903,95628400,1544,1544,1544,1543,0,0,0,0,0,0,0,0,0,0
1683183533.09959888,95728360,1544,1543,1544,1544,0,0,0,0,0,0,0,0,0,0
1683183533.19955897,95828320,1544,1543,1543,1543,0,0,0,0,0,0,0,0,0,0
1683183533.29951906,95928280,1544,1544,1543,1544,0,0,0,0,0,0,0,0,0,0
1683183533.39947891,96028240,1544,1544,1544,1544,0,0,0,0,0,0,0,0,0,0
1683183533.49943900,96128200,1544,1544,1544,1544,0,0,0,0,0,0,0,0,0,0
1683183533.59939885,96228160,1544,1544,1544,1544,0,0,0,0,0,0,0,0,0,0
1683183533.70019197,96328953,1545,1544,1545,1545,0,0,0,0,0,0,0,0,0,0
1683183533.80015206,96428913,1544,1544,1544,1544,0,0,0,0,0,0,0,0,0,0
1683183533.90011191,96528873,1544,1544,1545,1545,0,0,0,0,0,0,0,0,0,0
1683183534.00007200,96628833,1544,1545,1544,1544,0,0,0,0,0,0,0,0,0,0
1683183534.10003185,96728793,1545,1545,1545,1545,0,0,0,0,0,0,0,0,0,0
1683183534.19999194,96828753,1544,1545,1544,1544,0,0,0,0,0,0,0,0,0,0
1683183534.29995203,96928713,1545,1545,1545,1545,0,0,0,0,0,0,0,0,0,0
1683183534.39991188,97028673,1544,1544,1544,1544,0,0,0,0,0,0,0,0,0,0
1683183534.49987197,97128633,1544,1544,1544,1544,0,0,0,0,0,0,0,0,0,0
1683183534.59983206,97228593,1545,1544,1544,1544,0,0,0,0,0,0,0,0,0,0
1683183534.69979191,97328553,1544,1544,1544,1544,0,0,0,0,0,0,0,0,0,0
1683183534.79975200,97428513,1544,1544,1543,1543,0,0,0,0,0,0,0,0,0,0
1683183534.89971185,97528473,1544,1544,1543,1544,0,0,0,0,0,0,0,0,0,0
1683183534.99967194,97628433,1543,1544,1544,1544,0,0,0,0,0,0,0,0,0,0
1683183535.09963202,97728393,1544,1544,1545,1545,0,0,0,0,0,0,0,0,0,0
1683183535.19959188,97828353,1544,1545,1545,1545,0,0,0,0,0,0,0,0,0,0
1683183535.29955196,97928313,1545,1544,1545,1545,0,0,0,0,0,0,0,0,0,0
1683183535.39951205,98028273,1438,1437,1381,1381,0,0,0,0,0,0,0,0,0,0
1683183535.49947190,98128233,1369,1368,1258,1261,0,0,0,0,0,0,0,0,0,0
1683183535.59943199,98228193,1348,1347,1217,1219,0,0,0,0,0,0,0,0,0,0
1683183535.70022488,98328986,1338,1337,1197,1199,0,0,0,0,0,0,0,0,0,0
1683183535.80018497,98428946,1318,1318,1156,1157,0,0,0,0,0,0,0,0,0,0
1683183535.90014505,98528906,1262,1261,1150,1152,0,0,0,0,0,0,0,0,0,0
1683183536.00010490,98628866,1172,1172,1150,1151,0,0,0,0,0,0,0,0,0,0
1683183536.10006499,98728826,1072,1071,1150,1152,0,0,0,0,0,0,0,0,0,0
1683183536.20002484,98828786,976,976,1150,1151,0,0,0,0,0,0,0,0,0,0
1683183536.29998493,98928746,976,976,1150,1151,0,0,0,0,0,0,0,0,0,0
1683183536.39994502,99028706,976,976,1150,1150,0,0,0,0,0,0,0,0,0,0
1683183536.49990487,99128666,977,966,1150,1165,0,0,0,0,0,0,0,0,0,0
1683183536.59986496,99228626,976,965,1150,1166,0,0,0,0,0,0,0,0,0,0
1683183536.69982505,99328586,976,969,1150,1161,0,0,0,0,0,0,0,0,0,0
1683183536.79978490,99428546,976,970,1150,1159,0,0,0,0,0,0,0,0,0,0
1683183536.89974499,99528506,976,970,1150,1159,0,0,0,0,0,0,0,0,0,0
1683183536.99970484,99628466,976,970,1150,1159,0,0,0,0,0,0,0,0,0,0
1683183537.09966493,99728426,976,969,1150,1160,0,0,0,0,0,0,0,0,0,0
1683183537.19962502,99828386,977,969,1150,1160,0,0,0,0,0,0,0,0,0,0
1683183537.29958487,99928346,974,977,1153,1150,0,0,0,0,0,0,0,0,0,0
1683183537.39954495,100028306,977,976,1150,1151,0,0,0,0,0,0,0,0,0,0
1683183537.49950504,100128266,977,975,1150,1152,0,0,0,0,0,0,0,0,0,0
1683183537.59946489,100228226,977,975,1150,1152,0,0,0,0,0,0,0,0,0,0
1683183537.69942498,100328186,977,975,1150,1152,0,0,0,0,0,0,0,0,0,0
1683183537.80021787,100428979,1000,1000,1000,1000,0,0,0,0,0,0,0,0,0,0
1683183537.90017796,100528939,1000,1000,1000,1000,0,0,0,0,0,0,0,0,0,0
1683183538.00013804,100628899,1000,1000,1000,1000,0,0,0,0,0,0,0,0,0,0
1683183538.10009789,100728859,1000,1000,1000,1000,0,0,0,0,0,0,0,0,0,0
1683183538.20005798,100828819,1000,1000,1000,1000,0,0,0,0,0,0,0,0,0,0
1683183538.30001783,100928779,1000,1000,1000,1000,0,0,0,0,0,0,0,0,0,0
1683183538.39997792,101028739,1000,1000,1000,1000,0,0,0,0,0,0,0,0,0,0
1683183538.49993801,101128699,1000,1000,1000,1000,0,0,0,0,0,0,0,0,0,0
1683183538.59989786,101228659,1000,1000,1000,1000,0,0,0,0,0,0,0,0,0,0
1683183538.69985795,101328619,1000,1000,1000,1000,0,0,0,0,0,0,0,0,0,0
1683183538.79981804,101428579,1000,1000,1000,1000,0,0,0,0,0,0,0,0,0,0
1683183538.89977789,101528539,1000,1000,1000,1000,0,0,0,0,0,0,0,0,0,0
1683183538.99973798,101628499,1000,1000,1000,1000,0,0,0,0,0,0,0,0,0,0
1683183539.09969783,101728459,1000,1000,1000,1000,0,0,0,0,0,0,0,0,0,0
1683183539.19965792,101828419,1000,1000,1000,1000,0,0,0,0,0,0,0,0,0,0
1683183539.29961801,101928379,1000,1000,1000,1000,0,0,0,0,0,0,0,0,0,0
1683183539.39957786,102028339,1000,1000,1000,1000,0,0,0,0,0,0,0,0,0,0
1683183539.49953794,102128299,1000,1000,1000,1000,0,0,0,0,0,0,0,0,0,0
1683183539.59949803,102228259,1000,1000,1000,1000,0,0,0,0,0,0,0,0,0,0
1683183539.69945788,102328219,1000,1000,1000,1000,0,0,0,0,0,0,0,0,0,0
1683183539.79941797,102428179,1000,1000,1000,1000,0,0,0,0,0,0,0,0,0,0
1683183539.90021086,102528972,1000,1000,1000,1000,0,0,0,0,0,0,0,0,0,0
1683183540.00017095,102628932,1000,1000,1000,1000,0,0,0,0,0,0,0,0,0,0
1683183540.10013103,102728892,1000,1000,1000,1000,0,0,0,0,0,0,0,0,0,0
1683183540.20009089,102828852,1000,1000,1000,1000,0,0,0,0,0,0,0,0,0,0
1683183540.30005097,102928812,1000,1000,1000,1000,0,0,0,0,0,0,0,0,0,0
1683183540.40001106,103028772,1000,1000,1000,1000,0,0,0,0,0,0,0,0,0,0
1683183540.49997091,103128732,1000,1000,1000,1000,0,0,0,0,0,0,0,0,0,0
1683183540.59993100,103228692,1000,1000,1000,1000,0,0,0,0,0,0,0,0,0,0
1683183540.69989085,103328652,1000,1000,1000,1000,0,0,0,0,0,0,0,0,0,0
1683183540.79985094,103428612,1000,1000,1000,1000,0,0,0,0,0,0,0,0,0,0
1683183540.89981103,103528572,1000,1000,1000,1000,0,0,0,0,0,0,0,0,0,0
1683183540.99977088,103628532,1000,1000,1000,1000,0,0,0,0,0,0,0,0,0,0
1683183541.09973097,103728492,1000,1000,1000,1000,0,0,0,0,0,0,0,0,0,0
1683183541.19969106,103828452,1000,1000,1000,1000,0,0,0,0,0,0,0,0,0,0
1683183541.29965091,103928412,1000,1000,1000,1000,0,0,0,0,0,0,0,0,0,0
1683183541.39961100,104028372,1000,1000,1000,1000,0,0,0,0,0,0,0,0,0,0
1683183541.49957085,104128332,1000,1000,1000,1000,0,0,0,0,0,0,0,0,0,0
1683183541.59953094,104228292,1000,1000,1000,1000,0,0,0,0,0,0,0,0,0,0
1683183541.69949102,104328252,1000,1000,1000,1000,0,0,0,0,0,0,0,0,0,0
1683183541.79945087,104428212,1000,1000,1000,1000,0,0,0,0,0,0,0,0,0,0
1683183541.89941096,104528172,1000,1000,1000,1000,0,0,0,0,0,0,0,0,0,0
1683183542.00020385,104628965,1000,1000,1000,1000,0,0,0,0,0,0,0,0,0,0
1683183542.10016394,104728925,1000,1000,1000,1000,0,0,0,0,0,0,0,0,0,0
1683183542.20012403,104828885,1000,1000,1000,1000,0,0,0,0,0,0,0,0,0,0
1683183542.30008388,104928845,1000,1000,1000,1000,0,0,0,0,0,0,0,0,0,0
1683183542.40004396,105028805,1000,1000,1000,1000,0,0,0,0,0,0,0,0,0,0
1683183542.50000405,105128765,1000,1000,1000,1000,0,0,0,0,0,0,0,0,0,0
1683183542.59996390,105228725,1000,1000,1000,1000,0,0,0,0,0,0,0,0,0,0
1683183542.69992399,105328685,1000,1000,1000,1000,0,0,0,0,0,0,0,0,0,0
1683183542.79988384,105428645,1000,1000,1000,1000,0,0,0,0,0,0,0,0,0,0
1683183542.89984393,105528605,1000,1000,1000,1000,0,0,0,0,0,0,0,0,0,0
1683183542.99980402,105628565,1000,1000,1000,1000,0,0,0,0,0,0,0,0,0,0
1683183543.09976387,105728525,1000,1000,1000,1000,0,0,0,0,0,0,0,0,0,0
1683183543.19972396,105828485,1000,1000,1000,1000,0,0,0,0,0,0,0,0,0,0
1683183543.29968405,105928445,1000,1000,1000,1000,0,0,0,0,0,0,0,0,0,0
1683183543.39964390,106028405,1000,1000,1000,1000,0,0,0,0,0,0,0,0,0,0
1683183543.49960399,106128365,1000,1000,1000,1000,0,0,0,0,0,0,0,0,0,0
1683183543.59956384,106228325,1000,1000,1000,1000,0,0,0,0,0,0,0,0,0,0
1683183543.69952393,106328285,1000,1000,1000,1000,0,0,0,0,0,0,0,0,0,0
1683183543.79948401,106428245,1000,1000,1000,1000,0,0,0,0,0,0,0,0,0,0
1683183543.89944386,106528205,1000,1000,1000,1000,0,0,0,0,0,0,0,0,0,0
1683183543.99940395,106628165,1000,1000,1000,1000,0,0,0,0,0,0,0,0,0,0
1683183544.10019684,106728958,1000,1000,1000,1000,0,0,0,0,0,0,0,0,0,0
1683183544.20015693,106828918,1000,1000,1000,1000,0,0,0,0,0,0,0,0,0,0
1683183544.30011702,106928878,1000,1000,1000,1000,0,0,0,0,0,0,0,0,0,0
1683183544.40007687,107028838,1000,1000,1000,1000,0,0,0,0,0,0,0,0,0,0
1683183544.50003695,107128798,1000,1000,1000,1000,0,0,0,0,0,0,0,0,0,0
1683183544.59999704,107228758,1000,1000,1000,1000,0,0,0,0,0,0,0,0,0,0
1683183544.69995689,107328718,1000,1000,1000,1000,0,0,0,0,0,0,0,0,0,0
1683183544.79991698,107428678,1000,1000,1000,1000,0,0,0,0,0,0,0,0,0,0
1683183544.89987683,107528638,1000,1000,1000,1000,0,0,0,0,0,0,0,0,0,0
1683183544.99983692,107628598,1000,1000,1000,1000,0,0,0,0,0,0,0,0,0,0
1683183545.09979701,107728558,1000,1000,1000,1000,0,0,0,0,0,0,0,0,0,0
1683183545.19975686,107828518,1000,1000,1000,1000,0,0,0,0,0,0,0,0,0,0
1683183545.29971695,107928478,1000,1000,1000,1000,0,0,0,0,0,0,0,0,0,0
1683183545.39967704,108028438,1000,1000,1000,1000,0,0,0,0,0,0,0,0,0,0
1683183545.49963689,108128398,1000,1000,1000,1000,0,0,0,0,0,0,0,0,0,0
1683183545.59959698,108228358,1000,1000,1000,1000,0,0,0,0,0,0,0,0,0,0
1683183545.69955707,108328318,1000,1000,1000,1000,0,0,0,0,0,0,0,0,0,0
1683183545.79951692,108428278,1000,1000,1000,1000,0,0,0,0,0,0,0,0,0,0
1683183545.89947701,108528238,1000,1000,1000,1000,0,0,0,0,0,0,0,0,0,0
1683183545.99943686,108628198,1000,1000,1000,1000,0,0,0,0,0,0,0,0,0,0
1683183546.09939694,108728158,1000,1000,1000,1000,0,0,0,0,0,0,0,0,0,0
1683183546.20018983,108828951,1000,1000,1000,1000,0,0,0,0,0,0,0,0,0,0
1683183546.30014992,108928911,1000,1000,1000,1000,0,0,0,0,0,0,0,0,0,0
1683183546.40011001,109028871,1000,1000,1000,1000,0,0,0,0,0,0,0,0,0,0
1683183546.50006986,109128831,1000,1000,1000,1000,0,0,0,0,0,0,0,0,0,0
1683183546.60002995,109228791,1000,1000,1000,1000,0,0,0,0,0,0,0,0,0,0
1683183546.69999003,109328751,1000,1000,1000,1000,0,0,0,0,0,0,0,0,0,0
1683183546.79994988,109428711,1000,1000,1000,1000,0,0,0,0,0,0,0,0,0,0
1683183546.89990997,109528671,1000,1000,1000,1000,0,0,0,0,0,0,0,0,0,0
1683183546.99987006,109628631,1000,1000,1000,1000,0,0,0,0,0,0,0,0,0,0
1683183547.09982991,109728591,1000,1000,1000,1000,0,0,0,0,0,0,0,0,0,0
1683183547.19979000,109828551,1000,1000,1000,1000,0,0,0,0,0,0,0,0,0,0
1683183547.29974985,109928511,1000,1000,1000,1000,0,0,0,0,0,0,0,0,0,0
1683183547.39970994,110028471,1000,1000,1000,1000,0,0,0,0,0,0,0,0,0,0
1683183547.49967003,110128431,1000,1000,1000,1000,0,0,0,0,0,0,0,0,0,0
1683183547.59962988,110228391,1000,1000,1000,1000,0,0,0,0,0,0,0,0,0,0
1683183547.69958997,110328351,1000,1000,1000,1000,0,0,0,0,0,0,0,0,0,0
1683183547.79955006,110428311,1000,1000,1000,1000,0,0,0,0,0,0,0,0,0,0
1683183547.89950991,110528271,1000,1000,1000,1000,0,0,0,0,0,0,0,0,0,0
1683183547.99947000,110628231,1000,1000,1000,1000,0,0,0,0,0,0,0,0,0,0
1683183548.09942985,110728191,1000,1000,1000,1000,0,0,0,0,0,0,0,0,0,0
1683183548.20022297,110828984,1000,1000,1000,1000,0,0,0,0,0,0,0,0,0,0
1683183548.30018306,110928944,1000,1000,1000,1000,0,0,0,0,0,0,0,0,0,0
1683183548.40014291,111028904,1000,1000,1000,1000,0,0,0,0,0,0,0,0,0,0
1683183548.50010300,111128864,1000,1000,1000,1000,0,0,0,0,0,0,0,0,0,0
1683183548.60006285,111228824,1000,1000,1000,1000,0,0,0,0,0,0,0,0,0,0
1683183548.70002294,111328784,1000,1000,1000,1000,0,0,0,0,0,0,0,0,0,0
1683183548.79998302,111428744,1000,1000,1000,1000,0,0,0,0,0,0,0,0,0,0
1683183548.89994287,111528704,1000,1000,1000,1000,0,0,0,0,0,0,0,0,0,0
1683183548.99990296,111628664,1000,1000,1000,1000,0,0,0,0,0,0,0,0,0,0
1683183549.09986305,111728624,1000,1000,1000,1000,0,0,0,0,0,0,0,0,0,0
1683183549.19982290,111828584,1000,1000,1000,1000,0,0,0,0,0,0,0,0,0,0
1683183549.29978299,111928544,1000,1000,1000,1000,0,0,0,0,0,0,0,0,0,0
1683183549.39974284,112028504,1000,1000,1000,1000,0,0,0,0,0,0,0,0,0,0
1683183549.49970293,112128464,1000,1000,1000,1000,0,0,0,0,0,0,0,0,0,0
1683183549.59966302,112228424,1000,1000,1000,1000,0,0,0,0,0,0,0,0,0,0
1683183549.69962287,112328384,1000,1000,1000,1000,0,0,0,0,0,0,0,0,0,0
1683183549.79958296,112428344,1000,1000,1000,1000,0,0,0,0,0,0,0,0,0,0
1683183549.89954305,112528304,1000,1000,1000,1000,0,0,0,0,0,0,0,0,0,0
1683183549.99950290,112628264,1000,1000,1000,1000,0,0,0,0,0,0,0,0,0,0
1683183550.09946299,112728224,1000,1000,1000,1000,0,0,0,0,0,0,0,0,0,0
1683183550.19942284,112828184,1000,1000,1000,1000,0,0,0,0,0,0,0,0,0,0
1683183550.30021596,112928977,1000,1000,1000,1000,0,0,0,0,0,0,0,0,0,0
1683183550.40017605,113028937,1000,1000,1000,1000,0,0,0,0,0,0,0,0,0,0
1683183550.50013590,113128897,1000,1000,1000,1000,0,0,0,0,0,0,0,0,0,0
1683183550.60009599,113228857,1000,1000,1000,1000,0,0,0,0,0,0,0,0,0,0
1683183550.70005584,113328817,1000,1000,1000,1000,0,0,0,0,0,0,0,0,0,0
1683183550.80001593,113428777,1000,1000,1000,1000,0,0,0,0,0,0,0,0,0,0
1683183550.89997602,113528737,1000,1000,1000,1000,0,0,0,0,0,0,0,0,0,0
1683183550.99993587,113628697,1000,1000,1000,1000,0,0,0,0,0,0,0,0,0,0
1683183551.09989595,113728657,1000,1000,1000,1000,0,0,0,0,0,0,0,0,0,0
1683183551.19985604,113828617,1000,1000,1000,1000,0,0,0,0,0,0,0,0,0,0
1683183551.29981589,113928577,1000,1000,1000,1000,0,0,0,0,0,0,0,0,0,0
1683183551.39977598,114028537,1000,1000,1000,1000,0,0,0,0,0,0,0,0,0,0
1683183551.49973583,114128497,1000,1000,1000,1000,0,0,0,0,0,0,0,0,0,0
1683183551.59969592,114228457,1000,1000,1000,1000,0,0,0,0,0,0,0,0,0,0
1683183551.69965601,114328417,1000,1000,1000,1000,0,0,0,0,0,0,0,0,0,0
1683183551.79961586,114428377,1000,1000,1000,1000,0,0,0,0,0,0,0,0,0,0
1683183551.89957595,114528337,1000,1000,1000,1000,0,0,0,0,0,0,0,0,0,0
1683183551.99953604,114628297,1000,1000,1000,1000,0,0,0,0,0,0,0,0,0,0
1683183552.09949589,114728257,1000,1000,1000,1000,0,0,0,0,0,0,0,0,0,0
1683183552.19945598,114828217,1000,1000,1000,1000,0,0,0,0,0,0,0,0,0,0
1683183552.29941607,114928177,1000,1000,1000,1000,0,0,0,0,0,0,0,0,0,0
1683183552.40020895,115028970,1000,1000,1000,1000,0,0,0,0,0,0,0,0,0,0
1683183552.50016904,115128930,1000,1000,1000,1000,0,0,0,0,0,0,0,0,0,0
1683183552.60012889,115228890,1000,1000,1000,1000,0,0,0,0,0,0,0,0,0,0
1683183552.70008898,115328850,1000,1000,1000,1000,0,0,0,0,0,0,0,0,0,0
