timestamp,TimeUS,C1,C2,C3,C4,C5,C6,C7,C8,C9,C10,C11,C12,C13,C14
1684079570.90004015,50528947,1000,1000,1000,1000,0,0,0,0,0,0,0,0,0,0
1684079571.00000000,50628907,1000,1000,1000,1000,0,0,0,0,0,0,0,0,0,0
1684079571.09996009,50728867,1000,1000,1000,1000,0,0,0,0,0,0,0,0,0,0
1684079571.19991994,50828827,1000,1000,1000,1000,0,0,0,0,0,0,0,0,0,0
1684079571.29988003,50928787,1000,1000,1000,1000,0,0,0,0,0,0,0,0,0,0
1684079571.39984012,51028747,1000,1000,1000,1000,0,0,0,0,0,0,0,0,0,0
1684079571.49979997,51128707,1000,1000,1000,1000,0,0,0,0,0,0,0,0,0,0
1684079571.59976006,51228667,1000,1000,1000,1000,0,0,0,0,0,0,0,0,0,0
1684079571.69972014,51328627,1000,1000,1000,1000,0,0,0,0,0,0,0,0,0,0
1684079571.79967999,51428587,1000,1000,1000,1000,0,0,0,0,0,0,0,0,0,0
1684079571.89964008,51528547,1000,1000,1000,1000,0,0,0,0,0,0,0,0,0,0
1684079571.99959993,51628507,1000,1000,1000,1000,0,0,0,0,0,0,0,0,0,0
1684079572.09956002,51728467,1000,1000,1000,1000,0,0,0,0,0,0,0,0,0,0
1684079572.19952011,51828427,1000,1000,1000,1000,0,0,0,0,0,0,0,0,0,0
1684079572.29947996,51928387,1000,1000,1000,1000,0,0,0,0,0,0,0,0,0,0
1684079572.39944005,52028347,1000,1000,1000,1000,0,0,0,0,0,0,0,0,0,0
1684079572.49940014,52128307,1000,1000,1000,1000,0,0,0,0,0,0,0,0,0,0
1684079572.59935999,52228267,1000,1000,1000,1000,0,0,0,0,0,0,0,0,0,0
1684079572.69932008,52328227,1000,1000,1000,1000,0,0,0,0,0,0,0,0,0,0
1684079572.79927993,52428187,1000,1000,1000,1000,0,0,0,0,0,0,0,0,0,0
1684079572.90007305,52528980,1003,1003,1003,1003,0,0,0,0,0,0,0,0,0,0
1684079573.00003314,52628940,1033,1033,1033,1033,0,0,0,0,0,0,0,0,0,0
1684079573.09999299,52728900,1063,1063,1063,1063,0,0,0,0,0,0,0,0,0,0
1684079573.19995308,52828860,1093,1093,1093,1093,0,0,0,0,0,0,0,0,0,0
1684079573.29991293,52928820,1123,1123,1123,1123,0,0,0,0,0,0,0,0,0,0
1684079573.39987302,53028780,1185,1177,1178,1185,0,0,0,0,0,0,0,0,0,0
1684079573.49983311,53128740,1425,1419,1419,1425,0,0,0,0,0,0,0,0,0,0
1684079573.59979296,53228700,1599,1594,1594,1599,0,0,0,0,0,0,0,0,0,0
1684079573.69975305,53328660,1743,1739,1739,1744,0,0,0,0,0,0,0,0,0,0
1684079573.79971313,53428620,1869,1865,1865,1869,0,0,0,0,0,0,0,0,0,0
1684079573.89967299,53528580,1877,1873,1873,1877,0,0,0,0,0,0,0,0,0,0
1684079573.99963307,53628540,1790,1788,1789,1790,0,0,0,0,0,0,0,0,0,0
1684079574.09959292,53728500,1670,1671,1671,1670,0,0,0,0,0,0,0,0,0,0
1684079574.19955301,53828460,1622,1624,1624,1622,0,0,0,0,0,0,0,0,0,0
1684079574.29951310,53928420,1623,1625,1625,1623,0,0,0,0,0,0,0,0,0,0
1684079574.39947295,54028380,1635,1637,1637,1635,0,0,0,0,0,0,0,0,0,0
1684079574.49943304,54128340,1640,1641,1641,1640,0,0,0,0,0,0,0,0,0,0
1684079574.59939313,54228300,1637,1632,1632,1637,0,0,0,0,0,0,0,0,0,0
1684079574.69935298,54328260,1615,1614,1606,1622,0,0,0,0,0,0,0,0,0,0
1684079574.79931307,54428220,1607,1607,1600,1614,0,0,0,0,0,0,0,0,0,0
1684079574.89927292,54528180,1604,1604,1601,1607,0,0,0,0,0,0,0,0,0,0
1684079575.00006604,54628973,1607,1606,1608,1606,0,0,0,0,0,0,0,0,0,0
1684079575.10002613,54728933,1611,1612,1615,1608,0,0,0,0,0,0,0,0,0,0
1684079575.19998598,54828893,1618,1618,1622,1614,0,0,0,0,0,0,0,0,0,0
1684079575.29994607,54928853,1593,1593,1606,1580,0,0,0,0,0,0,0,0,0,0
1684079575.39990592,55028813,1577,1578,1592,1563,0,0,0,0,0,0,0,0,0,0
1684079575.49986601,55128773,1565,1565,1571,1560,0,0,0,0,0,0,0,0,0,0
1684079575.59982610,55228733,1555,1555,1551,1560,0,0,0,0,0,0,0,0,0,0
1684079575.69978595,55328693,1547,1546,1535,1559,0,0,0,0,0,0,0,0,0,0
1684079575.79974604,55428653,1538,1538,1526,1550,0,0,0,0,0,0,0,0,0,0
1684079575.89970613,55528613,1533,1532,1525,1541,0,0,0,0,0,0,0,0,0,0
1684079575.99966598,55628573,1528,1528,1525,1531,0,0,0,0,0,0,0,0,0,0
1684079576.09962606,55728533,1528,1528,1528,1527,0,0,0,0,0,0,0,0,0,0
1684079576.19958615,55828493,1529,1529,1531,1526,0,0,0,0,0,0,0,0,0,0
1684079576.29954600,55928453,1532,1532,1535,1529,0,0,0,0,0,0,0,0,0,0
1684079576.39950609,56028413,1534,1534,1538,1531,0,0,0,0,0,0,0,0,0,0
1684079576.49946594,56128373,1538,1539,1541,1536,0,0,0,0,0,0,0,0,0,0
1684079576.59942603,56228333,1542,1543,1544,1541,0,0,0,0,0,0,0,0,0,0
1684079576.69938612,56328293,1545,1545,1545,1544,0,0,0,0,0,0,0,0,0,0
1684079576.79934597,56428253,1548,1548,1548,1548,0,0,0,0,0,0,0,0,0,0
1684079576.89930606,56528213,1551,1551,1550,1552,0,0,0,0,0,0,0,0,0,0
1684079576.99926615,56628173,1553,1553,1551,1555,0,0,0,0,0,0,0,0,0,0
1684079577.10005903,56728966,1552,1552,1557,1560,0,0,0,0,0,0,0,0,0,0
1684079577.20001912,56828926,1553,1554,1560,1562,0,0,0,0,0,0,0,0,0,0
1684079577.29997897,56928886,1557,1557,1563,1564,0,0,0,0,0,0,0,0,0,0
1684079577.39993906,57028846,1559,1559,1564,1563,0,0,0,0,0,0,0,0,0,0
1684079577.49989915,57128806,1561,1562,1564,1564,0,0,0,0,0,0,0,0,0,0
1684079577.59985900,57228766,1565,1565,1565,1564,0,0,0,0,0,0,0,0,0,0
1684079577.69981909,57328726,1567,1568,1566,1566,0,0,0,0,0,0,0,0,0,0
1684079577.79977894,57428686,1570,1570,1567,1566,0,0,0,0,0,0,0,0,0,0
1684079577.89973903,57528646,1571,1571,1567,1567,0,0,0,0,0,0,0,0,0,0
1684079577.99969912,57628606,1572,1572,1567,1567,0,0,0,0,0,0,0,0,0,0
1684079578.09965897,57728566,1574,1573,1569,1569,0,0,0,0,0,0,0,0,0,0
1684079578.19961905,57828526,1573,1573,1570,1570,0,0,0,0,0,0,0,0,0,0
1684079578.29957914,57928486,1574,1574,1571,1572,0,0,0,0,0,0,0,0,0,0
1684079578.39953899,58028446,1575,1575,1574,1573,0,0,0,0,0,0,0,0,0,0
1684079578.49949908,58128406,1574,1574,1574,1573,0,0,0,0,0,0,0,0,0,0
1684079578.59945893,58228366,1573,1574,1574,1573,0,0,0,0,0,0,0,0,0,0
1684079578.69941902,58328326,1574,1574,1575,1574,0,0,0,0,0,0,0,0,0,0
1684079578.79937911,58428286,1574,1574,1575,1575,0,0,0,0,0,0,0,0,0,0
1684079578.89933896,58528246,1574,1575,1576,1576,0,0,0,0,0,0,0,0,0,0
1684079578.99929905,58628206,1575,1574,1576,1575,0,0,0,0,0,0,0,0,0,0
1684079579.09925914,58728166,1576,1575,1577,1576,0,0,0,0,0,0,0,0,0,0
1684079579.20005202,58828959,1576,1576,1577,1577,0,0,0,0,0,0,0,0,0,0
1684079579.30001211,58928919,1576,1576,1576,1577,0,0,0,0,0,0,0,0,0,0
1684079579.39997196,59028879,1576,1576,1577,1577,0,0,0,0,0,0,0,0,0,0
1684079579.49993205,59128839,1578,1578,1578,1578,0,0,0,0,0,0,0,0,0,0
1684079579.59989214,59228799,1578,1578,1578,1578,0,0,0,0,0,0,0,0,0,0
1684079579.69985199,59328759,1577,1577,1577,1577,0,0,0,0,0,0,0,0,0,0
1684079579.79981208,59428719,1578,1577,1577,1577,0,0,0,0,0,0,0,0,0,0
1684079579.89977193,59528679,1578,1578,1577,1577,0,0,0,0,0,0,0,0,0,0
1684079579.99973202,59628639,1578,1578,1578,1578,0,0,0,0,0,0,0,0,0,0
1684079580.09969211,59728599,1578,1579,1578,1578,0,0,0,0,0,0,0,0,0,0
1684079580.19965196,59828559,1578,1578,1578,1578,0,0,0,0,0,0,0,0,0,0
1684079580.29961205,59928519,1578,1578,1578,1578,0,0,0,0,0,0,0,0,0,0
1684079580.39957213,60028479,1578,1579,1579,1579,0,0,0,0,0,0,0,0,0,0
1684079580.49953198,60128439,1578,1578,1578,1578,0,0,0,0,0,0,0,0,0,0
1684079580.59949207,60228399,1579,1578,1579,1579,0,0,0,0,0,0,0,0,0,0
1684079580.69945192,60328359,1578,1578,1578,1578,0,0,0,0,0,0,0,0,0,0
1684079580.79941201,60428319,1578,1579,1579,1578,0,0,0,0,0,0,0,0,0,0
1684079580.89937210,60528279,1579,1579,1579,1579,0,0,0,0,0,0,0,0,0,0
1684079580.99933195,60628239,1578,1578,1578,1578,0,0,0,0,0,0,0,0,0,0
1684079581.09929204,60728199,1578,1578,1578,1578,0,0,0,0,0,0,0,0,0,0
1684079581.19925213,60828159,1579,1579,1579,1579,0,0,0,0,0,0,0,0,0,0
1684079581.30004501,60928952,1579,1579,1579,1579,0,0,0,0,0,0,0,0,0,0
1684079581.40000510,61028912,1579,1579,1579,1579,0,0,0,0,0,0,0,0,0,0
1684079581.49996495,61128872,1578,1578,1578,1578,0,0,0,0,0,0,0,0,0,0
1684079581.59992504,61228832,1579,1579,1579,1579,0,0,0,0,0,0,0,0,0,0
1684079581.69988513,61328792,1579,1579,1579,1579,0,0,0,0,0,0,0,0,0,0
1684079581.79984498,61428752,1579,1579,1579,1579,0,0,0,0,0,0,0,0,0,0
1684079581.89980507,61528712,1580,1580,1580,1580,0,0,0,0,0,0,0,0,0,0
1684079581.99976492,61628672,1579,1580,1580,1580,0,0,0,0,0,0,0,0,0,0
1684079582.09972501,61728632,1580,1580,1580,1580,0,0,0,0,0,0,0,0,0,0
1684079582.19968510,61828592,1580,1580,1580,1580,0,0,0,0,0,0,0,0,0,0
1684079582.29964495,61928552,1581,1580,1580,1581,0,0,0,0,0,0,0,0,0,0
1684079582.39960504,62028512,1581,1580,1580,1581,0,0,0,0,0,0,0,0,0,0
1684079582.49956512,62128472,1581,1581,1581,1581,0,0,0,0,0,0,0,0,0,0
1684079582.59952497,62228432,1580,1580,1581,1580,0,0,0,0,0,0,0,0,0,0
1684079582.69948506,62328392,1580,1581,1581,1581,0,0,0,0,0,0,0,0,0,0
1684079582.79944515,62428352,1580,1580,1580,1581,0,0,0,0,0,0,0,0,0,0
1684079582.89940500,62528312,1580,1580,1580,1580,0,0,0,0,0,0,0,0,0,0
1684079582.99936509,62628272,1582,1582,1582,1582,0,0,0,0,0,0,0,0,0,0
1684079583.09932494,62728232,1581,1581,1581,1581,0,0,0,0,0,0,0,0,0,0
1684079583.19928503,62828192,1582,1581,1581,1581,0,0,0,0,0,0,0,0,0,0
1684079583.30007815,62928985,1581,1582,1588,1574,0,0,0,0,0,0,0,0,0,0
1684079583.40003800,63028945,1581,1583,1587,1574,0,0,0,0,0,0,0,0,0,0
1684079583.49999809,63128905,1580,1583,1579,1575,0,0,0,0,0,0,0,0,0,0
1684079583.59995794,63228865,1577,1580,1569,1572,0,0,0,0,0,0,0,0,0,0
1684079583.69991803,63328825,1577,1579,1561,1569,0,0,0,0,0,0,0,0,0,0
1684079583.79987812,63428785,1577,1578,1557,1564,0,0,0,0,0,0,0,0,0,0
1684079583.89983797,63528745,1579,1578,1556,1560,0,0,0,0,0,0,0,0,0,0
1684079583.99979806,63628705,1579,1578,1555,1556,0,0,0,0,0,0,0,0,0,0
1684079584.09975815,63728665,1579,1577,1555,1554,0,0,0,0,0,0,0,0,0,0
1684079584.19971800,63828625,1578,1577,1556,1553,0,0,0,0,0,0,0,0,0,0
1684079584.29967809,63928585,1578,1578,1556,1554,0,0,0,0,0,0,0,0,0,0
1684079584.39963794,64028545,1576,1577,1556,1554,0,0,0,0,0,0,0,0,0,0
1684079584.49959803,64128505,1575,1577,1555,1554,0,0,0,0,0,0,0,0,0,0
1684079584.59955812,64228465,1574,1576,1553,1554,0,0,0,0,0,0,0,0,0,0
1684079584.69951797,64328425,1575,1577,1552,1553,0,0,0,0,0,0,0,0,0,0
1684079584.79947805,64428385,1577,1578,1551,1551,0,0,0,0,0,0,0,0,0,0
1684079584.89943814,64528345,1578,1579,1548,1548,0,0,0,0,0,0,0,0,0,0
1684079584.99939799,64628305,1580,1581,1546,1546,0,0,0,0,0,0,0,0,0,0
1684079585.09935808,64728265,1583,1584,1544,1543,0,0,0,0,0,0,0,0,0,0
1684079585.19931793,64828225,1586,1587,1541,1540,0,0,0,0,0,0,0,0,0,0
1684079585.29927802,64928185,1589,1590,1538,1538,0,0,0,0,0,0,0,0,0,0
1684079585.40007114,65028978,1591,1592,1535,1536,0,0,0,0,0,0,0,0,0,0
1684079585.50003099,65128938,1594,1594,1535,1536,0,0,0,0,0,0,0,0,0,0
1684079585.59999108,65228898,1594,1595,1535,1535,0,0,0,0,0,0,0,0,0,0
1684079585.69995093,65328858,1595,1594,1536,1538,0,0,0,0,0,0,0,0,0,0
1684079585.79991102,65428818,1592,1592,1538,1541,0,0,0,0,0,0,0,0,0,0
1684079585.89987111,65528778,1589,1588,1543,1546,0,0,0,0,0,0,0,0,0,0
1684079585.99983096,65628738,1583,1581,1550,1552,0,0,0,0,0,0,0,0,0,0
1684079586.09979105,65728698,1577,1574,1561,1564,0,0,0,0,0,0,0,0,0,0
1684079586.19975114,65828658,1567,1563,1572,1574,0,0,0,0,0,0,0,0,0,0
1684079586.29971099,65928618,1556,1552,1584,1586,0,0,0,0,0,0,0,0,0,0
1684079586.39967108,66028578,1545,1542,1596,1596,0,0,0,0,0,0,0,0,0,0
1684079586.49963093,66128538,1537,1536,1607,1606,0,0,0,0,0,0,0,0,0,0
1684079586.59959102,66228498,1531,1531,1613,1611,0,0,0,0,0,0,0,0,0,0
1684079586.69955111,66328458,1529,1531,1615,1614,0,0,0,0,0,0,0,0,0,0
1684079586.79951096,66428418,1312,1317,1664,1669,0,0,0,0,0,0,0,0,0,0
1684079586.89947104,66528378,1388,1396,1673,1675,0,0,0,0,0,0,0,0,0,0
1684079586.99943113,66628338,1453,1462,1656,1652,0,0,0,0,0,0,0,0,0,0
1684079587.09939098,66728298,1514,1520,1631,1623,0,0,0,0,0,0,0,0,0,0
1684079587.19935107,66828258,1561,1563,1610,1602,0,0,0,0,0,0,0,0,0,0
1684079587.29931092,66928218,1594,1589,1598,1593,0,0,0,0,0,0,0,0,0,0
1684079587.39927101,67028178,1619,1606,1587,1586,0,0,0,0,0,0,0,0,0,0
1684079587.50006413,67128971,1643,1630,1564,1569,0,0,0,0,0,0,0,0,0,0
1684079587.60002398,67228931,1656,1645,1535,1546,0,0,0,0,0,0,0,0,0,0
1684079587.69998407,67328891,1656,1653,1544,1554,0,0,0,0,0,0,0,0,0,0
1684079587.79994392,67428851,1645,1650,1552,1559,0,0,0,0,0,0,0,0,0,0
1684079587.89990401,67528811,1633,1642,1559,1560,0,0,0,0,0,0,0,0,0,0
1684079587.99986410,67628771,1624,1633,1564,1561,0,0,0,0,0,0,0,0,0,0
1684079588.09982395,67728731,1618,1624,1569,1563,0,0,0,0,0,0,0,0,0,0
1684079588.19978404,67828691,1614,1615,1571,1566,0,0,0,0,0,0,0,0,0,0
1684079588.29974413,67928651,1612,1609,1572,1569,0,0,0,0,0,0,0,0,0,0
1684079588.39970398,68028611,1609,1604,1571,1571,0,0,0,0,0,0,0,0,0,0
1684079588.49966407,68128571,1605,1600,1570,1572,0,0,0,0,0,0,0,0,0,0
1684079588.59962392,68228531,1600,1597,1569,1571,0,0,0,0,0,0,0,0,0,0
1684079588.69958401,68328491,1596,1596,1569,1571,0,0,0,0,0,0,0,0,0,0
1684079588.79954410,68428451,1592,1594,1569,1569,0,0,0,0,0,0,0,0,0,0
1684079588.89950395,68528411,1590,1592,1569,1568,0,0,0,0,0,0,0,0,0,0
1684079588.99946404,68628371,1588,1590,1568,1567,0,0,0,0,0,0,0,0,0,0
1684079589.09942412,68728331,1587,1588,1569,1567,0,0,0,0,0,0,0,0,0,0
1684079589.19938397,68828291,1588,1588,1569,1568,0,0,0,0,0,0,0,0,0,0
1684079589.29934406,68928251,1588,1588,1570,1569,0,0,0,0,0,0,0,0,0,0
1684079589.39930415,69028211,1588,1587,1570,1569,0,0,0,0,0,0,0,0,0,0
1684079589.49926400,69128171,1588,1586,1569,1569,0,0,0,0,0,0,0,0,0,0
1684079589.60005713,69228964,1582,1578,1576,1576,0,0,0,0,0,0,0,0,0,0
1684079589.70001698,69328924,1570,1567,1589,1591,0,0,0,0,0,0,0,0,0,0
1684079589.79997706,69428884,1558,1557,1602,1603,0,0,0,0,0,0,0,0,0,0
1684079589.89993715,69528844,1548,1551,1608,1610,0,0,0,0,0,0,0,0,0,0
1684079589.99989700,69628804,1545,1550,1608,1609,0,0,0,0,0,0,0,0,0,0
1684079590.09985709,69728764,1547,1553,1606,1606,0,0,0,0,0,0,0,0,0,0
1684079590.19981694,69828724,1551,1556,1602,1600,0,0,0,0,0,0,0,0,0,0
1684079590.29977703,69928684,1557,1561,1597,1594,0,0,0,0,0,0,0,0,0,0
1684079590.39973712,70028644,1565,1566,1593,1590,0,0,0,0,0,0,0,0,0,0
1684079590.49969697,70128604,1574,1573,1584,1581,0,0,0,0,0,0,0,0,0,0
1684079590.59965706,70228564,1584,1581,1574,1573,0,0,0,0,0,0,0,0,0,0
1684079590.69961715,70328524,1592,1588,1564,1565,0,0,0,0,0,0,0,0,0,0
1684079590.79957700,70428484,1597,1594,1558,1560,0,0,0,0,0,0,0,0,0,0
1684079590.89953709,70528444,1600,1598,1556,1558,0,0,0,0,0,0,0,0,0,0
1684079590.99949694,70628404,1599,1599,1556,1559,0,0,0,0,0,0,0,0,0,0
1684079591.09945703,70728364,1597,1598,1561,1562,0,0,0,0,0,0,0,0,0,0
1684079591.19941711,70828324,1593,1594,1567,1567,0,0,0,0,0,0,0,0,0,0
1684079591.29937696,70928284,1589,1587,1579,1569,0,0,0,0,0,0,0,0,0,0
1684079591.39933705,71028244,1584,1579,1585,1574,0,0,0,0,0,0,0,0,0,0
1684079591.49929714,71128204,1577,1572,1583,1580,0,0,0,0,0,0,0,0,0,0
1684079591.59925699,71228164,1570,1568,1578,1581,0,0,0,0,0,0,0,0,0,0
1684079591.70005012,71328957,1565,1567,1574,1580,0,0,0,0,0,0,0,0,0,0
1684079591.80000997,71428917,1561,1566,1570,1574,0,0,0,0,0,0,0,0,0,0
1684079591.89997005,71528877,1563,1568,1568,1568,0,0,0,0,0,0,0,0,0,0
1684079591.99993014,71628837,1565,1570,1563,1561,0,0,0,0,0,0,0,0,0,0
1684079592.09988999,71728797,1570,1572,1561,1556,0,0,0,0,0,0,0,0,0,0
1684079592.19985008,71828757,1574,1575,1557,1553,0,0,0,0,0,0,0,0,0,0
1684079592.29980993,71928717,1577,1576,1552,1549,0,0,0,0,0,0,0,0,0,0
1684079592.39977002,72028677,1579,1577,1547,1546,0,0,0,0,0,0,0,0,0,0
1684079592.49973011,72128637,1581,1579,1545,1546,0,0,0,0,0,0,0,0,0,0
1684079592.59968996,72228597,1580,1580,1543,1544,0,0,0,0,0,0,0,0,0,0
1684079592.69965005,72328557,1580,1581,1542,1543,0,0,0,0,0,0,0,0,0,0
1684079592.79961014,72428517,1580,1582,1542,1542,0,0,0,0,0,0,0,0,0,0
1684079592.89956999,72528477,1579,1581,1541,1541,0,0,0,0,0,0,0,0,0,0
1684079592.99953008,72628437,1580,1583,1542,1541,0,0,0,0,0,0,0,0,0,0
1684079593.09948993,72728397,1582,1583,1541,1540,0,0,0,0,0,0,0,0,0,0
1684079593.19945002,72828357,1583,1584,1540,1539,0,0,0,0,0,0,0,0,0,0
1684079593.29941010,72928317,1585,1585,1539,1539,0,0,0,0,0,0,0,0,0,0
1684079593.39936996,73028277,1586,1586,1538,1539,0,0,0,0,0,0,0,0,0,0
1684079593.49933004,73128237,1588,1587,1539,1540,0,0,0,0,0,0,0,0,0,0
1684079593.59929013,73228197,1588,1588,1539,1541,0,0,0,0,0,0,0,0,0,0
1684079593.69924998,73328157,1588,1587,1542,1544,0,0,0,0,0,0,0,0,0,0
1684079593.80004311,73428950,1585,1585,1545,1547,0,0,0,0,0,0,0,0,0,0
1684079593.90000296,73528910,1581,1580,1549,1552,0,0,0,0,0,0,0,0,0,0
1684079593.99996305,73628870,1576,1575,1555,1558,0,0,0,0,0,0,0,0,0,0
1684079594.09992313,73728830,1571,1570,1561,1564,0,0,0,0,0,0,0,0,0,0
1684079594.19988298,73828790,1566,1565,1567,1570,0,0,0,0,0,0,0,0,0,0
1684079594.29984307,73928750,1561,1560,1571,1574,0,0,0,0,0,0,0,0,0,0
1684079594.39980292,74028710,1557,1556,1576,1578,0,0,0,0,0,0,0,0,0,0
1684079594.49976301,74128670,1553,1552,1580,1581,0,0,0,0,0,0,0,0,0,0
1684079594.59972310,74228630,1551,1550,1585,1585,0,0,0,0,0,0,0,0,0,0
1684079594.69968295,74328590,1548,1547,1589,1588,0,0,0,0,0,0,0,0,0,0
1684079594.79964304,74428550,1546,1545,1591,1591,0,0,0,0,0,0,0,0,0,0
1684079594.89960313,74528510,1546,1545,1594,1593,0,0,0,0,0,0,0,0,0,0
1684079594.99956298,74628470,1545,1545,1594,1594,0,0,0,0,0,0,0,0,0,0
1684079595.09952307,74728430,1546,1546,1594,1593,0,0,0,0,0,0,0,0,0,0
1684079595.19948292,74828390,1547,1548,1592,1593,0,0,0,0,0,0,0,0,0,0
1684079595.29944301,74928350,1550,1551,1592,1592,0,0,0,0,0,0,0,0,0,0
1684079595.39940310,75028310,1554,1555,1590,1590,0,0,0,0,0,0,0,0,0,0
1684079595.49936295,75128270,1557,1558,1586,1586,0,0,0,0,0,0,0,0,0,0
1684079595.59932303,75228230,1562,1563,1585,1585,0,0,0,0,0,0,0,0,0,0
1684079595.69928312,75328190,1566,1566,1582,1581,0,0,0,0,0,0,0,0,0,0
1684079595.80007601,75428983,1570,1570,1581,1579,0,0,0,0,0,0,0,0,0,0
1684079595.90003610,75528943,1574,1574,1579,1578,0,0,0,0,0,0,0,0,0,0
1684079595.99999595,75628903,1578,1576,1578,1577,0,0,0,0,0,0,0,0,0,0
1684079596.09995604,75728863,1580,1579,1576,1576,0,0,0,0,0,0,0,0,0,0
1684079596.19991612,75828823,1581,1580,1575,1575,0,0,0,0,0,0,0,0,0,0
1684079596.29987597,75928783,1582,1581,1574,1574,0,0,0,0,0,0,0,0,0,0
1684079596.39983606,76028743,1583,1583,1574,1575,0,0,0,0,0,0,0,0,0,0
1684079596.49979615,76128703,1583,1584,1574,1574,0,0,0,0,0,0,0,0,0,0
1684079596.59975600,76228663,1583,1583,1574,1574,0,0,0,0,0,0,0,0,0,0
1684079596.69971609,76328623,1584,1583,1576,1575,0,0,0,0,0,0,0,0,0,0
1684079596.79967594,76428583,1583,1583,1575,1575,0,0,0,0,0,0,0,0,0,0
1684079596.89963603,76528543,1582,1582,1575,1575,0,0,0,0,0,0,0,0,0,0
1684079596.99959612,76628503,1582,1581,1576,1576,0,0,0,0,0,0,0,0,0,0
1684079597.09955597,76728463,1582,1581,1576,1577,0,0,0,0,0,0,0,0,0,0
1684079597.19951606,76828423,1581,1581,1577,1577,0,0,0,0,0,0,0,0,0,0
1684079597.29947615,76928383,1580,1581,1578,1578,0,0,0,0,0,0,0,0,0,0
1684079597.39943600,77028343,1580,1580,1578,1578,0,0,0,0,0,0,0,0,0,0
1684079597.49939609,77128303,1579,1580,1579,1579,0,0,0,0,0,0,0,0,0,0
1684079597.59935594,77228263,1578,1579,1578,1578,0,0,0,0,0,0,0,0,0,0
1684079597.69931602,77328223,1578,1579,1579,1579,0,0,0,0,0,0,0,0,0,0
1684079597.79927611,77428183,1579,1579,1581,1580,0,0,0,0,0,0,0,0,0,0
1684079597.90006900,77528976,1580,1580,1581,1581,0,0,0,0,0,0,0,0,0,0
1684079598.00002909,77628936,1579,1579,1580,1580,0,0,0,0,0,0,0,0,0,0
1684079598.09998894,77728896,1579,1579,1581,1580,0,0,0,0,0,0,0,0,0,0
1684079598.19994903,77828856,1579,1579,1579,1580,0,0,0,0,0,0,0,0,0,0
1684079598.29990911,77928816,1578,1579,1579,1579,0,0,0,0,0,0,0,0,0,0
1684079598.39986897,78028776,1579,1579,1580,1580,0,0,0,0,0,0,0,0,0,0
1684079598.49982905,78128736,1579,1579,1580,1580,0,0,0,0,0,0,0,0,0,0
1684079598.59978914,78228696,1580,1580,1580,1580,0,0,0,0,0,0,0,0,0,0
1684079598.69974899,78328656,1808,1805,1519,1509,0,0,0,0,0,0,0,0,0,0
1684079598.79970908,78428616,1746,1738,1506,1501,0,0,0,0,0,0,0,0,0,0
1684079598.89966893,78528576,1680,1671,1521,1524,0,0,0,0,0,0,0,0,0,0
1684079598.99962902,78628536,1611,1604,1549,1555,0,0,0,0,0,0,0,0,0,0
1684079599.09958911,78728496,1553,1551,1576,1580,0,0,0,0,0,0,0,0,0,0
1684079599.19954896,78828456,1518,1522,1591,1593,0,0,0,0,0,0,0,0,0,0
1684079599.29950905,78928416,1504,1511,1600,1599,0,0,0,0,0,0,0,0,0,0
1684079599.39946914,79028376,1491,1501,1612,1610,0,0,0,0,0,0,0,0,0,0
1684079599.49942899,79128336,1475,1481,1631,1630,0,0,0,0,0,0,0,0,0,0
1684079599.59938908,79228296,1468,1475,1643,1646,0,0,0,0,0,0,0,0,0,0
1684079599.69934893,79328256,1483,1486,1634,1640,0,0,0,0,0,0,0,0,0,0
1684079599.79930902,79428216,1502,1501,1622,1628,0,0,0,0,0,0,0,0,0,0
1684079599.89926910,79528176,1520,1519,1613,1617,0,0,0,0,0,0,0,0,0,0
1684079600.00006199,79628969,1543,1546,1599,1600,0,0,0,0,0,0,0,0,0,0
1684079600.10002208,79728929,1572,1576,1578,1576,0,0,0,0,0,0,0,0,0,0
1684079600.19998193,79828889,1595,1601,1564,1552,0,0,0,0,0,0,0,0,0,0
1684079600.29994202,79928849,1608,1617,1556,1542,0,0,0,0,0,0,0,0,0,0
1684079600.39990211,80028809,1612,1619,1547,1542,0,0,0,0,0,0,0,0,0,0
1684079600.49986196,80128769,1612,1613,1542,1544,0,0,0,0,0,0,0,0,0,0
1684079600.59982204,80228729,1610,1605,1541,1547,0,0,0,0,0,0,0,0,0,0
1684079600.69978213,80328689,1608,1599,1545,1549,0,0,0,0,0,0,0,0,0,0
1684079600.79974198,80428649,1603,1596,1551,1552,0,0,0,0,0,0,0,0,0,0
1684079600.89970207,80528609,1597,1591,1555,1553,0,0,0,0,0,0,0,0,0,0
1684079600.99966192,80628569,1591,1590,1560,1557,0,0,0,0,0,0,0,0,0,0
1684079601.09962201,80728529,1586,1588,1563,1560,0,0,0,0,0,0,0,0,0,0
1684079601.19958210,80828489,1581,1585,1565,1562,0,0,0,0,0,0,0,0,0,0
1684079601.29954195,80928449,1578,1582,1564,1564,0,0,0,0,0,0,0,0,0,0
1684079601.39950204,81028409,1576,1580,1563,1565,0,0,0,0,0,0,0,0,0,0
1684079601.49946213,81128369,1576,1578,1562,1564,0,0,0,0,0,0,0,0,0,0
1684079601.59942198,81228329,1576,1577,1561,1562,0,0,0,0,0,0,0,0,0,0
1684079601.69938207,81328289,1577,1577,1559,1560,0,0,0,0,0,0,0,0,0,0
1684079601.79934192,81428249,1578,1578,1558,1558,0,0,0,0,0,0,0,0,0,0
1684079601.89930201,81528209,1579,1580,1556,1555,0,0,0,0,0,0,0,0,0,0
1684079601.99926209,81628169,1581,1582,1553,1553,0,0,0,0,0,0,0,0,0,0
1684079602.10005498,81728962,1584,1585,1553,1553,0,0,0,0,0,0,0,0,0,0
1684079602.20001507,81828922,1587,1589,1551,1552,0,0,0,0,0,0,0,0,0,0
1684079602.29997492,81928882,1590,1591,1548,1550,0,0,0,0,0,0,0,0,0,0
1684079602.39993501,82028842,1592,1592,1546,1548,0,0,0,0,0,0,0,0,0,0
1684079602.49989510,82128802,1595,1592,1547,1549,0,0,0,0,0,0,0,0,0,0
1684079602.59985495,82228762,1595,1592,1549,1551,0,0,0,0,0,0,0,0,0,0
1684079602.69981503,82328722,1594,1589,1554,1555,0,0,0,0,0,0,0,0,0,0
1684079602.79977512,82428682,1590,1586,1560,1560,0,0,0,0,0,0,0,0,0,0
1684079602.89973497,82528642,1585,1580,1567,1567,0,0,0,0,0,0,0,0,0,0
1684079602.99969506,82628602,1578,1575,1575,1575,0,0,0,0,0,0,0,0,0,0
1684079603.09965515,82728562,1571,1568,1582,1582,0,0,0,0,0,0,0,0,0,0
1684079603.19961500,82828522,1564,1562,1588,1587,0,0,0,0,0,0,0,0,0,0
1684079603.29957509,82928482,1559,1559,1594,1594,0,0,0,0,0,0,0,0,0,0
1684079603.39953494,83028442,1556,1556,1599,1598,0,0,0,0,0,0,0,0,0,0
1684079603.49949503,83128402,1554,1555,1602,1601,0,0,0,0,0,0,0,0,0,0
1684079603.59945512,83228362,1552,1553,1602,1601,0,0,0,0,0,0,0,0,0,0
1684079603.69941497,83328322,1553,1554,1603,1603,0,0,0,0,0,0,0,0,0,0
1684079603.79937506,83428282,1554,1555,1602,1601,0,0,0,0,0,0,0,0,0,0
1684079603.89933515,83528242,1555,1557,1600,1599,0,0,0,0,0,0,0,0,0,0
1684079603.99929500,83628202,1558,1559,1598,1598,0,0,0,0,0,0,0,0,0,0
1684079604.09925508,83728162,1560,1561,1595,1595,0,0,0,0,0,0,0,0,0,0
1684079604.20004797,83828955,1562,1563,1592,1592,0,0,0,0,0,0,0,0,0,0
1684079604.30000806,83928915,1565,1565,1589,1589,0,0,0,0,0,0,0,0,0,0
1684079604.39996815,84028875,1567,1567,1586,1586,0,0,0,0,0,0,0,0,0,0
1684079604.49992800,84128835,1570,1569,1584,1584,0,0,0,0,0,0,0,0,0,0
1684079604.59988809,84228795,1572,1572,1583,1583,0,0,0,0,0,0,0,0,0,0
1684079604.69984794,84328755,1574,1573,1581,1580,0,0,0,0,0,0,0,0,0,0
1684079604.79980803,84428715,1576,1575,1580,1579,0,0,0,0,0,0,0,0,0,0
1684079604.89976811,84528675,1577,1577,1579,1578,0,0,0,0,0,0,0,0,0,0
1684079604.99972796,84628635,1578,1578,1578,1578,0,0,0,0,0,0,0,0,0,0
1684079605.09968805,84728595,1579,1578,1576,1577,0,0,0,0,0,0,0,0,0,0
1684079605.19964814,84828555,1580,1579,1576,1576,0,0,0,0,0,0,0,0,0,0
1684079605.29960799,84928515,1580,1579,1575,1576,0,0,0,0,0,0,0,0,0,0
1684079605.39956808,85028475,1580,1579,1575,1575,0,0,0,0,0,0,0,0,0,0
1684079605.49952793,85128435,1579,1579,1575,1575,0,0,0,0,0,0,0,0,0,0
1684079605.59948802,85228395,1579,1579,1575,1575,0,0,0,0,0,0,0,0,0,0
1684079605.69944811,85328355,1580,1580,1576,1577,0,0,0,0,0,0,0,0,0,0
1684079605.79940796,85428315,1580,1579,1577,1577,0,0,0,0,0,0,0,0,0,0
1684079605.89936805,85528275,1578,1578,1576,1576,0,0,0,0,0,0,0,0,0,0
1684079605.99932814,85628235,1578,1579,1577,1577,0,0,0,0,0,0,0,0,0,0
1684079606.09928799,85728195,1579,1578,1578,1578,0,0,0,0,0,0,0,0,0,0
1684079606.19924808,85828155,1579,1579,1579,1579,0,0,0,0,0,0,0,0,0,0
1684079606.30004096,85928948,1577,1577,1578,1577,0,0,0,0,0,0,0,0,0,0
1684079606.40000105,86028908,1577,1578,1578,1578,0,0,0,0,0,0,0,0,0,0
1684079606.49996114,86128868,1577,1577,1578,1578,0,0,0,0,0,0,0,0,0,0
1684079606.59992099,86228828,1577,1577,1578,1579,0,0,0,0,0,0,0,0,0,0
1684079606.69988108,86328788,1577,1578,1578,1579,0,0,0,0,0,0,0,0,0,0
1684079606.79984093,86428748,1577,1578,1579,1579,0,0,0,0,0,0,0,0,0,0
1684079606.89980102,86528708,1577,1577,1579,1578,0,0,0,0,0,0,0,0,0,0
1684079606.99976110,86628668,1578,1578,1579,1579,0,0,0,0,0,0,0,0,0,0
1684079607.09972095,86728628,1579,1579,1579,1580,0,0,0,0,0,0,0,0,0,0
1684079607.19968104,86828588,1580,1579,1580,1580,0,0,0,0,0,0,0,0,0,0
1684079607.29964113,86928548,1580,1579,1580,1580,0,0,0,0,0,0,0,0,0,0
1684079607.39960098,87028508,1580,1580,1580,1580,0,0,0,0,0,0,0,0,0,0
1684079607.49956107,87128468,1580,1580,1580,1580,0,0,0,0,0,0,0,0,0,0
1684079607.59952092,87228428,1580,1580,1580,1580,0,0,0,0,0,0,0,0,0,0
1684079607.69948101,87328388,1581,1580,1580,1580,0,0,0,0,0,0,0,0,0,0
1684079607.79944110,87428348,1580,1580,1580,1580,0,0,0,0,0,0,0,0,0,0
1684079607.89940095,87528308,1580,1580,1579,1580,0,0,0,0,0,0,0,0,0,0
1684079607.99936104,87628268,1581,1582,1583,1576,0,0,0,0,0,0,0,0,0,0
1684079608.09932113,87728228,1580,1583,1586,1571,0,0,0,0,0,0,0,0,0,0
1684079608.19928098,87828188,1578,1581,1581,1573,0,0,0,0,0,0,0,0,0,0
1684079608.30007410,87928981,1575,1577,1574,1574,0,0,0,0,0,0,0,0,0,0
1684079608.40003395,88028941,1573,1573,1568,1574,0,0,0,0,0,0,0,0,0,0
1684079608.49999404,88128901,1571,1569,1565,1572,0,0,0,0,0,0,0,0,0,0
1684079608.59995413,88228861,1570,1568,1565,1570,0,0,0,0,0,0,0,0,0,0
1684079608.69991398,88328821,1568,1566,1565,1567,0,0,0,0,0,0,0,0,0,0
1684079608.79987407,88428781,1567,1566,1567,1566,0,0,0,0,0,0,0,0,0,0
1684079608.89983392,88528741,1565,1565,1566,1564,0,0,0,0,0,0,0,0,0,0
1684079608.99979401,88628701,1564,1564,1566,1564,0,0,0,0,0,0,0,0,0,0
1684079609.09975410,88728661,1563,1564,1565,1564,0,0,0,0,0,0,0,0,0,0
1684079609.19971395,88828621,1563,1564,1566,1564,0,0,0,0,0,0,0,0,0,0
1684079609.29967403,88928581,1563,1563,1564,1564,0,0,0,0,0,0,0,0,0,0
1684079609.39963412,89028541,1561,1562,1563,1563,0,0,0,0,0,0,0,0,0,0
1684079609.49959397,89128501,1561,1561,1561,1562,0,0,0,0,0,0,0,0,0,0
1684079609.59955406,89228461,1561,1561,1562,1562,0,0,0,0,0,0,0,0,0,0
1684079609.69951415,89328421,1560,1560,1561,1560,0,0,0,0,0,0,0,0,0,0
1684079609.79947400,89428381,1560,1560,1560,1560,0,0,0,0,0,0,0,0,0,0
1684079609.89943409,89528341,1558,1558,1558,1558,0,0,0,0,0,0,0,0,0,0
1684079609.99939394,89628301,1558,1558,1558,1557,0,0,0,0,0,0,0,0,0,0
1684079610.09935403,89728261,1557,1557,1558,1557,0,0,0,0,0,0,0,0,0,0
1684079610.19931412,89828221,1556,1556,1557,1555,0,0,0,0,0,0,0,0,0,0
1684079610.29927397,89928181,1557,1557,1558,1556,0,0,0,0,0,0,0,0,0,0
1684079610.40006709,90028974,1558,1558,1559,1556,0,0,0,0,0,0,0,0,0,0
1684079610.50002694,90128934,1557,1558,1558,1557,0,0,0,0,0,0,0,0,0,0
1684079610.59998703,90228894,1557,1558,1558,1556,0,0,0,0,0,0,0,0,0,0
1684079610.69994712,90328854,1555,1556,1557,1554,0,0,0,0,0,0,0,0,0,0
1684079610.79990697,90428814,1554,1556,1556,1554,0,0,0,0,0,0,0,0,0,0
1684079610.89986706,90528774,1557,1558,1554,1560,0,0,0,0,0,0,0,0,0,0
1684079610.99982715,90628734,1557,1556,1552,1560,0,0,0,0,0,0,0,0,0,0
1684079611.09978700,90728694,1554,1552,1549,1556,0,0,0,0,0,0,0,0,0,0
1684079611.19974709,90828654,1550,1548,1547,1551,0,0,0,0,0,0,0,0,0,0
1684079611.29970694,90928614,1542,1541,1541,1542,0,0,0,0,0,0,0,0,0,0
1684079611.39966702,91028574,1535,1535,1536,1534,0,0,0,0,0,0,0,0,0,0
1684079611.49962711,91128534,1527,1527,1528,1527,0,0,0,0,0,0,0,0,0,0
1684079611.59958696,91228494,1523,1523,1524,1522,0,0,0,0,0,0,0,0,0,0
1684079611.69954705,91328454,1521,1521,1521,1522,0,0,0,0,0,0,0,0,0,0
1684079611.79950714,91428414,1521,1521,1521,1522,0,0,0,0,0,0,0,0,0,0
1684079611.89946699,91528374,1523,1523,1522,1525,0,0,0,0,0,0,0,0,0,0
1684079611.99942708,91628334,1527,1526,1526,1528,0,0,0,0,0,0,0,0,0,0
1684079612.09938693,91728294,1530,1530,1530,1531,0,0,0,0,0,0,0,0,0,0
1684079612.19934702,91828254,1534,1534,1534,1535,0,0,0,0,0,0,0,0,0,0
1684079612.29930711,91928214,1538,1539,1539,1539,0,0,0,0,0,0,0,0,0,0
1684079612.39926696,92028174,1541,1541,1541,1542,0,0,0,0,0,0,0,0,0,0
1684079612.50006008,92128967,1543,1543,1543,1544,0,0,0,0,0,0,0,0,0,0
1684079612.60001993,92228927,1544,1544,1544,1544,0,0,0,0,0,0,0,0,0,0
1684079612.69998002,92328887,1546,1545,1546,1545,0,0,0,0,0,0,0,0,0,0
1684079612.79994011,92428847,1545,1546,1546,1545,0,0,0,0,0,0,0,0,0,0
1684079612.89989996,92528807,1545,1546,1546,1545,0,0,0,0,0,0,0,0,0,0
1684079612.99986005,92628767,1546,1546,1547,1546,0,0,0,0,0,0,0,0,0,0
1684079613.09982014,92728727,1546,1546,1546,1546,0,0,0,0,0,0,0,0,0,0
1684079613.19977999,92828687,1547,1546,1547,1546,0,0,0,0,0,0,0,0,0,0
1684079613.29974008,92928647,1545,1545,1545,1546,0,0,0,0,0,0,0,0,0,0
1684079613.39969993,93028607,1545,1545,1546,1545,0,0,0,0,0,0,0,0,0,0
1684079613.49966002,93128567,1545,1545,1545,1545,0,0,0,0,0,0,0,0,0,0
1684079613.59962010,93228527,1544,1545,1545,1545,0,0,0,0,0,0,0,0,0,0
1684079613.69957995,93328487,1545,1545,1546,1545,0,0,0,0,0,0,0,0,0,0
1684079613.79954004,93428447,1544,1544,1544,1544,0,0,0,0,0,0,0,0,0,0
1684079613.89950013,93528407,1544,1544,1544,1544,0,0,0,0,0,0,0,0,0,0
1684079613.99945998,93628367,1545,1545,1545,1545,0,0,0,0,0,0,0,0,0,0
1684079614.09942007,93728327,1544,1544,1544,1544,0,0,0,0,0,0,0,0,0,0
1684079614.19937992,93828287,1545,1545,1545,1545,0,0,0,0,0,0,0,0,0,0
1684079614.29934001,93928247,1544,1544,1544,1545,0,0,0,0,0,0,0,0,0,0
1684079614.39930010,94028207,1545,1545,1545,1545,0,0,0,0,0,0,0,0,0,0
1684079614.49925995,94128167,1544,1544,1544,1544,0,0,0,0,0,0,0,0,0,0
1684079614.60005307,94228960,1545,1545,1545,1545,0,0,0,0,0,0,0,0,0,0
1684079614.70001292,94328920,1544,1544,1545,1544,0,0,0,0,0,0,0,0,0,0
1684079614.79997301,94428880,1544,1545,1545,1544,0,0,0,0,0,0,0,0,0,0
1684079614.89993310,94528840,1544,1544,1544,1545,0,0,0,0,0,0,0,0,0,0
1684079614.99989295,94628800,1544,1543,1543,1543,0,0,0,0,0,0,0,0,0,0
1684079615.09985304,94728760,1544,1543,1544,1544,0,0,0,0,0,0,0,0,0,0
1684079615.19981313,94828720,1544,1543,1544,1544,0,0,0,0,0,0,0,0,0,0
1684079615.29977298,94928680,1544,1544,1543,1543,0,0,0,0,0,0,0,0,0,0
1684079615.39973307,95028640,1544,1544,1544,1544,0,0,0,0,0,0,0,0,0,0
1684079615.49969292,95128600,1544,1544,1544,1543,0,0,0,0,0,0,0,0,0,0
1684079615.59965301,95228560,1543,1543,1543,1543,0,0,0,0,0,0,0,0,0,0
1684079615.69961309,95328520,1543,1544,1544,1544,0,0,0,0,0,0,0,0,0,0
1684079615.79957294,95428480,1544,1544,1544,1544,0,0,0,0,0,0,0,0,0,0
1684079615.89953303,95528440,1544,1543,1544,1544,0,0,0,0,0,0,0,0,0,0
1684079615.99949312,95628400,1544,1544,1544,1544,0,0,0,0,0,0,0,0,0,0
1684079616.09945297,95728360,1544,1543,1543,1544,0,0,0,0,0,0,0,0,0,0
1684079616.19941306,95828320,1543,1543,1544,1543,0,0,0,0,0,0,0,0,0,0
1684079616.29937315,95928280,1543,1543,1543,1543,0,0,0,0,0,0,0,0,0,0
1684079616.39933300,96028240,1543,1543,1543,1543,0,0,0,0,0,0,0,0,0,0
1684079616.49929309,96128200,1544,1544,1545,1545,0,0,0,0,0,0,0,0,0,0
1684079616.59925294,96228160,1544,1544,1545,1544,0,0,0,0,0,0,0,0,0,0
1684079616.70004606,96328953,1544,1544,1544,1544,0,0,0,0,0,0,0,0,0,0
1684079616.80000615,96428913,1544,1544,1544,1544,0,0,0,0,0,0,0,0,0,0
1684079616.89996600,96528873,1544,1544,1544,1544,0,0,0,0,0,0,0,0,0,0
1684079616.99992609,96628833,1545,1544,1545,1545,0,0,0,0,0,0,0,0,0,0
1684079617.09988594,96728793,1544,1544,1544,1544,0,0,0,0,0,0,0,0,0,0
1684079617.19984603,96828753,1545,1545,1545,1545,0,0,0,0,0,0,0,0,0,0
1684079617.29980612,96928713,1544,1544,1544,1545,0,0,0,0,0,0,0,0,0,0
1684079617.39976597,97028673,1544,1544,1544,1544,0,0,0,0,0,0,0,0,0,0
1684079617.49972606,97128633,1544,1544,1544,1544,0,0,0,0,0,0,0,0,0,0
1684079617.59968615,97228593,1544,1545,1545,1544,0,0,0,0,0,0,0,0,0,0
1684079617.69964600,97328553,1543,1543,1543,1543,0,0,0,0,0,0,0,0,0,0
1684079617.79960608,97428513,1543,1544,1544,1544,0,0,0,0,0,0,0,0,0,0
1684079617.89956594,97528473,1543,1543,1543,1544,0,0,0,0,0,0,0,0,0,0
1684079617.99952602,97628433,1544,1544,1544,1544,0,0,0,0,0,0,0,0,0,0
1684079618.09948611,97728393,1544,1544,1544,1545,0,0,0,0,0,0,0,0,0,0
1684079618.19944596,97828353,1543,1543,1543,1543,0,0,0,0,0,0,0,0,0,0
1684079618.29940605,97928313,1544,1544,1543,1544,0,0,0,0,0,0,0,0,0,0
1684079618.39936614,98028273,1544,1544,1544,1544,0,0,0,0,0,0,0,0,0,0
1684079618.49932599,98128233,1545,1544,1544,1544,0,0,0,0,0,0,0,0,0,0
1684079618.59928608,98228193,1544,1544,1544,1544,0,0,0,0,0,0,0,0,0,0
1684079618.70007896,98328986,1545,1545,1544,1545,0,0,0,0,0,0,0,0,0,0
1684079618.80003905,98428946,1545,1545,1545,1545,0,0,0,0,0,0,0,0,0,0
1684079618.89999914,98528906,1544,1544,1544,1544,0,0,0,0,0,0,0,0,0,0
1684079618.99995899,98628866,1544,1544,1544,1544,0,0,0,0,0,0,0,0,0,0
1684079619.09991908,98728826,1545,1544,1545,1545,0,0,0,0,0,0,0,0,0,0
1684079619.19987893,98828786,1544,1544,1544,1544,0,0,0,0,0,0,0,0,0,0
1684079619.29983902,98928746,1544,1544,1544,1545,0,0,0,0,0,0,0,0,0,0
1684079619.39979911,99028706,1544,1544,1544,1544,0,0,0,0,0,0,0,0,0,0
1684079619.49975896,99128666,1544,1544,1544,1544,0,0,0,0,0,0,0,0,0,0
1684079619.59971905,99228626,1544,1544,1544,1544,0,0,0,0,0,0,0,0,0,0
1684079619.69967914,99328586,1544,1543,1543,1543,0,0,0,0,0,0,0,0,0,0
1684079619.79963899,99428546,1544,1544,1544,1544,0,0,0,0,0,0,0,0,0,0
1684079619.89959908,99528506,1544,1544,1544,1544,0,0,0,0,0,0,0,0,0,0
1684079619.99955893,99628466,1545,1545,1545,1545,0,0,0,0,0,0,0,0,0,0
1684079620.09951901,99728426,1545,1545,1545,1545,0,0,0,0,0,0,0,0,0,0
1684079620.19947910,99828386,1545,1545,1545,1545,0,0,0,0,0,0,0,0,0,0
1684079620.29943895,99928346,1545,1545,1545,1545,0,0,0,0,0,0,0,0,0,0
1684079620.39939904,100028306,1544,1545,1544,1545,0,0,0,0,0,0,0,0,0,0
1684079620.49935913,100128266,1545,1544,1544,1545,0,0,0,0,0,0,0,0,0,0
1684079620.59931898,100228226,1545,1545,1545,1545,0,0,0,0,0,0,0,0,0,0
1684079620.69927907,100328186,1545,1545,1545,1545,0,0,0,0,0,0,0,0,0,0
1684079620.80007195,100428979,1545,1545,1545,1545,0,0,0,0,0,0,0,0,0,0
1684079620.90003204,100528939,1545,1545,1545,1545,0,0,0,0,0,0,0,0,0,0
1684079620.99999213,100628899,1544,1544,1545,1544,0,0,0,0,0,0,0,0,0,0
1684079621.09995198,100728859,1544,1544,1544,1545,0,0,0,0,0,0,0,0,0,0
1684079621.19991207,100828819,1544,1545,1545,1544,0,0,0,0,0,0,0,0,0,0
1684079621.29987192,100928779,1474,1473,1474,1474,0,0,0,0,0,0,0,0,0,0
1684079621.39983201,101028739,1308,1305,1307,1307,0,0,0,0,0,0,0,0,0,0
1684079621.49979210,101128699,1234,1230,1234,1234,0,0,0,0,0,0,0,0,0,0
1684079621.59975195,101228659,1209,1206,1210,1209,0,0,0,0,0,0,0,0,0,0
1684079621.69971204,101328619,1178,1174,1180,1179,0,0,0,0,0,0,0,0,0,0
1684079621.79967213,101428579,1153,1150,1156,1154,0,0,0,0,0,0,0,0,0,0
1684079621.89963198,101528539,1154,1150,1157,1156,0,0,0,0,0,0,0,0,0,0
1684079621.99959207,101628499,1178,1150,1153,1184,0,0,0,0,0,0,0,0,0,0
1684079622.09955192,101728459,1178,1150,1155,1184,0,0,0,0,0,0,0,0,0,0
1684079622.19951200,101828419,1173,1150,1158,1177,0,0,0,0,0,0,0,0,0,0
1684079622.29947209,101928379,1174,1150,1158,1178,0,0,0,0,0,0,0,0,0,0
1684079622.39943194,102028339,1175,1150,1159,1180,0,0,0,0,0,0,0,0,0,0
1684079622.49939203,102128299,1177,1150,1160,1182,0,0,0,0,0,0,0,0,0,0
1684079622.59935212,102228259,1179,1150,1160,1184,0,0,0,0,0,0,0,0,0,0
1684079622.69931197,102328219,1181,1150,1161,1187,0,0,0,0,0,0,0,0,0,0
1684079622.79927206,102428179,1164,1150,1161,1170,0,0,0,0,0,0,0,0,0,0
1684079622.90006495,102528972,1168,1150,1161,1175,0,0,0,0,0,0,0,0,0,0
1684079623.00002503,102628932,1169,1150,1162,1177,0,0,0,0,0,0,0,0,0,0
1684079623.09998512,102728892,1170,1150,1162,1178,0,0,0,0,0,0,0,0,0,0
1684079623.19994497,102828852,1170,1150,1163,1179,0,0,0,0,0,0,0,0,0,0
1684079623.29990506,102928812,1000,1000,1000,1000,0,0,0,0,0,0,0,0,0,0
1684079623.39986515,103028772,1000,1000,1000,1000,0,0,0,0,0,0,0,0,0,0
1684079623.49982500,103128732,1000,1000,1000,1000,0,0,0,0,0,0,0,0,0,0
1684079623.59978509,103228692,1000,1000,1000,1000,0,0,0,0,0,0,0,0,0,0
1684079623.69974494,103328652,1000,1000,1000,1000,0,0,0,0,0,0,0,0,0,0
1684079623.79970503,103428612,1000,1000,1000,1000,0,0,0,0,0,0,0,0,0,0
1684079623.89966512,103528572,1000,1000,1000,1000,0,0,0,0,0,0,0,0,0,0
1684079623.99962497,103628532,1000,1000,1000,1000,0,0,0,0,0,0,0,0,0,0
1684079624.09958506,103728492,1000,1000,1000,1000,0,0,0,0,0,0,0,0,0,0
1684079624.19954515,103828452,1000,1000,1000,1000,0,0,0,0,0,0,0,0,0,0
1684079624.29950500,103928412,1000,1000,1000,1000,0,0,0,0,0,0,0,0,0,0
1684079624.39946508,104028372,1000,1000,1000,1000,0,0,0,0,0,0,0,0,0,0
1684079624.49942493,104128332,1000,1000,1000,1000,0,0,0,0,0,0,0,0,0,0
1684079624.59938502,104228292,1000,1000,1000,1000,0,0,0,0,0,0,0,0,0,0
1684079624.69934511,104328252,1000,1000,1000,1000,0,0,0,0,0,0,0,0,0,0
1684079624.79930496,104428212,1000,1000,1000,1000,0,0,0,0,0,0,0,0,0,0
1684079624.89926505,104528172,1000,1000,1000,1000,0,0,0,0,0,0,0,0,0,0
1684079625.00005794,104628965,1000,1000,1000,1000,0,0,0,0,0,0,0,0,0,0
1684079625.10001802,104728925,1000,1000,1000,1000,0,0,0,0,0,0,0,0,0,0
1684079625.19997811,104828885,1000,1000,1000,1000,0,0,0,0,0,0,0,0,0,0
1684079625.29993796,104928845,1000,1000,1000,1000,0,0,0,0,0,0,0,0,0,0
1684079625.39989805,105028805,1000,1000,1000,1000,0,0,0,0,0,0,0,0,0,0
1684079625.49985814,105128765,1000,1000,1000,1000,0,0,0,0,0,0,0,0,0,0
1684079625.59981799,105228725,1000,1000,1000,1000,0,0,0,0,0,0,0,0,0,0
1684079625.69977808,105328685,1000,1000,1000,1000,0,0,0,0,0,0,0,0,0,0
1684079625.79973793,105428645,1000,1000,1000,1000,0,0,0,0,0,0,0,0,0,0
1684079625.89969802,105528605,1000,1000,1000,1000,0,0,0,0,0,0,0,0,0,0
1684079625.99965811,105628565,1000,1000,1000,1000,0,0,0,0,0,0,0,0,0,0
1684079626.09961796,105728525,1000,1000,1000,1000,0,0,0,0,0,0,0,0,0,0
1684079626.19957805,105828485,1000,1000,1000,1000,0,0,0,0,0,0,0,0,0,0
1684079626.29953814,105928445,1000,1000,1000,1000,0,0,0,0,0,0,0,0,0,0
1684079626.39949799,106028405,1000,1000,1000,1000,0,0,0,0,0,0,0,0,0,0
1684079626.49945807,106128365,1000,1000,1000,1000,0,0,0,0,0,0,0,0,0,0
1684079626.59941792,106228325,1000,1000,1000,1000,0,0,0,0,0,0,0,0,0,0
1684079626.69937801,106328285,1000,1000,1000,1000,0,0,0,0,0,0,0,0,0,0
1684079626.79933810,106428245,1000,1000,1000,1000,0,0,0,0,0,0,0,0,0,0
1684079626.89929795,106528205,1000,1000,1000,1000,0,0,0,0,0,0,0,0,0,0
1684079626.99925804,106628165,1000,1000,1000,1000,0,0,0,0,0,0,0,0,0,0
1684079627.10005093,106728958,1000,1000,1000,1000,0,0,0,0,0,0,0,0,0,0
1684079627.20001101,106828918,1000,1000,1000,1000,0,0,0,0,0,0,0,0,0,0
1684079627.29997110,106928878,1000,1000,1000,1000,0,0,0,0,0,0,0,0,0,0
1684079627.39993095,107028838,1000,1000,1000,1000,0,0,0,0,0,0,0,0,0,0
1684079627.49989104,107128798,1000,1000,1000,1000,0,0,0,0,0,0,0,0,0,0
1684079627.59985113,107228758,1000,1000,1000,1000,0,0,0,0,0,0,0,0,0,0
1684079627.69981098,107328718,1000,1000,1000,1000,0,0,0,0,0,0,0,0,0,0
1684079627.79977107,107428678,1000,1000,1000,1000,0,0,0,0,0,0,0,0,0,0
1684079627.89973092,107528638,1000,1000,1000,1000,0,0,0,0,0,0,0,0,0,0
1684079627.99969101,107628598,1000,1000,1000,1000,0,0,0,0,0,0,0,0,0,0
1684079628.09965110,107728558,1000,1000,1000,1000,0,0,0,0,0,0,0,0,0,0
1684079628.19961095,107828518,1000,1000,1000,1000,0,0,0,0,0,0,0,0,0,0
1684079628.29957104,107928478,1000,1000,1000,1000,0,0,0,0,0,0,0,0,0,0
1684079628.39953113,108028438,1000,1000,1000,1000,0,0,0,0,0,0,0,0,0,0
1684079628.49949098,108128398,1000,1000,1000,1000,0,0,0,0,0,0,0,0,0,0
1684079628.59945107,108228358,1000,1000,1000,1000,0,0,0,0,0,0,0,0,0,0
1684079628.69941115,108328318,1000,1000,1000,1000,0,0,0,0,0,0,0,0,0,0
1684079628.79937100,108428278,1000,1000,1000,1000,0,0,0,0,0,0,0,0,0,0
1684079628.89933109,108528238,1000,1000,1000,1000,0,0,0,0,0,0,0,0,0,0
1684079628.99929094,108628198,1000,1000,1000,1000,0,0,0,0,0,0,0,0,0,0
1684079629.09925103,108728158,1000,1000,1000,1000,0,0,0,0,0,0,0,0,0,0
1684079629.20004392,108828951,1000,1000,1000,1000,0,0,0,0,0,0,0,0,0,0
1684079629.30000401,108928911,1000,1000,1000,1000,0,0,0,0,0,0,0,0,0,0
1684079629.39996409,109028871,1000,1000,1000,1000,0,0,0,0,0,0,0,0,0,0
1684079629.49992394,109128831,1000,1000,1000,1000,0,0,0,0,0,0,0,0,0,0
1684079629.59988403,109228791,1000,1000,1000,1000,0,0,0,0,0,0,0,0,0,0
1684079629.69984412,109328751,1000,1000,1000,1000,0,0,0,0,0,0,0,0,0,0
1684079629.79980397,109428711,1000,1000,1000,1000,0,0,0,0,0,0,0,0,0,0
1684079629.89976406,109528671,1000,1000,1000,1000,0,0,0,0,0,0,0,0,0,0
1684079629.99972415,109628631,1000,1000,1000,1000,0,0,0,0,0,0,0,0,0,0
1684079630.09968400,109728591,1000,1000,1000,1000,0,0,0,0,0,0,0,0,0,0
1684079630.19964409,109828551,1000,1000,1000,1000,0,0,0,0,0,0,0,0,0,0
1684079630.29960394,109928511,1000,1000,1000,1000,0,0,0,0,0,0,0,0,0,0
1684079630.39956403,110028471,1000,1000,1000,1000,0,0,0,0,0,0,0,0,0,0
1684079630.49952412,110128431,1000,1000,1000,1000,0,0,0,0,0,0,0,0,0,0
1684079630.59948397,110228391,1000,1000,1000,1000,0,0,0,0,0,0,0,0,0,0
1684079630.69944406,110328351,1000,1000,1000,1000,0,0,0,0,0,0,0,0,0,0
1684079630.79940414,110428311,1000,1000,1000,1000,0,0,0,0,0,0,0,0,0,0
1684079630.89936399,110528271,1000,1000,1000,1000,0,0,0,0,0,0,0,0,0,0
1684079630.99932408,110628231,1000,1000,1000,1000,0,0,0,0,0,0,0,0,0,0
1684079631.09928393,110728191,1000,1000,1000,1000,0,0,0,0,0,0,0,0,0,0
1684079631.20007706,110828984,1000,1000,1000,1000,0,0,0,0,0,0,0,0,0,0
1684079631.30003715,110928944,1000,1000,1000,1000,0,0,0,0,0,0,0,0,0,0
1684079631.39999700,111028904,1000,1000,1000,1000,0,0,0,0,0,0,0,0,0,0
1684079631.49995708,111128864,1000,1000,1000,1000,0,0,0,0,0,0,0,0,0,0
1684079631.59991693,111228824,1000,1000,1000,1000,0,0,0,0,0,0,0,0,0,0
1684079631.69987702,111328784,1000,1000,1000,1000,0,0,0,0,0,0,0,0,0,0
1684079631.79983711,111428744,1000,1000,1000,1000,0,0,0,0,0,0,0,0,0,0
1684079631.89979696,111528704,1000,1000,1000,1000,0,0,0,0,0,0,0,0,0,0
1684079631.99975705,111628664,1000,1000,1000,1000,0,0,0,0,0,0,0,0,0,0
1684079632.09971714,111728624,1000,1000,1000,1000,0,0,0,0,0,0,0,0,0,0
1684079632.19967699,111828584,1000,1000,1000,1000,0,0,0,0,0,0,0,0,0,0
1684079632.29963708,111928544,1000,1000,1000,1000,0,0,0,0,0,0,0,0,0,0
1684079632.39959693,112028504,1000,1000,1000,1000,0,0,0,0,0,0,0,0,0,0
1684079632.49955702,112128464,1000,1000,1000,1000,0,0,0,0,0,0,0,0,0,0
1684079632.59951711,112228424,1000,1000,1000,1000,0,0,0,0,0,0,0,0,0,0
1684079632.69947696,112328384,1000,1000,1000,1000,0,0,0,0,0,0,0,0,0,0
1684079632.79943705,112428344,1000,1000,1000,1000,0,0,0,0,0,0,0,0,0,0
1684079632.89939713,112528304,1000,1000,1000,1000,0,0,0,0,0,0,0,0,0,0
1684079632.99935699,112628264,1000,1000,1000,1000,0,0,0,0,0,0,0,0,0,0
1684079633.09931707,112728224,1000,1000,1000,1000,0,0,0,0,0,0,0,0,0,0
1684079633.19927692,112828184,1000,1000,1000,1000,0,0,0,0,0,0,0,0,0,0
1684079633.30007005,112928977,1000,1000,1000,1000,0,0,0,0,0,0,0,0,0,0
