timestamp,TimeUS,C1,C2,C3,C4,C5,C6,C7,C8,C9,C10,C11,C12,C13,C14
1683190252.20000005,43028615,1000,1000,1000,1000,0,0,0,0,0,0,0,0,0,0
1683190252.29996014,43128575,1000,1000,1000,1000,0,0,0,0,0,0,0,0,0,0
1683190252.39991999,43228535,1000,1000,1000,1000,0,0,0,0,0,0,0,0,0,0
1683190252.49988008,43328495,1000,1000,1000,1000,0,0,0,0,0,0,0,0,0,0
1683190252.59984016,43428455,1000,1000,1000,1000,0,0,0,0,0,0,0,0,0,0
1683190252.69980001,43528415,1000,1000,1000,1000,0,0,0,0,0,0,0,0,0,0
1683190252.79976010,43628375,1000,1000,1000,1000,0,0,0,0,0,0,0,0,0,0
1683190252.89971995,43728335,1000,1000,1000,1000,0,0,0,0,0,0,0,0,0,0
1683190252.99968004,43828295,1000,1000,1000,1000,0,0,0,0,0,0,0,0,0,0
1683190253.09964013,43928255,1000,1000,1000,1000,0,0,0,0,0,0,0,0,0,0
1683190253.19959998,44028215,1000,1000,1000,1000,0,0,0,0,0,0,0,0,0,0
1683190253.29956007,44128175,1000,1000,1000,1000,0,0,0,0,0,0,0,0,0,0
1683190253.40035295,44228968,1000,1000,1000,1000,0,0,0,0,0,0,0,0,0,0
1683190253.50031304,44328928,1000,1000,1000,1000,0,0,0,0,0,0,0,0,0,0
1683190253.60027313,44428888,1000,1000,1000,1000,0,0,0,0,0,0,0,0,0,0
1683190253.70023298,44528848,1000,1000,1000,1000,0,0,0,0,0,0,0,0,0,0
1683190253.80019307,44628808,1000,1000,1000,1000,0,0,0,0,0,0,0,0,0,0
1683190253.90015316,44728768,1000,1000,1000,1000,0,0,0,0,0,0,0,0,0,0
1683190254.00011301,44828728,1000,1000,1000,1000,0,0,0,0,0,0,0,0,0,0
1683190254.10007310,44928688,1000,1000,1000,1000,0,0,0,0,0,0,0,0,0,0
1683190254.20003295,45028648,1022,1022,1022,1022,0,0,0,0,0,0,0,0,0,0
1683190254.29999304,45128608,1052,1052,1052,1052,0,0,0,0,0,0,0,0,0,0
1683190254.39995313,45228568,1082,1082,1082,1082,0,0,0,0,0,0,0,0,0,0
1683190254.49991298,45328528,1112,1112,1112,1112,0,0,0,0,0,0,0,0,0,0
1683190254.59987307,45428488,1142,1142,1142,1142,0,0,0,0,0,0,0,0,0,0
1683190254.69983315,45528448,1346,1340,1341,1346,0,0,0,0,0,0,0,0,0,0
1683190254.79979300,45628408,1538,1533,1534,1538,0,0,0,0,0,0,0,0,0,0
1683190254.89975309,45728368,1692,1687,1687,1692,0,0,0,0,0,0,0,0,0,0
1683190254.99971294,45828328,1824,1819,1820,1824,0,0,0,0,0,0,0,0,0,0
1683190255.09967303,45928288,1918,1912,1913,1918,0,0,0,0,0,0,0,0,0,0
1683190255.19963312,46028248,1859,1857,1857,1859,0,0,0,0,0,0,0,0,0,0
1683190255.29959297,46128208,1730,1730,1731,1730,0,0,0,0,0,0,0,0,0,0
1683190255.39955306,46228168,1659,1654,1654,1659,0,0,0,0,0,0,0,0,0,0
1683190255.50034595,46328961,1635,1638,1631,1642,0,0,0,0,0,0,0,0,0,0
1683190255.60030603,46428921,1639,1643,1637,1646,0,0,0,0,0,0,0,0,0,0
1683190255.70026612,46528881,1642,1644,1642,1645,0,0,0,0,0,0,0,0,0,0
1683190255.80022597,46628841,1639,1641,1642,1639,0,0,0,0,0,0,0,0,0,0
1683190255.90018606,46728801,1633,1632,1636,1629,0,0,0,0,0,0,0,0,0,0
1683190256.00014615,46828761,1626,1624,1629,1621,0,0,0,0,0,0,0,0,0,0
1683190256.10010600,46928721,1623,1621,1625,1619,0,0,0,0,0,0,0,0,0,0
1683190256.20006609,47028681,1607,1606,1610,1603,0,0,0,0,0,0,0,0,0,0
1683190256.30002594,47128641,1583,1583,1593,1574,0,0,0,0,0,0,0,0,0,0
1683190256.39998603,47228601,1571,1571,1575,1566,0,0,0,0,0,0,0,0,0,0
1683190256.49994612,47328561,1559,1560,1558,1561,0,0,0,0,0,0,0,0,0,0
1683190256.59990597,47428521,1551,1551,1545,1556,0,0,0,0,0,0,0,0,0,0
1683190256.69986606,47528481,1543,1544,1536,1550,0,0,0,0,0,0,0,0,0,0
1683190256.79982615,47628441,1538,1537,1529,1546,0,0,0,0,0,0,0,0,0,0
1683190256.89978600,47728401,1532,1532,1526,1537,0,0,0,0,0,0,0,0,0,0
1683190256.99974608,47828361,1527,1527,1525,1529,0,0,0,0,0,0,0,0,0,0
1683190257.09970593,47928321,1524,1524,1524,1523,0,0,0,0,0,0,0,0,0,0
1683190257.19966602,48028281,1525,1525,1526,1523,0,0,0,0,0,0,0,0,0,0
1683190257.29962611,48128241,1527,1527,1529,1525,0,0,0,0,0,0,0,0,0,0
1683190257.39958596,48228201,1531,1531,1533,1529,0,0,0,0,0,0,0,0,0,0
1683190257.49954605,48328161,1534,1534,1537,1533,0,0,0,0,0,0,0,0,0,0
1683190257.60033894,48428954,1538,1538,1541,1537,0,0,0,0,0,0,0,0,0,0
1683190257.70029902,48528914,1543,1543,1544,1542,0,0,0,0,0,0,0,0,0,0
1683190257.80025911,48628874,1546,1546,1546,1546,0,0,0,0,0,0,0,0,0,0
1683190257.90021896,48728834,1549,1549,1549,1549,0,0,0,0,0,0,0,0,0,0
1683190258.00017905,48828794,1551,1552,1551,1552,0,0,0,0,0,0,0,0,0,0
1683190258.10013914,48928754,1554,1554,1553,1556,0,0,0,0,0,0,0,0,0,0
1683190258.20009899,49028714,1555,1555,1556,1559,0,0,0,0,0,0,0,0,0,0
1683190258.30005908,49128674,1556,1556,1560,1562,0,0,0,0,0,0,0,0,0,0
1683190258.40001917,49228634,1558,1558,1563,1563,0,0,0,0,0,0,0,0,0,0
1683190258.49997902,49328594,1560,1560,1565,1564,0,0,0,0,0,0,0,0,0,0
1683190258.59993911,49428554,1562,1563,1566,1565,0,0,0,0,0,0,0,0,0,0
1683190258.69989896,49528514,1564,1565,1567,1566,0,0,0,0,0,0,0,0,0,0
1683190258.79985905,49628474,1566,1566,1567,1567,0,0,0,0,0,0,0,0,0,0
1683190258.89981914,49728434,1569,1569,1567,1568,0,0,0,0,0,0,0,0,0,0
1683190258.99977899,49828394,1570,1570,1567,1567,0,0,0,0,0,0,0,0,0,0
1683190259.09973907,49928354,1572,1571,1568,1569,0,0,0,0,0,0,0,0,0,0
1683190259.19969916,50028314,1573,1573,1569,1569,0,0,0,0,0,0,0,0,0,0
1683190259.29965901,50128274,1573,1573,1570,1570,0,0,0,0,0,0,0,0,0,0
1683190259.39961910,50228234,1574,1574,1571,1571,0,0,0,0,0,0,0,0,0,0
1683190259.49957895,50328194,1575,1575,1572,1572,0,0,0,0,0,0,0,0,0,0
1683190259.59953904,50428154,1575,1575,1574,1573,0,0,0,0,0,0,0,0,0,0
1683190259.70033216,50528947,1575,1575,1575,1573,0,0,0,0,0,0,0,0,0,0
1683190259.80029202,50628907,1575,1575,1576,1574,0,0,0,0,0,0,0,0,0,0
1683190259.90025210,50728867,1575,1575,1576,1575,0,0,0,0,0,0,0,0,0,0
1683190260.00021195,50828827,1575,1575,1575,1576,0,0,0,0,0,0,0,0,0,0
1683190260.10017204,50928787,1575,1575,1576,1577,0,0,0,0,0,0,0,0,0,0
1683190260.20013213,51028747,1576,1576,1577,1577,0,0,0,0,0,0,0,0,0,0
1683190260.30009198,51128707,1575,1575,1577,1577,0,0,0,0,0,0,0,0,0,0
1683190260.40005207,51228667,1576,1576,1577,1577,0,0,0,0,0,0,0,0,0,0
1683190260.50001216,51328627,1576,1577,1577,1577,0,0,0,0,0,0,0,0,0,0
1683190260.59997201,51428587,1576,1576,1576,1576,0,0,0,0,0,0,0,0,0,0
1683190260.69993210,51528547,1577,1577,1577,1577,0,0,0,0,0,0,0,0,0,0
1683190260.79989195,51628507,1576,1577,1576,1576,0,0,0,0,0,0,0,0,0,0
1683190260.89985204,51728467,1578,1577,1577,1577,0,0,0,0,0,0,0,0,0,0
1683190260.99981213,51828427,1578,1578,1577,1577,0,0,0,0,0,0,0,0,0,0
1683190261.09977198,51928387,1578,1578,1577,1577,0,0,0,0,0,0,0,0,0,0
1683190261.19973207,52028347,1578,1578,1578,1578,0,0,0,0,0,0,0,0,0,0
1683190261.29969215,52128307,1578,1578,1578,1578,0,0,0,0,0,0,0,0,0,0
1683190261.39965200,52228267,1579,1579,1579,1578,0,0,0,0,0,0,0,0,0,0
1683190261.49961209,52328227,1578,1578,1578,1578,0,0,0,0,0,0,0,0,0,0
1683190261.59957194,52428187,1579,1579,1579,1579,0,0,0,0,0,0,0,0,0,0
1683190261.70036507,52528980,1578,1578,1578,1578,0,0,0,0,0,0,0,0,0,0
1683190261.80032516,52628940,1578,1577,1578,1578,0,0,0,0,0,0,0,0,0,0
1683190261.90028501,52728900,1579,1579,1579,1579,0,0,0,0,0,0,0,0,0,0
1683190262.00024509,52828860,1580,1580,1580,1580,0,0,0,0,0,0,0,0,0,0
1683190262.10020494,52928820,1578,1578,1578,1579,0,0,0,0,0,0,0,0,0,0
1683190262.20016503,53028780,1579,1580,1580,1580,0,0,0,0,0,0,0,0,0,0
1683190262.30012512,53128740,1579,1579,1579,1579,0,0,0,0,0,0,0,0,0,0
1683190262.40008497,53228700,1580,1579,1580,1579,0,0,0,0,0,0,0,0,0,0
1683190262.50004506,53328660,1580,1579,1580,1580,0,0,0,0,0,0,0,0,0,0
1683190262.60000515,53428620,1579,1579,1579,1579,0,0,0,0,0,0,0,0,0,0
1683190262.69996500,53528580,1580,1580,1580,1579,0,0,0,0,0,0,0,0,0,0
1683190262.79992509,53628540,1580,1580,1580,1580,0,0,0,0,0,0,0,0,0,0
1683190262.89988494,53728500,1579,1579,1579,1579,0,0,0,0,0,0,0,0,0,0
1683190262.99984503,53828460,1580,1580,1579,1579,0,0,0,0,0,0,0,0,0,0
1683190263.09980512,53928420,1579,1580,1580,1579,0,0,0,0,0,0,0,0,0,0
1683190263.19976497,54028380,1580,1580,1580,1580,0,0,0,0,0,0,0,0,0,0
1683190263.29972506,54128340,1581,1580,1580,1580,0,0,0,0,0,0,0,0,0,0
1683190263.39968514,54228300,1581,1580,1580,1581,0,0,0,0,0,0,0,0,0,0
1683190263.49964499,54328260,1581,1581,1581,1581,0,0,0,0,0,0,0,0,0,0
1683190263.59960508,54428220,1581,1581,1581,1581,0,0,0,0,0,0,0,0,0,0
1683190263.69956493,54528180,1581,1581,1581,1581,0,0,0,0,0,0,0,0,0,0
1683190263.80035806,54628973,1581,1581,1581,1581,0,0,0,0,0,0,0,0,0,0
1683190263.90031815,54728933,1580,1580,1580,1580,0,0,0,0,0,0,0,0,0,0
1683190264.00027800,54828893,1581,1581,1581,1581,0,0,0,0,0,0,0,0,0,0
1683190264.10023808,54928853,1581,1581,1581,1581,0,0,0,0,0,0,0,0,0,0
1683190264.20019794,55028813,1581,1581,1580,1581,0,0,0,0,0,0,0,0,0,0
1683190264.30015802,55128773,1581,1581,1581,1581,0,0,0,0,0,0,0,0,0,0
1683190264.40011811,55228733,1580,1581,1586,1575,0,0,0,0,0,0,0,0,0,0
1683190264.50007796,55328693,1580,1582,1587,1572,0,0,0,0,0,0,0,0,0,0
1683190264.60003805,55428653,1579,1582,1580,1574,0,0,0,0,0,0,0,0,0,0
1683190264.69999814,55528613,1578,1580,1570,1573,0,0,0,0,0,0,0,0,0,0
1683190264.79995799,55628573,1576,1579,1563,1569,0,0,0,0,0,0,0,0,0,0
1683190264.89991808,55728533,1576,1577,1557,1564,0,0,0,0,0,0,0,0,0,0
1683190264.99987817,55828493,1577,1577,1555,1560,0,0,0,0,0,0,0,0,0,0
1683190265.09983802,55928453,1579,1578,1555,1557,0,0,0,0,0,0,0,0,0,0
1683190265.19979811,56028413,1579,1578,1556,1555,0,0,0,0,0,0,0,0,0,0
1683190265.29975796,56128373,1579,1578,1556,1554,0,0,0,0,0,0,0,0,0,0
1683190265.39971805,56228333,1577,1577,1555,1554,0,0,0,0,0,0,0,0,0,0
1683190265.49967813,56328293,1575,1576,1555,1553,0,0,0,0,0,0,0,0,0,0
1683190265.59963799,56428253,1574,1576,1554,1553,0,0,0,0,0,0,0,0,0,0
1683190265.69959807,56528213,1574,1576,1553,1554,0,0,0,0,0,0,0,0,0,0
1683190265.79955816,56628173,1576,1578,1553,1554,0,0,0,0,0,0,0,0,0,0
1683190265.90035105,56728966,1576,1578,1551,1551,0,0,0,0,0,0,0,0,0,0
1683190266.00031114,56828926,1578,1579,1549,1549,0,0,0,0,0,0,0,0,0,0
1683190266.10027099,56928886,1579,1580,1546,1546,0,0,0,0,0,0,0,0,0,0
1683190266.20023108,57028846,1582,1583,1543,1543,0,0,0,0,0,0,0,0,0,0
1683190266.30019116,57128806,1585,1587,1542,1541,0,0,0,0,0,0,0,0,0,0
1683190266.40015101,57228766,1589,1590,1539,1538,0,0,0,0,0,0,0,0,0,0
1683190266.50011110,57328726,1592,1591,1536,1536,0,0,0,0,0,0,0,0,0,0
1683190266.60007095,57428686,1594,1594,1534,1535,0,0,0,0,0,0,0,0,0,0
1683190266.70003104,57528646,1595,1594,1533,1534,0,0,0,0,0,0,0,0,0,0
1683190266.79999113,57628606,1594,1594,1534,1536,0,0,0,0,0,0,0,0,0,0
1683190266.89995098,57728566,1592,1592,1536,1539,0,0,0,0,0,0,0,0,0,0
1683190266.99991107,57828526,1589,1589,1541,1543,0,0,0,0,0,0,0,0,0,0
1683190267.09987116,57928486,1585,1582,1548,1550,0,0,0,0,0,0,0,0,0,0
1683190267.19983101,58028446,1579,1575,1558,1560,0,0,0,0,0,0,0,0,0,0
1683190267.29979110,58128406,1568,1564,1569,1570,0,0,0,0,0,0,0,0,0,0
1683190267.39975095,58228366,1556,1553,1580,1582,0,0,0,0,0,0,0,0,0,0
1683190267.49971104,58328326,1545,1543,1592,1593,0,0,0,0,0,0,0,0,0,0
1683190267.59967113,58428286,1537,1535,1603,1603,0,0,0,0,0,0,0,0,0,0
1683190267.69963098,58528246,1531,1530,1611,1610,0,0,0,0,0,0,0,0,0,0
1683190267.79959106,58628206,1527,1529,1614,1613,0,0,0,0,0,0,0,0,0,0
1683190267.89955115,58728166,1529,1531,1614,1614,0,0,0,0,0,0,0,0,0,0
1683190268.00034404,58828959,1534,1536,1612,1611,0,0,0,0,0,0,0,0,0,0
1683190268.10030413,58928919,1541,1543,1606,1606,0,0,0,0,0,0,0,0,0,0
1683190268.20026398,59028879,1550,1551,1599,1600,0,0,0,0,0,0,0,0,0,0
1683190268.30022407,59128839,1559,1559,1592,1591,0,0,0,0,0,0,0,0,0,0
1683190268.40018415,59228799,1568,1568,1585,1584,0,0,0,0,0,0,0,0,0,0
1683190268.50014400,59328759,1575,1575,1578,1577,0,0,0,0,0,0,0,0,0,0
1683190268.60010409,59428719,1582,1581,1573,1572,0,0,0,0,0,0,0,0,0,0
1683190268.70006394,59528679,1585,1584,1569,1568,0,0,0,0,0,0,0,0,0,0
1683190268.80002403,59628639,1587,1585,1566,1566,0,0,0,0,0,0,0,0,0,0
1683190268.89998412,59728599,1588,1586,1566,1566,0,0,0,0,0,0,0,0,0,0
1683190268.99994397,59828559,1587,1586,1567,1568,0,0,0,0,0,0,0,0,0,0
1683190269.09990406,59928519,1585,1584,1570,1570,0,0,0,0,0,0,0,0,0,0
1683190269.19986415,60028479,1582,1582,1573,1573,0,0,0,0,0,0,0,0,0,0
1683190269.29982400,60128439,1579,1579,1575,1576,0,0,0,0,0,0,0,0,0,0
1683190269.39978409,60228399,1576,1577,1578,1578,0,0,0,0,0,0,0,0,0,0
1683190269.49974394,60328359,1574,1575,1581,1581,0,0,0,0,0,0,0,0,0,0
1683190269.59970403,60428319,1573,1573,1582,1582,0,0,0,0,0,0,0,0,0,0
1683190269.69966412,60528279,1572,1573,1584,1583,0,0,0,0,0,0,0,0,0,0
1683190269.79962397,60628239,1572,1572,1584,1583,0,0,0,0,0,0,0,0,0,0
1683190269.89958405,60728199,1573,1573,1583,1583,0,0,0,0,0,0,0,0,0,0
1683190269.99954414,60828159,1574,1574,1582,1583,0,0,0,0,0,0,0,0,0,0
1683190270.10033703,60928952,1575,1575,1581,1581,0,0,0,0,0,0,0,0,0,0
1683190270.20029712,61028912,1576,1576,1580,1580,0,0,0,0,0,0,0,0,0,0
1683190270.30025697,61128872,1579,1579,1580,1580,0,0,0,0,0,0,0,0,0,0
1683190270.40021706,61228832,1579,1579,1578,1578,0,0,0,0,0,0,0,0,0,0
1683190270.50017715,61328792,1580,1580,1577,1577,0,0,0,0,0,0,0,0,0,0
1683190270.60013700,61428752,1580,1580,1576,1576,0,0,0,0,0,0,0,0,0,0
1683190270.70009708,61528712,1582,1581,1577,1577,0,0,0,0,0,0,0,0,0,0
1683190270.80005693,61628672,1582,1582,1578,1577,0,0,0,0,0,0,0,0,0,0
1683190270.90001702,61728632,1581,1581,1578,1578,0,0,0,0,0,0,0,0,0,0
1683190270.99997711,61828592,1582,1581,1579,1578,0,0,0,0,0,0,0,0,0,0
1683190271.09993696,61928552,1581,1581,1579,1579,0,0,0,0,0,0,0,0,0,0
1683190271.19989705,62028512,1481,1481,1580,1580,0,0,0,0,0,0,0,0,0,0
1683190271.29985714,62128472,1515,1517,1601,1604,0,0,0,0,0,0,0,0,0,0
1683190271.39981699,62228432,1538,1541,1601,1601,0,0,0,0,0,0,0,0,0,0
1683190271.49977708,62328392,1559,1562,1595,1594,0,0,0,0,0,0,0,0,0,0
1683190271.59973717,62428352,1577,1579,1587,1584,0,0,0,0,0,0,0,0,0,0
1683190271.69969702,62528312,1594,1594,1580,1578,0,0,0,0,0,0,0,0,0,0
1683190271.79965711,62628272,1604,1602,1573,1572,0,0,0,0,0,0,0,0,0,0
1683190271.89961696,62728232,1609,1606,1569,1569,0,0,0,0,0,0,0,0,0,0
1683190271.99957705,62828192,1612,1607,1569,1570,0,0,0,0,0,0,0,0,0,0
1683190272.10037017,62928985,1609,1606,1568,1570,0,0,0,0,0,0,0,0,0,0
1683190272.20033002,63028945,1606,1605,1570,1571,0,0,0,0,0,0,0,0,0,0
1683190272.30029011,63128905,1603,1603,1572,1573,0,0,0,0,0,0,0,0,0,0
1683190272.40024996,63228865,1599,1600,1576,1573,0,0,0,0,0,0,0,0,0,0
1683190272.50021005,63328825,1595,1597,1582,1567,0,0,0,0,0,0,0,0,0,0
1683190272.60017014,63428785,1592,1594,1580,1569,0,0,0,0,0,0,0,0,0,0
1683190272.70012999,63528745,1589,1590,1574,1571,0,0,0,0,0,0,0,0,0,0
1683190272.80009007,63628705,1583,1584,1565,1569,0,0,0,0,0,0,0,0,0,0
1683190272.90005016,63728665,1579,1581,1560,1567,0,0,0,0,0,0,0,0,0,0
1683190273.00001001,63828625,1576,1578,1558,1563,0,0,0,0,0,0,0,0,0,0
1683190273.09997010,63928585,1574,1575,1558,1560,0,0,0,0,0,0,0,0,0,0
1683190273.19992995,64028545,1573,1574,1559,1559,0,0,0,0,0,0,0,0,0,0
1683190273.29989004,64128505,1572,1573,1559,1557,0,0,0,0,0,0,0,0,0,0
1683190273.39985013,64228465,1572,1572,1558,1556,0,0,0,0,0,0,0,0,0,0
1683190273.49980998,64328425,1571,1571,1557,1555,0,0,0,0,0,0,0,0,0,0
1683190273.59977007,64428385,1572,1572,1556,1555,0,0,0,0,0,0,0,0,0,0
1683190273.69973016,64528345,1572,1573,1554,1553,0,0,0,0,0,0,0,0,0,0
1683190273.79969001,64628305,1573,1574,1552,1552,0,0,0,0,0,0,0,0,0,0
1683190273.89965010,64728265,1574,1575,1549,1550,0,0,0,0,0,0,0,0,0,0
1683190273.99960995,64828225,1575,1577,1547,1547,0,0,0,0,0,0,0,0,0,0
1683190274.09957004,64928185,1578,1579,1545,1545,0,0,0,0,0,0,0,0,0,0
1683190274.20036316,65028978,1580,1581,1543,1543,0,0,0,0,0,0,0,0,0,0
1683190274.30032301,65128938,1583,1583,1541,1541,0,0,0,0,0,0,0,0,0,0
1683190274.40028310,65228898,1586,1586,1541,1541,0,0,0,0,0,0,0,0,0,0
1683190274.50024295,65328858,1588,1587,1539,1540,0,0,0,0,0,0,0,0,0,0
1683190274.60020304,65428818,1589,1590,1539,1540,0,0,0,0,0,0,0,0,0,0
1683190274.70016313,65528778,1590,1591,1539,1540,0,0,0,0,0,0,0,0,0,0
1683190274.80012298,65628738,1590,1591,1539,1541,0,0,0,0,0,0,0,0,0,0
1683190274.90008307,65728698,1590,1590,1542,1545,0,0,0,0,0,0,0,0,0,0
1683190275.00004315,65828658,1588,1587,1546,1549,0,0,0,0,0,0,0,0,0,0
1683190275.10000300,65928618,1585,1581,1553,1556,0,0,0,0,0,0,0,0,0,0
1683190275.19996309,66028578,1579,1575,1561,1564,0,0,0,0,0,0,0,0,0,0
1683190275.29992294,66128538,1571,1567,1570,1573,0,0,0,0,0,0,0,0,0,0
1683190275.39988303,66228498,1562,1559,1581,1583,0,0,0,0,0,0,0,0,0,0
1683190275.49984312,66328458,1553,1550,1592,1593,0,0,0,0,0,0,0,0,0,0
1683190275.59980297,66428418,1543,1542,1602,1602,0,0,0,0,0,0,0,0,0,0
1683190275.69976306,66528378,1535,1536,1609,1608,0,0,0,0,0,0,0,0,0,0
1683190275.79972315,66628338,1533,1534,1613,1612,0,0,0,0,0,0,0,0,0,0
1683190275.89968300,66728298,1533,1535,1614,1613,0,0,0,0,0,0,0,0,0,0
1683190275.99964309,66828258,1536,1539,1611,1610,0,0,0,0,0,0,0,0,0,0
1683190276.09960294,66928218,1543,1545,1606,1605,0,0,0,0,0,0,0,0,0,0
1683190276.19956303,67028178,1551,1552,1600,1598,0,0,0,0,0,0,0,0,0,0
1683190276.30035615,67128971,1560,1561,1594,1592,0,0,0,0,0,0,0,0,0,0
1683190276.40031600,67228931,1568,1567,1585,1584,0,0,0,0,0,0,0,0,0,0
1683190276.50027609,67328891,1575,1574,1578,1578,0,0,0,0,0,0,0,0,0,0
1683190276.60023594,67428851,1581,1580,1572,1572,0,0,0,0,0,0,0,0,0,0
1683190276.70019603,67528811,1585,1584,1568,1569,0,0,0,0,0,0,0,0,0,0
1683190276.80015612,67628771,1588,1587,1566,1567,0,0,0,0,0,0,0,0,0,0
1683190276.90011597,67728731,1589,1588,1566,1566,0,0,0,0,0,0,0,0,0,0
1683190277.00007606,67828691,1589,1588,1568,1567,0,0,0,0,0,0,0,0,0,0
1683190277.10003614,67928651,1587,1586,1570,1569,0,0,0,0,0,0,0,0,0,0
1683190277.19999599,68028611,1585,1585,1573,1573,0,0,0,0,0,0,0,0,0,0
1683190277.29995608,68128571,1582,1582,1574,1575,0,0,0,0,0,0,0,0,0,0
1683190277.39991593,68228531,1579,1579,1577,1578,0,0,0,0,0,0,0,0,0,0
1683190277.49987602,68328491,1576,1577,1580,1580,0,0,0,0,0,0,0,0,0,0
1683190277.59983611,68428451,1575,1575,1582,1582,0,0,0,0,0,0,0,0,0,0
1683190277.69979596,68528411,1573,1573,1583,1583,0,0,0,0,0,0,0,0,0,0
1683190277.79975605,68628371,1573,1574,1585,1585,0,0,0,0,0,0,0,0,0,0
1683190277.89971614,68728331,1573,1574,1585,1585,0,0,0,0,0,0,0,0,0,0
1683190277.99967599,68828291,1573,1574,1584,1584,0,0,0,0,0,0,0,0,0,0
1683190278.09963608,68928251,1575,1575,1584,1583,0,0,0,0,0,0,0,0,0,0
1683190278.19959617,69028211,1577,1576,1582,1582,0,0,0,0,0,0,0,0,0,0
1683190278.29955602,69128171,1577,1577,1580,1580,0,0,0,0,0,0,0,0,0,0
1683190278.40034914,69228964,1579,1579,1579,1580,0,0,0,0,0,0,0,0,0,0
1683190278.50030899,69328924,1579,1580,1578,1578,0,0,0,0,0,0,0,0,0,0
1683190278.60026908,69428884,1581,1582,1578,1578,0,0,0,0,0,0,0,0,0,0
1683190278.70022917,69528844,1582,1582,1578,1578,0,0,0,0,0,0,0,0,0,0
1683190278.80018902,69628804,1582,1582,1577,1578,0,0,0,0,0,0,0,0,0,0
1683190278.90014911,69728764,1582,1582,1578,1577,0,0,0,0,0,0,0,0,0,0
1683190279.00010896,69828724,1583,1582,1578,1578,0,0,0,0,0,0,0,0,0,0
1683190279.10006905,69928684,1582,1581,1578,1578,0,0,0,0,0,0,0,0,0,0
1683190279.20002913,70028644,1581,1581,1579,1579,0,0,0,0,0,0,0,0,0,0
1683190279.29998899,70128604,1581,1581,1579,1580,0,0,0,0,0,0,0,0,0,0
1683190279.39994907,70228564,1580,1580,1580,1580,0,0,0,0,0,0,0,0,0,0
1683190279.49990916,70328524,1580,1581,1581,1581,0,0,0,0,0,0,0,0,0,0
1683190279.59986901,70428484,1580,1581,1581,1582,0,0,0,0,0,0,0,0,0,0
1683190279.69982910,70528444,1580,1580,1581,1581,0,0,0,0,0,0,0,0,0,0
1683190279.79978895,70628404,1579,1579,1581,1581,0,0,0,0,0,0,0,0,0,0
1683190279.89974904,70728364,1580,1580,1582,1582,0,0,0,0,0,0,0,0,0,0
1683190279.99970913,70828324,1581,1580,1582,1582,0,0,0,0,0,0,0,0,0,0
1683190280.09966898,70928284,1580,1580,1581,1581,0,0,0,0,0,0,0,0,0,0
1683190280.19962907,71028244,1580,1581,1581,1581,0,0,0,0,0,0,0,0,0,0
1683190280.29958916,71128204,1580,1581,1581,1581,0,0,0,0,0,0,0,0,0,0
1683190280.39954901,71228164,1581,1581,1580,1580,0,0,0,0,0,0,0,0,0,0
1683190280.50034213,71328957,1580,1580,1579,1579,0,0,0,0,0,0,0,0,0,0
1683190280.60030198,71428917,1581,1581,1581,1578,0,0,0,0,0,0,0,0,0,0
1683190280.70026207,71528877,1581,1582,1587,1572,0,0,0,0,0,0,0,0,0,0
1683190280.80022216,71628837,1580,1582,1583,1572,0,0,0,0,0,0,0,0,0,0
1683190280.90018201,71728797,1580,1582,1574,1573,0,0,0,0,0,0,0,0,0,0
1683190281.00014210,71828757,1578,1580,1565,1570,0,0,0,0,0,0,0,0,0,0
1683190281.10010195,71928717,1577,1579,1559,1566,0,0,0,0,0,0,0,0,0,0
1683190281.20006204,72028677,1577,1579,1556,1561,0,0,0,0,0,0,0,0,0,0
1683190281.30002213,72128637,1579,1579,1556,1558,0,0,0,0,0,0,0,0,0,0
1683190281.39998198,72228597,1579,1578,1555,1555,0,0,0,0,0,0,0,0,0,0
1683190281.49994206,72328557,1579,1577,1555,1554,0,0,0,0,0,0,0,0,0,0
1683190281.59990215,72428517,1578,1577,1556,1553,0,0,0,0,0,0,0,0,0,0
1683190281.69986200,72528477,1577,1578,1556,1555,0,0,0,0,0,0,0,0,0,0
1683190281.79982209,72628437,1576,1578,1556,1555,0,0,0,0,0,0,0,0,0,0
1683190281.89978194,72728397,1576,1577,1555,1555,0,0,0,0,0,0,0,0,0,0
1683190281.99974203,72828357,1575,1576,1553,1553,0,0,0,0,0,0,0,0,0,0
1683190282.09970212,72928317,1576,1577,1552,1553,0,0,0,0,0,0,0,0,0,0
1683190282.19966197,73028277,1576,1578,1550,1550,0,0,0,0,0,0,0,0,0,0
1683190282.29962206,73128237,1578,1579,1548,1548,0,0,0,0,0,0,0,0,0,0
1683190282.39958215,73228197,1580,1581,1546,1545,0,0,0,0,0,0,0,0,0,0
1683190282.49954200,73328157,1583,1583,1544,1543,0,0,0,0,0,0,0,0,0,0
1683190282.60033512,73428950,1585,1586,1542,1541,0,0,0,0,0,0,0,0,0,0
1683190282.70029497,73528910,1588,1588,1540,1540,0,0,0,0,0,0,0,0,0,0
1683190282.80025506,73628870,1590,1590,1538,1538,0,0,0,0,0,0,0,0,0,0
1683190282.90021515,73728830,1591,1591,1537,1538,0,0,0,0,0,0,0,0,0,0
1683190283.00017500,73828790,1592,1593,1538,1540,0,0,0,0,0,0,0,0,0,0
1683190283.10013509,73928750,1592,1592,1540,1542,0,0,0,0,0,0,0,0,0,0
1683190283.20009494,74028710,1590,1590,1542,1545,0,0,0,0,0,0,0,0,0,0
1683190283.30005503,74128670,1587,1585,1546,1549,0,0,0,0,0,0,0,0,0,0
1683190283.40001512,74228630,1582,1579,1554,1557,0,0,0,0,0,0,0,0,0,0
1683190283.49997497,74328590,1575,1571,1564,1566,0,0,0,0,0,0,0,0,0,0
1683190283.59993505,74428550,1567,1563,1575,1577,0,0,0,0,0,0,0,0,0,0
1683190283.69989514,74528510,1555,1552,1586,1587,0,0,0,0,0,0,0,0,0,0
1683190283.79985499,74628470,1546,1545,1596,1596,0,0,0,0,0,0,0,0,0,0
1683190283.89981508,74728430,1539,1538,1605,1604,0,0,0,0,0,0,0,0,0,0
1683190283.99977493,74828390,1534,1535,1610,1609,0,0,0,0,0,0,0,0,0,0
1683190284.09973502,74928350,1532,1534,1611,1611,0,0,0,0,0,0,0,0,0,0
1683190284.19969511,75028310,1535,1536,1612,1610,0,0,0,0,0,0,0,0,0,0
1683190284.29965496,75128270,1539,1541,1608,1608,0,0,0,0,0,0,0,0,0,0
1683190284.39961505,75228230,1545,1547,1602,1602,0,0,0,0,0,0,0,0,0,0
1683190284.49957514,75328190,1553,1554,1596,1596,0,0,0,0,0,0,0,0,0,0
1683190284.60036802,75428983,1561,1562,1589,1589,0,0,0,0,0,0,0,0,0,0
1683190284.70032811,75528943,1569,1568,1582,1582,0,0,0,0,0,0,0,0,0,0
1683190284.80028796,75628903,1576,1575,1577,1576,0,0,0,0,0,0,0,0,0,0
1683190284.90024805,75728863,1581,1580,1573,1572,0,0,0,0,0,0,0,0,0,0
1683190285.00020814,75828823,1585,1584,1569,1569,0,0,0,0,0,0,0,0,0,0
1683190285.10016799,75928783,1587,1586,1567,1567,0,0,0,0,0,0,0,0,0,0
1683190285.20012808,76028743,1587,1586,1567,1567,0,0,0,0,0,0,0,0,0,0
1683190285.30008817,76128703,1587,1586,1569,1569,0,0,0,0,0,0,0,0,0,0
1683190285.40004802,76228663,1586,1585,1571,1571,0,0,0,0,0,0,0,0,0,0
1683190285.50000811,76328623,1584,1584,1574,1574,0,0,0,0,0,0,0,0,0,0
1683190285.59996796,76428583,1581,1581,1577,1577,0,0,0,0,0,0,0,0,0,0
1683190285.69992805,76528543,1579,1579,1580,1579,0,0,0,0,0,0,0,0,0,0
1683190285.79988813,76628503,1577,1577,1582,1581,0,0,0,0,0,0,0,0,0,0
1683190285.89984798,76728463,1575,1575,1583,1583,0,0,0,0,0,0,0,0,0,0
1683190285.99980807,76828423,1573,1574,1583,1583,0,0,0,0,0,0,0,0,0,0
1683190286.09976816,76928383,1572,1574,1583,1584,0,0,0,0,0,0,0,0,0,0
1683190286.19972801,77028343,1573,1574,1584,1584,0,0,0,0,0,0,0,0,0,0
1683190286.29968810,77128303,1574,1574,1583,1583,0,0,0,0,0,0,0,0,0,0
1683190286.39964795,77228263,1575,1575,1582,1582,0,0,0,0,0,0,0,0,0,0
1683190286.49960804,77328223,1577,1577,1582,1582,0,0,0,0,0,0,0,0,0,0
1683190286.59956813,77428183,1579,1579,1581,1581,0,0,0,0,0,0,0,0,0,0
1683190286.70036101,77528976,1580,1580,1580,1580,0,0,0,0,0,0,0,0,0,0
1683190286.80032110,77628936,1581,1581,1579,1579,0,0,0,0,0,0,0,0,0,0
1683190286.90028095,77728896,1581,1580,1577,1578,0,0,0,0,0,0,0,0,0,0
1683190287.00024104,77828856,1582,1582,1578,1578,0,0,0,0,0,0,0,0,0,0
1683190287.10020113,77928816,1581,1581,1577,1577,0,0,0,0,0,0,0,0,0,0
1683190287.20016098,78028776,1581,1581,1577,1576,0,0,0,0,0,0,0,0,0,0
1683190287.30012107,78128736,1581,1581,1577,1577,0,0,0,0,0,0,0,0,0,0
1683190287.40008116,78228696,1581,1581,1579,1579,0,0,0,0,0,0,0,0,0,0
1683190287.50004101,78328656,1581,1581,1580,1580,0,0,0,0,0,0,0,0,0,0
1683190287.60000110,78428616,1581,1581,1580,1580,0,0,0,0,0,0,0,0,0,0
1683190287.69996095,78528576,1581,1581,1581,1581,0,0,0,0,0,0,0,0,0,0
1683190287.79992104,78628536,1580,1580,1581,1581,0,0,0,0,0,0,0,0,0,0
1683190287.89988112,78728496,1580,1580,1581,1581,0,0,0,0,0,0,0,0,0,0
1683190287.99984097,78828456,1579,1580,1581,1581,0,0,0,0,0,0,0,0,0,0
1683190288.09980106,78928416,1579,1579,1581,1581,0,0,0,0,0,0,0,0,0,0
1683190288.19976115,79028376,1580,1579,1581,1581,0,0,0,0,0,0,0,0,0,0
1683190288.29972100,79128336,1580,1580,1581,1581,0,0,0,0,0,0,0,0,0,0
1683190288.39968109,79228296,1580,1580,1581,1581,0,0,0,0,0,0,0,0,0,0
1683190288.49964094,79328256,1581,1581,1581,1581,0,0,0,0,0,0,0,0,0,0
1683190288.59960103,79428216,1581,1581,1582,1581,0,0,0,0,0,0,0,0,0,0
1683190288.69956112,79528176,1581,1581,1587,1574,0,0,0,0,0,0,0,0,0,0
1683190288.80035400,79628969,1581,1581,1586,1573,0,0,0,0,0,0,0,0,0,0
1683190288.90031409,79728929,1579,1579,1579,1575,0,0,0,0,0,0,0,0,0,0
1683190289.00027394,79828889,1577,1576,1573,1576,0,0,0,0,0,0,0,0,0,0
1683190289.10023403,79928849,1573,1572,1567,1574,0,0,0,0,0,0,0,0,0,0
1683190289.20019412,80028809,1570,1569,1564,1571,0,0,0,0,0,0,0,0,0,0
1683190289.30015397,80128769,1568,1568,1564,1569,0,0,0,0,0,0,0,0,0,0
1683190289.40011406,80228729,1566,1567,1566,1566,0,0,0,0,0,0,0,0,0,0
1683190289.50007415,80328689,1566,1566,1566,1565,0,0,0,0,0,0,0,0,0,0
1683190289.60003400,80428649,1565,1566,1567,1565,0,0,0,0,0,0,0,0,0,0
1683190289.69999409,80528609,1566,1565,1568,1565,0,0,0,0,0,0,0,0,0,0
1683190289.79995394,80628569,1564,1564,1566,1564,0,0,0,0,0,0,0,0,0,0
1683190289.89991403,80728529,1564,1563,1565,1564,0,0,0,0,0,0,0,0,0,0
1683190289.99987411,80828489,1562,1562,1563,1563,0,0,0,0,0,0,0,0,0,0
1683190290.09983397,80928449,1562,1563,1563,1564,0,0,0,0,0,0,0,0,0,0
1683190290.19979405,81028409,1561,1561,1561,1562,0,0,0,0,0,0,0,0,0,0
1683190290.29975414,81128369,1561,1561,1561,1562,0,0,0,0,0,0,0,0,0,0
1683190290.39971399,81228329,1561,1561,1562,1561,0,0,0,0,0,0,0,0,0,0
1683190290.49967408,81328289,1561,1561,1561,1560,0,0,0,0,0,0,0,0,0,0
1683190290.59963393,81428249,1558,1558,1559,1558,0,0,0,0,0,0,0,0,0,0
1683190290.69959402,81528209,1558,1558,1559,1558,0,0,0,0,0,0,0,0,0,0
1683190290.79955411,81628169,1558,1558,1558,1557,0,0,0,0,0,0,0,0,0,0
1683190290.90034699,81728962,1558,1558,1557,1557,0,0,0,0,0,0,0,0,0,0
1683190291.00030708,81828922,1557,1557,1558,1556,0,0,0,0,0,0,0,0,0,0
1683190291.10026693,81928882,1558,1558,1558,1557,0,0,0,0,0,0,0,0,0,0
1683190291.20022702,82028842,1557,1557,1558,1557,0,0,0,0,0,0,0,0,0,0
1683190291.30018711,82128802,1557,1557,1558,1556,0,0,0,0,0,0,0,0,0,0
1683190291.40014696,82228762,1558,1558,1560,1557,0,0,0,0,0,0,0,0,0,0
1683190291.50010705,82328722,1558,1557,1558,1558,0,0,0,0,0,0,0,0,0,0
1683190291.60006714,82428682,1559,1558,1557,1561,0,0,0,0,0,0,0,0,0,0
1683190291.70002699,82528642,1559,1560,1556,1563,0,0,0,0,0,0,0,0,0,0
1683190291.79998708,82628602,1560,1561,1558,1564,0,0,0,0,0,0,0,0,0,0
1683190291.89994717,82728562,1561,1561,1559,1563,0,0,0,0,0,0,0,0,0,0
1683190291.99990702,82828522,1561,1562,1561,1562,0,0,0,0,0,0,0,0,0,0
1683190292.09986711,82928482,1561,1561,1562,1560,0,0,0,0,0,0,0,0,0,0
1683190292.19982696,83028442,1560,1560,1562,1557,0,0,0,0,0,0,0,0,0,0
1683190292.29978704,83128402,1560,1559,1560,1559,0,0,0,0,0,0,0,0,0,0
1683190292.39974713,83228362,1559,1559,1555,1561,0,0,0,0,0,0,0,0,0,0
1683190292.49970698,83328322,1555,1556,1552,1558,0,0,0,0,0,0,0,0,0,0
1683190292.59966707,83428282,1551,1552,1549,1552,0,0,0,0,0,0,0,0,0,0
1683190292.69962716,83528242,1546,1546,1544,1545,0,0,0,0,0,0,0,0,0,0
1683190292.79958701,83628202,1539,1540,1538,1537,0,0,0,0,0,0,0,0,0,0
1683190292.89954710,83728162,1532,1533,1531,1530,0,0,0,0,0,0,0,0,0,0
1683190293.00033998,83828955,1526,1526,1525,1523,0,0,0,0,0,0,0,0,0,0
1683190293.10030007,83928915,1521,1521,1520,1519,0,0,0,0,0,0,0,0,0,0
1683190293.20026016,84028875,1519,1519,1519,1519,0,0,0,0,0,0,0,0,0,0
1683190293.30022001,84128835,1520,1519,1520,1521,0,0,0,0,0,0,0,0,0,0
1683190293.40018010,84228795,1521,1521,1523,1524,0,0,0,0,0,0,0,0,0,0
1683190293.50013995,84328755,1524,1524,1527,1527,0,0,0,0,0,0,0,0,0,0
1683190293.60010004,84428715,1528,1528,1531,1531,0,0,0,0,0,0,0,0,0,0
1683190293.70006013,84528675,1533,1532,1536,1536,0,0,0,0,0,0,0,0,0,0
1683190293.80001998,84628635,1536,1537,1540,1539,0,0,0,0,0,0,0,0,0,0
1683190293.89998007,84728595,1539,1540,1542,1541,0,0,0,0,0,0,0,0,0,0
1683190293.99994016,84828555,1542,1542,1544,1543,0,0,0,0,0,0,0,0,0,0
1683190294.09990001,84928515,1545,1544,1546,1545,0,0,0,0,0,0,0,0,0,0
1683190294.19986010,85028475,1546,1546,1546,1545,0,0,0,0,0,0,0,0,0,0
1683190294.29981995,85128435,1546,1546,1545,1545,0,0,0,0,0,0,0,0,0,0
1683190294.39978004,85228395,1547,1547,1546,1546,0,0,0,0,0,0,0,0,0,0
1683190294.49974012,85328355,1548,1548,1546,1546,0,0,0,0,0,0,0,0,0,0
1683190294.59969997,85428315,1547,1547,1545,1545,0,0,0,0,0,0,0,0,0,0
1683190294.69966006,85528275,1547,1547,1546,1545,0,0,0,0,0,0,0,0,0,0
1683190294.79962015,85628235,1546,1547,1545,1545,0,0,0,0,0,0,0,0,0,0
1683190294.89958000,85728195,1546,1546,1545,1545,0,0,0,0,0,0,0,0,0,0
1683190294.99954009,85828155,1546,1546,1545,1545,0,0,0,0,0,0,0,0,0,0
1683190295.10033298,85928948,1546,1546,1546,1546,0,0,0,0,0,0,0,0,0,0
1683190295.20029306,86028908,1545,1545,1545,1545,0,0,0,0,0,0,0,0,0,0
1683190295.30025315,86128868,1544,1544,1545,1544,0,0,0,0,0,0,0,0,0,0
1683190295.40021300,86228828,1545,1545,1546,1546,0,0,0,0,0,0,0,0,0,0
1683190295.50017309,86328788,1545,1545,1546,1546,0,0,0,0,0,0,0,0,0,0
1683190295.60013294,86428748,1545,1545,1545,1545,0,0,0,0,0,0,0,0,0,0
1683190295.70009303,86528708,1546,1545,1546,1546,0,0,0,0,0,0,0,0,0,0
1683190295.80005312,86628668,1545,1544,1545,1545,0,0,0,0,0,0,0,0,0,0
1683190295.90001297,86728628,1545,1545,1545,1545,0,0,0,0,0,0,0,0,0,0
1683190295.99997306,86828588,1544,1544,1545,1544,0,0,0,0,0,0,0,0,0,0
1683190296.09993315,86928548,1544,1544,1544,1544,0,0,0,0,0,0,0,0,0,0
1683190296.19989300,87028508,1544,1544,1544,1544,0,0,0,0,0,0,0,0,0,0
1683190296.29985309,87128468,1544,1544,1544,1544,0,0,0,0,0,0,0,0,0,0
1683190296.39981294,87228428,1544,1544,1544,1543,0,0,0,0,0,0,0,0,0,0
1683190296.49977303,87328388,1544,1545,1544,1544,0,0,0,0,0,0,0,0,0,0
1683190296.59973311,87428348,1544,1545,1545,1544,0,0,0,0,0,0,0,0,0,0
1683190296.69969296,87528308,1545,1544,1544,1544,0,0,0,0,0,0,0,0,0,0
1683190296.79965305,87628268,1544,1544,1544,1544,0,0,0,0,0,0,0,0,0,0
1683190296.89961314,87728228,1544,1544,1544,1544,0,0,0,0,0,0,0,0,0,0
1683190296.99957299,87828188,1545,1545,1545,1545,0,0,0,0,0,0,0,0,0,0
1683190297.10036612,87928981,1545,1545,1545,1545,0,0,0,0,0,0,0,0,0,0
1683190297.20032597,88028941,1545,1545,1545,1544,0,0,0,0,0,0,0,0,0,0
1683190297.30028605,88128901,1545,1545,1545,1545,0,0,0,0,0,0,0,0,0,0
1683190297.40024614,88228861,1545,1545,1545,1545,0,0,0,0,0,0,0,0,0,0
1683190297.50020599,88328821,1544,1544,1545,1545,0,0,0,0,0,0,0,0,0,0
1683190297.60016608,88428781,1544,1544,1544,1545,0,0,0,0,0,0,0,0,0,0
1683190297.70012593,88528741,1545,1545,1545,1545,0,0,0,0,0,0,0,0,0,0
1683190297.80008602,88628701,1544,1544,1544,1544,0,0,0,0,0,0,0,0,0,0
1683190297.90004611,88728661,1545,1545,1545,1545,0,0,0,0,0,0,0,0,0,0
1683190298.00000596,88828621,1544,1544,1544,1544,0,0,0,0,0,0,0,0,0,0
1683190298.09996605,88928581,1543,1543,1543,1543,0,0,0,0,0,0,0,0,0,0
1683190298.19992614,89028541,1544,1544,1543,1543,0,0,0,0,0,0,0,0,0,0
1683190298.29988599,89128501,1544,1544,1544,1544,0,0,0,0,0,0,0,0,0,0
1683190298.39984608,89228461,1543,1544,1543,1543,0,0,0,0,0,0,0,0,0,0
1683190298.49980617,89328421,1545,1544,1544,1545,0,0,0,0,0,0,0,0,0,0
1683190298.59976602,89428381,1544,1543,1543,1544,0,0,0,0,0,0,0,0,0,0
1683190298.69972610,89528341,1543,1543,1543,1543,0,0,0,0,0,0,0,0,0,0
1683190298.79968596,89628301,1544,1545,1545,1544,0,0,0,0,0,0,0,0,0,0
1683190298.89964604,89728261,1544,1544,1544,1544,0,0,0,0,0,0,0,0,0,0
1683190298.99960613,89828221,1545,1545,1545,1545,0,0,0,0,0,0,0,0,0,0
1683190299.09956598,89928181,1545,1544,1545,1545,0,0,0,0,0,0,0,0,0,0
1683190299.20035911,90028974,1545,1545,1545,1545,0,0,0,0,0,0,0,0,0,0
1683190299.30031896,90128934,1543,1543,1542,1543,0,0,0,0,0,0,0,0,0,0
1683190299.40027905,90228894,1544,1544,1543,1543,0,0,0,0,0,0,0,0,0,0
1683190299.50023913,90328854,1544,1543,1543,1544,0,0,0,0,0,0,0,0,0,0
1683190299.60019898,90428814,1543,1543,1543,1544,0,0,0,0,0,0,0,0,0,0
1683190299.70015907,90528774,1543,1544,1543,1543,0,0,0,0,0,0,0,0,0,0
1683190299.80011916,90628734,1544,1545,1545,1545,0,0,0,0,0,0,0,0,0,0
1683190299.90007901,90728694,1544,1544,1545,1544,0,0,0,0,0,0,0,0,0,0
1683190300.00003910,90828654,1544,1544,1544,1544,0,0,0,0,0,0,0,0,0,0
1683190300.09999895,90928614,1546,1545,1545,1545,0,0,0,0,0,0,0,0,0,0
1683190300.19995904,91028574,1545,1544,1544,1544,0,0,0,0,0,0,0,0,0,0
1683190300.29991913,91128534,1545,1545,1545,1545,0,0,0,0,0,0,0,0,0,0
1683190300.39987898,91228494,1544,1544,1545,1544,0,0,0,0,0,0,0,0,0,0
1683190300.49983907,91328454,1544,1544,1544,1544,0,0,0,0,0,0,0,0,0,0
1683190300.59979916,91428414,1544,1545,1544,1545,0,0,0,0,0,0,0,0,0,0
1683190300.69975901,91528374,1543,1544,1543,1544,0,0,0,0,0,0,0,0,0,0
1683190300.79971910,91628334,1544,1544,1544,1544,0,0,0,0,0,0,0,0,0,0
1683190300.89967895,91728294,1544,1544,1544,1545,0,0,0,0,0,0,0,0,0,0
1683190300.99963903,91828254,1545,1545,1545,1544,0,0,0,0,0,0,0,0,0,0
1683190301.09959912,91928214,1545,1544,1545,1545,0,0,0,0,0,0,0,0,0,0
1683190301.19955897,92028174,1544,1544,1545,1544,0,0,0,0,0,0,0,0,0,0
1683190301.30035210,92128967,1545,1544,1544,1545,0,0,0,0,0,0,0,0,0,0
1683190301.40031195,92228927,1544,1545,1544,1544,0,0,0,0,0,0,0,0,0,0
1683190301.50027204,92328887,1543,1544,1543,1544,0,0,0,0,0,0,0,0,0,0
1683190301.60023212,92428847,1544,1544,1544,1544,0,0,0,0,0,0,0,0,0,0
1683190301.70019197,92528807,1544,1544,1544,1544,0,0,0,0,0,0,0,0,0,0
1683190301.80015206,92628767,1544,1544,1544,1544,0,0,0,0,0,0,0,0,0,0
1683190301.90011215,92728727,1543,1543,1543,1543,0,0,0,0,0,0,0,0,0,0
1683190302.00007200,92828687,1544,1543,1544,1543,0,0,0,0,0,0,0,0,0,0
1683190302.10003209,92928647,1544,1543,1544,1543,0,0,0,0,0,0,0,0,0,0
1683190302.19999194,93028607,1544,1544,1544,1544,0,0,0,0,0,0,0,0,0,0
1683190302.29995203,93128567,1544,1544,1544,1544,0,0,0,0,0,0,0,0,0,0
1683190302.39991212,93228527,1544,1544,1544,1544,0,0,0,0,0,0,0,0,0,0
1683190302.49987197,93328487,1544,1545,1545,1545,0,0,0,0,0,0,0,0,0,0
1683190302.59983206,93428447,1544,1545,1545,1545,0,0,0,0,0,0,0,0,0,0
1683190302.69979215,93528407,1545,1543,1544,1544,0,0,0,0,0,0,0,0,0,0
1683190302.79975200,93628367,1389,1388,1363,1363,0,0,0,0,0,0,0,0,0,0
1683190302.89971209,93728327,1300,1297,1251,1251,0,0,0,0,0,0,0,0,0,0
1683190302.99967194,93828287,1271,1269,1215,1215,0,0,0,0,0,0,0,0,0,0
1683190303.09963202,93928247,1256,1253,1193,1194,0,0,0,0,0,0,0,0,0,0
1683190303.19959211,94028207,1224,1222,1150,1150,0,0,0,0,0,0,0,0,0,0
1683190303.29955196,94128167,1215,1213,1150,1150,0,0,0,0,0,0,0,0,0,0
1683190303.40034509,94228960,1215,1213,1150,1150,0,0,0,0,0,0,0,0,0,0
1683190303.50030494,94328920,1216,1213,1150,1150,0,0,0,0,0,0,0,0,0,0
1683190303.60026503,94428880,1215,1195,1150,1174,0,0,0,0,0,0,0,0,0,0
1683190303.70022511,94528840,1215,1202,1150,1166,0,0,0,0,0,0,0,0,0,0
1683190303.80018497,94628800,1215,1205,1150,1161,0,0,0,0,0,0,0,0,0,0
1683190303.90014505,94728760,1215,1205,1150,1160,0,0,0,0,0,0,0,0,0,0
1683190304.00010514,94828720,1215,1205,1150,1160,0,0,0,0,0,0,0,0,0,0
1683190304.10006499,94928680,1216,1205,1150,1161,0,0,0,0,0,0,0,0,0,0
1683190304.20002508,95028640,1215,1205,1150,1161,0,0,0,0,0,0,0,0,0,0
1683190304.29998493,95128600,1215,1205,1150,1161,0,0,0,0,0,0,0,0,0,0
1683190304.39994502,95228560,1215,1214,1150,1150,0,0,0,0,0,0,0,0,0,0
1683190304.49990511,95328520,1215,1213,1150,1151,0,0,0,0,0,0,0,0,0,0
1683190304.59986496,95428480,1215,1212,1150,1152,0,0,0,0,0,0,0,0,0,0
1683190304.69982505,95528440,1215,1212,1150,1152,0,0,0,0,0,0,0,0,0,0
1683190304.79978514,95628400,1215,1212,1150,1152,0,0,0,0,0,0,0,0,0,0
1683190304.89974499,95728360,1000,1000,1000,1000,0,0,0,0,0,0,0,0,0,0
1683190304.99970508,95828320,1000,1000,1000,1000,0,0,0,0,0,0,0,0,0,0
1683190305.09966516,95928280,1000,1000,1000,1000,0,0,0,0,0,0,0,0,0,0
1683190305.19962502,96028240,1000,1000,1000,1000,0,0,0,0,0,0,0,0,0,0
1683190305.29958510,96128200,1000,1000,1000,1000,0,0,0,0,0,0,0,0,0,0
1683190305.39954495,96228160,1000,1000,1000,1000,0,0,0,0,0,0,0,0,0,0
1683190305.50033808,96328953,1000,1000,1000,1000,0,0,0,0,0,0,0,0,0,0
1683190305.60029817,96428913,1000,1000,1000,1000,0,0,0,0,0,0,0,0,0,0
1683190305.70025802,96528873,1000,1000,1000,1000,0,0,0,0,0,0,0,0,0,0
1683190305.80021811,96628833,1000,1000,1000,1000,0,0,0,0,0,0,0,0,0,0
1683190305.90017796,96728793,1000,1000,1000,1000,0,0,0,0,0,0,0,0,0,0
1683190306.00013804,96828753,1000,1000,1000,1000,0,0,0,0,0,0,0,0,0,0
1683190306.10009813,96928713,1000,1000,1000,1000,0,0,0,0,0,0,0,0,0,0
1683190306.20005798,97028673,1000,1000,1000,1000,0,0,0,0,0,0,0,0,0,0
1683190306.30001807,97128633,1000,1000,1000,1000,0,0,0,0,0,0,0,0,0,0
1683190306.39997816,97228593,1000,1000,1000,1000,0,0,0,0,0,0,0,0,0,0
1683190306.49993801,97328553,1000,1000,1000,1000,0,0,0,0,0,0,0,0,0,0
1683190306.59989810,97428513,1000,1000,1000,1000,0,0,0,0,0,0,0,0,0,0
1683190306.69985795,97528473,1000,1000,1000,1000,0,0,0,0,0,0,0,0,0,0
1683190306.79981804,97628433,1000,1000,1000,1000,0,0,0,0,0,0,0,0,0,0
1683190306.89977813,97728393,1000,1000,1000,1000,0,0,0,0,0,0,0,0,0,0
1683190306.99973798,97828353,1000,1000,1000,1000,0,0,0,0,0,0,0,0,0,0
1683190307.09969807,97928313,1000,1000,1000,1000,0,0,0,0,0,0,0,0,0,0
1683190307.19965816,98028273,1000,1000,1000,1000,0,0,0,0,0,0,0,0,0,0
1683190307.29961801,98128233,1000,1000,1000,1000,0,0,0,0,0,0,0,0,0,0
1683190307.39957809,98228193,1000,1000,1000,1000,0,0,0,0,0,0,0,0,0,0
1683190307.50037098,98328986,1000,1000,1000,1000,0,0,0,0,0,0,0,0,0,0
1683190307.60033107,98428946,1000,1000,1000,1000,0,0,0,0,0,0,0,0,0,0
1683190307.70029116,98528906,1000,1000,1000,1000,0,0,0,0,0,0,0,0,0,0
1683190307.80025101,98628866,1000,1000,1000,1000,0,0,0,0,0,0,0,0,0,0
1683190307.90021110,98728826,1000,1000,1000,1000,0,0,0,0,0,0,0,0,0,0
1683190308.00017095,98828786,1000,1000,1000,1000,0,0,0,0,0,0,0,0,0,0
1683190308.10013103,98928746,1000,1000,1000,1000,0,0,0,0,0,0,0,0,0,0
1683190308.20009112,99028706,1000,1000,1000,1000,0,0,0,0,0,0,0,0,0,0
1683190308.30005097,99128666,1000,1000,1000,1000,0,0,0,0,0,0,0,0,0,0
1683190308.40001106,99228626,1000,1000,1000,1000,0,0,0,0,0,0,0,0,0,0
1683190308.49997115,99328586,1000,1000,1000,1000,0,0,0,0,0,0,0,0,0,0
1683190308.59993100,99428546,1000,1000,1000,1000,0,0,0,0,0,0,0,0,0,0
1683190308.69989109,99528506,1000,1000,1000,1000,0,0,0,0,0,0,0,0,0,0
1683190308.79985094,99628466,1000,1000,1000,1000,0,0,0,0,0,0,0,0,0,0
1683190308.89981103,99728426,1000,1000,1000,1000,0,0,0,0,0,0,0,0,0,0
1683190308.99977112,99828386,1000,1000,1000,1000,0,0,0,0,0,0,0,0,0,0
1683190309.09973097,99928346,1000,1000,1000,1000,0,0,0,0,0,0,0,0,0,0
1683190309.19969106,100028306,1000,1000,1000,1000,0,0,0,0,0,0,0,0,0,0
1683190309.29965115,100128266,1000,1000,1000,1000,0,0,0,0,0,0,0,0,0,0
1683190309.39961100,100228226,1000,1000,1000,1000,0,0,0,0,0,0,0,0,0,0
1683190309.49957108,100328186,1000,1000,1000,1000,0,0,0,0,0,0,0,0,0,0
1683190309.60036397,100428979,1000,1000,1000,1000,0,0,0,0,0,0,0,0,0,0
1683190309.70032406,100528939,1000,1000,1000,1000,0,0,0,0,0,0,0,0,0,0
1683190309.80028415,100628899,1000,1000,1000,1000,0,0,0,0,0,0,0,0,0,0
1683190309.90024400,100728859,1000,1000,1000,1000,0,0,0,0,0,0,0,0,0,0
1683190310.00020409,100828819,1000,1000,1000,1000,0,0,0,0,0,0,0,0,0,0
1683190310.10016394,100928779,1000,1000,1000,1000,0,0,0,0,0,0,0,0,0,0
1683190310.20012403,101028739,1000,1000,1000,1000,0,0,0,0,0,0,0,0,0,0
1683190310.30008411,101128699,1000,1000,1000,1000,0,0,0,0,0,0,0,0,0,0
1683190310.40004396,101228659,1000,1000,1000,1000,0,0,0,0,0,0,0,0,0,0
1683190310.50000405,101328619,1000,1000,1000,1000,0,0,0,0,0,0,0,0,0,0
1683190310.59996414,101428579,1000,1000,1000,1000,0,0,0,0,0,0,0,0,0,0
1683190310.69992399,101528539,1000,1000,1000,1000,0,0,0,0,0,0,0,0,0,0
1683190310.79988408,101628499,1000,1000,1000,1000,0,0,0,0,0,0,0,0,0,0
1683190310.89984393,101728459,1000,1000,1000,1000,0,0,0,0,0,0,0,0,0,0
1683190310.99980402,101828419,1000,1000,1000,1000,0,0,0,0,0,0,0,0,0,0
1683190311.09976411,101928379,1000,1000,1000,1000,0,0,0,0,0,0,0,0,0,0
1683190311.19972396,102028339,1000,1000,1000,1000,0,0,0,0,0,0,0,0,0,0
1683190311.29968405,102128299,1000,1000,1000,1000,0,0,0,0,0,0,0,0,0,0
1683190311.39964414,102228259,1000,1000,1000,1000,0,0,0,0,0,0,0,0,0,0
1683190311.49960399,102328219,1000,1000,1000,1000,0,0,0,0,0,0,0,0,0,0
1683190311.59956408,102428179,1000,1000,1000,1000,0,0,0,0,0,0,0,0,0,0
1683190311.70035696,102528972,1000,1000,1000,1000,0,0,0,0,0,0,0,0,0,0
1683190311.80031705,102628932,1000,1000,1000,1000,0,0,0,0,0,0,0,0,0,0
1683190311.90027714,102728892,1000,1000,1000,1000,0,0,0,0,0,0,0,0,0,0
1683190312.00023699,102828852,1000,1000,1000,1000,0,0,0,0,0,0,0,0,0,0
1683190312.10019708,102928812,1000,1000,1000,1000,0,0,0,0,0,0,0,0,0,0
1683190312.20015717,103028772,1000,1000,1000,1000,0,0,0,0,0,0,0,0,0,0
1683190312.30011702,103128732,1000,1000,1000,1000,0,0,0,0,0,0,0,0,0,0
1683190312.40007710,103228692,1000,1000,1000,1000,0,0,0,0,0,0,0,0,0,0
1683190312.50003695,103328652,1000,1000,1000,1000,0,0,0,0,0,0,0,0,0,0
1683190312.59999704,103428612,1000,1000,1000,1000,0,0,0,0,0,0,0,0,0,0
1683190312.69995713,103528572,1000,1000,1000,1000,0,0,0,0,0,0,0,0,0,0
1683190312.79991698,103628532,1000,1000,1000,1000,0,0,0,0,0,0,0,0,0,0
1683190312.89987707,103728492,1000,1000,1000,1000,0,0,0,0,0,0,0,0,0,0
1683190312.99983716,103828452,1000,1000,1000,1000,0,0,0,0,0,0,0,0,0,0
1683190313.09979701,103928412,1000,1000,1000,1000,0,0,0,0,0,0,0,0,0,0
1683190313.19975710,104028372,1000,1000,1000,1000,0,0,0,0,0,0,0,0,0,0
1683190313.29971695,104128332,1000,1000,1000,1000,0,0,0,0,0,0,0,0,0,0
1683190313.39967704,104228292,1000,1000,1000,1000,0,0,0,0,0,0,0,0,0,0
1683190313.49963713,104328252,1000,1000,1000,1000,0,0,0,0,0,0,0,0,0,0
1683190313.59959698,104428212,1000,1000,1000,1000,0,0,0,0,0,0,0,0,0,0
1683190313.69955707,104528172,1000,1000,1000,1000,0,0,0,0,0,0,0,0,0,0
1683190313.80034995,104628965,1000,1000,1000,1000,0,0,0,0,0,0,0,0,0,0
1683190313.90031004,104728925,1000,1000,1000,1000,0,0,0,0,0,0,0,0,0,0
1683190314.00027013,104828885,1000,1000,1000,1000,0,0,0,0,0,0,0,0,0,0
1683190314.10022998,104928845,1000,1000,1000,1000,0,0,0,0,0,0,0,0,0,0
1683190314.20019007,105028805,1000,1000,1000,1000,0,0,0,0,0,0,0,0,0,0
1683190314.30015016,105128765,1000,1000,1000,1000,0,0,0,0,0,0,0,0,0,0
1683190314.40011001,105228725,1000,1000,1000,1000,0,0,0,0,0,0,0,0,0,0
1683190314.50007010,105328685,1000,1000,1000,1000,0,0,0,0,0,0,0,0,0,0
1683190314.60002995,105428645,1000,1000,1000,1000,0,0,0,0,0,0,0,0,0,0
1683190314.69999003,105528605,1000,1000,1000,1000,0,0,0,0,0,0,0,0,0,0
1683190314.79995012,105628565,1000,1000,1000,1000,0,0,0,0,0,0,0,0,0,0
1683190314.89990997,105728525,1000,1000,1000,1000,0,0,0,0,0,0,0,0,0,0
1683190314.99987006,105828485,1000,1000,1000,1000,0,0,0,0,0,0,0,0,0,0
1683190315.09983015,105928445,1000,1000,1000,1000,0,0,0,0,0,0,0,0,0,0
1683190315.19979000,106028405,1000,1000,1000,1000,0,0,0,0,0,0,0,0,0,0
1683190315.29975009,106128365,1000,1000,1000,1000,0,0,0,0,0,0,0,0,0,0
1683190315.39970994,106228325,1000,1000,1000,1000,0,0,0,0,0,0,0,0,0,0
1683190315.49967003,106328285,1000,1000,1000,1000,0,0,0,0,0,0,0,0,0,0
1683190315.59963012,106428245,1000,1000,1000,1000,0,0,0,0,0,0,0,0,0,0
1683190315.69958997,106528205,1000,1000,1000,1000,0,0,0,0,0,0,0,0,0,0
1683190315.79955006,106628165,1000,1000,1000,1000,0,0,0,0,0,0,0,0,0,0
1683190315.90034294,106728958,1000,1000,1000,1000,0,0,0,0,0,0,0,0,0,0
1683190316.00030303,106828918,1000,1000,1000,1000,0,0,0,0,0,0,0,0,0,0
1683190316.10026312,106928878,1000,1000,1000,1000,0,0,0,0,0,0,0,0,0,0
1683190316.20022297,107028838,1000,1000,1000,1000,0,0,0,0,0,0,0,0,0,0
1683190316.30018306,107128798,1000,1000,1000,1000,0,0,0,0,0,0,0,0,0,0
1683190316.40014315,107228758,1000,1000,1000,1000,0,0,0,0,0,0,0,0,0,0
1683190316.50010300,107328718,1000,1000,1000,1000,0,0,0,0,0,0,0,0,0,0
1683190316.60006309,107428678,1000,1000,1000,1000,0,0,0,0,0,0,0,0,0,0
1683190316.70002294,107528638,1000,1000,1000,1000,0,0,0,0,0,0,0,0,0,0
1683190316.79998302,107628598,1000,1000,1000,1000,0,0,0,0,0,0,0,0,0,0
1683190316.89994311,107728558,1000,1000,1000,1000,0,0,0,0,0,0,0,0,0,0
1683190316.99990296,107828518,1000,1000,1000,1000,0,0,0,0,0,0,0,0,0,0
1683190317.09986305,107928478,1000,1000,1000,1000,0,0,0,0,0,0,0,0,0,0
1683190317.19982314,108028438,1000,1000,1000,1000,0,0,0,0,0,0,0,0,0,0
1683190317.29978299,108128398,1000,1000,1000,1000,0,0,0,0,0,0,0,0,0,0
1683190317.39974308,108228358,1000,1000,1000,1000,0,0,0,0,0,0,0,0,0,0
1683190317.49970317,108328318,1000,1000,1000,1000,0,0,0,0,0,0,0,0,0,0
1683190317.59966302,108428278,1000,1000,1000,1000,0,0,0,0,0,0,0,0,0,0
1683190317.69962311,108528238,1000,1000,1000,1000,0,0,0,0,0,0,0,0,0,0
1683190317.79958296,108628198,1000,1000,1000,1000,0,0,0,0,0,0,0,0,0,0
1683190317.89954305,108728158,1000,1000,1000,1000,0,0,0,0,0,0,0,0,0,0
1683190318.00033593,108828951,1000,1000,1000,1000,0,0,0,0,0,0,0,0,0,0
1683190318.10029602,108928911,1000,1000,1000,1000,0,0,0,0,0,0,0,0,0,0
1683190318.20025611,109028871,1000,1000,1000,1000,0,0,0,0,0,0,0,0,0,0
1683190318.30021596,109128831,1000,1000,1000,1000,0,0,0,0,0,0,0,0,0,0
1683190318.40017605,109228791,1000,1000,1000,1000,0,0,0,0,0,0,0,0,0,0
1683190318.50013614,109328751,1000,1000,1000,1000,0,0,0,0,0,0,0,0,0,0
1683190318.60009599,109428711,1000,1000,1000,1000,0,0,0,0,0,0,0,0,0,0
1683190318.70005608,109528671,1000,1000,1000,1000,0,0,0,0,0,0,0,0,0,0
1683190318.80001616,109628631,1000,1000,1000,1000,0,0,0,0,0,0,0,0,0,0
1683190318.89997602,109728591,1000,1000,1000,1000,0,0,0,0,0,0,0,0,0,0
1683190318.99993610,109828551,1000,1000,1000,1000,0,0,0,0,0,0,0,0,0,0
1683190319.09989595,109928511,1000,1000,1000,1000,0,0,0,0,0,0,0,0,0,0
1683190319.19985604,110028471,1000,1000,1000,1000,0,0,0,0,0,0,0,0,0,0
1683190319.29981613,110128431,1000,1000,1000,1000,0,0,0,0,0,0,0,0,0,0
1683190319.39977598,110228391,1000,1000,1000,1000,0,0,0,0,0,0,0,0,0,0
1683190319.49973607,110328351,1000,1000,1000,1000,0,0,0,0,0,0,0,0,0,0
1683190319.59969616,110428311,1000,1000,1000,1000,0,0,0,0,0,0,0,0,0,0
1683190319.69965601,110528271,1000,1000,1000,1000,0,0,0,0,0,0,0,0,0,0
1683190319.79961610,110628231,1000,1000,1000,1000,0,0,0,0,0,0,0,0,0,0
