TimeUS,M1,M2,M3,M4,TimeUS,C1,C2,C3,C4
82913488,1000,1000,1000,1000,82928482,1000,1000,1000,1000
82915987,1000,1000,1000,1000,83028442,1000,1000,1000,1000
82918486,1000,1000,1000,1000,83128402,1000,1000,1000,1000
82920985,1000,1000,1000,1000,83228362,1000,1000,1000,1000
82923484,1000,1000,1000,1000,83328322,1000,1000,1000,1000
82925983,1000,1000,1000,1000,83428282,1000,1000,1000,1000
82928482,1000,1000,1000,1000,83528242,1000,1000,1000,1000
82930981,1000,1000,1000,1000,83628202,1000,1000,1000,1000
82933480,1000,1000,1000,1000,83728162,1000,1000,1000,1000
82935979,1000,1000,1000,1000,83828955,1000,1000,1000,1000
82938478,1000,1000,1000,1000,83928915,1000,1000,1000,1000
82940977,1000,1000,1000,1000,84028875,1000,1000,1000,1000
82943476,1000,1000,1000,1000,84128835,1000,1000,1000,1000
82945975,1000,1000,1000,1000,84228795,1000,1000,1000,1000
82948474,1000,1000,1000,1000,84328755,1000,1000,1000,1000
82950973,1000,1000,1000,1000,84428715,1000,1000,1000,1000
82953472,1000,1000,1000,1000,84528675,1000,1000,1000,1000
82955971,1000,1000,1000,1000,84628635,1000,1000,1000,1000
82958470,1000,1000,1000,1000,84728595,1000,1000,1000,1000
82960969,1000,1000,1000,1000,84828555,1000,1000,1000,1000
82963468,1000,1000,1000,1000,84928515,1005,1005,1005,1005
82965967,1000,1000,1000,1000,85028475,1035,1035,1035,1035
82968466,1000,1000,1000,1000,85128435,1065,1065,1065,1065
82970965,1000,1000,1000,1000,85228395,1095,1095,1095,1095
82973464,1000,1000,1000,1000,85328355,1125,1125,1125,1125
82975963,1000,1000,1000,1000,85428315,1202,1190,1191,1203
82978462,1000,1000,1000,1000,85528275,1436,1427,1427,1437
82980961,1000,1000,1000,1000,85628235,1608,1600,1601,1609
82983460,1000,1000,1000,1000,85728195,1751,1744,1744,1752
82985959,1000,1000,1000,1000,85828155,1876,1870,1870,1876
82988458,1000,1000,1000,1000,85928948,1886,1881,1880,1888
82990957,1000,1000,1000,1000,86028908,1778,1777,1775,1781
82993456,1000,1000,1000,1000,86128868,1659,1661,1660,1661
82995955,1000,1000,1000,1000,86228828,1609,1612,1612,1610
82998454,1000,1000,1000,1000,86328788,1608,1610,1611,1607
83000953,1000,1000,1000,1000,86428748,1617,1619,1619,1616
83003452,1000,1000,1000,1000,86528708,1620,1620,1621,1619
83005951,1000,1000,1000,1000,86628668,1616,1615,1615,1615
83008450,1000,1000,1000,1000,86728628,1612,1610,1610,1612
83010949,1000,1000,1000,1000,86828588,1611,1610,1610,1611
83013448,1000,1000,1000,1000,86928548,1614,1613,1612,1614
83015947,1000,1000,1000,1000,87028508,1615,1615,1615,1615
83018446,1000,1000,1000,1000,87128468,1618,1618,1618,1617
83020945,1000,1000,1000,1000,87228428,1620,1620,1621,1619
83023444,1000,1000,1000,1000,87328388,1607,1607,1609,1605
83025943,1000,1000,1000,1000,87428348,1583,1584,1590,1576
83028442,1000,1000,1000,1000,87528308,1571,1570,1575,1567
83030941,1000,1000,1000,1000,87628268,1560,1560,1560,1561
83033440,1000,1000,1000,1000,87728228,1552,1551,1544,1559
83035939,1000,1000,1000,1000,87828188,1544,1543,1536,1552
83038438,1000,1000,1000,1000,87928981,1537,1537,1530,1544
83040937,1000,1000,1000,1000,88028941,1531,1531,1528,1534
83043436,1000,1000,1000,1000,88128901,1528,1528,1528,1528
83045935,1000,1000,1000,1000,88228861,1529,1529,1531,1527
83048434,1000,1000,1000,1000,88328821,1531,1532,1535,1528
83050933,1000,1000,1000,1000,88428781,1534,1534,1537,1531
83053432,1000,1000,1000,1000,88528741,1537,1537,1539,1535
83055931,1000,1000,1000,1000,88628701,1541,1541,1543,1540
83058430,1000,1000,1000,1000,88728661,1544,1544,1545,1544
83060929,1000,1000,1000,1000,88828621,1548,1548,1548,1548
83063428,1000,1000,1000,1000,88928581,1551,1550,1550,1552
83065927,1000,1000,1000,1000,89028541,1552,1552,1552,1553
83068426,1000,1000,1000,1000,89128501,1555,1555,1554,1556
83070925,1000,1000,1000,1000,89228461,1555,1556,1558,1560
83073424,1000,1000,1000,1000,89328421,1556,1556,1561,1563
83075923,1000,1000,1000,1000,89428381,1558,1559,1563,1564
83078422,1000,1000,1000,1000,89528341,1560,1560,1564,1564
83080921,1000,1000,1000,1000,89628301,1563,1563,1566,1565
83083420,1000,1000,1000,1000,89728261,1565,1565,1566,1565
83085919,1000,1000,1000,1000,89828221,1567,1567,1567,1566
83088418,1000,1000,1000,1000,89928181,1568,1568,1566,1567
83090917,1000,1000,1000,1000,90028974,1570,1570,1566,1567
83093416,1000,1000,1000,1000,90128934,1571,1571,1567,1568
83095915,1000,1000,1000,1000,90228894,1571,1571,1567,1567
83098414,1000,1000,1000,1000,90328854,1573,1572,1570,1570
83100913,1000,1000,1000,1000,90428814,1573,1573,1571,1570
83103412,1000,1000,1000,1000,90528774,1573,1574,1572,1572
83105911,1000,1000,1000,1000,90628734,1573,1574,1573,1572
83108410,1000,1000,1000,1000,90728694,1573,1574,1574,1573
83110909,1000,1000,1000,1000,90828654,1574,1574,1575,1574
83113408,1000,1000,1000,1000,90928614,1575,1575,1576,1575
83115907,1000,1000,1000,1000,91028574,1576,1576,1577,1577
83118406,1000,1000,1000,1000,91128534,1575,1576,1577,1577
83120905,1000,1000,1000,1000,91228494,1576,1576,1577,1577
83123404,1000,1000,1000,1000,91328454,1576,1576,1576,1577
83125903,1000,1000,1000,1000,91428414,1576,1575,1576,1576
83128402,1000,1000,1000,1000,91528374,1577,1576,1577,1577
83130901,1000,1000,1000,1000,91628334,1577,1577,1577,1577
83133400,1000,1000,1000,1000,91728294,1578,1578,1577,1578
83135899,1000,1000,1000,1000,91828254,1577,1578,1577,1577
83138398,1000,1000,1000,1000,91928214,1578,1577,1577,1577
83140897,1000,1000,1000,1000,92028174,1579,1579,1578,1578
83143396,1000,1000,1000,1000,92128967,1578,1578,1578,1577
83145895,1000,1000,1000,1000,92228927,1578,1579,1579,1578
83148394,1000,1000,1000,1000,92328887,1577,1577,1577,1577
83150893,1000,1000,1000,1000,92428847,1578,1578,1578,1578
83153392,1000,1000,1000,1000,92528807,1578,1578,1578,1578
83155891,1000,1000,1000,1000,92628767,1578,1578,1578,1578
83158390,1000,1000,1000,1000,92728727,1579,1578,1578,1579
83160889,1000,1000,1000,1000,92828687,1578,1578,1579,1578
83163388,1000,1000,1000,1000,92928647,1579,1579,1580,1579
83165887,1000,1000,1000,1000,93028607,1579,1579,1580,1580
83168386,1000,1000,1000,1000,93128567,1579,1579,1580,1579
83170885,1000,1000,1000,1000,93228527,1580,1580,1580,1580
83173384,1000,1000,1000,1000,93328487,1579,1579,1579,1580
83175883,1000,1000,1000,1000,93428447,1579,1580,1580,1580
83178382,1000,1000,1000,1000,93528407,1580,1580,1580,1580
83180881,1000,1000,1000,1000,93628367,1581,1580,1581,1580
83183380,1000,1000,1000,1000,93728327,1580,1580,1580,1580
83185879,1000,1000,1000,1000,93828287,1579,1579,1579,1579
83188378,1000,1000,1000,1000,93928247,1579,1579,1579,1580
83190877,1000,1000,1000,1000,94028207,1581,1581,1581,1581
83193376,1000,1000,1000,1000,94128167,1581,1581,1581,1580
83195875,1000,1000,1000,1000,94228960,1580,1580,1580,1580
83198374,1000,1000,1000,1000,94328920,1582,1582,1582,1582
83200873,1000,1000,1000,1000,94428880,1580,1580,1580,1580
83203372,1000,1000,1000,1000,94528840,1581,1581,1581,1581
83205871,1000,1000,1000,1000,94628800,1579,1580,1580,1580
83208370,1000,1000,1000,1000,94728760,1581,1581,1581,1581
83210869,1000,1000,1000,1000,94828720,1581,1581,1581,1581
83213368,1000,1000,1000,1000,94928680,1581,1580,1580,1581
83215867,1000,1000,1000,1000,95028640,1581,1581,1581,1581
83218366,1000,1000,1000,1000,95128600,1581,1581,1582,1581
83220865,1000,1000,1000,1000,95228560,1581,1582,1582,1582
83223364,1000,1000,1000,1000,95328520,1581,1581,1581,1581
83225863,1000,1000,1000,1000,95428480,1581,1582,1588,1575
83228362,1000,1000,1000,1000,95528440,1580,1582,1586,1573
83230861,1000,1000,1000,1000,95628400,1578,1581,1577,1573
83233360,1000,1000,1000,1000,95728360,1577,1580,1568,1571
83235859,1000,1000,1000,1000,95828320,1577,1579,1561,1568
83238358,1000,1000,1000,1000,95928280,1578,1578,1557,1564
83240857,1000,1000,1000,1000,96028240,1579,1579,1556,1560
83243356,1000,1000,1000,1000,96128200,1580,1578,1555,1555
83245855,1000,1000,1000,1000,96228160,1580,1578,1556,1554
83248354,1000,1000,1000,1000,96328953,1579,1578,1555,1554
83250853,1000,1000,1000,1000,96428913,1578,1578,1556,1553
83253352,1000,1000,1000,1000,96528873,1577,1578,1556,1554
83255851,1000,1000,1000,1000,96628833,1575,1577,1554,1553
83258350,1000,1000,1000,1000,96728793,1575,1576,1553,1553
83260849,1000,1000,1000,1000,96828753,1575,1577,1551,1552
83263348,1000,1000,1000,1000,96928713,1576,1577,1549,1550
83265847,1000,1000,1000,1000,97028673,1578,1579,1547,1547
83268346,1000,1000,1000,1000,97128633,1580,1582,1545,1544
83270845,1000,1000,1000,1000,97228593,1584,1585,1543,1542
83273344,1000,1000,1000,1000,97328553,1587,1587,1540,1540
83275843,1000,1000,1000,1000,97428513,1589,1589,1536,1536
83278342,1000,1000,1000,1000,97528473,1593,1593,1536,1536
83280841,1000,1000,1000,1000,97628433,1595,1595,1536,1536
83283340,1000,1000,1000,1000,97728393,1595,1595,1535,1537
83285839,1000,1000,1000,1000,97828353,1594,1594,1537,1539
83288338,1000,1000,1000,1000,97928313,1592,1592,1540,1543
83290837,1000,1000,1000,1000,98028273,1589,1587,1546,1548
83293336,1000,1000,1000,1000,98128233,1583,1580,1554,1556
83295835,1000,1000,1000,1000,98228193,1575,1571,1565,1567
83298334,1000,1000,1000,1000,98328986,1564,1560,1576,1578
83300833,1000,1000,1000,1000,98428946,1553,1550,1589,1590
83303332,1000,1000,1000,1000,98528906,1541,1539,1599,1599
83305831,1000,1000,1000,1000,98628866,1533,1533,1608,1607
83308330,1000,1000,1000,1000,98728826,1529,1530,1613,1612
83310829,1000,1000,1000,1000,98828786,1529,1531,1615,1614
83313328,1000,1000,1000,1000,98928746,1532,1535,1614,1613
83315827,1000,1000,1000,1000,99028706,1538,1540,1609,1609
83318326,1000,1000,1000,1000,99128666,1546,1548,1603,1603
83320825,1000,1000,1000,1000,99228626,1554,1555,1595,1594
83323324,1000,1000,1000,1000,99328586,1564,1564,1588,1587
83325823,1000,1000,1000,1000,99428546,1572,1571,1581,1580
83328322,1000,1000,1000,1000,99528506,1373,1375,1633,1639
83330821,1000,1000,1000,1000,99628466,1441,1447,1633,1634
83333320,1000,1000,1000,1000,99728426,1501,1508,1618,1613
83335819,1000,1000,1000,1000,99828386,1549,1552,1607,1599
83338318,1000,1000,1000,1000,99928346,1583,1581,1598,1591
83340817,1000,1000,1000,1000,100028306,1611,1600,1590,1587
83343316,1000,1000,1000,1000,100128266,1638,1625,1568,1572
83345815,1000,1000,1000,1000,100228226,1657,1645,1541,1551
83348314,1000,1000,1000,1000,100328186,1657,1652,1541,1552
83350813,1000,1000,1000,1000,100428979,1650,1654,1556,1563
83353312,1000,1000,1000,1000,100528939,1638,1646,1562,1564
83355811,1000,1000,1000,1000,100628899,1628,1638,1567,1565
83358310,1000,1000,1000,1000,100728859,1622,1629,1571,1567
83360809,1000,1000,1000,1000,100828819,1618,1620,1574,1569
83363308,1000,1000,1000,1000,100928779,1615,1613,1575,1572
83365807,1000,1000,1000,1000,101028739,1612,1607,1574,1574
83368306,1000,1000,1000,1000,101128699,1607,1603,1572,1573
83370805,1000,1000,1000,1000,101228659,1602,1599,1570,1572
83373304,1000,1000,1000,1000,101328619,1597,1596,1568,1570
83375803,1000,1000,1000,1000,101428579,1593,1595,1568,1569
83378302,1000,1000,1000,1000,101528539,1590,1593,1568,1567
83380801,1000,1000,1000,1000,101628499,1590,1591,1570,1568
83383300,1000,1000,1000,1000,101728459,1588,1589,1569,1567
83385799,1000,1000,1000,1000,101828419,1589,1589,1570,1568
83388298,1000,1000,1000,1000,101928379,1588,1587,1569,1568
83390797,1000,1000,1000,1000,102028339,1589,1588,1570,1570
83393296,1000,1000,1000,1000,102128299,1588,1587,1569,1569
83395795,1000,1000,1000,1000,102228259,1585,1582,1574,1575
83398294,1000,1000,1000,1000,102328219,1575,1571,1586,1587
83400793,1000,1000,1000,1000,102428179,1561,1560,1599,1600
83403292,1000,1000,1000,1000,102528972,1551,1552,1607,1609
83405791,1000,1000,1000,1000,102628932,1546,1550,1609,1610
83408290,1000,1000,1000,1000,102728892,1547,1552,1608,1607
83410789,1000,1000,1000,1000,102828852,1550,1556,1604,1602
83413288,1000,1000,1000,1000,102928812,1556,1560,1599,1597
83415787,1000,1000,1000,1000,103028772,1563,1565,1594,1592
83418286,1000,1000,1000,1000,103128732,1572,1571,1586,1584
83420785,1000,1000,1000,1000,103228692,1582,1580,1577,1576
83423284,1000,1000,1000,1000,103328652,1591,1587,1567,1567
83425783,1000,1000,1000,1000,103428612,1599,1592,1568,1556
83428282,1000,1000,1000,1000,103528572,1602,1594,1560,1555
83430781,1000,1000,1000,1000,103628532,1601,1594,1551,1554
83433280,1000,1000,1000,1000,103728492,1595,1593,1547,1553
83435779,1000,1000,1000,1000,103828452,1589,1592,1547,1552
83438278,1000,1000,1000,1000,103928412,1583,1588,1550,1551
83440777,1000,1000,1000,1000,104028372,1578,1584,1555,1554
83443276,1000,1000,1000,1000,104128332,1574,1578,1560,1557
83445775,1000,1000,1000,1000,104228292,1570,1572,1563,1560
83448274,1000,1000,1000,1000,104328252,1567,1568,1565,1563
83450773,1000,1000,1000,1000,104428212,1565,1564,1566,1565
83453272,1000,1000,1000,1000,104528172,1564,1563,1563,1564
83455771,1000,1000,1000,1000,104628965,1563,1563,1559,1561
83458270,1000,1000,1000,1000,104728925,1565,1565,1556,1557
83460769,1000,1000,1000,1000,104828885,1567,1569,1551,1551
83463268,1000,1000,1000,1000,104928845,1572,1574,1546,1545
83465767,1000,1000,1000,1000,105028805,1577,1579,1540,1539
83468266,1000,1000,1000,1000,105128765,1583,1584,1536,1535
83470765,1000,1000,1000,1000,105228725,1587,1588,1532,1531
83473264,1000,1000,1000,1000,105328685,1590,1591,1530,1529
83475763,1000,1000,1000,1000,105428645,1593,1593,1530,1530
83478262,1000,1000,1000,1000,105528605,1593,1592,1532,1533
83480761,1000,1000,1000,1000,105628565,1591,1591,1536,1538
83483260,1000,1000,1000,1000,105728525,1589,1589,1540,1543
83485759,1000,1000,1000,1000,105828485,1587,1587,1542,1544
83488258,1000,1000,1000,1000,105928445,1586,1586,1544,1547
83490757,1000,1000,1000,1000,106028405,1584,1583,1545,1548
83493256,1000,1000,1000,1000,106128365,1579,1578,1551,1555
83495755,1000,1000,1000,1000,106228325,1573,1571,1561,1564
83498254,1000,1000,1000,1000,106328285,1565,1563,1570,1572
83500753,1000,1000,1000,1000,106428245,1559,1557,1576,1579
83503252,1000,1000,1000,1000,106528205,1554,1552,1582,1584
83505751,1000,1000,1000,1000,106628165,1548,1548,1585,1586
83508250,1000,1000,1000,1000,106728958,1545,1545,1590,1589
83510749,1000,1000,1000,1000,106828918,1544,1544,1593,1591
83513248,1000,1000,1000,1000,106928878,1543,1543,1595,1594
83515747,1000,1000,1000,1000,107028838,1543,1543,1595,1594
83518246,1000,1000,1000,1000,107128798,1544,1544,1595,1594
83520745,1000,1000,1000,1000,107228758,1545,1545,1593,1593
83523244,1000,1000,1000,1000,107328718,1547,1548,1592,1592
83525743,1000,1000,1000,1000,107428678,1550,1551,1589,1589
83528242,1000,1000,1000,1000,107528638,1554,1555,1586,1587
83530741,1000,1000,1000,1000,107628598,1559,1559,1584,1584
83533240,1000,1000,1000,1000,107728558,1563,1564,1581,1582
83535739,1000,1000,1000,1000,107828518,1567,1568,1580,1579
83538238,1000,1000,1000,1000,107928478,1572,1572,1579,1578
83540737,1000,1000,1000,1000,108028438,1575,1575,1578,1576
83543236,1000,1000,1000,1000,108128398,1578,1577,1577,1576
83545735,1000,1000,1000,1000,108228358,1580,1579,1575,1575
83548234,1000,1000,1000,1000,108328318,1581,1580,1574,1574
83550733,1000,1000,1000,1000,108428278,1582,1582,1574,1574
83553232,1000,1000,1000,1000,108528238,1583,1583,1574,1574
83555731,1000,1000,1000,1000,108628198,1583,1583,1574,1575
83558230,1000,1000,1000,1000,108728158,1583,1582,1573,1574
83560729,1000,1000,1000,1000,108828951,1583,1583,1575,1575
83563228,1000,1000,1000,1000,108928911,1582,1582,1574,1574
83565727,1000,1000,1000,1000,109028871,1582,1582,1576,1575
83568226,1000,1000,1000,1000,109128831,1581,1581,1576,1575
83570725,1000,1000,1000,1000,109228791,1582,1582,1577,1577
83573224,1000,1000,1000,1000,109328751,1581,1581,1577,1578
83575723,1000,1000,1000,1000,109428711,1581,1581,1579,1579
83578222,1000,1000,1000,1000,109528671,1580,1580,1578,1578
83580721,1000,1000,1000,1000,109628631,1581,1581,1580,1580
83583220,1000,1000,1000,1000,109728591,1580,1580,1580,1580
83585719,1000,1000,1000,1000,109828551,1580,1579,1579,1579
83588218,1000,1000,1000,1000,109928511,1579,1579,1579,1579
83590717,1000,1000,1000,1000,110028471,1579,1580,1580,1580
83593216,1000,1000,1000,1000,110128431,1579,1579,1580,1580
83595715,1000,1000,1000,1000,110228391,1579,1580,1581,1581
83598214,1000,1000,1000,1000,110328351,1579,1579,1580,1580
83600713,1000,1000,1000,1000,110428311,1579,1579,1580,1579
83603212,1000,1000,1000,1000,110528271,1579,1579,1580,1580
83605711,1000,1000,1000,1000,110628231,1580,1580,1581,1581
83608210,1000,1000,1000,1000,110728191,1580,1580,1581,1580
83610709,1000,1000,1000,1000,110828984,1580,1581,1581,1581
83613208,1000,1000,1000,1000,110928944,1580,1580,1580,1580
83615707,1000,1000,1000,1000,111028904,1580,1580,1580,1580
83618206,1000,1000,1000,1000,111128864,1581,1580,1580,1580
83620705,1000,1000,1000,1000,111228824,1580,1581,1579,1580
83623204,1000,1000,1000,1000,111328784,1580,1580,1579,1579
83625703,1000,1000,1000,1000,111428744,1581,1581,1580,1580
83628202,1000,1000,1000,1000,111528704,1581,1581,1579,1580
83630701,1000,1000,1000,1000,111628664,1581,1581,1580,1581
83633200,1000,1000,1000,1000,111728624,1581,1581,1580,1580
83635699,1000,1000,1000,1000,111828584,1581,1581,1580,1580
83638198,1000,1000,1000,1000,111928544,1581,1582,1581,1581
83640697,1000,1000,1000,1000,112028504,1581,1581,1581,1581
83643196,1000,1000,1000,1000,112128464,1582,1581,1581,1581
83645695,1000,1000,1000,1000,112228424,1581,1581,1581,1581
83648194,1000,1000,1000,1000,112328384,1581,1581,1586,1576
83650693,1000,1000,1000,1000,112428344,1581,1581,1586,1573
83653192,1000,1000,1000,1000,112528304,1581,1581,1580,1574
83655691,1000,1000,1000,1000,112628264,1578,1579,1570,1572
83658190,1000,1000,1000,1000,112728224,1577,1579,1563,1569
83660689,1000,1000,1000,1000,112828184,1575,1578,1558,1564
83663188,1000,1000,1000,1000,112928977,1576,1577,1557,1561
83665687,1000,1000,1000,1000,113028937,1576,1577,1557,1558
83668186,1000,1000,1000,1000,113128897,1818,1816,1502,1496
83670685,1000,1000,1000,1000,113228857,1753,1748,1480,1474
83673184,1000,1000,1000,1000,113328817,1687,1682,1493,1495
83675683,1000,1000,1000,1000,113428777,1617,1615,1520,1525
83678182,1000,1000,1000,1000,113528737,1556,1557,1547,1553
83680681,1000,1000,1000,1000,113628697,1518,1523,1563,1568
83683180,1000,1000,1000,1000,113728657,1501,1506,1569,1573
83685679,1000,1000,1000,1000,113828617,1490,1494,1575,1577
83688178,1000,1000,1000,1000,113928577,1471,1474,1595,1597
83690677,1000,1000,1000,1000,114028537,1462,1465,1607,1609
83693176,1000,1000,1000,1000,114128497,1471,1475,1608,1609
83695675,1000,1000,1000,1000,114228457,1494,1498,1595,1595
83698174,1000,1000,1000,1000,114328417,1524,1529,1572,1571
83700673,1000,1000,1000,1000,114428377,1559,1563,1544,1542
83703172,1000,1000,1000,1000,114528337,1588,1591,1523,1521
83705671,1000,1000,1000,1000,114628297,1606,1607,1512,1511
83708170,1000,1000,1000,1000,114728257,1615,1613,1509,1509
83710669,1000,1000,1000,1000,114828217,1618,1614,1513,1513
83713168,1000,1000,1000,1000,114928177,1618,1611,1520,1521
83715667,1000,1000,1000,1000,115028970,1614,1608,1530,1531
83718166,1000,1000,1000,1000,115128930,1606,1600,1541,1541
83720665,1000,1000,1000,1000,115228890,1596,1592,1553,1554
83723164,1000,1000,1000,1000,115328850,1585,1582,1565,1565
83725663,1000,1000,1000,1000,115428810,1574,1571,1577,1576
83728162,1000,1000,1000,1000,115528770,1564,1563,1588,1587
83730661,1000,1000,1000,1000,115628730,1556,1556,1596,1595
83733160,1000,1000,1000,1000,115728690,1541,1541,1610,1609
83735659,1000,1000,1000,1000,115828650,1526,1527,1625,1624
83738158,1000,1000,1000,1000,115928610,1516,1519,1634,1632
83740657,1000,1000,1000,1000,116028570,1516,1518,1635,1635
83743156,1000,1000,1000,1000,116128530,1522,1524,1628,1629
83745655,1000,1000,1000,1000,116228490,1534,1536,1615,1618
83748154,1000,1000,1000,1000,116328450,1550,1550,1600,1603
83751486,1000,1000,1000,1000,116428410,1566,1566,1584,1586
83753985,1000,1000,1000,1000,116528370,1579,1578,1571,1572
83756484,1000,1000,1000,1000,116628330,1587,1585,1566,1565
83758983,1000,1000,1000,1000,116728290,1589,1588,1564,1563
83761482,1000,1000,1000,1000,116828250,1589,1587,1565,1563
83763981,1000,1000,1000,1000,116928210,1588,1587,1567,1566
83766480,1000,1000,1000,1000,117028170,1585,1584,1569,1568
83768979,1000,1000,1000,1000,117128963,1583,1583,1572,1571
83771478,1000,1000,1000,1000,117228923,1580,1581,1573,1574
83773977,1000,1000,1000,1000,117328883,1579,1579,1576,1576
83776476,1000,1000,1000,1000,117428843,1576,1576,1577,1577
83778975,1000,1000,1000,1000,117528803,1577,1577,1580,1580
83781474,1000,1000,1000,1000,117628763,1575,1575,1580,1580
83783973,1000,1000,1000,1000,117728723,1575,1575,1582,1581
83786472,1000,1000,1000,1000,117828683,1573,1574,1581,1581
83788971,1000,1000,1000,1000,117928643,1573,1574,1581,1581
83791470,1000,1000,1000,1000,118028603,1574,1574,1581,1581
83793969,1000,1000,1000,1000,118128563,1574,1574,1581,1582
83796468,1000,1000,1000,1000,118228523,1575,1575,1581,1582
83798967,1000,1000,1000,1000,118328483,1575,1575,1581,1581
83801466,1000,1000,1000,1000,118428443,1575,1575,1581,1580
83803965,1000,1000,1000,1000,118528403,1576,1576,1580,1580
83806464,1000,1000,1000,1000,118628363,1576,1576,1579,1580
83808963,1000,1000,1000,1000,118728323,1576,1577,1579,1579
83811462,1000,1000,1000,1000,118828283,1576,1577,1579,1578
83813961,1000,1000,1000,1000,118928243,1578,1577,1579,1579
83816460,1000,1000,1000,1000,119028203,1577,1578,1578,1578
83818959,1000,1000,1000,1000,119128163,1578,1578,1578,1578
83821458,1000,1000,1000,1000,119228956,1579,1579,1579,1579
83823957,1000,1000,1000,1000,119328916,1579,1579,1579,1579
83826456,1000,1000,1000,1000,119428876,1579,1579,1578,1578
83828955,1000,1000,1000,1000,119528836,1580,1579,1579,1579
83831454,1000,1000,1000,1000,119628796,1580,1580,1579,1579
83833953,1000,1000,1000,1000,119728756,1580,1581,1580,1579
83836452,1000,1000,1000,1000,119828716,1580,1581,1580,1580
83838951,1000,1000,1000,1000,119928676,1580,1580,1579,1580
83841450,1000,1000,1000,1000,120028636,1581,1581,1580,1580
83843949,1000,1000,1000,1000,120128596,1581,1580,1580,1580
83846448,1000,1000,1000,1000,120228556,1581,1581,1581,1581
83848947,1000,1000,1000,1000,120328516,1582,1582,1582,1582
83851446,1000,1000,1000,1000,120428476,1581,1581,1581,1581
83853945,1000,1000,1000,1000,120528436,1581,1581,1581,1581
83856444,1000,1000,1000,1000,120628396,1580,1581,1581,1578
83858943,1000,1000,1000,1000,120728356,1580,1583,1587,1572
83861442,1000,1000,1000,1000,120828316,1578,1582,1582,1573
83863941,1000,1000,1000,1000,120928276,1575,1579,1576,1576
83866440,1000,1000,1000,1000,121028236,1573,1573,1569,1575
83868939,1000,1000,1000,1000,121128196,1572,1570,1566,1574
83871438,1000,1000,1000,1000,121228156,1570,1567,1565,1570
83873937,1000,1000,1000,1000,121328949,1569,1565,1565,1567
83876436,1000,1000,1000,1000,121428909,1568,1566,1567,1565
83878935,1000,1000,1000,1000,121528869,1566,1566,1567,1564
83881434,1000,1000,1000,1000,121628829,1566,1567,1568,1565
83883933,1000,1000,1000,1000,121728789,1565,1566,1567,1564
83886432,1000,1000,1000,1000,121828749,1564,1565,1565,1565
83888931,1000,1000,1000,1000,121928709,1563,1564,1564,1565
83891430,1000,1000,1000,1000,122028669,1563,1563,1564,1564
83893929,1000,1000,1000,1000,122128629,1562,1562,1562,1563
83896428,1000,1000,1000,1000,122228589,1561,1561,1562,1562
83898927,1000,1000,1000,1000,122328549,1562,1561,1562,1562
83901426,1000,1000,1000,1000,122428509,1561,1560,1562,1560
83903925,1000,1000,1000,1000,122528469,1560,1560,1561,1560
83906424,1000,1000,1000,1000,122628429,1559,1559,1560,1559
83908923,1000,1000,1000,1000,122728389,1558,1558,1558,1558
83911422,1000,1000,1000,1000,122828349,1557,1557,1558,1557
83913921,1000,1000,1000,1000,122928309,1556,1557,1557,1556
83916420,1000,1000,1000,1000,123028269,1557,1558,1558,1556
83918919,1000,1000,1000,1000,123128229,1558,1558,1558,1557
83921418,1000,1000,1000,1000,123228189,1558,1558,1559,1557
83923917,1000,1000,1000,1000,123328982,1558,1559,1560,1557
83926416,1000,1000,1000,1000,123428942,1558,1559,1560,1558
83928915,1000,1000,1000,1000,123528902,1559,1559,1557,1561
83931414,1000,1000,1000,1000,123628862,1561,1560,1557,1563
83933913,1000,1000,1000,1000,123728822,1562,1561,1558,1564
83936412,1000,1000,1000,1000,123828782,1563,1561,1560,1564
83938911,1000,1000,1000,1000,123928742,1564,1562,1562,1564
83941410,1000,1000,1000,1000,124028702,1563,1562,1563,1561
83943909,1000,1000,1000,1000,124128662,1561,1562,1563,1560
83946408,1000,1000,1000,1000,124228622,1562,1562,1561,1563
83948907,1000,1000,1000,1000,124328582,1558,1559,1557,1561
83951406,1000,1000,1000,1000,124428542,1554,1555,1553,1556
83953905,1000,1000,1000,1000,124528502,1549,1549,1549,1551
83956404,1000,1000,1000,1000,124628462,1543,1543,1543,1543
83958903,1000,1000,1000,1000,124728422,1535,1535,1536,1535
83961402,1000,1000,1000,1000,124828382,1528,1528,1529,1528
83963901,1000,1000,1000,1000,124928342,1521,1522,1522,1521
83966400,1000,1000,1000,1000,125028302,1519,1520,1520,1520
83968899,1000,1000,1000,1000,125128262,1520,1520,1520,1520
83971398,1000,1000,1000,1000,125228222,1521,1521,1521,1521
83973897,1000,1000,1000,1000,125328182,1523,1524,1523,1524
83976396,1000,1000,1000,1000,125428975,1527,1527,1527,1527
83978895,1000,1000,1000,1000,125528935,1532,1532,1532,1533
83981394,1000,1000,1000,1000,125628895,1537,1537,1537,1537
83983893,1000,1000,1000,1000,125728855,1539,1539,1539,1539
83986392,1000,1000,1000,1000,125828815,1541,1541,1542,1541
83988891,1000,1000,1000,1000,125928775,1543,1543,1543,1542
83991390,1000,1000,1000,1000,126028735,1544,1543,1544,1543
83993889,1000,1000,1000,1000,126128695,1545,1545,1545,1545
83996388,1000,1000,1000,1000,126228655,1546,1546,1546,1546
83998887,1000,1000,1000,1000,126328615,1546,1546,1546,1546
84001386,1000,1000,1000,1000,126428575,1546,1546,1546,1546
84003885,1000,1000,1000,1000,126528535,1546,1546,1546,1546
84006384,1000,1000,1000,1000,126628495,1545,1546,1546,1546
84008883,1000,1000,1000,1000,126728455,1545,1545,1545,1545
84011382,1000,1000,1000,1000,126828415,1545,1545,1545,1545
84013881,1000,1000,1000,1000,126928375,1546,1545,1545,1546
84016380,1000,1000,1000,1000,127028335,1545,1545,1545,1544
84018879,1000,1000,1000,1000,127128295,1544,1544,1544,1545
84021378,1000,1000,1000,1000,127228255,1544,1544,1545,1545
84023877,1000,1000,1000,1000,127328215,1545,1544,1544,1545
84026376,1000,1000,1000,1000,127428175,1545,1545,1545,1545
84028875,1000,1000,1000,1000,127528968,1544,1543,1544,1544
84031374,1000,1000,1000,1000,127628928,1544,1544,1544,1543
84033873,1000,1000,1000,1000,127728888,1544,1544,1544,1544
84036372,1000,1000,1000,1000,127828848,1544,1544,1544,1545
84038871,1000,1000,1000,1000,127928808,1543,1544,1544,1544
84041370,1000,1000,1000,1000,128028768,1543,1543,1543,1543
84043869,1000,1000,1000,1000,128128728,1544,1543,1544,1544
84046368,1000,1000,1000,1000,128228688,1545,1544,1545,1544
84048867,1000,1000,1000,1000,128328648,1544,1544,1544,1544
84051366,1000,1000,1000,1000,128428608,1544,1544,1544,1544
84053865,1000,1000,1000,1000,128528568,1544,1544,1544,1544
84056364,1000,1000,1000,1000,128628528,1544,1544,1544,1544
84058863,1000,1000,1000,1000,128728488,1544,1544,1544,1544
84061362,1000,1000,1000,1000,128828448,1544,1544,1544,1544
84063861,1000,1000,1000,1000,128928408,1543,1543,1543,1543
84066360,1000,1000,1000,1000,129028368,1545,1545,1545,1545
84068859,1000,1000,1000,1000,129128328,1545,1544,1544,1545
84071358,1000,1000,1000,1000,129228288,1545,1545,1545,1545
84073857,1000,1000,1000,1000,129328248,1544,1543,1543,1544
84076356,1000,1000,1000,1000,129428208,1545,1545,1546,1545
84078855,1000,1000,1000,1000,129528168,1544,1544,1544,1544
84081354,1000,1000,1000,1000,129628961,1544,1544,1544,1543
84083853,1000,1000,1000,1000,129728921,1544,1543,1543,1544
84086352,1000,1000,1000,1000,129828881,1544,1544,1544,1544
84088851,1000,1000,1000,1000,129928841,1544,1544,1544,1545
84091350,1000,1000,1000,1000,130028801,1545,1545,1545,1545
84093849,1000,1000,1000,1000,130128761,1544,1544,1544,1544
84096348,1000,1000,1000,1000,130228721,1544,1544,1544,1544
84098847,1000,1000,1000,1000,130328681,1544,1544,1544,1544
84101346,1000,1000,1000,1000,130428641,1544,1544,1544,1544
84103845,1000,1000,1000,1000,130528601,1545,1544,1544,1544
84106344,1000,1000,1000,1000,130628561,1545,1545,1545,1545
84108843,1000,1000,1000,1000,130728521,1544,1544,1544,1545
84111342,1000,1000,1000,1000,130828481,1545,1546,1546,1545
84113841,1000,1000,1000,1000,130928441,1545,1545,1545,1544
84116340,1000,1000,1000,1000,131028401,1545,1545,1545,1545
84118839,1000,1000,1000,1000,131128361,1544,1544,1544,1545
84121338,1000,1000,1000,1000,131228321,1543,1543,1544,1543
84123837,1000,1000,1000,1000,131328281,1544,1544,1544,1544
84126336,1000,1000,1000,1000,131428241,1544,1544,1545,1544
84128835,1000,1000,1000,1000,131528201,1544,1544,1544,1544
84131334,1000,1000,1000,1000,131628161,1544,1545,1545,1545
84133833,1000,1000,1000,1000,131728954,1544,1544,1544,1545
84136332,1000,1000,1000,1000,131828914,1544,1544,1544,1544
84138831,1000,1000,1000,1000,131928874,1545,1545,1545,1545
84141330,1000,1000,1000,1000,132028834,1544,1544,1544,1544
84143829,1000,1000,1000,1000,132128794,1544,1544,1544,1544
84146328,1000,1000,1000,1000,132228754,1544,1544,1544,1544
84148827,1000,1000,1000,1000,132328714,1543,1543,1543,1543
84151326,1000,1000,1000,1000,132428674,1543,1544,1544,1544
84153825,1000,1000,1000,1000,132528634,1545,1544,1545,1545
84156324,1000,1000,1000,1000,132628594,1544,1544,1544,1544
84158823,1000,1000,1000,1000,132728554,1545,1545,1545,1545
84161322,1000,1000,1000,1000,132828514,1544,1544,1544,1544
84163821,1000,1000,1000,1000,132928474,1544,1544,1544,1544
84166320,1000,1000,1000,1000,133028434,1545,1545,1545,1545
84168819,1000,1000,1000,1000,133128394,1544,1544,1544,1544
84171318,1000,1000,1000,1000,133228354,1543,1543,1543,1544
84173817,1000,1000,1000,1000,133328314,1543,1543,1543,1544
84176316,1000,1000,1000,1000,133428274,1543,1544,1544,1543
84178815,1000,1000,1000,1000,133528234,1544,1543,1543,1544
84181314,1000,1000,1000,1000,133628194,1544,1544,1544,1544
84183813,1000,1000,1000,1000,133728154,1544,1544,1544,1544
84186312,1000,1000,1000,1000,133828947,1544,1544,1544,1544
84188811,1000,1000,1000,1000,133928907,1544,1544,1544,1544
84191310,1000,1000,1000,1000,134028867,1544,1544,1544,1544
84193809,1000,1000,1000,1000,134128827,1543,1543,1543,1544
84196308,1000,1000,1000,1000,134228787,1544,1544,1544,1544
84198807,1000,1000,1000,1000,134328747,1545,1545,1545,1545
84201306,1000,1000,1000,1000,134428707,1544,1544,1544,1544
84203805,1000,1000,1000,1000,134528667,1544,1544,1544,1544
84206304,1000,1000,1000,1000,134628627,1544,1544,1545,1544
84208803,1000,1000,1000,1000,134728587,1448,1449,1450,1449
84211302,1000,1000,1000,1000,134828547,1289,1290,1292,1290
84213801,1000,1000,1000,1000,134928507,1223,1224,1226,1225
84216300,1000,1000,1000,1000,135028467,1199,1202,1205,1203
84218799,1000,1000,1000,1000,135128427,1166,1167,1171,1170
84221298,1000,1000,1000,1000,135228387,1150,1153,1158,1154
84223797,1000,1000,1000,1000,135328347,1150,1152,1158,1155
84226296,1000,1000,1000,1000,135428307,1194,1150,1153,1202
84228795,1000,1000,1000,1000,135528267,1183,1150,1156,1190
84231294,1000,1000,1000,1000,135628227,1176,1150,1158,1183
84233793,1000,1000,1000,1000,135728187,1176,1150,1159,1183
84236292,1000,1000,1000,1000,135828980,1178,1150,1159,1186
84238791,1000,1000,1000,1000,135928940,1182,1150,1160,1189
84241290,1000,1000,1000,1000,136028900,1184,1150,1161,1192
84243789,1000,1000,1000,1000,136128860,1187,1150,1162,1196
84246288,1000,1000,1000,1000,136228820,1168,1150,1163,1177
84248787,1000,1000,1000,1000,136328780,1170,1150,1163,1180
84251286,1000,1000,1000,1000,136428740,1171,1150,1163,1182
84253785,1000,1000,1000,1000,136528700,1172,1150,1164,1184
84256284,1000,1000,1000,1000,136628660,1173,1150,1165,1185
84258783,1000,1000,1000,1000,136728620,1000,1000,1000,1000
84261282,1000,1000,1000,1000,136828580,1000,1000,1000,1000
84263781,1000,1000,1000,1000,136928540,1000,1000,1000,1000
84266280,1000,1000,1000,1000,137028500,1000,1000,1000,1000
84268779,1000,1000,1000,1000,137128460,1000,1000,1000,1000
84271278,1000,1000,1000,1000,137228420,1000,1000,1000,1000
84273777,1000,1000,1000,1000,137328380,1000,1000,1000,1000
84276276,1000,1000,1000,1000,137428340,1000,1000,1000,1000
84278775,1000,1000,1000,1000,137528300,1000,1000,1000,1000
84281274,1000,1000,1000,1000,137628260,1000,1000,1000,1000
84283773,1000,1000,1000,1000,137728220,1000,1000,1000,1000
84286272,1000,1000,1000,1000,137828180,1000,1000,1000,1000
84288771,1000,1000,1000,1000,137928973,1000,1000,1000,1000
84291270,1000,1000,1000,1000,138028933,1000,1000,1000,1000
84293769,1000,1000,1000,1000,138128893,1000,1000,1000,1000
84296268,1000,1000,1000,1000,138228853,1000,1000,1000,1000
84298767,1000,1000,1000,1000,138328813,1000,1000,1000,1000
84301266,1000,1000,1000,1000,138428773,1000,1000,1000,1000
84303765,1000,1000,1000,1000,138528733,1000,1000,1000,1000
84306264,1000,1000,1000,1000,138628693,1000,1000,1000,1000
84308763,1000,1000,1000,1000,138728653,1000,1000,1000,1000
84311262,1000,1000,1000,1000,138828613,1000,1000,1000,1000
84313761,1000,1000,1000,1000,138928573,1000,1000,1000,1000
84316260,1000,1000,1000,1000,139028533,1000,1000,1000,1000
84318759,1000,1000,1000,1000,139128493,1000,1000,1000,1000
84321258,1000,1000,1000,1000,139228453,1000,1000,1000,1000
84323757,1000,1000,1000,1000,139328413,1000,1000,1000,1000
84326256,1000,1000,1000,1000,139428373,1000,1000,1000,1000
84328755,1000,1000,1000,1000,139528333,1000,1000,1000,1000
84331254,1000,1000,1000,1000,139628293,1000,1000,1000,1000
84333753,1000,1000,1000,1000,139728253,1000,1000,1000,1000
84336252,1000,1000,1000,1000,139828213,1000,1000,1000,1000
84338751,1000,1000,1000,1000,139928173,1000,1000,1000,1000
84341250,1000,1000,1000,1000,140028966,1000,1000,1000,1000
84343749,1000,1000,1000,1000,140128926,1000,1000,1000,1000
84346248,1000,1000,1000,1000,140228886,1000,1000,1000,1000
84348747,1000,1000,1000,1000,140328846,1000,1000,1000,1000
84351246,1000,1000,1000,1000,140428806,1000,1000,1000,1000
84353745,1000,1000,1000,1000,140528766,1000,1000,1000,1000
84356244,1000,1000,1000,1000,140628726,1000,1000,1000,1000
84358743,1000,1000,1000,1000,140728686,1000,1000,1000,1000
84361242,1000,1000,1000,1000,140828646,1000,1000,1000,1000
84363741,1000,1000,1000,1000,140928606,1000,1000,1000,1000
84366240,1000,1000,1000,1000,141028566,1000,1000,1000,1000
84368739,1000,1000,1000,1000,141128526,1000,1000,1000,1000
84371238,1000,1000,1000,1000,141228486,1000,1000,1000,1000
84373737,1000,1000,1000,1000,141328446,1000,1000,1000,1000
84376236,1000,1000,1000,1000,141428406,1000,1000,1000,1000
84378735,1000,1000,1000,1000,141528366,1000,1000,1000,1000
84381234,1000,1000,1000,1000,141628326,1000,1000,1000,1000
84383733,1000,1000,1000,1000,141728286,1000,1000,1000,1000
84386232,1000,1000,1000,1000,141828246,1000,1000,1000,1000
84388731,1000,1000,1000,1000,141928206,1000,1000,1000,1000
84391230,1000,1000,1000,1000,142028166,1000,1000,1000,1000
84393729,1000,1000,1000,1000,142128959,1000,1000,1000,1000
84396228,1000,1000,1000,1000,142228919,1000,1000,1000,1000
84398727,1000,1000,1000,1000,142328879,1000,1000,1000,1000
84401226,1000,1000,1000,1000,142428839,1000,1000,1000,1000
84403725,1000,1000,1000,1000,142528799,1000,1000,1000,1000
84406224,1000,1000,1000,1000,142628759,1000,1000,1000,1000
84408723,1000,1000,1000,1000,142728719,1000,1000,1000,1000
84411222,1000,1000,1000,1000,142828679,1000,1000,1000,1000
84413721,1000,1000,1000,1000,142928639,1000,1000,1000,1000
84416220,1000,1000,1000,1000,143028599,1000,1000,1000,1000
84418719,1000,1000,1000,1000,143128559,1000,1000,1000,1000
84421218,1000,1000,1000,1000,143228519,1000,1000,1000,1000
84423717,1000,1000,1000,1000,143328479,1000,1000,1000,1000
84426216,1000,1000,1000,1000,143428439,1000,1000,1000,1000
84428715,1000,1000,1000,1000,143528399,1000,1000,1000,1000
84431214,1000,1000,1000,1000,143628359,1000,1000,1000,1000
84433713,1000,1000,1000,1000,143728319,1000,1000,1000,1000
84436212,1000,1000,1000,1000,143828279,1000,1000,1000,1000
84438711,1000,1000,1000,1000,143928239,1000,1000,1000,1000
84441210,1000,1000,1000,1000,144028199,1000,1000,1000,1000
84443709,1000,1000,1000,1000,144128159,1000,1000,1000,1000
84446208,1000,1000,1000,1000,144228952,1000,1000,1000,1000
84448707,1000,1000,1000,1000,144328912,1000,1000,1000,1000
84451206,1000,1000,1000,1000,144428872,1000,1000,1000,1000
84453705,1000,1000,1000,1000,144528832,1000,1000,1000,1000
84456204,1000,1000,1000,1000,144628792,1000,1000,1000,1000
84458703,1000,1000,1000,1000,144728752,1000,1000,1000,1000
84461202,1000,1000,1000,1000,144828712,1000,1000,1000,1000
84463701,1000,1000,1000,1000,144928672,1000,1000,1000,1000
84466200,1000,1000,1000,1000,145028632,1000,1000,1000,1000
84468699,1000,1000,1000,1000,145128592,1000,1000,1000,1000
84471198,1000,1000,1000,1000,145228552,1000,1000,1000,1000
84473697,1000,1000,1000,1000,145328512,1000,1000,1000,1000
84476196,1000,1000,1000,1000,145428472,1000,1000,1000,1000
84478695,1000,1000,1000,1000,145528432,1000,1000,1000,1000
84481194,1000,1000,1000,1000,145628392,1000,1000,1000,1000
84483693,1000,1000,1000,1000,145728352,1000,1000,1000,1000
84486192,1000,1000,1000,1000,145828312,1000,1000,1000,1000
84488691,1000,1000,1000,1000,145928272,1000,1000,1000,1000
84491190,1000,1000,1000,1000,146028232,1000,1000,1000,1000
84493689,1000,1000,1000,1000,146128192,1000,1000,1000,1000
84496188,1000,1000,1000,1000,146228985,1000,1000,1000,1000
84498687,1000,1000,1000,1000,146328945,1000,1000,1000,1000
84501186,1000,1000,1000,1000,146428905,1000,1000,1000,1000
84503685,1000,1000,1000,1000,146528865,1000,1000,1000,1000
84506184,1000,1000,1000,1000,146628825,1000,1000,1000,1000
84508683,1000,1000,1000,1000,146728785,1000,1000,1000,1000
84511182,1000,1000,1000,1000,146828745,1000,1000,1000,1000
84513681,1000,1000,1000,1000,146928705,1000,1000,1000,1000
84516180,1000,1000,1000,1000,147028665,1000,1000,1000,1000
84518679,1000,1000,1000,1000,147128625,1000,1000,1000,1000
84521178,1000,1000,1000,1000,147228585,1000,1000,1000,1000
84523677,1000,1000,1000,1000,147328545,1000,1000,1000,1000
84526176,1000,1000,1000,1000,147428505,1000,1000,1000,1000
84528675,1000,1000,1000,1000,147528465,1000,1000,1000,1000
84531174,1000,1000,1000,1000,147628425,1000,1000,1000,1000
84533673,1000,1000,1000,1000,147728385,1000,1000,1000,1000
84536172,1000,1000,1000,1000,147828345,1000,1000,1000,1000
84538671,1000,1000,1000,1000,147928305,1000,1000,1000,1000
84541170,1000,1000,1000,1000,148028265,1000,1000,1000,1000
84543669,1000,1000,1000,1000,148128225,1000,1000,1000,1000
84546168,1000,1000,1000,1000,148228185,1000,1000,1000,1000
84548667,1000,1000,1000,1000,148328978,1000,1000,1000,1000
84551166,1000,1000,1000,1000,148428938,1000,1000,1000,1000
84553665,1000,1000,1000,1000,148528898,1000,1000,1000,1000
84556164,1000,1000,1000,1000,148628858,1000,1000,1000,1000
84558663,1000,1000,1000,1000,148728818,1000,1000,1000,1000
84561162,1000,1000,1000,1000,148828778,1000,1000,1000,1000
84563661,1000,1000,1000,1000,148928738,1000,1000,1000,1000
84566160,1000,1000,1000,1000,149028698,1000,1000,1000,1000
84568659,1000,1000,1000,1000,149128658,1000,1000,1000,1000
84571158,1000,1000,1000,1000,149228618,1000,1000,1000,1000
84573657,1000,1000,1000,1000,149328578,1000,1000,1000,1000
84576156,1000,1000,1000,1000,149428538,1000,1000,1000,1000
84578655,1000,1000,1000,1000,149528498,1000,1000,1000,1000
84581154,1000,1000,1000,1000,149628458,1000,1000,1000,1000
84583653,1000,1000,1000,1000,149728418,1000,1000,1000,1000
84586152,1000,1000,1000,1000,149828378,1000,1000,1000,1000
84588651,1000,1000,1000,1000,149928338,1000,1000,1000,1000
84591150,1000,1000,1000,1000,150028298,1000,1000,1000,1000
84593649,1000,1000,1000,1000,150128258,1000,1000,1000,1000
84596148,1000,1000,1000,1000,150228218,1000,1000,1000,1000
84598647,1000,1000,1000,1000,150328178,1000,1000,1000,1000
84601146,1000,1000,1000,1000,150428971,1000,1000,1000,1000
84603645,1000,1000,1000,1000,150528931,1000,1000,1000,1000
84606144,1000,1000,1000,1000,150628891,1000,1000,1000,1000
84608643,1000,1000,1000,1000,150728851,1000,1000,1000,1000
84611142,1000,1000,1000,1000,150828811,1000,1000,1000,1000
84613641,1000,1000,1000,1000,150928771,1000,1000,1000,1000
84616140,1000,1000,1000,1000,151028731,1000,1000,1000,1000
84618639,1000,1000,1000,1000,151128691,1000,1000,1000,1000
84621138,1000,1000,1000,1000,151228651,1000,1000,1000,1000
84623637,1000,1000,1000,1000,151328611,1000,1000,1000,1000
84626136,1000,1000,1000,1000,151428571,1000,1000,1000,1000
84628635,1000,1000,1000,1000,151528531,1000,1000,1000,1000
84631134,1000,1000,1000,1000,151628491,1000,1000,1000,1000
84633633,1000,1000,1000,1000,,,,,
84636132,1000,1000,1000,1000,,,,,
84638631,1000,1000,1000,1000,,,,,
84641130,1000,1000,1000,1000,,,,,
84643629,1000,1000,1000,1000,,,,,
84646128,1000,1000,1000,1000,,,,,
84648627,1000,1000,1000,1000,,,,,
84651126,1000,1000,1000,1000,,,,,
84653625,1000,1000,1000,1000,,,,,
84656124,1000,1000,1000,1000,,,,,
84658623,1000,1000,1000,1000,,,,,
84661122,1000,1000,1000,1000,,,,,
84663621,1000,1000,1000,1000,,,,,
84666120,1000,1000,1000,1000,,,,,
84668619,1000,1000,1000,1000,,,,,
84671118,1000,1000,1000,1000,,,,,
84673617,1000,1000,1000,1000,,,,,
84676116,1000,1000,1000,1000,,,,,
84678615,1000,1000,1000,1000,,,,,
84681114,1000,1000,1000,1000,,,,,
84683613,1000,1000,1000,1000,,,,,
84686112,1000,1000,1000,1000,,,,,
84688611,1000,1000,1000,1000,,,,,
84691110,1000,1000,1000,1000,,,,,
84693609,1000,1000,1000,1000,,,,,
84696108,1000,1000,1000,1000,,,,,
84698607,1000,1000,1000,1000,,,,,
84701106,1000,1000,1000,1000,,,,,
84703605,1000,1000,1000,1000,,,,,
84706104,1000,1000,1000,1000,,,,,
84708603,1000,1000,1000,1000,,,,,
84711102,1000,1000,1000,1000,,,,,
84713601,1000,1000,1000,1000,,,,,
84716100,1000,1000,1000,1000,,,,,
84718599,1000,1000,1000,1000,,,,,
84721098,1000,1000,1000,1000,,,,,
84723597,1000,1000,1000,1000,,,,,
84726096,1000,1000,1000,1000,,,,,
84728595,1000,1000,1000,1000,,,,,
84731094,1000,1000,1000,1000,,,,,
84733593,1000,1000,1000,1000,,,,,
84736092,1000,1000,1000,1000,,,,,
84738591,1000,1000,1000,1000,,,,,
84741090,1000,1000,1000,1000,,,,,
84743589,1000,1000,1000,1000,,,,,
84746088,1000,1000,1000,1000,,,,,
84748587,1000,1000,1000,1000,,,,,
84751086,1000,1000,1000,1000,,,,,
84753585,1000,1000,1000,1000,,,,,
84756084,1000,1000,1000,1000,,,,,
84758583,1000,1000,1000,1000,,,,,
84761082,1000,1000,1000,1000,,,,,
84763581,1000,1000,1000,1000,,,,,
84766080,1000,1000,1000,1000,,,,,
84768579,1000,1000,1000,1000,,,,,
84771078,1000,1000,1000,1000,,,,,
84773577,1000,1000,1000,1000,,,,,
84776076,1000,1000,1000,1000,,,,,
84778575,1000,1000,1000,1000,,,,,
84781074,1000,1000,1000,1000,,,,,
84783573,1000,1000,1000,1000,,,,,
84786072,1000,1000,1000,1000,,,,,
84788571,1000,1000,1000,1000,,,,,
84791070,1000,1000,1000,1000,,,,,
84793569,1000,1000,1000,1000,,,,,
84796068,1000,1000,1000,1000,,,,,
84798567,1000,1000,1000,1000,,,,,
84801066,1000,1000,1000,1000,,,,,
84803565,1000,1000,1000,1000,,,,,
84806064,1000,1000,1000,1000,,,,,
84808563,1000,1000,1000,1000,,,,,
84811062,1000,1000,1000,1000,,,,,
84813561,1000,1000,1000,1000,,,,,
84816060,1000,1000,1000,1000,,,,,
84818559,1000,1000,1000,1000,,,,,
84821058,1000,1000,1000,1000,,,,,
84823557,1000,1000,1000,1000,,,,,
84826056,1000,1000,1000,1000,,,,,
84828555,1000,1000,1000,1000,,,,,
84831054,1000,1000,1000,1000,,,,,
84833553,1000,1000,1000,1000,,,,,
84836052,1000,1000,1000,1000,,,,,
84838551,1000,1000,1000,1000,,,,,
84841050,1000,1000,1000,1000,,,,,
84843549,1000,1000,1000,1000,,,,,
84846048,1000,1000,1000,1000,,,,,
84848547,1000,1000,1000,1000,,,,,
84851046,1000,1000,1000,1000,,,,,
84853545,1000,1000,1000,1000,,,,,
84856044,1000,1000,1000,1000,,,,,
84858543,1000,1000,1000,1000,,,,,
84861042,1000,1000,1000,1000,,,,,
84863541,1000,1000,1000,1000,,,,,
84866040,1000,1000,1000,1000,,,,,
84868539,1000,1000,1000,1000,,,,,
84871038,1000,1000,1000,1000,,,,,
84873537,1000,1000,1000,1000,,,,,
84876036,1000,1000,1000,1000,,,,,
84878535,1000,1000,1000,1000,,,,,
84881034,1000,1000,1000,1000,,,,,
84883533,1000,1000,1000,1000,,,,,
84886032,1000,1000,1000,1000,,,,,
84888531,1000,1000,1000,1000,,,,,
84891030,1000,1000,1000,1000,,,,,
84893529,1000,1000,1000,1000,,,,,
84896028,1000,1000,1000,1000,,,,,
84898527,1000,1000,1000,1000,,,,,
84901026,1000,1000,1000,1000,,,,,
84903525,1000,1000,1000,1000,,,,,
84906024,1000,1000,1000,1000,,,,,
84908523,1000,1000,1000,1000,,,,,
84911022,1000,1000,1000,1000,,,,,
84913521,1000,1000,1000,1000,,,,,
84916020,1000,1000,1000,1000,,,,,
84918519,1001,1001,1001,1001,,,,,
84921018,1002,1002,1002,1002,,,,,
84923517,1003,1003,1003,1003,,,,,
84926016,1003,1003,1003,1003,,,,,
84928515,1004,1004,1004,1004,,,,,
84931014,1005,1005,1005,1005,,,,,
84933513,1006,1006,1006,1006,,,,,
84936012,1006,1006,1006,1006,,,,,
84938511,1007,1007,1007,1007,,,,,
84941010,1008,1008,1008,1008,,,,,
84943509,1009,1009,1009,1009,,,,,
84946008,1009,1009,1009,1009,,,,,
84948507,1010,1010,1010,1010,,,,,
84951006,1011,1011,1011,1011,,,,,
84953505,1012,1012,1012,1012,,,,,
84956004,1012,1012,1012,1012,,,,,
84958503,1013,1013,1013,1013,,,,,
84961002,1014,1014,1014,1014,,,,,
84963501,1015,1015,1015,1015,,,,,
84966000,1015,1015,1015,1015,,,,,
84968499,1016,1016,1016,1016,,,,,
84970998,1017,1017,1017,1017,,,,,
84973497,1018,1018,1018,1018,,,,,
84975996,1018,1018,1018,1018,,,,,
84978495,1019,1019,1019,1019,,,,,
84980994,1020,1020,1020,1020,,,,,
84983493,1021,1021,1021,1021,,,,,
84985992,1021,1021,1021,1021,,,,,
84988491,1022,1022,1022,1022,,,,,
84990990,1023,1023,1023,1023,,,,,
84993489,1024,1024,1024,1024,,,,,
84995988,1024,1024,1024,1024,,,,,
84998487,1025,1025,1025,1025,,,,,
85000986,1026,1026,1026,1026,,,,,
85003485,1027,1027,1027,1027,,,,,
85005984,1027,1027,1027,1027,,,,,
85008483,1028,1028,1028,1028,,,,,
85010982,1029,1029,1029,1029,,,,,
85013481,1030,1030,1030,1030,,,,,
85015980,1030,1030,1030,1030,,,,,
85018479,1031,1031,1031,1031,,,,,
85020978,1032,1032,1032,1032,,,,,
85023477,1033,1033,1033,1033,,,,,
85025976,1033,1033,1033,1033,,,,,
85028475,1034,1034,1034,1034,,,,,
85030974,1035,1035,1035,1035,,,,,
85033473,1036,1036,1036,1036,,,,,
85035972,1036,1036,1036,1036,,,,,
85038471,1037,1037,1037,1037,,,,,
85040970,1038,1038,1038,1038,,,,,
85043469,1039,1039,1039,1039,,,,,
85045968,1039,1039,1039,1039,,,,,
85048467,1040,1040,1040,1040,,,,,
85050966,1041,1041,1041,1041,,,,,
85053465,1042,1042,1042,1042,,,,,
85055964,1042,1042,1042,1042,,,,,
85058463,1043,1043,1043,1043,,,,,
85060962,1044,1044,1044,1044,,,,,
85063461,1045,1045,1045,1045,,,,,
85065960,1045,1045,1045,1045,,,,,
85068459,1046,1046,1046,1046,,,,,
85070958,1047,1047,1047,1047,,,,,
85073457,1048,1048,1048,1048,,,,,
85075956,1048,1048,1048,1048,,,,,
85078455,1049,1049,1049,1049,,,,,
85080954,1050,1050,1050,1050,,,,,
85083453,1051,1051,1051,1051,,,,,
85085952,1051,1051,1051,1051,,,,,
85088451,1052,1052,1052,1052,,,,,
85090950,1053,1053,1053,1053,,,,,
85093449,1054,1054,1054,1054,,,,,
85095948,1054,1054,1054,1054,,,,,
85098447,1055,1055,1055,1055,,,,,
85100946,1056,1056,1056,1056,,,,,
85103445,1057,1057,1057,1057,,,,,
85105944,1057,1057,1057,1057,,,,,
85108443,1058,1058,1058,1058,,,,,
85110942,1059,1059,1059,1059,,,,,
85113441,1060,1060,1060,1060,,,,,
85115940,1060,1060,1060,1060,,,,,
85118439,1061,1061,1061,1061,,,,,
85120938,1062,1062,1062,1062,,,,,
85123437,1063,1063,1063,1063,,,,,
85125936,1063,1063,1063,1063,,,,,
85128435,1064,1064,1064,1064,,,,,
85130934,1065,1065,1065,1065,,,,,
85133433,1066,1066,1066,1066,,,,,
85135932,1066,1066,1066,1066,,,,,
85138431,1067,1067,1067,1067,,,,,
85140930,1068,1068,1068,1068,,,,,
85143429,1069,1069,1069,1069,,,,,
85145928,1069,1069,1069,1069,,,,,
85148427,1070,1070,1070,1070,,,,,
85150926,1071,1071,1071,1071,,,,,
85153425,1072,1072,1072,1072,,,,,
85155924,1072,1072,1072,1072,,,,,
85158423,1073,1073,1073,1073,,,,,
85160922,1074,1074,1074,1074,,,,,
85163421,1075,1075,1075,1075,,,,,
85165920,1075,1075,1075,1075,,,,,
85168419,1076,1076,1076,1076,,,,,
85170918,1077,1077,1077,1077,,,,,
85173417,1078,1078,1078,1078,,,,,
85175916,1078,1078,1078,1078,,,,,
85178415,1079,1079,1079,1079,,,,,
85180914,1080,1080,1080,1080,,,,,
85183413,1081,1081,1081,1081,,,,,
85185912,1081,1081,1081,1081,,,,,
85188411,1082,1082,1082,1082,,,,,
85190910,1083,1083,1083,1083,,,,,
85193409,1084,1084,1084,1084,,,,,
85195908,1084,1084,1084,1084,,,,,
85198407,1085,1085,1085,1085,,,,,
85200906,1086,1086,1086,1086,,,,,
85203405,1087,1087,1087,1087,,,,,
85205904,1087,1087,1087,1087,,,,,
85208403,1088,1088,1088,1088,,,,,
85210902,1089,1089,1089,1089,,,,,
85213401,1090,1090,1090,1090,,,,,
85215900,1090,1090,1090,1090,,,,,
85218399,1091,1091,1091,1091,,,,,
85220898,1092,1092,1092,1092,,,,,
85223397,1093,1093,1093,1093,,,,,
85225896,1093,1093,1093,1093,,,,,
85228395,1094,1094,1094,1094,,,,,
85230894,1095,1095,1095,1095,,,,,
85233393,1096,1096,1096,1096,,,,,
85235892,1096,1096,1096,1096,,,,,
85238391,1097,1097,1097,1097,,,,,
85240890,1098,1098,1098,1098,,,,,
85243389,1099,1099,1099,1099,,,,,
85245888,1099,1099,1099,1099,,,,,
85248387,1100,1100,1100,1100,,,,,
85250886,1101,1101,1101,1101,,,,,
85253385,1101,1101,1101,1101,,,,,
85255884,1102,1102,1102,1102,,,,,
85258383,1103,1103,1103,1103,,,,,
85260882,1104,1104,1104,1104,,,,,
85263381,1104,1104,1104,1104,,,,,
85265880,1105,1105,1105,1105,,,,,
85268379,1106,1106,1106,1106,,,,,
85270878,1107,1107,1107,1107,,,,,
85273377,1107,1107,1107,1107,,,,,
85275876,1108,1108,1108,1108,,,,,
85278375,1109,1109,1109,1109,,,,,
85280874,1110,1110,1110,1110,,,,,
85283373,1110,1110,1110,1110,,,,,
85285872,1111,1111,1111,1111,,,,,
85288371,1112,1112,1112,1112,,,,,
85290870,1113,1113,1113,1113,,,,,
85293369,1113,1113,1113,1113,,,,,
85295868,1114,1114,1114,1114,,,,,
85298367,1115,1115,1115,1115,,,,,
85300866,1116,1116,1116,1116,,,,,
85303365,1116,1116,1116,1116,,,,,
85305864,1117,1117,1117,1117,,,,,
85308363,1118,1118,1118,1118,,,,,
85310862,1119,1119,1119,1119,,,,,
85313361,1119,1119,1119,1119,,,,,
85315860,1120,1120,1120,1120,,,,,
85318359,1121,1121,1121,1121,,,,,
85320858,1122,1122,1122,1122,,,,,
85323357,1122,1122,1122,1122,,,,,
85325856,1123,1123,1123,1123,,,,,
85328355,1124,1124,1124,1124,,,,,
85330854,1125,1125,1125,1125,,,,,
85333353,1125,1125,1125,1125,,,,,
85335852,1126,1126,1126,1126,,,,,
85338351,1127,1127,1127,1127,,,,,
85340850,1128,1128,1128,1128,,,,,
85343349,1128,1128,1128,1128,,,,,
85345848,1129,1129,1129,1129,,,,,
85348347,1130,1130,1130,1130,,,,,
85350846,1131,1131,1131,1131,,,,,
85353345,1131,1131,1131,1131,,,,,
85355844,1132,1132,1132,1132,,,,,
85358343,1133,1133,1133,1133,,,,,
85360842,1134,1134,1134,1134,,,,,
85363341,1134,1134,1134,1134,,,,,
85365840,1135,1135,1135,1135,,,,,
85368339,1136,1136,1136,1136,,,,,
85370838,1137,1137,1137,1137,,,,,
85373337,1137,1137,1137,1137,,,,,
85375836,1138,1138,1138,1138,,,,,
85378335,1139,1139,1139,1139,,,,,
85380834,1140,1140,1140,1140,,,,,
85383333,1140,1140,1140,1140,,,,,
85385832,1141,1141,1141,1141,,,,,
85388331,1142,1142,1142,1142,,,,,
85390830,1143,1143,1143,1143,,,,,
85393329,1143,1143,1143,1143,,,,,
85395828,1144,1144,1144,1144,,,,,
85398327,1145,1145,1145,1145,,,,,
85400826,1146,1146,1146,1146,,,,,
85403325,1146,1146,1146,1146,,,,,
85405824,1147,1147,1147,1147,,,,,
85408323,1148,1148,1148,1148,,,,,
85410822,1149,1149,1149,1149,,,,,
85413321,1149,1149,1149,1149,,,,,
85415820,1150,1150,1150,1150,,,,,
85418319,1164,1150,1151,1165,,,,,
85420818,1172,1159,1160,1173,,,,,
85423317,1180,1167,1168,1181,,,,,
85425816,1187,1175,1175,1188,,,,,
85428315,1195,1182,1183,1196,,,,,
85430814,1202,1190,1191,1203,,,,,
85433313,1210,1197,1198,1210,,,,,
85435812,1217,1205,1205,1218,,,,,
85438311,1224,1212,1213,1225,,,,,
85440810,1231,1219,1220,1232,,,,,
85443309,1238,1226,1227,1238,,,,,
85445808,1244,1233,1234,1245,,,,,
85448307,1251,1240,1240,1252,,,,,
85450806,1258,1246,1247,1258,,,,,
85453305,1264,1253,1254,1265,,,,,
85455804,1271,1260,1260,1271,,,,,
85458303,1277,1266,1267,1278,,,,,
85460802,1283,1272,1273,1284,,,,,
85463301,1289,1279,1279,1290,,,,,
85465800,1296,1285,1286,1296,,,,,
85468299,1302,1291,1292,1302,,,,,
85470798,1308,1297,1298,1308,,,,,
85473297,1314,1303,1304,1314,,,,,
85475796,1319,1309,1310,1320,,,,,
85478295,1325,1315,1316,1326,,,,,
85480794,1331,1321,1321,1332,,,,,
85483293,1337,1326,1327,1337,,,,,
85485792,1342,1332,1333,1343,,,,,
85488291,1348,1338,1338,1349,,,,,
85490790,1354,1343,1344,1354,,,,,
85493289,1359,1349,1350,1360,,,,,
85495788,1364,1354,1355,1365,,,,,
85498287,1370,1360,1361,1370,,,,,
85500786,1375,1365,1366,1376,,,,,
85503285,1381,1371,1371,1381,,,,,
85505784,1386,1376,1377,1386,,,,,
85508283,1391,1381,1382,1392,,,,,
85510782,1396,1386,1387,1397,,,,,
85513281,1401,1392,1392,1402,,,,,
85515780,1406,1397,1397,1407,,,,,
85518279,1411,1402,1402,1412,,,,,
85520778,1416,1407,1407,1417,,,,,
85523277,1421,1412,1412,1422,,,,,
85525776,1426,1417,1417,1427,,,,,
85528275,1431,1422,1422,1432,,,,,
85530774,1436,1427,1427,1437,,,,,
85533273,1441,1431,1432,1442,,,,,
85535772,1446,1436,1437,1446,,,,,
85538271,1451,1441,1442,1451,,,,,
85540770,1455,1446,1447,1456,,,,,
85543269,1460,1451,1451,1460,,,,,
85545768,1465,1455,1456,1465,,,,,
85548267,1469,1460,1461,1470,,,,,
85550766,1474,1465,1465,1474,,,,,
85553265,1478,1469,1470,1479,,,,,
85555764,1483,1474,1474,1483,,,,,
85558263,1487,1479,1479,1488,,,,,
85560762,1492,1483,1484,1493,,,,,
85563261,1496,1488,1488,1497,,,,,
85565760,1501,1492,1493,1501,,,,,
85568259,1505,1497,1497,1506,,,,,
85570758,1510,1501,1501,1510,,,,,
85573257,1514,1505,1506,1515,,,,,
85575756,1518,1510,1510,1519,,,,,
85578255,1523,1514,1515,1523,,,,,
85580754,1527,1518,1519,1527,,,,,
85583253,1531,1523,1523,1532,,,,,
85585752,1535,1527,1527,1536,,,,,
85588251,1540,1531,1532,1540,,,,,
85590750,1544,1536,1536,1544,,,,,
85593249,1548,1540,1540,1549,,,,,
85595748,1552,1544,1544,1553,,,,,
85598247,1556,1548,1548,1557,,,,,
85600746,1560,1552,1553,1561,,,,,
85603245,1564,1556,1557,1565,,,,,
85605744,1568,1561,1561,1569,,,,,
85608243,1572,1565,1565,1573,,,,,
85610742,1576,1569,1569,1577,,,,,
85613241,1580,1573,1573,1581,,,,,
85615740,1584,1577,1577,1585,,,,,
85618239,1588,1581,1581,1589,,,,,
85620738,1592,1585,1585,1593,,,,,
85623237,1596,1589,1589,1597,,,,,
85625736,1600,1592,1593,1601,,,,,
85628235,1604,1596,1597,1605,,,,,
85630734,1608,1600,1601,1609,,,,,
85633233,1612,1604,1605,1613,,,,,
85635732,1616,1608,1608,1616,,,,,
85638231,1620,1612,1612,1620,,,,,
85640730,1623,1616,1616,1624,,,,,
85643229,1627,1619,1620,1628,,,,,
85645728,1631,1623,1624,1632,,,,,
85648227,1635,1627,1627,1635,,,,,
85650726,1639,1631,1631,1639,,,,,
85653225,1642,1635,1635,1643,,,,,
85655724,1646,1638,1639,1647,,,,,
85658223,1650,1642,1642,1650,,,,,
85660722,1653,1646,1646,1654,,,,,
85663221,1657,1649,1650,1658,,,,,
85665720,1661,1653,1654,1661,,,,,
85668219,1664,1657,1657,1665,,,,,
85670718,1668,1660,1661,1669,,,,,
85673217,1672,1664,1664,1672,,,,,
85675716,1675,1668,1668,1676,,,,,
85678215,1679,1671,1672,1679,,,,,
85680714,1682,1675,1675,1683,,,,,
85683213,1686,1678,1679,1687,,,,,
85685712,1690,1682,1682,1690,,,,,
85688211,1693,1685,1686,1694,,,,,
85690710,1697,1689,1689,1697,,,,,
85693209,1700,1693,1693,1701,,,,,
85695708,1704,1696,1696,1704,,,,,
85698207,1707,1699,1700,1708,,,,,
85700706,1711,1703,1703,1711,,,,,
85703205,1714,1706,1707,1715,,,,,
85705704,1718,1710,1710,1718,,,,,
85708203,1721,1713,1714,1721,,,,,
85710702,1724,1717,1717,1725,,,,,
85713201,1728,1720,1721,1728,,,,,
85715700,1731,1724,1724,1732,,,,,
85718199,1735,1727,1727,1735,,,,,
85720698,1738,1730,1731,1738,,,,,
85723197,1741,1734,1734,1742,,,,,
85725696,1745,1737,1737,1745,,,,,
85728195,1748,1740,1741,1748,,,,,
85730694,1751,1744,1744,1752,,,,,
85733193,1755,1747,1748,1755,,,,,
85735692,1758,1750,1751,1758,,,,,
85738191,1761,1754,1754,1762,,,,,
85740690,1764,1757,1758,1765,,,,,
85743189,1768,1760,1761,1768,,,,,
85745688,1771,1764,1764,1771,,,,,
85748187,1774,1767,1767,1775,,,,,
85750686,1777,1770,1771,1778,,,,,
85753185,1781,1773,1774,1781,,,,,
85755684,1784,1777,1777,1784,,,,,
85758183,1787,1780,1780,1787,,,,,
85760682,1790,1783,1784,1791,,,,,
85763181,1793,1786,1787,1794,,,,,
85765680,1797,1789,1790,1797,,,,,
85768179,1800,1793,1793,1800,,,,,
85770678,1803,1796,1796,1803,,,,,
85773177,1805,1800,1800,1806,,,,,
85775676,1808,1803,1804,1809,,,,,
85778175,1811,1807,1807,1812,,,,,
85780674,1814,1810,1810,1815,,,,,
85783173,1817,1813,1813,1818,,,,,
85785672,1820,1816,1816,1821,,,,,
85788171,1823,1819,1819,1824,,,,,
85790670,1827,1822,1822,1827,,,,,
85793169,1830,1825,1825,1830,,,,,
85795668,1833,1828,1828,1834,,,,,
85798167,1836,1831,1831,1837,,,,,
85800666,1839,1834,1834,1840,,,,,
85803165,1842,1837,1837,1843,,,,,
85805664,1845,1840,1840,1846,,,,,
85808163,1849,1843,1843,1849,,,,,
85810662,1852,1846,1846,1852,,,,,
85813161,1855,1849,1849,1855,,,,,
85815660,1858,1852,1852,1858,,,,,
85818159,1861,1855,1855,1861,,,,,
85820658,1864,1858,1858,1864,,,,,
85823157,1867,1861,1861,1867,,,,,
85825656,1870,1864,1864,1870,,,,,
85828155,1873,1867,1867,1873,,,,,
85830654,1876,1870,1870,1876,,,,,
85833986,1879,1873,1873,1879,,,,,
85836485,1882,1875,1876,1882,,,,,
85838984,1885,1878,1879,1885,,,,,
85841483,1888,1881,1881,1888,,,,,
85843982,1891,1884,1884,1891,,,,,
85846481,1894,1887,1887,1894,,,,,
85848980,1896,1890,1890,1897,,,,,
85851479,1899,1893,1893,1900,,,,,
85853978,1902,1896,1896,1903,,,,,
85856477,1902,1895,1895,1902,,,,,
85858976,1900,1894,1894,1901,,,,,
85861475,1899,1893,1893,1900,,,,,
85863974,1898,1891,1891,1899,,,,,
85866473,1897,1890,1890,1898,,,,,
85868972,1896,1889,1889,1897,,,,,
85871471,1895,1888,1888,1896,,,,,
85873970,1894,1887,1887,1895,,,,,
85876469,1893,1886,1886,1895,,,,,
85878968,1893,1886,1885,1894,,,,,
85881467,1892,1885,1885,1893,,,,,
85883966,1891,1884,1884,1892,,,,,
85886465,1891,1884,1883,1892,,,,,
85888964,1890,1883,1883,1891,,,,,
85891463,1890,1883,1882,1891,,,,,
85893962,1889,1882,1882,1891,,,,,
85896461,1889,1882,1881,1891,,,,,
85898960,1889,1882,1881,1890,,,,,
85901459,1889,1882,1881,1890,,,,,
85903958,1889,1882,1881,1890,,,,,
85906457,1889,1882,1881,1890,,,,,
85908956,1889,1882,1881,1890,,,,,
85911455,1889,1882,1881,1890,,,,,
85913954,1889,1882,1881,1890,,,,,
85916453,1889,1882,1881,1890,,,,,
85918952,1888,1882,1882,1890,,,,,
85921451,1888,1882,1882,1890,,,,,
85923950,1888,1882,1882,1890,,,,,
85926449,1888,1882,1881,1889,,,,,
85928948,1887,1882,1881,1889,,,,,
85931447,1886,1881,1880,1888,,,,,
85933946,1886,1881,1880,1887,,,,,
85936445,1885,1880,1879,1887,,,,,
85938944,1883,1879,1878,1885,,,,,
85941443,1882,1878,1877,1884,,,,,
85943942,1881,1877,1876,1883,,,,,
85946441,1879,1875,1874,1881,,,,,
85948940,1878,1874,1872,1880,,,,,
85951439,1876,1872,1871,1878,,,,,
85953938,1874,1870,1869,1876,,,,,
85956437,1872,1868,1867,1874,,,,,
85958936,1870,1866,1864,1872,,,,,
85961435,1867,1863,1862,1869,,,,,
85963934,1865,1861,1860,1867,,,,,
85966433,1862,1859,1857,1865,,,,,
85968932,1860,1856,1855,1862,,,,,
85971431,1857,1854,1852,1859,,,,,
85973930,1854,1851,1849,1857,,,,,
85976429,1851,1848,1847,1854,,,,,
85978928,1849,1845,1844,1851,,,,,
85981427,1846,1842,1841,1848,,,,,
85983926,1842,1839,1838,1845,,,,,
85986425,1839,1836,1835,1842,,,,,
85988924,1836,1833,1832,1839,,,,,
85991423,1833,1830,1829,1836,,,,,
85993922,1830,1827,1825,1832,,,,,
85996421,1826,1824,1822,1829,,,,,
85998920,1823,1821,1819,1826,,,,,
86001419,1820,1817,1816,1822,,,,,
86003918,1816,1814,1812,1819,,,,,
86006417,1813,1811,1809,1816,,,,,
86008916,1809,1807,1806,1812,,,,,
86011415,1806,1804,1802,1809,,,,,
86013914,1803,1801,1799,1805,,,,,
86016413,1799,1797,1795,1802,,,,,
86018912,1796,1794,1792,1798,,,,,
86021411,1792,1790,1789,1795,,,,,
86023910,1789,1787,1785,1791,,,,,
86026409,1785,1783,1782,1788,,,,,
86028908,1782,1780,1779,1784,,,,,
86031407,1778,1777,1775,1781,,,,,
86033906,1775,1773,1772,1777,,,,,
86036405,1771,1770,1768,1774,,,,,
86038904,1768,1766,1765,1770,,,,,
86041403,1764,1763,1761,1767,,,,,
86043902,1761,1760,1758,1763,,,,,
86046401,1757,1756,1755,1760,,,,,
86048900,1754,1753,1751,1756,,,,,
86051399,1750,1750,1748,1753,,,,,
86053898,1747,1746,1745,1750,,,,,
86056397,1744,1743,1741,1746,,,,,
86058896,1740,1740,1738,1743,,,,,
86061395,1737,1737,1735,1740,,,,,
86063894,1734,1733,1732,1736,,,,,
86066393,1731,1730,1729,1733,,,,,
