timestamp,TimeUS,C1,C2,C3,C4,C5,C6,C7,C8,C9,C10,C11,C12,C13,C14
1684141708.00000000,49028714,1000,1000,1000,1000,0,0,0,0,0,0,0,0,0,0
1684141708.09996009,49128674,1000,1000,1000,1000,0,0,0,0,0,0,0,0,0,0
1684141708.19992018,49228634,1000,1000,1000,1000,0,0,0,0,0,0,0,0,0,0
1684141708.29988003,49328594,1000,1000,1000,1000,0,0,0,0,0,0,0,0,0,0
1684141708.39984012,49428554,1000,1000,1000,1000,0,0,0,0,0,0,0,0,0,0
1684141708.49979997,49528514,1000,1000,1000,1000,0,0,0,0,0,0,0,0,0,0
1684141708.59976006,49628474,1000,1000,1000,1000,0,0,0,0,0,0,0,0,0,0
1684141708.69972014,49728434,1000,1000,1000,1000,0,0,0,0,0,0,0,0,0,0
1684141708.79967999,49828394,1000,1000,1000,1000,0,0,0,0,0,0,0,0,0,0
1684141708.89964008,49928354,1000,1000,1000,1000,0,0,0,0,0,0,0,0,0,0
1684141708.99960017,50028314,1000,1000,1000,1000,0,0,0,0,0,0,0,0,0,0
1684141709.09956002,50128274,1000,1000,1000,1000,0,0,0,0,0,0,0,0,0,0
1684141709.19952011,50228234,1000,1000,1000,1000,0,0,0,0,0,0,0,0,0,0
1684141709.29947996,50328194,1000,1000,1000,1000,0,0,0,0,0,0,0,0,0,0
1684141709.39944005,50428154,1000,1000,1000,1000,0,0,0,0,0,0,0,0,0,0
1684141709.50023317,50528947,1000,1000,1000,1000,0,0,0,0,0,0,0,0,0,0
1684141709.60019302,50628907,1000,1000,1000,1000,0,0,0,0,0,0,0,0,0,0
1684141709.70015311,50728867,1000,1000,1000,1000,0,0,0,0,0,0,0,0,0,0
1684141709.80011296,50828827,1000,1000,1000,1000,0,0,0,0,0,0,0,0,0,0
1684141709.90007305,50928787,1000,1000,1000,1000,0,0,0,0,0,0,0,0,0,0
1684141710.00003314,51028747,1003,1003,1003,1003,0,0,0,0,0,0,0,0,0,0
1684141710.09999299,51128707,1033,1033,1033,1033,0,0,0,0,0,0,0,0,0,0
1684141710.19995308,51228667,1063,1063,1063,1063,0,0,0,0,0,0,0,0,0,0
1684141710.29991317,51328627,1093,1093,1093,1093,0,0,0,0,0,0,0,0,0,0
1684141710.39987302,51428587,1123,1123,1123,1123,0,0,0,0,0,0,0,0,0,0
1684141710.49983311,51528547,1185,1177,1178,1186,0,0,0,0,0,0,0,0,0,0
1684141710.59979296,51628507,1424,1419,1419,1425,0,0,0,0,0,0,0,0,0,0
1684141710.69975305,51728467,1599,1594,1594,1599,0,0,0,0,0,0,0,0,0,0
1684141710.79971313,51828427,1743,1739,1739,1743,0,0,0,0,0,0,0,0,0,0
1684141710.89967299,51928387,1869,1864,1865,1869,0,0,0,0,0,0,0,0,0,0
1684141710.99963307,52028347,1889,1886,1886,1889,0,0,0,0,0,0,0,0,0,0
1684141711.09959316,52128307,1798,1797,1797,1799,0,0,0,0,0,0,0,0,0,0
1684141711.19955301,52228267,1685,1685,1686,1685,0,0,0,0,0,0,0,0,0,0
1684141711.29951310,52328227,1637,1639,1639,1637,0,0,0,0,0,0,0,0,0,0
1684141711.39947295,52428187,1636,1638,1638,1636,0,0,0,0,0,0,0,0,0,0
1684141711.50026608,52528980,1639,1640,1634,1645,0,0,0,0,0,0,0,0,0,0
1684141711.60022616,52628940,1639,1641,1633,1648,0,0,0,0,0,0,0,0,0,0
1684141711.70018601,52728900,1633,1635,1630,1638,0,0,0,0,0,0,0,0,0,0
1684141711.80014610,52828860,1626,1627,1628,1626,0,0,0,0,0,0,0,0,0,0
1684141711.90010595,52928820,1624,1623,1627,1620,0,0,0,0,0,0,0,0,0,0
1684141712.00006604,53028780,1624,1622,1628,1619,0,0,0,0,0,0,0,0,0,0
1684141712.10002613,53128740,1619,1618,1623,1614,0,0,0,0,0,0,0,0,0,0
1684141712.19998598,53228700,1590,1590,1603,1576,0,0,0,0,0,0,0,0,0,0
1684141712.29994607,53328660,1576,1576,1585,1567,0,0,0,0,0,0,0,0,0,0
1684141712.39990616,53428620,1566,1566,1566,1566,0,0,0,0,0,0,0,0,0,0
1684141712.49986601,53528580,1556,1556,1550,1562,0,0,0,0,0,0,0,0,0,0
1684141712.59982610,53628540,1548,1548,1539,1556,0,0,0,0,0,0,0,0,0,0
1684141712.69978595,53728500,1542,1542,1532,1552,0,0,0,0,0,0,0,0,0,0
1684141712.79974604,53828460,1537,1537,1529,1544,0,0,0,0,0,0,0,0,0,0
1684141712.89970613,53928420,1532,1532,1529,1535,0,0,0,0,0,0,0,0,0,0
1684141712.99966598,54028380,1527,1527,1527,1526,0,0,0,0,0,0,0,0,0,0
1684141713.09962606,54128340,1527,1526,1528,1524,0,0,0,0,0,0,0,0,0,0
1684141713.19958615,54228300,1528,1529,1531,1526,0,0,0,0,0,0,0,0,0,0
1684141713.29954600,54328260,1531,1531,1533,1529,0,0,0,0,0,0,0,0,0,0
1684141713.39950609,54428220,1534,1534,1536,1532,0,0,0,0,0,0,0,0,0,0
1684141713.49946594,54528180,1537,1537,1539,1536,0,0,0,0,0,0,0,0,0,0
1684141713.60025907,54628973,1541,1541,1542,1540,0,0,0,0,0,0,0,0,0,0
1684141713.70021915,54728933,1545,1545,1546,1545,0,0,0,0,0,0,0,0,0,0
1684141713.80017900,54828893,1548,1548,1548,1548,0,0,0,0,0,0,0,0,0,0
1684141713.90013909,54928853,1550,1550,1551,1551,0,0,0,0,0,0,0,0,0,0
1684141714.00009894,55028813,1553,1553,1553,1554,0,0,0,0,0,0,0,0,0,0
1684141714.10005903,55128773,1555,1555,1554,1557,0,0,0,0,0,0,0,0,0,0
1684141714.20001912,55228733,1557,1557,1559,1562,0,0,0,0,0,0,0,0,0,0
1684141714.29997897,55328693,1558,1558,1561,1563,0,0,0,0,0,0,0,0,0,0
1684141714.39993906,55428653,1560,1559,1564,1564,0,0,0,0,0,0,0,0,0,0
1684141714.49989915,55528613,1561,1560,1565,1564,0,0,0,0,0,0,0,0,0,0
1684141714.59985900,55628573,1563,1563,1566,1566,0,0,0,0,0,0,0,0,0,0
1684141714.69981909,55728533,1565,1566,1567,1567,0,0,0,0,0,0,0,0,0,0
1684141714.79977918,55828493,1566,1567,1567,1566,0,0,0,0,0,0,0,0,0,0
1684141714.89973903,55928453,1569,1569,1568,1568,0,0,0,0,0,0,0,0,0,0
1684141714.99969912,56028413,1569,1569,1568,1567,0,0,0,0,0,0,0,0,0,0
1684141715.09965897,56128373,1572,1571,1569,1569,0,0,0,0,0,0,0,0,0,0
1684141715.19961905,56228333,1572,1572,1570,1569,0,0,0,0,0,0,0,0,0,0
1684141715.29957914,56328293,1573,1573,1570,1570,0,0,0,0,0,0,0,0,0,0
1684141715.39953899,56428253,1574,1574,1571,1571,0,0,0,0,0,0,0,0,0,0
1684141715.49949908,56528213,1575,1575,1573,1573,0,0,0,0,0,0,0,0,0,0
1684141715.59945917,56628173,1575,1575,1574,1573,0,0,0,0,0,0,0,0,0,0
1684141715.70025206,56728966,1576,1576,1576,1575,0,0,0,0,0,0,0,0,0,0
1684141715.80021214,56828926,1575,1575,1575,1575,0,0,0,0,0,0,0,0,0,0
1684141715.90017200,56928886,1576,1575,1576,1575,0,0,0,0,0,0,0,0,0,0
1684141716.00013208,57028846,1576,1576,1577,1576,0,0,0,0,0,0,0,0,0,0
1684141716.10009217,57128806,1575,1575,1576,1576,0,0,0,0,0,0,0,0,0,0
1684141716.20005202,57228766,1575,1575,1576,1576,0,0,0,0,0,0,0,0,0,0
1684141716.30001211,57328726,1577,1577,1577,1578,0,0,0,0,0,0,0,0,0,0
1684141716.39997196,57428686,1576,1576,1577,1577,0,0,0,0,0,0,0,0,0,0
1684141716.49993205,57528646,1577,1576,1577,1577,0,0,0,0,0,0,0,0,0,0
1684141716.59989214,57628606,1577,1577,1577,1577,0,0,0,0,0,0,0,0,0,0
1684141716.69985199,57728566,1579,1578,1578,1578,0,0,0,0,0,0,0,0,0,0
1684141716.79981208,57828526,1578,1577,1578,1577,0,0,0,0,0,0,0,0,0,0
1684141716.89977217,57928486,1578,1578,1578,1578,0,0,0,0,0,0,0,0,0,0
1684141716.99973202,58028446,1578,1578,1578,1578,0,0,0,0,0,0,0,0,0,0
1684141717.09969211,58128406,1579,1579,1579,1578,0,0,0,0,0,0,0,0,0,0
1684141717.19965196,58228366,1578,1578,1578,1578,0,0,0,0,0,0,0,0,0,0
1684141717.29961205,58328326,1578,1578,1578,1578,0,0,0,0,0,0,0,0,0,0
1684141717.39957213,58428286,1578,1578,1578,1579,0,0,0,0,0,0,0,0,0,0
1684141717.49953198,58528246,1579,1578,1579,1578,0,0,0,0,0,0,0,0,0,0
1684141717.59949207,58628206,1580,1579,1580,1580,0,0,0,0,0,0,0,0,0,0
1684141717.69945216,58728166,1579,1579,1579,1579,0,0,0,0,0,0,0,0,0,0
1684141717.80024505,58828959,1579,1579,1579,1579,0,0,0,0,0,0,0,0,0,0
1684141717.90020514,58928919,1579,1579,1579,1579,0,0,0,0,0,0,0,0,0,0
1684141718.00016499,59028879,1579,1580,1579,1580,0,0,0,0,0,0,0,0,0,0
1684141718.10012507,59128839,1578,1578,1578,1579,0,0,0,0,0,0,0,0,0,0
1684141718.20008516,59228799,1579,1579,1579,1579,0,0,0,0,0,0,0,0,0,0
1684141718.30004501,59328759,1579,1579,1579,1579,0,0,0,0,0,0,0,0,0,0
1684141718.40000510,59428719,1580,1579,1579,1579,0,0,0,0,0,0,0,0,0,0
1684141718.49996495,59528679,1580,1580,1580,1580,0,0,0,0,0,0,0,0,0,0
1684141718.59992504,59628639,1580,1579,1580,1579,0,0,0,0,0,0,0,0,0,0
1684141718.69988513,59728599,1580,1580,1580,1580,0,0,0,0,0,0,0,0,0,0
1684141718.79984498,59828559,1580,1580,1580,1580,0,0,0,0,0,0,0,0,0,0
1684141718.89980507,59928519,1579,1579,1579,1579,0,0,0,0,0,0,0,0,0,0
1684141718.99976516,60028479,1579,1579,1579,1580,0,0,0,0,0,0,0,0,0,0
1684141719.09972501,60128439,1580,1580,1580,1580,0,0,0,0,0,0,0,0,0,0
1684141719.19968510,60228399,1580,1580,1580,1580,0,0,0,0,0,0,0,0,0,0
1684141719.29964495,60328359,1580,1579,1580,1580,0,0,0,0,0,0,0,0,0,0
1684141719.39960504,60428319,1580,1580,1580,1580,0,0,0,0,0,0,0,0,0,0
1684141719.49956512,60528279,1580,1581,1581,1581,0,0,0,0,0,0,0,0,0,0
1684141719.59952497,60628239,1581,1581,1581,1581,0,0,0,0,0,0,0,0,0,0
1684141719.69948506,60728199,1581,1580,1581,1580,0,0,0,0,0,0,0,0,0,0
1684141719.79944515,60828159,1581,1581,1581,1580,0,0,0,0,0,0,0,0,0,0
1684141719.90023804,60928952,1581,1581,1580,1581,0,0,0,0,0,0,0,0,0,0
1684141720.00019813,61028912,1581,1580,1580,1581,0,0,0,0,0,0,0,0,0,0
1684141720.10015798,61128872,1580,1580,1580,1580,0,0,0,0,0,0,0,0,0,0
1684141720.20011806,61228832,1580,1580,1580,1580,0,0,0,0,0,0,0,0,0,0
1684141720.30007815,61328792,1580,1581,1584,1577,0,0,0,0,0,0,0,0,0,0
1684141720.40003800,61428752,1580,1582,1588,1573,0,0,0,0,0,0,0,0,0,0
1684141720.49999809,61528712,1579,1581,1581,1573,0,0,0,0,0,0,0,0,0,0
1684141720.59995794,61628672,1579,1582,1574,1574,0,0,0,0,0,0,0,0,0,0
1684141720.69991803,61728632,1577,1580,1565,1571,0,0,0,0,0,0,0,0,0,0
1684141720.79987812,61828592,1578,1579,1559,1567,0,0,0,0,0,0,0,0,0,0
1684141720.89983797,61928552,1578,1578,1556,1562,0,0,0,0,0,0,0,0,0,0
1684141720.99979806,62028512,1578,1577,1555,1557,0,0,0,0,0,0,0,0,0,0
1684141721.09975815,62128472,1580,1579,1556,1556,0,0,0,0,0,0,0,0,0,0
1684141721.19971800,62228432,1578,1577,1555,1553,0,0,0,0,0,0,0,0,0,0
1684141721.29967809,62328392,1578,1577,1556,1553,0,0,0,0,0,0,0,0,0,0
1684141721.39963818,62428352,1577,1577,1556,1554,0,0,0,0,0,0,0,0,0,0
1684141721.49959803,62528312,1575,1576,1554,1554,0,0,0,0,0,0,0,0,0,0
1684141721.59955812,62628272,1574,1576,1553,1553,0,0,0,0,0,0,0,0,0,0
1684141721.69951797,62728232,1575,1576,1552,1553,0,0,0,0,0,0,0,0,0,0
1684141721.79947805,62828192,1575,1577,1550,1550,0,0,0,0,0,0,0,0,0,0
1684141721.90027118,62928985,1577,1579,1549,1549,0,0,0,0,0,0,0,0,0,0
1684141722.00023103,63028945,1579,1579,1546,1546,0,0,0,0,0,0,0,0,0,0
1684141722.10019112,63128905,1582,1583,1544,1544,0,0,0,0,0,0,0,0,0,0
1684141722.20015097,63228865,1585,1586,1542,1542,0,0,0,0,0,0,0,0,0,0
1684141722.30011106,63328825,1588,1589,1539,1539,0,0,0,0,0,0,0,0,0,0
1684141722.40007114,63428785,1591,1592,1537,1536,0,0,0,0,0,0,0,0,0,0
1684141722.50003099,63528745,1594,1594,1535,1536,0,0,0,0,0,0,0,0,0,0
1684141722.59999108,63628705,1595,1595,1534,1535,0,0,0,0,0,0,0,0,0,0
1684141722.69995117,63728665,1596,1595,1536,1537,0,0,0,0,0,0,0,0,0,0
1684141722.79991102,63828625,1594,1594,1537,1540,0,0,0,0,0,0,0,0,0,0
1684141722.89987111,63928585,1592,1591,1541,1545,0,0,0,0,0,0,0,0,0,0
1684141722.99983096,64028545,1588,1586,1548,1551,0,0,0,0,0,0,0,0,0,0
1684141723.09979105,64128505,1580,1577,1557,1560,0,0,0,0,0,0,0,0,0,0
1684141723.19975114,64228465,1571,1568,1568,1570,0,0,0,0,0,0,0,0,0,0
1684141723.29971099,64328425,1561,1557,1581,1582,0,0,0,0,0,0,0,0,0,0
1684141723.39967108,64428385,1549,1546,1592,1593,0,0,0,0,0,0,0,0,0,0
1684141723.49963117,64528345,1540,1538,1604,1603,0,0,0,0,0,0,0,0,0,0
1684141723.59959102,64628305,1532,1532,1611,1610,0,0,0,0,0,0,0,0,0,0
1684141723.69955111,64728265,1529,1530,1615,1614,0,0,0,0,0,0,0,0,0,0
1684141723.79951096,64828225,1529,1531,1615,1614,0,0,0,0,0,0,0,0,0,0
1684141723.89947104,64928185,1533,1536,1612,1612,0,0,0,0,0,0,0,0,0,0
1684141724.00026417,65028978,1539,1542,1607,1607,0,0,0,0,0,0,0,0,0,0
1684141724.10022402,65128938,1549,1550,1600,1601,0,0,0,0,0,0,0,0,0,0
1684141724.20018411,65228898,1558,1558,1593,1593,0,0,0,0,0,0,0,0,0,0
1684141724.30014396,65328858,1566,1566,1585,1584,0,0,0,0,0,0,0,0,0,0
1684141724.40010405,65428818,1574,1574,1579,1578,0,0,0,0,0,0,0,0,0,0
1684141724.50006413,65528778,1581,1580,1573,1572,0,0,0,0,0,0,0,0,0,0
1684141724.60002398,65628738,1585,1583,1569,1568,0,0,0,0,0,0,0,0,0,0
1684141724.69998407,65728698,1587,1586,1566,1566,0,0,0,0,0,0,0,0,0,0
1684141724.79994416,65828658,1589,1587,1567,1567,0,0,0,0,0,0,0,0,0,0
1684141724.89990401,65928618,1588,1587,1568,1568,0,0,0,0,0,0,0,0,0,0
1684141724.99986410,66028578,1412,1413,1602,1606,0,0,0,0,0,0,0,0,0,0
1684141725.09982395,66128538,1464,1469,1618,1623,0,0,0,0,0,0,0,0,0,0
1684141725.19978404,66228498,1507,1513,1614,1613,0,0,0,0,0,0,0,0,0,0
1684141725.29974413,66328458,1545,1550,1605,1600,0,0,0,0,0,0,0,0,0,0
1684141725.39970398,66428418,1574,1577,1597,1591,0,0,0,0,0,0,0,0,0,0
1684141725.49966407,66528378,1596,1594,1590,1586,0,0,0,0,0,0,0,0,0,0
1684141725.59962416,66628338,1610,1605,1584,1584,0,0,0,0,0,0,0,0,0,0
1684141725.69958401,66728298,1619,1612,1580,1582,0,0,0,0,0,0,0,0,0,0
1684141725.79954410,66828258,1629,1623,1570,1574,0,0,0,0,0,0,0,0,0,0
1684141725.89950395,66928218,1641,1638,1553,1558,0,0,0,0,0,0,0,0,0,0
1684141725.99946404,67028178,1647,1646,1540,1544,0,0,0,0,0,0,0,0,0,0
1684141726.10025716,67128971,1646,1647,1537,1540,0,0,0,0,0,0,0,0,0,0
1684141726.20021701,67228931,1640,1641,1543,1544,0,0,0,0,0,0,0,0,0,0
1684141726.30017710,67328891,1629,1630,1553,1554,0,0,0,0,0,0,0,0,0,0
1684141726.40013695,67428851,1615,1614,1567,1567,0,0,0,0,0,0,0,0,0,0
1684141726.50009704,67528811,1599,1597,1583,1582,0,0,0,0,0,0,0,0,0,0
1684141726.60005713,67628771,1582,1580,1596,1595,0,0,0,0,0,0,0,0,0,0
1684141726.70001698,67728731,1570,1569,1603,1602,0,0,0,0,0,0,0,0,0,0
1684141726.79997706,67828691,1562,1564,1604,1603,0,0,0,0,0,0,0,0,0,0
1684141726.89993715,67928651,1559,1563,1602,1601,0,0,0,0,0,0,0,0,0,0
1684141726.99989700,68028611,1560,1563,1599,1598,0,0,0,0,0,0,0,0,0,0
1684141727.09985709,68128571,1562,1565,1596,1594,0,0,0,0,0,0,0,0,0,0
1684141727.19981694,68228531,1565,1567,1592,1589,0,0,0,0,0,0,0,0,0,0
1684141727.29977703,68328491,1568,1570,1588,1587,0,0,0,0,0,0,0,0,0,0
1684141727.39973712,68428451,1571,1572,1584,1583,0,0,0,0,0,0,0,0,0,0
1684141727.49969697,68528411,1575,1575,1581,1581,0,0,0,0,0,0,0,0,0,0
1684141727.59965706,68628371,1579,1578,1580,1580,0,0,0,0,0,0,0,0,0,0
1684141727.69961715,68728331,1580,1579,1576,1577,0,0,0,0,0,0,0,0,0,0
1684141727.79957700,68828291,1582,1581,1576,1576,0,0,0,0,0,0,0,0,0,0
1684141727.89953709,68928251,1583,1583,1574,1575,0,0,0,0,0,0,0,0,0,0
1684141727.99949718,69028211,1584,1584,1574,1574,0,0,0,0,0,0,0,0,0,0
1684141728.09945703,69128171,1585,1585,1574,1574,0,0,0,0,0,0,0,0,0,0
1684141728.20025015,69228964,1586,1585,1575,1574,0,0,0,0,0,0,0,0,0,0
1684141728.30021000,69328924,1586,1585,1576,1573,0,0,0,0,0,0,0,0,0,0
1684141728.40017009,69428884,1588,1584,1582,1569,0,0,0,0,0,0,0,0,0,0
1684141728.50013018,69528844,1587,1583,1576,1570,0,0,0,0,0,0,0,0,0,0
1684141728.60009003,69628804,1585,1581,1568,1569,0,0,0,0,0,0,0,0,0,0
1684141728.70005012,69728764,1581,1581,1562,1567,0,0,0,0,0,0,0,0,0,0
1684141728.80000997,69828724,1578,1581,1558,1563,0,0,0,0,0,0,0,0,0,0
1684141728.89997005,69928684,1576,1581,1557,1559,0,0,0,0,0,0,0,0,0,0
1684141728.99993014,70028644,1575,1580,1557,1556,0,0,0,0,0,0,0,0,0,0
1684141729.09988999,70128604,1575,1578,1557,1554,0,0,0,0,0,0,0,0,0,0
1684141729.19985008,70228564,1576,1577,1556,1553,0,0,0,0,0,0,0,0,0,0
1684141729.29981017,70328524,1575,1575,1555,1553,0,0,0,0,0,0,0,0,0,0
1684141729.39977002,70428484,1575,1575,1554,1553,0,0,0,0,0,0,0,0,0,0
1684141729.49973011,70528444,1575,1574,1552,1552,0,0,0,0,0,0,0,0,0,0
1684141729.59968996,70628404,1574,1574,1550,1550,0,0,0,0,0,0,0,0,0,0
1684141729.69965005,70728364,1574,1575,1549,1550,0,0,0,0,0,0,0,0,0,0
1684141729.79961014,70828324,1573,1575,1547,1548,0,0,0,0,0,0,0,0,0,0
1684141729.89956999,70928284,1575,1577,1546,1546,0,0,0,0,0,0,0,0,0,0
1684141729.99953008,71028244,1576,1578,1545,1544,0,0,0,0,0,0,0,0,0,0
1684141730.09949017,71128204,1579,1580,1543,1541,0,0,0,0,0,0,0,0,0,0
1684141730.19945002,71228164,1580,1581,1540,1539,0,0,0,0,0,0,0,0,0,0
1684141730.30024314,71328957,1584,1584,1539,1538,0,0,0,0,0,0,0,0,0,0
1684141730.40020299,71428917,1586,1586,1537,1537,0,0,0,0,0,0,0,0,0,0
1684141730.50016308,71528877,1589,1588,1536,1537,0,0,0,0,0,0,0,0,0,0
1684141730.60012317,71628837,1590,1589,1536,1537,0,0,0,0,0,0,0,0,0,0
1684141730.70008302,71728797,1591,1590,1537,1539,0,0,0,0,0,0,0,0,0,0
1684141730.80004311,71828757,1589,1589,1538,1540,0,0,0,0,0,0,0,0,0,0
1684141730.90000296,71928717,1588,1587,1542,1545,0,0,0,0,0,0,0,0,0,0
1684141730.99996305,72028677,1584,1583,1546,1550,0,0,0,0,0,0,0,0,0,0
1684141731.09992313,72128637,1579,1577,1551,1555,0,0,0,0,0,0,0,0,0,0
1684141731.19988298,72228597,1574,1573,1558,1562,0,0,0,0,0,0,0,0,0,0
1684141731.29984307,72328557,1568,1566,1565,1568,0,0,0,0,0,0,0,0,0,0
1684141731.39980316,72428517,1562,1560,1572,1575,0,0,0,0,0,0,0,0,0,0
1684141731.49976301,72528477,1556,1554,1580,1582,0,0,0,0,0,0,0,0,0,0
1684141731.59972310,72628437,1550,1549,1587,1587,0,0,0,0,0,0,0,0,0,0
1684141731.69968295,72728397,1545,1543,1593,1592,0,0,0,0,0,0,0,0,0,0
1684141731.79964304,72828357,1540,1540,1599,1598,0,0,0,0,0,0,0,0,0,0
1684141731.89960313,72928317,1537,1537,1604,1602,0,0,0,0,0,0,0,0,0,0
1684141731.99956298,73028277,1535,1536,1607,1605,0,0,0,0,0,0,0,0,0,0
1684141732.09952307,73128237,1534,1535,1607,1605,0,0,0,0,0,0,0,0,0,0
1684141732.19948316,73228197,1536,1538,1604,1604,0,0,0,0,0,0,0,0,0,0
1684141732.29944301,73328157,1541,1543,1600,1600,0,0,0,0,0,0,0,0,0,0
1684141732.40023613,73428950,1548,1549,1594,1595,0,0,0,0,0,0,0,0,0,0
1684141732.50019598,73528910,1556,1557,1588,1588,0,0,0,0,0,0,0,0,0,0
1684141732.60015607,73628870,1563,1564,1581,1581,0,0,0,0,0,0,0,0,0,0
1684141732.70011616,73728830,1571,1571,1576,1575,0,0,0,0,0,0,0,0,0,0
1684141732.80007601,73828790,1577,1576,1573,1572,0,0,0,0,0,0,0,0,0,0
1684141732.90003610,73928750,1581,1580,1571,1570,0,0,0,0,0,0,0,0,0,0
1684141732.99999595,74028710,1584,1582,1569,1569,0,0,0,0,0,0,0,0,0,0
1684141733.09995604,74128670,1585,1584,1569,1569,0,0,0,0,0,0,0,0,0,0
1684141733.19991612,74228630,1586,1585,1570,1570,0,0,0,0,0,0,0,0,0,0
1684141733.29987597,74328590,1585,1585,1570,1570,0,0,0,0,0,0,0,0,0,0
1684141733.39983606,74428550,1585,1585,1571,1572,0,0,0,0,0,0,0,0,0,0
1684141733.49979615,74528510,1584,1584,1573,1573,0,0,0,0,0,0,0,0,0,0
1684141733.59975600,74628470,1584,1584,1575,1575,0,0,0,0,0,0,0,0,0,0
1684141733.69971609,74728430,1583,1583,1577,1576,0,0,0,0,0,0,0,0,0,0
1684141733.79967594,74828390,1582,1582,1577,1577,0,0,0,0,0,0,0,0,0,0
1684141733.89963603,74928350,1581,1581,1579,1579,0,0,0,0,0,0,0,0,0,0
1684141733.99959612,75028310,1580,1580,1580,1580,0,0,0,0,0,0,0,0,0,0
1684141734.09955597,75128270,1579,1579,1580,1580,0,0,0,0,0,0,0,0,0,0
1684141734.19951606,75228230,1578,1578,1580,1580,0,0,0,0,0,0,0,0,0,0
1684141734.29947615,75328190,1577,1577,1580,1580,0,0,0,0,0,0,0,0,0,0
1684141734.40026903,75428983,1576,1576,1579,1579,0,0,0,0,0,0,0,0,0,0
1684141734.50022912,75528943,1576,1577,1580,1580,0,0,0,0,0,0,0,0,0,0
1684141734.60018897,75628903,1576,1577,1580,1580,0,0,0,0,0,0,0,0,0,0
1684141734.70014906,75728863,1577,1577,1580,1581,0,0,0,0,0,0,0,0,0,0
1684141734.80010915,75828823,1578,1578,1581,1581,0,0,0,0,0,0,0,0,0,0
1684141734.90006900,75928783,1578,1578,1581,1581,0,0,0,0,0,0,0,0,0,0
1684141735.00002909,76028743,1578,1578,1579,1579,0,0,0,0,0,0,0,0,0,0
1684141735.09998918,76128703,1578,1578,1579,1579,0,0,0,0,0,0,0,0,0,0
1684141735.19994903,76228663,1580,1579,1580,1580,0,0,0,0,0,0,0,0,0,0
1684141735.29990911,76328623,1581,1580,1580,1580,0,0,0,0,0,0,0,0,0,0
1684141735.39986897,76428583,1580,1580,1579,1579,0,0,0,0,0,0,0,0,0,0
1684141735.49982905,76528543,1580,1580,1578,1579,0,0,0,0,0,0,0,0,0,0
1684141735.59978914,76628503,1581,1581,1579,1579,0,0,0,0,0,0,0,0,0,0
1684141735.69974899,76728463,1581,1581,1579,1579,0,0,0,0,0,0,0,0,0,0
1684141735.79970908,76828423,1581,1581,1580,1579,0,0,0,0,0,0,0,0,0,0
1684141735.89966917,76928383,1582,1582,1580,1580,0,0,0,0,0,0,0,0,0,0
1684141735.99962902,77028343,1582,1581,1580,1579,0,0,0,0,0,0,0,0,0,0
1684141736.09958911,77128303,1582,1582,1581,1581,0,0,0,0,0,0,0,0,0,0
1684141736.19954896,77228263,1581,1581,1580,1581,0,0,0,0,0,0,0,0,0,0
1684141736.29950905,77328223,1581,1581,1580,1580,0,0,0,0,0,0,0,0,0,0
1684141736.39946914,77428183,1581,1581,1580,1581,0,0,0,0,0,0,0,0,0,0
1684141736.50026202,77528976,1581,1581,1581,1581,0,0,0,0,0,0,0,0,0,0
1684141736.60022211,77628936,1581,1581,1581,1581,0,0,0,0,0,0,0,0,0,0
1684141736.70018196,77728896,1580,1581,1581,1581,0,0,0,0,0,0,0,0,0,0
1684141736.80014205,77828856,1580,1581,1581,1581,0,0,0,0,0,0,0,0,0,0
1684141736.90010214,77928816,1581,1581,1581,1581,0,0,0,0,0,0,0,0,0,0
1684141737.00006199,78028776,1580,1581,1581,1581,0,0,0,0,0,0,0,0,0,0
1684141737.10002208,78128736,1581,1581,1585,1578,0,0,0,0,0,0,0,0,0,0
1684141737.19998217,78228696,1581,1581,1588,1573,0,0,0,0,0,0,0,0,0,0
1684141737.29994202,78328656,1580,1581,1581,1573,0,0,0,0,0,0,0,0,0,0
1684141737.39990211,78428616,1578,1580,1572,1573,0,0,0,0,0,0,0,0,0,0
1684141737.49986196,78528576,1577,1579,1565,1569,0,0,0,0,0,0,0,0,0,0
1684141737.59982204,78628536,1576,1579,1559,1565,0,0,0,0,0,0,0,0,0,0
1684141737.69978213,78728496,1577,1578,1556,1561,0,0,0,0,0,0,0,0,0,0
1684141737.79974198,78828456,1578,1578,1556,1558,0,0,0,0,0,0,0,0,0,0
1684141737.89970207,78928416,1579,1578,1556,1556,0,0,0,0,0,0,0,0,0,0
1684141737.99966216,79028376,1579,1578,1557,1555,0,0,0,0,0,0,0,0,0,0
1684141738.09962201,79128336,1579,1577,1557,1555,0,0,0,0,0,0,0,0,0,0
1684141738.19958210,79228296,1577,1577,1556,1555,0,0,0,0,0,0,0,0,0,0
1684141738.29954195,79328256,1577,1578,1556,1555,0,0,0,0,0,0,0,0,0,0
1684141738.39950204,79428216,1577,1578,1555,1554,0,0,0,0,0,0,0,0,0,0
1684141738.49946213,79528176,1576,1577,1553,1552,0,0,0,0,0,0,0,0,0,0
1684141738.60025501,79628969,1576,1577,1551,1551,0,0,0,0,0,0,0,0,0,0
1684141738.70021510,79728929,1576,1577,1549,1549,0,0,0,0,0,0,0,0,0,0
1684141738.80017495,79828889,1578,1579,1547,1547,0,0,0,0,0,0,0,0,0,0
1684141738.90013504,79928849,1579,1580,1545,1545,0,0,0,0,0,0,0,0,0,0
1684141739.00009513,80028809,1582,1583,1544,1543,0,0,0,0,0,0,0,0,0,0
1684141739.10005498,80128769,1585,1585,1542,1542,0,0,0,0,0,0,0,0,0,0
1684141739.20001507,80228729,1586,1587,1539,1539,0,0,0,0,0,0,0,0,0,0
1684141739.29997516,80328689,1588,1588,1539,1538,0,0,0,0,0,0,0,0,0,0
1684141739.39993501,80428649,1590,1590,1539,1539,0,0,0,0,0,0,0,0,0,0
1684141739.49989510,80528609,1591,1590,1539,1540,0,0,0,0,0,0,0,0,0,0
1684141739.59985495,80628569,1590,1590,1540,1542,0,0,0,0,0,0,0,0,0,0
1684141739.69981503,80728529,1589,1589,1542,1545,0,0,0,0,0,0,0,0,0,0
1684141739.79977512,80828489,1587,1587,1546,1549,0,0,0,0,0,0,0,0,0,0
1684141739.89973497,80928449,1583,1582,1553,1555,0,0,0,0,0,0,0,0,0,0
1684141739.99969506,81028409,1578,1575,1561,1563,0,0,0,0,0,0,0,0,0,0
1684141740.09965515,81128369,1571,1567,1571,1573,0,0,0,0,0,0,0,0,0,0
1684141740.19961500,81228329,1561,1557,1582,1583,0,0,0,0,0,0,0,0,0,0
1684141740.29957509,81328289,1551,1548,1593,1593,0,0,0,0,0,0,0,0,0,0
1684141740.39953494,81428249,1542,1540,1601,1601,0,0,0,0,0,0,0,0,0,0
1684141740.49949503,81528209,1536,1536,1609,1608,0,0,0,0,0,0,0,0,0,0
1684141740.59945512,81628169,1532,1533,1611,1611,0,0,0,0,0,0,0,0,0,0
1684141740.70024800,81728962,1531,1533,1611,1610,0,0,0,0,0,0,0,0,0,0
1684141740.80020809,81828922,1534,1536,1609,1608,0,0,0,0,0,0,0,0,0,0
1684141740.90016794,81928882,1539,1542,1604,1604,0,0,0,0,0,0,0,0,0,0
1684141741.00012803,82028842,1546,1548,1598,1598,0,0,0,0,0,0,0,0,0,0
1684141741.10008812,82128802,1554,1555,1591,1591,0,0,0,0,0,0,0,0,0,0
1684141741.20004797,82228762,1563,1563,1585,1584,0,0,0,0,0,0,0,0,0,0
1684141741.30000806,82328722,1572,1571,1580,1578,0,0,0,0,0,0,0,0,0,0
1684141741.39996815,82428682,1577,1577,1574,1573,0,0,0,0,0,0,0,0,0,0
1684141741.49992800,82528642,1583,1581,1569,1569,0,0,0,0,0,0,0,0,0,0
1684141741.59988809,82628602,1586,1585,1566,1567,0,0,0,0,0,0,0,0,0,0
1684141741.69984818,82728562,1588,1586,1565,1566,0,0,0,0,0,0,0,0,0,0
1684141741.79980803,82828522,1588,1586,1565,1565,0,0,0,0,0,0,0,0,0,0
1684141741.89976811,82928482,1587,1586,1567,1568,0,0,0,0,0,0,0,0,0,0
1684141741.99972796,83028442,1586,1585,1570,1570,0,0,0,0,0,0,0,0,0,0
1684141742.09968805,83128402,1584,1584,1573,1573,0,0,0,0,0,0,0,0,0,0
1684141742.19964814,83228362,1581,1581,1577,1576,0,0,0,0,0,0,0,0,0,0
1684141742.29960799,83328322,1578,1579,1578,1579,0,0,0,0,0,0,0,0,0,0
1684141742.39956808,83428282,1576,1577,1581,1581,0,0,0,0,0,0,0,0,0,0
1684141742.49952817,83528242,1575,1576,1584,1584,0,0,0,0,0,0,0,0,0,0
1684141742.59948802,83628202,1574,1574,1584,1584,0,0,0,0,0,0,0,0,0,0
1684141742.69944811,83728162,1574,1574,1585,1585,0,0,0,0,0,0,0,0,0,0
1684141742.80024099,83828955,1574,1575,1585,1585,0,0,0,0,0,0,0,0,0,0
1684141742.90020108,83928915,1575,1576,1585,1585,0,0,0,0,0,0,0,0,0,0
1684141743.00016117,84028875,1576,1576,1583,1584,0,0,0,0,0,0,0,0,0,0
1684141743.10012102,84128835,1577,1577,1582,1582,0,0,0,0,0,0,0,0,0,0
1684141743.20008111,84228795,1578,1578,1580,1581,0,0,0,0,0,0,0,0,0,0
1684141743.30004096,84328755,1580,1579,1580,1580,0,0,0,0,0,0,0,0,0,0
1684141743.40000105,84428715,1580,1580,1579,1579,0,0,0,0,0,0,0,0,0,0
1684141743.49996114,84528675,1582,1581,1578,1578,0,0,0,0,0,0,0,0,0,0
1684141743.59992099,84628635,1581,1581,1577,1577,0,0,0,0,0,0,0,0,0,0
1684141743.69988108,84728595,1582,1582,1577,1578,0,0,0,0,0,0,0,0,0,0
1684141743.79984117,84828555,1582,1582,1577,1577,0,0,0,0,0,0,0,0,0,0
1684141743.89980102,84928515,1583,1582,1579,1578,0,0,0,0,0,0,0,0,0,0
1684141743.99976110,85028475,1582,1582,1579,1579,0,0,0,0,0,0,0,0,0,0
1684141744.09972095,85128435,1582,1581,1579,1579,0,0,0,0,0,0,0,0,0,0
1684141744.19968104,85228395,1581,1581,1579,1579,0,0,0,0,0,0,0,0,0,0
1684141744.29964113,85328355,1581,1582,1581,1582,0,0,0,0,0,0,0,0,0,0
1684141744.39960098,85428315,1580,1581,1581,1581,0,0,0,0,0,0,0,0,0,0
1684141744.49956107,85528275,1580,1581,1582,1582,0,0,0,0,0,0,0,0,0,0
1684141744.59952116,85628235,1580,1580,1582,1581,0,0,0,0,0,0,0,0,0,0
1684141744.69948101,85728195,1580,1580,1582,1581,0,0,0,0,0,0,0,0,0,0
1684141744.79944110,85828155,1580,1580,1581,1581,0,0,0,0,0,0,0,0,0,0
1684141744.90023398,85928948,1580,1580,1581,1582,0,0,0,0,0,0,0,0,0,0
1684141745.00019407,86028908,1580,1580,1581,1581,0,0,0,0,0,0,0,0,0,0
1684141745.10015416,86128868,1580,1580,1581,1581,0,0,0,0,0,0,0,0,0,0
1684141745.20011401,86228828,1579,1580,1583,1576,0,0,0,0,0,0,0,0,0,0
1684141745.30007410,86328788,1580,1581,1587,1572,0,0,0,0,0,0,0,0,0,0
1684141745.40003395,86428748,1579,1579,1582,1573,0,0,0,0,0,0,0,0,0,0
1684141745.49999404,86528708,1577,1576,1574,1575,0,0,0,0,0,0,0,0,0,0
1684141745.59995413,86628668,1574,1573,1568,1574,0,0,0,0,0,0,0,0,0,0
1684141745.69991398,86728628,1572,1571,1565,1572,0,0,0,0,0,0,0,0,0,0
1684141745.79987407,86828588,1569,1570,1565,1570,0,0,0,0,0,0,0,0,0,0
1684141745.89983416,86928548,1567,1568,1564,1567,0,0,0,0,0,0,0,0,0,0
1684141745.99979401,87028508,1566,1567,1566,1565,0,0,0,0,0,0,0,0,0,0
1684141746.09975410,87128468,1566,1566,1567,1566,0,0,0,0,0,0,0,0,0,0
1684141746.19971395,87228428,1566,1566,1568,1565,0,0,0,0,0,0,0,0,0,0
1684141746.29967403,87328388,1564,1565,1567,1565,0,0,0,0,0,0,0,0,0,0
1684141746.39963412,87428348,1564,1564,1567,1565,0,0,0,0,0,0,0,0,0,0
1684141746.49959397,87528308,1563,1563,1565,1564,0,0,0,0,0,0,0,0,0,0
1684141746.59955406,87628268,1562,1562,1564,1564,0,0,0,0,0,0,0,0,0,0
1684141746.69951415,87728228,1562,1562,1563,1564,0,0,0,0,0,0,0,0,0,0
1684141746.79947400,87828188,1561,1561,1562,1562,0,0,0,0,0,0,0,0,0,0
1684141746.90026712,87928981,1561,1561,1562,1562,0,0,0,0,0,0,0,0,0,0
1684141747.00022697,88028941,1561,1561,1562,1561,0,0,0,0,0,0,0,0,0,0
1684141747.10018706,88128901,1561,1561,1561,1560,0,0,0,0,0,0,0,0,0,0
1684141747.20014715,88228861,1560,1560,1560,1559,0,0,0,0,0,0,0,0,0,0
1684141747.30010700,88328821,1561,1560,1560,1560,0,0,0,0,0,0,0,0,0,0
1684141747.40006709,88428781,1559,1559,1559,1558,0,0,0,0,0,0,0,0,0,0
1684141747.50002694,88528741,1558,1558,1558,1557,0,0,0,0,0,0,0,0,0,0
1684141747.59998703,88628701,1559,1559,1559,1558,0,0,0,0,0,0,0,0,0,0
1684141747.69994712,88728661,1559,1559,1559,1557,0,0,0,0,0,0,0,0,0,0
1684141747.79990697,88828621,1559,1559,1560,1558,0,0,0,0,0,0,0,0,0,0
1684141747.89986706,88928581,1559,1559,1560,1558,0,0,0,0,0,0,0,0,0,0
1684141747.99982715,89028541,1559,1558,1560,1558,0,0,0,0,0,0,0,0,0,0
1684141748.09978700,89128501,1560,1559,1559,1561,0,0,0,0,0,0,0,0,0,0
1684141748.19974709,89228461,1560,1560,1559,1563,0,0,0,0,0,0,0,0,0,0
1684141748.29970717,89328421,1560,1560,1557,1564,0,0,0,0,0,0,0,0,0,0
1684141748.39966702,89428381,1560,1561,1559,1564,0,0,0,0,0,0,0,0,0,0
1684141748.49962711,89528341,1560,1561,1559,1563,0,0,0,0,0,0,0,0,0,0
1684141748.59958696,89628301,1560,1561,1561,1560,0,0,0,0,0,0,0,0,0,0
1684141748.69954705,89728261,1559,1559,1560,1557,0,0,0,0,0,0,0,0,0,0
1684141748.79950714,89828221,1559,1559,1558,1559,0,0,0,0,0,0,0,0,0,0
1684141748.89946699,89928181,1557,1556,1553,1557,0,0,0,0,0,0,0,0,0,0
1684141749.00026011,90028974,1553,1553,1550,1552,0,0,0,0,0,0,0,0,0,0
1684141749.10021996,90128934,1549,1549,1546,1547,0,0,0,0,0,0,0,0,0,0
1684141749.20018005,90228894,1544,1544,1540,1541,0,0,0,0,0,0,0,0,0,0
1684141749.30014014,90328854,1537,1537,1534,1533,0,0,0,0,0,0,0,0,0,0
1684141749.40009999,90428814,1530,1531,1527,1526,0,0,0,0,0,0,0,0,0,0
1684141749.50006008,90528774,1524,1524,1521,1521,0,0,0,0,0,0,0,0,0,0
1684141749.60002017,90628734,1521,1521,1519,1519,0,0,0,0,0,0,0,0,0,0
1684141749.69998002,90728694,1520,1519,1520,1520,0,0,0,0,0,0,0,0,0,0
1684141749.79994011,90828654,1520,1520,1522,1523,0,0,0,0,0,0,0,0,0,0
1684141749.89989996,90928614,1521,1521,1525,1526,0,0,0,0,0,0,0,0,0,0
1684141749.99986005,91028574,1524,1524,1529,1529,0,0,0,0,0,0,0,0,0,0
1684141750.09982014,91128534,1528,1528,1535,1535,0,0,0,0,0,0,0,0,0,0
1684141750.19977999,91228494,1532,1532,1539,1539,0,0,0,0,0,0,0,0,0,0
1684141750.29974008,91328454,1536,1537,1543,1542,0,0,0,0,0,0,0,0,0,0
1684141750.39970016,91428414,1538,1539,1543,1543,0,0,0,0,0,0,0,0,0,0
1684141750.49966002,91528374,1542,1541,1544,1544,0,0,0,0,0,0,0,0,0,0
1684141750.59962010,91628334,1544,1544,1545,1545,0,0,0,0,0,0,0,0,0,0
1684141750.69957995,91728294,1547,1546,1546,1546,0,0,0,0,0,0,0,0,0,0
1684141750.79954004,91828254,1547,1547,1545,1545,0,0,0,0,0,0,0,0,0,0
1684141750.89950013,91928214,1548,1548,1545,1545,0,0,0,0,0,0,0,0,0,0
1684141750.99945998,92028174,1549,1549,1546,1545,0,0,0,0,0,0,0,0,0,0
1684141751.10025311,92128967,1549,1549,1545,1545,0,0,0,0,0,0,0,0,0,0
1684141751.20021296,92228927,1549,1549,1545,1544,0,0,0,0,0,0,0,0,0,0
1684141751.30017304,92328887,1549,1549,1546,1545,0,0,0,0,0,0,0,0,0,0
1684141751.40013313,92428847,1548,1548,1545,1545,0,0,0,0,0,0,0,0,0,0
1684141751.50009298,92528807,1548,1547,1545,1546,0,0,0,0,0,0,0,0,0,0
1684141751.60005307,92628767,1546,1546,1545,1545,0,0,0,0,0,0,0,0,0,0
1684141751.70001316,92728727,1545,1546,1545,1545,0,0,0,0,0,0,0,0,0,0
1684141751.79997301,92828687,1545,1545,1545,1545,0,0,0,0,0,0,0,0,0,0
1684141751.89993310,92928647,1545,1545,1546,1546,0,0,0,0,0,0,0,0,0,0
1684141751.99989295,93028607,1544,1544,1546,1545,0,0,0,0,0,0,0,0,0,0
1684141752.09985304,93128567,1543,1543,1545,1545,0,0,0,0,0,0,0,0,0,0
1684141752.19981313,93228527,1544,1544,1545,1545,0,0,0,0,0,0,0,0,0,0
1684141752.29977298,93328487,1544,1543,1545,1545,0,0,0,0,0,0,0,0,0,0
1684141752.39973307,93428447,1543,1543,1544,1544,0,0,0,0,0,0,0,0,0,0
1684141752.49969316,93528407,1543,1543,1544,1543,0,0,0,0,0,0,0,0,0,0
1684141752.59965301,93628367,1543,1543,1544,1543,0,0,0,0,0,0,0,0,0,0
1684141752.69961309,93728327,1544,1544,1544,1544,0,0,0,0,0,0,0,0,0,0
1684141752.79957294,93828287,1544,1544,1544,1544,0,0,0,0,0,0,0,0,0,0
1684141752.89953303,93928247,1544,1544,1544,1544,0,0,0,0,0,0,0,0,0,0
1684141752.99949312,94028207,1544,1544,1544,1544,0,0,0,0,0,0,0,0,0,0
1684141753.09945297,94128167,1545,1545,1544,1544,0,0,0,0,0,0,0,0,0,0
1684141753.20024610,94228960,1544,1544,1543,1543,0,0,0,0,0,0,0,0,0,0
1684141753.30020595,94328920,1544,1544,1544,1543,0,0,0,0,0,0,0,0,0,0
1684141753.40016603,94428880,1544,1544,1543,1543,0,0,0,0,0,0,0,0,0,0
1684141753.50012612,94528840,1544,1543,1543,1543,0,0,0,0,0,0,0,0,0,0
1684141753.60008597,94628800,1544,1544,1544,1544,0,0,0,0,0,0,0,0,0,0
1684141753.70004606,94728760,1544,1544,1544,1544,0,0,0,0,0,0,0,0,0,0
1684141753.80000615,94828720,1544,1544,1544,1544,0,0,0,0,0,0,0,0,0,0
1684141753.89996600,94928680,1544,1543,1543,1544,0,0,0,0,0,0,0,0,0,0
1684141753.99992609,95028640,1543,1544,1545,1544,0,0,0,0,0,0,0,0,0,0
1684141754.09988594,95128600,1544,1544,1545,1544,0,0,0,0,0,0,0,0,0,0
1684141754.19984603,95228560,1544,1545,1545,1545,0,0,0,0,0,0,0,0,0,0
1684141754.29980612,95328520,1545,1544,1544,1545,0,0,0,0,0,0,0,0,0,0
1684141754.39976597,95428480,1544,1544,1544,1545,0,0,0,0,0,0,0,0,0,0
1684141754.49972606,95528440,1545,1545,1545,1545,0,0,0,0,0,0,0,0,0,0
1684141754.59968615,95628400,1545,1545,1545,1545,0,0,0,0,0,0,0,0,0,0
1684141754.69964600,95728360,1545,1545,1545,1545,0,0,0,0,0,0,0,0,0,0
1684141754.79960608,95828320,1545,1546,1546,1545,0,0,0,0,0,0,0,0,0,0
1684141754.89956617,95928280,1546,1545,1545,1545,0,0,0,0,0,0,0,0,0,0
1684141754.99952602,96028240,1544,1544,1543,1543,0,0,0,0,0,0,0,0,0,0
1684141755.09948611,96128200,1544,1544,1543,1544,0,0,0,0,0,0,0,0,0,0
1684141755.19944596,96228160,1544,1545,1544,1544,0,0,0,0,0,0,0,0,0,0
1684141755.30023909,96328953,1545,1545,1545,1545,0,0,0,0,0,0,0,0,0,0
1684141755.40019917,96428913,1545,1545,1545,1545,0,0,0,0,0,0,0,0,0,0
1684141755.50015903,96528873,1544,1544,1544,1544,0,0,0,0,0,0,0,0,0,0
1684141755.60011911,96628833,1544,1544,1544,1544,0,0,0,0,0,0,0,0,0,0
1684141755.70007896,96728793,1543,1544,1543,1544,0,0,0,0,0,0,0,0,0,0
1684141755.80003905,96828753,1544,1545,1545,1544,0,0,0,0,0,0,0,0,0,0
1684141755.89999914,96928713,1545,1545,1545,1545,0,0,0,0,0,0,0,0,0,0
1684141755.99995899,97028673,1544,1545,1545,1545,0,0,0,0,0,0,0,0,0,0
1684141756.09991908,97128633,1544,1544,1544,1544,0,0,0,0,0,0,0,0,0,0
1684141756.19987917,97228593,1544,1544,1544,1544,0,0,0,0,0,0,0,0,0,0
1684141756.29983902,97328553,1545,1544,1545,1544,0,0,0,0,0,0,0,0,0,0
1684141756.39979911,97428513,1544,1544,1544,1544,0,0,0,0,0,0,0,0,0,0
1684141756.49975896,97528473,1545,1545,1545,1545,0,0,0,0,0,0,0,0,0,0
1684141756.59971905,97628433,1544,1545,1545,1544,0,0,0,0,0,0,0,0,0,0
1684141756.69967914,97728393,1545,1545,1544,1545,0,0,0,0,0,0,0,0,0,0
1684141756.79963899,97828353,1544,1545,1545,1545,0,0,0,0,0,0,0,0,0,0
1684141756.89959908,97928313,1544,1544,1543,1544,0,0,0,0,0,0,0,0,0,0
1684141756.99955916,98028273,1544,1545,1544,1544,0,0,0,0,0,0,0,0,0,0
1684141757.09951901,98128233,1544,1544,1543,1544,0,0,0,0,0,0,0,0,0,0
1684141757.19947910,98228193,1543,1543,1543,1543,0,0,0,0,0,0,0,0,0,0
1684141757.30027199,98328986,1544,1543,1543,1543,0,0,0,0,0,0,0,0,0,0
1684141757.40023208,98428946,1543,1543,1543,1543,0,0,0,0,0,0,0,0,0,0
1684141757.50019217,98528906,1544,1544,1544,1544,0,0,0,0,0,0,0,0,0,0
1684141757.60015202,98628866,1544,1544,1544,1544,0,0,0,0,0,0,0,0,0,0
1684141757.70011210,98728826,1544,1543,1544,1544,0,0,0,0,0,0,0,0,0,0
1684141757.80007195,98828786,1544,1544,1544,1544,0,0,0,0,0,0,0,0,0,0
1684141757.90003204,98928746,1544,1545,1545,1545,0,0,0,0,0,0,0,0,0,0
1684141757.99999213,99028706,1544,1545,1544,1544,0,0,0,0,0,0,0,0,0,0
1684141758.09995198,99128666,1544,1544,1544,1544,0,0,0,0,0,0,0,0,0,0
1684141758.19991207,99228626,1544,1544,1544,1544,0,0,0,0,0,0,0,0,0,0
1684141758.29987216,99328586,1544,1544,1544,1544,0,0,0,0,0,0,0,0,0,0
1684141758.39983201,99428546,1544,1544,1544,1544,0,0,0,0,0,0,0,0,0,0
1684141758.49979210,99528506,1544,1544,1544,1544,0,0,0,0,0,0,0,0,0,0
1684141758.59975195,99628466,1544,1544,1544,1544,0,0,0,0,0,0,0,0,0,0
1684141758.69971204,99728426,1545,1544,1544,1544,0,0,0,0,0,0,0,0,0,0
1684141758.79967213,99828386,1544,1545,1544,1545,0,0,0,0,0,0,0,0,0,0
1684141758.89963198,99928346,1544,1545,1544,1545,0,0,0,0,0,0,0,0,0,0
1684141758.99959207,100028306,1545,1545,1545,1545,0,0,0,0,0,0,0,0,0,0
1684141759.09955215,100128266,1544,1544,1544,1544,0,0,0,0,0,0,0,0,0,0
1684141759.19951200,100228226,1544,1544,1544,1544,0,0,0,0,0,0,0,0,0,0
1684141759.29947209,100328186,1417,1415,1373,1373,0,0,0,0,0,0,0,0,0,0
1684141759.40026498,100428979,1338,1336,1256,1254,0,0,0,0,0,0,0,0,0,0
1684141759.50022507,100528939,1314,1311,1217,1215,0,0,0,0,0,0,0,0,0,0
1684141759.60018516,100628899,1302,1300,1198,1196,0,0,0,0,0,0,0,0,0,0
1684141759.70014501,100728859,1277,1275,1153,1153,0,0,0,0,0,0,0,0,0,0
1684141759.80010509,100828819,1209,1207,1150,1150,0,0,0,0,0,0,0,0,0,0
1684141759.90006495,100928779,1092,1090,1150,1150,0,0,0,0,0,0,0,0,0,0
1684141760.00002503,101028739,1091,1090,1150,1150,0,0,0,0,0,0,0,0,0,0
1684141760.09998512,101128699,1092,1090,1150,1150,0,0,0,0,0,0,0,0,0,0
1684141760.19994497,101228659,1091,1084,1150,1158,0,0,0,0,0,0,0,0,0,0
1684141760.29990506,101328619,1091,1080,1150,1164,0,0,0,0,0,0,0,0,0,0
1684141760.39986515,101428579,1091,1084,1150,1158,0,0,0,0,0,0,0,0,0,0
1684141760.49982500,101528539,1091,1085,1150,1157,0,0,0,0,0,0,0,0,0,0
1684141760.59978509,101628499,1091,1085,1150,1157,0,0,0,0,0,0,0,0,0,0
1684141760.69974494,101728459,1091,1084,1150,1157,0,0,0,0,0,0,0,0,0,0
1684141760.79970503,101828419,1091,1084,1150,1157,0,0,0,0,0,0,0,0,0,0
1684141760.89966512,101928379,1091,1084,1150,1158,0,0,0,0,0,0,0,0,0,0
1684141760.99962497,102028339,1087,1091,1155,1150,0,0,0,0,0,0,0,0,0,0
1684141761.09958506,102128299,1091,1090,1150,1150,0,0,0,0,0,0,0,0,0,0
1684141761.19954515,102228259,1091,1089,1150,1151,0,0,0,0,0,0,0,0,0,0
1684141761.29950500,102328219,1091,1089,1150,1151,0,0,0,0,0,0,0,0,0,0
1684141761.39946508,102428179,1091,1089,1150,1151,0,0,0,0,0,0,0,0,0,0
1684141761.50025797,102528972,930,930,1144,1144,0,0,0,0,0,0,0,0,0,0
1684141761.60021806,102628932,1000,1000,1000,1000,0,0,0,0,0,0,0,0,0,0
1684141761.70017815,102728892,1000,1000,1000,1000,0,0,0,0,0,0,0,0,0,0
1684141761.80013800,102828852,1000,1000,1000,1000,0,0,0,0,0,0,0,0,0,0
1684141761.90009809,102928812,1000,1000,1000,1000,0,0,0,0,0,0,0,0,0,0
1684141762.00005817,103028772,1000,1000,1000,1000,0,0,0,0,0,0,0,0,0,0
1684141762.10001802,103128732,1000,1000,1000,1000,0,0,0,0,0,0,0,0,0,0
1684141762.19997811,103228692,1000,1000,1000,1000,0,0,0,0,0,0,0,0,0,0
1684141762.29993796,103328652,1000,1000,1000,1000,0,0,0,0,0,0,0,0,0,0
1684141762.39989805,103428612,1000,1000,1000,1000,0,0,0,0,0,0,0,0,0,0
1684141762.49985814,103528572,1000,1000,1000,1000,0,0,0,0,0,0,0,0,0,0
1684141762.59981799,103628532,1000,1000,1000,1000,0,0,0,0,0,0,0,0,0,0
1684141762.69977808,103728492,1000,1000,1000,1000,0,0,0,0,0,0,0,0,0,0
1684141762.79973817,103828452,1000,1000,1000,1000,0,0,0,0,0,0,0,0,0,0
1684141762.89969802,103928412,1000,1000,1000,1000,0,0,0,0,0,0,0,0,0,0
1684141762.99965811,104028372,1000,1000,1000,1000,0,0,0,0,0,0,0,0,0,0
1684141763.09961796,104128332,1000,1000,1000,1000,0,0,0,0,0,0,0,0,0,0
1684141763.19957805,104228292,1000,1000,1000,1000,0,0,0,0,0,0,0,0,0,0
1684141763.29953814,104328252,1000,1000,1000,1000,0,0,0,0,0,0,0,0,0,0
1684141763.39949799,104428212,1000,1000,1000,1000,0,0,0,0,0,0,0,0,0,0
1684141763.49945807,104528172,1000,1000,1000,1000,0,0,0,0,0,0,0,0,0,0
1684141763.60025096,104628965,1000,1000,1000,1000,0,0,0,0,0,0,0,0,0,0
1684141763.70021105,104728925,1000,1000,1000,1000,0,0,0,0,0,0,0,0,0,0
1684141763.80017114,104828885,1000,1000,1000,1000,0,0,0,0,0,0,0,0,0,0
1684141763.90013099,104928845,1000,1000,1000,1000,0,0,0,0,0,0,0,0,0,0
1684141764.00009108,105028805,1000,1000,1000,1000,0,0,0,0,0,0,0,0,0,0
1684141764.10005116,105128765,1000,1000,1000,1000,0,0,0,0,0,0,0,0,0,0
1684141764.20001101,105228725,1000,1000,1000,1000,0,0,0,0,0,0,0,0,0,0
1684141764.29997110,105328685,1000,1000,1000,1000,0,0,0,0,0,0,0,0,0,0
1684141764.39993095,105428645,1000,1000,1000,1000,0,0,0,0,0,0,0,0,0,0
1684141764.49989104,105528605,1000,1000,1000,1000,0,0,0,0,0,0,0,0,0,0
1684141764.59985113,105628565,1000,1000,1000,1000,0,0,0,0,0,0,0,0,0,0
1684141764.69981098,105728525,1000,1000,1000,1000,0,0,0,0,0,0,0,0,0,0
1684141764.79977107,105828485,1000,1000,1000,1000,0,0,0,0,0,0,0,0,0,0
1684141764.89973116,105928445,1000,1000,1000,1000,0,0,0,0,0,0,0,0,0,0
1684141764.99969101,106028405,1000,1000,1000,1000,0,0,0,0,0,0,0,0,0,0
1684141765.09965110,106128365,1000,1000,1000,1000,0,0,0,0,0,0,0,0,0,0
1684141765.19961095,106228325,1000,1000,1000,1000,0,0,0,0,0,0,0,0,0,0
1684141765.29957104,106328285,1000,1000,1000,1000,0,0,0,0,0,0,0,0,0,0
1684141765.39953113,106428245,1000,1000,1000,1000,0,0,0,0,0,0,0,0,0,0
1684141765.49949098,106528205,1000,1000,1000,1000,0,0,0,0,0,0,0,0,0,0
1684141765.59945107,106628165,1000,1000,1000,1000,0,0,0,0,0,0,0,0,0,0
1684141765.70024395,106728958,1000,1000,1000,1000,0,0,0,0,0,0,0,0,0,0
1684141765.80020404,106828918,1000,1000,1000,1000,0,0,0,0,0,0,0,0,0,0
1684141765.90016413,106928878,1000,1000,1000,1000,0,0,0,0,0,0,0,0,0,0
1684141766.00012398,107028838,1000,1000,1000,1000,0,0,0,0,0,0,0,0,0,0
1684141766.10008407,107128798,1000,1000,1000,1000,0,0,0,0,0,0,0,0,0,0
1684141766.20004416,107228758,1000,1000,1000,1000,0,0,0,0,0,0,0,0,0,0
1684141766.30000401,107328718,1000,1000,1000,1000,0,0,0,0,0,0,0,0,0,0
1684141766.39996409,107428678,1000,1000,1000,1000,0,0,0,0,0,0,0,0,0,0
1684141766.49992394,107528638,1000,1000,1000,1000,0,0,0,0,0,0,0,0,0,0
1684141766.59988403,107628598,1000,1000,1000,1000,0,0,0,0,0,0,0,0,0,0
1684141766.69984412,107728558,1000,1000,1000,1000,0,0,0,0,0,0,0,0,0,0
1684141766.79980397,107828518,1000,1000,1000,1000,0,0,0,0,0,0,0,0,0,0
1684141766.89976406,107928478,1000,1000,1000,1000,0,0,0,0,0,0,0,0,0,0
1684141766.99972415,108028438,1000,1000,1000,1000,0,0,0,0,0,0,0,0,0,0
1684141767.09968400,108128398,1000,1000,1000,1000,0,0,0,0,0,0,0,0,0,0
1684141767.19964409,108228358,1000,1000,1000,1000,0,0,0,0,0,0,0,0,0,0
1684141767.29960418,108328318,1000,1000,1000,1000,0,0,0,0,0,0,0,0,0,0
1684141767.39956403,108428278,1000,1000,1000,1000,0,0,0,0,0,0,0,0,0,0
1684141767.49952412,108528238,1000,1000,1000,1000,0,0,0,0,0,0,0,0,0,0
1684141767.59948397,108628198,1000,1000,1000,1000,0,0,0,0,0,0,0,0,0,0
1684141767.69944406,108728158,1000,1000,1000,1000,0,0,0,0,0,0,0,0,0,0
1684141767.80023694,108828951,1000,1000,1000,1000,0,0,0,0,0,0,0,0,0,0
1684141767.90019703,108928911,1000,1000,1000,1000,0,0,0,0,0,0,0,0,0,0
1684141768.00015712,109028871,1000,1000,1000,1000,0,0,0,0,0,0,0,0,0,0
1684141768.10011697,109128831,1000,1000,1000,1000,0,0,0,0,0,0,0,0,0,0
1684141768.20007706,109228791,1000,1000,1000,1000,0,0,0,0,0,0,0,0,0,0
1684141768.30003715,109328751,1000,1000,1000,1000,0,0,0,0,0,0,0,0,0,0
1684141768.39999700,109428711,1000,1000,1000,1000,0,0,0,0,0,0,0,0,0,0
1684141768.49995708,109528671,1000,1000,1000,1000,0,0,0,0,0,0,0,0,0,0
1684141768.59991717,109628631,1000,1000,1000,1000,0,0,0,0,0,0,0,0,0,0
1684141768.69987702,109728591,1000,1000,1000,1000,0,0,0,0,0,0,0,0,0,0
1684141768.79983711,109828551,1000,1000,1000,1000,0,0,0,0,0,0,0,0,0,0
1684141768.89979696,109928511,1000,1000,1000,1000,0,0,0,0,0,0,0,0,0,0
1684141768.99975705,110028471,1000,1000,1000,1000,0,0,0,0,0,0,0,0,0,0
1684141769.09971714,110128431,1000,1000,1000,1000,0,0,0,0,0,0,0,0,0,0
1684141769.19967699,110228391,1000,1000,1000,1000,0,0,0,0,0,0,0,0,0,0
1684141769.29963708,110328351,1000,1000,1000,1000,0,0,0,0,0,0,0,0,0,0
1684141769.39959717,110428311,1000,1000,1000,1000,0,0,0,0,0,0,0,0,0,0
1684141769.49955702,110528271,1000,1000,1000,1000,0,0,0,0,0,0,0,0,0,0
1684141769.59951711,110628231,1000,1000,1000,1000,0,0,0,0,0,0,0,0,0,0
1684141769.69947696,110728191,1000,1000,1000,1000,0,0,0,0,0,0,0,0,0,0
1684141769.80027008,110828984,1000,1000,1000,1000,0,0,0,0,0,0,0,0,0,0
1684141769.90023017,110928944,1000,1000,1000,1000,0,0,0,0,0,0,0,0,0,0
1684141770.00019002,111028904,1000,1000,1000,1000,0,0,0,0,0,0,0,0,0,0
1684141770.10015011,111128864,1000,1000,1000,1000,0,0,0,0,0,0,0,0,0,0
1684141770.20010996,111228824,1000,1000,1000,1000,0,0,0,0,0,0,0,0,0,0
1684141770.30007005,111328784,1000,1000,1000,1000,0,0,0,0,0,0,0,0,0,0
1684141770.40003014,111428744,1000,1000,1000,1000,0,0,0,0,0,0,0,0,0,0
1684141770.49998999,111528704,1000,1000,1000,1000,0,0,0,0,0,0,0,0,0,0
1684141770.59995008,111628664,1000,1000,1000,1000,0,0,0,0,0,0,0,0,0,0
1684141770.69991016,111728624,1000,1000,1000,1000,0,0,0,0,0,0,0,0,0,0
1684141770.79987001,111828584,1000,1000,1000,1000,0,0,0,0,0,0,0,0,0,0
1684141770.89983010,111928544,1000,1000,1000,1000,0,0,0,0,0,0,0,0,0,0
1684141770.99978995,112028504,1000,1000,1000,1000,0,0,0,0,0,0,0,0,0,0
1684141771.09975004,112128464,1000,1000,1000,1000,0,0,0,0,0,0,0,0,0,0
1684141771.19971013,112228424,1000,1000,1000,1000,0,0,0,0,0,0,0,0,0,0
1684141771.29966998,112328384,1000,1000,1000,1000,0,0,0,0,0,0,0,0,0,0
1684141771.39963007,112428344,1000,1000,1000,1000,0,0,0,0,0,0,0,0,0,0
1684141771.49959016,112528304,1000,1000,1000,1000,0,0,0,0,0,0,0,0,0,0
1684141771.59955001,112628264,1000,1000,1000,1000,0,0,0,0,0,0,0,0,0,0
1684141771.69951010,112728224,1000,1000,1000,1000,0,0,0,0,0,0,0,0,0,0
1684141771.79946995,112828184,1000,1000,1000,1000,0,0,0,0,0,0,0,0,0,0
1684141771.90026307,112928977,1000,1000,1000,1000,0,0,0,0,0,0,0,0,0,0
1684141772.00022316,113028937,1000,1000,1000,1000,0,0,0,0,0,0,0,0,0,0
1684141772.10018301,113128897,1000,1000,1000,1000,0,0,0,0,0,0,0,0,0,0
1684141772.20014310,113228857,1000,1000,1000,1000,0,0,0,0,0,0,0,0,0,0
1684141772.30010295,113328817,1000,1000,1000,1000,0,0,0,0,0,0,0,0,0,0
1684141772.40006304,113428777,1000,1000,1000,1000,0,0,0,0,0,0,0,0,0,0
1684141772.50002313,113528737,1000,1000,1000,1000,0,0,0,0,0,0,0,0,0,0
1684141772.59998298,113628697,1000,1000,1000,1000,0,0,0,0,0,0,0,0,0,0
1684141772.69994307,113728657,1000,1000,1000,1000,0,0,0,0,0,0,0,0,0,0
1684141772.79990315,113828617,1000,1000,1000,1000,0,0,0,0,0,0,0,0,0,0
1684141772.89986300,113928577,1000,1000,1000,1000,0,0,0,0,0,0,0,0,0,0
1684141772.99982309,114028537,1000,1000,1000,1000,0,0,0,0,0,0,0,0,0,0
1684141773.09978294,114128497,1000,1000,1000,1000,0,0,0,0,0,0,0,0,0,0
1684141773.19974303,114228457,1000,1000,1000,1000,0,0,0,0,0,0,0,0,0,0
1684141773.29970312,114328417,1000,1000,1000,1000,0,0,0,0,0,0,0,0,0,0
1684141773.39966297,114428377,1000,1000,1000,1000,0,0,0,0,0,0,0,0,0,0
1684141773.49962306,114528337,1000,1000,1000,1000,0,0,0,0,0,0,0,0,0,0
1684141773.59958315,114628297,1000,1000,1000,1000,0,0,0,0,0,0,0,0,0,0
1684141773.69954300,114728257,1000,1000,1000,1000,0,0,0,0,0,0,0,0,0,0
1684141773.79950309,114828217,1000,1000,1000,1000,0,0,0,0,0,0,0,0,0,0
1684141773.89946318,114928177,1000,1000,1000,1000,0,0,0,0,0,0,0,0,0,0
1684141774.00025606,115028970,1000,1000,1000,1000,0,0,0,0,0,0,0,0,0,0
1684141774.10021615,115128930,1000,1000,1000,1000,0,0,0,0,0,0,0,0,0,0
1684141774.20017600,115228890,1000,1000,1000,1000,0,0,0,0,0,0,0,0,0,0
1684141774.30013609,115328850,1000,1000,1000,1000,0,0,0,0,0,0,0,0,0,0
1684141774.40009594,115428810,1000,1000,1000,1000,0,0,0,0,0,0,0,0,0,0
1684141774.50005603,115528770,1000,1000,1000,1000,0,0,0,0,0,0,0,0,0,0
1684141774.60001612,115628730,1000,1000,1000,1000,0,0,0,0,0,0,0,0,0,0
1684141774.69997597,115728690,1000,1000,1000,1000,0,0,0,0,0,0,0,0,0,0
1684141774.79993606,115828650,1000,1000,1000,1000,0,0,0,0,0,0,0,0,0,0
1684141774.89989614,115928610,1000,1000,1000,1000,0,0,0,0,0,0,0,0,0,0
1684141774.99985600,116028570,1000,1000,1000,1000,0,0,0,0,0,0,0,0,0,0
1684141775.09981608,116128530,1000,1000,1000,1000,0,0,0,0,0,0,0,0,0,0
1684141775.19977617,116228490,1000,1000,1000,1000,0,0,0,0,0,0,0,0,0,0
1684141775.29973602,116328450,1000,1000,1000,1000,0,0,0,0,0,0,0,0,0,0
1684141775.39969611,116428410,1000,1000,1000,1000,0,0,0,0,0,0,0,0,0,0
1684141775.49965596,116528370,1000,1000,1000,1000,0,0,0,0,0,0,0,0,0,0
1684141775.59961605,116628330,1000,1000,1000,1000,0,0,0,0,0,0,0,0,0,0
1684141775.69957614,116728290,1000,1000,1000,1000,0,0,0,0,0,0,0,0,0,0
1684141775.79953599,116828250,1000,1000,1000,1000,0,0,0,0,0,0,0,0,0,0
1684141775.89949608,116928210,1000,1000,1000,1000,0,0,0,0,0,0,0,0,0,0
1684141775.99945617,117028170,1000,1000,1000,1000,0,0,0,0,0,0,0,0,0,0
1684141776.10024905,117128963,1000,1000,1000,1000,0,0,0,0,0,0,0,0,0,0
1684141776.20020914,117228923,1000,1000,1000,1000,0,0,0,0,0,0,0,0,0,0
1684141776.30016899,117328883,1000,1000,1000,1000,0,0,0,0,0,0,0,0,0,0
1684141776.40012908,117428843,1000,1000,1000,1000,0,0,0,0,0,0,0,0,0,0
