TimeUS,M1,M2,M3,M4,TimeUS,C1,C2,C3,C4
47850852,1000,1000,1000,1000,47928321,1000,1000,1000,1000
47853351,1000,1000,1000,1000,48028281,1000,1000,1000,1000
47855850,1000,1000,1000,1000,48128241,1000,1000,1000,1000
47858349,1000,1000,1000,1000,48228201,1000,1000,1000,1000
47860848,1000,1000,1000,1000,48328161,1000,1000,1000,1000
47863347,1000,1000,1000,1000,48428954,1000,1000,1000,1000
47865846,1000,1000,1000,1000,48528914,1000,1000,1000,1000
47868345,1000,1000,1000,1000,48628874,1000,1000,1000,1000
47870844,1000,1000,1000,1000,48728834,1000,1000,1000,1000
47873343,1000,1000,1000,1000,48828794,1000,1000,1000,1000
47875842,1000,1000,1000,1000,48928754,1000,1000,1000,1000
47878341,1000,1000,1000,1000,49028714,1000,1000,1000,1000
47880840,1000,1000,1000,1000,49128674,1000,1000,1000,1000
47883339,1000,1000,1000,1000,49228634,1000,1000,1000,1000
47885838,1000,1000,1000,1000,49328594,1000,1000,1000,1000
47888337,1000,1000,1000,1000,49428554,1000,1000,1000,1000
47890836,1000,1000,1000,1000,49528514,1000,1000,1000,1000
47893335,1000,1000,1000,1000,49628474,1000,1000,1000,1000
47895834,1000,1000,1000,1000,49728434,1000,1000,1000,1000
47898333,1000,1000,1000,1000,49828394,1000,1000,1000,1000
47900832,1000,1000,1000,1000,49928354,1023,1023,1023,1023
47903331,1000,1000,1000,1000,50028314,1053,1053,1053,1053
47905830,1000,1000,1000,1000,50128274,1083,1083,1083,1083
47908329,1000,1000,1000,1000,50228234,1113,1113,1113,1113
47910828,1000,1000,1000,1000,50328194,1143,1143,1143,1143
47913327,1000,1000,1000,1000,50428154,1351,1346,1346,1352
47915826,1000,1000,1000,1000,50528947,1542,1537,1538,1542
47918325,1000,1000,1000,1000,50628907,1695,1691,1691,1695
47920824,1000,1000,1000,1000,50728867,1826,1823,1822,1827
47923323,1000,1000,1000,1000,50828827,1910,1906,1906,1911
47925822,1000,1000,1000,1000,50928787,1854,1852,1852,1854
47928321,1000,1000,1000,1000,51028747,1725,1725,1725,1725
47930820,1000,1000,1000,1000,51128707,1651,1652,1652,1651
47933319,1000,1000,1000,1000,51228667,1639,1633,1632,1640
47935818,1000,1000,1000,1000,51328627,1635,1637,1630,1642
47938317,1000,1000,1000,1000,51428587,1638,1640,1634,1645
47940816,1000,1000,1000,1000,51528547,1634,1635,1633,1636
47943315,1000,1000,1000,1000,51628507,1628,1628,1629,1626
47945814,1000,1000,1000,1000,51728467,1622,1622,1626,1618
47948313,1000,1000,1000,1000,51828427,1620,1618,1624,1614
47950812,1000,1000,1000,1000,51928387,1619,1619,1622,1615
47953311,1000,1000,1000,1000,52028347,1593,1592,1601,1584
47955810,1000,1000,1000,1000,52128307,1577,1577,1585,1568
47958309,1000,1000,1000,1000,52228267,1565,1565,1567,1563
47960808,1000,1000,1000,1000,52328227,1555,1555,1552,1559
47963307,1000,1000,1000,1000,52428187,1547,1547,1541,1554
47965806,1000,1000,1000,1000,52528980,1540,1540,1530,1550
47968305,1000,1000,1000,1000,52628940,1536,1535,1527,1543
47970804,1000,1000,1000,1000,52728900,1529,1529,1525,1533
47973303,1000,1000,1000,1000,52828860,1526,1526,1526,1526
47975802,1000,1000,1000,1000,52928820,1524,1524,1526,1523
47978301,1000,1000,1000,1000,53028780,1527,1527,1529,1525
47980800,1000,1000,1000,1000,53128740,1530,1530,1532,1527
47983299,1000,1000,1000,1000,53228700,1534,1535,1537,1532
47985798,1000,1000,1000,1000,53328660,1538,1538,1540,1536
47988297,1000,1000,1000,1000,53428620,1542,1541,1543,1540
47990796,1000,1000,1000,1000,53528580,1545,1545,1546,1545
47993295,1000,1000,1000,1000,53628540,1547,1547,1547,1548
47995794,1000,1000,1000,1000,53728500,1550,1550,1550,1551
47998293,1000,1000,1000,1000,53828460,1554,1554,1553,1555
48000792,1000,1000,1000,1000,53928420,1555,1554,1555,1558
48003291,1000,1000,1000,1000,54028380,1555,1555,1560,1562
48005790,1000,1000,1000,1000,54128340,1557,1557,1563,1564
48008289,1000,1000,1000,1000,54228300,1559,1560,1565,1564
48010788,1000,1000,1000,1000,54328260,1561,1562,1566,1564
48013287,1000,1000,1000,1000,54428220,1565,1565,1567,1566
48015786,1000,1000,1000,1000,54528180,1566,1566,1566,1566
48018285,1000,1000,1000,1000,54628973,1568,1569,1567,1567
48020784,1000,1000,1000,1000,54728933,1570,1570,1567,1567
48023283,1000,1000,1000,1000,54828893,1571,1571,1567,1568
48025782,1000,1000,1000,1000,54928853,1572,1572,1568,1569
48028281,1000,1000,1000,1000,55028813,1574,1573,1570,1570
48030780,1000,1000,1000,1000,55128773,1573,1573,1570,1570
48033279,1000,1000,1000,1000,55228733,1574,1574,1571,1571
48035778,1000,1000,1000,1000,55328693,1574,1574,1573,1572
48038277,1000,1000,1000,1000,55428653,1574,1575,1574,1573
48040776,1000,1000,1000,1000,55528613,1575,1575,1575,1574
48043275,1000,1000,1000,1000,55628573,1575,1575,1576,1575
48045774,1000,1000,1000,1000,55728533,1575,1575,1576,1576
48048273,1000,1000,1000,1000,55828493,1575,1575,1576,1576
48050772,1000,1000,1000,1000,55928453,1574,1574,1576,1576
48053271,1000,1000,1000,1000,56028413,1575,1575,1576,1576
48055770,1000,1000,1000,1000,56128373,1576,1577,1577,1577
48058269,1000,1000,1000,1000,56228333,1576,1576,1577,1577
48060768,1000,1000,1000,1000,56328293,1577,1576,1577,1577
48063267,1000,1000,1000,1000,56428253,1578,1577,1578,1577
48065766,1000,1000,1000,1000,56528213,1577,1577,1577,1577
48068265,1000,1000,1000,1000,56628173,1577,1577,1576,1577
48070764,1000,1000,1000,1000,56728966,1578,1578,1577,1578
48073263,1000,1000,1000,1000,56828926,1577,1578,1577,1577
48075762,1000,1000,1000,1000,56928886,1579,1578,1578,1579
48078261,1000,1000,1000,1000,57028846,1579,1578,1578,1578
48080760,1000,1000,1000,1000,57128806,1580,1579,1579,1579
48083259,1000,1000,1000,1000,57228766,1579,1579,1579,1579
48085758,1000,1000,1000,1000,57328726,1579,1579,1579,1579
48088257,1000,1000,1000,1000,57428686,1579,1579,1579,1579
48090756,1000,1000,1000,1000,57528646,1580,1579,1580,1580
48093255,1000,1000,1000,1000,57628606,1579,1579,1579,1579
48095754,1000,1000,1000,1000,57728566,1578,1578,1579,1578
48098253,1000,1000,1000,1000,57828526,1578,1578,1579,1579
48100752,1000,1000,1000,1000,57928486,1579,1579,1579,1579
48103251,1000,1000,1000,1000,58028446,1579,1579,1579,1579
48105750,1000,1000,1000,1000,58128406,1579,1579,1579,1579
48108249,1000,1000,1000,1000,58228366,1580,1580,1580,1580
48110748,1000,1000,1000,1000,58328326,1580,1580,1581,1580
48113247,1000,1000,1000,1000,58428286,1579,1580,1580,1579
48115746,1000,1000,1000,1000,58528246,1579,1580,1579,1580
48118245,1000,1000,1000,1000,58628206,1579,1579,1579,1579
48120744,1000,1000,1000,1000,58728166,1580,1580,1580,1580
48123243,1000,1000,1000,1000,58828959,1580,1580,1580,1580
48125742,1000,1000,1000,1000,58928919,1581,1580,1580,1580
48128241,1000,1000,1000,1000,59028879,1580,1580,1580,1580
48130740,1000,1000,1000,1000,59128839,1580,1579,1579,1580
48133239,1000,1000,1000,1000,59228799,1580,1580,1580,1580
48135738,1000,1000,1000,1000,59328759,1581,1581,1581,1581
48138237,1000,1000,1000,1000,59428719,1579,1580,1580,1579
48140736,1000,1000,1000,1000,59528679,1580,1580,1580,1580
48143235,1000,1000,1000,1000,59628639,1580,1580,1580,1580
48145734,1000,1000,1000,1000,59728599,1581,1581,1581,1581
48148233,1000,1000,1000,1000,59828559,1580,1580,1580,1580
48150732,1000,1000,1000,1000,59928519,1580,1580,1580,1581
48153231,1000,1000,1000,1000,60028479,1581,1581,1581,1581
48155730,1000,1000,1000,1000,60128439,1581,1581,1584,1578
48158229,1000,1000,1000,1000,60228399,1579,1581,1586,1572
48160728,1000,1000,1000,1000,60328359,1579,1582,1581,1573
48163227,1000,1000,1000,1000,60428319,1578,1581,1573,1572
48165726,1000,1000,1000,1000,60528279,1577,1579,1564,1570
48168225,1000,1000,1000,1000,60628239,1577,1579,1559,1566
48170724,1000,1000,1000,1000,60728199,1578,1578,1556,1561
48173223,1000,1000,1000,1000,60828159,1579,1577,1555,1557
48175722,1000,1000,1000,1000,60928952,1580,1578,1556,1556
48178221,1000,1000,1000,1000,61028912,1578,1578,1556,1554
48180720,1000,1000,1000,1000,61128872,1577,1577,1556,1553
48183219,1000,1000,1000,1000,61228832,1576,1577,1556,1554
48185718,1000,1000,1000,1000,61328792,1575,1576,1555,1554
48188217,1000,1000,1000,1000,61428752,1574,1576,1554,1553
48190716,1000,1000,1000,1000,61528712,1574,1576,1552,1552
48193215,1000,1000,1000,1000,61628672,1576,1577,1551,1551
48195714,1000,1000,1000,1000,61728632,1577,1578,1549,1549
48198213,1000,1000,1000,1000,61828592,1579,1580,1547,1547
48200712,1000,1000,1000,1000,61928552,1582,1582,1544,1543
48203211,1000,1000,1000,1000,62028512,1585,1585,1541,1541
48205710,1000,1000,1000,1000,62128472,1588,1589,1539,1538
48208209,1000,1000,1000,1000,62228432,1591,1591,1536,1536
48210708,1000,1000,1000,1000,62328392,1594,1594,1535,1535
48213207,1000,1000,1000,1000,62428352,1596,1596,1535,1536
48215706,1000,1000,1000,1000,62528312,1596,1595,1536,1537
48218205,1000,1000,1000,1000,62628272,1594,1594,1538,1540
48220704,1000,1000,1000,1000,62728232,1592,1591,1542,1545
48223203,1000,1000,1000,1000,62828192,1586,1585,1547,1550
48225702,1000,1000,1000,1000,62928985,1580,1576,1556,1559
48228201,1000,1000,1000,1000,63028945,1572,1568,1568,1571
48230700,1000,1000,1000,1000,63128905,1560,1556,1580,1581
48233199,1000,1000,1000,1000,63228865,1549,1546,1592,1592
48235698,1000,1000,1000,1000,63328825,1539,1537,1602,1601
48238197,1000,1000,1000,1000,63428785,1531,1531,1609,1608
48240696,1000,1000,1000,1000,63528745,1528,1529,1613,1613
48243195,1000,1000,1000,1000,63628705,1531,1532,1615,1615
48245694,1000,1000,1000,1000,63728665,1534,1535,1612,1612
48248193,1000,1000,1000,1000,63828625,1539,1541,1607,1606
48250692,1000,1000,1000,1000,63928585,1547,1549,1600,1600
48253191,1000,1000,1000,1000,64028545,1556,1557,1593,1592
48255690,1000,1000,1000,1000,64128505,1564,1564,1584,1584
48258189,1000,1000,1000,1000,64228465,1573,1572,1578,1578
48260688,1000,1000,1000,1000,64328425,1579,1578,1573,1572
48263187,1000,1000,1000,1000,64428385,1584,1582,1568,1568
48265686,1000,1000,1000,1000,64528345,1586,1584,1565,1566
48268185,1000,1000,1000,1000,64628305,1587,1585,1565,1565
48270684,1000,1000,1000,1000,64728265,1586,1585,1566,1566
48273183,1000,1000,1000,1000,64828225,1585,1584,1569,1569
48275682,1000,1000,1000,1000,64928185,1581,1581,1571,1571
48278181,1000,1000,1000,1000,65028978,1580,1580,1575,1575
48280680,1000,1000,1000,1000,65128938,1577,1577,1578,1577
48283179,1000,1000,1000,1000,65228898,1574,1574,1580,1579
48285678,1000,1000,1000,1000,65328858,1573,1573,1582,1582
48288177,1000,1000,1000,1000,65428818,1572,1572,1582,1583
48290676,1000,1000,1000,1000,65528778,1572,1573,1583,1584
48293175,1000,1000,1000,1000,65628738,1573,1574,1584,1584
48295674,1000,1000,1000,1000,65728698,1574,1575,1583,1583
48298173,1000,1000,1000,1000,65828658,1576,1576,1582,1583
48300672,1000,1000,1000,1000,65928618,1577,1577,1581,1581
48303171,1000,1000,1000,1000,66028578,1578,1578,1579,1579
48305670,1000,1000,1000,1000,66128538,1579,1579,1579,1579
48308169,1000,1000,1000,1000,66228498,1581,1581,1579,1579
48310668,1000,1000,1000,1000,66328458,1581,1581,1577,1578
48313167,1000,1000,1000,1000,66428418,1361,1364,1633,1641
48315666,1000,1000,1000,1000,66528378,1428,1436,1642,1645
48318165,1000,1000,1000,1000,66628338,1488,1497,1633,1628
48320664,1000,1000,1000,1000,66728298,1538,1544,1621,1612
48323163,1000,1000,1000,1000,66828258,1576,1576,1612,1603
48325662,1000,1000,1000,1000,66928218,1606,1596,1605,1598
48328161,1000,1000,1000,1000,67028178,1635,1620,1584,1586
48330660,1000,1000,1000,1000,67128971,1650,1636,1545,1554
48333159,1000,1000,1000,1000,67228931,1650,1643,1529,1543
48335658,1000,1000,1000,1000,67328891,1647,1650,1547,1557
48338157,1000,1000,1000,1000,67428851,1641,1650,1564,1566
48340656,1000,1000,1000,1000,67528811,1640,1650,1583,1580
48343155,1000,1000,1000,1000,67628771,1635,1641,1588,1582
48345654,1000,1000,1000,1000,67728731,1627,1629,1584,1580
48348986,1000,1000,1000,1000,67828691,1622,1621,1582,1580
48351485,1000,1000,1000,1000,67928651,1617,1614,1579,1579
48353984,1000,1000,1000,1000,68028611,1611,1608,1575,1577
48356483,1000,1000,1000,1000,68128571,1605,1603,1573,1574
48358982,1000,1000,1000,1000,68228531,1603,1596,1576,1566
48361481,1000,1000,1000,1000,68328491,1598,1591,1572,1566
48363980,1000,1000,1000,1000,68428451,1592,1587,1565,1565
48366479,1000,1000,1000,1000,68528411,1586,1586,1560,1562
48368978,1000,1000,1000,1000,68628371,1579,1582,1555,1556
48371477,1000,1000,1000,1000,68728331,1576,1580,1553,1553
48373976,1000,1000,1000,1000,68828291,1574,1578,1553,1550
48376475,1000,1000,1000,1000,68928251,1573,1576,1552,1548
48378974,1000,1000,1000,1000,69028211,1573,1574,1551,1548
48381473,1000,1000,1000,1000,69128171,1573,1573,1550,1548
48383972,1000,1000,1000,1000,69228964,1572,1572,1549,1548
48386471,1000,1000,1000,1000,69328924,1571,1571,1548,1547
48388970,1000,1000,1000,1000,69428884,1571,1571,1548,1548
48391469,1000,1000,1000,1000,69528844,1569,1571,1547,1547
48393968,1000,1000,1000,1000,69628804,1569,1571,1548,1548
48396467,1000,1000,1000,1000,69728764,1569,1571,1548,1547
48398966,1000,1000,1000,1000,69828724,1569,1571,1549,1548
48401465,1000,1000,1000,1000,69928684,1570,1571,1549,1548
48403964,1000,1000,1000,1000,70028644,1570,1571,1549,1548
48406463,1000,1000,1000,1000,70128604,1570,1571,1549,1549
48408962,1000,1000,1000,1000,70228564,1571,1572,1550,1550
48411461,1000,1000,1000,1000,70328524,1572,1573,1550,1551
48413960,1000,1000,1000,1000,70428484,1573,1573,1551,1552
48416459,1000,1000,1000,1000,70528444,1574,1574,1551,1553
48418958,1000,1000,1000,1000,70628404,1575,1575,1551,1553
48421457,1000,1000,1000,1000,70728364,1576,1575,1551,1554
48423956,1000,1000,1000,1000,70828324,1576,1576,1551,1554
48426455,1000,1000,1000,1000,70928284,1577,1577,1552,1555
48428954,1000,1000,1000,1000,71028244,1578,1578,1553,1556
48431453,1000,1000,1000,1000,71128204,1578,1579,1553,1555
48433952,1000,1000,1000,1000,71228164,1579,1580,1554,1556
48436451,1000,1000,1000,1000,71328957,1579,1579,1554,1556
48438950,1000,1000,1000,1000,71428917,1580,1579,1555,1556
48441449,1000,1000,1000,1000,71528877,1581,1580,1556,1557
48443948,1000,1000,1000,1000,71628837,1582,1581,1559,1560
48446447,1000,1000,1000,1000,71728797,1581,1576,1564,1566
48448946,1000,1000,1000,1000,71828757,1567,1560,1583,1586
48451445,1000,1000,1000,1000,71928717,1552,1546,1599,1601
48453944,1000,1000,1000,1000,72028677,1541,1539,1608,1609
48456443,1000,1000,1000,1000,72128637,1535,1536,1611,1611
48458942,1000,1000,1000,1000,72228597,1534,1538,1612,1611
48461441,1000,1000,1000,1000,72328557,1535,1541,1610,1608
48463940,1000,1000,1000,1000,72428517,1539,1545,1607,1605
48466439,1000,1000,1000,1000,72528477,1545,1549,1603,1600
48468938,1000,1000,1000,1000,72628437,1552,1554,1599,1595
48471437,1000,1000,1000,1000,72728397,1559,1559,1593,1591
48473936,1000,1000,1000,1000,72828357,1566,1565,1589,1588
48476435,1000,1000,1000,1000,72928317,1571,1569,1584,1584
48478934,1000,1000,1000,1000,73028277,1575,1573,1579,1580
48481433,1000,1000,1000,1000,73128237,1578,1577,1576,1577
48483932,1000,1000,1000,1000,73228197,1580,1580,1573,1574
48486431,1000,1000,1000,1000,73328157,1582,1583,1573,1573
48488930,1000,1000,1000,1000,73428950,1583,1583,1571,1571
48491429,1000,1000,1000,1000,73528910,1586,1586,1572,1572
48493928,1000,1000,1000,1000,73628870,1586,1586,1573,1572
48496427,1000,1000,1000,1000,73728830,1587,1586,1572,1572
48498926,1000,1000,1000,1000,73828790,1587,1586,1573,1573
48501425,1000,1000,1000,1000,73928750,1586,1586,1572,1573
48503924,1000,1000,1000,1000,74028710,1586,1585,1573,1574
48506423,1000,1000,1000,1000,74128670,1586,1585,1574,1575
48508922,1000,1000,1000,1000,74228630,1585,1585,1576,1575
48511421,1000,1000,1000,1000,74328590,1585,1585,1576,1576
48513920,1000,1000,1000,1000,74428550,1584,1583,1576,1577
48516419,1000,1000,1000,1000,74528510,1583,1583,1578,1578
48518918,1000,1000,1000,1000,74628470,1583,1583,1579,1579
48521417,1000,1000,1000,1000,74728430,1583,1584,1580,1580
48523916,1000,1000,1000,1000,74828390,1582,1582,1579,1579
48526415,1000,1000,1000,1000,74928350,1581,1581,1579,1579
48528914,1000,1000,1000,1000,75028310,1581,1581,1580,1580
48531413,1000,1000,1000,1000,75128270,1580,1581,1581,1580
48533912,1000,1000,1000,1000,75228230,1580,1580,1581,1580
48536411,1000,1000,1000,1000,75328190,1580,1580,1580,1580
48538910,1000,1000,1000,1000,75428983,1580,1581,1581,1581
48541409,1000,1000,1000,1000,75528943,1580,1580,1581,1580
48543908,1000,1000,1000,1000,75628903,1580,1580,1580,1581
48546407,1000,1000,1000,1000,75728863,1579,1580,1580,1580
48548906,1000,1000,1000,1000,75828823,1580,1580,1580,1580
48551405,1000,1000,1000,1000,75928783,1580,1580,1580,1580
48553904,1000,1000,1000,1000,76028743,1580,1580,1580,1580
48556403,1000,1000,1000,1000,76128703,1580,1580,1580,1580
48558902,1000,1000,1000,1000,76228663,1581,1581,1581,1581
48561401,1000,1000,1000,1000,76328623,1580,1581,1581,1581
48563900,1000,1000,1000,1000,76428583,1580,1580,1580,1580
48566399,1000,1000,1000,1000,76528543,1580,1580,1580,1580
48568898,1000,1000,1000,1000,76628503,1580,1581,1580,1580
48571397,1000,1000,1000,1000,76728463,1581,1581,1581,1581
48573896,1000,1000,1000,1000,76828423,1581,1581,1584,1577
48576395,1000,1000,1000,1000,76928383,1581,1579,1586,1571
48578894,1000,1000,1000,1000,77028343,1581,1579,1580,1573
48581393,1000,1000,1000,1000,77128303,1579,1578,1571,1572
48583892,1000,1000,1000,1000,77228263,1576,1578,1563,1569
48586391,1000,1000,1000,1000,77328223,1574,1577,1558,1564
48588890,1000,1000,1000,1000,77428183,1574,1577,1558,1562
48591389,1000,1000,1000,1000,77528976,1575,1577,1558,1559
48593888,1000,1000,1000,1000,77628936,1575,1576,1558,1557
48596387,1000,1000,1000,1000,77728896,1575,1576,1558,1556
48598886,1000,1000,1000,1000,77828856,1575,1575,1557,1555
48601385,1000,1000,1000,1000,77928816,1575,1574,1555,1554
48603884,1000,1000,1000,1000,78028776,1574,1574,1553,1553
48606383,1000,1000,1000,1000,78128736,1574,1574,1552,1551
48608882,1000,1000,1000,1000,78228696,1575,1575,1551,1551
48611381,1000,1000,1000,1000,78328656,1575,1576,1548,1549
48613880,1000,1000,1000,1000,78428616,1575,1577,1547,1548
48616379,1000,1000,1000,1000,78528576,1577,1578,1546,1545
48618878,1000,1000,1000,1000,78628536,1578,1580,1544,1544
48621377,1000,1000,1000,1000,78728496,1580,1581,1542,1541
48623876,1000,1000,1000,1000,78828456,1582,1583,1540,1540
48626375,1000,1000,1000,1000,78928416,1585,1584,1539,1539
48628874,1000,1000,1000,1000,79028376,1587,1587,1539,1539
48631373,1000,1000,1000,1000,79128336,1589,1588,1539,1540
48633872,1000,1000,1000,1000,79228296,1589,1588,1540,1541
48636371,1000,1000,1000,1000,79328256,1589,1588,1541,1543
48638870,1000,1000,1000,1000,79428216,1587,1587,1544,1547
48641369,1000,1000,1000,1000,79528176,1585,1585,1547,1550
48643868,1000,1000,1000,1000,79628969,1582,1581,1551,1555
48646367,1000,1000,1000,1000,79728929,1578,1577,1557,1561
48648866,1000,1000,1000,1000,79828889,1573,1571,1565,1567
48651365,1000,1000,1000,1000,79928849,1567,1564,1572,1574
48653864,1000,1000,1000,1000,80028809,1560,1558,1581,1582
48656363,1000,1000,1000,1000,80128769,1554,1552,1591,1591
48658862,1000,1000,1000,1000,80228729,1546,1544,1599,1599
48661361,1000,1000,1000,1000,80328689,1539,1538,1604,1604
48663860,1000,1000,1000,1000,80428649,1534,1535,1609,1608
48666359,1000,1000,1000,1000,80528609,1534,1535,1611,1610
48668858,1000,1000,1000,1000,80628569,1535,1538,1609,1608
48671357,1000,1000,1000,1000,80728529,1539,1541,1604,1603
48673856,1000,1000,1000,1000,80828489,1544,1546,1597,1598
48676355,1000,1000,1000,1000,80928449,1552,1554,1592,1592
48678854,1000,1000,1000,1000,81028409,1561,1561,1586,1585
48681353,1000,1000,1000,1000,81128369,1569,1568,1580,1579
48683852,1000,1000,1000,1000,81228329,1575,1575,1574,1573
48686351,1000,1000,1000,1000,81328289,1581,1580,1570,1569
48688850,1000,1000,1000,1000,81428249,1585,1583,1567,1567
48691349,1000,1000,1000,1000,81528209,1587,1585,1566,1566
48693848,1000,1000,1000,1000,81628169,1588,1586,1566,1567
48696347,1000,1000,1000,1000,81728962,1587,1586,1567,1568
48698846,1000,1000,1000,1000,81828922,1586,1586,1570,1570
48701345,1000,1000,1000,1000,81928882,1584,1584,1572,1572
48703844,1000,1000,1000,1000,82028842,1583,1583,1575,1574
48706343,1000,1000,1000,1000,82128802,1581,1582,1577,1576
48708842,1000,1000,1000,1000,82228762,1580,1580,1579,1578
48711341,1000,1000,1000,1000,82328722,1578,1579,1580,1580
48713840,1000,1000,1000,1000,82428682,1578,1578,1583,1583
48716339,1000,1000,1000,1000,82528642,1576,1576,1583,1583
48718838,1000,1000,1000,1000,82628602,1575,1575,1583,1583
48721337,1000,1000,1000,1000,82728562,1575,1575,1583,1583
48723836,1000,1000,1000,1000,82828522,1575,1575,1583,1584
48726335,1000,1000,1000,1000,82928482,1575,1576,1583,1583
48728834,1000,1000,1000,1000,83028442,1576,1577,1583,1582
48731333,1000,1000,1000,1000,83128402,1578,1578,1582,1582
48733832,1000,1000,1000,1000,83228362,1579,1579,1582,1581
48736331,1000,1000,1000,1000,83328322,1580,1580,1581,1580
48738830,1000,1000,1000,1000,83428282,1581,1581,1580,1580
48741329,1000,1000,1000,1000,83528242,1582,1581,1579,1579
48743828,1000,1000,1000,1000,83628202,1582,1582,1578,1578
48746327,1000,1000,1000,1000,83728162,1583,1582,1578,1578
48748826,1000,1000,1000,1000,83828955,1582,1582,1578,1578
48751325,1000,1000,1000,1000,83928915,1582,1583,1578,1578
48753824,1000,1000,1000,1000,84028875,1582,1582,1578,1578
48756323,1000,1000,1000,1000,84128835,1582,1582,1579,1579
48758822,1000,1000,1000,1000,84228795,1582,1581,1580,1580
48761321,1000,1000,1000,1000,84328755,1582,1582,1582,1581
48763820,1000,1000,1000,1000,84428715,1580,1580,1580,1579
48766319,1000,1000,1000,1000,84528675,1579,1580,1581,1580
48768818,1000,1000,1000,1000,84628635,1580,1580,1581,1581
48771317,1000,1000,1000,1000,84728595,1580,1580,1581,1582
48773816,1000,1000,1000,1000,84828555,1579,1579,1581,1581
48776315,1000,1000,1000,1000,84928515,1580,1579,1581,1581
48778814,1000,1000,1000,1000,85028475,1580,1579,1580,1580
48781313,1000,1000,1000,1000,85128435,1581,1580,1588,1575
48783812,1000,1000,1000,1000,85228395,1580,1579,1587,1573
48786311,1000,1000,1000,1000,85328355,1579,1578,1580,1575
48788810,1000,1000,1000,1000,85428315,1576,1575,1572,1575
48791309,1000,1000,1000,1000,85528275,1572,1572,1566,1573
48793808,1000,1000,1000,1000,85628235,1570,1571,1565,1571
48796307,1000,1000,1000,1000,85728195,1569,1569,1564,1569
48798806,1000,1000,1000,1000,85828155,1567,1568,1566,1566
48801305,1000,1000,1000,1000,85928948,1566,1567,1566,1564
48803804,1000,1000,1000,1000,86028908,1566,1566,1567,1564
48806303,1000,1000,1000,1000,86128868,1566,1566,1567,1565
48808802,1000,1000,1000,1000,86228828,1565,1565,1567,1565
48811301,1000,1000,1000,1000,86328788,1565,1564,1566,1565
48813800,1000,1000,1000,1000,86428748,1564,1563,1566,1565
48816299,1000,1000,1000,1000,86528708,1563,1562,1564,1564
48818798,1000,1000,1000,1000,86628668,1561,1561,1562,1562
48821297,1000,1000,1000,1000,86728628,1561,1561,1562,1562
48823796,1000,1000,1000,1000,86828588,1561,1562,1562,1562
48826295,1000,1000,1000,1000,86928548,1560,1561,1561,1561
48828794,1000,1000,1000,1000,87028508,1559,1560,1560,1559
48831293,1000,1000,1000,1000,87128468,1560,1560,1561,1560
48833792,1000,1000,1000,1000,87228428,1560,1560,1561,1560
48836291,1000,1000,1000,1000,87328388,1560,1560,1561,1560
48838790,1000,1000,1000,1000,87428348,1560,1559,1560,1559
48841289,1000,1000,1000,1000,87528308,1560,1559,1559,1558
48843788,1000,1000,1000,1000,87628268,1560,1559,1560,1558
48846287,1000,1000,1000,1000,87728228,1560,1560,1561,1559
48848786,1000,1000,1000,1000,87828188,1560,1560,1561,1558
48851285,1000,1000,1000,1000,87928981,1560,1559,1560,1559
48853784,1000,1000,1000,1000,88028941,1560,1560,1558,1561
48856283,1000,1000,1000,1000,88128901,1560,1560,1558,1563
48858782,1000,1000,1000,1000,88228861,1560,1560,1557,1563
48861281,1000,1000,1000,1000,88328821,1561,1562,1559,1564
48863780,1000,1000,1000,1000,88428781,1561,1562,1560,1563
48866279,1000,1000,1000,1000,88528741,1560,1561,1561,1560
48868778,1000,1000,1000,1000,88628701,1559,1560,1561,1557
48871277,1000,1000,1000,1000,88728661,1560,1560,1559,1559
48873776,1000,1000,1000,1000,88828621,1557,1557,1554,1557
48876275,1000,1000,1000,1000,88928581,1554,1553,1550,1553
48878774,1000,1000,1000,1000,89028541,1550,1550,1546,1548
48881273,1000,1000,1000,1000,89128501,1544,1544,1539,1540
48883772,1000,1000,1000,1000,89228461,1539,1538,1534,1533
48886271,1000,1000,1000,1000,89328421,1531,1531,1526,1525
48888770,1000,1000,1000,1000,89428381,1524,1525,1520,1519
48891269,1000,1000,1000,1000,89528341,1521,1521,1518,1517
48893768,1000,1000,1000,1000,89628301,1519,1520,1519,1519
48896267,1000,1000,1000,1000,89728261,1519,1519,1521,1522
48898766,1000,1000,1000,1000,89828221,1520,1519,1524,1525
48901265,1000,1000,1000,1000,89928181,1523,1522,1530,1530
48903764,1000,1000,1000,1000,90028974,1526,1526,1535,1535
48906263,1000,1000,1000,1000,90128934,1530,1530,1540,1540
48908762,1000,1000,1000,1000,90228894,1533,1534,1542,1542
48911261,1000,1000,1000,1000,90328854,1537,1537,1544,1543
48913760,1000,1000,1000,1000,90428814,1540,1540,1545,1545
48916259,1000,1000,1000,1000,90528774,1543,1543,1545,1545
48918758,1000,1000,1000,1000,90628734,1545,1545,1545,1545
48921257,1000,1000,1000,1000,90728694,1547,1547,1544,1544
48923756,1000,1000,1000,1000,90828654,1548,1548,1544,1545
48926255,1000,1000,1000,1000,90928614,1550,1550,1545,1545
48928754,1000,1000,1000,1000,91028574,1550,1550,1544,1544
48931253,1000,1000,1000,1000,91128534,1550,1550,1544,1544
48933752,1000,1000,1000,1000,91228494,1549,1549,1544,1544
48936251,1000,1000,1000,1000,91328454,1549,1549,1545,1545
48938750,1000,1000,1000,1000,91428414,1549,1548,1545,1545
48941249,1000,1000,1000,1000,91528374,1547,1547,1545,1545
48943748,1000,1000,1000,1000,91628334,1546,1546,1545,1545
48946247,1000,1000,1000,1000,91728294,1545,1546,1546,1545
48948746,1000,1000,1000,1000,91828254,1545,1545,1546,1546
48951245,1000,1000,1000,1000,91928214,1544,1544,1546,1546
48953744,1000,1000,1000,1000,92028174,1543,1544,1546,1546
48956243,1000,1000,1000,1000,92128967,1543,1543,1546,1545
48958742,1000,1000,1000,1000,92228927,1543,1543,1545,1544
48961241,1000,1000,1000,1000,92328887,1543,1543,1544,1545
48963740,1000,1000,1000,1000,92428847,1543,1543,1544,1545
48966239,1000,1000,1000,1000,92528807,1543,1543,1544,1544
48968738,1000,1000,1000,1000,92628767,1543,1543,1544,1544
48971237,1000,1000,1000,1000,92728727,1544,1543,1544,1543
48973736,1000,1000,1000,1000,92828687,1543,1544,1543,1543
48976235,1000,1000,1000,1000,92928647,1544,1544,1543,1543
48978734,1000,1000,1000,1000,93028607,1544,1544,1543,1543
48981233,1000,1000,1000,1000,93128567,1545,1545,1544,1544
48983732,1000,1000,1000,1000,93228527,1544,1545,1544,1544
48986231,1000,1000,1000,1000,93328487,1544,1544,1543,1543
48988730,1000,1000,1000,1000,93428447,1545,1544,1544,1543
48991229,1000,1000,1000,1000,93528407,1545,1543,1543,1543
48993728,1000,1000,1000,1000,93628367,1544,1544,1544,1544
48996227,1000,1000,1000,1000,93728327,1544,1544,1544,1544
48998726,1000,1000,1000,1000,93828287,1544,1544,1544,1544
49001225,1000,1000,1000,1000,93928247,1544,1544,1544,1544
49003724,1000,1000,1000,1000,94028207,1544,1545,1544,1545
49006223,1000,1000,1000,1000,94128167,1544,1544,1544,1544
49008722,1000,1000,1000,1000,94228960,1544,1544,1544,1544
49011221,1000,1000,1000,1000,94328920,1543,1544,1544,1544
49013720,1000,1000,1000,1000,94428880,1543,1544,1544,1544
49016219,1000,1000,1000,1000,94528840,1544,1544,1544,1544
49018718,1000,1000,1000,1000,94628800,1544,1544,1544,1544
49021217,1000,1000,1000,1000,94728760,1544,1543,1543,1544
49023716,1000,1000,1000,1000,94828720,1544,1544,1545,1545
49026215,1000,1000,1000,1000,94928680,1545,1544,1545,1545
49028714,1000,1000,1000,1000,95028640,1544,1544,1544,1544
49031213,1000,1000,1000,1000,95128600,1544,1544,1544,1544
49033712,1000,1000,1000,1000,95228560,1544,1544,1544,1544
49036211,1000,1000,1000,1000,95328520,1545,1545,1544,1545
49038710,1000,1000,1000,1000,95428480,1544,1544,1544,1544
49041209,1000,1000,1000,1000,95528440,1545,1545,1544,1545
49043708,1000,1000,1000,1000,95628400,1545,1544,1544,1544
49046207,1000,1000,1000,1000,95728360,1545,1544,1544,1544
49048706,1000,1000,1000,1000,95828320,1544,1544,1543,1544
49051205,1000,1000,1000,1000,95928280,1544,1544,1544,1544
49053704,1000,1000,1000,1000,96028240,1544,1545,1544,1544
49056203,1000,1000,1000,1000,96128200,1544,1544,1544,1545
49058702,1000,1000,1000,1000,96228160,1544,1545,1545,1544
49061201,1000,1000,1000,1000,96328953,1544,1544,1544,1544
49063700,1000,1000,1000,1000,96428913,1544,1544,1544,1544
49066199,1000,1000,1000,1000,96528873,1544,1543,1544,1544
49068698,1000,1000,1000,1000,96628833,1544,1544,1545,1544
49071197,1000,1000,1000,1000,96728793,1544,1544,1545,1545
49073696,1000,1000,1000,1000,96828753,1544,1544,1545,1544
49076195,1000,1000,1000,1000,96928713,1544,1544,1544,1544
49078694,1000,1000,1000,1000,97028673,1544,1545,1544,1544
49081193,1000,1000,1000,1000,97128633,1545,1544,1544,1545
49083692,1000,1000,1000,1000,97228593,1545,1545,1545,1544
49086191,1000,1000,1000,1000,97328553,1545,1545,1545,1545
49088690,1000,1000,1000,1000,97428513,1545,1544,1544,1544
49091189,1000,1000,1000,1000,97528473,1544,1544,1544,1544
49093688,1000,1000,1000,1000,97628433,1544,1544,1544,1544
49096187,1000,1000,1000,1000,97728393,1544,1544,1544,1544
49098686,1000,1000,1000,1000,97828353,1545,1544,1544,1544
49101185,1000,1000,1000,1000,97928313,1544,1544,1544,1544
49103684,1000,1000,1000,1000,98028273,1544,1545,1544,1545
49106183,1000,1000,1000,1000,98128233,1544,1544,1544,1544
49108682,1000,1000,1000,1000,98228193,1544,1544,1544,1544
49111181,1000,1000,1000,1000,98328986,1544,1544,1544,1544
49113680,1000,1000,1000,1000,98428946,1544,1544,1544,1544
49116179,1000,1000,1000,1000,98528906,1545,1544,1545,1545
49118678,1000,1000,1000,1000,98628866,1544,1545,1545,1545
49121177,1000,1000,1000,1000,98728826,1545,1544,1545,1545
49123676,1000,1000,1000,1000,98828786,1544,1544,1544,1544
49126175,1000,1000,1000,1000,98928746,1545,1545,1545,1545
49128674,1000,1000,1000,1000,99028706,1544,1544,1544,1544
49131173,1000,1000,1000,1000,99128666,1544,1544,1544,1544
49133672,1000,1000,1000,1000,99228626,1434,1433,1381,1383
49136171,1000,1000,1000,1000,99328586,1360,1357,1256,1260
49138670,1000,1000,1000,1000,99428546,1336,1334,1213,1216
49141169,1000,1000,1000,1000,99528506,1325,1322,1192,1195
49143668,1000,1000,1000,1000,99628466,1305,1302,1151,1153
49146167,1000,1000,1000,1000,99728426,1254,1250,1150,1153
49148666,1000,1000,1000,1000,99828386,1146,1141,1150,1152
49151165,1000,1000,1000,1000,99928346,1031,1027,1150,1152
49153664,1000,1000,1000,1000,100028306,1021,1018,1150,1151
49156163,1000,1000,1000,1000,100128266,1021,1017,1150,1152
49158662,1000,1000,1000,1000,100228226,1021,1016,1150,1154
49161161,1000,1000,1000,1000,100328186,1020,1007,1150,1168
49163660,1000,1000,1000,1000,100428979,1021,1011,1150,1161
49166159,1000,1000,1000,1000,100528939,1021,1012,1150,1160
49168658,1000,1000,1000,1000,100628899,1021,1012,1150,1159
49171157,1000,1000,1000,1000,100728859,1021,1012,1150,1159
49173656,1000,1000,1000,1000,100828819,1021,1012,1150,1159
49176155,1000,1000,1000,1000,100928779,1021,1012,1150,1159
49178654,1000,1000,1000,1000,101028739,1015,1020,1157,1150
49181153,1000,1000,1000,1000,101128699,1021,1019,1150,1151
49183652,1000,1000,1000,1000,101228659,1021,1018,1150,1152
49186151,1000,1000,1000,1000,101328619,1021,1018,1150,1152
49188650,1000,1000,1000,1000,101428579,1021,1018,1150,1152
49191149,1000,1000,1000,1000,101528539,848,848,1148,1148
49193648,1000,1000,1000,1000,101628499,1000,1000,1000,1000
49196147,1000,1000,1000,1000,101728459,1000,1000,1000,1000
49198646,1000,1000,1000,1000,101828419,1000,1000,1000,1000
49201145,1000,1000,1000,1000,101928379,1000,1000,1000,1000
49203644,1000,1000,1000,1000,102028339,1000,1000,1000,1000
49206143,1000,1000,1000,1000,102128299,1000,1000,1000,1000
49208642,1000,1000,1000,1000,102228259,1000,1000,1000,1000
49211141,1000,1000,1000,1000,102328219,1000,1000,1000,1000
49213640,1000,1000,1000,1000,102428179,1000,1000,1000,1000
49216139,1000,1000,1000,1000,102528972,1000,1000,1000,1000
49218638,1000,1000,1000,1000,102628932,1000,1000,1000,1000
49221137,1000,1000,1000,1000,102728892,1000,1000,1000,1000
49223636,1000,1000,1000,1000,102828852,1000,1000,1000,1000
49226135,1000,1000,1000,1000,102928812,1000,1000,1000,1000
49228634,1000,1000,1000,1000,103028772,1000,1000,1000,1000
49231133,1000,1000,1000,1000,103128732,1000,1000,1000,1000
49233632,1000,1000,1000,1000,103228692,1000,1000,1000,1000
49236131,1000,1000,1000,1000,103328652,1000,1000,1000,1000
49238630,1000,1000,1000,1000,103428612,1000,1000,1000,1000
49241129,1000,1000,1000,1000,103528572,1000,1000,1000,1000
49243628,1000,1000,1000,1000,103628532,1000,1000,1000,1000
49246127,1000,1000,1000,1000,103728492,1000,1000,1000,1000
49248626,1000,1000,1000,1000,103828452,1000,1000,1000,1000
49251125,1000,1000,1000,1000,103928412,1000,1000,1000,1000
49253624,1000,1000,1000,1000,104028372,1000,1000,1000,1000
49256123,1000,1000,1000,1000,104128332,1000,1000,1000,1000
49258622,1000,1000,1000,1000,104228292,1000,1000,1000,1000
49261121,1000,1000,1000,1000,104328252,1000,1000,1000,1000
49263620,1000,1000,1000,1000,104428212,1000,1000,1000,1000
49266119,1000,1000,1000,1000,104528172,1000,1000,1000,1000
49268618,1000,1000,1000,1000,104628965,1000,1000,1000,1000
49271117,1000,1000,1000,1000,104728925,1000,1000,1000,1000
49273616,1000,1000,1000,1000,104828885,1000,1000,1000,1000
49276115,1000,1000,1000,1000,104928845,1000,1000,1000,1000
49278614,1000,1000,1000,1000,105028805,1000,1000,1000,1000
49281113,1000,1000,1000,1000,105128765,1000,1000,1000,1000
49283612,1000,1000,1000,1000,105228725,1000,1000,1000,1000
49286111,1000,1000,1000,1000,105328685,1000,1000,1000,1000
49288610,1000,1000,1000,1000,105428645,1000,1000,1000,1000
49291109,1000,1000,1000,1000,105528605,1000,1000,1000,1000
49293608,1000,1000,1000,1000,105628565,1000,1000,1000,1000
49296107,1000,1000,1000,1000,105728525,1000,1000,1000,1000
49298606,1000,1000,1000,1000,105828485,1000,1000,1000,1000
49301105,1000,1000,1000,1000,105928445,1000,1000,1000,1000
49303604,1000,1000,1000,1000,106028405,1000,1000,1000,1000
49306103,1000,1000,1000,1000,106128365,1000,1000,1000,1000
49308602,1000,1000,1000,1000,106228325,1000,1000,1000,1000
49311101,1000,1000,1000,1000,106328285,1000,1000,1000,1000
49313600,1000,1000,1000,1000,106428245,1000,1000,1000,1000
49316099,1000,1000,1000,1000,106528205,1000,1000,1000,1000
49318598,1000,1000,1000,1000,106628165,1000,1000,1000,1000
49321097,1000,1000,1000,1000,106728958,1000,1000,1000,1000
49323596,1000,1000,1000,1000,106828918,1000,1000,1000,1000
49326095,1000,1000,1000,1000,106928878,1000,1000,1000,1000
49328594,1000,1000,1000,1000,107028838,1000,1000,1000,1000
49331093,1000,1000,1000,1000,107128798,1000,1000,1000,1000
49333592,1000,1000,1000,1000,107228758,1000,1000,1000,1000
49336091,1000,1000,1000,1000,107328718,1000,1000,1000,1000
49338590,1000,1000,1000,1000,107428678,1000,1000,1000,1000
49341089,1000,1000,1000,1000,107528638,1000,1000,1000,1000
49343588,1000,1000,1000,1000,107628598,1000,1000,1000,1000
49346087,1000,1000,1000,1000,107728558,1000,1000,1000,1000
49348586,1000,1000,1000,1000,107828518,1000,1000,1000,1000
49351085,1000,1000,1000,1000,107928478,1000,1000,1000,1000
49353584,1000,1000,1000,1000,108028438,1000,1000,1000,1000
49356083,1000,1000,1000,1000,108128398,1000,1000,1000,1000
49358582,1000,1000,1000,1000,108228358,1000,1000,1000,1000
49361081,1000,1000,1000,1000,108328318,1000,1000,1000,1000
49363580,1000,1000,1000,1000,108428278,1000,1000,1000,1000
49366079,1000,1000,1000,1000,108528238,1000,1000,1000,1000
49368578,1000,1000,1000,1000,108628198,1000,1000,1000,1000
49371077,1000,1000,1000,1000,108728158,1000,1000,1000,1000
49373576,1000,1000,1000,1000,108828951,1000,1000,1000,1000
49376075,1000,1000,1000,1000,108928911,1000,1000,1000,1000
49378574,1000,1000,1000,1000,109028871,1000,1000,1000,1000
49381073,1000,1000,1000,1000,109128831,1000,1000,1000,1000
49383572,1000,1000,1000,1000,109228791,1000,1000,1000,1000
49386071,1000,1000,1000,1000,109328751,1000,1000,1000,1000
49388570,1000,1000,1000,1000,109428711,1000,1000,1000,1000
49391069,1000,1000,1000,1000,109528671,1000,1000,1000,1000
49393568,1000,1000,1000,1000,109628631,1000,1000,1000,1000
49396067,1000,1000,1000,1000,109728591,1000,1000,1000,1000
49398566,1000,1000,1000,1000,109828551,1000,1000,1000,1000
49401065,1000,1000,1000,1000,109928511,1000,1000,1000,1000
49403564,1000,1000,1000,1000,110028471,1000,1000,1000,1000
49406063,1000,1000,1000,1000,110128431,1000,1000,1000,1000
49408562,1000,1000,1000,1000,110228391,1000,1000,1000,1000
49411061,1000,1000,1000,1000,110328351,1000,1000,1000,1000
49413560,1000,1000,1000,1000,110428311,1000,1000,1000,1000
49416059,1000,1000,1000,1000,110528271,1000,1000,1000,1000
49418558,1000,1000,1000,1000,110628231,1000,1000,1000,1000
49421057,1000,1000,1000,1000,110728191,1000,1000,1000,1000
49423556,1000,1000,1000,1000,110828984,1000,1000,1000,1000
49426055,1000,1000,1000,1000,110928944,1000,1000,1000,1000
49428554,1000,1000,1000,1000,111028904,1000,1000,1000,1000
49431053,1000,1000,1000,1000,111128864,1000,1000,1000,1000
49433552,1000,1000,1000,1000,111228824,1000,1000,1000,1000
49436051,1000,1000,1000,1000,111328784,1000,1000,1000,1000
49438550,1000,1000,1000,1000,111428744,1000,1000,1000,1000
49441049,1000,1000,1000,1000,111528704,1000,1000,1000,1000
49443548,1000,1000,1000,1000,111628664,1000,1000,1000,1000
49446047,1000,1000,1000,1000,111728624,1000,1000,1000,1000
49448546,1000,1000,1000,1000,111828584,1000,1000,1000,1000
49451045,1000,1000,1000,1000,111928544,1000,1000,1000,1000
49453544,1000,1000,1000,1000,112028504,1000,1000,1000,1000
49456043,1000,1000,1000,1000,112128464,1000,1000,1000,1000
49458542,1000,1000,1000,1000,112228424,1000,1000,1000,1000
49461041,1000,1000,1000,1000,112328384,1000,1000,1000,1000
49463540,1000,1000,1000,1000,112428344,1000,1000,1000,1000
49466039,1000,1000,1000,1000,112528304,1000,1000,1000,1000
49468538,1000,1000,1000,1000,112628264,1000,1000,1000,1000
49471037,1000,1000,1000,1000,112728224,1000,1000,1000,1000
49473536,1000,1000,1000,1000,112828184,1000,1000,1000,1000
49476035,1000,1000,1000,1000,112928977,1000,1000,1000,1000
49478534,1000,1000,1000,1000,113028937,1000,1000,1000,1000
49481033,1000,1000,1000,1000,113128897,1000,1000,1000,1000
49483532,1000,1000,1000,1000,113228857,1000,1000,1000,1000
49486031,1000,1000,1000,1000,113328817,1000,1000,1000,1000
49488530,1000,1000,1000,1000,113428777,1000,1000,1000,1000
49491029,1000,1000,1000,1000,113528737,1000,1000,1000,1000
49493528,1000,1000,1000,1000,113628697,1000,1000,1000,1000
49496027,1000,1000,1000,1000,113728657,1000,1000,1000,1000
49498526,1000,1000,1000,1000,113828617,1000,1000,1000,1000
49501025,1000,1000,1000,1000,113928577,1000,1000,1000,1000
49503524,1000,1000,1000,1000,114028537,1000,1000,1000,1000
49506023,1000,1000,1000,1000,114128497,1000,1000,1000,1000
49508522,1000,1000,1000,1000,114228457,1000,1000,1000,1000
49511021,1000,1000,1000,1000,114328417,1000,1000,1000,1000
49513520,1000,1000,1000,1000,114428377,1000,1000,1000,1000
49516019,1000,1000,1000,1000,114528337,1000,1000,1000,1000
49518518,1000,1000,1000,1000,114628297,1000,1000,1000,1000
49521017,1000,1000,1000,1000,114728257,1000,1000,1000,1000
49523516,1000,1000,1000,1000,114828217,1000,1000,1000,1000
49526015,1000,1000,1000,1000,114928177,1000,1000,1000,1000
49528514,1000,1000,1000,1000,115028970,1000,1000,1000,1000
49531013,1000,1000,1000,1000,115128930,1000,1000,1000,1000
49533512,1000,1000,1000,1000,115228890,1000,1000,1000,1000
49536011,1000,1000,1000,1000,115328850,1000,1000,1000,1000
49538510,1000,1000,1000,1000,115428810,1000,1000,1000,1000
49541009,1000,1000,1000,1000,115528770,1000,1000,1000,1000
49543508,1000,1000,1000,1000,115628730,1000,1000,1000,1000
49546007,1000,1000,1000,1000,115728690,1000,1000,1000,1000
49548506,1000,1000,1000,1000,115828650,1000,1000,1000,1000
49551005,1000,1000,1000,1000,115928610,1000,1000,1000,1000
49553504,1000,1000,1000,1000,116028570,1000,1000,1000,1000
49556003,1000,1000,1000,1000,116128530,1000,1000,1000,1000
49558502,1000,1000,1000,1000,116228490,1000,1000,1000,1000
49561001,1000,1000,1000,1000,116328450,1000,1000,1000,1000
49563500,1000,1000,1000,1000,116428410,1000,1000,1000,1000
49565999,1000,1000,1000,1000,,,,,
49568498,1000,1000,1000,1000,,,,,
49570997,1000,1000,1000,1000,,,,,
49573496,1000,1000,1000,1000,,,,,
49575995,1000,1000,1000,1000,,,,,
49578494,1000,1000,1000,1000,,,,,
49580993,1000,1000,1000,1000,,,,,
49583492,1000,1000,1000,1000,,,,,
49585991,1000,1000,1000,1000,,,,,
49588490,1000,1000,1000,1000,,,,,
49590989,1000,1000,1000,1000,,,,,
49593488,1000,1000,1000,1000,,,,,
49595987,1000,1000,1000,1000,,,,,
49598486,1000,1000,1000,1000,,,,,
49600985,1000,1000,1000,1000,,,,,
49603484,1000,1000,1000,1000,,,,,
49605983,1000,1000,1000,1000,,,,,
49608482,1000,1000,1000,1000,,,,,
49610981,1000,1000,1000,1000,,,,,
49613480,1000,1000,1000,1000,,,,,
49615979,1000,1000,1000,1000,,,,,
49618478,1000,1000,1000,1000,,,,,
49620977,1000,1000,1000,1000,,,,,
49623476,1000,1000,1000,1000,,,,,
49625975,1000,1000,1000,1000,,,,,
49628474,1000,1000,1000,1000,,,,,
49630973,1000,1000,1000,1000,,,,,
49633472,1000,1000,1000,1000,,,,,
49635971,1000,1000,1000,1000,,,,,
49638470,1000,1000,1000,1000,,,,,
49640969,1000,1000,1000,1000,,,,,
49643468,1000,1000,1000,1000,,,,,
49645967,1000,1000,1000,1000,,,,,
49648466,1000,1000,1000,1000,,,,,
49650965,1000,1000,1000,1000,,,,,
49653464,1000,1000,1000,1000,,,,,
49655963,1000,1000,1000,1000,,,,,
49658462,1000,1000,1000,1000,,,,,
49660961,1000,1000,1000,1000,,,,,
49663460,1000,1000,1000,1000,,,,,
49665959,1000,1000,1000,1000,,,,,
49668458,1000,1000,1000,1000,,,,,
49670957,1000,1000,1000,1000,,,,,
49673456,1000,1000,1000,1000,,,,,
49675955,1000,1000,1000,1000,,,,,
49678454,1000,1000,1000,1000,,,,,
49680953,1000,1000,1000,1000,,,,,
49683452,1000,1000,1000,1000,,,,,
49685951,1000,1000,1000,1000,,,,,
49688450,1000,1000,1000,1000,,,,,
49690949,1000,1000,1000,1000,,,,,
49693448,1000,1000,1000,1000,,,,,
49695947,1000,1000,1000,1000,,,,,
49698446,1000,1000,1000,1000,,,,,
49700945,1000,1000,1000,1000,,,,,
49703444,1000,1000,1000,1000,,,,,
49705943,1000,1000,1000,1000,,,,,
49708442,1000,1000,1000,1000,,,,,
49710941,1000,1000,1000,1000,,,,,
49713440,1000,1000,1000,1000,,,,,
49715939,1000,1000,1000,1000,,,,,
49718438,1000,1000,1000,1000,,,,,
49720937,1000,1000,1000,1000,,,,,
49723436,1000,1000,1000,1000,,,,,
49725935,1000,1000,1000,1000,,,,,
49728434,1000,1000,1000,1000,,,,,
49730933,1000,1000,1000,1000,,,,,
49733432,1000,1000,1000,1000,,,,,
49735931,1000,1000,1000,1000,,,,,
49738430,1000,1000,1000,1000,,,,,
49740929,1000,1000,1000,1000,,,,,
49743428,1000,1000,1000,1000,,,,,
49745927,1000,1000,1000,1000,,,,,
49748426,1000,1000,1000,1000,,,,,
49750925,1000,1000,1000,1000,,,,,
49753424,1000,1000,1000,1000,,,,,
49755923,1000,1000,1000,1000,,,,,
49758422,1000,1000,1000,1000,,,,,
49760921,1000,1000,1000,1000,,,,,
49763420,1000,1000,1000,1000,,,,,
49765919,1000,1000,1000,1000,,,,,
49768418,1000,1000,1000,1000,,,,,
49770917,1000,1000,1000,1000,,,,,
49773416,1000,1000,1000,1000,,,,,
49775915,1000,1000,1000,1000,,,,,
49778414,1000,1000,1000,1000,,,,,
49780913,1000,1000,1000,1000,,,,,
49783412,1000,1000,1000,1000,,,,,
49785911,1000,1000,1000,1000,,,,,
49788410,1000,1000,1000,1000,,,,,
49790909,1000,1000,1000,1000,,,,,
49793408,1000,1000,1000,1000,,,,,
49795907,1000,1000,1000,1000,,,,,
49798406,1000,1000,1000,1000,,,,,
49800905,1000,1000,1000,1000,,,,,
49803404,1000,1000,1000,1000,,,,,
49805903,1000,1000,1000,1000,,,,,
49808402,1000,1000,1000,1000,,,,,
49810901,1000,1000,1000,1000,,,,,
49813400,1000,1000,1000,1000,,,,,
49815899,1000,1000,1000,1000,,,,,
49818398,1000,1000,1000,1000,,,,,
49820897,1000,1000,1000,1000,,,,,
49823396,1000,1000,1000,1000,,,,,
49825895,1000,1000,1000,1000,,,,,
49828394,1000,1000,1000,1000,,,,,
49830893,1000,1000,1000,1000,,,,,
49833392,1000,1000,1000,1000,,,,,
49835891,1000,1000,1000,1000,,,,,
49838390,1000,1000,1000,1000,,,,,
49840889,1000,1000,1000,1000,,,,,
49843388,1000,1000,1000,1000,,,,,
49845887,1000,1000,1000,1000,,,,,
49848386,1000,1000,1000,1000,,,,,
49850885,1000,1000,1000,1000,,,,,
49853384,1000,1000,1000,1000,,,,,
49855883,1000,1000,1000,1000,,,,,
49858382,1001,1001,1001,1001,,,,,
49860881,1002,1002,1002,1002,,,,,
49863380,1003,1003,1003,1003,,,,,
49865879,1003,1003,1003,1003,,,,,
49868378,1004,1004,1004,1004,,,,,
49870877,1005,1005,1005,1005,,,,,
49873376,1006,1006,1006,1006,,,,,
49875875,1006,1006,1006,1006,,,,,
49878374,1007,1007,1007,1007,,,,,
49880873,1008,1008,1008,1008,,,,,
49883372,1009,1009,1009,1009,,,,,
49885871,1009,1009,1009,1009,,,,,
49888370,1010,1010,1010,1010,,,,,
49890869,1011,1011,1011,1011,,,,,
49893368,1012,1012,1012,1012,,,,,
49895867,1012,1012,1012,1012,,,,,
49898366,1013,1013,1013,1013,,,,,
49900865,1014,1014,1014,1014,,,,,
49903364,1015,1015,1015,1015,,,,,
49905863,1015,1015,1015,1015,,,,,
49908362,1016,1016,1016,1016,,,,,
49910861,1017,1017,1017,1017,,,,,
49913360,1018,1018,1018,1018,,,,,
49915859,1018,1018,1018,1018,,,,,
49918358,1019,1019,1019,1019,,,,,
49920857,1020,1020,1020,1020,,,,,
49923356,1021,1021,1021,1021,,,,,
49925855,1021,1021,1021,1021,,,,,
49928354,1022,1022,1022,1022,,,,,
49930853,1023,1023,1023,1023,,,,,
49933352,1024,1024,1024,1024,,,,,
49935851,1024,1024,1024,1024,,,,,
49938350,1025,1025,1025,1025,,,,,
49940849,1026,1026,1026,1026,,,,,
49943348,1027,1027,1027,1027,,,,,
49945847,1027,1027,1027,1027,,,,,
49948346,1028,1028,1028,1028,,,,,
49950845,1029,1029,1029,1029,,,,,
49953344,1030,1030,1030,1030,,,,,
49955843,1030,1030,1030,1030,,,,,
49958342,1031,1031,1031,1031,,,,,
49960841,1032,1032,1032,1032,,,,,
49963340,1033,1033,1033,1033,,,,,
49965839,1033,1033,1033,1033,,,,,
49968338,1034,1034,1034,1034,,,,,
49970837,1035,1035,1035,1035,,,,,
49973336,1036,1036,1036,1036,,,,,
49975835,1036,1036,1036,1036,,,,,
49978334,1037,1037,1037,1037,,,,,
49980833,1038,1038,1038,1038,,,,,
49983332,1039,1039,1039,1039,,,,,
49985831,1039,1039,1039,1039,,,,,
49988330,1040,1040,1040,1040,,,,,
49990829,1041,1041,1041,1041,,,,,
49993328,1042,1042,1042,1042,,,,,
49995827,1042,1042,1042,1042,,,,,
49998326,1043,1043,1043,1043,,,,,
50000825,1044,1044,1044,1044,,,,,
50003324,1045,1045,1045,1045,,,,,
50005823,1045,1045,1045,1045,,,,,
50008322,1046,1046,1046,1046,,,,,
50010821,1047,1047,1047,1047,,,,,
50013320,1048,1048,1048,1048,,,,,
50015819,1048,1048,1048,1048,,,,,
50018318,1049,1049,1049,1049,,,,,
50020817,1050,1050,1050,1050,,,,,
50023316,1051,1051,1051,1051,,,,,
50025815,1051,1051,1051,1051,,,,,
50028314,1052,1052,1052,1052,,,,,
50030813,1053,1053,1053,1053,,,,,
50033312,1054,1054,1054,1054,,,,,
50035811,1054,1054,1054,1054,,,,,
50038310,1055,1055,1055,1055,,,,,
50040809,1056,1056,1056,1056,,,,,
50043308,1057,1057,1057,1057,,,,,
50045807,1057,1057,1057,1057,,,,,
50048306,1058,1058,1058,1058,,,,,
50050805,1059,1059,1059,1059,,,,,
50053304,1060,1060,1060,1060,,,,,
50055803,1060,1060,1060,1060,,,,,
50058302,1061,1061,1061,1061,,,,,
50060801,1062,1062,1062,1062,,,,,
50063300,1063,1063,1063,1063,,,,,
50065799,1063,1063,1063,1063,,,,,
50068298,1064,1064,1064,1064,,,,,
50070797,1065,1065,1065,1065,,,,,
50073296,1066,1066,1066,1066,,,,,
50075795,1066,1066,1066,1066,,,,,
50078294,1067,1067,1067,1067,,,,,
50080793,1068,1068,1068,1068,,,,,
50083292,1069,1069,1069,1069,,,,,
50085791,1069,1069,1069,1069,,,,,
50088290,1070,1070,1070,1070,,,,,
50090789,1071,1071,1071,1071,,,,,
50093288,1072,1072,1072,1072,,,,,
50095787,1072,1072,1072,1072,,,,,
50098286,1073,1073,1073,1073,,,,,
50100785,1074,1074,1074,1074,,,,,
50103284,1075,1075,1075,1075,,,,,
50105783,1075,1075,1075,1075,,,,,
50108282,1076,1076,1076,1076,,,,,
50110781,1077,1077,1077,1077,,,,,
50113280,1078,1078,1078,1078,,,,,
50115779,1078,1078,1078,1078,,,,,
50118278,1079,1079,1079,1079,,,,,
50120777,1080,1080,1080,1080,,,,,
50123276,1081,1081,1081,1081,,,,,
50125775,1081,1081,1081,1081,,,,,
50128274,1082,1082,1082,1082,,,,,
50130773,1083,1083,1083,1083,,,,,
50133272,1084,1084,1084,1084,,,,,
50135771,1084,1084,1084,1084,,,,,
50138270,1085,1085,1085,1085,,,,,
50140769,1086,1086,1086,1086,,,,,
50143268,1087,1087,1087,1087,,,,,
50145767,1087,1087,1087,1087,,,,,
50148266,1088,1088,1088,1088,,,,,
50150765,1089,1089,1089,1089,,,,,
50153264,1090,1090,1090,1090,,,,,
50155763,1090,1090,1090,1090,,,,,
50158262,1091,1091,1091,1091,,,,,
50160761,1092,1092,1092,1092,,,,,
50163260,1093,1093,1093,1093,,,,,
50165759,1093,1093,1093,1093,,,,,
50168258,1094,1094,1094,1094,,,,,
50170757,1095,1095,1095,1095,,,,,
50173256,1096,1096,1096,1096,,,,,
50175755,1096,1096,1096,1096,,,,,
50178254,1097,1097,1097,1097,,,,,
50180753,1098,1098,1098,1098,,,,,
50183252,1099,1099,1099,1099,,,,,
50185751,1099,1099,1099,1099,,,,,
50188250,1100,1100,1100,1100,,,,,
50190749,1101,1101,1101,1101,,,,,
50193248,1101,1101,1101,1101,,,,,
50195747,1102,1102,1102,1102,,,,,
50198246,1103,1103,1103,1103,,,,,
50200745,1104,1104,1104,1104,,,,,
50203244,1104,1104,1104,1104,,,,,
50205743,1105,1105,1105,1105,,,,,
50208242,1106,1106,1106,1106,,,,,
50210741,1107,1107,1107,1107,,,,,
50213240,1107,1107,1107,1107,,,,,
50215739,1108,1108,1108,1108,,,,,
50218238,1109,1109,1109,1109,,,,,
50220737,1110,1110,1110,1110,,,,,
50223236,1110,1110,1110,1110,,,,,
50225735,1111,1111,1111,1111,,,,,
50228234,1112,1112,1112,1112,,,,,
50230733,1113,1113,1113,1113,,,,,
50233232,1113,1113,1113,1113,,,,,
50235731,1114,1114,1114,1114,,,,,
50238230,1115,1115,1115,1115,,,,,
50240729,1116,1116,1116,1116,,,,,
50243228,1116,1116,1116,1116,,,,,
50245727,1117,1117,1117,1117,,,,,
50248226,1118,1118,1118,1118,,,,,
50250725,1119,1119,1119,1119,,,,,
50253224,1119,1119,1119,1119,,,,,
50255723,1120,1120,1120,1120,,,,,
50258222,1121,1121,1121,1121,,,,,
50260721,1122,1122,1122,1122,,,,,
50263220,1122,1122,1122,1122,,,,,
50265719,1123,1123,1123,1123,,,,,
50268218,1124,1124,1124,1124,,,,,
50270717,1125,1125,1125,1125,,,,,
50273216,1125,1125,1125,1125,,,,,
50275715,1126,1126,1126,1126,,,,,
50278214,1127,1127,1127,1127,,,,,
50280713,1128,1128,1128,1128,,,,,
50283212,1128,1128,1128,1128,,,,,
50285711,1129,1129,1129,1129,,,,,
50288210,1130,1130,1130,1130,,,,,
50290709,1131,1131,1131,1131,,,,,
50293208,1131,1131,1131,1131,,,,,
50295707,1132,1132,1132,1132,,,,,
50298206,1133,1133,1133,1133,,,,,
50300705,1134,1134,1134,1134,,,,,
50303204,1134,1134,1134,1134,,,,,
50305703,1135,1135,1135,1135,,,,,
50308202,1136,1136,1136,1136,,,,,
50310701,1137,1137,1137,1137,,,,,
50313200,1137,1137,1137,1137,,,,,
50315699,1138,1138,1138,1138,,,,,
50318198,1139,1139,1139,1139,,,,,
50320697,1140,1140,1140,1140,,,,,
50323196,1140,1140,1140,1140,,,,,
50325695,1141,1141,1141,1141,,,,,
50328194,1142,1142,1142,1142,,,,,
50330693,1143,1143,1143,1143,,,,,
50333192,1143,1143,1143,1143,,,,,
50335691,1144,1144,1144,1144,,,,,
50338190,1145,1145,1145,1145,,,,,
50340689,1146,1146,1146,1146,,,,,
50343188,1146,1146,1146,1146,,,,,
50345687,1147,1147,1147,1147,,,,,
50348186,1148,1148,1148,1148,,,,,
50350685,1149,1149,1149,1149,,,,,
50353184,1149,1149,1149,1149,,,,,
50355683,1150,1150,1150,1150,,,,,
50358182,1161,1154,1154,1162,,,,,
50360681,1169,1162,1162,1170,,,,,
50363180,1177,1170,1170,1178,,,,,
50365679,1185,1177,1178,1185,,,,,
50368178,1192,1185,1186,1193,,,,,
50370677,1200,1193,1193,1200,,,,,
50373176,1207,1200,1201,1208,,,,,
50375675,1214,1207,1208,1215,,,,,
50378174,1221,1215,1215,1222,,,,,
50380673,1228,1222,1222,1229,,,,,
50383172,1235,1229,1229,1236,,,,,
50385671,1242,1236,1236,1243,,,,,
50388170,1249,1242,1243,1249,,,,,
50390669,1255,1249,1249,1256,,,,,
50393168,1262,1256,1256,1262,,,,,
50395667,1268,1262,1263,1269,,,,,
50398166,1275,1269,1269,1275,,,,,
50400665,1281,1275,1275,1281,,,,,
50403164,1287,1281,1282,1288,,,,,
50405663,1293,1287,1288,1294,,,,,
50408162,1299,1294,1294,1300,,,,,
50410661,1305,1300,1300,1306,,,,,
50413160,1311,1306,1306,1312,,,,,
50415659,1317,1312,1312,1318,,,,,
50418158,1323,1317,1318,1323,,,,,
50420657,1329,1323,1324,1329,,,,,
50423156,1334,1329,1329,1335,,,,,
50425655,1340,1335,1335,1341,,,,,
50428154,1346,1340,1341,1346,,,,,
50431486,1351,1346,1346,1352,,,,,
50433985,1357,1352,1352,1357,,,,,
50436484,1362,1357,1357,1363,,,,,
50438983,1368,1362,1363,1368,,,,,
50441482,1373,1368,1368,1373,,,,,
50443981,1378,1373,1373,1379,,,,,
50446480,1383,1378,1379,1384,,,,,
50448979,1389,1384,1384,1389,,,,,
50451478,1394,1389,1389,1394,,,,,
50453977,1399,1394,1394,1400,,,,,
50456476,1404,1399,1399,1405,,,,,
50458975,1409,1404,1404,1410,,,,,
50461474,1414,1409,1409,1415,,,,,
50463973,1419,1414,1414,1420,,,,,
50466472,1424,1419,1419,1425,,,,,
50468971,1429,1424,1424,1430,,,,,
50471470,1434,1429,1429,1434,,,,,
50473969,1439,1434,1434,1439,,,,,
50476468,1443,1439,1439,1444,,,,,
50478967,1448,1444,1444,1449,,,,,
50481466,1453,1448,1448,1454,,,,,
50483965,1458,1453,1453,1458,,,,,
50486464,1462,1458,1458,1463,,,,,
50488963,1467,1462,1463,1468,,,,,
50491462,1472,1467,1467,1472,,,,,
50493961,1476,1472,1472,1477,,,,,
50496460,1481,1476,1476,1481,,,,,
50498959,1485,1481,1481,1486,,,,,
50501458,1490,1485,1485,1490,,,,,
50503957,1494,1490,1490,1495,,,,,
50506456,1499,1494,1494,1499,,,,,
50508955,1503,1499,1499,1504,,,,,
50511454,1508,1503,1503,1508,,,,,
50513953,1512,1508,1508,1513,,,,,
50516452,1516,1512,1512,1517,,,,,
50518951,1521,1516,1516,1521,,,,,
50521450,1525,1520,1521,1525,,,,,
50523949,1529,1525,1525,1530,,,,,
50526448,1534,1529,1529,1534,,,,,
50528947,1538,1533,1533,1538,,,,,
50531446,1542,1537,1538,1542,,,,,
50533945,1546,1542,1542,1547,,,,,
50536444,1550,1546,1546,1551,,,,,
50538943,1555,1550,1550,1555,,,,,
50541442,1559,1554,1554,1559,,,,,
50543941,1563,1558,1558,1563,,,,,
50546440,1567,1562,1563,1567,,,,,
50548939,1571,1566,1567,1571,,,,,
50551438,1575,1570,1571,1575,,,,,
50553937,1579,1574,1575,1579,,,,,
50556436,1583,1578,1579,1583,,,,,
50558935,1587,1582,1583,1587,,,,,
50561434,1591,1586,1587,1591,,,,,
50563933,1595,1590,1591,1595,,,,,
50566432,1599,1594,1594,1599,,,,,
50568931,1603,1598,1598,1603,,,,,
50571430,1607,1602,1602,1607,,,,,
50573929,1610,1606,1606,1611,,,,,
50576428,1614,1610,1610,1615,,,,,
50578927,1618,1614,1614,1618,,,,,
50581426,1622,1617,1618,1622,,,,,
50583925,1626,1621,1621,1626,,,,,
50586424,1630,1625,1625,1630,,,,,
50588923,1633,1629,1629,1634,,,,,
50591422,1637,1633,1633,1637,,,,,
50593921,1641,1636,1637,1641,,,,,
50596420,1645,1640,1640,1645,,,,,
50598919,1648,1644,1644,1649,,,,,
50601418,1652,1647,1648,1652,,,,,
50603917,1656,1651,1651,1656,,,,,
50606416,1659,1655,1655,1660,,,,,
50608915,1663,1658,1659,1663,,,,,
50611414,1667,1662,1662,1667,,,,,
50613913,1670,1666,1666,1671,,,,,
50616412,1674,1669,1670,1674,,,,,
50618911,1677,1673,1673,1678,,,,,
50621410,1681,1676,1677,1681,,,,,
50623909,1685,1680,1680,1685,,,,,
50626408,1688,1684,1684,1688,,,,,
50628907,1692,1687,1687,1692,,,,,
50631406,1695,1691,1691,1695,,,,,
50633905,1699,1694,1694,1699,,,,,
50636404,1702,1698,1698,1702,,,,,
50638903,1706,1701,1701,1706,,,,,
50641402,1709,1705,1705,1709,,,,,
50643901,1713,1708,1708,1713,,,,,
50646400,1716,1711,1712,1716,,,,,
50648899,1720,1715,1715,1720,,,,,
50651398,1723,1718,1719,1723,,,,,
50653897,1726,1722,1722,1727,,,,,
50656396,1730,1725,1726,1730,,,,,
50658895,1733,1729,1729,1733,,,,,
50661394,1736,1732,1732,1737,,,,,
50663893,1740,1735,1736,1740,,,,,
50666392,1743,1739,1739,1743,,,,,
50668891,1747,1742,1742,1747,,,,,
50671390,1750,1745,1746,1750,,,,,
50673889,1753,1749,1749,1753,,,,,
50676388,1756,1752,1752,1757,,,,,
50678887,1760,1755,1756,1760,,,,,
50681386,1763,1759,1759,1763,,,,,
50683885,1766,1762,1762,1767,,,,,
50686384,1770,1765,1765,1770,,,,,
50688883,1773,1768,1769,1773,,,,,
50691382,1776,1772,1772,1776,,,,,
50693881,1779,1775,1775,1780,,,,,
50696380,1782,1778,1778,1783,,,,,
50698879,1786,1781,1782,1786,,,,,
50701378,1789,1785,1785,1789,,,,,
50703877,1792,1788,1788,1792,,,,,
50706376,1795,1791,1791,1796,,,,,
50708875,1798,1794,1794,1799,,,,,
50711374,1802,1797,1798,1802,,,,,
50713873,1805,1801,1801,1805,,,,,
50716372,1808,1804,1804,1808,,,,,
50718871,1811,1807,1807,1811,,,,,
50721370,1814,1810,1810,1815,,,,,
50723869,1817,1813,1813,1818,,,,,
50726368,1820,1816,1816,1821,,,,,
50728867,1823,1819,1819,1824,,,,,
50731366,1826,1823,1822,1827,,,,,
50733865,1829,1826,1826,1830,,,,,
50736364,1833,1829,1829,1833,,,,,
50738863,1836,1832,1832,1836,,,,,
50741362,1839,1835,1835,1839,,,,,
50743861,1842,1838,1838,1842,,,,,
50746360,1845,1841,1841,1845,,,,,
50748859,1848,1844,1844,1848,,,,,
50751358,1851,1847,1847,1851,,,,,
50753857,1854,1850,1850,1854,,,,,
50756356,1857,1853,1853,1857,,,,,
50758855,1860,1856,1856,1860,,,,,
50761354,1863,1859,1859,1863,,,,,
50763853,1866,1862,1862,1866,,,,,
50766352,1869,1865,1865,1869,,,,,
50768851,1872,1868,1868,1872,,,,,
50771350,1875,1871,1871,1875,,,,,
50773849,1878,1874,1874,1878,,,,,
50776348,1881,1877,1877,1881,,,,,
50778847,1884,1880,1880,1884,,,,,
50781346,1887,1882,1883,1887,,,,,
50783845,1890,1885,1885,1890,,,,,
50786344,1892,1888,1888,1893,,,,,
50788843,1895,1891,1891,1896,,,,,
50791342,1898,1894,1894,1899,,,,,
50793841,1901,1897,1897,1902,,,,,
50796340,1904,1900,1900,1904,,,,,
50798839,1907,1903,1903,1907,,,,,
50801338,1910,1906,1906,1910,,,,,
50803837,1913,1908,1909,1913,,,,,
50806336,1916,1911,1911,1916,,,,,
50808835,1917,1912,1913,1917,,,,,
50811334,1916,1912,1912,1916,,,,,
50813833,1915,1911,1911,1915,,,,,
50816332,1914,1910,1910,1915,,,,,
50818831,1914,1909,1909,1914,,,,,
50821330,1913,1909,1909,1913,,,,,
50823829,1912,1908,1908,1913,,,,,
50826328,1912,1907,1907,1912,,,,,
50828827,1911,1907,1907,1911,,,,,
50831326,1910,1906,1906,1911,,,,,
50833825,1910,1906,1906,1911,,,,,
50836324,1910,1905,1905,1910,,,,,
50838823,1909,1905,1905,1910,,,,,
50841322,1909,1905,1905,1910,,,,,
50843821,1909,1905,1905,1910,,,,,
50846320,1909,1905,1905,1909,,,,,
50848819,1909,1905,1905,1909,,,,,
50851318,1909,1905,1905,1909,,,,,
50853817,1909,1905,1905,1909,,,,,
50856316,1908,1905,1905,1909,,,,,
50858815,1908,1905,1905,1909,,,,,
50861314,1908,1905,1905,1909,,,,,
50863813,1908,1905,1905,1909,,,,,
50866312,1907,1904,1904,1908,,,,,
50868811,1907,1904,1904,1908,,,,,
50871310,1906,1903,1903,1907,,,,,
50873809,1906,1903,1903,1906,,,,,
50876308,1905,1902,1902,1905,,,,,
50878807,1904,1901,1901,1904,,,,,
50881306,1902,1900,1900,1903,,,,,
50883805,1901,1899,1899,1902,,,,,
50886304,1900,1897,1897,1900,,,,,
50888803,1898,1895,1896,1898,,,,,
50891302,1896,1894,1894,1897,,,,,
50893801,1894,1892,1892,1895,,,,,
50896300,1892,1890,1890,1893,,,,,
50898799,1890,1888,1888,1891,,,,,
50901298,1888,1886,1886,1888,,,,,
50903797,1886,1883,1883,1886,,,,,
50906296,1883,1881,1881,1883,,,,,
50908795,1880,1878,1878,1881,,,,,
50911294,1878,1876,1876,1878,,,,,
50913793,1875,1873,1873,1875,,,,,
50916292,1872,1870,1870,1872,,,,,
50918791,1869,1867,1868,1869,,,,,
50921290,1866,1864,1865,1866,,,,,
50923789,1863,1861,1862,1863,,,,,
50926288,1860,1858,1859,1860,,,,,
50928787,1857,1855,1855,1857,,,,,
50931286,1854,1852,1852,1854,,,,,
50933785,1851,1849,1849,1851,,,,,
50936284,1847,1845,1846,1847,,,,,
50938783,1844,1842,1843,1844,,,,,
50941282,1841,1839,1839,1840,,,,,
50943781,1837,1835,1836,1837,,,,,
50946280,1834,1832,1833,1834,,,,,
50948779,1830,1829,1829,1830,,,,,
50951278,1827,1825,1826,1827,,,,,
50953777,1824,1822,1823,1824,,,,,
50956276,1820,1819,1819,1820,,,,,
50958775,1817,1815,1816,1817,,,,,
50961274,1813,1812,1813,1813,,,,,
50963773,1810,1809,1809,1810,,,,,
50966272,1807,1805,1806,1806,,,,,
50968771,1803,1802,1803,1803,,,,,
50971270,1800,1799,1799,1800,,,,,
50973769,1797,1795,1796,1796,,,,,
50976268,1793,1792,1793,1793,,,,,
50978767,1790,1789,1789,1790,,,,,
50981266,1787,1785,1786,1786,,,,,
50983765,1783,1782,1783,1783,,,,,
50986264,1780,1779,1780,1780,,,,,
50988763,1777,1776,1776,1777,,,,,
50991262,1773,1773,1773,1773,,,,,
50993761,1770,1769,1770,1770,,,,,
50996260,1767,1766,1767,1767,,,,,
50998759,1764,1763,1764,1764,,,,,
51001258,1761,1760,1761,1761,,,,,
51003757,1758,1757,1758,1757,,,,,
51006256,1754,1754,1755,1754,,,,,
51008755,1751,1751,1752,1751,,,,,
51011254,1748,1748,1748,1748,,,,,
51013753,1745,1745,1746,1745,,,,,
51016252,1742,1742,1743,1742,,,,,
51018751,1739,1739,1740,1739,,,,,
51021250,1736,1736,1737,1736,,,,,
51023749,1733,1733,1734,1733,,,,,
51026248,1730,1731,1731,1731,,,,,
51028747,1727,1728,1728,1728,,,,,
51031246,1725,1725,1725,1725,,,,,
51033745,1722,1722,1722,1722,,,,,
