timestamp,TimeUS,C1,C2,C3,C4,C5,C6,C7,C8,C9,C10,C11,C12,C13,C14
1684065621.79999995,52228267,1000,1000,1000,1000,0,0,0,0,0,0,0,0,0,0
1684065621.89996004,52328227,1000,1000,1000,1000,0,0,0,0,0,0,0,0,0,0
1684065621.99991989,52428187,1000,1000,1000,1000,0,0,0,0,0,0,0,0,0,0
1684065622.10071301,52528980,1000,1000,1000,1000,0,0,0,0,0,0,0,0,0,0
1684065622.20067310,52628940,1000,1000,1000,1000,0,0,0,0,0,0,0,0,0,0
1684065622.30063295,52728900,1000,1000,1000,1000,0,0,0,0,0,0,0,0,0,0
1684065622.40059304,52828860,1000,1000,1000,1000,0,0,0,0,0,0,0,0,0,0
1684065622.50055289,52928820,1000,1000,1000,1000,0,0,0,0,0,0,0,0,0,0
1684065622.60051298,53028780,1000,1000,1000,1000,0,0,0,0,0,0,0,0,0,0
1684065622.70047307,53128740,1000,1000,1000,1000,0,0,0,0,0,0,0,0,0,0
1684065622.80043292,53228700,1000,1000,1000,1000,0,0,0,0,0,0,0,0,0,0
1684065622.90039301,53328660,1000,1000,1000,1000,0,0,0,0,0,0,0,0,0,0
1684065623.00035310,53428620,1000,1000,1000,1000,0,0,0,0,0,0,0,0,0,0
1684065623.10031295,53528580,1000,1000,1000,1000,0,0,0,0,0,0,0,0,0,0
1684065623.20027304,53628540,1000,1000,1000,1000,0,0,0,0,0,0,0,0,0,0
1684065623.30023289,53728500,1000,1000,1000,1000,0,0,0,0,0,0,0,0,0,0
1684065623.40019298,53828460,1000,1000,1000,1000,0,0,0,0,0,0,0,0,0,0
1684065623.50015306,53928420,1000,1000,1000,1000,0,0,0,0,0,0,0,0,0,0
1684065623.60011292,54028380,1000,1000,1000,1000,0,0,0,0,0,0,0,0,0,0
1684065623.70007300,54128340,1000,1000,1000,1000,0,0,0,0,0,0,0,0,0,0
1684065623.80003309,54228300,1013,1013,1013,1013,0,0,0,0,0,0,0,0,0,0
1684065623.89999294,54328260,1043,1043,1043,1043,0,0,0,0,0,0,0,0,0,0
1684065623.99995303,54428220,1073,1073,1073,1073,0,0,0,0,0,0,0,0,0,0
1684065624.09991288,54528180,1103,1103,1103,1103,0,0,0,0,0,0,0,0,0,0
1684065624.20070601,54628973,1133,1133,1133,1133,0,0,0,0,0,0,0,0,0,0
1684065624.30066609,54728933,1275,1268,1269,1275,0,0,0,0,0,0,0,0,0,0
1684065624.40062594,54828893,1486,1481,1481,1486,0,0,0,0,0,0,0,0,0,0
1684065624.50058603,54928853,1648,1644,1644,1649,0,0,0,0,0,0,0,0,0,0
1684065624.60054588,55028813,1786,1781,1781,1786,0,0,0,0,0,0,0,0,0,0
1684065624.70050597,55128773,1837,1832,1832,1837,0,0,0,0,0,0,0,0,0,0
1684065624.80046606,55228733,1853,1851,1851,1854,0,0,0,0,0,0,0,0,0,0
1684065624.90042591,55328693,1738,1738,1738,1739,0,0,0,0,0,0,0,0,0,0
1684065625.00038600,55428653,1635,1636,1636,1635,0,0,0,0,0,0,0,0,0,0
1684065625.10034609,55528613,1605,1606,1606,1604,0,0,0,0,0,0,0,0,0,0
1684065625.20030594,55628573,1617,1619,1619,1617,0,0,0,0,0,0,0,0,0,0
1684065625.30026603,55728533,1628,1627,1626,1630,0,0,0,0,0,0,0,0,0,0
1684065625.40022612,55828493,1626,1628,1622,1631,0,0,0,0,0,0,0,0,0,0
1684065625.50018597,55928453,1622,1623,1619,1626,0,0,0,0,0,0,0,0,0,0
1684065625.60014606,56028413,1618,1618,1618,1618,0,0,0,0,0,0,0,0,0,0
1684065625.70010591,56128373,1618,1617,1619,1616,0,0,0,0,0,0,0,0,0,0
1684065625.80006599,56228333,1619,1618,1621,1615,0,0,0,0,0,0,0,0,0,0
1684065625.90002608,56328293,1620,1619,1622,1616,0,0,0,0,0,0,0,0,0,0
1684065625.99998593,56428253,1622,1622,1624,1620,0,0,0,0,0,0,0,0,0,0
1684065626.09994602,56528213,1623,1624,1625,1622,0,0,0,0,0,0,0,0,0,0
1684065626.19990611,56628173,1609,1610,1612,1608,0,0,0,0,0,0,0,0,0,0
1684065626.30069900,56728966,1586,1586,1593,1579,0,0,0,0,0,0,0,0,0,0
1684065626.40065908,56828926,1572,1572,1576,1569,0,0,0,0,0,0,0,0,0,0
1684065626.50061893,56928886,1562,1563,1562,1564,0,0,0,0,0,0,0,0,0,0
1684065626.60057902,57028846,1553,1553,1546,1560,0,0,0,0,0,0,0,0,0,0
1684065626.70053911,57128806,1545,1545,1536,1554,0,0,0,0,0,0,0,0,0,0
1684065626.80049896,57228766,1539,1538,1531,1545,0,0,0,0,0,0,0,0,0,0
1684065626.90045905,57328726,1532,1532,1529,1535,0,0,0,0,0,0,0,0,0,0
1684065627.00041890,57428686,1528,1528,1527,1528,0,0,0,0,0,0,0,0,0,0
1684065627.10037899,57528646,1527,1527,1529,1525,0,0,0,0,0,0,0,0,0,0
1684065627.20033908,57628606,1529,1529,1532,1526,0,0,0,0,0,0,0,0,0,0
1684065627.30029893,57728566,1533,1532,1536,1530,0,0,0,0,0,0,0,0,0,0
1684065627.40025902,57828526,1535,1536,1538,1533,0,0,0,0,0,0,0,0,0,0
1684065627.50021911,57928486,1540,1540,1541,1538,0,0,0,0,0,0,0,0,0,0
1684065627.60017896,58028446,1543,1543,1544,1542,0,0,0,0,0,0,0,0,0,0
1684065627.70013905,58128406,1546,1545,1545,1546,0,0,0,0,0,0,0,0,0,0
1684065627.80009890,58228366,1549,1549,1549,1549,0,0,0,0,0,0,0,0,0,0
1684065627.90005898,58328326,1551,1551,1550,1553,0,0,0,0,0,0,0,0,0,0
1684065628.00001907,58428286,1553,1552,1552,1555,0,0,0,0,0,0,0,0,0,0
1684065628.09997892,58528246,1553,1553,1560,1562,0,0,0,0,0,0,0,0,0,0
1684065628.19993901,58628206,1555,1555,1562,1563,0,0,0,0,0,0,0,0,0,0
1684065628.29989910,58728166,1558,1558,1564,1564,0,0,0,0,0,0,0,0,0,0
1684065628.40069199,58828959,1559,1559,1563,1562,0,0,0,0,0,0,0,0,0,0
1684065628.50065207,58928919,1563,1563,1565,1564,0,0,0,0,0,0,0,0,0,0
1684065628.60061193,59028879,1566,1566,1565,1565,0,0,0,0,0,0,0,0,0,0
1684065628.70057201,59128839,1569,1569,1566,1566,0,0,0,0,0,0,0,0,0,0
1684065628.80053210,59228799,1571,1571,1567,1567,0,0,0,0,0,0,0,0,0,0
1684065628.90049195,59328759,1571,1571,1566,1567,0,0,0,0,0,0,0,0,0,0
1684065629.00045204,59428719,1571,1571,1566,1566,0,0,0,0,0,0,0,0,0,0
1684065629.10041189,59528679,1572,1572,1568,1568,0,0,0,0,0,0,0,0,0,0
1684065629.20037198,59628639,1572,1572,1568,1568,0,0,0,0,0,0,0,0,0,0
1684065629.30033207,59728599,1574,1573,1571,1571,0,0,0,0,0,0,0,0,0,0
1684065629.40029192,59828559,1574,1574,1573,1572,0,0,0,0,0,0,0,0,0,0
1684065629.50025201,59928519,1575,1575,1575,1574,0,0,0,0,0,0,0,0,0,0
1684065629.60021210,60028479,1575,1575,1576,1575,0,0,0,0,0,0,0,0,0,0
1684065629.70017195,60128439,1575,1575,1577,1576,0,0,0,0,0,0,0,0,0,0
1684065629.80013204,60228399,1575,1574,1576,1576,0,0,0,0,0,0,0,0,0,0
1684065629.90009189,60328359,1574,1574,1576,1576,0,0,0,0,0,0,0,0,0,0
1684065630.00005198,60428319,1575,1575,1576,1577,0,0,0,0,0,0,0,0,0,0
1684065630.10001206,60528279,1576,1576,1577,1578,0,0,0,0,0,0,0,0,0,0
1684065630.19997191,60628239,1575,1575,1576,1576,0,0,0,0,0,0,0,0,0,0
1684065630.29993200,60728199,1576,1576,1577,1577,0,0,0,0,0,0,0,0,0,0
1684065630.39989209,60828159,1577,1577,1577,1577,0,0,0,0,0,0,0,0,0,0
1684065630.50068498,60928952,1578,1577,1578,1577,0,0,0,0,0,0,0,0,0,0
1684065630.60064507,61028912,1578,1577,1578,1577,0,0,0,0,0,0,0,0,0,0
1684065630.70060492,61128872,1577,1577,1576,1577,0,0,0,0,0,0,0,0,0,0
1684065630.80056500,61228832,1578,1578,1577,1577,0,0,0,0,0,0,0,0,0,0
1684065630.90052509,61328792,1577,1577,1576,1577,0,0,0,0,0,0,0,0,0,0
1684065631.00048494,61428752,1578,1578,1577,1577,0,0,0,0,0,0,0,0,0,0
1684065631.10044503,61528712,1577,1577,1577,1577,0,0,0,0,0,0,0,0,0,0
1684065631.20040488,61628672,1578,1578,1578,1577,0,0,0,0,0,0,0,0,0,0
1684065631.30036497,61728632,1579,1578,1579,1578,0,0,0,0,0,0,0,0,0,0
1684065631.40032506,61828592,1578,1578,1578,1578,0,0,0,0,0,0,0,0,0,0
1684065631.50028491,61928552,1578,1578,1578,1579,0,0,0,0,0,0,0,0,0,0
1684065631.60024500,62028512,1578,1579,1578,1579,0,0,0,0,0,0,0,0,0,0
1684065631.70020509,62128472,1578,1579,1579,1579,0,0,0,0,0,0,0,0,0,0
1684065631.80016494,62228432,1579,1579,1579,1580,0,0,0,0,0,0,0,0,0,0
1684065631.90012503,62328392,1579,1578,1579,1579,0,0,0,0,0,0,0,0,0,0
1684065632.00008512,62428352,1579,1578,1579,1579,0,0,0,0,0,0,0,0,0,0
1684065632.10004497,62528312,1579,1580,1580,1580,0,0,0,0,0,0,0,0,0,0
1684065632.20000505,62628272,1579,1579,1579,1579,0,0,0,0,0,0,0,0,0,0
1684065632.29996490,62728232,1579,1579,1579,1580,0,0,0,0,0,0,0,0,0,0
1684065632.39992499,62828192,1581,1580,1580,1581,0,0,0,0,0,0,0,0,0,0
1684065632.50071812,62928985,1580,1580,1580,1580,0,0,0,0,0,0,0,0,0,0
1684065632.60067797,63028945,1580,1580,1580,1579,0,0,0,0,0,0,0,0,0,0
1684065632.70063806,63128905,1579,1579,1579,1579,0,0,0,0,0,0,0,0,0,0
1684065632.80059791,63228865,1579,1579,1579,1579,0,0,0,0,0,0,0,0,0,0
1684065632.90055799,63328825,1580,1580,1580,1580,0,0,0,0,0,0,0,0,0,0
1684065633.00051808,63428785,1580,1580,1580,1580,0,0,0,0,0,0,0,0,0,0
1684065633.10047793,63528745,1580,1580,1580,1580,0,0,0,0,0,0,0,0,0,0
1684065633.20043802,63628705,1580,1580,1580,1579,0,0,0,0,0,0,0,0,0,0
1684065633.30039811,63728665,1581,1581,1581,1581,0,0,0,0,0,0,0,0,0,0
1684065633.40035796,63828625,1580,1579,1580,1580,0,0,0,0,0,0,0,0,0,0
1684065633.50031805,63928585,1581,1581,1581,1581,0,0,0,0,0,0,0,0,0,0
1684065633.60027790,64028545,1581,1580,1580,1581,0,0,0,0,0,0,0,0,0,0
1684065633.70023799,64128505,1580,1581,1581,1581,0,0,0,0,0,0,0,0,0,0
1684065633.80019808,64228465,1580,1580,1580,1580,0,0,0,0,0,0,0,0,0,0
1684065633.90015793,64328425,1580,1581,1581,1580,0,0,0,0,0,0,0,0,0,0
1684065634.00011802,64428385,1580,1580,1581,1580,0,0,0,0,0,0,0,0,0,0
1684065634.10007811,64528345,1581,1581,1581,1581,0,0,0,0,0,0,0,0,0,0
1684065634.20003796,64628305,1581,1581,1583,1579,0,0,0,0,0,0,0,0,0,0
1684065634.29999804,64728265,1581,1582,1588,1573,0,0,0,0,0,0,0,0,0,0
1684065634.39995790,64828225,1580,1582,1584,1574,0,0,0,0,0,0,0,0,0,0
1684065634.49991798,64928185,1579,1581,1575,1574,0,0,0,0,0,0,0,0,0,0
1684065634.60071111,65028978,1576,1579,1565,1571,0,0,0,0,0,0,0,0,0,0
1684065634.70067096,65128938,1577,1579,1560,1567,0,0,0,0,0,0,0,0,0,0
1684065634.80063105,65228898,1578,1578,1556,1561,0,0,0,0,0,0,0,0,0,0
1684065634.90059090,65328858,1579,1578,1555,1558,0,0,0,0,0,0,0,0,0,0
1684065635.00055099,65428818,1579,1578,1555,1555,0,0,0,0,0,0,0,0,0,0
1684065635.10051107,65528778,1578,1578,1556,1554,0,0,0,0,0,0,0,0,0,0
1684065635.20047092,65628738,1577,1577,1556,1553,0,0,0,0,0,0,0,0,0,0
1684065635.30043101,65728698,1576,1577,1555,1553,0,0,0,0,0,0,0,0,0,0
1684065635.40039110,65828658,1576,1576,1555,1553,0,0,0,0,0,0,0,0,0,0
1684065635.50035095,65928618,1574,1576,1553,1553,0,0,0,0,0,0,0,0,0,0
1684065635.60031104,66028578,1574,1576,1552,1552,0,0,0,0,0,0,0,0,0,0
1684065635.70027089,66128538,1575,1577,1551,1551,0,0,0,0,0,0,0,0,0,0
1684065635.80023098,66228498,1576,1578,1549,1549,0,0,0,0,0,0,0,0,0,0
1684065635.90019107,66328458,1579,1580,1547,1547,0,0,0,0,0,0,0,0,0,0
1684065636.00015092,66428418,1582,1583,1545,1545,0,0,0,0,0,0,0,0,0,0
1684065636.10011101,66528378,1585,1586,1542,1542,0,0,0,0,0,0,0,0,0,0
1684065636.20007110,66628338,1588,1588,1540,1539,0,0,0,0,0,0,0,0,0,0
1684065636.30003095,66728298,1591,1591,1537,1537,0,0,0,0,0,0,0,0,0,0
1684065636.39999104,66828258,1594,1594,1535,1535,0,0,0,0,0,0,0,0,0,0
1684065636.49995089,66928218,1595,1595,1534,1536,0,0,0,0,0,0,0,0,0,0
1684065636.59991097,67028178,1596,1596,1536,1538,0,0,0,0,0,0,0,0,0,0
1684065636.70070410,67128971,1594,1594,1537,1539,0,0,0,0,0,0,0,0,0,0
1684065636.80066395,67228931,1592,1591,1541,1544,0,0,0,0,0,0,0,0,0,0
1684065636.90062404,67328891,1587,1585,1546,1549,0,0,0,0,0,0,0,0,0,0
1684065637.00058389,67428851,1581,1578,1555,1558,0,0,0,0,0,0,0,0,0,0
1684065637.10054398,67528811,1573,1568,1566,1569,0,0,0,0,0,0,0,0,0,0
1684065637.20050406,67628771,1562,1558,1579,1580,0,0,0,0,0,0,0,0,0,0
1684065637.30046391,67728731,1550,1547,1591,1591,0,0,0,0,0,0,0,0,0,0
1684065637.40042400,67828691,1541,1540,1602,1602,0,0,0,0,0,0,0,0,0,0
1684065637.50038409,67928651,1533,1533,1609,1609,0,0,0,0,0,0,0,0,0,0
1684065637.60034394,68028611,1529,1531,1614,1613,0,0,0,0,0,0,0,0,0,0
1684065637.70030403,68128571,1530,1532,1616,1615,0,0,0,0,0,0,0,0,0,0
1684065637.80026388,68228531,1533,1536,1613,1613,0,0,0,0,0,0,0,0,0,0
1684065637.90022397,68328491,1539,1541,1608,1607,0,0,0,0,0,0,0,0,0,0
1684065638.00018406,68428451,1546,1548,1601,1601,0,0,0,0,0,0,0,0,0,0
1684065638.10014391,68528411,1556,1556,1594,1593,0,0,0,0,0,0,0,0,0,0
1684065638.20010400,68628371,1565,1564,1586,1586,0,0,0,0,0,0,0,0,0,0
1684065638.30006409,68728331,1573,1572,1580,1579,0,0,0,0,0,0,0,0,0,0
1684065638.40002394,68828291,1578,1578,1573,1573,0,0,0,0,0,0,0,0,0,0
1684065638.49998403,68928251,1584,1583,1570,1569,0,0,0,0,0,0,0,0,0,0
1684065638.59994411,69028211,1586,1585,1566,1567,0,0,0,0,0,0,0,0,0,0
1684065638.69990396,69128171,1587,1586,1566,1566,0,0,0,0,0,0,0,0,0,0
1684065638.80069709,69228964,1587,1585,1566,1566,0,0,0,0,0,0,0,0,0,0
1684065638.90065694,69328924,1585,1583,1568,1568,0,0,0,0,0,0,0,0,0,0
1684065639.00061703,69428884,1582,1581,1570,1571,0,0,0,0,0,0,0,0,0,0
1684065639.10057712,69528844,1580,1580,1575,1575,0,0,0,0,0,0,0,0,0,0
1684065639.20053697,69628804,1577,1578,1578,1577,0,0,0,0,0,0,0,0,0,0
1684065639.30049706,69728764,1574,1575,1580,1579,0,0,0,0,0,0,0,0,0,0
1684065639.40045691,69828724,1573,1574,1582,1582,0,0,0,0,0,0,0,0,0,0
1684065639.50041699,69928684,1495,1495,1595,1595,0,0,0,0,0,0,0,0,0,0
1684065639.60037708,70028644,1522,1524,1605,1606,0,0,0,0,0,0,0,0,0,0
1684065639.70033693,70128604,1542,1545,1601,1600,0,0,0,0,0,0,0,0,0,0
1684065639.80029702,70228564,1561,1564,1593,1592,0,0,0,0,0,0,0,0,0,0
1684065639.90025711,70328524,1579,1581,1585,1583,0,0,0,0,0,0,0,0,0,0
1684065640.00021696,70428484,1593,1593,1575,1574,0,0,0,0,0,0,0,0,0,0
1684065640.10017705,70528444,1603,1601,1570,1569,0,0,0,0,0,0,0,0,0,0
1684065640.20013690,70628404,1609,1605,1567,1568,0,0,0,0,0,0,0,0,0,0
1684065640.30009699,70728364,1609,1605,1565,1566,0,0,0,0,0,0,0,0,0,0
1684065640.40005708,70828324,1608,1605,1567,1568,0,0,0,0,0,0,0,0,0,0
1684065640.50001693,70928284,1605,1602,1568,1570,0,0,0,0,0,0,0,0,0,0
1684065640.59997702,71028244,1600,1599,1570,1571,0,0,0,0,0,0,0,0,0,0
1684065640.69993711,71128204,1595,1596,1573,1573,0,0,0,0,0,0,0,0,0,0
1684065640.79989696,71228164,1591,1592,1575,1575,0,0,0,0,0,0,0,0,0,0
1684065640.90069008,71328957,1587,1588,1578,1577,0,0,0,0,0,0,0,0,0,0
1684065641.00064993,71428917,1584,1584,1581,1580,0,0,0,0,0,0,0,0,0,0
1684065641.10061002,71528877,1581,1582,1583,1582,0,0,0,0,0,0,0,0,0,0
1684065641.20057011,71628837,1577,1578,1584,1583,0,0,0,0,0,0,0,0,0,0
1684065641.30052996,71728797,1575,1576,1585,1585,0,0,0,0,0,0,0,0,0,0
1684065641.40049005,71828757,1575,1575,1587,1586,0,0,0,0,0,0,0,0,0,0
1684065641.50044990,71928717,1573,1574,1587,1586,0,0,0,0,0,0,0,0,0,0
1684065641.60040998,72028677,1573,1574,1586,1586,0,0,0,0,0,0,0,0,0,0
1684065641.70037007,72128637,1574,1574,1586,1586,0,0,0,0,0,0,0,0,0,0
1684065641.80032992,72228597,1574,1575,1584,1584,0,0,0,0,0,0,0,0,0,0
1684065641.90029001,72328557,1576,1577,1583,1584,0,0,0,0,0,0,0,0,0,0
1684065642.00025010,72428517,1578,1578,1582,1582,0,0,0,0,0,0,0,0,0,0
1684065642.10020995,72528477,1580,1580,1581,1581,0,0,0,0,0,0,0,0,0,0
1684065642.20017004,72628437,1581,1581,1580,1579,0,0,0,0,0,0,0,0,0,0
1684065642.30012989,72728397,1581,1582,1584,1569,0,0,0,0,0,0,0,0,0,0
1684065642.40008998,72828357,1583,1583,1581,1569,0,0,0,0,0,0,0,0,0,0
1684065642.50005007,72928317,1582,1583,1571,1569,0,0,0,0,0,0,0,0,0,0
1684065642.60000992,73028277,1581,1582,1562,1566,0,0,0,0,0,0,0,0,0,0
1684065642.69997001,73128237,1581,1582,1557,1564,0,0,0,0,0,0,0,0,0,0
1684065642.79993010,73228197,1580,1581,1554,1559,0,0,0,0,0,0,0,0,0,0
1684065642.89988995,73328157,1580,1581,1553,1556,0,0,0,0,0,0,0,0,0,0
1684065643.00068307,73428950,1580,1580,1553,1554,0,0,0,0,0,0,0,0,0,0
1684065643.10064292,73528910,1580,1579,1554,1553,0,0,0,0,0,0,0,0,0,0
1684065643.20060301,73628870,1578,1578,1554,1552,0,0,0,0,0,0,0,0,0,0
1684065643.30056310,73728830,1577,1577,1554,1552,0,0,0,0,0,0,0,0,0,0
1684065643.40052295,73828790,1576,1577,1554,1552,0,0,0,0,0,0,0,0,0,0
1684065643.50048304,73928750,1575,1576,1553,1552,0,0,0,0,0,0,0,0,0,0
1684065643.60044289,74028710,1576,1577,1552,1552,0,0,0,0,0,0,0,0,0,0
1684065643.70040298,74128670,1575,1577,1550,1551,0,0,0,0,0,0,0,0,0,0
1684065643.80036306,74228630,1577,1578,1549,1549,0,0,0,0,0,0,0,0,0,0
1684065643.90032291,74328590,1578,1580,1547,1547,0,0,0,0,0,0,0,0,0,0
1684065644.00028300,74428550,1580,1581,1545,1545,0,0,0,0,0,0,0,0,0,0
1684065644.10024309,74528510,1583,1583,1544,1544,0,0,0,0,0,0,0,0,0,0
1684065644.20020294,74628470,1585,1585,1542,1542,0,0,0,0,0,0,0,0,0,0
1684065644.30016303,74728430,1588,1588,1542,1541,0,0,0,0,0,0,0,0,0,0
1684065644.40012288,74828390,1589,1589,1540,1540,0,0,0,0,0,0,0,0,0,0
1684065644.50008297,74928350,1590,1590,1540,1541,0,0,0,0,0,0,0,0,0,0
1684065644.60004306,75028310,1591,1592,1541,1543,0,0,0,0,0,0,0,0,0,0
1684065644.70000291,75128270,1590,1590,1542,1545,0,0,0,0,0,0,0,0,0,0
1684065644.79996300,75228230,1589,1588,1546,1549,0,0,0,0,0,0,0,0,0,0
1684065644.89992309,75328190,1585,1583,1551,1554,0,0,0,0,0,0,0,0,0,0
1684065645.00071597,75428983,1580,1577,1558,1561,0,0,0,0,0,0,0,0,0,0
1684065645.10067606,75528943,1572,1568,1567,1570,0,0,0,0,0,0,0,0,0,0
1684065645.20063591,75628903,1563,1559,1579,1580,0,0,0,0,0,0,0,0,0,0
1684065645.30059600,75728863,1552,1549,1589,1590,0,0,0,0,0,0,0,0,0,0
1684065645.40055609,75828823,1542,1541,1598,1598,0,0,0,0,0,0,0,0,0,0
1684065645.50051594,75928783,1536,1536,1606,1605,0,0,0,0,0,0,0,0,0,0
1684065645.60047603,76028743,1533,1534,1610,1609,0,0,0,0,0,0,0,0,0,0
1684065645.70043612,76128703,1532,1534,1611,1610,0,0,0,0,0,0,0,0,0,0
1684065645.80039597,76228663,1535,1538,1609,1608,0,0,0,0,0,0,0,0,0,0
1684065645.90035605,76328623,1542,1544,1605,1605,0,0,0,0,0,0,0,0,0,0
1684065646.00031590,76428583,1549,1550,1599,1599,0,0,0,0,0,0,0,0,0,0
1684065646.10027599,76528543,1558,1559,1594,1592,0,0,0,0,0,0,0,0,0,0
1684065646.20023608,76628503,1566,1565,1586,1585,0,0,0,0,0,0,0,0,0,0
1684065646.30019593,76728463,1573,1573,1580,1579,0,0,0,0,0,0,0,0,0,0
1684065646.40015602,76828423,1580,1579,1576,1575,0,0,0,0,0,0,0,0,0,0
1684065646.50011611,76928383,1584,1582,1570,1570,0,0,0,0,0,0,0,0,0,0
1684065646.60007596,77028343,1586,1585,1567,1568,0,0,0,0,0,0,0,0,0,0
1684065646.70003605,77128303,1587,1586,1566,1567,0,0,0,0,0,0,0,0,0,0
1684065646.79999590,77228263,1587,1587,1567,1567,0,0,0,0,0,0,0,0,0,0
1684065646.89995599,77328223,1587,1586,1570,1570,0,0,0,0,0,0,0,0,0,0
1684065646.99991608,77428183,1584,1584,1571,1571,0,0,0,0,0,0,0,0,0,0
1684065647.10070896,77528976,1582,1581,1574,1574,0,0,0,0,0,0,0,0,0,0
1684065647.20066905,77628936,1579,1579,1577,1577,0,0,0,0,0,0,0,0,0,0
1684065647.30062890,77728896,1578,1578,1580,1581,0,0,0,0,0,0,0,0,0,0
1684065647.40058899,77828856,1575,1575,1581,1581,0,0,0,0,0,0,0,0,0,0
1684065647.50054908,77928816,1574,1574,1583,1583,0,0,0,0,0,0,0,0,0,0
1684065647.60050893,78028776,1573,1574,1584,1584,0,0,0,0,0,0,0,0,0,0
1684065647.70046902,78128736,1573,1574,1584,1584,0,0,0,0,0,0,0,0,0,0
1684065647.80042911,78228696,1574,1574,1584,1584,0,0,0,0,0,0,0,0,0,0
1684065647.90038896,78328656,1575,1576,1583,1583,0,0,0,0,0,0,0,0,0,0
1684065648.00034904,78428616,1576,1576,1582,1582,0,0,0,0,0,0,0,0,0,0
1684065648.10030890,78528576,1577,1577,1580,1580,0,0,0,0,0,0,0,0,0,0
1684065648.20026898,78628536,1579,1578,1579,1580,0,0,0,0,0,0,0,0,0,0
1684065648.30022907,78728496,1579,1579,1578,1578,0,0,0,0,0,0,0,0,0,0
1684065648.40018892,78828456,1581,1580,1578,1578,0,0,0,0,0,0,0,0,0,0
1684065648.50014901,78928416,1581,1581,1577,1578,0,0,0,0,0,0,0,0,0,0
1684065648.60010910,79028376,1582,1582,1577,1577,0,0,0,0,0,0,0,0,0,0
1684065648.70006895,79128336,1582,1582,1578,1578,0,0,0,0,0,0,0,0,0,0
1684065648.80002904,79228296,1582,1582,1578,1578,0,0,0,0,0,0,0,0,0,0
1684065648.89998889,79328256,1581,1581,1578,1578,0,0,0,0,0,0,0,0,0,0
1684065648.99994898,79428216,1581,1581,1579,1579,0,0,0,0,0,0,0,0,0,0
1684065649.09990907,79528176,1580,1580,1579,1579,0,0,0,0,0,0,0,0,0,0
1684065649.20070195,79628969,1580,1580,1580,1580,0,0,0,0,0,0,0,0,0,0
1684065649.30066204,79728929,1579,1580,1580,1580,0,0,0,0,0,0,0,0,0,0
1684065649.40062189,79828889,1580,1580,1581,1581,0,0,0,0,0,0,0,0,0,0
1684065649.50058198,79928849,1579,1579,1581,1581,0,0,0,0,0,0,0,0,0,0
1684065649.60054207,80028809,1580,1580,1581,1582,0,0,0,0,0,0,0,0,0,0
1684065649.70050192,80128769,1580,1580,1582,1582,0,0,0,0,0,0,0,0,0,0
1684065649.80046201,80228729,1580,1580,1581,1581,0,0,0,0,0,0,0,0,0,0
1684065649.90042210,80328689,1580,1580,1581,1581,0,0,0,0,0,0,0,0,0,0
1684065650.00038195,80428649,1580,1580,1580,1580,0,0,0,0,0,0,0,0,0,0
1684065650.10034204,80528609,1580,1581,1581,1581,0,0,0,0,0,0,0,0,0,0
1684065650.20030189,80628569,1581,1582,1581,1581,0,0,0,0,0,0,0,0,0,0
1684065650.30026197,80728529,1581,1581,1580,1581,0,0,0,0,0,0,0,0,0,0
1684065650.40022206,80828489,1581,1581,1581,1581,0,0,0,0,0,0,0,0,0,0
1684065650.50018191,80928449,1581,1580,1580,1580,0,0,0,0,0,0,0,0,0,0
1684065650.60014200,81028409,1581,1582,1588,1574,0,0,0,0,0,0,0,0,0,0
1684065650.70010209,81128369,1581,1582,1585,1573,0,0,0,0,0,0,0,0,0,0
1684065650.80006194,81228329,1581,1583,1578,1574,0,0,0,0,0,0,0,0,0,0
1684065650.90002203,81328289,1578,1581,1568,1572,0,0,0,0,0,0,0,0,0,0
1684065650.99998188,81428249,1578,1579,1561,1568,0,0,0,0,0,0,0,0,0,0
1684065651.09994197,81528209,1578,1579,1557,1564,0,0,0,0,0,0,0,0,0,0
1684065651.19990206,81628169,1579,1579,1555,1559,0,0,0,0,0,0,0,0,0,0
1684065651.30069494,81728962,1579,1578,1555,1556,0,0,0,0,0,0,0,0,0,0
1684065651.40065503,81828922,1579,1578,1555,1554,0,0,0,0,0,0,0,0,0,0
1684065651.50061488,81928882,1580,1578,1557,1555,0,0,0,0,0,0,0,0,0,0
1684065651.60057497,82028842,1578,1578,1557,1554,0,0,0,0,0,0,0,0,0,0
1684065651.70053506,82128802,1577,1577,1556,1554,0,0,0,0,0,0,0,0,0,0
1684065651.80049491,82228762,1575,1576,1555,1554,0,0,0,0,0,0,0,0,0,0
1684065651.90045500,82328722,1574,1576,1553,1554,0,0,0,0,0,0,0,0,0,0
1684065652.00041509,82428682,1574,1577,1552,1553,0,0,0,0,0,0,0,0,0,0
1684065652.10037494,82528642,1576,1577,1551,1552,0,0,0,0,0,0,0,0,0,0
1684065652.20033503,82628602,1578,1579,1550,1549,0,0,0,0,0,0,0,0,0,0
1684065652.30029511,82728562,1579,1580,1547,1546,0,0,0,0,0,0,0,0,0,0
1684065652.40025496,82828522,1581,1583,1545,1544,0,0,0,0,0,0,0,0,0,0
1684065652.50021505,82928482,1584,1585,1542,1542,0,0,0,0,0,0,0,0,0,0
1684065652.60017490,83028442,1587,1587,1540,1539,0,0,0,0,0,0,0,0,0,0
1684065652.70013499,83128402,1589,1589,1537,1538,0,0,0,0,0,0,0,0,0,0
1684065652.80009508,83228362,1591,1591,1537,1537,0,0,0,0,0,0,0,0,0,0
1684065652.90005493,83328322,1592,1592,1537,1538,0,0,0,0,0,0,0,0,0,0
1684065653.00001502,83428282,1592,1592,1537,1539,0,0,0,0,0,0,0,0,0,0
1684065653.09997511,83528242,1592,1592,1540,1543,0,0,0,0,0,0,0,0,0,0
1684065653.19993496,83628202,1589,1588,1545,1548,0,0,0,0,0,0,0,0,0,0
1684065653.29989505,83728162,1585,1583,1552,1555,0,0,0,0,0,0,0,0,0,0
1684065653.40068793,83828955,1577,1575,1561,1563,0,0,0,0,0,0,0,0,0,0
1684065653.50064802,83928915,1569,1565,1571,1573,0,0,0,0,0,0,0,0,0,0
1684065653.60060811,84028875,1559,1555,1582,1583,0,0,0,0,0,0,0,0,0,0
1684065653.70056796,84128835,1550,1547,1594,1594,0,0,0,0,0,0,0,0,0,0
1684065653.80052805,84228795,1541,1540,1603,1602,0,0,0,0,0,0,0,0,0,0
1684065653.90048790,84328755,1535,1535,1609,1608,0,0,0,0,0,0,0,0,0,0
1684065654.00044799,84428715,1532,1534,1612,1611,0,0,0,0,0,0,0,0,0,0
1684065654.10040808,84528675,1533,1535,1612,1611,0,0,0,0,0,0,0,0,0,0
1684065654.20036793,84628635,1536,1538,1608,1608,0,0,0,0,0,0,0,0,0,0
1684065654.30032802,84728595,1542,1543,1603,1604,0,0,0,0,0,0,0,0,0,0
1684065654.40028811,84828555,1549,1551,1598,1597,0,0,0,0,0,0,0,0,0,0
1684065654.50024796,84928515,1559,1559,1592,1591,0,0,0,0,0,0,0,0,0,0
1684065654.60020804,85028475,1566,1567,1585,1584,0,0,0,0,0,0,0,0,0,0
1684065654.70016789,85128435,1574,1573,1579,1578,0,0,0,0,0,0,0,0,0,0
1684065654.80012798,85228395,1579,1578,1573,1573,0,0,0,0,0,0,0,0,0,0
1684065654.90008807,85328355,1584,1583,1570,1570,0,0,0,0,0,0,0,0,0,0
1684065655.00004792,85428315,1587,1585,1567,1567,0,0,0,0,0,0,0,0,0,0
1684065655.10000801,85528275,1588,1586,1567,1567,0,0,0,0,0,0,0,0,0,0
1684065655.19996810,85628235,1587,1586,1567,1567,0,0,0,0,0,0,0,0,0,0
1684065655.29992795,85728195,1587,1586,1570,1570,0,0,0,0,0,0,0,0,0,0
1684065655.39988804,85828155,1584,1584,1573,1572,0,0,0,0,0,0,0,0,0,0
1684065655.50068092,85928948,1582,1582,1576,1575,0,0,0,0,0,0,0,0,0,0
1684065655.60064101,86028908,1579,1579,1578,1578,0,0,0,0,0,0,0,0,0,0
1684065655.70060110,86128868,1576,1577,1580,1581,0,0,0,0,0,0,0,0,0,0
1684065655.80056095,86228828,1574,1575,1582,1582,0,0,0,0,0,0,0,0,0,0
1684065655.90052104,86328788,1573,1573,1583,1583,0,0,0,0,0,0,0,0,0,0
1684065656.00048089,86428748,1572,1573,1583,1583,0,0,0,0,0,0,0,0,0,0
1684065656.10044098,86528708,1573,1573,1584,1583,0,0,0,0,0,0,0,0,0,0
1684065656.20040107,86628668,1574,1574,1583,1584,0,0,0,0,0,0,0,0,0,0
1684065656.30036092,86728628,1574,1574,1581,1582,0,0,0,0,0,0,0,0,0,0
1684065656.40032101,86828588,1575,1576,1581,1581,0,0,0,0,0,0,0,0,0,0
1684065656.50028110,86928548,1577,1577,1580,1580,0,0,0,0,0,0,0,0,0,0
1684065656.60024095,87028508,1578,1578,1579,1579,0,0,0,0,0,0,0,0,0,0
1684065656.70020103,87128468,1580,1580,1578,1578,0,0,0,0,0,0,0,0,0,0
1684065656.80016088,87228428,1581,1581,1578,1578,0,0,0,0,0,0,0,0,0,0
1684065656.90012097,87328388,1582,1582,1579,1578,0,0,0,0,0,0,0,0,0,0
1684065657.00008106,87428348,1583,1582,1578,1578,0,0,0,0,0,0,0,0,0,0
1684065657.10004091,87528308,1583,1582,1578,1578,0,0,0,0,0,0,0,0,0,0
1684065657.20000100,87628268,1582,1582,1579,1578,0,0,0,0,0,0,0,0,0,0
1684065657.29996109,87728228,1582,1582,1578,1579,0,0,0,0,0,0,0,0,0,0
1684065657.39992094,87828188,1581,1581,1579,1579,0,0,0,0,0,0,0,0,0,0
1684065657.50071406,87928981,1581,1580,1579,1580,0,0,0,0,0,0,0,0,0,0
1684065657.60067391,88028941,1580,1580,1580,1580,0,0,0,0,0,0,0,0,0,0
1684065657.70063400,88128901,1580,1580,1581,1581,0,0,0,0,0,0,0,0,0,0
1684065657.80059409,88228861,1579,1580,1581,1580,0,0,0,0,0,0,0,0,0,0
1684065657.90055394,88328821,1580,1580,1582,1581,0,0,0,0,0,0,0,0,0,0
1684065658.00051403,88428781,1580,1581,1582,1582,0,0,0,0,0,0,0,0,0,0
1684065658.10047388,88528741,1580,1580,1581,1581,0,0,0,0,0,0,0,0,0,0
1684065658.20043397,88628701,1580,1580,1581,1581,0,0,0,0,0,0,0,0,0,0
1684065658.30039406,88728661,1580,1580,1581,1581,0,0,0,0,0,0,0,0,0,0
1684065658.40035391,88828621,1581,1580,1581,1581,0,0,0,0,0,0,0,0,0,0
1684065658.50031400,88928581,1580,1580,1580,1581,0,0,0,0,0,0,0,0,0,0
1684065658.60027409,89028541,1581,1581,1586,1575,0,0,0,0,0,0,0,0,0,0
1684065658.70023394,89128501,1580,1580,1586,1572,0,0,0,0,0,0,0,0,0,0
1684065658.80019403,89228461,1579,1579,1580,1574,0,0,0,0,0,0,0,0,0,0
1684065658.90015411,89328421,1576,1575,1572,1574,0,0,0,0,0,0,0,0,0,0
1684065659.00011396,89428381,1573,1573,1567,1574,0,0,0,0,0,0,0,0,0,0
1684065659.10007405,89528341,1570,1570,1564,1572,0,0,0,0,0,0,0,0,0,0
1684065659.20003390,89628301,1569,1569,1565,1570,0,0,0,0,0,0,0,0,0,0
1684065659.29999399,89728261,1567,1568,1566,1568,0,0,0,0,0,0,0,0,0,0
1684065659.39995408,89828221,1566,1567,1567,1566,0,0,0,0,0,0,0,0,0,0
1684065659.49991393,89928181,1565,1565,1567,1565,0,0,0,0,0,0,0,0,0,0
1684065659.60070705,90028974,1564,1564,1566,1563,0,0,0,0,0,0,0,0,0,0
1684065659.70066690,90128934,1565,1565,1567,1565,0,0,0,0,0,0,0,0,0,0
1684065659.80062699,90228894,1565,1564,1566,1565,0,0,0,0,0,0,0,0,0,0
1684065659.90058708,90328854,1564,1563,1565,1565,0,0,0,0,0,0,0,0,0,0
1684065660.00054693,90428814,1562,1563,1564,1564,0,0,0,0,0,0,0,0,0,0
1684065660.10050702,90528774,1562,1562,1563,1563,0,0,0,0,0,0,0,0,0,0
1684065660.20046711,90628734,1561,1561,1561,1561,0,0,0,0,0,0,0,0,0,0
1684065660.30042696,90728694,1561,1561,1561,1561,0,0,0,0,0,0,0,0,0,0
1684065660.40038705,90828654,1561,1561,1561,1561,0,0,0,0,0,0,0,0,0,0
1684065660.50034690,90928614,1560,1560,1560,1559,0,0,0,0,0,0,0,0,0,0
1684065660.60030699,91028574,1559,1559,1560,1559,0,0,0,0,0,0,0,0,0,0
1684065660.70026708,91128534,1559,1558,1558,1558,0,0,0,0,0,0,0,0,0,0
1684065660.80022693,91228494,1558,1558,1558,1557,0,0,0,0,0,0,0,0,0,0
1684065660.90018702,91328454,1558,1558,1558,1557,0,0,0,0,0,0,0,0,0,0
1684065661.00014710,91428414,1558,1558,1558,1557,0,0,0,0,0,0,0,0,0,0
1684065661.10010695,91528374,1558,1558,1558,1557,0,0,0,0,0,0,0,0,0,0
1684065661.20006704,91628334,1558,1558,1559,1557,0,0,0,0,0,0,0,0,0,0
1684065661.30002689,91728294,1558,1558,1560,1557,0,0,0,0,0,0,0,0,0,0
1684065661.39998698,91828254,1559,1559,1560,1558,0,0,0,0,0,0,0,0,0,0
1684065661.49994707,91928214,1559,1559,1558,1561,0,0,0,0,0,0,0,0,0,0
1684065661.59990692,92028174,1560,1560,1557,1563,0,0,0,0,0,0,0,0,0,0
1684065661.70070004,92128967,1561,1560,1557,1564,0,0,0,0,0,0,0,0,0,0
1684065661.80065989,92228927,1561,1561,1559,1563,0,0,0,0,0,0,0,0,0,0
1684065661.90061998,92328887,1562,1562,1560,1563,0,0,0,0,0,0,0,0,0,0
1684065662.00058007,92428847,1561,1561,1561,1561,0,0,0,0,0,0,0,0,0,0
1684065662.10053992,92528807,1560,1561,1562,1558,0,0,0,0,0,0,0,0,0,0
1684065662.20050001,92628767,1559,1559,1560,1556,0,0,0,0,0,0,0,0,0,0
1684065662.30046010,92728727,1558,1558,1556,1560,0,0,0,0,0,0,0,0,0,0
1684065662.40041995,92828687,1556,1556,1553,1558,0,0,0,0,0,0,0,0,0,0
1684065662.50038004,92928647,1551,1551,1548,1552,0,0,0,0,0,0,0,0,0,0
1684065662.60033989,93028607,1547,1547,1545,1546,0,0,0,0,0,0,0,0,0,0
1684065662.70029998,93128567,1540,1540,1539,1539,0,0,0,0,0,0,0,0,0,0
1684065662.80026007,93228527,1533,1533,1532,1531,0,0,0,0,0,0,0,0,0,0
1684065662.90021992,93328487,1525,1525,1524,1523,0,0,0,0,0,0,0,0,0,0
1684065663.00018001,93428447,1521,1521,1520,1519,0,0,0,0,0,0,0,0,0,0
1684065663.10014009,93528407,1519,1518,1518,1518,0,0,0,0,0,0,0,0,0,0
1684065663.20009995,93628367,1519,1518,1519,1520,0,0,0,0,0,0,0,0,0,0
1684065663.30006003,93728327,1520,1520,1521,1522,0,0,0,0,0,0,0,0,0,0
1684065663.40001988,93828287,1523,1523,1525,1526,0,0,0,0,0,0,0,0,0,0
1684065663.49997997,93928247,1527,1528,1530,1531,0,0,0,0,0,0,0,0,0,0
1684065663.59994006,94028207,1532,1532,1535,1535,0,0,0,0,0,0,0,0,0,0
1684065663.69989991,94128167,1537,1536,1540,1539,0,0,0,0,0,0,0,0,0,0
1684065663.80069304,94228960,1539,1539,1541,1541,0,0,0,0,0,0,0,0,0,0
1684065663.90065289,94328920,1542,1541,1543,1543,0,0,0,0,0,0,0,0,0,0
1684065664.00061297,94428880,1544,1543,1544,1544,0,0,0,0,0,0,0,0,0,0
1684065664.10057306,94528840,1546,1545,1545,1545,0,0,0,0,0,0,0,0,0,0
1684065664.20053291,94628800,1547,1546,1545,1546,0,0,0,0,0,0,0,0,0,0
1684065664.30049300,94728760,1547,1548,1546,1546,0,0,0,0,0,0,0,0,0,0
1684065664.40045309,94828720,1547,1548,1546,1546,0,0,0,0,0,0,0,0,0,0
1684065664.50041294,94928680,1548,1548,1546,1546,0,0,0,0,0,0,0,0,0,0
1684065664.60037303,95028640,1547,1547,1545,1545,0,0,0,0,0,0,0,0,0,0
1684065664.70033288,95128600,1547,1546,1545,1545,0,0,0,0,0,0,0,0,0,0
1684065664.80029297,95228560,1546,1546,1545,1545,0,0,0,0,0,0,0,0,0,0
1684065664.90025306,95328520,1546,1546,1545,1545,0,0,0,0,0,0,0,0,0,0
1684065665.00021291,95428480,1544,1545,1545,1544,0,0,0,0,0,0,0,0,0,0
1684065665.10017300,95528440,1545,1545,1545,1545,0,0,0,0,0,0,0,0,0,0
1684065665.20013309,95628400,1545,1545,1545,1545,0,0,0,0,0,0,0,0,0,0
1684065665.30009294,95728360,1545,1544,1545,1545,0,0,0,0,0,0,0,0,0,0
1684065665.40005302,95828320,1544,1544,1545,1545,0,0,0,0,0,0,0,0,0,0
1684065665.50001311,95928280,1544,1544,1545,1545,0,0,0,0,0,0,0,0,0,0
1684065665.59997296,96028240,1544,1544,1544,1544,0,0,0,0,0,0,0,0,0,0
1684065665.69993305,96128200,1544,1543,1544,1544,0,0,0,0,0,0,0,0,0,0
1684065665.79989290,96228160,1544,1544,1544,1544,0,0,0,0,0,0,0,0,0,0
1684065665.90068603,96328953,1544,1544,1544,1544,0,0,0,0,0,0,0,0,0,0
1684065666.00064611,96428913,1544,1544,1544,1544,0,0,0,0,0,0,0,0,0,0
1684065666.10060596,96528873,1544,1544,1544,1544,0,0,0,0,0,0,0,0,0,0
1684065666.20056605,96628833,1544,1543,1544,1543,0,0,0,0,0,0,0,0,0,0
1684065666.30052590,96728793,1543,1543,1543,1543,0,0,0,0,0,0,0,0,0,0
1684065666.40048599,96828753,1544,1544,1544,1544,0,0,0,0,0,0,0,0,0,0
1684065666.50044608,96928713,1543,1543,1543,1543,0,0,0,0,0,0,0,0,0,0
1684065666.60040593,97028673,1544,1544,1544,1543,0,0,0,0,0,0,0,0,0,0
1684065666.70036602,97128633,1544,1544,1544,1545,0,0,0,0,0,0,0,0,0,0
1684065666.80032611,97228593,1544,1545,1544,1545,0,0,0,0,0,0,0,0,0,0
1684065666.90028596,97328553,1545,1545,1545,1545,0,0,0,0,0,0,0,0,0,0
1684065667.00024605,97428513,1545,1544,1544,1544,0,0,0,0,0,0,0,0,0,0
1684065667.10020590,97528473,1545,1545,1545,1545,0,0,0,0,0,0,0,0,0,0
1684065667.20016599,97628433,1545,1545,1545,1545,0,0,0,0,0,0,0,0,0,0
1684065667.30012608,97728393,1545,1544,1544,1545,0,0,0,0,0,0,0,0,0,0
1684065667.40008593,97828353,1544,1544,1545,1544,0,0,0,0,0,0,0,0,0,0
1684065667.50004601,97928313,1545,1545,1545,1545,0,0,0,0,0,0,0,0,0,0
1684065667.60000610,98028273,1545,1545,1545,1545,0,0,0,0,0,0,0,0,0,0
1684065667.69996595,98128233,1544,1544,1544,1544,0,0,0,0,0,0,0,0,0,0
1684065667.79992604,98228193,1545,1545,1545,1545,0,0,0,0,0,0,0,0,0,0
1684065667.90071893,98328986,1544,1544,1544,1544,0,0,0,0,0,0,0,0,0,0
1684065668.00067902,98428946,1544,1544,1544,1544,0,0,0,0,0,0,0,0,0,0
1684065668.10063910,98528906,1544,1544,1544,1544,0,0,0,0,0,0,0,0,0,0
1684065668.20059896,98628866,1544,1544,1544,1544,0,0,0,0,0,0,0,0,0,0
1684065668.30055904,98728826,1544,1544,1544,1544,0,0,0,0,0,0,0,0,0,0
1684065668.40051889,98828786,1544,1544,1544,1544,0,0,0,0,0,0,0,0,0,0
1684065668.50047898,98928746,1544,1544,1543,1544,0,0,0,0,0,0,0,0,0,0
1684065668.60043907,99028706,1544,1544,1544,1544,0,0,0,0,0,0,0,0,0,0
1684065668.70039892,99128666,1544,1544,1544,1544,0,0,0,0,0,0,0,0,0,0
1684065668.80035901,99228626,1544,1544,1544,1544,0,0,0,0,0,0,0,0,0,0
1684065668.90031910,99328586,1544,1544,1544,1544,0,0,0,0,0,0,0,0,0,0
1684065669.00027895,99428546,1544,1544,1544,1544,0,0,0,0,0,0,0,0,0,0
1684065669.10023904,99528506,1544,1544,1544,1544,0,0,0,0,0,0,0,0,0,0
1684065669.20019889,99628466,1543,1544,1544,1544,0,0,0,0,0,0,0,0,0,0
1684065669.30015898,99728426,1544,1544,1544,1544,0,0,0,0,0,0,0,0,0,0
1684065669.40011907,99828386,1544,1544,1544,1544,0,0,0,0,0,0,0,0,0,0
1684065669.50007892,99928346,1545,1544,1544,1545,0,0,0,0,0,0,0,0,0,0
1684065669.60003901,100028306,1544,1544,1544,1544,0,0,0,0,0,0,0,0,0,0
1684065669.69999909,100128266,1545,1544,1544,1545,0,0,0,0,0,0,0,0,0,0
1684065669.79995894,100228226,1544,1544,1545,1544,0,0,0,0,0,0,0,0,0,0
1684065669.89991903,100328186,1545,1545,1545,1545,0,0,0,0,0,0,0,0,0,0
1684065670.00071192,100428979,1544,1544,1544,1544,0,0,0,0,0,0,0,0,0,0
1684065670.10067201,100528939,1544,1544,1544,1544,0,0,0,0,0,0,0,0,0,0
1684065670.20063210,100628899,1544,1544,1544,1544,0,0,0,0,0,0,0,0,0,0
1684065670.30059195,100728859,1545,1544,1544,1545,0,0,0,0,0,0,0,0,0,0
1684065670.40055203,100828819,1544,1545,1545,1544,0,0,0,0,0,0,0,0,0,0
1684065670.50051188,100928779,1544,1545,1545,1545,0,0,0,0,0,0,0,0,0,0
1684065670.60047197,101028739,1544,1545,1544,1545,0,0,0,0,0,0,0,0,0,0
1684065670.70043206,101128699,1545,1544,1544,1545,0,0,0,0,0,0,0,0,0,0
1684065670.80039191,101228659,1545,1544,1545,1544,0,0,0,0,0,0,0,0,0,0
1684065670.90035200,101328619,1545,1544,1544,1545,0,0,0,0,0,0,0,0,0,0
1684065671.00031209,101428579,1545,1545,1545,1545,0,0,0,0,0,0,0,0,0,0
1684065671.10027194,101528539,1544,1544,1544,1544,0,0,0,0,0,0,0,0,0,0
1684065671.20023203,101628499,1544,1544,1544,1544,0,0,0,0,0,0,0,0,0,0
1684065671.30019188,101728459,1544,1544,1544,1544,0,0,0,0,0,0,0,0,0,0
1684065671.40015197,101828419,1544,1544,1544,1544,0,0,0,0,0,0,0,0,0,0
1684065671.50011206,101928379,1545,1545,1545,1545,0,0,0,0,0,0,0,0,0,0
1684065671.60007191,102028339,1544,1544,1544,1544,0,0,0,0,0,0,0,0,0,0
1684065671.70003200,102128299,1544,1544,1544,1545,0,0,0,0,0,0,0,0,0,0
1684065671.79999208,102228259,1544,1545,1544,1544,0,0,0,0,0,0,0,0,0,0
1684065671.89995193,102328219,1544,1544,1544,1544,0,0,0,0,0,0,0,0,0,0
1684065671.99991202,102428179,1544,1544,1544,1544,0,0,0,0,0,0,0,0,0,0
1684065672.10070491,102528972,1544,1544,1544,1543,0,0,0,0,0,0,0,0,0,0
1684065672.20066500,102628932,1544,1544,1544,1543,0,0,0,0,0,0,0,0,0,0
1684065672.30062509,102728892,1543,1543,1543,1543,0,0,0,0,0,0,0,0,0,0
1684065672.40058494,102828852,1543,1543,1543,1543,0,0,0,0,0,0,0,0,0,0
1684065672.50054502,102928812,1543,1543,1543,1543,0,0,0,0,0,0,0,0,0,0
1684065672.60050511,103028772,1543,1544,1544,1544,0,0,0,0,0,0,0,0,0,0
1684065672.70046496,103128732,1498,1498,1493,1492,0,0,0,0,0,0,0,0,0,0
1684065672.80042505,103228692,1345,1344,1314,1312,0,0,0,0,0,0,0,0,0,0
1684065672.90038490,103328652,1281,1279,1233,1231,0,0,0,0,0,0,0,0,0,0
1684065673.00034499,103428612,1261,1260,1208,1205,0,0,0,0,0,0,0,0,0,0
1684065673.10030508,103528572,1240,1239,1180,1177,0,0,0,0,0,0,0,0,0,0
1684065673.20026493,103628532,1218,1218,1154,1150,0,0,0,0,0,0,0,0,0,0
1684065673.30022502,103728492,1209,1209,1153,1150,0,0,0,0,0,0,0,0,0,0
1684065673.40018511,103828452,1208,1209,1154,1150,0,0,0,0,0,0,0,0,0,0
1684065673.50014496,103928412,1211,1203,1150,1158,0,0,0,0,0,0,0,0,0,0
1684065673.60010505,104028372,1210,1192,1150,1173,0,0,0,0,0,0,0,0,0,0
1684065673.70006490,104128332,1210,1199,1150,1163,0,0,0,0,0,0,0,0,0,0
1684065673.80002499,104228292,1210,1201,1150,1160,0,0,0,0,0,0,0,0,0,0
1684065673.89998507,104328252,1210,1201,1150,1160,0,0,0,0,0,0,0,0,0,0
1684065673.99994493,104428212,1210,1201,1150,1161,0,0,0,0,0,0,0,0,0,0
1684065674.09990501,104528172,1210,1200,1150,1162,0,0,0,0,0,0,0,0,0,0
1684065674.20069790,104628965,1210,1200,1150,1162,0,0,0,0,0,0,0,0,0,0
1684065674.30065799,104728925,1202,1210,1160,1150,0,0,0,0,0,0,0,0,0,0
1684065674.40061808,104828885,1210,1209,1150,1151,0,0,0,0,0,0,0,0,0,0
1684065674.50057793,104928845,1210,1208,1150,1152,0,0,0,0,0,0,0,0,0,0
1684065674.60053802,105028805,1210,1208,1150,1152,0,0,0,0,0,0,0,0,0,0
1684065674.70049810,105128765,1210,1207,1150,1152,0,0,0,0,0,0,0,0,0,0
1684065674.80045795,105228725,1054,1054,1146,1146,0,0,0,0,0,0,0,0,0,0
1684065674.90041804,105328685,1000,1000,1000,1000,0,0,0,0,0,0,0,0,0,0
1684065675.00037789,105428645,1000,1000,1000,1000,0,0,0,0,0,0,0,0,0,0
1684065675.10033798,105528605,1000,1000,1000,1000,0,0,0,0,0,0,0,0,0,0
1684065675.20029807,105628565,1000,1000,1000,1000,0,0,0,0,0,0,0,0,0,0
1684065675.30025792,105728525,1000,1000,1000,1000,0,0,0,0,0,0,0,0,0,0
1684065675.40021801,105828485,1000,1000,1000,1000,0,0,0,0,0,0,0,0,0,0
1684065675.50017810,105928445,1000,1000,1000,1000,0,0,0,0,0,0,0,0,0,0
1684065675.60013795,106028405,1000,1000,1000,1000,0,0,0,0,0,0,0,0,0,0
1684065675.70009804,106128365,1000,1000,1000,1000,0,0,0,0,0,0,0,0,0,0
1684065675.80005789,106228325,1000,1000,1000,1000,0,0,0,0,0,0,0,0,0,0
1684065675.90001798,106328285,1000,1000,1000,1000,0,0,0,0,0,0,0,0,0,0
1684065675.99997807,106428245,1000,1000,1000,1000,0,0,0,0,0,0,0,0,0,0
1684065676.09993792,106528205,1000,1000,1000,1000,0,0,0,0,0,0,0,0,0,0
1684065676.19989800,106628165,1000,1000,1000,1000,0,0,0,0,0,0,0,0,0,0
1684065676.30069089,106728958,1000,1000,1000,1000,0,0,0,0,0,0,0,0,0,0
1684065676.40065098,106828918,1000,1000,1000,1000,0,0,0,0,0,0,0,0,0,0
1684065676.50061107,106928878,1000,1000,1000,1000,0,0,0,0,0,0,0,0,0,0
1684065676.60057092,107028838,1000,1000,1000,1000,0,0,0,0,0,0,0,0,0,0
1684065676.70053101,107128798,1000,1000,1000,1000,0,0,0,0,0,0,0,0,0,0
1684065676.80049109,107228758,1000,1000,1000,1000,0,0,0,0,0,0,0,0,0,0
1684065676.90045094,107328718,1000,1000,1000,1000,0,0,0,0,0,0,0,0,0,0
1684065677.00041103,107428678,1000,1000,1000,1000,0,0,0,0,0,0,0,0,0,0
1684065677.10037088,107528638,1000,1000,1000,1000,0,0,0,0,0,0,0,0,0,0
1684065677.20033097,107628598,1000,1000,1000,1000,0,0,0,0,0,0,0,0,0,0
1684065677.30029106,107728558,1000,1000,1000,1000,0,0,0,0,0,0,0,0,0,0
1684065677.40025091,107828518,1000,1000,1000,1000,0,0,0,0,0,0,0,0,0,0
1684065677.50021100,107928478,1000,1000,1000,1000,0,0,0,0,0,0,0,0,0,0
1684065677.60017109,108028438,1000,1000,1000,1000,0,0,0,0,0,0,0,0,0,0
1684065677.70013094,108128398,1000,1000,1000,1000,0,0,0,0,0,0,0,0,0,0
1684065677.80009103,108228358,1000,1000,1000,1000,0,0,0,0,0,0,0,0,0,0
1684065677.90005112,108328318,1000,1000,1000,1000,0,0,0,0,0,0,0,0,0,0
1684065678.00001097,108428278,1000,1000,1000,1000,0,0,0,0,0,0,0,0,0,0
1684065678.09997106,108528238,1000,1000,1000,1000,0,0,0,0,0,0,0,0,0,0
1684065678.19993091,108628198,1000,1000,1000,1000,0,0,0,0,0,0,0,0,0,0
1684065678.29989100,108728158,1000,1000,1000,1000,0,0,0,0,0,0,0,0,0,0
1684065678.40068388,108828951,1000,1000,1000,1000,0,0,0,0,0,0,0,0,0,0
1684065678.50064397,108928911,1000,1000,1000,1000,0,0,0,0,0,0,0,0,0,0
1684065678.60060406,109028871,1000,1000,1000,1000,0,0,0,0,0,0,0,0,0,0
1684065678.70056391,109128831,1000,1000,1000,1000,0,0,0,0,0,0,0,0,0,0
1684065678.80052400,109228791,1000,1000,1000,1000,0,0,0,0,0,0,0,0,0,0
1684065678.90048409,109328751,1000,1000,1000,1000,0,0,0,0,0,0,0,0,0,0
1684065679.00044394,109428711,1000,1000,1000,1000,0,0,0,0,0,0,0,0,0,0
1684065679.10040402,109528671,1000,1000,1000,1000,0,0,0,0,0,0,0,0,0,0
1684065679.20036411,109628631,1000,1000,1000,1000,0,0,0,0,0,0,0,0,0,0
1684065679.30032396,109728591,1000,1000,1000,1000,0,0,0,0,0,0,0,0,0,0
1684065679.40028405,109828551,1000,1000,1000,1000,0,0,0,0,0,0,0,0,0,0
1684065679.50024390,109928511,1000,1000,1000,1000,0,0,0,0,0,0,0,0,0,0
1684065679.60020399,110028471,1000,1000,1000,1000,0,0,0,0,0,0,0,0,0,0
1684065679.70016408,110128431,1000,1000,1000,1000,0,0,0,0,0,0,0,0,0,0
1684065679.80012393,110228391,1000,1000,1000,1000,0,0,0,0,0,0,0,0,0,0
1684065679.90008402,110328351,1000,1000,1000,1000,0,0,0,0,0,0,0,0,0,0
1684065680.00004411,110428311,1000,1000,1000,1000,0,0,0,0,0,0,0,0,0,0
1684065680.10000396,110528271,1000,1000,1000,1000,0,0,0,0,0,0,0,0,0,0
1684065680.19996405,110628231,1000,1000,1000,1000,0,0,0,0,0,0,0,0,0,0
1684065680.29992390,110728191,1000,1000,1000,1000,0,0,0,0,0,0,0,0,0,0
1684065680.40071702,110828984,1000,1000,1000,1000,0,0,0,0,0,0,0,0,0,0
1684065680.50067711,110928944,1000,1000,1000,1000,0,0,0,0,0,0,0,0,0,0
1684065680.60063696,111028904,1000,1000,1000,1000,0,0,0,0,0,0,0,0,0,0
1684065680.70059705,111128864,1000,1000,1000,1000,0,0,0,0,0,0,0,0,0,0
1684065680.80055690,111228824,1000,1000,1000,1000,0,0,0,0,0,0,0,0,0,0
1684065680.90051699,111328784,1000,1000,1000,1000,0,0,0,0,0,0,0,0,0,0
1684065681.00047708,111428744,1000,1000,1000,1000,0,0,0,0,0,0,0,0,0,0
1684065681.10043693,111528704,1000,1000,1000,1000,0,0,0,0,0,0,0,0,0,0
1684065681.20039701,111628664,1000,1000,1000,1000,0,0,0,0,0,0,0,0,0,0
1684065681.30035710,111728624,1000,1000,1000,1000,0,0,0,0,0,0,0,0,0,0
1684065681.40031695,111828584,1000,1000,1000,1000,0,0,0,0,0,0,0,0,0,0
1684065681.50027704,111928544,1000,1000,1000,1000,0,0,0,0,0,0,0,0,0,0
1684065681.60023689,112028504,1000,1000,1000,1000,0,0,0,0,0,0,0,0,0,0
1684065681.70019698,112128464,1000,1000,1000,1000,0,0,0,0,0,0,0,0,0,0
1684065681.80015707,112228424,1000,1000,1000,1000,0,0,0,0,0,0,0,0,0,0
1684065681.90011692,112328384,1000,1000,1000,1000,0,0,0,0,0,0,0,0,0,0
1684065682.00007701,112428344,1000,1000,1000,1000,0,0,0,0,0,0,0,0,0,0
1684065682.10003710,112528304,1000,1000,1000,1000,0,0,0,0,0,0,0,0,0,0
