timestamp,TimeUS,C1,C2,C3,C4,C5,C6,C7,C8,C9,C10,C11,C12,C13,C14
1684072708.30004025,82928482,1000,1000,1000,1000,0,0,0,0,0,0,0,0,0,0
1684072708.40000010,83028442,1000,1000,1000,1000,0,0,0,0,0,0,0,0,0,0
1684072708.49996018,83128402,1000,1000,1000,1000,0,0,0,0,0,0,0,0,0,0
1684072708.59992027,83228362,1000,1000,1000,1000,0,0,0,0,0,0,0,0,0,0
1684072708.69988012,83328322,1000,1000,1000,1000,0,0,0,0,0,0,0,0,0,0
1684072708.79984021,83428282,1000,1000,1000,1000,0,0,0,0,0,0,0,0,0,0
1684072708.89980030,83528242,1000,1000,1000,1000,0,0,0,0,0,0,0,0,0,0
1684072708.99976015,83628202,1000,1000,1000,1000,0,0,0,0,0,0,0,0,0,0
1684072709.09972024,83728162,1000,1000,1000,1000,0,0,0,0,0,0,0,0,0,0
1684072709.20051312,83828955,1000,1000,1000,1000,0,0,0,0,0,0,0,0,0,0
1684072709.30047321,83928915,1000,1000,1000,1000,0,0,0,0,0,0,0,0,0,0
1684072709.40043330,84028875,1000,1000,1000,1000,0,0,0,0,0,0,0,0,0,0
1684072709.50039315,84128835,1000,1000,1000,1000,0,0,0,0,0,0,0,0,0,0
1684072709.60035324,84228795,1000,1000,1000,1000,0,0,0,0,0,0,0,0,0,0
1684072709.70031309,84328755,1000,1000,1000,1000,0,0,0,0,0,0,0,0,0,0
1684072709.80027318,84428715,1000,1000,1000,1000,0,0,0,0,0,0,0,0,0,0
1684072709.90023327,84528675,1000,1000,1000,1000,0,0,0,0,0,0,0,0,0,0
1684072710.00019312,84628635,1000,1000,1000,1000,0,0,0,0,0,0,0,0,0,0
1684072710.10015321,84728595,1000,1000,1000,1000,0,0,0,0,0,0,0,0,0,0
1684072710.20011330,84828555,1000,1000,1000,1000,0,0,0,0,0,0,0,0,0,0
1684072710.30007315,84928515,1005,1005,1005,1005,0,0,0,0,0,0,0,0,0,0
1684072710.40003324,85028475,1035,1035,1035,1035,0,0,0,0,0,0,0,0,0,0
1684072710.49999309,85128435,1065,1065,1065,1065,0,0,0,0,0,0,0,0,0,0
1684072710.59995317,85228395,1095,1095,1095,1095,0,0,0,0,0,0,0,0,0,0
1684072710.69991326,85328355,1125,1125,1125,1125,0,0,0,0,0,0,0,0,0,0
1684072710.79987311,85428315,1202,1190,1191,1203,0,0,0,0,0,0,0,0,0,0
1684072710.89983320,85528275,1436,1427,1427,1437,0,0,0,0,0,0,0,0,0,0
1684072710.99979329,85628235,1608,1600,1601,1609,0,0,0,0,0,0,0,0,0,0
1684072711.09975314,85728195,1751,1744,1744,1752,0,0,0,0,0,0,0,0,0,0
1684072711.19971323,85828155,1876,1870,1870,1876,0,0,0,0,0,0,0,0,0,0
1684072711.30050611,85928948,1886,1881,1880,1888,0,0,0,0,0,0,0,0,0,0
1684072711.40046620,86028908,1778,1777,1775,1781,0,0,0,0,0,0,0,0,0,0
1684072711.50042629,86128868,1659,1661,1660,1661,0,0,0,0,0,0,0,0,0,0
1684072711.60038614,86228828,1609,1612,1612,1610,0,0,0,0,0,0,0,0,0,0
1684072711.70034623,86328788,1608,1610,1611,1607,0,0,0,0,0,0,0,0,0,0
1684072711.80030608,86428748,1617,1619,1619,1616,0,0,0,0,0,0,0,0,0,0
1684072711.90026617,86528708,1620,1620,1621,1619,0,0,0,0,0,0,0,0,0,0
1684072712.00022626,86628668,1616,1615,1615,1615,0,0,0,0,0,0,0,0,0,0
1684072712.10018611,86728628,1612,1610,1610,1612,0,0,0,0,0,0,0,0,0,0
1684072712.20014620,86828588,1611,1610,1610,1611,0,0,0,0,0,0,0,0,0,0
1684072712.30010629,86928548,1614,1613,1612,1614,0,0,0,0,0,0,0,0,0,0
1684072712.40006614,87028508,1615,1615,1615,1615,0,0,0,0,0,0,0,0,0,0
1684072712.50002623,87128468,1618,1618,1618,1617,0,0,0,0,0,0,0,0,0,0
1684072712.59998608,87228428,1620,1620,1621,1619,0,0,0,0,0,0,0,0,0,0
1684072712.69994617,87328388,1607,1607,1609,1605,0,0,0,0,0,0,0,0,0,0
1684072712.79990625,87428348,1583,1584,1590,1576,0,0,0,0,0,0,0,0,0,0
1684072712.89986610,87528308,1571,1570,1575,1567,0,0,0,0,0,0,0,0,0,0
1684072712.99982619,87628268,1560,1560,1560,1561,0,0,0,0,0,0,0,0,0,0
1684072713.09978628,87728228,1552,1551,1544,1559,0,0,0,0,0,0,0,0,0,0
1684072713.19974613,87828188,1544,1543,1536,1552,0,0,0,0,0,0,0,0,0,0
1684072713.30053926,87928981,1537,1537,1530,1544,0,0,0,0,0,0,0,0,0,0
1684072713.40049911,88028941,1531,1531,1528,1534,0,0,0,0,0,0,0,0,0,0
1684072713.50045919,88128901,1528,1528,1528,1528,0,0,0,0,0,0,0,0,0,0
1684072713.60041928,88228861,1529,1529,1531,1527,0,0,0,0,0,0,0,0,0,0
1684072713.70037913,88328821,1531,1532,1535,1528,0,0,0,0,0,0,0,0,0,0
1684072713.80033922,88428781,1534,1534,1537,1531,0,0,0,0,0,0,0,0,0,0
1684072713.90029907,88528741,1537,1537,1539,1535,0,0,0,0,0,0,0,0,0,0
1684072714.00025916,88628701,1541,1541,1543,1540,0,0,0,0,0,0,0,0,0,0
1684072714.10021925,88728661,1544,1544,1545,1544,0,0,0,0,0,0,0,0,0,0
1684072714.20017910,88828621,1548,1548,1548,1548,0,0,0,0,0,0,0,0,0,0
1684072714.30013919,88928581,1551,1550,1550,1552,0,0,0,0,0,0,0,0,0,0
1684072714.40009928,89028541,1552,1552,1552,1553,0,0,0,0,0,0,0,0,0,0
1684072714.50005913,89128501,1555,1555,1554,1556,0,0,0,0,0,0,0,0,0,0
1684072714.60001922,89228461,1555,1556,1558,1560,0,0,0,0,0,0,0,0,0,0
1684072714.69997931,89328421,1556,1556,1561,1563,0,0,0,0,0,0,0,0,0,0
1684072714.79993916,89428381,1558,1559,1563,1564,0,0,0,0,0,0,0,0,0,0
1684072714.89989924,89528341,1560,1560,1564,1564,0,0,0,0,0,0,0,0,0,0
1684072714.99985909,89628301,1563,1563,1566,1565,0,0,0,0,0,0,0,0,0,0
1684072715.09981918,89728261,1565,1565,1566,1565,0,0,0,0,0,0,0,0,0,0
1684072715.19977927,89828221,1567,1567,1567,1566,0,0,0,0,0,0,0,0,0,0
1684072715.29973912,89928181,1568,1568,1566,1567,0,0,0,0,0,0,0,0,0,0
1684072715.40053225,90028974,1570,1570,1566,1567,0,0,0,0,0,0,0,0,0,0
1684072715.50049210,90128934,1571,1571,1567,1568,0,0,0,0,0,0,0,0,0,0
1684072715.60045218,90228894,1571,1571,1567,1567,0,0,0,0,0,0,0,0,0,0
1684072715.70041227,90328854,1573,1572,1570,1570,0,0,0,0,0,0,0,0,0,0
1684072715.80037212,90428814,1573,1573,1571,1570,0,0,0,0,0,0,0,0,0,0
1684072715.90033221,90528774,1573,1574,1572,1572,0,0,0,0,0,0,0,0,0,0
1684072716.00029230,90628734,1573,1574,1573,1572,0,0,0,0,0,0,0,0,0,0
1684072716.10025215,90728694,1573,1574,1574,1573,0,0,0,0,0,0,0,0,0,0
1684072716.20021224,90828654,1574,1574,1575,1574,0,0,0,0,0,0,0,0,0,0
1684072716.30017209,90928614,1575,1575,1576,1575,0,0,0,0,0,0,0,0,0,0
1684072716.40013218,91028574,1576,1576,1577,1577,0,0,0,0,0,0,0,0,0,0
1684072716.50009227,91128534,1575,1576,1577,1577,0,0,0,0,0,0,0,0,0,0
1684072716.60005212,91228494,1576,1576,1577,1577,0,0,0,0,0,0,0,0,0,0
1684072716.70001221,91328454,1576,1576,1576,1577,0,0,0,0,0,0,0,0,0,0
1684072716.79997230,91428414,1576,1575,1576,1576,0,0,0,0,0,0,0,0,0,0
1684072716.89993215,91528374,1577,1576,1577,1577,0,0,0,0,0,0,0,0,0,0
1684072716.99989223,91628334,1577,1577,1577,1577,0,0,0,0,0,0,0,0,0,0
1684072717.09985209,91728294,1578,1578,1577,1578,0,0,0,0,0,0,0,0,0,0
1684072717.19981217,91828254,1577,1578,1577,1577,0,0,0,0,0,0,0,0,0,0
1684072717.29977226,91928214,1578,1577,1577,1577,0,0,0,0,0,0,0,0,0,0
1684072717.39973211,92028174,1579,1579,1578,1578,0,0,0,0,0,0,0,0,0,0
1684072717.50052524,92128967,1578,1578,1578,1577,0,0,0,0,0,0,0,0,0,0
1684072717.60048509,92228927,1578,1579,1579,1578,0,0,0,0,0,0,0,0,0,0
1684072717.70044518,92328887,1577,1577,1577,1577,0,0,0,0,0,0,0,0,0,0
1684072717.80040526,92428847,1578,1578,1578,1578,0,0,0,0,0,0,0,0,0,0
1684072717.90036511,92528807,1578,1578,1578,1578,0,0,0,0,0,0,0,0,0,0
1684072718.00032520,92628767,1578,1578,1578,1578,0,0,0,0,0,0,0,0,0,0
1684072718.10028529,92728727,1579,1578,1578,1579,0,0,0,0,0,0,0,0,0,0
1684072718.20024514,92828687,1578,1578,1579,1578,0,0,0,0,0,0,0,0,0,0
1684072718.30020523,92928647,1579,1579,1580,1579,0,0,0,0,0,0,0,0,0,0
1684072718.40016508,93028607,1579,1579,1580,1580,0,0,0,0,0,0,0,0,0,0
1684072718.50012517,93128567,1579,1579,1580,1579,0,0,0,0,0,0,0,0,0,0
1684072718.60008526,93228527,1580,1580,1580,1580,0,0,0,0,0,0,0,0,0,0
1684072718.70004511,93328487,1579,1579,1579,1580,0,0,0,0,0,0,0,0,0,0
1684072718.80000520,93428447,1579,1580,1580,1580,0,0,0,0,0,0,0,0,0,0
1684072718.89996529,93528407,1580,1580,1580,1580,0,0,0,0,0,0,0,0,0,0
1684072718.99992514,93628367,1581,1580,1581,1580,0,0,0,0,0,0,0,0,0,0
1684072719.09988523,93728327,1580,1580,1580,1580,0,0,0,0,0,0,0,0,0,0
1684072719.19984508,93828287,1579,1579,1579,1579,0,0,0,0,0,0,0,0,0,0
1684072719.29980516,93928247,1579,1579,1579,1580,0,0,0,0,0,0,0,0,0,0
1684072719.39976525,94028207,1581,1581,1581,1581,0,0,0,0,0,0,0,0,0,0
1684072719.49972510,94128167,1581,1581,1581,1580,0,0,0,0,0,0,0,0,0,0
1684072719.60051823,94228960,1580,1580,1580,1580,0,0,0,0,0,0,0,0,0,0
1684072719.70047808,94328920,1582,1582,1582,1582,0,0,0,0,0,0,0,0,0,0
1684072719.80043817,94428880,1580,1580,1580,1580,0,0,0,0,0,0,0,0,0,0
1684072719.90039825,94528840,1581,1581,1581,1581,0,0,0,0,0,0,0,0,0,0
1684072720.00035810,94628800,1579,1580,1580,1580,0,0,0,0,0,0,0,0,0,0
1684072720.10031819,94728760,1581,1581,1581,1581,0,0,0,0,0,0,0,0,0,0
1684072720.20027828,94828720,1581,1581,1581,1581,0,0,0,0,0,0,0,0,0,0
1684072720.30023813,94928680,1581,1580,1580,1581,0,0,0,0,0,0,0,0,0,0
1684072720.40019822,95028640,1581,1581,1581,1581,0,0,0,0,0,0,0,0,0,0
1684072720.50015807,95128600,1581,1581,1582,1581,0,0,0,0,0,0,0,0,0,0
1684072720.60011816,95228560,1581,1582,1582,1582,0,0,0,0,0,0,0,0,0,0
1684072720.70007825,95328520,1581,1581,1581,1581,0,0,0,0,0,0,0,0,0,0
1684072720.80003810,95428480,1581,1582,1588,1575,0,0,0,0,0,0,0,0,0,0
1684072720.89999819,95528440,1580,1582,1586,1573,0,0,0,0,0,0,0,0,0,0
1684072720.99995828,95628400,1578,1581,1577,1573,0,0,0,0,0,0,0,0,0,0
1684072721.09991813,95728360,1577,1580,1568,1571,0,0,0,0,0,0,0,0,0,0
1684072721.19987822,95828320,1577,1579,1561,1568,0,0,0,0,0,0,0,0,0,0
1684072721.29983830,95928280,1578,1578,1557,1564,0,0,0,0,0,0,0,0,0,0
1684072721.39979815,96028240,1579,1579,1556,1560,0,0,0,0,0,0,0,0,0,0
1684072721.49975824,96128200,1580,1578,1555,1555,0,0,0,0,0,0,0,0,0,0
1684072721.59971809,96228160,1580,1578,1556,1554,0,0,0,0,0,0,0,0,0,0
1684072721.70051122,96328953,1579,1578,1555,1554,0,0,0,0,0,0,0,0,0,0
1684072721.80047131,96428913,1578,1578,1556,1553,0,0,0,0,0,0,0,0,0,0
1684072721.90043116,96528873,1577,1578,1556,1554,0,0,0,0,0,0,0,0,0,0
1684072722.00039124,96628833,1575,1577,1554,1553,0,0,0,0,0,0,0,0,0,0
1684072722.10035110,96728793,1575,1576,1553,1553,0,0,0,0,0,0,0,0,0,0
1684072722.20031118,96828753,1575,1577,1551,1552,0,0,0,0,0,0,0,0,0,0
1684072722.30027127,96928713,1576,1577,1549,1550,0,0,0,0,0,0,0,0,0,0
1684072722.40023112,97028673,1578,1579,1547,1547,0,0,0,0,0,0,0,0,0,0
1684072722.50019121,97128633,1580,1582,1545,1544,0,0,0,0,0,0,0,0,0,0
1684072722.60015130,97228593,1584,1585,1543,1542,0,0,0,0,0,0,0,0,0,0
1684072722.70011115,97328553,1587,1587,1540,1540,0,0,0,0,0,0,0,0,0,0
1684072722.80007124,97428513,1589,1589,1536,1536,0,0,0,0,0,0,0,0,0,0
1684072722.90003109,97528473,1593,1593,1536,1536,0,0,0,0,0,0,0,0,0,0
1684072722.99999118,97628433,1595,1595,1536,1536,0,0,0,0,0,0,0,0,0,0
1684072723.09995127,97728393,1595,1595,1535,1537,0,0,0,0,0,0,0,0,0,0
1684072723.19991112,97828353,1594,1594,1537,1539,0,0,0,0,0,0,0,0,0,0
1684072723.29987121,97928313,1592,1592,1540,1543,0,0,0,0,0,0,0,0,0,0
1684072723.39983130,98028273,1589,1587,1546,1548,0,0,0,0,0,0,0,0,0,0
1684072723.49979115,98128233,1583,1580,1554,1556,0,0,0,0,0,0,0,0,0,0
1684072723.59975123,98228193,1575,1571,1565,1567,0,0,0,0,0,0,0,0,0,0
1684072723.70054412,98328986,1564,1560,1576,1578,0,0,0,0,0,0,0,0,0,0
1684072723.80050421,98428946,1553,1550,1589,1590,0,0,0,0,0,0,0,0,0,0
1684072723.90046430,98528906,1541,1539,1599,1599,0,0,0,0,0,0,0,0,0,0
1684072724.00042415,98628866,1533,1533,1608,1607,0,0,0,0,0,0,0,0,0,0
1684072724.10038424,98728826,1529,1530,1613,1612,0,0,0,0,0,0,0,0,0,0
1684072724.20034409,98828786,1529,1531,1615,1614,0,0,0,0,0,0,0,0,0,0
1684072724.30030417,98928746,1532,1535,1614,1613,0,0,0,0,0,0,0,0,0,0
1684072724.40026426,99028706,1538,1540,1609,1609,0,0,0,0,0,0,0,0,0,0
1684072724.50022411,99128666,1546,1548,1603,1603,0,0,0,0,0,0,0,0,0,0
1684072724.60018420,99228626,1554,1555,1595,1594,0,0,0,0,0,0,0,0,0,0
1684072724.70014429,99328586,1564,1564,1588,1587,0,0,0,0,0,0,0,0,0,0
1684072724.80010414,99428546,1572,1571,1581,1580,0,0,0,0,0,0,0,0,0,0
1684072724.90006423,99528506,1373,1375,1633,1639,0,0,0,0,0,0,0,0,0,0
1684072725.00002408,99628466,1441,1447,1633,1634,0,0,0,0,0,0,0,0,0,0
1684072725.09998417,99728426,1501,1508,1618,1613,0,0,0,0,0,0,0,0,0,0
1684072725.19994426,99828386,1549,1552,1607,1599,0,0,0,0,0,0,0,0,0,0
1684072725.29990411,99928346,1583,1581,1598,1591,0,0,0,0,0,0,0,0,0,0
1684072725.39986420,100028306,1611,1600,1590,1587,0,0,0,0,0,0,0,0,0,0
1684072725.49982429,100128266,1638,1625,1568,1572,0,0,0,0,0,0,0,0,0,0
1684072725.59978414,100228226,1657,1645,1541,1551,0,0,0,0,0,0,0,0,0,0
1684072725.69974422,100328186,1657,1652,1541,1552,0,0,0,0,0,0,0,0,0,0
1684072725.80053711,100428979,1650,1654,1556,1563,0,0,0,0,0,0,0,0,0,0
1684072725.90049720,100528939,1638,1646,1562,1564,0,0,0,0,0,0,0,0,0,0
1684072726.00045729,100628899,1628,1638,1567,1565,0,0,0,0,0,0,0,0,0,0
1684072726.10041714,100728859,1622,1629,1571,1567,0,0,0,0,0,0,0,0,0,0
1684072726.20037723,100828819,1618,1620,1574,1569,0,0,0,0,0,0,0,0,0,0
1684072726.30033708,100928779,1615,1613,1575,1572,0,0,0,0,0,0,0,0,0,0
1684072726.40029716,101028739,1612,1607,1574,1574,0,0,0,0,0,0,0,0,0,0
1684072726.50025725,101128699,1607,1603,1572,1573,0,0,0,0,0,0,0,0,0,0
1684072726.60021710,101228659,1602,1599,1570,1572,0,0,0,0,0,0,0,0,0,0
1684072726.70017719,101328619,1597,1596,1568,1570,0,0,0,0,0,0,0,0,0,0
1684072726.80013728,101428579,1593,1595,1568,1569,0,0,0,0,0,0,0,0,0,0
1684072726.90009713,101528539,1590,1593,1568,1567,0,0,0,0,0,0,0,0,0,0
1684072727.00005722,101628499,1590,1591,1570,1568,0,0,0,0,0,0,0,0,0,0
1684072727.10001707,101728459,1588,1589,1569,1567,0,0,0,0,0,0,0,0,0,0
1684072727.19997716,101828419,1589,1589,1570,1568,0,0,0,0,0,0,0,0,0,0
1684072727.29993725,101928379,1588,1587,1569,1568,0,0,0,0,0,0,0,0,0,0
1684072727.39989710,102028339,1589,1588,1570,1570,0,0,0,0,0,0,0,0,0,0
1684072727.49985719,102128299,1588,1587,1569,1569,0,0,0,0,0,0,0,0,0,0
1684072727.59981728,102228259,1585,1582,1574,1575,0,0,0,0,0,0,0,0,0,0
1684072727.69977713,102328219,1575,1571,1586,1587,0,0,0,0,0,0,0,0,0,0
1684072727.79973722,102428179,1561,1560,1599,1600,0,0,0,0,0,0,0,0,0,0
1684072727.90053010,102528972,1551,1552,1607,1609,0,0,0,0,0,0,0,0,0,0
1684072728.00049019,102628932,1546,1550,1609,1610,0,0,0,0,0,0,0,0,0,0
1684072728.10045028,102728892,1547,1552,1608,1607,0,0,0,0,0,0,0,0,0,0
1684072728.20041013,102828852,1550,1556,1604,1602,0,0,0,0,0,0,0,0,0,0
1684072728.30037022,102928812,1556,1560,1599,1597,0,0,0,0,0,0,0,0,0,0
1684072728.40033031,103028772,1563,1565,1594,1592,0,0,0,0,0,0,0,0,0,0
1684072728.50029016,103128732,1572,1571,1586,1584,0,0,0,0,0,0,0,0,0,0
1684072728.60025024,103228692,1582,1580,1577,1576,0,0,0,0,0,0,0,0,0,0
1684072728.70021009,103328652,1591,1587,1567,1567,0,0,0,0,0,0,0,0,0,0
1684072728.80017018,103428612,1599,1592,1568,1556,0,0,0,0,0,0,0,0,0,0
1684072728.90013027,103528572,1602,1594,1560,1555,0,0,0,0,0,0,0,0,0,0
1684072729.00009012,103628532,1601,1594,1551,1554,0,0,0,0,0,0,0,0,0,0
1684072729.10005021,103728492,1595,1593,1547,1553,0,0,0,0,0,0,0,0,0,0
1684072729.20001030,103828452,1589,1592,1547,1552,0,0,0,0,0,0,0,0,0,0
1684072729.29997015,103928412,1583,1588,1550,1551,0,0,0,0,0,0,0,0,0,0
1684072729.39993024,104028372,1578,1584,1555,1554,0,0,0,0,0,0,0,0,0,0
1684072729.49989009,104128332,1574,1578,1560,1557,0,0,0,0,0,0,0,0,0,0
1684072729.59985018,104228292,1570,1572,1563,1560,0,0,0,0,0,0,0,0,0,0
1684072729.69981027,104328252,1567,1568,1565,1563,0,0,0,0,0,0,0,0,0,0
1684072729.79977012,104428212,1565,1564,1566,1565,0,0,0,0,0,0,0,0,0,0
1684072729.89973021,104528172,1564,1563,1563,1564,0,0,0,0,0,0,0,0,0,0
1684072730.00052309,104628965,1563,1563,1559,1561,0,0,0,0,0,0,0,0,0,0
1684072730.10048318,104728925,1565,1565,1556,1557,0,0,0,0,0,0,0,0,0,0
1684072730.20044327,104828885,1567,1569,1551,1551,0,0,0,0,0,0,0,0,0,0
1684072730.30040312,104928845,1572,1574,1546,1545,0,0,0,0,0,0,0,0,0,0
1684072730.40036321,105028805,1577,1579,1540,1539,0,0,0,0,0,0,0,0,0,0
1684072730.50032330,105128765,1583,1584,1536,1535,0,0,0,0,0,0,0,0,0,0
1684072730.60028315,105228725,1587,1588,1532,1531,0,0,0,0,0,0,0,0,0,0
1684072730.70024323,105328685,1590,1591,1530,1529,0,0,0,0,0,0,0,0,0,0
1684072730.80020308,105428645,1593,1593,1530,1530,0,0,0,0,0,0,0,0,0,0
1684072730.90016317,105528605,1593,1592,1532,1533,0,0,0,0,0,0,0,0,0,0
1684072731.00012326,105628565,1591,1591,1536,1538,0,0,0,0,0,0,0,0,0,0
1684072731.10008311,105728525,1589,1589,1540,1543,0,0,0,0,0,0,0,0,0,0
1684072731.20004320,105828485,1587,1587,1542,1544,0,0,0,0,0,0,0,0,0,0
1684072731.30000329,105928445,1586,1586,1544,1547,0,0,0,0,0,0,0,0,0,0
1684072731.39996314,106028405,1584,1583,1545,1548,0,0,0,0,0,0,0,0,0,0
1684072731.49992323,106128365,1579,1578,1551,1555,0,0,0,0,0,0,0,0,0,0
1684072731.59988308,106228325,1573,1571,1561,1564,0,0,0,0,0,0,0,0,0,0
1684072731.69984317,106328285,1565,1563,1570,1572,0,0,0,0,0,0,0,0,0,0
1684072731.79980326,106428245,1559,1557,1576,1579,0,0,0,0,0,0,0,0,0,0
1684072731.89976311,106528205,1554,1552,1582,1584,0,0,0,0,0,0,0,0,0,0
1684072731.99972320,106628165,1548,1548,1585,1586,0,0,0,0,0,0,0,0,0,0
1684072732.10051608,106728958,1545,1545,1590,1589,0,0,0,0,0,0,0,0,0,0
1684072732.20047617,106828918,1544,1544,1593,1591,0,0,0,0,0,0,0,0,0,0
1684072732.30043626,106928878,1543,1543,1595,1594,0,0,0,0,0,0,0,0,0,0
1684072732.40039611,107028838,1543,1543,1595,1594,0,0,0,0,0,0,0,0,0,0
1684072732.50035620,107128798,1544,1544,1595,1594,0,0,0,0,0,0,0,0,0,0
1684072732.60031629,107228758,1545,1545,1593,1593,0,0,0,0,0,0,0,0,0,0
1684072732.70027614,107328718,1547,1548,1592,1592,0,0,0,0,0,0,0,0,0,0
1684072732.80023623,107428678,1550,1551,1589,1589,0,0,0,0,0,0,0,0,0,0
1684072732.90019608,107528638,1554,1555,1586,1587,0,0,0,0,0,0,0,0,0,0
1684072733.00015616,107628598,1559,1559,1584,1584,0,0,0,0,0,0,0,0,0,0
1684072733.10011625,107728558,1563,1564,1581,1582,0,0,0,0,0,0,0,0,0,0
1684072733.20007610,107828518,1567,1568,1580,1579,0,0,0,0,0,0,0,0,0,0
1684072733.30003619,107928478,1572,1572,1579,1578,0,0,0,0,0,0,0,0,0,0
1684072733.39999628,108028438,1575,1575,1578,1576,0,0,0,0,0,0,0,0,0,0
1684072733.49995613,108128398,1578,1577,1577,1576,0,0,0,0,0,0,0,0,0,0
1684072733.59991622,108228358,1580,1579,1575,1575,0,0,0,0,0,0,0,0,0,0
1684072733.69987631,108328318,1581,1580,1574,1574,0,0,0,0,0,0,0,0,0,0
1684072733.79983616,108428278,1582,1582,1574,1574,0,0,0,0,0,0,0,0,0,0
1684072733.89979625,108528238,1583,1583,1574,1574,0,0,0,0,0,0,0,0,0,0
1684072733.99975610,108628198,1583,1583,1574,1575,0,0,0,0,0,0,0,0,0,0
1684072734.09971619,108728158,1583,1582,1573,1574,0,0,0,0,0,0,0,0,0,0
1684072734.20050907,108828951,1583,1583,1575,1575,0,0,0,0,0,0,0,0,0,0
1684072734.30046916,108928911,1582,1582,1574,1574,0,0,0,0,0,0,0,0,0,0
1684072734.40042925,109028871,1582,1582,1576,1575,0,0,0,0,0,0,0,0,0,0
1684072734.50038910,109128831,1581,1581,1576,1575,0,0,0,0,0,0,0,0,0,0
1684072734.60034919,109228791,1582,1582,1577,1577,0,0,0,0,0,0,0,0,0,0
1684072734.70030928,109328751,1581,1581,1577,1578,0,0,0,0,0,0,0,0,0,0
1684072734.80026913,109428711,1581,1581,1579,1579,0,0,0,0,0,0,0,0,0,0
1684072734.90022922,109528671,1580,1580,1578,1578,0,0,0,0,0,0,0,0,0,0
1684072735.00018930,109628631,1581,1581,1580,1580,0,0,0,0,0,0,0,0,0,0
1684072735.10014915,109728591,1580,1580,1580,1580,0,0,0,0,0,0,0,0,0,0
1684072735.20010924,109828551,1580,1579,1579,1579,0,0,0,0,0,0,0,0,0,0
1684072735.30006909,109928511,1579,1579,1579,1579,0,0,0,0,0,0,0,0,0,0
1684072735.40002918,110028471,1579,1580,1580,1580,0,0,0,0,0,0,0,0,0,0
1684072735.49998927,110128431,1579,1579,1580,1580,0,0,0,0,0,0,0,0,0,0
1684072735.59994912,110228391,1579,1580,1581,1581,0,0,0,0,0,0,0,0,0,0
1684072735.69990921,110328351,1579,1579,1580,1580,0,0,0,0,0,0,0,0,0,0
1684072735.79986930,110428311,1579,1579,1580,1579,0,0,0,0,0,0,0,0,0,0
1684072735.89982915,110528271,1579,1579,1580,1580,0,0,0,0,0,0,0,0,0,0
1684072735.99978924,110628231,1580,1580,1581,1581,0,0,0,0,0,0,0,0,0,0
1684072736.09974909,110728191,1580,1580,1581,1580,0,0,0,0,0,0,0,0,0,0
1684072736.20054221,110828984,1580,1581,1581,1581,0,0,0,0,0,0,0,0,0,0
1684072736.30050230,110928944,1580,1580,1580,1580,0,0,0,0,0,0,0,0,0,0
1684072736.40046215,111028904,1580,1580,1580,1580,0,0,0,0,0,0,0,0,0,0
1684072736.50042224,111128864,1581,1580,1580,1580,0,0,0,0,0,0,0,0,0,0
1684072736.60038209,111228824,1580,1581,1579,1580,0,0,0,0,0,0,0,0,0,0
1684072736.70034218,111328784,1580,1580,1579,1579,0,0,0,0,0,0,0,0,0,0
1684072736.80030227,111428744,1581,1581,1580,1580,0,0,0,0,0,0,0,0,0,0
1684072736.90026212,111528704,1581,1581,1579,1580,0,0,0,0,0,0,0,0,0,0
1684072737.00022221,111628664,1581,1581,1580,1581,0,0,0,0,0,0,0,0,0,0
1684072737.10018229,111728624,1581,1581,1580,1580,0,0,0,0,0,0,0,0,0,0
1684072737.20014215,111828584,1581,1581,1580,1580,0,0,0,0,0,0,0,0,0,0
1684072737.30010223,111928544,1581,1582,1581,1581,0,0,0,0,0,0,0,0,0,0
1684072737.40006208,112028504,1581,1581,1581,1581,0,0,0,0,0,0,0,0,0,0
1684072737.50002217,112128464,1582,1581,1581,1581,0,0,0,0,0,0,0,0,0,0
1684072737.59998226,112228424,1581,1581,1581,1581,0,0,0,0,0,0,0,0,0,0
1684072737.69994211,112328384,1581,1581,1586,1576,0,0,0,0,0,0,0,0,0,0
1684072737.79990220,112428344,1581,1581,1586,1573,0,0,0,0,0,0,0,0,0,0
1684072737.89986229,112528304,1581,1581,1580,1574,0,0,0,0,0,0,0,0,0,0
1684072737.99982214,112628264,1578,1579,1570,1572,0,0,0,0,0,0,0,0,0,0
1684072738.09978223,112728224,1577,1579,1563,1569,0,0,0,0,0,0,0,0,0,0
1684072738.19974208,112828184,1575,1578,1558,1564,0,0,0,0,0,0,0,0,0,0
1684072738.30053520,112928977,1576,1577,1557,1561,0,0,0,0,0,0,0,0,0,0
1684072738.40049529,113028937,1576,1577,1557,1558,0,0,0,0,0,0,0,0,0,0
1684072738.50045514,113128897,1818,1816,1502,1496,0,0,0,0,0,0,0,0,0,0
1684072738.60041523,113228857,1753,1748,1480,1474,0,0,0,0,0,0,0,0,0,0
1684072738.70037508,113328817,1687,1682,1493,1495,0,0,0,0,0,0,0,0,0,0
1684072738.80033517,113428777,1617,1615,1520,1525,0,0,0,0,0,0,0,0,0,0
1684072738.90029526,113528737,1556,1557,1547,1553,0,0,0,0,0,0,0,0,0,0
1684072739.00025511,113628697,1518,1523,1563,1568,0,0,0,0,0,0,0,0,0,0
1684072739.10021520,113728657,1501,1506,1569,1573,0,0,0,0,0,0,0,0,0,0
1684072739.20017529,113828617,1490,1494,1575,1577,0,0,0,0,0,0,0,0,0,0
1684072739.30013514,113928577,1471,1474,1595,1597,0,0,0,0,0,0,0,0,0,0
1684072739.40009522,114028537,1462,1465,1607,1609,0,0,0,0,0,0,0,0,0,0
1684072739.50005507,114128497,1471,1475,1608,1609,0,0,0,0,0,0,0,0,0,0
1684072739.60001516,114228457,1494,1498,1595,1595,0,0,0,0,0,0,0,0,0,0
1684072739.69997525,114328417,1524,1529,1572,1571,0,0,0,0,0,0,0,0,0,0
1684072739.79993510,114428377,1559,1563,1544,1542,0,0,0,0,0,0,0,0,0,0
1684072739.89989519,114528337,1588,1591,1523,1521,0,0,0,0,0,0,0,0,0,0
1684072739.99985528,114628297,1606,1607,1512,1511,0,0,0,0,0,0,0,0,0,0
1684072740.09981513,114728257,1615,1613,1509,1509,0,0,0,0,0,0,0,0,0,0
1684072740.19977522,114828217,1618,1614,1513,1513,0,0,0,0,0,0,0,0,0,0
1684072740.29973531,114928177,1618,1611,1520,1521,0,0,0,0,0,0,0,0,0,0
1684072740.40052819,115028970,1614,1608,1530,1531,0,0,0,0,0,0,0,0,0,0
1684072740.50048828,115128930,1606,1600,1541,1541,0,0,0,0,0,0,0,0,0,0
1684072740.60044813,115228890,1596,1592,1553,1554,0,0,0,0,0,0,0,0,0,0
1684072740.70040822,115328850,1585,1582,1565,1565,0,0,0,0,0,0,0,0,0,0
1684072740.80036807,115428810,1574,1571,1577,1576,0,0,0,0,0,0,0,0,0,0
1684072740.90032816,115528770,1564,1563,1588,1587,0,0,0,0,0,0,0,0,0,0
1684072741.00028825,115628730,1556,1556,1596,1595,0,0,0,0,0,0,0,0,0,0
1684072741.10024810,115728690,1541,1541,1610,1609,0,0,0,0,0,0,0,0,0,0
1684072741.20020819,115828650,1526,1527,1625,1624,0,0,0,0,0,0,0,0,0,0
1684072741.30016828,115928610,1516,1519,1634,1632,0,0,0,0,0,0,0,0,0,0
1684072741.40012813,116028570,1516,1518,1635,1635,0,0,0,0,0,0,0,0,0,0
1684072741.50008821,116128530,1522,1524,1628,1629,0,0,0,0,0,0,0,0,0,0
1684072741.60004830,116228490,1534,1536,1615,1618,0,0,0,0,0,0,0,0,0,0
1684072741.70000815,116328450,1550,1550,1600,1603,0,0,0,0,0,0,0,0,0,0
1684072741.79996824,116428410,1566,1566,1584,1586,0,0,0,0,0,0,0,0,0,0
1684072741.89992809,116528370,1579,1578,1571,1572,0,0,0,0,0,0,0,0,0,0
1684072741.99988818,116628330,1587,1585,1566,1565,0,0,0,0,0,0,0,0,0,0
1684072742.09984827,116728290,1589,1588,1564,1563,0,0,0,0,0,0,0,0,0,0
1684072742.19980812,116828250,1589,1587,1565,1563,0,0,0,0,0,0,0,0,0,0
1684072742.29976821,116928210,1588,1587,1567,1566,0,0,0,0,0,0,0,0,0,0
1684072742.39972830,117028170,1585,1584,1569,1568,0,0,0,0,0,0,0,0,0,0
1684072742.50052118,117128963,1583,1583,1572,1571,0,0,0,0,0,0,0,0,0,0
1684072742.60048127,117228923,1580,1581,1573,1574,0,0,0,0,0,0,0,0,0,0
1684072742.70044112,117328883,1579,1579,1576,1576,0,0,0,0,0,0,0,0,0,0
1684072742.80040121,117428843,1576,1576,1577,1577,0,0,0,0,0,0,0,0,0,0
1684072742.90036130,117528803,1577,1577,1580,1580,0,0,0,0,0,0,0,0,0,0
1684072743.00032115,117628763,1575,1575,1580,1580,0,0,0,0,0,0,0,0,0,0
1684072743.10028124,117728723,1575,1575,1582,1581,0,0,0,0,0,0,0,0,0,0
1684072743.20024109,117828683,1573,1574,1581,1581,0,0,0,0,0,0,0,0,0,0
1684072743.30020118,117928643,1573,1574,1581,1581,0,0,0,0,0,0,0,0,0,0
1684072743.40016127,118028603,1574,1574,1581,1581,0,0,0,0,0,0,0,0,0,0
1684072743.50012112,118128563,1574,1574,1581,1582,0,0,0,0,0,0,0,0,0,0
1684072743.60008121,118228523,1575,1575,1581,1582,0,0,0,0,0,0,0,0,0,0
1684072743.70004129,118328483,1575,1575,1581,1581,0,0,0,0,0,0,0,0,0,0
1684072743.80000114,118428443,1575,1575,1581,1580,0,0,0,0,0,0,0,0,0,0
1684072743.89996123,118528403,1576,1576,1580,1580,0,0,0,0,0,0,0,0,0,0
1684072743.99992108,118628363,1576,1576,1579,1580,0,0,0,0,0,0,0,0,0,0
1684072744.09988117,118728323,1576,1577,1579,1579,0,0,0,0,0,0,0,0,0,0
1684072744.19984126,118828283,1576,1577,1579,1578,0,0,0,0,0,0,0,0,0,0
1684072744.29980111,118928243,1578,1577,1579,1579,0,0,0,0,0,0,0,0,0,0
1684072744.39976120,119028203,1577,1578,1578,1578,0,0,0,0,0,0,0,0,0,0
1684072744.49972129,119128163,1578,1578,1578,1578,0,0,0,0,0,0,0,0,0,0
1684072744.60051417,119228956,1579,1579,1579,1579,0,0,0,0,0,0,0,0,0,0
1684072744.70047426,119328916,1579,1579,1579,1579,0,0,0,0,0,0,0,0,0,0
1684072744.80043411,119428876,1579,1579,1578,1578,0,0,0,0,0,0,0,0,0,0
1684072744.90039420,119528836,1580,1579,1579,1579,0,0,0,0,0,0,0,0,0,0
1684072745.00035429,119628796,1580,1580,1579,1579,0,0,0,0,0,0,0,0,0,0
1684072745.10031414,119728756,1580,1581,1580,1579,0,0,0,0,0,0,0,0,0,0
1684072745.20027423,119828716,1580,1581,1580,1580,0,0,0,0,0,0,0,0,0,0
1684072745.30023408,119928676,1580,1580,1579,1580,0,0,0,0,0,0,0,0,0,0
1684072745.40019417,120028636,1581,1581,1580,1580,0,0,0,0,0,0,0,0,0,0
1684072745.50015426,120128596,1581,1580,1580,1580,0,0,0,0,0,0,0,0,0,0
1684072745.60011411,120228556,1581,1581,1581,1581,0,0,0,0,0,0,0,0,0,0
1684072745.70007420,120328516,1582,1582,1582,1582,0,0,0,0,0,0,0,0,0,0
1684072745.80003428,120428476,1581,1581,1581,1581,0,0,0,0,0,0,0,0,0,0
1684072745.89999413,120528436,1581,1581,1581,1581,0,0,0,0,0,0,0,0,0,0
1684072745.99995422,120628396,1580,1581,1581,1578,0,0,0,0,0,0,0,0,0,0
1684072746.09991407,120728356,1580,1583,1587,1572,0,0,0,0,0,0,0,0,0,0
1684072746.19987416,120828316,1578,1582,1582,1573,0,0,0,0,0,0,0,0,0,0
1684072746.29983425,120928276,1575,1579,1576,1576,0,0,0,0,0,0,0,0,0,0
1684072746.39979410,121028236,1573,1573,1569,1575,0,0,0,0,0,0,0,0,0,0
1684072746.49975419,121128196,1572,1570,1566,1574,0,0,0,0,0,0,0,0,0,0
1684072746.59971428,121228156,1570,1567,1565,1570,0,0,0,0,0,0,0,0,0,0
1684072746.70050716,121328949,1569,1565,1565,1567,0,0,0,0,0,0,0,0,0,0
1684072746.80046725,121428909,1568,1566,1567,1565,0,0,0,0,0,0,0,0,0,0
1684072746.90042710,121528869,1566,1566,1567,1564,0,0,0,0,0,0,0,0,0,0
1684072747.00038719,121628829,1566,1567,1568,1565,0,0,0,0,0,0,0,0,0,0
1684072747.10034728,121728789,1565,1566,1567,1564,0,0,0,0,0,0,0,0,0,0
1684072747.20030713,121828749,1564,1565,1565,1565,0,0,0,0,0,0,0,0,0,0
1684072747.30026722,121928709,1563,1564,1564,1565,0,0,0,0,0,0,0,0,0,0
1684072747.40022731,122028669,1563,1563,1564,1564,0,0,0,0,0,0,0,0,0,0
1684072747.50018716,122128629,1562,1562,1562,1563,0,0,0,0,0,0,0,0,0,0
1684072747.60014725,122228589,1561,1561,1562,1562,0,0,0,0,0,0,0,0,0,0
1684072747.70010710,122328549,1562,1561,1562,1562,0,0,0,0,0,0,0,0,0,0
1684072747.80006719,122428509,1561,1560,1562,1560,0,0,0,0,0,0,0,0,0,0
1684072747.90002728,122528469,1560,1560,1561,1560,0,0,0,0,0,0,0,0,0,0
1684072747.99998713,122628429,1559,1559,1560,1559,0,0,0,0,0,0,0,0,0,0
1684072748.09994721,122728389,1558,1558,1558,1558,0,0,0,0,0,0,0,0,0,0
1684072748.19990730,122828349,1557,1557,1558,1557,0,0,0,0,0,0,0,0,0,0
1684072748.29986715,122928309,1556,1557,1557,1556,0,0,0,0,0,0,0,0,0,0
1684072748.39982724,123028269,1557,1558,1558,1556,0,0,0,0,0,0,0,0,0,0
1684072748.49978709,123128229,1558,1558,1558,1557,0,0,0,0,0,0,0,0,0,0
1684072748.59974718,123228189,1558,1558,1559,1557,0,0,0,0,0,0,0,0,0,0
1684072748.70054030,123328982,1558,1559,1560,1557,0,0,0,0,0,0,0,0,0,0
1684072748.80050015,123428942,1558,1559,1560,1558,0,0,0,0,0,0,0,0,0,0
1684072748.90046024,123528902,1559,1559,1557,1561,0,0,0,0,0,0,0,0,0,0
1684072749.00042009,123628862,1561,1560,1557,1563,0,0,0,0,0,0,0,0,0,0
1684072749.10038018,123728822,1562,1561,1558,1564,0,0,0,0,0,0,0,0,0,0
1684072749.20034027,123828782,1563,1561,1560,1564,0,0,0,0,0,0,0,0,0,0
1684072749.30030012,123928742,1564,1562,1562,1564,0,0,0,0,0,0,0,0,0,0
1684072749.40026021,124028702,1563,1562,1563,1561,0,0,0,0,0,0,0,0,0,0
1684072749.50022030,124128662,1561,1562,1563,1560,0,0,0,0,0,0,0,0,0,0
1684072749.60018015,124228622,1562,1562,1561,1563,0,0,0,0,0,0,0,0,0,0
1684072749.70014024,124328582,1558,1559,1557,1561,0,0,0,0,0,0,0,0,0,0
1684072749.80010009,124428542,1554,1555,1553,1556,0,0,0,0,0,0,0,0,0,0
1684072749.90006018,124528502,1549,1549,1549,1551,0,0,0,0,0,0,0,0,0,0
1684072750.00002027,124628462,1543,1543,1543,1543,0,0,0,0,0,0,0,0,0,0
1684072750.09998012,124728422,1535,1535,1536,1535,0,0,0,0,0,0,0,0,0,0
1684072750.19994020,124828382,1528,1528,1529,1528,0,0,0,0,0,0,0,0,0,0
1684072750.29990029,124928342,1521,1522,1522,1521,0,0,0,0,0,0,0,0,0,0
1684072750.39986014,125028302,1519,1520,1520,1520,0,0,0,0,0,0,0,0,0,0
1684072750.49982023,125128262,1520,1520,1520,1520,0,0,0,0,0,0,0,0,0,0
1684072750.59978008,125228222,1521,1521,1521,1521,0,0,0,0,0,0,0,0,0,0
1684072750.69974017,125328182,1523,1524,1523,1524,0,0,0,0,0,0,0,0,0,0
1684072750.80053329,125428975,1527,1527,1527,1527,0,0,0,0,0,0,0,0,0,0
1684072750.90049314,125528935,1532,1532,1532,1533,0,0,0,0,0,0,0,0,0,0
1684072751.00045323,125628895,1537,1537,1537,1537,0,0,0,0,0,0,0,0,0,0
1684072751.10041308,125728855,1539,1539,1539,1539,0,0,0,0,0,0,0,0,0,0
1684072751.20037317,125828815,1541,1541,1542,1541,0,0,0,0,0,0,0,0,0,0
1684072751.30033326,125928775,1543,1543,1543,1542,0,0,0,0,0,0,0,0,0,0
1684072751.40029311,126028735,1544,1543,1544,1543,0,0,0,0,0,0,0,0,0,0
1684072751.50025320,126128695,1545,1545,1545,1545,0,0,0,0,0,0,0,0,0,0
1684072751.60021329,126228655,1546,1546,1546,1546,0,0,0,0,0,0,0,0,0,0
1684072751.70017314,126328615,1546,1546,1546,1546,0,0,0,0,0,0,0,0,0,0
1684072751.80013323,126428575,1546,1546,1546,1546,0,0,0,0,0,0,0,0,0,0
1684072751.90009308,126528535,1546,1546,1546,1546,0,0,0,0,0,0,0,0,0,0
1684072752.00005317,126628495,1545,1546,1546,1546,0,0,0,0,0,0,0,0,0,0
1684072752.10001326,126728455,1545,1545,1545,1545,0,0,0,0,0,0,0,0,0,0
1684072752.19997311,126828415,1545,1545,1545,1545,0,0,0,0,0,0,0,0,0,0
1684072752.29993320,126928375,1546,1545,1545,1546,0,0,0,0,0,0,0,0,0,0
1684072752.39989328,127028335,1545,1545,1545,1544,0,0,0,0,0,0,0,0,0,0
1684072752.49985313,127128295,1544,1544,1544,1545,0,0,0,0,0,0,0,0,0,0
1684072752.59981322,127228255,1544,1544,1545,1545,0,0,0,0,0,0,0,0,0,0
1684072752.69977307,127328215,1545,1544,1544,1545,0,0,0,0,0,0,0,0,0,0
1684072752.79973316,127428175,1545,1545,1545,1545,0,0,0,0,0,0,0,0,0,0
1684072752.90052629,127528968,1544,1543,1544,1544,0,0,0,0,0,0,0,0,0,0
1684072753.00048614,127628928,1544,1544,1544,1543,0,0,0,0,0,0,0,0,0,0
1684072753.10044622,127728888,1544,1544,1544,1544,0,0,0,0,0,0,0,0,0,0
1684072753.20040607,127828848,1544,1544,1544,1545,0,0,0,0,0,0,0,0,0,0
1684072753.30036616,127928808,1543,1544,1544,1544,0,0,0,0,0,0,0,0,0,0
1684072753.40032625,128028768,1543,1543,1543,1543,0,0,0,0,0,0,0,0,0,0
1684072753.50028610,128128728,1544,1543,1544,1544,0,0,0,0,0,0,0,0,0,0
1684072753.60024619,128228688,1545,1544,1545,1544,0,0,0,0,0,0,0,0,0,0
1684072753.70020628,128328648,1544,1544,1544,1544,0,0,0,0,0,0,0,0,0,0
1684072753.80016613,128428608,1544,1544,1544,1544,0,0,0,0,0,0,0,0,0,0
1684072753.90012622,128528568,1544,1544,1544,1544,0,0,0,0,0,0,0,0,0,0
1684072754.00008631,128628528,1544,1544,1544,1544,0,0,0,0,0,0,0,0,0,0
1684072754.10004616,128728488,1544,1544,1544,1544,0,0,0,0,0,0,0,0,0,0
1684072754.20000625,128828448,1544,1544,1544,1544,0,0,0,0,0,0,0,0,0,0
1684072754.29996610,128928408,1543,1543,1543,1543,0,0,0,0,0,0,0,0,0,0
1684072754.39992619,129028368,1545,1545,1545,1545,0,0,0,0,0,0,0,0,0,0
1684072754.49988627,129128328,1545,1544,1544,1545,0,0,0,0,0,0,0,0,0,0
1684072754.59984612,129228288,1545,1545,1545,1545,0,0,0,0,0,0,0,0,0,0
1684072754.69980621,129328248,1544,1543,1543,1544,0,0,0,0,0,0,0,0,0,0
1684072754.79976630,129428208,1545,1545,1546,1545,0,0,0,0,0,0,0,0,0,0
1684072754.89972615,129528168,1544,1544,1544,1544,0,0,0,0,0,0,0,0,0,0
1684072755.00051928,129628961,1544,1544,1544,1543,0,0,0,0,0,0,0,0,0,0
1684072755.10047913,129728921,1544,1543,1543,1544,0,0,0,0,0,0,0,0,0,0
1684072755.20043921,129828881,1544,1544,1544,1544,0,0,0,0,0,0,0,0,0,0
1684072755.30039930,129928841,1544,1544,1544,1545,0,0,0,0,0,0,0,0,0,0
1684072755.40035915,130028801,1545,1545,1545,1545,0,0,0,0,0,0,0,0,0,0
1684072755.50031924,130128761,1544,1544,1544,1544,0,0,0,0,0,0,0,0,0,0
1684072755.60027909,130228721,1544,1544,1544,1544,0,0,0,0,0,0,0,0,0,0
1684072755.70023918,130328681,1544,1544,1544,1544,0,0,0,0,0,0,0,0,0,0
1684072755.80019927,130428641,1544,1544,1544,1544,0,0,0,0,0,0,0,0,0,0
1684072755.90015912,130528601,1545,1544,1544,1544,0,0,0,0,0,0,0,0,0,0
1684072756.00011921,130628561,1545,1545,1545,1545,0,0,0,0,0,0,0,0,0,0
1684072756.10007930,130728521,1544,1544,1544,1545,0,0,0,0,0,0,0,0,0,0
1684072756.20003915,130828481,1545,1546,1546,1545,0,0,0,0,0,0,0,0,0,0
1684072756.29999924,130928441,1545,1545,1545,1544,0,0,0,0,0,0,0,0,0,0
1684072756.39995909,131028401,1545,1545,1545,1545,0,0,0,0,0,0,0,0,0,0
1684072756.49991918,131128361,1544,1544,1544,1545,0,0,0,0,0,0,0,0,0,0
1684072756.59987926,131228321,1543,1543,1544,1543,0,0,0,0,0,0,0,0,0,0
1684072756.69983912,131328281,1544,1544,1544,1544,0,0,0,0,0,0,0,0,0,0
1684072756.79979920,131428241,1544,1544,1545,1544,0,0,0,0,0,0,0,0,0,0
1684072756.89975929,131528201,1544,1544,1544,1544,0,0,0,0,0,0,0,0,0,0
1684072756.99971914,131628161,1544,1545,1545,1545,0,0,0,0,0,0,0,0,0,0
1684072757.10051227,131728954,1544,1544,1544,1545,0,0,0,0,0,0,0,0,0,0
1684072757.20047212,131828914,1544,1544,1544,1544,0,0,0,0,0,0,0,0,0,0
1684072757.30043221,131928874,1545,1545,1545,1545,0,0,0,0,0,0,0,0,0,0
1684072757.40039229,132028834,1544,1544,1544,1544,0,0,0,0,0,0,0,0,0,0
1684072757.50035214,132128794,1544,1544,1544,1544,0,0,0,0,0,0,0,0,0,0
1684072757.60031223,132228754,1544,1544,1544,1544,0,0,0,0,0,0,0,0,0,0
1684072757.70027208,132328714,1543,1543,1543,1543,0,0,0,0,0,0,0,0,0,0
1684072757.80023217,132428674,1543,1544,1544,1544,0,0,0,0,0,0,0,0,0,0
1684072757.90019226,132528634,1545,1544,1545,1545,0,0,0,0,0,0,0,0,0,0
1684072758.00015211,132628594,1544,1544,1544,1544,0,0,0,0,0,0,0,0,0,0
1684072758.10011220,132728554,1545,1545,1545,1545,0,0,0,0,0,0,0,0,0,0
1684072758.20007229,132828514,1544,1544,1544,1544,0,0,0,0,0,0,0,0,0,0
1684072758.30003214,132928474,1544,1544,1544,1544,0,0,0,0,0,0,0,0,0,0
1684072758.39999223,133028434,1545,1545,1545,1545,0,0,0,0,0,0,0,0,0,0
1684072758.49995208,133128394,1544,1544,1544,1544,0,0,0,0,0,0,0,0,0,0
1684072758.59991217,133228354,1543,1543,1543,1544,0,0,0,0,0,0,0,0,0,0
1684072758.69987226,133328314,1543,1543,1543,1544,0,0,0,0,0,0,0,0,0,0
1684072758.79983211,133428274,1543,1544,1544,1543,0,0,0,0,0,0,0,0,0,0
1684072758.89979219,133528234,1544,1543,1543,1544,0,0,0,0,0,0,0,0,0,0
1684072758.99975228,133628194,1544,1544,1544,1544,0,0,0,0,0,0,0,0,0,0
1684072759.09971213,133728154,1544,1544,1544,1544,0,0,0,0,0,0,0,0,0,0
1684072759.20050526,133828947,1544,1544,1544,1544,0,0,0,0,0,0,0,0,0,0
1684072759.30046511,133928907,1544,1544,1544,1544,0,0,0,0,0,0,0,0,0,0
1684072759.40042520,134028867,1544,1544,1544,1544,0,0,0,0,0,0,0,0,0,0
1684072759.50038528,134128827,1543,1543,1543,1544,0,0,0,0,0,0,0,0,0,0
1684072759.60034513,134228787,1544,1544,1544,1544,0,0,0,0,0,0,0,0,0,0
1684072759.70030522,134328747,1545,1545,1545,1545,0,0,0,0,0,0,0,0,0,0
1684072759.80026507,134428707,1544,1544,1544,1544,0,0,0,0,0,0,0,0,0,0
1684072759.90022516,134528667,1544,1544,1544,1544,0,0,0,0,0,0,0,0,0,0
1684072760.00018525,134628627,1544,1544,1545,1544,0,0,0,0,0,0,0,0,0,0
1684072760.10014510,134728587,1448,1449,1450,1449,0,0,0,0,0,0,0,0,0,0
1684072760.20010519,134828547,1289,1290,1292,1290,0,0,0,0,0,0,0,0,0,0
1684072760.30006528,134928507,1223,1224,1226,1225,0,0,0,0,0,0,0,0,0,0
1684072760.40002513,135028467,1199,1202,1205,1203,0,0,0,0,0,0,0,0,0,0
1684072760.49998522,135128427,1166,1167,1171,1170,0,0,0,0,0,0,0,0,0,0
1684072760.59994531,135228387,1150,1153,1158,1154,0,0,0,0,0,0,0,0,0,0
1684072760.69990516,135328347,1150,1152,1158,1155,0,0,0,0,0,0,0,0,0,0
1684072760.79986525,135428307,1194,1150,1153,1202,0,0,0,0,0,0,0,0,0,0
1684072760.89982510,135528267,1183,1150,1156,1190,0,0,0,0,0,0,0,0,0,0
1684072760.99978518,135628227,1176,1150,1158,1183,0,0,0,0,0,0,0,0,0,0
1684072761.09974527,135728187,1176,1150,1159,1183,0,0,0,0,0,0,0,0,0,0
1684072761.20053816,135828980,1178,1150,1159,1186,0,0,0,0,0,0,0,0,0,0
1684072761.30049825,135928940,1182,1150,1160,1189,0,0,0,0,0,0,0,0,0,0
1684072761.40045810,136028900,1184,1150,1161,1192,0,0,0,0,0,0,0,0,0,0
1684072761.50041819,136128860,1187,1150,1162,1196,0,0,0,0,0,0,0,0,0,0
1684072761.60037827,136228820,1168,1150,1163,1177,0,0,0,0,0,0,0,0,0,0
1684072761.70033813,136328780,1170,1150,1163,1180,0,0,0,0,0,0,0,0,0,0
1684072761.80029821,136428740,1171,1150,1163,1182,0,0,0,0,0,0,0,0,0,0
1684072761.90025830,136528700,1172,1150,1164,1184,0,0,0,0,0,0,0,0,0,0
1684072762.00021815,136628660,1173,1150,1165,1185,0,0,0,0,0,0,0,0,0,0
1684072762.10017824,136728620,1000,1000,1000,1000,0,0,0,0,0,0,0,0,0,0
1684072762.20013809,136828580,1000,1000,1000,1000,0,0,0,0,0,0,0,0,0,0
1684072762.30009818,136928540,1000,1000,1000,1000,0,0,0,0,0,0,0,0,0,0
1684072762.40005827,137028500,1000,1000,1000,1000,0,0,0,0,0,0,0,0,0,0
1684072762.50001812,137128460,1000,1000,1000,1000,0,0,0,0,0,0,0,0,0,0
1684072762.59997821,137228420,1000,1000,1000,1000,0,0,0,0,0,0,0,0,0,0
1684072762.69993830,137328380,1000,1000,1000,1000,0,0,0,0,0,0,0,0,0,0
1684072762.79989815,137428340,1000,1000,1000,1000,0,0,0,0,0,0,0,0,0,0
1684072762.89985824,137528300,1000,1000,1000,1000,0,0,0,0,0,0,0,0,0,0
1684072762.99981809,137628260,1000,1000,1000,1000,0,0,0,0,0,0,0,0,0,0
1684072763.09977818,137728220,1000,1000,1000,1000,0,0,0,0,0,0,0,0,0,0
1684072763.19973826,137828180,1000,1000,1000,1000,0,0,0,0,0,0,0,0,0,0
1684072763.30053115,137928973,1000,1000,1000,1000,0,0,0,0,0,0,0,0,0,0
1684072763.40049124,138028933,1000,1000,1000,1000,0,0,0,0,0,0,0,0,0,0
1684072763.50045109,138128893,1000,1000,1000,1000,0,0,0,0,0,0,0,0,0,0
1684072763.60041118,138228853,1000,1000,1000,1000,0,0,0,0,0,0,0,0,0,0
1684072763.70037127,138328813,1000,1000,1000,1000,0,0,0,0,0,0,0,0,0,0
1684072763.80033112,138428773,1000,1000,1000,1000,0,0,0,0,0,0,0,0,0,0
1684072763.90029120,138528733,1000,1000,1000,1000,0,0,0,0,0,0,0,0,0,0
1684072764.00025129,138628693,1000,1000,1000,1000,0,0,0,0,0,0,0,0,0,0
1684072764.10021114,138728653,1000,1000,1000,1000,0,0,0,0,0,0,0,0,0,0
1684072764.20017123,138828613,1000,1000,1000,1000,0,0,0,0,0,0,0,0,0,0
1684072764.30013108,138928573,1000,1000,1000,1000,0,0,0,0,0,0,0,0,0,0
1684072764.40009117,139028533,1000,1000,1000,1000,0,0,0,0,0,0,0,0,0,0
1684072764.50005126,139128493,1000,1000,1000,1000,0,0,0,0,0,0,0,0,0,0
1684072764.60001111,139228453,1000,1000,1000,1000,0,0,0,0,0,0,0,0,0,0
1684072764.69997120,139328413,1000,1000,1000,1000,0,0,0,0,0,0,0,0,0,0
1684072764.79993129,139428373,1000,1000,1000,1000,0,0,0,0,0,0,0,0,0,0
1684072764.89989114,139528333,1000,1000,1000,1000,0,0,0,0,0,0,0,0,0,0
1684072764.99985123,139628293,1000,1000,1000,1000,0,0,0,0,0,0,0,0,0,0
1684072765.09981108,139728253,1000,1000,1000,1000,0,0,0,0,0,0,0,0,0,0
1684072765.19977117,139828213,1000,1000,1000,1000,0,0,0,0,0,0,0,0,0,0
1684072765.29973125,139928173,1000,1000,1000,1000,0,0,0,0,0,0,0,0,0,0
1684072765.40052414,140028966,1000,1000,1000,1000,0,0,0,0,0,0,0,0,0,0
1684072765.50048423,140128926,1000,1000,1000,1000,0,0,0,0,0,0,0,0,0,0
1684072765.60044408,140228886,1000,1000,1000,1000,0,0,0,0,0,0,0,0,0,0
1684072765.70040417,140328846,1000,1000,1000,1000,0,0,0,0,0,0,0,0,0,0
1684072765.80036426,140428806,1000,1000,1000,1000,0,0,0,0,0,0,0,0,0,0
1684072765.90032411,140528766,1000,1000,1000,1000,0,0,0,0,0,0,0,0,0,0
1684072766.00028419,140628726,1000,1000,1000,1000,0,0,0,0,0,0,0,0,0,0
1684072766.10024428,140728686,1000,1000,1000,1000,0,0,0,0,0,0,0,0,0,0
1684072766.20020413,140828646,1000,1000,1000,1000,0,0,0,0,0,0,0,0,0,0
1684072766.30016422,140928606,1000,1000,1000,1000,0,0,0,0,0,0,0,0,0,0
1684072766.40012407,141028566,1000,1000,1000,1000,0,0,0,0,0,0,0,0,0,0
1684072766.50008416,141128526,1000,1000,1000,1000,0,0,0,0,0,0,0,0,0,0
1684072766.60004425,141228486,1000,1000,1000,1000,0,0,0,0,0,0,0,0,0,0
1684072766.70000410,141328446,1000,1000,1000,1000,0,0,0,0,0,0,0,0,0,0
1684072766.79996419,141428406,1000,1000,1000,1000,0,0,0,0,0,0,0,0,0,0
1684072766.89992428,141528366,1000,1000,1000,1000,0,0,0,0,0,0,0,0,0,0
1684072766.99988413,141628326,1000,1000,1000,1000,0,0,0,0,0,0,0,0,0,0
1684072767.09984422,141728286,1000,1000,1000,1000,0,0,0,0,0,0,0,0,0,0
1684072767.19980431,141828246,1000,1000,1000,1000,0,0,0,0,0,0,0,0,0,0
1684072767.29976416,141928206,1000,1000,1000,1000,0,0,0,0,0,0,0,0,0,0
1684072767.39972425,142028166,1000,1000,1000,1000,0,0,0,0,0,0,0,0,0,0
1684072767.50051713,142128959,1000,1000,1000,1000,0,0,0,0,0,0,0,0,0,0
1684072767.60047722,142228919,1000,1000,1000,1000,0,0,0,0,0,0,0,0,0,0
1684072767.70043731,142328879,1000,1000,1000,1000,0,0,0,0,0,0,0,0,0,0
1684072767.80039716,142428839,1000,1000,1000,1000,0,0,0,0,0,0,0,0,0,0
1684072767.90035725,142528799,1000,1000,1000,1000,0,0,0,0,0,0,0,0,0,0
1684072768.00031710,142628759,1000,1000,1000,1000,0,0,0,0,0,0,0,0,0,0
1684072768.10027719,142728719,1000,1000,1000,1000,0,0,0,0,0,0,0,0,0,0
1684072768.20023727,142828679,1000,1000,1000,1000,0,0,0,0,0,0,0,0,0,0
1684072768.30019712,142928639,1000,1000,1000,1000,0,0,0,0,0,0,0,0,0,0
1684072768.40015721,143028599,1000,1000,1000,1000,0,0,0,0,0,0,0,0,0,0
1684072768.50011730,143128559,1000,1000,1000,1000,0,0,0,0,0,0,0,0,0,0
1684072768.60007715,143228519,1000,1000,1000,1000,0,0,0,0,0,0,0,0,0,0
1684072768.70003724,143328479,1000,1000,1000,1000,0,0,0,0,0,0,0,0,0,0
1684072768.79999709,143428439,1000,1000,1000,1000,0,0,0,0,0,0,0,0,0,0
1684072768.89995718,143528399,1000,1000,1000,1000,0,0,0,0,0,0,0,0,0,0
1684072768.99991727,143628359,1000,1000,1000,1000,0,0,0,0,0,0,0,0,0,0
1684072769.09987712,143728319,1000,1000,1000,1000,0,0,0,0,0,0,0,0,0,0
1684072769.19983721,143828279,1000,1000,1000,1000,0,0,0,0,0,0,0,0,0,0
1684072769.29979730,143928239,1000,1000,1000,1000,0,0,0,0,0,0,0,0,0,0
1684072769.39975715,144028199,1000,1000,1000,1000,0,0,0,0,0,0,0,0,0,0
1684072769.49971724,144128159,1000,1000,1000,1000,0,0,0,0,0,0,0,0,0,0
1684072769.60051012,144228952,1000,1000,1000,1000,0,0,0,0,0,0,0,0,0,0
1684072769.70047021,144328912,1000,1000,1000,1000,0,0,0,0,0,0,0,0,0,0
1684072769.80043030,144428872,1000,1000,1000,1000,0,0,0,0,0,0,0,0,0,0
1684072769.90039015,144528832,1000,1000,1000,1000,0,0,0,0,0,0,0,0,0,0
1684072770.00035024,144628792,1000,1000,1000,1000,0,0,0,0,0,0,0,0,0,0
1684072770.10031009,144728752,1000,1000,1000,1000,0,0,0,0,0,0,0,0,0,0
1684072770.20027018,144828712,1000,1000,1000,1000,0,0,0,0,0,0,0,0,0,0
1684072770.30023026,144928672,1000,1000,1000,1000,0,0,0,0,0,0,0,0,0,0
1684072770.40019011,145028632,1000,1000,1000,1000,0,0,0,0,0,0,0,0,0,0
1684072770.50015020,145128592,1000,1000,1000,1000,0,0,0,0,0,0,0,0,0,0
1684072770.60011029,145228552,1000,1000,1000,1000,0,0,0,0,0,0,0,0,0,0
1684072770.70007014,145328512,1000,1000,1000,1000,0,0,0,0,0,0,0,0,0,0
1684072770.80003023,145428472,1000,1000,1000,1000,0,0,0,0,0,0,0,0,0,0
1684072770.89999008,145528432,1000,1000,1000,1000,0,0,0,0,0,0,0,0,0,0
1684072770.99995017,145628392,1000,1000,1000,1000,0,0,0,0,0,0,0,0,0,0
1684072771.09991026,145728352,1000,1000,1000,1000,0,0,0,0,0,0,0,0,0,0
1684072771.19987011,145828312,1000,1000,1000,1000,0,0,0,0,0,0,0,0,0,0
1684072771.29983020,145928272,1000,1000,1000,1000,0,0,0,0,0,0,0,0,0,0
1684072771.39979029,146028232,1000,1000,1000,1000,0,0,0,0,0,0,0,0,0,0
1684072771.49975014,146128192,1000,1000,1000,1000,0,0,0,0,0,0,0,0,0,0
1684072771.60054326,146228985,1000,1000,1000,1000,0,0,0,0,0,0,0,0,0,0
1684072771.70050311,146328945,1000,1000,1000,1000,0,0,0,0,0,0,0,0,0,0
1684072771.80046320,146428905,1000,1000,1000,1000,0,0,0,0,0,0,0,0,0,0
1684072771.90042329,146528865,1000,1000,1000,1000,0,0,0,0,0,0,0,0,0,0
1684072772.00038314,146628825,1000,1000,1000,1000,0,0,0,0,0,0,0,0,0,0
1684072772.10034323,146728785,1000,1000,1000,1000,0,0,0,0,0,0,0,0,0,0
1684072772.20030308,146828745,1000,1000,1000,1000,0,0,0,0,0,0,0,0,0,0
1684072772.30026317,146928705,1000,1000,1000,1000,0,0,0,0,0,0,0,0,0,0
1684072772.40022326,147028665,1000,1000,1000,1000,0,0,0,0,0,0,0,0,0,0
1684072772.50018311,147128625,1000,1000,1000,1000,0,0,0,0,0,0,0,0,0,0
1684072772.60014319,147228585,1000,1000,1000,1000,0,0,0,0,0,0,0,0,0,0
1684072772.70010328,147328545,1000,1000,1000,1000,0,0,0,0,0,0,0,0,0,0
1684072772.80006313,147428505,1000,1000,1000,1000,0,0,0,0,0,0,0,0,0,0
1684072772.90002322,147528465,1000,1000,1000,1000,0,0,0,0,0,0,0,0,0,0
1684072772.99998307,147628425,1000,1000,1000,1000,0,0,0,0,0,0,0,0,0,0
1684072773.09994316,147728385,1000,1000,1000,1000,0,0,0,0,0,0,0,0,0,0
1684072773.19990325,147828345,1000,1000,1000,1000,0,0,0,0,0,0,0,0,0,0
1684072773.29986310,147928305,1000,1000,1000,1000,0,0,0,0,0,0,0,0,0,0
1684072773.39982319,148028265,1000,1000,1000,1000,0,0,0,0,0,0,0,0,0,0
1684072773.49978328,148128225,1000,1000,1000,1000,0,0,0,0,0,0,0,0,0,0
1684072773.59974313,148228185,1000,1000,1000,1000,0,0,0,0,0,0,0,0,0,0
1684072773.70053625,148328978,1000,1000,1000,1000,0,0,0,0,0,0,0,0,0,0
1684072773.80049610,148428938,1000,1000,1000,1000,0,0,0,0,0,0,0,0,0,0
1684072773.90045619,148528898,1000,1000,1000,1000,0,0,0,0,0,0,0,0,0,0
1684072774.00041628,148628858,1000,1000,1000,1000,0,0,0,0,0,0,0,0,0,0
1684072774.10037613,148728818,1000,1000,1000,1000,0,0,0,0,0,0,0,0,0,0
1684072774.20033622,148828778,1000,1000,1000,1000,0,0,0,0,0,0,0,0,0,0
1684072774.30029631,148928738,1000,1000,1000,1000,0,0,0,0,0,0,0,0,0,0
1684072774.40025616,149028698,1000,1000,1000,1000,0,0,0,0,0,0,0,0,0,0
1684072774.50021625,149128658,1000,1000,1000,1000,0,0,0,0,0,0,0,0,0,0
1684072774.60017610,149228618,1000,1000,1000,1000,0,0,0,0,0,0,0,0,0,0
1684072774.70013618,149328578,1000,1000,1000,1000,0,0,0,0,0,0,0,0,0,0
1684072774.80009627,149428538,1000,1000,1000,1000,0,0,0,0,0,0,0,0,0,0
1684072774.90005612,149528498,1000,1000,1000,1000,0,0,0,0,0,0,0,0,0,0
1684072775.00001621,149628458,1000,1000,1000,1000,0,0,0,0,0,0,0,0,0,0
1684072775.09997630,149728418,1000,1000,1000,1000,0,0,0,0,0,0,0,0,0,0
1684072775.19993615,149828378,1000,1000,1000,1000,0,0,0,0,0,0,0,0,0,0
1684072775.29989624,149928338,1000,1000,1000,1000,0,0,0,0,0,0,0,0,0,0
1684072775.39985609,150028298,1000,1000,1000,1000,0,0,0,0,0,0,0,0,0,0
1684072775.49981618,150128258,1000,1000,1000,1000,0,0,0,0,0,0,0,0,0,0
1684072775.59977627,150228218,1000,1000,1000,1000,0,0,0,0,0,0,0,0,0,0
1684072775.69973612,150328178,1000,1000,1000,1000,0,0,0,0,0,0,0,0,0,0
1684072775.80052924,150428971,1000,1000,1000,1000,0,0,0,0,0,0,0,0,0,0
1684072775.90048909,150528931,1000,1000,1000,1000,0,0,0,0,0,0,0,0,0,0
1684072776.00044918,150628891,1000,1000,1000,1000,0,0,0,0,0,0,0,0,0,0
1684072776.10040927,150728851,1000,1000,1000,1000,0,0,0,0,0,0,0,0,0,0
1684072776.20036912,150828811,1000,1000,1000,1000,0,0,0,0,0,0,0,0,0,0
1684072776.30032921,150928771,1000,1000,1000,1000,0,0,0,0,0,0,0,0,0,0
1684072776.40028930,151028731,1000,1000,1000,1000,0,0,0,0,0,0,0,0,0,0
1684072776.50024915,151128691,1000,1000,1000,1000,0,0,0,0,0,0,0,0,0,0
1684072776.60020924,151228651,1000,1000,1000,1000,0,0,0,0,0,0,0,0,0,0
1684072776.70016909,151328611,1000,1000,1000,1000,0,0,0,0,0,0,0,0,0,0
1684072776.80012918,151428571,1000,1000,1000,1000,0,0,0,0,0,0,0,0,0,0
1684072776.90008926,151528531,1000,1000,1000,1000,0,0,0,0,0,0,0,0,0,0
1684072777.00004911,151628491,1000,1000,1000,1000,0,0,0,0,0,0,0,0,0,0
