timestamp,TimeUS,C1,C2,C3,C4,C5,C6,C7,C8,C9,C10,C11,C12,C13,C14
1684048206.90003991,58528246,1000,1000,1000,1000,0,0,0,0,0,0,0,0,0,0
1684048207.00000000,58628206,1000,1000,1000,1000,0,0,0,0,0,0,0,0,0,0
1684048207.09996009,58728166,1000,1000,1000,1000,0,0,0,0,0,0,0,0,0,0
1684048207.20075297,58828959,1000,1000,1000,1000,0,0,0,0,0,0,0,0,0,0
1684048207.30071306,58928919,1000,1000,1000,1000,0,0,0,0,0,0,0,0,0,0
1684048207.40067291,59028879,1000,1000,1000,1000,0,0,0,0,0,0,0,0,0,0
1684048207.50063300,59128839,1000,1000,1000,1000,0,0,0,0,0,0,0,0,0,0
1684048207.60059309,59228799,1000,1000,1000,1000,0,0,0,0,0,0,0,0,0,0
1684048207.70055294,59328759,1000,1000,1000,1000,0,0,0,0,0,0,0,0,0,0
1684048207.80051303,59428719,1000,1000,1000,1000,0,0,0,0,0,0,0,0,0,0
1684048207.90047288,59528679,1000,1000,1000,1000,0,0,0,0,0,0,0,0,0,0
1684048208.00043297,59628639,1000,1000,1000,1000,0,0,0,0,0,0,0,0,0,0
1684048208.10039306,59728599,1000,1000,1000,1000,0,0,0,0,0,0,0,0,0,0
1684048208.20035291,59828559,1000,1000,1000,1000,0,0,0,0,0,0,0,0,0,0
1684048208.30031300,59928519,1000,1000,1000,1000,0,0,0,0,0,0,0,0,0,0
1684048208.40027308,60028479,1000,1000,1000,1000,0,0,0,0,0,0,0,0,0,0
1684048208.50023293,60128439,1000,1000,1000,1000,0,0,0,0,0,0,0,0,0,0
1684048208.60019302,60228399,1000,1000,1000,1000,0,0,0,0,0,0,0,0,0,0
1684048208.70015287,60328359,1000,1000,1000,1000,0,0,0,0,0,0,0,0,0,0
1684048208.80011296,60428319,1000,1000,1000,1000,0,0,0,0,0,0,0,0,0,0
1684048208.90007305,60528279,1014,1014,1014,1014,0,0,0,0,0,0,0,0,0,0
1684048209.00003290,60628239,1044,1044,1044,1044,0,0,0,0,0,0,0,0,0,0
1684048209.09999299,60728199,1074,1074,1074,1074,0,0,0,0,0,0,0,0,0,0
1684048209.19995308,60828159,1104,1104,1104,1104,0,0,0,0,0,0,0,0,0,0
1684048209.30074596,60928952,1134,1134,1134,1134,0,0,0,0,0,0,0,0,0,0
1684048209.40070605,61028912,1282,1274,1275,1282,0,0,0,0,0,0,0,0,0,0
1684048209.50066590,61128872,1491,1485,1485,1491,0,0,0,0,0,0,0,0,0,0
1684048209.60062599,61228832,1653,1647,1648,1652,0,0,0,0,0,0,0,0,0,0
1684048209.70058608,61328792,1789,1784,1785,1789,0,0,0,0,0,0,0,0,0,0
1684048209.80054593,61428752,1911,1905,1905,1910,0,0,0,0,0,0,0,0,0,0
1684048209.90050602,61528712,1880,1876,1877,1879,0,0,0,0,0,0,0,0,0,0
1684048210.00046587,61628672,1751,1751,1751,1751,0,0,0,0,0,0,0,0,0,0
1684048210.10042596,61728632,1653,1655,1655,1654,0,0,0,0,0,0,0,0,0,0
1684048210.20038605,61828592,1622,1623,1621,1624,0,0,0,0,0,0,0,0,0,0
1684048210.30034590,61928552,1625,1628,1622,1631,0,0,0,0,0,0,0,0,0,0
1684048210.40030599,62028512,1631,1634,1630,1636,0,0,0,0,0,0,0,0,0,0
1684048210.50026608,62128472,1631,1633,1632,1632,0,0,0,0,0,0,0,0,0,0
1684048210.60022593,62228432,1625,1625,1628,1623,0,0,0,0,0,0,0,0,0,0
1684048210.70018601,62328392,1620,1618,1622,1615,0,0,0,0,0,0,0,0,0,0
1684048210.80014610,62428352,1616,1614,1618,1612,0,0,0,0,0,0,0,0,0,0
1684048210.90010595,62528312,1615,1614,1617,1612,0,0,0,0,0,0,0,0,0,0
1684048211.00006604,62628272,1616,1616,1617,1615,0,0,0,0,0,0,0,0,0,0
1684048211.10002589,62728232,1611,1611,1611,1611,0,0,0,0,0,0,0,0,0,0
1684048211.19998598,62828192,1582,1583,1588,1576,0,0,0,0,0,0,0,0,0,0
1684048211.30077910,62928985,1568,1569,1573,1564,0,0,0,0,0,0,0,0,0,0
1684048211.40073895,63028945,1558,1558,1558,1558,0,0,0,0,0,0,0,0,0,0
1684048211.50069904,63128905,1550,1550,1545,1554,0,0,0,0,0,0,0,0,0,0
1684048211.60065889,63228865,1542,1542,1534,1551,0,0,0,0,0,0,0,0,0,0
1684048211.70061898,63328825,1536,1535,1528,1543,0,0,0,0,0,0,0,0,0,0
1684048211.80057907,63428785,1531,1530,1526,1534,0,0,0,0,0,0,0,0,0,0
1684048211.90053892,63528745,1526,1526,1524,1527,0,0,0,0,0,0,0,0,0,0
1684048212.00049901,63628705,1527,1526,1527,1525,0,0,0,0,0,0,0,0,0,0
1684048212.10045910,63728665,1528,1528,1530,1526,0,0,0,0,0,0,0,0,0,0
1684048212.20041895,63828625,1531,1531,1534,1528,0,0,0,0,0,0,0,0,0,0
1684048212.30037904,63928585,1535,1535,1538,1532,0,0,0,0,0,0,0,0,0,0
1684048212.40033889,64028545,1538,1538,1541,1536,0,0,0,0,0,0,0,0,0,0
1684048212.50029898,64128505,1542,1542,1544,1541,0,0,0,0,0,0,0,0,0,0
1684048212.60025907,64228465,1545,1545,1545,1545,0,0,0,0,0,0,0,0,0,0
1684048212.70021892,64328425,1548,1548,1548,1549,0,0,0,0,0,0,0,0,0,0
1684048212.80017900,64428385,1551,1552,1551,1552,0,0,0,0,0,0,0,0,0,0
1684048212.90013909,64528345,1554,1553,1552,1555,0,0,0,0,0,0,0,0,0,0
1684048213.00009894,64628305,1555,1555,1555,1558,0,0,0,0,0,0,0,0,0,0
1684048213.10005903,64728265,1557,1556,1559,1560,0,0,0,0,0,0,0,0,0,0
1684048213.20001888,64828225,1558,1558,1562,1562,0,0,0,0,0,0,0,0,0,0
1684048213.29997897,64928185,1559,1559,1564,1563,0,0,0,0,0,0,0,0,0,0
1684048213.40077209,65028978,1561,1562,1566,1565,0,0,0,0,0,0,0,0,0,0
1684048213.50073195,65128938,1563,1563,1566,1566,0,0,0,0,0,0,0,0,0,0
1684048213.60069203,65228898,1565,1566,1567,1567,0,0,0,0,0,0,0,0,0,0
1684048213.70065188,65328858,1567,1567,1567,1567,0,0,0,0,0,0,0,0,0,0
1684048213.80061197,65428818,1569,1569,1568,1568,0,0,0,0,0,0,0,0,0,0
1684048213.90057206,65528778,1571,1571,1569,1569,0,0,0,0,0,0,0,0,0,0
1684048214.00053191,65628738,1572,1572,1569,1569,0,0,0,0,0,0,0,0,0,0
1684048214.10049200,65728698,1573,1573,1570,1570,0,0,0,0,0,0,0,0,0,0
1684048214.20045209,65828658,1574,1574,1571,1571,0,0,0,0,0,0,0,0,0,0
1684048214.30041194,65928618,1574,1574,1572,1571,0,0,0,0,0,0,0,0,0,0
1684048214.40037203,66028578,1576,1575,1573,1573,0,0,0,0,0,0,0,0,0,0
1684048214.50033188,66128538,1575,1576,1575,1573,0,0,0,0,0,0,0,0,0,0
1684048214.60029197,66228498,1576,1576,1575,1574,0,0,0,0,0,0,0,0,0,0
1684048214.70025206,66328458,1576,1575,1575,1575,0,0,0,0,0,0,0,0,0,0
1684048214.80021191,66428418,1576,1576,1577,1576,0,0,0,0,0,0,0,0,0,0
1684048214.90017200,66528378,1576,1576,1577,1577,0,0,0,0,0,0,0,0,0,0
1684048215.00013208,66628338,1577,1577,1577,1578,0,0,0,0,0,0,0,0,0,0
1684048215.10009193,66728298,1576,1577,1577,1578,0,0,0,0,0,0,0,0,0,0
1684048215.20005202,66828258,1576,1576,1576,1577,0,0,0,0,0,0,0,0,0,0
1684048215.30001187,66928218,1576,1576,1577,1577,0,0,0,0,0,0,0,0,0,0
1684048215.39997196,67028178,1576,1576,1577,1577,0,0,0,0,0,0,0,0,0,0
1684048215.50076509,67128971,1577,1577,1578,1578,0,0,0,0,0,0,0,0,0,0
1684048215.60072494,67228931,1578,1578,1578,1578,0,0,0,0,0,0,0,0,0,0
1684048215.70068502,67328891,1578,1578,1578,1578,0,0,0,0,0,0,0,0,0,0
1684048215.80064487,67428851,1578,1578,1578,1578,0,0,0,0,0,0,0,0,0,0
1684048215.90060496,67528811,1578,1578,1578,1578,0,0,0,0,0,0,0,0,0,0
1684048216.00056505,67628771,1578,1578,1578,1577,0,0,0,0,0,0,0,0,0,0
1684048216.10052490,67728731,1578,1578,1577,1577,0,0,0,0,0,0,0,0,0,0
1684048216.20048499,67828691,1578,1579,1578,1578,0,0,0,0,0,0,0,0,0,0
1684048216.30044508,67928651,1579,1579,1578,1579,0,0,0,0,0,0,0,0,0,0
1684048216.40040493,68028611,1578,1578,1578,1578,0,0,0,0,0,0,0,0,0,0
1684048216.50036502,68128571,1579,1578,1578,1578,0,0,0,0,0,0,0,0,0,0
1684048216.60032487,68228531,1578,1579,1578,1579,0,0,0,0,0,0,0,0,0,0
1684048216.70028496,68328491,1578,1578,1578,1578,0,0,0,0,0,0,0,0,0,0
1684048216.80024505,68428451,1580,1579,1580,1579,0,0,0,0,0,0,0,0,0,0
1684048216.90020490,68528411,1580,1580,1580,1580,0,0,0,0,0,0,0,0,0,0
1684048217.00016499,68628371,1580,1580,1581,1580,0,0,0,0,0,0,0,0,0,0
1684048217.10012507,68728331,1579,1579,1579,1580,0,0,0,0,0,0,0,0,0,0
1684048217.20008492,68828291,1579,1580,1580,1579,0,0,0,0,0,0,0,0,0,0
1684048217.30004501,68928251,1579,1579,1579,1579,0,0,0,0,0,0,0,0,0,0
1684048217.40000510,69028211,1580,1580,1580,1580,0,0,0,0,0,0,0,0,0,0
1684048217.49996495,69128171,1579,1579,1579,1580,0,0,0,0,0,0,0,0,0,0
1684048217.60075808,69228964,1579,1579,1579,1579,0,0,0,0,0,0,0,0,0,0
1684048217.70071793,69328924,1580,1580,1580,1580,0,0,0,0,0,0,0,0,0,0
1684048217.80067801,69428884,1580,1580,1580,1579,0,0,0,0,0,0,0,0,0,0
1684048217.90063810,69528844,1580,1580,1580,1580,0,0,0,0,0,0,0,0,0,0
1684048218.00059795,69628804,1580,1580,1580,1580,0,0,0,0,0,0,0,0,0,0
1684048218.10055804,69728764,1581,1580,1580,1581,0,0,0,0,0,0,0,0,0,0
1684048218.20051789,69828724,1581,1581,1581,1581,0,0,0,0,0,0,0,0,0,0
1684048218.30047798,69928684,1581,1582,1582,1581,0,0,0,0,0,0,0,0,0,0
1684048218.40043807,70028644,1580,1581,1581,1580,0,0,0,0,0,0,0,0,0,0
1684048218.50039792,70128604,1580,1580,1580,1581,0,0,0,0,0,0,0,0,0,0
1684048218.60035801,70228564,1581,1581,1581,1581,0,0,0,0,0,0,0,0,0,0
1684048218.70031810,70328524,1581,1581,1581,1581,0,0,0,0,0,0,0,0,0,0
1684048218.80027795,70428484,1580,1580,1580,1580,0,0,0,0,0,0,0,0,0,0
1684048218.90023804,70528444,1581,1581,1581,1581,0,0,0,0,0,0,0,0,0,0
1684048219.00019789,70628404,1580,1580,1580,1580,0,0,0,0,0,0,0,0,0,0
1684048219.10015798,70728364,1580,1580,1581,1580,0,0,0,0,0,0,0,0,0,0
1684048219.20011806,70828324,1580,1581,1587,1574,0,0,0,0,0,0,0,0,0,0
1684048219.30007792,70928284,1579,1581,1585,1572,0,0,0,0,0,0,0,0,0,0
1684048219.40003800,71028244,1578,1581,1578,1573,0,0,0,0,0,0,0,0,0,0
1684048219.49999809,71128204,1577,1579,1568,1571,0,0,0,0,0,0,0,0,0,0
1684048219.59995794,71228164,1576,1578,1560,1568,0,0,0,0,0,0,0,0,0,0
1684048219.70075107,71328957,1577,1577,1556,1564,0,0,0,0,0,0,0,0,0,0
1684048219.80071092,71428917,1579,1578,1555,1559,0,0,0,0,0,0,0,0,0,0
1684048219.90067101,71528877,1579,1577,1554,1555,0,0,0,0,0,0,0,0,0,0
1684048220.00063109,71628837,1580,1578,1555,1554,0,0,0,0,0,0,0,0,0,0
1684048220.10059094,71728797,1579,1579,1557,1554,0,0,0,0,0,0,0,0,0,0
1684048220.20055103,71828757,1578,1579,1557,1554,0,0,0,0,0,0,0,0,0,0
1684048220.30051088,71928717,1577,1578,1556,1555,0,0,0,0,0,0,0,0,0,0
1684048220.40047097,72028677,1576,1577,1555,1554,0,0,0,0,0,0,0,0,0,0
1684048220.50043106,72128637,1575,1577,1553,1553,0,0,0,0,0,0,0,0,0,0
1684048220.60039091,72228597,1575,1577,1552,1552,0,0,0,0,0,0,0,0,0,0
1684048220.70035100,72328557,1576,1578,1550,1551,0,0,0,0,0,0,0,0,0,0
1684048220.80031109,72428517,1578,1579,1548,1547,0,0,0,0,0,0,0,0,0,0
1684048220.90027094,72528477,1581,1582,1546,1546,0,0,0,0,0,0,0,0,0,0
1684048221.00023103,72628437,1583,1584,1543,1542,0,0,0,0,0,0,0,0,0,0
1684048221.10019088,72728397,1587,1587,1541,1540,0,0,0,0,0,0,0,0,0,0
1684048221.20015097,72828357,1589,1590,1538,1537,0,0,0,0,0,0,0,0,0,0
1684048221.30011106,72928317,1593,1593,1536,1537,0,0,0,0,0,0,0,0,0,0
1684048221.40007091,73028277,1594,1593,1534,1535,0,0,0,0,0,0,0,0,0,0
1684048221.50003099,73128237,1594,1594,1534,1536,0,0,0,0,0,0,0,0,0,0
1684048221.59999108,73228197,1594,1594,1535,1538,0,0,0,0,0,0,0,0,0,0
1684048221.69995093,73328157,1592,1591,1538,1540,0,0,0,0,0,0,0,0,0,0
1684048221.80074406,73428950,1589,1587,1543,1546,0,0,0,0,0,0,0,0,0,0
1684048221.90070391,73528910,1583,1580,1551,1554,0,0,0,0,0,0,0,0,0,0
1684048222.00066400,73628870,1575,1572,1561,1564,0,0,0,0,0,0,0,0,0,0
1684048222.10062408,73728830,1564,1561,1573,1575,0,0,0,0,0,0,0,0,0,0
1684048222.20058393,73828790,1554,1551,1586,1587,0,0,0,0,0,0,0,0,0,0
1684048222.30054402,73928750,1544,1541,1598,1598,0,0,0,0,0,0,0,0,0,0
1684048222.40050387,74028710,1536,1535,1608,1607,0,0,0,0,0,0,0,0,0,0
1684048222.50046396,74128670,1530,1531,1613,1612,0,0,0,0,0,0,0,0,0,0
1684048222.60042405,74228630,1529,1530,1616,1614,0,0,0,0,0,0,0,0,0,0
1684048222.70038390,74328590,1531,1533,1614,1613,0,0,0,0,0,0,0,0,0,0
1684048222.80034399,74428550,1536,1538,1609,1609,0,0,0,0,0,0,0,0,0,0
1684048222.90030408,74528510,1544,1546,1603,1604,0,0,0,0,0,0,0,0,0,0
1684048223.00026393,74628470,1553,1554,1596,1597,0,0,0,0,0,0,0,0,0,0
1684048223.10022402,74728430,1561,1562,1589,1588,0,0,0,0,0,0,0,0,0,0
1684048223.20018387,74828390,1570,1570,1581,1581,0,0,0,0,0,0,0,0,0,0
1684048223.30014396,74928350,1578,1577,1576,1575,0,0,0,0,0,0,0,0,0,0
1684048223.40010405,75028310,1583,1581,1571,1570,0,0,0,0,0,0,0,0,0,0
1684048223.50006390,75128270,1587,1586,1569,1568,0,0,0,0,0,0,0,0,0,0
1684048223.60002398,75228230,1589,1587,1567,1567,0,0,0,0,0,0,0,0,0,0
1684048223.69998407,75328190,1589,1587,1567,1567,0,0,0,0,0,0,0,0,0,0
1684048223.80077696,75428983,1319,1318,1575,1577,0,0,0,0,0,0,0,0,0,0
1684048223.90073705,75528943,1407,1411,1630,1637,0,0,0,0,0,0,0,0,0,0
1684048224.00069690,75628903,1462,1470,1630,1630,0,0,0,0,0,0,0,0,0,0
1684048224.10065699,75728863,1514,1521,1622,1616,0,0,0,0,0,0,0,0,0,0
1684048224.20061707,75828823,1553,1557,1612,1604,0,0,0,0,0,0,0,0,0,0
1684048224.30057693,75928783,1583,1582,1603,1597,0,0,0,0,0,0,0,0,0,0
1684048224.40053701,76028743,1606,1598,1596,1592,0,0,0,0,0,0,0,0,0,0
1684048224.50049710,76128703,1630,1619,1575,1577,0,0,0,0,0,0,0,0,0,0
1684048224.60045695,76228663,1651,1643,1548,1556,0,0,0,0,0,0,0,0,0,0
1684048224.70041704,76328623,1660,1652,1539,1549,0,0,0,0,0,0,0,0,0,0
1684048224.80037689,76428583,1651,1651,1545,1554,0,0,0,0,0,0,0,0,0,0
1684048224.90033698,76528543,1639,1646,1554,1557,0,0,0,0,0,0,0,0,0,0
1684048225.00029707,76628503,1630,1638,1562,1560,0,0,0,0,0,0,0,0,0,0
1684048225.10025692,76728463,1623,1629,1567,1563,0,0,0,0,0,0,0,0,0,0
1684048225.20021701,76828423,1619,1621,1571,1567,0,0,0,0,0,0,0,0,0,0
1684048225.30017710,76928383,1614,1613,1572,1569,0,0,0,0,0,0,0,0,0,0
1684048225.40013695,77028343,1611,1608,1572,1571,0,0,0,0,0,0,0,0,0,0
1684048225.50009704,77128303,1607,1604,1572,1572,0,0,0,0,0,0,0,0,0,0
1684048225.60005689,77228263,1604,1601,1571,1573,0,0,0,0,0,0,0,0,0,0
1684048225.70001698,77328223,1599,1598,1570,1571,0,0,0,0,0,0,0,0,0,0
1684048225.79997706,77428183,1596,1596,1570,1570,0,0,0,0,0,0,0,0,0,0
1684048225.90076995,77528976,1593,1594,1569,1569,0,0,0,0,0,0,0,0,0,0
1684048226.00073004,77628936,1589,1588,1572,1571,0,0,0,0,0,0,0,0,0,0
1684048226.10068989,77728896,1579,1577,1585,1584,0,0,0,0,0,0,0,0,0,0
1684048226.20064998,77828856,1567,1564,1600,1599,0,0,0,0,0,0,0,0,0,0
1684048226.30061007,77928816,1554,1553,1607,1608,0,0,0,0,0,0,0,0,0,0
1684048226.40056992,78028776,1548,1550,1610,1611,0,0,0,0,0,0,0,0,0,0
1684048226.50053000,78128736,1547,1551,1608,1609,0,0,0,0,0,0,0,0,0,0
1684048226.60049009,78228696,1549,1554,1604,1604,0,0,0,0,0,0,0,0,0,0
1684048226.70044994,78328656,1554,1559,1600,1598,0,0,0,0,0,0,0,0,0,0
1684048226.80041003,78428616,1561,1564,1595,1593,0,0,0,0,0,0,0,0,0,0
1684048226.90036988,78528576,1568,1569,1590,1587,0,0,0,0,0,0,0,0,0,0
1684048227.00032997,78628536,1578,1577,1582,1579,0,0,0,0,0,0,0,0,0,0
1684048227.10029006,78728496,1588,1585,1572,1571,0,0,0,0,0,0,0,0,0,0
1684048227.20024991,78828456,1596,1589,1570,1559,0,0,0,0,0,0,0,0,0,0
1684048227.30021000,78928416,1602,1593,1563,1556,0,0,0,0,0,0,0,0,0,0
1684048227.40017009,79028376,1601,1594,1552,1554,0,0,0,0,0,0,0,0,0,0
1684048227.50012994,79128336,1597,1594,1546,1553,0,0,0,0,0,0,0,0,0,0
1684048227.60009003,79228296,1591,1594,1546,1551,0,0,0,0,0,0,0,0,0,0
1684048227.70004988,79328256,1586,1592,1550,1552,0,0,0,0,0,0,0,0,0,0
1684048227.80000997,79428216,1581,1587,1555,1553,0,0,0,0,0,0,0,0,0,0
1684048227.89997005,79528176,1576,1581,1559,1555,0,0,0,0,0,0,0,0,0,0
1684048228.00076294,79628969,1572,1574,1563,1559,0,0,0,0,0,0,0,0,0,0
1684048228.10072303,79728929,1569,1569,1565,1562,0,0,0,0,0,0,0,0,0,0
1684048228.20068288,79828889,1566,1565,1565,1564,0,0,0,0,0,0,0,0,0,0
1684048228.30064297,79928849,1564,1563,1565,1565,0,0,0,0,0,0,0,0,0,0
1684048228.40060306,80028809,1563,1562,1561,1563,0,0,0,0,0,0,0,0,0,0
1684048228.50056291,80128769,1563,1565,1558,1559,0,0,0,0,0,0,0,0,0,0
1684048228.60052299,80228729,1567,1569,1554,1554,0,0,0,0,0,0,0,0,0,0
1684048228.70048308,80328689,1571,1573,1548,1548,0,0,0,0,0,0,0,0,0,0
1684048228.80044293,80428649,1575,1577,1541,1539,0,0,0,0,0,0,0,0,0,0
1684048228.90040302,80528609,1581,1582,1536,1534,0,0,0,0,0,0,0,0,0,0
1684048229.00036287,80628569,1586,1587,1531,1529,0,0,0,0,0,0,0,0,0,0
1684048229.10032296,80728529,1590,1590,1527,1527,0,0,0,0,0,0,0,0,0,0
1684048229.20028305,80828489,1593,1594,1526,1526,0,0,0,0,0,0,0,0,0,0
1684048229.30024290,80928449,1593,1593,1528,1530,0,0,0,0,0,0,0,0,0,0
1684048229.40020299,81028409,1591,1592,1533,1536,0,0,0,0,0,0,0,0,0,0
1684048229.50016308,81128369,1589,1590,1538,1540,0,0,0,0,0,0,0,0,0,0
1684048229.60012293,81228329,1587,1588,1541,1543,0,0,0,0,0,0,0,0,0,0
1684048229.70008302,81328289,1586,1586,1543,1546,0,0,0,0,0,0,0,0,0,0
1684048229.80004287,81428249,1585,1584,1545,1547,0,0,0,0,0,0,0,0,0,0
1684048229.90000296,81528209,1585,1583,1546,1549,0,0,0,0,0,0,0,0,0,0
1684048229.99996305,81628169,1582,1580,1550,1554,0,0,0,0,0,0,0,0,0,0
1684048230.10075593,81728962,1574,1571,1561,1564,0,0,0,0,0,0,0,0,0,0
1684048230.20071602,81828922,1564,1561,1570,1574,0,0,0,0,0,0,0,0,0,0
1684048230.30067587,81928882,1556,1553,1578,1582,0,0,0,0,0,0,0,0,0,0
1684048230.40063596,82028842,1548,1547,1584,1587,0,0,0,0,0,0,0,0,0,0
1684048230.50059605,82128802,1544,1544,1591,1591,0,0,0,0,0,0,0,0,0,0
1684048230.60055590,82228762,1539,1540,1595,1593,0,0,0,0,0,0,0,0,0,0
1684048230.70051599,82328722,1537,1538,1597,1595,0,0,0,0,0,0,0,0,0,0
1684048230.80047607,82428682,1537,1538,1598,1597,0,0,0,0,0,0,0,0,0,0
1684048230.90043592,82528642,1538,1539,1600,1598,0,0,0,0,0,0,0,0,0,0
1684048231.00039601,82628602,1540,1541,1598,1597,0,0,0,0,0,0,0,0,0,0
1684048231.10035610,82728562,1543,1543,1596,1596,0,0,0,0,0,0,0,0,0,0
1684048231.20031595,82828522,1547,1548,1593,1594,0,0,0,0,0,0,0,0,0,0
1684048231.30027604,82928482,1551,1552,1589,1590,0,0,0,0,0,0,0,0,0,0
1684048231.40023589,83028442,1556,1557,1586,1586,0,0,0,0,0,0,0,0,0,0
1684048231.50019598,83128402,1561,1562,1582,1582,0,0,0,0,0,0,0,0,0,0
1684048231.60015607,83228362,1566,1566,1579,1579,0,0,0,0,0,0,0,0,0,0
1684048231.70011592,83328322,1571,1571,1578,1577,0,0,0,0,0,0,0,0,0,0
1684048231.80007601,83428282,1575,1574,1576,1574,0,0,0,0,0,0,0,0,0,0
1684048231.90003610,83528242,1578,1577,1575,1574,0,0,0,0,0,0,0,0,0,0
1684048231.99999595,83628202,1581,1580,1574,1573,0,0,0,0,0,0,0,0,0,0
1684048232.09995604,83728162,1583,1581,1573,1573,0,0,0,0,0,0,0,0,0,0
1684048232.20074892,83828955,1583,1582,1573,1573,0,0,0,0,0,0,0,0,0,0
1684048232.30070901,83928915,1584,1583,1572,1573,0,0,0,0,0,0,0,0,0,0
1684048232.40066910,84028875,1584,1584,1573,1574,0,0,0,0,0,0,0,0,0,0
1684048232.50062895,84128835,1583,1583,1573,1574,0,0,0,0,0,0,0,0,0,0
1684048232.60058904,84228795,1583,1583,1573,1574,0,0,0,0,0,0,0,0,0,0
1684048232.70054889,84328755,1581,1581,1573,1572,0,0,0,0,0,0,0,0,0,0
1684048232.80050898,84428715,1582,1581,1574,1574,0,0,0,0,0,0,0,0,0,0
1684048232.90046906,84528675,1582,1582,1576,1576,0,0,0,0,0,0,0,0,0,0
1684048233.00042892,84628635,1581,1581,1576,1576,0,0,0,0,0,0,0,0,0,0
1684048233.10038900,84728595,1580,1580,1577,1576,0,0,0,0,0,0,0,0,0,0
1684048233.20034909,84828555,1580,1580,1577,1577,0,0,0,0,0,0,0,0,0,0
1684048233.30030894,84928515,1579,1580,1578,1578,0,0,0,0,0,0,0,0,0,0
1684048233.40026903,85028475,1579,1579,1579,1579,0,0,0,0,0,0,0,0,0,0
1684048233.50022888,85128435,1579,1579,1579,1579,0,0,0,0,0,0,0,0,0,0
1684048233.60018897,85228395,1579,1579,1580,1579,0,0,0,0,0,0,0,0,0,0
1684048233.70014906,85328355,1579,1579,1580,1580,0,0,0,0,0,0,0,0,0,0
1684048233.80010891,85428315,1579,1579,1579,1580,0,0,0,0,0,0,0,0,0,0
1684048233.90006900,85528275,1579,1579,1579,1580,0,0,0,0,0,0,0,0,0,0
1684048234.00002909,85628235,1578,1579,1579,1580,0,0,0,0,0,0,0,0,0,0
1684048234.09998894,85728195,1579,1579,1580,1580,0,0,0,0,0,0,0,0,0,0
1684048234.19994903,85828155,1579,1579,1580,1579,0,0,0,0,0,0,0,0,0,0
1684048234.30074191,85928948,1578,1579,1579,1579,0,0,0,0,0,0,0,0,0,0
1684048234.40070200,86028908,1579,1579,1579,1579,0,0,0,0,0,0,0,0,0,0
1684048234.50066209,86128868,1579,1579,1579,1579,0,0,0,0,0,0,0,0,0,0
1684048234.60062194,86228828,1579,1579,1579,1579,0,0,0,0,0,0,0,0,0,0
1684048234.70058203,86328788,1580,1579,1580,1579,0,0,0,0,0,0,0,0,0,0
1684048234.80054188,86428748,1580,1580,1580,1580,0,0,0,0,0,0,0,0,0,0
1684048234.90050197,86528708,1580,1580,1579,1579,0,0,0,0,0,0,0,0,0,0
1684048235.00046206,86628668,1580,1580,1580,1580,0,0,0,0,0,0,0,0,0,0
1684048235.10042191,86728628,1581,1581,1580,1580,0,0,0,0,0,0,0,0,0,0
1684048235.20038199,86828588,1581,1580,1580,1580,0,0,0,0,0,0,0,0,0,0
1684048235.30034208,86928548,1581,1581,1579,1580,0,0,0,0,0,0,0,0,0,0
1684048235.40030193,87028508,1581,1581,1580,1580,0,0,0,0,0,0,0,0,0,0
1684048235.50026202,87128468,1581,1582,1581,1581,0,0,0,0,0,0,0,0,0,0
1684048235.60022187,87228428,1581,1581,1581,1581,0,0,0,0,0,0,0,0,0,0
1684048235.70018196,87328388,1581,1581,1581,1580,0,0,0,0,0,0,0,0,0,0
1684048235.80014205,87428348,1581,1581,1580,1580,0,0,0,0,0,0,0,0,0,0
1684048235.90010190,87528308,1582,1581,1581,1581,0,0,0,0,0,0,0,0,0,0
1684048236.00006199,87628268,1581,1581,1581,1581,0,0,0,0,0,0,0,0,0,0
1684048236.10002208,87728228,1581,1582,1581,1581,0,0,0,0,0,0,0,0,0,0
1684048236.19998193,87828188,1582,1581,1586,1576,0,0,0,0,0,0,0,0,0,0
1684048236.30077505,87928981,1582,1582,1588,1573,0,0,0,0,0,0,0,0,0,0
1684048236.40073490,88028941,1580,1581,1580,1573,0,0,0,0,0,0,0,0,0,0
1684048236.50069499,88128901,1579,1580,1572,1574,0,0,0,0,0,0,0,0,0,0
1684048236.60065508,88228861,1577,1579,1564,1570,0,0,0,0,0,0,0,0,0,0
1684048236.70061493,88328821,1576,1578,1559,1565,0,0,0,0,0,0,0,0,0,0
1684048236.80057502,88428781,1576,1577,1557,1561,0,0,0,0,0,0,0,0,0,0
1684048236.90053487,88528741,1577,1577,1557,1558,0,0,0,0,0,0,0,0,0,0
1684048237.00049496,88628701,1577,1577,1558,1557,0,0,0,0,0,0,0,0,0,0
1684048237.10045505,88728661,1577,1577,1558,1556,0,0,0,0,0,0,0,0,0,0
1684048237.20041490,88828621,1577,1577,1557,1555,0,0,0,0,0,0,0,0,0,0
1684048237.30037498,88928581,1576,1576,1556,1554,0,0,0,0,0,0,0,0,0,0
1684048237.40033507,89028541,1576,1576,1554,1553,0,0,0,0,0,0,0,0,0,0
1684048237.50029492,89128501,1575,1576,1552,1552,0,0,0,0,0,0,0,0,0,0
1684048237.60025501,89228461,1575,1576,1551,1551,0,0,0,0,0,0,0,0,0,0
1684048237.70021510,89328421,1575,1577,1549,1550,0,0,0,0,0,0,0,0,0,0
1684048237.80017495,89428381,1576,1578,1548,1548,0,0,0,0,0,0,0,0,0,0
1684048237.90013504,89528341,1577,1579,1546,1546,0,0,0,0,0,0,0,0,0,0
1684048238.00009489,89628301,1579,1581,1544,1544,0,0,0,0,0,0,0,0,0,0
1684048238.10005498,89728261,1581,1583,1543,1542,0,0,0,0,0,0,0,0,0,0
1684048238.20001507,89828221,1584,1584,1541,1541,0,0,0,0,0,0,0,0,0,0
1684048238.29997492,89928181,1586,1586,1539,1539,0,0,0,0,0,0,0,0,0,0
1684048238.40076804,90028974,1588,1588,1538,1538,0,0,0,0,0,0,0,0,0,0
1684048238.50072789,90128934,1589,1588,1538,1539,0,0,0,0,0,0,0,0,0,0
1684048238.60068798,90228894,1590,1589,1539,1541,0,0,0,0,0,0,0,0,0,0
1684048238.70064807,90328854,1590,1589,1541,1544,0,0,0,0,0,0,0,0,0,0
1684048238.80060792,90428814,1589,1588,1544,1547,0,0,0,0,0,0,0,0,0,0
1684048238.90056801,90528774,1587,1586,1548,1552,0,0,0,0,0,0,0,0,0,0
1684048239.00052810,90628734,1582,1582,1553,1556,0,0,0,0,0,0,0,0,0,0
1684048239.10048795,90728694,1577,1575,1560,1562,0,0,0,0,0,0,0,0,0,0
1684048239.20044804,90828654,1571,1568,1569,1571,0,0,0,0,0,0,0,0,0,0
1684048239.30040789,90928614,1563,1559,1578,1579,0,0,0,0,0,0,0,0,0,0
1684048239.40036798,91028574,1554,1551,1589,1590,0,0,0,0,0,0,0,0,0,0
1684048239.50032806,91128534,1544,1542,1598,1598,0,0,0,0,0,0,0,0,0,0
1684048239.60028791,91228494,1537,1536,1606,1605,0,0,0,0,0,0,0,0,0,0
1684048239.70024800,91328454,1533,1533,1610,1609,0,0,0,0,0,0,0,0,0,0
1684048239.80020809,91428414,1531,1533,1611,1611,0,0,0,0,0,0,0,0,0,0
1684048239.90016794,91528374,1533,1535,1610,1609,0,0,0,0,0,0,0,0,0,0
1684048240.00012803,91628334,1537,1540,1606,1606,0,0,0,0,0,0,0,0,0,0
1684048240.10008788,91728294,1544,1546,1601,1600,0,0,0,0,0,0,0,0,0,0
1684048240.20004797,91828254,1552,1553,1595,1594,0,0,0,0,0,0,0,0,0,0
1684048240.30000806,91928214,1560,1560,1587,1586,0,0,0,0,0,0,0,0,0,0
1684048240.39996791,92028174,1568,1568,1581,1580,0,0,0,0,0,0,0,0,0,0
1684048240.50076103,92128967,1576,1574,1575,1574,0,0,0,0,0,0,0,0,0,0
1684048240.60072088,92228927,1581,1580,1570,1570,0,0,0,0,0,0,0,0,0,0
1684048240.70068097,92328887,1586,1584,1567,1567,0,0,0,0,0,0,0,0,0,0
1684048240.80064106,92428847,1589,1588,1567,1567,0,0,0,0,0,0,0,0,0,0
1684048240.90060091,92528807,1591,1589,1567,1567,0,0,0,0,0,0,0,0,0,0
1684048241.00056100,92628767,1590,1589,1568,1568,0,0,0,0,0,0,0,0,0,0
1684048241.10052109,92728727,1588,1588,1570,1570,0,0,0,0,0,0,0,0,0,0
1684048241.20048094,92828687,1586,1586,1572,1572,0,0,0,0,0,0,0,0,0,0
1684048241.30044103,92928647,1584,1584,1575,1575,0,0,0,0,0,0,0,0,0,0
1684048241.40040088,93028607,1581,1581,1577,1578,0,0,0,0,0,0,0,0,0,0
1684048241.50036097,93128567,1578,1579,1580,1579,0,0,0,0,0,0,0,0,0,0
1684048241.60032105,93228527,1577,1578,1583,1583,0,0,0,0,0,0,0,0,0,0
1684048241.70028090,93328487,1575,1576,1584,1585,0,0,0,0,0,0,0,0,0,0
1684048241.80024099,93428447,1574,1575,1585,1585,0,0,0,0,0,0,0,0,0,0
1684048241.90020108,93528407,1573,1574,1584,1584,0,0,0,0,0,0,0,0,0,0
1684048242.00016093,93628367,1573,1574,1584,1584,0,0,0,0,0,0,0,0,0,0
1684048242.10012102,93728327,1574,1574,1583,1583,0,0,0,0,0,0,0,0,0,0
1684048242.20008087,93828287,1574,1575,1581,1582,0,0,0,0,0,0,0,0,0,0
1684048242.30004096,93928247,1576,1576,1581,1580,0,0,0,0,0,0,0,0,0,0
1684048242.40000105,94028207,1578,1578,1580,1580,0,0,0,0,0,0,0,0,0,0
1684048242.49996090,94128167,1579,1579,1580,1579,0,0,0,0,0,0,0,0,0,0
1684048242.60075402,94228960,1580,1581,1579,1579,0,0,0,0,0,0,0,0,0,0
1684048242.70071387,94328920,1582,1581,1578,1578,0,0,0,0,0,0,0,0,0,0
1684048242.80067396,94428880,1582,1582,1577,1577,0,0,0,0,0,0,0,0,0,0
1684048242.90063405,94528840,1583,1582,1578,1578,0,0,0,0,0,0,0,0,0,0
1684048243.00059390,94628800,1583,1583,1578,1579,0,0,0,0,0,0,0,0,0,0
1684048243.10055399,94728760,1583,1582,1579,1578,0,0,0,0,0,0,0,0,0,0
1684048243.20051408,94828720,1583,1582,1579,1579,0,0,0,0,0,0,0,0,0,0
1684048243.30047393,94928680,1582,1582,1579,1580,0,0,0,0,0,0,0,0,0,0
1684048243.40043402,95028640,1582,1582,1580,1580,0,0,0,0,0,0,0,0,0,0
1684048243.50039387,95128600,1581,1581,1581,1581,0,0,0,0,0,0,0,0,0,0
1684048243.60035396,95228560,1581,1581,1581,1581,0,0,0,0,0,0,0,0,0,0
1684048243.70031404,95328520,1581,1581,1582,1582,0,0,0,0,0,0,0,0,0,0
1684048243.80027390,95428480,1580,1581,1582,1582,0,0,0,0,0,0,0,0,0,0
1684048243.90023398,95528440,1580,1580,1581,1582,0,0,0,0,0,0,0,0,0,0
1684048244.00019407,95628400,1580,1580,1581,1581,0,0,0,0,0,0,0,0,0,0
1684048244.10015392,95728360,1580,1580,1582,1581,0,0,0,0,0,0,0,0,0,0
1684048244.20011401,95828320,1580,1580,1581,1581,0,0,0,0,0,0,0,0,0,0
1684048244.30007410,95928280,1580,1580,1581,1581,0,0,0,0,0,0,0,0,0,0
1684048244.40003395,96028240,1581,1580,1588,1573,0,0,0,0,0,0,0,0,0,0
1684048244.49999404,96128200,1581,1579,1585,1574,0,0,0,0,0,0,0,0,0,0
1684048244.59995389,96228160,1577,1577,1576,1574,0,0,0,0,0,0,0,0,0,0
1684048244.70074701,96328953,1575,1574,1570,1574,0,0,0,0,0,0,0,0,0,0
1684048244.80070710,96428913,1571,1572,1565,1571,0,0,0,0,0,0,0,0,0,0
1684048244.90066695,96528873,1569,1570,1563,1570,0,0,0,0,0,0,0,0,0,0
1684048245.00062704,96628833,1568,1569,1564,1568,0,0,0,0,0,0,0,0,0,0
1684048245.10058689,96728793,1567,1567,1565,1566,0,0,0,0,0,0,0,0,0,0
1684048245.20054698,96828753,1566,1566,1566,1564,0,0,0,0,0,0,0,0,0,0
1684048245.30050707,96928713,1565,1565,1566,1564,0,0,0,0,0,0,0,0,0,0
1684048245.40046692,97028673,1564,1564,1567,1564,0,0,0,0,0,0,0,0,0,0
1684048245.50042701,97128633,1563,1563,1565,1564,0,0,0,0,0,0,0,0,0,0
1684048245.60038710,97228593,1564,1564,1567,1565,0,0,0,0,0,0,0,0,0,0
1684048245.70034695,97328553,1563,1563,1564,1565,0,0,0,0,0,0,0,0,0,0
1684048245.80030704,97428513,1562,1562,1563,1564,0,0,0,0,0,0,0,0,0,0
1684048245.90026689,97528473,1561,1561,1562,1563,0,0,0,0,0,0,0,0,0,0
1684048246.00022697,97628433,1561,1561,1562,1562,0,0,0,0,0,0,0,0,0,0
1684048246.10018706,97728393,1561,1560,1561,1561,0,0,0,0,0,0,0,0,0,0
1684048246.20014691,97828353,1560,1560,1561,1560,0,0,0,0,0,0,0,0,0,0
1684048246.30010700,97928313,1559,1559,1559,1559,0,0,0,0,0,0,0,0,0,0
1684048246.40006709,98028273,1559,1559,1559,1558,0,0,0,0,0,0,0,0,0,0
1684048246.50002694,98128233,1559,1559,1558,1558,0,0,0,0,0,0,0,0,0,0
1684048246.59998703,98228193,1559,1559,1559,1558,0,0,0,0,0,0,0,0,0,0
1684048246.70077991,98328986,1558,1559,1558,1557,0,0,0,0,0,0,0,0,0,0
1684048246.80074000,98428946,1559,1559,1559,1558,0,0,0,0,0,0,0,0,0,0
1684048246.90070009,98528906,1559,1558,1559,1557,0,0,0,0,0,0,0,0,0,0
1684048247.00065994,98628866,1559,1558,1559,1557,0,0,0,0,0,0,0,0,0,0
1684048247.10062003,98728826,1558,1558,1560,1557,0,0,0,0,0,0,0,0,0,0
1684048247.20057988,98828786,1559,1559,1560,1559,0,0,0,0,0,0,0,0,0,0
1684048247.30053997,98928746,1559,1559,1557,1561,0,0,0,0,0,0,0,0,0,0
1684048247.40050006,99028706,1558,1558,1556,1561,0,0,0,0,0,0,0,0,0,0
1684048247.50045991,99128666,1559,1559,1557,1562,0,0,0,0,0,0,0,0,0,0
1684048247.60042000,99228626,1559,1559,1556,1562,0,0,0,0,0,0,0,0,0,0
1684048247.70038009,99328586,1556,1557,1554,1558,0,0,0,0,0,0,0,0,0,0
1684048247.80033994,99428546,1552,1553,1550,1551,0,0,0,0,0,0,0,0,0,0
1684048247.90030003,99528506,1547,1547,1544,1543,0,0,0,0,0,0,0,0,0,0
1684048248.00025988,99628466,1541,1541,1537,1535,0,0,0,0,0,0,0,0,0,0
1684048248.10021996,99728426,1535,1535,1530,1529,0,0,0,0,0,0,0,0,0,0
1684048248.20018005,99828386,1527,1527,1522,1521,0,0,0,0,0,0,0,0,0,0
1684048248.30013990,99928346,1524,1523,1519,1519,0,0,0,0,0,0,0,0,0,0
1684048248.40009999,100028306,1521,1521,1519,1520,0,0,0,0,0,0,0,0,0,0
1684048248.50006008,100128266,1520,1520,1520,1521,0,0,0,0,0,0,0,0,0,0
1684048248.60001993,100228226,1520,1521,1523,1524,0,0,0,0,0,0,0,0,0,0
1684048248.69998002,100328186,1522,1522,1528,1529,0,0,0,0,0,0,0,0,0,0
1684048248.80077291,100428979,1525,1526,1533,1534,0,0,0,0,0,0,0,0,0,0
1684048248.90073299,100528939,1530,1531,1539,1540,0,0,0,0,0,0,0,0,0,0
1684048249.00069308,100628899,1534,1534,1542,1542,0,0,0,0,0,0,0,0,0,0
1684048249.10065293,100728859,1537,1537,1544,1543,0,0,0,0,0,0,0,0,0,0
1684048249.20061302,100828819,1540,1539,1545,1544,0,0,0,0,0,0,0,0,0,0
1684048249.30057287,100928779,1542,1542,1545,1544,0,0,0,0,0,0,0,0,0,0
1684048249.40053296,101028739,1544,1544,1545,1545,0,0,0,0,0,0,0,0,0,0
1684048249.50049305,101128699,1546,1547,1545,1545,0,0,0,0,0,0,0,0,0,0
1684048249.60045290,101228659,1548,1548,1544,1545,0,0,0,0,0,0,0,0,0,0
1684048249.70041299,101328619,1548,1549,1545,1545,0,0,0,0,0,0,0,0,0,0
1684048249.80037308,101428579,1549,1550,1545,1545,0,0,0,0,0,0,0,0,0,0
1684048249.90033293,101528539,1549,1550,1545,1544,0,0,0,0,0,0,0,0,0,0
1684048250.00029302,101628499,1549,1549,1545,1544,0,0,0,0,0,0,0,0,0,0
1684048250.10025287,101728459,1549,1548,1544,1544,0,0,0,0,0,0,0,0,0,0
1684048250.20021296,101828419,1548,1548,1545,1544,0,0,0,0,0,0,0,0,0,0
1684048250.30017304,101928379,1547,1547,1545,1545,0,0,0,0,0,0,0,0,0,0
1684048250.40013289,102028339,1546,1546,1545,1545,0,0,0,0,0,0,0,0,0,0
1684048250.50009298,102128299,1546,1545,1545,1546,0,0,0,0,0,0,0,0,0,0
1684048250.60005307,102228259,1545,1545,1545,1545,0,0,0,0,0,0,0,0,0,0
1684048250.70001292,102328219,1544,1544,1546,1546,0,0,0,0,0,0,0,0,0,0
1684048250.79997301,102428179,1544,1544,1546,1546,0,0,0,0,0,0,0,0,0,0
1684048250.90076590,102528972,1543,1543,1545,1545,0,0,0,0,0,0,0,0,0,0
1684048251.00072598,102628932,1543,1543,1545,1544,0,0,0,0,0,0,0,0,0,0
1684048251.10068607,102728892,1543,1543,1545,1545,0,0,0,0,0,0,0,0,0,0
1684048251.20064592,102828852,1544,1543,1544,1545,0,0,0,0,0,0,0,0,0,0
1684048251.30060601,102928812,1544,1543,1544,1544,0,0,0,0,0,0,0,0,0,0
1684048251.40056610,103028772,1543,1543,1544,1544,0,0,0,0,0,0,0,0,0,0
1684048251.50052595,103128732,1544,1544,1544,1544,0,0,0,0,0,0,0,0,0,0
1684048251.60048604,103228692,1544,1544,1544,1544,0,0,0,0,0,0,0,0,0,0
1684048251.70044589,103328652,1544,1544,1544,1544,0,0,0,0,0,0,0,0,0,0
1684048251.80040598,103428612,1544,1544,1544,1543,0,0,0,0,0,0,0,0,0,0
1684048251.90036607,103528572,1544,1544,1543,1543,0,0,0,0,0,0,0,0,0,0
1684048252.00032592,103628532,1544,1544,1543,1543,0,0,0,0,0,0,0,0,0,0
1684048252.10028601,103728492,1544,1544,1543,1543,0,0,0,0,0,0,0,0,0,0
1684048252.20024610,103828452,1544,1544,1543,1543,0,0,0,0,0,0,0,0,0,0
1684048252.30020595,103928412,1543,1543,1543,1543,0,0,0,0,0,0,0,0,0,0
1684048252.40016603,104028372,1543,1543,1543,1543,0,0,0,0,0,0,0,0,0,0
1684048252.50012589,104128332,1543,1543,1543,1543,0,0,0,0,0,0,0,0,0,0
1684048252.60008597,104228292,1544,1544,1544,1544,0,0,0,0,0,0,0,0,0,0
1684048252.70004606,104328252,1544,1544,1544,1544,0,0,0,0,0,0,0,0,0,0
1684048252.80000591,104428212,1544,1544,1544,1545,0,0,0,0,0,0,0,0,0,0
1684048252.89996600,104528172,1544,1544,1544,1545,0,0,0,0,0,0,0,0,0,0
1684048253.00075889,104628965,1544,1544,1544,1545,0,0,0,0,0,0,0,0,0,0
1684048253.10071898,104728925,1544,1544,1544,1545,0,0,0,0,0,0,0,0,0,0
1684048253.20067906,104828885,1544,1544,1545,1545,0,0,0,0,0,0,0,0,0,0
1684048253.30063891,104928845,1544,1544,1544,1544,0,0,0,0,0,0,0,0,0,0
1684048253.40059900,105028805,1544,1544,1544,1544,0,0,0,0,0,0,0,0,0,0
1684048253.50055909,105128765,1544,1544,1544,1544,0,0,0,0,0,0,0,0,0,0
1684048253.60051894,105228725,1544,1544,1544,1544,0,0,0,0,0,0,0,0,0,0
1684048253.70047903,105328685,1545,1544,1544,1544,0,0,0,0,0,0,0,0,0,0
1684048253.80043888,105428645,1545,1545,1545,1544,0,0,0,0,0,0,0,0,0,0
1684048253.90039897,105528605,1544,1544,1544,1544,0,0,0,0,0,0,0,0,0,0
1684048254.00035906,105628565,1544,1544,1543,1544,0,0,0,0,0,0,0,0,0,0
1684048254.10031891,105728525,1545,1544,1544,1544,0,0,0,0,0,0,0,0,0,0
1684048254.20027900,105828485,1544,1545,1544,1545,0,0,0,0,0,0,0,0,0,0
1684048254.30023909,105928445,1544,1544,1544,1544,0,0,0,0,0,0,0,0,0,0
1684048254.40019894,106028405,1544,1544,1544,1544,0,0,0,0,0,0,0,0,0,0
1684048254.50015903,106128365,1545,1544,1544,1545,0,0,0,0,0,0,0,0,0,0
1684048254.60011888,106228325,1544,1544,1545,1544,0,0,0,0,0,0,0,0,0,0
1684048254.70007896,106328285,1544,1544,1544,1544,0,0,0,0,0,0,0,0,0,0
1684048254.80003905,106428245,1544,1544,1544,1544,0,0,0,0,0,0,0,0,0,0
1684048254.89999890,106528205,1544,1544,1543,1544,0,0,0,0,0,0,0,0,0,0
1684048254.99995899,106628165,1544,1544,1544,1544,0,0,0,0,0,0,0,0,0,0
1684048255.10075188,106728958,1544,1544,1544,1544,0,0,0,0,0,0,0,0,0,0
1684048255.20071197,106828918,1544,1544,1544,1544,0,0,0,0,0,0,0,0,0,0
1684048255.30067205,106928878,1545,1544,1545,1545,0,0,0,0,0,0,0,0,0,0
1684048255.40063190,107028838,1545,1544,1545,1545,0,0,0,0,0,0,0,0,0,0
1684048255.50059199,107128798,1544,1544,1544,1545,0,0,0,0,0,0,0,0,0,0
1684048255.60055208,107228758,1544,1544,1544,1544,0,0,0,0,0,0,0,0,0,0
1684048255.70051193,107328718,1544,1544,1544,1544,0,0,0,0,0,0,0,0,0,0
1684048255.80047202,107428678,1545,1545,1546,1545,0,0,0,0,0,0,0,0,0,0
1684048255.90043187,107528638,1545,1544,1544,1545,0,0,0,0,0,0,0,0,0,0
1684048256.00039196,107628598,1545,1545,1545,1546,0,0,0,0,0,0,0,0,0,0
1684048256.10035205,107728558,1544,1544,1544,1544,0,0,0,0,0,0,0,0,0,0
1684048256.20031190,107828518,1544,1545,1544,1544,0,0,0,0,0,0,0,0,0,0
1684048256.30027199,107928478,1544,1545,1544,1544,0,0,0,0,0,0,0,0,0,0
1684048256.40023208,108028438,1544,1545,1545,1544,0,0,0,0,0,0,0,0,0,0
1684048256.50019193,108128398,1545,1545,1545,1545,0,0,0,0,0,0,0,0,0,0
1684048256.60015202,108228358,1544,1544,1544,1544,0,0,0,0,0,0,0,0,0,0
1684048256.70011210,108328318,1544,1543,1544,1544,0,0,0,0,0,0,0,0,0,0
1684048256.80007195,108428278,1544,1545,1545,1544,0,0,0,0,0,0,0,0,0,0
1684048256.90003204,108528238,1544,1544,1544,1545,0,0,0,0,0,0,0,0,0,0
1684048256.99999189,108628198,1544,1545,1544,1544,0,0,0,0,0,0,0,0,0,0
1684048257.09995198,108728158,1544,1544,1544,1544,0,0,0,0,0,0,0,0,0,0
1684048257.20074487,108828951,1544,1544,1544,1544,0,0,0,0,0,0,0,0,0,0
1684048257.30070496,108928911,1544,1543,1543,1544,0,0,0,0,0,0,0,0,0,0
1684048257.40066504,109028871,1544,1544,1544,1544,0,0,0,0,0,0,0,0,0,0
1684048257.50062490,109128831,1544,1544,1544,1544,0,0,0,0,0,0,0,0,0,0
1684048257.60058498,109228791,1544,1545,1545,1545,0,0,0,0,0,0,0,0,0,0
1684048257.70054507,109328751,1545,1544,1545,1545,0,0,0,0,0,0,0,0,0,0
1684048257.80050492,109428711,1544,1545,1545,1544,0,0,0,0,0,0,0,0,0,0
1684048257.90046501,109528671,1544,1544,1544,1544,0,0,0,0,0,0,0,0,0,0
1684048258.00042510,109628631,1461,1461,1428,1427,0,0,0,0,0,0,0,0,0,0
1684048258.10038495,109728591,1367,1367,1284,1280,0,0,0,0,0,0,0,0,0,0
1684048258.20034504,109828551,1334,1334,1227,1223,0,0,0,0,0,0,0,0,0,0
1684048258.30030489,109928511,1323,1323,1206,1204,0,0,0,0,0,0,0,0,0,0
1684048258.40026498,110028471,1306,1306,1174,1171,0,0,0,0,0,0,0,0,0,0
1684048258.50022507,110128431,1272,1271,1152,1150,0,0,0,0,0,0,0,0,0,0
1684048258.60018492,110228391,1174,1174,1153,1150,0,0,0,0,0,0,0,0,0,0
1684048258.70014501,110328351,1062,1061,1152,1150,0,0,0,0,0,0,0,0,0,0
1684048258.80010509,110428311,1049,1049,1152,1150,0,0,0,0,0,0,0,0,0,0
1684048258.90006495,110528271,1049,1049,1152,1150,0,0,0,0,0,0,0,0,0,0
1684048259.00002503,110628231,1050,1049,1150,1150,0,0,0,0,0,0,0,0,0,0
1684048259.09998488,110728191,1050,1035,1150,1170,0,0,0,0,0,0,0,0,0,0
1684048259.20077801,110828984,1050,1041,1150,1161,0,0,0,0,0,0,0,0,0,0
1684048259.30073810,110928944,1050,1043,1150,1159,0,0,0,0,0,0,0,0,0,0
1684048259.40069795,111028904,1050,1043,1150,1158,0,0,0,0,0,0,0,0,0,0
1684048259.50065804,111128864,1050,1043,1150,1159,0,0,0,0,0,0,0,0,0,0
1684048259.60061789,111228824,1050,1043,1150,1159,0,0,0,0,0,0,0,0,0,0
1684048259.70057797,111328784,1050,1042,1150,1160,0,0,0,0,0,0,0,0,0,0
1684048259.80053806,111428744,1045,1050,1156,1150,0,0,0,0,0,0,0,0,0,0
1684048259.90049791,111528704,1050,1049,1150,1151,0,0,0,0,0,0,0,0,0,0
1684048260.00045800,111628664,1050,1049,1150,1151,0,0,0,0,0,0,0,0,0,0
1684048260.10041809,111728624,1050,1048,1150,1152,0,0,0,0,0,0,0,0,0,0
1684048260.20037794,111828584,1050,1048,1150,1152,0,0,0,0,0,0,0,0,0,0
1684048260.30033803,111928544,873,873,1149,1149,0,0,0,0,0,0,0,0,0,0
1684048260.40029788,112028504,1000,1000,1000,1000,0,0,0,0,0,0,0,0,0,0
1684048260.50025797,112128464,1000,1000,1000,1000,0,0,0,0,0,0,0,0,0,0
1684048260.60021806,112228424,1000,1000,1000,1000,0,0,0,0,0,0,0,0,0,0
1684048260.70017791,112328384,1000,1000,1000,1000,0,0,0,0,0,0,0,0,0,0
1684048260.80013800,112428344,1000,1000,1000,1000,0,0,0,0,0,0,0,0,0,0
1684048260.90009809,112528304,1000,1000,1000,1000,0,0,0,0,0,0,0,0,0,0
1684048261.00005794,112628264,1000,1000,1000,1000,0,0,0,0,0,0,0,0,0,0
1684048261.10001802,112728224,1000,1000,1000,1000,0,0,0,0,0,0,0,0,0,0
1684048261.19997787,112828184,1000,1000,1000,1000,0,0,0,0,0,0,0,0,0,0
1684048261.30077100,112928977,1000,1000,1000,1000,0,0,0,0,0,0,0,0,0,0
1684048261.40073109,113028937,1000,1000,1000,1000,0,0,0,0,0,0,0,0,0,0
1684048261.50069094,113128897,1000,1000,1000,1000,0,0,0,0,0,0,0,0,0,0
1684048261.60065103,113228857,1000,1000,1000,1000,0,0,0,0,0,0,0,0,0,0
1684048261.70061088,113328817,1000,1000,1000,1000,0,0,0,0,0,0,0,0,0,0
1684048261.80057096,113428777,1000,1000,1000,1000,0,0,0,0,0,0,0,0,0,0
1684048261.90053105,113528737,1000,1000,1000,1000,0,0,0,0,0,0,0,0,0,0
1684048262.00049090,113628697,1000,1000,1000,1000,0,0,0,0,0,0,0,0,0,0
1684048262.10045099,113728657,1000,1000,1000,1000,0,0,0,0,0,0,0,0,0,0
1684048262.20041108,113828617,1000,1000,1000,1000,0,0,0,0,0,0,0,0,0,0
1684048262.30037093,113928577,1000,1000,1000,1000,0,0,0,0,0,0,0,0,0,0
1684048262.40033102,114028537,1000,1000,1000,1000,0,0,0,0,0,0,0,0,0,0
1684048262.50029087,114128497,1000,1000,1000,1000,0,0,0,0,0,0,0,0,0,0
1684048262.60025096,114228457,1000,1000,1000,1000,0,0,0,0,0,0,0,0,0,0
1684048262.70021105,114328417,1000,1000,1000,1000,0,0,0,0,0,0,0,0,0,0
1684048262.80017090,114428377,1000,1000,1000,1000,0,0,0,0,0,0,0,0,0,0
1684048262.90013099,114528337,1000,1000,1000,1000,0,0,0,0,0,0,0,0,0,0
1684048263.00009108,114628297,1000,1000,1000,1000,0,0,0,0,0,0,0,0,0,0
1684048263.10005093,114728257,1000,1000,1000,1000,0,0,0,0,0,0,0,0,0,0
1684048263.20001101,114828217,1000,1000,1000,1000,0,0,0,0,0,0,0,0,0,0
1684048263.29997110,114928177,1000,1000,1000,1000,0,0,0,0,0,0,0,0,0,0
1684048263.40076399,115028970,1000,1000,1000,1000,0,0,0,0,0,0,0,0,0,0
1684048263.50072408,115128930,1000,1000,1000,1000,0,0,0,0,0,0,0,0,0,0
1684048263.60068393,115228890,1000,1000,1000,1000,0,0,0,0,0,0,0,0,0,0
1684048263.70064402,115328850,1000,1000,1000,1000,0,0,0,0,0,0,0,0,0,0
1684048263.80060387,115428810,1000,1000,1000,1000,0,0,0,0,0,0,0,0,0,0
1684048263.90056396,115528770,1000,1000,1000,1000,0,0,0,0,0,0,0,0,0,0
1684048264.00052404,115628730,1000,1000,1000,1000,0,0,0,0,0,0,0,0,0,0
1684048264.10048389,115728690,1000,1000,1000,1000,0,0,0,0,0,0,0,0,0,0
1684048264.20044398,115828650,1000,1000,1000,1000,0,0,0,0,0,0,0,0,0,0
1684048264.30040407,115928610,1000,1000,1000,1000,0,0,0,0,0,0,0,0,0,0
1684048264.40036392,116028570,1000,1000,1000,1000,0,0,0,0,0,0,0,0,0,0
1684048264.50032401,116128530,1000,1000,1000,1000,0,0,0,0,0,0,0,0,0,0
1684048264.60028410,116228490,1000,1000,1000,1000,0,0,0,0,0,0,0,0,0,0
1684048264.70024395,116328450,1000,1000,1000,1000,0,0,0,0,0,0,0,0,0,0
1684048264.80020404,116428410,1000,1000,1000,1000,0,0,0,0,0,0,0,0,0,0
1684048264.90016389,116528370,1000,1000,1000,1000,0,0,0,0,0,0,0,0,0,0
1684048265.00012398,116628330,1000,1000,1000,1000,0,0,0,0,0,0,0,0,0,0
1684048265.10008407,116728290,1000,1000,1000,1000,0,0,0,0,0,0,0,0,0,0
1684048265.20004392,116828250,1000,1000,1000,1000,0,0,0,0,0,0,0,0,0,0
1684048265.30000401,116928210,1000,1000,1000,1000,0,0,0,0,0,0,0,0,0,0
1684048265.39996409,117028170,1000,1000,1000,1000,0,0,0,0,0,0,0,0,0,0
1684048265.50075698,117128963,1000,1000,1000,1000,0,0,0,0,0,0,0,0,0,0
1684048265.60071707,117228923,1000,1000,1000,1000,0,0,0,0,0,0,0,0,0,0
1684048265.70067692,117328883,1000,1000,1000,1000,0,0,0,0,0,0,0,0,0,0
1684048265.80063701,117428843,1000,1000,1000,1000,0,0,0,0,0,0,0,0,0,0
1684048265.90059710,117528803,1000,1000,1000,1000,0,0,0,0,0,0,0,0,0,0
1684048266.00055695,117628763,1000,1000,1000,1000,0,0,0,0,0,0,0,0,0,0
1684048266.10051703,117728723,1000,1000,1000,1000,0,0,0,0,0,0,0,0,0,0
1684048266.20047688,117828683,1000,1000,1000,1000,0,0,0,0,0,0,0,0,0,0
1684048266.30043697,117928643,1000,1000,1000,1000,0,0,0,0,0,0,0,0,0,0
1684048266.40039706,118028603,1000,1000,1000,1000,0,0,0,0,0,0,0,0,0,0
1684048266.50035691,118128563,1000,1000,1000,1000,0,0,0,0,0,0,0,0,0,0
1684048266.60031700,118228523,1000,1000,1000,1000,0,0,0,0,0,0,0,0,0,0
1684048266.70027709,118328483,1000,1000,1000,1000,0,0,0,0,0,0,0,0,0,0
1684048266.80023694,118428443,1000,1000,1000,1000,0,0,0,0,0,0,0,0,0,0
1684048266.90019703,118528403,1000,1000,1000,1000,0,0,0,0,0,0,0,0,0,0
1684048267.00015688,118628363,1000,1000,1000,1000,0,0,0,0,0,0,0,0,0,0
1684048267.10011697,118728323,1000,1000,1000,1000,0,0,0,0,0,0,0,0,0,0
1684048267.20007706,118828283,1000,1000,1000,1000,0,0,0,0,0,0,0,0,0,0
1684048267.30003691,118928243,1000,1000,1000,1000,0,0,0,0,0,0,0,0,0,0
1684048267.39999700,119028203,1000,1000,1000,1000,0,0,0,0,0,0,0,0,0,0
1684048267.49995708,119128163,1000,1000,1000,1000,0,0,0,0,0,0,0,0,0,0
1684048267.60074997,119228956,1000,1000,1000,1000,0,0,0,0,0,0,0,0,0,0
1684048267.70071006,119328916,1000,1000,1000,1000,0,0,0,0,0,0,0,0,0,0
1684048267.80066991,119428876,1000,1000,1000,1000,0,0,0,0,0,0,0,0,0,0
1684048267.90063000,119528836,1000,1000,1000,1000,0,0,0,0,0,0,0,0,0,0
1684048268.00059009,119628796,1000,1000,1000,1000,0,0,0,0,0,0,0,0,0,0
1684048268.10054994,119728756,1000,1000,1000,1000,0,0,0,0,0,0,0,0,0,0
1684048268.20051003,119828716,1000,1000,1000,1000,0,0,0,0,0,0,0,0,0,0
1684048268.30046988,119928676,1000,1000,1000,1000,0,0,0,0,0,0,0,0,0,0
1684048268.40042996,120028636,1000,1000,1000,1000,0,0,0,0,0,0,0,0,0,0
1684048268.50039005,120128596,1000,1000,1000,1000,0,0,0,0,0,0,0,0,0,0
1684048268.60034990,120228556,1000,1000,1000,1000,0,0,0,0,0,0,0,0,0,0
1684048268.70030999,120328516,1000,1000,1000,1000,0,0,0,0,0,0,0,0,0,0
1684048268.80027008,120428476,1000,1000,1000,1000,0,0,0,0,0,0,0,0,0,0
1684048268.90022993,120528436,1000,1000,1000,1000,0,0,0,0,0,0,0,0,0,0
1684048269.00019002,120628396,1000,1000,1000,1000,0,0,0,0,0,0,0,0,0,0
1684048269.10014987,120728356,1000,1000,1000,1000,0,0,0,0,0,0,0,0,0,0
1684048269.20010996,120828316,1000,1000,1000,1000,0,0,0,0,0,0,0,0,0,0
1684048269.30007005,120928276,1000,1000,1000,1000,0,0,0,0,0,0,0,0,0,0
1684048269.40002990,121028236,1000,1000,1000,1000,0,0,0,0,0,0,0,0,0,0
1684048269.49998999,121128196,1000,1000,1000,1000,0,0,0,0,0,0,0,0,0,0
1684048269.59995008,121228156,1000,1000,1000,1000,0,0,0,0,0,0,0,0,0,0
1684048269.70074296,121328949,1000,1000,1000,1000,0,0,0,0,0,0,0,0,0,0
1684048269.80070305,121428909,1000,1000,1000,1000,0,0,0,0,0,0,0,0,0,0
1684048269.90066290,121528869,1000,1000,1000,1000,0,0,0,0,0,0,0,0,0,0
1684048270.00062299,121628829,1000,1000,1000,1000,0,0,0,0,0,0,0,0,0,0
1684048270.10058308,121728789,1000,1000,1000,1000,0,0,0,0,0,0,0,0,0,0
1684048270.20054293,121828749,1000,1000,1000,1000,0,0,0,0,0,0,0,0,0,0
1684048270.30050302,121928709,1000,1000,1000,1000,0,0,0,0,0,0,0,0,0,0
1684048270.40046310,122028669,1000,1000,1000,1000,0,0,0,0,0,0,0,0,0,0
1684048270.50042295,122128629,1000,1000,1000,1000,0,0,0,0,0,0,0,0,0,0
1684048270.60038304,122228589,1000,1000,1000,1000,0,0,0,0,0,0,0,0,0,0
1684048270.70034289,122328549,1000,1000,1000,1000,0,0,0,0,0,0,0,0,0,0
1684048270.80030298,122428509,1000,1000,1000,1000,0,0,0,0,0,0,0,0,0,0
1684048270.90026307,122528469,1000,1000,1000,1000,0,0,0,0,0,0,0,0,0,0
1684048271.00022292,122628429,1000,1000,1000,1000,0,0,0,0,0,0,0,0,0,0
1684048271.10018301,122728389,1000,1000,1000,1000,0,0,0,0,0,0,0,0,0,0
1684048271.20014310,122828349,1000,1000,1000,1000,0,0,0,0,0,0,0,0,0,0
1684048271.30010295,122928309,1000,1000,1000,1000,0,0,0,0,0,0,0,0,0,0
1684048271.40006304,123028269,1000,1000,1000,1000,0,0,0,0,0,0,0,0,0,0
1684048271.50002289,123128229,1000,1000,1000,1000,0,0,0,0,0,0,0,0,0,0
1684048271.59998298,123228189,1000,1000,1000,1000,0,0,0,0,0,0,0,0,0,0
1684048271.70077610,123328982,1000,1000,1000,1000,0,0,0,0,0,0,0,0,0,0
1684048271.80073595,123428942,1000,1000,1000,1000,0,0,0,0,0,0,0,0,0,0
1684048271.90069604,123528902,1000,1000,1000,1000,0,0,0,0,0,0,0,0,0,0
1684048272.00065589,123628862,1000,1000,1000,1000,0,0,0,0,0,0,0,0,0,0
1684048272.10061598,123728822,1000,1000,1000,1000,0,0,0,0,0,0,0,0,0,0
1684048272.20057607,123828782,1000,1000,1000,1000,0,0,0,0,0,0,0,0,0,0
1684048272.30053592,123928742,1000,1000,1000,1000,0,0,0,0,0,0,0,0,0,0
1684048272.40049601,124028702,1000,1000,1000,1000,0,0,0,0,0,0,0,0,0,0
1684048272.50045609,124128662,1000,1000,1000,1000,0,0,0,0,0,0,0,0,0,0
1684048272.60041595,124228622,1000,1000,1000,1000,0,0,0,0,0,0,0,0,0,0
1684048272.70037603,124328582,1000,1000,1000,1000,0,0,0,0,0,0,0,0,0,0
1684048272.80033588,124428542,1000,1000,1000,1000,0,0,0,0,0,0,0,0,0,0
1684048272.90029597,124528502,1000,1000,1000,1000,0,0,0,0,0,0,0,0,0,0
1684048273.00025606,124628462,1000,1000,1000,1000,0,0,0,0,0,0,0,0,0,0
1684048273.10021591,124728422,1000,1000,1000,1000,0,0,0,0,0,0,0,0,0,0
1684048273.20017600,124828382,1000,1000,1000,1000,0,0,0,0,0,0,0,0,0,0
1684048273.30013609,124928342,1000,1000,1000,1000,0,0,0,0,0,0,0,0,0,0
1684048273.40009594,125028302,1000,1000,1000,1000,0,0,0,0,0,0,0,0,0,0
1684048273.50005603,125128262,1000,1000,1000,1000,0,0,0,0,0,0,0,0,0,0
1684048273.60001588,125228222,1000,1000,1000,1000,0,0,0,0,0,0,0,0,0,0
1684048273.69997597,125328182,1000,1000,1000,1000,0,0,0,0,0,0,0,0,0,0
1684048273.80076909,125428975,1000,1000,1000,1000,0,0,0,0,0,0,0,0,0,0
1684048273.90072894,125528935,1000,1000,1000,1000,0,0,0,0,0,0,0,0,0,0
1684048274.00068903,125628895,1000,1000,1000,1000,0,0,0,0,0,0,0,0,0,0
1684048274.10064888,125728855,1000,1000,1000,1000,0,0,0,0,0,0,0,0,0,0
1684048274.20060897,125828815,1000,1000,1000,1000,0,0,0,0,0,0,0,0,0,0
1684048274.30056906,125928775,1000,1000,1000,1000,0,0,0,0,0,0,0,0,0,0
1684048274.40052891,126028735,1000,1000,1000,1000,0,0,0,0,0,0,0,0,0,0
1684048274.50048900,126128695,1000,1000,1000,1000,0,0,0,0,0,0,0,0,0,0
1684048274.60044909,126228655,1000,1000,1000,1000,0,0,0,0,0,0,0,0,0,0
1684048274.70040894,126328615,1000,1000,1000,1000,0,0,0,0,0,0,0,0,0,0
1684048274.80036902,126428575,1000,1000,1000,1000,0,0,0,0,0,0,0,0,0,0
1684048274.90032887,126528535,1000,1000,1000,1000,0,0,0,0,0,0,0,0,0,0
1684048275.00028896,126628495,1000,1000,1000,1000,0,0,0,0,0,0,0,0,0,0
1684048275.10024905,126728455,1000,1000,1000,1000,0,0,0,0,0,0,0,0,0,0
1684048275.20020890,126828415,1000,1000,1000,1000,0,0,0,0,0,0,0,0,0,0
