timestamp,TimeUS,C1,C2,C3,C4,C5,C6,C7,C8,C9,C10,C11,C12,C13,C14
1684060780.40000010,79228296,1000,1000,1000,1000,0,0,0,0,0,0,0,0,0,0
1684060780.49995995,79328256,1000,1000,1000,1000,0,0,0,0,0,0,0,0,0,0
1684060780.59992003,79428216,1000,1000,1000,1000,0,0,0,0,0,0,0,0,0,0
1684060780.69988012,79528176,1000,1000,1000,1000,0,0,0,0,0,0,0,0,0,0
1684060780.80067301,79628969,1000,1000,1000,1000,0,0,0,0,0,0,0,0,0,0
1684060780.90063310,79728929,1000,1000,1000,1000,0,0,0,0,0,0,0,0,0,0
1684060781.00059295,79828889,1000,1000,1000,1000,0,0,0,0,0,0,0,0,0,0
1684060781.10055304,79928849,1000,1000,1000,1000,0,0,0,0,0,0,0,0,0,0
1684060781.20051312,80028809,1000,1000,1000,1000,0,0,0,0,0,0,0,0,0,0
1684060781.30047297,80128769,1000,1000,1000,1000,0,0,0,0,0,0,0,0,0,0
1684060781.40043306,80228729,1000,1000,1000,1000,0,0,0,0,0,0,0,0,0,0
1684060781.50039315,80328689,1000,1000,1000,1000,0,0,0,0,0,0,0,0,0,0
1684060781.60035300,80428649,1000,1000,1000,1000,0,0,0,0,0,0,0,0,0,0
1684060781.70031309,80528609,1000,1000,1000,1000,0,0,0,0,0,0,0,0,0,0
1684060781.80027294,80628569,1000,1000,1000,1000,0,0,0,0,0,0,0,0,0,0
1684060781.90023303,80728529,1000,1000,1000,1000,0,0,0,0,0,0,0,0,0,0
1684060782.00019312,80828489,1000,1000,1000,1000,0,0,0,0,0,0,0,0,0,0
1684060782.10015297,80928449,1000,1000,1000,1000,0,0,0,0,0,0,0,0,0,0
1684060782.20011306,81028409,1000,1000,1000,1000,0,0,0,0,0,0,0,0,0,0
1684060782.30007315,81128369,1000,1000,1000,1000,0,0,0,0,0,0,0,0,0,0
1684060782.40003300,81228329,1006,1006,1006,1006,0,0,0,0,0,0,0,0,0,0
1684060782.49999309,81328289,1036,1036,1036,1036,0,0,0,0,0,0,0,0,0,0
1684060782.59995294,81428249,1066,1066,1066,1066,0,0,0,0,0,0,0,0,0,0
1684060782.69991302,81528209,1096,1096,1096,1096,0,0,0,0,0,0,0,0,0,0
1684060782.79987311,81628169,1126,1126,1126,1126,0,0,0,0,0,0,0,0,0,0
1684060782.90066600,81728962,1217,1205,1206,1217,0,0,0,0,0,0,0,0,0,0
1684060783.00062609,81828922,1445,1437,1438,1446,0,0,0,0,0,0,0,0,0,0
1684060783.10058594,81928882,1616,1608,1609,1616,0,0,0,0,0,0,0,0,0,0
1684060783.20054603,82028842,1758,1751,1751,1758,0,0,0,0,0,0,0,0,0,0
1684060783.30050611,82128802,1876,1869,1869,1877,0,0,0,0,0,0,0,0,0,0
1684060783.40046597,82228762,1872,1866,1867,1872,0,0,0,0,0,0,0,0,0,0
1684060783.50042605,82328722,1772,1770,1770,1773,0,0,0,0,0,0,0,0,0,0
1684060783.60038614,82428682,1655,1657,1657,1656,0,0,0,0,0,0,0,0,0,0
1684060783.70034599,82528642,1611,1614,1614,1611,0,0,0,0,0,0,0,0,0,0
1684060783.80030608,82628602,1615,1619,1619,1615,0,0,0,0,0,0,0,0,0,0
1684060783.90026617,82728562,1630,1631,1631,1630,0,0,0,0,0,0,0,0,0,0
1684060784.00022602,82828522,1633,1634,1634,1633,0,0,0,0,0,0,0,0,0,0
1684060784.10018611,82928482,1629,1628,1628,1629,0,0,0,0,0,0,0,0,0,0
1684060784.20014596,83028442,1622,1620,1620,1622,0,0,0,0,0,0,0,0,0,0
1684060784.30010605,83128402,1604,1603,1596,1610,0,0,0,0,0,0,0,0,0,0
1684060784.40006614,83228362,1599,1598,1590,1606,0,0,0,0,0,0,0,0,0,0
1684060784.50002599,83328322,1599,1598,1594,1602,0,0,0,0,0,0,0,0,0,0
1684060784.59998608,83428282,1604,1602,1603,1602,0,0,0,0,0,0,0,0,0,0
1684060784.69994617,83528242,1608,1608,1610,1605,0,0,0,0,0,0,0,0,0,0
1684060784.79990602,83628202,1613,1614,1617,1610,0,0,0,0,0,0,0,0,0,0
1684060784.89986610,83728162,1602,1603,1610,1596,0,0,0,0,0,0,0,0,0,0
1684060785.00065899,83828955,1579,1581,1596,1565,0,0,0,0,0,0,0,0,0,0
1684060785.10061908,83928915,1568,1569,1579,1561,0,0,0,0,0,0,0,0,0,0
1684060785.20057917,84028875,1557,1557,1555,1560,0,0,0,0,0,0,0,0,0,0
1684060785.30053902,84128835,1549,1548,1539,1560,0,0,0,0,0,0,0,0,0,0
1684060785.40049911,84228795,1541,1539,1528,1552,0,0,0,0,0,0,0,0,0,0
1684060785.50045896,84328755,1535,1533,1525,1543,0,0,0,0,0,0,0,0,0,0
1684060785.60041904,84428715,1529,1529,1525,1533,0,0,0,0,0,0,0,0,0,0
1684060785.70037913,84528675,1528,1529,1528,1528,0,0,0,0,0,0,0,0,0,0
1684060785.80033898,84628635,1530,1531,1532,1528,0,0,0,0,0,0,0,0,0,0
1684060785.90029907,84728595,1534,1534,1537,1530,0,0,0,0,0,0,0,0,0,0
1684060786.00025916,84828555,1537,1537,1541,1532,0,0,0,0,0,0,0,0,0,0
1684060786.10021901,84928515,1540,1540,1543,1537,0,0,0,0,0,0,0,0,0,0
1684060786.20017910,85028475,1543,1543,1545,1542,0,0,0,0,0,0,0,0,0,0
1684060786.30013895,85128435,1546,1546,1547,1546,0,0,0,0,0,0,0,0,0,0
1684060786.40009904,85228395,1548,1549,1548,1550,0,0,0,0,0,0,0,0,0,0
1684060786.50005913,85328355,1551,1551,1550,1553,0,0,0,0,0,0,0,0,0,0
1684060786.60001898,85428315,1551,1550,1554,1558,0,0,0,0,0,0,0,0,0,0
1684060786.69997907,85528275,1551,1552,1560,1562,0,0,0,0,0,0,0,0,0,0
1684060786.79993916,85628235,1554,1554,1562,1563,0,0,0,0,0,0,0,0,0,0
1684060786.89989901,85728195,1557,1558,1563,1563,0,0,0,0,0,0,0,0,0,0
1684060786.99985909,85828155,1561,1561,1564,1563,0,0,0,0,0,0,0,0,0,0
1684060787.10065198,85928948,1564,1564,1565,1563,0,0,0,0,0,0,0,0,0,0
1684060787.20061207,86028908,1567,1567,1565,1565,0,0,0,0,0,0,0,0,0,0
1684060787.30057216,86128868,1570,1570,1565,1566,0,0,0,0,0,0,0,0,0,0
1684060787.40053201,86228828,1570,1571,1565,1565,0,0,0,0,0,0,0,0,0,0
1684060787.50049210,86328788,1572,1571,1565,1566,0,0,0,0,0,0,0,0,0,0
1684060787.60045195,86428748,1573,1572,1566,1567,0,0,0,0,0,0,0,0,0,0
1684060787.70041203,86528708,1574,1573,1568,1569,0,0,0,0,0,0,0,0,0,0
1684060787.80037212,86628668,1572,1572,1568,1569,0,0,0,0,0,0,0,0,0,0
1684060787.90033197,86728628,1573,1573,1570,1571,0,0,0,0,0,0,0,0,0,0
1684060788.00029206,86828588,1573,1573,1572,1571,0,0,0,0,0,0,0,0,0,0
1684060788.10025215,86928548,1574,1574,1576,1573,0,0,0,0,0,0,0,0,0,0
1684060788.20021200,87028508,1573,1574,1576,1574,0,0,0,0,0,0,0,0,0,0
1684060788.30017209,87128468,1574,1574,1577,1576,0,0,0,0,0,0,0,0,0,0
1684060788.40013194,87228428,1574,1574,1576,1576,0,0,0,0,0,0,0,0,0,0
1684060788.50009203,87328388,1575,1574,1577,1577,0,0,0,0,0,0,0,0,0,0
1684060788.60005212,87428348,1574,1574,1575,1576,0,0,0,0,0,0,0,0,0,0
1684060788.70001197,87528308,1575,1575,1576,1577,0,0,0,0,0,0,0,0,0,0
1684060788.79997206,87628268,1576,1576,1577,1577,0,0,0,0,0,0,0,0,0,0
1684060788.89993215,87728228,1576,1577,1577,1577,0,0,0,0,0,0,0,0,0,0
1684060788.99989200,87828188,1577,1577,1577,1577,0,0,0,0,0,0,0,0,0,0
1684060789.10068512,87928981,1578,1578,1577,1577,0,0,0,0,0,0,0,0,0,0
1684060789.20064497,88028941,1579,1578,1578,1578,0,0,0,0,0,0,0,0,0,0
1684060789.30060506,88128901,1578,1578,1577,1577,0,0,0,0,0,0,0,0,0,0
1684060789.40056515,88228861,1578,1578,1578,1577,0,0,0,0,0,0,0,0,0,0
1684060789.50052500,88328821,1578,1578,1578,1578,0,0,0,0,0,0,0,0,0,0
1684060789.60048509,88428781,1578,1578,1577,1577,0,0,0,0,0,0,0,0,0,0
1684060789.70044494,88528741,1578,1578,1578,1578,0,0,0,0,0,0,0,0,0,0
1684060789.80040503,88628701,1578,1579,1579,1578,0,0,0,0,0,0,0,0,0,0
1684060789.90036511,88728661,1580,1579,1580,1580,0,0,0,0,0,0,0,0,0,0
1684060790.00032496,88828621,1579,1579,1580,1579,0,0,0,0,0,0,0,0,0,0
1684060790.10028505,88928581,1578,1578,1578,1578,0,0,0,0,0,0,0,0,0,0
1684060790.20024514,89028541,1578,1578,1578,1579,0,0,0,0,0,0,0,0,0,0
1684060790.30020499,89128501,1579,1579,1579,1580,0,0,0,0,0,0,0,0,0,0
1684060790.40016508,89228461,1578,1578,1578,1578,0,0,0,0,0,0,0,0,0,0
1684060790.50012517,89328421,1579,1579,1579,1580,0,0,0,0,0,0,0,0,0,0
1684060790.60008502,89428381,1579,1578,1579,1579,0,0,0,0,0,0,0,0,0,0
1684060790.70004511,89528341,1579,1579,1580,1579,0,0,0,0,0,0,0,0,0,0
1684060790.80000496,89628301,1579,1579,1579,1578,0,0,0,0,0,0,0,0,0,0
1684060790.89996505,89728261,1579,1579,1579,1579,0,0,0,0,0,0,0,0,0,0
1684060790.99992514,89828221,1579,1579,1579,1579,0,0,0,0,0,0,0,0,0,0
1684060791.09988499,89928181,1579,1579,1579,1579,0,0,0,0,0,0,0,0,0,0
1684060791.20067811,90028974,1578,1578,1578,1579,0,0,0,0,0,0,0,0,0,0
1684060791.30063796,90128934,1580,1579,1580,1579,0,0,0,0,0,0,0,0,0,0
1684060791.40059805,90228894,1580,1580,1580,1580,0,0,0,0,0,0,0,0,0,0
1684060791.50055814,90328854,1579,1580,1580,1580,0,0,0,0,0,0,0,0,0,0
1684060791.60051799,90428814,1579,1579,1579,1579,0,0,0,0,0,0,0,0,0,0
1684060791.70047808,90528774,1580,1580,1580,1581,0,0,0,0,0,0,0,0,0,0
1684060791.80043817,90628734,1580,1580,1580,1580,0,0,0,0,0,0,0,0,0,0
1684060791.90039802,90728694,1580,1580,1580,1580,0,0,0,0,0,0,0,0,0,0
1684060792.00035810,90828654,1580,1580,1580,1580,0,0,0,0,0,0,0,0,0,0
1684060792.10031796,90928614,1582,1581,1581,1581,0,0,0,0,0,0,0,0,0,0
1684060792.20027804,91028574,1581,1581,1581,1581,0,0,0,0,0,0,0,0,0,0
1684060792.30023813,91128534,1582,1582,1582,1581,0,0,0,0,0,0,0,0,0,0
1684060792.40019798,91228494,1581,1581,1582,1580,0,0,0,0,0,0,0,0,0,0
1684060792.50015807,91328454,1580,1581,1581,1581,0,0,0,0,0,0,0,0,0,0
1684060792.60011816,91428414,1581,1581,1581,1581,0,0,0,0,0,0,0,0,0,0
1684060792.70007801,91528374,1581,1581,1581,1581,0,0,0,0,0,0,0,0,0,0
1684060792.80003810,91628334,1581,1581,1583,1580,0,0,0,0,0,0,0,0,0,0
1684060792.89999795,91728294,1581,1581,1588,1573,0,0,0,0,0,0,0,0,0,0
1684060792.99995804,91828254,1579,1582,1583,1573,0,0,0,0,0,0,0,0,0,0
1684060793.09991813,91928214,1578,1581,1575,1574,0,0,0,0,0,0,0,0,0,0
1684060793.19987798,92028174,1577,1580,1566,1571,0,0,0,0,0,0,0,0,0,0
1684060793.30067110,92128967,1577,1579,1559,1566,0,0,0,0,0,0,0,0,0,0
1684060793.40063095,92228927,1578,1578,1555,1562,0,0,0,0,0,0,0,0,0,0
1684060793.50059104,92328887,1579,1578,1555,1557,0,0,0,0,0,0,0,0,0,0
1684060793.60055113,92428847,1580,1578,1556,1555,0,0,0,0,0,0,0,0,0,0
1684060793.70051098,92528807,1580,1578,1556,1554,0,0,0,0,0,0,0,0,0,0
1684060793.80047107,92628767,1579,1578,1556,1553,0,0,0,0,0,0,0,0,0,0
1684060793.90043116,92728727,1576,1577,1555,1553,0,0,0,0,0,0,0,0,0,0
1684060794.00039101,92828687,1575,1576,1554,1553,0,0,0,0,0,0,0,0,0,0
1684060794.10035110,92928647,1575,1577,1553,1554,0,0,0,0,0,0,0,0,0,0
1684060794.20031095,93028607,1574,1576,1552,1552,0,0,0,0,0,0,0,0,0,0
1684060794.30027103,93128567,1575,1577,1550,1551,0,0,0,0,0,0,0,0,0,0
1684060794.40023112,93228527,1576,1578,1549,1548,0,0,0,0,0,0,0,0,0,0
1684060794.50019097,93328487,1579,1580,1547,1546,0,0,0,0,0,0,0,0,0,0
1684060794.60015106,93428447,1582,1583,1545,1544,0,0,0,0,0,0,0,0,0,0
1684060794.70011115,93528407,1585,1585,1542,1541,0,0,0,0,0,0,0,0,0,0
1684060794.80007100,93628367,1588,1589,1539,1539,0,0,0,0,0,0,0,0,0,0
1684060794.90003109,93728327,1591,1592,1537,1537,0,0,0,0,0,0,0,0,0,0
1684060794.99999094,93828287,1593,1593,1534,1534,0,0,0,0,0,0,0,0,0,0
1684060795.09995103,93928247,1595,1595,1535,1536,0,0,0,0,0,0,0,0,0,0
1684060795.19991112,94028207,1595,1595,1535,1537,0,0,0,0,0,0,0,0,0,0
1684060795.29987097,94128167,1594,1594,1537,1540,0,0,0,0,0,0,0,0,0,0
1684060795.40066409,94228960,1592,1591,1541,1544,0,0,0,0,0,0,0,0,0,0
1684060795.50062394,94328920,1588,1585,1548,1551,0,0,0,0,0,0,0,0,0,0
1684060795.60058403,94428880,1581,1578,1557,1560,0,0,0,0,0,0,0,0,0,0
1684060795.70054412,94528840,1571,1567,1567,1570,0,0,0,0,0,0,0,0,0,0
1684060795.80050397,94628800,1560,1557,1580,1581,0,0,0,0,0,0,0,0,0,0
1684060795.90046406,94728760,1550,1547,1593,1593,0,0,0,0,0,0,0,0,0,0
1684060796.00042415,94828720,1541,1539,1604,1603,0,0,0,0,0,0,0,0,0,0
1684060796.10038400,94928680,1534,1533,1611,1611,0,0,0,0,0,0,0,0,0,0
1684060796.20034409,95028640,1529,1530,1615,1613,0,0,0,0,0,0,0,0,0,0
1684060796.30030394,95128600,1529,1530,1615,1613,0,0,0,0,0,0,0,0,0,0
1684060796.40026402,95228560,1533,1535,1612,1612,0,0,0,0,0,0,0,0,0,0
1684060796.50022411,95328520,1539,1541,1607,1607,0,0,0,0,0,0,0,0,0,0
1684060796.60018396,95428480,1546,1548,1599,1600,0,0,0,0,0,0,0,0,0,0
1684060796.70014405,95528440,1556,1556,1592,1592,0,0,0,0,0,0,0,0,0,0
1684060796.80010414,95628400,1564,1564,1585,1583,0,0,0,0,0,0,0,0,0,0
1684060796.90006399,95728360,1572,1572,1578,1577,0,0,0,0,0,0,0,0,0,0
1684060797.00002408,95828320,1579,1579,1573,1572,0,0,0,0,0,0,0,0,0,0
1684060797.09998417,95928280,1584,1582,1568,1568,0,0,0,0,0,0,0,0,0,0
1684060797.19994402,96028240,1587,1585,1566,1566,0,0,0,0,0,0,0,0,0,0
1684060797.29990411,96128200,1588,1586,1566,1566,0,0,0,0,0,0,0,0,0,0
1684060797.39986396,96228160,1587,1585,1566,1567,0,0,0,0,0,0,0,0,0,0
1684060797.50065708,96328953,1585,1584,1569,1569,0,0,0,0,0,0,0,0,0,0
1684060797.60061717,96428913,1582,1583,1572,1572,0,0,0,0,0,0,0,0,0,0
1684060797.70057702,96528873,1579,1580,1575,1575,0,0,0,0,0,0,0,0,0,0
1684060797.80053711,96628833,1577,1578,1578,1578,0,0,0,0,0,0,0,0,0,0
1684060797.90049696,96728793,1575,1575,1580,1580,0,0,0,0,0,0,0,0,0,0
1684060798.00045705,96828753,1574,1574,1583,1582,0,0,0,0,0,0,0,0,0,0
1684060798.10041714,96928713,1571,1573,1583,1583,0,0,0,0,0,0,0,0,0,0
1684060798.20037699,97028673,1572,1573,1584,1584,0,0,0,0,0,0,0,0,0,0
1684060798.30033708,97128633,1572,1573,1583,1583,0,0,0,0,0,0,0,0,0,0
1684060798.40029716,97228593,1573,1573,1582,1582,0,0,0,0,0,0,0,0,0,0
1684060798.50025702,97328553,1574,1574,1581,1581,0,0,0,0,0,0,0,0,0,0
1684060798.60021710,97428513,1575,1575,1579,1580,0,0,0,0,0,0,0,0,0,0
1684060798.70017695,97528473,1577,1577,1579,1579,0,0,0,0,0,0,0,0,0,0
1684060798.80013704,97628433,1579,1579,1578,1578,0,0,0,0,0,0,0,0,0,0
1684060798.90009713,97728393,1540,1541,1589,1590,0,0,0,0,0,0,0,0,0,0
1684060799.00005698,97828353,1555,1556,1590,1590,0,0,0,0,0,0,0,0,0,0
1684060799.10001707,97928313,1569,1570,1587,1587,0,0,0,0,0,0,0,0,0,0
1684060799.19997716,98028273,1580,1581,1582,1581,0,0,0,0,0,0,0,0,0,0
1684060799.29993701,98128233,1590,1590,1578,1577,0,0,0,0,0,0,0,0,0,0
1684060799.39989710,98228193,1596,1595,1573,1572,0,0,0,0,0,0,0,0,0,0
1684060799.50068998,98328986,1600,1598,1570,1570,0,0,0,0,0,0,0,0,0,0
1684060799.60065007,98428946,1602,1599,1569,1570,0,0,0,0,0,0,0,0,0,0
1684060799.70061016,98528906,1601,1599,1570,1571,0,0,0,0,0,0,0,0,0,0
1684060799.80057001,98628866,1597,1596,1571,1572,0,0,0,0,0,0,0,0,0,0
1684060799.90053010,98728826,1594,1593,1574,1575,0,0,0,0,0,0,0,0,0,0
1684060800.00048995,98828786,1590,1590,1577,1577,0,0,0,0,0,0,0,0,0,0
1684060800.10045004,98928746,1586,1586,1580,1580,0,0,0,0,0,0,0,0,0,0
1684060800.20041013,99028706,1581,1582,1582,1582,0,0,0,0,0,0,0,0,0,0
1684060800.30036998,99128666,1578,1579,1585,1585,0,0,0,0,0,0,0,0,0,0
1684060800.40033007,99228626,1576,1577,1587,1586,0,0,0,0,0,0,0,0,0,0
1684060800.50029016,99328586,1574,1575,1588,1587,0,0,0,0,0,0,0,0,0,0
1684060800.60025001,99428546,1574,1575,1588,1588,0,0,0,0,0,0,0,0,0,0
1684060800.70021009,99528506,1574,1575,1586,1586,0,0,0,0,0,0,0,0,0,0
1684060800.80016994,99628466,1576,1576,1587,1584,0,0,0,0,0,0,0,0,0,0
1684060800.90013003,99728426,1576,1579,1590,1575,0,0,0,0,0,0,0,0,0,0
1684060801.00009012,99828386,1579,1581,1583,1573,0,0,0,0,0,0,0,0,0,0
1684060801.10004997,99928346,1580,1581,1572,1571,0,0,0,0,0,0,0,0,0,0
1684060801.20001006,100028306,1581,1582,1562,1568,0,0,0,0,0,0,0,0,0,0
1684060801.29997015,100128266,1581,1582,1555,1561,0,0,0,0,0,0,0,0,0,0
1684060801.39993000,100228226,1582,1581,1550,1555,0,0,0,0,0,0,0,0,0,0
1684060801.49989009,100328186,1583,1582,1549,1552,0,0,0,0,0,0,0,0,0,0
1684060801.60068297,100428979,1584,1582,1551,1550,0,0,0,0,0,0,0,0,0,0
1684060801.70064306,100528939,1583,1582,1552,1550,0,0,0,0,0,0,0,0,0,0
1684060801.80060315,100628899,1581,1581,1552,1550,0,0,0,0,0,0,0,0,0,0
1684060801.90056300,100728859,1579,1580,1553,1551,0,0,0,0,0,0,0,0,0,0
1684060802.00052309,100828819,1577,1578,1553,1552,0,0,0,0,0,0,0,0,0,0
1684060802.10048294,100928779,1577,1578,1554,1554,0,0,0,0,0,0,0,0,0,0
1684060802.20044303,101028739,1575,1577,1553,1553,0,0,0,0,0,0,0,0,0,0
1684060802.30040312,101128699,1576,1577,1552,1552,0,0,0,0,0,0,0,0,0,0
1684060802.40036297,101228659,1576,1578,1550,1550,0,0,0,0,0,0,0,0,0,0
1684060802.50032306,101328619,1578,1579,1548,1548,0,0,0,0,0,0,0,0,0,0
1684060802.60028315,101428579,1580,1581,1546,1546,0,0,0,0,0,0,0,0,0,0
1684060802.70024300,101528539,1583,1583,1544,1544,0,0,0,0,0,0,0,0,0,0
1684060802.80020308,101628499,1586,1586,1543,1542,0,0,0,0,0,0,0,0,0,0
1684060802.90016294,101728459,1588,1588,1542,1542,0,0,0,0,0,0,0,0,0,0
1684060803.00012302,101828419,1589,1591,1539,1541,0,0,0,0,0,0,0,0,0,0
1684060803.10008311,101928379,1590,1591,1538,1540,0,0,0,0,0,0,0,0,0,0
1684060803.20004296,102028339,1591,1591,1540,1542,0,0,0,0,0,0,0,0,0,0
1684060803.30000305,102128299,1590,1589,1544,1546,0,0,0,0,0,0,0,0,0,0
1684060803.39996314,102228259,1587,1584,1549,1551,0,0,0,0,0,0,0,0,0,0
1684060803.49992299,102328219,1581,1577,1557,1559,0,0,0,0,0,0,0,0,0,0
1684060803.59988308,102428179,1573,1569,1566,1569,0,0,0,0,0,0,0,0,0,0
1684060803.70067596,102528972,1564,1560,1578,1580,0,0,0,0,0,0,0,0,0,0
1684060803.80063605,102628932,1553,1551,1588,1589,0,0,0,0,0,0,0,0,0,0
1684060803.90059614,102728892,1545,1543,1597,1598,0,0,0,0,0,0,0,0,0,0
1684060804.00055599,102828852,1539,1538,1605,1604,0,0,0,0,0,0,0,0,0,0
1684060804.10051608,102928812,1535,1536,1609,1608,0,0,0,0,0,0,0,0,0,0
1684060804.20047617,103028772,1535,1537,1610,1609,0,0,0,0,0,0,0,0,0,0
1684060804.30043602,103128732,1537,1540,1608,1607,0,0,0,0,0,0,0,0,0,0
1684060804.40039611,103228692,1543,1544,1604,1603,0,0,0,0,0,0,0,0,0,0
1684060804.50035596,103328652,1550,1551,1599,1598,0,0,0,0,0,0,0,0,0,0
1684060804.60031605,103428612,1558,1558,1593,1592,0,0,0,0,0,0,0,0,0,0
1684060804.70027614,103528572,1566,1566,1586,1586,0,0,0,0,0,0,0,0,0,0
1684060804.80023599,103628532,1573,1572,1580,1580,0,0,0,0,0,0,0,0,0,0
1684060804.90019608,103728492,1579,1578,1576,1575,0,0,0,0,0,0,0,0,0,0
1684060805.00015616,103828452,1583,1582,1572,1572,0,0,0,0,0,0,0,0,0,0
1684060805.10011601,103928412,1585,1585,1569,1570,0,0,0,0,0,0,0,0,0,0
1684060805.20007610,104028372,1587,1586,1569,1569,0,0,0,0,0,0,0,0,0,0
1684060805.30003595,104128332,1587,1586,1570,1570,0,0,0,0,0,0,0,0,0,0
1684060805.39999604,104228292,1587,1586,1572,1572,0,0,0,0,0,0,0,0,0,0
1684060805.49995613,104328252,1584,1584,1573,1574,0,0,0,0,0,0,0,0,0,0
1684060805.59991598,104428212,1582,1582,1576,1576,0,0,0,0,0,0,0,0,0,0
1684060805.69987607,104528172,1579,1580,1578,1578,0,0,0,0,0,0,0,0,0,0
1684060805.80066895,104628965,1577,1578,1581,1581,0,0,0,0,0,0,0,0,0,0
1684060805.90062904,104728925,1576,1576,1583,1582,0,0,0,0,0,0,0,0,0,0
1684060806.00058913,104828885,1574,1574,1583,1583,0,0,0,0,0,0,0,0,0,0
1684060806.10054898,104928845,1573,1574,1584,1583,0,0,0,0,0,0,0,0,0,0
1684060806.20050907,105028805,1572,1573,1583,1583,0,0,0,0,0,0,0,0,0,0
1684060806.30046916,105128765,1573,1574,1582,1583,0,0,0,0,0,0,0,0,0,0
1684060806.40042901,105228725,1575,1575,1582,1582,0,0,0,0,0,0,0,0,0,0
1684060806.50038910,105328685,1576,1576,1581,1581,0,0,0,0,0,0,0,0,0,0
1684060806.60034895,105428645,1578,1578,1581,1580,0,0,0,0,0,0,0,0,0,0
1684060806.70030904,105528605,1579,1578,1579,1579,0,0,0,0,0,0,0,0,0,0
1684060806.80026913,105628565,1579,1580,1578,1578,0,0,0,0,0,0,0,0,0,0
1684060806.90022898,105728525,1580,1580,1577,1577,0,0,0,0,0,0,0,0,0,0
1684060807.00018907,105828485,1580,1580,1576,1576,0,0,0,0,0,0,0,0,0,0
1684060807.10014915,105928445,1581,1580,1576,1577,0,0,0,0,0,0,0,0,0,0
1684060807.20010900,106028405,1581,1581,1577,1577,0,0,0,0,0,0,0,0,0,0
1684060807.30006909,106128365,1581,1581,1578,1578,0,0,0,0,0,0,0,0,0,0
1684060807.40002894,106228325,1581,1581,1579,1579,0,0,0,0,0,0,0,0,0,0
1684060807.49998903,106328285,1581,1581,1579,1579,0,0,0,0,0,0,0,0,0,0
1684060807.59994912,106428245,1581,1580,1580,1580,0,0,0,0,0,0,0,0,0,0
1684060807.69990897,106528205,1581,1581,1581,1581,0,0,0,0,0,0,0,0,0,0
1684060807.79986906,106628165,1580,1580,1581,1581,0,0,0,0,0,0,0,0,0,0
1684060807.90066195,106728958,1580,1580,1581,1582,0,0,0,0,0,0,0,0,0,0
1684060808.00062203,106828918,1580,1580,1581,1581,0,0,0,0,0,0,0,0,0,0
1684060808.10058212,106928878,1579,1579,1581,1581,0,0,0,0,0,0,0,0,0,0
1684060808.20054197,107028838,1580,1580,1581,1581,0,0,0,0,0,0,0,0,0,0
1684060808.30050206,107128798,1581,1581,1582,1582,0,0,0,0,0,0,0,0,0,0
1684060808.40046215,107228758,1580,1580,1581,1581,0,0,0,0,0,0,0,0,0,0
1684060808.50042200,107328718,1581,1580,1581,1581,0,0,0,0,0,0,0,0,0,0
1684060808.60038209,107428678,1582,1581,1582,1581,0,0,0,0,0,0,0,0,0,0
1684060808.70034194,107528638,1582,1582,1581,1581,0,0,0,0,0,0,0,0,0,0
1684060808.80030203,107628598,1582,1582,1581,1581,0,0,0,0,0,0,0,0,0,0
1684060808.90026212,107728558,1581,1582,1581,1581,0,0,0,0,0,0,0,0,0,0
1684060809.00022197,107828518,1581,1582,1585,1577,0,0,0,0,0,0,0,0,0,0
1684060809.10018206,107928478,1581,1583,1587,1572,0,0,0,0,0,0,0,0,0,0
1684060809.20014215,108028438,1580,1582,1580,1573,0,0,0,0,0,0,0,0,0,0
1684060809.30010200,108128398,1579,1581,1572,1572,0,0,0,0,0,0,0,0,0,0
1684060809.40006208,108228358,1578,1580,1564,1569,0,0,0,0,0,0,0,0,0,0
1684060809.50002217,108328318,1577,1579,1558,1564,0,0,0,0,0,0,0,0,0,0
1684060809.59998202,108428278,1578,1579,1555,1560,0,0,0,0,0,0,0,0,0,0
1684060809.69994211,108528238,1580,1579,1555,1557,0,0,0,0,0,0,0,0,0,0
1684060809.79990196,108628198,1580,1578,1555,1554,0,0,0,0,0,0,0,0,0,0
1684060809.89986205,108728158,1578,1578,1555,1552,0,0,0,0,0,0,0,0,0,0
1684060810.00065494,108828951,1579,1579,1557,1554,0,0,0,0,0,0,0,0,0,0
1684060810.10061502,108928911,1577,1577,1556,1554,0,0,0,0,0,0,0,0,0,0
1684060810.20057511,109028871,1577,1578,1556,1554,0,0,0,0,0,0,0,0,0,0
1684060810.30053496,109128831,1575,1577,1554,1554,0,0,0,0,0,0,0,0,0,0
1684060810.40049505,109228791,1575,1577,1553,1553,0,0,0,0,0,0,0,0,0,0
1684060810.50045514,109328751,1576,1577,1551,1552,0,0,0,0,0,0,0,0,0,0
1684060810.60041499,109428711,1577,1579,1549,1550,0,0,0,0,0,0,0,0,0,0
1684060810.70037508,109528671,1579,1580,1548,1548,0,0,0,0,0,0,0,0,0,0
1684060810.80033517,109628631,1581,1582,1545,1544,0,0,0,0,0,0,0,0,0,0
1684060810.90029502,109728591,1584,1584,1542,1542,0,0,0,0,0,0,0,0,0,0
1684060811.00025511,109828551,1586,1586,1540,1540,0,0,0,0,0,0,0,0,0,0
1684060811.10021496,109928511,1587,1588,1537,1537,0,0,0,0,0,0,0,0,0,0
1684060811.20017505,110028471,1590,1591,1538,1538,0,0,0,0,0,0,0,0,0,0
1684060811.30013514,110128431,1592,1592,1536,1538,0,0,0,0,0,0,0,0,0,0
1684060811.40009499,110228391,1592,1592,1537,1539,0,0,0,0,0,0,0,0,0,0
1684060811.50005507,110328351,1592,1591,1540,1542,0,0,0,0,0,0,0,0,0,0
1684060811.60001516,110428311,1589,1588,1544,1547,0,0,0,0,0,0,0,0,0,0
1684060811.69997501,110528271,1586,1583,1551,1554,0,0,0,0,0,0,0,0,0,0
1684060811.79993510,110628231,1579,1575,1560,1563,0,0,0,0,0,0,0,0,0,0
1684060811.89989495,110728191,1571,1567,1572,1573,0,0,0,0,0,0,0,0,0,0
1684060812.00068808,110828984,1561,1558,1583,1585,0,0,0,0,0,0,0,0,0,0
1684060812.10064816,110928944,1552,1549,1595,1595,0,0,0,0,0,0,0,0,0,0
1684060812.20060802,111028904,1542,1541,1603,1603,0,0,0,0,0,0,0,0,0,0
1684060812.30056810,111128864,1537,1537,1610,1609,0,0,0,0,0,0,0,0,0,0
1684060812.40052795,111228824,1532,1534,1611,1611,0,0,0,0,0,0,0,0,0,0
1684060812.50048804,111328784,1534,1536,1612,1611,0,0,0,0,0,0,0,0,0,0
1684060812.60044813,111428744,1537,1540,1609,1609,0,0,0,0,0,0,0,0,0,0
1684060812.70040798,111528704,1543,1546,1604,1604,0,0,0,0,0,0,0,0,0,0
1684060812.80036807,111628664,1552,1553,1599,1598,0,0,0,0,0,0,0,0,0,0
1684060812.90032816,111728624,1560,1560,1592,1591,0,0,0,0,0,0,0,0,0,0
1684060813.00028801,111828584,1567,1567,1585,1583,0,0,0,0,0,0,0,0,0,0
1684060813.10024810,111928544,1574,1573,1579,1578,0,0,0,0,0,0,0,0,0,0
1684060813.20020795,112028504,1579,1579,1573,1572,0,0,0,0,0,0,0,0,0,0
1684060813.30016804,112128464,1584,1583,1570,1570,0,0,0,0,0,0,0,0,0,0
1684060813.40012813,112228424,1586,1585,1568,1568,0,0,0,0,0,0,0,0,0,0
1684060813.50008798,112328384,1588,1587,1568,1568,0,0,0,0,0,0,0,0,0,0
1684060813.60004807,112428344,1587,1586,1569,1569,0,0,0,0,0,0,0,0,0,0
1684060813.70000815,112528304,1585,1584,1570,1570,0,0,0,0,0,0,0,0,0,0
1684060813.79996800,112628264,1582,1581,1572,1572,0,0,0,0,0,0,0,0,0,0
1684060813.89992809,112728224,1580,1580,1575,1575,0,0,0,0,0,0,0,0,0,0
1684060813.99988794,112828184,1577,1578,1578,1578,0,0,0,0,0,0,0,0,0,0
1684060814.10068107,112928977,1576,1577,1581,1581,0,0,0,0,0,0,0,0,0,0
1684060814.20064116,113028937,1574,1575,1583,1582,0,0,0,0,0,0,0,0,0,0
1684060814.30060101,113128897,1573,1573,1583,1583,0,0,0,0,0,0,0,0,0,0
1684060814.40056109,113228857,1573,1573,1583,1584,0,0,0,0,0,0,0,0,0,0
1684060814.50052094,113328817,1574,1574,1584,1584,0,0,0,0,0,0,0,0,0,0
1684060814.60048103,113428777,1575,1575,1584,1583,0,0,0,0,0,0,0,0,0,0
1684060814.70044112,113528737,1575,1575,1582,1581,0,0,0,0,0,0,0,0,0,0
1684060814.80040097,113628697,1576,1577,1581,1581,0,0,0,0,0,0,0,0,0,0
1684060814.90036106,113728657,1578,1578,1580,1580,0,0,0,0,0,0,0,0,0,0
1684060815.00032115,113828617,1579,1578,1578,1579,0,0,0,0,0,0,0,0,0,0
1684060815.10028100,113928577,1579,1580,1578,1578,0,0,0,0,0,0,0,0,0,0
1684060815.20024109,114028537,1580,1580,1577,1577,0,0,0,0,0,0,0,0,0,0
1684060815.30020094,114128497,1582,1582,1578,1578,0,0,0,0,0,0,0,0,0,0
1684060815.40016103,114228457,1582,1581,1578,1577,0,0,0,0,0,0,0,0,0,0
1684060815.50012112,114328417,1581,1581,1578,1578,0,0,0,0,0,0,0,0,0,0
1684060815.60008097,114428377,1581,1581,1578,1578,0,0,0,0,0,0,0,0,0,0
1684060815.70004106,114528337,1582,1581,1579,1579,0,0,0,0,0,0,0,0,0,0
1684060815.80000114,114628297,1581,1581,1580,1580,0,0,0,0,0,0,0,0,0,0
1684060815.89996099,114728257,1581,1581,1581,1580,0,0,0,0,0,0,0,0,0,0
1684060815.99992108,114828217,1581,1581,1581,1581,0,0,0,0,0,0,0,0,0,0
1684060816.09988117,114928177,1580,1581,1581,1582,0,0,0,0,0,0,0,0,0,0
1684060816.20067406,115028970,1579,1579,1580,1581,0,0,0,0,0,0,0,0,0,0
1684060816.30063415,115128930,1579,1579,1580,1581,0,0,0,0,0,0,0,0,0,0
1684060816.40059400,115228890,1580,1580,1582,1582,0,0,0,0,0,0,0,0,0,0
1684060816.50055408,115328850,1580,1579,1581,1581,0,0,0,0,0,0,0,0,0,0
1684060816.60051394,115428810,1580,1580,1581,1581,0,0,0,0,0,0,0,0,0,0
1684060816.70047402,115528770,1580,1580,1581,1581,0,0,0,0,0,0,0,0,0,0
1684060816.80043411,115628730,1581,1581,1581,1581,0,0,0,0,0,0,0,0,0,0
1684060816.90039396,115728690,1581,1582,1581,1581,0,0,0,0,0,0,0,0,0,0
1684060817.00035405,115828650,1579,1580,1585,1571,0,0,0,0,0,0,0,0,0,0
1684060817.10031414,115928610,1580,1580,1584,1572,0,0,0,0,0,0,0,0,0,0
1684060817.20027399,116028570,1579,1578,1578,1575,0,0,0,0,0,0,0,0,0,0
1684060817.30023408,116128530,1575,1574,1571,1575,0,0,0,0,0,0,0,0,0,0
1684060817.40019417,116228490,1572,1571,1566,1573,0,0,0,0,0,0,0,0,0,0
1684060817.50015402,116328450,1569,1569,1564,1571,0,0,0,0,0,0,0,0,0,0
1684060817.60011411,116428410,1568,1567,1565,1568,0,0,0,0,0,0,0,0,0,0
1684060817.70007396,116528370,1567,1567,1566,1567,0,0,0,0,0,0,0,0,0,0
1684060817.80003405,116628330,1565,1566,1567,1565,0,0,0,0,0,0,0,0,0,0
1684060817.89999413,116728290,1567,1567,1569,1566,0,0,0,0,0,0,0,0,0,0
1684060817.99995399,116828250,1566,1566,1568,1565,0,0,0,0,0,0,0,0,0,0
1684060818.09991407,116928210,1565,1565,1567,1565,0,0,0,0,0,0,0,0,0,0
1684060818.19987416,117028170,1565,1565,1566,1565,0,0,0,0,0,0,0,0,0,0
1684060818.30066705,117128963,1563,1563,1564,1564,0,0,0,0,0,0,0,0,0,0
1684060818.40062714,117228923,1562,1562,1563,1563,0,0,0,0,0,0,0,0,0,0
1684060818.50058699,117328883,1562,1562,1562,1563,0,0,0,0,0,0,0,0,0,0
1684060818.60054708,117428843,1562,1563,1563,1563,0,0,0,0,0,0,0,0,0,0
1684060818.70050716,117528803,1562,1562,1562,1562,0,0,0,0,0,0,0,0,0,0
1684060818.80046701,117628763,1561,1561,1562,1560,0,0,0,0,0,0,0,0,0,0
1684060818.90042710,117728723,1560,1560,1560,1559,0,0,0,0,0,0,0,0,0,0
1684060819.00038695,117828683,1560,1559,1559,1558,0,0,0,0,0,0,0,0,0,0
1684060819.10034704,117928643,1559,1558,1559,1558,0,0,0,0,0,0,0,0,0,0
1684060819.20030713,118028603,1559,1559,1559,1558,0,0,0,0,0,0,0,0,0,0
1684060819.30026698,118128563,1557,1557,1551,1562,0,0,0,0,0,0,0,0,0,0
1684060819.40022707,118228523,1555,1554,1569,1539,0,0,0,0,0,0,0,0,0,0
1684060819.50018716,118328483,1551,1550,1561,1539,0,0,0,0,0,0,0,0,0,0
1684060819.60014701,118428443,1545,1545,1548,1542,0,0,0,0,0,0,0,0,0,0
1684060819.70010710,118528403,1540,1540,1536,1544,0,0,0,0,0,0,0,0,0,0
1684060819.80006695,118628363,1534,1535,1527,1541,0,0,0,0,0,0,0,0,0,0
1684060819.90002704,118728323,1528,1528,1520,1534,0,0,0,0,0,0,0,0,0,0
1684060819.99998713,118828283,1524,1524,1518,1527,0,0,0,0,0,0,0,0,0,0
1684060820.09994698,118928243,1522,1522,1519,1524,0,0,0,0,0,0,0,0,0,0
1684060820.19990706,119028203,1522,1522,1523,1522,0,0,0,0,0,0,0,0,0,0
1684060820.29986715,119128163,1524,1524,1525,1523,0,0,0,0,0,0,0,0,0,0
1684060820.40066004,119228956,1525,1525,1527,1524,0,0,0,0,0,0,0,0,0,0
1684060820.50062013,119328916,1530,1530,1532,1531,0,0,0,0,0,0,0,0,0,0
1684060820.60057998,119428876,1535,1534,1536,1536,0,0,0,0,0,0,0,0,0,0
1684060820.70054007,119528836,1539,1538,1539,1541,0,0,0,0,0,0,0,0,0,0
1684060820.80050015,119628796,1542,1542,1542,1544,0,0,0,0,0,0,0,0,0,0
1684060820.90046000,119728756,1544,1543,1544,1545,0,0,0,0,0,0,0,0,0,0
1684060821.00042009,119828716,1545,1545,1544,1546,0,0,0,0,0,0,0,0,0,0
1684060821.10037994,119928676,1546,1546,1546,1546,0,0,0,0,0,0,0,0,0,0
1684060821.20034003,120028636,1546,1546,1546,1546,0,0,0,0,0,0,0,0,0,0
1684060821.30030012,120128596,1546,1547,1545,1545,0,0,0,0,0,0,0,0,0,0
1684060821.40025997,120228556,1547,1547,1546,1546,0,0,0,0,0,0,0,0,0,0
1684060821.50022006,120328516,1546,1547,1546,1545,0,0,0,0,0,0,0,0,0,0
1684060821.60018015,120428476,1547,1548,1547,1547,0,0,0,0,0,0,0,0,0,0
1684060821.70014000,120528436,1547,1547,1546,1546,0,0,0,0,0,0,0,0,0,0
1684060821.80010009,120628396,1545,1546,1545,1545,0,0,0,0,0,0,0,0,0,0
1684060821.90005994,120728356,1546,1546,1546,1546,0,0,0,0,0,0,0,0,0,0
1684060822.00002003,120828316,1545,1546,1545,1545,0,0,0,0,0,0,0,0,0,0
1684060822.09998012,120928276,1546,1545,1546,1545,0,0,0,0,0,0,0,0,0,0
1684060822.19993997,121028236,1545,1545,1545,1545,0,0,0,0,0,0,0,0,0,0
1684060822.29990005,121128196,1544,1544,1545,1545,0,0,0,0,0,0,0,0,0,0
1684060822.39986014,121228156,1545,1545,1545,1545,0,0,0,0,0,0,0,0,0,0
1684060822.50065303,121328949,1544,1545,1545,1545,0,0,0,0,0,0,0,0,0,0
1684060822.60061312,121428909,1544,1544,1545,1545,0,0,0,0,0,0,0,0,0,0
1684060822.70057297,121528869,1543,1543,1544,1543,0,0,0,0,0,0,0,0,0,0
1684060822.80053306,121628829,1544,1544,1544,1544,0,0,0,0,0,0,0,0,0,0
1684060822.90049314,121728789,1543,1543,1544,1543,0,0,0,0,0,0,0,0,0,0
1684060823.00045300,121828749,1545,1545,1545,1545,0,0,0,0,0,0,0,0,0,0
1684060823.10041308,121928709,1545,1544,1544,1544,0,0,0,0,0,0,0,0,0,0
1684060823.20037317,122028669,1544,1544,1544,1544,0,0,0,0,0,0,0,0,0,0
1684060823.30033302,122128629,1543,1544,1543,1543,0,0,0,0,0,0,0,0,0,0
1684060823.40029311,122228589,1544,1545,1544,1544,0,0,0,0,0,0,0,0,0,0
1684060823.50025296,122328549,1544,1544,1544,1544,0,0,0,0,0,0,0,0,0,0
1684060823.60021305,122428509,1544,1544,1544,1543,0,0,0,0,0,0,0,0,0,0
1684060823.70017314,122528469,1544,1544,1544,1544,0,0,0,0,0,0,0,0,0,0
1684060823.80013299,122628429,1544,1544,1544,1544,0,0,0,0,0,0,0,0,0,0
1684060823.90009308,122728389,1544,1544,1543,1544,0,0,0,0,0,0,0,0,0,0
1684060824.00005317,122828349,1544,1544,1544,1544,0,0,0,0,0,0,0,0,0,0
1684060824.10001302,122928309,1544,1544,1544,1544,0,0,0,0,0,0,0,0,0,0
1684060824.19997311,123028269,1543,1544,1544,1544,0,0,0,0,0,0,0,0,0,0
1684060824.29993296,123128229,1544,1544,1543,1544,0,0,0,0,0,0,0,0,0,0
1684060824.39989305,123228189,1543,1544,1543,1543,0,0,0,0,0,0,0,0,0,0
1684060824.50068617,123328982,1544,1544,1544,1544,0,0,0,0,0,0,0,0,0,0
1684060824.60064602,123428942,1544,1544,1544,1544,0,0,0,0,0,0,0,0,0,0
1684060824.70060611,123528902,1544,1544,1544,1544,0,0,0,0,0,0,0,0,0,0
1684060824.80056596,123628862,1544,1544,1544,1544,0,0,0,0,0,0,0,0,0,0
1684060824.90052605,123728822,1545,1544,1545,1544,0,0,0,0,0,0,0,0,0,0
1684060825.00048614,123828782,1544,1545,1544,1545,0,0,0,0,0,0,0,0,0,0
1684060825.10044599,123928742,1544,1544,1544,1544,0,0,0,0,0,0,0,0,0,0
1684060825.20040607,124028702,1544,1544,1544,1544,0,0,0,0,0,0,0,0,0,0
1684060825.30036616,124128662,1544,1544,1544,1544,0,0,0,0,0,0,0,0,0,0
1684060825.40032601,124228622,1544,1544,1544,1544,0,0,0,0,0,0,0,0,0,0
1684060825.50028610,124328582,1544,1544,1544,1544,0,0,0,0,0,0,0,0,0,0
1684060825.60024595,124428542,1543,1544,1544,1543,0,0,0,0,0,0,0,0,0,0
1684060825.70020604,124528502,1544,1544,1543,1544,0,0,0,0,0,0,0,0,0,0
1684060825.80016613,124628462,1544,1544,1544,1545,0,0,0,0,0,0,0,0,0,0
1684060825.90012598,124728422,1544,1543,1543,1544,0,0,0,0,0,0,0,0,0,0
1684060826.00008607,124828382,1545,1545,1545,1545,0,0,0,0,0,0,0,0,0,0
1684060826.10004616,124928342,1544,1544,1544,1544,0,0,0,0,0,0,0,0,0,0
1684060826.20000601,125028302,1544,1545,1544,1544,0,0,0,0,0,0,0,0,0,0
1684060826.29996610,125128262,1544,1544,1544,1544,0,0,0,0,0,0,0,0,0,0
1684060826.39992595,125228222,1544,1545,1545,1544,0,0,0,0,0,0,0,0,0,0
1684060826.49988604,125328182,1545,1544,1544,1545,0,0,0,0,0,0,0,0,0,0
1684060826.60067916,125428975,1544,1544,1544,1544,0,0,0,0,0,0,0,0,0,0
1684060826.70063901,125528935,1544,1543,1543,1544,0,0,0,0,0,0,0,0,0,0
1684060826.80059910,125628895,1544,1544,1544,1544,0,0,0,0,0,0,0,0,0,0
1684060826.90055895,125728855,1544,1544,1544,1544,0,0,0,0,0,0,0,0,0,0
1684060827.00051904,125828815,1544,1544,1544,1544,0,0,0,0,0,0,0,0,0,0
1684060827.10047913,125928775,1545,1544,1545,1545,0,0,0,0,0,0,0,0,0,0
1684060827.20043898,126028735,1544,1544,1544,1544,0,0,0,0,0,0,0,0,0,0
1684060827.30039907,126128695,1544,1544,1544,1544,0,0,0,0,0,0,0,0,0,0
1684060827.40035915,126228655,1543,1543,1543,1543,0,0,0,0,0,0,0,0,0,0
1684060827.50031900,126328615,1544,1544,1543,1544,0,0,0,0,0,0,0,0,0,0
1684060827.60027909,126428575,1543,1543,1543,1543,0,0,0,0,0,0,0,0,0,0
1684060827.70023894,126528535,1544,1544,1544,1544,0,0,0,0,0,0,0,0,0,0
1684060827.80019903,126628495,1544,1544,1544,1544,0,0,0,0,0,0,0,0,0,0
1684060827.90015912,126728455,1544,1543,1543,1544,0,0,0,0,0,0,0,0,0,0
1684060828.00011897,126828415,1543,1544,1544,1544,0,0,0,0,0,0,0,0,0,0
1684060828.10007906,126928375,1545,1544,1545,1545,0,0,0,0,0,0,0,0,0,0
1684060828.20003915,127028335,1544,1544,1544,1544,0,0,0,0,0,0,0,0,0,0
1684060828.29999900,127128295,1544,1544,1544,1544,0,0,0,0,0,0,0,0,0,0
1684060828.39995909,127228255,1544,1545,1545,1544,0,0,0,0,0,0,0,0,0,0
1684060828.49991894,127328215,1544,1545,1545,1544,0,0,0,0,0,0,0,0,0,0
1684060828.59987903,127428175,1544,1545,1544,1545,0,0,0,0,0,0,0,0,0,0
1684060828.70067215,127528968,1544,1544,1544,1544,0,0,0,0,0,0,0,0,0,0
1684060828.80063200,127628928,1545,1544,1544,1544,0,0,0,0,0,0,0,0,0,0
1684060828.90059209,127728888,1545,1544,1544,1544,0,0,0,0,0,0,0,0,0,0
1684060829.00055194,127828848,1544,1545,1545,1544,0,0,0,0,0,0,0,0,0,0
1684060829.10051203,127928808,1544,1544,1544,1544,0,0,0,0,0,0,0,0,0,0
1684060829.20047212,128028768,1544,1544,1544,1544,0,0,0,0,0,0,0,0,0,0
1684060829.30043197,128128728,1544,1544,1544,1544,0,0,0,0,0,0,0,0,0,0
1684060829.40039206,128228688,1544,1545,1545,1544,0,0,0,0,0,0,0,0,0,0
1684060829.50035214,128328648,1545,1545,1545,1545,0,0,0,0,0,0,0,0,0,0
1684060829.60031199,128428608,1544,1545,1545,1545,0,0,0,0,0,0,0,0,0,0
1684060829.70027208,128528568,1534,1534,1534,1532,0,0,0,0,0,0,0,0,0,0
1684060829.80023217,128628528,1361,1362,1345,1343,0,0,0,0,0,0,0,0,0,0
1684060829.90019202,128728488,1275,1275,1245,1244,0,0,0,0,0,0,0,0,0,0
1684060830.00015211,128828448,1247,1248,1213,1211,0,0,0,0,0,0,0,0,0,0
1684060830.10011196,128928408,1227,1228,1189,1188,0,0,0,0,0,0,0,0,0,0
1684060830.20007205,129028368,1196,1199,1153,1150,0,0,0,0,0,0,0,0,0,0
1684060830.30003214,129128328,1196,1198,1152,1150,0,0,0,0,0,0,0,0,0,0
1684060830.39999199,129228288,1196,1199,1154,1150,0,0,0,0,0,0,0,0,0,0
1684060830.49995208,129328248,1225,1195,1150,1184,0,0,0,0,0,0,0,0,0,0
1684060830.59991217,129428208,1225,1195,1150,1186,0,0,0,0,0,0,0,0,0,0
1684060830.69987202,129528168,1217,1195,1150,1175,0,0,0,0,0,0,0,0,0,0
1684060830.80066514,129628961,1215,1195,1150,1173,0,0,0,0,0,0,0,0,0,0
1684060830.90062499,129728921,1217,1195,1150,1176,0,0,0,0,0,0,0,0,0,0
1684060831.00058508,129828881,1219,1195,1150,1178,0,0,0,0,0,0,0,0,0,0
1684060831.10054517,129928841,1221,1195,1150,1181,0,0,0,0,0,0,0,0,0,0
1684060831.20050502,130028801,1222,1195,1150,1183,0,0,0,0,0,0,0,0,0,0
1684060831.30046511,130128761,1204,1195,1150,1160,0,0,0,0,0,0,0,0,0,0
1684060831.40042496,130228721,1210,1195,1150,1167,0,0,0,0,0,0,0,0,0,0
1684060831.50038505,130328681,1211,1195,1150,1168,0,0,0,0,0,0,0,0,0,0
1684060831.60034513,130428641,1212,1194,1150,1169,0,0,0,0,0,0,0,0,0,0
1684060831.70030499,130528601,1212,1194,1150,1170,0,0,0,0,0,0,0,0,0,0
1684060831.80026507,130628561,1000,1000,1000,1000,0,0,0,0,0,0,0,0,0,0
1684060831.90022516,130728521,1000,1000,1000,1000,0,0,0,0,0,0,0,0,0,0
1684060832.00018501,130828481,1000,1000,1000,1000,0,0,0,0,0,0,0,0,0,0
1684060832.10014510,130928441,1000,1000,1000,1000,0,0,0,0,0,0,0,0,0,0
1684060832.20010495,131028401,1000,1000,1000,1000,0,0,0,0,0,0,0,0,0,0
1684060832.30006504,131128361,1000,1000,1000,1000,0,0,0,0,0,0,0,0,0,0
1684060832.40002513,131228321,1000,1000,1000,1000,0,0,0,0,0,0,0,0,0,0
1684060832.49998498,131328281,1000,1000,1000,1000,0,0,0,0,0,0,0,0,0,0
1684060832.59994507,131428241,1000,1000,1000,1000,0,0,0,0,0,0,0,0,0,0
1684060832.69990516,131528201,1000,1000,1000,1000,0,0,0,0,0,0,0,0,0,0
1684060832.79986501,131628161,1000,1000,1000,1000,0,0,0,0,0,0,0,0,0,0
1684060832.90065813,131728954,1000,1000,1000,1000,0,0,0,0,0,0,0,0,0,0
1684060833.00061798,131828914,1000,1000,1000,1000,0,0,0,0,0,0,0,0,0,0
1684060833.10057807,131928874,1000,1000,1000,1000,0,0,0,0,0,0,0,0,0,0
1684060833.20053816,132028834,1000,1000,1000,1000,0,0,0,0,0,0,0,0,0,0
1684060833.30049801,132128794,1000,1000,1000,1000,0,0,0,0,0,0,0,0,0,0
1684060833.40045810,132228754,1000,1000,1000,1000,0,0,0,0,0,0,0,0,0,0
1684060833.50041795,132328714,1000,1000,1000,1000,0,0,0,0,0,0,0,0,0,0
1684060833.60037804,132428674,1000,1000,1000,1000,0,0,0,0,0,0,0,0,0,0
1684060833.70033813,132528634,1000,1000,1000,1000,0,0,0,0,0,0,0,0,0,0
1684060833.80029798,132628594,1000,1000,1000,1000,0,0,0,0,0,0,0,0,0,0
1684060833.90025806,132728554,1000,1000,1000,1000,0,0,0,0,0,0,0,0,0,0
1684060834.00021815,132828514,1000,1000,1000,1000,0,0,0,0,0,0,0,0,0,0
1684060834.10017800,132928474,1000,1000,1000,1000,0,0,0,0,0,0,0,0,0,0
1684060834.20013809,133028434,1000,1000,1000,1000,0,0,0,0,0,0,0,0,0,0
1684060834.30009794,133128394,1000,1000,1000,1000,0,0,0,0,0,0,0,0,0,0
1684060834.40005803,133228354,1000,1000,1000,1000,0,0,0,0,0,0,0,0,0,0
1684060834.50001812,133328314,1000,1000,1000,1000,0,0,0,0,0,0,0,0,0,0
1684060834.59997797,133428274,1000,1000,1000,1000,0,0,0,0,0,0,0,0,0,0
1684060834.69993806,133528234,1000,1000,1000,1000,0,0,0,0,0,0,0,0,0,0
1684060834.79989815,133628194,1000,1000,1000,1000,0,0,0,0,0,0,0,0,0,0
1684060834.89985800,133728154,1000,1000,1000,1000,0,0,0,0,0,0,0,0,0,0
1684060835.00065112,133828947,1000,1000,1000,1000,0,0,0,0,0,0,0,0,0,0
1684060835.10061097,133928907,1000,1000,1000,1000,0,0,0,0,0,0,0,0,0,0
1684060835.20057106,134028867,1000,1000,1000,1000,0,0,0,0,0,0,0,0,0,0
1684060835.30053115,134128827,1000,1000,1000,1000,0,0,0,0,0,0,0,0,0,0
1684060835.40049100,134228787,1000,1000,1000,1000,0,0,0,0,0,0,0,0,0,0
1684060835.50045109,134328747,1000,1000,1000,1000,0,0,0,0,0,0,0,0,0,0
1684060835.60041094,134428707,1000,1000,1000,1000,0,0,0,0,0,0,0,0,0,0
1684060835.70037103,134528667,1000,1000,1000,1000,0,0,0,0,0,0,0,0,0,0
1684060835.80033112,134628627,1000,1000,1000,1000,0,0,0,0,0,0,0,0,0,0
1684060835.90029097,134728587,1000,1000,1000,1000,0,0,0,0,0,0,0,0,0,0
1684060836.00025105,134828547,1000,1000,1000,1000,0,0,0,0,0,0,0,0,0,0
1684060836.10021114,134928507,1000,1000,1000,1000,0,0,0,0,0,0,0,0,0,0
1684060836.20017099,135028467,1000,1000,1000,1000,0,0,0,0,0,0,0,0,0,0
1684060836.30013108,135128427,1000,1000,1000,1000,0,0,0,0,0,0,0,0,0,0
1684060836.40009117,135228387,1000,1000,1000,1000,0,0,0,0,0,0,0,0,0,0
1684060836.50005102,135328347,1000,1000,1000,1000,0,0,0,0,0,0,0,0,0,0
1684060836.60001111,135428307,1000,1000,1000,1000,0,0,0,0,0,0,0,0,0,0
1684060836.69997096,135528267,1000,1000,1000,1000,0,0,0,0,0,0,0,0,0,0
1684060836.79993105,135628227,1000,1000,1000,1000,0,0,0,0,0,0,0,0,0,0
1684060836.89989114,135728187,1000,1000,1000,1000,0,0,0,0,0,0,0,0,0,0
1684060837.00068402,135828980,1000,1000,1000,1000,0,0,0,0,0,0,0,0,0,0
1684060837.10064411,135928940,1000,1000,1000,1000,0,0,0,0,0,0,0,0,0,0
1684060837.20060396,136028900,1000,1000,1000,1000,0,0,0,0,0,0,0,0,0,0
1684060837.30056405,136128860,1000,1000,1000,1000,0,0,0,0,0,0,0,0,0,0
1684060837.40052414,136228820,1000,1000,1000,1000,0,0,0,0,0,0,0,0,0,0
1684060837.50048399,136328780,1000,1000,1000,1000,0,0,0,0,0,0,0,0,0,0
1684060837.60044408,136428740,1000,1000,1000,1000,0,0,0,0,0,0,0,0,0,0
1684060837.70040417,136528700,1000,1000,1000,1000,0,0,0,0,0,0,0,0,0,0
1684060837.80036402,136628660,1000,1000,1000,1000,0,0,0,0,0,0,0,0,0,0
1684060837.90032411,136728620,1000,1000,1000,1000,0,0,0,0,0,0,0,0,0,0
1684060838.00028396,136828580,1000,1000,1000,1000,0,0,0,0,0,0,0,0,0,0
1684060838.10024405,136928540,1000,1000,1000,1000,0,0,0,0,0,0,0,0,0,0
1684060838.20020413,137028500,1000,1000,1000,1000,0,0,0,0,0,0,0,0,0,0
1684060838.30016398,137128460,1000,1000,1000,1000,0,0,0,0,0,0,0,0,0,0
1684060838.40012407,137228420,1000,1000,1000,1000,0,0,0,0,0,0,0,0,0,0
1684060838.50008416,137328380,1000,1000,1000,1000,0,0,0,0,0,0,0,0,0,0
1684060838.60004401,137428340,1000,1000,1000,1000,0,0,0,0,0,0,0,0,0,0
1684060838.70000410,137528300,1000,1000,1000,1000,0,0,0,0,0,0,0,0,0,0
1684060838.79996395,137628260,1000,1000,1000,1000,0,0,0,0,0,0,0,0,0,0
1684060838.89992404,137728220,1000,1000,1000,1000,0,0,0,0,0,0,0,0,0,0
1684060838.99988413,137828180,1000,1000,1000,1000,0,0,0,0,0,0,0,0,0,0
1684060839.10067701,137928973,1000,1000,1000,1000,0,0,0,0,0,0,0,0,0,0
1684060839.20063710,138028933,1000,1000,1000,1000,0,0,0,0,0,0,0,0,0,0
1684060839.30059695,138128893,1000,1000,1000,1000,0,0,0,0,0,0,0,0,0,0
1684060839.40055704,138228853,1000,1000,1000,1000,0,0,0,0,0,0,0,0,0,0
1684060839.50051713,138328813,1000,1000,1000,1000,0,0,0,0,0,0,0,0,0,0
1684060839.60047698,138428773,1000,1000,1000,1000,0,0,0,0,0,0,0,0,0,0
1684060839.70043707,138528733,1000,1000,1000,1000,0,0,0,0,0,0,0,0,0,0
1684060839.80039716,138628693,1000,1000,1000,1000,0,0,0,0,0,0,0,0,0,0
1684060839.90035701,138728653,1000,1000,1000,1000,0,0,0,0,0,0,0,0,0,0
1684060840.00031710,138828613,1000,1000,1000,1000,0,0,0,0,0,0,0,0,0,0
1684060840.10027695,138928573,1000,1000,1000,1000,0,0,0,0,0,0,0,0,0,0
1684060840.20023704,139028533,1000,1000,1000,1000,0,0,0,0,0,0,0,0,0,0
1684060840.30019712,139128493,1000,1000,1000,1000,0,0,0,0,0,0,0,0,0,0
1684060840.40015697,139228453,1000,1000,1000,1000,0,0,0,0,0,0,0,0,0,0
1684060840.50011706,139328413,1000,1000,1000,1000,0,0,0,0,0,0,0,0,0,0
1684060840.60007715,139428373,1000,1000,1000,1000,0,0,0,0,0,0,0,0,0,0
1684060840.70003700,139528333,1000,1000,1000,1000,0,0,0,0,0,0,0,0,0,0
1684060840.79999709,139628293,1000,1000,1000,1000,0,0,0,0,0,0,0,0,0,0
1684060840.89995694,139728253,1000,1000,1000,1000,0,0,0,0,0,0,0,0,0,0
1684060840.99991703,139828213,1000,1000,1000,1000,0,0,0,0,0,0,0,0,0,0
1684060841.09987712,139928173,1000,1000,1000,1000,0,0,0,0,0,0,0,0,0,0
1684060841.20067000,140028966,1000,1000,1000,1000,0,0,0,0,0,0,0,0,0,0
1684060841.30063009,140128926,1000,1000,1000,1000,0,0,0,0,0,0,0,0,0,0
1684060841.40058994,140228886,1000,1000,1000,1000,0,0,0,0,0,0,0,0,0,0
1684060841.50055003,140328846,1000,1000,1000,1000,0,0,0,0,0,0,0,0,0,0
1684060841.60051012,140428806,1000,1000,1000,1000,0,0,0,0,0,0,0,0,0,0
1684060841.70046997,140528766,1000,1000,1000,1000,0,0,0,0,0,0,0,0,0,0
1684060841.80043006,140628726,1000,1000,1000,1000,0,0,0,0,0,0,0,0,0,0
1684060841.90039015,140728686,1000,1000,1000,1000,0,0,0,0,0,0,0,0,0,0
1684060842.00035000,140828646,1000,1000,1000,1000,0,0,0,0,0,0,0,0,0,0
1684060842.10031009,140928606,1000,1000,1000,1000,0,0,0,0,0,0,0,0,0,0
1684060842.20026994,141028566,1000,1000,1000,1000,0,0,0,0,0,0,0,0,0,0
1684060842.30023003,141128526,1000,1000,1000,1000,0,0,0,0,0,0,0,0,0,0
1684060842.40019011,141228486,1000,1000,1000,1000,0,0,0,0,0,0,0,0,0,0
1684060842.50014997,141328446,1000,1000,1000,1000,0,0,0,0,0,0,0,0,0,0
1684060842.60011005,141428406,1000,1000,1000,1000,0,0,0,0,0,0,0,0,0,0
1684060842.70007014,141528366,1000,1000,1000,1000,0,0,0,0,0,0,0,0,0,0
1684060842.80002999,141628326,1000,1000,1000,1000,0,0,0,0,0,0,0,0,0,0
1684060842.89999008,141728286,1000,1000,1000,1000,0,0,0,0,0,0,0,0,0,0
1684060842.99995017,141828246,1000,1000,1000,1000,0,0,0,0,0,0,0,0,0,0
1684060843.09991002,141928206,1000,1000,1000,1000,0,0,0,0,0,0,0,0,0,0
1684060843.19987011,142028166,1000,1000,1000,1000,0,0,0,0,0,0,0,0,0,0
1684060843.30066299,142128959,1000,1000,1000,1000,0,0,0,0,0,0,0,0,0,0
1684060843.40062308,142228919,1000,1000,1000,1000,0,0,0,0,0,0,0,0,0,0
1684060843.50058317,142328879,1000,1000,1000,1000,0,0,0,0,0,0,0,0,0,0
1684060843.60054302,142428839,1000,1000,1000,1000,0,0,0,0,0,0,0,0,0,0
1684060843.70050311,142528799,1000,1000,1000,1000,0,0,0,0,0,0,0,0,0,0
1684060843.80046296,142628759,1000,1000,1000,1000,0,0,0,0,0,0,0,0,0,0
1684060843.90042305,142728719,1000,1000,1000,1000,0,0,0,0,0,0,0,0,0,0
1684060844.00038314,142828679,1000,1000,1000,1000,0,0,0,0,0,0,0,0,0,0
1684060844.10034299,142928639,1000,1000,1000,1000,0,0,0,0,0,0,0,0,0,0
1684060844.20030308,143028599,1000,1000,1000,1000,0,0,0,0,0,0,0,0,0,0
1684060844.30026317,143128559,1000,1000,1000,1000,0,0,0,0,0,0,0,0,0,0
1684060844.40022302,143228519,1000,1000,1000,1000,0,0,0,0,0,0,0,0,0,0
1684060844.50018311,143328479,1000,1000,1000,1000,0,0,0,0,0,0,0,0,0,0
1684060844.60014296,143428439,1000,1000,1000,1000,0,0,0,0,0,0,0,0,0,0
1684060844.70010304,143528399,1000,1000,1000,1000,0,0,0,0,0,0,0,0,0,0
1684060844.80006313,143628359,1000,1000,1000,1000,0,0,0,0,0,0,0,0,0,0
1684060844.90002298,143728319,1000,1000,1000,1000,0,0,0,0,0,0,0,0,0,0
1684060844.99998307,143828279,1000,1000,1000,1000,0,0,0,0,0,0,0,0,0,0
1684060845.09994316,143928239,1000,1000,1000,1000,0,0,0,0,0,0,0,0,0,0
1684060845.19990301,144028199,1000,1000,1000,1000,0,0,0,0,0,0,0,0,0,0
1684060845.29986310,144128159,1000,1000,1000,1000,0,0,0,0,0,0,0,0,0,0
1684060845.40065598,144228952,1000,1000,1000,1000,0,0,0,0,0,0,0,0,0,0
1684060845.50061607,144328912,1000,1000,1000,1000,0,0,0,0,0,0,0,0,0,0
1684060845.60057616,144428872,1000,1000,1000,1000,0,0,0,0,0,0,0,0,0,0
1684060845.70053601,144528832,1000,1000,1000,1000,0,0,0,0,0,0,0,0,0,0
1684060845.80049610,144628792,1000,1000,1000,1000,0,0,0,0,0,0,0,0,0,0
1684060845.90045595,144728752,1000,1000,1000,1000,0,0,0,0,0,0,0,0,0,0
1684060846.00041604,144828712,1000,1000,1000,1000,0,0,0,0,0,0,0,0,0,0
1684060846.10037613,144928672,1000,1000,1000,1000,0,0,0,0,0,0,0,0,0,0
1684060846.20033598,145028632,1000,1000,1000,1000,0,0,0,0,0,0,0,0,0,0
1684060846.30029607,145128592,1000,1000,1000,1000,0,0,0,0,0,0,0,0,0,0
1684060846.40025616,145228552,1000,1000,1000,1000,0,0,0,0,0,0,0,0,0,0
1684060846.50021601,145328512,1000,1000,1000,1000,0,0,0,0,0,0,0,0,0,0
1684060846.60017610,145428472,1000,1000,1000,1000,0,0,0,0,0,0,0,0,0,0
1684060846.70013595,145528432,1000,1000,1000,1000,0,0,0,0,0,0,0,0,0,0
