timestamp,TimeUS,C1,C2,C3,C4,C5,C6,C7,C8,C9,C10,C11,C12,C13,C14
1684064612.10003996,43328495,1000,1000,1000,1000,0,0,0,0,0,0,0,0,0,0
1684064612.20000005,43428455,1000,1000,1000,1000,0,0,0,0,0,0,0,0,0,0
1684064612.29995990,43528415,1000,1000,1000,1000,0,0,0,0,0,0,0,0,0,0
1684064612.39991999,43628375,1000,1000,1000,1000,0,0,0,0,0,0,0,0,0,0
1684064612.49987984,43728335,1000,1000,1000,1000,0,0,0,0,0,0,0,0,0,0
1684064612.59983993,43828295,1000,1000,1000,1000,0,0,0,0,0,0,0,0,0,0
1684064612.69980001,43928255,1000,1000,1000,1000,0,0,0,0,0,0,0,0,0,0
1684064612.79975986,44028215,1000,1000,1000,1000,0,0,0,0,0,0,0,0,0,0
1684064612.89971995,44128175,1000,1000,1000,1000,0,0,0,0,0,0,0,0,0,0
1684064613.00051284,44228968,1000,1000,1000,1000,0,0,0,0,0,0,0,0,0,0
1684064613.10047293,44328928,1000,1000,1000,1000,0,0,0,0,0,0,0,0,0,0
1684064613.20043302,44428888,1000,1000,1000,1000,0,0,0,0,0,0,0,0,0,0
1684064613.30039287,44528848,1000,1000,1000,1000,0,0,0,0,0,0,0,0,0,0
1684064613.40035295,44628808,1000,1000,1000,1000,0,0,0,0,0,0,0,0,0,0
1684064613.50031304,44728768,1000,1000,1000,1000,0,0,0,0,0,0,0,0,0,0
1684064613.60027289,44828728,1000,1000,1000,1000,0,0,0,0,0,0,0,0,0,0
1684064613.70023298,44928688,1000,1000,1000,1000,0,0,0,0,0,0,0,0,0,0
1684064613.80019283,45028648,1000,1000,1000,1000,0,0,0,0,0,0,0,0,0,0
1684064613.90015292,45128608,1000,1000,1000,1000,0,0,0,0,0,0,0,0,0,0
1684064614.00011301,45228568,1000,1000,1000,1000,0,0,0,0,0,0,0,0,0,0
1684064614.10007286,45328528,1003,1003,1003,1003,0,0,0,0,0,0,0,0,0,0
1684064614.20003295,45428488,1033,1033,1033,1033,0,0,0,0,0,0,0,0,0,0
1684064614.29999304,45528448,1063,1063,1063,1063,0,0,0,0,0,0,0,0,0,0
1684064614.39995289,45628408,1093,1093,1093,1093,0,0,0,0,0,0,0,0,0,0
1684064614.49991298,45728368,1122,1122,1122,1122,0,0,0,0,0,0,0,0,0,0
1684064614.59987283,45828328,1177,1170,1171,1177,0,0,0,0,0,0,0,0,0,0
1684064614.69983292,45928288,1419,1414,1415,1419,0,0,0,0,0,0,0,0,0,0
1684064614.79979300,46028248,1594,1591,1591,1595,0,0,0,0,0,0,0,0,0,0
1684064614.89975286,46128208,1740,1736,1736,1740,0,0,0,0,0,0,0,0,0,0
1684064614.99971294,46228168,1865,1862,1862,1866,0,0,0,0,0,0,0,0,0,0
1684064615.10050583,46328961,1883,1880,1880,1884,0,0,0,0,0,0,0,0,0,0
1684064615.20046592,46428921,1794,1792,1793,1794,0,0,0,0,0,0,0,0,0,0
1684064615.30042601,46528881,1673,1673,1673,1673,0,0,0,0,0,0,0,0,0,0
1684064615.40038586,46628841,1620,1622,1622,1620,0,0,0,0,0,0,0,0,0,0
1684064615.50034595,46728801,1620,1622,1622,1620,0,0,0,0,0,0,0,0,0,0
1684064615.60030603,46828761,1632,1633,1634,1632,0,0,0,0,0,0,0,0,0,0
1684064615.70026588,46928721,1636,1636,1636,1636,0,0,0,0,0,0,0,0,0,0
1684064615.80022597,47028681,1632,1631,1631,1631,0,0,0,0,0,0,0,0,0,0
1684064615.90018582,47128641,1625,1624,1624,1625,0,0,0,0,0,0,0,0,0,0
1684064616.00014591,47228601,1618,1617,1617,1618,0,0,0,0,0,0,0,0,0,0
1684064616.10010600,47328561,1616,1615,1615,1616,0,0,0,0,0,0,0,0,0,0
1684064616.20006585,47428521,1587,1587,1587,1587,0,0,0,0,0,0,0,0,0,0
1684064616.30002594,47528481,1580,1579,1573,1586,0,0,0,0,0,0,0,0,0,0
1684064616.39998603,47628441,1576,1575,1568,1583,0,0,0,0,0,0,0,0,0,0
1684064616.49994588,47728401,1573,1573,1568,1577,0,0,0,0,0,0,0,0,0,0
1684064616.59990597,47828361,1573,1573,1573,1574,0,0,0,0,0,0,0,0,0,0
1684064616.69986582,47928321,1575,1575,1577,1573,0,0,0,0,0,0,0,0,0,0
1684064616.79982591,48028281,1578,1579,1582,1574,0,0,0,0,0,0,0,0,0,0
1684064616.89978600,48128241,1564,1564,1576,1552,0,0,0,0,0,0,0,0,0,0
1684064616.99974585,48228201,1554,1554,1566,1542,0,0,0,0,0,0,0,0,0,0
1684064617.09970593,48328161,1546,1546,1550,1543,0,0,0,0,0,0,0,0,0,0
1684064617.20049882,48428954,1537,1537,1532,1543,0,0,0,0,0,0,0,0,0,0
1684064617.30045891,48528914,1533,1533,1524,1542,0,0,0,0,0,0,0,0,0,0
1684064617.40041900,48628874,1532,1532,1523,1540,0,0,0,0,0,0,0,0,0,0
1684064617.50037885,48728834,1533,1533,1528,1538,0,0,0,0,0,0,0,0,0,0
1684064617.60033894,48828794,1534,1534,1533,1535,0,0,0,0,0,0,0,0,0,0
1684064617.70029902,48928754,1538,1538,1541,1535,0,0,0,0,0,0,0,0,0,0
1684064617.80025887,49028714,1541,1541,1545,1537,0,0,0,0,0,0,0,0,0,0
1684064617.90021896,49128674,1545,1545,1549,1541,0,0,0,0,0,0,0,0,0,0
1684064618.00017905,49228634,1548,1548,1550,1546,0,0,0,0,0,0,0,0,0,0
1684064618.10013890,49328594,1551,1550,1551,1551,0,0,0,0,0,0,0,0,0,0
1684064618.20009899,49428554,1547,1547,1557,1560,0,0,0,0,0,0,0,0,0,0
1684064618.30005884,49528514,1548,1549,1558,1562,0,0,0,0,0,0,0,0,0,0
1684064618.40001893,49628474,1553,1554,1560,1563,0,0,0,0,0,0,0,0,0,0
1684064618.49997902,49728434,1557,1557,1560,1561,0,0,0,0,0,0,0,0,0,0
1684064618.59993887,49828394,1561,1561,1561,1561,0,0,0,0,0,0,0,0,0,0
1684064618.69989896,49928354,1564,1564,1561,1560,0,0,0,0,0,0,0,0,0,0
1684064618.79985905,50028314,1567,1568,1562,1561,0,0,0,0,0,0,0,0,0,0
1684064618.89981890,50128274,1570,1569,1563,1562,0,0,0,0,0,0,0,0,0,0
1684064618.99977899,50228234,1572,1571,1564,1564,0,0,0,0,0,0,0,0,0,0
1684064619.09973884,50328194,1572,1571,1565,1565,0,0,0,0,0,0,0,0,0,0
1684064619.19969893,50428154,1573,1573,1567,1568,0,0,0,0,0,0,0,0,0,0
1684064619.30049205,50528947,1573,1573,1569,1570,0,0,0,0,0,0,0,0,0,0
1684064619.40045190,50628907,1572,1573,1570,1570,0,0,0,0,0,0,0,0,0,0
1684064619.50041199,50728867,1572,1573,1572,1573,0,0,0,0,0,0,0,0,0,0
1684064619.60037184,50828827,1573,1573,1574,1573,0,0,0,0,0,0,0,0,0,0
1684064619.70033193,50928787,1574,1574,1576,1575,0,0,0,0,0,0,0,0,0,0
1684064619.80029202,51028747,1573,1574,1577,1575,0,0,0,0,0,0,0,0,0,0
1684064619.90025187,51128707,1574,1575,1578,1576,0,0,0,0,0,0,0,0,0,0
1684064620.00021195,51228667,1575,1575,1578,1577,0,0,0,0,0,0,0,0,0,0
1684064620.10017204,51328627,1575,1575,1577,1577,0,0,0,0,0,0,0,0,0,0
1684064620.20013189,51428587,1575,1575,1576,1576,0,0,0,0,0,0,0,0,0,0
1684064620.30009198,51528547,1576,1576,1576,1576,0,0,0,0,0,0,0,0,0,0
1684064620.40005183,51628507,1576,1576,1576,1576,0,0,0,0,0,0,0,0,0,0
1684064620.50001192,51728467,1576,1576,1575,1576,0,0,0,0,0,0,0,0,0,0
1684064620.59997201,51828427,1576,1576,1575,1575,0,0,0,0,0,0,0,0,0,0
1684064620.69993186,51928387,1577,1577,1576,1576,0,0,0,0,0,0,0,0,0,0
1684064620.79989195,52028347,1577,1577,1576,1576,0,0,0,0,0,0,0,0,0,0
1684064620.89985204,52128307,1578,1578,1577,1577,0,0,0,0,0,0,0,0,0,0
1684064620.99981189,52228267,1577,1578,1577,1576,0,0,0,0,0,0,0,0,0,0
1684064621.09977198,52328227,1578,1578,1578,1577,0,0,0,0,0,0,0,0,0,0
1684064621.19973183,52428187,1578,1577,1577,1577,0,0,0,0,0,0,0,0,0,0
1684064621.30052495,52528980,1578,1577,1577,1578,0,0,0,0,0,0,0,0,0,0
1684064621.40048504,52628940,1579,1579,1579,1579,0,0,0,0,0,0,0,0,0,0
1684064621.50044489,52728900,1578,1578,1578,1579,0,0,0,0,0,0,0,0,0,0
1684064621.60040498,52828860,1578,1578,1578,1579,0,0,0,0,0,0,0,0,0,0
1684064621.70036483,52928820,1578,1578,1578,1579,0,0,0,0,0,0,0,0,0,0
1684064621.80032492,53028780,1579,1579,1579,1579,0,0,0,0,0,0,0,0,0,0
1684064621.90028501,53128740,1578,1578,1579,1579,0,0,0,0,0,0,0,0,0,0
1684064622.00024486,53228700,1579,1579,1579,1579,0,0,0,0,0,0,0,0,0,0
1684064622.10020494,53328660,1580,1580,1580,1580,0,0,0,0,0,0,0,0,0,0
1684064622.20016503,53428620,1580,1580,1580,1580,0,0,0,0,0,0,0,0,0,0
1684064622.30012488,53528580,1580,1580,1580,1580,0,0,0,0,0,0,0,0,0,0
1684064622.40008497,53628540,1580,1580,1579,1580,0,0,0,0,0,0,0,0,0,0
1684064622.50004482,53728500,1580,1580,1580,1580,0,0,0,0,0,0,0,0,0,0
1684064622.60000491,53828460,1579,1579,1579,1579,0,0,0,0,0,0,0,0,0,0
1684064622.69996500,53928420,1580,1580,1580,1580,0,0,0,0,0,0,0,0,0,0
1684064622.79992485,54028380,1579,1578,1578,1578,0,0,0,0,0,0,0,0,0,0
1684064622.89988494,54128340,1580,1580,1580,1580,0,0,0,0,0,0,0,0,0,0
1684064622.99984503,54228300,1581,1581,1581,1580,0,0,0,0,0,0,0,0,0,0
1684064623.09980488,54328260,1581,1580,1580,1580,0,0,0,0,0,0,0,0,0,0
1684064623.19976497,54428220,1581,1581,1581,1581,0,0,0,0,0,0,0,0,0,0
1684064623.29972482,54528180,1581,1581,1581,1581,0,0,0,0,0,0,0,0,0,0
1684064623.40051794,54628973,1580,1580,1580,1580,0,0,0,0,0,0,0,0,0,0
1684064623.50047803,54728933,1580,1580,1579,1580,0,0,0,0,0,0,0,0,0,0
1684064623.60043788,54828893,1580,1580,1580,1581,0,0,0,0,0,0,0,0,0,0
1684064623.70039797,54928853,1581,1581,1581,1581,0,0,0,0,0,0,0,0,0,0
1684064623.80035782,55028813,1580,1580,1581,1580,0,0,0,0,0,0,0,0,0,0
1684064623.90031791,55128773,1580,1580,1581,1581,0,0,0,0,0,0,0,0,0,0
1684064624.00027800,55228733,1581,1581,1581,1581,0,0,0,0,0,0,0,0,0,0
1684064624.10023785,55328693,1581,1581,1581,1581,0,0,0,0,0,0,0,0,0,0
1684064624.20019794,55428653,1582,1582,1582,1582,0,0,0,0,0,0,0,0,0,0
1684064624.30015802,55528613,1581,1581,1581,1581,0,0,0,0,0,0,0,0,0,0
1684064624.40011787,55628573,1581,1581,1581,1581,0,0,0,0,0,0,0,0,0,0
1684064624.50007796,55728533,1582,1582,1588,1575,0,0,0,0,0,0,0,0,0,0
1684064624.60003805,55828493,1581,1583,1587,1574,0,0,0,0,0,0,0,0,0,0
1684064624.69999790,55928453,1579,1582,1578,1574,0,0,0,0,0,0,0,0,0,0
1684064624.79995799,56028413,1577,1580,1569,1572,0,0,0,0,0,0,0,0,0,0
1684064624.89991784,56128373,1576,1579,1562,1569,0,0,0,0,0,0,0,0,0,0
1684064624.99987793,56228333,1577,1577,1557,1563,0,0,0,0,0,0,0,0,0,0
1684064625.09983802,56328293,1579,1577,1555,1559,0,0,0,0,0,0,0,0,0,0
1684064625.19979787,56428253,1579,1578,1556,1557,0,0,0,0,0,0,0,0,0,0
1684064625.29975796,56528213,1578,1578,1556,1554,0,0,0,0,0,0,0,0,0,0
1684064625.39971805,56628173,1578,1577,1556,1553,0,0,0,0,0,0,0,0,0,0
1684064625.50051093,56728966,1577,1577,1556,1553,0,0,0,0,0,0,0,0,0,0
1684064625.60047102,56828926,1576,1576,1555,1554,0,0,0,0,0,0,0,0,0,0
1684064625.70043087,56928886,1575,1576,1554,1554,0,0,0,0,0,0,0,0,0,0
1684064625.80039096,57028846,1574,1576,1552,1553,0,0,0,0,0,0,0,0,0,0
1684064625.90035105,57128806,1575,1576,1552,1552,0,0,0,0,0,0,0,0,0,0
1684064626.00031090,57228766,1576,1577,1550,1550,0,0,0,0,0,0,0,0,0,0
1684064626.10027099,57328726,1577,1578,1548,1548,0,0,0,0,0,0,0,0,0,0
1684064626.20023084,57428686,1581,1581,1547,1546,0,0,0,0,0,0,0,0,0,0
1684064626.30019093,57528646,1582,1583,1543,1543,0,0,0,0,0,0,0,0,0,0
1684064626.40015101,57628606,1585,1586,1540,1540,0,0,0,0,0,0,0,0,0,0
1684064626.50011086,57728566,1588,1588,1537,1537,0,0,0,0,0,0,0,0,0,0
1684064626.60007095,57828526,1591,1592,1536,1536,0,0,0,0,0,0,0,0,0,0
1684064626.70003104,57928486,1593,1593,1534,1534,0,0,0,0,0,0,0,0,0,0
1684064626.79999089,58028446,1594,1594,1535,1535,0,0,0,0,0,0,0,0,0,0
1684064626.89995098,58128406,1594,1594,1536,1537,0,0,0,0,0,0,0,0,0,0
1684064626.99991083,58228366,1593,1593,1539,1541,0,0,0,0,0,0,0,0,0,0
1684064627.09987092,58328326,1590,1589,1543,1547,0,0,0,0,0,0,0,0,0,0
1684064627.19983101,58428286,1585,1583,1550,1554,0,0,0,0,0,0,0,0,0,0
1684064627.29979086,58528246,1578,1574,1560,1562,0,0,0,0,0,0,0,0,0,0
1684064627.39975095,58628206,1568,1564,1571,1573,0,0,0,0,0,0,0,0,0,0
1684064627.49971104,58728166,1556,1552,1582,1584,0,0,0,0,0,0,0,0,0,0
1684064627.60050392,58828959,1545,1543,1595,1595,0,0,0,0,0,0,0,0,0,0
1684064627.70046401,58928919,1536,1535,1605,1604,0,0,0,0,0,0,0,0,0,0
1684064627.80042386,59028879,1530,1531,1611,1610,0,0,0,0,0,0,0,0,0,0
1684064627.90038395,59128839,1529,1530,1615,1614,0,0,0,0,0,0,0,0,0,0
1684064628.00034404,59228799,1530,1533,1614,1613,0,0,0,0,0,0,0,0,0,0
1684064628.10030389,59328759,1535,1537,1610,1610,0,0,0,0,0,0,0,0,0,0
1684064628.20026398,59428719,1541,1544,1603,1604,0,0,0,0,0,0,0,0,0,0
1684064628.30022383,59528679,1551,1552,1597,1598,0,0,0,0,0,0,0,0,0,0
1684064628.40018392,59628639,1560,1560,1589,1590,0,0,0,0,0,0,0,0,0,0
1684064628.50014400,59728599,1568,1567,1582,1581,0,0,0,0,0,0,0,0,0,0
1684064628.60010386,59828559,1576,1575,1577,1576,0,0,0,0,0,0,0,0,0,0
1684064628.70006394,59928519,1581,1580,1571,1570,0,0,0,0,0,0,0,0,0,0
1684064628.80002403,60028479,1585,1584,1568,1567,0,0,0,0,0,0,0,0,0,0
1684064628.89998388,60128439,1587,1585,1566,1566,0,0,0,0,0,0,0,0,0,0
1684064628.99994397,60228399,1587,1586,1566,1566,0,0,0,0,0,0,0,0,0,0
1684064629.09990382,60328359,1587,1586,1568,1569,0,0,0,0,0,0,0,0,0,0
1684064629.19986391,60428319,1586,1585,1571,1572,0,0,0,0,0,0,0,0,0,0
1684064629.29982400,60528279,1582,1582,1573,1574,0,0,0,0,0,0,0,0,0,0
1684064629.39978385,60628239,1580,1580,1577,1577,0,0,0,0,0,0,0,0,0,0
1684064629.49974394,60728199,1577,1577,1579,1579,0,0,0,0,0,0,0,0,0,0
1684064629.59970403,60828159,1550,1551,1585,1585,0,0,0,0,0,0,0,0,0,0
1684064629.70049691,60928952,1557,1558,1589,1590,0,0,0,0,0,0,0,0,0,0
1684064629.80045700,61028912,1563,1564,1589,1589,0,0,0,0,0,0,0,0,0,0
1684064629.90041685,61128872,1569,1570,1587,1586,0,0,0,0,0,0,0,0,0,0
1684064630.00037694,61228832,1575,1575,1584,1583,0,0,0,0,0,0,0,0,0,0
1684064630.10033703,61328792,1580,1580,1580,1580,0,0,0,0,0,0,0,0,0,0
1684064630.20029688,61428752,1584,1584,1578,1578,0,0,0,0,0,0,0,0,0,0
1684064630.30025697,61528712,1586,1585,1574,1575,0,0,0,0,0,0,0,0,0,0
1684064630.40021682,61628672,1587,1586,1572,1572,0,0,0,0,0,0,0,0,0,0
1684064630.50017691,61728632,1588,1587,1572,1573,0,0,0,0,0,0,0,0,0,0
1684064630.60013700,61828592,1587,1587,1572,1573,0,0,0,0,0,0,0,0,0,0
1684064630.70009685,61928552,1586,1585,1574,1573,0,0,0,0,0,0,0,0,0,0
1684064630.80005693,62028512,1585,1584,1575,1575,0,0,0,0,0,0,0,0,0,0
1684064630.90001702,62128472,1583,1583,1577,1577,0,0,0,0,0,0,0,0,0,0
1684064630.99997687,62228432,1580,1580,1578,1578,0,0,0,0,0,0,0,0,0,0
1684064631.09993696,62328392,1579,1580,1580,1580,0,0,0,0,0,0,0,0,0,0
1684064631.19989705,62428352,1578,1579,1582,1582,0,0,0,0,0,0,0,0,0,0
1684064631.29985690,62528312,1577,1578,1583,1583,0,0,0,0,0,0,0,0,0,0
1684064631.39981699,62628272,1576,1577,1583,1583,0,0,0,0,0,0,0,0,0,0
1684064631.49977684,62728232,1576,1577,1583,1583,0,0,0,0,0,0,0,0,0,0
1684064631.59973693,62828192,1577,1576,1582,1582,0,0,0,0,0,0,0,0,0,0
1684064631.70053005,62928985,1578,1578,1583,1582,0,0,0,0,0,0,0,0,0,0
1684064631.80048990,63028945,1579,1579,1581,1581,0,0,0,0,0,0,0,0,0,0
1684064631.90044999,63128905,1580,1580,1582,1581,0,0,0,0,0,0,0,0,0,0
1684064632.00040984,63228865,1581,1581,1581,1581,0,0,0,0,0,0,0,0,0,0
1684064632.10036993,63328825,1581,1582,1580,1580,0,0,0,0,0,0,0,0,0,0
1684064632.20033002,63428785,1581,1581,1578,1578,0,0,0,0,0,0,0,0,0,0
1684064632.30028987,63528745,1581,1581,1578,1578,0,0,0,0,0,0,0,0,0,0
1684064632.40024996,63628705,1581,1581,1578,1579,0,0,0,0,0,0,0,0,0,0
1684064632.50021005,63728665,1582,1582,1583,1576,0,0,0,0,0,0,0,0,0,0
1684064632.60016990,63828625,1581,1583,1585,1570,0,0,0,0,0,0,0,0,0,0
1684064632.70012999,63928585,1580,1583,1579,1570,0,0,0,0,0,0,0,0,0,0
1684064632.80008984,64028545,1579,1582,1570,1570,0,0,0,0,0,0,0,0,0,0
1684064632.90004992,64128505,1579,1581,1562,1569,0,0,0,0,0,0,0,0,0,0
1684064633.00001001,64228465,1579,1580,1557,1564,0,0,0,0,0,0,0,0,0,0
1684064633.09996986,64328425,1580,1580,1555,1560,0,0,0,0,0,0,0,0,0,0
1684064633.19992995,64428385,1581,1579,1554,1556,0,0,0,0,0,0,0,0,0,0
1684064633.29989004,64528345,1582,1579,1555,1555,0,0,0,0,0,0,0,0,0,0
1684064633.39984989,64628305,1580,1579,1555,1553,0,0,0,0,0,0,0,0,0,0
1684064633.49980998,64728265,1579,1579,1556,1553,0,0,0,0,0,0,0,0,0,0
1684064633.59976983,64828225,1576,1577,1554,1552,0,0,0,0,0,0,0,0,0,0
1684064633.69972992,64928185,1576,1577,1553,1553,0,0,0,0,0,0,0,0,0,0
1684064633.80052304,65028978,1576,1578,1553,1553,0,0,0,0,0,0,0,0,0,0
1684064633.90048289,65128938,1577,1578,1553,1553,0,0,0,0,0,0,0,0,0,0
1684064634.00044298,65228898,1577,1578,1551,1550,0,0,0,0,0,0,0,0,0,0
1684064634.10040283,65328858,1578,1580,1548,1549,0,0,0,0,0,0,0,0,0,0
1684064634.20036292,65428818,1579,1580,1545,1545,0,0,0,0,0,0,0,0,0,0
1684064634.30032301,65528778,1582,1583,1544,1544,0,0,0,0,0,0,0,0,0,0
1684064634.40028286,65628738,1585,1586,1543,1542,0,0,0,0,0,0,0,0,0,0
1684064634.50024295,65728698,1588,1587,1541,1541,0,0,0,0,0,0,0,0,0,0
1684064634.60020304,65828658,1589,1590,1540,1540,0,0,0,0,0,0,0,0,0,0
1684064634.70016289,65928618,1592,1592,1540,1541,0,0,0,0,0,0,0,0,0,0
1684064634.80012298,66028578,1592,1593,1539,1541,0,0,0,0,0,0,0,0,0,0
1684064634.90008283,66128538,1591,1591,1540,1543,0,0,0,0,0,0,0,0,0,0
1684064635.00004292,66228498,1589,1588,1545,1547,0,0,0,0,0,0,0,0,0,0
1684064635.10000300,66328458,1586,1583,1551,1554,0,0,0,0,0,0,0,0,0,0
1684064635.19996285,66428418,1580,1576,1560,1562,0,0,0,0,0,0,0,0,0,0
1684064635.29992294,66528378,1571,1567,1570,1572,0,0,0,0,0,0,0,0,0,0
1684064635.39988303,66628338,1560,1557,1580,1582,0,0,0,0,0,0,0,0,0,0
1684064635.49984288,66728298,1551,1549,1591,1592,0,0,0,0,0,0,0,0,0,0
1684064635.59980297,66828258,1543,1542,1600,1600,0,0,0,0,0,0,0,0,0,0
1684064635.69976282,66928218,1538,1538,1607,1606,0,0,0,0,0,0,0,0,0,0
1684064635.79972291,67028178,1535,1537,1610,1609,0,0,0,0,0,0,0,0,0,0
1684064635.90051603,67128971,1536,1538,1611,1610,0,0,0,0,0,0,0,0,0,0
1684064636.00047588,67228931,1540,1542,1608,1608,0,0,0,0,0,0,0,0,0,0
1684064636.10043597,67328891,1546,1547,1604,1604,0,0,0,0,0,0,0,0,0,0
1684064636.20039582,67428851,1553,1554,1598,1598,0,0,0,0,0,0,0,0,0,0
1684064636.30035591,67528811,1560,1561,1592,1591,0,0,0,0,0,0,0,0,0,0
1684064636.40031600,67628771,1568,1568,1585,1585,0,0,0,0,0,0,0,0,0,0
1684064636.50027585,67728731,1574,1574,1579,1579,0,0,0,0,0,0,0,0,0,0
1684064636.60023594,67828691,1580,1578,1574,1574,0,0,0,0,0,0,0,0,0,0
1684064636.70019603,67928651,1583,1582,1571,1570,0,0,0,0,0,0,0,0,0,0
1684064636.80015588,68028611,1586,1584,1568,1569,0,0,0,0,0,0,0,0,0,0
1684064636.90011597,68128571,1586,1585,1568,1568,0,0,0,0,0,0,0,0,0,0
1684064637.00007582,68228531,1585,1584,1568,1568,0,0,0,0,0,0,0,0,0,0
1684064637.10003591,68328491,1584,1584,1570,1571,0,0,0,0,0,0,0,0,0,0
1684064637.19999599,68428451,1582,1582,1573,1574,0,0,0,0,0,0,0,0,0,0
1684064637.29995584,68528411,1580,1580,1576,1575,0,0,0,0,0,0,0,0,0,0
1684064637.39991593,68628371,1577,1578,1578,1578,0,0,0,0,0,0,0,0,0,0
1684064637.49987602,68728331,1576,1576,1581,1580,0,0,0,0,0,0,0,0,0,0
1684064637.59983587,68828291,1575,1575,1583,1583,0,0,0,0,0,0,0,0,0,0
1684064637.69979596,68928251,1574,1574,1584,1584,0,0,0,0,0,0,0,0,0,0
1684064637.79975605,69028211,1573,1574,1584,1584,0,0,0,0,0,0,0,0,0,0
1684064637.89971590,69128171,1574,1575,1584,1584,0,0,0,0,0,0,0,0,0,0
1684064638.00050902,69228964,1575,1575,1584,1583,0,0,0,0,0,0,0,0,0,0
1684064638.10046887,69328924,1576,1576,1582,1582,0,0,0,0,0,0,0,0,0,0
1684064638.20042896,69428884,1577,1577,1581,1581,0,0,0,0,0,0,0,0,0,0
1684064638.30038905,69528844,1578,1578,1580,1580,0,0,0,0,0,0,0,0,0,0
1684064638.40034890,69628804,1579,1579,1579,1579,0,0,0,0,0,0,0,0,0,0
1684064638.50030899,69728764,1580,1580,1578,1578,0,0,0,0,0,0,0,0,0,0
1684064638.60026884,69828724,1581,1581,1578,1578,0,0,0,0,0,0,0,0,0,0
1684064638.70022893,69928684,1582,1582,1578,1578,0,0,0,0,0,0,0,0,0,0
1684064638.80018902,70028644,1582,1582,1578,1579,0,0,0,0,0,0,0,0,0,0
1684064638.90014887,70128604,1582,1581,1578,1578,0,0,0,0,0,0,0,0,0,0
1684064639.00010896,70228564,1582,1581,1579,1579,0,0,0,0,0,0,0,0,0,0
1684064639.10006905,70328524,1581,1581,1579,1579,0,0,0,0,0,0,0,0,0,0
1684064639.20002890,70428484,1581,1581,1580,1580,0,0,0,0,0,0,0,0,0,0
1684064639.29998899,70528444,1580,1581,1580,1580,0,0,0,0,0,0,0,0,0,0
1684064639.39994884,70628404,1579,1579,1580,1580,0,0,0,0,0,0,0,0,0,0
1684064639.49990892,70728364,1579,1579,1580,1580,0,0,0,0,0,0,0,0,0,0
1684064639.59986901,70828324,1579,1579,1580,1580,0,0,0,0,0,0,0,0,0,0
1684064639.69982886,70928284,1580,1580,1581,1582,0,0,0,0,0,0,0,0,0,0
1684064639.79978895,71028244,1580,1580,1581,1581,0,0,0,0,0,0,0,0,0,0
1684064639.89974904,71128204,1579,1580,1581,1581,0,0,0,0,0,0,0,0,0,0
1684064639.99970889,71228164,1581,1580,1582,1581,0,0,0,0,0,0,0,0,0,0
1684064640.10050201,71328957,1580,1580,1581,1581,0,0,0,0,0,0,0,0,0,0
1684064640.20046186,71428917,1581,1581,1581,1581,0,0,0,0,0,0,0,0,0,0
1684064640.30042195,71528877,1581,1581,1581,1581,0,0,0,0,0,0,0,0,0,0
1684064640.40038204,71628837,1580,1580,1580,1580,0,0,0,0,0,0,0,0,0,0
1684064640.50034189,71728797,1581,1581,1580,1580,0,0,0,0,0,0,0,0,0,0
1684064640.60030198,71828757,1580,1580,1579,1579,0,0,0,0,0,0,0,0,0,0
1684064640.70026183,71928717,1580,1581,1583,1576,0,0,0,0,0,0,0,0,0,0
1684064640.80022192,72028677,1581,1583,1586,1572,0,0,0,0,0,0,0,0,0,0
1684064640.90018201,72128637,1580,1582,1580,1572,0,0,0,0,0,0,0,0,0,0
1684064641.00014186,72228597,1578,1581,1571,1571,0,0,0,0,0,0,0,0,0,0
1684064641.10010195,72328557,1578,1580,1563,1569,0,0,0,0,0,0,0,0,0,0
1684064641.20006204,72428517,1577,1578,1557,1565,0,0,0,0,0,0,0,0,0,0
1684064641.30002189,72528477,1579,1578,1555,1560,0,0,0,0,0,0,0,0,0,0
1684064641.39998198,72628437,1580,1579,1555,1557,0,0,0,0,0,0,0,0,0,0
1684064641.49994183,72728397,1580,1578,1555,1555,0,0,0,0,0,0,0,0,0,0
1684064641.59990191,72828357,1579,1578,1556,1554,0,0,0,0,0,0,0,0,0,0
1684064641.69986200,72928317,1578,1578,1556,1554,0,0,0,0,0,0,0,0,0,0
1684064641.79982185,73028277,1576,1578,1556,1554,0,0,0,0,0,0,0,0,0,0
1684064641.89978194,73128237,1576,1577,1555,1554,0,0,0,0,0,0,0,0,0,0
1684064641.99974203,73228197,1575,1577,1554,1554,0,0,0,0,0,0,0,0,0,0
1684064642.09970188,73328157,1575,1576,1552,1553,0,0,0,0,0,0,0,0,0,0
1684064642.20049500,73428950,1576,1577,1551,1552,0,0,0,0,0,0,0,0,0,0
1684064642.30045485,73528910,1577,1579,1550,1550,0,0,0,0,0,0,0,0,0,0
1684064642.40041494,73628870,1579,1580,1548,1548,0,0,0,0,0,0,0,0,0,0
1684064642.50037503,73728830,1581,1582,1545,1545,0,0,0,0,0,0,0,0,0,0
1684064642.60033488,73828790,1583,1584,1542,1542,0,0,0,0,0,0,0,0,0,0
1684064642.70029497,73928750,1586,1586,1540,1540,0,0,0,0,0,0,0,0,0,0
1684064642.80025482,74028710,1589,1589,1539,1539,0,0,0,0,0,0,0,0,0,0
1684064642.90021491,74128670,1591,1591,1538,1539,0,0,0,0,0,0,0,0,0,0
1684064643.00017500,74228630,1592,1592,1537,1538,0,0,0,0,0,0,0,0,0,0
1684064643.10013485,74328590,1592,1593,1538,1539,0,0,0,0,0,0,0,0,0,0
1684064643.20009494,74428550,1592,1593,1540,1542,0,0,0,0,0,0,0,0,0,0
1684064643.30005503,74528510,1591,1589,1545,1548,0,0,0,0,0,0,0,0,0,0
1684064643.40001488,74628470,1587,1584,1551,1554,0,0,0,0,0,0,0,0,0,0
1684064643.49997497,74728430,1580,1576,1560,1563,0,0,0,0,0,0,0,0,0,0
1684064643.59993482,74828390,1571,1567,1571,1573,0,0,0,0,0,0,0,0,0,0
1684064643.69989491,74928350,1561,1557,1583,1584,0,0,0,0,0,0,0,0,0,0
1684064643.79985499,75028310,1550,1547,1592,1593,0,0,0,0,0,0,0,0,0,0
1684064643.89981484,75128270,1542,1541,1602,1602,0,0,0,0,0,0,0,0,0,0
1684064643.99977493,75228230,1537,1537,1609,1609,0,0,0,0,0,0,0,0,0,0
1684064644.09973502,75328190,1533,1534,1612,1611,0,0,0,0,0,0,0,0,0,0
1684064644.20052791,75428983,1534,1536,1613,1612,0,0,0,0,0,0,0,0,0,0
1684064644.30048800,75528943,1537,1539,1609,1608,0,0,0,0,0,0,0,0,0,0
1684064644.40044785,75628903,1544,1547,1605,1605,0,0,0,0,0,0,0,0,0,0
1684064644.50040793,75728863,1551,1552,1598,1598,0,0,0,0,0,0,0,0,0,0
1684064644.60036802,75828823,1560,1560,1592,1591,0,0,0,0,0,0,0,0,0,0
1684064644.70032787,75928783,1568,1568,1585,1584,0,0,0,0,0,0,0,0,0,0
1684064644.80028796,76028743,1574,1574,1578,1578,0,0,0,0,0,0,0,0,0,0
1684064644.90024805,76128703,1579,1578,1573,1573,0,0,0,0,0,0,0,0,0,0
1684064645.00020790,76228663,1584,1582,1569,1569,0,0,0,0,0,0,0,0,0,0
1684064645.10016799,76328623,1585,1583,1566,1566,0,0,0,0,0,0,0,0,0,0
1684064645.20012784,76428583,1587,1585,1567,1567,0,0,0,0,0,0,0,0,0,0
1684064645.30008793,76528543,1586,1585,1568,1569,0,0,0,0,0,0,0,0,0,0
1684064645.40004802,76628503,1583,1583,1569,1570,0,0,0,0,0,0,0,0,0,0
1684064645.50000787,76728463,1582,1582,1573,1572,0,0,0,0,0,0,0,0,0,0
1684064645.59996796,76828423,1580,1580,1577,1576,0,0,0,0,0,0,0,0,0,0
1684064645.69992805,76928383,1577,1578,1578,1578,0,0,0,0,0,0,0,0,0,0
1684064645.79988790,77028343,1575,1576,1580,1580,0,0,0,0,0,0,0,0,0,0
1684064645.89984798,77128303,1575,1575,1583,1583,0,0,0,0,0,0,0,0,0,0
1684064645.99980783,77228263,1574,1574,1584,1584,0,0,0,0,0,0,0,0,0,0
1684064646.09976792,77328223,1573,1574,1584,1584,0,0,0,0,0,0,0,0,0,0
1684064646.19972801,77428183,1573,1574,1584,1583,0,0,0,0,0,0,0,0,0,0
1684064646.30052090,77528976,1575,1575,1584,1583,0,0,0,0,0,0,0,0,0,0
1684064646.40048099,77628936,1576,1576,1583,1583,0,0,0,0,0,0,0,0,0,0
1684064646.50044084,77728896,1577,1577,1581,1582,0,0,0,0,0,0,0,0,0,0
1684064646.60040092,77828856,1578,1578,1580,1580,0,0,0,0,0,0,0,0,0,0
1684064646.70036101,77928816,1580,1580,1580,1579,0,0,0,0,0,0,0,0,0,0
1684064646.80032086,78028776,1580,1580,1578,1578,0,0,0,0,0,0,0,0,0,0
1684064646.90028095,78128736,1581,1581,1578,1577,0,0,0,0,0,0,0,0,0,0
1684064647.00024104,78228696,1582,1582,1578,1578,0,0,0,0,0,0,0,0,0,0
1684064647.10020089,78328656,1582,1581,1578,1578,0,0,0,0,0,0,0,0,0,0
1684064647.20016098,78428616,1582,1581,1578,1578,0,0,0,0,0,0,0,0,0,0
1684064647.30012083,78528576,1582,1581,1578,1579,0,0,0,0,0,0,0,0,0,0
1684064647.40008092,78628536,1581,1582,1579,1579,0,0,0,0,0,0,0,0,0,0
1684064647.50004101,78728496,1580,1580,1579,1579,0,0,0,0,0,0,0,0,0,0
1684064647.60000086,78828456,1579,1579,1578,1579,0,0,0,0,0,0,0,0,0,0
1684064647.69996095,78928416,1579,1579,1580,1580,0,0,0,0,0,0,0,0,0,0
1684064647.79992104,79028376,1579,1579,1580,1580,0,0,0,0,0,0,0,0,0,0
1684064647.89988089,79128336,1580,1580,1581,1581,0,0,0,0,0,0,0,0,0,0
1684064647.99984097,79228296,1579,1580,1581,1581,0,0,0,0,0,0,0,0,0,0
1684064648.09980083,79328256,1580,1580,1582,1582,0,0,0,0,0,0,0,0,0,0
1684064648.19976091,79428216,1580,1580,1582,1582,0,0,0,0,0,0,0,0,0,0
1684064648.29972100,79528176,1580,1580,1581,1581,0,0,0,0,0,0,0,0,0,0
1684064648.40051389,79628969,1581,1581,1581,1581,0,0,0,0,0,0,0,0,0,0
1684064648.50047398,79728929,1581,1580,1581,1581,0,0,0,0,0,0,0,0,0,0
1684064648.60043383,79828889,1581,1581,1581,1581,0,0,0,0,0,0,0,0,0,0
1684064648.70039392,79928849,1580,1581,1586,1573,0,0,0,0,0,0,0,0,0,0
1684064648.80035400,80028809,1580,1581,1586,1572,0,0,0,0,0,0,0,0,0,0
1684064648.90031385,80128769,1578,1578,1578,1573,0,0,0,0,0,0,0,0,0,0
1684064649.00027394,80228729,1575,1574,1571,1574,0,0,0,0,0,0,0,0,0,0
1684064649.10023403,80328689,1572,1571,1566,1574,0,0,0,0,0,0,0,0,0,0
1684064649.20019388,80428649,1570,1569,1564,1572,0,0,0,0,0,0,0,0,0,0
1684064649.30015397,80528609,1568,1568,1565,1570,0,0,0,0,0,0,0,0,0,0
1684064649.40011382,80628569,1566,1566,1565,1567,0,0,0,0,0,0,0,0,0,0
1684064649.50007391,80728529,1566,1567,1567,1566,0,0,0,0,0,0,0,0,0,0
1684064649.60003400,80828489,1566,1566,1568,1565,0,0,0,0,0,0,0,0,0,0
1684064649.69999385,80928449,1565,1565,1567,1564,0,0,0,0,0,0,0,0,0,0
1684064649.79995394,81028409,1564,1564,1566,1564,0,0,0,0,0,0,0,0,0,0
1684064649.89991403,81128369,1564,1563,1565,1565,0,0,0,0,0,0,0,0,0,0
1684064649.99987388,81228329,1563,1563,1564,1564,0,0,0,0,0,0,0,0,0,0
1684064650.09983397,81328289,1561,1561,1562,1562,0,0,0,0,0,0,0,0,0,0
1684064650.19979382,81428249,1561,1561,1562,1562,0,0,0,0,0,0,0,0,0,0
1684064650.29975390,81528209,1561,1561,1561,1562,0,0,0,0,0,0,0,0,0,0
1684064650.39971399,81628169,1561,1561,1561,1560,0,0,0,0,0,0,0,0,0,0
1684064650.50050688,81728962,1560,1560,1560,1560,0,0,0,0,0,0,0,0,0,0
1684064650.60046697,81828922,1559,1559,1560,1559,0,0,0,0,0,0,0,0,0,0
1684064650.70042682,81928882,1558,1558,1558,1557,0,0,0,0,0,0,0,0,0,0
1684064650.80038691,82028842,1558,1558,1558,1557,0,0,0,0,0,0,0,0,0,0
1684064650.90034699,82128802,1558,1558,1558,1557,0,0,0,0,0,0,0,0,0,0
1684064651.00030684,82228762,1558,1558,1559,1557,0,0,0,0,0,0,0,0,0,0
1684064651.10026693,82328722,1557,1557,1557,1556,0,0,0,0,0,0,0,0,0,0
1684064651.20022702,82428682,1557,1558,1558,1557,0,0,0,0,0,0,0,0,0,0
1684064651.30018687,82528642,1558,1558,1559,1557,0,0,0,0,0,0,0,0,0,0
1684064651.40014696,82628602,1559,1559,1561,1557,0,0,0,0,0,0,0,0,0,0
1684064651.50010705,82728562,1559,1559,1559,1559,0,0,0,0,0,0,0,0,0,0
1684064651.60006690,82828522,1560,1559,1558,1562,0,0,0,0,0,0,0,0,0,0
1684064651.70002699,82928482,1561,1561,1558,1564,0,0,0,0,0,0,0,0,0,0
1684064651.79998684,83028442,1560,1560,1558,1563,0,0,0,0,0,0,0,0,0,0
1684064651.89994693,83128402,1562,1562,1560,1565,0,0,0,0,0,0,0,0,0,0
1684064651.99990702,83228362,1561,1562,1561,1562,0,0,0,0,0,0,0,0,0,0
1684064652.09986687,83328322,1561,1561,1562,1560,0,0,0,0,0,0,0,0,0,0
1684064652.19982696,83428282,1559,1559,1561,1556,0,0,0,0,0,0,0,0,0,0
1684064652.29978704,83528242,1558,1558,1560,1556,0,0,0,0,0,0,0,0,0,0
1684064652.39974689,83628202,1559,1558,1557,1560,0,0,0,0,0,0,0,0,0,0
1684064652.49970698,83728162,1556,1557,1553,1559,0,0,0,0,0,0,0,0,0,0
1684064652.60049987,83828955,1552,1552,1549,1554,0,0,0,0,0,0,0,0,0,0
1684064652.70045996,83928915,1547,1547,1546,1548,0,0,0,0,0,0,0,0,0,0
1684064652.80042005,84028875,1542,1542,1542,1541,0,0,0,0,0,0,0,0,0,0
1684064652.90037990,84128835,1534,1534,1535,1533,0,0,0,0,0,0,0,0,0,0
1684064653.00033998,84228795,1527,1528,1528,1526,0,0,0,0,0,0,0,0,0,0
1684064653.10029984,84328755,1522,1522,1523,1521,0,0,0,0,0,0,0,0,0,0
1684064653.20025992,84428715,1521,1521,1521,1520,0,0,0,0,0,0,0,0,0,0
1684064653.30022001,84528675,1521,1520,1520,1521,0,0,0,0,0,0,0,0,0,0
1684064653.40017986,84628635,1522,1522,1522,1523,0,0,0,0,0,0,0,0,0,0
1684064653.50013995,84728595,1525,1525,1525,1526,0,0,0,0,0,0,0,0,0,0
1684064653.60010004,84828555,1528,1528,1529,1529,0,0,0,0,0,0,0,0,0,0
1684064653.70005989,84928515,1534,1533,1535,1535,0,0,0,0,0,0,0,0,0,0
1684064653.80001998,85028475,1537,1537,1538,1538,0,0,0,0,0,0,0,0,0,0
1684064653.89997983,85128435,1539,1540,1541,1540,0,0,0,0,0,0,0,0,0,0
1684064653.99993992,85228395,1543,1543,1543,1543,0,0,0,0,0,0,0,0,0,0
1684064654.09990001,85328355,1544,1544,1544,1544,0,0,0,0,0,0,0,0,0,0
1684064654.19985986,85428315,1545,1545,1545,1544,0,0,0,0,0,0,0,0,0,0
1684064654.29981995,85528275,1546,1546,1545,1545,0,0,0,0,0,0,0,0,0,0
1684064654.39978004,85628235,1547,1547,1547,1546,0,0,0,0,0,0,0,0,0,0
1684064654.49973989,85728195,1548,1548,1547,1547,0,0,0,0,0,0,0,0,0,0
1684064654.59969997,85828155,1548,1548,1547,1547,0,0,0,0,0,0,0,0,0,0
1684064654.70049286,85928948,1547,1546,1546,1546,0,0,0,0,0,0,0,0,0,0
1684064654.80045295,86028908,1547,1546,1546,1546,0,0,0,0,0,0,0,0,0,0
1684064654.90041304,86128868,1547,1546,1546,1546,0,0,0,0,0,0,0,0,0,0
1684064655.00037289,86228828,1546,1546,1545,1545,0,0,0,0,0,0,0,0,0,0
1684064655.10033298,86328788,1545,1546,1546,1546,0,0,0,0,0,0,0,0,0,0
1684064655.20029283,86428748,1545,1545,1545,1545,0,0,0,0,0,0,0,0,0,0
1684064655.30025291,86528708,1546,1545,1546,1546,0,0,0,0,0,0,0,0,0,0
1684064655.40021300,86628668,1544,1544,1545,1544,0,0,0,0,0,0,0,0,0,0
1684064655.50017285,86728628,1544,1544,1544,1544,0,0,0,0,0,0,0,0,0,0
1684064655.60013294,86828588,1544,1544,1544,1544,0,0,0,0,0,0,0,0,0,0
1684064655.70009303,86928548,1544,1544,1544,1544,0,0,0,0,0,0,0,0,0,0
1684064655.80005288,87028508,1544,1543,1544,1544,0,0,0,0,0,0,0,0,0,0
1684064655.90001297,87128468,1543,1543,1543,1543,0,0,0,0,0,0,0,0,0,0
1684064655.99997282,87228428,1543,1543,1543,1544,0,0,0,0,0,0,0,0,0,0
1684064656.09993291,87328388,1543,1544,1544,1543,0,0,0,0,0,0,0,0,0,0
1684064656.19989300,87428348,1544,1544,1544,1543,0,0,0,0,0,0,0,0,0,0
1684064656.29985285,87528308,1544,1543,1544,1544,0,0,0,0,0,0,0,0,0,0
1684064656.39981294,87628268,1544,1544,1544,1544,0,0,0,0,0,0,0,0,0,0
1684064656.49977303,87728228,1543,1544,1543,1543,0,0,0,0,0,0,0,0,0,0
1684064656.59973288,87828188,1543,1543,1543,1543,0,0,0,0,0,0,0,0,0,0
1684064656.70052600,87928981,1545,1544,1544,1544,0,0,0,0,0,0,0,0,0,0
1684064656.80048585,88028941,1544,1544,1544,1544,0,0,0,0,0,0,0,0,0,0
1684064656.90044594,88128901,1544,1543,1543,1544,0,0,0,0,0,0,0,0,0,0
1684064657.00040603,88228861,1545,1545,1545,1545,0,0,0,0,0,0,0,0,0,0
1684064657.10036588,88328821,1545,1545,1545,1545,0,0,0,0,0,0,0,0,0,0
1684064657.20032597,88428781,1544,1545,1545,1544,0,0,0,0,0,0,0,0,0,0
1684064657.30028582,88528741,1545,1545,1544,1545,0,0,0,0,0,0,0,0,0,0
1684064657.40024590,88628701,1545,1545,1545,1545,0,0,0,0,0,0,0,0,0,0
1684064657.50020599,88728661,1544,1544,1544,1544,0,0,0,0,0,0,0,0,0,0
1684064657.60016584,88828621,1544,1544,1544,1544,0,0,0,0,0,0,0,0,0,0
1684064657.70012593,88928581,1544,1543,1544,1544,0,0,0,0,0,0,0,0,0,0
1684064657.80008602,89028541,1543,1544,1544,1543,0,0,0,0,0,0,0,0,0,0
1684064657.90004587,89128501,1544,1544,1545,1544,0,0,0,0,0,0,0,0,0,0
1684064658.00000596,89228461,1544,1544,1544,1544,0,0,0,0,0,0,0,0,0,0
1684064658.09996605,89328421,1544,1544,1544,1545,0,0,0,0,0,0,0,0,0,0
1684064658.19992590,89428381,1543,1544,1543,1544,0,0,0,0,0,0,0,0,0,0
1684064658.29988599,89528341,1544,1544,1544,1544,0,0,0,0,0,0,0,0,0,0
1684064658.39984584,89628301,1543,1543,1543,1543,0,0,0,0,0,0,0,0,0,0
1684064658.49980593,89728261,1544,1543,1543,1543,0,0,0,0,0,0,0,0,0,0
1684064658.59976602,89828221,1543,1544,1544,1543,0,0,0,0,0,0,0,0,0,0
1684064658.69972587,89928181,1545,1544,1545,1545,0,0,0,0,0,0,0,0,0,0
1684064658.80051899,90028974,1545,1545,1545,1545,0,0,0,0,0,0,0,0,0,0
1684064658.90047884,90128934,1544,1544,1544,1544,0,0,0,0,0,0,0,0,0,0
1684064659.00043893,90228894,1544,1545,1544,1545,0,0,0,0,0,0,0,0,0,0
1684064659.10039902,90328854,1545,1544,1544,1544,0,0,0,0,0,0,0,0,0,0
1684064659.20035887,90428814,1545,1545,1545,1545,0,0,0,0,0,0,0,0,0,0
1684064659.30031896,90528774,1546,1545,1545,1545,0,0,0,0,0,0,0,0,0,0
1684064659.40027905,90628734,1545,1544,1545,1545,0,0,0,0,0,0,0,0,0,0
1684064659.50023890,90728694,1545,1545,1545,1545,0,0,0,0,0,0,0,0,0,0
1684064659.60019898,90828654,1544,1545,1544,1544,0,0,0,0,0,0,0,0,0,0
1684064659.70015883,90928614,1544,1544,1544,1544,0,0,0,0,0,0,0,0,0,0
1684064659.80011892,91028574,1544,1545,1545,1545,0,0,0,0,0,0,0,0,0,0
1684064659.90007901,91128534,1545,1544,1544,1545,0,0,0,0,0,0,0,0,0,0
1684064660.00003886,91228494,1545,1544,1545,1544,0,0,0,0,0,0,0,0,0,0
1684064660.09999895,91328454,1544,1544,1544,1544,0,0,0,0,0,0,0,0,0,0
1684064660.19995904,91428414,1545,1545,1545,1545,0,0,0,0,0,0,0,0,0,0
1684064660.29991889,91528374,1545,1545,1545,1545,0,0,0,0,0,0,0,0,0,0
1684064660.39987898,91628334,1544,1544,1544,1543,0,0,0,0,0,0,0,0,0,0
1684064660.49983883,91728294,1544,1544,1544,1544,0,0,0,0,0,0,0,0,0,0
1684064660.59979892,91828254,1544,1543,1544,1544,0,0,0,0,0,0,0,0,0,0
1684064660.69975901,91928214,1544,1543,1544,1544,0,0,0,0,0,0,0,0,0,0
1684064660.79971886,92028174,1544,1544,1544,1544,0,0,0,0,0,0,0,0,0,0
1684064660.90051198,92128967,1544,1543,1543,1543,0,0,0,0,0,0,0,0,0,0
1684064661.00047183,92228927,1544,1544,1544,1544,0,0,0,0,0,0,0,0,0,0
1684064661.10043192,92328887,1544,1544,1544,1544,0,0,0,0,0,0,0,0,0,0
1684064661.20039201,92428847,1544,1544,1544,1544,0,0,0,0,0,0,0,0,0,0
1684064661.30035186,92528807,1544,1544,1544,1544,0,0,0,0,0,0,0,0,0,0
1684064661.40031195,92628767,1545,1545,1545,1545,0,0,0,0,0,0,0,0,0,0
1684064661.50027204,92728727,1544,1544,1544,1544,0,0,0,0,0,0,0,0,0,0
1684064661.60023189,92828687,1544,1544,1545,1544,0,0,0,0,0,0,0,0,0,0
1684064661.70019197,92928647,1545,1545,1545,1545,0,0,0,0,0,0,0,0,0,0
1684064661.80015182,93028607,1545,1544,1544,1545,0,0,0,0,0,0,0,0,0,0
1684064661.90011191,93128567,1545,1544,1544,1545,0,0,0,0,0,0,0,0,0,0
1684064662.00007200,93228527,1544,1545,1545,1544,0,0,0,0,0,0,0,0,0,0
1684064662.10003185,93328487,1545,1544,1544,1545,0,0,0,0,0,0,0,0,0,0
1684064662.19999194,93428447,1544,1545,1545,1545,0,0,0,0,0,0,0,0,0,0
1684064662.29995203,93528407,1545,1545,1544,1545,0,0,0,0,0,0,0,0,0,0
1684064662.39991188,93628367,1544,1544,1544,1545,0,0,0,0,0,0,0,0,0,0
1684064662.49987197,93728327,1545,1545,1545,1545,0,0,0,0,0,0,0,0,0,0
1684064662.59983182,93828287,1544,1544,1544,1544,0,0,0,0,0,0,0,0,0,0
1684064662.69979191,93928247,1545,1545,1545,1545,0,0,0,0,0,0,0,0,0,0
1684064662.79975200,94028207,1473,1473,1471,1470,0,0,0,0,0,0,0,0,0,0
1684064662.89971185,94128167,1316,1315,1306,1302,0,0,0,0,0,0,0,0,0,0
1684064663.00050497,94228960,1249,1248,1234,1228,0,0,0,0,0,0,0,0,0,0
1684064663.10046482,94328920,1229,1227,1211,1206,0,0,0,0,0,0,0,0,0,0
1684064663.20042491,94428880,1205,1203,1185,1179,0,0,0,0,0,0,0,0,0,0
1684064663.30038500,94528840,1179,1177,1156,1150,0,0,0,0,0,0,0,0,0,0
1684064663.40034485,94628800,1179,1178,1157,1150,0,0,0,0,0,0,0,0,0,0
1684064663.50030494,94728760,1180,1177,1158,1150,0,0,0,0,0,0,0,0,0,0
1684064663.60026503,94828720,1201,1174,1150,1179,0,0,0,0,0,0,0,0,0,0
1684064663.70022488,94928680,1192,1172,1150,1166,0,0,0,0,0,0,0,0,0,0
1684064663.80018497,95028640,1189,1171,1150,1162,0,0,0,0,0,0,0,0,0,0
1684064663.90014482,95128600,1190,1171,1150,1162,0,0,0,0,0,0,0,0,0,0
1684064664.00010490,95228560,1191,1171,1150,1163,0,0,0,0,0,0,0,0,0,0
1684064664.10006499,95328520,1192,1171,1150,1165,0,0,0,0,0,0,0,0,0,0
1684064664.20002484,95428480,1194,1170,1150,1166,0,0,0,0,0,0,0,0,0,0
1684064664.29998493,95528440,1196,1170,1150,1168,0,0,0,0,0,0,0,0,0,0
1684064664.39994502,95628400,1185,1172,1150,1158,0,0,0,0,0,0,0,0,0,0
1684064664.49990487,95728360,1186,1172,1150,1159,0,0,0,0,0,0,0,0,0,0
1684064664.59986496,95828320,1186,1171,1150,1159,0,0,0,0,0,0,0,0,0,0
1684064664.69982505,95928280,1187,1171,1150,1160,0,0,0,0,0,0,0,0,0,0
1684064664.79978490,96028240,1170,1158,1150,1157,0,0,0,0,0,0,0,0,0,0
1684064664.89974499,96128200,1000,1000,1000,1000,0,0,0,0,0,0,0,0,0,0
1684064664.99970484,96228160,1000,1000,1000,1000,0,0,0,0,0,0,0,0,0,0
1684064665.10049796,96328953,1000,1000,1000,1000,0,0,0,0,0,0,0,0,0,0
1684064665.20045805,96428913,1000,1000,1000,1000,0,0,0,0,0,0,0,0,0,0
1684064665.30041790,96528873,1000,1000,1000,1000,0,0,0,0,0,0,0,0,0,0
1684064665.40037799,96628833,1000,1000,1000,1000,0,0,0,0,0,0,0,0,0,0
1684064665.50033784,96728793,1000,1000,1000,1000,0,0,0,0,0,0,0,0,0,0
1684064665.60029793,96828753,1000,1000,1000,1000,0,0,0,0,0,0,0,0,0,0
1684064665.70025802,96928713,1000,1000,1000,1000,0,0,0,0,0,0,0,0,0,0
1684064665.80021787,97028673,1000,1000,1000,1000,0,0,0,0,0,0,0,0,0,0
1684064665.90017796,97128633,1000,1000,1000,1000,0,0,0,0,0,0,0,0,0,0
1684064666.00013804,97228593,1000,1000,1000,1000,0,0,0,0,0,0,0,0,0,0
1684064666.10009789,97328553,1000,1000,1000,1000,0,0,0,0,0,0,0,0,0,0
1684064666.20005798,97428513,1000,1000,1000,1000,0,0,0,0,0,0,0,0,0,0
1684064666.30001783,97528473,1000,1000,1000,1000,0,0,0,0,0,0,0,0,0,0
1684064666.39997792,97628433,1000,1000,1000,1000,0,0,0,0,0,0,0,0,0,0
1684064666.49993801,97728393,1000,1000,1000,1000,0,0,0,0,0,0,0,0,0,0
1684064666.59989786,97828353,1000,1000,1000,1000,0,0,0,0,0,0,0,0,0,0
1684064666.69985795,97928313,1000,1000,1000,1000,0,0,0,0,0,0,0,0,0,0
1684064666.79981804,98028273,1000,1000,1000,1000,0,0,0,0,0,0,0,0,0,0
1684064666.89977789,98128233,1000,1000,1000,1000,0,0,0,0,0,0,0,0,0,0
1684064666.99973798,98228193,1000,1000,1000,1000,0,0,0,0,0,0,0,0,0,0
1684064667.10053086,98328986,1000,1000,1000,1000,0,0,0,0,0,0,0,0,0,0
1684064667.20049095,98428946,1000,1000,1000,1000,0,0,0,0,0,0,0,0,0,0
1684064667.30045104,98528906,1000,1000,1000,1000,0,0,0,0,0,0,0,0,0,0
1684064667.40041089,98628866,1000,1000,1000,1000,0,0,0,0,0,0,0,0,0,0
1684064667.50037098,98728826,1000,1000,1000,1000,0,0,0,0,0,0,0,0,0,0
1684064667.60033083,98828786,1000,1000,1000,1000,0,0,0,0,0,0,0,0,0,0
1684064667.70029092,98928746,1000,1000,1000,1000,0,0,0,0,0,0,0,0,0,0
1684064667.80025101,99028706,1000,1000,1000,1000,0,0,0,0,0,0,0,0,0,0
1684064667.90021086,99128666,1000,1000,1000,1000,0,0,0,0,0,0,0,0,0,0
1684064668.00017095,99228626,1000,1000,1000,1000,0,0,0,0,0,0,0,0,0,0
1684064668.10013103,99328586,1000,1000,1000,1000,0,0,0,0,0,0,0,0,0,0
1684064668.20009089,99428546,1000,1000,1000,1000,0,0,0,0,0,0,0,0,0,0
1684064668.30005097,99528506,1000,1000,1000,1000,0,0,0,0,0,0,0,0,0,0
1684064668.40001082,99628466,1000,1000,1000,1000,0,0,0,0,0,0,0,0,0,0
1684064668.49997091,99728426,1000,1000,1000,1000,0,0,0,0,0,0,0,0,0,0
1684064668.59993100,99828386,1000,1000,1000,1000,0,0,0,0,0,0,0,0,0,0
1684064668.69989085,99928346,1000,1000,1000,1000,0,0,0,0,0,0,0,0,0,0
1684064668.79985094,100028306,1000,1000,1000,1000,0,0,0,0,0,0,0,0,0,0
1684064668.89981103,100128266,1000,1000,1000,1000,0,0,0,0,0,0,0,0,0,0
1684064668.99977088,100228226,1000,1000,1000,1000,0,0,0,0,0,0,0,0,0,0
1684064669.09973097,100328186,1000,1000,1000,1000,0,0,0,0,0,0,0,0,0,0
1684064669.20052385,100428979,1000,1000,1000,1000,0,0,0,0,0,0,0,0,0,0
1684064669.30048394,100528939,1000,1000,1000,1000,0,0,0,0,0,0,0,0,0,0
1684064669.40044403,100628899,1000,1000,1000,1000,0,0,0,0,0,0,0,0,0,0
1684064669.50040388,100728859,1000,1000,1000,1000,0,0,0,0,0,0,0,0,0,0
1684064669.60036397,100828819,1000,1000,1000,1000,0,0,0,0,0,0,0,0,0,0
1684064669.70032382,100928779,1000,1000,1000,1000,0,0,0,0,0,0,0,0,0,0
1684064669.80028391,101028739,1000,1000,1000,1000,0,0,0,0,0,0,0,0,0,0
1684064669.90024400,101128699,1000,1000,1000,1000,0,0,0,0,0,0,0,0,0,0
1684064670.00020385,101228659,1000,1000,1000,1000,0,0,0,0,0,0,0,0,0,0
1684064670.10016394,101328619,1000,1000,1000,1000,0,0,0,0,0,0,0,0,0,0
1684064670.20012403,101428579,1000,1000,1000,1000,0,0,0,0,0,0,0,0,0,0
1684064670.30008388,101528539,1000,1000,1000,1000,0,0,0,0,0,0,0,0,0,0
1684064670.40004396,101628499,1000,1000,1000,1000,0,0,0,0,0,0,0,0,0,0
1684064670.50000381,101728459,1000,1000,1000,1000,0,0,0,0,0,0,0,0,0,0
1684064670.59996390,101828419,1000,1000,1000,1000,0,0,0,0,0,0,0,0,0,0
1684064670.69992399,101928379,1000,1000,1000,1000,0,0,0,0,0,0,0,0,0,0
1684064670.79988384,102028339,1000,1000,1000,1000,0,0,0,0,0,0,0,0,0,0
1684064670.89984393,102128299,1000,1000,1000,1000,0,0,0,0,0,0,0,0,0,0
1684064670.99980402,102228259,1000,1000,1000,1000,0,0,0,0,0,0,0,0,0,0
1684064671.09976387,102328219,1000,1000,1000,1000,0,0,0,0,0,0,0,0,0,0
1684064671.19972396,102428179,1000,1000,1000,1000,0,0,0,0,0,0,0,0,0,0
1684064671.30051684,102528972,1000,1000,1000,1000,0,0,0,0,0,0,0,0,0,0
1684064671.40047693,102628932,1000,1000,1000,1000,0,0,0,0,0,0,0,0,0,0
1684064671.50043702,102728892,1000,1000,1000,1000,0,0,0,0,0,0,0,0,0,0
1684064671.60039687,102828852,1000,1000,1000,1000,0,0,0,0,0,0,0,0,0,0
1684064671.70035696,102928812,1000,1000,1000,1000,0,0,0,0,0,0,0,0,0,0
1684064671.80031705,103028772,1000,1000,1000,1000,0,0,0,0,0,0,0,0,0,0
1684064671.90027690,103128732,1000,1000,1000,1000,0,0,0,0,0,0,0,0,0,0
1684064672.00023699,103228692,1000,1000,1000,1000,0,0,0,0,0,0,0,0,0,0
1684064672.10019684,103328652,1000,1000,1000,1000,0,0,0,0,0,0,0,0,0,0
1684064672.20015693,103428612,1000,1000,1000,1000,0,0,0,0,0,0,0,0,0,0
1684064672.30011702,103528572,1000,1000,1000,1000,0,0,0,0,0,0,0,0,0,0
1684064672.40007687,103628532,1000,1000,1000,1000,0,0,0,0,0,0,0,0,0,0
1684064672.50003695,103728492,1000,1000,1000,1000,0,0,0,0,0,0,0,0,0,0
1684064672.59999704,103828452,1000,1000,1000,1000,0,0,0,0,0,0,0,0,0,0
1684064672.69995689,103928412,1000,1000,1000,1000,0,0,0,0,0,0,0,0,0,0
1684064672.79991698,104028372,1000,1000,1000,1000,0,0,0,0,0,0,0,0,0,0
1684064672.89987683,104128332,1000,1000,1000,1000,0,0,0,0,0,0,0,0,0,0
1684064672.99983692,104228292,1000,1000,1000,1000,0,0,0,0,0,0,0,0,0,0
1684064673.09979701,104328252,1000,1000,1000,1000,0,0,0,0,0,0,0,0,0,0
1684064673.19975686,104428212,1000,1000,1000,1000,0,0,0,0,0,0,0,0,0,0
1684064673.29971695,104528172,1000,1000,1000,1000,0,0,0,0,0,0,0,0,0,0
1684064673.40050983,104628965,1000,1000,1000,1000,0,0,0,0,0,0,0,0,0,0
1684064673.50046992,104728925,1000,1000,1000,1000,0,0,0,0,0,0,0,0,0,0
1684064673.60043001,104828885,1000,1000,1000,1000,0,0,0,0,0,0,0,0,0,0
1684064673.70038986,104928845,1000,1000,1000,1000,0,0,0,0,0,0,0,0,0,0
1684064673.80034995,105028805,1000,1000,1000,1000,0,0,0,0,0,0,0,0,0,0
1684064673.90031004,105128765,1000,1000,1000,1000,0,0,0,0,0,0,0,0,0,0
1684064674.00026989,105228725,1000,1000,1000,1000,0,0,0,0,0,0,0,0,0,0
1684064674.10022998,105328685,1000,1000,1000,1000,0,0,0,0,0,0,0,0,0,0
1684064674.20018983,105428645,1000,1000,1000,1000,0,0,0,0,0,0,0,0,0,0
1684064674.30014992,105528605,1000,1000,1000,1000,0,0,0,0,0,0,0,0,0,0
1684064674.40011001,105628565,1000,1000,1000,1000,0,0,0,0,0,0,0,0,0,0
1684064674.50006986,105728525,1000,1000,1000,1000,0,0,0,0,0,0,0,0,0,0
1684064674.60002995,105828485,1000,1000,1000,1000,0,0,0,0,0,0,0,0,0,0
1684064674.69999003,105928445,1000,1000,1000,1000,0,0,0,0,0,0,0,0,0,0
1684064674.79994988,106028405,1000,1000,1000,1000,0,0,0,0,0,0,0,0,0,0
1684064674.89990997,106128365,1000,1000,1000,1000,0,0,0,0,0,0,0,0,0,0
1684064674.99986982,106228325,1000,1000,1000,1000,0,0,0,0,0,0,0,0,0,0
1684064675.09982991,106328285,1000,1000,1000,1000,0,0,0,0,0,0,0,0,0,0
1684064675.19979000,106428245,1000,1000,1000,1000,0,0,0,0,0,0,0,0,0,0
1684064675.29974985,106528205,1000,1000,1000,1000,0,0,0,0,0,0,0,0,0,0
1684064675.39970994,106628165,1000,1000,1000,1000,0,0,0,0,0,0,0,0,0,0
1684064675.50050282,106728958,1000,1000,1000,1000,0,0,0,0,0,0,0,0,0,0
1684064675.60046291,106828918,1000,1000,1000,1000,0,0,0,0,0,0,0,0,0,0
1684064675.70042300,106928878,1000,1000,1000,1000,0,0,0,0,0,0,0,0,0,0
1684064675.80038285,107028838,1000,1000,1000,1000,0,0,0,0,0,0,0,0,0,0
1684064675.90034294,107128798,1000,1000,1000,1000,0,0,0,0,0,0,0,0,0,0
1684064676.00030303,107228758,1000,1000,1000,1000,0,0,0,0,0,0,0,0,0,0
1684064676.10026288,107328718,1000,1000,1000,1000,0,0,0,0,0,0,0,0,0,0
1684064676.20022297,107428678,1000,1000,1000,1000,0,0,0,0,0,0,0,0,0,0
1684064676.30018282,107528638,1000,1000,1000,1000,0,0,0,0,0,0,0,0,0,0
1684064676.40014291,107628598,1000,1000,1000,1000,0,0,0,0,0,0,0,0,0,0
1684064676.50010300,107728558,1000,1000,1000,1000,0,0,0,0,0,0,0,0,0,0
1684064676.60006285,107828518,1000,1000,1000,1000,0,0,0,0,0,0,0,0,0,0
1684064676.70002294,107928478,1000,1000,1000,1000,0,0,0,0,0,0,0,0,0,0
1684064676.79998302,108028438,1000,1000,1000,1000,0,0,0,0,0,0,0,0,0,0
1684064676.89994287,108128398,1000,1000,1000,1000,0,0,0,0,0,0,0,0,0,0
1684064676.99990296,108228358,1000,1000,1000,1000,0,0,0,0,0,0,0,0,0,0
1684064677.09986305,108328318,1000,1000,1000,1000,0,0,0,0,0,0,0,0,0,0
1684064677.19982290,108428278,1000,1000,1000,1000,0,0,0,0,0,0,0,0,0,0
1684064677.29978299,108528238,1000,1000,1000,1000,0,0,0,0,0,0,0,0,0,0
1684064677.39974284,108628198,1000,1000,1000,1000,0,0,0,0,0,0,0,0,0,0
1684064677.49970293,108728158,1000,1000,1000,1000,0,0,0,0,0,0,0,0,0,0
1684064677.60049582,108828951,1000,1000,1000,1000,0,0,0,0,0,0,0,0,0,0
1684064677.70045590,108928911,1000,1000,1000,1000,0,0,0,0,0,0,0,0,0,0
1684064677.80041599,109028871,1000,1000,1000,1000,0,0,0,0,0,0,0,0,0,0
1684064677.90037584,109128831,1000,1000,1000,1000,0,0,0,0,0,0,0,0,0,0
