TimeUS,M1,M2,M3,M4,TimeUS,C1,C2,C3,C4
43353485,1000,1000,1000,1000,43428455,1000,1000,1000,1000
43355984,1000,1000,1000,1000,43528415,1000,1000,1000,1000
43358483,1000,1000,1000,1000,43628375,1000,1000,1000,1000
43360982,1000,1000,1000,1000,43728335,1000,1000,1000,1000
43363481,1000,1000,1000,1000,43828295,1000,1000,1000,1000
43365980,1000,1000,1000,1000,43928255,1000,1000,1000,1000
43368479,1000,1000,1000,1000,44028215,1000,1000,1000,1000
43370978,1000,1000,1000,1000,44128175,1000,1000,1000,1000
43373477,1000,1000,1000,1000,44228968,1000,1000,1000,1000
43375976,1000,1000,1000,1000,44328928,1000,1000,1000,1000
43378475,1000,1000,1000,1000,44428888,1000,1000,1000,1000
43380974,1000,1000,1000,1000,44528848,1000,1000,1000,1000
43383473,1000,1000,1000,1000,44628808,1000,1000,1000,1000
43385972,1000,1000,1000,1000,44728768,1000,1000,1000,1000
43388471,1000,1000,1000,1000,44828728,1000,1000,1000,1000
43390970,1000,1000,1000,1000,44928688,1000,1000,1000,1000
43393469,1000,1000,1000,1000,45028648,1000,1000,1000,1000
43395968,1000,1000,1000,1000,45128608,1000,1000,1000,1000
43398467,1000,1000,1000,1000,45228568,1000,1000,1000,1000
43400966,1000,1000,1000,1000,45328528,1000,1000,1000,1000
43403465,1000,1000,1000,1000,45428488,1023,1023,1023,1023
43405964,1000,1000,1000,1000,45528448,1053,1053,1053,1053
43408463,1000,1000,1000,1000,45628408,1083,1083,1083,1083
43410962,1000,1000,1000,1000,45728368,1113,1113,1113,1113
43413461,1000,1000,1000,1000,45828328,1143,1143,1143,1143
43415960,1000,1000,1000,1000,45928288,1351,1346,1347,1351
43418459,1000,1000,1000,1000,46028248,1542,1538,1538,1542
43420958,1000,1000,1000,1000,46128208,1695,1691,1691,1695
43423457,1000,1000,1000,1000,46228168,1826,1823,1823,1826
43425956,1000,1000,1000,1000,46328961,1884,1880,1881,1885
43428455,1000,1000,1000,1000,46428921,1836,1834,1835,1836
43430954,1000,1000,1000,1000,46528881,1706,1706,1706,1706
43433453,1000,1000,1000,1000,46628841,1631,1633,1633,1632
43435952,1000,1000,1000,1000,46728801,1620,1621,1621,1620
43438451,1000,1000,1000,1000,46828761,1631,1632,1632,1631
43440950,1000,1000,1000,1000,46928721,1636,1636,1636,1636
43443449,1000,1000,1000,1000,47028681,1633,1634,1633,1633
43445948,1000,1000,1000,1000,47128641,1626,1625,1625,1625
43448447,1000,1000,1000,1000,47228601,1620,1619,1619,1620
43450946,1000,1000,1000,1000,47328561,1616,1615,1615,1616
43453445,1000,1000,1000,1000,47428521,1616,1615,1616,1616
43455944,1000,1000,1000,1000,47528481,1617,1617,1617,1617
43458443,1000,1000,1000,1000,47628441,1617,1618,1618,1618
43460942,1000,1000,1000,1000,47728401,1618,1619,1618,1618
43463441,1000,1000,1000,1000,47828361,1620,1620,1620,1620
43465940,1000,1000,1000,1000,47928321,1621,1621,1621,1621
43468439,1000,1000,1000,1000,48028281,1620,1621,1621,1621
43470938,1000,1000,1000,1000,48128241,1590,1590,1590,1590
43473437,1000,1000,1000,1000,48228201,1578,1577,1578,1578
43475936,1000,1000,1000,1000,48328161,1568,1568,1568,1568
43478435,1000,1000,1000,1000,48428954,1559,1559,1558,1559
43480934,1000,1000,1000,1000,48528914,1551,1551,1551,1551
43483433,1000,1000,1000,1000,48628874,1543,1544,1543,1544
43485932,1000,1000,1000,1000,48728834,1535,1534,1534,1535
43488431,1000,1000,1000,1000,48828794,1524,1524,1523,1525
43490930,1000,1000,1000,1000,48928754,1516,1516,1515,1517
43493429,1000,1000,1000,1000,49028714,1510,1511,1510,1511
43495928,1000,1000,1000,1000,49128674,1507,1507,1506,1507
43498427,1000,1000,1000,1000,49228634,1505,1505,1505,1505
43500926,1000,1000,1000,1000,49328594,1502,1502,1502,1502
43503425,1000,1000,1000,1000,49428554,1500,1500,1500,1500
43505924,1000,1000,1000,1000,49528514,1498,1498,1498,1498
43508423,1000,1000,1000,1000,49628474,1495,1496,1495,1496
43510922,1000,1000,1000,1000,49728434,1495,1495,1495,1496
43513421,1000,1000,1000,1000,49828394,1494,1494,1493,1495
43515920,1000,1000,1000,1000,49928354,1493,1493,1493,1493
43518419,1000,1000,1000,1000,50028314,1513,1513,1515,1512
43520918,1000,1000,1000,1000,50128274,1542,1541,1548,1536
43523417,1000,1000,1000,1000,50228234,1553,1553,1556,1549
43525916,1000,1000,1000,1000,50328194,1562,1562,1560,1563
43528415,1000,1000,1000,1000,50428154,1567,1566,1563,1571
43530914,1000,1000,1000,1000,50528947,1570,1570,1565,1575
43533413,1000,1000,1000,1000,50628907,1571,1571,1567,1575
43535912,1000,1000,1000,1000,50728867,1573,1573,1571,1576
43538411,1000,1000,1000,1000,50828827,1575,1575,1576,1574
43540910,1000,1000,1000,1000,50928787,1576,1576,1579,1573
43543409,1000,1000,1000,1000,51028747,1576,1577,1580,1573
43545908,1000,1000,1000,1000,51128707,1576,1577,1578,1575
43548407,1000,1000,1000,1000,51228667,1575,1574,1575,1574
43550906,1000,1000,1000,1000,51328627,1574,1572,1573,1575
43553405,1000,1000,1000,1000,51428587,1566,1566,1575,1579
43555904,1000,1000,1000,1000,51528547,1565,1566,1574,1578
43558403,1000,1000,1000,1000,51628507,1566,1567,1572,1574
43560902,1000,1000,1000,1000,51728467,1568,1568,1571,1571
43563401,1000,1000,1000,1000,51828427,1570,1569,1570,1569
43565900,1000,1000,1000,1000,51928387,1571,1571,1568,1567
43568399,1000,1000,1000,1000,52028347,1572,1572,1568,1566
43570898,1000,1000,1000,1000,52128307,1572,1572,1566,1566
43573397,1000,1000,1000,1000,52228267,1573,1573,1566,1566
43575896,1000,1000,1000,1000,52328227,1574,1573,1568,1568
43578395,1000,1000,1000,1000,52428187,1574,1573,1569,1569
43580894,1000,1000,1000,1000,52528980,1574,1574,1570,1571
43583393,1000,1000,1000,1000,52628940,1574,1574,1572,1572
43585892,1000,1000,1000,1000,52728900,1574,1574,1573,1573
43588391,1000,1000,1000,1000,52828860,1574,1574,1575,1574
43590890,1000,1000,1000,1000,52928820,1573,1573,1576,1574
43593389,1000,1000,1000,1000,53028780,1574,1574,1577,1576
43595888,1000,1000,1000,1000,53128740,1575,1575,1578,1577
43598387,1000,1000,1000,1000,53228700,1575,1575,1577,1577
43600886,1000,1000,1000,1000,53328660,1575,1575,1577,1577
43603385,1000,1000,1000,1000,53428620,1576,1576,1577,1577
43605884,1000,1000,1000,1000,53528580,1576,1576,1576,1577
43608383,1000,1000,1000,1000,53628540,1576,1577,1577,1577
43610882,1000,1000,1000,1000,53728500,1577,1577,1577,1577
43613381,1000,1000,1000,1000,53828460,1577,1577,1577,1577
43615880,1000,1000,1000,1000,53928420,1578,1578,1577,1577
43618379,1000,1000,1000,1000,54028380,1578,1578,1578,1577
43620878,1000,1000,1000,1000,54128340,1579,1579,1578,1577
43623377,1000,1000,1000,1000,54228300,1579,1579,1578,1578
43625876,1000,1000,1000,1000,54328260,1579,1579,1578,1579
43628375,1000,1000,1000,1000,54428220,1579,1579,1578,1578
43630874,1000,1000,1000,1000,54528180,1579,1579,1579,1579
43633373,1000,1000,1000,1000,54628973,1579,1579,1579,1579
43635872,1000,1000,1000,1000,54728933,1578,1579,1579,1579
43638371,1000,1000,1000,1000,54828893,1579,1579,1580,1579
43640870,1000,1000,1000,1000,54928853,1579,1579,1580,1580
43643369,1000,1000,1000,1000,55028813,1579,1579,1580,1579
43645868,1000,1000,1000,1000,55128773,1580,1579,1580,1580
43648367,1000,1000,1000,1000,55228733,1579,1579,1579,1579
43650866,1000,1000,1000,1000,55328693,1579,1578,1578,1579
43653365,1000,1000,1000,1000,55428653,1579,1579,1579,1579
43655864,1000,1000,1000,1000,55528613,1579,1579,1579,1579
43658363,1000,1000,1000,1000,55628573,1580,1579,1579,1579
43660862,1000,1000,1000,1000,55728533,1580,1579,1579,1579
43663361,1000,1000,1000,1000,55828493,1579,1579,1579,1578
43665860,1000,1000,1000,1000,55928453,1580,1580,1579,1580
43668359,1000,1000,1000,1000,56028413,1580,1580,1580,1580
43670858,1000,1000,1000,1000,56128373,1580,1580,1580,1580
43673357,1000,1000,1000,1000,56228333,1580,1581,1581,1580
43675856,1000,1000,1000,1000,56328293,1581,1581,1581,1581
43678355,1000,1000,1000,1000,56428253,1580,1580,1580,1581
43680854,1000,1000,1000,1000,56528213,1581,1581,1581,1581
43683353,1000,1000,1000,1000,56628173,1580,1580,1581,1581
43685852,1000,1000,1000,1000,56728966,1580,1580,1581,1581
43688351,1000,1000,1000,1000,56828926,1582,1582,1582,1582
43690850,1000,1000,1000,1000,56928886,1581,1582,1582,1582
43693349,1000,1000,1000,1000,57028846,1580,1581,1580,1581
43695848,1000,1000,1000,1000,57128806,1581,1581,1581,1581
43698347,1000,1000,1000,1000,57228766,1582,1582,1582,1582
43700846,1000,1000,1000,1000,57328726,1582,1582,1582,1582
43703345,1000,1000,1000,1000,57428686,1582,1582,1582,1581
43705844,1000,1000,1000,1000,57528646,1581,1581,1581,1581
43708343,1000,1000,1000,1000,57628606,1582,1582,1585,1578
43710842,1000,1000,1000,1000,57728566,1581,1583,1589,1574
43713341,1000,1000,1000,1000,57828526,1580,1582,1582,1574
43715840,1000,1000,1000,1000,57928486,1577,1580,1573,1573
43718339,1000,1000,1000,1000,58028446,1577,1580,1565,1570
43720838,1000,1000,1000,1000,58128406,1577,1579,1559,1567
43723337,1000,1000,1000,1000,58228366,1578,1578,1556,1562
43725836,1000,1000,1000,1000,58328326,1578,1577,1555,1557
43728335,1000,1000,1000,1000,58428286,1579,1578,1556,1555
43730834,1000,1000,1000,1000,58528246,1578,1577,1556,1553
43733333,1000,1000,1000,1000,58628206,1576,1577,1556,1553
43735832,1000,1000,1000,1000,58728166,1577,1577,1557,1554
43738331,1000,1000,1000,1000,58828959,1575,1577,1556,1554
43740830,1000,1000,1000,1000,58928919,1575,1576,1554,1554
43743329,1000,1000,1000,1000,59028879,1574,1576,1552,1553
43745828,1000,1000,1000,1000,59128839,1575,1576,1550,1551
43748327,1000,1000,1000,1000,59228799,1576,1578,1548,1549
43750826,1000,1000,1000,1000,59328759,1579,1580,1547,1547
43753325,1000,1000,1000,1000,59428719,1581,1582,1544,1543
43755824,1000,1000,1000,1000,59528679,1584,1585,1541,1541
43758323,1000,1000,1000,1000,59628639,1588,1589,1539,1538
43760822,1000,1000,1000,1000,59728599,1591,1592,1537,1537
43763321,1000,1000,1000,1000,59828559,1594,1594,1535,1536
43765820,1000,1000,1000,1000,59928519,1595,1595,1534,1536
43768319,1000,1000,1000,1000,60028479,1594,1594,1534,1535
43770818,1000,1000,1000,1000,60128439,1593,1593,1536,1538
43773317,1000,1000,1000,1000,60228399,1591,1590,1540,1543
43775816,1000,1000,1000,1000,60328359,1587,1585,1547,1550
43778315,1000,1000,1000,1000,60428319,1580,1577,1555,1558
43780814,1000,1000,1000,1000,60528279,1271,1271,1609,1613
43783313,1000,1000,1000,1000,60628239,1358,1362,1656,1660
43785812,1000,1000,1000,1000,60728199,1422,1426,1658,1655
43788311,1000,1000,1000,1000,60828159,1477,1480,1649,1641
43790810,1000,1000,1000,1000,60928952,1521,1521,1639,1632
43793309,1000,1000,1000,1000,61028912,1554,1551,1630,1626
43795808,1000,1000,1000,1000,61128872,1582,1574,1617,1617
43798307,1000,1000,1000,1000,61228832,1600,1591,1571,1576
43800806,1000,1000,1000,1000,61328792,1600,1594,1539,1550
43803305,1000,1000,1000,1000,61428752,1597,1600,1541,1550
43805804,1000,1000,1000,1000,61528712,1594,1600,1549,1551
43808303,1000,1000,1000,1000,61628672,1594,1600,1559,1557
43810802,1000,1000,1000,1000,61728632,1597,1600,1570,1566
43813301,1000,1000,1000,1000,61828592,1600,1599,1577,1573
43815800,1000,1000,1000,1000,61928552,1600,1597,1578,1577
43818299,1000,1000,1000,1000,62028512,1600,1596,1578,1580
43820798,1000,1000,1000,1000,62128472,1600,1598,1581,1583
43823297,1000,1000,1000,1000,62228432,1600,1599,1583,1585
43825796,1000,1000,1000,1000,62328392,1599,1600,1585,1586
43828295,1000,1000,1000,1000,62428352,1600,1599,1587,1586
43830794,1000,1000,1000,1000,62528312,1599,1600,1588,1586
43833293,1000,1000,1000,1000,62628272,1599,1600,1588,1587
43835792,1000,1000,1000,1000,62728232,1598,1598,1586,1585
43838291,1000,1000,1000,1000,62828192,1596,1597,1583,1583
43840790,1000,1000,1000,1000,62928985,1595,1596,1581,1582
43843289,1000,1000,1000,1000,63028945,1593,1594,1579,1579
43845788,1000,1000,1000,1000,63128905,1593,1594,1579,1578
43848287,1000,1000,1000,1000,63228865,1592,1593,1577,1576
43850786,1000,1000,1000,1000,63328825,1592,1592,1577,1575
43853285,1000,1000,1000,1000,63428785,1590,1590,1574,1574
43855784,1000,1000,1000,1000,63528745,1589,1588,1572,1572
43858283,1000,1000,1000,1000,63628705,1588,1588,1570,1571
43860782,1000,1000,1000,1000,63728665,1587,1587,1570,1570
43863281,1000,1000,1000,1000,63828625,1586,1587,1569,1569
43865780,1000,1000,1000,1000,63928585,1586,1586,1569,1569
43868279,1000,1000,1000,1000,64028545,1586,1586,1570,1569
43870778,1000,1000,1000,1000,64128505,1585,1586,1569,1569
43873277,1000,1000,1000,1000,64228465,1586,1585,1569,1569
43875776,1000,1000,1000,1000,64328425,1585,1585,1569,1569
43878275,1000,1000,1000,1000,64428385,1586,1586,1569,1569
43880774,1000,1000,1000,1000,64528345,1585,1585,1569,1568
43883273,1000,1000,1000,1000,64628305,1586,1587,1570,1570
43885772,1000,1000,1000,1000,64728265,1586,1587,1570,1570
43888271,1000,1000,1000,1000,64828225,1587,1587,1570,1571
43890770,1000,1000,1000,1000,64928185,1588,1587,1571,1572
43893269,1000,1000,1000,1000,65028978,1587,1587,1570,1570
43895768,1000,1000,1000,1000,65128938,1588,1588,1571,1571
43898267,1000,1000,1000,1000,65228898,1588,1588,1572,1572
43900766,1000,1000,1000,1000,65328858,1588,1589,1571,1572
43903265,1000,1000,1000,1000,65428818,1589,1589,1572,1572
43905764,1000,1000,1000,1000,65528778,1588,1588,1571,1570
43908263,1000,1000,1000,1000,65628738,1589,1589,1572,1571
43910762,1000,1000,1000,1000,65728698,1592,1586,1578,1565
43913261,1000,1000,1000,1000,65828658,1588,1577,1581,1573
43915760,1000,1000,1000,1000,65928618,1573,1565,1587,1587
43918259,1000,1000,1000,1000,66028578,1556,1554,1591,1596
43920758,1000,1000,1000,1000,66128538,1544,1549,1593,1599
43923257,1000,1000,1000,1000,66228498,1538,1548,1590,1594
43925756,1000,1000,1000,1000,66328458,1540,1550,1588,1588
43928255,1000,1000,1000,1000,66428418,1544,1552,1585,1581
43930754,1000,1000,1000,1000,66528378,1551,1555,1580,1574
43933253,1000,1000,1000,1000,66628338,1557,1557,1573,1567
43935752,1000,1000,1000,1000,66728298,1564,1561,1565,1562
43938251,1000,1000,1000,1000,66828258,1572,1567,1553,1553
43940750,1000,1000,1000,1000,66928218,1579,1575,1542,1543
43943249,1000,1000,1000,1000,67028178,1585,1583,1534,1535
43945748,1000,1000,1000,1000,67128971,1589,1589,1529,1531
43948247,1000,1000,1000,1000,67228931,1591,1593,1529,1529
43950746,1000,1000,1000,1000,67328891,1591,1594,1530,1529
43953245,1000,1000,1000,1000,67428851,1590,1593,1532,1531
43955744,1000,1000,1000,1000,67528811,1589,1591,1535,1534
43958243,1000,1000,1000,1000,67628771,1587,1589,1538,1537
43960742,1000,1000,1000,1000,67728731,1586,1586,1540,1540
43963241,1000,1000,1000,1000,67828691,1584,1584,1541,1542
43965740,1000,1000,1000,1000,67928651,1583,1583,1542,1543
43968239,1000,1000,1000,1000,68028611,1582,1582,1544,1545
43970738,1000,1000,1000,1000,68128571,1582,1582,1545,1547
43973237,1000,1000,1000,1000,68228531,1581,1581,1548,1550
43975736,1000,1000,1000,1000,68328491,1579,1579,1550,1552
43978235,1000,1000,1000,1000,68428451,1576,1576,1553,1555
43980734,1000,1000,1000,1000,68528411,1572,1571,1558,1561
43983233,1000,1000,1000,1000,68628371,1568,1566,1565,1568
43985732,1000,1000,1000,1000,68728331,1563,1561,1570,1572
43988231,1000,1000,1000,1000,68828291,1558,1557,1574,1577
43990730,1000,1000,1000,1000,68928251,1555,1554,1577,1579
43993229,1000,1000,1000,1000,69028211,1552,1552,1580,1581
43995728,1000,1000,1000,1000,69128171,1550,1550,1584,1584
43998227,1000,1000,1000,1000,69228964,1549,1549,1586,1585
44000726,1000,1000,1000,1000,69328924,1548,1548,1588,1587
44003225,1000,1000,1000,1000,69428884,1549,1549,1590,1588
44005724,1000,1000,1000,1000,69528844,1549,1549,1589,1588
44008223,1000,1000,1000,1000,69628804,1550,1550,1588,1589
44010722,1000,1000,1000,1000,69728764,1552,1552,1588,1588
44013221,1000,1000,1000,1000,69828724,1554,1555,1587,1587
44015720,1000,1000,1000,1000,69928684,1557,1557,1585,1585
44018219,1000,1000,1000,1000,70028644,1561,1561,1585,1585
44020718,1000,1000,1000,1000,70128604,1563,1564,1583,1583
44023217,1000,1000,1000,1000,70228564,1567,1567,1582,1581
44025716,1000,1000,1000,1000,70328524,1570,1570,1581,1580
44028215,1000,1000,1000,1000,70428484,1573,1573,1580,1579
44030714,1000,1000,1000,1000,70528444,1575,1574,1578,1578
44033213,1000,1000,1000,1000,70628404,1577,1577,1578,1577
44035712,1000,1000,1000,1000,70728364,1579,1578,1577,1577
44038211,1000,1000,1000,1000,70828324,1580,1579,1576,1576
44040710,1000,1000,1000,1000,70928284,1581,1580,1575,1576
44043209,1000,1000,1000,1000,71028244,1581,1581,1575,1575
44045708,1000,1000,1000,1000,71128204,1582,1581,1575,1575
44048207,1000,1000,1000,1000,71228164,1582,1582,1575,1575
44050706,1000,1000,1000,1000,71328957,1582,1582,1576,1576
44053205,1000,1000,1000,1000,71428917,1582,1582,1576,1576
44055704,1000,1000,1000,1000,71528877,1583,1583,1578,1577
44058203,1000,1000,1000,1000,71628837,1583,1583,1578,1577
44060702,1000,1000,1000,1000,71728797,1582,1582,1577,1577
44063201,1000,1000,1000,1000,71828757,1582,1582,1578,1578
44065700,1000,1000,1000,1000,71928717,1582,1582,1579,1578
44068199,1000,1000,1000,1000,72028677,1581,1581,1578,1578
44070698,1000,1000,1000,1000,72128637,1581,1581,1578,1579
44073197,1000,1000,1000,1000,72228597,1581,1581,1579,1580
44075696,1000,1000,1000,1000,72328557,1580,1581,1579,1579
44078195,1000,1000,1000,1000,72428517,1580,1580,1579,1580
44080694,1000,1000,1000,1000,72528477,1580,1580,1580,1580
44083193,1000,1000,1000,1000,72628437,1581,1581,1581,1580
44085692,1000,1000,1000,1000,72728397,1580,1580,1580,1580
44088191,1000,1000,1000,1000,72828357,1580,1580,1580,1580
44090690,1000,1000,1000,1000,72928317,1580,1581,1581,1581
44093189,1000,1000,1000,1000,73028277,1580,1580,1581,1581
44095688,1000,1000,1000,1000,73128237,1580,1580,1581,1581
44098187,1000,1000,1000,1000,73228197,1580,1580,1580,1580
44100686,1000,1000,1000,1000,73328157,1580,1580,1580,1580
44103185,1000,1000,1000,1000,73428950,1580,1580,1580,1580
44105684,1000,1000,1000,1000,73528910,1580,1580,1580,1580
44108183,1000,1000,1000,1000,73628870,1580,1581,1580,1580
44110682,1000,1000,1000,1000,73728830,1580,1581,1580,1580
44113181,1000,1000,1000,1000,73828790,1581,1581,1581,1581
44115680,1000,1000,1000,1000,73928750,1581,1580,1580,1580
44118179,1000,1000,1000,1000,74028710,1581,1581,1581,1580
44120678,1000,1000,1000,1000,74128670,1581,1581,1581,1581
44123177,1000,1000,1000,1000,74228630,1581,1581,1581,1580
44125676,1000,1000,1000,1000,74328590,1582,1581,1581,1581
44128175,1000,1000,1000,1000,74428550,1581,1581,1581,1581
44130674,1000,1000,1000,1000,74528510,1582,1582,1581,1582
44133173,1000,1000,1000,1000,74628470,1581,1582,1581,1581
44135672,1000,1000,1000,1000,74728430,1581,1581,1586,1576
44138171,1000,1000,1000,1000,74828390,1581,1581,1586,1572
44140670,1000,1000,1000,1000,74928350,1580,1580,1579,1573
44143169,1000,1000,1000,1000,75028310,1578,1579,1569,1571
44145668,1000,1000,1000,1000,75128270,1576,1578,1562,1568
44148167,1000,1000,1000,1000,75228230,1574,1577,1558,1564
44150666,1000,1000,1000,1000,75328190,1574,1576,1556,1560
44153165,1000,1000,1000,1000,75428983,1575,1577,1557,1558
44155664,1000,1000,1000,1000,75528943,1575,1576,1557,1556
44158163,1000,1000,1000,1000,75628903,1576,1576,1557,1555
44160662,1000,1000,1000,1000,75728863,1576,1575,1556,1554
44163161,1000,1000,1000,1000,75828823,1575,1575,1555,1554
44165660,1000,1000,1000,1000,75928783,1575,1575,1554,1553
44168159,1000,1000,1000,1000,76028743,1575,1576,1553,1553
44170658,1000,1000,1000,1000,76128703,1575,1576,1551,1552
44173157,1000,1000,1000,1000,76228663,1576,1577,1550,1550
44175656,1000,1000,1000,1000,76328623,1576,1577,1548,1547
44178155,1000,1000,1000,1000,76428583,1577,1579,1547,1546
44180654,1000,1000,1000,1000,76528543,1579,1581,1545,1545
44183986,1000,1000,1000,1000,76628503,1581,1582,1543,1542
44186485,1000,1000,1000,1000,76728463,1584,1584,1542,1542
44188984,1000,1000,1000,1000,76828423,1587,1587,1542,1541
44191483,1000,1000,1000,1000,76928383,1589,1588,1540,1540
44193982,1000,1000,1000,1000,77028343,1591,1590,1540,1542
44196481,1000,1000,1000,1000,77128303,1591,1590,1541,1542
44198980,1000,1000,1000,1000,77228263,1590,1590,1542,1545
44201479,1000,1000,1000,1000,77328223,1589,1588,1544,1547
44203978,1000,1000,1000,1000,77428183,1586,1586,1547,1550
44206477,1000,1000,1000,1000,77528976,1583,1582,1552,1555
44208976,1000,1000,1000,1000,77628936,1579,1578,1559,1562
44211475,1000,1000,1000,1000,77728896,1574,1571,1567,1570
44213974,1000,1000,1000,1000,77828856,1566,1563,1576,1577
44216473,1000,1000,1000,1000,77928816,1558,1555,1586,1586
44218972,1000,1000,1000,1000,78028776,1549,1547,1595,1595
44221471,1000,1000,1000,1000,78128736,1541,1540,1604,1603
44223970,1000,1000,1000,1000,78228696,1535,1536,1609,1609
44226469,1000,1000,1000,1000,78328656,1532,1533,1611,1610
44228968,1000,1000,1000,1000,78428616,1532,1534,1610,1609
44231467,1000,1000,1000,1000,78528576,1535,1538,1607,1607
44233966,1000,1000,1000,1000,78628536,1540,1543,1602,1602
44236465,1000,1000,1000,1000,78728496,1547,1549,1596,1596
44238964,1000,1000,1000,1000,78828456,1555,1556,1590,1589
44241463,1000,1000,1000,1000,78928416,1564,1564,1584,1583
44243962,1000,1000,1000,1000,79028376,1571,1571,1577,1576
44246461,1000,1000,1000,1000,79128336,1578,1577,1572,1571
44248960,1000,1000,1000,1000,79228296,1583,1581,1568,1568
44251459,1000,1000,1000,1000,79328256,1587,1585,1566,1566
44253958,1000,1000,1000,1000,79428216,1589,1587,1565,1565
44256457,1000,1000,1000,1000,79528176,1590,1588,1566,1567
44258956,1000,1000,1000,1000,79628969,1588,1587,1567,1568
44261455,1000,1000,1000,1000,79728929,1587,1587,1570,1571
44263954,1000,1000,1000,1000,79828889,1585,1586,1573,1574
44266453,1000,1000,1000,1000,79928849,1584,1584,1577,1577
44268952,1000,1000,1000,1000,80028809,1581,1582,1579,1579
44271451,1000,1000,1000,1000,80128769,1580,1580,1582,1582
44273950,1000,1000,1000,1000,80228729,1578,1578,1583,1583
44276449,1000,1000,1000,1000,80328689,1576,1576,1584,1584
44278948,1000,1000,1000,1000,80428649,1574,1575,1584,1585
44281447,1000,1000,1000,1000,80528609,1574,1575,1585,1585
44283946,1000,1000,1000,1000,80628569,1574,1575,1585,1585
44286445,1000,1000,1000,1000,80728529,1575,1576,1584,1584
44288944,1000,1000,1000,1000,80828489,1576,1576,1583,1583
44291443,1000,1000,1000,1000,80928449,1576,1577,1581,1581
44293942,1000,1000,1000,1000,81028409,1578,1577,1580,1580
44296441,1000,1000,1000,1000,81128369,1579,1578,1579,1579
44298940,1000,1000,1000,1000,81228329,1579,1579,1578,1577
44301439,1000,1000,1000,1000,81328289,1581,1580,1577,1577
44303938,1000,1000,1000,1000,81428249,1581,1581,1577,1577
44306437,1000,1000,1000,1000,81528209,1581,1581,1576,1577
44308936,1000,1000,1000,1000,81628169,1582,1582,1577,1578
44311435,1000,1000,1000,1000,81728962,1582,1582,1578,1578
44313934,1000,1000,1000,1000,81828922,1583,1582,1580,1579
44316433,1000,1000,1000,1000,81928882,1583,1583,1580,1580
44318932,1000,1000,1000,1000,82028842,1582,1582,1581,1580
44321431,1000,1000,1000,1000,82128802,1581,1581,1580,1581
44323930,1000,1000,1000,1000,82228762,1581,1580,1580,1580
44326429,1000,1000,1000,1000,82328722,1581,1581,1581,1581
44328928,1000,1000,1000,1000,82428682,1580,1580,1580,1581
44331427,1000,1000,1000,1000,82528642,1579,1580,1580,1580
44333926,1000,1000,1000,1000,82628602,1580,1580,1581,1581
44336425,1000,1000,1000,1000,82728562,1580,1580,1581,1581
44338924,1000,1000,1000,1000,82828522,1580,1580,1581,1581
44341423,1000,1000,1000,1000,82928482,1581,1580,1588,1575
44343922,1000,1000,1000,1000,83028442,1580,1579,1586,1574
44346421,1000,1000,1000,1000,83128402,1578,1577,1578,1575
44348920,1000,1000,1000,1000,83228362,1576,1575,1572,1574
44351419,1000,1000,1000,1000,83328322,1573,1572,1566,1573
44353918,1000,1000,1000,1000,83428282,1570,1570,1563,1570
44356417,1000,1000,1000,1000,83528242,1568,1569,1563,1567
44358916,1000,1000,1000,1000,83628202,1567,1568,1566,1566
44361415,1000,1000,1000,1000,83728162,1566,1567,1567,1565
44363914,1000,1000,1000,1000,83828955,1566,1566,1568,1565
44366413,1000,1000,1000,1000,83928915,1565,1565,1567,1565
44368912,1000,1000,1000,1000,84028875,1565,1565,1568,1566
44371411,1000,1000,1000,1000,84128835,1563,1563,1564,1564
44373910,1000,1000,1000,1000,84228795,1562,1562,1564,1564
44376409,1000,1000,1000,1000,84328755,1562,1561,1563,1564
44378908,1000,1000,1000,1000,84428715,1562,1562,1564,1563
44381407,1000,1000,1000,1000,84528675,1562,1561,1563,1563
44383906,1000,1000,1000,1000,84628635,1561,1560,1561,1561
44386405,1000,1000,1000,1000,84728595,1560,1560,1561,1560
44388904,1000,1000,1000,1000,84828555,1558,1559,1559,1558
44391403,1000,1000,1000,1000,84928515,1558,1558,1558,1557
44393902,1000,1000,1000,1000,85028475,1559,1559,1559,1558
44396401,1000,1000,1000,1000,85128435,1559,1559,1560,1559
44398900,1000,1000,1000,1000,85228395,1558,1560,1539,1580
44401399,1000,1000,1000,1000,85328355,1557,1557,1562,1550
44403898,1000,1000,1000,1000,85428315,1555,1554,1567,1538
44406397,1000,1000,1000,1000,85528275,1551,1549,1554,1539
44408896,1000,1000,1000,1000,85628235,1546,1544,1541,1541
44411395,1000,1000,1000,1000,85728195,1540,1540,1530,1541
44413894,1000,1000,1000,1000,85828155,1534,1535,1522,1536
44416393,1000,1000,1000,1000,85928948,1527,1529,1517,1529
44418892,1000,1000,1000,1000,86028908,1523,1524,1517,1523
44421391,1000,1000,1000,1000,86128868,1522,1523,1521,1522
44423890,1000,1000,1000,1000,86228828,1520,1521,1523,1521
44426389,1000,1000,1000,1000,86328788,1521,1520,1525,1523
44428888,1000,1000,1000,1000,86428748,1523,1522,1530,1527
44431387,1000,1000,1000,1000,86528708,1526,1525,1534,1534
44433886,1000,1000,1000,1000,86628668,1531,1530,1540,1540
44436385,1000,1000,1000,1000,86728628,1534,1533,1542,1544
44438884,1000,1000,1000,1000,86828588,1537,1537,1544,1545
44441383,1000,1000,1000,1000,86928548,1540,1541,1546,1547
44443882,1000,1000,1000,1000,87028508,1543,1543,1546,1547
44446381,1000,1000,1000,1000,87128468,1545,1545,1546,1546
44448880,1000,1000,1000,1000,87228428,1547,1547,1545,1545
44451379,1000,1000,1000,1000,87328388,1548,1548,1545,1544
44453878,1000,1000,1000,1000,87428348,1549,1549,1544,1544
44456377,1000,1000,1000,1000,87528308,1550,1550,1544,1545
44458876,1000,1000,1000,1000,87628268,1551,1551,1545,1545
44461375,1000,1000,1000,1000,87728228,1550,1550,1545,1545
44463874,1000,1000,1000,1000,87828188,1549,1549,1544,1544
44466373,1000,1000,1000,1000,87928981,1549,1549,1545,1544
44468872,1000,1000,1000,1000,88028941,1548,1548,1545,1545
44471371,1000,1000,1000,1000,88128901,1547,1547,1545,1545
44473870,1000,1000,1000,1000,88228861,1546,1546,1546,1546
44476369,1000,1000,1000,1000,88328821,1546,1546,1546,1547
44478868,1000,1000,1000,1000,88428781,1544,1544,1546,1545
44481367,1000,1000,1000,1000,88528741,1543,1543,1545,1545
44483866,1000,1000,1000,1000,88628701,1543,1543,1545,1545
44486365,1000,1000,1000,1000,88728661,1543,1543,1545,1545
44488864,1000,1000,1000,1000,88828621,1543,1543,1545,1545
44491363,1000,1000,1000,1000,88928581,1543,1542,1545,1544
44493862,1000,1000,1000,1000,89028541,1542,1543,1544,1544
44496361,1000,1000,1000,1000,89128501,1543,1544,1545,1545
44498860,1000,1000,1000,1000,89228461,1543,1543,1544,1544
44501359,1000,1000,1000,1000,89328421,1543,1543,1543,1543
44503858,1000,1000,1000,1000,89428381,1543,1543,1543,1543
44506357,1000,1000,1000,1000,89528341,1544,1544,1544,1543
44508856,1000,1000,1000,1000,89628301,1544,1544,1544,1543
44511355,1000,1000,1000,1000,89728261,1545,1545,1544,1544
44513854,1000,1000,1000,1000,89828221,1545,1545,1544,1544
44516353,1000,1000,1000,1000,89928181,1544,1544,1543,1544
44518852,1000,1000,1000,1000,90028974,1545,1545,1544,1544
44521351,1000,1000,1000,1000,90128934,1544,1544,1543,1544
44523850,1000,1000,1000,1000,90228894,1545,1545,1544,1544
44526349,1000,1000,1000,1000,90328854,1545,1544,1544,1544
44528848,1000,1000,1000,1000,90428814,1545,1545,1545,1545
44531347,1000,1000,1000,1000,90528774,1545,1544,1545,1544
44533846,1000,1000,1000,1000,90628734,1544,1544,1544,1544
44536345,1000,1000,1000,1000,90728694,1545,1544,1545,1545
44538844,1000,1000,1000,1000,90828654,1544,1544,1545,1545
44541343,1000,1000,1000,1000,90928614,1545,1544,1545,1545
44543842,1000,1000,1000,1000,91028574,1544,1544,1544,1545
44546341,1000,1000,1000,1000,91128534,1544,1544,1544,1544
44548840,1000,1000,1000,1000,91228494,1544,1544,1545,1544
44551339,1000,1000,1000,1000,91328454,1545,1544,1545,1544
44553838,1000,1000,1000,1000,91428414,1544,1544,1544,1544
44556337,1000,1000,1000,1000,91528374,1545,1544,1544,1545
44558836,1000,1000,1000,1000,91628334,1544,1545,1544,1544
44561335,1000,1000,1000,1000,91728294,1544,1544,1544,1544
44563834,1000,1000,1000,1000,91828254,1544,1544,1544,1544
44566333,1000,1000,1000,1000,91928214,1544,1544,1544,1544
44568832,1000,1000,1000,1000,92028174,1544,1544,1544,1544
44571331,1000,1000,1000,1000,92128967,1545,1544,1544,1544
44573830,1000,1000,1000,1000,92228927,1545,1545,1545,1544
44576329,1000,1000,1000,1000,92328887,1544,1544,1544,1545
44578828,1000,1000,1000,1000,92428847,1544,1545,1544,1545
44581327,1000,1000,1000,1000,92528807,1544,1544,1544,1544
44583826,1000,1000,1000,1000,92628767,1545,1544,1545,1544
44586325,1000,1000,1000,1000,92728727,1545,1545,1545,1545
44588824,1000,1000,1000,1000,92828687,1545,1545,1545,1544
44591323,1000,1000,1000,1000,92928647,1544,1544,1544,1544
44593822,1000,1000,1000,1000,93028607,1545,1544,1544,1545
44596321,1000,1000,1000,1000,93128567,1545,1545,1545,1545
44598820,1000,1000,1000,1000,93228527,1545,1545,1545,1545
44601319,1000,1000,1000,1000,93328487,1545,1545,1545,1545
44603818,1000,1000,1000,1000,93428447,1544,1544,1544,1544
44606317,1000,1000,1000,1000,93528407,1545,1544,1544,1545
44608816,1000,1000,1000,1000,93628367,1545,1545,1545,1545
44611315,1000,1000,1000,1000,93728327,1545,1545,1545,1545
44613814,1000,1000,1000,1000,93828287,1545,1545,1545,1545
44616313,1000,1000,1000,1000,93928247,1545,1545,1545,1545
44618812,1000,1000,1000,1000,94028207,1544,1545,1544,1545
44621311,1000,1000,1000,1000,94128167,1544,1544,1544,1544
44623810,1000,1000,1000,1000,94228960,1545,1545,1545,1544
44626309,1000,1000,1000,1000,94328920,1545,1545,1545,1545
44628808,1000,1000,1000,1000,94428880,1544,1544,1545,1544
44631307,1000,1000,1000,1000,94528840,1545,1544,1545,1545
44633806,1000,1000,1000,1000,94628800,1545,1545,1545,1545
44636305,1000,1000,1000,1000,94728760,1545,1545,1545,1546
44638804,1000,1000,1000,1000,94828720,1544,1544,1544,1545
44641303,1000,1000,1000,1000,94928680,1544,1544,1544,1544
44643802,1000,1000,1000,1000,95028640,1544,1544,1544,1544
44646301,1000,1000,1000,1000,95128600,1544,1544,1544,1544
44648800,1000,1000,1000,1000,95228560,1544,1544,1544,1543
44651299,1000,1000,1000,1000,95328520,1544,1544,1544,1545
44653798,1000,1000,1000,1000,95428480,1544,1545,1545,1544
44656297,1000,1000,1000,1000,95528440,1544,1544,1544,1544
44658796,1000,1000,1000,1000,95628400,1544,1544,1544,1545
44661295,1000,1000,1000,1000,95728360,1451,1449,1402,1400
44663794,1000,1000,1000,1000,95828320,1374,1372,1269,1267
44666293,1000,1000,1000,1000,95928280,1349,1347,1221,1219
44668792,1000,1000,1000,1000,96028240,1340,1337,1202,1199
44671291,1000,1000,1000,1000,96128200,1321,1318,1162,1159
44673790,1000,1000,1000,1000,96228160,1264,1262,1155,1150
44676289,1000,1000,1000,1000,96328953,1173,1169,1154,1150
44678788,1000,1000,1000,1000,96428913,1072,1068,1155,1150
44681287,1000,1000,1000,1000,96528873,969,965,1153,1150
44683786,1000,1000,1000,1000,96628833,968,965,1153,1150
44686285,1000,1000,1000,1000,96728793,969,965,1153,1150
44688784,1000,1000,1000,1000,96828753,970,960,1150,1159
44691283,1000,1000,1000,1000,96928713,969,956,1150,1165
44693782,1000,1000,1000,1000,97028673,969,961,1150,1158
44696281,1000,1000,1000,1000,97128633,970,962,1150,1157
44698780,1000,1000,1000,1000,97228593,970,962,1150,1156
44701279,1000,1000,1000,1000,97328553,970,961,1150,1157
44703778,1000,1000,1000,1000,97428513,970,961,1150,1157
44706277,1000,1000,1000,1000,97528473,970,961,1150,1158
44708776,1000,1000,1000,1000,97628433,965,968,1153,1150
44711275,1000,1000,1000,1000,97728393,969,967,1150,1151
44713774,1000,1000,1000,1000,97828353,969,966,1150,1151
44716273,1000,1000,1000,1000,97928313,969,966,1150,1151
44718772,1000,1000,1000,1000,98028273,969,966,1150,1151
44721271,1000,1000,1000,1000,98128233,1000,1000,1000,1000
44723770,1000,1000,1000,1000,98228193,1000,1000,1000,1000
44726269,1000,1000,1000,1000,98328986,1000,1000,1000,1000
44728768,1000,1000,1000,1000,98428946,1000,1000,1000,1000
44731267,1000,1000,1000,1000,98528906,1000,1000,1000,1000
44733766,1000,1000,1000,1000,98628866,1000,1000,1000,1000
44736265,1000,1000,1000,1000,98728826,1000,1000,1000,1000
44738764,1000,1000,1000,1000,98828786,1000,1000,1000,1000
44741263,1000,1000,1000,1000,98928746,1000,1000,1000,1000
44743762,1000,1000,1000,1000,99028706,1000,1000,1000,1000
44746261,1000,1000,1000,1000,99128666,1000,1000,1000,1000
44748760,1000,1000,1000,1000,99228626,1000,1000,1000,1000
44751259,1000,1000,1000,1000,99328586,1000,1000,1000,1000
44753758,1000,1000,1000,1000,99428546,1000,1000,1000,1000
44756257,1000,1000,1000,1000,99528506,1000,1000,1000,1000
44758756,1000,1000,1000,1000,99628466,1000,1000,1000,1000
44761255,1000,1000,1000,1000,99728426,1000,1000,1000,1000
44763754,1000,1000,1000,1000,99828386,1000,1000,1000,1000
44766253,1000,1000,1000,1000,99928346,1000,1000,1000,1000
44768752,1000,1000,1000,1000,100028306,1000,1000,1000,1000
44771251,1000,1000,1000,1000,100128266,1000,1000,1000,1000
44773750,1000,1000,1000,1000,100228226,1000,1000,1000,1000
44776249,1000,1000,1000,1000,100328186,1000,1000,1000,1000
44778748,1000,1000,1000,1000,100428979,1000,1000,1000,1000
44781247,1000,1000,1000,1000,100528939,1000,1000,1000,1000
44783746,1000,1000,1000,1000,100628899,1000,1000,1000,1000
44786245,1000,1000,1000,1000,100728859,1000,1000,1000,1000
44788744,1000,1000,1000,1000,100828819,1000,1000,1000,1000
44791243,1000,1000,1000,1000,100928779,1000,1000,1000,1000
44793742,1000,1000,1000,1000,101028739,1000,1000,1000,1000
44796241,1000,1000,1000,1000,101128699,1000,1000,1000,1000
44798740,1000,1000,1000,1000,101228659,1000,1000,1000,1000
44801239,1000,1000,1000,1000,101328619,1000,1000,1000,1000
44803738,1000,1000,1000,1000,101428579,1000,1000,1000,1000
44806237,1000,1000,1000,1000,101528539,1000,1000,1000,1000
44808736,1000,1000,1000,1000,101628499,1000,1000,1000,1000
44811235,1000,1000,1000,1000,101728459,1000,1000,1000,1000
44813734,1000,1000,1000,1000,101828419,1000,1000,1000,1000
44816233,1000,1000,1000,1000,101928379,1000,1000,1000,1000
44818732,1000,1000,1000,1000,102028339,1000,1000,1000,1000
44821231,1000,1000,1000,1000,102128299,1000,1000,1000,1000
44823730,1000,1000,1000,1000,102228259,1000,1000,1000,1000
44826229,1000,1000,1000,1000,102328219,1000,1000,1000,1000
44828728,1000,1000,1000,1000,102428179,1000,1000,1000,1000
44831227,1000,1000,1000,1000,102528972,1000,1000,1000,1000
44833726,1000,1000,1000,1000,102628932,1000,1000,1000,1000
44836225,1000,1000,1000,1000,102728892,1000,1000,1000,1000
44838724,1000,1000,1000,1000,102828852,1000,1000,1000,1000
44841223,1000,1000,1000,1000,102928812,1000,1000,1000,1000
44843722,1000,1000,1000,1000,103028772,1000,1000,1000,1000
44846221,1000,1000,1000,1000,103128732,1000,1000,1000,1000
44848720,1000,1000,1000,1000,103228692,1000,1000,1000,1000
44851219,1000,1000,1000,1000,103328652,1000,1000,1000,1000
44853718,1000,1000,1000,1000,103428612,1000,1000,1000,1000
44856217,1000,1000,1000,1000,103528572,1000,1000,1000,1000
44858716,1000,1000,1000,1000,103628532,1000,1000,1000,1000
44861215,1000,1000,1000,1000,103728492,1000,1000,1000,1000
44863714,1000,1000,1000,1000,103828452,1000,1000,1000,1000
44866213,1000,1000,1000,1000,103928412,1000,1000,1000,1000
44868712,1000,1000,1000,1000,104028372,1000,1000,1000,1000
44871211,1000,1000,1000,1000,104128332,1000,1000,1000,1000
44873710,1000,1000,1000,1000,104228292,1000,1000,1000,1000
44876209,1000,1000,1000,1000,104328252,1000,1000,1000,1000
44878708,1000,1000,1000,1000,104428212,1000,1000,1000,1000
44881207,1000,1000,1000,1000,104528172,1000,1000,1000,1000
44883706,1000,1000,1000,1000,104628965,1000,1000,1000,1000
44886205,1000,1000,1000,1000,104728925,1000,1000,1000,1000
44888704,1000,1000,1000,1000,104828885,1000,1000,1000,1000
44891203,1000,1000,1000,1000,104928845,1000,1000,1000,1000
44893702,1000,1000,1000,1000,105028805,1000,1000,1000,1000
44896201,1000,1000,1000,1000,105128765,1000,1000,1000,1000
44898700,1000,1000,1000,1000,105228725,1000,1000,1000,1000
44901199,1000,1000,1000,1000,105328685,1000,1000,1000,1000
44903698,1000,1000,1000,1000,105428645,1000,1000,1000,1000
44906197,1000,1000,1000,1000,105528605,1000,1000,1000,1000
44908696,1000,1000,1000,1000,105628565,1000,1000,1000,1000
44911195,1000,1000,1000,1000,105728525,1000,1000,1000,1000
44913694,1000,1000,1000,1000,105828485,1000,1000,1000,1000
44916193,1000,1000,1000,1000,105928445,1000,1000,1000,1000
44918692,1000,1000,1000,1000,106028405,1000,1000,1000,1000
44921191,1000,1000,1000,1000,106128365,1000,1000,1000,1000
44923690,1000,1000,1000,1000,106228325,1000,1000,1000,1000
44926189,1000,1000,1000,1000,106328285,1000,1000,1000,1000
44928688,1000,1000,1000,1000,106428245,1000,1000,1000,1000
44931187,1000,1000,1000,1000,106528205,1000,1000,1000,1000
44933686,1000,1000,1000,1000,106628165,1000,1000,1000,1000
44936185,1000,1000,1000,1000,106728958,1000,1000,1000,1000
44938684,1000,1000,1000,1000,106828918,1000,1000,1000,1000
44941183,1000,1000,1000,1000,106928878,1000,1000,1000,1000
44943682,1000,1000,1000,1000,107028838,1000,1000,1000,1000
44946181,1000,1000,1000,1000,107128798,1000,1000,1000,1000
44948680,1000,1000,1000,1000,107228758,1000,1000,1000,1000
44951179,1000,1000,1000,1000,107328718,1000,1000,1000,1000
44953678,1000,1000,1000,1000,107428678,1000,1000,1000,1000
44956177,1000,1000,1000,1000,107528638,1000,1000,1000,1000
44958676,1000,1000,1000,1000,107628598,1000,1000,1000,1000
44961175,1000,1000,1000,1000,107728558,1000,1000,1000,1000
44963674,1000,1000,1000,1000,107828518,1000,1000,1000,1000
44966173,1000,1000,1000,1000,107928478,1000,1000,1000,1000
44968672,1000,1000,1000,1000,108028438,1000,1000,1000,1000
44971171,1000,1000,1000,1000,108128398,1000,1000,1000,1000
44973670,1000,1000,1000,1000,108228358,1000,1000,1000,1000
44976169,1000,1000,1000,1000,108328318,1000,1000,1000,1000
44978668,1000,1000,1000,1000,108428278,1000,1000,1000,1000
44981167,1000,1000,1000,1000,108528238,1000,1000,1000,1000
44983666,1000,1000,1000,1000,108628198,1000,1000,1000,1000
44986165,1000,1000,1000,1000,108728158,1000,1000,1000,1000
44988664,1000,1000,1000,1000,108828951,1000,1000,1000,1000
44991163,1000,1000,1000,1000,108928911,1000,1000,1000,1000
44993662,1000,1000,1000,1000,109028871,1000,1000,1000,1000
44996161,1000,1000,1000,1000,109128831,1000,1000,1000,1000
44998660,1000,1000,1000,1000,109228791,1000,1000,1000,1000
45001159,1000,1000,1000,1000,109328751,1000,1000,1000,1000
45003658,1000,1000,1000,1000,109428711,1000,1000,1000,1000
45006157,1000,1000,1000,1000,109528671,1000,1000,1000,1000
45008656,1000,1000,1000,1000,109628631,1000,1000,1000,1000
45011155,1000,1000,1000,1000,109728591,1000,1000,1000,1000
45013654,1000,1000,1000,1000,109828551,1000,1000,1000,1000
45016153,1000,1000,1000,1000,109928511,1000,1000,1000,1000
45018652,1000,1000,1000,1000,110028471,1000,1000,1000,1000
45021151,1000,1000,1000,1000,110128431,1000,1000,1000,1000
45023650,1000,1000,1000,1000,110228391,1000,1000,1000,1000
45026149,1000,1000,1000,1000,110328351,1000,1000,1000,1000
45028648,1000,1000,1000,1000,110428311,1000,1000,1000,1000
45031147,1000,1000,1000,1000,110528271,1000,1000,1000,1000
45033646,1000,1000,1000,1000,110628231,1000,1000,1000,1000
45036145,1000,1000,1000,1000,110728191,1000,1000,1000,1000
45038644,1000,1000,1000,1000,110828984,1000,1000,1000,1000
45041143,1000,1000,1000,1000,110928944,1000,1000,1000,1000
45043642,1000,1000,1000,1000,111028904,1000,1000,1000,1000
45046141,1000,1000,1000,1000,111128864,1000,1000,1000,1000
45048640,1000,1000,1000,1000,111228824,1000,1000,1000,1000
45051139,1000,1000,1000,1000,111328784,1000,1000,1000,1000
45053638,1000,1000,1000,1000,111428744,1000,1000,1000,1000
45056137,1000,1000,1000,1000,111528704,1000,1000,1000,1000
45058636,1000,1000,1000,1000,111628664,1000,1000,1000,1000
45061135,1000,1000,1000,1000,111728624,1000,1000,1000,1000
45063634,1000,1000,1000,1000,111828584,1000,1000,1000,1000
45066133,1000,1000,1000,1000,111928544,1000,1000,1000,1000
45068632,1000,1000,1000,1000,112028504,1000,1000,1000,1000
45071131,1000,1000,1000,1000,112128464,1000,1000,1000,1000
45073630,1000,1000,1000,1000,112228424,1000,1000,1000,1000
45076129,1000,1000,1000,1000,112328384,1000,1000,1000,1000
45078628,1000,1000,1000,1000,112428344,1000,1000,1000,1000
45081127,1000,1000,1000,1000,112528304,1000,1000,1000,1000
45083626,1000,1000,1000,1000,112628264,1000,1000,1000,1000
45086125,1000,1000,1000,1000,112728224,1000,1000,1000,1000
45088624,1000,1000,1000,1000,112828184,1000,1000,1000,1000
45091123,1000,1000,1000,1000,112928977,1000,1000,1000,1000
45093622,1000,1000,1000,1000,113028937,1000,1000,1000,1000
45096121,1000,1000,1000,1000,,,,,
45098620,1000,1000,1000,1000,,,,,
45101119,1000,1000,1000,1000,,,,,
45103618,1000,1000,1000,1000,,,,,
45106117,1000,1000,1000,1000,,,,,
45108616,1000,1000,1000,1000,,,,,
45111115,1000,1000,1000,1000,,,,,
45113614,1000,1000,1000,1000,,,,,
45116113,1000,1000,1000,1000,,,,,
45118612,1000,1000,1000,1000,,,,,
45121111,1000,1000,1000,1000,,,,,
45123610,1000,1000,1000,1000,,,,,
45126109,1000,1000,1000,1000,,,,,
45128608,1000,1000,1000,1000,,,,,
45131107,1000,1000,1000,1000,,,,,
45133606,1000,1000,1000,1000,,,,,
45136105,1000,1000,1000,1000,,,,,
45138604,1000,1000,1000,1000,,,,,
45141103,1000,1000,1000,1000,,,,,
45143602,1000,1000,1000,1000,,,,,
45146101,1000,1000,1000,1000,,,,,
45148600,1000,1000,1000,1000,,,,,
45151099,1000,1000,1000,1000,,,,,
45153598,1000,1000,1000,1000,,,,,
45156097,1000,1000,1000,1000,,,,,
45158596,1000,1000,1000,1000,,,,,
45161095,1000,1000,1000,1000,,,,,
45163594,1000,1000,1000,1000,,,,,
45166093,1000,1000,1000,1000,,,,,
45168592,1000,1000,1000,1000,,,,,
45171091,1000,1000,1000,1000,,,,,
45173590,1000,1000,1000,1000,,,,,
45176089,1000,1000,1000,1000,,,,,
45178588,1000,1000,1000,1000,,,,,
45181087,1000,1000,1000,1000,,,,,
45183586,1000,1000,1000,1000,,,,,
45186085,1000,1000,1000,1000,,,,,
45188584,1000,1000,1000,1000,,,,,
45191083,1000,1000,1000,1000,,,,,
45193582,1000,1000,1000,1000,,,,,
45196081,1000,1000,1000,1000,,,,,
45198580,1000,1000,1000,1000,,,,,
45201079,1000,1000,1000,1000,,,,,
45203578,1000,1000,1000,1000,,,,,
45206077,1000,1000,1000,1000,,,,,
45208576,1000,1000,1000,1000,,,,,
45211075,1000,1000,1000,1000,,,,,
45213574,1000,1000,1000,1000,,,,,
45216073,1000,1000,1000,1000,,,,,
45218572,1000,1000,1000,1000,,,,,
45221071,1000,1000,1000,1000,,,,,
45223570,1000,1000,1000,1000,,,,,
45226069,1000,1000,1000,1000,,,,,
45228568,1000,1000,1000,1000,,,,,
45231067,1000,1000,1000,1000,,,,,
45233566,1000,1000,1000,1000,,,,,
45236065,1000,1000,1000,1000,,,,,
45238564,1000,1000,1000,1000,,,,,
45241063,1000,1000,1000,1000,,,,,
45243562,1000,1000,1000,1000,,,,,
45246061,1000,1000,1000,1000,,,,,
45248560,1000,1000,1000,1000,,,,,
45251059,1000,1000,1000,1000,,,,,
45253558,1000,1000,1000,1000,,,,,
45256057,1000,1000,1000,1000,,,,,
45258556,1000,1000,1000,1000,,,,,
45261055,1000,1000,1000,1000,,,,,
45263554,1000,1000,1000,1000,,,,,
45266053,1000,1000,1000,1000,,,,,
45268552,1000,1000,1000,1000,,,,,
45271051,1000,1000,1000,1000,,,,,
45273550,1000,1000,1000,1000,,,,,
45276049,1000,1000,1000,1000,,,,,
45278548,1000,1000,1000,1000,,,,,
45281047,1000,1000,1000,1000,,,,,
45283546,1000,1000,1000,1000,,,,,
45286045,1000,1000,1000,1000,,,,,
45288544,1000,1000,1000,1000,,,,,
45291043,1000,1000,1000,1000,,,,,
45293542,1000,1000,1000,1000,,,,,
45296041,1000,1000,1000,1000,,,,,
45298540,1000,1000,1000,1000,,,,,
45301039,1000,1000,1000,1000,,,,,
45303538,1000,1000,1000,1000,,,,,
45306037,1000,1000,1000,1000,,,,,
45308536,1000,1000,1000,1000,,,,,
45311035,1000,1000,1000,1000,,,,,
45313534,1000,1000,1000,1000,,,,,
45316033,1000,1000,1000,1000,,,,,
45318532,1000,1000,1000,1000,,,,,
45321031,1000,1000,1000,1000,,,,,
45323530,1000,1000,1000,1000,,,,,
45326029,1000,1000,1000,1000,,,,,
45328528,1000,1000,1000,1000,,,,,
45331027,1000,1000,1000,1000,,,,,
45333526,1000,1000,1000,1000,,,,,
45336025,1000,1000,1000,1000,,,,,
45338524,1000,1000,1000,1000,,,,,
45341023,1000,1000,1000,1000,,,,,
45343522,1000,1000,1000,1000,,,,,
45346021,1000,1000,1000,1000,,,,,
45348520,1000,1000,1000,1000,,,,,
45351019,1000,1000,1000,1000,,,,,
45353518,1000,1000,1000,1000,,,,,
45356017,1000,1000,1000,1000,,,,,
45358516,1001,1001,1001,1001,,,,,
45361015,1002,1002,1002,1002,,,,,
45363514,1003,1003,1003,1003,,,,,
45366013,1003,1003,1003,1003,,,,,
45368512,1004,1004,1004,1004,,,,,
45371011,1005,1005,1005,1005,,,,,
45373510,1006,1006,1006,1006,,,,,
45376009,1006,1006,1006,1006,,,,,
45378508,1007,1007,1007,1007,,,,,
45381007,1008,1008,1008,1008,,,,,
45383506,1009,1009,1009,1009,,,,,
45386005,1009,1009,1009,1009,,,,,
45388504,1010,1010,1010,1010,,,,,
45391003,1011,1011,1011,1011,,,,,
45393502,1012,1012,1012,1012,,,,,
45396001,1012,1012,1012,1012,,,,,
45398500,1013,1013,1013,1013,,,,,
45400999,1014,1014,1014,1014,,,,,
45403498,1015,1015,1015,1015,,,,,
45405997,1015,1015,1015,1015,,,,,
45408496,1016,1016,1016,1016,,,,,
45410995,1017,1017,1017,1017,,,,,
45413494,1018,1018,1018,1018,,,,,
45415993,1018,1018,1018,1018,,,,,
45418492,1019,1019,1019,1019,,,,,
45420991,1020,1020,1020,1020,,,,,
45423490,1021,1021,1021,1021,,,,,
45425989,1021,1021,1021,1021,,,,,
45428488,1022,1022,1022,1022,,,,,
45430987,1023,1023,1023,1023,,,,,
45433486,1024,1024,1024,1024,,,,,
45435985,1024,1024,1024,1024,,,,,
45438484,1025,1025,1025,1025,,,,,
45440983,1026,1026,1026,1026,,,,,
45443482,1027,1027,1027,1027,,,,,
45445981,1027,1027,1027,1027,,,,,
45448480,1028,1028,1028,1028,,,,,
45450979,1029,1029,1029,1029,,,,,
45453478,1030,1030,1030,1030,,,,,
45455977,1030,1030,1030,1030,,,,,
45458476,1031,1031,1031,1031,,,,,
45460975,1032,1032,1032,1032,,,,,
45463474,1033,1033,1033,1033,,,,,
45465973,1033,1033,1033,1033,,,,,
45468472,1034,1034,1034,1034,,,,,
45470971,1035,1035,1035,1035,,,,,
45473470,1036,1036,1036,1036,,,,,
45475969,1036,1036,1036,1036,,,,,
45478468,1037,1037,1037,1037,,,,,
45480967,1038,1038,1038,1038,,,,,
45483466,1039,1039,1039,1039,,,,,
45485965,1039,1039,1039,1039,,,,,
45488464,1040,1040,1040,1040,,,,,
45490963,1041,1041,1041,1041,,,,,
45493462,1042,1042,1042,1042,,,,,
45495961,1042,1042,1042,1042,,,,,
45498460,1043,1043,1043,1043,,,,,
45500959,1044,1044,1044,1044,,,,,
45503458,1045,1045,1045,1045,,,,,
45505957,1045,1045,1045,1045,,,,,
45508456,1046,1046,1046,1046,,,,,
45510955,1047,1047,1047,1047,,,,,
45513454,1048,1048,1048,1048,,,,,
45515953,1048,1048,1048,1048,,,,,
45518452,1049,1049,1049,1049,,,,,
45520951,1050,1050,1050,1050,,,,,
45523450,1051,1051,1051,1051,,,,,
45525949,1051,1051,1051,1051,,,,,
45528448,1052,1052,1052,1052,,,,,
45530947,1053,1053,1053,1053,,,,,
45533446,1054,1054,1054,1054,,,,,
45535945,1054,1054,1054,1054,,,,,
45538444,1055,1055,1055,1055,,,,,
45540943,1056,1056,1056,1056,,,,,
45543442,1057,1057,1057,1057,,,,,
45545941,1057,1057,1057,1057,,,,,
45548440,1058,1058,1058,1058,,,,,
45550939,1059,1059,1059,1059,,,,,
45553438,1060,1060,1060,1060,,,,,
45555937,1060,1060,1060,1060,,,,,
45558436,1061,1061,1061,1061,,,,,
45560935,1062,1062,1062,1062,,,,,
45563434,1063,1063,1063,1063,,,,,
45565933,1063,1063,1063,1063,,,,,
45568432,1064,1064,1064,1064,,,,,
45570931,1065,1065,1065,1065,,,,,
45573430,1066,1066,1066,1066,,,,,
45575929,1066,1066,1066,1066,,,,,
45578428,1067,1067,1067,1067,,,,,
45580927,1068,1068,1068,1068,,,,,
45583426,1069,1069,1069,1069,,,,,
45585925,1069,1069,1069,1069,,,,,
45588424,1070,1070,1070,1070,,,,,
45590923,1071,1071,1071,1071,,,,,
45593422,1072,1072,1072,1072,,,,,
45595921,1072,1072,1072,1072,,,,,
45598420,1073,1073,1073,1073,,,,,
45600919,1074,1074,1074,1074,,,,,
45603418,1075,1075,1075,1075,,,,,
45605917,1075,1075,1075,1075,,,,,
45608416,1076,1076,1076,1076,,,,,
45610915,1077,1077,1077,1077,,,,,
45613414,1078,1078,1078,1078,,,,,
45615913,1078,1078,1078,1078,,,,,
45618412,1079,1079,1079,1079,,,,,
45620911,1080,1080,1080,1080,,,,,
45623410,1081,1081,1081,1081,,,,,
45625909,1081,1081,1081,1081,,,,,
45628408,1082,1082,1082,1082,,,,,
45630907,1083,1083,1083,1083,,,,,
45633406,1084,1084,1084,1084,,,,,
45635905,1084,1084,1084,1084,,,,,
45638404,1085,1085,1085,1085,,,,,
45640903,1086,1086,1086,1086,,,,,
45643402,1087,1087,1087,1087,,,,,
45645901,1087,1087,1087,1087,,,,,
45648400,1088,1088,1088,1088,,,,,
45650899,1089,1089,1089,1089,,,,,
45653398,1090,1090,1090,1090,,,,,
45655897,1090,1090,1090,1090,,,,,
45658396,1091,1091,1091,1091,,,,,
45660895,1092,1092,1092,1092,,,,,
45663394,1093,1093,1093,1093,,,,,
45665893,1093,1093,1093,1093,,,,,
45668392,1094,1094,1094,1094,,,,,
45670891,1095,1095,1095,1095,,,,,
45673390,1096,1096,1096,1096,,,,,
45675889,1096,1096,1096,1096,,,,,
45678388,1097,1097,1097,1097,,,,,
45680887,1098,1098,1098,1098,,,,,
45683386,1099,1099,1099,1099,,,,,
45685885,1099,1099,1099,1099,,,,,
45688384,1100,1100,1100,1100,,,,,
45690883,1101,1101,1101,1101,,,,,
45693382,1101,1101,1101,1101,,,,,
45695881,1102,1102,1102,1102,,,,,
45698380,1103,1103,1103,1103,,,,,
45700879,1104,1104,1104,1104,,,,,
45703378,1104,1104,1104,1104,,,,,
45705877,1105,1105,1105,1105,,,,,
45708376,1106,1106,1106,1106,,,,,
45710875,1107,1107,1107,1107,,,,,
45713374,1107,1107,1107,1107,,,,,
45715873,1108,1108,1108,1108,,,,,
45718372,1109,1109,1109,1109,,,,,
45720871,1110,1110,1110,1110,,,,,
45723370,1110,1110,1110,1110,,,,,
45725869,1111,1111,1111,1111,,,,,
45728368,1112,1112,1112,1112,,,,,
45730867,1113,1113,1113,1113,,,,,
45733366,1113,1113,1113,1113,,,,,
45735865,1114,1114,1114,1114,,,,,
45738364,1115,1115,1115,1115,,,,,
45740863,1116,1116,1116,1116,,,,,
45743362,1116,1116,1116,1116,,,,,
45745861,1117,1117,1117,1117,,,,,
45748360,1118,1118,1118,1118,,,,,
45750859,1119,1119,1119,1119,,,,,
45753358,1119,1119,1119,1119,,,,,
45755857,1120,1120,1120,1120,,,,,
45758356,1121,1121,1121,1121,,,,,
45760855,1122,1122,1122,1122,,,,,
45763354,1122,1122,1122,1122,,,,,
45765853,1123,1123,1123,1123,,,,,
45768352,1124,1124,1124,1124,,,,,
45770851,1125,1125,1125,1125,,,,,
45773350,1125,1125,1125,1125,,,,,
45775849,1126,1126,1126,1126,,,,,
45778348,1127,1127,1127,1127,,,,,
45780847,1128,1128,1128,1128,,,,,
45783346,1128,1128,1128,1128,,,,,
45785845,1129,1129,1129,1129,,,,,
45788344,1130,1130,1130,1130,,,,,
45790843,1131,1131,1131,1131,,,,,
45793342,1131,1131,1131,1131,,,,,
45795841,1132,1132,1132,1132,,,,,
45798340,1133,1133,1133,1133,,,,,
45800839,1134,1134,1134,1134,,,,,
45803338,1134,1134,1134,1134,,,,,
45805837,1135,1135,1135,1135,,,,,
45808336,1136,1136,1136,1136,,,,,
45810835,1137,1137,1137,1137,,,,,
45813334,1137,1137,1137,1137,,,,,
45815833,1138,1138,1138,1138,,,,,
45818332,1139,1139,1139,1139,,,,,
45820831,1140,1140,1140,1140,,,,,
45823330,1140,1140,1140,1140,,,,,
45825829,1141,1141,1141,1141,,,,,
45828328,1142,1142,1142,1142,,,,,
45830827,1143,1143,1143,1143,,,,,
45833326,1143,1143,1143,1143,,,,,
45835825,1144,1144,1144,1144,,,,,
45838324,1145,1145,1145,1145,,,,,
45840823,1146,1146,1146,1146,,,,,
45843322,1146,1146,1146,1146,,,,,
45845821,1147,1147,1147,1147,,,,,
45848320,1148,1148,1148,1148,,,,,
45850819,1149,1149,1149,1149,,,,,
45853318,1149,1149,1149,1149,,,,,
45855817,1150,1150,1150,1150,,,,,
45858316,1161,1154,1155,1161,,,,,
45860815,1169,1162,1163,1169,,,,,
45863314,1177,1170,1171,1177,,,,,
45865813,1184,1178,1178,1185,,,,,
45868312,1192,1186,1186,1192,,,,,
45870811,1200,1193,1194,1200,,,,,
45873310,1207,1200,1201,1207,,,,,
45875809,1214,1208,1208,1214,,,,,
45878308,1221,1215,1216,1221,,,,,
45880807,1228,1222,1223,1228,,,,,
45883306,1235,1229,1230,1235,,,,,
45885805,1242,1236,1236,1242,,,,,
45888304,1249,1243,1243,1249,,,,,
45890803,1255,1249,1250,1255,,,,,
45893302,1262,1256,1256,1262,,,,,
45895801,1268,1262,1263,1268,,,,,
45898300,1275,1269,1269,1275,,,,,
45900799,1281,1275,1276,1281,,,,,
45903298,1287,1281,1282,1287,,,,,
45905797,1293,1288,1288,1293,,,,,
45908296,1299,1294,1294,1300,,,,,
45910795,1305,1300,1300,1306,,,,,
45913294,1311,1306,1306,1311,,,,,
45915793,1317,1312,1312,1317,,,,,
45918292,1323,1317,1318,1323,,,,,
45920791,1329,1323,1324,1329,,,,,
45923290,1334,1329,1330,1335,,,,,
45925789,1340,1335,1335,1340,,,,,
45928288,1346,1340,1341,1346,,,,,
45930787,1351,1346,1347,1351,,,,,
45933286,1357,1352,1352,1357,,,,,
45935785,1362,1357,1358,1362,,,,,
45938284,1368,1362,1363,1368,,,,,
45940783,1373,1368,1368,1373,,,,,
45943282,1378,1373,1374,1378,,,,,
45945781,1383,1379,1379,1384,,,,,
45948280,1389,1384,1384,1389,,,,,
45950779,1394,1389,1389,1394,,,,,
45953278,1399,1394,1395,1399,,,,,
45955777,1404,1399,1400,1404,,,,,
45958276,1409,1404,1405,1409,,,,,
45960775,1414,1409,1410,1414,,,,,
45963274,1419,1414,1415,1419,,,,,
45965773,1424,1419,1420,1424,,,,,
45968272,1429,1424,1425,1429,,,,,
45970771,1434,1429,1430,1434,,,,,
45973270,1439,1434,1435,1439,,,,,
45975769,1443,1439,1439,1444,,,,,
45978268,1448,1444,1444,1448,,,,,
45980767,1453,1448,1449,1453,,,,,
45983266,1458,1453,1454,1458,,,,,
45985765,1462,1458,1458,1463,,,,,
45988264,1467,1463,1463,1467,,,,,
45990763,1472,1467,1468,1472,,,,,
45993262,1476,1472,1472,1476,,,,,
45995761,1481,1476,1477,1481,,,,,
45998260,1485,1481,1481,1486,,,,,
46000759,1490,1485,1486,1490,,,,,
46003258,1494,1490,1490,1495,,,,,
46005757,1499,1494,1495,1499,,,,,
46008256,1503,1499,1499,1503,,,,,
46010755,1508,1503,1504,1508,,,,,
46013254,1512,1508,1508,1512,,,,,
46015753,1516,1512,1512,1517,,,,,
46018252,1521,1516,1517,1521,,,,,
46020751,1525,1521,1521,1525,,,,,
46023250,1529,1525,1525,1529,,,,,
46025749,1533,1529,1530,1534,,,,,
46028248,1538,1533,1534,1538,,,,,
46030747,1542,1538,1538,1542,,,,,
46033246,1546,1542,1542,1546,,,,,
46035745,1550,1546,1546,1550,,,,,
46038244,1554,1550,1550,1555,,,,,
46040743,1558,1554,1555,1559,,,,,
46043242,1562,1558,1559,1563,,,,,
46045741,1567,1563,1563,1567,,,,,
46048240,1571,1567,1567,1571,,,,,
46050739,1575,1571,1571,1575,,,,,
46053238,1579,1575,1575,1579,,,,,
46055737,1583,1579,1579,1583,,,,,
46058236,1587,1583,1583,1587,,,,,
46060735,1591,1587,1587,1591,,,,,
46063234,1595,1591,1591,1595,,,,,
46065733,1598,1595,1595,1599,,,,,
46068232,1602,1599,1599,1603,,,,,
46070731,1606,1602,1603,1607,,,,,
46073230,1610,1606,1606,1610,,,,,
46075729,1614,1610,1610,1614,,,,,
46078228,1618,1614,1614,1618,,,,,
46080727,1622,1618,1618,1622,,,,,
46083226,1625,1622,1622,1626,,,,,
46085725,1629,1625,1625,1630,,,,,
46088224,1633,1629,1629,1633,,,,,
46090723,1637,1633,1633,1637,,,,,
46093222,1640,1637,1637,1641,,,,,
46095721,1644,1640,1640,1645,,,,,
46098220,1648,1644,1644,1648,,,,,
46100719,1652,1648,1648,1652,,,,,
46103218,1655,1651,1652,1656,,,,,
46105717,1659,1655,1655,1659,,,,,
46108216,1663,1659,1659,1663,,,,,
46110715,1666,1662,1663,1667,,,,,
46113214,1670,1666,1666,1670,,,,,
46115713,1674,1670,1670,1674,,,,,
46118212,1677,1673,1673,1677,,,,,
46120711,1681,1677,1677,1681,,,,,
46123210,1684,1680,1681,1685,,,,,
46125709,1688,1684,1684,1688,,,,,
46128208,1691,1687,1688,1692,,,,,
46130707,1695,1691,1691,1695,,,,,
46133206,1698,1694,1695,1699,,,,,
46135705,1702,1698,1698,1702,,,,,
46138204,1705,1701,1702,1706,,,,,
46140703,1709,1705,1705,1709,,,,,
46143202,1712,1708,1709,1712,,,,,
46145701,1716,1712,1712,1716,,,,,
46148200,1719,1715,1716,1719,,,,,
46150699,1723,1719,1719,1723,,,,,
46153198,1726,1722,1723,1726,,,,,
46155697,1729,1725,1726,1729,,,,,
46158196,1733,1729,1729,1733,,,,,
46160695,1736,1732,1733,1736,,,,,
46163194,1740,1736,1736,1740,,,,,
46165693,1743,1739,1740,1743,,,,,
46168192,1746,1742,1743,1746,,,,,
46170691,1750,1746,1746,1749,,,,,
46173190,1753,1749,1750,1753,,,,,
46175689,1756,1752,1753,1756,,,,,
46178188,1760,1756,1756,1759,,,,,
46180687,1763,1759,1760,1763,,,,,
46183186,1766,1762,1763,1766,,,,,
46185685,1769,1765,1766,1769,,,,,
46188184,1773,1769,1769,1772,,,,,
46190683,1776,1772,1773,1776,,,,,
46193182,1779,1775,1776,1779,,,,,
46195681,1782,1778,1779,1782,,,,,
46198180,1785,1782,1782,1785,,,,,
46200679,1789,1785,1786,1788,,,,,
46203178,1792,1788,1789,1792,,,,,
46205677,1795,1791,1792,1795,,,,,
46208176,1798,1795,1795,1798,,,,,
46210675,1801,1798,1798,1801,,,,,
46213174,1804,1801,1801,1804,,,,,
46215673,1808,1804,1805,1807,,,,,
46218172,1811,1807,1808,1811,,,,,
46220671,1814,1810,1811,1814,,,,,
46223170,1817,1813,1814,1817,,,,,
46225669,1820,1816,1817,1820,,,,,
46228168,1823,1820,1820,1823,,,,,
46230667,1826,1823,1823,1826,,,,,
46233166,1829,1826,1826,1829,,,,,
46235665,1832,1829,1829,1832,,,,,
46238164,1835,1832,1833,1835,,,,,
46240663,1839,1835,1836,1838,,,,,
46243162,1842,1838,1839,1841,,,,,
46245661,1845,1841,1842,1844,,,,,
46248160,1848,1844,1845,1847,,,,,
46250659,1851,1847,1848,1851,,,,,
46253158,1854,1850,1851,1854,,,,,
46255657,1857,1853,1854,1857,,,,,
46258156,1860,1856,1857,1860,,,,,
46260655,1863,1859,1860,1863,,,,,
46263154,1866,1862,1863,1866,,,,,
46266486,1869,1865,1866,1869,,,,,
46268985,1872,1868,1869,1872,,,,,
46271484,1875,1871,1871,1875,,,,,
46273983,1878,1874,1874,1878,,,,,
46276482,1881,1877,1877,1880,,,,,
46278981,1883,1880,1880,1883,,,,,
46281480,1886,1883,1883,1886,,,,,
46283979,1889,1886,1886,1889,,,,,
46286478,1892,1889,1889,1892,,,,,
46288977,1895,1891,1892,1895,,,,,
46291476,1894,1891,1891,1895,,,,,
46293975,1893,1890,1890,1894,,,,,
46296474,1892,1889,1889,1893,,,,,
46298973,1892,1888,1888,1892,,,,,
46301472,1891,1887,1887,1891,,,,,
46303971,1890,1886,1886,1890,,,,,
46306470,1889,1885,1886,1889,,,,,
46308969,1888,1885,1885,1889,,,,,
46311468,1888,1884,1884,1888,,,,,
46313967,1887,1883,1883,1887,,,,,
46316466,1886,1883,1883,1887,,,,,
46318965,1886,1882,1882,1886,,,,,
46321464,1885,1882,1882,1886,,,,,
46323963,1885,1881,1881,1885,,,,,
46326462,1885,1881,1881,1885,,,,,
46328961,1885,1881,1881,1885,,,,,
46331460,1884,1880,1881,1885,,,,,
46333959,1884,1880,1881,1884,,,,,
46336458,1884,1880,1880,1884,,,,,
46338957,1884,1880,1881,1884,,,,,
46341456,1884,1880,1881,1885,,,,,
46343955,1885,1881,1881,1885,,,,,
46346454,1885,1881,1881,1885,,,,,
46348953,1885,1881,1881,1885,,,,,
46351452,1885,1881,1882,1885,,,,,
46353951,1885,1882,1882,1886,,,,,
46356450,1886,1882,1883,1886,,,,,
46358949,1886,1883,1883,1886,,,,,
46361448,1886,1883,1883,1886,,,,,
46363947,1886,1883,1883,1886,,,,,
46366446,1886,1883,1883,1886,,,,,
46368945,1885,1883,1883,1886,,,,,
46371444,1885,1882,1883,1885,,,,,
46373943,1885,1882,1882,1885,,,,,
46376442,1884,1881,1882,1884,,,,,
46378941,1883,1881,1881,1883,,,,,
46381440,1882,1880,1880,1882,,,,,
46383939,1881,1879,1879,1881,,,,,
46386438,1880,1877,1878,1880,,,,,
46388937,1878,1876,1876,1878,,,,,
46391436,1876,1874,1875,1877,,,,,
46393935,1875,1873,1873,1875,,,,,
46396434,1873,1871,1871,1873,,,,,
46398933,1871,1869,1869,1871,,,,,
46401432,1869,1867,1867,1869,,,,,
46403931,1867,1865,1865,1867,,,,,
46406430,1864,1862,1863,1864,,,,,
46408929,1862,1860,1860,1862,,,,,
46411428,1859,1857,1858,1859,,,,,
46413927,1857,1855,1855,1857,,,,,
46416426,1854,1852,1852,1854,,,,,
46418925,1851,1849,1850,1851,,,,,
46421424,1848,1846,1847,1848,,,,,
46423923,1845,1844,1844,1845,,,,,
46426422,1842,1841,1841,1842,,,,,
46428921,1839,1837,1838,1839,,,,,
46431420,1836,1834,1835,1836,,,,,
46433919,1833,1831,1832,1833,,,,,
46436418,1830,1828,1829,1830,,,,,
46438917,1827,1825,1825,1826,,,,,
46441416,1823,1822,1822,1823,,,,,
46443915,1820,1818,1819,1820,,,,,
46446414,1817,1815,1816,1817,,,,,
46448913,1813,1812,1812,1813,,,,,
46451412,1810,1808,1809,1810,,,,,
46453911,1806,1805,1805,1806,,,,,
46456410,1803,1802,1802,1803,,,,,
46458909,1799,1798,1799,1799,,,,,
46461408,1796,1795,1795,1796,,,,,
46463907,1792,1792,1792,1792,,,,,
46466406,1789,1788,1788,1789,,,,,
46468905,1786,1785,1785,1786,,,,,
46471404,1782,1781,1782,1782,,,,,
46473903,1779,1778,1778,1779,,,,,
46476402,1775,1775,1775,1776,,,,,
46478901,1772,1771,1772,1772,,,,,
46481400,1769,1768,1768,1769,,,,,
46483899,1765,1765,1765,1766,,,,,
46486398,1762,1762,1762,1762,,,,,
46488897,1759,1758,1759,1759,,,,,
46491396,1755,1755,1755,1756,,,,,
46493895,1752,1752,1752,1752,,,,,
46496394,1749,1749,1749,1749,,,,,
46498893,1746,1745,1746,1746,,,,,
46501392,1742,1742,1742,1743,,,,,
46503891,1739,1739,1739,1739,,,,,
46506390,1736,1736,1736,1736,,,,,
46508889,1733,1733,1733,1733,,,,,
46511388,1730,1729,1730,1730,,,,,
46513887,1726,1726,1727,1727,,,,,
46516386,1723,1723,1723,1724,,,,,
46518885,1720,1720,1720,1721,,,,,
46521384,1717,1717,1717,1718,,,,,
