TimeUS,M1,M2,M3,M4,TimeUS,C1,C2,C3,C4
45550939,1000,1000,1000,1000,45628408,1000,1000,1000,1000
45553438,1000,1000,1000,1000,45728368,1000,1000,1000,1000
45555937,1000,1000,1000,1000,45828328,1000,1000,1000,1000
45558436,1000,1000,1000,1000,45928288,1000,1000,1000,1000
45560935,1000,1000,1000,1000,46028248,1000,1000,1000,1000
45563434,1000,1000,1000,1000,46128208,1000,1000,1000,1000
45565933,1000,1000,1000,1000,46228168,1000,1000,1000,1000
45568432,1000,1000,1000,1000,46328961,1000,1000,1000,1000
45570931,1000,1000,1000,1000,46428921,1000,1000,1000,1000
45573430,1000,1000,1000,1000,46528881,1000,1000,1000,1000
45575929,1000,1000,1000,1000,46628841,1000,1000,1000,1000
45578428,1000,1000,1000,1000,46728801,1000,1000,1000,1000
45580927,1000,1000,1000,1000,46828761,1000,1000,1000,1000
45583426,1000,1000,1000,1000,46928721,1000,1000,1000,1000
45585925,1000,1000,1000,1000,47028681,1000,1000,1000,1000
45588424,1000,1000,1000,1000,47128641,1000,1000,1000,1000
45590923,1000,1000,1000,1000,47228601,1000,1000,1000,1000
45593422,1000,1000,1000,1000,47328561,1000,1000,1000,1000
45595921,1000,1000,1000,1000,47428521,1000,1000,1000,1000
45598420,1000,1000,1000,1000,47528481,1000,1000,1000,1000
45600919,1000,1000,1000,1000,47628441,1023,1023,1023,1023
45603418,1000,1000,1000,1000,47728401,1053,1053,1053,1053
45605917,1000,1000,1000,1000,47828361,1083,1083,1083,1083
45608416,1000,1000,1000,1000,47928321,1113,1113,1113,1113
45610915,1000,1000,1000,1000,48028281,1143,1143,1143,1143
45613414,1000,1000,1000,1000,48128241,1351,1346,1347,1351
45615913,1000,1000,1000,1000,48228201,1542,1538,1538,1542
45618412,1000,1000,1000,1000,48328161,1695,1691,1691,1695
45620911,1000,1000,1000,1000,48428954,1826,1823,1823,1826
45623410,1000,1000,1000,1000,48528914,1867,1863,1863,1867
45625909,1000,1000,1000,1000,48628874,1834,1833,1833,1835
45628408,1000,1000,1000,1000,48728834,1708,1708,1708,1708
45630907,1000,1000,1000,1000,48828794,1636,1633,1633,1637
45633406,1000,1000,1000,1000,48928754,1619,1620,1616,1624
45635905,1000,1000,1000,1000,49028714,1629,1631,1627,1634
45638404,1000,1000,1000,1000,49128674,1638,1640,1638,1640
45640903,1000,1000,1000,1000,49228634,1638,1638,1639,1637
45643402,1000,1000,1000,1000,49328594,1633,1632,1635,1630
45645901,1000,1000,1000,1000,49428554,1626,1625,1629,1622
45648400,1000,1000,1000,1000,49528514,1623,1622,1625,1620
45650899,1000,1000,1000,1000,49628474,1623,1622,1624,1621
45653398,1000,1000,1000,1000,49728434,1622,1623,1622,1622
45655897,1000,1000,1000,1000,49828394,1595,1596,1600,1591
45658396,1000,1000,1000,1000,49928354,1579,1580,1586,1574
45660895,1000,1000,1000,1000,50028314,1568,1568,1570,1567
45663394,1000,1000,1000,1000,50128274,1558,1558,1556,1561
45665893,1000,1000,1000,1000,50228234,1550,1550,1545,1555
45668392,1000,1000,1000,1000,50328194,1543,1542,1534,1551
45670891,1000,1000,1000,1000,50428154,1537,1536,1530,1543
45673390,1000,1000,1000,1000,50528947,1532,1531,1528,1535
45675889,1000,1000,1000,1000,50628907,1527,1527,1527,1528
45678388,1000,1000,1000,1000,50728867,1527,1527,1529,1526
45680887,1000,1000,1000,1000,50828827,1528,1528,1531,1526
45683386,1000,1000,1000,1000,50928787,1531,1532,1534,1529
45685885,1000,1000,1000,1000,51028747,1535,1535,1537,1533
45688384,1000,1000,1000,1000,51128707,1539,1538,1540,1537
45690883,1000,1000,1000,1000,51228667,1542,1542,1543,1541
45693382,1000,1000,1000,1000,51328627,1545,1545,1545,1545
45695881,1000,1000,1000,1000,51428587,1549,1549,1548,1549
45698380,1000,1000,1000,1000,51528547,1551,1551,1551,1551
45700879,1000,1000,1000,1000,51628507,1554,1554,1553,1555
45703378,1000,1000,1000,1000,51728467,1554,1554,1557,1560
45705877,1000,1000,1000,1000,51828427,1553,1553,1562,1563
45708376,1000,1000,1000,1000,51928387,1554,1554,1563,1563
45710875,1000,1000,1000,1000,52028347,1558,1558,1564,1564
45713374,1000,1000,1000,1000,52128307,1562,1562,1565,1564
45715873,1000,1000,1000,1000,52228267,1564,1565,1564,1564
45718372,1000,1000,1000,1000,52328227,1567,1567,1565,1564
45720871,1000,1000,1000,1000,52428187,1569,1569,1565,1564
45723370,1000,1000,1000,1000,52528980,1571,1571,1566,1565
45725869,1000,1000,1000,1000,52628940,1573,1573,1567,1567
45728368,1000,1000,1000,1000,52728900,1574,1574,1569,1569
45730867,1000,1000,1000,1000,52828860,1573,1574,1569,1570
45733366,1000,1000,1000,1000,52928820,1573,1573,1570,1570
45735865,1000,1000,1000,1000,53028780,1573,1574,1571,1572
45738364,1000,1000,1000,1000,53128740,1574,1574,1574,1573
45740863,1000,1000,1000,1000,53228700,1574,1574,1575,1573
45743362,1000,1000,1000,1000,53328660,1574,1574,1576,1574
45745861,1000,1000,1000,1000,53428620,1574,1574,1576,1575
45748360,1000,1000,1000,1000,53528580,1574,1574,1576,1576
45750859,1000,1000,1000,1000,53628540,1573,1574,1575,1575
45753358,1000,1000,1000,1000,53728500,1574,1574,1575,1576
45755857,1000,1000,1000,1000,53828460,1574,1574,1576,1576
45758356,1000,1000,1000,1000,53928420,1575,1574,1575,1576
45760855,1000,1000,1000,1000,54028380,1575,1576,1576,1576
45763354,1000,1000,1000,1000,54128340,1577,1576,1577,1577
45765853,1000,1000,1000,1000,54228300,1577,1577,1577,1577
45768352,1000,1000,1000,1000,54328260,1578,1578,1577,1577
45770851,1000,1000,1000,1000,54428220,1577,1578,1577,1577
45773350,1000,1000,1000,1000,54528180,1578,1578,1577,1577
45775849,1000,1000,1000,1000,54628973,1578,1578,1577,1577
45778348,1000,1000,1000,1000,54728933,1579,1578,1578,1578
45780847,1000,1000,1000,1000,54828893,1578,1578,1578,1578
45783346,1000,1000,1000,1000,54928853,1578,1578,1578,1578
45785845,1000,1000,1000,1000,55028813,1579,1579,1579,1578
45788344,1000,1000,1000,1000,55128773,1579,1579,1579,1579
45790843,1000,1000,1000,1000,55228733,1579,1579,1579,1579
45793342,1000,1000,1000,1000,55328693,1578,1578,1579,1578
45795841,1000,1000,1000,1000,55428653,1578,1579,1579,1579
45798340,1000,1000,1000,1000,55528613,1578,1578,1578,1579
45800839,1000,1000,1000,1000,55628573,1578,1578,1578,1579
45803338,1000,1000,1000,1000,55728533,1579,1579,1579,1579
45805837,1000,1000,1000,1000,55828493,1578,1579,1579,1579
45808336,1000,1000,1000,1000,55928453,1579,1579,1579,1579
45810835,1000,1000,1000,1000,56028413,1580,1580,1580,1580
45813334,1000,1000,1000,1000,56128373,1580,1580,1580,1579
45815833,1000,1000,1000,1000,56228333,1580,1580,1580,1580
45818332,1000,1000,1000,1000,56328293,1580,1579,1580,1580
45820831,1000,1000,1000,1000,56428253,1580,1579,1579,1579
45823330,1000,1000,1000,1000,56528213,1580,1580,1580,1580
45825829,1000,1000,1000,1000,56628173,1579,1580,1579,1580
45828328,1000,1000,1000,1000,56728966,1580,1579,1580,1580
45830827,1000,1000,1000,1000,56828926,1580,1580,1580,1580
45833326,1000,1000,1000,1000,56928886,1580,1580,1580,1580
45835825,1000,1000,1000,1000,57028846,1582,1581,1581,1581
45838324,1000,1000,1000,1000,57128806,1581,1581,1581,1582
45840823,1000,1000,1000,1000,57228766,1581,1582,1581,1581
45843322,1000,1000,1000,1000,57328726,1581,1581,1581,1581
45845821,1000,1000,1000,1000,57428686,1580,1581,1580,1580
45848320,1000,1000,1000,1000,57528646,1582,1581,1581,1581
45850819,1000,1000,1000,1000,57628606,1581,1581,1581,1581
45853318,1000,1000,1000,1000,57728566,1582,1582,1582,1582
45855817,1000,1000,1000,1000,57828526,1581,1581,1582,1582
45858316,1000,1000,1000,1000,57928486,1581,1581,1584,1577
45860815,1000,1000,1000,1000,58028446,1580,1582,1588,1573
45863314,1000,1000,1000,1000,58128406,1580,1583,1582,1574
45865813,1000,1000,1000,1000,58228366,1578,1580,1573,1573
45868312,1000,1000,1000,1000,58328326,1576,1579,1564,1570
45870811,1000,1000,1000,1000,58428286,1577,1579,1559,1566
45873310,1000,1000,1000,1000,58528246,1578,1578,1556,1561
45875809,1000,1000,1000,1000,58628206,1579,1578,1556,1558
45878308,1000,1000,1000,1000,58728166,1579,1577,1555,1555
45880807,1000,1000,1000,1000,58828959,1579,1578,1556,1554
45883306,1000,1000,1000,1000,58928919,1577,1577,1556,1554
45885805,1000,1000,1000,1000,59028879,1576,1577,1556,1554
45888304,1000,1000,1000,1000,59128839,1576,1577,1556,1555
45890803,1000,1000,1000,1000,59228799,1575,1577,1555,1554
45893302,1000,1000,1000,1000,59328759,1575,1576,1553,1553
45895801,1000,1000,1000,1000,59428719,1576,1577,1551,1551
45898300,1000,1000,1000,1000,59528679,1576,1578,1548,1549
45900799,1000,1000,1000,1000,59628639,1578,1580,1546,1546
45903298,1000,1000,1000,1000,59728599,1581,1582,1543,1544
45905797,1000,1000,1000,1000,59828559,1585,1586,1542,1541
45908296,1000,1000,1000,1000,59928519,1588,1588,1539,1538
45910795,1000,1000,1000,1000,60028479,1590,1591,1536,1535
45913294,1000,1000,1000,1000,60128439,1593,1593,1534,1534
45915793,1000,1000,1000,1000,60228399,1594,1594,1533,1534
45918292,1000,1000,1000,1000,60328359,1595,1595,1535,1537
45920791,1000,1000,1000,1000,60428319,1593,1594,1537,1539
45923290,1000,1000,1000,1000,60528279,1590,1590,1540,1543
45925789,1000,1000,1000,1000,60628239,1586,1585,1546,1550
45928288,1000,1000,1000,1000,60728199,1580,1577,1555,1558
45930787,1000,1000,1000,1000,60828159,1571,1567,1566,1568
45933286,1000,1000,1000,1000,60928952,1561,1556,1578,1579
45935785,1000,1000,1000,1000,61028912,1550,1546,1591,1591
45938284,1000,1000,1000,1000,61128872,1540,1538,1602,1602
45940783,1000,1000,1000,1000,61228832,1533,1532,1610,1609
45943282,1000,1000,1000,1000,61328792,1529,1530,1615,1614
45945781,1000,1000,1000,1000,61428752,1528,1530,1614,1614
45948280,1000,1000,1000,1000,61528712,1531,1534,1611,1611
45950779,1000,1000,1000,1000,61628672,1539,1542,1608,1608
45953278,1000,1000,1000,1000,61728632,1546,1548,1600,1600
45955777,1000,1000,1000,1000,61828592,1556,1556,1593,1593
45958276,1000,1000,1000,1000,61928552,1565,1565,1586,1585
45960775,1000,1000,1000,1000,62028512,1573,1572,1579,1578
45963274,1000,1000,1000,1000,62128472,1580,1579,1573,1573
45965773,1000,1000,1000,1000,62228432,1584,1582,1568,1568
45968272,1000,1000,1000,1000,62328392,1586,1585,1566,1566
45970771,1000,1000,1000,1000,62428352,1588,1587,1566,1566
45973270,1000,1000,1000,1000,62528312,1588,1587,1567,1567
45975769,1000,1000,1000,1000,62628272,1585,1584,1568,1569
45978268,1000,1000,1000,1000,62728232,1583,1583,1572,1572
45980767,1000,1000,1000,1000,62828192,1580,1580,1575,1575
45983266,1000,1000,1000,1000,62928985,1577,1577,1578,1577
45985765,1000,1000,1000,1000,63028945,1575,1575,1580,1580
45988264,1000,1000,1000,1000,63128905,1650,1649,1560,1558
45990763,1000,1000,1000,1000,63228865,1621,1620,1561,1559
45993262,1000,1000,1000,1000,63328825,1595,1593,1567,1568
45995761,1000,1000,1000,1000,63428785,1573,1572,1577,1579
45998260,1000,1000,1000,1000,63528745,1556,1556,1586,1588
46000759,1000,1000,1000,1000,63628705,1547,1549,1592,1592
46003258,1000,1000,1000,1000,63728665,1543,1546,1593,1592
46005757,1000,1000,1000,1000,63828625,1546,1549,1594,1593
46008256,1000,1000,1000,1000,63928585,1551,1553,1592,1592
46010755,1000,1000,1000,1000,64028545,1556,1557,1590,1590
46013254,1000,1000,1000,1000,64128505,1560,1562,1586,1586
46015753,1000,1000,1000,1000,64228465,1566,1567,1584,1584
46018252,1000,1000,1000,1000,64328425,1572,1571,1581,1582
46020751,1000,1000,1000,1000,64428385,1576,1575,1579,1579
46023250,1000,1000,1000,1000,64528345,1579,1578,1577,1576
46025749,1000,1000,1000,1000,64628305,1582,1582,1576,1575
46028248,1000,1000,1000,1000,64728265,1585,1584,1575,1574
46030747,1000,1000,1000,1000,64828225,1587,1586,1575,1575
46033246,1000,1000,1000,1000,64928185,1587,1586,1574,1574
46035745,1000,1000,1000,1000,65028978,1587,1586,1575,1574
46038244,1000,1000,1000,1000,65128938,1586,1586,1575,1575
46040743,1000,1000,1000,1000,65228898,1585,1585,1576,1577
46043242,1000,1000,1000,1000,65328858,1583,1583,1577,1578
46045741,1000,1000,1000,1000,65428818,1583,1582,1580,1579
46048240,1000,1000,1000,1000,65528778,1581,1581,1581,1581
46050739,1000,1000,1000,1000,65628738,1579,1580,1581,1581
46053238,1000,1000,1000,1000,65728698,1578,1579,1582,1583
46055737,1000,1000,1000,1000,65828658,1578,1578,1583,1582
46058236,1000,1000,1000,1000,65928618,1578,1578,1583,1583
46060735,1000,1000,1000,1000,66028578,1577,1582,1589,1575
46063234,1000,1000,1000,1000,66128538,1577,1583,1584,1573
46065733,1000,1000,1000,1000,66228498,1577,1581,1575,1572
46068232,1000,1000,1000,1000,66328458,1578,1580,1565,1570
46070731,1000,1000,1000,1000,66428418,1580,1580,1558,1566
46073230,1000,1000,1000,1000,66528378,1581,1580,1553,1560
46075729,1000,1000,1000,1000,66628338,1583,1581,1551,1555
46078228,1000,1000,1000,1000,66728298,1584,1581,1552,1551
46080727,1000,1000,1000,1000,66828258,1584,1582,1552,1550
46083226,1000,1000,1000,1000,66928218,1582,1582,1553,1550
46085725,1000,1000,1000,1000,67028178,1581,1582,1554,1551
46088224,1000,1000,1000,1000,67128971,1579,1581,1554,1553
46090723,1000,1000,1000,1000,67228931,1578,1580,1554,1553
46093222,1000,1000,1000,1000,67328891,1577,1579,1552,1553
46095721,1000,1000,1000,1000,67428851,1578,1579,1551,1553
46098220,1000,1000,1000,1000,67528811,1579,1580,1551,1551
46100719,1000,1000,1000,1000,67628771,1581,1582,1550,1549
46103218,1000,1000,1000,1000,67728731,1585,1585,1549,1549
46105717,1000,1000,1000,1000,67828691,1585,1587,1546,1546
46108216,1000,1000,1000,1000,67928651,1588,1590,1542,1543
46110715,1000,1000,1000,1000,68028611,1592,1593,1540,1541
46113214,1000,1000,1000,1000,68128571,1595,1594,1539,1540
46115713,1000,1000,1000,1000,68228531,1594,1593,1539,1541
46118212,1000,1000,1000,1000,68328491,1594,1591,1544,1546
46120711,1000,1000,1000,1000,68428451,1589,1587,1550,1552
46123210,1000,1000,1000,1000,68528411,1583,1579,1559,1561
46125709,1000,1000,1000,1000,68628371,1573,1570,1569,1570
46128208,1000,1000,1000,1000,68728331,1564,1561,1581,1581
46130707,1000,1000,1000,1000,68828291,1555,1553,1592,1592
46133206,1000,1000,1000,1000,68928251,1548,1547,1600,1600
46135705,1000,1000,1000,1000,69028211,1543,1544,1605,1604
46138204,1000,1000,1000,1000,69128171,1542,1544,1607,1607
46140703,1000,1000,1000,1000,69228964,1545,1546,1608,1608
46143202,1000,1000,1000,1000,69328924,1547,1548,1606,1605
46145701,1000,1000,1000,1000,69428884,1550,1552,1603,1602
46148200,1000,1000,1000,1000,69528844,1555,1556,1599,1598
46150699,1000,1000,1000,1000,69628804,1560,1561,1594,1594
46153198,1000,1000,1000,1000,69728764,1564,1564,1589,1589
46155697,1000,1000,1000,1000,69828724,1570,1570,1585,1585
46158196,1000,1000,1000,1000,69928684,1575,1574,1581,1581
46160695,1000,1000,1000,1000,70028644,1579,1579,1577,1577
46163194,1000,1000,1000,1000,70128604,1582,1581,1574,1574
46165693,1000,1000,1000,1000,70228564,1583,1582,1571,1571
46168192,1000,1000,1000,1000,70328524,1585,1584,1570,1571
46170691,1000,1000,1000,1000,70428484,1584,1583,1570,1571
46173190,1000,1000,1000,1000,70528444,1584,1583,1573,1573
46175689,1000,1000,1000,1000,70628404,1582,1582,1575,1575
46178188,1000,1000,1000,1000,70728364,1579,1579,1576,1576
46180687,1000,1000,1000,1000,70828324,1578,1578,1580,1579
46183186,1000,1000,1000,1000,70928284,1576,1577,1581,1581
46185685,1000,1000,1000,1000,71028244,1574,1574,1581,1582
46188184,1000,1000,1000,1000,71128204,1573,1574,1582,1583
46190683,1000,1000,1000,1000,71228164,1574,1574,1583,1583
46193182,1000,1000,1000,1000,71328957,1574,1575,1583,1583
46195681,1000,1000,1000,1000,71428917,1576,1576,1583,1583
46198180,1000,1000,1000,1000,71528877,1577,1578,1582,1582
46200679,1000,1000,1000,1000,71628837,1578,1578,1581,1580
46203178,1000,1000,1000,1000,71728797,1579,1579,1580,1580
46205677,1000,1000,1000,1000,71828757,1580,1580,1579,1579
46208176,1000,1000,1000,1000,71928717,1580,1580,1578,1579
46210675,1000,1000,1000,1000,72028677,1581,1580,1578,1578
46213174,1000,1000,1000,1000,72128637,1581,1580,1578,1578
46215673,1000,1000,1000,1000,72228597,1581,1581,1578,1578
46218172,1000,1000,1000,1000,72328557,1581,1581,1579,1578
46220671,1000,1000,1000,1000,72428517,1581,1581,1580,1579
46223170,1000,1000,1000,1000,72528477,1580,1581,1579,1580
46225669,1000,1000,1000,1000,72628437,1580,1580,1580,1580
46228168,1000,1000,1000,1000,72728397,1580,1580,1580,1580
46230667,1000,1000,1000,1000,72828357,1581,1580,1581,1581
46233166,1000,1000,1000,1000,72928317,1581,1581,1582,1582
46235665,1000,1000,1000,1000,73028277,1580,1580,1582,1581
46238164,1000,1000,1000,1000,73128237,1580,1580,1582,1581
46240663,1000,1000,1000,1000,73228197,1580,1580,1581,1582
46243162,1000,1000,1000,1000,73328157,1579,1580,1580,1581
46245661,1000,1000,1000,1000,73428950,1579,1580,1581,1581
46248160,1000,1000,1000,1000,73528910,1580,1580,1580,1581
46250659,1000,1000,1000,1000,73628870,1581,1581,1581,1580
46253158,1000,1000,1000,1000,73728830,1581,1581,1581,1581
46255657,1000,1000,1000,1000,73828790,1580,1580,1580,1580
46258156,1000,1000,1000,1000,73928750,1581,1582,1581,1581
46260655,1000,1000,1000,1000,74028710,1580,1582,1586,1572
46263154,1000,1000,1000,1000,74128670,1580,1584,1584,1572
46266486,1000,1000,1000,1000,74228630,1579,1583,1575,1572
46268985,1000,1000,1000,1000,74328590,1577,1580,1566,1571
46271484,1000,1000,1000,1000,74428550,1578,1579,1560,1567
46273983,1000,1000,1000,1000,74528510,1579,1578,1555,1562
46276482,1000,1000,1000,1000,74628470,1580,1578,1554,1558
46278981,1000,1000,1000,1000,74728430,1581,1578,1555,1555
46281480,1000,1000,1000,1000,74828390,1580,1579,1555,1553
46283979,1000,1000,1000,1000,74928350,1579,1579,1556,1553
46286478,1000,1000,1000,1000,75028310,1577,1578,1556,1554
46288977,1000,1000,1000,1000,75128270,1576,1578,1555,1554
46291476,1000,1000,1000,1000,75228230,1575,1577,1554,1554
46293975,1000,1000,1000,1000,75328190,1576,1578,1554,1555
46296474,1000,1000,1000,1000,75428983,1576,1577,1551,1552
46298973,1000,1000,1000,1000,75528943,1577,1578,1550,1551
46301472,1000,1000,1000,1000,75628903,1579,1581,1549,1548
46303971,1000,1000,1000,1000,75728863,1582,1583,1546,1546
46306470,1000,1000,1000,1000,75828823,1585,1586,1544,1544
46308969,1000,1000,1000,1000,75928783,1588,1588,1541,1541
46311468,1000,1000,1000,1000,76028743,1590,1590,1539,1539
46313967,1000,1000,1000,1000,76128703,1591,1592,1537,1538
46316466,1000,1000,1000,1000,76228663,1593,1595,1536,1538
46318965,1000,1000,1000,1000,76328623,1593,1594,1536,1537
46321464,1000,1000,1000,1000,76428583,1594,1593,1538,1540
46323963,1000,1000,1000,1000,76528543,1592,1590,1542,1545
46326462,1000,1000,1000,1000,76628503,1587,1583,1549,1552
46328961,1000,1000,1000,1000,76728463,1578,1574,1558,1561
46331460,1000,1000,1000,1000,76828423,1567,1564,1569,1571
46333959,1000,1000,1000,1000,76928383,1558,1554,1583,1584
46336458,1000,1000,1000,1000,77028343,1547,1545,1595,1595
46338957,1000,1000,1000,1000,77128303,1538,1538,1604,1603
46341456,1000,1000,1000,1000,77228263,1533,1534,1611,1610
46343955,1000,1000,1000,1000,77328223,1532,1534,1612,1612
46346454,1000,1000,1000,1000,77428183,1536,1538,1612,1611
46348953,1000,1000,1000,1000,77528976,1542,1543,1609,1608
46351452,1000,1000,1000,1000,77628936,1547,1549,1603,1603
46353951,1000,1000,1000,1000,77728896,1555,1556,1598,1598
46356450,1000,1000,1000,1000,77828856,1561,1562,1591,1590
46358949,1000,1000,1000,1000,77928816,1570,1570,1585,1584
46361448,1000,1000,1000,1000,78028776,1577,1576,1579,1579
46363947,1000,1000,1000,1000,78128736,1582,1581,1574,1574
46366446,1000,1000,1000,1000,78228696,1584,1583,1569,1570
46368945,1000,1000,1000,1000,78328656,1587,1586,1569,1570
46371444,1000,1000,1000,1000,78428616,1586,1585,1568,1568
46373943,1000,1000,1000,1000,78528576,1586,1584,1570,1570
46376442,1000,1000,1000,1000,78628536,1583,1582,1572,1572
46378941,1000,1000,1000,1000,78728496,1580,1580,1574,1574
46381440,1000,1000,1000,1000,78828456,1577,1577,1576,1577
46383939,1000,1000,1000,1000,78928416,1575,1576,1579,1579
46386438,1000,1000,1000,1000,79028376,1573,1574,1581,1581
46388937,1000,1000,1000,1000,79128336,1573,1573,1582,1582
46391436,1000,1000,1000,1000,79228296,1573,1573,1583,1583
46393935,1000,1000,1000,1000,79328256,1574,1574,1584,1583
46396434,1000,1000,1000,1000,79428216,1573,1574,1582,1582
46398933,1000,1000,1000,1000,79528176,1575,1576,1582,1582
46401432,1000,1000,1000,1000,79628969,1576,1577,1581,1581
46403931,1000,1000,1000,1000,79728929,1577,1577,1579,1579
46406430,1000,1000,1000,1000,79828889,1580,1579,1579,1579
46408929,1000,1000,1000,1000,79928849,1580,1580,1578,1578
46411428,1000,1000,1000,1000,80028809,1581,1580,1578,1578
46413927,1000,1000,1000,1000,80128769,1582,1581,1578,1578
46416426,1000,1000,1000,1000,80228729,1581,1581,1578,1577
46418925,1000,1000,1000,1000,80328689,1580,1581,1578,1578
46421424,1000,1000,1000,1000,80428649,1580,1580,1578,1578
46423923,1000,1000,1000,1000,80528609,1580,1580,1578,1579
46426422,1000,1000,1000,1000,80628569,1579,1578,1578,1578
46428921,1000,1000,1000,1000,80728529,1579,1579,1580,1579
46431420,1000,1000,1000,1000,80828489,1580,1580,1581,1580
46433919,1000,1000,1000,1000,80928449,1579,1579,1580,1580
46436418,1000,1000,1000,1000,81028409,1579,1579,1581,1581
46438917,1000,1000,1000,1000,81128369,1579,1580,1581,1581
46441416,1000,1000,1000,1000,81228329,1580,1580,1581,1581
46443915,1000,1000,1000,1000,81328289,1579,1580,1581,1581
46446414,1000,1000,1000,1000,81428249,1580,1580,1581,1580
46448913,1000,1000,1000,1000,81528209,1580,1580,1580,1581
46451412,1000,1000,1000,1000,81628169,1581,1581,1581,1581
46453911,1000,1000,1000,1000,81728962,1582,1582,1581,1582
46456410,1000,1000,1000,1000,81828922,1582,1582,1581,1581
46458909,1000,1000,1000,1000,81928882,1581,1583,1587,1573
46461408,1000,1000,1000,1000,82028842,1580,1581,1585,1573
46463907,1000,1000,1000,1000,82128802,1578,1578,1578,1576
46466406,1000,1000,1000,1000,82228762,1575,1574,1572,1576
46468905,1000,1000,1000,1000,82328722,1571,1570,1567,1574
46471404,1000,1000,1000,1000,82428682,1569,1568,1565,1572
46473903,1000,1000,1000,1000,82528642,1568,1568,1566,1570
46476402,1000,1000,1000,1000,82628602,1566,1567,1566,1567
46478901,1000,1000,1000,1000,82728562,1566,1566,1567,1565
46481400,1000,1000,1000,1000,82828522,1566,1566,1567,1565
46483899,1000,1000,1000,1000,82928482,1566,1565,1567,1565
46486398,1000,1000,1000,1000,83028442,1565,1566,1566,1565
46488897,1000,1000,1000,1000,83128402,1564,1564,1564,1563
46491396,1000,1000,1000,1000,83228362,1564,1564,1564,1564
46493895,1000,1000,1000,1000,83328322,1563,1563,1563,1563
46496394,1000,1000,1000,1000,83428282,1561,1561,1561,1562
46498893,1000,1000,1000,1000,83528242,1561,1561,1561,1561
46501392,1000,1000,1000,1000,83628202,1562,1561,1562,1561
46503891,1000,1000,1000,1000,83728162,1560,1560,1560,1560
46506390,1000,1000,1000,1000,83828955,1559,1559,1559,1558
46508889,1000,1000,1000,1000,83928915,1557,1557,1558,1557
46511388,1000,1000,1000,1000,84028875,1556,1556,1557,1556
46513887,1000,1000,1000,1000,84128835,1557,1557,1557,1557
46516386,1000,1000,1000,1000,84228795,1557,1557,1558,1556
46518885,1000,1000,1000,1000,84328755,1556,1556,1556,1555
46521384,1000,1000,1000,1000,84428715,1557,1557,1558,1556
46523883,1000,1000,1000,1000,84528675,1558,1558,1558,1556
46526382,1000,1000,1000,1000,84628635,1559,1559,1560,1557
46528881,1000,1000,1000,1000,84728595,1558,1558,1557,1559
46531380,1000,1000,1000,1000,84828555,1560,1560,1557,1562
46533879,1000,1000,1000,1000,84928515,1560,1560,1557,1563
46536378,1000,1000,1000,1000,85028475,1561,1561,1558,1563
46538877,1000,1000,1000,1000,85128435,1563,1563,1561,1564
46541376,1000,1000,1000,1000,85228395,1562,1561,1562,1562
46543875,1000,1000,1000,1000,85328355,1561,1561,1563,1560
46546374,1000,1000,1000,1000,85428315,1559,1559,1562,1558
46548873,1000,1000,1000,1000,85528275,1558,1558,1558,1560
46551372,1000,1000,1000,1000,85628235,1557,1557,1555,1561
46553871,1000,1000,1000,1000,85728195,1553,1553,1552,1557
46556370,1000,1000,1000,1000,85828155,1547,1546,1547,1549
46558869,1000,1000,1000,1000,85928948,1541,1541,1543,1543
46561368,1000,1000,1000,1000,86028908,1535,1534,1537,1536
46563867,1000,1000,1000,1000,86128868,1527,1527,1530,1528
46566366,1000,1000,1000,1000,86228828,1521,1521,1523,1522
46568865,1000,1000,1000,1000,86328788,1520,1520,1520,1520
46571364,1000,1000,1000,1000,86428748,1521,1521,1520,1520
46573863,1000,1000,1000,1000,86528708,1523,1523,1521,1521
46576362,1000,1000,1000,1000,86628668,1526,1527,1523,1524
46578861,1000,1000,1000,1000,86728628,1531,1531,1527,1527
46581360,1000,1000,1000,1000,86828588,1535,1535,1531,1531
46583859,1000,1000,1000,1000,86928548,1540,1540,1536,1537
46586358,1000,1000,1000,1000,87028508,1542,1541,1539,1539
46588857,1000,1000,1000,1000,87128468,1543,1543,1542,1542
46591356,1000,1000,1000,1000,87228428,1544,1544,1544,1544
46593855,1000,1000,1000,1000,87328388,1544,1544,1545,1545
46596354,1000,1000,1000,1000,87428348,1544,1544,1546,1546
46598853,1000,1000,1000,1000,87528308,1545,1545,1548,1547
46601352,1000,1000,1000,1000,87628268,1545,1546,1547,1547
46603851,1000,1000,1000,1000,87728228,1545,1545,1547,1547
46606350,1000,1000,1000,1000,87828188,1545,1545,1547,1547
46608849,1000,1000,1000,1000,87928981,1545,1545,1546,1546
46611348,1000,1000,1000,1000,88028941,1545,1545,1546,1546
46613847,1000,1000,1000,1000,88128901,1546,1546,1546,1546
46616346,1000,1000,1000,1000,88228861,1547,1546,1546,1546
46618845,1000,1000,1000,1000,88328821,1546,1546,1546,1545
46621344,1000,1000,1000,1000,88428781,1545,1545,1544,1544
46623843,1000,1000,1000,1000,88528741,1545,1545,1544,1544
46626342,1000,1000,1000,1000,88628701,1545,1546,1544,1544
46628841,1000,1000,1000,1000,88728661,1544,1543,1543,1543
46631340,1000,1000,1000,1000,88828621,1544,1543,1543,1543
46633839,1000,1000,1000,1000,88928581,1543,1544,1543,1544
46636338,1000,1000,1000,1000,89028541,1544,1544,1543,1544
46638837,1000,1000,1000,1000,89128501,1544,1543,1543,1544
46641336,1000,1000,1000,1000,89228461,1543,1543,1544,1543
46643835,1000,1000,1000,1000,89328421,1544,1544,1544,1544
46646334,1000,1000,1000,1000,89428381,1544,1544,1544,1544
46648833,1000,1000,1000,1000,89528341,1544,1543,1544,1544
46651332,1000,1000,1000,1000,89628301,1543,1543,1543,1544
46653831,1000,1000,1000,1000,89728261,1543,1543,1543,1543
46656330,1000,1000,1000,1000,89828221,1544,1544,1544,1544
46658829,1000,1000,1000,1000,89928181,1544,1543,1543,1544
46661328,1000,1000,1000,1000,90028974,1543,1543,1543,1543
46663827,1000,1000,1000,1000,90128934,1544,1544,1544,1544
46666326,1000,1000,1000,1000,90228894,1544,1544,1544,1544
46668825,1000,1000,1000,1000,90328854,1545,1544,1544,1544
46671324,1000,1000,1000,1000,90428814,1544,1544,1544,1544
46673823,1000,1000,1000,1000,90528774,1544,1544,1544,1544
46676322,1000,1000,1000,1000,90628734,1543,1544,1544,1543
46678821,1000,1000,1000,1000,90728694,1544,1544,1544,1544
46681320,1000,1000,1000,1000,90828654,1544,1545,1545,1545
46683819,1000,1000,1000,1000,90928614,1545,1544,1544,1545
46686318,1000,1000,1000,1000,91028574,1544,1544,1544,1544
46688817,1000,1000,1000,1000,91128534,1544,1544,1544,1544
46691316,1000,1000,1000,1000,91228494,1544,1544,1544,1544
46693815,1000,1000,1000,1000,91328454,1544,1545,1545,1544
46696314,1000,1000,1000,1000,91428414,1544,1544,1544,1544
46698813,1000,1000,1000,1000,91528374,1544,1543,1544,1543
46701312,1000,1000,1000,1000,91628334,1544,1544,1544,1544
46703811,1000,1000,1000,1000,91728294,1544,1544,1543,1544
46706310,1000,1000,1000,1000,91828254,1544,1544,1544,1544
46708809,1000,1000,1000,1000,91928214,1545,1544,1544,1544
46711308,1000,1000,1000,1000,92028174,1545,1545,1545,1545
46713807,1000,1000,1000,1000,92128967,1544,1545,1544,1544
46716306,1000,1000,1000,1000,92228927,1545,1545,1545,1545
46718805,1000,1000,1000,1000,92328887,1545,1544,1545,1545
46721304,1000,1000,1000,1000,92428847,1545,1545,1545,1545
46723803,1000,1000,1000,1000,92528807,1545,1545,1545,1545
46726302,1000,1000,1000,1000,92628767,1544,1544,1544,1544
46728801,1000,1000,1000,1000,92728727,1545,1545,1545,1545
46731300,1000,1000,1000,1000,92828687,1544,1544,1544,1544
46733799,1000,1000,1000,1000,92928647,1543,1543,1543,1544
46736298,1000,1000,1000,1000,93028607,1544,1544,1544,1544
46738797,1000,1000,1000,1000,93128567,1544,1544,1545,1544
46741296,1000,1000,1000,1000,93228527,1543,1543,1544,1544
46743795,1000,1000,1000,1000,93328487,1544,1544,1544,1544
46746294,1000,1000,1000,1000,93428447,1543,1543,1543,1543
46748793,1000,1000,1000,1000,93528407,1545,1545,1544,1545
46751292,1000,1000,1000,1000,93628367,1544,1545,1544,1544
46753791,1000,1000,1000,1000,93728327,1544,1545,1544,1544
46756290,1000,1000,1000,1000,93828287,1544,1544,1544,1544
46758789,1000,1000,1000,1000,93928247,1544,1544,1544,1544
46761288,1000,1000,1000,1000,94028207,1545,1545,1545,1545
46763787,1000,1000,1000,1000,94128167,1545,1544,1544,1545
46766286,1000,1000,1000,1000,94228960,1544,1543,1543,1544
46768785,1000,1000,1000,1000,94328920,1544,1544,1544,1544
46771284,1000,1000,1000,1000,94428880,1543,1544,1544,1544
46773783,1000,1000,1000,1000,94528840,1543,1544,1544,1544
46776282,1000,1000,1000,1000,94628800,1543,1544,1544,1543
46778781,1000,1000,1000,1000,94728760,1545,1544,1544,1544
46781280,1000,1000,1000,1000,94828720,1544,1544,1544,1544
46783779,1000,1000,1000,1000,94928680,1544,1543,1543,1544
46786278,1000,1000,1000,1000,95028640,1544,1544,1544,1544
46788777,1000,1000,1000,1000,95128600,1543,1544,1544,1544
46791276,1000,1000,1000,1000,95228560,1543,1544,1544,1543
46793775,1000,1000,1000,1000,95328520,1544,1544,1544,1544
46796274,1000,1000,1000,1000,95428480,1544,1544,1544,1543
46798773,1000,1000,1000,1000,95528440,1545,1545,1545,1545
46801272,1000,1000,1000,1000,95628400,1545,1545,1545,1545
46803771,1000,1000,1000,1000,95728360,1545,1545,1544,1545
46806270,1000,1000,1000,1000,95828320,1545,1545,1544,1545
46808769,1000,1000,1000,1000,95928280,1544,1543,1544,1544
46811268,1000,1000,1000,1000,96028240,1357,1355,1389,1389
46813767,1000,1000,1000,1000,96128200,1262,1258,1316,1318
46816266,1000,1000,1000,1000,96228160,1261,1258,1316,1317
46818765,1000,1000,1000,1000,96328953,1262,1258,1316,1318
46821264,1000,1000,1000,1000,96428913,1261,1258,1316,1317
46823763,1000,1000,1000,1000,96528873,1262,1258,1296,1297
46826262,1000,1000,1000,1000,96628833,1263,1258,1295,1297
46828761,1000,1000,1000,1000,96728793,1279,1258,1281,1299
46831260,1000,1000,1000,1000,96828753,1272,1258,1287,1298
46833759,1000,1000,1000,1000,96928713,1270,1258,1289,1298
46836258,1000,1000,1000,1000,97028673,1270,1258,1290,1298
46838757,1000,1000,1000,1000,97128633,1271,1258,1289,1298
46841256,1000,1000,1000,1000,97228593,1271,1258,1289,1298
46843755,1000,1000,1000,1000,97328553,1271,1258,1289,1298
46846254,1000,1000,1000,1000,97428513,1258,1260,1299,1296
46848753,1000,1000,1000,1000,97528473,1260,1258,1297,1298
46851252,1000,1000,1000,1000,97628433,1261,1258,1296,1298
46853751,1000,1000,1000,1000,97728393,1261,1258,1296,1298
46856250,1000,1000,1000,1000,97828353,1262,1258,1296,1298
46858749,1000,1000,1000,1000,97928313,1258,1258,1150,1150
46861248,1000,1000,1000,1000,98028273,1000,1000,1000,1000
46863747,1000,1000,1000,1000,98128233,1000,1000,1000,1000
46866246,1000,1000,1000,1000,98228193,1000,1000,1000,1000
46868745,1000,1000,1000,1000,98328986,1000,1000,1000,1000
46871244,1000,1000,1000,1000,98428946,1000,1000,1000,1000
46873743,1000,1000,1000,1000,98528906,1000,1000,1000,1000
46876242,1000,1000,1000,1000,98628866,1000,1000,1000,1000
46878741,1000,1000,1000,1000,98728826,1000,1000,1000,1000
46881240,1000,1000,1000,1000,98828786,1000,1000,1000,1000
46883739,1000,1000,1000,1000,98928746,1000,1000,1000,1000
46886238,1000,1000,1000,1000,99028706,1000,1000,1000,1000
46888737,1000,1000,1000,1000,99128666,1000,1000,1000,1000
46891236,1000,1000,1000,1000,99228626,1000,1000,1000,1000
46893735,1000,1000,1000,1000,99328586,1000,1000,1000,1000
46896234,1000,1000,1000,1000,99428546,1000,1000,1000,1000
46898733,1000,1000,1000,1000,99528506,1000,1000,1000,1000
46901232,1000,1000,1000,1000,99628466,1000,1000,1000,1000
46903731,1000,1000,1000,1000,99728426,1000,1000,1000,1000
46906230,1000,1000,1000,1000,99828386,1000,1000,1000,1000
46908729,1000,1000,1000,1000,99928346,1000,1000,1000,1000
46911228,1000,1000,1000,1000,100028306,1000,1000,1000,1000
46913727,1000,1000,1000,1000,100128266,1000,1000,1000,1000
46916226,1000,1000,1000,1000,100228226,1000,1000,1000,1000
46918725,1000,1000,1000,1000,100328186,1000,1000,1000,1000
46921224,1000,1000,1000,1000,100428979,1000,1000,1000,1000
46923723,1000,1000,1000,1000,100528939,1000,1000,1000,1000
46926222,1000,1000,1000,1000,100628899,1000,1000,1000,1000
46928721,1000,1000,1000,1000,100728859,1000,1000,1000,1000
46931220,1000,1000,1000,1000,100828819,1000,1000,1000,1000
46933719,1000,1000,1000,1000,100928779,1000,1000,1000,1000
46936218,1000,1000,1000,1000,101028739,1000,1000,1000,1000
46938717,1000,1000,1000,1000,101128699,1000,1000,1000,1000
46941216,1000,1000,1000,1000,101228659,1000,1000,1000,1000
46943715,1000,1000,1000,1000,101328619,1000,1000,1000,1000
46946214,1000,1000,1000,1000,101428579,1000,1000,1000,1000
46948713,1000,1000,1000,1000,101528539,1000,1000,1000,1000
46951212,1000,1000,1000,1000,101628499,1000,1000,1000,1000
46953711,1000,1000,1000,1000,101728459,1000,1000,1000,1000
46956210,1000,1000,1000,1000,101828419,1000,1000,1000,1000
46958709,1000,1000,1000,1000,101928379,1000,1000,1000,1000
46961208,1000,1000,1000,1000,102028339,1000,1000,1000,1000
46963707,1000,1000,1000,1000,102128299,1000,1000,1000,1000
46966206,1000,1000,1000,1000,102228259,1000,1000,1000,1000
46968705,1000,1000,1000,1000,102328219,1000,1000,1000,1000
46971204,1000,1000,1000,1000,102428179,1000,1000,1000,1000
46973703,1000,1000,1000,1000,102528972,1000,1000,1000,1000
46976202,1000,1000,1000,1000,102628932,1000,1000,1000,1000
46978701,1000,1000,1000,1000,102728892,1000,1000,1000,1000
46981200,1000,1000,1000,1000,102828852,1000,1000,1000,1000
46983699,1000,1000,1000,1000,102928812,1000,1000,1000,1000
46986198,1000,1000,1000,1000,103028772,1000,1000,1000,1000
46988697,1000,1000,1000,1000,103128732,1000,1000,1000,1000
46991196,1000,1000,1000,1000,103228692,1000,1000,1000,1000
46993695,1000,1000,1000,1000,103328652,1000,1000,1000,1000
46996194,1000,1000,1000,1000,103428612,1000,1000,1000,1000
46998693,1000,1000,1000,1000,103528572,1000,1000,1000,1000
47001192,1000,1000,1000,1000,103628532,1000,1000,1000,1000
47003691,1000,1000,1000,1000,103728492,1000,1000,1000,1000
47006190,1000,1000,1000,1000,103828452,1000,1000,1000,1000
47008689,1000,1000,1000,1000,103928412,1000,1000,1000,1000
47011188,1000,1000,1000,1000,104028372,1000,1000,1000,1000
47013687,1000,1000,1000,1000,104128332,1000,1000,1000,1000
47016186,1000,1000,1000,1000,104228292,1000,1000,1000,1000
47018685,1000,1000,1000,1000,104328252,1000,1000,1000,1000
47021184,1000,1000,1000,1000,104428212,1000,1000,1000,1000
47023683,1000,1000,1000,1000,104528172,1000,1000,1000,1000
47026182,1000,1000,1000,1000,104628965,1000,1000,1000,1000
47028681,1000,1000,1000,1000,104728925,1000,1000,1000,1000
47031180,1000,1000,1000,1000,104828885,1000,1000,1000,1000
47033679,1000,1000,1000,1000,104928845,1000,1000,1000,1000
47036178,1000,1000,1000,1000,105028805,1000,1000,1000,1000
47038677,1000,1000,1000,1000,105128765,1000,1000,1000,1000
47041176,1000,1000,1000,1000,105228725,1000,1000,1000,1000
47043675,1000,1000,1000,1000,105328685,1000,1000,1000,1000
47046174,1000,1000,1000,1000,105428645,1000,1000,1000,1000
47048673,1000,1000,1000,1000,105528605,1000,1000,1000,1000
47051172,1000,1000,1000,1000,105628565,1000,1000,1000,1000
47053671,1000,1000,1000,1000,105728525,1000,1000,1000,1000
47056170,1000,1000,1000,1000,105828485,1000,1000,1000,1000
47058669,1000,1000,1000,1000,105928445,1000,1000,1000,1000
47061168,1000,1000,1000,1000,106028405,1000,1000,1000,1000
47063667,1000,1000,1000,1000,106128365,1000,1000,1000,1000
47066166,1000,1000,1000,1000,106228325,1000,1000,1000,1000
47068665,1000,1000,1000,1000,106328285,1000,1000,1000,1000
47071164,1000,1000,1000,1000,106428245,1000,1000,1000,1000
47073663,1000,1000,1000,1000,106528205,1000,1000,1000,1000
47076162,1000,1000,1000,1000,106628165,1000,1000,1000,1000
47078661,1000,1000,1000,1000,106728958,1000,1000,1000,1000
47081160,1000,1000,1000,1000,,,,,
47083659,1000,1000,1000,1000,,,,,
47086158,1000,1000,1000,1000,,,,,
47088657,1000,1000,1000,1000,,,,,
47091156,1000,1000,1000,1000,,,,,
47093655,1000,1000,1000,1000,,,,,
47096154,1000,1000,1000,1000,,,,,
47098653,1000,1000,1000,1000,,,,,
47101152,1000,1000,1000,1000,,,,,
47103651,1000,1000,1000,1000,,,,,
47106150,1000,1000,1000,1000,,,,,
47108649,1000,1000,1000,1000,,,,,
47111148,1000,1000,1000,1000,,,,,
47113647,1000,1000,1000,1000,,,,,
47116146,1000,1000,1000,1000,,,,,
47118645,1000,1000,1000,1000,,,,,
47121144,1000,1000,1000,1000,,,,,
47123643,1000,1000,1000,1000,,,,,
47126142,1000,1000,1000,1000,,,,,
47128641,1000,1000,1000,1000,,,,,
47131140,1000,1000,1000,1000,,,,,
47133639,1000,1000,1000,1000,,,,,
47136138,1000,1000,1000,1000,,,,,
47138637,1000,1000,1000,1000,,,,,
47141136,1000,1000,1000,1000,,,,,
47143635,1000,1000,1000,1000,,,,,
47146134,1000,1000,1000,1000,,,,,
47148633,1000,1000,1000,1000,,,,,
47151132,1000,1000,1000,1000,,,,,
47153631,1000,1000,1000,1000,,,,,
47156130,1000,1000,1000,1000,,,,,
47158629,1000,1000,1000,1000,,,,,
47161128,1000,1000,1000,1000,,,,,
47163627,1000,1000,1000,1000,,,,,
47166126,1000,1000,1000,1000,,,,,
47168625,1000,1000,1000,1000,,,,,
47171124,1000,1000,1000,1000,,,,,
47173623,1000,1000,1000,1000,,,,,
47176122,1000,1000,1000,1000,,,,,
47178621,1000,1000,1000,1000,,,,,
47181120,1000,1000,1000,1000,,,,,
47183619,1000,1000,1000,1000,,,,,
47186118,1000,1000,1000,1000,,,,,
47188617,1000,1000,1000,1000,,,,,
47191116,1000,1000,1000,1000,,,,,
47193615,1000,1000,1000,1000,,,,,
47196114,1000,1000,1000,1000,,,,,
47198613,1000,1000,1000,1000,,,,,
47201112,1000,1000,1000,1000,,,,,
47203611,1000,1000,1000,1000,,,,,
47206110,1000,1000,1000,1000,,,,,
47208609,1000,1000,1000,1000,,,,,
47211108,1000,1000,1000,1000,,,,,
47213607,1000,1000,1000,1000,,,,,
47216106,1000,1000,1000,1000,,,,,
47218605,1000,1000,1000,1000,,,,,
47221104,1000,1000,1000,1000,,,,,
47223603,1000,1000,1000,1000,,,,,
47226102,1000,1000,1000,1000,,,,,
47228601,1000,1000,1000,1000,,,,,
47231100,1000,1000,1000,1000,,,,,
47233599,1000,1000,1000,1000,,,,,
47236098,1000,1000,1000,1000,,,,,
47238597,1000,1000,1000,1000,,,,,
47241096,1000,1000,1000,1000,,,,,
47243595,1000,1000,1000,1000,,,,,
47246094,1000,1000,1000,1000,,,,,
47248593,1000,1000,1000,1000,,,,,
47251092,1000,1000,1000,1000,,,,,
47253591,1000,1000,1000,1000,,,,,
47256090,1000,1000,1000,1000,,,,,
47258589,1000,1000,1000,1000,,,,,
47261088,1000,1000,1000,1000,,,,,
47263587,1000,1000,1000,1000,,,,,
47266086,1000,1000,1000,1000,,,,,
47268585,1000,1000,1000,1000,,,,,
47271084,1000,1000,1000,1000,,,,,
47273583,1000,1000,1000,1000,,,,,
47276082,1000,1000,1000,1000,,,,,
47278581,1000,1000,1000,1000,,,,,
47281080,1000,1000,1000,1000,,,,,
47283579,1000,1000,1000,1000,,,,,
47286078,1000,1000,1000,1000,,,,,
47288577,1000,1000,1000,1000,,,,,
47291076,1000,1000,1000,1000,,,,,
47293575,1000,1000,1000,1000,,,,,
47296074,1000,1000,1000,1000,,,,,
47298573,1000,1000,1000,1000,,,,,
47301072,1000,1000,1000,1000,,,,,
47303571,1000,1000,1000,1000,,,,,
47306070,1000,1000,1000,1000,,,,,
47308569,1000,1000,1000,1000,,,,,
47311068,1000,1000,1000,1000,,,,,
47313567,1000,1000,1000,1000,,,,,
47316066,1000,1000,1000,1000,,,,,
47318565,1000,1000,1000,1000,,,,,
47321064,1000,1000,1000,1000,,,,,
47323563,1000,1000,1000,1000,,,,,
47326062,1000,1000,1000,1000,,,,,
47328561,1000,1000,1000,1000,,,,,
47331060,1000,1000,1000,1000,,,,,
47333559,1000,1000,1000,1000,,,,,
47336058,1000,1000,1000,1000,,,,,
47338557,1000,1000,1000,1000,,,,,
47341056,1000,1000,1000,1000,,,,,
47343555,1000,1000,1000,1000,,,,,
47346054,1000,1000,1000,1000,,,,,
47348553,1000,1000,1000,1000,,,,,
47351052,1000,1000,1000,1000,,,,,
47353551,1000,1000,1000,1000,,,,,
47356050,1000,1000,1000,1000,,,,,
47358549,1000,1000,1000,1000,,,,,
47361048,1000,1000,1000,1000,,,,,
47363547,1000,1000,1000,1000,,,,,
47366046,1000,1000,1000,1000,,,,,
47368545,1000,1000,1000,1000,,,,,
47371044,1000,1000,1000,1000,,,,,
47373543,1000,1000,1000,1000,,,,,
47376042,1000,1000,1000,1000,,,,,
47378541,1000,1000,1000,1000,,,,,
47381040,1000,1000,1000,1000,,,,,
47383539,1000,1000,1000,1000,,,,,
47386038,1000,1000,1000,1000,,,,,
47388537,1000,1000,1000,1000,,,,,
47391036,1000,1000,1000,1000,,,,,
47393535,1000,1000,1000,1000,,,,,
47396034,1000,1000,1000,1000,,,,,
47398533,1000,1000,1000,1000,,,,,
47401032,1000,1000,1000,1000,,,,,
47403531,1000,1000,1000,1000,,,,,
47406030,1000,1000,1000,1000,,,,,
47408529,1000,1000,1000,1000,,,,,
47411028,1000,1000,1000,1000,,,,,
47413527,1000,1000,1000,1000,,,,,
47416026,1000,1000,1000,1000,,,,,
47418525,1000,1000,1000,1000,,,,,
47421024,1000,1000,1000,1000,,,,,
47423523,1000,1000,1000,1000,,,,,
47426022,1000,1000,1000,1000,,,,,
47428521,1000,1000,1000,1000,,,,,
47431020,1000,1000,1000,1000,,,,,
47433519,1000,1000,1000,1000,,,,,
47436018,1000,1000,1000,1000,,,,,
47438517,1000,1000,1000,1000,,,,,
47441016,1000,1000,1000,1000,,,,,
47443515,1000,1000,1000,1000,,,,,
47446014,1000,1000,1000,1000,,,,,
47448513,1000,1000,1000,1000,,,,,
47451012,1000,1000,1000,1000,,,,,
47453511,1000,1000,1000,1000,,,,,
47456010,1000,1000,1000,1000,,,,,
47458509,1000,1000,1000,1000,,,,,
47461008,1000,1000,1000,1000,,,,,
47463507,1000,1000,1000,1000,,,,,
47466006,1000,1000,1000,1000,,,,,
47468505,1000,1000,1000,1000,,,,,
47471004,1000,1000,1000,1000,,,,,
47473503,1000,1000,1000,1000,,,,,
47476002,1000,1000,1000,1000,,,,,
47478501,1000,1000,1000,1000,,,,,
47481000,1000,1000,1000,1000,,,,,
47483499,1000,1000,1000,1000,,,,,
47485998,1000,1000,1000,1000,,,,,
47488497,1000,1000,1000,1000,,,,,
47490996,1000,1000,1000,1000,,,,,
47493495,1000,1000,1000,1000,,,,,
47495994,1000,1000,1000,1000,,,,,
47498493,1000,1000,1000,1000,,,,,
47500992,1000,1000,1000,1000,,,,,
47503491,1000,1000,1000,1000,,,,,
47505990,1000,1000,1000,1000,,,,,
47508489,1000,1000,1000,1000,,,,,
47510988,1000,1000,1000,1000,,,,,
47513487,1000,1000,1000,1000,,,,,
47515986,1000,1000,1000,1000,,,,,
47518485,1000,1000,1000,1000,,,,,
47520984,1000,1000,1000,1000,,,,,
47523483,1000,1000,1000,1000,,,,,
47525982,1000,1000,1000,1000,,,,,
47528481,1000,1000,1000,1000,,,,,
47530980,1000,1000,1000,1000,,,,,
47533479,1000,1000,1000,1000,,,,,
47535978,1000,1000,1000,1000,,,,,
47538477,1000,1000,1000,1000,,,,,
47540976,1000,1000,1000,1000,,,,,
47543475,1000,1000,1000,1000,,,,,
47545974,1000,1000,1000,1000,,,,,
47548473,1000,1000,1000,1000,,,,,
47550972,1000,1000,1000,1000,,,,,
47553471,1000,1000,1000,1000,,,,,
47555970,1000,1000,1000,1000,,,,,
47558469,1001,1001,1001,1001,,,,,
47560968,1002,1002,1002,1002,,,,,
47563467,1003,1003,1003,1003,,,,,
47565966,1003,1003,1003,1003,,,,,
47568465,1004,1004,1004,1004,,,,,
47570964,1005,1005,1005,1005,,,,,
47573463,1006,1006,1006,1006,,,,,
47575962,1006,1006,1006,1006,,,,,
47578461,1007,1007,1007,1007,,,,,
47580960,1008,1008,1008,1008,,,,,
47583459,1009,1009,1009,1009,,,,,
47585958,1009,1009,1009,1009,,,,,
47588457,1010,1010,1010,1010,,,,,
47590956,1011,1011,1011,1011,,,,,
47593455,1012,1012,1012,1012,,,,,
47595954,1012,1012,1012,1012,,,,,
47598453,1013,1013,1013,1013,,,,,
47600952,1014,1014,1014,1014,,,,,
47603451,1015,1015,1015,1015,,,,,
47605950,1015,1015,1015,1015,,,,,
47608449,1016,1016,1016,1016,,,,,
47610948,1017,1017,1017,1017,,,,,
47613447,1018,1018,1018,1018,,,,,
47615946,1018,1018,1018,1018,,,,,
47618445,1019,1019,1019,1019,,,,,
47620944,1020,1020,1020,1020,,,,,
47623443,1021,1021,1021,1021,,,,,
47625942,1021,1021,1021,1021,,,,,
47628441,1022,1022,1022,1022,,,,,
47630940,1023,1023,1023,1023,,,,,
47633439,1024,1024,1024,1024,,,,,
47635938,1024,1024,1024,1024,,,,,
47638437,1025,1025,1025,1025,,,,,
47640936,1026,1026,1026,1026,,,,,
47643435,1027,1027,1027,1027,,,,,
47645934,1027,1027,1027,1027,,,,,
47648433,1028,1028,1028,1028,,,,,
47650932,1029,1029,1029,1029,,,,,
47653431,1030,1030,1030,1030,,,,,
47655930,1030,1030,1030,1030,,,,,
47658429,1031,1031,1031,1031,,,,,
47660928,1032,1032,1032,1032,,,,,
47663427,1033,1033,1033,1033,,,,,
47665926,1033,1033,1033,1033,,,,,
47668425,1034,1034,1034,1034,,,,,
47670924,1035,1035,1035,1035,,,,,
47673423,1036,1036,1036,1036,,,,,
47675922,1036,1036,1036,1036,,,,,
47678421,1037,1037,1037,1037,,,,,
47680920,1038,1038,1038,1038,,,,,
47683419,1039,1039,1039,1039,,,,,
47685918,1039,1039,1039,1039,,,,,
47688417,1040,1040,1040,1040,,,,,
47690916,1041,1041,1041,1041,,,,,
47693415,1042,1042,1042,1042,,,,,
47695914,1042,1042,1042,1042,,,,,
47698413,1043,1043,1043,1043,,,,,
47700912,1044,1044,1044,1044,,,,,
47703411,1045,1045,1045,1045,,,,,
47705910,1045,1045,1045,1045,,,,,
47708409,1046,1046,1046,1046,,,,,
47710908,1047,1047,1047,1047,,,,,
47713407,1048,1048,1048,1048,,,,,
47715906,1048,1048,1048,1048,,,,,
47718405,1049,1049,1049,1049,,,,,
47720904,1050,1050,1050,1050,,,,,
47723403,1051,1051,1051,1051,,,,,
47725902,1051,1051,1051,1051,,,,,
47728401,1052,1052,1052,1052,,,,,
47730900,1053,1053,1053,1053,,,,,
47733399,1054,1054,1054,1054,,,,,
47735898,1054,1054,1054,1054,,,,,
47738397,1055,1055,1055,1055,,,,,
47740896,1056,1056,1056,1056,,,,,
47743395,1057,1057,1057,1057,,,,,
47745894,1057,1057,1057,1057,,,,,
47748393,1058,1058,1058,1058,,,,,
47750892,1059,1059,1059,1059,,,,,
47753391,1060,1060,1060,1060,,,,,
47755890,1060,1060,1060,1060,,,,,
47758389,1061,1061,1061,1061,,,,,
47760888,1062,1062,1062,1062,,,,,
47763387,1063,1063,1063,1063,,,,,
47765886,1063,1063,1063,1063,,,,,
47768385,1064,1064,1064,1064,,,,,
47770884,1065,1065,1065,1065,,,,,
47773383,1066,1066,1066,1066,,,,,
47775882,1066,1066,1066,1066,,,,,
47778381,1067,1067,1067,1067,,,,,
47780880,1068,1068,1068,1068,,,,,
47783379,1069,1069,1069,1069,,,,,
47785878,1069,1069,1069,1069,,,,,
47788377,1070,1070,1070,1070,,,,,
47790876,1071,1071,1071,1071,,,,,
47793375,1072,1072,1072,1072,,,,,
47795874,1072,1072,1072,1072,,,,,
47798373,1073,1073,1073,1073,,,,,
47800872,1074,1074,1074,1074,,,,,
47803371,1075,1075,1075,1075,,,,,
47805870,1075,1075,1075,1075,,,,,
47808369,1076,1076,1076,1076,,,,,
47810868,1077,1077,1077,1077,,,,,
47813367,1078,1078,1078,1078,,,,,
47815866,1078,1078,1078,1078,,,,,
47818365,1079,1079,1079,1079,,,,,
47820864,1080,1080,1080,1080,,,,,
47823363,1081,1081,1081,1081,,,,,
47825862,1081,1081,1081,1081,,,,,
47828361,1082,1082,1082,1082,,,,,
47830860,1083,1083,1083,1083,,,,,
47833359,1084,1084,1084,1084,,,,,
47835858,1084,1084,1084,1084,,,,,
47838357,1085,1085,1085,1085,,,,,
47840856,1086,1086,1086,1086,,,,,
47843355,1087,1087,1087,1087,,,,,
47845854,1087,1087,1087,1087,,,,,
47848353,1088,1088,1088,1088,,,,,
47850852,1089,1089,1089,1089,,,,,
47853351,1090,1090,1090,1090,,,,,
47855850,1090,1090,1090,1090,,,,,
47858349,1091,1091,1091,1091,,,,,
47860848,1092,1092,1092,1092,,,,,
47863347,1093,1093,1093,1093,,,,,
47865846,1093,1093,1093,1093,,,,,
47868345,1094,1094,1094,1094,,,,,
47870844,1095,1095,1095,1095,,,,,
47873343,1096,1096,1096,1096,,,,,
47875842,1096,1096,1096,1096,,,,,
47878341,1097,1097,1097,1097,,,,,
47880840,1098,1098,1098,1098,,,,,
47883339,1099,1099,1099,1099,,,,,
47885838,1099,1099,1099,1099,,,,,
47888337,1100,1100,1100,1100,,,,,
47890836,1101,1101,1101,1101,,,,,
47893335,1101,1101,1101,1101,,,,,
47895834,1102,1102,1102,1102,,,,,
47898333,1103,1103,1103,1103,,,,,
47900832,1104,1104,1104,1104,,,,,
47903331,1104,1104,1104,1104,,,,,
47905830,1105,1105,1105,1105,,,,,
47908329,1106,1106,1106,1106,,,,,
47910828,1107,1107,1107,1107,,,,,
47913327,1107,1107,1107,1107,,,,,
47915826,1108,1108,1108,1108,,,,,
47918325,1109,1109,1109,1109,,,,,
47920824,1110,1110,1110,1110,,,,,
47923323,1110,1110,1110,1110,,,,,
47925822,1111,1111,1111,1111,,,,,
47928321,1112,1112,1112,1112,,,,,
47930820,1113,1113,1113,1113,,,,,
47933319,1113,1113,1113,1113,,,,,
47935818,1114,1114,1114,1114,,,,,
47938317,1115,1115,1115,1115,,,,,
47940816,1116,1116,1116,1116,,,,,
47943315,1116,1116,1116,1116,,,,,
47945814,1117,1117,1117,1117,,,,,
47948313,1118,1118,1118,1118,,,,,
47950812,1119,1119,1119,1119,,,,,
47953311,1119,1119,1119,1119,,,,,
47955810,1120,1120,1120,1120,,,,,
47958309,1121,1121,1121,1121,,,,,
47960808,1122,1122,1122,1122,,,,,
47963307,1122,1122,1122,1122,,,,,
47965806,1123,1123,1123,1123,,,,,
47968305,1124,1124,1124,1124,,,,,
47970804,1125,1125,1125,1125,,,,,
47973303,1125,1125,1125,1125,,,,,
47975802,1126,1126,1126,1126,,,,,
47978301,1127,1127,1127,1127,,,,,
47980800,1128,1128,1128,1128,,,,,
47983299,1128,1128,1128,1128,,,,,
47985798,1129,1129,1129,1129,,,,,
47988297,1130,1130,1130,1130,,,,,
47990796,1131,1131,1131,1131,,,,,
47993295,1131,1131,1131,1131,,,,,
47995794,1132,1132,1132,1132,,,,,
47998293,1133,1133,1133,1133,,,,,
48000792,1134,1134,1134,1134,,,,,
48003291,1134,1134,1134,1134,,,,,
48005790,1135,1135,1135,1135,,,,,
48008289,1136,1136,1136,1136,,,,,
48010788,1137,1137,1137,1137,,,,,
48013287,1137,1137,1137,1137,,,,,
48015786,1138,1138,1138,1138,,,,,
48018285,1139,1139,1139,1139,,,,,
48020784,1140,1140,1140,1140,,,,,
48023283,1140,1140,1140,1140,,,,,
48025782,1141,1141,1141,1141,,,,,
48028281,1142,1142,1142,1142,,,,,
48030780,1143,1143,1143,1143,,,,,
48033279,1143,1143,1143,1143,,,,,
48035778,1144,1144,1144,1144,,,,,
48038277,1145,1145,1145,1145,,,,,
48040776,1146,1146,1146,1146,,,,,
48043275,1146,1146,1146,1146,,,,,
48045774,1147,1147,1147,1147,,,,,
48048273,1148,1148,1148,1148,,,,,
48050772,1149,1149,1149,1149,,,,,
48053271,1149,1149,1149,1149,,,,,
48055770,1150,1150,1150,1150,,,,,
48058269,1161,1154,1155,1161,,,,,
48060768,1169,1162,1163,1169,,,,,
48063267,1177,1170,1171,1177,,,,,
48065766,1184,1178,1179,1185,,,,,
48068265,1192,1186,1186,1192,,,,,
48070764,1199,1193,1194,1200,,,,,
48073263,1207,1201,1201,1207,,,,,
48075762,1214,1208,1208,1214,,,,,
48078261,1221,1215,1216,1221,,,,,
48080760,1228,1222,1223,1228,,,,,
48083259,1235,1229,1230,1235,,,,,
48085758,1242,1236,1236,1242,,,,,
48088257,1248,1243,1243,1249,,,,,
48090756,1255,1249,1250,1255,,,,,
48093255,1262,1256,1256,1262,,,,,
48095754,1268,1263,1263,1268,,,,,
48098253,1274,1269,1269,1275,,,,,
48100752,1281,1275,1276,1281,,,,,
48103251,1287,1282,1282,1287,,,,,
48105750,1293,1288,1288,1293,,,,,
48108249,1299,1294,1294,1299,,,,,
48110748,1305,1300,1300,1305,,,,,
48113247,1311,1306,1306,1311,,,,,
48115746,1317,1312,1312,1317,,,,,
48118245,1323,1318,1318,1323,,,,,
48120744,1329,1324,1324,1329,,,,,
48123243,1334,1329,1330,1335,,,,,
48125742,1340,1335,1335,1340,,,,,
48128241,1346,1341,1341,1346,,,,,
48130740,1351,1346,1347,1351,,,,,
48133239,1357,1352,1352,1357,,,,,
48135738,1362,1357,1358,1362,,,,,
48138237,1367,1363,1363,1368,,,,,
48140736,1373,1368,1368,1373,,,,,
48143235,1378,1373,1374,1378,,,,,
48145734,1383,1379,1379,1384,,,,,
48148233,1389,1384,1384,1389,,,,,
48150732,1394,1389,1389,1394,,,,,
48153231,1399,1394,1395,1399,,,,,
48155730,1404,1399,1400,1404,,,,,
48158229,1409,1404,1405,1409,,,,,
48160728,1414,1410,1410,1414,,,,,
48163227,1419,1415,1415,1419,,,,,
48165726,1424,1420,1420,1424,,,,,
48168225,1429,1424,1425,1429,,,,,
48170724,1434,1429,1430,1434,,,,,
48173223,1439,1434,1435,1439,,,,,
48175722,1443,1439,1439,1444,,,,,
48178221,1448,1444,1444,1448,,,,,
48180720,1453,1449,1449,1453,,,,,
48183219,1458,1453,1454,1458,,,,,
48185718,1462,1458,1458,1462,,,,,
48188217,1467,1463,1463,1467,,,,,
48190716,1471,1467,1468,1472,,,,,
48193215,1476,1472,1472,1476,,,,,
48195714,1481,1477,1477,1481,,,,,
48198213,1485,1481,1481,1485,,,,,
48200712,1490,1486,1486,1490,,,,,
48203211,1494,1490,1490,1494,,,,,
48205710,1499,1495,1495,1499,,,,,
48208209,1503,1499,1499,1503,,,,,
48210708,1507,1503,1504,1508,,,,,
48213207,1512,1508,1508,1512,,,,,
48215706,1516,1512,1512,1516,,,,,
48218205,1520,1516,1517,1521,,,,,
48220704,1525,1521,1521,1525,,,,,
48223203,1529,1525,1525,1529,,,,,
48225702,1533,1529,1530,1533,,,,,
48228201,1538,1534,1534,1538,,,,,
48230700,1542,1538,1538,1542,,,,,
48233199,1546,1542,1542,1546,,,,,
48235698,1550,1546,1546,1550,,,,,
48238197,1554,1550,1551,1554,,,,,
48240696,1558,1554,1555,1559,,,,,
48243195,1562,1559,1559,1563,,,,,
48245694,1567,1563,1563,1567,,,,,
48248193,1571,1567,1567,1571,,,,,
48250692,1575,1571,1571,1575,,,,,
48253191,1579,1575,1575,1579,,,,,
48255690,1583,1579,1579,1583,,,,,
48258189,1587,1583,1583,1587,,,,,
48260688,1591,1587,1587,1591,,,,,
48263187,1595,1591,1591,1595,,,,,
48265686,1599,1595,1595,1599,,,,,
48268185,1602,1598,1599,1603,,,,,
48270684,1606,1602,1603,1606,,,,,
48273183,1610,1606,1607,1610,,,,,
48275682,1614,1610,1610,1614,,,,,
48278181,1618,1614,1614,1618,,,,,
48280680,1622,1618,1618,1622,,,,,
48283179,1626,1621,1622,1626,,,,,
48285678,1629,1625,1626,1629,,,,,
48288177,1633,1629,1629,1633,,,,,
48290676,1637,1633,1633,1637,,,,,
48293175,1641,1636,1637,1641,,,,,
48295674,1644,1640,1641,1644,,,,,
48298173,1648,1644,1644,1648,,,,,
48300672,1652,1648,1648,1652,,,,,
48303171,1656,1651,1652,1656,,,,,
48305670,1659,1655,1655,1659,,,,,
48308169,1663,1659,1659,1663,,,,,
48310668,1666,1662,1663,1666,,,,,
48313167,1670,1666,1666,1670,,,,,
48315666,1674,1669,1670,1674,,,,,
48318165,1677,1673,1673,1677,,,,,
48320664,1681,1677,1677,1681,,,,,
48323163,1684,1680,1681,1685,,,,,
48325662,1688,1684,1684,1688,,,,,
48328161,1691,1687,1688,1692,,,,,
48330660,1695,1691,1691,1695,,,,,
48333159,1698,1694,1695,1699,,,,,
48335658,1702,1698,1698,1702,,,,,
48338157,1705,1701,1702,1706,,,,,
48340656,1709,1705,1705,1709,,,,,
48343155,1712,1708,1709,1713,,,,,
48345654,1716,1712,1712,1716,,,,,
48348986,1719,1715,1715,1720,,,,,
48351485,1723,1719,1719,1723,,,,,
48353984,1726,1722,1722,1726,,,,,
48356483,1729,1725,1726,1730,,,,,
48358982,1733,1729,1729,1733,,,,,
48361481,1736,1732,1732,1737,,,,,
48363980,1740,1736,1736,1740,,,,,
48366479,1743,1739,1739,1743,,,,,
48368978,1746,1742,1742,1747,,,,,
48371477,1750,1746,1746,1750,,,,,
48373976,1753,1749,1749,1753,,,,,
48376475,1756,1752,1752,1756,,,,,
48378974,1760,1756,1756,1760,,,,,
48381473,1763,1759,1759,1763,,,,,
48383972,1766,1762,1762,1766,,,,,
48386471,1769,1765,1766,1770,,,,,
48388970,1773,1769,1769,1773,,,,,
48391469,1776,1772,1772,1776,,,,,
48393968,1779,1775,1775,1779,,,,,
48396467,1782,1778,1779,1782,,,,,
48398966,1785,1782,1782,1786,,,,,
48401465,1789,1785,1785,1789,,,,,
48403964,1792,1788,1788,1792,,,,,
48406463,1795,1791,1791,1795,,,,,
48408962,1798,1794,1795,1798,,,,,
48411461,1801,1798,1798,1802,,,,,
48413960,1804,1801,1801,1805,,,,,
48416459,1808,1804,1804,1808,,,,,
48418958,1811,1807,1807,1811,,,,,
48421457,1814,1810,1810,1814,,,,,
48423956,1817,1813,1814,1817,,,,,
48426455,1820,1817,1817,1820,,,,,
48428954,1823,1820,1820,1823,,,,,
48431453,1826,1823,1823,1826,,,,,
48433952,1829,1826,1826,1830,,,,,
48436451,1832,1829,1829,1833,,,,,
48438950,1835,1832,1832,1836,,,,,
48441449,1838,1835,1835,1839,,,,,
48443948,1841,1838,1838,1842,,,,,
48446447,1844,1841,1841,1845,,,,,
48448946,1847,1844,1844,1848,,,,,
48451445,1850,1847,1847,1851,,,,,
48453944,1854,1850,1850,1854,,,,,
48456443,1857,1853,1854,1857,,,,,
48458942,1859,1856,1857,1860,,,,,
48461441,1862,1859,1860,1863,,,,,
48463940,1865,1862,1862,1866,,,,,
48466439,1868,1865,1865,1869,,,,,
48468938,1871,1868,1868,1872,,,,,
48471437,1874,1871,1871,1875,,,,,
48473936,1877,1874,1874,1878,,,,,
48476435,1879,1876,1876,1880,,,,,
48478934,1878,1875,1875,1878,,,,,
48481433,1877,1874,1874,1877,,,,,
48483932,1876,1873,1873,1876,,,,,
48486431,1875,1872,1872,1875,,,,,
48488930,1874,1870,1870,1874,,,,,
48491429,1873,1869,1869,1873,,,,,
48493928,1872,1868,1868,1872,,,,,
48496427,1871,1867,1867,1871,,,,,
48498926,1870,1867,1867,1870,,,,,
48501425,1869,1866,1866,1869,,,,,
48503924,1868,1865,1865,1869,,,,,
48506423,1868,1864,1864,1868,,,,,
48508922,1867,1864,1864,1868,,,,,
48511421,1867,1863,1863,1867,,,,,
48513920,1867,1863,1863,1867,,,,,
48516419,1866,1863,1863,1867,,,,,
48518918,1866,1863,1863,1866,,,,,
48521417,1866,1863,1863,1866,,,,,
48523916,1866,1863,1863,1866,,,,,
48526415,1866,1863,1863,1867,,,,,
48528914,1866,1863,1863,1867,,,,,
48531413,1867,1863,1863,1867,,,,,
48533912,1867,1863,1863,1867,,,,,
48536411,1867,1864,1864,1868,,,,,
48538910,1868,1864,1864,1868,,,,,
48541409,1869,1865,1865,1869,,,,,
48543908,1869,1865,1865,1869,,,,,
48546407,1870,1866,1866,1870,,,,,
48548906,1870,1867,1867,1871,,,,,
48551405,1871,1867,1868,1871,,,,,
48553904,1872,1868,1868,1872,,,,,
48556403,1873,1869,1869,1873,,,,,
48558902,1873,1870,1870,1873,,,,,
48561401,1874,1871,1871,1874,,,,,
48563900,1875,1871,1872,1875,,,,,
48566399,1875,1872,1872,1875,,,,,
48568898,1875,1872,1873,1876,,,,,
48571397,1876,1873,1873,1876,,,,,
48573896,1876,1873,1873,1876,,,,,
48576395,1876,1873,1873,1876,,,,,
48578894,1875,1873,1873,1876,,,,,
48581393,1875,1872,1873,1875,,,,,
48583892,1874,1872,1872,1874,,,,,
48586391,1873,1871,1871,1874,,,,,
48588890,1872,1870,1870,1872,,,,,
48591389,1871,1869,1869,1871,,,,,
48593888,1870,1867,1868,1870,,,,,
48596387,1868,1866,1866,1868,,,,,
48598886,1866,1864,1864,1867,,,,,
48601385,1865,1862,1863,1865,,,,,
48603884,1863,1860,1861,1863,,,,,
48606383,1861,1858,1859,1861,,,,,
48608882,1858,1856,1856,1859,,,,,
48611381,1856,1854,1854,1856,,,,,
48613880,1854,1852,1852,1854,,,,,
48616379,1851,1849,1849,1851,,,,,
48618878,1849,1847,1847,1849,,,,,
48621377,1846,1844,1844,1846,,,,,
48623876,1843,1842,1842,1843,,,,,
48626375,1840,1839,1839,1841,,,,,
48628874,1837,1836,1836,1838,,,,,
48631373,1834,1833,1833,1835,,,,,
48633872,1831,1830,1830,1832,,,,,
48636371,1828,1827,1827,1829,,,,,
48638870,1825,1824,1824,1826,,,,,
48641369,1822,1821,1821,1823,,,,,
48643868,1819,1818,1818,1820,,,,,
48646367,1816,1815,1814,1816,,,,,
48648866,1812,1812,1811,1813,,,,,
48651365,1809,1808,1808,1810,,,,,
48653864,1806,1805,1805,1807,,,,,
48656363,1803,1802,1801,1803,,,,,
48658862,1799,1799,1798,1800,,,,,
48661361,1796,1795,1795,1797,,,,,
48663860,1793,1792,1792,1793,,,,,
48666359,1789,1789,1788,1790,,,,,
48668858,1786,1785,1785,1787,,,,,
48671357,1783,1782,1782,1783,,,,,
48673856,1779,1779,1778,1780,,,,,
48676355,1776,1775,1775,1777,,,,,
48678854,1773,1772,1772,1773,,,,,
48681353,1769,1769,1768,1770,,,,,
48683852,1766,1766,1765,1767,,,,,
48686351,1763,1762,1762,1763,,,,,
48688850,1759,1759,1759,1760,,,,,
48691349,1756,1756,1755,1757,,,,,
48693848,1753,1752,1752,1753,,,,,
48696347,1749,1749,1749,1750,,,,,
48698846,1746,1746,1746,1747,,,,,
48701345,1743,1743,1742,1744,,,,,
48703844,1740,1740,1739,1741,,,,,
48706343,1737,1737,1736,1737,,,,,
48708842,1734,1734,1733,1734,,,,,
48711341,1731,1731,1730,1731,,,,,
48713840,1728,1728,1727,1728,,,,,
48716339,1725,1725,1724,1725,,,,,
48718838,1722,1722,1722,1722,,,,,
48721337,1719,1719,1719,1719,,,,,
48723836,1716,1716,1716,1717,,,,,
48726335,1713,1713,1713,1714,,,,,
48728834,1710,1710,1710,1711,,,,,
48731333,1708,1708,1708,1708,,,,,
48733832,1705,1705,1705,1705,,,,,
48736331,1702,1702,1702,1703,,,,,
48738830,1700,1700,1700,1700,,,,,
48741329,1697,1697,1697,1697,,,,,
48743828,1694,1695,1695,1695,,,,,
48746327,1692,1692,1692,1692,,,,,
48748826,1689,1690,1690,1690,,,,,
48751325,1687,1687,1687,1687,,,,,
48753824,1684,1685,1685,1685,,,,,
48756323,1682,1683,1683,1682,,,,,
48758822,1680,1680,1681,1680,,,,,
48761321,1678,1678,1678,1678,,,,,
48763820,1676,1676,1676,1676,,,,,
48766319,1673,1674,1674,1674,,,,,
48768818,1671,1672,1672,1672,,,,,
48771317,1669,1670,1670,1669,,,,,
48773816,1667,1668,1668,1668,,,,,
48776315,1665,1666,1666,1666,,,,,
48778814,1664,1664,1665,1664,,,,,
48781313,1662,1662,1663,1662,,,,,
48783812,1660,1661,1661,1660,,,,,
48786311,1658,1659,1659,1658,,,,,
48788810,1657,1657,1658,1657,,,,,
48791309,1655,1656,1656,1655,,,,,
48793808,1653,1654,1655,1653,,,,,
48796307,1652,1653,1653,1652,,,,,
48798806,1650,1651,1651,1650,,,,,
48801305,1649,1650,1650,1648,,,,,
48803804,1647,1648,1649,1647,,,,,
48806303,1646,1647,1647,1646,,,,,
48808802,1644,1645,1646,1644,,,,,
48811301,1643,1644,1644,1643,,,,,
48813800,1642,1643,1643,1642,,,,,
48816299,1640,1641,1642,1640,,,,,
48818798,1639,1640,1641,1639,,,,,
48821297,1639,1638,1638,1640,,,,,
48823796,1639,1637,1636,1639,,,,,
48826295,1638,1635,1635,1639,,,,,
48828794,1637,1634,1634,1638,,,,,
48831293,1636,1633,1633,1637,,,,,
48833792,1635,1632,1632,1636,,,,,
48836291,1634,1631,1631,1635,,,,,
48838790,1633,1631,1630,1634,,,,,
48841289,1632,1630,1629,1633,,,,,
48843788,1631,1629,1629,1632,,,,,
48846287,1630,1629,1628,1631,,,,,
48848786,1629,1628,1627,1630,,,,,
48851285,1628,1627,1627,1629,,,,,
48853784,1627,1627,1626,1628,,,,,
48856283,1626,1626,1625,1627,,,,,
48858782,1625,1626,1625,1627,,,,,
48861281,1625,1625,1624,1626,,,,,
48863780,1624,1625,1623,1626,,,,,
48866279,1623,1624,1622,1625,,,,,
48868778,1623,1623,1622,1625,,,,,
48871277,1622,1623,1621,1624,,,,,
