TimeUS,M1,M2,M3,M4,TimeUS,C1,C2,C3,C4
42953645,1000,1000,1000,1000,43028615,1000,1000,1000,1000
42956144,1000,1000,1000,1000,43128575,1000,1000,1000,1000
42958643,1000,1000,1000,1000,43228535,1000,1000,1000,1000
42961142,1000,1000,1000,1000,43328495,1000,1000,1000,1000
42963641,1000,1000,1000,1000,43428455,1000,1000,1000,1000
42966140,1000,1000,1000,1000,43528415,1000,1000,1000,1000
42968639,1000,1000,1000,1000,43628375,1000,1000,1000,1000
42971138,1000,1000,1000,1000,43728335,1000,1000,1000,1000
42973637,1000,1000,1000,1000,43828295,1000,1000,1000,1000
42976136,1000,1000,1000,1000,43928255,1000,1000,1000,1000
42978635,1000,1000,1000,1000,44028215,1000,1000,1000,1000
42981134,1000,1000,1000,1000,44128175,1000,1000,1000,1000
42983633,1000,1000,1000,1000,44228968,1000,1000,1000,1000
42986132,1000,1000,1000,1000,44328928,1000,1000,1000,1000
42988631,1000,1000,1000,1000,44428888,1000,1000,1000,1000
42991130,1000,1000,1000,1000,44528848,1000,1000,1000,1000
42993629,1000,1000,1000,1000,44628808,1000,1000,1000,1000
42996128,1000,1000,1000,1000,44728768,1000,1000,1000,1000
42998627,1000,1000,1000,1000,44828728,1000,1000,1000,1000
43001126,1000,1000,1000,1000,44928688,1000,1000,1000,1000
43003625,1000,1000,1000,1000,45028648,1022,1022,1022,1022
43006124,1000,1000,1000,1000,45128608,1052,1052,1052,1052
43008623,1000,1000,1000,1000,45228568,1082,1082,1082,1082
43011122,1000,1000,1000,1000,45328528,1112,1112,1112,1112
43013621,1000,1000,1000,1000,45428488,1142,1142,1142,1142
43016120,1000,1000,1000,1000,45528448,1346,1340,1341,1346
43018619,1000,1000,1000,1000,45628408,1538,1533,1534,1538
43021118,1000,1000,1000,1000,45728368,1692,1687,1687,1692
43023617,1000,1000,1000,1000,45828328,1824,1819,1820,1824
43026116,1000,1000,1000,1000,45928288,1918,1912,1913,1918
43028615,1000,1000,1000,1000,46028248,1859,1857,1857,1859
43031114,1000,1000,1000,1000,46128208,1730,1730,1731,1730
43033613,1000,1000,1000,1000,46228168,1659,1654,1654,1659
43036112,1000,1000,1000,1000,46328961,1635,1638,1631,1642
43038611,1000,1000,1000,1000,46428921,1639,1643,1637,1646
43041110,1000,1000,1000,1000,46528881,1642,1644,1642,1645
43043609,1000,1000,1000,1000,46628841,1639,1641,1642,1639
43046108,1000,1000,1000,1000,46728801,1633,1632,1636,1629
43048607,1000,1000,1000,1000,46828761,1626,1624,1629,1621
43051106,1000,1000,1000,1000,46928721,1623,1621,1625,1619
43053605,1000,1000,1000,1000,47028681,1607,1606,1610,1603
43056104,1000,1000,1000,1000,47128641,1583,1583,1593,1574
43058603,1000,1000,1000,1000,47228601,1571,1571,1575,1566
43061102,1000,1000,1000,1000,47328561,1559,1560,1558,1561
43063601,1000,1000,1000,1000,47428521,1551,1551,1545,1556
43066100,1000,1000,1000,1000,47528481,1543,1544,1536,1550
43068599,1000,1000,1000,1000,47628441,1538,1537,1529,1546
43071098,1000,1000,1000,1000,47728401,1532,1532,1526,1537
43073597,1000,1000,1000,1000,47828361,1527,1527,1525,1529
43076096,1000,1000,1000,1000,47928321,1524,1524,1524,1523
43078595,1000,1000,1000,1000,48028281,1525,1525,1526,1523
43081094,1000,1000,1000,1000,48128241,1527,1527,1529,1525
43083593,1000,1000,1000,1000,48228201,1531,1531,1533,1529
43086092,1000,1000,1000,1000,48328161,1534,1534,1537,1533
43088591,1000,1000,1000,1000,48428954,1538,1538,1541,1537
43091090,1000,1000,1000,1000,48528914,1543,1543,1544,1542
43093589,1000,1000,1000,1000,48628874,1546,1546,1546,1546
43096088,1000,1000,1000,1000,48728834,1549,1549,1549,1549
43098587,1000,1000,1000,1000,48828794,1551,1552,1551,1552
43101086,1000,1000,1000,1000,48928754,1554,1554,1553,1556
43103585,1000,1000,1000,1000,49028714,1555,1555,1556,1559
43106084,1000,1000,1000,1000,49128674,1556,1556,1560,1562
43108583,1000,1000,1000,1000,49228634,1558,1558,1563,1563
43111082,1000,1000,1000,1000,49328594,1560,1560,1565,1564
43113581,1000,1000,1000,1000,49428554,1562,1563,1566,1565
43116080,1000,1000,1000,1000,49528514,1564,1565,1567,1566
43118579,1000,1000,1000,1000,49628474,1566,1566,1567,1567
43121078,1000,1000,1000,1000,49728434,1569,1569,1567,1568
43123577,1000,1000,1000,1000,49828394,1570,1570,1567,1567
43126076,1000,1000,1000,1000,49928354,1572,1571,1568,1569
43128575,1000,1000,1000,1000,50028314,1573,1573,1569,1569
43131074,1000,1000,1000,1000,50128274,1573,1573,1570,1570
43133573,1000,1000,1000,1000,50228234,1574,1574,1571,1571
43136072,1000,1000,1000,1000,50328194,1575,1575,1572,1572
43138571,1000,1000,1000,1000,50428154,1575,1575,1574,1573
43141070,1000,1000,1000,1000,50528947,1575,1575,1575,1573
43143569,1000,1000,1000,1000,50628907,1575,1575,1576,1574
43146068,1000,1000,1000,1000,50728867,1575,1575,1576,1575
43148567,1000,1000,1000,1000,50828827,1575,1575,1575,1576
43151066,1000,1000,1000,1000,50928787,1575,1575,1576,1577
43153565,1000,1000,1000,1000,51028747,1576,1576,1577,1577
43156064,1000,1000,1000,1000,51128707,1575,1575,1577,1577
43158563,1000,1000,1000,1000,51228667,1576,1576,1577,1577
43161062,1000,1000,1000,1000,51328627,1576,1577,1577,1577
43163561,1000,1000,1000,1000,51428587,1576,1576,1576,1576
43166060,1000,1000,1000,1000,51528547,1577,1577,1577,1577
43168559,1000,1000,1000,1000,51628507,1576,1577,1576,1576
43171058,1000,1000,1000,1000,51728467,1578,1577,1577,1577
43173557,1000,1000,1000,1000,51828427,1578,1578,1577,1577
43176056,1000,1000,1000,1000,51928387,1578,1578,1577,1577
43178555,1000,1000,1000,1000,52028347,1578,1578,1578,1578
43181054,1000,1000,1000,1000,52128307,1578,1578,1578,1578
43183553,1000,1000,1000,1000,52228267,1579,1579,1579,1578
43186052,1000,1000,1000,1000,52328227,1578,1578,1578,1578
43188551,1000,1000,1000,1000,52428187,1579,1579,1579,1579
43191050,1000,1000,1000,1000,52528980,1578,1578,1578,1578
43193549,1000,1000,1000,1000,52628940,1578,1577,1578,1578
43196048,1000,1000,1000,1000,52728900,1579,1579,1579,1579
43198547,1000,1000,1000,1000,52828860,1580,1580,1580,1580
43201046,1000,1000,1000,1000,52928820,1578,1578,1578,1579
43203545,1000,1000,1000,1000,53028780,1579,1580,1580,1580
43206044,1000,1000,1000,1000,53128740,1579,1579,1579,1579
43208543,1000,1000,1000,1000,53228700,1580,1579,1580,1579
43211042,1000,1000,1000,1000,53328660,1580,1579,1580,1580
43213541,1000,1000,1000,1000,53428620,1579,1579,1579,1579
43216040,1000,1000,1000,1000,53528580,1580,1580,1580,1579
43218539,1000,1000,1000,1000,53628540,1580,1580,1580,1580
43221038,1000,1000,1000,1000,53728500,1579,1579,1579,1579
43223537,1000,1000,1000,1000,53828460,1580,1580,1579,1579
43226036,1000,1000,1000,1000,53928420,1579,1580,1580,1579
43228535,1000,1000,1000,1000,54028380,1580,1580,1580,1580
43231034,1000,1000,1000,1000,54128340,1581,1580,1580,1580
43233533,1000,1000,1000,1000,54228300,1581,1580,1580,1581
43236032,1000,1000,1000,1000,54328260,1581,1581,1581,1581
43238531,1000,1000,1000,1000,54428220,1581,1581,1581,1581
43241030,1000,1000,1000,1000,54528180,1581,1581,1581,1581
43243529,1000,1000,1000,1000,54628973,1581,1581,1581,1581
43246028,1000,1000,1000,1000,54728933,1580,1580,1580,1580
43248527,1000,1000,1000,1000,54828893,1581,1581,1581,1581
43251026,1000,1000,1000,1000,54928853,1581,1581,1581,1581
43253525,1000,1000,1000,1000,55028813,1581,1581,1580,1581
43256024,1000,1000,1000,1000,55128773,1581,1581,1581,1581
43258523,1000,1000,1000,1000,55228733,1580,1581,1586,1575
43261022,1000,1000,1000,1000,55328693,1580,1582,1587,1572
43263521,1000,1000,1000,1000,55428653,1579,1582,1580,1574
43266020,1000,1000,1000,1000,55528613,1578,1580,1570,1573
43268519,1000,1000,1000,1000,55628573,1576,1579,1563,1569
43271018,1000,1000,1000,1000,55728533,1576,1577,1557,1564
43273517,1000,1000,1000,1000,55828493,1577,1577,1555,1560
43276016,1000,1000,1000,1000,55928453,1579,1578,1555,1557
43278515,1000,1000,1000,1000,56028413,1579,1578,1556,1555
43281014,1000,1000,1000,1000,56128373,1579,1578,1556,1554
43283513,1000,1000,1000,1000,56228333,1577,1577,1555,1554
43286012,1000,1000,1000,1000,56328293,1575,1576,1555,1553
43288511,1000,1000,1000,1000,56428253,1574,1576,1554,1553
43291010,1000,1000,1000,1000,56528213,1574,1576,1553,1554
43293509,1000,1000,1000,1000,56628173,1576,1578,1553,1554
43296008,1000,1000,1000,1000,56728966,1576,1578,1551,1551
43298507,1000,1000,1000,1000,56828926,1578,1579,1549,1549
43301006,1000,1000,1000,1000,56928886,1579,1580,1546,1546
43303505,1000,1000,1000,1000,57028846,1582,1583,1543,1543
43306004,1000,1000,1000,1000,57128806,1585,1587,1542,1541
43308503,1000,1000,1000,1000,57228766,1589,1590,1539,1538
43311002,1000,1000,1000,1000,57328726,1592,1591,1536,1536
43313501,1000,1000,1000,1000,57428686,1594,1594,1534,1535
43316000,1000,1000,1000,1000,57528646,1595,1594,1533,1534
43318499,1000,1000,1000,1000,57628606,1594,1594,1534,1536
43320998,1000,1000,1000,1000,57728566,1592,1592,1536,1539
43323497,1000,1000,1000,1000,57828526,1589,1589,1541,1543
43325996,1000,1000,1000,1000,57928486,1585,1582,1548,1550
43328495,1000,1000,1000,1000,58028446,1579,1575,1558,1560
43330994,1000,1000,1000,1000,58128406,1568,1564,1569,1570
43333493,1000,1000,1000,1000,58228366,1556,1553,1580,1582
43335992,1000,1000,1000,1000,58328326,1545,1543,1592,1593
43338491,1000,1000,1000,1000,58428286,1537,1535,1603,1603
43340990,1000,1000,1000,1000,58528246,1531,1530,1611,1610
43343489,1000,1000,1000,1000,58628206,1527,1529,1614,1613
43345988,1000,1000,1000,1000,58728166,1529,1531,1614,1614
43348487,1000,1000,1000,1000,58828959,1534,1536,1612,1611
43350986,1000,1000,1000,1000,58928919,1541,1543,1606,1606
43353485,1000,1000,1000,1000,59028879,1550,1551,1599,1600
43355984,1000,1000,1000,1000,59128839,1559,1559,1592,1591
43358483,1000,1000,1000,1000,59228799,1568,1568,1585,1584
43360982,1000,1000,1000,1000,59328759,1575,1575,1578,1577
43363481,1000,1000,1000,1000,59428719,1582,1581,1573,1572
43365980,1000,1000,1000,1000,59528679,1585,1584,1569,1568
43368479,1000,1000,1000,1000,59628639,1587,1585,1566,1566
43370978,1000,1000,1000,1000,59728599,1588,1586,1566,1566
43373477,1000,1000,1000,1000,59828559,1587,1586,1567,1568
43375976,1000,1000,1000,1000,59928519,1585,1584,1570,1570
43378475,1000,1000,1000,1000,60028479,1582,1582,1573,1573
43380974,1000,1000,1000,1000,60128439,1579,1579,1575,1576
43383473,1000,1000,1000,1000,60228399,1576,1577,1578,1578
43385972,1000,1000,1000,1000,60328359,1574,1575,1581,1581
43388471,1000,1000,1000,1000,60428319,1573,1573,1582,1582
43390970,1000,1000,1000,1000,60528279,1572,1573,1584,1583
43393469,1000,1000,1000,1000,60628239,1572,1572,1584,1583
43395968,1000,1000,1000,1000,60728199,1573,1573,1583,1583
43398467,1000,1000,1000,1000,60828159,1574,1574,1582,1583
43400966,1000,1000,1000,1000,60928952,1575,1575,1581,1581
43403465,1000,1000,1000,1000,61028912,1576,1576,1580,1580
43405964,1000,1000,1000,1000,61128872,1579,1579,1580,1580
43408463,1000,1000,1000,1000,61228832,1579,1579,1578,1578
43410962,1000,1000,1000,1000,61328792,1580,1580,1577,1577
43413461,1000,1000,1000,1000,61428752,1580,1580,1576,1576
43415960,1000,1000,1000,1000,61528712,1582,1581,1577,1577
43418459,1000,1000,1000,1000,61628672,1582,1582,1578,1577
43420958,1000,1000,1000,1000,61728632,1581,1581,1578,1578
43423457,1000,1000,1000,1000,61828592,1582,1581,1579,1578
43425956,1000,1000,1000,1000,61928552,1581,1581,1579,1579
43428455,1000,1000,1000,1000,62028512,1481,1481,1580,1580
43430954,1000,1000,1000,1000,62128472,1515,1517,1601,1604
43433453,1000,1000,1000,1000,62228432,1538,1541,1601,1601
43435952,1000,1000,1000,1000,62328392,1559,1562,1595,1594
43438451,1000,1000,1000,1000,62428352,1577,1579,1587,1584
43440950,1000,1000,1000,1000,62528312,1594,1594,1580,1578
43443449,1000,1000,1000,1000,62628272,1604,1602,1573,1572
43445948,1000,1000,1000,1000,62728232,1609,1606,1569,1569
43448447,1000,1000,1000,1000,62828192,1612,1607,1569,1570
43450946,1000,1000,1000,1000,62928985,1609,1606,1568,1570
43453445,1000,1000,1000,1000,63028945,1606,1605,1570,1571
43455944,1000,1000,1000,1000,63128905,1603,1603,1572,1573
43458443,1000,1000,1000,1000,63228865,1599,1600,1576,1573
43460942,1000,1000,1000,1000,63328825,1595,1597,1582,1567
43463441,1000,1000,1000,1000,63428785,1592,1594,1580,1569
43465940,1000,1000,1000,1000,63528745,1589,1590,1574,1571
43468439,1000,1000,1000,1000,63628705,1583,1584,1565,1569
43470938,1000,1000,1000,1000,63728665,1579,1581,1560,1567
43473437,1000,1000,1000,1000,63828625,1576,1578,1558,1563
43475936,1000,1000,1000,1000,63928585,1574,1575,1558,1560
43478435,1000,1000,1000,1000,64028545,1573,1574,1559,1559
43480934,1000,1000,1000,1000,64128505,1572,1573,1559,1557
43483433,1000,1000,1000,1000,64228465,1572,1572,1558,1556
43485932,1000,1000,1000,1000,64328425,1571,1571,1557,1555
43488431,1000,1000,1000,1000,64428385,1572,1572,1556,1555
43490930,1000,1000,1000,1000,64528345,1572,1573,1554,1553
43493429,1000,1000,1000,1000,64628305,1573,1574,1552,1552
43495928,1000,1000,1000,1000,64728265,1574,1575,1549,1550
43498427,1000,1000,1000,1000,64828225,1575,1577,1547,1547
43500926,1000,1000,1000,1000,64928185,1578,1579,1545,1545
43503425,1000,1000,1000,1000,65028978,1580,1581,1543,1543
43505924,1000,1000,1000,1000,65128938,1583,1583,1541,1541
43508423,1000,1000,1000,1000,65228898,1586,1586,1541,1541
43510922,1000,1000,1000,1000,65328858,1588,1587,1539,1540
43513421,1000,1000,1000,1000,65428818,1589,1590,1539,1540
43515920,1000,1000,1000,1000,65528778,1590,1591,1539,1540
43518419,1000,1000,1000,1000,65628738,1590,1591,1539,1541
43520918,1000,1000,1000,1000,65728698,1590,1590,1542,1545
43523417,1000,1000,1000,1000,65828658,1588,1587,1546,1549
43525916,1000,1000,1000,1000,65928618,1585,1581,1553,1556
43528415,1000,1000,1000,1000,66028578,1579,1575,1561,1564
43530914,1000,1000,1000,1000,66128538,1571,1567,1570,1573
43533413,1000,1000,1000,1000,66228498,1562,1559,1581,1583
43535912,1000,1000,1000,1000,66328458,1553,1550,1592,1593
43538411,1000,1000,1000,1000,66428418,1543,1542,1602,1602
43540910,1000,1000,1000,1000,66528378,1535,1536,1609,1608
43543409,1000,1000,1000,1000,66628338,1533,1534,1613,1612
43545908,1000,1000,1000,1000,66728298,1533,1535,1614,1613
43548407,1000,1000,1000,1000,66828258,1536,1539,1611,1610
43550906,1000,1000,1000,1000,66928218,1543,1545,1606,1605
43553405,1000,1000,1000,1000,67028178,1551,1552,1600,1598
43555904,1000,1000,1000,1000,67128971,1560,1561,1594,1592
43558403,1000,1000,1000,1000,67228931,1568,1567,1585,1584
43560902,1000,1000,1000,1000,67328891,1575,1574,1578,1578
43563401,1000,1000,1000,1000,67428851,1581,1580,1572,1572
43565900,1000,1000,1000,1000,67528811,1585,1584,1568,1569
43568399,1000,1000,1000,1000,67628771,1588,1587,1566,1567
43570898,1000,1000,1000,1000,67728731,1589,1588,1566,1566
43573397,1000,1000,1000,1000,67828691,1589,1588,1568,1567
43575896,1000,1000,1000,1000,67928651,1587,1586,1570,1569
43578395,1000,1000,1000,1000,68028611,1585,1585,1573,1573
43580894,1000,1000,1000,1000,68128571,1582,1582,1574,1575
43583393,1000,1000,1000,1000,68228531,1579,1579,1577,1578
43585892,1000,1000,1000,1000,68328491,1576,1577,1580,1580
43588391,1000,1000,1000,1000,68428451,1575,1575,1582,1582
43590890,1000,1000,1000,1000,68528411,1573,1573,1583,1583
43593389,1000,1000,1000,1000,68628371,1573,1574,1585,1585
43595888,1000,1000,1000,1000,68728331,1573,1574,1585,1585
43598387,1000,1000,1000,1000,68828291,1573,1574,1584,1584
43600886,1000,1000,1000,1000,68928251,1575,1575,1584,1583
43603385,1000,1000,1000,1000,69028211,1577,1576,1582,1582
43605884,1000,1000,1000,1000,69128171,1577,1577,1580,1580
43608383,1000,1000,1000,1000,69228964,1579,1579,1579,1580
43610882,1000,1000,1000,1000,69328924,1579,1580,1578,1578
43613381,1000,1000,1000,1000,69428884,1581,1582,1578,1578
43615880,1000,1000,1000,1000,69528844,1582,1582,1578,1578
43618379,1000,1000,1000,1000,69628804,1582,1582,1577,1578
43620878,1000,1000,1000,1000,69728764,1582,1582,1578,1577
43623377,1000,1000,1000,1000,69828724,1583,1582,1578,1578
43625876,1000,1000,1000,1000,69928684,1582,1581,1578,1578
43628375,1000,1000,1000,1000,70028644,1581,1581,1579,1579
43630874,1000,1000,1000,1000,70128604,1581,1581,1579,1580
43633373,1000,1000,1000,1000,70228564,1580,1580,1580,1580
43635872,1000,1000,1000,1000,70328524,1580,1581,1581,1581
43638371,1000,1000,1000,1000,70428484,1580,1581,1581,1582
43640870,1000,1000,1000,1000,70528444,1580,1580,1581,1581
43643369,1000,1000,1000,1000,70628404,1579,1579,1581,1581
43645868,1000,1000,1000,1000,70728364,1580,1580,1582,1582
43648367,1000,1000,1000,1000,70828324,1581,1580,1582,1582
43650866,1000,1000,1000,1000,70928284,1580,1580,1581,1581
43653365,1000,1000,1000,1000,71028244,1580,1581,1581,1581
43655864,1000,1000,1000,1000,71128204,1580,1581,1581,1581
43658363,1000,1000,1000,1000,71228164,1581,1581,1580,1580
43660862,1000,1000,1000,1000,71328957,1580,1580,1579,1579
43663361,1000,1000,1000,1000,71428917,1581,1581,1581,1578
43665860,1000,1000,1000,1000,71528877,1581,1582,1587,1572
43668359,1000,1000,1000,1000,71628837,1580,1582,1583,1572
43670858,1000,1000,1000,1000,71728797,1580,1582,1574,1573
43673357,1000,1000,1000,1000,71828757,1578,1580,1565,1570
43675856,1000,1000,1000,1000,71928717,1577,1579,1559,1566
43678355,1000,1000,1000,1000,72028677,1577,1579,1556,1561
43680854,1000,1000,1000,1000,72128637,1579,1579,1556,1558
43683353,1000,1000,1000,1000,72228597,1579,1578,1555,1555
43685852,1000,1000,1000,1000,72328557,1579,1577,1555,1554
43688351,1000,1000,1000,1000,72428517,1578,1577,1556,1553
43690850,1000,1000,1000,1000,72528477,1577,1578,1556,1555
43693349,1000,1000,1000,1000,72628437,1576,1578,1556,1555
43695848,1000,1000,1000,1000,72728397,1576,1577,1555,1555
43698347,1000,1000,1000,1000,72828357,1575,1576,1553,1553
43700846,1000,1000,1000,1000,72928317,1576,1577,1552,1553
43703345,1000,1000,1000,1000,73028277,1576,1578,1550,1550
43705844,1000,1000,1000,1000,73128237,1578,1579,1548,1548
43708343,1000,1000,1000,1000,73228197,1580,1581,1546,1545
43710842,1000,1000,1000,1000,73328157,1583,1583,1544,1543
43713341,1000,1000,1000,1000,73428950,1585,1586,1542,1541
43715840,1000,1000,1000,1000,73528910,1588,1588,1540,1540
43718339,1000,1000,1000,1000,73628870,1590,1590,1538,1538
43720838,1000,1000,1000,1000,73728830,1591,1591,1537,1538
43723337,1000,1000,1000,1000,73828790,1592,1593,1538,1540
43725836,1000,1000,1000,1000,73928750,1592,1592,1540,1542
43728335,1000,1000,1000,1000,74028710,1590,1590,1542,1545
43730834,1000,1000,1000,1000,74128670,1587,1585,1546,1549
43733333,1000,1000,1000,1000,74228630,1582,1579,1554,1557
43735832,1000,1000,1000,1000,74328590,1575,1571,1564,1566
43738331,1000,1000,1000,1000,74428550,1567,1563,1575,1577
43740830,1000,1000,1000,1000,74528510,1555,1552,1586,1587
43743329,1000,1000,1000,1000,74628470,1546,1545,1596,1596
43745828,1000,1000,1000,1000,74728430,1539,1538,1605,1604
43748327,1000,1000,1000,1000,74828390,1534,1535,1610,1609
43750826,1000,1000,1000,1000,74928350,1532,1534,1611,1611
43753325,1000,1000,1000,1000,75028310,1535,1536,1612,1610
43755824,1000,1000,1000,1000,75128270,1539,1541,1608,1608
43758323,1000,1000,1000,1000,75228230,1545,1547,1602,1602
43760822,1000,1000,1000,1000,75328190,1553,1554,1596,1596
43763321,1000,1000,1000,1000,75428983,1561,1562,1589,1589
43765820,1000,1000,1000,1000,75528943,1569,1568,1582,1582
43768319,1000,1000,1000,1000,75628903,1576,1575,1577,1576
43770818,1000,1000,1000,1000,75728863,1581,1580,1573,1572
43773317,1000,1000,1000,1000,75828823,1585,1584,1569,1569
43775816,1000,1000,1000,1000,75928783,1587,1586,1567,1567
43778315,1000,1000,1000,1000,76028743,1587,1586,1567,1567
43780814,1000,1000,1000,1000,76128703,1587,1586,1569,1569
43783313,1000,1000,1000,1000,76228663,1586,1585,1571,1571
43785812,1000,1000,1000,1000,76328623,1584,1584,1574,1574
43788311,1000,1000,1000,1000,76428583,1581,1581,1577,1577
43790810,1000,1000,1000,1000,76528543,1579,1579,1580,1579
43793309,1000,1000,1000,1000,76628503,1577,1577,1582,1581
43795808,1000,1000,1000,1000,76728463,1575,1575,1583,1583
43798307,1000,1000,1000,1000,76828423,1573,1574,1583,1583
43800806,1000,1000,1000,1000,76928383,1572,1574,1583,1584
43803305,1000,1000,1000,1000,77028343,1573,1574,1584,1584
43805804,1000,1000,1000,1000,77128303,1574,1574,1583,1583
43808303,1000,1000,1000,1000,77228263,1575,1575,1582,1582
43810802,1000,1000,1000,1000,77328223,1577,1577,1582,1582
43813301,1000,1000,1000,1000,77428183,1579,1579,1581,1581
43815800,1000,1000,1000,1000,77528976,1580,1580,1580,1580
43818299,1000,1000,1000,1000,77628936,1581,1581,1579,1579
43820798,1000,1000,1000,1000,77728896,1581,1580,1577,1578
43823297,1000,1000,1000,1000,77828856,1582,1582,1578,1578
43825796,1000,1000,1000,1000,77928816,1581,1581,1577,1577
43828295,1000,1000,1000,1000,78028776,1581,1581,1577,1576
43830794,1000,1000,1000,1000,78128736,1581,1581,1577,1577
43833293,1000,1000,1000,1000,78228696,1581,1581,1579,1579
43835792,1000,1000,1000,1000,78328656,1581,1581,1580,1580
43838291,1000,1000,1000,1000,78428616,1581,1581,1580,1580
43840790,1000,1000,1000,1000,78528576,1581,1581,1581,1581
43843289,1000,1000,1000,1000,78628536,1580,1580,1581,1581
43845788,1000,1000,1000,1000,78728496,1580,1580,1581,1581
43848287,1000,1000,1000,1000,78828456,1579,1580,1581,1581
43850786,1000,1000,1000,1000,78928416,1579,1579,1581,1581
43853285,1000,1000,1000,1000,79028376,1580,1579,1581,1581
43855784,1000,1000,1000,1000,79128336,1580,1580,1581,1581
43858283,1000,1000,1000,1000,79228296,1580,1580,1581,1581
43860782,1000,1000,1000,1000,79328256,1581,1581,1581,1581
43863281,1000,1000,1000,1000,79428216,1581,1581,1582,1581
43865780,1000,1000,1000,1000,79528176,1581,1581,1587,1574
43868279,1000,1000,1000,1000,79628969,1581,1581,1586,1573
43870778,1000,1000,1000,1000,79728929,1579,1579,1579,1575
43873277,1000,1000,1000,1000,79828889,1577,1576,1573,1576
43875776,1000,1000,1000,1000,79928849,1573,1572,1567,1574
43878275,1000,1000,1000,1000,80028809,1570,1569,1564,1571
43880774,1000,1000,1000,1000,80128769,1568,1568,1564,1569
43883273,1000,1000,1000,1000,80228729,1566,1567,1566,1566
43885772,1000,1000,1000,1000,80328689,1566,1566,1566,1565
43888271,1000,1000,1000,1000,80428649,1565,1566,1567,1565
43890770,1000,1000,1000,1000,80528609,1566,1565,1568,1565
43893269,1000,1000,1000,1000,80628569,1564,1564,1566,1564
43895768,1000,1000,1000,1000,80728529,1564,1563,1565,1564
43898267,1000,1000,1000,1000,80828489,1562,1562,1563,1563
43900766,1000,1000,1000,1000,80928449,1562,1563,1563,1564
43903265,1000,1000,1000,1000,81028409,1561,1561,1561,1562
43905764,1000,1000,1000,1000,81128369,1561,1561,1561,1562
43908263,1000,1000,1000,1000,81228329,1561,1561,1562,1561
43910762,1000,1000,1000,1000,81328289,1561,1561,1561,1560
43913261,1000,1000,1000,1000,81428249,1558,1558,1559,1558
43915760,1000,1000,1000,1000,81528209,1558,1558,1559,1558
43918259,1000,1000,1000,1000,81628169,1558,1558,1558,1557
43920758,1000,1000,1000,1000,81728962,1558,1558,1557,1557
43923257,1000,1000,1000,1000,81828922,1557,1557,1558,1556
43925756,1000,1000,1000,1000,81928882,1558,1558,1558,1557
43928255,1000,1000,1000,1000,82028842,1557,1557,1558,1557
43930754,1000,1000,1000,1000,82128802,1557,1557,1558,1556
43933253,1000,1000,1000,1000,82228762,1558,1558,1560,1557
43935752,1000,1000,1000,1000,82328722,1558,1557,1558,1558
43938251,1000,1000,1000,1000,82428682,1559,1558,1557,1561
43940750,1000,1000,1000,1000,82528642,1559,1560,1556,1563
43943249,1000,1000,1000,1000,82628602,1560,1561,1558,1564
43945748,1000,1000,1000,1000,82728562,1561,1561,1559,1563
43948247,1000,1000,1000,1000,82828522,1561,1562,1561,1562
43950746,1000,1000,1000,1000,82928482,1561,1561,1562,1560
43953245,1000,1000,1000,1000,83028442,1560,1560,1562,1557
43955744,1000,1000,1000,1000,83128402,1560,1559,1560,1559
43958243,1000,1000,1000,1000,83228362,1559,1559,1555,1561
43960742,1000,1000,1000,1000,83328322,1555,1556,1552,1558
43963241,1000,1000,1000,1000,83428282,1551,1552,1549,1552
43965740,1000,1000,1000,1000,83528242,1546,1546,1544,1545
43968239,1000,1000,1000,1000,83628202,1539,1540,1538,1537
43970738,1000,1000,1000,1000,83728162,1532,1533,1531,1530
43973237,1000,1000,1000,1000,83828955,1526,1526,1525,1523
43975736,1000,1000,1000,1000,83928915,1521,1521,1520,1519
43978235,1000,1000,1000,1000,84028875,1519,1519,1519,1519
43980734,1000,1000,1000,1000,84128835,1520,1519,1520,1521
43983233,1000,1000,1000,1000,84228795,1521,1521,1523,1524
43985732,1000,1000,1000,1000,84328755,1524,1524,1527,1527
43988231,1000,1000,1000,1000,84428715,1528,1528,1531,1531
43990730,1000,1000,1000,1000,84528675,1533,1532,1536,1536
43993229,1000,1000,1000,1000,84628635,1536,1537,1540,1539
43995728,1000,1000,1000,1000,84728595,1539,1540,1542,1541
43998227,1000,1000,1000,1000,84828555,1542,1542,1544,1543
44000726,1000,1000,1000,1000,84928515,1545,1544,1546,1545
44003225,1000,1000,1000,1000,85028475,1546,1546,1546,1545
44005724,1000,1000,1000,1000,85128435,1546,1546,1545,1545
44008223,1000,1000,1000,1000,85228395,1547,1547,1546,1546
44010722,1000,1000,1000,1000,85328355,1548,1548,1546,1546
44013221,1000,1000,1000,1000,85428315,1547,1547,1545,1545
44015720,1000,1000,1000,1000,85528275,1547,1547,1546,1545
44018219,1000,1000,1000,1000,85628235,1546,1547,1545,1545
44020718,1000,1000,1000,1000,85728195,1546,1546,1545,1545
44023217,1000,1000,1000,1000,85828155,1546,1546,1545,1545
44025716,1000,1000,1000,1000,85928948,1546,1546,1546,1546
44028215,1000,1000,1000,1000,86028908,1545,1545,1545,1545
44030714,1000,1000,1000,1000,86128868,1544,1544,1545,1544
44033213,1000,1000,1000,1000,86228828,1545,1545,1546,1546
44035712,1000,1000,1000,1000,86328788,1545,1545,1546,1546
44038211,1000,1000,1000,1000,86428748,1545,1545,1545,1545
44040710,1000,1000,1000,1000,86528708,1546,1545,1546,1546
44043209,1000,1000,1000,1000,86628668,1545,1544,1545,1545
44045708,1000,1000,1000,1000,86728628,1545,1545,1545,1545
44048207,1000,1000,1000,1000,86828588,1544,1544,1545,1544
44050706,1000,1000,1000,1000,86928548,1544,1544,1544,1544
44053205,1000,1000,1000,1000,87028508,1544,1544,1544,1544
44055704,1000,1000,1000,1000,87128468,1544,1544,1544,1544
44058203,1000,1000,1000,1000,87228428,1544,1544,1544,1543
44060702,1000,1000,1000,1000,87328388,1544,1545,1544,1544
44063201,1000,1000,1000,1000,87428348,1544,1545,1545,1544
44065700,1000,1000,1000,1000,87528308,1545,1544,1544,1544
44068199,1000,1000,1000,1000,87628268,1544,1544,1544,1544
44070698,1000,1000,1000,1000,87728228,1544,1544,1544,1544
44073197,1000,1000,1000,1000,87828188,1545,1545,1545,1545
44075696,1000,1000,1000,1000,87928981,1545,1545,1545,1545
44078195,1000,1000,1000,1000,88028941,1545,1545,1545,1544
44080694,1000,1000,1000,1000,88128901,1545,1545,1545,1545
44083193,1000,1000,1000,1000,88228861,1545,1545,1545,1545
44085692,1000,1000,1000,1000,88328821,1544,1544,1545,1545
44088191,1000,1000,1000,1000,88428781,1544,1544,1544,1545
44090690,1000,1000,1000,1000,88528741,1545,1545,1545,1545
44093189,1000,1000,1000,1000,88628701,1544,1544,1544,1544
44095688,1000,1000,1000,1000,88728661,1545,1545,1545,1545
44098187,1000,1000,1000,1000,88828621,1544,1544,1544,1544
44100686,1000,1000,1000,1000,88928581,1543,1543,1543,1543
44103185,1000,1000,1000,1000,89028541,1544,1544,1543,1543
44105684,1000,1000,1000,1000,89128501,1544,1544,1544,1544
44108183,1000,1000,1000,1000,89228461,1543,1544,1543,1543
44110682,1000,1000,1000,1000,89328421,1545,1544,1544,1545
44113181,1000,1000,1000,1000,89428381,1544,1543,1543,1544
44115680,1000,1000,1000,1000,89528341,1543,1543,1543,1543
44118179,1000,1000,1000,1000,89628301,1544,1545,1545,1544
44120678,1000,1000,1000,1000,89728261,1544,1544,1544,1544
44123177,1000,1000,1000,1000,89828221,1545,1545,1545,1545
44125676,1000,1000,1000,1000,89928181,1545,1544,1545,1545
44128175,1000,1000,1000,1000,90028974,1545,1545,1545,1545
44130674,1000,1000,1000,1000,90128934,1543,1543,1542,1543
44133173,1000,1000,1000,1000,90228894,1544,1544,1543,1543
44135672,1000,1000,1000,1000,90328854,1544,1543,1543,1544
44138171,1000,1000,1000,1000,90428814,1543,1543,1543,1544
44140670,1000,1000,1000,1000,90528774,1543,1544,1543,1543
44143169,1000,1000,1000,1000,90628734,1544,1545,1545,1545
44145668,1000,1000,1000,1000,90728694,1544,1544,1545,1544
44148167,1000,1000,1000,1000,90828654,1544,1544,1544,1544
44150666,1000,1000,1000,1000,90928614,1546,1545,1545,1545
44153165,1000,1000,1000,1000,91028574,1545,1544,1544,1544
44155664,1000,1000,1000,1000,91128534,1545,1545,1545,1545
44158163,1000,1000,1000,1000,91228494,1544,1544,1545,1544
44160662,1000,1000,1000,1000,91328454,1544,1544,1544,1544
44163161,1000,1000,1000,1000,91428414,1544,1545,1544,1545
44165660,1000,1000,1000,1000,91528374,1543,1544,1543,1544
44168159,1000,1000,1000,1000,91628334,1544,1544,1544,1544
44170658,1000,1000,1000,1000,91728294,1544,1544,1544,1545
44173157,1000,1000,1000,1000,91828254,1545,1545,1545,1544
44175656,1000,1000,1000,1000,91928214,1545,1544,1545,1545
44178155,1000,1000,1000,1000,92028174,1544,1544,1545,1544
44180654,1000,1000,1000,1000,92128967,1545,1544,1544,1545
44183986,1000,1000,1000,1000,92228927,1544,1545,1544,1544
44186485,1000,1000,1000,1000,92328887,1543,1544,1543,1544
44188984,1000,1000,1000,1000,92428847,1544,1544,1544,1544
44191483,1000,1000,1000,1000,92528807,1544,1544,1544,1544
44193982,1000,1000,1000,1000,92628767,1544,1544,1544,1544
44196481,1000,1000,1000,1000,92728727,1543,1543,1543,1543
44198980,1000,1000,1000,1000,92828687,1544,1543,1544,1543
44201479,1000,1000,1000,1000,92928647,1544,1543,1544,1543
44203978,1000,1000,1000,1000,93028607,1544,1544,1544,1544
44206477,1000,1000,1000,1000,93128567,1544,1544,1544,1544
44208976,1000,1000,1000,1000,93228527,1544,1544,1544,1544
44211475,1000,1000,1000,1000,93328487,1544,1545,1545,1545
44213974,1000,1000,1000,1000,93428447,1544,1545,1545,1545
44216473,1000,1000,1000,1000,93528407,1545,1543,1544,1544
44218972,1000,1000,1000,1000,93628367,1389,1388,1363,1363
44221471,1000,1000,1000,1000,93728327,1300,1297,1251,1251
44223970,1000,1000,1000,1000,93828287,1271,1269,1215,1215
44226469,1000,1000,1000,1000,93928247,1256,1253,1193,1194
44228968,1000,1000,1000,1000,94028207,1224,1222,1150,1150
44231467,1000,1000,1000,1000,94128167,1215,1213,1150,1150
44233966,1000,1000,1000,1000,94228960,1215,1213,1150,1150
44236465,1000,1000,1000,1000,94328920,1216,1213,1150,1150
44238964,1000,1000,1000,1000,94428880,1215,1195,1150,1174
44241463,1000,1000,1000,1000,94528840,1215,1202,1150,1166
44243962,1000,1000,1000,1000,94628800,1215,1205,1150,1161
44246461,1000,1000,1000,1000,94728760,1215,1205,1150,1160
44248960,1000,1000,1000,1000,94828720,1215,1205,1150,1160
44251459,1000,1000,1000,1000,94928680,1216,1205,1150,1161
44253958,1000,1000,1000,1000,95028640,1215,1205,1150,1161
44256457,1000,1000,1000,1000,95128600,1215,1205,1150,1161
44258956,1000,1000,1000,1000,95228560,1215,1214,1150,1150
44261455,1000,1000,1000,1000,95328520,1215,1213,1150,1151
44263954,1000,1000,1000,1000,95428480,1215,1212,1150,1152
44266453,1000,1000,1000,1000,95528440,1215,1212,1150,1152
44268952,1000,1000,1000,1000,95628400,1215,1212,1150,1152
44271451,1000,1000,1000,1000,95728360,1000,1000,1000,1000
44273950,1000,1000,1000,1000,95828320,1000,1000,1000,1000
44276449,1000,1000,1000,1000,95928280,1000,1000,1000,1000
44278948,1000,1000,1000,1000,96028240,1000,1000,1000,1000
44281447,1000,1000,1000,1000,96128200,1000,1000,1000,1000
44283946,1000,1000,1000,1000,96228160,1000,1000,1000,1000
44286445,1000,1000,1000,1000,96328953,1000,1000,1000,1000
44288944,1000,1000,1000,1000,96428913,1000,1000,1000,1000
44291443,1000,1000,1000,1000,96528873,1000,1000,1000,1000
44293942,1000,1000,1000,1000,96628833,1000,1000,1000,1000
44296441,1000,1000,1000,1000,96728793,1000,1000,1000,1000
44298940,1000,1000,1000,1000,96828753,1000,1000,1000,1000
44301439,1000,1000,1000,1000,96928713,1000,1000,1000,1000
44303938,1000,1000,1000,1000,97028673,1000,1000,1000,1000
44306437,1000,1000,1000,1000,97128633,1000,1000,1000,1000
44308936,1000,1000,1000,1000,97228593,1000,1000,1000,1000
44311435,1000,1000,1000,1000,97328553,1000,1000,1000,1000
44313934,1000,1000,1000,1000,97428513,1000,1000,1000,1000
44316433,1000,1000,1000,1000,97528473,1000,1000,1000,1000
44318932,1000,1000,1000,1000,97628433,1000,1000,1000,1000
44321431,1000,1000,1000,1000,97728393,1000,1000,1000,1000
44323930,1000,1000,1000,1000,97828353,1000,1000,1000,1000
44326429,1000,1000,1000,1000,97928313,1000,1000,1000,1000
44328928,1000,1000,1000,1000,98028273,1000,1000,1000,1000
44331427,1000,1000,1000,1000,98128233,1000,1000,1000,1000
44333926,1000,1000,1000,1000,98228193,1000,1000,1000,1000
44336425,1000,1000,1000,1000,98328986,1000,1000,1000,1000
44338924,1000,1000,1000,1000,98428946,1000,1000,1000,1000
44341423,1000,1000,1000,1000,98528906,1000,1000,1000,1000
44343922,1000,1000,1000,1000,98628866,1000,1000,1000,1000
44346421,1000,1000,1000,1000,98728826,1000,1000,1000,1000
44348920,1000,1000,1000,1000,98828786,1000,1000,1000,1000
44351419,1000,1000,1000,1000,98928746,1000,1000,1000,1000
44353918,1000,1000,1000,1000,99028706,1000,1000,1000,1000
44356417,1000,1000,1000,1000,99128666,1000,1000,1000,1000
44358916,1000,1000,1000,1000,99228626,1000,1000,1000,1000
44361415,1000,1000,1000,1000,99328586,1000,1000,1000,1000
44363914,1000,1000,1000,1000,99428546,1000,1000,1000,1000
44366413,1000,1000,1000,1000,99528506,1000,1000,1000,1000
44368912,1000,1000,1000,1000,99628466,1000,1000,1000,1000
44371411,1000,1000,1000,1000,99728426,1000,1000,1000,1000
44373910,1000,1000,1000,1000,99828386,1000,1000,1000,1000
44376409,1000,1000,1000,1000,99928346,1000,1000,1000,1000
44378908,1000,1000,1000,1000,100028306,1000,1000,1000,1000
44381407,1000,1000,1000,1000,100128266,1000,1000,1000,1000
44383906,1000,1000,1000,1000,100228226,1000,1000,1000,1000
44386405,1000,1000,1000,1000,100328186,1000,1000,1000,1000
44388904,1000,1000,1000,1000,100428979,1000,1000,1000,1000
44391403,1000,1000,1000,1000,100528939,1000,1000,1000,1000
44393902,1000,1000,1000,1000,100628899,1000,1000,1000,1000
44396401,1000,1000,1000,1000,100728859,1000,1000,1000,1000
44398900,1000,1000,1000,1000,100828819,1000,1000,1000,1000
44401399,1000,1000,1000,1000,100928779,1000,1000,1000,1000
44403898,1000,1000,1000,1000,101028739,1000,1000,1000,1000
44406397,1000,1000,1000,1000,101128699,1000,1000,1000,1000
44408896,1000,1000,1000,1000,101228659,1000,1000,1000,1000
44411395,1000,1000,1000,1000,101328619,1000,1000,1000,1000
44413894,1000,1000,1000,1000,101428579,1000,1000,1000,1000
44416393,1000,1000,1000,1000,101528539,1000,1000,1000,1000
44418892,1000,1000,1000,1000,101628499,1000,1000,1000,1000
44421391,1000,1000,1000,1000,101728459,1000,1000,1000,1000
44423890,1000,1000,1000,1000,101828419,1000,1000,1000,1000
44426389,1000,1000,1000,1000,101928379,1000,1000,1000,1000
44428888,1000,1000,1000,1000,102028339,1000,1000,1000,1000
44431387,1000,1000,1000,1000,102128299,1000,1000,1000,1000
44433886,1000,1000,1000,1000,102228259,1000,1000,1000,1000
44436385,1000,1000,1000,1000,102328219,1000,1000,1000,1000
44438884,1000,1000,1000,1000,102428179,1000,1000,1000,1000
44441383,1000,1000,1000,1000,102528972,1000,1000,1000,1000
44443882,1000,1000,1000,1000,102628932,1000,1000,1000,1000
44446381,1000,1000,1000,1000,102728892,1000,1000,1000,1000
44448880,1000,1000,1000,1000,102828852,1000,1000,1000,1000
44451379,1000,1000,1000,1000,102928812,1000,1000,1000,1000
44453878,1000,1000,1000,1000,103028772,1000,1000,1000,1000
44456377,1000,1000,1000,1000,103128732,1000,1000,1000,1000
44458876,1000,1000,1000,1000,103228692,1000,1000,1000,1000
44461375,1000,1000,1000,1000,103328652,1000,1000,1000,1000
44463874,1000,1000,1000,1000,103428612,1000,1000,1000,1000
44466373,1000,1000,1000,1000,103528572,1000,1000,1000,1000
44468872,1000,1000,1000,1000,103628532,1000,1000,1000,1000
44471371,1000,1000,1000,1000,103728492,1000,1000,1000,1000
44473870,1000,1000,1000,1000,103828452,1000,1000,1000,1000
44476369,1000,1000,1000,1000,103928412,1000,1000,1000,1000
44478868,1000,1000,1000,1000,104028372,1000,1000,1000,1000
44481367,1000,1000,1000,1000,104128332,1000,1000,1000,1000
44483866,1000,1000,1000,1000,104228292,1000,1000,1000,1000
44486365,1000,1000,1000,1000,104328252,1000,1000,1000,1000
44488864,1000,1000,1000,1000,104428212,1000,1000,1000,1000
44491363,1000,1000,1000,1000,104528172,1000,1000,1000,1000
44493862,1000,1000,1000,1000,104628965,1000,1000,1000,1000
44496361,1000,1000,1000,1000,104728925,1000,1000,1000,1000
44498860,1000,1000,1000,1000,104828885,1000,1000,1000,1000
44501359,1000,1000,1000,1000,104928845,1000,1000,1000,1000
44503858,1000,1000,1000,1000,105028805,1000,1000,1000,1000
44506357,1000,1000,1000,1000,105128765,1000,1000,1000,1000
44508856,1000,1000,1000,1000,105228725,1000,1000,1000,1000
44511355,1000,1000,1000,1000,105328685,1000,1000,1000,1000
44513854,1000,1000,1000,1000,105428645,1000,1000,1000,1000
44516353,1000,1000,1000,1000,105528605,1000,1000,1000,1000
44518852,1000,1000,1000,1000,105628565,1000,1000,1000,1000
44521351,1000,1000,1000,1000,105728525,1000,1000,1000,1000
44523850,1000,1000,1000,1000,105828485,1000,1000,1000,1000
44526349,1000,1000,1000,1000,105928445,1000,1000,1000,1000
44528848,1000,1000,1000,1000,106028405,1000,1000,1000,1000
44531347,1000,1000,1000,1000,106128365,1000,1000,1000,1000
44533846,1000,1000,1000,1000,106228325,1000,1000,1000,1000
44536345,1000,1000,1000,1000,106328285,1000,1000,1000,1000
44538844,1000,1000,1000,1000,106428245,1000,1000,1000,1000
44541343,1000,1000,1000,1000,106528205,1000,1000,1000,1000
44543842,1000,1000,1000,1000,106628165,1000,1000,1000,1000
44546341,1000,1000,1000,1000,106728958,1000,1000,1000,1000
44548840,1000,1000,1000,1000,106828918,1000,1000,1000,1000
44551339,1000,1000,1000,1000,106928878,1000,1000,1000,1000
44553838,1000,1000,1000,1000,107028838,1000,1000,1000,1000
44556337,1000,1000,1000,1000,107128798,1000,1000,1000,1000
44558836,1000,1000,1000,1000,107228758,1000,1000,1000,1000
44561335,1000,1000,1000,1000,107328718,1000,1000,1000,1000
44563834,1000,1000,1000,1000,107428678,1000,1000,1000,1000
44566333,1000,1000,1000,1000,107528638,1000,1000,1000,1000
44568832,1000,1000,1000,1000,107628598,1000,1000,1000,1000
44571331,1000,1000,1000,1000,107728558,1000,1000,1000,1000
44573830,1000,1000,1000,1000,107828518,1000,1000,1000,1000
44576329,1000,1000,1000,1000,107928478,1000,1000,1000,1000
44578828,1000,1000,1000,1000,108028438,1000,1000,1000,1000
44581327,1000,1000,1000,1000,108128398,1000,1000,1000,1000
44583826,1000,1000,1000,1000,108228358,1000,1000,1000,1000
44586325,1000,1000,1000,1000,108328318,1000,1000,1000,1000
44588824,1000,1000,1000,1000,108428278,1000,1000,1000,1000
44591323,1000,1000,1000,1000,108528238,1000,1000,1000,1000
44593822,1000,1000,1000,1000,108628198,1000,1000,1000,1000
44596321,1000,1000,1000,1000,108728158,1000,1000,1000,1000
44598820,1000,1000,1000,1000,108828951,1000,1000,1000,1000
44601319,1000,1000,1000,1000,108928911,1000,1000,1000,1000
44603818,1000,1000,1000,1000,109028871,1000,1000,1000,1000
44606317,1000,1000,1000,1000,109128831,1000,1000,1000,1000
44608816,1000,1000,1000,1000,109228791,1000,1000,1000,1000
44611315,1000,1000,1000,1000,109328751,1000,1000,1000,1000
44613814,1000,1000,1000,1000,109428711,1000,1000,1000,1000
44616313,1000,1000,1000,1000,109528671,1000,1000,1000,1000
44618812,1000,1000,1000,1000,109628631,1000,1000,1000,1000
44621311,1000,1000,1000,1000,109728591,1000,1000,1000,1000
44623810,1000,1000,1000,1000,109828551,1000,1000,1000,1000
44626309,1000,1000,1000,1000,109928511,1000,1000,1000,1000
44628808,1000,1000,1000,1000,110028471,1000,1000,1000,1000
44631307,1000,1000,1000,1000,110128431,1000,1000,1000,1000
44633806,1000,1000,1000,1000,110228391,1000,1000,1000,1000
44636305,1000,1000,1000,1000,110328351,1000,1000,1000,1000
44638804,1000,1000,1000,1000,110428311,1000,1000,1000,1000
44641303,1000,1000,1000,1000,110528271,1000,1000,1000,1000
44643802,1000,1000,1000,1000,110628231,1000,1000,1000,1000
44646301,1000,1000,1000,1000,,,,,
44648800,1000,1000,1000,1000,,,,,
44651299,1000,1000,1000,1000,,,,,
44653798,1000,1000,1000,1000,,,,,
44656297,1000,1000,1000,1000,,,,,
44658796,1000,1000,1000,1000,,,,,
44661295,1000,1000,1000,1000,,,,,
44663794,1000,1000,1000,1000,,,,,
44666293,1000,1000,1000,1000,,,,,
44668792,1000,1000,1000,1000,,,,,
44671291,1000,1000,1000,1000,,,,,
44673790,1000,1000,1000,1000,,,,,
44676289,1000,1000,1000,1000,,,,,
44678788,1000,1000,1000,1000,,,,,
44681287,1000,1000,1000,1000,,,,,
44683786,1000,1000,1000,1000,,,,,
44686285,1000,1000,1000,1000,,,,,
44688784,1000,1000,1000,1000,,,,,
44691283,1000,1000,1000,1000,,,,,
44693782,1000,1000,1000,1000,,,,,
44696281,1000,1000,1000,1000,,,,,
44698780,1000,1000,1000,1000,,,,,
44701279,1000,1000,1000,1000,,,,,
44703778,1000,1000,1000,1000,,,,,
44706277,1000,1000,1000,1000,,,,,
44708776,1000,1000,1000,1000,,,,,
44711275,1000,1000,1000,1000,,,,,
44713774,1000,1000,1000,1000,,,,,
44716273,1000,1000,1000,1000,,,,,
44718772,1000,1000,1000,1000,,,,,
44721271,1000,1000,1000,1000,,,,,
44723770,1000,1000,1000,1000,,,,,
44726269,1000,1000,1000,1000,,,,,
44728768,1000,1000,1000,1000,,,,,
44731267,1000,1000,1000,1000,,,,,
44733766,1000,1000,1000,1000,,,,,
44736265,1000,1000,1000,1000,,,,,
44738764,1000,1000,1000,1000,,,,,
44741263,1000,1000,1000,1000,,,,,
44743762,1000,1000,1000,1000,,,,,
44746261,1000,1000,1000,1000,,,,,
44748760,1000,1000,1000,1000,,,,,
44751259,1000,1000,1000,1000,,,,,
44753758,1000,1000,1000,1000,,,,,
44756257,1000,1000,1000,1000,,,,,
44758756,1000,1000,1000,1000,,,,,
44761255,1000,1000,1000,1000,,,,,
44763754,1000,1000,1000,1000,,,,,
44766253,1000,1000,1000,1000,,,,,
44768752,1000,1000,1000,1000,,,,,
44771251,1000,1000,1000,1000,,,,,
44773750,1000,1000,1000,1000,,,,,
44776249,1000,1000,1000,1000,,,,,
44778748,1000,1000,1000,1000,,,,,
44781247,1000,1000,1000,1000,,,,,
44783746,1000,1000,1000,1000,,,,,
44786245,1000,1000,1000,1000,,,,,
44788744,1000,1000,1000,1000,,,,,
44791243,1000,1000,1000,1000,,,,,
44793742,1000,1000,1000,1000,,,,,
44796241,1000,1000,1000,1000,,,,,
44798740,1000,1000,1000,1000,,,,,
44801239,1000,1000,1000,1000,,,,,
44803738,1000,1000,1000,1000,,,,,
44806237,1000,1000,1000,1000,,,,,
44808736,1000,1000,1000,1000,,,,,
44811235,1000,1000,1000,1000,,,,,
44813734,1000,1000,1000,1000,,,,,
44816233,1000,1000,1000,1000,,,,,
44818732,1000,1000,1000,1000,,,,,
44821231,1000,1000,1000,1000,,,,,
44823730,1000,1000,1000,1000,,,,,
44826229,1000,1000,1000,1000,,,,,
44828728,1000,1000,1000,1000,,,,,
44831227,1000,1000,1000,1000,,,,,
44833726,1000,1000,1000,1000,,,,,
44836225,1000,1000,1000,1000,,,,,
44838724,1000,1000,1000,1000,,,,,
44841223,1000,1000,1000,1000,,,,,
44843722,1000,1000,1000,1000,,,,,
44846221,1000,1000,1000,1000,,,,,
44848720,1000,1000,1000,1000,,,,,
44851219,1000,1000,1000,1000,,,,,
44853718,1000,1000,1000,1000,,,,,
44856217,1000,1000,1000,1000,,,,,
44858716,1000,1000,1000,1000,,,,,
44861215,1000,1000,1000,1000,,,,,
44863714,1000,1000,1000,1000,,,,,
44866213,1000,1000,1000,1000,,,,,
44868712,1000,1000,1000,1000,,,,,
44871211,1000,1000,1000,1000,,,,,
44873710,1000,1000,1000,1000,,,,,
44876209,1000,1000,1000,1000,,,,,
44878708,1000,1000,1000,1000,,,,,
44881207,1000,1000,1000,1000,,,,,
44883706,1000,1000,1000,1000,,,,,
44886205,1000,1000,1000,1000,,,,,
44888704,1000,1000,1000,1000,,,,,
44891203,1000,1000,1000,1000,,,,,
44893702,1000,1000,1000,1000,,,,,
44896201,1000,1000,1000,1000,,,,,
44898700,1000,1000,1000,1000,,,,,
44901199,1000,1000,1000,1000,,,,,
44903698,1000,1000,1000,1000,,,,,
44906197,1000,1000,1000,1000,,,,,
44908696,1000,1000,1000,1000,,,,,
44911195,1000,1000,1000,1000,,,,,
44913694,1000,1000,1000,1000,,,,,
44916193,1000,1000,1000,1000,,,,,
44918692,1000,1000,1000,1000,,,,,
44921191,1000,1000,1000,1000,,,,,
44923690,1000,1000,1000,1000,,,,,
44926189,1000,1000,1000,1000,,,,,
44928688,1000,1000,1000,1000,,,,,
44931187,1000,1000,1000,1000,,,,,
44933686,1000,1000,1000,1000,,,,,
44936185,1000,1000,1000,1000,,,,,
44938684,1000,1000,1000,1000,,,,,
44941183,1000,1000,1000,1000,,,,,
44943682,1000,1000,1000,1000,,,,,
44946181,1000,1000,1000,1000,,,,,
44948680,1000,1000,1000,1000,,,,,
44951179,1000,1000,1000,1000,,,,,
44953678,1000,1000,1000,1000,,,,,
44956177,1000,1000,1000,1000,,,,,
44958676,1000,1000,1000,1000,,,,,
44961175,1001,1001,1001,1001,,,,,
44963674,1002,1002,1002,1002,,,,,
44966173,1003,1003,1003,1003,,,,,
44968672,1003,1003,1003,1003,,,,,
44971171,1004,1004,1004,1004,,,,,
44973670,1005,1005,1005,1005,,,,,
44976169,1006,1006,1006,1006,,,,,
44978668,1006,1006,1006,1006,,,,,
44981167,1007,1007,1007,1007,,,,,
44983666,1008,1008,1008,1008,,,,,
44986165,1009,1009,1009,1009,,,,,
44988664,1009,1009,1009,1009,,,,,
44991163,1010,1010,1010,1010,,,,,
44993662,1011,1011,1011,1011,,,,,
44996161,1012,1012,1012,1012,,,,,
44998660,1012,1012,1012,1012,,,,,
45001159,1013,1013,1013,1013,,,,,
45003658,1014,1014,1014,1014,,,,,
45006157,1015,1015,1015,1015,,,,,
45008656,1015,1015,1015,1015,,,,,
45011155,1016,1016,1016,1016,,,,,
45013654,1017,1017,1017,1017,,,,,
45016153,1018,1018,1018,1018,,,,,
45018652,1018,1018,1018,1018,,,,,
45021151,1019,1019,1019,1019,,,,,
45023650,1020,1020,1020,1020,,,,,
45026149,1021,1021,1021,1021,,,,,
45028648,1021,1021,1021,1021,,,,,
45031147,1022,1022,1022,1022,,,,,
45033646,1023,1023,1023,1023,,,,,
45036145,1024,1024,1024,1024,,,,,
45038644,1024,1024,1024,1024,,,,,
45041143,1025,1025,1025,1025,,,,,
45043642,1026,1026,1026,1026,,,,,
45046141,1027,1027,1027,1027,,,,,
45048640,1027,1027,1027,1027,,,,,
45051139,1028,1028,1028,1028,,,,,
45053638,1029,1029,1029,1029,,,,,
45056137,1030,1030,1030,1030,,,,,
45058636,1030,1030,1030,1030,,,,,
45061135,1031,1031,1031,1031,,,,,
45063634,1032,1032,1032,1032,,,,,
45066133,1033,1033,1033,1033,,,,,
45068632,1033,1033,1033,1033,,,,,
45071131,1034,1034,1034,1034,,,,,
45073630,1035,1035,1035,1035,,,,,
45076129,1036,1036,1036,1036,,,,,
45078628,1036,1036,1036,1036,,,,,
45081127,1037,1037,1037,1037,,,,,
45083626,1038,1038,1038,1038,,,,,
45086125,1039,1039,1039,1039,,,,,
45088624,1039,1039,1039,1039,,,,,
45091123,1040,1040,1040,1040,,,,,
45093622,1041,1041,1041,1041,,,,,
45096121,1042,1042,1042,1042,,,,,
45098620,1042,1042,1042,1042,,,,,
45101119,1043,1043,1043,1043,,,,,
45103618,1044,1044,1044,1044,,,,,
45106117,1045,1045,1045,1045,,,,,
45108616,1045,1045,1045,1045,,,,,
45111115,1046,1046,1046,1046,,,,,
45113614,1047,1047,1047,1047,,,,,
45116113,1048,1048,1048,1048,,,,,
45118612,1048,1048,1048,1048,,,,,
45121111,1049,1049,1049,1049,,,,,
45123610,1050,1050,1050,1050,,,,,
45126109,1051,1051,1051,1051,,,,,
45128608,1051,1051,1051,1051,,,,,
45131107,1052,1052,1052,1052,,,,,
45133606,1053,1053,1053,1053,,,,,
45136105,1054,1054,1054,1054,,,,,
45138604,1054,1054,1054,1054,,,,,
45141103,1055,1055,1055,1055,,,,,
45143602,1056,1056,1056,1056,,,,,
45146101,1057,1057,1057,1057,,,,,
45148600,1057,1057,1057,1057,,,,,
45151099,1058,1058,1058,1058,,,,,
45153598,1059,1059,1059,1059,,,,,
45156097,1060,1060,1060,1060,,,,,
45158596,1060,1060,1060,1060,,,,,
45161095,1061,1061,1061,1061,,,,,
45163594,1062,1062,1062,1062,,,,,
45166093,1063,1063,1063,1063,,,,,
45168592,1063,1063,1063,1063,,,,,
45171091,1064,1064,1064,1064,,,,,
45173590,1065,1065,1065,1065,,,,,
45176089,1066,1066,1066,1066,,,,,
45178588,1066,1066,1066,1066,,,,,
45181087,1067,1067,1067,1067,,,,,
45183586,1068,1068,1068,1068,,,,,
45186085,1069,1069,1069,1069,,,,,
45188584,1069,1069,1069,1069,,,,,
45191083,1070,1070,1070,1070,,,,,
45193582,1071,1071,1071,1071,,,,,
45196081,1072,1072,1072,1072,,,,,
45198580,1072,1072,1072,1072,,,,,
45201079,1073,1073,1073,1073,,,,,
45203578,1074,1074,1074,1074,,,,,
45206077,1075,1075,1075,1075,,,,,
45208576,1075,1075,1075,1075,,,,,
45211075,1076,1076,1076,1076,,,,,
45213574,1077,1077,1077,1077,,,,,
45216073,1078,1078,1078,1078,,,,,
45218572,1078,1078,1078,1078,,,,,
45221071,1079,1079,1079,1079,,,,,
45223570,1080,1080,1080,1080,,,,,
45226069,1081,1081,1081,1081,,,,,
45228568,1081,1081,1081,1081,,,,,
45231067,1082,1082,1082,1082,,,,,
45233566,1083,1083,1083,1083,,,,,
45236065,1084,1084,1084,1084,,,,,
45238564,1084,1084,1084,1084,,,,,
45241063,1085,1085,1085,1085,,,,,
45243562,1086,1086,1086,1086,,,,,
45246061,1087,1087,1087,1087,,,,,
45248560,1087,1087,1087,1087,,,,,
45251059,1088,1088,1088,1088,,,,,
45253558,1089,1089,1089,1089,,,,,
45256057,1090,1090,1090,1090,,,,,
45258556,1090,1090,1090,1090,,,,,
45261055,1091,1091,1091,1091,,,,,
45263554,1092,1092,1092,1092,,,,,
45266053,1093,1093,1093,1093,,,,,
45268552,1093,1093,1093,1093,,,,,
45271051,1094,1094,1094,1094,,,,,
45273550,1095,1095,1095,1095,,,,,
45276049,1096,1096,1096,1096,,,,,
45278548,1096,1096,1096,1096,,,,,
45281047,1097,1097,1097,1097,,,,,
45283546,1098,1098,1098,1098,,,,,
45286045,1099,1099,1099,1099,,,,,
45288544,1099,1099,1099,1099,,,,,
45291043,1100,1100,1100,1100,,,,,
45293542,1101,1101,1101,1101,,,,,
45296041,1101,1101,1101,1101,,,,,
45298540,1102,1102,1102,1102,,,,,
45301039,1103,1103,1103,1103,,,,,
45303538,1104,1104,1104,1104,,,,,
45306037,1104,1104,1104,1104,,,,,
45308536,1105,1105,1105,1105,,,,,
45311035,1106,1106,1106,1106,,,,,
45313534,1107,1107,1107,1107,,,,,
45316033,1107,1107,1107,1107,,,,,
45318532,1108,1108,1108,1108,,,,,
45321031,1109,1109,1109,1109,,,,,
45323530,1110,1110,1110,1110,,,,,
45326029,1110,1110,1110,1110,,,,,
45328528,1111,1111,1111,1111,,,,,
45331027,1112,1112,1112,1112,,,,,
45333526,1113,1113,1113,1113,,,,,
45336025,1113,1113,1113,1113,,,,,
45338524,1114,1114,1114,1114,,,,,
45341023,1115,1115,1115,1115,,,,,
45343522,1116,1116,1116,1116,,,,,
45346021,1116,1116,1116,1116,,,,,
45348520,1117,1117,1117,1117,,,,,
45351019,1118,1118,1118,1118,,,,,
45353518,1119,1119,1119,1119,,,,,
45356017,1119,1119,1119,1119,,,,,
45358516,1120,1120,1120,1120,,,,,
45361015,1121,1121,1121,1121,,,,,
45363514,1122,1122,1122,1122,,,,,
45366013,1122,1122,1122,1122,,,,,
45368512,1123,1123,1123,1123,,,,,
45371011,1124,1124,1124,1124,,,,,
45373510,1125,1125,1125,1125,,,,,
45376009,1125,1125,1125,1125,,,,,
45378508,1126,1126,1126,1126,,,,,
45381007,1127,1127,1127,1127,,,,,
45383506,1128,1128,1128,1128,,,,,
45386005,1128,1128,1128,1128,,,,,
45388504,1129,1129,1129,1129,,,,,
45391003,1130,1130,1130,1130,,,,,
45393502,1131,1131,1131,1131,,,,,
45396001,1131,1131,1131,1131,,,,,
45398500,1132,1132,1132,1132,,,,,
45400999,1133,1133,1133,1133,,,,,
45403498,1134,1134,1134,1134,,,,,
45405997,1134,1134,1134,1134,,,,,
45408496,1135,1135,1135,1135,,,,,
45410995,1136,1136,1136,1136,,,,,
45413494,1137,1137,1137,1137,,,,,
45415993,1137,1137,1137,1137,,,,,
45418492,1138,1138,1138,1138,,,,,
45420991,1139,1139,1139,1139,,,,,
45423490,1140,1140,1140,1140,,,,,
45425989,1140,1140,1140,1140,,,,,
45428488,1141,1141,1141,1141,,,,,
45430987,1142,1142,1142,1142,,,,,
45433486,1143,1143,1143,1143,,,,,
45435985,1143,1143,1143,1143,,,,,
45438484,1144,1144,1144,1144,,,,,
45440983,1145,1145,1145,1145,,,,,
45443482,1146,1146,1146,1146,,,,,
45445981,1146,1146,1146,1146,,,,,
45448480,1147,1147,1147,1147,,,,,
45450979,1148,1148,1148,1148,,,,,
45453478,1149,1149,1149,1149,,,,,
45455977,1149,1149,1149,1149,,,,,
45458476,1150,1150,1150,1150,,,,,
45460975,1162,1153,1154,1162,,,,,
45463474,1170,1161,1162,1170,,,,,
45465973,1177,1169,1170,1178,,,,,
45468472,1185,1177,1178,1185,,,,,
45470971,1193,1185,1186,1193,,,,,
45473470,1200,1192,1193,1200,,,,,
45475969,1207,1200,1201,1208,,,,,
45478468,1215,1207,1208,1215,,,,,
45480967,1222,1214,1215,1222,,,,,
45483466,1229,1221,1222,1229,,,,,
45485965,1236,1228,1229,1236,,,,,
45488464,1242,1235,1236,1243,,,,,
45490963,1249,1242,1243,1249,,,,,
45493462,1256,1249,1249,1256,,,,,
45495961,1262,1255,1256,1263,,,,,
45498460,1269,1262,1262,1269,,,,,
45500959,1275,1268,1269,1275,,,,,
45503458,1281,1274,1275,1282,,,,,
45505957,1288,1281,1282,1288,,,,,
45508456,1294,1287,1288,1294,,,,,
45510955,1300,1293,1294,1300,,,,,
45513454,1306,1299,1300,1306,,,,,
45515953,1312,1305,1306,1312,,,,,
45518452,1318,1311,1312,1318,,,,,
45520951,1323,1317,1318,1324,,,,,
45523450,1329,1323,1323,1329,,,,,
45525949,1335,1328,1329,1335,,,,,
45528448,1341,1334,1335,1341,,,,,
45530947,1346,1340,1341,1346,,,,,
45533446,1352,1345,1346,1352,,,,,
45535945,1357,1351,1352,1357,,,,,
45538444,1363,1356,1357,1363,,,,,
45540943,1368,1362,1363,1368,,,,,
45543442,1373,1367,1368,1374,,,,,
45545941,1379,1373,1373,1379,,,,,
45548440,1384,1378,1379,1384,,,,,
45550939,1389,1383,1384,1389,,,,,
45553438,1394,1388,1389,1395,,,,,
45555937,1399,1394,1394,1400,,,,,
45558436,1405,1399,1399,1405,,,,,
45560935,1410,1404,1405,1410,,,,,
45563434,1415,1409,1410,1415,,,,,
45565933,1420,1414,1415,1420,,,,,
45568432,1425,1419,1420,1425,,,,,
45570931,1429,1424,1424,1430,,,,,
45573430,1434,1429,1429,1434,,,,,
45575929,1439,1433,1434,1439,,,,,
45578428,1444,1438,1439,1444,,,,,
45580927,1449,1443,1444,1449,,,,,
45583426,1453,1448,1449,1454,,,,,
45585925,1458,1453,1453,1458,,,,,
45588424,1463,1457,1458,1463,,,,,
45590923,1467,1462,1463,1468,,,,,
45593422,1472,1467,1467,1472,,,,,
45595921,1477,1471,1472,1477,,,,,
45598420,1481,1476,1477,1481,,,,,
45600919,1486,1480,1481,1486,,,,,
45603418,1490,1485,1486,1490,,,,,
45605917,1495,1489,1490,1495,,,,,
45608416,1499,1494,1495,1499,,,,,
45610915,1504,1498,1499,1504,,,,,
45613414,1508,1503,1503,1508,,,,,
45615913,1512,1507,1508,1512,,,,,
45618412,1517,1511,1512,1517,,,,,
45620911,1521,1516,1517,1521,,,,,
45623410,1525,1520,1521,1525,,,,,
45625909,1530,1524,1525,1530,,,,,
45628408,1534,1529,1529,1534,,,,,
45630907,1538,1533,1534,1538,,,,,
45633406,1542,1537,1538,1542,,,,,
45635905,1546,1541,1542,1546,,,,,
45638404,1551,1545,1546,1551,,,,,
45640903,1555,1550,1550,1555,,,,,
45643402,1559,1554,1555,1559,,,,,
45645901,1563,1558,1559,1563,,,,,
45648400,1567,1562,1563,1567,,,,,
45650899,1571,1566,1567,1571,,,,,
45653398,1575,1570,1571,1575,,,,,
45655897,1579,1574,1575,1579,,,,,
45658396,1583,1578,1579,1583,,,,,
45660895,1587,1582,1583,1587,,,,,
45663394,1591,1586,1587,1591,,,,,
45665893,1595,1590,1591,1595,,,,,
45668392,1599,1594,1595,1599,,,,,
45670891,1603,1598,1598,1603,,,,,
45673390,1607,1602,1602,1607,,,,,
45675889,1611,1606,1606,1611,,,,,
45678388,1615,1609,1610,1615,,,,,
45680887,1618,1613,1614,1619,,,,,
45683386,1622,1617,1618,1622,,,,,
45685885,1626,1621,1621,1626,,,,,
45688384,1630,1625,1625,1630,,,,,
45690883,1634,1628,1629,1634,,,,,
45693382,1637,1632,1633,1638,,,,,
45695881,1641,1636,1636,1641,,,,,
45698380,1645,1640,1640,1645,,,,,
45700879,1649,1643,1644,1649,,,,,
45703378,1652,1647,1648,1652,,,,,
45705877,1656,1651,1651,1656,,,,,
45708376,1660,1654,1655,1660,,,,,
45710875,1663,1658,1659,1663,,,,,
45713374,1667,1662,1662,1667,,,,,
45715873,1671,1665,1666,1671,,,,,
45718372,1674,1669,1669,1674,,,,,
45720871,1678,1672,1673,1678,,,,,
45723370,1681,1676,1677,1681,,,,,
45725869,1685,1680,1680,1685,,,,,
45728368,1689,1683,1684,1689,,,,,
45730867,1692,1687,1687,1692,,,,,
45733366,1696,1690,1691,1696,,,,,
45735865,1699,1694,1694,1699,,,,,
45738364,1703,1697,1698,1703,,,,,
45740863,1706,1701,1701,1706,,,,,
45743362,1710,1704,1705,1709,,,,,
45745861,1713,1708,1708,1713,,,,,
45748360,1716,1711,1712,1716,,,,,
45750859,1720,1715,1715,1720,,,,,
45753358,1723,1718,1719,1723,,,,,
45755857,1727,1721,1722,1727,,,,,
45758356,1730,1725,1725,1730,,,,,
45760855,1733,1728,1729,1733,,,,,
45763354,1737,1732,1732,1737,,,,,
45765853,1740,1735,1736,1740,,,,,
45768352,1743,1738,1739,1743,,,,,
45770851,1747,1742,1742,1747,,,,,
45773350,1750,1745,1746,1750,,,,,
45775849,1753,1748,1749,1753,,,,,
45778348,1757,1752,1752,1757,,,,,
45780847,1760,1755,1756,1760,,,,,
45783346,1763,1758,1759,1763,,,,,
45785845,1767,1762,1762,1767,,,,,
45788344,1770,1765,1765,1770,,,,,
45790843,1773,1768,1769,1773,,,,,
45793342,1776,1771,1772,1776,,,,,
45795841,1780,1775,1775,1780,,,,,
45798340,1783,1778,1778,1783,,,,,
45800839,1786,1781,1782,1786,,,,,
45803338,1789,1784,1785,1789,,,,,
45805837,1792,1787,1788,1792,,,,,
45808336,1796,1791,1791,1796,,,,,
45810835,1799,1794,1794,1799,,,,,
45813334,1802,1797,1798,1802,,,,,
45815833,1805,1800,1801,1805,,,,,
45818332,1808,1803,1804,1808,,,,,
45820831,1811,1806,1807,1811,,,,,
45823330,1814,1810,1810,1814,,,,,
45825829,1818,1813,1813,1818,,,,,
45828328,1821,1816,1816,1821,,,,,
45830827,1824,1819,1820,1824,,,,,
45833326,1827,1822,1823,1827,,,,,
45835825,1830,1825,1826,1830,,,,,
45838324,1833,1828,1829,1833,,,,,
45840823,1836,1831,1832,1836,,,,,
45843322,1839,1834,1835,1839,,,,,
45845821,1842,1837,1838,1842,,,,,
45848320,1845,1840,1841,1845,,,,,
45850819,1848,1843,1844,1848,,,,,
45853318,1851,1847,1847,1851,,,,,
45855817,1854,1850,1850,1854,,,,,
45858316,1857,1853,1853,1857,,,,,
45860815,1860,1856,1856,1860,,,,,
45863314,1863,1859,1859,1863,,,,,
45865813,1866,1861,1862,1866,,,,,
45868312,1869,1864,1865,1869,,,,,
45870811,1872,1867,1868,1872,,,,,
45873310,1875,1870,1871,1875,,,,,
45875809,1878,1873,1874,1878,,,,,
45878308,1881,1876,1877,1881,,,,,
45880807,1884,1879,1880,1884,,,,,
45883306,1887,1882,1883,1887,,,,,
45885805,1890,1885,1886,1890,,,,,
45888304,1893,1888,1889,1893,,,,,
45890803,1896,1891,1892,1896,,,,,
45893302,1899,1894,1894,1898,,,,,
45895801,1902,1897,1897,1901,,,,,
45898300,1904,1899,1900,1904,,,,,
45900799,1907,1902,1903,1907,,,,,
45903298,1910,1905,1906,1910,,,,,
45905797,1913,1908,1909,1913,,,,,
45908296,1916,1911,1912,1916,,,,,
45910795,1919,1914,1914,1919,,,,,
45913294,1922,1917,1917,1921,,,,,
45915793,1922,1917,1917,1922,,,,,
45918292,1921,1916,1916,1921,,,,,
45920791,1920,1915,1916,1920,,,,,
45923290,1919,1914,1915,1919,,,,,
45925789,1919,1914,1914,1919,,,,,
45928288,1918,1913,1914,1918,,,,,
45930787,1918,1912,1913,1918,,,,,
45933286,1917,1912,1913,1917,,,,,
45935785,1917,1911,1912,1917,,,,,
45938284,1916,1911,1912,1916,,,,,
45940783,1916,1911,1911,1916,,,,,
45943282,1916,1910,1911,1916,,,,,
45945781,1915,1910,1911,1915,,,,,
45948280,1915,1910,1911,1915,,,,,
45950779,1915,1910,1911,1915,,,,,
45953278,1915,1910,1911,1915,,,,,
45955777,1915,1910,1911,1915,,,,,
45958276,1915,1910,1911,1915,,,,,
45960775,1914,1910,1911,1914,,,,,
45963274,1914,1910,1910,1914,,,,,
45965773,1913,1910,1910,1914,,,,,
45968272,1913,1909,1910,1913,,,,,
45970771,1912,1909,1909,1912,,,,,
45973270,1911,1908,1908,1912,,,,,
45975769,1910,1907,1908,1911,,,,,
45978268,1909,1906,1907,1909,,,,,
45980767,1908,1905,1905,1908,,,,,
45983266,1907,1904,1904,1907,,,,,
45985765,1905,1902,1903,1905,,,,,
45988264,1903,1900,1901,1903,,,,,
45990763,1902,1899,1899,1902,,,,,
45993262,1900,1897,1897,1900,,,,,
45995761,1897,1895,1895,1897,,,,,
45998260,1895,1892,1893,1895,,,,,
46000759,1893,1890,1891,1893,,,,,
46003258,1890,1888,1888,1890,,,,,
46005757,1888,1885,1886,1888,,,,,
46008256,1885,1882,1883,1885,,,,,
46010755,1882,1880,1880,1883,,,,,
46013254,1880,1877,1878,1880,,,,,
46015753,1877,1874,1875,1877,,,,,
46018252,1874,1871,1872,1874,,,,,
46020751,1871,1869,1869,1871,,,,,
46023250,1868,1866,1866,1868,,,,,
46025749,1865,1863,1863,1865,,,,,
46028248,1862,1860,1860,1862,,,,,
46030747,1859,1857,1857,1859,,,,,
46033246,1856,1854,1854,1856,,,,,
46035745,1852,1850,1851,1852,,,,,
46038244,1849,1847,1848,1849,,,,,
46040743,1846,1844,1845,1846,,,,,
46043242,1843,1841,1841,1843,,,,,
46045741,1839,1838,1838,1839,,,,,
46048240,1836,1834,1835,1836,,,,,
46050739,1833,1831,1832,1833,,,,,
46053238,1829,1828,1828,1829,,,,,
46055737,1826,1825,1825,1826,,,,,
46058236,1823,1821,1822,1823,,,,,
46060735,1819,1818,1818,1819,,,,,
46063234,1816,1814,1815,1816,,,,,
46065733,1813,1811,1812,1813,,,,,
46068232,1809,1808,1808,1809,,,,,
46070731,1806,1805,1805,1806,,,,,
46073230,1803,1801,1802,1802,,,,,
46075729,1799,1798,1799,1799,,,,,
46078228,1796,1795,1795,1796,,,,,
46080727,1793,1791,1792,1792,,,,,
46083226,1789,1788,1789,1789,,,,,
46085725,1786,1785,1785,1786,,,,,
46088224,1783,1782,1782,1783,,,,,
46090723,1779,1778,1779,1779,,,,,
46093222,1776,1775,1776,1776,,,,,
46095721,1773,1772,1773,1773,,,,,
46098220,1770,1769,1769,1769,,,,,
46100719,1766,1765,1766,1766,,,,,
46103218,1763,1762,1763,1763,,,,,
46105717,1760,1759,1760,1760,,,,,
46108216,1757,1756,1757,1757,,,,,
46110715,1754,1753,1754,1754,,,,,
46113214,1751,1750,1751,1750,,,,,
46115713,1748,1747,1748,1747,,,,,
46118212,1745,1744,1745,1744,,,,,
46120711,1742,1741,1742,1742,,,,,
46123210,1739,1738,1739,1739,,,,,
46125709,1736,1735,1736,1736,,,,,
46128208,1733,1733,1733,1733,,,,,
46130707,1730,1730,1731,1730,,,,,
46133206,1728,1727,1728,1727,,,,,
46135705,1725,1725,1725,1725,,,,,
46138204,1722,1722,1723,1722,,,,,
46140703,1720,1719,1720,1719,,,,,
46143202,1717,1717,1718,1717,,,,,
46145701,1714,1714,1715,1714,,,,,
46148200,1712,1712,1713,1712,,,,,
46150699,1709,1710,1710,1709,,,,,
46153198,1707,1707,1708,1707,,,,,
46155697,1705,1705,1706,1705,,,,,
