TimeUS,M1,M2,M3,M4,TimeUS,C1,C2,C3,C4
42686252,1000,1000,1000,1000,42728735,1000,1000,1000,1000
42688751,1000,1000,1000,1000,42828695,1000,1000,1000,1000
42691250,1000,1000,1000,1000,42928655,1000,1000,1000,1000
42693749,1000,1000,1000,1000,43028615,1000,1000,1000,1000
42696248,1000,1000,1000,1000,43128575,1000,1000,1000,1000
42698747,1000,1000,1000,1000,43228535,1000,1000,1000,1000
42701246,1000,1000,1000,1000,43328495,1000,1000,1000,1000
42703745,1000,1000,1000,1000,43428455,1000,1000,1000,1000
42706244,1000,1000,1000,1000,43528415,1000,1000,1000,1000
42708743,1000,1000,1000,1000,43628375,1000,1000,1000,1000
42711242,1000,1000,1000,1000,43728335,1000,1000,1000,1000
42713741,1000,1000,1000,1000,43828295,1000,1000,1000,1000
42716240,1000,1000,1000,1000,43928255,1000,1000,1000,1000
42718739,1000,1000,1000,1000,44028215,1000,1000,1000,1000
42721238,1000,1000,1000,1000,44128175,1000,1000,1000,1000
42723737,1000,1000,1000,1000,44228968,1000,1000,1000,1000
42726236,1000,1000,1000,1000,44328928,1000,1000,1000,1000
42728735,1000,1000,1000,1000,44428888,1000,1000,1000,1000
42731234,1000,1000,1000,1000,44528848,1000,1000,1000,1000
42733733,1000,1000,1000,1000,44628808,1000,1000,1000,1000
42736232,1000,1000,1000,1000,44728768,1012,1012,1012,1012
42738731,1000,1000,1000,1000,44828728,1042,1042,1042,1042
42741230,1000,1000,1000,1000,44928688,1072,1072,1072,1072
42743729,1000,1000,1000,1000,45028648,1102,1102,1102,1102
42746228,1000,1000,1000,1000,45128608,1132,1132,1132,1132
42748727,1000,1000,1000,1000,45228568,1268,1262,1262,1269
42751226,1000,1000,1000,1000,45328528,1481,1476,1476,1482
42753725,1000,1000,1000,1000,45428488,1644,1640,1640,1645
42756224,1000,1000,1000,1000,45528448,1782,1778,1778,1783
42758723,1000,1000,1000,1000,45628408,1893,1889,1889,1893
42761222,1000,1000,1000,1000,45728368,1869,1866,1866,1870
42763721,1000,1000,1000,1000,45828328,1742,1742,1740,1744
42766220,1000,1000,1000,1000,45928288,1639,1640,1638,1641
42768719,1000,1000,1000,1000,46028248,1605,1606,1606,1605
42771218,1000,1000,1000,1000,46128208,1610,1611,1612,1610
42773717,1000,1000,1000,1000,46228168,1620,1621,1621,1619
42776216,1000,1000,1000,1000,46328961,1620,1620,1621,1619
42778715,1000,1000,1000,1000,46428921,1616,1616,1616,1616
42781214,1000,1000,1000,1000,46528881,1614,1613,1613,1613
42783713,1000,1000,1000,1000,46628841,1614,1613,1613,1614
42786212,1000,1000,1000,1000,46728801,1614,1614,1614,1614
42788711,1000,1000,1000,1000,46828761,1616,1616,1617,1615
42791210,1000,1000,1000,1000,46928721,1619,1619,1620,1618
42793709,1000,1000,1000,1000,47028681,1621,1620,1622,1620
42796208,1000,1000,1000,1000,47128641,1599,1599,1602,1596
42798707,1000,1000,1000,1000,47228601,1580,1581,1586,1574
42801206,1000,1000,1000,1000,47328561,1569,1569,1572,1567
42803705,1000,1000,1000,1000,47428521,1558,1559,1557,1560
42806204,1000,1000,1000,1000,47528481,1550,1550,1543,1558
42808703,1000,1000,1000,1000,47628441,1543,1543,1535,1551
42811202,1000,1000,1000,1000,47728401,1537,1536,1531,1542
42813701,1000,1000,1000,1000,47828361,1530,1529,1527,1532
42816200,1000,1000,1000,1000,47928321,1528,1528,1528,1528
42818699,1000,1000,1000,1000,48028281,1529,1530,1531,1528
42821198,1000,1000,1000,1000,48128241,1531,1531,1534,1528
42823697,1000,1000,1000,1000,48228201,1534,1534,1537,1531
42826196,1000,1000,1000,1000,48328161,1537,1537,1540,1535
42828695,1000,1000,1000,1000,48428954,1540,1541,1542,1539
42831194,1000,1000,1000,1000,48528914,1544,1545,1545,1544
42833693,1000,1000,1000,1000,48628874,1547,1547,1547,1548
42836192,1000,1000,1000,1000,48728834,1550,1550,1550,1551
42838691,1000,1000,1000,1000,48828794,1552,1551,1550,1553
42841190,1000,1000,1000,1000,48928754,1555,1552,1555,1558
42843689,1000,1000,1000,1000,49028714,1550,1550,1563,1565
42846188,1000,1000,1000,1000,49128674,1552,1553,1564,1566
42848687,1000,1000,1000,1000,49228634,1556,1557,1565,1564
42851186,1000,1000,1000,1000,49328594,1562,1562,1565,1564
42853685,1000,1000,1000,1000,49428554,1565,1565,1563,1563
42856184,1000,1000,1000,1000,49528514,1569,1569,1564,1564
42858683,1000,1000,1000,1000,49628474,1571,1571,1563,1563
42861182,1000,1000,1000,1000,49728434,1573,1573,1565,1565
42863681,1000,1000,1000,1000,49828394,1574,1573,1565,1565
42866180,1000,1000,1000,1000,49928354,1573,1573,1566,1566
42868679,1000,1000,1000,1000,50028314,1574,1573,1567,1568
42871178,1000,1000,1000,1000,50128274,1573,1573,1569,1569
42873677,1000,1000,1000,1000,50228234,1573,1573,1571,1572
42876176,1000,1000,1000,1000,50328194,1572,1572,1573,1572
42878675,1000,1000,1000,1000,50428154,1572,1572,1574,1573
42881174,1000,1000,1000,1000,50528947,1573,1573,1576,1575
42883673,1000,1000,1000,1000,50628907,1573,1573,1577,1576
42886172,1000,1000,1000,1000,50728867,1573,1573,1577,1576
42888671,1000,1000,1000,1000,50828827,1574,1575,1577,1578
42891170,1000,1000,1000,1000,50928787,1574,1574,1576,1577
42893669,1000,1000,1000,1000,51028747,1576,1576,1577,1577
42896168,1000,1000,1000,1000,51128707,1576,1576,1577,1577
42898667,1000,1000,1000,1000,51228667,1576,1576,1576,1576
42901166,1000,1000,1000,1000,51328627,1577,1577,1577,1576
42903665,1000,1000,1000,1000,51428587,1577,1577,1576,1576
42906164,1000,1000,1000,1000,51528547,1578,1578,1577,1576
42908663,1000,1000,1000,1000,51628507,1578,1579,1577,1577
42911162,1000,1000,1000,1000,51728467,1579,1578,1577,1577
42913661,1000,1000,1000,1000,51828427,1580,1579,1578,1578
42916160,1000,1000,1000,1000,51928387,1579,1579,1578,1578
42918659,1000,1000,1000,1000,52028347,1579,1579,1578,1578
42921158,1000,1000,1000,1000,52128307,1578,1577,1577,1577
42923657,1000,1000,1000,1000,52228267,1578,1579,1579,1578
42926156,1000,1000,1000,1000,52328227,1578,1578,1578,1578
42928655,1000,1000,1000,1000,52428187,1578,1578,1578,1579
42931154,1000,1000,1000,1000,52528980,1579,1579,1579,1580
42933653,1000,1000,1000,1000,52628940,1578,1578,1579,1579
42936152,1000,1000,1000,1000,52728900,1579,1579,1580,1579
42938651,1000,1000,1000,1000,52828860,1578,1579,1579,1579
42941150,1000,1000,1000,1000,52928820,1578,1579,1579,1579
42943649,1000,1000,1000,1000,53028780,1579,1579,1580,1579
42946148,1000,1000,1000,1000,53128740,1580,1579,1580,1580
42948647,1000,1000,1000,1000,53228700,1579,1579,1579,1579
42951146,1000,1000,1000,1000,53328660,1581,1580,1580,1580
42953645,1000,1000,1000,1000,53428620,1580,1580,1580,1580
42956144,1000,1000,1000,1000,53528580,1580,1581,1580,1580
42958643,1000,1000,1000,1000,53628540,1580,1580,1580,1579
42961142,1000,1000,1000,1000,53728500,1580,1580,1579,1580
42963641,1000,1000,1000,1000,53828460,1581,1580,1580,1580
42966140,1000,1000,1000,1000,53928420,1580,1580,1580,1580
42968639,1000,1000,1000,1000,54028380,1580,1580,1580,1579
42971138,1000,1000,1000,1000,54128340,1580,1580,1580,1581
42973637,1000,1000,1000,1000,54228300,1581,1581,1581,1581
42976136,1000,1000,1000,1000,54328260,1581,1581,1581,1581
42978635,1000,1000,1000,1000,54428220,1580,1580,1581,1581
42981134,1000,1000,1000,1000,54528180,1581,1581,1582,1582
42983633,1000,1000,1000,1000,54628973,1580,1580,1581,1581
42986132,1000,1000,1000,1000,54728933,1581,1581,1581,1581
42988631,1000,1000,1000,1000,54828893,1581,1581,1581,1581
42991130,1000,1000,1000,1000,54928853,1581,1581,1581,1581
42993629,1000,1000,1000,1000,55028813,1581,1581,1581,1581
42996128,1000,1000,1000,1000,55128773,1581,1581,1582,1579
42998627,1000,1000,1000,1000,55228733,1581,1582,1588,1573
43001126,1000,1000,1000,1000,55328693,1581,1584,1584,1575
43003625,1000,1000,1000,1000,55428653,1579,1582,1576,1575
43006124,1000,1000,1000,1000,55528613,1577,1580,1566,1571
43008623,1000,1000,1000,1000,55628573,1578,1579,1561,1568
43011122,1000,1000,1000,1000,55728533,1578,1578,1557,1562
43013621,1000,1000,1000,1000,55828493,1579,1578,1556,1559
43016120,1000,1000,1000,1000,55928453,1579,1578,1556,1556
43018619,1000,1000,1000,1000,56028413,1579,1577,1556,1554
43021118,1000,1000,1000,1000,56128373,1578,1577,1556,1553
43023617,1000,1000,1000,1000,56228333,1576,1577,1556,1553
43026116,1000,1000,1000,1000,56328293,1575,1576,1555,1554
43028615,1000,1000,1000,1000,56428253,1573,1575,1553,1553
43031114,1000,1000,1000,1000,56528213,1574,1576,1552,1553
43033613,1000,1000,1000,1000,56628173,1574,1575,1550,1550
43036112,1000,1000,1000,1000,56728966,1576,1576,1548,1548
43038611,1000,1000,1000,1000,56828926,1578,1579,1547,1546
43041110,1000,1000,1000,1000,56928886,1581,1582,1545,1544
43043609,1000,1000,1000,1000,57028846,1583,1585,1542,1541
43046108,1000,1000,1000,1000,57128806,1587,1588,1539,1539
43048607,1000,1000,1000,1000,57228766,1590,1591,1537,1537
43051106,1000,1000,1000,1000,57328726,1593,1592,1534,1535
43053605,1000,1000,1000,1000,57428686,1595,1594,1534,1535
43056104,1000,1000,1000,1000,57528646,1595,1594,1534,1536
43058603,1000,1000,1000,1000,57628606,1594,1594,1536,1538
43061102,1000,1000,1000,1000,57728566,1592,1591,1539,1542
43063601,1000,1000,1000,1000,57828526,1588,1586,1545,1549
43066100,1000,1000,1000,1000,57928486,1581,1579,1554,1557
43068599,1000,1000,1000,1000,58028446,1574,1570,1565,1567
43071098,1000,1000,1000,1000,58128406,1563,1559,1577,1579
43073597,1000,1000,1000,1000,58228366,1552,1548,1589,1590
43076096,1000,1000,1000,1000,58328326,1541,1539,1600,1600
43078595,1000,1000,1000,1000,58428286,1533,1533,1609,1608
43081094,1000,1000,1000,1000,58528246,1529,1530,1614,1613
43083593,1000,1000,1000,1000,58628206,1528,1530,1615,1614
43086092,1000,1000,1000,1000,58728166,1291,1293,1614,1613
43088591,1000,1000,1000,1000,58828959,1382,1388,1657,1662
43091090,1000,1000,1000,1000,58928919,1442,1450,1650,1651
43093589,1000,1000,1000,1000,59028879,1498,1505,1630,1625
43096088,1000,1000,1000,1000,59128839,1548,1552,1607,1600
43098587,1000,1000,1000,1000,59228799,1585,1583,1590,1583
43101086,1000,1000,1000,1000,59328759,1609,1603,1581,1578
43103585,1000,1000,1000,1000,59428719,1624,1614,1576,1576
43106084,1000,1000,1000,1000,59528679,1641,1631,1558,1562
43108583,1000,1000,1000,1000,59628639,1658,1652,1533,1540
43111082,1000,1000,1000,1000,59728599,1662,1658,1527,1536
43113581,1000,1000,1000,1000,59828559,1651,1653,1535,1541
43116080,1000,1000,1000,1000,59928519,1639,1644,1544,1546
43118579,1000,1000,1000,1000,60028479,1628,1635,1552,1551
43121078,1000,1000,1000,1000,60128439,1622,1626,1559,1556
43123577,1000,1000,1000,1000,60228399,1617,1618,1564,1560
43126076,1000,1000,1000,1000,60328359,1613,1609,1567,1564
43128575,1000,1000,1000,1000,60428319,1602,1594,1578,1577
43131074,1000,1000,1000,1000,60528279,1584,1576,1593,1594
43133573,1000,1000,1000,1000,60628239,1565,1560,1605,1607
43136072,1000,1000,1000,1000,60728199,1551,1552,1609,1610
43138571,1000,1000,1000,1000,60828159,1546,1551,1608,1609
43141070,1000,1000,1000,1000,60928952,1545,1552,1605,1605
43143569,1000,1000,1000,1000,61028912,1549,1556,1603,1600
43146068,1000,1000,1000,1000,61128872,1555,1560,1599,1595
43148567,1000,1000,1000,1000,61228832,1562,1564,1594,1590
43151066,1000,1000,1000,1000,61328792,1568,1567,1589,1586
43153565,1000,1000,1000,1000,61428752,1573,1571,1583,1583
43156064,1000,1000,1000,1000,61528712,1577,1574,1578,1579
43158563,1000,1000,1000,1000,61628672,1580,1578,1576,1577
43161062,1000,1000,1000,1000,61728632,1583,1582,1573,1574
43163561,1000,1000,1000,1000,61828592,1588,1588,1567,1567
43166060,1000,1000,1000,1000,61928552,1592,1593,1562,1563
43168559,1000,1000,1000,1000,62028512,1596,1596,1562,1562
43171058,1000,1000,1000,1000,62128472,1596,1596,1562,1562
43173557,1000,1000,1000,1000,62228432,1595,1595,1565,1565
43176056,1000,1000,1000,1000,62328392,1592,1591,1570,1570
43178555,1000,1000,1000,1000,62428352,1588,1587,1575,1575
43181054,1000,1000,1000,1000,62528312,1583,1582,1579,1580
43183553,1000,1000,1000,1000,62628272,1579,1579,1582,1584
43186052,1000,1000,1000,1000,62728232,1576,1577,1584,1584
43188551,1000,1000,1000,1000,62828192,1576,1577,1584,1584
43191050,1000,1000,1000,1000,62928985,1576,1577,1583,1584
43193549,1000,1000,1000,1000,63028945,1576,1577,1583,1582
43196048,1000,1000,1000,1000,63128905,1577,1578,1583,1582
43198547,1000,1000,1000,1000,63228865,1580,1578,1589,1576
43201046,1000,1000,1000,1000,63328825,1581,1576,1586,1574
43203545,1000,1000,1000,1000,63428785,1580,1576,1576,1574
43206044,1000,1000,1000,1000,63528745,1578,1576,1567,1571
43208543,1000,1000,1000,1000,63628705,1576,1577,1562,1568
43211042,1000,1000,1000,1000,63728665,1573,1578,1558,1562
43213541,1000,1000,1000,1000,63828625,1573,1578,1558,1558
43216040,1000,1000,1000,1000,63928585,1574,1578,1558,1556
43218539,1000,1000,1000,1000,64028545,1575,1577,1557,1554
43221038,1000,1000,1000,1000,64128505,1576,1576,1556,1553
43223537,1000,1000,1000,1000,64228465,1577,1576,1555,1553
43226036,1000,1000,1000,1000,64328425,1576,1575,1552,1552
43228535,1000,1000,1000,1000,64428385,1576,1575,1551,1551
43231034,1000,1000,1000,1000,64528345,1575,1575,1547,1549
43233533,1000,1000,1000,1000,64628305,1575,1576,1546,1547
43236032,1000,1000,1000,1000,64728265,1575,1577,1544,1544
43238531,1000,1000,1000,1000,64828225,1576,1578,1543,1542
43241030,1000,1000,1000,1000,64928185,1577,1579,1541,1540
43243529,1000,1000,1000,1000,65028978,1580,1581,1540,1539
43246028,1000,1000,1000,1000,65128938,1583,1583,1539,1538
43248527,1000,1000,1000,1000,65228898,1585,1585,1537,1537
43251026,1000,1000,1000,1000,65328858,1587,1587,1536,1536
43253525,1000,1000,1000,1000,65428818,1588,1588,1535,1537
43256024,1000,1000,1000,1000,65528778,1589,1588,1536,1538
43258523,1000,1000,1000,1000,65628738,1588,1588,1537,1541
43261022,1000,1000,1000,1000,65728698,1587,1586,1541,1544
43263521,1000,1000,1000,1000,65828658,1585,1585,1547,1550
43266020,1000,1000,1000,1000,65928618,1581,1580,1552,1555
43268519,1000,1000,1000,1000,66028578,1576,1574,1557,1560
43271018,1000,1000,1000,1000,66128538,1570,1569,1564,1567
43273517,1000,1000,1000,1000,66228498,1565,1563,1570,1573
43276016,1000,1000,1000,1000,66328458,1558,1557,1577,1579
43278515,1000,1000,1000,1000,66428418,1552,1551,1582,1583
43281014,1000,1000,1000,1000,66528378,1548,1547,1589,1589
43283513,1000,1000,1000,1000,66628338,1544,1543,1595,1594
43286012,1000,1000,1000,1000,66728298,1541,1540,1600,1599
43288511,1000,1000,1000,1000,66828258,1538,1539,1603,1602
43291010,1000,1000,1000,1000,66928218,1537,1538,1605,1604
43293509,1000,1000,1000,1000,67028178,1538,1539,1604,1603
43296008,1000,1000,1000,1000,67128971,1541,1543,1601,1602
43298507,1000,1000,1000,1000,67228931,1546,1547,1596,1597
43301006,1000,1000,1000,1000,67328891,1553,1554,1592,1592
43303505,1000,1000,1000,1000,67428851,1560,1561,1586,1586
43306004,1000,1000,1000,1000,67528811,1568,1568,1581,1581
43308503,1000,1000,1000,1000,67628771,1573,1573,1577,1575
43311002,1000,1000,1000,1000,67728731,1579,1578,1575,1573
43313501,1000,1000,1000,1000,67828691,1582,1581,1572,1571
43316000,1000,1000,1000,1000,67928651,1584,1582,1570,1570
43318499,1000,1000,1000,1000,68028611,1585,1584,1570,1570
43320998,1000,1000,1000,1000,68128571,1585,1584,1570,1571
43323497,1000,1000,1000,1000,68228531,1585,1585,1571,1572
43325996,1000,1000,1000,1000,68328491,1584,1584,1572,1572
43328495,1000,1000,1000,1000,68428451,1583,1583,1572,1573
43330994,1000,1000,1000,1000,68528411,1583,1583,1575,1575
43333493,1000,1000,1000,1000,68628371,1582,1582,1576,1576
43335992,1000,1000,1000,1000,68728331,1580,1581,1577,1576
43338491,1000,1000,1000,1000,68828291,1581,1581,1579,1578
43340990,1000,1000,1000,1000,68928251,1579,1580,1579,1579
43343489,1000,1000,1000,1000,69028211,1578,1578,1579,1579
43345988,1000,1000,1000,1000,69128171,1577,1577,1579,1579
43348487,1000,1000,1000,1000,69228964,1576,1577,1579,1579
43350986,1000,1000,1000,1000,69328924,1577,1577,1580,1580
43353485,1000,1000,1000,1000,69428884,1577,1577,1581,1580
43355984,1000,1000,1000,1000,69528844,1576,1577,1580,1580
43358483,1000,1000,1000,1000,69628804,1577,1577,1581,1581
43360982,1000,1000,1000,1000,69728764,1577,1577,1580,1581
43363481,1000,1000,1000,1000,69828724,1578,1579,1581,1581
43365980,1000,1000,1000,1000,69928684,1579,1579,1581,1581
43368479,1000,1000,1000,1000,70028644,1579,1579,1580,1580
43370978,1000,1000,1000,1000,70128604,1580,1580,1580,1580
43373477,1000,1000,1000,1000,70228564,1580,1580,1579,1580
43375976,1000,1000,1000,1000,70328524,1580,1581,1579,1580
43378475,1000,1000,1000,1000,70428484,1581,1581,1580,1580
43380974,1000,1000,1000,1000,70528444,1581,1581,1580,1579
43383473,1000,1000,1000,1000,70628404,1581,1581,1579,1579
43385972,1000,1000,1000,1000,70728364,1582,1582,1580,1580
43388471,1000,1000,1000,1000,70828324,1582,1582,1581,1580
43390970,1000,1000,1000,1000,70928284,1582,1581,1580,1580
43393469,1000,1000,1000,1000,71028244,1581,1581,1579,1579
43395968,1000,1000,1000,1000,71128204,1581,1580,1579,1579
43398467,1000,1000,1000,1000,71228164,1580,1580,1579,1579
43400966,1000,1000,1000,1000,71328957,1580,1581,1580,1580
43403465,1000,1000,1000,1000,71428917,1580,1580,1580,1580
43405964,1000,1000,1000,1000,71528877,1581,1581,1581,1581
43408463,1000,1000,1000,1000,71628837,1580,1580,1580,1580
43410962,1000,1000,1000,1000,71728797,1580,1580,1581,1580
43413461,1000,1000,1000,1000,71828757,1580,1581,1581,1581
43415960,1000,1000,1000,1000,71928717,1581,1581,1582,1581
43418459,1000,1000,1000,1000,72028677,1581,1581,1587,1576
43420958,1000,1000,1000,1000,72128637,1581,1581,1588,1573
43423457,1000,1000,1000,1000,72228597,1581,1581,1580,1574
43425956,1000,1000,1000,1000,72328557,1578,1579,1569,1571
43428455,1000,1000,1000,1000,72428517,1576,1578,1562,1568
43430954,1000,1000,1000,1000,72528477,1576,1578,1558,1564
43433453,1000,1000,1000,1000,72628437,1576,1577,1555,1559
43435952,1000,1000,1000,1000,72728397,1577,1577,1555,1556
43438451,1000,1000,1000,1000,72828357,1578,1578,1556,1555
43440950,1000,1000,1000,1000,72928317,1577,1577,1556,1554
43443449,1000,1000,1000,1000,73028277,1577,1577,1556,1554
43445948,1000,1000,1000,1000,73128237,1577,1577,1556,1554
43448447,1000,1000,1000,1000,73228197,1786,1786,1521,1517
43450946,1000,1000,1000,1000,73328157,1724,1722,1492,1489
43453445,1000,1000,1000,1000,73428950,1669,1668,1501,1504
43455944,1000,1000,1000,1000,73528910,1613,1614,1521,1527
43458443,1000,1000,1000,1000,73628870,1564,1566,1544,1550
43460942,1000,1000,1000,1000,73728830,1533,1535,1558,1563
43463441,1000,1000,1000,1000,73828790,1517,1520,1564,1565
43465940,1000,1000,1000,1000,73928750,1513,1516,1564,1565
43468439,1000,1000,1000,1000,74028710,1517,1520,1563,1563
43470938,1000,1000,1000,1000,74128670,1525,1526,1560,1560
43473437,1000,1000,1000,1000,74228630,1530,1531,1559,1560
43475936,1000,1000,1000,1000,74328590,1536,1537,1559,1560
43478435,1000,1000,1000,1000,74428550,1545,1546,1556,1557
43480934,1000,1000,1000,1000,74528510,1556,1556,1552,1552
43483433,1000,1000,1000,1000,74628470,1565,1564,1549,1550
43485932,1000,1000,1000,1000,74728430,1571,1569,1550,1550
43488431,1000,1000,1000,1000,74828390,1575,1573,1553,1554
43490930,1000,1000,1000,1000,74928350,1576,1573,1558,1558
43493429,1000,1000,1000,1000,75028310,1575,1571,1565,1565
43495928,1000,1000,1000,1000,75128270,1573,1568,1573,1572
43498427,1000,1000,1000,1000,75228230,1568,1565,1581,1579
43500926,1000,1000,1000,1000,75328190,1563,1562,1588,1586
43503425,1000,1000,1000,1000,75428983,1559,1559,1593,1591
43505924,1000,1000,1000,1000,75528943,1555,1555,1598,1597
43508423,1000,1000,1000,1000,75628903,1548,1549,1604,1603
43510922,1000,1000,1000,1000,75728863,1544,1545,1609,1609
43513421,1000,1000,1000,1000,75828823,1543,1545,1610,1611
43515920,1000,1000,1000,1000,75928783,1546,1546,1608,1609
43518419,1000,1000,1000,1000,76028743,1551,1552,1603,1603
43520918,1000,1000,1000,1000,76128703,1559,1559,1595,1595
43523417,1000,1000,1000,1000,76228663,1565,1566,1587,1587
43525916,1000,1000,1000,1000,76328623,1570,1571,1582,1582
43528415,1000,1000,1000,1000,76428583,1574,1574,1580,1580
43530914,1000,1000,1000,1000,76528543,1575,1575,1578,1578
43533413,1000,1000,1000,1000,76628503,1578,1577,1578,1577
43535912,1000,1000,1000,1000,76728463,1579,1578,1577,1577
43538411,1000,1000,1000,1000,76828423,1579,1578,1577,1576
43540910,1000,1000,1000,1000,76928383,1577,1577,1576,1575
43543409,1000,1000,1000,1000,77028343,1578,1577,1575,1576
43545908,1000,1000,1000,1000,77128303,1578,1578,1576,1576
43548407,1000,1000,1000,1000,77228263,1577,1577,1576,1575
43550906,1000,1000,1000,1000,77328223,1578,1578,1576,1576
43553405,1000,1000,1000,1000,77428183,1578,1578,1577,1577
43555904,1000,1000,1000,1000,77528976,1578,1578,1576,1577
43558403,1000,1000,1000,1000,77628936,1577,1576,1576,1576
43560902,1000,1000,1000,1000,77728896,1578,1577,1577,1577
43563401,1000,1000,1000,1000,77828856,1577,1578,1577,1577
43565900,1000,1000,1000,1000,77928816,1578,1578,1578,1578
43568399,1000,1000,1000,1000,78028776,1577,1578,1578,1578
43570898,1000,1000,1000,1000,78128736,1577,1578,1579,1578
43573397,1000,1000,1000,1000,78228696,1578,1578,1578,1579
43575896,1000,1000,1000,1000,78328656,1578,1578,1578,1579
43578395,1000,1000,1000,1000,78428616,1578,1578,1578,1579
43580894,1000,1000,1000,1000,78528576,1579,1578,1579,1579
43583393,1000,1000,1000,1000,78628536,1578,1578,1578,1578
43585892,1000,1000,1000,1000,78728496,1579,1579,1579,1579
43588391,1000,1000,1000,1000,78828456,1579,1579,1580,1579
43590890,1000,1000,1000,1000,78928416,1578,1579,1579,1578
43593389,1000,1000,1000,1000,79028376,1578,1578,1578,1579
43595888,1000,1000,1000,1000,79128336,1579,1579,1579,1580
43598387,1000,1000,1000,1000,79228296,1580,1580,1579,1580
43600886,1000,1000,1000,1000,79328256,1580,1580,1580,1580
43603385,1000,1000,1000,1000,79428216,1580,1580,1580,1580
43605884,1000,1000,1000,1000,79528176,1580,1580,1580,1580
43608383,1000,1000,1000,1000,79628969,1580,1580,1580,1580
43610882,1000,1000,1000,1000,79728929,1581,1581,1581,1580
43613381,1000,1000,1000,1000,79828889,1580,1580,1579,1580
43615880,1000,1000,1000,1000,79928849,1580,1580,1580,1580
43618379,1000,1000,1000,1000,80028809,1581,1581,1581,1581
43620878,1000,1000,1000,1000,80128769,1580,1580,1580,1580
43623377,1000,1000,1000,1000,80228729,1581,1582,1582,1578
43625876,1000,1000,1000,1000,80328689,1581,1583,1587,1572
43628375,1000,1000,1000,1000,80428649,1579,1582,1583,1573
43630874,1000,1000,1000,1000,80528609,1576,1579,1576,1576
43633373,1000,1000,1000,1000,80628569,1573,1574,1569,1575
43635872,1000,1000,1000,1000,80728529,1572,1570,1566,1573
43638371,1000,1000,1000,1000,80828489,1570,1568,1565,1570
43640870,1000,1000,1000,1000,80928449,1569,1566,1565,1568
43643369,1000,1000,1000,1000,81028409,1568,1566,1566,1566
43645868,1000,1000,1000,1000,81128369,1566,1565,1566,1564
43648367,1000,1000,1000,1000,81228329,1565,1566,1567,1564
43650866,1000,1000,1000,1000,81328289,1564,1565,1567,1564
43653365,1000,1000,1000,1000,81428249,1563,1564,1565,1564
43655864,1000,1000,1000,1000,81528209,1564,1565,1565,1565
43658363,1000,1000,1000,1000,81628169,1561,1561,1562,1563
43660862,1000,1000,1000,1000,81728962,1561,1561,1562,1562
43663361,1000,1000,1000,1000,81828922,1561,1561,1562,1562
43665860,1000,1000,1000,1000,81928882,1562,1561,1561,1562
43668359,1000,1000,1000,1000,82028842,1560,1560,1560,1560
43670858,1000,1000,1000,1000,82128802,1561,1560,1561,1560
43673357,1000,1000,1000,1000,82228762,1559,1559,1560,1558
43675856,1000,1000,1000,1000,82328722,1558,1558,1559,1558
43678355,1000,1000,1000,1000,82428682,1556,1557,1557,1555
43680854,1000,1000,1000,1000,82528642,1553,1554,1554,1553
43683353,1000,1000,1000,1000,82628602,1554,1553,1548,1559
43685852,1000,1000,1000,1000,82728562,1556,1554,1557,1552
43688351,1000,1000,1000,1000,82828522,1551,1553,1561,1542
43690850,1000,1000,1000,1000,82928482,1547,1551,1553,1545
43693349,1000,1000,1000,1000,83028442,1543,1546,1544,1546
43695848,1000,1000,1000,1000,83128402,1538,1538,1534,1543
43698347,1000,1000,1000,1000,83228362,1534,1533,1528,1538
43700846,1000,1000,1000,1000,83328322,1527,1525,1522,1530
43703345,1000,1000,1000,1000,83428282,1524,1522,1521,1525
43705844,1000,1000,1000,1000,83528242,1523,1521,1522,1522
43708343,1000,1000,1000,1000,83628202,1523,1522,1523,1522
43710842,1000,1000,1000,1000,83728162,1525,1524,1525,1524
43713341,1000,1000,1000,1000,83828955,1527,1528,1529,1527
43715840,1000,1000,1000,1000,83928915,1531,1532,1532,1532
43718339,1000,1000,1000,1000,84028875,1536,1537,1536,1538
43720838,1000,1000,1000,1000,84128835,1540,1540,1540,1541
43723337,1000,1000,1000,1000,84228795,1543,1543,1543,1543
43725836,1000,1000,1000,1000,84328755,1544,1544,1544,1545
43728335,1000,1000,1000,1000,84428715,1546,1545,1546,1546
43730834,1000,1000,1000,1000,84528675,1547,1546,1547,1547
43733333,1000,1000,1000,1000,84628635,1547,1547,1547,1547
43735832,1000,1000,1000,1000,84728595,1546,1547,1547,1547
43738331,1000,1000,1000,1000,84828555,1547,1547,1547,1547
43740830,1000,1000,1000,1000,84928515,1546,1547,1547,1546
43743329,1000,1000,1000,1000,85028475,1546,1546,1546,1546
43745828,1000,1000,1000,1000,85128435,1545,1545,1545,1544
43748327,1000,1000,1000,1000,85228395,1545,1545,1545,1545
43750826,1000,1000,1000,1000,85328355,1546,1546,1546,1545
43753325,1000,1000,1000,1000,85428315,1546,1545,1545,1545
43755824,1000,1000,1000,1000,85528275,1545,1545,1545,1545
43758323,1000,1000,1000,1000,85628235,1545,1545,1545,1545
43760822,1000,1000,1000,1000,85728195,1545,1544,1545,1545
43763321,1000,1000,1000,1000,85828155,1545,1545,1545,1545
43765820,1000,1000,1000,1000,85928948,1544,1544,1544,1544
43768319,1000,1000,1000,1000,86028908,1544,1544,1544,1544
43770818,1000,1000,1000,1000,86128868,1543,1544,1544,1544
43773317,1000,1000,1000,1000,86228828,1544,1544,1544,1544
43775816,1000,1000,1000,1000,86328788,1544,1544,1544,1544
43778315,1000,1000,1000,1000,86428748,1545,1544,1544,1544
43780814,1000,1000,1000,1000,86528708,1545,1545,1545,1545
43783313,1000,1000,1000,1000,86628668,1545,1544,1545,1544
43785812,1000,1000,1000,1000,86728628,1544,1544,1544,1544
43788311,1000,1000,1000,1000,86828588,1545,1545,1545,1545
43790810,1000,1000,1000,1000,86928548,1545,1545,1545,1545
43793309,1000,1000,1000,1000,87028508,1545,1544,1545,1544
43795808,1000,1000,1000,1000,87128468,1544,1544,1544,1544
43798307,1000,1000,1000,1000,87228428,1545,1545,1545,1545
43800806,1000,1000,1000,1000,87328388,1545,1545,1545,1545
43803305,1000,1000,1000,1000,87428348,1544,1545,1544,1544
43805804,1000,1000,1000,1000,87528308,1544,1543,1544,1544
43808303,1000,1000,1000,1000,87628268,1544,1543,1544,1544
43810802,1000,1000,1000,1000,87728228,1544,1543,1544,1544
43813301,1000,1000,1000,1000,87828188,1544,1544,1545,1544
43815800,1000,1000,1000,1000,87928981,1544,1544,1544,1544
43818299,1000,1000,1000,1000,88028941,1543,1543,1543,1542
43820798,1000,1000,1000,1000,88128901,1544,1544,1544,1544
43823297,1000,1000,1000,1000,88228861,1543,1543,1543,1543
43825796,1000,1000,1000,1000,88328821,1544,1544,1544,1544
43828295,1000,1000,1000,1000,88428781,1544,1544,1544,1545
43830794,1000,1000,1000,1000,88528741,1544,1544,1544,1545
43833293,1000,1000,1000,1000,88628701,1544,1544,1544,1544
43835792,1000,1000,1000,1000,88728661,1543,1543,1543,1543
43838291,1000,1000,1000,1000,88828621,1544,1543,1544,1543
43840790,1000,1000,1000,1000,88928581,1544,1543,1544,1544
43843289,1000,1000,1000,1000,89028541,1545,1545,1545,1545
43845788,1000,1000,1000,1000,89128501,1544,1544,1544,1544
43848287,1000,1000,1000,1000,89228461,1543,1544,1544,1543
43850786,1000,1000,1000,1000,89328421,1544,1543,1544,1544
43853285,1000,1000,1000,1000,89428381,1544,1544,1544,1545
43855784,1000,1000,1000,1000,89528341,1544,1544,1544,1544
43858283,1000,1000,1000,1000,89628301,1544,1544,1544,1544
43860782,1000,1000,1000,1000,89728261,1545,1544,1544,1545
43863281,1000,1000,1000,1000,89828221,1544,1545,1545,1544
43865780,1000,1000,1000,1000,89928181,1544,1544,1544,1544
43868279,1000,1000,1000,1000,90028974,1545,1545,1545,1545
43870778,1000,1000,1000,1000,90128934,1544,1544,1544,1544
43873277,1000,1000,1000,1000,90228894,1545,1544,1544,1545
43875776,1000,1000,1000,1000,90328854,1544,1543,1544,1544
43878275,1000,1000,1000,1000,90428814,1545,1544,1544,1544
43880774,1000,1000,1000,1000,90528774,1545,1545,1545,1545
43883273,1000,1000,1000,1000,90628734,1544,1544,1544,1544
43885772,1000,1000,1000,1000,90728694,1544,1545,1545,1545
43888271,1000,1000,1000,1000,90828654,1544,1544,1544,1544
43890770,1000,1000,1000,1000,90928614,1544,1544,1544,1544
43893269,1000,1000,1000,1000,91028574,1544,1544,1544,1544
43895768,1000,1000,1000,1000,91128534,1544,1544,1545,1545
43898267,1000,1000,1000,1000,91228494,1544,1544,1544,1544
43900766,1000,1000,1000,1000,91328454,1543,1543,1543,1544
43903265,1000,1000,1000,1000,91428414,1543,1544,1543,1543
43905764,1000,1000,1000,1000,91528374,1544,1544,1544,1544
43908263,1000,1000,1000,1000,91628334,1544,1544,1544,1544
43910762,1000,1000,1000,1000,91728294,1544,1544,1543,1544
43913261,1000,1000,1000,1000,91828254,1543,1543,1543,1543
43915760,1000,1000,1000,1000,91928214,1544,1544,1544,1544
43918259,1000,1000,1000,1000,92028174,1544,1544,1544,1544
43920758,1000,1000,1000,1000,92128967,1545,1543,1544,1544
43923257,1000,1000,1000,1000,92228927,1544,1544,1544,1545
43925756,1000,1000,1000,1000,92328887,1544,1544,1544,1544
43928255,1000,1000,1000,1000,92428847,1544,1544,1544,1543
43930754,1000,1000,1000,1000,92528807,1544,1544,1544,1544
43933253,1000,1000,1000,1000,92628767,1543,1544,1544,1544
43935752,1000,1000,1000,1000,92728727,1543,1543,1543,1543
43938251,1000,1000,1000,1000,92828687,1544,1544,1544,1544
43940750,1000,1000,1000,1000,92928647,1544,1544,1544,1544
43943249,1000,1000,1000,1000,93028607,1543,1543,1544,1543
43945748,1000,1000,1000,1000,93128567,1387,1385,1387,1387
43948247,1000,1000,1000,1000,93228527,1261,1258,1260,1262
43950746,1000,1000,1000,1000,93328487,1216,1213,1216,1218
43953245,1000,1000,1000,1000,93428447,1196,1194,1198,1199
43955744,1000,1000,1000,1000,93528407,1155,1151,1156,1157
43958243,1000,1000,1000,1000,93628367,1152,1150,1155,1156
43960742,1000,1000,1000,1000,93728327,1153,1150,1156,1157
43963241,1000,1000,1000,1000,93828287,1182,1150,1156,1187
43965740,1000,1000,1000,1000,93928247,1174,1150,1158,1179
43968239,1000,1000,1000,1000,94028207,1172,1150,1159,1177
43970738,1000,1000,1000,1000,94128167,1173,1150,1160,1178
43973237,1000,1000,1000,1000,94228960,1175,1150,1161,1180
43975736,1000,1000,1000,1000,94328920,1177,1150,1161,1183
43978235,1000,1000,1000,1000,94428880,1178,1150,1162,1185
43980734,1000,1000,1000,1000,94528840,1180,1150,1162,1187
43983233,1000,1000,1000,1000,94628800,1166,1150,1162,1174
43985732,1000,1000,1000,1000,94728760,1167,1150,1163,1176
43988231,1000,1000,1000,1000,94828720,1168,1150,1163,1177
43990730,1000,1000,1000,1000,94928680,1169,1150,1164,1179
43993229,1000,1000,1000,1000,95028640,1169,1150,1165,1180
43995728,1000,1000,1000,1000,95128600,1000,1000,1000,1000
43998227,1000,1000,1000,1000,95228560,1000,1000,1000,1000
44000726,1000,1000,1000,1000,95328520,1000,1000,1000,1000
44003225,1000,1000,1000,1000,95428480,1000,1000,1000,1000
44005724,1000,1000,1000,1000,95528440,1000,1000,1000,1000
44008223,1000,1000,1000,1000,95628400,1000,1000,1000,1000
44010722,1000,1000,1000,1000,95728360,1000,1000,1000,1000
44013221,1000,1000,1000,1000,95828320,1000,1000,1000,1000
44015720,1000,1000,1000,1000,95928280,1000,1000,1000,1000
44018219,1000,1000,1000,1000,96028240,1000,1000,1000,1000
44020718,1000,1000,1000,1000,96128200,1000,1000,1000,1000
44023217,1000,1000,1000,1000,96228160,1000,1000,1000,1000
44025716,1000,1000,1000,1000,96328953,1000,1000,1000,1000
44028215,1000,1000,1000,1000,96428913,1000,1000,1000,1000
44030714,1000,1000,1000,1000,96528873,1000,1000,1000,1000
44033213,1000,1000,1000,1000,96628833,1000,1000,1000,1000
44035712,1000,1000,1000,1000,96728793,1000,1000,1000,1000
44038211,1000,1000,1000,1000,96828753,1000,1000,1000,1000
44040710,1000,1000,1000,1000,96928713,1000,1000,1000,1000
44043209,1000,1000,1000,1000,97028673,1000,1000,1000,1000
44045708,1000,1000,1000,1000,97128633,1000,1000,1000,1000
44048207,1000,1000,1000,1000,97228593,1000,1000,1000,1000
44050706,1000,1000,1000,1000,97328553,1000,1000,1000,1000
44053205,1000,1000,1000,1000,97428513,1000,1000,1000,1000
44055704,1000,1000,1000,1000,97528473,1000,1000,1000,1000
44058203,1000,1000,1000,1000,97628433,1000,1000,1000,1000
44060702,1000,1000,1000,1000,97728393,1000,1000,1000,1000
44063201,1000,1000,1000,1000,97828353,1000,1000,1000,1000
44065700,1000,1000,1000,1000,97928313,1000,1000,1000,1000
44068199,1000,1000,1000,1000,98028273,1000,1000,1000,1000
44070698,1000,1000,1000,1000,98128233,1000,1000,1000,1000
44073197,1000,1000,1000,1000,98228193,1000,1000,1000,1000
44075696,1000,1000,1000,1000,98328986,1000,1000,1000,1000
44078195,1000,1000,1000,1000,98428946,1000,1000,1000,1000
44080694,1000,1000,1000,1000,98528906,1000,1000,1000,1000
44083193,1000,1000,1000,1000,98628866,1000,1000,1000,1000
44085692,1000,1000,1000,1000,98728826,1000,1000,1000,1000
44088191,1000,1000,1000,1000,98828786,1000,1000,1000,1000
44090690,1000,1000,1000,1000,98928746,1000,1000,1000,1000
44093189,1000,1000,1000,1000,99028706,1000,1000,1000,1000
44095688,1000,1000,1000,1000,99128666,1000,1000,1000,1000
44098187,1000,1000,1000,1000,99228626,1000,1000,1000,1000
44100686,1000,1000,1000,1000,99328586,1000,1000,1000,1000
44103185,1000,1000,1000,1000,99428546,1000,1000,1000,1000
44105684,1000,1000,1000,1000,99528506,1000,1000,1000,1000
44108183,1000,1000,1000,1000,99628466,1000,1000,1000,1000
44110682,1000,1000,1000,1000,99728426,1000,1000,1000,1000
44113181,1000,1000,1000,1000,99828386,1000,1000,1000,1000
44115680,1000,1000,1000,1000,99928346,1000,1000,1000,1000
44118179,1000,1000,1000,1000,100028306,1000,1000,1000,1000
44120678,1000,1000,1000,1000,100128266,1000,1000,1000,1000
44123177,1000,1000,1000,1000,100228226,1000,1000,1000,1000
44125676,1000,1000,1000,1000,100328186,1000,1000,1000,1000
44128175,1000,1000,1000,1000,100428979,1000,1000,1000,1000
44130674,1000,1000,1000,1000,100528939,1000,1000,1000,1000
44133173,1000,1000,1000,1000,100628899,1000,1000,1000,1000
44135672,1000,1000,1000,1000,100728859,1000,1000,1000,1000
44138171,1000,1000,1000,1000,100828819,1000,1000,1000,1000
44140670,1000,1000,1000,1000,100928779,1000,1000,1000,1000
44143169,1000,1000,1000,1000,101028739,1000,1000,1000,1000
44145668,1000,1000,1000,1000,101128699,1000,1000,1000,1000
44148167,1000,1000,1000,1000,101228659,1000,1000,1000,1000
44150666,1000,1000,1000,1000,101328619,1000,1000,1000,1000
44153165,1000,1000,1000,1000,101428579,1000,1000,1000,1000
44155664,1000,1000,1000,1000,101528539,1000,1000,1000,1000
44158163,1000,1000,1000,1000,101628499,1000,1000,1000,1000
44160662,1000,1000,1000,1000,101728459,1000,1000,1000,1000
44163161,1000,1000,1000,1000,101828419,1000,1000,1000,1000
44165660,1000,1000,1000,1000,101928379,1000,1000,1000,1000
44168159,1000,1000,1000,1000,102028339,1000,1000,1000,1000
44170658,1000,1000,1000,1000,102128299,1000,1000,1000,1000
44173157,1000,1000,1000,1000,102228259,1000,1000,1000,1000
44175656,1000,1000,1000,1000,102328219,1000,1000,1000,1000
44178155,1000,1000,1000,1000,102428179,1000,1000,1000,1000
44180654,1000,1000,1000,1000,102528972,1000,1000,1000,1000
44183986,1000,1000,1000,1000,102628932,1000,1000,1000,1000
44186485,1000,1000,1000,1000,102728892,1000,1000,1000,1000
44188984,1000,1000,1000,1000,102828852,1000,1000,1000,1000
44191483,1000,1000,1000,1000,102928812,1000,1000,1000,1000
44193982,1000,1000,1000,1000,103028772,1000,1000,1000,1000
44196481,1000,1000,1000,1000,103128732,1000,1000,1000,1000
44198980,1000,1000,1000,1000,103228692,1000,1000,1000,1000
44201479,1000,1000,1000,1000,103328652,1000,1000,1000,1000
44203978,1000,1000,1000,1000,103428612,1000,1000,1000,1000
44206477,1000,1000,1000,1000,103528572,1000,1000,1000,1000
44208976,1000,1000,1000,1000,103628532,1000,1000,1000,1000
44211475,1000,1000,1000,1000,103728492,1000,1000,1000,1000
44213974,1000,1000,1000,1000,103828452,1000,1000,1000,1000
44216473,1000,1000,1000,1000,103928412,1000,1000,1000,1000
44218972,1000,1000,1000,1000,104028372,1000,1000,1000,1000
44221471,1000,1000,1000,1000,104128332,1000,1000,1000,1000
44223970,1000,1000,1000,1000,104228292,1000,1000,1000,1000
44226469,1000,1000,1000,1000,104328252,1000,1000,1000,1000
44228968,1000,1000,1000,1000,104428212,1000,1000,1000,1000
44231467,1000,1000,1000,1000,104528172,1000,1000,1000,1000
44233966,1000,1000,1000,1000,104628965,1000,1000,1000,1000
44236465,1000,1000,1000,1000,104728925,1000,1000,1000,1000
44238964,1000,1000,1000,1000,104828885,1000,1000,1000,1000
44241463,1000,1000,1000,1000,104928845,1000,1000,1000,1000
44243962,1000,1000,1000,1000,105028805,1000,1000,1000,1000
44246461,1000,1000,1000,1000,105128765,1000,1000,1000,1000
44248960,1000,1000,1000,1000,105228725,1000,1000,1000,1000
44251459,1000,1000,1000,1000,105328685,1000,1000,1000,1000
44253958,1000,1000,1000,1000,105428645,1000,1000,1000,1000
44256457,1000,1000,1000,1000,105528605,1000,1000,1000,1000
44258956,1000,1000,1000,1000,105628565,1000,1000,1000,1000
44261455,1000,1000,1000,1000,105728525,1000,1000,1000,1000
44263954,1000,1000,1000,1000,105828485,1000,1000,1000,1000
44266453,1000,1000,1000,1000,105928445,1000,1000,1000,1000
44268952,1000,1000,1000,1000,106028405,1000,1000,1000,1000
44271451,1000,1000,1000,1000,106128365,1000,1000,1000,1000
44273950,1000,1000,1000,1000,106228325,1000,1000,1000,1000
44276449,1000,1000,1000,1000,106328285,1000,1000,1000,1000
44278948,1000,1000,1000,1000,106428245,1000,1000,1000,1000
44281447,1000,1000,1000,1000,106528205,1000,1000,1000,1000
44283946,1000,1000,1000,1000,106628165,1000,1000,1000,1000
44286445,1000,1000,1000,1000,106728958,1000,1000,1000,1000
44288944,1000,1000,1000,1000,106828918,1000,1000,1000,1000
44291443,1000,1000,1000,1000,106928878,1000,1000,1000,1000
44293942,1000,1000,1000,1000,107028838,1000,1000,1000,1000
44296441,1000,1000,1000,1000,107128798,1000,1000,1000,1000
44298940,1000,1000,1000,1000,107228758,1000,1000,1000,1000
44301439,1000,1000,1000,1000,107328718,1000,1000,1000,1000
44303938,1000,1000,1000,1000,107428678,1000,1000,1000,1000
44306437,1000,1000,1000,1000,107528638,1000,1000,1000,1000
44308936,1000,1000,1000,1000,107628598,1000,1000,1000,1000
44311435,1000,1000,1000,1000,107728558,1000,1000,1000,1000
44313934,1000,1000,1000,1000,107828518,1000,1000,1000,1000
44316433,1000,1000,1000,1000,107928478,1000,1000,1000,1000
44318932,1000,1000,1000,1000,108028438,1000,1000,1000,1000
44321431,1000,1000,1000,1000,108128398,1000,1000,1000,1000
44323930,1000,1000,1000,1000,108228358,1000,1000,1000,1000
44326429,1000,1000,1000,1000,108328318,1000,1000,1000,1000
44328928,1000,1000,1000,1000,108428278,1000,1000,1000,1000
44331427,1000,1000,1000,1000,108528238,1000,1000,1000,1000
44333926,1000,1000,1000,1000,108628198,1000,1000,1000,1000
44336425,1000,1000,1000,1000,108728158,1000,1000,1000,1000
44338924,1000,1000,1000,1000,108828951,1000,1000,1000,1000
44341423,1000,1000,1000,1000,108928911,1000,1000,1000,1000
44343922,1000,1000,1000,1000,109028871,1000,1000,1000,1000
44346421,1000,1000,1000,1000,109128831,1000,1000,1000,1000
44348920,1000,1000,1000,1000,109228791,1000,1000,1000,1000
44351419,1000,1000,1000,1000,109328751,1000,1000,1000,1000
44353918,1000,1000,1000,1000,109428711,1000,1000,1000,1000
44356417,1000,1000,1000,1000,109528671,1000,1000,1000,1000
44358916,1000,1000,1000,1000,109628631,1000,1000,1000,1000
44361415,1000,1000,1000,1000,109728591,1000,1000,1000,1000
44363914,1000,1000,1000,1000,109828551,1000,1000,1000,1000
44366413,1000,1000,1000,1000,109928511,1000,1000,1000,1000
44368912,1000,1000,1000,1000,110028471,1000,1000,1000,1000
44371411,1000,1000,1000,1000,,,,,
44373910,1000,1000,1000,1000,,,,,
44376409,1000,1000,1000,1000,,,,,
44378908,1000,1000,1000,1000,,,,,
44381407,1000,1000,1000,1000,,,,,
44383906,1000,1000,1000,1000,,,,,
44386405,1000,1000,1000,1000,,,,,
44388904,1000,1000,1000,1000,,,,,
44391403,1000,1000,1000,1000,,,,,
44393902,1000,1000,1000,1000,,,,,
44396401,1000,1000,1000,1000,,,,,
44398900,1000,1000,1000,1000,,,,,
44401399,1000,1000,1000,1000,,,,,
44403898,1000,1000,1000,1000,,,,,
44406397,1000,1000,1000,1000,,,,,
44408896,1000,1000,1000,1000,,,,,
44411395,1000,1000,1000,1000,,,,,
44413894,1000,1000,1000,1000,,,,,
44416393,1000,1000,1000,1000,,,,,
44418892,1000,1000,1000,1000,,,,,
44421391,1000,1000,1000,1000,,,,,
44423890,1000,1000,1000,1000,,,,,
44426389,1000,1000,1000,1000,,,,,
44428888,1000,1000,1000,1000,,,,,
44431387,1000,1000,1000,1000,,,,,
44433886,1000,1000,1000,1000,,,,,
44436385,1000,1000,1000,1000,,,,,
44438884,1000,1000,1000,1000,,,,,
44441383,1000,1000,1000,1000,,,,,
44443882,1000,1000,1000,1000,,,,,
44446381,1000,1000,1000,1000,,,,,
44448880,1000,1000,1000,1000,,,,,
44451379,1000,1000,1000,1000,,,,,
44453878,1000,1000,1000,1000,,,,,
44456377,1000,1000,1000,1000,,,,,
44458876,1000,1000,1000,1000,,,,,
44461375,1000,1000,1000,1000,,,,,
44463874,1000,1000,1000,1000,,,,,
44466373,1000,1000,1000,1000,,,,,
44468872,1000,1000,1000,1000,,,,,
44471371,1000,1000,1000,1000,,,,,
44473870,1000,1000,1000,1000,,,,,
44476369,1000,1000,1000,1000,,,,,
44478868,1000,1000,1000,1000,,,,,
44481367,1000,1000,1000,1000,,,,,
44483866,1000,1000,1000,1000,,,,,
44486365,1000,1000,1000,1000,,,,,
44488864,1000,1000,1000,1000,,,,,
44491363,1000,1000,1000,1000,,,,,
44493862,1000,1000,1000,1000,,,,,
44496361,1000,1000,1000,1000,,,,,
44498860,1000,1000,1000,1000,,,,,
44501359,1000,1000,1000,1000,,,,,
44503858,1000,1000,1000,1000,,,,,
44506357,1000,1000,1000,1000,,,,,
44508856,1000,1000,1000,1000,,,,,
44511355,1000,1000,1000,1000,,,,,
44513854,1000,1000,1000,1000,,,,,
44516353,1000,1000,1000,1000,,,,,
44518852,1000,1000,1000,1000,,,,,
44521351,1000,1000,1000,1000,,,,,
44523850,1000,1000,1000,1000,,,,,
44526349,1000,1000,1000,1000,,,,,
44528848,1000,1000,1000,1000,,,,,
44531347,1000,1000,1000,1000,,,,,
44533846,1000,1000,1000,1000,,,,,
44536345,1000,1000,1000,1000,,,,,
44538844,1000,1000,1000,1000,,,,,
44541343,1000,1000,1000,1000,,,,,
44543842,1000,1000,1000,1000,,,,,
44546341,1000,1000,1000,1000,,,,,
44548840,1000,1000,1000,1000,,,,,
44551339,1000,1000,1000,1000,,,,,
44553838,1000,1000,1000,1000,,,,,
44556337,1000,1000,1000,1000,,,,,
44558836,1000,1000,1000,1000,,,,,
44561335,1000,1000,1000,1000,,,,,
44563834,1000,1000,1000,1000,,,,,
44566333,1000,1000,1000,1000,,,,,
44568832,1000,1000,1000,1000,,,,,
44571331,1000,1000,1000,1000,,,,,
44573830,1000,1000,1000,1000,,,,,
44576329,1000,1000,1000,1000,,,,,
44578828,1000,1000,1000,1000,,,,,
44581327,1000,1000,1000,1000,,,,,
44583826,1000,1000,1000,1000,,,,,
44586325,1000,1000,1000,1000,,,,,
44588824,1000,1000,1000,1000,,,,,
44591323,1000,1000,1000,1000,,,,,
44593822,1000,1000,1000,1000,,,,,
44596321,1000,1000,1000,1000,,,,,
44598820,1000,1000,1000,1000,,,,,
44601319,1000,1000,1000,1000,,,,,
44603818,1000,1000,1000,1000,,,,,
44606317,1000,1000,1000,1000,,,,,
44608816,1000,1000,1000,1000,,,,,
44611315,1000,1000,1000,1000,,,,,
44613814,1000,1000,1000,1000,,,,,
44616313,1000,1000,1000,1000,,,,,
44618812,1000,1000,1000,1000,,,,,
44621311,1000,1000,1000,1000,,,,,
44623810,1000,1000,1000,1000,,,,,
44626309,1000,1000,1000,1000,,,,,
44628808,1000,1000,1000,1000,,,,,
44631307,1000,1000,1000,1000,,,,,
44633806,1000,1000,1000,1000,,,,,
44636305,1000,1000,1000,1000,,,,,
44638804,1000,1000,1000,1000,,,,,
44641303,1000,1000,1000,1000,,,,,
44643802,1000,1000,1000,1000,,,,,
44646301,1000,1000,1000,1000,,,,,
44648800,1000,1000,1000,1000,,,,,
44651299,1000,1000,1000,1000,,,,,
44653798,1000,1000,1000,1000,,,,,
44656297,1000,1000,1000,1000,,,,,
44658796,1000,1000,1000,1000,,,,,
44661295,1000,1000,1000,1000,,,,,
44663794,1000,1000,1000,1000,,,,,
44666293,1000,1000,1000,1000,,,,,
44668792,1000,1000,1000,1000,,,,,
44671291,1000,1000,1000,1000,,,,,
44673790,1000,1000,1000,1000,,,,,
44676289,1000,1000,1000,1000,,,,,
44678788,1000,1000,1000,1000,,,,,
44681287,1000,1000,1000,1000,,,,,
44683786,1000,1000,1000,1000,,,,,
44686285,1000,1000,1000,1000,,,,,
44688784,1000,1000,1000,1000,,,,,
44691283,1000,1000,1000,1000,,,,,
44693782,1001,1001,1001,1001,,,,,
44696281,1002,1002,1002,1002,,,,,
44698780,1003,1003,1003,1003,,,,,
44701279,1003,1003,1003,1003,,,,,
44703778,1004,1004,1004,1004,,,,,
44706277,1005,1005,1005,1005,,,,,
44708776,1006,1006,1006,1006,,,,,
44711275,1006,1006,1006,1006,,,,,
44713774,1007,1007,1007,1007,,,,,
44716273,1008,1008,1008,1008,,,,,
44718772,1009,1009,1009,1009,,,,,
44721271,1009,1009,1009,1009,,,,,
44723770,1010,1010,1010,1010,,,,,
44726269,1011,1011,1011,1011,,,,,
44728768,1012,1012,1012,1012,,,,,
44731267,1012,1012,1012,1012,,,,,
44733766,1013,1013,1013,1013,,,,,
44736265,1014,1014,1014,1014,,,,,
44738764,1015,1015,1015,1015,,,,,
44741263,1015,1015,1015,1015,,,,,
44743762,1016,1016,1016,1016,,,,,
44746261,1017,1017,1017,1017,,,,,
44748760,1018,1018,1018,1018,,,,,
44751259,1018,1018,1018,1018,,,,,
44753758,1019,1019,1019,1019,,,,,
44756257,1020,1020,1020,1020,,,,,
44758756,1021,1021,1021,1021,,,,,
44761255,1021,1021,1021,1021,,,,,
44763754,1022,1022,1022,1022,,,,,
44766253,1023,1023,1023,1023,,,,,
44768752,1024,1024,1024,1024,,,,,
44771251,1024,1024,1024,1024,,,,,
44773750,1025,1025,1025,1025,,,,,
44776249,1026,1026,1026,1026,,,,,
44778748,1027,1027,1027,1027,,,,,
44781247,1027,1027,1027,1027,,,,,
44783746,1028,1028,1028,1028,,,,,
44786245,1029,1029,1029,1029,,,,,
44788744,1030,1030,1030,1030,,,,,
44791243,1030,1030,1030,1030,,,,,
44793742,1031,1031,1031,1031,,,,,
44796241,1032,1032,1032,1032,,,,,
44798740,1033,1033,1033,1033,,,,,
44801239,1033,1033,1033,1033,,,,,
44803738,1034,1034,1034,1034,,,,,
44806237,1035,1035,1035,1035,,,,,
44808736,1036,1036,1036,1036,,,,,
44811235,1036,1036,1036,1036,,,,,
44813734,1037,1037,1037,1037,,,,,
44816233,1038,1038,1038,1038,,,,,
44818732,1039,1039,1039,1039,,,,,
44821231,1039,1039,1039,1039,,,,,
44823730,1040,1040,1040,1040,,,,,
44826229,1041,1041,1041,1041,,,,,
44828728,1042,1042,1042,1042,,,,,
44831227,1042,1042,1042,1042,,,,,
44833726,1043,1043,1043,1043,,,,,
44836225,1044,1044,1044,1044,,,,,
44838724,1045,1045,1045,1045,,,,,
44841223,1045,1045,1045,1045,,,,,
44843722,1046,1046,1046,1046,,,,,
44846221,1047,1047,1047,1047,,,,,
44848720,1048,1048,1048,1048,,,,,
44851219,1048,1048,1048,1048,,,,,
44853718,1049,1049,1049,1049,,,,,
44856217,1050,1050,1050,1050,,,,,
44858716,1051,1051,1051,1051,,,,,
44861215,1051,1051,1051,1051,,,,,
44863714,1052,1052,1052,1052,,,,,
44866213,1053,1053,1053,1053,,,,,
44868712,1054,1054,1054,1054,,,,,
44871211,1054,1054,1054,1054,,,,,
44873710,1055,1055,1055,1055,,,,,
44876209,1056,1056,1056,1056,,,,,
44878708,1057,1057,1057,1057,,,,,
44881207,1057,1057,1057,1057,,,,,
44883706,1058,1058,1058,1058,,,,,
44886205,1059,1059,1059,1059,,,,,
44888704,1060,1060,1060,1060,,,,,
44891203,1060,1060,1060,1060,,,,,
44893702,1061,1061,1061,1061,,,,,
44896201,1062,1062,1062,1062,,,,,
44898700,1063,1063,1063,1063,,,,,
44901199,1063,1063,1063,1063,,,,,
44903698,1064,1064,1064,1064,,,,,
44906197,1065,1065,1065,1065,,,,,
44908696,1066,1066,1066,1066,,,,,
44911195,1066,1066,1066,1066,,,,,
44913694,1067,1067,1067,1067,,,,,
44916193,1068,1068,1068,1068,,,,,
44918692,1069,1069,1069,1069,,,,,
44921191,1069,1069,1069,1069,,,,,
44923690,1070,1070,1070,1070,,,,,
44926189,1071,1071,1071,1071,,,,,
44928688,1072,1072,1072,1072,,,,,
44931187,1072,1072,1072,1072,,,,,
44933686,1073,1073,1073,1073,,,,,
44936185,1074,1074,1074,1074,,,,,
44938684,1075,1075,1075,1075,,,,,
44941183,1075,1075,1075,1075,,,,,
44943682,1076,1076,1076,1076,,,,,
44946181,1077,1077,1077,1077,,,,,
44948680,1078,1078,1078,1078,,,,,
44951179,1078,1078,1078,1078,,,,,
44953678,1079,1079,1079,1079,,,,,
44956177,1080,1080,1080,1080,,,,,
44958676,1081,1081,1081,1081,,,,,
44961175,1081,1081,1081,1081,,,,,
44963674,1082,1082,1082,1082,,,,,
44966173,1083,1083,1083,1083,,,,,
44968672,1084,1084,1084,1084,,,,,
44971171,1084,1084,1084,1084,,,,,
44973670,1085,1085,1085,1085,,,,,
44976169,1086,1086,1086,1086,,,,,
44978668,1087,1087,1087,1087,,,,,
44981167,1087,1087,1087,1087,,,,,
44983666,1088,1088,1088,1088,,,,,
44986165,1089,1089,1089,1089,,,,,
44988664,1090,1090,1090,1090,,,,,
44991163,1090,1090,1090,1090,,,,,
44993662,1091,1091,1091,1091,,,,,
44996161,1092,1092,1092,1092,,,,,
44998660,1093,1093,1093,1093,,,,,
45001159,1093,1093,1093,1093,,,,,
45003658,1094,1094,1094,1094,,,,,
45006157,1095,1095,1095,1095,,,,,
45008656,1096,1096,1096,1096,,,,,
45011155,1096,1096,1096,1096,,,,,
45013654,1097,1097,1097,1097,,,,,
45016153,1098,1098,1098,1098,,,,,
45018652,1099,1099,1099,1099,,,,,
45021151,1099,1099,1099,1099,,,,,
45023650,1100,1100,1100,1100,,,,,
45026149,1101,1101,1101,1101,,,,,
45028648,1101,1101,1101,1101,,,,,
45031147,1102,1102,1102,1102,,,,,
45033646,1103,1103,1103,1103,,,,,
45036145,1104,1104,1104,1104,,,,,
45038644,1104,1104,1104,1104,,,,,
45041143,1105,1105,1105,1105,,,,,
45043642,1106,1106,1106,1106,,,,,
45046141,1107,1107,1107,1107,,,,,
45048640,1107,1107,1107,1107,,,,,
45051139,1108,1108,1108,1108,,,,,
45053638,1109,1109,1109,1109,,,,,
45056137,1110,1110,1110,1110,,,,,
45058636,1110,1110,1110,1110,,,,,
45061135,1111,1111,1111,1111,,,,,
45063634,1112,1112,1112,1112,,,,,
45066133,1113,1113,1113,1113,,,,,
45068632,1113,1113,1113,1113,,,,,
45071131,1114,1114,1114,1114,,,,,
45073630,1115,1115,1115,1115,,,,,
45076129,1116,1116,1116,1116,,,,,
45078628,1116,1116,1116,1116,,,,,
45081127,1117,1117,1117,1117,,,,,
45083626,1118,1118,1118,1118,,,,,
45086125,1119,1119,1119,1119,,,,,
45088624,1119,1119,1119,1119,,,,,
45091123,1120,1120,1120,1120,,,,,
45093622,1121,1121,1121,1121,,,,,
45096121,1122,1122,1122,1122,,,,,
45098620,1122,1122,1122,1122,,,,,
45101119,1123,1123,1123,1123,,,,,
45103618,1124,1124,1124,1124,,,,,
45106117,1125,1125,1125,1125,,,,,
45108616,1125,1125,1125,1125,,,,,
45111115,1126,1126,1126,1126,,,,,
45113614,1127,1127,1127,1127,,,,,
45116113,1128,1128,1128,1128,,,,,
45118612,1128,1128,1128,1128,,,,,
45121111,1129,1129,1129,1129,,,,,
45123610,1130,1130,1130,1130,,,,,
45126109,1131,1131,1131,1131,,,,,
45128608,1131,1131,1131,1131,,,,,
45131107,1132,1132,1132,1132,,,,,
45133606,1133,1133,1133,1133,,,,,
45136105,1134,1134,1134,1134,,,,,
45138604,1134,1134,1134,1134,,,,,
45141103,1135,1135,1135,1135,,,,,
45143602,1136,1136,1136,1136,,,,,
45146101,1137,1137,1137,1137,,,,,
45148600,1137,1137,1137,1137,,,,,
45151099,1138,1138,1138,1138,,,,,
45153598,1139,1139,1139,1139,,,,,
45156097,1140,1140,1140,1140,,,,,
45158596,1140,1140,1140,1140,,,,,
45161095,1141,1141,1141,1141,,,,,
45163594,1142,1142,1142,1142,,,,,
45166093,1143,1143,1143,1143,,,,,
45168592,1143,1143,1143,1143,,,,,
45171091,1144,1144,1144,1144,,,,,
45173590,1145,1145,1145,1145,,,,,
45176089,1146,1146,1146,1146,,,,,
45178588,1146,1146,1146,1146,,,,,
45181087,1147,1147,1147,1147,,,,,
45183586,1148,1148,1148,1148,,,,,
45186085,1149,1149,1149,1149,,,,,
45188584,1149,1149,1149,1149,,,,,
45191083,1150,1150,1150,1150,,,,,
45193582,1161,1153,1154,1162,,,,,
45196081,1169,1162,1162,1170,,,,,
45198580,1177,1170,1170,1178,,,,,
45201079,1185,1177,1178,1186,,,,,
45203578,1192,1185,1186,1193,,,,,
45206077,1200,1193,1193,1201,,,,,
45208576,1207,1200,1200,1208,,,,,
45211075,1214,1207,1208,1215,,,,,
45213574,1221,1215,1215,1222,,,,,
45216073,1228,1222,1222,1229,,,,,
45218572,1235,1229,1229,1236,,,,,
45221071,1242,1235,1236,1243,,,,,
45223570,1249,1242,1243,1250,,,,,
45226069,1255,1249,1249,1256,,,,,
45228568,1262,1256,1256,1263,,,,,
45231067,1268,1262,1262,1269,,,,,
45233566,1275,1268,1269,1275,,,,,
45236065,1281,1275,1275,1282,,,,,
45238564,1287,1281,1281,1288,,,,,
45241063,1293,1287,1288,1294,,,,,
45243562,1299,1293,1294,1300,,,,,
45246061,1305,1299,1300,1306,,,,,
45248560,1311,1305,1306,1312,,,,,
45251059,1317,1311,1312,1318,,,,,
45253558,1323,1317,1318,1324,,,,,
45256057,1329,1323,1323,1330,,,,,
45258556,1335,1329,1329,1335,,,,,
45261055,1340,1335,1335,1341,,,,,
45263554,1346,1340,1340,1346,,,,,
45266053,1351,1346,1346,1352,,,,,
45268552,1357,1351,1352,1358,,,,,
45271051,1362,1357,1357,1363,,,,,
45273550,1368,1362,1362,1368,,,,,
45276049,1373,1368,1368,1374,,,,,
45278548,1378,1373,1373,1379,,,,,
45281047,1384,1378,1378,1384,,,,,
45283546,1389,1384,1384,1390,,,,,
45286045,1394,1389,1389,1395,,,,,
45288544,1399,1394,1394,1400,,,,,
45291043,1404,1399,1399,1405,,,,,
45293542,1409,1404,1404,1410,,,,,
45296041,1414,1409,1409,1415,,,,,
45298540,1419,1414,1414,1420,,,,,
45301039,1424,1419,1419,1425,,,,,
45303538,1429,1424,1424,1430,,,,,
45306037,1434,1429,1429,1435,,,,,
45308536,1439,1434,1434,1440,,,,,
45311035,1444,1439,1439,1444,,,,,
45313534,1448,1443,1443,1449,,,,,
45316033,1453,1448,1448,1454,,,,,
45318532,1458,1453,1453,1459,,,,,
45321031,1463,1458,1458,1463,,,,,
45323530,1467,1462,1462,1468,,,,,
45326029,1472,1467,1467,1473,,,,,
45328528,1476,1471,1472,1477,,,,,
45331027,1481,1476,1476,1482,,,,,
45333526,1486,1481,1481,1486,,,,,
45336025,1490,1485,1485,1491,,,,,
45338524,1494,1490,1490,1495,,,,,
45341023,1499,1494,1494,1500,,,,,
45343522,1503,1499,1499,1504,,,,,
45346021,1508,1503,1503,1508,,,,,
45348520,1512,1507,1507,1513,,,,,
45351019,1516,1512,1512,1517,,,,,
45353518,1521,1516,1516,1521,,,,,
45356017,1525,1520,1520,1526,,,,,
45358516,1529,1525,1525,1530,,,,,
45361015,1534,1529,1529,1534,,,,,
45363514,1538,1533,1533,1538,,,,,
45366013,1542,1537,1538,1543,,,,,
45368512,1546,1542,1542,1547,,,,,
45371011,1550,1546,1546,1551,,,,,
45373510,1555,1550,1550,1555,,,,,
45376009,1559,1554,1554,1559,,,,,
45378508,1563,1558,1558,1563,,,,,
45381007,1567,1562,1562,1567,,,,,
45383506,1571,1566,1567,1571,,,,,
45386005,1575,1570,1571,1575,,,,,
45388504,1579,1574,1575,1579,,,,,
45391003,1583,1578,1579,1583,,,,,
45393502,1587,1582,1583,1587,,,,,
45396001,1591,1586,1587,1591,,,,,
45398500,1595,1590,1591,1595,,,,,
45400999,1599,1594,1595,1599,,,,,
45403498,1603,1598,1598,1603,,,,,
45405997,1606,1602,1602,1607,,,,,
45408496,1610,1606,1606,1611,,,,,
45410995,1614,1610,1610,1615,,,,,
45413494,1618,1614,1614,1618,,,,,
45415993,1622,1617,1618,1622,,,,,
45418492,1626,1621,1622,1626,,,,,
45420991,1629,1625,1625,1630,,,,,
45423490,1633,1629,1629,1634,,,,,
45425989,1637,1633,1633,1637,,,,,
45428488,1641,1636,1637,1641,,,,,
45430987,1644,1640,1640,1645,,,,,
45433486,1648,1644,1644,1648,,,,,
45435985,1652,1647,1648,1652,,,,,
45438484,1656,1651,1652,1656,,,,,
45440983,1659,1655,1655,1660,,,,,
45443482,1663,1658,1659,1663,,,,,
45445981,1667,1662,1662,1667,,,,,
45448480,1670,1666,1666,1670,,,,,
45450979,1674,1669,1670,1674,,,,,
45453478,1677,1673,1673,1678,,,,,
45455977,1681,1676,1677,1681,,,,,
45458476,1685,1680,1680,1685,,,,,
45460975,1688,1684,1684,1688,,,,,
45463474,1692,1687,1688,1692,,,,,
45465973,1695,1691,1691,1695,,,,,
45468472,1699,1694,1695,1699,,,,,
45470971,1702,1698,1698,1702,,,,,
45473470,1706,1701,1702,1706,,,,,
45475969,1709,1705,1705,1709,,,,,
45478468,1713,1708,1709,1713,,,,,
45480967,1716,1712,1712,1716,,,,,
45483466,1719,1715,1715,1720,,,,,
45485965,1723,1718,1719,1723,,,,,
45488464,1726,1722,1722,1726,,,,,
45490963,1730,1725,1726,1730,,,,,
45493462,1733,1729,1729,1733,,,,,
45495961,1736,1732,1732,1737,,,,,
45498460,1740,1735,1736,1740,,,,,
45500959,1743,1739,1739,1743,,,,,
45503458,1746,1742,1743,1747,,,,,
45505957,1750,1745,1746,1750,,,,,
45508456,1753,1749,1749,1753,,,,,
45510955,1756,1752,1752,1757,,,,,
45513454,1760,1755,1756,1760,,,,,
45515953,1763,1759,1759,1763,,,,,
45518452,1766,1762,1762,1766,,,,,
45520951,1769,1765,1766,1770,,,,,
45523450,1773,1768,1769,1773,,,,,
45525949,1776,1772,1772,1776,,,,,
45528448,1779,1775,1775,1780,,,,,
45530947,1782,1778,1778,1783,,,,,
45533446,1786,1781,1782,1786,,,,,
45535945,1789,1785,1785,1789,,,,,
45538444,1792,1788,1788,1792,,,,,
45540943,1795,1791,1791,1795,,,,,
45543442,1798,1794,1795,1799,,,,,
45545941,1802,1797,1798,1802,,,,,
45548440,1805,1801,1801,1805,,,,,
45550939,1808,1804,1804,1808,,,,,
45553438,1811,1807,1807,1811,,,,,
45555937,1814,1810,1810,1814,,,,,
45558436,1817,1813,1813,1817,,,,,
45560935,1820,1816,1817,1820,,,,,
45563434,1823,1819,1820,1824,,,,,
45565933,1826,1822,1823,1827,,,,,
45568432,1830,1826,1826,1830,,,,,
45570931,1833,1829,1829,1833,,,,,
45573430,1836,1832,1832,1836,,,,,
45575929,1839,1835,1835,1839,,,,,
45578428,1842,1838,1838,1842,,,,,
45580927,1845,1841,1841,1845,,,,,
45583426,1848,1844,1844,1848,,,,,
45585925,1851,1847,1847,1851,,,,,
45588424,1854,1850,1850,1854,,,,,
45590923,1857,1853,1853,1857,,,,,
45593422,1860,1856,1856,1860,,,,,
45595921,1863,1859,1859,1863,,,,,
45598420,1866,1862,1862,1866,,,,,
45600919,1869,1865,1865,1869,,,,,
45603418,1872,1868,1868,1872,,,,,
45605917,1875,1871,1871,1875,,,,,
45608416,1878,1874,1874,1878,,,,,
45610915,1881,1877,1877,1881,,,,,
45613414,1883,1880,1880,1884,,,,,
45615913,1886,1883,1883,1887,,,,,
45618412,1889,1886,1886,1889,,,,,
45620911,1892,1888,1889,1892,,,,,
45623410,1895,1891,1892,1895,,,,,
45625909,1894,1891,1891,1895,,,,,
45628408,1893,1890,1890,1894,,,,,
45630907,1893,1889,1889,1893,,,,,
45633406,1892,1888,1888,1892,,,,,
45635905,1891,1887,1887,1891,,,,,
45638404,1890,1886,1886,1890,,,,,
45640903,1889,1885,1885,1889,,,,,
45643402,1888,1884,1885,1889,,,,,
45645901,1888,1884,1884,1888,,,,,
45648400,1887,1883,1883,1887,,,,,
45650899,1886,1882,1883,1887,,,,,
45653398,1886,1882,1882,1886,,,,,
45655897,1885,1882,1882,1885,,,,,
45658396,1884,1881,1881,1885,,,,,
45660895,1884,1881,1881,1884,,,,,
45663394,1883,1880,1880,1884,,,,,
45665893,1883,1880,1880,1883,,,,,
45668392,1883,1880,1880,1883,,,,,
45670891,1882,1879,1879,1883,,,,,
45673390,1882,1879,1879,1883,,,,,
45675889,1882,1879,1879,1883,,,,,
45678388,1882,1879,1879,1883,,,,,
45680887,1882,1879,1879,1883,,,,,
45683386,1882,1879,1879,1883,,,,,
45685885,1882,1879,1879,1883,,,,,
45688384,1882,1879,1879,1883,,,,,
45690883,1882,1879,1879,1883,,,,,
45693382,1882,1879,1879,1883,,,,,
45695881,1882,1879,1879,1883,,,,,
45698380,1882,1879,1879,1883,,,,,
45700879,1882,1879,1879,1883,,,,,
45703378,1882,1879,1879,1882,,,,,
45705877,1881,1879,1878,1882,,,,,
45708376,1881,1878,1878,1881,,,,,
45710875,1880,1877,1877,1881,,,,,
45713374,1879,1876,1876,1880,,,,,
45715873,1878,1875,1875,1879,,,,,
45718372,1877,1874,1874,1878,,,,,
45720871,1875,1873,1873,1876,,,,,
45723370,1874,1871,1871,1875,,,,,
45725869,1872,1870,1869,1873,,,,,
45728368,1871,1868,1868,1872,,,,,
45730867,1869,1866,1866,1870,,,,,
45733366,1867,1864,1864,1868,,,,,
45735865,1864,1862,1862,1866,,,,,
45738364,1862,1860,1859,1863,,,,,
45740863,1860,1858,1857,1861,,,,,
45743362,1857,1855,1854,1859,,,,,
45745861,1855,1853,1852,1856,,,,,
45748360,1852,1850,1849,1854,,,,,
45750859,1849,1847,1846,1851,,,,,
45753358,1847,1844,1844,1848,,,,,
45755857,1844,1842,1841,1845,,,,,
45758356,1841,1839,1838,1842,,,,,
45760855,1838,1836,1835,1839,,,,,
45763354,1835,1833,1832,1836,,,,,
45765853,1831,1830,1828,1833,,,,,
45768352,1828,1826,1825,1830,,,,,
45770851,1825,1823,1822,1827,,,,,
45773350,1822,1820,1819,1823,,,,,
45775849,1818,1817,1815,1820,,,,,
45778348,1815,1813,1812,1817,,,,,
45780847,1811,1810,1808,1813,,,,,
45783346,1808,1806,1805,1810,,,,,
45785845,1804,1803,1802,1806,,,,,
45788344,1801,1800,1798,1803,,,,,
45790843,1797,1796,1795,1799,,,,,
45793342,1794,1793,1791,1796,,,,,
45795841,1790,1789,1788,1793,,,,,
45798340,1787,1786,1784,1789,,,,,
45800839,1783,1783,1781,1786,,,,,
45803338,1780,1779,1778,1782,,,,,
45805837,1776,1776,1774,1779,,,,,
45808336,1773,1772,1771,1775,,,,,
45810835,1769,1769,1767,1772,,,,,
45813334,1766,1765,1764,1768,,,,,
45815833,1762,1762,1760,1765,,,,,
45818332,1759,1759,1757,1761,,,,,
45820831,1755,1755,1753,1758,,,,,
45823330,1752,1752,1750,1754,,,,,
45825829,1749,1748,1747,1751,,,,,
45828328,1745,1745,1743,1748,,,,,
45830827,1742,1742,1740,1744,,,,,
45833326,1738,1738,1736,1741,,,,,
45835825,1735,1735,1733,1738,,,,,
45838324,1732,1732,1730,1734,,,,,
45840823,1729,1729,1727,1731,,,,,
45843322,1725,1725,1723,1728,,,,,
45845821,1722,1722,1720,1725,,,,,
45848320,1719,1719,1717,1721,,,,,
45850819,1716,1716,1714,1718,,,,,
45853318,1713,1713,1711,1715,,,,,
45855817,1710,1710,1708,1712,,,,,
45858316,1706,1707,1705,1709,,,,,
45860815,1703,1704,1702,1706,,,,,
45863314,1700,1701,1699,1703,,,,,
45865813,1697,1698,1696,1700,,,,,
45868312,1695,1695,1693,1697,,,,,
45870811,1692,1692,1690,1694,,,,,
45873310,1689,1690,1688,1691,,,,,
45875809,1686,1687,1685,1689,,,,,
45878308,1683,1684,1682,1686,,,,,
45880807,1681,1681,1680,1683,,,,,
45883306,1678,1679,1677,1681,,,,,
45885805,1675,1676,1674,1678,,,,,
45888304,1673,1674,1672,1675,,,,,
45890803,1670,1671,1669,1673,,,,,
45893302,1668,1669,1667,1671,,,,,
