timestamp,TimeUS,C1,C2,C3,C4,C5,C6,C7,C8,C9,C10,C11,C12,C13,C14
1683184509.10003996,43528415,1000,1000,1000,1000,0,0,0,0,0,0,0,0,0,0
1683184509.20000005,43628375,1000,1000,1000,1000,0,0,0,0,0,0,0,0,0,0
1683184509.29995990,43728335,1000,1000,1000,1000,0,0,0,0,0,0,0,0,0,0
1683184509.39991999,43828295,1000,1000,1000,1000,0,0,0,0,0,0,0,0,0,0
1683184509.49988008,43928255,1000,1000,1000,1000,0,0,0,0,0,0,0,0,0,0
1683184509.59983993,44028215,1000,1000,1000,1000,0,0,0,0,0,0,0,0,0,0
1683184509.69980001,44128175,1000,1000,1000,1000,0,0,0,0,0,0,0,0,0,0
1683184509.80059290,44228968,1000,1000,1000,1000,0,0,0,0,0,0,0,0,0,0
1683184509.90055299,44328928,1000,1000,1000,1000,0,0,0,0,0,0,0,0,0,0
1683184510.00051308,44428888,1000,1000,1000,1000,0,0,0,0,0,0,0,0,0,0
1683184510.10047293,44528848,1000,1000,1000,1000,0,0,0,0,0,0,0,0,0,0
1683184510.20043302,44628808,1000,1000,1000,1000,0,0,0,0,0,0,0,0,0,0
1683184510.30039310,44728768,1000,1000,1000,1000,0,0,0,0,0,0,0,0,0,0
1683184510.40035295,44828728,1000,1000,1000,1000,0,0,0,0,0,0,0,0,0,0
1683184510.50031304,44928688,1000,1000,1000,1000,0,0,0,0,0,0,0,0,0,0
1683184510.60027289,45028648,1000,1000,1000,1000,0,0,0,0,0,0,0,0,0,0
1683184510.70023298,45128608,1000,1000,1000,1000,0,0,0,0,0,0,0,0,0,0
1683184510.80019307,45228568,1000,1000,1000,1000,0,0,0,0,0,0,0,0,0,0
1683184510.90015292,45328528,1000,1000,1000,1000,0,0,0,0,0,0,0,0,0,0
1683184511.00011301,45428488,1000,1000,1000,1000,0,0,0,0,0,0,0,0,0,0
1683184511.10007310,45528448,1012,1012,1012,1012,0,0,0,0,0,0,0,0,0,0
1683184511.20003295,45628408,1042,1042,1042,1042,0,0,0,0,0,0,0,0,0,0
1683184511.29999304,45728368,1072,1072,1072,1072,0,0,0,0,0,0,0,0,0,0
1683184511.39995289,45828328,1102,1102,1102,1102,0,0,0,0,0,0,0,0,0,0
1683184511.49991298,45928288,1132,1132,1132,1132,0,0,0,0,0,0,0,0,0,0
1683184511.59987307,46028248,1268,1263,1263,1268,0,0,0,0,0,0,0,0,0,0
1683184511.69983292,46128208,1481,1476,1477,1481,0,0,0,0,0,0,0,0,0,0
1683184511.79979300,46228168,1644,1640,1641,1644,0,0,0,0,0,0,0,0,0,0
1683184511.90058589,46328961,1782,1778,1779,1782,0,0,0,0,0,0,0,0,0,0
1683184512.00054598,46428921,1899,1896,1896,1899,0,0,0,0,0,0,0,0,0,0
1683184512.10050607,46528881,1878,1876,1876,1878,0,0,0,0,0,0,0,0,0,0
1683184512.20046592,46628841,1753,1753,1753,1754,0,0,0,0,0,0,0,0,0,0
1683184512.30042601,46728801,1654,1655,1655,1654,0,0,0,0,0,0,0,0,0,0
1683184512.40038610,46828761,1623,1624,1625,1622,0,0,0,0,0,0,0,0,0,0
1683184512.50034595,46928721,1628,1630,1630,1629,0,0,0,0,0,0,0,0,0,0
1683184512.60030603,47028681,1637,1638,1638,1637,0,0,0,0,0,0,0,0,0,0
1683184512.70026588,47128641,1637,1637,1636,1637,0,0,0,0,0,0,0,0,0,0
1683184512.80022597,47228601,1629,1628,1628,1629,0,0,0,0,0,0,0,0,0,0
1683184512.90018606,47328561,1620,1619,1619,1620,0,0,0,0,0,0,0,0,0,0
1683184513.00014591,47428521,1599,1599,1590,1607,0,0,0,0,0,0,0,0,0,0
1683184513.10010600,47528481,1594,1593,1585,1602,0,0,0,0,0,0,0,0,0,0
1683184513.20006609,47628441,1594,1593,1589,1597,0,0,0,0,0,0,0,0,0,0
1683184513.30002594,47728401,1597,1597,1597,1596,0,0,0,0,0,0,0,0,0,0
1683184513.39998603,47828361,1602,1603,1605,1599,0,0,0,0,0,0,0,0,0,0
1683184513.49994588,47928321,1594,1594,1601,1586,0,0,0,0,0,0,0,0,0,0
1683184513.59990597,48028281,1574,1575,1594,1555,0,0,0,0,0,0,0,0,0,0
1683184513.69986606,48128241,1564,1564,1577,1552,0,0,0,0,0,0,0,0,0,0
1683184513.79982591,48228201,1553,1554,1554,1555,0,0,0,0,0,0,0,0,0,0
1683184513.89978600,48328161,1544,1544,1534,1554,0,0,0,0,0,0,0,0,0,0
1683184514.00057888,48428954,1537,1537,1524,1550,0,0,0,0,0,0,0,0,0,0
1683184514.10053897,48528914,1532,1531,1521,1542,0,0,0,0,0,0,0,0,0,0
1683184514.20049906,48628874,1527,1527,1522,1533,0,0,0,0,0,0,0,0,0,0
1683184514.30045891,48728834,1527,1527,1526,1528,0,0,0,0,0,0,0,0,0,0
1683184514.40041900,48828794,1529,1529,1531,1527,0,0,0,0,0,0,0,0,0,0
1683184514.50037909,48928754,1533,1533,1536,1529,0,0,0,0,0,0,0,0,0,0
1683184514.60033894,49028714,1537,1537,1541,1532,0,0,0,0,0,0,0,0,0,0
1683184514.70029902,49128674,1540,1540,1544,1537,0,0,0,0,0,0,0,0,0,0
1683184514.80025911,49228634,1544,1544,1546,1542,0,0,0,0,0,0,0,0,0,0
1683184514.90021896,49328594,1547,1547,1547,1547,0,0,0,0,0,0,0,0,0,0
1683184515.00017905,49428554,1549,1549,1548,1550,0,0,0,0,0,0,0,0,0,0
1683184515.10013890,49528514,1552,1552,1550,1554,0,0,0,0,0,0,0,0,0,0
1683184515.20009899,49628474,1550,1550,1558,1562,0,0,0,0,0,0,0,0,0,0
1683184515.30005908,49728434,1552,1552,1561,1564,0,0,0,0,0,0,0,0,0,0
1683184515.40001893,49828394,1555,1556,1564,1564,0,0,0,0,0,0,0,0,0,0
1683184515.49997902,49928354,1559,1560,1564,1563,0,0,0,0,0,0,0,0,0,0
1683184515.59993911,50028314,1562,1562,1564,1562,0,0,0,0,0,0,0,0,0,0
1683184515.69989896,50128274,1566,1566,1564,1563,0,0,0,0,0,0,0,0,0,0
1683184515.79985905,50228234,1568,1568,1564,1564,0,0,0,0,0,0,0,0,0,0
1683184515.89981890,50328194,1571,1571,1565,1565,0,0,0,0,0,0,0,0,0,0
1683184515.99977899,50428154,1571,1571,1565,1565,0,0,0,0,0,0,0,0,0,0
1683184516.10057211,50528947,1573,1573,1566,1567,0,0,0,0,0,0,0,0,0,0
1683184516.20053196,50628907,1574,1573,1568,1568,0,0,0,0,0,0,0,0,0,0
1683184516.30049205,50728867,1574,1573,1569,1569,0,0,0,0,0,0,0,0,0,0
1683184516.40045190,50828827,1573,1573,1570,1570,0,0,0,0,0,0,0,0,0,0
1683184516.50041199,50928787,1572,1573,1572,1572,0,0,0,0,0,0,0,0,0,0
1683184516.60037208,51028747,1573,1573,1574,1573,0,0,0,0,0,0,0,0,0,0
1683184516.70033193,51128707,1573,1574,1576,1574,0,0,0,0,0,0,0,0,0,0
1683184516.80029202,51228667,1574,1575,1577,1576,0,0,0,0,0,0,0,0,0,0
1683184516.90025210,51328627,1574,1574,1577,1576,0,0,0,0,0,0,0,0,0,0
1683184517.00021195,51428587,1575,1575,1578,1578,0,0,0,0,0,0,0,0,0,0
1683184517.10017204,51528547,1575,1575,1576,1577,0,0,0,0,0,0,0,0,0,0
1683184517.20013189,51628507,1575,1576,1577,1577,0,0,0,0,0,0,0,0,0,0
1683184517.30009198,51728467,1575,1575,1576,1576,0,0,0,0,0,0,0,0,0,0
1683184517.40005207,51828427,1577,1577,1577,1576,0,0,0,0,0,0,0,0,0,0
1683184517.50001192,51928387,1577,1577,1577,1577,0,0,0,0,0,0,0,0,0,0
1683184517.59997201,52028347,1578,1578,1577,1577,0,0,0,0,0,0,0,0,0,0
1683184517.69993210,52128307,1578,1578,1577,1577,0,0,0,0,0,0,0,0,0,0
1683184517.79989195,52228267,1578,1577,1576,1576,0,0,0,0,0,0,0,0,0,0
1683184517.89985204,52328227,1578,1578,1577,1577,0,0,0,0,0,0,0,0,0,0
1683184517.99981189,52428187,1578,1578,1577,1577,0,0,0,0,0,0,0,0,0,0
1683184518.10060501,52528980,1577,1578,1577,1577,0,0,0,0,0,0,0,0,0,0
1683184518.20056510,52628940,1577,1577,1577,1577,0,0,0,0,0,0,0,0,0,0
1683184518.30052495,52728900,1577,1577,1576,1577,0,0,0,0,0,0,0,0,0,0
1683184518.40048504,52828860,1577,1577,1577,1577,0,0,0,0,0,0,0,0,0,0
1683184518.50044489,52928820,1577,1577,1578,1577,0,0,0,0,0,0,0,0,0,0
1683184518.60040498,53028780,1579,1578,1579,1579,0,0,0,0,0,0,0,0,0,0
1683184518.70036507,53128740,1579,1578,1579,1579,0,0,0,0,0,0,0,0,0,0
1683184518.80032492,53228700,1579,1579,1580,1580,0,0,0,0,0,0,0,0,0,0
1683184518.90028501,53328660,1580,1580,1580,1581,0,0,0,0,0,0,0,0,0,0
1683184519.00024509,53428620,1580,1580,1580,1580,0,0,0,0,0,0,0,0,0,0
1683184519.10020494,53528580,1580,1580,1580,1580,0,0,0,0,0,0,0,0,0,0
1683184519.20016503,53628540,1579,1579,1579,1579,0,0,0,0,0,0,0,0,0,0
1683184519.30012488,53728500,1579,1578,1579,1578,0,0,0,0,0,0,0,0,0,0
1683184519.40008497,53828460,1579,1579,1579,1580,0,0,0,0,0,0,0,0,0,0
1683184519.50004506,53928420,1579,1579,1579,1579,0,0,0,0,0,0,0,0,0,0
1683184519.60000491,54028380,1579,1579,1579,1579,0,0,0,0,0,0,0,0,0,0
1683184519.69996500,54128340,1578,1578,1578,1578,0,0,0,0,0,0,0,0,0,0
1683184519.79992509,54228300,1579,1579,1579,1579,0,0,0,0,0,0,0,0,0,0
1683184519.89988494,54328260,1579,1580,1579,1579,0,0,0,0,0,0,0,0,0,0
1683184519.99984503,54428220,1580,1580,1580,1580,0,0,0,0,0,0,0,0,0,0
1683184520.09980488,54528180,1580,1580,1580,1580,0,0,0,0,0,0,0,0,0,0
1683184520.20059800,54628973,1580,1580,1580,1580,0,0,0,0,0,0,0,0,0,0
1683184520.30055809,54728933,1581,1581,1581,1581,0,0,0,0,0,0,0,0,0,0
1683184520.40051794,54828893,1580,1581,1581,1581,0,0,0,0,0,0,0,0,0,0
1683184520.50047803,54928853,1581,1581,1581,1581,0,0,0,0,0,0,0,0,0,0
1683184520.60043788,55028813,1581,1582,1581,1581,0,0,0,0,0,0,0,0,0,0
1683184520.70039797,55128773,1581,1582,1581,1582,0,0,0,0,0,0,0,0,0,0
1683184520.80035806,55228733,1580,1581,1581,1581,0,0,0,0,0,0,0,0,0,0
1683184520.90031791,55328693,1581,1580,1581,1580,0,0,0,0,0,0,0,0,0,0
1683184521.00027800,55428653,1582,1582,1582,1582,0,0,0,0,0,0,0,0,0,0
1683184521.10023808,55528613,1581,1581,1581,1581,0,0,0,0,0,0,0,0,0,0
1683184521.20019794,55628573,1581,1581,1581,1581,0,0,0,0,0,0,0,0,0,0
1683184521.30015802,55728533,1581,1580,1581,1581,0,0,0,0,0,0,0,0,0,0
1683184521.40011811,55828493,1582,1582,1587,1576,0,0,0,0,0,0,0,0,0,0
1683184521.50007796,55928453,1580,1582,1587,1572,0,0,0,0,0,0,0,0,0,0
1683184521.60003805,56028413,1579,1582,1579,1573,0,0,0,0,0,0,0,0,0,0
1683184521.69999790,56128373,1577,1580,1570,1572,0,0,0,0,0,0,0,0,0,0
1683184521.79995799,56228333,1577,1579,1563,1570,0,0,0,0,0,0,0,0,0,0
1683184521.89991808,56328293,1577,1578,1558,1565,0,0,0,0,0,0,0,0,0,0
1683184521.99987793,56428253,1579,1578,1556,1560,0,0,0,0,0,0,0,0,0,0
1683184522.09983802,56528213,1579,1577,1555,1557,0,0,0,0,0,0,0,0,0,0
1683184522.19979811,56628173,1579,1578,1556,1555,0,0,0,0,0,0,0,0,0,0
1683184522.30059099,56728966,1579,1577,1556,1554,0,0,0,0,0,0,0,0,0,0
1683184522.40055108,56828926,1578,1578,1557,1554,0,0,0,0,0,0,0,0,0,0
1683184522.50051093,56928886,1576,1577,1556,1555,0,0,0,0,0,0,0,0,0,0
1683184522.60047102,57028846,1576,1577,1556,1555,0,0,0,0,0,0,0,0,0,0
1683184522.70043111,57128806,1574,1576,1553,1554,0,0,0,0,0,0,0,0,0,0
1683184522.80039096,57228766,1575,1577,1552,1553,0,0,0,0,0,0,0,0,0,0
1683184522.90035105,57328726,1577,1577,1551,1552,0,0,0,0,0,0,0,0,0,0
1683184523.00031090,57428686,1577,1578,1549,1549,0,0,0,0,0,0,0,0,0,0
1683184523.10027099,57528646,1580,1581,1547,1547,0,0,0,0,0,0,0,0,0,0
1683184523.20023108,57628606,1582,1583,1544,1543,0,0,0,0,0,0,0,0,0,0
1683184523.30019093,57728566,1585,1586,1541,1541,0,0,0,0,0,0,0,0,0,0
1683184523.40015101,57828526,1589,1589,1539,1538,0,0,0,0,0,0,0,0,0,0
1683184523.50011110,57928486,1591,1592,1536,1536,0,0,0,0,0,0,0,0,0,0
1683184523.60007095,58028446,1594,1594,1535,1536,0,0,0,0,0,0,0,0,0,0
1683184523.70003104,58128406,1596,1595,1535,1536,0,0,0,0,0,0,0,0,0,0
1683184523.79999089,58228366,1595,1594,1535,1537,0,0,0,0,0,0,0,0,0,0
1683184523.89995098,58328326,1594,1593,1537,1540,0,0,0,0,0,0,0,0,0,0
1683184523.99991107,58428286,1591,1590,1542,1545,0,0,0,0,0,0,0,0,0,0
1683184524.09987092,58528246,1586,1584,1549,1552,0,0,0,0,0,0,0,0,0,0
1683184524.19983101,58628206,1579,1576,1558,1560,0,0,0,0,0,0,0,0,0,0
1683184524.29979110,58728166,1568,1565,1568,1570,0,0,0,0,0,0,0,0,0,0
1683184524.40058398,58828959,1558,1554,1580,1582,0,0,0,0,0,0,0,0,0,0
1683184524.50054407,58928919,1547,1543,1592,1593,0,0,0,0,0,0,0,0,0,0
1683184524.60050392,59028879,1538,1536,1603,1603,0,0,0,0,0,0,0,0,0,0
1683184524.70046401,59128839,1531,1532,1611,1610,0,0,0,0,0,0,0,0,0,0
1683184524.80042410,59228799,1529,1530,1614,1613,0,0,0,0,0,0,0,0,0,0
1683184524.90038395,59328759,1531,1533,1615,1615,0,0,0,0,0,0,0,0,0,0
1683184525.00034404,59428719,1535,1538,1613,1612,0,0,0,0,0,0,0,0,0,0
1683184525.10030389,59528679,1541,1543,1606,1606,0,0,0,0,0,0,0,0,0,0
1683184525.20026398,59628639,1549,1551,1599,1600,0,0,0,0,0,0,0,0,0,0
1683184525.30022407,59728599,1558,1558,1591,1591,0,0,0,0,0,0,0,0,0,0
1683184525.40018392,59828559,1567,1567,1584,1584,0,0,0,0,0,0,0,0,0,0
1683184525.50014400,59928519,1575,1574,1578,1577,0,0,0,0,0,0,0,0,0,0
1683184525.60010409,60028479,1581,1580,1573,1572,0,0,0,0,0,0,0,0,0,0
1683184525.70006394,60128439,1584,1583,1568,1568,0,0,0,0,0,0,0,0,0,0
1683184525.80002403,60228399,1587,1586,1567,1566,0,0,0,0,0,0,0,0,0,0
1683184525.89998388,60328359,1588,1586,1566,1566,0,0,0,0,0,0,0,0,0,0
1683184525.99994397,60428319,1587,1586,1567,1567,0,0,0,0,0,0,0,0,0,0
1683184526.09990406,60528279,1585,1585,1570,1571,0,0,0,0,0,0,0,0,0,0
1683184526.19986391,60628239,1583,1583,1573,1573,0,0,0,0,0,0,0,0,0,0
1683184526.29982400,60728199,1580,1580,1576,1576,0,0,0,0,0,0,0,0,0,0
1683184526.39978409,60828159,1577,1577,1579,1578,0,0,0,0,0,0,0,0,0,0
1683184526.50057697,60928952,1574,1575,1580,1580,0,0,0,0,0,0,0,0,0,0
1683184526.60053706,61028912,1573,1573,1582,1582,0,0,0,0,0,0,0,0,0,0
1683184526.70049691,61128872,1572,1572,1583,1583,0,0,0,0,0,0,0,0,0,0
1683184526.80045700,61228832,1571,1572,1583,1583,0,0,0,0,0,0,0,0,0,0
1683184526.90041709,61328792,1572,1573,1583,1583,0,0,0,0,0,0,0,0,0,0
1683184527.00037694,61428752,1573,1574,1582,1582,0,0,0,0,0,0,0,0,0,0
1683184527.10033703,61528712,1574,1575,1581,1581,0,0,0,0,0,0,0,0,0,0
1683184527.20029688,61628672,1577,1577,1581,1580,0,0,0,0,0,0,0,0,0,0
1683184527.30025697,61728632,1578,1577,1578,1579,0,0,0,0,0,0,0,0,0,0
1683184527.40021706,61828592,1578,1578,1577,1577,0,0,0,0,0,0,0,0,0,0
1683184527.50017691,61928552,1580,1580,1577,1577,0,0,0,0,0,0,0,0,0,0
1683184527.60013700,62028512,1581,1581,1577,1577,0,0,0,0,0,0,0,0,0,0
1683184527.70009708,62128472,1581,1581,1577,1577,0,0,0,0,0,0,0,0,0,0
1683184527.80005693,62228432,1581,1581,1577,1577,0,0,0,0,0,0,0,0,0,0
1683184527.90001702,62328392,1581,1581,1578,1577,0,0,0,0,0,0,0,0,0,0
1683184527.99997711,62428352,1582,1582,1579,1579,0,0,0,0,0,0,0,0,0,0
1683184528.09993696,62528312,1582,1582,1580,1580,0,0,0,0,0,0,0,0,0,0
1683184528.19989705,62628272,1581,1581,1579,1579,0,0,0,0,0,0,0,0,0,0
1683184528.29985690,62728232,1580,1580,1580,1580,0,0,0,0,0,0,0,0,0,0
1683184528.39981699,62828192,1580,1580,1581,1581,0,0,0,0,0,0,0,0,0,0
1683184528.50061011,62928985,1579,1580,1581,1581,0,0,0,0,0,0,0,0,0,0
1683184528.60056996,63028945,1579,1580,1581,1581,0,0,0,0,0,0,0,0,0,0
1683184528.70053005,63128905,1581,1580,1582,1582,0,0,0,0,0,0,0,0,0,0
1683184528.80048990,63228865,1580,1580,1582,1582,0,0,0,0,0,0,0,0,0,0
1683184528.90044999,63328825,1580,1580,1581,1581,0,0,0,0,0,0,0,0,0,0
1683184529.00041008,63428785,1579,1580,1580,1580,0,0,0,0,0,0,0,0,0,0
1683184529.10036993,63528745,1580,1580,1581,1581,0,0,0,0,0,0,0,0,0,0
1683184529.20033002,63628705,1581,1581,1581,1581,0,0,0,0,0,0,0,0,0,0
1683184529.30029011,63728665,1582,1581,1581,1581,0,0,0,0,0,0,0,0,0,0
1683184529.40024996,63828625,1581,1581,1584,1576,0,0,0,0,0,0,0,0,0,0
1683184529.50021005,63928585,1580,1583,1586,1571,0,0,0,0,0,0,0,0,0,0
1683184529.60016990,64028545,1580,1584,1579,1571,0,0,0,0,0,0,0,0,0,0
1683184529.70012999,64128505,1579,1582,1570,1570,0,0,0,0,0,0,0,0,0,0
1683184529.80009007,64228465,1578,1580,1561,1567,0,0,0,0,0,0,0,0,0,0
1683184529.90004992,64328425,1578,1579,1554,1562,0,0,0,0,0,0,0,0,0,0
1683184530.00001001,64428385,1580,1579,1553,1558,0,0,0,0,0,0,0,0,0,0
1683184530.09997010,64528345,1582,1580,1553,1555,0,0,0,0,0,0,0,0,0,0
1683184530.19992995,64628305,1581,1579,1553,1552,0,0,0,0,0,0,0,0,0,0
1683184530.29989004,64728265,1581,1579,1554,1552,0,0,0,0,0,0,0,0,0,0
1683184530.39984989,64828225,1579,1579,1554,1552,0,0,0,0,0,0,0,0,0,0
1683184530.49980998,64928185,1577,1579,1555,1553,0,0,0,0,0,0,0,0,0,0
1683184530.60060310,65028978,1577,1579,1555,1554,0,0,0,0,0,0,0,0,0,0
1683184530.70056295,65128938,1576,1578,1554,1553,0,0,0,0,0,0,0,0,0,0
1683184530.80052304,65228898,1576,1578,1552,1553,0,0,0,0,0,0,0,0,0,0
1683184530.90048289,65328858,1577,1578,1550,1551,0,0,0,0,0,0,0,0,0,0
1683184531.00044298,65428818,1578,1580,1549,1549,0,0,0,0,0,0,0,0,0,0
1683184531.10040307,65528778,1580,1581,1547,1547,0,0,0,0,0,0,0,0,0,0
1683184531.20036292,65628738,1582,1583,1545,1544,0,0,0,0,0,0,0,0,0,0
1683184531.30032301,65728698,1585,1585,1543,1542,0,0,0,0,0,0,0,0,0,0
1683184531.40028310,65828658,1588,1588,1542,1542,0,0,0,0,0,0,0,0,0,0
1683184531.50024295,65928618,1589,1590,1540,1540,0,0,0,0,0,0,0,0,0,0
1683184531.60020304,66028578,1591,1593,1539,1540,0,0,0,0,0,0,0,0,0,0
1683184531.70016289,66128538,1593,1593,1539,1541,0,0,0,0,0,0,0,0,0,0
1683184531.80012298,66228498,1592,1591,1541,1543,0,0,0,0,0,0,0,0,0,0
1683184531.90008307,66328458,1591,1588,1546,1549,0,0,0,0,0,0,0,0,0,0
1683184532.00004292,66428418,1585,1582,1553,1555,0,0,0,0,0,0,0,0,0,0
1683184532.10000300,66528378,1578,1574,1563,1565,0,0,0,0,0,0,0,0,0,0
1683184532.19996309,66628338,1570,1566,1574,1576,0,0,0,0,0,0,0,0,0,0
1683184532.29992294,66728298,1559,1556,1584,1585,0,0,0,0,0,0,0,0,0,0
1683184532.39988303,66828258,1549,1548,1594,1595,0,0,0,0,0,0,0,0,0,0
1683184532.49984288,66928218,1542,1542,1603,1603,0,0,0,0,0,0,0,0,0,0
1683184532.59980297,67028178,1536,1537,1607,1606,0,0,0,0,0,0,0,0,0,0
1683184532.70059609,67128971,1536,1536,1610,1609,0,0,0,0,0,0,0,0,0,0
1683184532.80055594,67228931,1537,1539,1610,1609,0,0,0,0,0,0,0,0,0,0
1683184532.90051603,67328891,1540,1543,1606,1606,0,0,0,0,0,0,0,0,0,0
1683184533.00047588,67428851,1547,1549,1602,1601,0,0,0,0,0,0,0,0,0,0
1683184533.10043597,67528811,1555,1555,1596,1595,0,0,0,0,0,0,0,0,0,0
1683184533.20039606,67628771,1562,1562,1588,1588,0,0,0,0,0,0,0,0,0,0
1683184533.30035591,67728731,1569,1569,1582,1582,0,0,0,0,0,0,0,0,0,0
1683184533.40031600,67828691,1575,1574,1576,1576,0,0,0,0,0,0,0,0,0,0
1683184533.50027609,67928651,1581,1580,1573,1573,0,0,0,0,0,0,0,0,0,0
1683184533.60023594,68028611,1584,1583,1570,1570,0,0,0,0,0,0,0,0,0,0
1683184533.70019603,68128571,1585,1584,1568,1569,0,0,0,0,0,0,0,0,0,0
1683184533.80015588,68228531,1586,1585,1569,1569,0,0,0,0,0,0,0,0,0,0
1683184533.90011597,68328491,1586,1585,1571,1571,0,0,0,0,0,0,0,0,0,0
1683184534.00007606,68428451,1584,1584,1573,1573,0,0,0,0,0,0,0,0,0,0
1683184534.10003591,68528411,1582,1582,1576,1575,0,0,0,0,0,0,0,0,0,0
1683184534.19999599,68628371,1580,1579,1578,1577,0,0,0,0,0,0,0,0,0,0
1683184534.29995608,68728331,1577,1577,1580,1579,0,0,0,0,0,0,0,0,0,0
1683184534.39991593,68828291,1576,1577,1582,1582,0,0,0,0,0,0,0,0,0,0
1683184534.49987602,68928251,1574,1575,1583,1583,0,0,0,0,0,0,0,0,0,0
1683184534.59983611,69028211,1574,1575,1584,1584,0,0,0,0,0,0,0,0,0,0
1683184534.69979596,69128171,1573,1574,1583,1583,0,0,0,0,0,0,0,0,0,0
1683184534.80058908,69228964,1574,1574,1583,1583,0,0,0,0,0,0,0,0,0,0
1683184534.90054893,69328924,1575,1575,1582,1582,0,0,0,0,0,0,0,0,0,0
1683184535.00050902,69428884,1576,1577,1582,1582,0,0,0,0,0,0,0,0,0,0
1683184535.10046911,69528844,1576,1577,1579,1579,0,0,0,0,0,0,0,0,0,0
1683184535.20042896,69628804,1578,1578,1579,1579,0,0,0,0,0,0,0,0,0,0
1683184535.30038905,69728764,1579,1579,1578,1578,0,0,0,0,0,0,0,0,0,0
1683184535.40034890,69828724,1580,1580,1578,1578,0,0,0,0,0,0,0,0,0,0
1683184535.50030899,69928684,1580,1580,1577,1577,0,0,0,0,0,0,0,0,0,0
1683184535.60026908,70028644,1581,1581,1578,1578,0,0,0,0,0,0,0,0,0,0
1683184535.70022893,70128604,1582,1581,1578,1578,0,0,0,0,0,0,0,0,0,0
1683184535.80018902,70228564,1581,1581,1578,1578,0,0,0,0,0,0,0,0,0,0
1683184535.90014911,70328524,1581,1581,1579,1579,0,0,0,0,0,0,0,0,0,0
1683184536.00010896,70428484,1580,1580,1579,1579,0,0,0,0,0,0,0,0,0,0
1683184536.10006905,70528444,1580,1581,1580,1580,0,0,0,0,0,0,0,0,0,0
1683184536.20002890,70628404,1579,1580,1580,1579,0,0,0,0,0,0,0,0,0,0
1683184536.29998899,70728364,1579,1579,1580,1580,0,0,0,0,0,0,0,0,0,0
1683184536.39994907,70828324,1578,1578,1579,1579,0,0,0,0,0,0,0,0,0,0
1683184536.49990892,70928284,1579,1579,1580,1581,0,0,0,0,0,0,0,0,0,0
1683184536.59986901,71028244,1580,1580,1581,1581,0,0,0,0,0,0,0,0,0,0
1683184536.69982910,71128204,1580,1580,1581,1581,0,0,0,0,0,0,0,0,0,0
1683184536.79978895,71228164,1580,1580,1581,1581,0,0,0,0,0,0,0,0,0,0
1683184536.90058208,71328957,1581,1581,1582,1581,0,0,0,0,0,0,0,0,0,0
1683184537.00054193,71428917,1581,1581,1581,1581,0,0,0,0,0,0,0,0,0,0
1683184537.10050201,71528877,1581,1581,1581,1581,0,0,0,0,0,0,0,0,0,0
1683184537.20046210,71628837,1582,1582,1582,1582,0,0,0,0,0,0,0,0,0,0
1683184537.30042195,71728797,1582,1582,1581,1581,0,0,0,0,0,0,0,0,0,0
1683184537.40038204,71828757,1581,1582,1581,1581,0,0,0,0,0,0,0,0,0,0
1683184537.50034189,71928717,1581,1582,1581,1581,0,0,0,0,0,0,0,0,0,0
1683184537.60030198,72028677,1581,1582,1587,1574,0,0,0,0,0,0,0,0,0,0
1683184537.70026207,72128637,1581,1583,1586,1573,0,0,0,0,0,0,0,0,0,0
1683184537.80022192,72228597,1580,1582,1577,1573,0,0,0,0,0,0,0,0,0,0
1683184537.90018201,72328557,1577,1580,1567,1571,0,0,0,0,0,0,0,0,0,0
1683184538.00014210,72428517,1577,1580,1562,1568,0,0,0,0,0,0,0,0,0,0
1683184538.10010195,72528477,1577,1579,1556,1563,0,0,0,0,0,0,0,0,0,0
1683184538.20006204,72628437,1579,1578,1555,1559,0,0,0,0,0,0,0,0,0,0
1683184538.30002189,72728397,1580,1578,1554,1555,0,0,0,0,0,0,0,0,0,0
1683184538.39998198,72828357,1579,1577,1555,1553,0,0,0,0,0,0,0,0,0,0
1683184538.49994206,72928317,1578,1578,1556,1553,0,0,0,0,0,0,0,0,0,0
1683184538.59990191,73028277,1578,1578,1556,1553,0,0,0,0,0,0,0,0,0,0
1683184538.69986200,73128237,1576,1577,1556,1554,0,0,0,0,0,0,0,0,0,0
1683184538.79982209,73228197,1575,1576,1554,1553,0,0,0,0,0,0,0,0,0,0
1683184538.89978194,73328157,1575,1576,1553,1554,0,0,0,0,0,0,0,0,0,0
1683184539.00057507,73428950,1576,1577,1551,1553,0,0,0,0,0,0,0,0,0,0
1683184539.10053492,73528910,1577,1577,1550,1551,0,0,0,0,0,0,0,0,0,0
1683184539.20049500,73628870,1578,1579,1548,1548,0,0,0,0,0,0,0,0,0,0
1683184539.30045509,73728830,1580,1581,1546,1546,0,0,0,0,0,0,0,0,0,0
1683184539.40041494,73828790,1582,1583,1544,1543,0,0,0,0,0,0,0,0,0,0
1683184539.50037503,73928750,1586,1587,1543,1542,0,0,0,0,0,0,0,0,0,0
1683184539.60033488,74028710,1589,1589,1540,1540,0,0,0,0,0,0,0,0,0,0
1683184539.70029497,74128670,1590,1590,1537,1538,0,0,0,0,0,0,0,0,0,0
1683184539.80025506,74228630,1591,1592,1536,1537,0,0,0,0,0,0,0,0,0,0
1683184539.90021491,74328590,1594,1594,1537,1539,0,0,0,0,0,0,0,0,0,0
1683184540.00017500,74428550,1593,1594,1538,1539,0,0,0,0,0,0,0,0,0,0
1683184540.10013509,74528510,1593,1591,1542,1543,0,0,0,0,0,0,0,0,0,0
1683184540.20009494,74628470,1589,1586,1546,1549,0,0,0,0,0,0,0,0,0,0
1683184540.30005503,74728430,1584,1580,1555,1557,0,0,0,0,0,0,0,0,0,0
1683184540.40001488,74828390,1575,1571,1563,1566,0,0,0,0,0,0,0,0,0,0
1683184540.49997497,74928350,1566,1562,1576,1578,0,0,0,0,0,0,0,0,0,0
1683184540.59993505,75028310,1554,1551,1587,1588,0,0,0,0,0,0,0,0,0,0
1683184540.69989491,75128270,1544,1543,1598,1598,0,0,0,0,0,0,0,0,0,0
1683184540.79985499,75228230,1537,1537,1606,1605,0,0,0,0,0,0,0,0,0,0
1683184540.89981508,75328190,1533,1534,1611,1610,0,0,0,0,0,0,0,0,0,0
1683184541.00060797,75428983,1531,1533,1613,1611,0,0,0,0,0,0,0,0,0,0
1683184541.10056806,75528943,1535,1536,1611,1610,0,0,0,0,0,0,0,0,0,0
1683184541.20052791,75628903,1540,1542,1607,1607,0,0,0,0,0,0,0,0,0,0
1683184541.30048800,75728863,1547,1549,1601,1601,0,0,0,0,0,0,0,0,0,0
1683184541.40044808,75828823,1555,1556,1594,1594,0,0,0,0,0,0,0,0,0,0
1683184541.50040793,75928783,1564,1564,1588,1587,0,0,0,0,0,0,0,0,0,0
1683184541.60036802,76028743,1572,1571,1581,1581,0,0,0,0,0,0,0,0,0,0
1683184541.70032811,76128703,1578,1577,1575,1575,0,0,0,0,0,0,0,0,0,0
1683184541.80028796,76228663,1583,1581,1571,1571,0,0,0,0,0,0,0,0,0,0
1683184541.90024805,76328623,1586,1585,1569,1569,0,0,0,0,0,0,0,0,0,0
1683184542.00020790,76428583,1587,1586,1568,1568,0,0,0,0,0,0,0,0,0,0
1683184542.10016799,76528543,1587,1585,1568,1568,0,0,0,0,0,0,0,0,0,0
1683184542.20012808,76628503,1585,1584,1569,1570,0,0,0,0,0,0,0,0,0,0
1683184542.30008793,76728463,1583,1582,1571,1572,0,0,0,0,0,0,0,0,0,0
1683184542.40004802,76828423,1580,1580,1574,1574,0,0,0,0,0,0,0,0,0,0
1683184542.50000811,76928383,1578,1579,1578,1578,0,0,0,0,0,0,0,0,0,0
1683184542.59996796,77028343,1576,1577,1580,1580,0,0,0,0,0,0,0,0,0,0
1683184542.69992805,77128303,1575,1575,1583,1582,0,0,0,0,0,0,0,0,0,0
1683184542.79988790,77228263,1573,1574,1584,1583,0,0,0,0,0,0,0,0,0,0
1683184542.89984798,77328223,1573,1574,1584,1585,0,0,0,0,0,0,0,0,0,0
1683184542.99980807,77428183,1574,1574,1584,1585,0,0,0,0,0,0,0,0,0,0
1683184543.10060096,77528976,1576,1576,1585,1585,0,0,0,0,0,0,0,0,0,0
1683184543.20056105,77628936,1575,1575,1582,1582,0,0,0,0,0,0,0,0,0,0
1683184543.30052090,77728896,1577,1577,1582,1581,0,0,0,0,0,0,0,0,0,0
1683184543.40048099,77828856,1578,1578,1580,1580,0,0,0,0,0,0,0,0,0,0
1683184543.50044107,77928816,1579,1579,1580,1579,0,0,0,0,0,0,0,0,0,0
1683184543.60040092,78028776,1580,1580,1578,1578,0,0,0,0,0,0,0,0,0,0
1683184543.70036101,78128736,1580,1581,1577,1578,0,0,0,0,0,0,0,0,0,0
1683184543.80032110,78228696,1580,1580,1576,1577,0,0,0,0,0,0,0,0,0,0
1683184543.90028095,78328656,1581,1581,1577,1578,0,0,0,0,0,0,0,0,0,0
1683184544.00024104,78428616,1582,1581,1578,1578,0,0,0,0,0,0,0,0,0,0
1683184544.10020089,78528576,1581,1580,1577,1577,0,0,0,0,0,0,0,0,0,0
1683184544.20016098,78628536,1581,1580,1578,1578,0,0,0,0,0,0,0,0,0,0
1683184544.30012107,78728496,1581,1581,1580,1580,0,0,0,0,0,0,0,0,0,0
1683184544.40008092,78828456,1579,1580,1579,1579,0,0,0,0,0,0,0,0,0,0
1683184544.50004101,78928416,1579,1580,1580,1580,0,0,0,0,0,0,0,0,0,0
1683184544.60000110,79028376,1579,1579,1580,1580,0,0,0,0,0,0,0,0,0,0
1683184544.69996095,79128336,1579,1579,1580,1581,0,0,0,0,0,0,0,0,0,0
1683184544.79992104,79228296,1579,1579,1581,1581,0,0,0,0,0,0,0,0,0,0
1683184544.89988089,79328256,1580,1579,1581,1581,0,0,0,0,0,0,0,0,0,0
1683184544.99984097,79428216,1579,1580,1581,1581,0,0,0,0,0,0,0,0,0,0
1683184545.09980106,79528176,1580,1580,1581,1581,0,0,0,0,0,0,0,0,0,0
1683184545.20059395,79628969,1580,1580,1581,1581,0,0,0,0,0,0,0,0,0,0
1683184545.30055404,79728929,1580,1580,1581,1580,0,0,0,0,0,0,0,0,0,0
1683184545.40051389,79828889,1581,1581,1582,1581,0,0,0,0,0,0,0,0,0,0
1683184545.50047398,79928849,1581,1581,1582,1578,0,0,0,0,0,0,0,0,0,0
1683184545.60043406,80028809,1581,1582,1587,1572,0,0,0,0,0,0,0,0,0,0
1683184545.70039392,80128769,1580,1581,1583,1574,0,0,0,0,0,0,0,0,0,0
1683184545.80035400,80228729,1578,1578,1577,1576,0,0,0,0,0,0,0,0,0,0
1683184545.90031409,80328689,1575,1574,1570,1575,0,0,0,0,0,0,0,0,0,0
1683184546.00027394,80428649,1572,1571,1567,1574,0,0,0,0,0,0,0,0,0,0
1683184546.10023403,80528609,1570,1570,1566,1572,0,0,0,0,0,0,0,0,0,0
1683184546.20019388,80628569,1568,1568,1566,1569,0,0,0,0,0,0,0,0,0,0
1683184546.30015397,80728529,1566,1567,1566,1567,0,0,0,0,0,0,0,0,0,0
1683184546.40011406,80828489,1566,1566,1567,1565,0,0,0,0,0,0,0,0,0,0
1683184546.50007391,80928449,1565,1565,1567,1565,0,0,0,0,0,0,0,0,0,0
1683184546.60003400,81028409,1565,1565,1567,1565,0,0,0,0,0,0,0,0,0,0
1683184546.69999409,81128369,1564,1564,1565,1564,0,0,0,0,0,0,0,0,0,0
1683184546.79995394,81228329,1563,1563,1564,1564,0,0,0,0,0,0,0,0,0,0
1683184546.89991403,81328289,1563,1562,1563,1563,0,0,0,0,0,0,0,0,0,0
1683184546.99987388,81428249,1562,1562,1563,1563,0,0,0,0,0,0,0,0,0,0
1683184547.09983397,81528209,1562,1562,1562,1562,0,0,0,0,0,0,0,0,0,0
1683184547.19979405,81628169,1561,1561,1562,1561,0,0,0,0,0,0,0,0,0,0
1683184547.30058694,81728962,1561,1561,1561,1561,0,0,0,0,0,0,0,0,0,0
1683184547.40054703,81828922,1560,1560,1560,1560,0,0,0,0,0,0,0,0,0,0
1683184547.50050688,81928882,1559,1560,1559,1559,0,0,0,0,0,0,0,0,0,0
1683184547.60046697,82028842,1559,1559,1559,1558,0,0,0,0,0,0,0,0,0,0
1683184547.70042706,82128802,1558,1557,1558,1557,0,0,0,0,0,0,0,0,0,0
1683184547.80038691,82228762,1557,1557,1557,1556,0,0,0,0,0,0,0,0,0,0
1683184547.90034699,82328722,1558,1557,1557,1557,0,0,0,0,0,0,0,0,0,0
1683184548.00030708,82428682,1557,1558,1558,1557,0,0,0,0,0,0,0,0,0,0
1683184548.10026693,82528642,1558,1558,1559,1557,0,0,0,0,0,0,0,0,0,0
1683184548.20022702,82628602,1558,1558,1559,1556,0,0,0,0,0,0,0,0,0,0
1683184548.30018711,82728562,1560,1559,1561,1558,0,0,0,0,0,0,0,0,0,0
1683184548.40014696,82828522,1559,1559,1558,1560,0,0,0,0,0,0,0,0,0,0
1683184548.50010705,82928482,1561,1561,1558,1563,0,0,0,0,0,0,0,0,0,0
1683184548.60006690,83028442,1561,1561,1558,1564,0,0,0,0,0,0,0,0,0,0
1683184548.70002699,83128402,1561,1561,1559,1564,0,0,0,0,0,0,0,0,0,0
1683184548.79998708,83228362,1562,1562,1560,1563,0,0,0,0,0,0,0,0,0,0
1683184548.89994693,83328322,1562,1563,1563,1563,0,0,0,0,0,0,0,0,0,0
1683184548.99990702,83428282,1561,1562,1563,1560,0,0,0,0,0,0,0,0,0,0
1683184549.09986711,83528242,1561,1560,1562,1559,0,0,0,0,0,0,0,0,0,0
1683184549.19982696,83628202,1559,1559,1557,1561,0,0,0,0,0,0,0,0,0,0
1683184549.29978704,83728162,1556,1555,1554,1558,0,0,0,0,0,0,0,0,0,0
1683184549.40057993,83828955,1551,1551,1549,1552,0,0,0,0,0,0,0,0,0,0
1683184549.50054002,83928915,1545,1545,1544,1545,0,0,0,0,0,0,0,0,0,0
1683184549.60050011,84028875,1538,1539,1539,1538,0,0,0,0,0,0,0,0,0,0
1683184549.70045996,84128835,1532,1531,1532,1531,0,0,0,0,0,0,0,0,0,0
1683184549.80042005,84228795,1524,1524,1524,1523,0,0,0,0,0,0,0,0,0,0
1683184549.90037990,84328755,1521,1521,1521,1520,0,0,0,0,0,0,0,0,0,0
1683184550.00033998,84428715,1519,1520,1520,1519,0,0,0,0,0,0,0,0,0,0
1683184550.10030007,84528675,1520,1520,1520,1521,0,0,0,0,0,0,0,0,0,0
1683184550.20025992,84628635,1523,1523,1523,1523,0,0,0,0,0,0,0,0,0,0
1683184550.30022001,84728595,1527,1527,1526,1528,0,0,0,0,0,0,0,0,0,0
1683184550.40018010,84828555,1531,1531,1531,1531,0,0,0,0,0,0,0,0,0,0
1683184550.50013995,84928515,1535,1535,1535,1535,0,0,0,0,0,0,0,0,0,0
1683184550.60010004,85028475,1539,1539,1539,1539,0,0,0,0,0,0,0,0,0,0
1683184550.70005989,85128435,1542,1542,1542,1542,0,0,0,0,0,0,0,0,0,0
1683184550.80001998,85228395,1543,1543,1544,1543,0,0,0,0,0,0,0,0,0,0
1683184550.89998007,85328355,1544,1544,1544,1544,0,0,0,0,0,0,0,0,0,0
1683184550.99993992,85428315,1546,1546,1546,1546,0,0,0,0,0,0,0,0,0,0
1683184551.09990001,85528275,1546,1545,1545,1545,0,0,0,0,0,0,0,0,0,0
1683184551.19986010,85628235,1546,1546,1546,1546,0,0,0,0,0,0,0,0,0,0
1683184551.29981995,85728195,1546,1546,1546,1546,0,0,0,0,0,0,0,0,0,0
1683184551.39978004,85828155,1546,1547,1546,1546,0,0,0,0,0,0,0,0,0,0
1683184551.50057292,85928948,1546,1546,1546,1546,0,0,0,0,0,0,0,0,0,0
1683184551.60053301,86028908,1546,1546,1546,1546,0,0,0,0,0,0,0,0,0,0
1683184551.70049310,86128868,1545,1545,1545,1545,0,0,0,0,0,0,0,0,0,0
1683184551.80045295,86228828,1546,1546,1546,1546,0,0,0,0,0,0,0,0,0,0
1683184551.90041304,86328788,1545,1544,1545,1544,0,0,0,0,0,0,0,0,0,0
1683184552.00037289,86428748,1544,1544,1544,1544,0,0,0,0,0,0,0,0,0,0
1683184552.10033298,86528708,1545,1545,1545,1545,0,0,0,0,0,0,0,0,0,0
1683184552.20029306,86628668,1544,1545,1544,1545,0,0,0,0,0,0,0,0,0,0
1683184552.30025291,86728628,1545,1545,1545,1545,0,0,0,0,0,0,0,0,0,0
1683184552.40021300,86828588,1544,1543,1544,1544,0,0,0,0,0,0,0,0,0,0
1683184552.50017309,86928548,1545,1544,1545,1544,0,0,0,0,0,0,0,0,0,0
1683184552.60013294,87028508,1543,1544,1544,1543,0,0,0,0,0,0,0,0,0,0
1683184552.70009303,87128468,1543,1544,1543,1543,0,0,0,0,0,0,0,0,0,0
1683184552.80005288,87228428,1544,1544,1544,1544,0,0,0,0,0,0,0,0,0,0
1683184552.90001297,87328388,1544,1544,1544,1544,0,0,0,0,0,0,0,0,0,0
1683184552.99997306,87428348,1544,1544,1544,1544,0,0,0,0,0,0,0,0,0,0
1683184553.09993291,87528308,1544,1544,1544,1544,0,0,0,0,0,0,0,0,0,0
1683184553.19989300,87628268,1544,1544,1544,1544,0,0,0,0,0,0,0,0,0,0
1683184553.29985309,87728228,1545,1544,1544,1544,0,0,0,0,0,0,0,0,0,0
1683184553.39981294,87828188,1544,1544,1544,1544,0,0,0,0,0,0,0,0,0,0
1683184553.50060606,87928981,1544,1544,1544,1544,0,0,0,0,0,0,0,0,0,0
1683184553.60056591,88028941,1544,1544,1544,1544,0,0,0,0,0,0,0,0,0,0
1683184553.70052600,88128901,1544,1544,1544,1544,0,0,0,0,0,0,0,0,0,0
1683184553.80048609,88228861,1544,1543,1543,1544,0,0,0,0,0,0,0,0,0,0
1683184553.90044594,88328821,1544,1543,1543,1544,0,0,0,0,0,0,0,0,0,0
1683184554.00040603,88428781,1544,1545,1545,1544,0,0,0,0,0,0,0,0,0,0
1683184554.10036588,88528741,1544,1544,1544,1543,0,0,0,0,0,0,0,0,0,0
1683184554.20032597,88628701,1544,1544,1544,1544,0,0,0,0,0,0,0,0,0,0
1683184554.30028605,88728661,1545,1544,1545,1545,0,0,0,0,0,0,0,0,0,0
1683184554.40024590,88828621,1544,1544,1544,1544,0,0,0,0,0,0,0,0,0,0
1683184554.50020599,88928581,1545,1544,1545,1545,0,0,0,0,0,0,0,0,0,0
1683184554.60016608,89028541,1544,1544,1544,1544,0,0,0,0,0,0,0,0,0,0
1683184554.70012593,89128501,1546,1545,1545,1546,0,0,0,0,0,0,0,0,0,0
1683184554.80008602,89228461,1545,1545,1545,1546,0,0,0,0,0,0,0,0,0,0
1683184554.90004611,89328421,1545,1545,1545,1545,0,0,0,0,0,0,0,0,0,0
1683184555.00000596,89428381,1545,1544,1545,1544,0,0,0,0,0,0,0,0,0,0
1683184555.09996605,89528341,1546,1545,1545,1545,0,0,0,0,0,0,0,0,0,0
1683184555.19992590,89628301,1545,1546,1545,1545,0,0,0,0,0,0,0,0,0,0
1683184555.29988599,89728261,1545,1545,1544,1545,0,0,0,0,0,0,0,0,0,0
1683184555.39984608,89828221,1544,1545,1545,1544,0,0,0,0,0,0,0,0,0,0
1683184555.49980593,89928181,1544,1544,1544,1544,0,0,0,0,0,0,0,0,0,0
1683184555.60059905,90028974,1544,1544,1544,1545,0,0,0,0,0,0,0,0,0,0
1683184555.70055890,90128934,1544,1544,1544,1544,0,0,0,0,0,0,0,0,0,0
1683184555.80051899,90228894,1543,1543,1543,1543,0,0,0,0,0,0,0,0,0,0
1683184555.90047908,90328854,1544,1544,1544,1544,0,0,0,0,0,0,0,0,0,0
1683184556.00043893,90428814,1544,1545,1545,1545,0,0,0,0,0,0,0,0,0,0
1683184556.10039902,90528774,1544,1544,1544,1544,0,0,0,0,0,0,0,0,0,0
1683184556.20035911,90628734,1543,1544,1544,1543,0,0,0,0,0,0,0,0,0,0
1683184556.30031896,90728694,1544,1543,1543,1544,0,0,0,0,0,0,0,0,0,0
1683184556.40027905,90828654,1544,1544,1544,1543,0,0,0,0,0,0,0,0,0,0
1683184556.50023890,90928614,1544,1544,1544,1544,0,0,0,0,0,0,0,0,0,0
1683184556.60019898,91028574,1544,1544,1544,1544,0,0,0,0,0,0,0,0,0,0
1683184556.70015907,91128534,1544,1544,1544,1544,0,0,0,0,0,0,0,0,0,0
1683184556.80011892,91228494,1543,1544,1543,1544,0,0,0,0,0,0,0,0,0,0
1683184556.90007901,91328454,1544,1544,1544,1544,0,0,0,0,0,0,0,0,0,0
1683184557.00003910,91428414,1543,1544,1544,1543,0,0,0,0,0,0,0,0,0,0
1683184557.09999895,91528374,1545,1544,1545,1545,0,0,0,0,0,0,0,0,0,0
1683184557.19995904,91628334,1544,1544,1544,1544,0,0,0,0,0,0,0,0,0,0
1683184557.29991889,91728294,1544,1544,1544,1544,0,0,0,0,0,0,0,0,0,0
1683184557.39987898,91828254,1544,1543,1544,1543,0,0,0,0,0,0,0,0,0,0
1683184557.49983907,91928214,1545,1544,1545,1545,0,0,0,0,0,0,0,0,0,0
1683184557.59979892,92028174,1544,1544,1544,1544,0,0,0,0,0,0,0,0,0,0
1683184557.70059204,92128967,1544,1544,1544,1545,0,0,0,0,0,0,0,0,0,0
1683184557.80055189,92228927,1544,1545,1544,1545,0,0,0,0,0,0,0,0,0,0
1683184557.90051198,92328887,1545,1545,1545,1545,0,0,0,0,0,0,0,0,0,0
1683184558.00047207,92428847,1544,1544,1544,1544,0,0,0,0,0,0,0,0,0,0
1683184558.10043192,92528807,1544,1544,1545,1544,0,0,0,0,0,0,0,0,0,0
1683184558.20039201,92628767,1543,1544,1544,1544,0,0,0,0,0,0,0,0,0,0
1683184558.30035210,92728727,1543,1543,1543,1543,0,0,0,0,0,0,0,0,0,0
1683184558.40031195,92828687,1544,1544,1544,1544,0,0,0,0,0,0,0,0,0,0
1683184558.50027204,92928647,1544,1544,1544,1544,0,0,0,0,0,0,0,0,0,0
1683184558.60023189,93028607,1545,1545,1544,1545,0,0,0,0,0,0,0,0,0,0
1683184558.70019197,93128567,1544,1544,1544,1544,0,0,0,0,0,0,0,0,0,0
1683184558.80015206,93228527,1545,1545,1545,1545,0,0,0,0,0,0,0,0,0,0
1683184558.90011191,93328487,1545,1545,1545,1545,0,0,0,0,0,0,0,0,0,0
1683184559.00007200,93428447,1544,1544,1544,1543,0,0,0,0,0,0,0,0,0,0
1683184559.10003209,93528407,1544,1544,1545,1544,0,0,0,0,0,0,0,0,0,0
1683184559.19999194,93628367,1544,1544,1545,1544,0,0,0,0,0,0,0,0,0,0
1683184559.29995203,93728327,1545,1544,1544,1545,0,0,0,0,0,0,0,0,0,0
1683184559.39991188,93828287,1544,1545,1544,1544,0,0,0,0,0,0,0,0,0,0
1683184559.49987197,93928247,1543,1544,1543,1544,0,0,0,0,0,0,0,0,0,0
1683184559.59983206,94028207,1521,1522,1521,1522,0,0,0,0,0,0,0,0,0,0
1683184559.69979191,94128167,1334,1333,1334,1333,0,0,0,0,0,0,0,0,0,0
1683184559.80058503,94228960,1241,1240,1242,1240,0,0,0,0,0,0,0,0,0,0
1683184559.90054488,94328920,1215,1212,1214,1214,0,0,0,0,0,0,0,0,0,0
1683184560.00050497,94428880,1194,1192,1193,1193,0,0,0,0,0,0,0,0,0,0
1683184560.10046506,94528840,1152,1150,1151,1151,0,0,0,0,0,0,0,0,0,0
1683184560.20042491,94628800,1151,1150,1151,1150,0,0,0,0,0,0,0,0,0,0
1683184560.30038500,94728760,1155,1150,1151,1154,0,0,0,0,0,0,0,0,0,0
1683184560.40034509,94828720,1179,1150,1151,1178,0,0,0,0,0,0,0,0,0,0
1683184560.50030494,94928680,1171,1150,1151,1170,0,0,0,0,0,0,0,0,0,0
1683184560.60026503,95028640,1169,1150,1151,1168,0,0,0,0,0,0,0,0,0,0
1683184560.70022488,95128600,1170,1150,1151,1169,0,0,0,0,0,0,0,0,0,0
1683184560.80018497,95228560,1172,1150,1151,1171,0,0,0,0,0,0,0,0,0,0
1683184560.90014505,95328520,1174,1150,1151,1173,0,0,0,0,0,0,0,0,0,0
1683184561.00010490,95428480,1175,1150,1151,1174,0,0,0,0,0,0,0,0,0,0
1683184561.10006499,95528440,1153,1150,1151,1152,0,0,0,0,0,0,0,0,0,0
1683184561.20002508,95628400,1164,1150,1151,1163,0,0,0,0,0,0,0,0,0,0
1683184561.29998493,95728360,1165,1150,1151,1165,0,0,0,0,0,0,0,0,0,0
1683184561.39994502,95828320,1166,1150,1151,1165,0,0,0,0,0,0,0,0,0,0
1683184561.49990511,95928280,1166,1150,1151,1166,0,0,0,0,0,0,0,0,0,0
1683184561.59986496,96028240,1149,1149,1149,1149,0,0,0,0,0,0,0,0,0,0
1683184561.69982505,96128200,1000,1000,1000,1000,0,0,0,0,0,0,0,0,0,0
1683184561.79978490,96228160,1000,1000,1000,1000,0,0,0,0,0,0,0,0,0,0
1683184561.90057802,96328953,1000,1000,1000,1000,0,0,0,0,0,0,0,0,0,0
1683184562.00053811,96428913,1000,1000,1000,1000,0,0,0,0,0,0,0,0,0,0
1683184562.10049796,96528873,1000,1000,1000,1000,0,0,0,0,0,0,0,0,0,0
1683184562.20045805,96628833,1000,1000,1000,1000,0,0,0,0,0,0,0,0,0,0
1683184562.30041790,96728793,1000,1000,1000,1000,0,0,0,0,0,0,0,0,0,0
1683184562.40037799,96828753,1000,1000,1000,1000,0,0,0,0,0,0,0,0,0,0
1683184562.50033808,96928713,1000,1000,1000,1000,0,0,0,0,0,0,0,0,0,0
1683184562.60029793,97028673,1000,1000,1000,1000,0,0,0,0,0,0,0,0,0,0
1683184562.70025802,97128633,1000,1000,1000,1000,0,0,0,0,0,0,0,0,0,0
1683184562.80021811,97228593,1000,1000,1000,1000,0,0,0,0,0,0,0,0,0,0
1683184562.90017796,97328553,1000,1000,1000,1000,0,0,0,0,0,0,0,0,0,0
1683184563.00013804,97428513,1000,1000,1000,1000,0,0,0,0,0,0,0,0,0,0
1683184563.10009789,97528473,1000,1000,1000,1000,0,0,0,0,0,0,0,0,0,0
1683184563.20005798,97628433,1000,1000,1000,1000,0,0,0,0,0,0,0,0,0,0
1683184563.30001807,97728393,1000,1000,1000,1000,0,0,0,0,0,0,0,0,0,0
1683184563.39997792,97828353,1000,1000,1000,1000,0,0,0,0,0,0,0,0,0,0
1683184563.49993801,97928313,1000,1000,1000,1000,0,0,0,0,0,0,0,0,0,0
1683184563.59989810,98028273,1000,1000,1000,1000,0,0,0,0,0,0,0,0,0,0
1683184563.69985795,98128233,1000,1000,1000,1000,0,0,0,0,0,0,0,0,0,0
1683184563.79981804,98228193,1000,1000,1000,1000,0,0,0,0,0,0,0,0,0,0
1683184563.90061092,98328986,1000,1000,1000,1000,0,0,0,0,0,0,0,0,0,0
1683184564.00057101,98428946,1000,1000,1000,1000,0,0,0,0,0,0,0,0,0,0
1683184564.10053110,98528906,1000,1000,1000,1000,0,0,0,0,0,0,0,0,0,0
1683184564.20049095,98628866,1000,1000,1000,1000,0,0,0,0,0,0,0,0,0,0
1683184564.30045104,98728826,1000,1000,1000,1000,0,0,0,0,0,0,0,0,0,0
1683184564.40041089,98828786,1000,1000,1000,1000,0,0,0,0,0,0,0,0,0,0
1683184564.50037098,98928746,1000,1000,1000,1000,0,0,0,0,0,0,0,0,0,0
1683184564.60033107,99028706,1000,1000,1000,1000,0,0,0,0,0,0,0,0,0,0
1683184564.70029092,99128666,1000,1000,1000,1000,0,0,0,0,0,0,0,0,0,0
1683184564.80025101,99228626,1000,1000,1000,1000,0,0,0,0,0,0,0,0,0,0
1683184564.90021110,99328586,1000,1000,1000,1000,0,0,0,0,0,0,0,0,0,0
1683184565.00017095,99428546,1000,1000,1000,1000,0,0,0,0,0,0,0,0,0,0
1683184565.10013103,99528506,1000,1000,1000,1000,0,0,0,0,0,0,0,0,0,0
1683184565.20009089,99628466,1000,1000,1000,1000,0,0,0,0,0,0,0,0,0,0
1683184565.30005097,99728426,1000,1000,1000,1000,0,0,0,0,0,0,0,0,0,0
1683184565.40001106,99828386,1000,1000,1000,1000,0,0,0,0,0,0,0,0,0,0
1683184565.49997091,99928346,1000,1000,1000,1000,0,0,0,0,0,0,0,0,0,0
1683184565.59993100,100028306,1000,1000,1000,1000,0,0,0,0,0,0,0,0,0,0
1683184565.69989109,100128266,1000,1000,1000,1000,0,0,0,0,0,0,0,0,0,0
1683184565.79985094,100228226,1000,1000,1000,1000,0,0,0,0,0,0,0,0,0,0
1683184565.89981103,100328186,1000,1000,1000,1000,0,0,0,0,0,0,0,0,0,0
1683184566.00060391,100428979,1000,1000,1000,1000,0,0,0,0,0,0,0,0,0,0
1683184566.10056400,100528939,1000,1000,1000,1000,0,0,0,0,0,0,0,0,0,0
1683184566.20052409,100628899,1000,1000,1000,1000,0,0,0,0,0,0,0,0,0,0
1683184566.30048394,100728859,1000,1000,1000,1000,0,0,0,0,0,0,0,0,0,0
1683184566.40044403,100828819,1000,1000,1000,1000,0,0,0,0,0,0,0,0,0,0
1683184566.50040388,100928779,1000,1000,1000,1000,0,0,0,0,0,0,0,0,0,0
1683184566.60036397,101028739,1000,1000,1000,1000,0,0,0,0,0,0,0,0,0,0
1683184566.70032406,101128699,1000,1000,1000,1000,0,0,0,0,0,0,0,0,0,0
1683184566.80028391,101228659,1000,1000,1000,1000,0,0,0,0,0,0,0,0,0,0
1683184566.90024400,101328619,1000,1000,1000,1000,0,0,0,0,0,0,0,0,0,0
1683184567.00020409,101428579,1000,1000,1000,1000,0,0,0,0,0,0,0,0,0,0
1683184567.10016394,101528539,1000,1000,1000,1000,0,0,0,0,0,0,0,0,0,0
1683184567.20012403,101628499,1000,1000,1000,1000,0,0,0,0,0,0,0,0,0,0
1683184567.30008388,101728459,1000,1000,1000,1000,0,0,0,0,0,0,0,0,0,0
1683184567.40004396,101828419,1000,1000,1000,1000,0,0,0,0,0,0,0,0,0,0
1683184567.50000405,101928379,1000,1000,1000,1000,0,0,0,0,0,0,0,0,0,0
1683184567.59996390,102028339,1000,1000,1000,1000,0,0,0,0,0,0,0,0,0,0
1683184567.69992399,102128299,1000,1000,1000,1000,0,0,0,0,0,0,0,0,0,0
1683184567.79988408,102228259,1000,1000,1000,1000,0,0,0,0,0,0,0,0,0,0
1683184567.89984393,102328219,1000,1000,1000,1000,0,0,0,0,0,0,0,0,0,0
1683184567.99980402,102428179,1000,1000,1000,1000,0,0,0,0,0,0,0,0,0,0
1683184568.10059690,102528972,1000,1000,1000,1000,0,0,0,0,0,0,0,0,0,0
1683184568.20055699,102628932,1000,1000,1000,1000,0,0,0,0,0,0,0,0,0,0
1683184568.30051708,102728892,1000,1000,1000,1000,0,0,0,0,0,0,0,0,0,0
1683184568.40047693,102828852,1000,1000,1000,1000,0,0,0,0,0,0,0,0,0,0
1683184568.50043702,102928812,1000,1000,1000,1000,0,0,0,0,0,0,0,0,0,0
1683184568.60039711,103028772,1000,1000,1000,1000,0,0,0,0,0,0,0,0,0,0
1683184568.70035696,103128732,1000,1000,1000,1000,0,0,0,0,0,0,0,0,0,0
1683184568.80031705,103228692,1000,1000,1000,1000,0,0,0,0,0,0,0,0,0,0
1683184568.90027690,103328652,1000,1000,1000,1000,0,0,0,0,0,0,0,0,0,0
1683184569.00023699,103428612,1000,1000,1000,1000,0,0,0,0,0,0,0,0,0,0
1683184569.10019708,103528572,1000,1000,1000,1000,0,0,0,0,0,0,0,0,0,0
1683184569.20015693,103628532,1000,1000,1000,1000,0,0,0,0,0,0,0,0,0,0
1683184569.30011702,103728492,1000,1000,1000,1000,0,0,0,0,0,0,0,0,0,0
1683184569.40007710,103828452,1000,1000,1000,1000,0,0,0,0,0,0,0,0,0,0
1683184569.50003695,103928412,1000,1000,1000,1000,0,0,0,0,0,0,0,0,0,0
1683184569.59999704,104028372,1000,1000,1000,1000,0,0,0,0,0,0,0,0,0,0
1683184569.69995689,104128332,1000,1000,1000,1000,0,0,0,0,0,0,0,0,0,0
1683184569.79991698,104228292,1000,1000,1000,1000,0,0,0,0,0,0,0,0,0,0
1683184569.89987707,104328252,1000,1000,1000,1000,0,0,0,0,0,0,0,0,0,0
1683184569.99983692,104428212,1000,1000,1000,1000,0,0,0,0,0,0,0,0,0,0
1683184570.09979701,104528172,1000,1000,1000,1000,0,0,0,0,0,0,0,0,0,0
1683184570.20058990,104628965,1000,1000,1000,1000,0,0,0,0,0,0,0,0,0,0
1683184570.30054998,104728925,1000,1000,1000,1000,0,0,0,0,0,0,0,0,0,0
1683184570.40051007,104828885,1000,1000,1000,1000,0,0,0,0,0,0,0,0,0,0
1683184570.50046992,104928845,1000,1000,1000,1000,0,0,0,0,0,0,0,0,0,0
1683184570.60043001,105028805,1000,1000,1000,1000,0,0,0,0,0,0,0,0,0,0
1683184570.70039010,105128765,1000,1000,1000,1000,0,0,0,0,0,0,0,0,0,0
1683184570.80034995,105228725,1000,1000,1000,1000,0,0,0,0,0,0,0,0,0,0
1683184570.90031004,105328685,1000,1000,1000,1000,0,0,0,0,0,0,0,0,0,0
1683184571.00026989,105428645,1000,1000,1000,1000,0,0,0,0,0,0,0,0,0,0
1683184571.10022998,105528605,1000,1000,1000,1000,0,0,0,0,0,0,0,0,0,0
1683184571.20019007,105628565,1000,1000,1000,1000,0,0,0,0,0,0,0,0,0,0
1683184571.30014992,105728525,1000,1000,1000,1000,0,0,0,0,0,0,0,0,0,0
1683184571.40011001,105828485,1000,1000,1000,1000,0,0,0,0,0,0,0,0,0,0
1683184571.50007010,105928445,1000,1000,1000,1000,0,0,0,0,0,0,0,0,0,0
1683184571.60002995,106028405,1000,1000,1000,1000,0,0,0,0,0,0,0,0,0,0
1683184571.69999003,106128365,1000,1000,1000,1000,0,0,0,0,0,0,0,0,0,0
1683184571.79994988,106228325,1000,1000,1000,1000,0,0,0,0,0,0,0,0,0,0
1683184571.89990997,106328285,1000,1000,1000,1000,0,0,0,0,0,0,0,0,0,0
1683184571.99987006,106428245,1000,1000,1000,1000,0,0,0,0,0,0,0,0,0,0
1683184572.09982991,106528205,1000,1000,1000,1000,0,0,0,0,0,0,0,0,0,0
1683184572.19979000,106628165,1000,1000,1000,1000,0,0,0,0,0,0,0,0,0,0
1683184572.30058289,106728958,1000,1000,1000,1000,0,0,0,0,0,0,0,0,0,0
1683184572.40054297,106828918,1000,1000,1000,1000,0,0,0,0,0,0,0,0,0,0
1683184572.50050306,106928878,1000,1000,1000,1000,0,0,0,0,0,0,0,0,0,0
1683184572.60046291,107028838,1000,1000,1000,1000,0,0,0,0,0,0,0,0,0,0
1683184572.70042300,107128798,1000,1000,1000,1000,0,0,0,0,0,0,0,0,0,0
1683184572.80038309,107228758,1000,1000,1000,1000,0,0,0,0,0,0,0,0,0,0
1683184572.90034294,107328718,1000,1000,1000,1000,0,0,0,0,0,0,0,0,0,0
1683184573.00030303,107428678,1000,1000,1000,1000,0,0,0,0,0,0,0,0,0,0
1683184573.10026288,107528638,1000,1000,1000,1000,0,0,0,0,0,0,0,0,0,0
1683184573.20022297,107628598,1000,1000,1000,1000,0,0,0,0,0,0,0,0,0,0
1683184573.30018306,107728558,1000,1000,1000,1000,0,0,0,0,0,0,0,0,0,0
1683184573.40014291,107828518,1000,1000,1000,1000,0,0,0,0,0,0,0,0,0,0
1683184573.50010300,107928478,1000,1000,1000,1000,0,0,0,0,0,0,0,0,0,0
1683184573.60006309,108028438,1000,1000,1000,1000,0,0,0,0,0,0,0,0,0,0
1683184573.70002294,108128398,1000,1000,1000,1000,0,0,0,0,0,0,0,0,0,0
1683184573.79998302,108228358,1000,1000,1000,1000,0,0,0,0,0,0,0,0,0,0
1683184573.89994311,108328318,1000,1000,1000,1000,0,0,0,0,0,0,0,0,0,0
1683184573.99990296,108428278,1000,1000,1000,1000,0,0,0,0,0,0,0,0,0,0
1683184574.09986305,108528238,1000,1000,1000,1000,0,0,0,0,0,0,0,0,0,0
1683184574.19982290,108628198,1000,1000,1000,1000,0,0,0,0,0,0,0,0,0,0
1683184574.29978299,108728158,1000,1000,1000,1000,0,0,0,0,0,0,0,0,0,0
1683184574.40057588,108828951,1000,1000,1000,1000,0,0,0,0,0,0,0,0,0,0
1683184574.50053596,108928911,1000,1000,1000,1000,0,0,0,0,0,0,0,0,0,0
1683184574.60049605,109028871,1000,1000,1000,1000,0,0,0,0,0,0,0,0,0,0
1683184574.70045590,109128831,1000,1000,1000,1000,0,0,0,0,0,0,0,0,0,0
1683184574.80041599,109228791,1000,1000,1000,1000,0,0,0,0,0,0,0,0,0,0
1683184574.90037608,109328751,1000,1000,1000,1000,0,0,0,0,0,0,0,0,0,0
1683184575.00033593,109428711,1000,1000,1000,1000,0,0,0,0,0,0,0,0,0,0
1683184575.10029602,109528671,1000,1000,1000,1000,0,0,0,0,0,0,0,0,0,0
1683184575.20025611,109628631,1000,1000,1000,1000,0,0,0,0,0,0,0,0,0,0
1683184575.30021596,109728591,1000,1000,1000,1000,0,0,0,0,0,0,0,0,0,0
1683184575.40017605,109828551,1000,1000,1000,1000,0,0,0,0,0,0,0,0,0,0
1683184575.50013590,109928511,1000,1000,1000,1000,0,0,0,0,0,0,0,0,0,0
1683184575.60009599,110028471,1000,1000,1000,1000,0,0,0,0,0,0,0,0,0,0
1683184575.70005608,110128431,1000,1000,1000,1000,0,0,0,0,0,0,0,0,0,0
1683184575.80001593,110228391,1000,1000,1000,1000,0,0,0,0,0,0,0,0,0,0
1683184575.89997602,110328351,1000,1000,1000,1000,0,0,0,0,0,0,0,0,0,0
1683184575.99993610,110428311,1000,1000,1000,1000,0,0,0,0,0,0,0,0,0,0
1683184576.09989595,110528271,1000,1000,1000,1000,0,0,0,0,0,0,0,0,0,0
1683184576.19985604,110628231,1000,1000,1000,1000,0,0,0,0,0,0,0,0,0,0
1683184576.29981589,110728191,1000,1000,1000,1000,0,0,0,0,0,0,0,0,0,0
1683184576.40060902,110828984,1000,1000,1000,1000,0,0,0,0,0,0,0,0,0,0
1683184576.50056911,110928944,1000,1000,1000,1000,0,0,0,0,0,0,0,0,0,0
