timestamp,TimeUS,C1,C2,C3,C4,C5,C6,C7,C8,C9,C10,C11,C12,C13,C14
1684052647.10003996,45128608,1000,1000,1000,1000,0,0,0,0,0,0,0,0,0,0
1684052647.20000005,45228568,1000,1000,1000,1000,0,0,0,0,0,0,0,0,0,0
1684052647.29995990,45328528,1000,1000,1000,1000,0,0,0,0,0,0,0,0,0,0
1684052647.39991999,45428488,1000,1000,1000,1000,0,0,0,0,0,0,0,0,0,0
1684052647.49988008,45528448,1000,1000,1000,1000,0,0,0,0,0,0,0,0,0,0
1684052647.59983993,45628408,1000,1000,1000,1000,0,0,0,0,0,0,0,0,0,0
1684052647.69980001,45728368,1000,1000,1000,1000,0,0,0,0,0,0,0,0,0,0
1684052647.79975986,45828328,1000,1000,1000,1000,0,0,0,0,0,0,0,0,0,0
1684052647.89971995,45928288,1000,1000,1000,1000,0,0,0,0,0,0,0,0,0,0
1684052647.99968004,46028248,1000,1000,1000,1000,0,0,0,0,0,0,0,0,0,0
1684052648.09963989,46128208,1000,1000,1000,1000,0,0,0,0,0,0,0,0,0,0
1684052648.19959998,46228168,1000,1000,1000,1000,0,0,0,0,0,0,0,0,0,0
1684052648.30039287,46328961,1000,1000,1000,1000,0,0,0,0,0,0,0,0,0,0
1684052648.40035295,46428921,1000,1000,1000,1000,0,0,0,0,0,0,0,0,0,0
1684052648.50031304,46528881,1000,1000,1000,1000,0,0,0,0,0,0,0,0,0,0
1684052648.60027289,46628841,1000,1000,1000,1000,0,0,0,0,0,0,0,0,0,0
1684052648.70023298,46728801,1000,1000,1000,1000,0,0,0,0,0,0,0,0,0,0
1684052648.80019307,46828761,1000,1000,1000,1000,0,0,0,0,0,0,0,0,0,0
1684052648.90015292,46928721,1000,1000,1000,1000,0,0,0,0,0,0,0,0,0,0
1684052649.00011301,47028681,1000,1000,1000,1000,0,0,0,0,0,0,0,0,0,0
1684052649.10007286,47128641,1003,1003,1003,1003,0,0,0,0,0,0,0,0,0,0
1684052649.20003295,47228601,1033,1033,1033,1033,0,0,0,0,0,0,0,0,0,0
1684052649.29999304,47328561,1063,1063,1063,1063,0,0,0,0,0,0,0,0,0,0
1684052649.39995289,47428521,1093,1093,1093,1093,0,0,0,0,0,0,0,0,0,0
1684052649.49991298,47528481,1122,1122,1122,1122,0,0,0,0,0,0,0,0,0,0
1684052649.59987307,47628441,1176,1170,1171,1177,0,0,0,0,0,0,0,0,0,0
1684052649.69983292,47728401,1419,1415,1415,1419,0,0,0,0,0,0,0,0,0,0
1684052649.79979300,47828361,1594,1591,1591,1595,0,0,0,0,0,0,0,0,0,0
1684052649.89975286,47928321,1740,1735,1736,1740,0,0,0,0,0,0,0,0,0,0
1684052649.99971294,48028281,1866,1862,1862,1866,0,0,0,0,0,0,0,0,0,0
1684052650.09967303,48128241,1887,1884,1884,1887,0,0,0,0,0,0,0,0,0,0
1684052650.19963288,48228201,1793,1792,1792,1793,0,0,0,0,0,0,0,0,0,0
1684052650.29959297,48328161,1670,1671,1671,1671,0,0,0,0,0,0,0,0,0,0
1684052650.40038586,48428954,1618,1619,1620,1618,0,0,0,0,0,0,0,0,0,0
1684052650.50034595,48528914,1616,1617,1618,1616,0,0,0,0,0,0,0,0,0,0
1684052650.60030603,48628874,1627,1628,1628,1627,0,0,0,0,0,0,0,0,0,0
1684052650.70026588,48728834,1629,1630,1630,1630,0,0,0,0,0,0,0,0,0,0
1684052650.80022597,48828794,1626,1626,1625,1626,0,0,0,0,0,0,0,0,0,0
1684052650.90018606,48928754,1618,1617,1617,1618,0,0,0,0,0,0,0,0,0,0
1684052651.00014591,49028714,1614,1613,1613,1614,0,0,0,0,0,0,0,0,0,0
1684052651.10010600,49128674,1613,1611,1611,1613,0,0,0,0,0,0,0,0,0,0
1684052651.20006609,49228634,1613,1612,1612,1613,0,0,0,0,0,0,0,0,0,0
1684052651.30002594,49328594,1614,1615,1615,1614,0,0,0,0,0,0,0,0,0,0
1684052651.39998603,49428554,1596,1597,1596,1596,0,0,0,0,0,0,0,0,0,0
1684052651.49994588,49528514,1575,1575,1575,1575,0,0,0,0,0,0,0,0,0,0
1684052651.59990597,49628474,1563,1563,1563,1563,0,0,0,0,0,0,0,0,0,0
1684052651.69986606,49728434,1554,1555,1553,1556,0,0,0,0,0,0,0,0,0,0
1684052651.79982591,49828394,1548,1548,1545,1552,0,0,0,0,0,0,0,0,0,0
1684052651.89978600,49928354,1543,1542,1539,1547,0,0,0,0,0,0,0,0,0,0
1684052651.99974608,50028314,1538,1538,1535,1541,0,0,0,0,0,0,0,0,0,0
1684052652.09970593,50128274,1536,1536,1535,1537,0,0,0,0,0,0,0,0,0,0
1684052652.19966602,50228234,1536,1536,1537,1536,0,0,0,0,0,0,0,0,0,0
1684052652.29962587,50328194,1538,1537,1540,1535,0,0,0,0,0,0,0,0,0,0
1684052652.39958596,50428154,1541,1541,1543,1538,0,0,0,0,0,0,0,0,0,0
1684052652.50037909,50528947,1545,1545,1547,1543,0,0,0,0,0,0,0,0,0,0
1684052652.60033894,50628907,1543,1543,1550,1536,0,0,0,0,0,0,0,0,0,0
1684052652.70029902,50728867,1543,1543,1549,1537,0,0,0,0,0,0,0,0,0,0
1684052652.80025887,50828827,1544,1544,1544,1544,0,0,0,0,0,0,0,0,0,0
1684052652.90021896,50928787,1544,1544,1540,1548,0,0,0,0,0,0,0,0,0,0
1684052653.00017905,51028747,1544,1544,1538,1551,0,0,0,0,0,0,0,0,0,0
1684052653.10013890,51128707,1546,1545,1540,1551,0,0,0,0,0,0,0,0,0,0
1684052653.20009899,51228667,1548,1548,1545,1551,0,0,0,0,0,0,0,0,0,0
1684052653.30005908,51328627,1551,1552,1551,1552,0,0,0,0,0,0,0,0,0,0
1684052653.40001893,51428587,1555,1556,1558,1553,0,0,0,0,0,0,0,0,0,0
1684052653.49997902,51528547,1559,1558,1562,1555,0,0,0,0,0,0,0,0,0,0
1684052653.59993887,51628507,1560,1560,1563,1557,0,0,0,0,0,0,0,0,0,0
1684052653.69989896,51728467,1562,1562,1563,1560,0,0,0,0,0,0,0,0,0,0
1684052653.79985905,51828427,1563,1563,1562,1563,0,0,0,0,0,0,0,0,0,0
1684052653.89981890,51928387,1558,1558,1566,1569,0,0,0,0,0,0,0,0,0,0
1684052653.99977899,52028347,1558,1558,1567,1571,0,0,0,0,0,0,0,0,0,0
1684052654.09973907,52128307,1560,1560,1566,1569,0,0,0,0,0,0,0,0,0,0
1684052654.19969893,52228267,1562,1563,1566,1567,0,0,0,0,0,0,0,0,0,0
1684052654.29965901,52328227,1564,1565,1565,1565,0,0,0,0,0,0,0,0,0,0
1684052654.39961886,52428187,1567,1567,1565,1565,0,0,0,0,0,0,0,0,0,0
1684052654.50041199,52528980,1570,1569,1565,1565,0,0,0,0,0,0,0,0,0,0
1684052654.60037208,52628940,1571,1571,1566,1565,0,0,0,0,0,0,0,0,0,0
1684052654.70033193,52728900,1571,1571,1565,1565,0,0,0,0,0,0,0,0,0,0
1684052654.80029202,52828860,1572,1572,1566,1566,0,0,0,0,0,0,0,0,0,0
1684052654.90025187,52928820,1573,1572,1567,1567,0,0,0,0,0,0,0,0,0,0
1684052655.00021195,53028780,1572,1572,1568,1568,0,0,0,0,0,0,0,0,0,0
1684052655.10017204,53128740,1573,1573,1571,1571,0,0,0,0,0,0,0,0,0,0
1684052655.20013189,53228700,1573,1573,1572,1572,0,0,0,0,0,0,0,0,0,0
1684052655.30009198,53328660,1574,1574,1575,1574,0,0,0,0,0,0,0,0,0,0
1684052655.40005207,53428620,1574,1574,1576,1575,0,0,0,0,0,0,0,0,0,0
1684052655.50001192,53528580,1574,1575,1577,1576,0,0,0,0,0,0,0,0,0,0
1684052655.59997201,53628540,1574,1575,1577,1576,0,0,0,0,0,0,0,0,0,0
1684052655.69993186,53728500,1574,1574,1577,1576,0,0,0,0,0,0,0,0,0,0
1684052655.79989195,53828460,1575,1575,1578,1577,0,0,0,0,0,0,0,0,0,0
1684052655.89985204,53928420,1576,1576,1577,1577,0,0,0,0,0,0,0,0,0,0
1684052655.99981189,54028380,1577,1577,1578,1578,0,0,0,0,0,0,0,0,0,0
1684052656.09977198,54128340,1577,1576,1577,1577,0,0,0,0,0,0,0,0,0,0
1684052656.19973207,54228300,1577,1577,1577,1577,0,0,0,0,0,0,0,0,0,0
1684052656.29969192,54328260,1579,1578,1578,1578,0,0,0,0,0,0,0,0,0,0
1684052656.39965200,54428220,1578,1578,1577,1577,0,0,0,0,0,0,0,0,0,0
1684052656.49961185,54528180,1578,1578,1577,1578,0,0,0,0,0,0,0,0,0,0
1684052656.60040498,54628973,1578,1578,1577,1577,0,0,0,0,0,0,0,0,0,0
1684052656.70036507,54728933,1578,1578,1577,1577,0,0,0,0,0,0,0,0,0,0
1684052656.80032492,54828893,1578,1577,1577,1577,0,0,0,0,0,0,0,0,0,0
1684052656.90028501,54928853,1578,1578,1577,1578,0,0,0,0,0,0,0,0,0,0
1684052657.00024486,55028813,1578,1578,1578,1578,0,0,0,0,0,0,0,0,0,0
1684052657.10020494,55128773,1578,1578,1578,1578,0,0,0,0,0,0,0,0,0,0
1684052657.20016503,55228733,1577,1578,1578,1578,0,0,0,0,0,0,0,0,0,0
1684052657.30012488,55328693,1579,1578,1579,1579,0,0,0,0,0,0,0,0,0,0
1684052657.40008497,55428653,1579,1579,1580,1580,0,0,0,0,0,0,0,0,0,0
1684052657.50004506,55528613,1580,1580,1580,1580,0,0,0,0,0,0,0,0,0,0
1684052657.60000491,55628573,1579,1579,1579,1579,0,0,0,0,0,0,0,0,0,0
1684052657.69996500,55728533,1579,1579,1579,1579,0,0,0,0,0,0,0,0,0,0
1684052657.79992509,55828493,1580,1580,1580,1580,0,0,0,0,0,0,0,0,0,0
1684052657.89988494,55928453,1580,1579,1580,1580,0,0,0,0,0,0,0,0,0,0
1684052657.99984503,56028413,1580,1580,1580,1581,0,0,0,0,0,0,0,0,0,0
1684052658.09980488,56128373,1580,1579,1580,1580,0,0,0,0,0,0,0,0,0,0
1684052658.19976497,56228333,1581,1581,1581,1581,0,0,0,0,0,0,0,0,0,0
1684052658.29972506,56328293,1580,1580,1581,1580,0,0,0,0,0,0,0,0,0,0
1684052658.39968491,56428253,1579,1580,1580,1579,0,0,0,0,0,0,0,0,0,0
1684052658.49964499,56528213,1580,1580,1580,1580,0,0,0,0,0,0,0,0,0,0
1684052658.59960508,56628173,1581,1580,1580,1580,0,0,0,0,0,0,0,0,0,0
1684052658.70039797,56728966,1581,1580,1581,1581,0,0,0,0,0,0,0,0,0,0
1684052658.80035806,56828926,1580,1580,1580,1580,0,0,0,0,0,0,0,0,0,0
1684052658.90031791,56928886,1581,1581,1580,1581,0,0,0,0,0,0,0,0,0,0
1684052659.00027800,57028846,1580,1581,1581,1580,0,0,0,0,0,0,0,0,0,0
1684052659.10023808,57128806,1582,1582,1582,1582,0,0,0,0,0,0,0,0,0,0
1684052659.20019794,57228766,1582,1582,1582,1582,0,0,0,0,0,0,0,0,0,0
1684052659.30015802,57328726,1581,1581,1581,1581,0,0,0,0,0,0,0,0,0,0
1684052659.40011787,57428686,1580,1580,1580,1581,0,0,0,0,0,0,0,0,0,0
1684052659.50007796,57528646,1580,1580,1580,1580,0,0,0,0,0,0,0,0,0,0
1684052659.60003805,57628606,1581,1580,1581,1581,0,0,0,0,0,0,0,0,0,0
1684052659.69999790,57728566,1581,1580,1580,1581,0,0,0,0,0,0,0,0,0,0
1684052659.79995799,57828526,1580,1580,1580,1580,0,0,0,0,0,0,0,0,0,0
1684052659.89991808,57928486,1581,1581,1581,1581,0,0,0,0,0,0,0,0,0,0
1684052659.99987793,58028446,1580,1581,1580,1581,0,0,0,0,0,0,0,0,0,0
1684052660.09983802,58128406,1580,1581,1581,1580,0,0,0,0,0,0,0,0,0,0
1684052660.19979787,58228366,1581,1582,1588,1574,0,0,0,0,0,0,0,0,0,0
1684052660.29975796,58328326,1581,1583,1586,1574,0,0,0,0,0,0,0,0,0,0
1684052660.39971805,58428286,1579,1582,1577,1574,0,0,0,0,0,0,0,0,0,0
1684052660.49967790,58528246,1577,1579,1567,1571,0,0,0,0,0,0,0,0,0,0
1684052660.59963799,58628206,1576,1579,1561,1567,0,0,0,0,0,0,0,0,0,0
1684052660.69959807,58728166,1578,1579,1557,1563,0,0,0,0,0,0,0,0,0,0
1684052660.80039096,58828959,1579,1577,1555,1559,0,0,0,0,0,0,0,0,0,0
1684052660.90035105,58928919,1580,1577,1555,1556,0,0,0,0,0,0,0,0,0,0
1684052661.00031090,59028879,1580,1578,1557,1555,0,0,0,0,0,0,0,0,0,0
1684052661.10027099,59128839,1577,1577,1555,1553,0,0,0,0,0,0,0,0,0,0
1684052661.20023108,59228799,1577,1577,1556,1554,0,0,0,0,0,0,0,0,0,0
1684052661.30019093,59328759,1576,1577,1556,1554,0,0,0,0,0,0,0,0,0,0
1684052661.40015101,59428719,1574,1576,1554,1554,0,0,0,0,0,0,0,0,0,0
1684052661.50011086,59528679,1576,1577,1554,1554,0,0,0,0,0,0,0,0,0,0
1684052661.60007095,59628639,1575,1577,1552,1553,0,0,0,0,0,0,0,0,0,0
1684052661.70003104,59728599,1577,1578,1550,1551,0,0,0,0,0,0,0,0,0,0
1684052661.79999089,59828559,1578,1579,1547,1547,0,0,0,0,0,0,0,0,0,0
1684052661.89995098,59928519,1580,1582,1545,1545,0,0,0,0,0,0,0,0,0,0
1684052661.99991107,60028479,1584,1584,1543,1542,0,0,0,0,0,0,0,0,0,0
1684052662.09987092,60128439,1586,1587,1540,1539,0,0,0,0,0,0,0,0,0,0
1684052662.19983101,60228399,1590,1591,1538,1538,0,0,0,0,0,0,0,0,0,0
1684052662.29979086,60328359,1592,1592,1536,1536,0,0,0,0,0,0,0,0,0,0
1684052662.39975095,60428319,1595,1595,1535,1536,0,0,0,0,0,0,0,0,0,0
1684052662.49971104,60528279,1596,1596,1536,1538,0,0,0,0,0,0,0,0,0,0
1684052662.59967089,60628239,1595,1596,1537,1539,0,0,0,0,0,0,0,0,0,0
1684052662.69963098,60728199,1593,1592,1540,1542,0,0,0,0,0,0,0,0,0,0
1684052662.79959106,60828159,1589,1588,1544,1546,0,0,0,0,0,0,0,0,0,0
1684052662.90038395,60928952,1583,1580,1551,1554,0,0,0,0,0,0,0,0,0,0
1684052663.00034404,61028912,1576,1573,1562,1565,0,0,0,0,0,0,0,0,0,0
1684052663.10030389,61128872,1566,1561,1573,1575,0,0,0,0,0,0,0,0,0,0
1684052663.20026398,61228832,1554,1550,1585,1586,0,0,0,0,0,0,0,0,0,0
1684052663.30022407,61328792,1544,1541,1597,1597,0,0,0,0,0,0,0,0,0,0
1684052663.40018392,61428752,1535,1534,1606,1605,0,0,0,0,0,0,0,0,0,0
1684052663.50014400,61528712,1530,1530,1613,1611,0,0,0,0,0,0,0,0,0,0
1684052663.60010386,61628672,1529,1531,1615,1614,0,0,0,0,0,0,0,0,0,0
1684052663.70006394,61728632,1530,1533,1614,1613,0,0,0,0,0,0,0,0,0,0
1684052663.80002403,61828592,1536,1538,1609,1609,0,0,0,0,0,0,0,0,0,0
1684052663.89998388,61928552,1543,1545,1603,1604,0,0,0,0,0,0,0,0,0,0
1684052663.99994397,62028512,1552,1553,1596,1596,0,0,0,0,0,0,0,0,0,0
1684052664.09990406,62128472,1561,1562,1589,1588,0,0,0,0,0,0,0,0,0,0
1684052664.19986391,62228432,1569,1568,1581,1580,0,0,0,0,0,0,0,0,0,0
1684052664.29982400,62328392,1577,1576,1576,1575,0,0,0,0,0,0,0,0,0,0
1684052664.39978409,62428352,1322,1324,1636,1643,0,0,0,0,0,0,0,0,0,0
1684052664.49974394,62528312,1403,1410,1645,1648,0,0,0,0,0,0,0,0,0,0
1684052664.59970403,62628272,1472,1481,1633,1627,0,0,0,0,0,0,0,0,0,0
1684052664.69966388,62728232,1527,1532,1622,1613,0,0,0,0,0,0,0,0,0,0
1684052664.79962397,62828192,1570,1568,1616,1607,0,0,0,0,0,0,0,0,0,0
1684052664.90041709,62928985,1600,1584,1587,1583,0,0,0,0,0,0,0,0,0,0
1684052665.00037694,63028945,1600,1585,1515,1523,0,0,0,0,0,0,0,0,0,0
1684052665.10033703,63128905,1600,1591,1480,1496,0,0,0,0,0,0,0,0,0,0
1684052665.20029688,63228865,1597,1600,1495,1506,0,0,0,0,0,0,0,0,0,0
1684052665.30025697,63328825,1592,1600,1512,1515,0,0,0,0,0,0,0,0,0,0
1684052665.40021706,63428785,1591,1600,1532,1529,0,0,0,0,0,0,0,0,0,0
1684052665.50017691,63528745,1594,1600,1550,1545,0,0,0,0,0,0,0,0,0,0
1684052665.60013700,63628705,1599,1600,1564,1560,0,0,0,0,0,0,0,0,0,0
1684052665.70009708,63728665,1600,1597,1569,1567,0,0,0,0,0,0,0,0,0,0
1684052665.80005693,63828625,1600,1596,1572,1573,0,0,0,0,0,0,0,0,0,0
1684052665.90001702,63928585,1600,1597,1575,1578,0,0,0,0,0,0,0,0,0,0
1684052665.99997687,64028545,1600,1598,1579,1581,0,0,0,0,0,0,0,0,0,0
1684052666.09993696,64128505,1600,1596,1585,1578,0,0,0,0,0,0,0,0,0,0
1684052666.19989705,64228465,1600,1595,1587,1581,0,0,0,0,0,0,0,0,0,0
1684052666.29985690,64328425,1600,1595,1587,1585,0,0,0,0,0,0,0,0,0,0
1684052666.39981699,64428385,1600,1596,1587,1588,0,0,0,0,0,0,0,0,0,0
1684052666.49977708,64528345,1600,1598,1588,1589,0,0,0,0,0,0,0,0,0,0
1684052666.59973693,64628305,1599,1600,1588,1589,0,0,0,0,0,0,0,0,0,0
1684052666.69969702,64728265,1597,1600,1584,1588,0,0,0,0,0,0,0,0,0,0
1684052666.79965687,64828225,1595,1600,1583,1585,0,0,0,0,0,0,0,0,0,0
1684052666.89961696,64928185,1595,1600,1584,1583,0,0,0,0,0,0,0,0,0,0
1684052667.00041008,65028978,1596,1600,1585,1583,0,0,0,0,0,0,0,0,0,0
1684052667.10036993,65128938,1598,1600,1586,1584,0,0,0,0,0,0,0,0,0,0
1684052667.20033002,65228898,1599,1600,1587,1585,0,0,0,0,0,0,0,0,0,0
1684052667.30028987,65328858,1600,1599,1586,1585,0,0,0,0,0,0,0,0,0,0
1684052667.40024996,65428818,1596,1600,1579,1585,0,0,0,0,0,0,0,0,0,0
1684052667.50021005,65528778,1594,1600,1577,1581,0,0,0,0,0,0,0,0,0,0
1684052667.60016990,65628738,1593,1600,1577,1578,0,0,0,0,0,0,0,0,0,0
1684052667.70012999,65728698,1594,1600,1578,1577,0,0,0,0,0,0,0,0,0,0
1684052667.80009007,65828658,1596,1600,1579,1577,0,0,0,0,0,0,0,0,0,0
1684052667.90004992,65928618,1598,1600,1579,1578,0,0,0,0,0,0,0,0,0,0
1684052668.00001001,66028578,1600,1599,1579,1579,0,0,0,0,0,0,0,0,0,0
1684052668.09996986,66128538,1600,1599,1577,1578,0,0,0,0,0,0,0,0,0,0
1684052668.19992995,66228498,1600,1595,1572,1576,0,0,0,0,0,0,0,0,0,0
1684052668.29989004,66328458,1600,1583,1575,1563,0,0,0,0,0,0,0,0,0,0
1684052668.39984989,66428418,1600,1583,1578,1574,0,0,0,0,0,0,0,0,0,0
1684052668.49980998,66528378,1600,1587,1580,1584,0,0,0,0,0,0,0,0,0,0
1684052668.59977007,66628338,1600,1595,1583,1590,0,0,0,0,0,0,0,0,0,0
1684052668.69972992,66728298,1587,1590,1570,1576,0,0,0,0,0,0,0,0,0,0
1684052668.79969001,66828258,1577,1585,1562,1564,0,0,0,0,0,0,0,0,0,0
1684052668.89964986,66928218,1572,1581,1557,1555,0,0,0,0,0,0,0,0,0,0
1684052668.99960995,67028178,1570,1577,1555,1550,0,0,0,0,0,0,0,0,0,0
1684052669.10040307,67128971,1570,1574,1553,1547,0,0,0,0,0,0,0,0,0,0
1684052669.20036292,67228931,1571,1571,1552,1547,0,0,0,0,0,0,0,0,0,0
1684052669.30032301,67328891,1572,1569,1550,1547,0,0,0,0,0,0,0,0,0,0
1684052669.40028286,67428851,1572,1569,1548,1547,0,0,0,0,0,0,0,0,0,0
1684052669.50024295,67528811,1571,1568,1546,1547,0,0,0,0,0,0,0,0,0,0
1684052669.60020304,67628771,1570,1569,1547,1547,0,0,0,0,0,0,0,0,0,0
1684052669.70016289,67728731,1569,1570,1545,1546,0,0,0,0,0,0,0,0,0,0
1684052669.80012298,67828691,1568,1571,1546,1547,0,0,0,0,0,0,0,0,0,0
1684052669.90008307,67928651,1567,1571,1546,1545,0,0,0,0,0,0,0,0,0,0
1684052670.00004292,68028611,1568,1572,1548,1546,0,0,0,0,0,0,0,0,0,0
1684052670.10000300,68128571,1568,1571,1548,1546,0,0,0,0,0,0,0,0,0,0
1684052670.19996285,68228531,1569,1571,1548,1547,0,0,0,0,0,0,0,0,0,0
1684052670.29992294,68328491,1570,1571,1548,1547,0,0,0,0,0,0,0,0,0,0
1684052670.39988303,68428451,1571,1571,1549,1549,0,0,0,0,0,0,0,0,0,0
1684052670.49984288,68528411,1571,1571,1549,1549,0,0,0,0,0,0,0,0,0,0
1684052670.59980297,68628371,1569,1570,1550,1551,0,0,0,0,0,0,0,0,0,0
1684052670.69976306,68728331,1568,1569,1551,1552,0,0,0,0,0,0,0,0,0,0
1684052670.79972291,68828291,1568,1569,1552,1554,0,0,0,0,0,0,0,0,0,0
1684052670.89968300,68928251,1569,1570,1552,1553,0,0,0,0,0,0,0,0,0,0
1684052670.99964309,69028211,1571,1572,1552,1553,0,0,0,0,0,0,0,0,0,0
1684052671.09960294,69128171,1574,1574,1551,1552,0,0,0,0,0,0,0,0,0,0
1684052671.20039606,69228964,1575,1575,1551,1553,0,0,0,0,0,0,0,0,0,0
1684052671.30035591,69328924,1576,1575,1552,1554,0,0,0,0,0,0,0,0,0,0
1684052671.40031600,69428884,1576,1574,1555,1557,0,0,0,0,0,0,0,0,0,0
1684052671.50027609,69528844,1573,1571,1558,1561,0,0,0,0,0,0,0,0,0,0
1684052671.60023594,69628804,1568,1567,1564,1566,0,0,0,0,0,0,0,0,0,0
1684052671.70019603,69728764,1563,1562,1570,1574,0,0,0,0,0,0,0,0,0,0
1684052671.80015588,69828724,1558,1558,1575,1578,0,0,0,0,0,0,0,0,0,0
1684052671.90011597,69928684,1555,1555,1579,1580,0,0,0,0,0,0,0,0,0,0
1684052672.00007606,70028644,1553,1553,1582,1582,0,0,0,0,0,0,0,0,0,0
1684052672.10003591,70128604,1552,1551,1584,1583,0,0,0,0,0,0,0,0,0,0
1684052672.19999599,70228564,1552,1551,1586,1585,0,0,0,0,0,0,0,0,0,0
1684052672.29995608,70328524,1552,1551,1586,1586,0,0,0,0,0,0,0,0,0,0
1684052672.39991593,70428484,1552,1552,1587,1587,0,0,0,0,0,0,0,0,0,0
1684052672.49987602,70528444,1553,1553,1587,1587,0,0,0,0,0,0,0,0,0,0
1684052672.59983587,70628404,1555,1555,1587,1587,0,0,0,0,0,0,0,0,0,0
1684052672.69979596,70728364,1557,1557,1586,1586,0,0,0,0,0,0,0,0,0,0
1684052672.79975605,70828324,1558,1559,1584,1584,0,0,0,0,0,0,0,0,0,0
1684052672.89971590,70928284,1561,1562,1584,1584,0,0,0,0,0,0,0,0,0,0
1684052672.99967599,71028244,1564,1564,1583,1583,0,0,0,0,0,0,0,0,0,0
1684052673.09963608,71128204,1566,1567,1582,1582,0,0,0,0,0,0,0,0,0,0
1684052673.19959593,71228164,1569,1569,1582,1580,0,0,0,0,0,0,0,0,0,0
1684052673.30038905,71328957,1572,1571,1581,1579,0,0,0,0,0,0,0,0,0,0
1684052673.40034890,71428917,1574,1573,1580,1579,0,0,0,0,0,0,0,0,0,0
1684052673.50030899,71528877,1577,1575,1579,1579,0,0,0,0,0,0,0,0,0,0
1684052673.60026908,71628837,1577,1577,1577,1577,0,0,0,0,0,0,0,0,0,0
1684052673.70022893,71728797,1578,1577,1576,1576,0,0,0,0,0,0,0,0,0,0
1684052673.80018902,71828757,1580,1579,1576,1577,0,0,0,0,0,0,0,0,0,0
1684052673.90014887,71928717,1580,1580,1576,1575,0,0,0,0,0,0,0,0,0,0
1684052674.00010896,72028677,1581,1581,1575,1576,0,0,0,0,0,0,0,0,0,0
1684052674.10006905,72128637,1581,1581,1575,1575,0,0,0,0,0,0,0,0,0,0
1684052674.20002890,72228597,1581,1581,1575,1575,0,0,0,0,0,0,0,0,0,0
1684052674.29998899,72328557,1582,1582,1576,1576,0,0,0,0,0,0,0,0,0,0
1684052674.39994907,72428517,1582,1582,1577,1576,0,0,0,0,0,0,0,0,0,0
1684052674.49990892,72528477,1582,1582,1576,1576,0,0,0,0,0,0,0,0,0,0
1684052674.59986901,72628437,1583,1582,1577,1577,0,0,0,0,0,0,0,0,0,0
1684052674.69982886,72728397,1582,1582,1578,1578,0,0,0,0,0,0,0,0,0,0
1684052674.79978895,72828357,1582,1582,1578,1578,0,0,0,0,0,0,0,0,0,0
1684052674.89974904,72928317,1581,1581,1578,1578,0,0,0,0,0,0,0,0,0,0
1684052674.99970889,73028277,1581,1581,1578,1578,0,0,0,0,0,0,0,0,0,0
1684052675.09966898,73128237,1581,1581,1578,1578,0,0,0,0,0,0,0,0,0,0
1684052675.19962907,73228197,1581,1581,1579,1579,0,0,0,0,0,0,0,0,0,0
1684052675.29958892,73328157,1581,1581,1579,1579,0,0,0,0,0,0,0,0,0,0
1684052675.40038204,73428950,1580,1581,1579,1579,0,0,0,0,0,0,0,0,0,0
1684052675.50034189,73528910,1581,1580,1580,1579,0,0,0,0,0,0,0,0,0,0
1684052675.60030198,73628870,1580,1580,1579,1579,0,0,0,0,0,0,0,0,0,0
1684052675.70026207,73728830,1580,1580,1579,1580,0,0,0,0,0,0,0,0,0,0
1684052675.80022192,73828790,1580,1580,1579,1580,0,0,0,0,0,0,0,0,0,0
1684052675.90018201,73928750,1580,1580,1580,1580,0,0,0,0,0,0,0,0,0,0
1684052676.00014186,74028710,1580,1580,1579,1580,0,0,0,0,0,0,0,0,0,0
1684052676.10010195,74128670,1579,1580,1579,1579,0,0,0,0,0,0,0,0,0,0
1684052676.20006204,74228630,1580,1580,1579,1579,0,0,0,0,0,0,0,0,0,0
1684052676.30002189,74328590,1580,1580,1579,1580,0,0,0,0,0,0,0,0,0,0
1684052676.39998198,74428550,1580,1580,1580,1580,0,0,0,0,0,0,0,0,0,0
1684052676.49994206,74528510,1580,1580,1581,1581,0,0,0,0,0,0,0,0,0,0
1684052676.59990191,74628470,1580,1580,1580,1580,0,0,0,0,0,0,0,0,0,0
1684052676.69986200,74728430,1581,1580,1581,1581,0,0,0,0,0,0,0,0,0,0
1684052676.79982185,74828390,1580,1580,1581,1580,0,0,0,0,0,0,0,0,0,0
1684052676.89978194,74928350,1581,1581,1581,1581,0,0,0,0,0,0,0,0,0,0
1684052676.99974203,75028310,1581,1581,1581,1581,0,0,0,0,0,0,0,0,0,0
1684052677.09970188,75128270,1581,1581,1581,1581,0,0,0,0,0,0,0,0,0,0
1684052677.19966197,75228230,1581,1582,1581,1581,0,0,0,0,0,0,0,0,0,0
1684052677.29962206,75328190,1581,1581,1581,1581,0,0,0,0,0,0,0,0,0,0
1684052677.40041494,75428983,1582,1582,1585,1578,0,0,0,0,0,0,0,0,0,0
1684052677.50037503,75528943,1582,1581,1588,1573,0,0,0,0,0,0,0,0,0,0
1684052677.60033488,75628903,1581,1580,1581,1573,0,0,0,0,0,0,0,0,0,0
1684052677.70029497,75728863,1579,1579,1571,1572,0,0,0,0,0,0,0,0,0,0
1684052677.80025506,75828823,1576,1578,1563,1569,0,0,0,0,0,0,0,0,0,0
1684052677.90021491,75928783,1575,1577,1558,1565,0,0,0,0,0,0,0,0,0,0
1684052678.00017500,76028743,1574,1577,1557,1561,0,0,0,0,0,0,0,0,0,0
1684052678.10013509,76128703,1574,1576,1556,1558,0,0,0,0,0,0,0,0,0,0
1684052678.20009494,76228663,1575,1576,1557,1556,0,0,0,0,0,0,0,0,0,0
1684052678.30005503,76328623,1575,1575,1558,1555,0,0,0,0,0,0,0,0,0,0
1684052678.40001488,76428583,1575,1575,1557,1555,0,0,0,0,0,0,0,0,0,0
1684052678.49997497,76528543,1575,1575,1556,1555,0,0,0,0,0,0,0,0,0,0
1684052678.59993505,76628503,1575,1575,1554,1554,0,0,0,0,0,0,0,0,0,0
1684052678.69989491,76728463,1575,1575,1553,1553,0,0,0,0,0,0,0,0,0,0
1684052678.79985499,76828423,1575,1576,1552,1552,0,0,0,0,0,0,0,0,0,0
1684052678.89981508,76928383,1575,1577,1550,1550,0,0,0,0,0,0,0,0,0,0
1684052678.99977493,77028343,1576,1578,1549,1549,0,0,0,0,0,0,0,0,0,0
1684052679.09973502,77128303,1577,1579,1547,1546,0,0,0,0,0,0,0,0,0,0
1684052679.19969487,77228263,1579,1580,1545,1545,0,0,0,0,0,0,0,0,0,0
1684052679.29965496,77328223,1581,1582,1543,1543,0,0,0,0,0,0,0,0,0,0
1684052679.39961505,77428183,1583,1584,1542,1542,0,0,0,0,0,0,0,0,0,0
1684052679.50040793,77528976,1586,1586,1540,1540,0,0,0,0,0,0,0,0,0,0
1684052679.60036802,77628936,1588,1587,1539,1539,0,0,0,0,0,0,0,0,0,0
1684052679.70032787,77728896,1589,1589,1538,1539,0,0,0,0,0,0,0,0,0,0
1684052679.80028796,77828856,1589,1589,1538,1540,0,0,0,0,0,0,0,0,0,0
1684052679.90024805,77928816,1590,1589,1542,1543,0,0,0,0,0,0,0,0,0,0
1684052680.00020790,78028776,1589,1588,1544,1546,0,0,0,0,0,0,0,0,0,0
1684052680.10016799,78128736,1587,1586,1547,1550,0,0,0,0,0,0,0,0,0,0
1684052680.20012808,78228696,1584,1582,1550,1554,0,0,0,0,0,0,0,0,0,0
1684052680.30008793,78328656,1579,1578,1557,1560,0,0,0,0,0,0,0,0,0,0
1684052680.40004802,78428616,1574,1573,1564,1567,0,0,0,0,0,0,0,0,0,0
1684052680.50000787,78528576,1568,1566,1573,1575,0,0,0,0,0,0,0,0,0,0
1684052680.59996796,78628536,1560,1558,1581,1582,0,0,0,0,0,0,0,0,0,0
1684052680.69992805,78728496,1552,1550,1591,1591,0,0,0,0,0,0,0,0,0,0
1684052680.79988790,78828456,1545,1543,1600,1600,0,0,0,0,0,0,0,0,0,0
1684052680.89984798,78928416,1538,1538,1607,1606,0,0,0,0,0,0,0,0,0,0
1684052680.99980807,79028376,1534,1534,1610,1610,0,0,0,0,0,0,0,0,0,0
1684052681.09976792,79128336,1532,1534,1611,1610,0,0,0,0,0,0,0,0,0,0
1684052681.19972801,79228296,1533,1535,1608,1607,0,0,0,0,0,0,0,0,0,0
1684052681.29968786,79328256,1537,1540,1604,1604,0,0,0,0,0,0,0,0,0,0
1684052681.39964795,79428216,1543,1546,1598,1598,0,0,0,0,0,0,0,0,0,0
1684052681.49960804,79528176,1551,1552,1591,1591,0,0,0,0,0,0,0,0,0,0
1684052681.60040092,79628969,1559,1560,1585,1584,0,0,0,0,0,0,0,0,0,0
1684052681.70036101,79728929,1568,1567,1579,1578,0,0,0,0,0,0,0,0,0,0
1684052681.80032086,79828889,1575,1574,1574,1573,0,0,0,0,0,0,0,0,0,0
1684052681.90028095,79928849,1580,1578,1568,1568,0,0,0,0,0,0,0,0,0,0
1684052682.00024104,80028809,1585,1583,1566,1566,0,0,0,0,0,0,0,0,0,0
1684052682.10020089,80128769,1588,1586,1566,1566,0,0,0,0,0,0,0,0,0,0
1684052682.20016098,80228729,1588,1587,1566,1566,0,0,0,0,0,0,0,0,0,0
1684052682.30012107,80328689,1589,1587,1567,1568,0,0,0,0,0,0,0,0,0,0
1684052682.40008092,80428649,1588,1587,1570,1570,0,0,0,0,0,0,0,0,0,0
1684052682.50004101,80528609,1586,1586,1573,1572,0,0,0,0,0,0,0,0,0,0
1684052682.60000086,80628569,1584,1585,1575,1575,0,0,0,0,0,0,0,0,0,0
1684052682.69996095,80728529,1583,1583,1577,1577,0,0,0,0,0,0,0,0,0,0
1684052682.79992104,80828489,1581,1581,1579,1579,0,0,0,0,0,0,0,0,0,0
1684052682.89988089,80928449,1578,1578,1580,1579,0,0,0,0,0,0,0,0,0,0
1684052682.99984097,81028409,1576,1577,1581,1582,0,0,0,0,0,0,0,0,0,0
1684052683.09980106,81128369,1574,1575,1582,1583,0,0,0,0,0,0,0,0,0,0
1684052683.19976091,81228329,1573,1574,1583,1583,0,0,0,0,0,0,0,0,0,0
1684052683.29972100,81328289,1574,1574,1584,1583,0,0,0,0,0,0,0,0,0,0
1684052683.39968085,81428249,1574,1574,1584,1583,0,0,0,0,0,0,0,0,0,0
1684052683.49964094,81528209,1575,1575,1583,1583,0,0,0,0,0,0,0,0,0,0
1684052683.59960103,81628169,1575,1575,1581,1581,0,0,0,0,0,0,0,0,0,0
1684052683.70039392,81728962,1576,1577,1581,1581,0,0,0,0,0,0,0,0,0,0
1684052683.80035400,81828922,1577,1577,1579,1579,0,0,0,0,0,0,0,0,0,0
1684052683.90031385,81928882,1578,1578,1578,1578,0,0,0,0,0,0,0,0,0,0
1684052684.00027394,82028842,1579,1579,1577,1578,0,0,0,0,0,0,0,0,0,0
1684052684.10023403,82128802,1580,1580,1577,1577,0,0,0,0,0,0,0,0,0,0
1684052684.20019388,82228762,1582,1581,1578,1578,0,0,0,0,0,0,0,0,0,0
1684052684.30015397,82328722,1582,1581,1578,1577,0,0,0,0,0,0,0,0,0,0
1684052684.40011406,82428682,1581,1582,1577,1577,0,0,0,0,0,0,0,0,0,0
1684052684.50007391,82528642,1582,1582,1578,1578,0,0,0,0,0,0,0,0,0,0
1684052684.60003400,82628602,1582,1582,1579,1579,0,0,0,0,0,0,0,0,0,0
1684052684.69999409,82728562,1582,1581,1579,1579,0,0,0,0,0,0,0,0,0,0
1684052684.79995394,82828522,1581,1581,1579,1580,0,0,0,0,0,0,0,0,0,0
1684052684.89991403,82928482,1582,1582,1581,1581,0,0,0,0,0,0,0,0,0,0
1684052684.99987388,83028442,1581,1582,1582,1581,0,0,0,0,0,0,0,0,0,0
1684052685.09983397,83128402,1582,1581,1582,1582,0,0,0,0,0,0,0,0,0,0
1684052685.19979405,83228362,1581,1581,1582,1581,0,0,0,0,0,0,0,0,0,0
1684052685.29975390,83328322,1580,1580,1581,1581,0,0,0,0,0,0,0,0,0,0
1684052685.39971399,83428282,1580,1580,1582,1581,0,0,0,0,0,0,0,0,0,0
1684052685.49967408,83528242,1580,1581,1582,1581,0,0,0,0,0,0,0,0,0,0
1684052685.59963393,83628202,1581,1581,1582,1582,0,0,0,0,0,0,0,0,0,0
1684052685.69959402,83728162,1581,1581,1588,1576,0,0,0,0,0,0,0,0,0,0
1684052685.80038691,83828955,1580,1580,1587,1574,0,0,0,0,0,0,0,0,0,0
1684052685.90034699,83928915,1578,1577,1578,1574,0,0,0,0,0,0,0,0,0,0
1684052686.00030708,84028875,1576,1575,1571,1574,0,0,0,0,0,0,0,0,0,0
1684052686.10026693,84128835,1573,1572,1566,1573,0,0,0,0,0,0,0,0,0,0
1684052686.20022702,84228795,1570,1570,1563,1570,0,0,0,0,0,0,0,0,0,0
1684052686.30018687,84328755,1567,1568,1563,1567,0,0,0,0,0,0,0,0,0,0
1684052686.40014696,84428715,1566,1567,1564,1565,0,0,0,0,0,0,0,0,0,0
1684052686.50010705,84528675,1566,1567,1566,1565,0,0,0,0,0,0,0,0,0,0
1684052686.60006690,84628635,1565,1566,1567,1564,0,0,0,0,0,0,0,0,0,0
1684052686.70002699,84728595,1565,1565,1568,1565,0,0,0,0,0,0,0,0,0,0
1684052686.79998708,84828555,1564,1564,1567,1565,0,0,0,0,0,0,0,0,0,0
1684052686.89994693,84928515,1564,1563,1566,1565,0,0,0,0,0,0,0,0,0,0
1684052686.99990702,85028475,1563,1563,1564,1565,0,0,0,0,0,0,0,0,0,0
1684052687.09986687,85128435,1562,1562,1563,1564,0,0,0,0,0,0,0,0,0,0
1684052687.19982696,85228395,1561,1562,1563,1563,0,0,0,0,0,0,0,0,0,0
1684052687.29978704,85328355,1561,1561,1563,1562,0,0,0,0,0,0,0,0,0,0
1684052687.39974689,85428315,1561,1562,1563,1562,0,0,0,0,0,0,0,0,0,0
1684052687.49970698,85528275,1561,1561,1561,1561,0,0,0,0,0,0,0,0,0,0
1684052687.59966707,85628235,1560,1560,1560,1560,0,0,0,0,0,0,0,0,0,0
1684052687.69962692,85728195,1560,1560,1560,1560,0,0,0,0,0,0,0,0,0,0
1684052687.79958701,85828155,1561,1560,1560,1560,0,0,0,0,0,0,0,0,0,0
1684052687.90037990,85928948,1560,1560,1560,1559,0,0,0,0,0,0,0,0,0,0
1684052688.00033998,86028908,1559,1560,1560,1558,0,0,0,0,0,0,0,0,0,0
1684052688.10030007,86128868,1559,1559,1559,1558,0,0,0,0,0,0,0,0,0,0
1684052688.20025992,86228828,1559,1559,1559,1558,0,0,0,0,0,0,0,0,0,0
1684052688.30022001,86328788,1559,1559,1560,1558,0,0,0,0,0,0,0,0,0,0
1684052688.40017986,86428748,1559,1558,1560,1557,0,0,0,0,0,0,0,0,0,0
1684052688.50013995,86528708,1559,1559,1560,1558,0,0,0,0,0,0,0,0,0,0
1684052688.60010004,86628668,1560,1559,1559,1561,0,0,0,0,0,0,0,0,0,0
1684052688.70005989,86728628,1560,1560,1557,1563,0,0,0,0,0,0,0,0,0,0
1684052688.80001998,86828588,1560,1560,1558,1564,0,0,0,0,0,0,0,0,0,0
1684052688.89998007,86928548,1560,1561,1558,1564,0,0,0,0,0,0,0,0,0,0
1684052688.99993992,87028508,1560,1561,1560,1563,0,0,0,0,0,0,0,0,0,0
1684052689.09990001,87128468,1560,1561,1561,1560,0,0,0,0,0,0,0,0,0,0
1684052689.19985986,87228428,1559,1560,1561,1556,0,0,0,0,0,0,0,0,0,0
1684052689.29981995,87328388,1559,1559,1560,1556,0,0,0,0,0,0,0,0,0,0
1684052689.39978004,87428348,1559,1558,1555,1559,0,0,0,0,0,0,0,0,0,0
1684052689.49973989,87528308,1556,1556,1551,1556,0,0,0,0,0,0,0,0,0,0
1684052689.59969997,87628268,1553,1553,1548,1552,0,0,0,0,0,0,0,0,0,0
1684052689.69966006,87728228,1548,1547,1543,1544,0,0,0,0,0,0,0,0,0,0
1684052689.79961991,87828188,1543,1543,1538,1537,0,0,0,0,0,0,0,0,0,0
1684052689.90041304,87928981,1536,1536,1531,1529,0,0,0,0,0,0,0,0,0,0
1684052690.00037289,88028941,1529,1529,1524,1523,0,0,0,0,0,0,0,0,0,0
1684052690.10033298,88128901,1524,1524,1520,1518,0,0,0,0,0,0,0,0,0,0
1684052690.20029306,88228861,1521,1522,1520,1519,0,0,0,0,0,0,0,0,0,0
1684052690.30025291,88328821,1520,1520,1520,1520,0,0,0,0,0,0,0,0,0,0
1684052690.40021300,88428781,1520,1520,1524,1525,0,0,0,0,0,0,0,0,0,0
1684052690.50017285,88528741,1522,1522,1528,1530,0,0,0,0,0,0,0,0,0,0
1684052690.60013294,88628701,1524,1523,1532,1532,0,0,0,0,0,0,0,0,0,0
1684052690.70009303,88728661,1527,1527,1536,1537,0,0,0,0,0,0,0,0,0,0
1684052690.80005288,88828621,1531,1531,1541,1540,0,0,0,0,0,0,0,0,0,0
1684052690.90001297,88928581,1534,1534,1542,1542,0,0,0,0,0,0,0,0,0,0
1684052690.99997306,89028541,1537,1537,1543,1543,0,0,0,0,0,0,0,0,0,0
1684052691.09993291,89128501,1540,1540,1544,1544,0,0,0,0,0,0,0,0,0,0
1684052691.19989300,89228461,1542,1543,1544,1544,0,0,0,0,0,0,0,0,0,0
1684052691.29985309,89328421,1545,1545,1545,1545,0,0,0,0,0,0,0,0,0,0
1684052691.39981294,89428381,1548,1548,1546,1546,0,0,0,0,0,0,0,0,0,0
1684052691.49977303,89528341,1549,1549,1545,1544,0,0,0,0,0,0,0,0,0,0
1684052691.59973288,89628301,1549,1549,1544,1543,0,0,0,0,0,0,0,0,0,0
1684052691.69969296,89728261,1549,1549,1543,1542,0,0,0,0,0,0,0,0,0,0
1684052691.79965305,89828221,1550,1550,1543,1544,0,0,0,0,0,0,0,0,0,0
1684052691.89961290,89928181,1550,1550,1544,1544,0,0,0,0,0,0,0,0,0,0
1684052692.00040603,90028974,1548,1549,1544,1544,0,0,0,0,0,0,0,0,0,0
1684052692.10036588,90128934,1548,1548,1545,1545,0,0,0,0,0,0,0,0,0,0
1684052692.20032597,90228894,1547,1548,1545,1545,0,0,0,0,0,0,0,0,0,0
1684052692.30028605,90328854,1547,1546,1546,1545,0,0,0,0,0,0,0,0,0,0
1684052692.40024590,90428814,1546,1546,1546,1545,0,0,0,0,0,0,0,0,0,0
1684052692.50020599,90528774,1545,1545,1547,1546,0,0,0,0,0,0,0,0,0,0
1684052692.60016608,90628734,1544,1544,1546,1546,0,0,0,0,0,0,0,0,0,0
1684052692.70012593,90728694,1543,1543,1545,1545,0,0,0,0,0,0,0,0,0,0
1684052692.80008602,90828654,1543,1543,1546,1545,0,0,0,0,0,0,0,0,0,0
1684052692.90004587,90928614,1544,1543,1546,1546,0,0,0,0,0,0,0,0,0,0
1684052693.00000596,91028574,1544,1543,1546,1545,0,0,0,0,0,0,0,0,0,0
1684052693.09996605,91128534,1543,1543,1544,1544,0,0,0,0,0,0,0,0,0,0
1684052693.19992590,91228494,1543,1544,1545,1545,0,0,0,0,0,0,0,0,0,0
1684052693.29988599,91328454,1543,1543,1543,1544,0,0,0,0,0,0,0,0,0,0
1684052693.39984608,91428414,1544,1544,1544,1545,0,0,0,0,0,0,0,0,0,0
1684052693.49980593,91528374,1544,1544,1543,1543,0,0,0,0,0,0,0,0,0,0
1684052693.59976602,91628334,1545,1545,1545,1544,0,0,0,0,0,0,0,0,0,0
1684052693.69972587,91728294,1545,1545,1544,1544,0,0,0,0,0,0,0,0,0,0
1684052693.79968596,91828254,1545,1545,1544,1543,0,0,0,0,0,0,0,0,0,0
1684052693.89964604,91928214,1544,1544,1542,1543,0,0,0,0,0,0,0,0,0,0
1684052693.99960589,92028174,1544,1544,1543,1544,0,0,0,0,0,0,0,0,0,0
1684052694.10039902,92128967,1544,1544,1543,1544,0,0,0,0,0,0,0,0,0,0
1684052694.20035887,92228927,1544,1544,1543,1544,0,0,0,0,0,0,0,0,0,0
1684052694.30031896,92328887,1545,1544,1544,1544,0,0,0,0,0,0,0,0,0,0
1684052694.40027905,92428847,1545,1545,1545,1545,0,0,0,0,0,0,0,0,0,0
1684052694.50023890,92528807,1545,1545,1545,1545,0,0,0,0,0,0,0,0,0,0
1684052694.60019898,92628767,1544,1545,1545,1544,0,0,0,0,0,0,0,0,0,0
1684052694.70015907,92728727,1545,1544,1545,1545,0,0,0,0,0,0,0,0,0,0
1684052694.80011892,92828687,1545,1545,1545,1546,0,0,0,0,0,0,0,0,0,0
1684052694.90007901,92928647,1544,1544,1544,1545,0,0,0,0,0,0,0,0,0,0
1684052695.00003886,93028607,1544,1544,1544,1544,0,0,0,0,0,0,0,0,0,0
1684052695.09999895,93128567,1544,1544,1544,1544,0,0,0,0,0,0,0,0,0,0
1684052695.19995904,93228527,1544,1544,1544,1544,0,0,0,0,0,0,0,0,0,0
1684052695.29991889,93328487,1544,1544,1544,1544,0,0,0,0,0,0,0,0,0,0
1684052695.39987898,93428447,1544,1544,1545,1544,0,0,0,0,0,0,0,0,0,0
1684052695.49983907,93528407,1545,1545,1545,1545,0,0,0,0,0,0,0,0,0,0
1684052695.59979892,93628367,1544,1545,1545,1545,0,0,0,0,0,0,0,0,0,0
1684052695.69975901,93728327,1545,1544,1545,1545,0,0,0,0,0,0,0,0,0,0
1684052695.79971886,93828287,1545,1545,1545,1545,0,0,0,0,0,0,0,0,0,0
1684052695.89967895,93928247,1545,1545,1545,1545,0,0,0,0,0,0,0,0,0,0
1684052695.99963903,94028207,1545,1545,1545,1545,0,0,0,0,0,0,0,0,0,0
1684052696.09959888,94128167,1545,1545,1545,1545,0,0,0,0,0,0,0,0,0,0
1684052696.20039201,94228960,1544,1544,1544,1544,0,0,0,0,0,0,0,0,0,0
1684052696.30035186,94328920,1545,1545,1544,1545,0,0,0,0,0,0,0,0,0,0
1684052696.40031195,94428880,1544,1544,1544,1544,0,0,0,0,0,0,0,0,0,0
1684052696.50027204,94528840,1544,1545,1544,1544,0,0,0,0,0,0,0,0,0,0
1684052696.60023189,94628800,1544,1544,1544,1544,0,0,0,0,0,0,0,0,0,0
1684052696.70019197,94728760,1544,1544,1544,1544,0,0,0,0,0,0,0,0,0,0
1684052696.80015206,94828720,1544,1545,1544,1544,0,0,0,0,0,0,0,0,0,0
1684052696.90011191,94928680,1544,1544,1544,1544,0,0,0,0,0,0,0,0,0,0
1684052697.00007200,95028640,1544,1545,1545,1545,0,0,0,0,0,0,0,0,0,0
1684052697.10003185,95128600,1545,1544,1544,1544,0,0,0,0,0,0,0,0,0,0
1684052697.19999194,95228560,1545,1544,1544,1544,0,0,0,0,0,0,0,0,0,0
1684052697.29995203,95328520,1544,1544,1544,1544,0,0,0,0,0,0,0,0,0,0
1684052697.39991188,95428480,1544,1544,1544,1545,0,0,0,0,0,0,0,0,0,0
1684052697.49987197,95528440,1544,1545,1545,1545,0,0,0,0,0,0,0,0,0,0
1684052697.59983206,95628400,1544,1544,1544,1544,0,0,0,0,0,0,0,0,0,0
1684052697.69979191,95728360,1545,1545,1545,1545,0,0,0,0,0,0,0,0,0,0
1684052697.79975200,95828320,1545,1545,1545,1544,0,0,0,0,0,0,0,0,0,0
1684052697.89971209,95928280,1544,1545,1545,1544,0,0,0,0,0,0,0,0,0,0
1684052697.99967194,96028240,1544,1545,1544,1544,0,0,0,0,0,0,0,0,0,0
1684052698.09963202,96128200,1545,1544,1544,1544,0,0,0,0,0,0,0,0,0,0
1684052698.19959188,96228160,1545,1545,1544,1544,0,0,0,0,0,0,0,0,0,0
1684052698.30038500,96328953,1544,1544,1544,1544,0,0,0,0,0,0,0,0,0,0
1684052698.40034509,96428913,1544,1544,1544,1544,0,0,0,0,0,0,0,0,0,0
1684052698.50030494,96528873,1545,1544,1544,1545,0,0,0,0,0,0,0,0,0,0
1684052698.60026503,96628833,1545,1545,1545,1545,0,0,0,0,0,0,0,0,0,0
1684052698.70022488,96728793,1545,1545,1545,1545,0,0,0,0,0,0,0,0,0,0
1684052698.80018497,96828753,1544,1544,1544,1544,0,0,0,0,0,0,0,0,0,0
1684052698.90014505,96928713,1544,1544,1545,1545,0,0,0,0,0,0,0,0,0,0
1684052699.00010490,97028673,1544,1544,1545,1544,0,0,0,0,0,0,0,0,0,0
1684052699.10006499,97128633,1544,1545,1545,1545,0,0,0,0,0,0,0,0,0,0
1684052699.20002508,97228593,1544,1544,1544,1544,0,0,0,0,0,0,0,0,0,0
1684052699.29998493,97328553,1544,1544,1544,1544,0,0,0,0,0,0,0,0,0,0
1684052699.39994502,97428513,1545,1545,1545,1545,0,0,0,0,0,0,0,0,0,0
1684052699.49990487,97528473,1544,1544,1543,1544,0,0,0,0,0,0,0,0,0,0
1684052699.59986496,97628433,1544,1544,1543,1543,0,0,0,0,0,0,0,0,0,0
1684052699.69982505,97728393,1544,1544,1544,1544,0,0,0,0,0,0,0,0,0,0
1684052699.79978490,97828353,1479,1479,1447,1446,0,0,0,0,0,0,0,0,0,0
1684052699.89974499,97928313,1387,1385,1293,1292,0,0,0,0,0,0,0,0,0,0
1684052699.99970508,98028273,1354,1352,1230,1228,0,0,0,0,0,0,0,0,0,0
1684052700.09966493,98128233,1343,1342,1209,1208,0,0,0,0,0,0,0,0,0,0
1684052700.19962502,98228193,1329,1328,1180,1178,0,0,0,0,0,0,0,0,0,0
1684052700.30041790,98328986,1297,1296,1152,1150,0,0,0,0,0,0,0,0,0,0
1684052700.40037799,98428946,1212,1211,1153,1150,0,0,0,0,0,0,0,0,0,0
1684052700.50033808,98528906,1117,1115,1153,1150,0,0,0,0,0,0,0,0,0,0
1684052700.60029793,98628866,1011,1009,1153,1150,0,0,0,0,0,0,0,0,0,0
1684052700.70025802,98728826,978,976,1152,1150,0,0,0,0,0,0,0,0,0,0
1684052700.80021787,98828786,978,976,1153,1150,0,0,0,0,0,0,0,0,0,0
1684052700.90017796,98928746,978,976,1152,1150,0,0,0,0,0,0,0,0,0,0
1684052701.00013804,99028706,978,963,1150,1170,0,0,0,0,0,0,0,0,0,0
1684052701.10009789,99128666,979,969,1150,1162,0,0,0,0,0,0,0,0,0,0
1684052701.20005798,99228626,979,971,1150,1158,0,0,0,0,0,0,0,0,0,0
1684052701.30001807,99328586,979,972,1150,1158,0,0,0,0,0,0,0,0,0,0
1684052701.39997792,99428546,979,972,1150,1158,0,0,0,0,0,0,0,0,0,0
1684052701.49993801,99528506,979,971,1150,1158,0,0,0,0,0,0,0,0,0,0
1684052701.59989786,99628466,979,971,1150,1158,0,0,0,0,0,0,0,0,0,0
1684052701.69985795,99728426,979,971,1150,1159,0,0,0,0,0,0,0,0,0,0
1684052701.79981804,99828386,979,977,1150,1150,0,0,0,0,0,0,0,0,0,0
1684052701.89977789,99928346,979,977,1150,1151,0,0,0,0,0,0,0,0,0,0
1684052701.99973798,100028306,979,976,1150,1151,0,0,0,0,0,0,0,0,0,0
1684052702.09969807,100128266,979,976,1150,1152,0,0,0,0,0,0,0,0,0,0
1684052702.19965792,100228226,876,874,1150,1150,0,0,0,0,0,0,0,0,0,0
1684052702.29961801,100328186,1000,1000,1000,1000,0,0,0,0,0,0,0,0,0,0
1684052702.40041089,100428979,1000,1000,1000,1000,0,0,0,0,0,0,0,0,0,0
1684052702.50037098,100528939,1000,1000,1000,1000,0,0,0,0,0,0,0,0,0,0
1684052702.60033107,100628899,1000,1000,1000,1000,0,0,0,0,0,0,0,0,0,0
1684052702.70029092,100728859,1000,1000,1000,1000,0,0,0,0,0,0,0,0,0,0
1684052702.80025101,100828819,1000,1000,1000,1000,0,0,0,0,0,0,0,0,0,0
1684052702.90021086,100928779,1000,1000,1000,1000,0,0,0,0,0,0,0,0,0,0
1684052703.00017095,101028739,1000,1000,1000,1000,0,0,0,0,0,0,0,0,0,0
1684052703.10013103,101128699,1000,1000,1000,1000,0,0,0,0,0,0,0,0,0,0
1684052703.20009089,101228659,1000,1000,1000,1000,0,0,0,0,0,0,0,0,0,0
1684052703.30005097,101328619,1000,1000,1000,1000,0,0,0,0,0,0,0,0,0,0
1684052703.40001106,101428579,1000,1000,1000,1000,0,0,0,0,0,0,0,0,0,0
1684052703.49997091,101528539,1000,1000,1000,1000,0,0,0,0,0,0,0,0,0,0
1684052703.59993100,101628499,1000,1000,1000,1000,0,0,0,0,0,0,0,0,0,0
1684052703.69989085,101728459,1000,1000,1000,1000,0,0,0,0,0,0,0,0,0,0
1684052703.79985094,101828419,1000,1000,1000,1000,0,0,0,0,0,0,0,0,0,0
1684052703.89981103,101928379,1000,1000,1000,1000,0,0,0,0,0,0,0,0,0,0
1684052703.99977088,102028339,1000,1000,1000,1000,0,0,0,0,0,0,0,0,0,0
1684052704.09973097,102128299,1000,1000,1000,1000,0,0,0,0,0,0,0,0,0,0
1684052704.19969106,102228259,1000,1000,1000,1000,0,0,0,0,0,0,0,0,0,0
1684052704.29965091,102328219,1000,1000,1000,1000,0,0,0,0,0,0,0,0,0,0
1684052704.39961100,102428179,1000,1000,1000,1000,0,0,0,0,0,0,0,0,0,0
1684052704.50040388,102528972,1000,1000,1000,1000,0,0,0,0,0,0,0,0,0,0
1684052704.60036397,102628932,1000,1000,1000,1000,0,0,0,0,0,0,0,0,0,0
1684052704.70032406,102728892,1000,1000,1000,1000,0,0,0,0,0,0,0,0,0,0
1684052704.80028391,102828852,1000,1000,1000,1000,0,0,0,0,0,0,0,0,0,0
1684052704.90024400,102928812,1000,1000,1000,1000,0,0,0,0,0,0,0,0,0,0
1684052705.00020409,103028772,1000,1000,1000,1000,0,0,0,0,0,0,0,0,0,0
1684052705.10016394,103128732,1000,1000,1000,1000,0,0,0,0,0,0,0,0,0,0
1684052705.20012403,103228692,1000,1000,1000,1000,0,0,0,0,0,0,0,0,0,0
1684052705.30008388,103328652,1000,1000,1000,1000,0,0,0,0,0,0,0,0,0,0
1684052705.40004396,103428612,1000,1000,1000,1000,0,0,0,0,0,0,0,0,0,0
1684052705.50000405,103528572,1000,1000,1000,1000,0,0,0,0,0,0,0,0,0,0
1684052705.59996390,103628532,1000,1000,1000,1000,0,0,0,0,0,0,0,0,0,0
1684052705.69992399,103728492,1000,1000,1000,1000,0,0,0,0,0,0,0,0,0,0
1684052705.79988408,103828452,1000,1000,1000,1000,0,0,0,0,0,0,0,0,0,0
1684052705.89984393,103928412,1000,1000,1000,1000,0,0,0,0,0,0,0,0,0,0
1684052705.99980402,104028372,1000,1000,1000,1000,0,0,0,0,0,0,0,0,0,0
1684052706.09976387,104128332,1000,1000,1000,1000,0,0,0,0,0,0,0,0,0,0
1684052706.19972396,104228292,1000,1000,1000,1000,0,0,0,0,0,0,0,0,0,0
1684052706.29968405,104328252,1000,1000,1000,1000,0,0,0,0,0,0,0,0,0,0
1684052706.39964390,104428212,1000,1000,1000,1000,0,0,0,0,0,0,0,0,0,0
1684052706.49960399,104528172,1000,1000,1000,1000,0,0,0,0,0,0,0,0,0,0
1684052706.60039687,104628965,1000,1000,1000,1000,0,0,0,0,0,0,0,0,0,0
1684052706.70035696,104728925,1000,1000,1000,1000,0,0,0,0,0,0,0,0,0,0
1684052706.80031705,104828885,1000,1000,1000,1000,0,0,0,0,0,0,0,0,0,0
1684052706.90027690,104928845,1000,1000,1000,1000,0,0,0,0,0,0,0,0,0,0
1684052707.00023699,105028805,1000,1000,1000,1000,0,0,0,0,0,0,0,0,0,0
1684052707.10019708,105128765,1000,1000,1000,1000,0,0,0,0,0,0,0,0,0,0
1684052707.20015693,105228725,1000,1000,1000,1000,0,0,0,0,0,0,0,0,0,0
1684052707.30011702,105328685,1000,1000,1000,1000,0,0,0,0,0,0,0,0,0,0
1684052707.40007687,105428645,1000,1000,1000,1000,0,0,0,0,0,0,0,0,0,0
1684052707.50003695,105528605,1000,1000,1000,1000,0,0,0,0,0,0,0,0,0,0
1684052707.59999704,105628565,1000,1000,1000,1000,0,0,0,0,0,0,0,0,0,0
1684052707.69995689,105728525,1000,1000,1000,1000,0,0,0,0,0,0,0,0,0,0
1684052707.79991698,105828485,1000,1000,1000,1000,0,0,0,0,0,0,0,0,0,0
1684052707.89987707,105928445,1000,1000,1000,1000,0,0,0,0,0,0,0,0,0,0
1684052707.99983692,106028405,1000,1000,1000,1000,0,0,0,0,0,0,0,0,0,0
1684052708.09979701,106128365,1000,1000,1000,1000,0,0,0,0,0,0,0,0,0,0
1684052708.19975686,106228325,1000,1000,1000,1000,0,0,0,0,0,0,0,0,0,0
1684052708.29971695,106328285,1000,1000,1000,1000,0,0,0,0,0,0,0,0,0,0
1684052708.39967704,106428245,1000,1000,1000,1000,0,0,0,0,0,0,0,0,0,0
1684052708.49963689,106528205,1000,1000,1000,1000,0,0,0,0,0,0,0,0,0,0
1684052708.59959698,106628165,1000,1000,1000,1000,0,0,0,0,0,0,0,0,0,0
1684052708.70038986,106728958,1000,1000,1000,1000,0,0,0,0,0,0,0,0,0,0
1684052708.80034995,106828918,1000,1000,1000,1000,0,0,0,0,0,0,0,0,0,0
1684052708.90031004,106928878,1000,1000,1000,1000,0,0,0,0,0,0,0,0,0,0
1684052709.00026989,107028838,1000,1000,1000,1000,0,0,0,0,0,0,0,0,0,0
1684052709.10022998,107128798,1000,1000,1000,1000,0,0,0,0,0,0,0,0,0,0
1684052709.20019007,107228758,1000,1000,1000,1000,0,0,0,0,0,0,0,0,0,0
1684052709.30014992,107328718,1000,1000,1000,1000,0,0,0,0,0,0,0,0,0,0
1684052709.40011001,107428678,1000,1000,1000,1000,0,0,0,0,0,0,0,0,0,0
1684052709.50006986,107528638,1000,1000,1000,1000,0,0,0,0,0,0,0,0,0,0
1684052709.60002995,107628598,1000,1000,1000,1000,0,0,0,0,0,0,0,0,0,0
1684052709.69999003,107728558,1000,1000,1000,1000,0,0,0,0,0,0,0,0,0,0
1684052709.79994988,107828518,1000,1000,1000,1000,0,0,0,0,0,0,0,0,0,0
1684052709.89990997,107928478,1000,1000,1000,1000,0,0,0,0,0,0,0,0,0,0
1684052709.99987006,108028438,1000,1000,1000,1000,0,0,0,0,0,0,0,0,0,0
1684052710.09982991,108128398,1000,1000,1000,1000,0,0,0,0,0,0,0,0,0,0
1684052710.19979000,108228358,1000,1000,1000,1000,0,0,0,0,0,0,0,0,0,0
1684052710.29975009,108328318,1000,1000,1000,1000,0,0,0,0,0,0,0,0,0,0
1684052710.39970994,108428278,1000,1000,1000,1000,0,0,0,0,0,0,0,0,0,0
1684052710.49967003,108528238,1000,1000,1000,1000,0,0,0,0,0,0,0,0,0,0
1684052710.59962988,108628198,1000,1000,1000,1000,0,0,0,0,0,0,0,0,0,0
1684052710.69958997,108728158,1000,1000,1000,1000,0,0,0,0,0,0,0,0,0,0
1684052710.80038285,108828951,1000,1000,1000,1000,0,0,0,0,0,0,0,0,0,0
1684052710.90034294,108928911,1000,1000,1000,1000,0,0,0,0,0,0,0,0,0,0
1684052711.00030303,109028871,1000,1000,1000,1000,0,0,0,0,0,0,0,0,0,0
1684052711.10026288,109128831,1000,1000,1000,1000,0,0,0,0,0,0,0,0,0,0
1684052711.20022297,109228791,1000,1000,1000,1000,0,0,0,0,0,0,0,0,0,0
1684052711.30018306,109328751,1000,1000,1000,1000,0,0,0,0,0,0,0,0,0,0
1684052711.40014291,109428711,1000,1000,1000,1000,0,0,0,0,0,0,0,0,0,0
1684052711.50010300,109528671,1000,1000,1000,1000,0,0,0,0,0,0,0,0,0,0
1684052711.60006309,109628631,1000,1000,1000,1000,0,0,0,0,0,0,0,0,0,0
1684052711.70002294,109728591,1000,1000,1000,1000,0,0,0,0,0,0,0,0,0,0
1684052711.79998302,109828551,1000,1000,1000,1000,0,0,0,0,0,0,0,0,0,0
1684052711.89994287,109928511,1000,1000,1000,1000,0,0,0,0,0,0,0,0,0,0
1684052711.99990296,110028471,1000,1000,1000,1000,0,0,0,0,0,0,0,0,0,0
1684052712.09986305,110128431,1000,1000,1000,1000,0,0,0,0,0,0,0,0,0,0
1684052712.19982290,110228391,1000,1000,1000,1000,0,0,0,0,0,0,0,0,0,0
1684052712.29978299,110328351,1000,1000,1000,1000,0,0,0,0,0,0,0,0,0,0
1684052712.39974308,110428311,1000,1000,1000,1000,0,0,0,0,0,0,0,0,0,0
1684052712.49970293,110528271,1000,1000,1000,1000,0,0,0,0,0,0,0,0,0,0
1684052712.59966302,110628231,1000,1000,1000,1000,0,0,0,0,0,0,0,0,0,0
1684052712.69962287,110728191,1000,1000,1000,1000,0,0,0,0,0,0,0,0,0,0
1684052712.80041599,110828984,1000,1000,1000,1000,0,0,0,0,0,0,0,0,0,0
1684052712.90037608,110928944,1000,1000,1000,1000,0,0,0,0,0,0,0,0,0,0
1684052713.00033593,111028904,1000,1000,1000,1000,0,0,0,0,0,0,0,0,0,0
1684052713.10029602,111128864,1000,1000,1000,1000,0,0,0,0,0,0,0,0,0,0
1684052713.20025587,111228824,1000,1000,1000,1000,0,0,0,0,0,0,0,0,0,0
1684052713.30021596,111328784,1000,1000,1000,1000,0,0,0,0,0,0,0,0,0,0
1684052713.40017605,111428744,1000,1000,1000,1000,0,0,0,0,0,0,0,0,0,0
1684052713.50013590,111528704,1000,1000,1000,1000,0,0,0,0,0,0,0,0,0,0
1684052713.60009599,111628664,1000,1000,1000,1000,0,0,0,0,0,0,0,0,0,0
1684052713.70005608,111728624,1000,1000,1000,1000,0,0,0,0,0,0,0,0,0,0
1684052713.80001593,111828584,1000,1000,1000,1000,0,0,0,0,0,0,0,0,0,0
1684052713.89997602,111928544,1000,1000,1000,1000,0,0,0,0,0,0,0,0,0,0
1684052713.99993587,112028504,1000,1000,1000,1000,0,0,0,0,0,0,0,0,0,0
1684052714.09989595,112128464,1000,1000,1000,1000,0,0,0,0,0,0,0,0,0,0
1684052714.19985604,112228424,1000,1000,1000,1000,0,0,0,0,0,0,0,0,0,0
1684052714.29981589,112328384,1000,1000,1000,1000,0,0,0,0,0,0,0,0,0,0
1684052714.39977598,112428344,1000,1000,1000,1000,0,0,0,0,0,0,0,0,0,0
1684052714.49973607,112528304,1000,1000,1000,1000,0,0,0,0,0,0,0,0,0,0
1684052714.59969592,112628264,1000,1000,1000,1000,0,0,0,0,0,0,0,0,0,0
1684052714.69965601,112728224,1000,1000,1000,1000,0,0,0,0,0,0,0,0,0,0
1684052714.79961586,112828184,1000,1000,1000,1000,0,0,0,0,0,0,0,0,0,0
1684052714.90040898,112928977,1000,1000,1000,1000,0,0,0,0,0,0,0,0,0,0
1684052715.00036907,113028937,1000,1000,1000,1000,0,0,0,0,0,0,0,0,0,0
1684052715.10032892,113128897,1000,1000,1000,1000,0,0,0,0,0,0,0,0,0,0
1684052715.20028901,113228857,1000,1000,1000,1000,0,0,0,0,0,0,0,0,0,0
1684052715.30024886,113328817,1000,1000,1000,1000,0,0,0,0,0,0,0,0,0,0
1684052715.40020895,113428777,1000,1000,1000,1000,0,0,0,0,0,0,0,0,0,0
1684052715.50016904,113528737,1000,1000,1000,1000,0,0,0,0,0,0,0,0,0,0
1684052715.60012889,113628697,1000,1000,1000,1000,0,0,0,0,0,0,0,0,0,0
1684052715.70008898,113728657,1000,1000,1000,1000,0,0,0,0,0,0,0,0,0,0
1684052715.80004907,113828617,1000,1000,1000,1000,0,0,0,0,0,0,0,0,0,0
1684052715.90000892,113928577,1000,1000,1000,1000,0,0,0,0,0,0,0,0,0,0
1684052715.99996901,114028537,1000,1000,1000,1000,0,0,0,0,0,0,0,0,0,0
1684052716.09992886,114128497,1000,1000,1000,1000,0,0,0,0,0,0,0,0,0,0
1684052716.19988894,114228457,1000,1000,1000,1000,0,0,0,0,0,0,0,0,0,0
1684052716.29984903,114328417,1000,1000,1000,1000,0,0,0,0,0,0,0,0,0,0
1684052716.39980888,114428377,1000,1000,1000,1000,0,0,0,0,0,0,0,0,0,0
1684052716.49976897,114528337,1000,1000,1000,1000,0,0,0,0,0,0,0,0,0,0
1684052716.59972906,114628297,1000,1000,1000,1000,0,0,0,0,0,0,0,0,0,0
1684052716.69968891,114728257,1000,1000,1000,1000,0,0,0,0,0,0,0,0,0,0
1684052716.79964900,114828217,1000,1000,1000,1000,0,0,0,0,0,0,0,0,0,0
1684052716.89960909,114928177,1000,1000,1000,1000,0,0,0,0,0,0,0,0,0,0
1684052717.00040197,115028970,1000,1000,1000,1000,0,0,0,0,0,0,0,0,0,0
1684052717.10036206,115128930,1000,1000,1000,1000,0,0,0,0,0,0,0,0,0,0
1684052717.20032191,115228890,1000,1000,1000,1000,0,0,0,0,0,0,0,0,0,0
