TimeUS,M1,M2,M3,M4,TimeUS,C1,C2,C3,C4
43618379,1000,1000,1000,1000,43628375,1000,1000,1000,1000
43620878,1000,1000,1000,1000,43728335,1000,1000,1000,1000
43623377,1000,1000,1000,1000,43828295,1000,1000,1000,1000
43625876,1000,1000,1000,1000,43928255,1000,1000,1000,1000
43628375,1000,1000,1000,1000,44028215,1000,1000,1000,1000
43630874,1000,1000,1000,1000,44128175,1000,1000,1000,1000
43633373,1000,1000,1000,1000,44228968,1000,1000,1000,1000
43635872,1000,1000,1000,1000,44328928,1000,1000,1000,1000
43638371,1000,1000,1000,1000,44428888,1000,1000,1000,1000
43640870,1000,1000,1000,1000,44528848,1000,1000,1000,1000
43643369,1000,1000,1000,1000,44628808,1000,1000,1000,1000
43645868,1000,1000,1000,1000,44728768,1000,1000,1000,1000
43648367,1000,1000,1000,1000,44828728,1000,1000,1000,1000
43650866,1000,1000,1000,1000,44928688,1000,1000,1000,1000
43653365,1000,1000,1000,1000,45028648,1000,1000,1000,1000
43655864,1000,1000,1000,1000,45128608,1000,1000,1000,1000
43658363,1000,1000,1000,1000,45228568,1000,1000,1000,1000
43660862,1000,1000,1000,1000,45328528,1000,1000,1000,1000
43663361,1000,1000,1000,1000,45428488,1000,1000,1000,1000
43665860,1000,1000,1000,1000,45528448,1000,1000,1000,1000
43668359,1000,1000,1000,1000,45628408,1003,1003,1003,1003
43670858,1000,1000,1000,1000,45728368,1033,1033,1033,1033
43673357,1000,1000,1000,1000,45828328,1063,1063,1063,1063
43675856,1000,1000,1000,1000,45928288,1093,1093,1093,1093
43678355,1000,1000,1000,1000,46028248,1122,1122,1122,1122
43680854,1000,1000,1000,1000,46128208,1177,1170,1171,1177
43683353,1000,1000,1000,1000,46228168,1419,1415,1415,1419
43685852,1000,1000,1000,1000,46328961,1595,1591,1591,1595
43688351,1000,1000,1000,1000,46428921,1739,1736,1736,1740
43690850,1000,1000,1000,1000,46528881,1866,1862,1862,1866
43693349,1000,1000,1000,1000,46628841,1900,1897,1897,1901
43695848,1000,1000,1000,1000,46728801,1802,1801,1801,1802
43698347,1000,1000,1000,1000,46828761,1684,1685,1685,1684
43700846,1000,1000,1000,1000,46928721,1632,1633,1634,1632
43703345,1000,1000,1000,1000,47028681,1628,1630,1630,1628
43705844,1000,1000,1000,1000,47128641,1637,1637,1638,1636
43708343,1000,1000,1000,1000,47228601,1639,1638,1638,1638
43710842,1000,1000,1000,1000,47328561,1632,1632,1632,1632
43713341,1000,1000,1000,1000,47428521,1624,1623,1623,1624
43715840,1000,1000,1000,1000,47528481,1618,1618,1617,1618
43718339,1000,1000,1000,1000,47628441,1615,1615,1614,1615
43720838,1000,1000,1000,1000,47728401,1615,1615,1614,1615
43723337,1000,1000,1000,1000,47828361,1598,1598,1598,1598
43725836,1000,1000,1000,1000,47928321,1577,1577,1577,1577
43728335,1000,1000,1000,1000,48028281,1565,1565,1565,1565
43730834,1000,1000,1000,1000,48128241,1556,1555,1556,1556
43733333,1000,1000,1000,1000,48228201,1548,1548,1547,1548
43735832,1000,1000,1000,1000,48328161,1541,1541,1539,1543
43738331,1000,1000,1000,1000,48428954,1535,1535,1532,1537
43740830,1000,1000,1000,1000,48528914,1530,1530,1527,1533
43743329,1000,1000,1000,1000,48628874,1526,1525,1523,1528
43745828,1000,1000,1000,1000,48728834,1526,1526,1524,1527
43748327,1000,1000,1000,1000,48828794,1526,1526,1527,1526
43750826,1000,1000,1000,1000,48928754,1530,1530,1532,1528
43753325,1000,1000,1000,1000,49028714,1534,1534,1536,1531
43755824,1000,1000,1000,1000,49128674,1538,1538,1539,1536
43758323,1000,1000,1000,1000,49228634,1542,1542,1542,1541
43760822,1000,1000,1000,1000,49328594,1544,1544,1550,1538
43763321,1000,1000,1000,1000,49428554,1547,1547,1551,1542
43765820,1000,1000,1000,1000,49528514,1549,1549,1548,1550
43768319,1000,1000,1000,1000,49628474,1551,1550,1546,1555
43770818,1000,1000,1000,1000,49728434,1551,1551,1545,1556
43773317,1000,1000,1000,1000,49828394,1552,1552,1547,1557
43775816,1000,1000,1000,1000,49928354,1554,1554,1552,1556
43778315,1000,1000,1000,1000,50028314,1556,1555,1556,1555
43780814,1000,1000,1000,1000,50128274,1558,1558,1561,1555
43783313,1000,1000,1000,1000,50228234,1561,1561,1564,1557
43785812,1000,1000,1000,1000,50328194,1562,1563,1565,1560
43788311,1000,1000,1000,1000,50428154,1563,1563,1564,1562
43790810,1000,1000,1000,1000,50528947,1563,1562,1563,1564
43793309,1000,1000,1000,1000,50628907,1558,1558,1569,1573
43795808,1000,1000,1000,1000,50728867,1558,1558,1569,1573
43798307,1000,1000,1000,1000,50828827,1561,1562,1568,1571
43800806,1000,1000,1000,1000,50928787,1563,1563,1566,1567
43803305,1000,1000,1000,1000,51028747,1567,1567,1566,1566
43805804,1000,1000,1000,1000,51128707,1569,1569,1565,1564
43808303,1000,1000,1000,1000,51228667,1571,1571,1565,1564
43810802,1000,1000,1000,1000,51328627,1572,1572,1564,1564
43813301,1000,1000,1000,1000,51428587,1574,1573,1565,1565
43815800,1000,1000,1000,1000,51528547,1574,1573,1566,1566
43818299,1000,1000,1000,1000,51628507,1573,1573,1567,1568
43820798,1000,1000,1000,1000,51728467,1574,1573,1569,1570
43823297,1000,1000,1000,1000,51828427,1573,1573,1570,1571
43825796,1000,1000,1000,1000,51928387,1573,1573,1573,1573
43828295,1000,1000,1000,1000,52028347,1574,1574,1576,1574
43830794,1000,1000,1000,1000,52128307,1574,1574,1577,1575
43833293,1000,1000,1000,1000,52228267,1574,1574,1578,1577
43835792,1000,1000,1000,1000,52328227,1574,1574,1577,1577
43838291,1000,1000,1000,1000,52428187,1575,1575,1578,1578
43840790,1000,1000,1000,1000,52528980,1575,1575,1577,1578
43843289,1000,1000,1000,1000,52628940,1576,1576,1578,1578
43845788,1000,1000,1000,1000,52728900,1576,1576,1577,1577
43848287,1000,1000,1000,1000,52828860,1578,1578,1578,1578
43850786,1000,1000,1000,1000,52928820,1577,1577,1577,1577
43853285,1000,1000,1000,1000,53028780,1578,1578,1577,1577
43855784,1000,1000,1000,1000,53128740,1578,1578,1577,1577
43858283,1000,1000,1000,1000,53228700,1578,1578,1576,1577
43860782,1000,1000,1000,1000,53328660,1579,1579,1578,1578
43863281,1000,1000,1000,1000,53428620,1579,1579,1578,1578
43865780,1000,1000,1000,1000,53528580,1579,1579,1578,1578
43868279,1000,1000,1000,1000,53628540,1578,1578,1578,1578
43870778,1000,1000,1000,1000,53728500,1578,1579,1578,1579
43873277,1000,1000,1000,1000,53828460,1579,1579,1579,1579
43875776,1000,1000,1000,1000,53928420,1579,1578,1579,1579
43878275,1000,1000,1000,1000,54028380,1578,1578,1579,1579
43880774,1000,1000,1000,1000,54128340,1578,1578,1579,1579
43883273,1000,1000,1000,1000,54228300,1578,1578,1579,1578
43885772,1000,1000,1000,1000,54328260,1579,1579,1579,1579
43888271,1000,1000,1000,1000,54428220,1580,1580,1580,1580
43890770,1000,1000,1000,1000,54528180,1580,1579,1580,1580
43893269,1000,1000,1000,1000,54628973,1579,1579,1579,1579
43895768,1000,1000,1000,1000,54728933,1579,1579,1579,1579
43898267,1000,1000,1000,1000,54828893,1579,1580,1579,1579
43900766,1000,1000,1000,1000,54928853,1580,1580,1580,1580
43903265,1000,1000,1000,1000,55028813,1580,1580,1580,1580
43905764,1000,1000,1000,1000,55128773,1579,1580,1579,1579
43908263,1000,1000,1000,1000,55228733,1581,1580,1580,1580
43910762,1000,1000,1000,1000,55328693,1581,1580,1580,1581
43913261,1000,1000,1000,1000,55428653,1580,1580,1580,1580
43915760,1000,1000,1000,1000,55528613,1579,1579,1580,1580
43918259,1000,1000,1000,1000,55628573,1579,1580,1580,1580
43920758,1000,1000,1000,1000,55728533,1580,1580,1580,1581
43923257,1000,1000,1000,1000,55828493,1580,1581,1581,1581
43925756,1000,1000,1000,1000,55928453,1581,1581,1582,1581
43928255,1000,1000,1000,1000,56028413,1581,1581,1581,1581
43930754,1000,1000,1000,1000,56128373,1581,1581,1581,1581
43933253,1000,1000,1000,1000,56228333,1581,1581,1581,1581
43935752,1000,1000,1000,1000,56328293,1581,1581,1581,1581
43938251,1000,1000,1000,1000,56428253,1581,1581,1581,1581
43940750,1000,1000,1000,1000,56528213,1581,1581,1581,1581
43943249,1000,1000,1000,1000,56628173,1582,1582,1582,1581
43945748,1000,1000,1000,1000,56728966,1580,1580,1580,1580
43948247,1000,1000,1000,1000,56828926,1581,1580,1582,1579
43950746,1000,1000,1000,1000,56928886,1581,1582,1588,1573
43953245,1000,1000,1000,1000,57028846,1579,1582,1583,1573
43955744,1000,1000,1000,1000,57128806,1577,1580,1574,1573
43958243,1000,1000,1000,1000,57228766,1576,1579,1565,1571
43960742,1000,1000,1000,1000,57328726,1575,1577,1558,1566
43963241,1000,1000,1000,1000,57428686,1577,1577,1556,1561
43965740,1000,1000,1000,1000,57528646,1578,1577,1555,1558
43968239,1000,1000,1000,1000,57628606,1579,1577,1555,1555
43970738,1000,1000,1000,1000,57728566,1579,1577,1556,1554
43973237,1000,1000,1000,1000,57828526,1577,1577,1556,1553
43975736,1000,1000,1000,1000,57928486,1576,1577,1555,1553
43978235,1000,1000,1000,1000,58028446,1575,1576,1555,1553
43980734,1000,1000,1000,1000,58128406,1574,1575,1553,1553
43983233,1000,1000,1000,1000,58228366,1575,1576,1552,1553
43985732,1000,1000,1000,1000,58328326,1575,1576,1551,1551
43988231,1000,1000,1000,1000,58428286,1577,1578,1550,1550
43990730,1000,1000,1000,1000,58528246,1579,1580,1548,1548
43993229,1000,1000,1000,1000,58628206,1581,1582,1546,1545
43995728,1000,1000,1000,1000,58728166,1584,1585,1543,1543
43998227,1000,1000,1000,1000,58828959,1588,1588,1540,1540
44000726,1000,1000,1000,1000,58928919,1591,1591,1538,1537
44003225,1000,1000,1000,1000,59028879,1593,1593,1536,1535
44005724,1000,1000,1000,1000,59128839,1595,1594,1535,1535
44008223,1000,1000,1000,1000,59228799,1594,1594,1534,1535
44010722,1000,1000,1000,1000,59328759,1594,1594,1537,1539
44013221,1000,1000,1000,1000,59428719,1592,1591,1539,1543
44015720,1000,1000,1000,1000,59528679,1588,1586,1545,1548
44018219,1000,1000,1000,1000,59628639,1582,1579,1554,1556
44020718,1000,1000,1000,1000,59728599,1573,1569,1563,1566
44023217,1000,1000,1000,1000,59828559,1564,1559,1576,1578
44025716,1000,1000,1000,1000,59928519,1552,1548,1588,1589
44028215,1000,1000,1000,1000,60028479,1541,1539,1599,1599
44030714,1000,1000,1000,1000,60128439,1534,1533,1608,1607
44033213,1000,1000,1000,1000,60228399,1528,1530,1613,1612
44035712,1000,1000,1000,1000,60328359,1528,1531,1615,1614
44038211,1000,1000,1000,1000,60428319,1531,1534,1613,1612
44040710,1000,1000,1000,1000,60528279,1538,1539,1608,1608
44043209,1000,1000,1000,1000,60628239,1545,1547,1601,1602
44045708,1000,1000,1000,1000,60728199,1554,1555,1594,1594
44048207,1000,1000,1000,1000,60828159,1564,1564,1588,1587
44050706,1000,1000,1000,1000,60928952,1572,1572,1581,1580
44053205,1000,1000,1000,1000,61028912,1579,1578,1575,1574
44055704,1000,1000,1000,1000,61128872,1583,1582,1569,1569
44058203,1000,1000,1000,1000,61228832,1587,1585,1567,1567
44060702,1000,1000,1000,1000,61328792,1588,1586,1566,1566
44063201,1000,1000,1000,1000,61428752,1588,1586,1567,1568
44065700,1000,1000,1000,1000,61528712,1585,1585,1568,1569
44068199,1000,1000,1000,1000,61628672,1582,1582,1570,1570
44070698,1000,1000,1000,1000,61728632,1580,1580,1574,1574
44073197,1000,1000,1000,1000,61828592,1578,1578,1577,1577
44075696,1000,1000,1000,1000,61928552,1574,1575,1579,1579
44078195,1000,1000,1000,1000,62028512,1573,1574,1581,1581
44080694,1000,1000,1000,1000,62128472,1572,1573,1583,1582
44083193,1000,1000,1000,1000,62228432,1572,1573,1584,1584
44085692,1000,1000,1000,1000,62328392,1572,1574,1584,1584
44088191,1000,1000,1000,1000,62428352,1574,1574,1583,1583
44090690,1000,1000,1000,1000,62528312,1575,1575,1582,1582
44093189,1000,1000,1000,1000,62628272,1576,1576,1580,1580
44095688,1000,1000,1000,1000,62728232,1578,1578,1580,1580
44098187,1000,1000,1000,1000,62828192,1579,1579,1579,1579
44100686,1000,1000,1000,1000,62928985,1580,1580,1578,1578
44103185,1000,1000,1000,1000,63028945,1581,1581,1577,1577
44105684,1000,1000,1000,1000,63128905,1582,1582,1577,1577
44108183,1000,1000,1000,1000,63228865,1581,1582,1577,1577
44110682,1000,1000,1000,1000,63328825,1582,1582,1578,1577
44113181,1000,1000,1000,1000,63428785,1581,1581,1578,1578
44115680,1000,1000,1000,1000,63528745,1581,1581,1579,1579
44118179,1000,1000,1000,1000,63628705,1580,1580,1579,1579
44120678,1000,1000,1000,1000,63728665,1580,1580,1580,1580
44123177,1000,1000,1000,1000,63828625,1579,1579,1580,1579
44125676,1000,1000,1000,1000,63928585,1348,1351,1638,1646
44128175,1000,1000,1000,1000,64028545,1418,1426,1648,1652
44130674,1000,1000,1000,1000,64128505,1480,1490,1638,1633
44133173,1000,1000,1000,1000,64228465,1533,1540,1626,1617
44135672,1000,1000,1000,1000,64328425,1574,1574,1619,1609
44138171,1000,1000,1000,1000,64428385,1608,1596,1610,1603
44140670,1000,1000,1000,1000,64528345,1636,1619,1584,1586
44143169,1000,1000,1000,1000,64628305,1636,1620,1522,1534
44145668,1000,1000,1000,1000,64728265,1636,1630,1516,1531
44148167,1000,1000,1000,1000,64828225,1631,1636,1534,1543
44150666,1000,1000,1000,1000,64928185,1631,1636,1562,1552
44153165,1000,1000,1000,1000,65028978,1635,1636,1585,1574
44155664,1000,1000,1000,1000,65128938,1636,1634,1594,1590
44158163,1000,1000,1000,1000,65228898,1636,1633,1599,1600
44160662,1000,1000,1000,1000,65328858,1635,1633,1603,1606
44163161,1000,1000,1000,1000,65428818,1619,1619,1587,1588
44165660,1000,1000,1000,1000,65528778,1607,1609,1576,1576
44168159,1000,1000,1000,1000,65628738,1598,1600,1568,1566
44170658,1000,1000,1000,1000,65728698,1592,1593,1563,1561
44173157,1000,1000,1000,1000,65828658,1585,1585,1556,1553
44175656,1000,1000,1000,1000,65928618,1580,1580,1552,1549
44178155,1000,1000,1000,1000,66028578,1575,1574,1547,1545
44180654,1000,1000,1000,1000,66128538,1572,1572,1545,1544
44183986,1000,1000,1000,1000,66228498,1569,1569,1544,1543
44186485,1000,1000,1000,1000,66328458,1567,1568,1543,1542
44188984,1000,1000,1000,1000,66428418,1566,1566,1543,1542
44191483,1000,1000,1000,1000,66528378,1566,1566,1543,1543
44193982,1000,1000,1000,1000,66628338,1565,1566,1544,1543
44196481,1000,1000,1000,1000,66728298,1566,1566,1545,1545
44198980,1000,1000,1000,1000,66828258,1566,1566,1546,1546
44201479,1000,1000,1000,1000,66928218,1567,1567,1548,1548
44203978,1000,1000,1000,1000,67028178,1567,1568,1548,1548
44206477,1000,1000,1000,1000,67128971,1568,1569,1549,1550
44208976,1000,1000,1000,1000,67228931,1569,1570,1550,1552
44211475,1000,1000,1000,1000,67328891,1570,1571,1552,1552
44213974,1000,1000,1000,1000,67428851,1571,1573,1553,1554
44216473,1000,1000,1000,1000,67528811,1572,1575,1555,1556
44218972,1000,1000,1000,1000,67628771,1573,1576,1555,1556
44221471,1000,1000,1000,1000,67728731,1574,1576,1555,1556
44223970,1000,1000,1000,1000,67828691,1577,1579,1557,1559
44226469,1000,1000,1000,1000,67928651,1579,1580,1557,1559
44228968,1000,1000,1000,1000,68028611,1580,1581,1557,1559
44231467,1000,1000,1000,1000,68128571,1580,1582,1557,1559
44233966,1000,1000,1000,1000,68228531,1582,1583,1557,1559
44236465,1000,1000,1000,1000,68328491,1583,1584,1558,1559
44238964,1000,1000,1000,1000,68428451,1585,1585,1560,1561
44241463,1000,1000,1000,1000,68528411,1587,1586,1562,1563
44243962,1000,1000,1000,1000,68628371,1588,1587,1563,1564
44246461,1000,1000,1000,1000,68728331,1589,1588,1565,1565
44248960,1000,1000,1000,1000,68828291,1590,1588,1566,1566
44251459,1000,1000,1000,1000,68928251,1590,1588,1567,1568
44253958,1000,1000,1000,1000,69028211,1591,1589,1569,1569
44256457,1000,1000,1000,1000,69128171,1590,1589,1570,1570
44258956,1000,1000,1000,1000,69228964,1590,1589,1571,1571
44261455,1000,1000,1000,1000,69328924,1590,1589,1572,1572
44263954,1000,1000,1000,1000,69428884,1589,1589,1572,1571
44266453,1000,1000,1000,1000,69528844,1589,1589,1572,1571
44268952,1000,1000,1000,1000,69628804,1589,1589,1572,1572
44271451,1000,1000,1000,1000,69728764,1590,1590,1573,1573
44273950,1000,1000,1000,1000,69828724,1589,1583,1579,1577
44276449,1000,1000,1000,1000,69928684,1572,1564,1599,1598
44278948,1000,1000,1000,1000,70028644,1555,1549,1613,1614
44281447,1000,1000,1000,1000,70128604,1542,1542,1617,1619
44283946,1000,1000,1000,1000,70228564,1537,1542,1618,1620
44286445,1000,1000,1000,1000,70328524,1536,1544,1617,1618
44288944,1000,1000,1000,1000,70428484,1538,1548,1613,1612
44291443,1000,1000,1000,1000,70528444,1543,1552,1609,1606
44293942,1000,1000,1000,1000,70628404,1551,1556,1604,1600
44296441,1000,1000,1000,1000,70728364,1559,1561,1598,1595
44298940,1000,1000,1000,1000,70828324,1566,1565,1591,1589
44301439,1000,1000,1000,1000,70928284,1572,1569,1584,1585
44303938,1000,1000,1000,1000,71028244,1578,1573,1580,1581
44306437,1000,1000,1000,1000,71128204,1581,1578,1576,1578
44308936,1000,1000,1000,1000,71228164,1583,1581,1573,1575
44311435,1000,1000,1000,1000,71328957,1585,1585,1573,1574
44313934,1000,1000,1000,1000,71428917,1587,1587,1573,1573
44316433,1000,1000,1000,1000,71528877,1588,1589,1573,1573
44318932,1000,1000,1000,1000,71628837,1589,1589,1573,1572
44321431,1000,1000,1000,1000,71728797,1589,1589,1573,1572
44323930,1000,1000,1000,1000,71828757,1591,1590,1575,1575
44326429,1000,1000,1000,1000,71928717,1589,1588,1573,1574
44328928,1000,1000,1000,1000,72028677,1589,1587,1574,1575
44331427,1000,1000,1000,1000,72128637,1588,1587,1575,1576
44333926,1000,1000,1000,1000,72228597,1586,1586,1575,1576
44336425,1000,1000,1000,1000,72328557,1585,1585,1576,1576
44338924,1000,1000,1000,1000,72428517,1584,1584,1577,1577
44341423,1000,1000,1000,1000,72528477,1583,1583,1578,1577
44343922,1000,1000,1000,1000,72628437,1583,1583,1579,1578
44346421,1000,1000,1000,1000,72728397,1582,1582,1580,1579
44348920,1000,1000,1000,1000,72828357,1581,1581,1579,1579
44351419,1000,1000,1000,1000,72928317,1580,1580,1579,1579
44353918,1000,1000,1000,1000,73028277,1580,1581,1581,1581
44356417,1000,1000,1000,1000,73128237,1580,1581,1581,1581
44358916,1000,1000,1000,1000,73228197,1581,1580,1589,1575
44361415,1000,1000,1000,1000,73328157,1582,1579,1586,1575
44363914,1000,1000,1000,1000,73428950,1580,1578,1577,1575
44366413,1000,1000,1000,1000,73528910,1577,1577,1569,1573
44368912,1000,1000,1000,1000,73628870,1575,1577,1563,1569
44371411,1000,1000,1000,1000,73728830,1573,1576,1559,1564
44373910,1000,1000,1000,1000,73828790,1572,1576,1559,1561
44376409,1000,1000,1000,1000,73928750,1572,1575,1558,1558
44378908,1000,1000,1000,1000,74028710,1572,1574,1558,1556
44381407,1000,1000,1000,1000,74128670,1573,1574,1558,1555
44383906,1000,1000,1000,1000,74228630,1574,1574,1557,1555
44386405,1000,1000,1000,1000,74328590,1574,1573,1555,1554
44388904,1000,1000,1000,1000,74428550,1574,1573,1553,1553
44391403,1000,1000,1000,1000,74528510,1573,1573,1551,1552
44393902,1000,1000,1000,1000,74628470,1574,1574,1550,1551
44396401,1000,1000,1000,1000,74728430,1574,1576,1548,1549
44398900,1000,1000,1000,1000,74828390,1575,1577,1547,1547
44401399,1000,1000,1000,1000,74928350,1576,1578,1544,1544
44403898,1000,1000,1000,1000,75028310,1578,1580,1544,1543
44406397,1000,1000,1000,1000,75128270,1581,1581,1542,1541
44408896,1000,1000,1000,1000,75228230,1584,1584,1541,1541
44411395,1000,1000,1000,1000,75328190,1587,1586,1541,1541
44413894,1000,1000,1000,1000,75428983,1587,1587,1538,1539
44416393,1000,1000,1000,1000,75528943,1589,1588,1539,1540
44418892,1000,1000,1000,1000,75628903,1589,1588,1539,1541
44421391,1000,1000,1000,1000,75728863,1588,1588,1541,1543
44423890,1000,1000,1000,1000,75828823,1587,1586,1544,1547
44426389,1000,1000,1000,1000,75928783,1584,1583,1548,1551
44428888,1000,1000,1000,1000,76028743,1580,1580,1552,1556
44431387,1000,1000,1000,1000,76128703,1576,1575,1558,1561
44433886,1000,1000,1000,1000,76228663,1571,1570,1564,1567
44436385,1000,1000,1000,1000,76328623,1566,1563,1572,1573
44438884,1000,1000,1000,1000,76428583,1560,1558,1579,1580
44441383,1000,1000,1000,1000,76528543,1554,1552,1587,1587
44443882,1000,1000,1000,1000,76628503,1548,1546,1594,1593
44446381,1000,1000,1000,1000,76728463,1541,1540,1599,1599
44448880,1000,1000,1000,1000,76828423,1536,1536,1605,1604
44451379,1000,1000,1000,1000,76928383,1534,1536,1608,1607
44453878,1000,1000,1000,1000,77028343,1533,1536,1606,1605
44456377,1000,1000,1000,1000,77128303,1538,1540,1604,1604
44458876,1000,1000,1000,1000,77228263,1543,1545,1599,1599
44461375,1000,1000,1000,1000,77328223,1550,1551,1594,1593
44463874,1000,1000,1000,1000,77428183,1557,1558,1587,1587
44466373,1000,1000,1000,1000,77528976,1565,1565,1581,1580
44468872,1000,1000,1000,1000,77628936,1573,1572,1576,1575
44471371,1000,1000,1000,1000,77728896,1579,1578,1573,1572
44473870,1000,1000,1000,1000,77828856,1583,1582,1570,1569
44476369,1000,1000,1000,1000,77928816,1586,1584,1568,1568
44478868,1000,1000,1000,1000,78028776,1587,1586,1568,1569
44481367,1000,1000,1000,1000,78128736,1588,1587,1570,1570
44483866,1000,1000,1000,1000,78228696,1588,1587,1572,1572
44486365,1000,1000,1000,1000,78328656,1586,1585,1572,1572
44488864,1000,1000,1000,1000,78428616,1585,1585,1574,1574
44491363,1000,1000,1000,1000,78528576,1583,1584,1575,1576
44493862,1000,1000,1000,1000,78628536,1582,1582,1577,1577
44496361,1000,1000,1000,1000,78728496,1580,1581,1578,1578
44498860,1000,1000,1000,1000,78828456,1579,1580,1579,1580
44501359,1000,1000,1000,1000,78928416,1578,1578,1581,1580
44503858,1000,1000,1000,1000,79028376,1577,1578,1582,1582
44506357,1000,1000,1000,1000,79128336,1577,1577,1582,1582
44508856,1000,1000,1000,1000,79228296,1577,1576,1583,1583
44511355,1000,1000,1000,1000,79328256,1576,1576,1582,1582
44513854,1000,1000,1000,1000,79428216,1576,1576,1581,1582
44516353,1000,1000,1000,1000,79528176,1576,1576,1581,1581
44518852,1000,1000,1000,1000,79628969,1577,1577,1581,1581
44521351,1000,1000,1000,1000,79728929,1577,1577,1580,1580
44523850,1000,1000,1000,1000,79828889,1577,1577,1579,1579
44526349,1000,1000,1000,1000,79928849,1578,1579,1579,1579
44528848,1000,1000,1000,1000,80028809,1580,1580,1579,1579
44531347,1000,1000,1000,1000,80128769,1581,1581,1580,1580
44533846,1000,1000,1000,1000,80228729,1581,1581,1579,1579
44536345,1000,1000,1000,1000,80328689,1583,1583,1580,1580
44538844,1000,1000,1000,1000,80428649,1582,1582,1579,1579
44541343,1000,1000,1000,1000,80528609,1583,1582,1580,1579
44543842,1000,1000,1000,1000,80628569,1582,1582,1579,1579
44546341,1000,1000,1000,1000,80728529,1582,1582,1579,1579
44548840,1000,1000,1000,1000,80828489,1581,1581,1579,1579
44551339,1000,1000,1000,1000,80928449,1581,1581,1579,1580
44553838,1000,1000,1000,1000,81028409,1581,1582,1580,1581
44556337,1000,1000,1000,1000,81128369,1580,1580,1580,1580
44558836,1000,1000,1000,1000,81228329,1580,1581,1581,1581
44561335,1000,1000,1000,1000,81328289,1580,1580,1581,1581
44563834,1000,1000,1000,1000,81428249,1580,1580,1581,1581
44566333,1000,1000,1000,1000,81528209,1580,1580,1583,1580
44568832,1000,1000,1000,1000,81628169,1581,1580,1589,1574
44571331,1000,1000,1000,1000,81728962,1579,1578,1584,1574
44573830,1000,1000,1000,1000,81828922,1576,1575,1575,1574
44576329,1000,1000,1000,1000,81928882,1573,1572,1568,1573
44578828,1000,1000,1000,1000,82028842,1570,1570,1564,1572
44581327,1000,1000,1000,1000,82128802,1569,1570,1565,1571
44583826,1000,1000,1000,1000,82228762,1567,1569,1565,1568
44586325,1000,1000,1000,1000,82328722,1566,1567,1566,1566
44588824,1000,1000,1000,1000,82428682,1565,1567,1567,1565
44591323,1000,1000,1000,1000,82528642,1566,1566,1568,1565
44593822,1000,1000,1000,1000,82628602,1565,1565,1567,1564
44596321,1000,1000,1000,1000,82728562,1565,1564,1566,1564
44598820,1000,1000,1000,1000,82828522,1564,1563,1565,1565
44601319,1000,1000,1000,1000,82928482,1563,1563,1563,1564
44603818,1000,1000,1000,1000,83028442,1563,1562,1563,1563
44606317,1000,1000,1000,1000,83128402,1561,1561,1561,1562
44608816,1000,1000,1000,1000,83228362,1560,1561,1561,1561
44611315,1000,1000,1000,1000,83328322,1560,1561,1561,1560
44613814,1000,1000,1000,1000,83428282,1561,1561,1561,1561
44616313,1000,1000,1000,1000,83528242,1560,1560,1561,1560
44618812,1000,1000,1000,1000,83628202,1560,1560,1560,1560
44621311,1000,1000,1000,1000,83728162,1560,1559,1560,1559
44623810,1000,1000,1000,1000,83828955,1559,1559,1559,1558
44626309,1000,1000,1000,1000,83928915,1559,1559,1559,1559
44628808,1000,1000,1000,1000,84028875,1559,1559,1560,1559
44631307,1000,1000,1000,1000,84128835,1559,1558,1559,1558
44633806,1000,1000,1000,1000,84228795,1559,1558,1560,1557
44636305,1000,1000,1000,1000,84328755,1559,1559,1561,1558
44638804,1000,1000,1000,1000,84428715,1559,1559,1560,1559
44641303,1000,1000,1000,1000,84528675,1559,1559,1557,1562
44643802,1000,1000,1000,1000,84628635,1559,1560,1556,1563
44646301,1000,1000,1000,1000,84728595,1560,1560,1557,1563
44648800,1000,1000,1000,1000,84828555,1560,1561,1559,1563
44651299,1000,1000,1000,1000,84928515,1559,1560,1559,1559
44653798,1000,1000,1000,1000,85028475,1558,1559,1559,1556
44656297,1000,1000,1000,1000,85128435,1559,1559,1558,1560
44658796,1000,1000,1000,1000,85228395,1556,1556,1553,1556
44661295,1000,1000,1000,1000,85328355,1553,1552,1548,1550
44663794,1000,1000,1000,1000,85428315,1547,1547,1543,1543
44666293,1000,1000,1000,1000,85528275,1542,1541,1537,1536
44668792,1000,1000,1000,1000,85628235,1535,1535,1530,1529
44671291,1000,1000,1000,1000,85728195,1528,1528,1522,1522
44673790,1000,1000,1000,1000,85828155,1523,1523,1518,1518
44676289,1000,1000,1000,1000,85928948,1520,1520,1518,1518
44678788,1000,1000,1000,1000,86028908,1519,1519,1520,1521
44681287,1000,1000,1000,1000,86128868,1520,1520,1524,1525
44683786,1000,1000,1000,1000,86228828,1521,1521,1527,1528
44686285,1000,1000,1000,1000,86328788,1524,1524,1533,1532
44688784,1000,1000,1000,1000,86428748,1529,1529,1539,1538
44691283,1000,1000,1000,1000,86528708,1533,1533,1543,1542
44693782,1000,1000,1000,1000,86628668,1536,1536,1545,1544
44696281,1000,1000,1000,1000,86728628,1539,1539,1545,1545
44698780,1000,1000,1000,1000,86828588,1542,1542,1545,1545
44701279,1000,1000,1000,1000,86928548,1544,1543,1544,1544
44703778,1000,1000,1000,1000,87028508,1546,1546,1544,1544
44706277,1000,1000,1000,1000,87128468,1547,1547,1544,1544
44708776,1000,1000,1000,1000,87228428,1548,1549,1544,1543
44711275,1000,1000,1000,1000,87328388,1550,1550,1544,1544
44713774,1000,1000,1000,1000,87428348,1549,1549,1543,1543
44716273,1000,1000,1000,1000,87528308,1549,1549,1544,1543
44718772,1000,1000,1000,1000,87628268,1549,1549,1544,1544
44721271,1000,1000,1000,1000,87728228,1548,1548,1545,1544
44723770,1000,1000,1000,1000,87828188,1547,1548,1545,1545
44726269,1000,1000,1000,1000,87928981,1546,1547,1545,1545
44728768,1000,1000,1000,1000,88028941,1546,1546,1546,1546
44731267,1000,1000,1000,1000,88128901,1545,1544,1545,1545
44733766,1000,1000,1000,1000,88228861,1544,1544,1546,1545
44736265,1000,1000,1000,1000,88328821,1544,1544,1546,1545
44738764,1000,1000,1000,1000,88428781,1543,1543,1546,1545
44741263,1000,1000,1000,1000,88528741,1543,1543,1546,1545
44743762,1000,1000,1000,1000,88628701,1543,1544,1545,1546
44746261,1000,1000,1000,1000,88728661,1544,1544,1545,1546
44748760,1000,1000,1000,1000,88828621,1543,1543,1545,1545
44751259,1000,1000,1000,1000,88928581,1544,1543,1545,1544
44753758,1000,1000,1000,1000,89028541,1544,1544,1544,1544
44756257,1000,1000,1000,1000,89128501,1544,1544,1544,1544
44758756,1000,1000,1000,1000,89228461,1544,1544,1543,1543
44761255,1000,1000,1000,1000,89328421,1545,1545,1544,1544
44763754,1000,1000,1000,1000,89428381,1545,1545,1544,1544
44766253,1000,1000,1000,1000,89528341,1545,1545,1544,1544
44768752,1000,1000,1000,1000,89628301,1544,1544,1543,1543
44771251,1000,1000,1000,1000,89728261,1545,1544,1544,1543
44773750,1000,1000,1000,1000,89828221,1544,1544,1543,1543
44776249,1000,1000,1000,1000,89928181,1544,1544,1543,1543
44778748,1000,1000,1000,1000,90028974,1544,1544,1544,1544
44781247,1000,1000,1000,1000,90128934,1544,1544,1544,1544
44783746,1000,1000,1000,1000,90228894,1544,1544,1545,1544
44786245,1000,1000,1000,1000,90328854,1544,1544,1544,1545
44788744,1000,1000,1000,1000,90428814,1544,1544,1545,1545
44791243,1000,1000,1000,1000,90528774,1544,1544,1544,1545
44793742,1000,1000,1000,1000,90628734,1543,1543,1544,1544
44796241,1000,1000,1000,1000,90728694,1544,1544,1544,1544
44798740,1000,1000,1000,1000,90828654,1544,1544,1545,1545
44801239,1000,1000,1000,1000,90928614,1544,1544,1544,1544
44803738,1000,1000,1000,1000,91028574,1544,1544,1544,1544
44806237,1000,1000,1000,1000,91128534,1544,1544,1544,1544
44808736,1000,1000,1000,1000,91228494,1544,1544,1544,1544
44811235,1000,1000,1000,1000,91328454,1543,1543,1543,1543
44813734,1000,1000,1000,1000,91428414,1543,1544,1543,1543
44816233,1000,1000,1000,1000,91528374,1544,1544,1543,1543
44818732,1000,1000,1000,1000,91628334,1544,1544,1544,1544
44821231,1000,1000,1000,1000,91728294,1544,1544,1544,1544
44823730,1000,1000,1000,1000,91828254,1544,1544,1544,1544
44826229,1000,1000,1000,1000,91928214,1544,1544,1543,1544
44828728,1000,1000,1000,1000,92028174,1545,1545,1545,1545
44831227,1000,1000,1000,1000,92128967,1544,1545,1544,1545
44833726,1000,1000,1000,1000,92228927,1544,1544,1544,1544
44836225,1000,1000,1000,1000,92328887,1544,1544,1545,1545
44838724,1000,1000,1000,1000,92428847,1544,1544,1544,1544
44841223,1000,1000,1000,1000,92528807,1544,1544,1544,1544
44843722,1000,1000,1000,1000,92628767,1544,1544,1544,1544
44846221,1000,1000,1000,1000,92728727,1545,1544,1544,1544
44848720,1000,1000,1000,1000,92828687,1544,1544,1544,1543
44851219,1000,1000,1000,1000,92928647,1545,1545,1545,1545
44853718,1000,1000,1000,1000,93028607,1544,1545,1545,1544
44856217,1000,1000,1000,1000,93128567,1545,1545,1545,1545
44858716,1000,1000,1000,1000,93228527,1544,1545,1544,1545
44861215,1000,1000,1000,1000,93328487,1544,1544,1544,1544
44863714,1000,1000,1000,1000,93428447,1545,1545,1545,1545
44866213,1000,1000,1000,1000,93528407,1545,1544,1544,1545
44868712,1000,1000,1000,1000,93628367,1544,1544,1544,1544
44871211,1000,1000,1000,1000,93728327,1544,1544,1544,1543
44873710,1000,1000,1000,1000,93828287,1544,1544,1544,1544
44876209,1000,1000,1000,1000,93928247,1545,1545,1545,1545
44878708,1000,1000,1000,1000,94028207,1544,1544,1544,1544
44881207,1000,1000,1000,1000,94128167,1544,1544,1544,1543
44883706,1000,1000,1000,1000,94228960,1544,1544,1544,1544
44886205,1000,1000,1000,1000,94328920,1544,1544,1543,1544
44888704,1000,1000,1000,1000,94428880,1544,1545,1544,1545
44891203,1000,1000,1000,1000,94528840,1545,1545,1545,1546
44893702,1000,1000,1000,1000,94628800,1545,1545,1545,1545
44896201,1000,1000,1000,1000,94728760,1545,1545,1545,1545
44898700,1000,1000,1000,1000,94828720,1544,1545,1545,1544
44901199,1000,1000,1000,1000,94928680,1545,1545,1545,1545
44903698,1000,1000,1000,1000,95028640,1545,1544,1544,1545
44906197,1000,1000,1000,1000,95128600,1545,1544,1544,1545
44908696,1000,1000,1000,1000,95228560,1545,1545,1545,1545
44911195,1000,1000,1000,1000,95328520,1545,1544,1544,1544
44913694,1000,1000,1000,1000,95428480,1545,1545,1545,1544
44916193,1000,1000,1000,1000,95528440,1442,1441,1392,1392
44918692,1000,1000,1000,1000,95628400,1368,1365,1267,1267
44921191,1000,1000,1000,1000,95728360,1344,1341,1223,1223
44923690,1000,1000,1000,1000,95828320,1334,1332,1205,1204
44926189,1000,1000,1000,1000,95928280,1315,1312,1164,1164
44928688,1000,1000,1000,1000,96028240,1266,1263,1150,1150
44931187,1000,1000,1000,1000,96128200,1171,1167,1150,1150
44933686,1000,1000,1000,1000,96228160,1066,1062,1150,1150
44936185,1000,1000,1000,1000,96328953,1011,1008,1150,1150
44938684,1000,1000,1000,1000,96428913,1011,1008,1150,1150
44941183,1000,1000,1000,1000,96528873,1011,1008,1150,1150
44943682,1000,1000,1000,1000,96628833,1010,995,1150,1169
44946181,1000,1000,1000,1000,96728793,1010,999,1150,1162
44948680,1000,1000,1000,1000,96828753,1010,1002,1150,1158
44951179,1000,1000,1000,1000,96928713,1010,1002,1150,1158
44953678,1000,1000,1000,1000,97028673,1010,1002,1150,1158
44956177,1000,1000,1000,1000,97128633,1010,1002,1150,1158
44958676,1000,1000,1000,1000,97228593,1010,1002,1150,1159
44961175,1000,1000,1000,1000,97328553,1010,1002,1150,1159
44963674,1000,1000,1000,1000,97428513,1010,1009,1150,1150
44966173,1000,1000,1000,1000,97528473,1010,1008,1150,1151
44968672,1000,1000,1000,1000,97628433,1010,1007,1150,1151
44971171,1000,1000,1000,1000,97728393,1010,1007,1150,1151
44973670,1000,1000,1000,1000,97828353,1010,1007,1150,1151
44976169,1000,1000,1000,1000,97928313,1000,1000,1000,1000
44978668,1000,1000,1000,1000,98028273,1000,1000,1000,1000
44981167,1000,1000,1000,1000,98128233,1000,1000,1000,1000
44983666,1000,1000,1000,1000,98228193,1000,1000,1000,1000
44986165,1000,1000,1000,1000,98328986,1000,1000,1000,1000
44988664,1000,1000,1000,1000,98428946,1000,1000,1000,1000
44991163,1000,1000,1000,1000,98528906,1000,1000,1000,1000
44993662,1000,1000,1000,1000,98628866,1000,1000,1000,1000
44996161,1000,1000,1000,1000,98728826,1000,1000,1000,1000
44998660,1000,1000,1000,1000,98828786,1000,1000,1000,1000
45001159,1000,1000,1000,1000,98928746,1000,1000,1000,1000
45003658,1000,1000,1000,1000,99028706,1000,1000,1000,1000
45006157,1000,1000,1000,1000,99128666,1000,1000,1000,1000
45008656,1000,1000,1000,1000,99228626,1000,1000,1000,1000
45011155,1000,1000,1000,1000,99328586,1000,1000,1000,1000
45013654,1000,1000,1000,1000,99428546,1000,1000,1000,1000
45016153,1000,1000,1000,1000,99528506,1000,1000,1000,1000
45018652,1000,1000,1000,1000,99628466,1000,1000,1000,1000
45021151,1000,1000,1000,1000,99728426,1000,1000,1000,1000
45023650,1000,1000,1000,1000,99828386,1000,1000,1000,1000
45026149,1000,1000,1000,1000,99928346,1000,1000,1000,1000
45028648,1000,1000,1000,1000,100028306,1000,1000,1000,1000
45031147,1000,1000,1000,1000,100128266,1000,1000,1000,1000
45033646,1000,1000,1000,1000,100228226,1000,1000,1000,1000
45036145,1000,1000,1000,1000,100328186,1000,1000,1000,1000
45038644,1000,1000,1000,1000,100428979,1000,1000,1000,1000
45041143,1000,1000,1000,1000,100528939,1000,1000,1000,1000
45043642,1000,1000,1000,1000,100628899,1000,1000,1000,1000
45046141,1000,1000,1000,1000,100728859,1000,1000,1000,1000
45048640,1000,1000,1000,1000,100828819,1000,1000,1000,1000
45051139,1000,1000,1000,1000,100928779,1000,1000,1000,1000
45053638,1000,1000,1000,1000,101028739,1000,1000,1000,1000
45056137,1000,1000,1000,1000,101128699,1000,1000,1000,1000
45058636,1000,1000,1000,1000,101228659,1000,1000,1000,1000
45061135,1000,1000,1000,1000,101328619,1000,1000,1000,1000
45063634,1000,1000,1000,1000,101428579,1000,1000,1000,1000
45066133,1000,1000,1000,1000,101528539,1000,1000,1000,1000
45068632,1000,1000,1000,1000,101628499,1000,1000,1000,1000
45071131,1000,1000,1000,1000,101728459,1000,1000,1000,1000
45073630,1000,1000,1000,1000,101828419,1000,1000,1000,1000
45076129,1000,1000,1000,1000,101928379,1000,1000,1000,1000
45078628,1000,1000,1000,1000,102028339,1000,1000,1000,1000
45081127,1000,1000,1000,1000,102128299,1000,1000,1000,1000
45083626,1000,1000,1000,1000,102228259,1000,1000,1000,1000
45086125,1000,1000,1000,1000,102328219,1000,1000,1000,1000
45088624,1000,1000,1000,1000,102428179,1000,1000,1000,1000
45091123,1000,1000,1000,1000,102528972,1000,1000,1000,1000
45093622,1000,1000,1000,1000,102628932,1000,1000,1000,1000
45096121,1000,1000,1000,1000,102728892,1000,1000,1000,1000
45098620,1000,1000,1000,1000,102828852,1000,1000,1000,1000
45101119,1000,1000,1000,1000,102928812,1000,1000,1000,1000
45103618,1000,1000,1000,1000,103028772,1000,1000,1000,1000
45106117,1000,1000,1000,1000,103128732,1000,1000,1000,1000
45108616,1000,1000,1000,1000,103228692,1000,1000,1000,1000
45111115,1000,1000,1000,1000,103328652,1000,1000,1000,1000
45113614,1000,1000,1000,1000,103428612,1000,1000,1000,1000
45116113,1000,1000,1000,1000,103528572,1000,1000,1000,1000
45118612,1000,1000,1000,1000,103628532,1000,1000,1000,1000
45121111,1000,1000,1000,1000,103728492,1000,1000,1000,1000
45123610,1000,1000,1000,1000,103828452,1000,1000,1000,1000
45126109,1000,1000,1000,1000,103928412,1000,1000,1000,1000
45128608,1000,1000,1000,1000,104028372,1000,1000,1000,1000
45131107,1000,1000,1000,1000,104128332,1000,1000,1000,1000
45133606,1000,1000,1000,1000,104228292,1000,1000,1000,1000
45136105,1000,1000,1000,1000,104328252,1000,1000,1000,1000
45138604,1000,1000,1000,1000,104428212,1000,1000,1000,1000
45141103,1000,1000,1000,1000,104528172,1000,1000,1000,1000
45143602,1000,1000,1000,1000,104628965,1000,1000,1000,1000
45146101,1000,1000,1000,1000,104728925,1000,1000,1000,1000
45148600,1000,1000,1000,1000,104828885,1000,1000,1000,1000
45151099,1000,1000,1000,1000,104928845,1000,1000,1000,1000
45153598,1000,1000,1000,1000,105028805,1000,1000,1000,1000
45156097,1000,1000,1000,1000,105128765,1000,1000,1000,1000
45158596,1000,1000,1000,1000,105228725,1000,1000,1000,1000
45161095,1000,1000,1000,1000,105328685,1000,1000,1000,1000
45163594,1000,1000,1000,1000,105428645,1000,1000,1000,1000
45166093,1000,1000,1000,1000,105528605,1000,1000,1000,1000
45168592,1000,1000,1000,1000,105628565,1000,1000,1000,1000
45171091,1000,1000,1000,1000,105728525,1000,1000,1000,1000
45173590,1000,1000,1000,1000,105828485,1000,1000,1000,1000
45176089,1000,1000,1000,1000,105928445,1000,1000,1000,1000
45178588,1000,1000,1000,1000,106028405,1000,1000,1000,1000
45181087,1000,1000,1000,1000,106128365,1000,1000,1000,1000
45183586,1000,1000,1000,1000,106228325,1000,1000,1000,1000
45186085,1000,1000,1000,1000,106328285,1000,1000,1000,1000
45188584,1000,1000,1000,1000,106428245,1000,1000,1000,1000
45191083,1000,1000,1000,1000,106528205,1000,1000,1000,1000
45193582,1000,1000,1000,1000,106628165,1000,1000,1000,1000
45196081,1000,1000,1000,1000,106728958,1000,1000,1000,1000
45198580,1000,1000,1000,1000,106828918,1000,1000,1000,1000
45201079,1000,1000,1000,1000,106928878,1000,1000,1000,1000
45203578,1000,1000,1000,1000,107028838,1000,1000,1000,1000
45206077,1000,1000,1000,1000,107128798,1000,1000,1000,1000
45208576,1000,1000,1000,1000,107228758,1000,1000,1000,1000
45211075,1000,1000,1000,1000,107328718,1000,1000,1000,1000
45213574,1000,1000,1000,1000,107428678,1000,1000,1000,1000
45216073,1000,1000,1000,1000,107528638,1000,1000,1000,1000
45218572,1000,1000,1000,1000,107628598,1000,1000,1000,1000
45221071,1000,1000,1000,1000,107728558,1000,1000,1000,1000
45223570,1000,1000,1000,1000,107828518,1000,1000,1000,1000
45226069,1000,1000,1000,1000,107928478,1000,1000,1000,1000
45228568,1000,1000,1000,1000,108028438,1000,1000,1000,1000
45231067,1000,1000,1000,1000,108128398,1000,1000,1000,1000
45233566,1000,1000,1000,1000,108228358,1000,1000,1000,1000
45236065,1000,1000,1000,1000,108328318,1000,1000,1000,1000
45238564,1000,1000,1000,1000,108428278,1000,1000,1000,1000
45241063,1000,1000,1000,1000,108528238,1000,1000,1000,1000
45243562,1000,1000,1000,1000,108628198,1000,1000,1000,1000
45246061,1000,1000,1000,1000,108728158,1000,1000,1000,1000
45248560,1000,1000,1000,1000,108828951,1000,1000,1000,1000
45251059,1000,1000,1000,1000,108928911,1000,1000,1000,1000
45253558,1000,1000,1000,1000,109028871,1000,1000,1000,1000
45256057,1000,1000,1000,1000,109128831,1000,1000,1000,1000
45258556,1000,1000,1000,1000,109228791,1000,1000,1000,1000
45261055,1000,1000,1000,1000,109328751,1000,1000,1000,1000
45263554,1000,1000,1000,1000,109428711,1000,1000,1000,1000
45266053,1000,1000,1000,1000,109528671,1000,1000,1000,1000
45268552,1000,1000,1000,1000,109628631,1000,1000,1000,1000
45271051,1000,1000,1000,1000,109728591,1000,1000,1000,1000
45273550,1000,1000,1000,1000,109828551,1000,1000,1000,1000
45276049,1000,1000,1000,1000,109928511,1000,1000,1000,1000
45278548,1000,1000,1000,1000,110028471,1000,1000,1000,1000
45281047,1000,1000,1000,1000,110128431,1000,1000,1000,1000
45283546,1000,1000,1000,1000,110228391,1000,1000,1000,1000
45286045,1000,1000,1000,1000,110328351,1000,1000,1000,1000
45288544,1000,1000,1000,1000,110428311,1000,1000,1000,1000
45291043,1000,1000,1000,1000,110528271,1000,1000,1000,1000
45293542,1000,1000,1000,1000,110628231,1000,1000,1000,1000
45296041,1000,1000,1000,1000,110728191,1000,1000,1000,1000
45298540,1000,1000,1000,1000,110828984,1000,1000,1000,1000
45301039,1000,1000,1000,1000,110928944,1000,1000,1000,1000
45303538,1000,1000,1000,1000,111028904,1000,1000,1000,1000
45306037,1000,1000,1000,1000,111128864,1000,1000,1000,1000
45308536,1000,1000,1000,1000,111228824,1000,1000,1000,1000
45311035,1000,1000,1000,1000,111328784,1000,1000,1000,1000
45313534,1000,1000,1000,1000,111428744,1000,1000,1000,1000
45316033,1000,1000,1000,1000,111528704,1000,1000,1000,1000
45318532,1000,1000,1000,1000,111628664,1000,1000,1000,1000
45321031,1000,1000,1000,1000,111728624,1000,1000,1000,1000
45323530,1000,1000,1000,1000,111828584,1000,1000,1000,1000
45326029,1000,1000,1000,1000,111928544,1000,1000,1000,1000
45328528,1000,1000,1000,1000,112028504,1000,1000,1000,1000
45331027,1000,1000,1000,1000,112128464,1000,1000,1000,1000
45333526,1000,1000,1000,1000,112228424,1000,1000,1000,1000
45336025,1000,1000,1000,1000,112328384,1000,1000,1000,1000
45338524,1000,1000,1000,1000,112428344,1000,1000,1000,1000
45341023,1000,1000,1000,1000,112528304,1000,1000,1000,1000
45343522,1000,1000,1000,1000,112628264,1000,1000,1000,1000
45346021,1000,1000,1000,1000,112728224,1000,1000,1000,1000
45348520,1000,1000,1000,1000,112828184,1000,1000,1000,1000
45351019,1000,1000,1000,1000,,,,,
45353518,1000,1000,1000,1000,,,,,
45356017,1000,1000,1000,1000,,,,,
45358516,1000,1000,1000,1000,,,,,
45361015,1000,1000,1000,1000,,,,,
45363514,1000,1000,1000,1000,,,,,
45366013,1000,1000,1000,1000,,,,,
45368512,1000,1000,1000,1000,,,,,
45371011,1000,1000,1000,1000,,,,,
45373510,1000,1000,1000,1000,,,,,
45376009,1000,1000,1000,1000,,,,,
45378508,1000,1000,1000,1000,,,,,
45381007,1000,1000,1000,1000,,,,,
45383506,1000,1000,1000,1000,,,,,
45386005,1000,1000,1000,1000,,,,,
45388504,1000,1000,1000,1000,,,,,
45391003,1000,1000,1000,1000,,,,,
45393502,1000,1000,1000,1000,,,,,
45396001,1000,1000,1000,1000,,,,,
45398500,1000,1000,1000,1000,,,,,
45400999,1000,1000,1000,1000,,,,,
45403498,1000,1000,1000,1000,,,,,
45405997,1000,1000,1000,1000,,,,,
45408496,1000,1000,1000,1000,,,,,
45410995,1000,1000,1000,1000,,,,,
45413494,1000,1000,1000,1000,,,,,
45415993,1000,1000,1000,1000,,,,,
45418492,1000,1000,1000,1000,,,,,
45420991,1000,1000,1000,1000,,,,,
45423490,1000,1000,1000,1000,,,,,
45425989,1000,1000,1000,1000,,,,,
45428488,1000,1000,1000,1000,,,,,
45430987,1000,1000,1000,1000,,,,,
45433486,1000,1000,1000,1000,,,,,
45435985,1000,1000,1000,1000,,,,,
45438484,1000,1000,1000,1000,,,,,
45440983,1000,1000,1000,1000,,,,,
45443482,1000,1000,1000,1000,,,,,
45445981,1000,1000,1000,1000,,,,,
45448480,1000,1000,1000,1000,,,,,
45450979,1000,1000,1000,1000,,,,,
45453478,1000,1000,1000,1000,,,,,
45455977,1000,1000,1000,1000,,,,,
45458476,1000,1000,1000,1000,,,,,
45460975,1000,1000,1000,1000,,,,,
45463474,1000,1000,1000,1000,,,,,
45465973,1000,1000,1000,1000,,,,,
45468472,1000,1000,1000,1000,,,,,
45470971,1000,1000,1000,1000,,,,,
45473470,1000,1000,1000,1000,,,,,
45475969,1000,1000,1000,1000,,,,,
45478468,1000,1000,1000,1000,,,,,
45480967,1000,1000,1000,1000,,,,,
45483466,1000,1000,1000,1000,,,,,
45485965,1000,1000,1000,1000,,,,,
45488464,1000,1000,1000,1000,,,,,
45490963,1000,1000,1000,1000,,,,,
45493462,1000,1000,1000,1000,,,,,
45495961,1000,1000,1000,1000,,,,,
45498460,1000,1000,1000,1000,,,,,
45500959,1000,1000,1000,1000,,,,,
45503458,1000,1000,1000,1000,,,,,
45505957,1000,1000,1000,1000,,,,,
45508456,1000,1000,1000,1000,,,,,
45510955,1000,1000,1000,1000,,,,,
45513454,1000,1000,1000,1000,,,,,
45515953,1000,1000,1000,1000,,,,,
45518452,1000,1000,1000,1000,,,,,
45520951,1000,1000,1000,1000,,,,,
45523450,1000,1000,1000,1000,,,,,
45525949,1000,1000,1000,1000,,,,,
45528448,1000,1000,1000,1000,,,,,
45530947,1000,1000,1000,1000,,,,,
45533446,1000,1000,1000,1000,,,,,
45535945,1000,1000,1000,1000,,,,,
45538444,1000,1000,1000,1000,,,,,
45540943,1000,1000,1000,1000,,,,,
45543442,1000,1000,1000,1000,,,,,
45545941,1000,1000,1000,1000,,,,,
45548440,1000,1000,1000,1000,,,,,
45550939,1000,1000,1000,1000,,,,,
45553438,1000,1000,1000,1000,,,,,
45555937,1000,1000,1000,1000,,,,,
45558436,1000,1000,1000,1000,,,,,
45560935,1000,1000,1000,1000,,,,,
45563434,1000,1000,1000,1000,,,,,
45565933,1000,1000,1000,1000,,,,,
45568432,1000,1000,1000,1000,,,,,
45570931,1000,1000,1000,1000,,,,,
45573430,1000,1000,1000,1000,,,,,
45575929,1000,1000,1000,1000,,,,,
45578428,1000,1000,1000,1000,,,,,
45580927,1000,1000,1000,1000,,,,,
45583426,1000,1000,1000,1000,,,,,
45585925,1000,1000,1000,1000,,,,,
45588424,1000,1000,1000,1000,,,,,
45590923,1000,1000,1000,1000,,,,,
45593422,1000,1000,1000,1000,,,,,
45595921,1000,1000,1000,1000,,,,,
45598420,1000,1000,1000,1000,,,,,
45600919,1000,1000,1000,1000,,,,,
45603418,1000,1000,1000,1000,,,,,
45605917,1000,1000,1000,1000,,,,,
45608416,1000,1000,1000,1000,,,,,
45610915,1000,1000,1000,1000,,,,,
45613414,1000,1000,1000,1000,,,,,
45615913,1000,1000,1000,1000,,,,,
45618412,1000,1000,1000,1000,,,,,
45620911,1000,1000,1000,1000,,,,,
45623410,1000,1000,1000,1000,,,,,
45625909,1001,1001,1001,1001,,,,,
45628408,1002,1002,1002,1002,,,,,
45630907,1003,1003,1003,1003,,,,,
45633406,1003,1003,1003,1003,,,,,
45635905,1004,1004,1004,1004,,,,,
45638404,1005,1005,1005,1005,,,,,
45640903,1006,1006,1006,1006,,,,,
45643402,1006,1006,1006,1006,,,,,
45645901,1007,1007,1007,1007,,,,,
45648400,1008,1008,1008,1008,,,,,
45650899,1009,1009,1009,1009,,,,,
45653398,1009,1009,1009,1009,,,,,
45655897,1010,1010,1010,1010,,,,,
45658396,1011,1011,1011,1011,,,,,
45660895,1012,1012,1012,1012,,,,,
45663394,1012,1012,1012,1012,,,,,
45665893,1013,1013,1013,1013,,,,,
45668392,1014,1014,1014,1014,,,,,
45670891,1015,1015,1015,1015,,,,,
45673390,1015,1015,1015,1015,,,,,
45675889,1016,1016,1016,1016,,,,,
45678388,1017,1017,1017,1017,,,,,
45680887,1018,1018,1018,1018,,,,,
45683386,1018,1018,1018,1018,,,,,
45685885,1019,1019,1019,1019,,,,,
45688384,1020,1020,1020,1020,,,,,
45690883,1021,1021,1021,1021,,,,,
45693382,1021,1021,1021,1021,,,,,
45695881,1022,1022,1022,1022,,,,,
45698380,1023,1023,1023,1023,,,,,
45700879,1024,1024,1024,1024,,,,,
45703378,1024,1024,1024,1024,,,,,
45705877,1025,1025,1025,1025,,,,,
45708376,1026,1026,1026,1026,,,,,
45710875,1027,1027,1027,1027,,,,,
45713374,1027,1027,1027,1027,,,,,
45715873,1028,1028,1028,1028,,,,,
45718372,1029,1029,1029,1029,,,,,
45720871,1030,1030,1030,1030,,,,,
45723370,1030,1030,1030,1030,,,,,
45725869,1031,1031,1031,1031,,,,,
45728368,1032,1032,1032,1032,,,,,
45730867,1033,1033,1033,1033,,,,,
45733366,1033,1033,1033,1033,,,,,
45735865,1034,1034,1034,1034,,,,,
45738364,1035,1035,1035,1035,,,,,
45740863,1036,1036,1036,1036,,,,,
45743362,1036,1036,1036,1036,,,,,
45745861,1037,1037,1037,1037,,,,,
45748360,1038,1038,1038,1038,,,,,
45750859,1039,1039,1039,1039,,,,,
45753358,1039,1039,1039,1039,,,,,
45755857,1040,1040,1040,1040,,,,,
45758356,1041,1041,1041,1041,,,,,
45760855,1042,1042,1042,1042,,,,,
45763354,1042,1042,1042,1042,,,,,
45765853,1043,1043,1043,1043,,,,,
45768352,1044,1044,1044,1044,,,,,
45770851,1045,1045,1045,1045,,,,,
45773350,1045,1045,1045,1045,,,,,
45775849,1046,1046,1046,1046,,,,,
45778348,1047,1047,1047,1047,,,,,
45780847,1048,1048,1048,1048,,,,,
45783346,1048,1048,1048,1048,,,,,
45785845,1049,1049,1049,1049,,,,,
45788344,1050,1050,1050,1050,,,,,
45790843,1051,1051,1051,1051,,,,,
45793342,1051,1051,1051,1051,,,,,
45795841,1052,1052,1052,1052,,,,,
45798340,1053,1053,1053,1053,,,,,
45800839,1054,1054,1054,1054,,,,,
45803338,1054,1054,1054,1054,,,,,
45805837,1055,1055,1055,1055,,,,,
45808336,1056,1056,1056,1056,,,,,
45810835,1057,1057,1057,1057,,,,,
45813334,1057,1057,1057,1057,,,,,
45815833,1058,1058,1058,1058,,,,,
45818332,1059,1059,1059,1059,,,,,
45820831,1060,1060,1060,1060,,,,,
45823330,1060,1060,1060,1060,,,,,
45825829,1061,1061,1061,1061,,,,,
45828328,1062,1062,1062,1062,,,,,
45830827,1063,1063,1063,1063,,,,,
45833326,1063,1063,1063,1063,,,,,
45835825,1064,1064,1064,1064,,,,,
45838324,1065,1065,1065,1065,,,,,
45840823,1066,1066,1066,1066,,,,,
45843322,1066,1066,1066,1066,,,,,
45845821,1067,1067,1067,1067,,,,,
45848320,1068,1068,1068,1068,,,,,
45850819,1069,1069,1069,1069,,,,,
45853318,1069,1069,1069,1069,,,,,
45855817,1070,1070,1070,1070,,,,,
45858316,1071,1071,1071,1071,,,,,
45860815,1072,1072,1072,1072,,,,,
45863314,1072,1072,1072,1072,,,,,
45865813,1073,1073,1073,1073,,,,,
45868312,1074,1074,1074,1074,,,,,
45870811,1075,1075,1075,1075,,,,,
45873310,1075,1075,1075,1075,,,,,
45875809,1076,1076,1076,1076,,,,,
45878308,1077,1077,1077,1077,,,,,
45880807,1078,1078,1078,1078,,,,,
45883306,1078,1078,1078,1078,,,,,
45885805,1079,1079,1079,1079,,,,,
45888304,1080,1080,1080,1080,,,,,
45890803,1081,1081,1081,1081,,,,,
45893302,1081,1081,1081,1081,,,,,
45895801,1082,1082,1082,1082,,,,,
45898300,1083,1083,1083,1083,,,,,
45900799,1084,1084,1084,1084,,,,,
45903298,1084,1084,1084,1084,,,,,
45905797,1085,1085,1085,1085,,,,,
45908296,1086,1086,1086,1086,,,,,
45910795,1087,1087,1087,1087,,,,,
45913294,1087,1087,1087,1087,,,,,
45915793,1088,1088,1088,1088,,,,,
45918292,1089,1089,1089,1089,,,,,
45920791,1090,1090,1090,1090,,,,,
45923290,1090,1090,1090,1090,,,,,
45925789,1091,1091,1091,1091,,,,,
45928288,1092,1092,1092,1092,,,,,
45930787,1093,1093,1093,1093,,,,,
45933286,1093,1093,1093,1093,,,,,
45935785,1094,1094,1094,1094,,,,,
45938284,1095,1095,1095,1095,,,,,
45940783,1096,1096,1096,1096,,,,,
45943282,1096,1096,1096,1096,,,,,
45945781,1097,1097,1097,1097,,,,,
45948280,1098,1098,1098,1098,,,,,
45950779,1099,1099,1099,1099,,,,,
45953278,1099,1099,1099,1099,,,,,
45955777,1100,1100,1100,1100,,,,,
45958276,1101,1101,1101,1101,,,,,
45960775,1101,1101,1101,1101,,,,,
45963274,1102,1102,1102,1102,,,,,
45965773,1103,1103,1103,1103,,,,,
45968272,1104,1104,1104,1104,,,,,
45970771,1104,1104,1104,1104,,,,,
45973270,1105,1105,1105,1105,,,,,
45975769,1106,1106,1106,1106,,,,,
45978268,1107,1107,1107,1107,,,,,
45980767,1107,1107,1107,1107,,,,,
45983266,1108,1108,1108,1108,,,,,
45985765,1109,1109,1109,1109,,,,,
45988264,1110,1110,1110,1110,,,,,
45990763,1110,1110,1110,1110,,,,,
45993262,1111,1111,1111,1111,,,,,
45995761,1112,1112,1112,1112,,,,,
45998260,1113,1113,1113,1113,,,,,
46000759,1113,1113,1113,1113,,,,,
46003258,1114,1114,1114,1114,,,,,
46005757,1115,1115,1115,1115,,,,,
46008256,1116,1116,1116,1116,,,,,
46010755,1116,1116,1116,1116,,,,,
46013254,1117,1117,1117,1117,,,,,
46015753,1118,1118,1118,1118,,,,,
46018252,1119,1119,1119,1119,,,,,
46020751,1119,1119,1119,1119,,,,,
46023250,1120,1120,1120,1120,,,,,
46025749,1121,1121,1121,1121,,,,,
46028248,1122,1122,1122,1122,,,,,
46030747,1122,1122,1122,1122,,,,,
46033246,1123,1123,1123,1123,,,,,
46035745,1124,1124,1124,1124,,,,,
46038244,1125,1125,1125,1125,,,,,
46040743,1125,1125,1125,1125,,,,,
46043242,1126,1126,1126,1126,,,,,
46045741,1127,1127,1127,1127,,,,,
46048240,1128,1128,1128,1128,,,,,
46050739,1128,1128,1128,1128,,,,,
46053238,1129,1129,1129,1129,,,,,
46055737,1130,1130,1130,1130,,,,,
46058236,1131,1131,1131,1131,,,,,
46060735,1131,1131,1131,1131,,,,,
46063234,1132,1132,1132,1132,,,,,
46065733,1133,1133,1133,1133,,,,,
46068232,1134,1134,1134,1134,,,,,
46070731,1134,1134,1134,1134,,,,,
46073230,1135,1135,1135,1135,,,,,
46075729,1136,1136,1136,1136,,,,,
46078228,1137,1137,1137,1137,,,,,
46080727,1137,1137,1137,1137,,,,,
46083226,1138,1138,1138,1138,,,,,
46085725,1139,1139,1139,1139,,,,,
46088224,1140,1140,1140,1140,,,,,
46090723,1140,1140,1140,1140,,,,,
46093222,1141,1141,1141,1141,,,,,
46095721,1142,1142,1142,1142,,,,,
46098220,1143,1143,1143,1143,,,,,
46100719,1143,1143,1143,1143,,,,,
46103218,1144,1144,1144,1144,,,,,
46105717,1145,1145,1145,1145,,,,,
46108216,1146,1146,1146,1146,,,,,
46110715,1146,1146,1146,1146,,,,,
46113214,1147,1147,1147,1147,,,,,
46115713,1148,1148,1148,1148,,,,,
46118212,1149,1149,1149,1149,,,,,
46120711,1149,1149,1149,1149,,,,,
46123210,1150,1150,1150,1150,,,,,
46125709,1161,1154,1155,1161,,,,,
46128208,1169,1162,1163,1169,,,,,
46130707,1177,1170,1171,1177,,,,,
46133206,1184,1178,1178,1185,,,,,
46135705,1192,1186,1186,1192,,,,,
46138204,1199,1193,1194,1200,,,,,
46140703,1207,1201,1201,1207,,,,,
46143202,1214,1208,1208,1214,,,,,
46145701,1221,1215,1216,1221,,,,,
46148200,1228,1222,1223,1228,,,,,
46150699,1235,1229,1230,1235,,,,,
46153198,1242,1236,1236,1242,,,,,
46155697,1248,1243,1243,1249,,,,,
46158196,1255,1249,1250,1255,,,,,
46160695,1262,1256,1256,1262,,,,,
46163194,1268,1263,1263,1268,,,,,
46165693,1274,1269,1269,1275,,,,,
46168192,1281,1275,1276,1281,,,,,
46170691,1287,1282,1282,1287,,,,,
46173190,1293,1288,1288,1293,,,,,
46175689,1299,1294,1294,1299,,,,,
46178188,1305,1300,1300,1305,,,,,
46180687,1311,1306,1306,1311,,,,,
46183186,1317,1312,1312,1317,,,,,
46185685,1323,1318,1318,1323,,,,,
46188184,1329,1324,1324,1329,,,,,
46190683,1334,1329,1330,1335,,,,,
46193182,1340,1335,1335,1340,,,,,
46195681,1345,1341,1341,1346,,,,,
46198180,1351,1346,1347,1351,,,,,
46200679,1357,1352,1352,1357,,,,,
46203178,1362,1357,1358,1362,,,,,
46205677,1367,1363,1363,1368,,,,,
46208176,1373,1368,1368,1373,,,,,
46210675,1378,1373,1374,1378,,,,,
46213174,1383,1379,1379,1384,,,,,
46215673,1388,1384,1384,1389,,,,,
46218172,1394,1389,1389,1394,,,,,
46220671,1399,1394,1395,1399,,,,,
46223170,1404,1399,1400,1404,,,,,
46225669,1409,1405,1405,1409,,,,,
46228168,1414,1410,1410,1414,,,,,
46230667,1419,1415,1415,1419,,,,,
46233166,1424,1420,1420,1424,,,,,
46235665,1429,1424,1425,1429,,,,,
46238164,1434,1429,1430,1434,,,,,
46240663,1439,1434,1434,1439,,,,,
46243162,1443,1439,1439,1444,,,,,
46245661,1448,1444,1444,1448,,,,,
46248160,1453,1449,1449,1453,,,,,
46250659,1458,1453,1454,1458,,,,,
46253158,1462,1458,1458,1463,,,,,
46255657,1467,1463,1463,1467,,,,,
46258156,1471,1467,1468,1472,,,,,
46260655,1476,1472,1472,1476,,,,,
46263154,1481,1477,1477,1481,,,,,
46266486,1485,1481,1481,1486,,,,,
46268985,1490,1486,1486,1490,,,,,
46271484,1494,1490,1490,1495,,,,,
46273983,1499,1495,1495,1499,,,,,
46276482,1503,1499,1499,1504,,,,,
46278981,1507,1503,1503,1508,,,,,
46281480,1512,1508,1508,1512,,,,,
46283979,1516,1512,1512,1517,,,,,
46286478,1520,1516,1517,1521,,,,,
46288977,1525,1521,1521,1525,,,,,
46291476,1529,1525,1525,1530,,,,,
46293975,1533,1529,1529,1534,,,,,
46296474,1538,1534,1534,1538,,,,,
46298973,1542,1538,1538,1542,,,,,
46301472,1546,1542,1542,1546,,,,,
46303971,1550,1546,1546,1551,,,,,
46306470,1554,1550,1550,1555,,,,,
46308969,1558,1554,1554,1559,,,,,
46311468,1562,1559,1559,1563,,,,,
46313967,1567,1563,1563,1567,,,,,
46316466,1571,1567,1567,1571,,,,,
46318965,1575,1571,1571,1575,,,,,
46321464,1579,1575,1575,1579,,,,,
46323963,1583,1579,1579,1583,,,,,
46326462,1587,1583,1583,1587,,,,,
46328961,1591,1587,1587,1591,,,,,
46331460,1595,1591,1591,1595,,,,,
46333959,1598,1595,1595,1599,,,,,
46336458,1602,1599,1598,1603,,,,,
46338957,1606,1602,1602,1607,,,,,
46341456,1610,1606,1606,1611,,,,,
46343955,1614,1610,1610,1615,,,,,
46346454,1618,1614,1614,1618,,,,,
46348953,1622,1618,1618,1622,,,,,
46351452,1625,1622,1622,1626,,,,,
46353951,1629,1625,1625,1630,,,,,
46356450,1633,1629,1629,1634,,,,,
46358949,1637,1633,1633,1637,,,,,
46361448,1640,1637,1637,1641,,,,,
46363947,1644,1641,1640,1645,,,,,
46366446,1648,1644,1644,1648,,,,,
46368945,1651,1648,1648,1652,,,,,
46371444,1655,1652,1651,1656,,,,,
46373943,1659,1655,1655,1659,,,,,
46376442,1662,1659,1659,1663,,,,,
46378941,1666,1663,1662,1667,,,,,
46381440,1670,1666,1666,1670,,,,,
46383939,1673,1670,1670,1674,,,,,
46386438,1677,1673,1673,1677,,,,,
46388937,1680,1677,1677,1681,,,,,
46391436,1684,1681,1681,1685,,,,,
46393935,1687,1684,1684,1688,,,,,
46396434,1691,1688,1688,1692,,,,,
46398933,1695,1691,1691,1695,,,,,
46401432,1698,1695,1695,1699,,,,,
46403931,1702,1698,1698,1702,,,,,
46406430,1705,1702,1702,1706,,,,,
46408929,1708,1705,1705,1709,,,,,
46411428,1712,1709,1709,1712,,,,,
46413927,1715,1712,1712,1716,,,,,
46416426,1719,1716,1716,1719,,,,,
46418925,1722,1719,1719,1723,,,,,
46421424,1726,1722,1722,1726,,,,,
46423923,1729,1726,1726,1730,,,,,
46426422,1732,1729,1729,1733,,,,,
46428921,1736,1733,1733,1736,,,,,
46431420,1739,1736,1736,1740,,,,,
46433919,1743,1739,1739,1743,,,,,
46436418,1746,1743,1743,1746,,,,,
46438917,1749,1746,1746,1750,,,,,
46441416,1753,1749,1749,1753,,,,,
46443915,1756,1753,1753,1756,,,,,
46446414,1759,1756,1756,1760,,,,,
46448913,1762,1759,1759,1763,,,,,
46451412,1766,1763,1763,1766,,,,,
46453911,1769,1766,1766,1769,,,,,
46456410,1772,1769,1769,1773,,,,,
46458909,1775,1772,1772,1776,,,,,
46461408,1779,1776,1776,1779,,,,,
46463907,1782,1779,1779,1782,,,,,
46466406,1785,1782,1782,1786,,,,,
46468905,1788,1785,1785,1789,,,,,
46471404,1792,1788,1788,1792,,,,,
46473903,1795,1792,1792,1795,,,,,
46476402,1798,1795,1795,1798,,,,,
46478901,1801,1798,1798,1802,,,,,
46481400,1804,1801,1801,1805,,,,,
46483899,1807,1804,1804,1808,,,,,
46486398,1811,1807,1807,1811,,,,,
46488897,1814,1810,1810,1814,,,,,
46491396,1817,1814,1814,1817,,,,,
46493895,1820,1817,1817,1820,,,,,
46496394,1823,1820,1820,1823,,,,,
46498893,1826,1823,1823,1827,,,,,
46501392,1829,1826,1826,1830,,,,,
46503891,1832,1829,1829,1833,,,,,
46506390,1835,1832,1832,1836,,,,,
46508889,1838,1835,1835,1839,,,,,
46511388,1842,1838,1838,1842,,,,,
46513887,1845,1841,1841,1845,,,,,
46516386,1848,1844,1844,1848,,,,,
46518885,1851,1847,1847,1851,,,,,
46521384,1854,1850,1850,1854,,,,,
46523883,1857,1853,1853,1857,,,,,
46526382,1860,1856,1856,1860,,,,,
46528881,1863,1859,1859,1863,,,,,
46531380,1866,1862,1862,1866,,,,,
46533879,1869,1865,1865,1869,,,,,
46536378,1872,1868,1868,1872,,,,,
46538877,1875,1871,1871,1875,,,,,
46541376,1878,1874,1874,1878,,,,,
46543875,1881,1877,1877,1881,,,,,
46546374,1883,1880,1880,1884,,,,,
46548873,1886,1883,1883,1887,,,,,
46551372,1889,1886,1886,1890,,,,,
46553871,1892,1889,1889,1893,,,,,
46556370,1895,1891,1892,1895,,,,,
46558869,1898,1894,1894,1898,,,,,
46561368,1901,1897,1897,1901,,,,,
46563867,1904,1900,1900,1904,,,,,
46566366,1907,1903,1903,1907,,,,,
46568865,1909,1906,1906,1910,,,,,
46571364,1909,1905,1905,1909,,,,,
46573863,1908,1904,1904,1908,,,,,
46576362,1907,1903,1903,1907,,,,,
46578861,1906,1903,1903,1907,,,,,
46581360,1905,1902,1902,1906,,,,,
46583859,1905,1901,1901,1905,,,,,
46586358,1904,1900,1900,1904,,,,,
46588857,1903,1900,1900,1904,,,,,
46591356,1903,1899,1899,1903,,,,,
46593855,1902,1899,1898,1903,,,,,
46596354,1901,1898,1898,1902,,,,,
46598853,1901,1898,1898,1902,,,,,
46601352,1901,1898,1897,1902,,,,,
46603851,1900,1897,1897,1901,,,,,
46606350,1900,1897,1897,1901,,,,,
46608849,1900,1897,1897,1901,,,,,
46611348,1900,1897,1897,1901,,,,,
46613847,1900,1897,1897,1901,,,,,
46616346,1900,1897,1897,1901,,,,,
46618845,1900,1897,1897,1901,,,,,
46621344,1900,1898,1897,1901,,,,,
46623843,1900,1898,1897,1901,,,,,
46626342,1900,1898,1897,1901,,,,,
46628841,1900,1898,1897,1901,,,,,
46631340,1900,1897,1897,1901,,,,,
46633839,1900,1897,1897,1900,,,,,
46636338,1899,1897,1897,1900,,,,,
46638837,1898,1896,1896,1899,,,,,
46641336,1898,1895,1895,1898,,,,,
46643835,1897,1895,1894,1897,,,,,
46646334,1896,1893,1893,1896,,,,,
46648833,1894,1892,1892,1895,,,,,
46651332,1893,1891,1891,1893,,,,,
46653831,1891,1889,1889,1892,,,,,
46656330,1890,1888,1888,1890,,,,,
46658829,1888,1886,1886,1888,,,,,
46661328,1886,1884,1884,1886,,,,,
46663827,1884,1882,1882,1884,,,,,
46666326,1882,1880,1880,1882,,,,,
46668825,1879,1878,1878,1880,,,,,
46671324,1877,1875,1875,1877,,,,,
46673823,1874,1873,1873,1875,,,,,
46676322,1872,1870,1870,1872,,,,,
46678821,1869,1868,1868,1870,,,,,
46681320,1866,1865,1865,1867,,,,,
46683819,1863,1862,1862,1864,,,,,
46686318,1861,1859,1859,1861,,,,,
46688817,1858,1856,1856,1858,,,,,
46691316,1854,1853,1853,1855,,,,,
46693815,1851,1850,1850,1852,,,,,
46696314,1848,1847,1847,1849,,,,,
46698813,1845,1844,1844,1846,,,,,
46701312,1842,1841,1840,1842,,,,,
46703811,1838,1837,1837,1839,,,,,
46706310,1835,1834,1834,1836,,,,,
46708809,1832,1831,1831,1832,,,,,
46711308,1829,1828,1827,1829,,,,,
46713807,1825,1824,1824,1826,,,,,
46716306,1822,1821,1821,1822,,,,,
46718805,1819,1818,1818,1819,,,,,
46721304,1815,1814,1814,1816,,,,,
46723803,1812,1811,1811,1812,,,,,
46726302,1809,1808,1808,1809,,,,,
46728801,1805,1805,1805,1806,,,,,
46731300,1802,1801,1801,1802,,,,,
46733799,1799,1798,1798,1799,,,,,
46736298,1795,1795,1795,1796,,,,,
46738797,1792,1791,1792,1793,,,,,
46741296,1789,1788,1788,1789,,,,,
46743795,1786,1785,1785,1786,,,,,
46746294,1782,1782,1782,1783,,,,,
46748793,1779,1778,1778,1779,,,,,
46751292,1776,1775,1775,1776,,,,,
46753791,1772,1772,1772,1773,,,,,
46756290,1769,1769,1769,1769,,,,,
46758789,1766,1765,1765,1766,,,,,
46761288,1763,1762,1762,1763,,,,,
46763787,1759,1759,1759,1760,,,,,
46766286,1756,1756,1756,1756,,,,,
46768785,1753,1753,1753,1753,,,,,
46771284,1750,1749,1750,1750,,,,,
46773783,1747,1746,1747,1747,,,,,
46776282,1743,1743,1743,1744,,,,,
46778781,1740,1740,1740,1741,,,,,
46781280,1737,1737,1737,1737,,,,,
46783779,1734,1734,1734,1734,,,,,
46786278,1731,1731,1731,1731,,,,,
46788777,1728,1728,1729,1729,,,,,
46791276,1725,1725,1726,1726,,,,,
