TimeUS,M1,M2,M3,M4,TimeUS,C1,C2,C3,C4
50461474,1000,1000,1000,1000,50528947,1000,1000,1000,1000
50463973,1000,1000,1000,1000,50628907,1000,1000,1000,1000
50466472,1000,1000,1000,1000,50728867,1000,1000,1000,1000
50468971,1000,1000,1000,1000,50828827,1000,1000,1000,1000
50471470,1000,1000,1000,1000,50928787,1000,1000,1000,1000
50473969,1000,1000,1000,1000,51028747,1000,1000,1000,1000
50476468,1000,1000,1000,1000,51128707,1000,1000,1000,1000
50478967,1000,1000,1000,1000,51228667,1000,1000,1000,1000
50481466,1000,1000,1000,1000,51328627,1000,1000,1000,1000
50483965,1000,1000,1000,1000,51428587,1000,1000,1000,1000
50486464,1000,1000,1000,1000,51528547,1000,1000,1000,1000
50488963,1000,1000,1000,1000,51628507,1000,1000,1000,1000
50491462,1000,1000,1000,1000,51728467,1000,1000,1000,1000
50493961,1000,1000,1000,1000,51828427,1000,1000,1000,1000
50496460,1000,1000,1000,1000,51928387,1000,1000,1000,1000
50498959,1000,1000,1000,1000,52028347,1000,1000,1000,1000
50501458,1000,1000,1000,1000,52128307,1000,1000,1000,1000
50503957,1000,1000,1000,1000,52228267,1000,1000,1000,1000
50506456,1000,1000,1000,1000,52328227,1000,1000,1000,1000
50508955,1000,1000,1000,1000,52428187,1000,1000,1000,1000
50511454,1000,1000,1000,1000,52528980,1020,1020,1020,1020
50513953,1000,1000,1000,1000,52628940,1050,1050,1050,1050
50516452,1000,1000,1000,1000,52728900,1080,1080,1080,1080
50518951,1000,1000,1000,1000,52828860,1110,1110,1110,1110
50521450,1000,1000,1000,1000,52928820,1140,1140,1140,1140
50523949,1000,1000,1000,1000,53028780,1329,1323,1324,1329
50526448,1000,1000,1000,1000,53128740,1525,1520,1521,1526
50528947,1000,1000,1000,1000,53228700,1681,1676,1677,1681
50531446,1000,1000,1000,1000,53328660,1814,1810,1810,1815
50533945,1000,1000,1000,1000,53428620,1906,1902,1902,1907
50536444,1000,1000,1000,1000,53528580,1858,1856,1855,1858
50538943,1000,1000,1000,1000,53628540,1726,1726,1727,1726
50541442,1000,1000,1000,1000,53728500,1643,1644,1644,1643
50543941,1000,1000,1000,1000,53828460,1623,1625,1625,1623
50546440,1000,1000,1000,1000,53928420,1631,1633,1633,1632
50548939,1000,1000,1000,1000,54028380,1637,1638,1638,1637
50551438,1000,1000,1000,1000,54128340,1634,1634,1634,1634
50553937,1000,1000,1000,1000,54228300,1625,1625,1625,1625
50556436,1000,1000,1000,1000,54328260,1608,1607,1604,1611
50558935,1000,1000,1000,1000,54428220,1595,1594,1585,1603
50561434,1000,1000,1000,1000,54528180,1592,1592,1585,1598
50563933,1000,1000,1000,1000,54628973,1593,1593,1591,1595
50566432,1000,1000,1000,1000,54728933,1598,1598,1600,1596
50568931,1000,1000,1000,1000,54828893,1604,1604,1608,1601
50571430,1000,1000,1000,1000,54928853,1581,1581,1597,1566
50573929,1000,1000,1000,1000,55028813,1568,1569,1587,1551
50576428,1000,1000,1000,1000,55128773,1558,1558,1565,1551
50578927,1000,1000,1000,1000,55228733,1548,1548,1542,1554
50581426,1000,1000,1000,1000,55328693,1540,1539,1528,1552
50583925,1000,1000,1000,1000,55428653,1534,1533,1522,1545
50586424,1000,1000,1000,1000,55528613,1528,1528,1520,1536
50588923,1000,1000,1000,1000,55628573,1527,1526,1523,1530
50591422,1000,1000,1000,1000,55728533,1529,1529,1529,1528
50593921,1000,1000,1000,1000,55828493,1531,1531,1534,1528
50596420,1000,1000,1000,1000,55928453,1535,1535,1539,1531
50598919,1000,1000,1000,1000,56028413,1538,1539,1543,1534
50601418,1000,1000,1000,1000,56128373,1543,1543,1545,1540
50603917,1000,1000,1000,1000,56228333,1546,1546,1547,1545
50606416,1000,1000,1000,1000,56328293,1548,1548,1548,1549
50608915,1000,1000,1000,1000,56428253,1551,1551,1549,1553
50611414,1000,1000,1000,1000,56528213,1551,1550,1553,1558
50613913,1000,1000,1000,1000,56628173,1551,1551,1560,1564
50616412,1000,1000,1000,1000,56728966,1553,1553,1562,1564
50618911,1000,1000,1000,1000,56828926,1557,1557,1563,1563
50621410,1000,1000,1000,1000,56928886,1562,1562,1565,1564
50623909,1000,1000,1000,1000,57028846,1565,1565,1564,1564
50626408,1000,1000,1000,1000,57128806,1567,1568,1564,1564
50628907,1000,1000,1000,1000,57228766,1571,1571,1566,1565
50631406,1000,1000,1000,1000,57328726,1572,1571,1565,1565
50633905,1000,1000,1000,1000,57428686,1572,1572,1566,1566
50636404,1000,1000,1000,1000,57528646,1573,1573,1567,1568
50638903,1000,1000,1000,1000,57628606,1574,1574,1569,1569
50641402,1000,1000,1000,1000,57728566,1573,1573,1569,1570
50643901,1000,1000,1000,1000,57828526,1574,1574,1572,1572
50646400,1000,1000,1000,1000,57928486,1574,1574,1574,1573
50648899,1000,1000,1000,1000,58028446,1574,1574,1576,1574
50651398,1000,1000,1000,1000,58128406,1573,1573,1576,1574
50653897,1000,1000,1000,1000,58228366,1574,1574,1577,1576
50656396,1000,1000,1000,1000,58328326,1574,1573,1576,1576
50658895,1000,1000,1000,1000,58428286,1574,1574,1576,1577
50661394,1000,1000,1000,1000,58528246,1574,1574,1576,1576
50663893,1000,1000,1000,1000,58628206,1574,1575,1576,1576
50666392,1000,1000,1000,1000,58728166,1575,1575,1576,1576
50668891,1000,1000,1000,1000,58828959,1576,1576,1577,1576
50671390,1000,1000,1000,1000,58928919,1577,1577,1577,1577
50673889,1000,1000,1000,1000,59028879,1578,1577,1576,1576
50676388,1000,1000,1000,1000,59128839,1577,1577,1576,1576
50678887,1000,1000,1000,1000,59228799,1577,1577,1576,1576
50681386,1000,1000,1000,1000,59328759,1578,1578,1577,1577
50683885,1000,1000,1000,1000,59428719,1578,1579,1578,1577
50686384,1000,1000,1000,1000,59528679,1578,1577,1577,1577
50688883,1000,1000,1000,1000,59628639,1578,1578,1577,1578
50691382,1000,1000,1000,1000,59728599,1578,1577,1577,1578
50693881,1000,1000,1000,1000,59828559,1578,1578,1578,1578
50696380,1000,1000,1000,1000,59928519,1578,1578,1578,1578
50698879,1000,1000,1000,1000,60028479,1579,1579,1579,1579
50701378,1000,1000,1000,1000,60128439,1579,1579,1580,1579
50703877,1000,1000,1000,1000,60228399,1579,1579,1580,1579
50706376,1000,1000,1000,1000,60328359,1578,1578,1578,1579
50708875,1000,1000,1000,1000,60428319,1578,1579,1579,1579
50711374,1000,1000,1000,1000,60528279,1578,1578,1579,1579
50713873,1000,1000,1000,1000,60628239,1580,1580,1580,1580
50716372,1000,1000,1000,1000,60728199,1580,1580,1580,1580
50718871,1000,1000,1000,1000,60828159,1580,1579,1580,1579
50721370,1000,1000,1000,1000,60928952,1580,1580,1580,1580
50723869,1000,1000,1000,1000,61028912,1581,1581,1581,1581
50726368,1000,1000,1000,1000,61128872,1580,1580,1580,1581
50728867,1000,1000,1000,1000,61228832,1580,1580,1580,1580
50731366,1000,1000,1000,1000,61328792,1579,1580,1580,1579
50733865,1000,1000,1000,1000,61428752,1580,1580,1580,1580
50736364,1000,1000,1000,1000,61528712,1581,1581,1581,1581
50738863,1000,1000,1000,1000,61628672,1581,1581,1581,1581
50741362,1000,1000,1000,1000,61728632,1581,1581,1581,1581
50743861,1000,1000,1000,1000,61828592,1581,1581,1581,1581
50746360,1000,1000,1000,1000,61928552,1581,1580,1581,1580
50748859,1000,1000,1000,1000,62028512,1581,1581,1581,1581
50751358,1000,1000,1000,1000,62128472,1580,1580,1580,1581
50753857,1000,1000,1000,1000,62228432,1580,1580,1580,1580
50756356,1000,1000,1000,1000,62328392,1580,1580,1580,1580
50758855,1000,1000,1000,1000,62428352,1580,1581,1580,1580
50761354,1000,1000,1000,1000,62528312,1580,1581,1581,1580
50763853,1000,1000,1000,1000,62628272,1581,1581,1581,1581
50766352,1000,1000,1000,1000,62728232,1581,1581,1582,1581
50768851,1000,1000,1000,1000,62828192,1581,1582,1588,1574
50771350,1000,1000,1000,1000,62928985,1580,1581,1584,1573
50773849,1000,1000,1000,1000,63028945,1578,1581,1576,1573
50776348,1000,1000,1000,1000,63128905,1577,1580,1568,1572
50778847,1000,1000,1000,1000,63228865,1577,1579,1561,1568
50781346,1000,1000,1000,1000,63328825,1578,1578,1556,1563
50783845,1000,1000,1000,1000,63428785,1579,1578,1555,1559
50786344,1000,1000,1000,1000,63528745,1579,1577,1555,1556
50788843,1000,1000,1000,1000,63628705,1579,1577,1556,1553
50791342,1000,1000,1000,1000,63728665,1578,1577,1556,1553
50793841,1000,1000,1000,1000,63828625,1576,1577,1556,1553
50796340,1000,1000,1000,1000,63928585,1576,1577,1555,1554
50798839,1000,1000,1000,1000,64028545,1575,1577,1555,1554
50801338,1000,1000,1000,1000,64128505,1575,1576,1553,1553
50803837,1000,1000,1000,1000,64228465,1576,1577,1552,1552
50806336,1000,1000,1000,1000,64328425,1577,1578,1550,1551
50808835,1000,1000,1000,1000,64428385,1579,1580,1548,1549
50811334,1000,1000,1000,1000,64528345,1582,1583,1547,1546
50813833,1000,1000,1000,1000,64628305,1585,1586,1544,1543
50816332,1000,1000,1000,1000,64728265,1587,1588,1541,1541
50818831,1000,1000,1000,1000,64828225,1590,1590,1537,1537
50821330,1000,1000,1000,1000,64928185,1592,1592,1535,1536
50823829,1000,1000,1000,1000,65028978,1595,1594,1535,1535
50826328,1000,1000,1000,1000,65128938,1594,1594,1534,1535
50828827,1000,1000,1000,1000,65228898,1594,1594,1536,1538
50831326,1000,1000,1000,1000,65328858,1591,1590,1537,1541
50833825,1000,1000,1000,1000,65428818,1588,1587,1543,1547
50836324,1000,1000,1000,1000,65528778,1584,1581,1553,1556
50838823,1000,1000,1000,1000,65628738,1575,1572,1562,1565
50841322,1000,1000,1000,1000,65728698,1565,1561,1574,1576
50843821,1000,1000,1000,1000,65828658,1554,1551,1587,1587
50846320,1000,1000,1000,1000,65928618,1544,1541,1599,1598
50848819,1000,1000,1000,1000,66028578,1535,1534,1607,1606
50851318,1000,1000,1000,1000,66128538,1530,1531,1614,1613
50853817,1000,1000,1000,1000,66228498,1529,1531,1615,1615
50856316,1000,1000,1000,1000,66328458,1533,1534,1615,1615
50858815,1000,1000,1000,1000,66428418,1538,1540,1611,1610
50861314,1000,1000,1000,1000,66528378,1545,1547,1604,1604
50863813,1000,1000,1000,1000,66628338,1554,1555,1597,1597
50866312,1000,1000,1000,1000,66728298,1562,1562,1589,1588
50868811,1000,1000,1000,1000,66828258,1570,1570,1582,1581
50871310,1000,1000,1000,1000,66928218,1578,1576,1576,1575
50873809,1000,1000,1000,1000,67028178,1483,1482,1571,1571
50876308,1000,1000,1000,1000,67128971,1520,1521,1589,1591
50878807,1000,1000,1000,1000,67228931,1544,1545,1586,1587
50881306,1000,1000,1000,1000,67328891,1565,1567,1581,1579
50883805,1000,1000,1000,1000,67428851,1583,1584,1574,1572
50886304,1000,1000,1000,1000,67528811,1596,1595,1569,1568
50888803,1000,1000,1000,1000,67628771,1604,1602,1567,1566
50891302,1000,1000,1000,1000,67728731,1607,1604,1566,1567
50893801,1000,1000,1000,1000,67828691,1607,1603,1566,1567
50896300,1000,1000,1000,1000,67928651,1605,1603,1568,1570
50898799,1000,1000,1000,1000,68028611,1601,1600,1570,1571
50901298,1000,1000,1000,1000,68128571,1597,1597,1572,1573
50903797,1000,1000,1000,1000,68228531,1593,1594,1575,1576
50906296,1000,1000,1000,1000,68328491,1589,1590,1577,1577
50908795,1000,1000,1000,1000,68428451,1585,1586,1579,1579
50911294,1000,1000,1000,1000,68528411,1583,1584,1582,1581
50913793,1000,1000,1000,1000,68628371,1580,1580,1583,1582
50916292,1000,1000,1000,1000,68728331,1577,1577,1582,1582
50918791,1000,1000,1000,1000,68828291,1575,1576,1584,1584
50921290,1000,1000,1000,1000,68928251,1574,1574,1584,1584
50923789,1000,1000,1000,1000,69028211,1573,1574,1585,1585
50926288,1000,1000,1000,1000,69128171,1573,1574,1584,1584
50928787,1000,1000,1000,1000,69228964,1574,1574,1584,1584
50931286,1000,1000,1000,1000,69328924,1575,1575,1583,1583
50933785,1000,1000,1000,1000,69428884,1576,1576,1582,1582
50936284,1000,1000,1000,1000,69528844,1578,1578,1582,1581
50938783,1000,1000,1000,1000,69628804,1579,1579,1580,1580
50941282,1000,1000,1000,1000,69728764,1579,1579,1578,1578
50943781,1000,1000,1000,1000,69828724,1581,1580,1578,1578
50946280,1000,1000,1000,1000,69928684,1582,1582,1578,1578
50948779,1000,1000,1000,1000,70028644,1581,1582,1577,1577
50951278,1000,1000,1000,1000,70128604,1581,1581,1576,1577
50953777,1000,1000,1000,1000,70228564,1582,1582,1577,1577
50956276,1000,1000,1000,1000,70328524,1582,1582,1578,1578
50958775,1000,1000,1000,1000,70428484,1582,1582,1578,1579
50961274,1000,1000,1000,1000,70528444,1581,1581,1578,1578
50963773,1000,1000,1000,1000,70628404,1581,1581,1579,1579
50966272,1000,1000,1000,1000,70728364,1580,1580,1579,1579
50968771,1000,1000,1000,1000,70828324,1580,1581,1586,1573
50971270,1000,1000,1000,1000,70928284,1579,1581,1584,1572
50973769,1000,1000,1000,1000,71028244,1579,1580,1576,1572
50976268,1000,1000,1000,1000,71128204,1577,1579,1568,1570
50978767,1000,1000,1000,1000,71228164,1576,1578,1560,1567
50981266,1000,1000,1000,1000,71328957,1575,1578,1556,1563
50983765,1000,1000,1000,1000,71428917,1577,1578,1555,1558
50986264,1000,1000,1000,1000,71528877,1579,1579,1555,1556
50988763,1000,1000,1000,1000,71628837,1579,1578,1555,1553
50991262,1000,1000,1000,1000,71728797,1578,1577,1554,1552
50993761,1000,1000,1000,1000,71828757,1577,1577,1553,1551
50996260,1000,1000,1000,1000,71928717,1577,1577,1553,1552
50998759,1000,1000,1000,1000,72028677,1577,1577,1552,1552
51001258,1000,1000,1000,1000,72128637,1576,1578,1551,1551
51003757,1000,1000,1000,1000,72228597,1577,1578,1550,1549
51006256,1000,1000,1000,1000,72328557,1578,1579,1548,1548
51008755,1000,1000,1000,1000,72428517,1579,1580,1547,1547
51011254,1000,1000,1000,1000,72528477,1581,1582,1546,1545
51013753,1000,1000,1000,1000,72628437,1583,1584,1543,1543
51016252,1000,1000,1000,1000,72728397,1585,1586,1542,1542
51018751,1000,1000,1000,1000,72828357,1587,1587,1541,1540
51021250,1000,1000,1000,1000,72928317,1589,1588,1541,1541
51023749,1000,1000,1000,1000,73028277,1590,1590,1541,1542
51026248,1000,1000,1000,1000,73128237,1590,1590,1541,1543
51028747,1000,1000,1000,1000,73228197,1589,1589,1543,1545
51031246,1000,1000,1000,1000,73328157,1587,1587,1546,1548
51033745,1000,1000,1000,1000,73428950,1585,1584,1552,1555
51036244,1000,1000,1000,1000,73528910,1580,1577,1559,1561
51038743,1000,1000,1000,1000,73628870,1573,1570,1568,1570
51041242,1000,1000,1000,1000,73728830,1564,1560,1578,1580
51043741,1000,1000,1000,1000,73828790,1555,1552,1589,1590
51046240,1000,1000,1000,1000,73928750,1545,1543,1598,1597
51048739,1000,1000,1000,1000,74028710,1538,1537,1604,1604
51051238,1000,1000,1000,1000,74128670,1534,1535,1608,1608
51053737,1000,1000,1000,1000,74228630,1533,1535,1609,1609
51056236,1000,1000,1000,1000,74328590,1536,1538,1608,1608
51058735,1000,1000,1000,1000,74428550,1541,1543,1605,1604
51061234,1000,1000,1000,1000,74528510,1548,1550,1600,1598
51063733,1000,1000,1000,1000,74628470,1556,1557,1594,1592
51066232,1000,1000,1000,1000,74728430,1564,1565,1588,1586
51068731,1000,1000,1000,1000,74828390,1571,1571,1581,1579
51071230,1000,1000,1000,1000,74928350,1577,1576,1575,1574
51073729,1000,1000,1000,1000,75028310,1582,1580,1569,1570
51076228,1000,1000,1000,1000,75128270,1585,1584,1567,1568
51078727,1000,1000,1000,1000,75228230,1587,1586,1567,1567
51081226,1000,1000,1000,1000,75328190,1587,1586,1568,1568
51083725,1000,1000,1000,1000,75428983,1586,1585,1569,1569
51086224,1000,1000,1000,1000,75528943,1583,1583,1570,1570
51088723,1000,1000,1000,1000,75628903,1582,1582,1575,1574
51091222,1000,1000,1000,1000,75728863,1579,1579,1576,1576
51093721,1000,1000,1000,1000,75828823,1577,1578,1579,1580
51096220,1000,1000,1000,1000,75928783,1575,1576,1581,1581
51098719,1000,1000,1000,1000,76028743,1575,1575,1583,1584
51101218,1000,1000,1000,1000,76128703,1574,1575,1585,1585
51103717,1000,1000,1000,1000,76228663,1574,1575,1585,1585
51106216,1000,1000,1000,1000,76328623,1573,1574,1583,1583
51108715,1000,1000,1000,1000,76428583,1575,1576,1583,1584
51111214,1000,1000,1000,1000,76528543,1575,1576,1582,1581
51113713,1000,1000,1000,1000,76628503,1577,1577,1580,1581
51116212,1000,1000,1000,1000,76728463,1578,1578,1579,1579
51118711,1000,1000,1000,1000,76828423,1579,1579,1579,1579
51121210,1000,1000,1000,1000,76928383,1581,1580,1579,1579
51123709,1000,1000,1000,1000,77028343,1582,1581,1578,1578
51126208,1000,1000,1000,1000,77128303,1582,1582,1578,1578
51128707,1000,1000,1000,1000,77228263,1581,1581,1577,1578
51131206,1000,1000,1000,1000,77328223,1581,1581,1577,1577
51133705,1000,1000,1000,1000,77428183,1582,1582,1579,1579
51136204,1000,1000,1000,1000,77528976,1581,1581,1580,1579
51138703,1000,1000,1000,1000,77628936,1581,1581,1580,1580
51141202,1000,1000,1000,1000,77728896,1581,1581,1581,1581
51143701,1000,1000,1000,1000,77828856,1580,1580,1580,1580
51146200,1000,1000,1000,1000,77928816,1580,1580,1581,1580
51148699,1000,1000,1000,1000,78028776,1580,1581,1582,1582
51151198,1000,1000,1000,1000,78128736,1580,1580,1581,1581
51153697,1000,1000,1000,1000,78228696,1581,1581,1582,1583
51156196,1000,1000,1000,1000,78328656,1580,1580,1581,1581
51158695,1000,1000,1000,1000,78428616,1580,1580,1582,1581
51161194,1000,1000,1000,1000,78528576,1580,1580,1581,1581
51163693,1000,1000,1000,1000,78628536,1581,1582,1582,1581
51166192,1000,1000,1000,1000,78728496,1582,1582,1582,1582
51168691,1000,1000,1000,1000,78828456,1581,1581,1580,1581
51171190,1000,1000,1000,1000,78928416,1581,1581,1580,1581
51173689,1000,1000,1000,1000,79028376,1581,1581,1580,1580
51176188,1000,1000,1000,1000,79128336,1581,1581,1586,1573
51178687,1000,1000,1000,1000,79228296,1582,1583,1586,1573
51181186,1000,1000,1000,1000,79328256,1580,1582,1577,1572
51183685,1000,1000,1000,1000,79428216,1578,1580,1568,1571
51186184,1000,1000,1000,1000,79528176,1577,1579,1561,1568
51188683,1000,1000,1000,1000,79628969,1577,1579,1557,1563
51191182,1000,1000,1000,1000,79728929,1578,1578,1555,1559
51193681,1000,1000,1000,1000,79828889,1579,1578,1555,1556
51196180,1000,1000,1000,1000,79928849,1579,1578,1556,1554
51198679,1000,1000,1000,1000,80028809,1578,1578,1555,1554
51201178,1000,1000,1000,1000,80128769,1578,1578,1556,1555
51203677,1000,1000,1000,1000,80228729,1577,1577,1556,1555
51206176,1000,1000,1000,1000,80328689,1576,1577,1555,1555
51208675,1000,1000,1000,1000,80428649,1575,1577,1554,1554
51211174,1000,1000,1000,1000,80528609,1576,1577,1552,1553
51213673,1000,1000,1000,1000,80628569,1576,1578,1551,1551
51216172,1000,1000,1000,1000,80728529,1578,1579,1549,1549
51218671,1000,1000,1000,1000,80828489,1579,1580,1546,1546
51221170,1000,1000,1000,1000,80928449,1581,1582,1544,1544
51223669,1000,1000,1000,1000,81028409,1585,1586,1543,1542
51226168,1000,1000,1000,1000,81128369,1587,1587,1540,1540
51228667,1000,1000,1000,1000,81228329,1589,1589,1538,1538
51231166,1000,1000,1000,1000,81328289,1591,1590,1538,1538
51233665,1000,1000,1000,1000,81428249,1591,1591,1536,1538
51236164,1000,1000,1000,1000,81528209,1592,1593,1539,1540
51238663,1000,1000,1000,1000,81628169,1591,1591,1541,1543
51241162,1000,1000,1000,1000,81728962,1589,1587,1545,1548
51243661,1000,1000,1000,1000,81828922,1584,1581,1552,1555
51246160,1000,1000,1000,1000,81928882,1577,1573,1561,1564
51248659,1000,1000,1000,1000,82028842,1568,1565,1571,1574
51251158,1000,1000,1000,1000,82128802,1559,1555,1583,1585
51253657,1000,1000,1000,1000,82228762,1550,1547,1594,1594
51256156,1000,1000,1000,1000,82328722,1541,1539,1602,1602
51258655,1000,1000,1000,1000,82428682,1535,1535,1609,1608
51261154,1000,1000,1000,1000,82528642,1532,1534,1612,1611
51263653,1000,1000,1000,1000,82628602,1533,1536,1612,1612
51266152,1000,1000,1000,1000,82728562,1537,1539,1609,1608
51268651,1000,1000,1000,1000,82828522,1543,1545,1604,1604
51271150,1000,1000,1000,1000,82928482,1551,1552,1598,1597
51273649,1000,1000,1000,1000,83028442,1560,1560,1591,1591
51276148,1000,1000,1000,1000,83128402,1567,1567,1585,1584
51278647,1000,1000,1000,1000,83228362,1574,1574,1578,1577
51281146,1000,1000,1000,1000,83328322,1580,1579,1573,1573
51283645,1000,1000,1000,1000,83428282,1584,1583,1569,1569
51286144,1000,1000,1000,1000,83528242,1586,1584,1566,1566
51288643,1000,1000,1000,1000,83628202,1587,1586,1566,1567
51291142,1000,1000,1000,1000,83728162,1588,1587,1568,1568
51293641,1000,1000,1000,1000,83828955,1585,1584,1569,1569
51296140,1000,1000,1000,1000,83928915,1583,1583,1572,1572
51298639,1000,1000,1000,1000,84028875,1580,1580,1574,1574
51301138,1000,1000,1000,1000,84128835,1578,1578,1578,1577
51303637,1000,1000,1000,1000,84228795,1576,1577,1580,1580
51306136,1000,1000,1000,1000,84328755,1575,1576,1583,1583
51308635,1000,1000,1000,1000,84428715,1573,1574,1584,1584
51311134,1000,1000,1000,1000,84528675,1573,1573,1584,1584
51313633,1000,1000,1000,1000,84628635,1574,1575,1585,1585
51316132,1000,1000,1000,1000,84728595,1575,1575,1584,1584
51318631,1000,1000,1000,1000,84828555,1575,1575,1582,1582
51321130,1000,1000,1000,1000,84928515,1576,1576,1581,1581
51323629,1000,1000,1000,1000,85028475,1577,1577,1580,1580
51326128,1000,1000,1000,1000,85128435,1578,1579,1579,1579
51328627,1000,1000,1000,1000,85228395,1580,1579,1578,1578
51331126,1000,1000,1000,1000,85328355,1580,1580,1577,1577
51333625,1000,1000,1000,1000,85428315,1581,1580,1576,1577
51336124,1000,1000,1000,1000,85528275,1581,1581,1577,1577
51338623,1000,1000,1000,1000,85628235,1582,1581,1577,1577
51341122,1000,1000,1000,1000,85728195,1581,1580,1577,1577
51343621,1000,1000,1000,1000,85828155,1581,1581,1578,1578
51346120,1000,1000,1000,1000,85928948,1580,1581,1579,1579
51348619,1000,1000,1000,1000,86028908,1580,1581,1580,1580
51351118,1000,1000,1000,1000,86128868,1580,1580,1581,1581
51353617,1000,1000,1000,1000,86228828,1580,1580,1581,1581
51356116,1000,1000,1000,1000,86328788,1579,1580,1581,1581
51358615,1000,1000,1000,1000,86428748,1580,1580,1582,1582
51361114,1000,1000,1000,1000,86528708,1580,1579,1581,1582
51363613,1000,1000,1000,1000,86628668,1580,1580,1581,1582
51366112,1000,1000,1000,1000,86728628,1579,1579,1580,1580
51368611,1000,1000,1000,1000,86828588,1581,1581,1581,1582
51371110,1000,1000,1000,1000,86928548,1581,1581,1582,1581
51373609,1000,1000,1000,1000,87028508,1581,1581,1581,1581
51376108,1000,1000,1000,1000,87128468,1581,1581,1587,1574
51378607,1000,1000,1000,1000,87228428,1581,1581,1586,1573
51381106,1000,1000,1000,1000,87328388,1580,1579,1580,1576
51383605,1000,1000,1000,1000,87428348,1576,1576,1572,1575
51386104,1000,1000,1000,1000,87528308,1573,1572,1567,1574
51388603,1000,1000,1000,1000,87628268,1570,1570,1564,1571
51391102,1000,1000,1000,1000,87728228,1569,1569,1566,1570
51393601,1000,1000,1000,1000,87828188,1568,1568,1567,1568
51396100,1000,1000,1000,1000,87928981,1566,1567,1567,1566
51398599,1000,1000,1000,1000,88028941,1565,1566,1568,1564
51401098,1000,1000,1000,1000,88128901,1566,1566,1569,1566
51403597,1000,1000,1000,1000,88228861,1564,1564,1566,1564
51406096,1000,1000,1000,1000,88328821,1564,1564,1565,1564
51408595,1000,1000,1000,1000,88428781,1563,1563,1564,1564
51411094,1000,1000,1000,1000,88528741,1562,1562,1563,1563
51413593,1000,1000,1000,1000,88628701,1561,1561,1562,1562
51416092,1000,1000,1000,1000,88728661,1561,1561,1561,1562
51418591,1000,1000,1000,1000,88828621,1561,1561,1561,1561
51421090,1000,1000,1000,1000,88928581,1560,1560,1560,1560
51423589,1000,1000,1000,1000,89028541,1559,1559,1560,1558
51426088,1000,1000,1000,1000,89128501,1559,1559,1558,1558
51428587,1000,1000,1000,1000,89228461,1559,1559,1559,1558
51431086,1000,1000,1000,1000,89328421,1558,1558,1558,1557
51433585,1000,1000,1000,1000,89428381,1558,1559,1559,1557
51436084,1000,1000,1000,1000,89528341,1558,1558,1558,1557
51438583,1000,1000,1000,1000,89628301,1558,1558,1559,1557
51441082,1000,1000,1000,1000,89728261,1559,1558,1559,1557
51443581,1000,1000,1000,1000,89828221,1559,1557,1560,1557
51446080,1000,1000,1000,1000,89928181,1559,1558,1558,1558
51448579,1000,1000,1000,1000,90028974,1559,1559,1557,1561
51451078,1000,1000,1000,1000,90128934,1558,1560,1556,1563
51453577,1000,1000,1000,1000,90228894,1560,1561,1558,1564
51456076,1000,1000,1000,1000,90328854,1561,1562,1559,1564
51458575,1000,1000,1000,1000,90428814,1561,1562,1561,1562
51461074,1000,1000,1000,1000,90528774,1561,1560,1561,1559
51463573,1000,1000,1000,1000,90628734,1559,1559,1561,1557
51466072,1000,1000,1000,1000,90728694,1559,1559,1558,1560
51468571,1000,1000,1000,1000,90828654,1557,1557,1554,1559
51471070,1000,1000,1000,1000,90928614,1553,1553,1550,1554
51473569,1000,1000,1000,1000,91028574,1548,1548,1546,1547
51476068,1000,1000,1000,1000,91128534,1542,1543,1541,1541
51478567,1000,1000,1000,1000,91228494,1535,1535,1534,1533
51481066,1000,1000,1000,1000,91328454,1528,1528,1526,1526
51483565,1000,1000,1000,1000,91428414,1522,1522,1521,1520
51486064,1000,1000,1000,1000,91528374,1519,1519,1519,1519
51488563,1000,1000,1000,1000,91628334,1519,1519,1520,1520
51491062,1000,1000,1000,1000,91728294,1521,1520,1522,1522
51493561,1000,1000,1000,1000,91828254,1522,1523,1525,1526
51496060,1000,1000,1000,1000,91928214,1527,1527,1530,1530
51498559,1000,1000,1000,1000,92028174,1531,1531,1534,1535
51501058,1000,1000,1000,1000,92128967,1536,1535,1539,1539
51503557,1000,1000,1000,1000,92228927,1538,1538,1541,1541
51506056,1000,1000,1000,1000,92328887,1541,1541,1543,1543
51508555,1000,1000,1000,1000,92428847,1543,1543,1544,1544
51511054,1000,1000,1000,1000,92528807,1544,1544,1544,1543
51513553,1000,1000,1000,1000,92628767,1545,1546,1545,1545
51516052,1000,1000,1000,1000,92728727,1547,1547,1546,1545
51518551,1000,1000,1000,1000,92828687,1547,1547,1545,1545
51521050,1000,1000,1000,1000,92928647,1548,1548,1546,1546
51523549,1000,1000,1000,1000,93028607,1547,1547,1545,1545
51526048,1000,1000,1000,1000,93128567,1547,1547,1546,1545
51528547,1000,1000,1000,1000,93228527,1547,1548,1546,1546
51531046,1000,1000,1000,1000,93328487,1546,1546,1545,1545
51533545,1000,1000,1000,1000,93428447,1547,1547,1546,1546
51536044,1000,1000,1000,1000,93528407,1546,1546,1546,1546
51538543,1000,1000,1000,1000,93628367,1546,1545,1545,1546
51541042,1000,1000,1000,1000,93728327,1546,1545,1547,1546
51543541,1000,1000,1000,1000,93828287,1545,1545,1546,1545
51546040,1000,1000,1000,1000,93928247,1544,1544,1544,1544
51548539,1000,1000,1000,1000,94028207,1543,1544,1545,1544
51551038,1000,1000,1000,1000,94128167,1543,1543,1544,1544
51553537,1000,1000,1000,1000,94228960,1543,1543,1544,1544
51556036,1000,1000,1000,1000,94328920,1543,1543,1544,1543
51558535,1000,1000,1000,1000,94428880,1543,1544,1544,1544
51561034,1000,1000,1000,1000,94528840,1544,1544,1544,1544
51563533,1000,1000,1000,1000,94628800,1544,1544,1543,1543
51566032,1000,1000,1000,1000,94728760,1544,1543,1543,1543
51568531,1000,1000,1000,1000,94828720,1544,1543,1543,1543
51571030,1000,1000,1000,1000,94928680,1544,1544,1544,1544
51573529,1000,1000,1000,1000,95028640,1543,1544,1544,1543
51576028,1000,1000,1000,1000,95128600,1544,1544,1544,1544
51578527,1000,1000,1000,1000,95228560,1544,1544,1544,1543
51581026,1000,1000,1000,1000,95328520,1544,1544,1544,1544
51583525,1000,1000,1000,1000,95428480,1544,1544,1544,1544
51586024,1000,1000,1000,1000,95528440,1544,1544,1544,1544
51588523,1000,1000,1000,1000,95628400,1544,1544,1544,1544
51591022,1000,1000,1000,1000,95728360,1544,1544,1543,1544
51593521,1000,1000,1000,1000,95828320,1544,1543,1544,1543
51596020,1000,1000,1000,1000,95928280,1544,1544,1544,1544
51598519,1000,1000,1000,1000,96028240,1545,1545,1545,1545
51601018,1000,1000,1000,1000,96128200,1544,1544,1544,1544
51603517,1000,1000,1000,1000,96228160,1543,1543,1543,1544
51606016,1000,1000,1000,1000,96328953,1544,1544,1544,1545
51608515,1000,1000,1000,1000,96428913,1544,1544,1544,1544
51611014,1000,1000,1000,1000,96528873,1544,1543,1543,1544
51613513,1000,1000,1000,1000,96628833,1544,1544,1544,1544
51616012,1000,1000,1000,1000,96728793,1545,1544,1544,1544
51618511,1000,1000,1000,1000,96828753,1543,1544,1544,1543
51621010,1000,1000,1000,1000,96928713,1544,1543,1543,1544
51623509,1000,1000,1000,1000,97028673,1544,1544,1544,1544
51626008,1000,1000,1000,1000,97128633,1544,1543,1544,1544
51628507,1000,1000,1000,1000,97228593,1544,1544,1544,1544
51631006,1000,1000,1000,1000,97328553,1544,1544,1544,1544
51633505,1000,1000,1000,1000,97428513,1544,1544,1544,1544
51636004,1000,1000,1000,1000,97528473,1544,1545,1544,1544
51638503,1000,1000,1000,1000,97628433,1544,1545,1545,1544
51641002,1000,1000,1000,1000,97728393,1544,1544,1544,1544
51643501,1000,1000,1000,1000,97828353,1544,1544,1545,1544
51646000,1000,1000,1000,1000,97928313,1545,1544,1544,1545
51648499,1000,1000,1000,1000,98028273,1545,1544,1544,1544
51650998,1000,1000,1000,1000,98128233,1545,1544,1544,1545
51653497,1000,1000,1000,1000,98228193,1545,1545,1545,1545
51655996,1000,1000,1000,1000,98328986,1545,1545,1545,1545
51658495,1000,1000,1000,1000,98428946,1545,1545,1545,1545
51660994,1000,1000,1000,1000,98528906,1544,1545,1544,1544
51663493,1000,1000,1000,1000,98628866,1545,1545,1545,1545
51665992,1000,1000,1000,1000,98728826,1544,1544,1544,1544
51668491,1000,1000,1000,1000,98828786,1545,1545,1545,1544
51670990,1000,1000,1000,1000,98928746,1545,1545,1545,1545
51673489,1000,1000,1000,1000,99028706,1544,1544,1544,1545
51675988,1000,1000,1000,1000,99128666,1545,1544,1544,1545
51678487,1000,1000,1000,1000,99228626,1545,1545,1545,1545
51680986,1000,1000,1000,1000,99328586,1544,1544,1545,1544
51683485,1000,1000,1000,1000,99428546,1545,1545,1545,1545
51685984,1000,1000,1000,1000,99528506,1544,1545,1545,1544
51688483,1000,1000,1000,1000,99628466,1544,1545,1545,1544
51690982,1000,1000,1000,1000,99728426,1545,1545,1545,1545
51693481,1000,1000,1000,1000,99828386,1545,1545,1544,1545
51695980,1000,1000,1000,1000,99928346,1545,1544,1544,1545
51698479,1000,1000,1000,1000,100028306,1545,1545,1545,1544
51700978,1000,1000,1000,1000,100128266,1544,1544,1544,1544
51703477,1000,1000,1000,1000,100228226,1544,1544,1545,1544
51705976,1000,1000,1000,1000,100328186,1543,1543,1543,1543
51708475,1000,1000,1000,1000,100428979,1544,1544,1544,1544
51710974,1000,1000,1000,1000,100528939,1544,1544,1544,1544
51713473,1000,1000,1000,1000,100628899,1544,1543,1543,1544
51715972,1000,1000,1000,1000,100728859,1544,1543,1543,1544
51718471,1000,1000,1000,1000,100828819,1543,1543,1543,1543
51720970,1000,1000,1000,1000,100928779,1544,1544,1544,1543
51723469,1000,1000,1000,1000,101028739,1544,1544,1544,1544
51725968,1000,1000,1000,1000,101128699,1480,1479,1471,1471
51728467,1000,1000,1000,1000,101228659,1340,1337,1303,1302
51730966,1000,1000,1000,1000,101328619,1283,1280,1230,1230
51733465,1000,1000,1000,1000,101428579,1266,1263,1207,1206
51735964,1000,1000,1000,1000,101528539,1244,1240,1177,1176
51738463,1000,1000,1000,1000,101628499,1225,1222,1152,1150
51740962,1000,1000,1000,1000,101728459,1224,1220,1151,1150
51743461,1000,1000,1000,1000,101828419,1223,1221,1152,1150
51745960,1000,1000,1000,1000,101928379,1224,1215,1150,1158
51748459,1000,1000,1000,1000,102028339,1223,1203,1150,1176
51750958,1000,1000,1000,1000,102128299,1224,1211,1150,1165
51753457,1000,1000,1000,1000,102228259,1224,1213,1150,1162
51755956,1000,1000,1000,1000,102328219,1224,1213,1150,1162
51758455,1000,1000,1000,1000,102428179,1224,1213,1150,1162
51760954,1000,1000,1000,1000,102528972,1224,1212,1150,1163
51763453,1000,1000,1000,1000,102628932,1224,1212,1150,1163
51765952,1000,1000,1000,1000,102728892,1213,1223,1163,1150
51768451,1000,1000,1000,1000,102828852,1223,1221,1150,1151
51770950,1000,1000,1000,1000,102928812,1224,1221,1150,1152
51773449,1000,1000,1000,1000,103028772,1224,1220,1150,1152
51775948,1000,1000,1000,1000,103128732,1224,1220,1150,1152
51778447,1000,1000,1000,1000,103228692,1047,1047,1147,1147
51780946,1000,1000,1000,1000,103328652,1000,1000,1000,1000
51783445,1000,1000,1000,1000,103428612,1000,1000,1000,1000
51785944,1000,1000,1000,1000,103528572,1000,1000,1000,1000
51788443,1000,1000,1000,1000,103628532,1000,1000,1000,1000
51790942,1000,1000,1000,1000,103728492,1000,1000,1000,1000
51793441,1000,1000,1000,1000,103828452,1000,1000,1000,1000
51795940,1000,1000,1000,1000,103928412,1000,1000,1000,1000
51798439,1000,1000,1000,1000,104028372,1000,1000,1000,1000
51800938,1000,1000,1000,1000,104128332,1000,1000,1000,1000
51803437,1000,1000,1000,1000,104228292,1000,1000,1000,1000
51805936,1000,1000,1000,1000,104328252,1000,1000,1000,1000
51808435,1000,1000,1000,1000,104428212,1000,1000,1000,1000
51810934,1000,1000,1000,1000,104528172,1000,1000,1000,1000
51813433,1000,1000,1000,1000,104628965,1000,1000,1000,1000
51815932,1000,1000,1000,1000,104728925,1000,1000,1000,1000
51818431,1000,1000,1000,1000,104828885,1000,1000,1000,1000
51820930,1000,1000,1000,1000,104928845,1000,1000,1000,1000
51823429,1000,1000,1000,1000,105028805,1000,1000,1000,1000
51825928,1000,1000,1000,1000,105128765,1000,1000,1000,1000
51828427,1000,1000,1000,1000,105228725,1000,1000,1000,1000
51830926,1000,1000,1000,1000,105328685,1000,1000,1000,1000
51833425,1000,1000,1000,1000,105428645,1000,1000,1000,1000
51835924,1000,1000,1000,1000,105528605,1000,1000,1000,1000
51838423,1000,1000,1000,1000,105628565,1000,1000,1000,1000
51840922,1000,1000,1000,1000,105728525,1000,1000,1000,1000
51843421,1000,1000,1000,1000,105828485,1000,1000,1000,1000
51845920,1000,1000,1000,1000,105928445,1000,1000,1000,1000
51848419,1000,1000,1000,1000,106028405,1000,1000,1000,1000
51850918,1000,1000,1000,1000,106128365,1000,1000,1000,1000
51853417,1000,1000,1000,1000,106228325,1000,1000,1000,1000
51855916,1000,1000,1000,1000,106328285,1000,1000,1000,1000
51858415,1000,1000,1000,1000,106428245,1000,1000,1000,1000
51860914,1000,1000,1000,1000,106528205,1000,1000,1000,1000
51863413,1000,1000,1000,1000,106628165,1000,1000,1000,1000
51865912,1000,1000,1000,1000,106728958,1000,1000,1000,1000
51868411,1000,1000,1000,1000,106828918,1000,1000,1000,1000
51870910,1000,1000,1000,1000,106928878,1000,1000,1000,1000
51873409,1000,1000,1000,1000,107028838,1000,1000,1000,1000
51875908,1000,1000,1000,1000,107128798,1000,1000,1000,1000
51878407,1000,1000,1000,1000,107228758,1000,1000,1000,1000
51880906,1000,1000,1000,1000,107328718,1000,1000,1000,1000
51883405,1000,1000,1000,1000,107428678,1000,1000,1000,1000
51885904,1000,1000,1000,1000,107528638,1000,1000,1000,1000
51888403,1000,1000,1000,1000,107628598,1000,1000,1000,1000
51890902,1000,1000,1000,1000,107728558,1000,1000,1000,1000
51893401,1000,1000,1000,1000,107828518,1000,1000,1000,1000
51895900,1000,1000,1000,1000,107928478,1000,1000,1000,1000
51898399,1000,1000,1000,1000,108028438,1000,1000,1000,1000
51900898,1000,1000,1000,1000,108128398,1000,1000,1000,1000
51903397,1000,1000,1000,1000,108228358,1000,1000,1000,1000
51905896,1000,1000,1000,1000,108328318,1000,1000,1000,1000
51908395,1000,1000,1000,1000,108428278,1000,1000,1000,1000
51910894,1000,1000,1000,1000,108528238,1000,1000,1000,1000
51913393,1000,1000,1000,1000,108628198,1000,1000,1000,1000
51915892,1000,1000,1000,1000,108728158,1000,1000,1000,1000
51918391,1000,1000,1000,1000,108828951,1000,1000,1000,1000
51920890,1000,1000,1000,1000,108928911,1000,1000,1000,1000
51923389,1000,1000,1000,1000,109028871,1000,1000,1000,1000
51925888,1000,1000,1000,1000,109128831,1000,1000,1000,1000
51928387,1000,1000,1000,1000,109228791,1000,1000,1000,1000
51930886,1000,1000,1000,1000,109328751,1000,1000,1000,1000
51933385,1000,1000,1000,1000,109428711,1000,1000,1000,1000
51935884,1000,1000,1000,1000,109528671,1000,1000,1000,1000
51938383,1000,1000,1000,1000,109628631,1000,1000,1000,1000
51940882,1000,1000,1000,1000,109728591,1000,1000,1000,1000
51943381,1000,1000,1000,1000,109828551,1000,1000,1000,1000
51945880,1000,1000,1000,1000,109928511,1000,1000,1000,1000
51948379,1000,1000,1000,1000,110028471,1000,1000,1000,1000
51950878,1000,1000,1000,1000,110128431,1000,1000,1000,1000
51953377,1000,1000,1000,1000,110228391,1000,1000,1000,1000
51955876,1000,1000,1000,1000,110328351,1000,1000,1000,1000
51958375,1000,1000,1000,1000,110428311,1000,1000,1000,1000
51960874,1000,1000,1000,1000,110528271,1000,1000,1000,1000
51963373,1000,1000,1000,1000,110628231,1000,1000,1000,1000
51965872,1000,1000,1000,1000,110728191,1000,1000,1000,1000
51968371,1000,1000,1000,1000,110828984,1000,1000,1000,1000
51970870,1000,1000,1000,1000,110928944,1000,1000,1000,1000
51973369,1000,1000,1000,1000,111028904,1000,1000,1000,1000
51975868,1000,1000,1000,1000,111128864,1000,1000,1000,1000
51978367,1000,1000,1000,1000,111228824,1000,1000,1000,1000
51980866,1000,1000,1000,1000,111328784,1000,1000,1000,1000
51983365,1000,1000,1000,1000,111428744,1000,1000,1000,1000
51985864,1000,1000,1000,1000,111528704,1000,1000,1000,1000
51988363,1000,1000,1000,1000,111628664,1000,1000,1000,1000
51990862,1000,1000,1000,1000,111728624,1000,1000,1000,1000
51993361,1000,1000,1000,1000,111828584,1000,1000,1000,1000
51995860,1000,1000,1000,1000,111928544,1000,1000,1000,1000
51998359,1000,1000,1000,1000,112028504,1000,1000,1000,1000
52000858,1000,1000,1000,1000,112128464,1000,1000,1000,1000
52003357,1000,1000,1000,1000,112228424,1000,1000,1000,1000
52005856,1000,1000,1000,1000,112328384,1000,1000,1000,1000
52008355,1000,1000,1000,1000,112428344,1000,1000,1000,1000
52010854,1000,1000,1000,1000,112528304,1000,1000,1000,1000
52013353,1000,1000,1000,1000,112628264,1000,1000,1000,1000
52015852,1000,1000,1000,1000,112728224,1000,1000,1000,1000
52018351,1000,1000,1000,1000,112828184,1000,1000,1000,1000
52020850,1000,1000,1000,1000,112928977,1000,1000,1000,1000
52023349,1000,1000,1000,1000,113028937,1000,1000,1000,1000
52025848,1000,1000,1000,1000,113128897,1000,1000,1000,1000
52028347,1000,1000,1000,1000,113228857,1000,1000,1000,1000
52030846,1000,1000,1000,1000,113328817,1000,1000,1000,1000
52033345,1000,1000,1000,1000,113428777,1000,1000,1000,1000
52035844,1000,1000,1000,1000,113528737,1000,1000,1000,1000
52038343,1000,1000,1000,1000,113628697,1000,1000,1000,1000
52040842,1000,1000,1000,1000,113728657,1000,1000,1000,1000
52043341,1000,1000,1000,1000,113828617,1000,1000,1000,1000
52045840,1000,1000,1000,1000,113928577,1000,1000,1000,1000
52048339,1000,1000,1000,1000,114028537,1000,1000,1000,1000
52050838,1000,1000,1000,1000,114128497,1000,1000,1000,1000
52053337,1000,1000,1000,1000,114228457,1000,1000,1000,1000
52055836,1000,1000,1000,1000,114328417,1000,1000,1000,1000
52058335,1000,1000,1000,1000,114428377,1000,1000,1000,1000
52060834,1000,1000,1000,1000,114528337,1000,1000,1000,1000
52063333,1000,1000,1000,1000,114628297,1000,1000,1000,1000
52065832,1000,1000,1000,1000,114728257,1000,1000,1000,1000
52068331,1000,1000,1000,1000,114828217,1000,1000,1000,1000
52070830,1000,1000,1000,1000,114928177,1000,1000,1000,1000
52073329,1000,1000,1000,1000,115028970,1000,1000,1000,1000
52075828,1000,1000,1000,1000,115128930,1000,1000,1000,1000
52078327,1000,1000,1000,1000,115228890,1000,1000,1000,1000
52080826,1000,1000,1000,1000,115328850,1000,1000,1000,1000
52083325,1000,1000,1000,1000,115428810,1000,1000,1000,1000
52085824,1000,1000,1000,1000,115528770,1000,1000,1000,1000
52088323,1000,1000,1000,1000,115628730,1000,1000,1000,1000
52090822,1000,1000,1000,1000,115728690,1000,1000,1000,1000
52093321,1000,1000,1000,1000,115828650,1000,1000,1000,1000
52095820,1000,1000,1000,1000,115928610,1000,1000,1000,1000
52098319,1000,1000,1000,1000,116028570,1000,1000,1000,1000
52100818,1000,1000,1000,1000,116128530,1000,1000,1000,1000
52103317,1000,1000,1000,1000,116228490,1000,1000,1000,1000
52105816,1000,1000,1000,1000,116328450,1000,1000,1000,1000
52108315,1000,1000,1000,1000,116428410,1000,1000,1000,1000
52110814,1000,1000,1000,1000,116528370,1000,1000,1000,1000
52113313,1000,1000,1000,1000,116628330,1000,1000,1000,1000
52115812,1000,1000,1000,1000,116728290,1000,1000,1000,1000
52118311,1000,1000,1000,1000,116828250,1000,1000,1000,1000
52120810,1000,1000,1000,1000,116928210,1000,1000,1000,1000
52123309,1000,1000,1000,1000,117028170,1000,1000,1000,1000
52125808,1000,1000,1000,1000,117128963,1000,1000,1000,1000
52128307,1000,1000,1000,1000,117228923,1000,1000,1000,1000
52130806,1000,1000,1000,1000,117328883,1000,1000,1000,1000
52133305,1000,1000,1000,1000,117428843,1000,1000,1000,1000
52135804,1000,1000,1000,1000,117528803,1000,1000,1000,1000
52138303,1000,1000,1000,1000,117628763,1000,1000,1000,1000
52140802,1000,1000,1000,1000,117728723,1000,1000,1000,1000
52143301,1000,1000,1000,1000,117828683,1000,1000,1000,1000
52145800,1000,1000,1000,1000,117928643,1000,1000,1000,1000
52148299,1000,1000,1000,1000,118028603,1000,1000,1000,1000
52150798,1000,1000,1000,1000,118128563,1000,1000,1000,1000
52153297,1000,1000,1000,1000,,,,,
52155796,1000,1000,1000,1000,,,,,
52158295,1000,1000,1000,1000,,,,,
52160794,1000,1000,1000,1000,,,,,
52163293,1000,1000,1000,1000,,,,,
52165792,1000,1000,1000,1000,,,,,
52168291,1000,1000,1000,1000,,,,,
52170790,1000,1000,1000,1000,,,,,
52173289,1000,1000,1000,1000,,,,,
52175788,1000,1000,1000,1000,,,,,
52178287,1000,1000,1000,1000,,,,,
52180786,1000,1000,1000,1000,,,,,
52183285,1000,1000,1000,1000,,,,,
52185784,1000,1000,1000,1000,,,,,
52188283,1000,1000,1000,1000,,,,,
52190782,1000,1000,1000,1000,,,,,
52193281,1000,1000,1000,1000,,,,,
52195780,1000,1000,1000,1000,,,,,
52198279,1000,1000,1000,1000,,,,,
52200778,1000,1000,1000,1000,,,,,
52203277,1000,1000,1000,1000,,,,,
52205776,1000,1000,1000,1000,,,,,
52208275,1000,1000,1000,1000,,,,,
52210774,1000,1000,1000,1000,,,,,
52213273,1000,1000,1000,1000,,,,,
52215772,1000,1000,1000,1000,,,,,
52218271,1000,1000,1000,1000,,,,,
52220770,1000,1000,1000,1000,,,,,
52223269,1000,1000,1000,1000,,,,,
52225768,1000,1000,1000,1000,,,,,
52228267,1000,1000,1000,1000,,,,,
52230766,1000,1000,1000,1000,,,,,
52233265,1000,1000,1000,1000,,,,,
52235764,1000,1000,1000,1000,,,,,
52238263,1000,1000,1000,1000,,,,,
52240762,1000,1000,1000,1000,,,,,
52243261,1000,1000,1000,1000,,,,,
52245760,1000,1000,1000,1000,,,,,
52248259,1000,1000,1000,1000,,,,,
52250758,1000,1000,1000,1000,,,,,
52253257,1000,1000,1000,1000,,,,,
52255756,1000,1000,1000,1000,,,,,
52258255,1000,1000,1000,1000,,,,,
52260754,1000,1000,1000,1000,,,,,
52263253,1000,1000,1000,1000,,,,,
52265752,1000,1000,1000,1000,,,,,
52268251,1000,1000,1000,1000,,,,,
52270750,1000,1000,1000,1000,,,,,
52273249,1000,1000,1000,1000,,,,,
52275748,1000,1000,1000,1000,,,,,
52278247,1000,1000,1000,1000,,,,,
52280746,1000,1000,1000,1000,,,,,
52283245,1000,1000,1000,1000,,,,,
52285744,1000,1000,1000,1000,,,,,
52288243,1000,1000,1000,1000,,,,,
52290742,1000,1000,1000,1000,,,,,
52293241,1000,1000,1000,1000,,,,,
52295740,1000,1000,1000,1000,,,,,
52298239,1000,1000,1000,1000,,,,,
52300738,1000,1000,1000,1000,,,,,
52303237,1000,1000,1000,1000,,,,,
52305736,1000,1000,1000,1000,,,,,
52308235,1000,1000,1000,1000,,,,,
52310734,1000,1000,1000,1000,,,,,
52313233,1000,1000,1000,1000,,,,,
52315732,1000,1000,1000,1000,,,,,
52318231,1000,1000,1000,1000,,,,,
52320730,1000,1000,1000,1000,,,,,
52323229,1000,1000,1000,1000,,,,,
52325728,1000,1000,1000,1000,,,,,
52328227,1000,1000,1000,1000,,,,,
52330726,1000,1000,1000,1000,,,,,
52333225,1000,1000,1000,1000,,,,,
52335724,1000,1000,1000,1000,,,,,
52338223,1000,1000,1000,1000,,,,,
52340722,1000,1000,1000,1000,,,,,
52343221,1000,1000,1000,1000,,,,,
52345720,1000,1000,1000,1000,,,,,
52348219,1000,1000,1000,1000,,,,,
52350718,1000,1000,1000,1000,,,,,
52353217,1000,1000,1000,1000,,,,,
52355716,1000,1000,1000,1000,,,,,
52358215,1000,1000,1000,1000,,,,,
52360714,1000,1000,1000,1000,,,,,
52363213,1000,1000,1000,1000,,,,,
52365712,1000,1000,1000,1000,,,,,
52368211,1000,1000,1000,1000,,,,,
52370710,1000,1000,1000,1000,,,,,
52373209,1000,1000,1000,1000,,,,,
52375708,1000,1000,1000,1000,,,,,
52378207,1000,1000,1000,1000,,,,,
52380706,1000,1000,1000,1000,,,,,
52383205,1000,1000,1000,1000,,,,,
52385704,1000,1000,1000,1000,,,,,
52388203,1000,1000,1000,1000,,,,,
52390702,1000,1000,1000,1000,,,,,
52393201,1000,1000,1000,1000,,,,,
52395700,1000,1000,1000,1000,,,,,
52398199,1000,1000,1000,1000,,,,,
52400698,1000,1000,1000,1000,,,,,
52403197,1000,1000,1000,1000,,,,,
52405696,1000,1000,1000,1000,,,,,
52408195,1000,1000,1000,1000,,,,,
52410694,1000,1000,1000,1000,,,,,
52413193,1000,1000,1000,1000,,,,,
52415692,1000,1000,1000,1000,,,,,
52418191,1000,1000,1000,1000,,,,,
52420690,1000,1000,1000,1000,,,,,
52423189,1000,1000,1000,1000,,,,,
52425688,1000,1000,1000,1000,,,,,
52428187,1000,1000,1000,1000,,,,,
52430686,1000,1000,1000,1000,,,,,
52433185,1000,1000,1000,1000,,,,,
52435684,1000,1000,1000,1000,,,,,
52438183,1000,1000,1000,1000,,,,,
52440682,1000,1000,1000,1000,,,,,
52443181,1000,1000,1000,1000,,,,,
52445680,1000,1000,1000,1000,,,,,
52448179,1000,1000,1000,1000,,,,,
52450678,1000,1000,1000,1000,,,,,
52453177,1000,1000,1000,1000,,,,,
52455676,1000,1000,1000,1000,,,,,
52458175,1000,1000,1000,1000,,,,,
52460674,1000,1000,1000,1000,,,,,
52463173,1000,1000,1000,1000,,,,,
52465672,1000,1000,1000,1000,,,,,
52468171,1001,1001,1001,1001,,,,,
52470670,1002,1002,1002,1002,,,,,
52473169,1003,1003,1003,1003,,,,,
52475668,1003,1003,1003,1003,,,,,
52478167,1004,1004,1004,1004,,,,,
52480666,1005,1005,1005,1005,,,,,
52483165,1006,1006,1006,1006,,,,,
52485664,1006,1006,1006,1006,,,,,
52488163,1007,1007,1007,1007,,,,,
52490662,1008,1008,1008,1008,,,,,
52493161,1009,1009,1009,1009,,,,,
52495660,1009,1009,1009,1009,,,,,
52498159,1010,1010,1010,1010,,,,,
52500658,1011,1011,1011,1011,,,,,
52503157,1012,1012,1012,1012,,,,,
52505656,1012,1012,1012,1012,,,,,
52508155,1013,1013,1013,1013,,,,,
52510654,1014,1014,1014,1014,,,,,
52513986,1015,1015,1015,1015,,,,,
52516485,1015,1015,1015,1015,,,,,
52518984,1016,1016,1016,1016,,,,,
52521483,1017,1017,1017,1017,,,,,
52523982,1018,1018,1018,1018,,,,,
52526481,1018,1018,1018,1018,,,,,
52528980,1019,1019,1019,1019,,,,,
52531479,1020,1020,1020,1020,,,,,
52533978,1021,1021,1021,1021,,,,,
52536477,1021,1021,1021,1021,,,,,
52538976,1022,1022,1022,1022,,,,,
52541475,1023,1023,1023,1023,,,,,
52543974,1024,1024,1024,1024,,,,,
52546473,1024,1024,1024,1024,,,,,
52548972,1025,1025,1025,1025,,,,,
52551471,1026,1026,1026,1026,,,,,
52553970,1027,1027,1027,1027,,,,,
52556469,1027,1027,1027,1027,,,,,
52558968,1028,1028,1028,1028,,,,,
52561467,1029,1029,1029,1029,,,,,
52563966,1030,1030,1030,1030,,,,,
52566465,1030,1030,1030,1030,,,,,
52568964,1031,1031,1031,1031,,,,,
52571463,1032,1032,1032,1032,,,,,
52573962,1033,1033,1033,1033,,,,,
52576461,1033,1033,1033,1033,,,,,
52578960,1034,1034,1034,1034,,,,,
52581459,1035,1035,1035,1035,,,,,
52583958,1036,1036,1036,1036,,,,,
52586457,1036,1036,1036,1036,,,,,
52588956,1037,1037,1037,1037,,,,,
52591455,1038,1038,1038,1038,,,,,
52593954,1039,1039,1039,1039,,,,,
52596453,1039,1039,1039,1039,,,,,
52598952,1040,1040,1040,1040,,,,,
52601451,1041,1041,1041,1041,,,,,
52603950,1042,1042,1042,1042,,,,,
52606449,1042,1042,1042,1042,,,,,
52608948,1043,1043,1043,1043,,,,,
52611447,1044,1044,1044,1044,,,,,
52613946,1045,1045,1045,1045,,,,,
52616445,1045,1045,1045,1045,,,,,
52618944,1046,1046,1046,1046,,,,,
52621443,1047,1047,1047,1047,,,,,
52623942,1048,1048,1048,1048,,,,,
52626441,1048,1048,1048,1048,,,,,
52628940,1049,1049,1049,1049,,,,,
52631439,1050,1050,1050,1050,,,,,
52633938,1051,1051,1051,1051,,,,,
52636437,1051,1051,1051,1051,,,,,
52638936,1052,1052,1052,1052,,,,,
52641435,1053,1053,1053,1053,,,,,
52643934,1054,1054,1054,1054,,,,,
52646433,1054,1054,1054,1054,,,,,
52648932,1055,1055,1055,1055,,,,,
52651431,1056,1056,1056,1056,,,,,
52653930,1057,1057,1057,1057,,,,,
52656429,1057,1057,1057,1057,,,,,
52658928,1058,1058,1058,1058,,,,,
52661427,1059,1059,1059,1059,,,,,
52663926,1060,1060,1060,1060,,,,,
52666425,1060,1060,1060,1060,,,,,
52668924,1061,1061,1061,1061,,,,,
52671423,1062,1062,1062,1062,,,,,
52673922,1063,1063,1063,1063,,,,,
52676421,1063,1063,1063,1063,,,,,
52678920,1064,1064,1064,1064,,,,,
52681419,1065,1065,1065,1065,,,,,
52683918,1066,1066,1066,1066,,,,,
52686417,1066,1066,1066,1066,,,,,
52688916,1067,1067,1067,1067,,,,,
52691415,1068,1068,1068,1068,,,,,
52693914,1069,1069,1069,1069,,,,,
52696413,1069,1069,1069,1069,,,,,
52698912,1070,1070,1070,1070,,,,,
52701411,1071,1071,1071,1071,,,,,
52703910,1072,1072,1072,1072,,,,,
52706409,1072,1072,1072,1072,,,,,
52708908,1073,1073,1073,1073,,,,,
52711407,1074,1074,1074,1074,,,,,
52713906,1075,1075,1075,1075,,,,,
52716405,1075,1075,1075,1075,,,,,
52718904,1076,1076,1076,1076,,,,,
52721403,1077,1077,1077,1077,,,,,
52723902,1078,1078,1078,1078,,,,,
52726401,1078,1078,1078,1078,,,,,
52728900,1079,1079,1079,1079,,,,,
52731399,1080,1080,1080,1080,,,,,
52733898,1081,1081,1081,1081,,,,,
52736397,1081,1081,1081,1081,,,,,
52738896,1082,1082,1082,1082,,,,,
52741395,1083,1083,1083,1083,,,,,
52743894,1084,1084,1084,1084,,,,,
52746393,1084,1084,1084,1084,,,,,
52748892,1085,1085,1085,1085,,,,,
52751391,1086,1086,1086,1086,,,,,
52753890,1087,1087,1087,1087,,,,,
52756389,1087,1087,1087,1087,,,,,
52758888,1088,1088,1088,1088,,,,,
52761387,1089,1089,1089,1089,,,,,
52763886,1090,1090,1090,1090,,,,,
52766385,1090,1090,1090,1090,,,,,
52768884,1091,1091,1091,1091,,,,,
52771383,1092,1092,1092,1092,,,,,
52773882,1093,1093,1093,1093,,,,,
52776381,1093,1093,1093,1093,,,,,
52778880,1094,1094,1094,1094,,,,,
52781379,1095,1095,1095,1095,,,,,
52783878,1096,1096,1096,1096,,,,,
52786377,1096,1096,1096,1096,,,,,
52788876,1097,1097,1097,1097,,,,,
52791375,1098,1098,1098,1098,,,,,
52793874,1099,1099,1099,1099,,,,,
52796373,1099,1099,1099,1099,,,,,
52798872,1100,1100,1100,1100,,,,,
52801371,1101,1101,1101,1101,,,,,
52803870,1101,1101,1101,1101,,,,,
52806369,1102,1102,1102,1102,,,,,
52808868,1103,1103,1103,1103,,,,,
52811367,1104,1104,1104,1104,,,,,
52813866,1104,1104,1104,1104,,,,,
52816365,1105,1105,1105,1105,,,,,
52818864,1106,1106,1106,1106,,,,,
52821363,1107,1107,1107,1107,,,,,
52823862,1107,1107,1107,1107,,,,,
52826361,1108,1108,1108,1108,,,,,
52828860,1109,1109,1109,1109,,,,,
52831359,1110,1110,1110,1110,,,,,
52833858,1110,1110,1110,1110,,,,,
52836357,1111,1111,1111,1111,,,,,
52838856,1112,1112,1112,1112,,,,,
52841355,1113,1113,1113,1113,,,,,
52843854,1113,1113,1113,1113,,,,,
52846353,1114,1114,1114,1114,,,,,
52848852,1115,1115,1115,1115,,,,,
52851351,1116,1116,1116,1116,,,,,
52853850,1116,1116,1116,1116,,,,,
52856349,1117,1117,1117,1117,,,,,
52858848,1118,1118,1118,1118,,,,,
52861347,1119,1119,1119,1119,,,,,
52863846,1119,1119,1119,1119,,,,,
52866345,1120,1120,1120,1120,,,,,
52868844,1121,1121,1121,1121,,,,,
52871343,1122,1122,1122,1122,,,,,
52873842,1122,1122,1122,1122,,,,,
52876341,1123,1123,1123,1123,,,,,
52878840,1124,1124,1124,1124,,,,,
52881339,1125,1125,1125,1125,,,,,
52883838,1125,1125,1125,1125,,,,,
52886337,1126,1126,1126,1126,,,,,
52888836,1127,1127,1127,1127,,,,,
52891335,1128,1128,1128,1128,,,,,
52893834,1128,1128,1128,1128,,,,,
52896333,1129,1129,1129,1129,,,,,
52898832,1130,1130,1130,1130,,,,,
52901331,1131,1131,1131,1131,,,,,
52903830,1131,1131,1131,1131,,,,,
52906329,1132,1132,1132,1132,,,,,
52908828,1133,1133,1133,1133,,,,,
52911327,1134,1134,1134,1134,,,,,
52913826,1134,1134,1134,1134,,,,,
52916325,1135,1135,1135,1135,,,,,
52918824,1136,1136,1136,1136,,,,,
52921323,1137,1137,1137,1137,,,,,
52923822,1137,1137,1137,1137,,,,,
52926321,1138,1138,1138,1138,,,,,
52928820,1139,1139,1139,1139,,,,,
52931319,1140,1140,1140,1140,,,,,
52933818,1140,1140,1140,1140,,,,,
52936317,1141,1141,1141,1141,,,,,
52938816,1142,1142,1142,1142,,,,,
52941315,1143,1143,1143,1143,,,,,
52943814,1143,1143,1143,1143,,,,,
52946313,1144,1144,1144,1144,,,,,
52948812,1145,1145,1145,1145,,,,,
52951311,1146,1146,1146,1146,,,,,
52953810,1146,1146,1146,1146,,,,,
52956309,1147,1147,1147,1147,,,,,
52958808,1148,1148,1148,1148,,,,,
52961307,1149,1149,1149,1149,,,,,
52963806,1149,1149,1149,1149,,,,,
52966305,1150,1150,1150,1150,,,,,
52968804,1162,1153,1154,1162,,,,,
52971303,1170,1161,1162,1170,,,,,
52973802,1177,1169,1170,1178,,,,,
52976301,1185,1177,1178,1185,,,,,
52978800,1193,1185,1186,1193,,,,,
52981299,1200,1192,1193,1200,,,,,
52983798,1207,1200,1201,1208,,,,,
52986297,1215,1207,1208,1215,,,,,
52988796,1222,1214,1215,1222,,,,,
52991295,1229,1222,1222,1229,,,,,
52993794,1236,1228,1229,1236,,,,,
52996293,1242,1235,1236,1243,,,,,
52998792,1249,1242,1243,1249,,,,,
53001291,1256,1249,1249,1256,,,,,
53003790,1262,1255,1256,1262,,,,,
53006289,1269,1262,1263,1269,,,,,
53008788,1275,1268,1269,1275,,,,,
53011287,1281,1275,1275,1281,,,,,
53013786,1287,1281,1282,1288,,,,,
53016285,1294,1287,1288,1294,,,,,
53018784,1300,1293,1294,1300,,,,,
53021283,1306,1299,1300,1306,,,,,
53023782,1312,1305,1306,1312,,,,,
53026281,1317,1311,1312,1318,,,,,
53028780,1323,1317,1318,1324,,,,,
53031279,1329,1323,1324,1329,,,,,
53033778,1335,1329,1329,1335,,,,,
53036277,1340,1334,1335,1341,,,,,
53038776,1346,1340,1341,1346,,,,,
53041275,1352,1346,1346,1352,,,,,
53043774,1357,1351,1352,1357,,,,,
53046273,1362,1357,1357,1363,,,,,
53048772,1368,1362,1363,1368,,,,,
53051271,1373,1368,1368,1373,,,,,
53053770,1378,1373,1373,1379,,,,,
53056269,1384,1378,1379,1384,,,,,
53058768,1389,1383,1384,1389,,,,,
53061267,1394,1389,1389,1394,,,,,
53063766,1399,1394,1394,1400,,,,,
53066265,1404,1399,1399,1405,,,,,
53068764,1409,1404,1404,1410,,,,,
53071263,1414,1409,1409,1415,,,,,
53073762,1419,1414,1414,1420,,,,,
53076261,1424,1419,1419,1425,,,,,
53078760,1429,1424,1424,1430,,,,,
53081259,1434,1429,1429,1434,,,,,
53083758,1439,1434,1434,1439,,,,,
53086257,1444,1439,1439,1444,,,,,
53088756,1449,1443,1444,1449,,,,,
53091255,1453,1448,1448,1454,,,,,
53093754,1458,1453,1453,1458,,,,,
53096253,1463,1458,1458,1463,,,,,
53098752,1467,1462,1463,1468,,,,,
53101251,1472,1467,1467,1472,,,,,
53103750,1477,1471,1472,1477,,,,,
53106249,1481,1476,1476,1481,,,,,
53108748,1486,1481,1481,1486,,,,,
53111247,1490,1485,1485,1490,,,,,
53113746,1495,1490,1490,1495,,,,,
53116245,1499,1494,1494,1499,,,,,
53118744,1504,1498,1499,1504,,,,,
53121243,1508,1503,1503,1508,,,,,
53123742,1512,1507,1508,1513,,,,,
53126241,1517,1512,1512,1517,,,,,
53128740,1521,1516,1516,1521,,,,,
53131239,1525,1520,1521,1526,,,,,
53133738,1530,1525,1525,1530,,,,,
53136237,1534,1529,1529,1534,,,,,
53138736,1538,1533,1533,1538,,,,,
53141235,1542,1537,1538,1542,,,,,
53143734,1546,1541,1542,1547,,,,,
53146233,1551,1546,1546,1551,,,,,
53148732,1555,1550,1550,1555,,,,,
53151231,1559,1554,1554,1559,,,,,
53153730,1563,1558,1558,1563,,,,,
53156229,1567,1562,1562,1567,,,,,
53158728,1571,1566,1566,1571,,,,,
53161227,1575,1570,1571,1575,,,,,
53163726,1579,1574,1575,1579,,,,,
53166225,1583,1578,1579,1583,,,,,
53168724,1587,1582,1583,1587,,,,,
53171223,1591,1586,1587,1591,,,,,
53173722,1595,1590,1590,1595,,,,,
53176221,1599,1594,1594,1599,,,,,
53178720,1603,1598,1598,1603,,,,,
53181219,1607,1602,1602,1607,,,,,
53183718,1611,1606,1606,1611,,,,,
53186217,1615,1610,1610,1615,,,,,
53188716,1618,1613,1614,1619,,,,,
53191215,1622,1617,1618,1622,,,,,
53193714,1626,1621,1621,1626,,,,,
53196213,1630,1625,1625,1630,,,,,
53198712,1634,1629,1629,1634,,,,,
53201211,1637,1632,1633,1637,,,,,
53203710,1641,1636,1636,1641,,,,,
53206209,1645,1640,1640,1645,,,,,
53208708,1648,1644,1644,1649,,,,,
53211207,1652,1647,1648,1652,,,,,
53213706,1656,1651,1651,1656,,,,,
53216205,1659,1655,1655,1660,,,,,
53218704,1663,1658,1659,1663,,,,,
53221203,1667,1662,1662,1667,,,,,
53223702,1670,1666,1666,1671,,,,,
53226201,1674,1669,1669,1674,,,,,
53228700,1677,1673,1673,1678,,,,,
53231199,1681,1676,1677,1681,,,,,
53233698,1685,1680,1680,1685,,,,,
53236197,1688,1684,1684,1688,,,,,
53238696,1692,1687,1687,1692,,,,,
53241195,1695,1691,1691,1695,,,,,
53243694,1699,1694,1694,1699,,,,,
53246193,1702,1698,1698,1702,,,,,
53248692,1706,1701,1701,1706,,,,,
53251191,1709,1705,1705,1709,,,,,
53253690,1713,1708,1708,1713,,,,,
53256189,1716,1712,1712,1716,,,,,
53258688,1719,1715,1715,1720,,,,,
53261187,1723,1718,1719,1723,,,,,
53263686,1726,1722,1722,1727,,,,,
53266185,1730,1725,1725,1730,,,,,
53268684,1733,1729,1729,1733,,,,,
53271183,1736,1732,1732,1737,,,,,
53273682,1740,1735,1736,1740,,,,,
53276181,1743,1739,1739,1744,,,,,
53278680,1746,1742,1742,1747,,,,,
53281179,1750,1746,1746,1750,,,,,
53283678,1753,1749,1749,1754,,,,,
53286177,1756,1752,1752,1757,,,,,
53288676,1760,1756,1755,1760,,,,,
53291175,1763,1759,1759,1763,,,,,
53293674,1766,1762,1762,1767,,,,,
53296173,1769,1765,1765,1770,,,,,
53298672,1773,1769,1768,1773,,,,,
53301171,1776,1772,1772,1776,,,,,
53303670,1779,1775,1775,1780,,,,,
53306169,1782,1778,1778,1783,,,,,
53308668,1786,1782,1781,1786,,,,,
53311167,1789,1785,1785,1789,,,,,
53313666,1792,1788,1788,1793,,,,,
53316165,1795,1791,1791,1796,,,,,
53318664,1798,1794,1794,1799,,,,,
53321163,1802,1797,1797,1802,,,,,
53323662,1805,1801,1800,1805,,,,,
53326161,1808,1804,1804,1808,,,,,
53328660,1811,1807,1807,1812,,,,,
53331159,1814,1810,1810,1815,,,,,
53333658,1817,1813,1813,1818,,,,,
53336157,1820,1816,1816,1821,,,,,
53338656,1823,1819,1819,1824,,,,,
53341155,1827,1822,1822,1827,,,,,
53343654,1830,1825,1825,1830,,,,,
53346153,1833,1829,1829,1833,,,,,
53348652,1836,1832,1832,1836,,,,,
53351151,1839,1835,1835,1839,,,,,
53353650,1842,1838,1838,1842,,,,,
53356149,1845,1841,1841,1845,,,,,
53358648,1848,1844,1844,1848,,,,,
53361147,1851,1847,1847,1852,,,,,
53363646,1854,1850,1850,1855,,,,,
53366145,1857,1853,1853,1858,,,,,
53368644,1860,1856,1856,1861,,,,,
53371143,1863,1859,1859,1864,,,,,
53373642,1866,1862,1862,1867,,,,,
53376141,1869,1865,1865,1870,,,,,
53378640,1872,1868,1868,1873,,,,,
53381139,1875,1871,1871,1876,,,,,
53383638,1878,1874,1873,1878,,,,,
53386137,1881,1877,1876,1881,,,,,
53388636,1884,1880,1879,1884,,,,,
53391135,1887,1883,1882,1887,,,,,
53393634,1890,1885,1885,1890,,,,,
53396133,1892,1888,1888,1893,,,,,
53398632,1895,1891,1891,1896,,,,,
53401131,1898,1894,1894,1899,,,,,
53403630,1901,1897,1897,1902,,,,,
53406129,1904,1900,1900,1905,,,,,
53408628,1907,1903,1902,1908,,,,,
53411127,1910,1906,1905,1911,,,,,
53413626,1911,1907,1907,1912,,,,,
53416125,1911,1907,1906,1911,,,,,
53418624,1910,1906,1905,1911,,,,,
53421123,1909,1905,1905,1910,,,,,
53423622,1908,1904,1904,1909,,,,,
53426121,1907,1903,1903,1908,,,,,
53428620,1907,1903,1902,1908,,,,,
53431119,1906,1902,1902,1907,,,,,
53433618,1905,1901,1901,1906,,,,,
53436117,1905,1901,1900,1906,,,,,
53438616,1904,1900,1900,1905,,,,,
53441115,1904,1900,1899,1904,,,,,
53443614,1903,1899,1899,1904,,,,,
53446113,1903,1899,1898,1904,,,,,
53448612,1903,1898,1898,1903,,,,,
53451111,1902,1898,1898,1903,,,,,
53453610,1902,1898,1898,1903,,,,,
53456109,1902,1898,1898,1903,,,,,
53458608,1902,1898,1898,1903,,,,,
53461107,1902,1898,1898,1903,,,,,
53463606,1902,1898,1898,1903,,,,,
53466105,1902,1898,1898,1902,,,,,
53468604,1902,1898,1898,1902,,,,,
53471103,1901,1898,1898,1902,,,,,
53473602,1901,1898,1898,1902,,,,,
53476101,1901,1897,1897,1901,,,,,
53478600,1900,1897,1897,1901,,,,,
53481099,1899,1896,1896,1900,,,,,
53483598,1899,1895,1895,1899,,,,,
53486097,1898,1894,1894,1898,,,,,
53488596,1896,1893,1893,1897,,,,,
53491095,1895,1892,1892,1896,,,,,
53493594,1894,1891,1891,1894,,,,,
53496093,1892,1889,1889,1892,,,,,
53498592,1890,1887,1887,1891,,,,,
53501091,1888,1885,1885,1889,,,,,
53503590,1886,1884,1883,1887,,,,,
53506089,1884,1881,1881,1885,,,,,
53508588,1882,1879,1879,1882,,,,,
53511087,1879,1877,1877,1880,,,,,
53513586,1877,1875,1875,1878,,,,,
53516085,1875,1872,1872,1875,,,,,
53518584,1872,1869,1869,1872,,,,,
53521083,1869,1867,1867,1870,,,,,
53523582,1866,1864,1864,1867,,,,,
53526081,1864,1861,1861,1864,,,,,
53528580,1861,1858,1858,1861,,,,,
53531079,1858,1856,1855,1858,,,,,
53533578,1855,1853,1853,1855,,,,,
53536077,1851,1850,1849,1852,,,,,
53538576,1848,1847,1846,1849,,,,,
53541075,1845,1843,1843,1846,,,,,
53543574,1842,1840,1840,1842,,,,,
53546073,1838,1837,1837,1839,,,,,
53548572,1835,1834,1834,1836,,,,,
53551071,1832,1830,1830,1832,,,,,
53553570,1828,1827,1827,1829,,,,,
53556069,1825,1824,1824,1825,,,,,
53558568,1821,1820,1820,1822,,,,,
53561067,1818,1817,1817,1818,,,,,
53563566,1814,1813,1813,1815,,,,,
53566065,1811,1810,1810,1811,,,,,
53568564,1807,1806,1806,1808,,,,,
53571063,1804,1803,1803,1804,,,,,
53573562,1800,1799,1800,1801,,,,,
53576061,1797,1796,1796,1797,,,,,
53578560,1794,1792,1793,1794,,,,,
53581059,1790,1789,1789,1790,,,,,
53583558,1787,1786,1786,1787,,,,,
53586057,1783,1782,1783,1783,,,,,
53588556,1780,1779,1780,1780,,,,,
53591055,1777,1776,1776,1776,,,,,
53593554,1773,1772,1773,1773,,,,,
53596053,1770,1769,1770,1770,,,,,
53598552,1767,1766,1766,1766,,,,,
53601051,1763,1763,1763,1763,,,,,
53603550,1760,1759,1760,1760,,,,,
53606049,1757,1756,1757,1757,,,,,
53608548,1754,1753,1754,1753,,,,,
53611047,1750,1750,1751,1750,,,,,
53613546,1747,1747,1748,1747,,,,,
53616045,1744,1744,1744,1744,,,,,
53618544,1741,1741,1741,1741,,,,,
53621043,1738,1738,1738,1738,,,,,
53623542,1735,1735,1735,1735,,,,,
53626041,1732,1732,1732,1732,,,,,
53628540,1729,1729,1729,1729,,,,,
53631039,1726,1726,1727,1726,,,,,
53633538,1723,1723,1724,1723,,,,,
53636037,1720,1720,1721,1720,,,,,
53638536,1717,1717,1718,1717,,,,,
53641035,1715,1714,1715,1714,,,,,
53643534,1712,1712,1713,1711,,,,,
53646033,1709,1709,1710,1708,,,,,
53648532,1706,1706,1707,1706,,,,,
53651031,1703,1703,1704,1703,,,,,
53653530,1701,1701,1702,1700,,,,,
53656029,1698,1698,1699,1698,,,,,
53658528,1696,1696,1697,1695,,,,,
