timestamp,TimeUS,C1,C2,C3,C4,C5,C6,C7,C8,C9,C10,C11,C12,C13,C14
1683203540.90003991,46328961,1000,1000,1000,1000,0,0,0,0,0,0,0,0,0,0
1683203541.00000000,46428921,1000,1000,1000,1000,0,0,0,0,0,0,0,0,0,0
1683203541.09996009,46528881,1000,1000,1000,1000,0,0,0,0,0,0,0,0,0,0
1683203541.19991994,46628841,1000,1000,1000,1000,0,0,0,0,0,0,0,0,0,0
1683203541.29988003,46728801,1000,1000,1000,1000,0,0,0,0,0,0,0,0,0,0
1683203541.39984012,46828761,1000,1000,1000,1000,0,0,0,0,0,0,0,0,0,0
1683203541.49979997,46928721,1000,1000,1000,1000,0,0,0,0,0,0,0,0,0,0
1683203541.59976006,47028681,1000,1000,1000,1000,0,0,0,0,0,0,0,0,0,0
1683203541.69971991,47128641,1000,1000,1000,1000,0,0,0,0,0,0,0,0,0,0
1683203541.79967999,47228601,1000,1000,1000,1000,0,0,0,0,0,0,0,0,0,0
1683203541.89964008,47328561,1000,1000,1000,1000,0,0,0,0,0,0,0,0,0,0
1683203541.99959993,47428521,1000,1000,1000,1000,0,0,0,0,0,0,0,0,0,0
1683203542.09956002,47528481,1000,1000,1000,1000,0,0,0,0,0,0,0,0,0,0
1683203542.19952011,47628441,1000,1000,1000,1000,0,0,0,0,0,0,0,0,0,0
1683203542.29947996,47728401,1000,1000,1000,1000,0,0,0,0,0,0,0,0,0,0
1683203542.39944005,47828361,1000,1000,1000,1000,0,0,0,0,0,0,0,0,0,0
1683203542.49939990,47928321,1000,1000,1000,1000,0,0,0,0,0,0,0,0,0,0
1683203542.59935999,48028281,1000,1000,1000,1000,0,0,0,0,0,0,0,0,0,0
1683203542.69932008,48128241,1000,1000,1000,1000,0,0,0,0,0,0,0,0,0,0
1683203542.79927993,48228201,1000,1000,1000,1000,0,0,0,0,0,0,0,0,0,0
1683203542.89924002,48328161,1003,1003,1003,1003,0,0,0,0,0,0,0,0,0,0
1683203543.00003290,48428954,1033,1033,1033,1033,0,0,0,0,0,0,0,0,0,0
1683203543.09999299,48528914,1063,1063,1063,1063,0,0,0,0,0,0,0,0,0,0
1683203543.19995308,48628874,1093,1093,1093,1093,0,0,0,0,0,0,0,0,0,0
1683203543.29991293,48728834,1122,1122,1122,1122,0,0,0,0,0,0,0,0,0,0
1683203543.39987302,48828794,1177,1170,1171,1177,0,0,0,0,0,0,0,0,0,0
1683203543.49983311,48928754,1419,1414,1415,1419,0,0,0,0,0,0,0,0,0,0
1683203543.59979296,49028714,1595,1591,1591,1595,0,0,0,0,0,0,0,0,0,0
1683203543.69975305,49128674,1739,1736,1736,1740,0,0,0,0,0,0,0,0,0,0
1683203543.79971313,49228634,1865,1862,1862,1866,0,0,0,0,0,0,0,0,0,0
1683203543.89967299,49328594,1891,1889,1888,1892,0,0,0,0,0,0,0,0,0,0
1683203543.99963307,49428554,1797,1797,1797,1798,0,0,0,0,0,0,0,0,0,0
1683203544.09959292,49528514,1676,1676,1677,1676,0,0,0,0,0,0,0,0,0,0
1683203544.19955301,49628474,1623,1624,1624,1622,0,0,0,0,0,0,0,0,0,0
1683203544.29951310,49728434,1620,1621,1621,1620,0,0,0,0,0,0,0,0,0,0
1683203544.39947295,49828394,1632,1632,1632,1631,0,0,0,0,0,0,0,0,0,0
1683203544.49943304,49928354,1633,1633,1633,1633,0,0,0,0,0,0,0,0,0,0
1683203544.59939313,50028314,1628,1628,1628,1628,0,0,0,0,0,0,0,0,0,0
1683203544.69935298,50128274,1620,1621,1620,1621,0,0,0,0,0,0,0,0,0,0
1683203544.79931307,50228234,1615,1614,1614,1615,0,0,0,0,0,0,0,0,0,0
1683203544.89927292,50328194,1612,1611,1612,1612,0,0,0,0,0,0,0,0,0,0
1683203544.99923301,50428154,1613,1613,1612,1613,0,0,0,0,0,0,0,0,0,0
1683203545.10002613,50528947,1614,1614,1614,1615,0,0,0,0,0,0,0,0,0,0
1683203545.19998598,50628907,1616,1616,1616,1616,0,0,0,0,0,0,0,0,0,0
1683203545.29994607,50728867,1617,1617,1618,1617,0,0,0,0,0,0,0,0,0,0
1683203545.39990592,50828827,1619,1619,1619,1618,0,0,0,0,0,0,0,0,0,0
1683203545.49986601,50928787,1591,1591,1591,1591,0,0,0,0,0,0,0,0,0,0
1683203545.59982610,51028747,1577,1577,1576,1577,0,0,0,0,0,0,0,0,0,0
1683203545.69978595,51128707,1565,1565,1564,1566,0,0,0,0,0,0,0,0,0,0
1683203545.79974604,51228667,1556,1555,1554,1556,0,0,0,0,0,0,0,0,0,0
1683203545.89970613,51328627,1545,1546,1545,1546,0,0,0,0,0,0,0,0,0,0
1683203545.99966598,51428587,1536,1537,1536,1537,0,0,0,0,0,0,0,0,0,0
1683203546.09962606,51528547,1527,1527,1527,1528,0,0,0,0,0,0,0,0,0,0
1683203546.19958591,51628507,1517,1517,1517,1517,0,0,0,0,0,0,0,0,0,0
1683203546.29954600,51728467,1512,1512,1512,1513,0,0,0,0,0,0,0,0,0,0
1683203546.39950609,51828427,1508,1509,1508,1509,0,0,0,0,0,0,0,0,0,0
1683203546.49946594,51928387,1509,1509,1509,1509,0,0,0,0,0,0,0,0,0,0
1683203546.59942603,52028347,1508,1507,1507,1508,0,0,0,0,0,0,0,0,0,0
1683203546.69938612,52128307,1506,1506,1506,1507,0,0,0,0,0,0,0,0,0,0
1683203546.79934597,52228267,1506,1507,1506,1507,0,0,0,0,0,0,0,0,0,0
1683203546.89930606,52328227,1507,1507,1506,1507,0,0,0,0,0,0,0,0,0,0
1683203546.99926591,52428187,1507,1508,1507,1507,0,0,0,0,0,0,0,0,0,0
1683203547.10005903,52528980,1514,1514,1514,1514,0,0,0,0,0,0,0,0,0,0
1683203547.20001912,52628940,1539,1538,1545,1532,0,0,0,0,0,0,0,0,0,0
1683203547.29997897,52728900,1548,1547,1552,1544,0,0,0,0,0,0,0,0,0,0
1683203547.39993906,52828860,1555,1555,1554,1555,0,0,0,0,0,0,0,0,0,0
1683203547.49989891,52928820,1560,1559,1556,1563,0,0,0,0,0,0,0,0,0,0
1683203547.59985900,53028780,1563,1562,1558,1567,0,0,0,0,0,0,0,0,0,0
1683203547.69981909,53128740,1564,1564,1560,1568,0,0,0,0,0,0,0,0,0,0
1683203547.79977894,53228700,1567,1568,1565,1570,0,0,0,0,0,0,0,0,0,0
1683203547.89973903,53328660,1568,1568,1569,1567,0,0,0,0,0,0,0,0,0,0
1683203547.99969912,53428620,1570,1570,1573,1567,0,0,0,0,0,0,0,0,0,0
1683203548.09965897,53528580,1571,1571,1574,1568,0,0,0,0,0,0,0,0,0,0
1683203548.19961905,53628540,1572,1572,1574,1569,0,0,0,0,0,0,0,0,0,0
1683203548.29957891,53728500,1571,1570,1571,1570,0,0,0,0,0,0,0,0,0,0
1683203548.39953899,53828460,1570,1569,1569,1570,0,0,0,0,0,0,0,0,0,0
1683203548.49949908,53928420,1564,1563,1571,1575,0,0,0,0,0,0,0,0,0,0
1683203548.59945893,54028380,1564,1564,1573,1576,0,0,0,0,0,0,0,0,0,0
1683203548.69941902,54128340,1563,1564,1570,1573,0,0,0,0,0,0,0,0,0,0
1683203548.79937911,54228300,1566,1567,1570,1571,0,0,0,0,0,0,0,0,0,0
1683203548.89933896,54328260,1568,1569,1569,1569,0,0,0,0,0,0,0,0,0,0
1683203548.99929905,54428220,1570,1570,1568,1567,0,0,0,0,0,0,0,0,0,0
1683203549.09925890,54528180,1572,1572,1568,1567,0,0,0,0,0,0,0,0,0,0
1683203549.20005202,54628973,1573,1573,1568,1567,0,0,0,0,0,0,0,0,0,0
1683203549.30001211,54728933,1573,1573,1567,1567,0,0,0,0,0,0,0,0,0,0
1683203549.39997196,54828893,1573,1573,1567,1567,0,0,0,0,0,0,0,0,0,0
1683203549.49993205,54928853,1573,1573,1568,1568,0,0,0,0,0,0,0,0,0,0
1683203549.59989190,55028813,1574,1574,1570,1570,0,0,0,0,0,0,0,0,0,0
1683203549.69985199,55128773,1574,1574,1571,1572,0,0,0,0,0,0,0,0,0,0
1683203549.79981208,55228733,1573,1574,1573,1573,0,0,0,0,0,0,0,0,0,0
1683203549.89977193,55328693,1573,1573,1574,1572,0,0,0,0,0,0,0,0,0,0
1683203549.99973202,55428653,1574,1574,1576,1574,0,0,0,0,0,0,0,0,0,0
1683203550.09969211,55528613,1574,1574,1577,1576,0,0,0,0,0,0,0,0,0,0
1683203550.19965196,55628573,1575,1575,1578,1577,0,0,0,0,0,0,0,0,0,0
1683203550.29961205,55728533,1576,1576,1578,1578,0,0,0,0,0,0,0,0,0,0
1683203550.39957213,55828493,1575,1576,1577,1577,0,0,0,0,0,0,0,0,0,0
1683203550.49953198,55928453,1577,1576,1578,1578,0,0,0,0,0,0,0,0,0,0
1683203550.59949207,56028413,1577,1577,1578,1578,0,0,0,0,0,0,0,0,0,0
1683203550.69945192,56128373,1576,1576,1577,1577,0,0,0,0,0,0,0,0,0,0
1683203550.79941201,56228333,1577,1577,1577,1577,0,0,0,0,0,0,0,0,0,0
1683203550.89937210,56328293,1577,1578,1577,1577,0,0,0,0,0,0,0,0,0,0
1683203550.99933195,56428253,1578,1578,1578,1578,0,0,0,0,0,0,0,0,0,0
1683203551.09929204,56528213,1578,1578,1577,1577,0,0,0,0,0,0,0,0,0,0
1683203551.19925213,56628173,1577,1578,1577,1576,0,0,0,0,0,0,0,0,0,0
1683203551.30004501,56728966,1578,1578,1577,1577,0,0,0,0,0,0,0,0,0,0
1683203551.40000510,56828926,1579,1579,1578,1578,0,0,0,0,0,0,0,0,0,0
1683203551.49996495,56928886,1578,1578,1577,1578,0,0,0,0,0,0,0,0,0,0
1683203551.59992504,57028846,1578,1578,1578,1578,0,0,0,0,0,0,0,0,0,0
1683203551.69988513,57128806,1578,1578,1577,1578,0,0,0,0,0,0,0,0,0,0
1683203551.79984498,57228766,1578,1578,1578,1578,0,0,0,0,0,0,0,0,0,0
1683203551.89980507,57328726,1579,1579,1579,1579,0,0,0,0,0,0,0,0,0,0
1683203551.99976492,57428686,1578,1578,1579,1579,0,0,0,0,0,0,0,0,0,0
1683203552.09972501,57528646,1578,1579,1579,1579,0,0,0,0,0,0,0,0,0,0
1683203552.19968510,57628606,1579,1580,1580,1580,0,0,0,0,0,0,0,0,0,0
1683203552.29964495,57728566,1579,1579,1580,1580,0,0,0,0,0,0,0,0,0,0
1683203552.39960504,57828526,1579,1579,1580,1579,0,0,0,0,0,0,0,0,0,0
1683203552.49956512,57928486,1580,1579,1579,1580,0,0,0,0,0,0,0,0,0,0
1683203552.59952497,58028446,1579,1579,1579,1579,0,0,0,0,0,0,0,0,0,0
1683203552.69948506,58128406,1579,1579,1579,1579,0,0,0,0,0,0,0,0,0,0
1683203552.79944491,58228366,1581,1580,1580,1580,0,0,0,0,0,0,0,0,0,0
1683203552.89940500,58328326,1580,1580,1580,1580,0,0,0,0,0,0,0,0,0,0
1683203552.99936509,58428286,1581,1581,1581,1581,0,0,0,0,0,0,0,0,0,0
1683203553.09932494,58528246,1580,1581,1580,1581,0,0,0,0,0,0,0,0,0,0
1683203553.19928503,58628206,1580,1581,1581,1581,0,0,0,0,0,0,0,0,0,0
1683203553.29924512,58728166,1581,1581,1581,1581,0,0,0,0,0,0,0,0,0,0
1683203553.40003800,58828959,1581,1581,1581,1581,0,0,0,0,0,0,0,0,0,0
1683203553.49999809,58928919,1581,1581,1582,1581,0,0,0,0,0,0,0,0,0,0
1683203553.59995794,59028879,1580,1580,1580,1581,0,0,0,0,0,0,0,0,0,0
1683203553.69991803,59128839,1581,1581,1581,1581,0,0,0,0,0,0,0,0,0,0
1683203553.79987812,59228799,1580,1580,1580,1580,0,0,0,0,0,0,0,0,0,0
1683203553.89983797,59328759,1580,1580,1580,1580,0,0,0,0,0,0,0,0,0,0
1683203553.99979806,59428719,1580,1580,1580,1580,0,0,0,0,0,0,0,0,0,0
1683203554.09975791,59528679,1580,1580,1580,1580,0,0,0,0,0,0,0,0,0,0
1683203554.19971800,59628639,1580,1581,1581,1580,0,0,0,0,0,0,0,0,0,0
1683203554.29967809,59728599,1581,1581,1580,1581,0,0,0,0,0,0,0,0,0,0
1683203554.39963794,59828559,1581,1581,1581,1581,0,0,0,0,0,0,0,0,0,0
1683203554.49959803,59928519,1581,1581,1581,1581,0,0,0,0,0,0,0,0,0,0
1683203554.59955812,60028479,1581,1581,1581,1581,0,0,0,0,0,0,0,0,0,0
1683203554.69951797,60128439,1581,1581,1583,1579,0,0,0,0,0,0,0,0,0,0
1683203554.79947805,60228399,1581,1582,1588,1573,0,0,0,0,0,0,0,0,0,0
1683203554.89943790,60328359,1579,1582,1583,1573,0,0,0,0,0,0,0,0,0,0
1683203554.99939799,60428319,1578,1581,1574,1573,0,0,0,0,0,0,0,0,0,0
1683203555.09935808,60528279,1576,1579,1565,1570,0,0,0,0,0,0,0,0,0,0
1683203555.19931793,60628239,1577,1579,1560,1567,0,0,0,0,0,0,0,0,0,0
1683203555.29927802,60728199,1578,1578,1557,1563,0,0,0,0,0,0,0,0,0,0
1683203555.39923811,60828159,1580,1578,1556,1559,0,0,0,0,0,0,0,0,0,0
1683203555.50003099,60928952,1580,1577,1556,1556,0,0,0,0,0,0,0,0,0,0
1683203555.59999108,61028912,1579,1578,1557,1554,0,0,0,0,0,0,0,0,0,0
1683203555.69995093,61128872,1578,1578,1557,1555,0,0,0,0,0,0,0,0,0,0
1683203555.79991102,61228832,1576,1578,1556,1554,0,0,0,0,0,0,0,0,0,0
1683203555.89987111,61328792,1575,1577,1556,1554,0,0,0,0,0,0,0,0,0,0
1683203555.99983096,61428752,1575,1576,1554,1554,0,0,0,0,0,0,0,0,0,0
1683203556.09979105,61528712,1576,1577,1554,1554,0,0,0,0,0,0,0,0,0,0
1683203556.19975090,61628672,1575,1577,1552,1552,0,0,0,0,0,0,0,0,0,0
1683203556.29971099,61728632,1578,1578,1550,1551,0,0,0,0,0,0,0,0,0,0
1683203556.39967108,61828592,1579,1579,1547,1547,0,0,0,0,0,0,0,0,0,0
1683203556.49963093,61928552,1581,1582,1545,1545,0,0,0,0,0,0,0,0,0,0
1683203556.59959102,62028512,1584,1585,1543,1542,0,0,0,0,0,0,0,0,0,0
1683203556.69955111,62128472,1588,1589,1540,1540,0,0,0,0,0,0,0,0,0,0
1683203556.79951096,62228432,1591,1591,1538,1537,0,0,0,0,0,0,0,0,0,0
1683203556.89947104,62328392,1593,1593,1535,1536,0,0,0,0,0,0,0,0,0,0
1683203556.99943113,62428352,1595,1595,1534,1535,0,0,0,0,0,0,0,0,0,0
1683203557.09939098,62528312,1596,1596,1536,1537,0,0,0,0,0,0,0,0,0,0
1683203557.19935107,62628272,1594,1595,1537,1539,0,0,0,0,0,0,0,0,0,0
1683203557.29931092,62728232,1591,1591,1539,1542,0,0,0,0,0,0,0,0,0,0
1683203557.39927101,62828192,1588,1586,1545,1548,0,0,0,0,0,0,0,0,0,0
1683203557.50006413,62928985,1582,1579,1554,1557,0,0,0,0,0,0,0,0,0,0
1683203557.60002398,63028945,1574,1570,1564,1567,0,0,0,0,0,0,0,0,0,0
1683203557.69998407,63128905,1563,1559,1576,1578,0,0,0,0,0,0,0,0,0,0
1683203557.79994392,63228865,1552,1549,1588,1589,0,0,0,0,0,0,0,0,0,0
1683203557.89990401,63328825,1542,1540,1600,1599,0,0,0,0,0,0,0,0,0,0
1683203557.99986410,63428785,1535,1534,1609,1608,0,0,0,0,0,0,0,0,0,0
1683203558.09982395,63528745,1530,1531,1614,1613,0,0,0,0,0,0,0,0,0,0
1683203558.19978404,63628705,1528,1530,1615,1614,0,0,0,0,0,0,0,0,0,0
1683203558.29974413,63728665,1532,1533,1614,1612,0,0,0,0,0,0,0,0,0,0
1683203558.39970398,63828625,1537,1540,1608,1609,0,0,0,0,0,0,0,0,0,0
1683203558.49966407,63928585,1545,1547,1602,1602,0,0,0,0,0,0,0,0,0,0
1683203558.59962392,64028545,1553,1555,1594,1595,0,0,0,0,0,0,0,0,0,0
1683203558.69958401,64128505,1563,1564,1588,1587,0,0,0,0,0,0,0,0,0,0
1683203558.79954410,64228465,1571,1571,1581,1580,0,0,0,0,0,0,0,0,0,0
1683203558.89950395,64328425,1578,1577,1574,1574,0,0,0,0,0,0,0,0,0,0
1683203558.99946404,64428385,1583,1582,1570,1570,0,0,0,0,0,0,0,0,0,0
1683203559.09942412,64528345,1587,1586,1568,1568,0,0,0,0,0,0,0,0,0,0
1683203559.19938397,64628305,1589,1588,1567,1567,0,0,0,0,0,0,0,0,0,0
1683203559.29934406,64728265,1588,1587,1567,1568,0,0,0,0,0,0,0,0,0,0
1683203559.39930391,64828225,1586,1585,1568,1568,0,0,0,0,0,0,0,0,0,0
1683203559.49926400,64928185,1583,1583,1571,1571,0,0,0,0,0,0,0,0,0,0
1683203559.60005713,65028978,1580,1580,1573,1574,0,0,0,0,0,0,0,0,0,0
1683203559.70001698,65128938,1578,1578,1577,1577,0,0,0,0,0,0,0,0,0,0
1683203559.79997706,65228898,1574,1575,1579,1579,0,0,0,0,0,0,0,0,0,0
1683203559.89993691,65328858,1573,1574,1581,1581,0,0,0,0,0,0,0,0,0,0
1683203559.99989700,65428818,1573,1573,1583,1583,0,0,0,0,0,0,0,0,0,0
1683203560.09985709,65528778,1573,1573,1584,1584,0,0,0,0,0,0,0,0,0,0
1683203560.19981694,65628738,1572,1572,1583,1583,0,0,0,0,0,0,0,0,0,0
1683203560.29977703,65728698,1574,1574,1583,1583,0,0,0,0,0,0,0,0,0,0
1683203560.39973712,65828658,1574,1574,1581,1581,0,0,0,0,0,0,0,0,0,0
1683203560.49969697,65928618,1575,1576,1580,1581,0,0,0,0,0,0,0,0,0,0
1683203560.59965706,66028578,1579,1579,1581,1581,0,0,0,0,0,0,0,0,0,0
1683203560.69961691,66128538,1245,1245,1593,1594,0,0,0,0,0,0,0,0,0,0
1683203560.79957700,66228498,1358,1363,1653,1661,0,0,0,0,0,0,0,0,0,0
1683203560.89953709,66328458,1429,1440,1649,1650,0,0,0,0,0,0,0,0,0,0
1683203560.99949694,66428418,1494,1504,1637,1630,0,0,0,0,0,0,0,0,0,0
1683203561.09945703,66528378,1545,1549,1628,1617,0,0,0,0,0,0,0,0,0,0
1683203561.19941711,66628338,1587,1577,1620,1609,0,0,0,0,0,0,0,0,0,0
1683203561.29937696,66728298,1600,1581,1564,1563,0,0,0,0,0,0,0,0,0,0
1683203561.39933705,66828258,1600,1584,1495,1506,0,0,0,0,0,0,0,0,0,0
1683203561.49929690,66928218,1600,1593,1479,1495,0,0,0,0,0,0,0,0,0,0
1683203561.59925699,67028178,1596,1600,1497,1506,0,0,0,0,0,0,0,0,0,0
1683203561.70005012,67128971,1590,1600,1515,1516,0,0,0,0,0,0,0,0,0,0
1683203561.80000997,67228931,1590,1600,1535,1530,0,0,0,0,0,0,0,0,0,0
1683203561.89997005,67328891,1594,1600,1552,1547,0,0,0,0,0,0,0,0,0,0
1683203561.99992990,67428851,1599,1600,1566,1562,0,0,0,0,0,0,0,0,0,0
1683203562.09988999,67528811,1600,1596,1569,1568,0,0,0,0,0,0,0,0,0,0
1683203562.19985008,67628771,1600,1595,1571,1574,0,0,0,0,0,0,0,0,0,0
1683203562.29980993,67728731,1600,1596,1575,1578,0,0,0,0,0,0,0,0,0,0
1683203562.39977002,67828691,1600,1594,1581,1575,0,0,0,0,0,0,0,0,0,0
1683203562.49973011,67928651,1600,1593,1584,1580,0,0,0,0,0,0,0,0,0,0
1683203562.59968996,68028611,1600,1595,1586,1585,0,0,0,0,0,0,0,0,0,0
1683203562.69965005,68128571,1600,1597,1587,1588,0,0,0,0,0,0,0,0,0,0
1683203562.79960990,68228531,1600,1596,1586,1588,0,0,0,0,0,0,0,0,0,0
1683203562.89956999,68328491,1600,1599,1586,1589,0,0,0,0,0,0,0,0,0,0
1683203562.99953008,68428451,1597,1600,1584,1588,0,0,0,0,0,0,0,0,0,0
1683203563.09948993,68528411,1593,1600,1582,1585,0,0,0,0,0,0,0,0,0,0
1683203563.19945002,68628371,1593,1600,1583,1582,0,0,0,0,0,0,0,0,0,0
1683203563.29941010,68728331,1594,1600,1586,1582,0,0,0,0,0,0,0,0,0,0
1683203563.39936996,68828291,1597,1600,1587,1583,0,0,0,0,0,0,0,0,0,0
1683203563.49933004,68928251,1599,1600,1588,1585,0,0,0,0,0,0,0,0,0,0
1683203563.59929013,69028211,1600,1599,1587,1585,0,0,0,0,0,0,0,0,0,0
1683203563.69924998,69128171,1600,1599,1585,1585,0,0,0,0,0,0,0,0,0,0
1683203563.80004311,69228964,1600,1596,1585,1580,0,0,0,0,0,0,0,0,0,0
1683203563.90000296,69328924,1600,1593,1583,1579,0,0,0,0,0,0,0,0,0,0
1683203563.99996305,69428884,1600,1593,1582,1581,0,0,0,0,0,0,0,0,0,0
1683203564.09992313,69528844,1600,1595,1581,1584,0,0,0,0,0,0,0,0,0,0
1683203564.19988298,69628804,1600,1598,1583,1585,0,0,0,0,0,0,0,0,0,0
1683203564.29984307,69728764,1596,1597,1580,1581,0,0,0,0,0,0,0,0,0,0
1683203564.39980292,69828724,1588,1590,1569,1569,0,0,0,0,0,0,0,0,0,0
1683203564.49976301,69928684,1582,1585,1563,1560,0,0,0,0,0,0,0,0,0,0
1683203564.59972310,70028644,1579,1580,1558,1555,0,0,0,0,0,0,0,0,0,0
1683203564.69968295,70128604,1576,1576,1554,1551,0,0,0,0,0,0,0,0,0,0
1683203564.79964304,70228564,1573,1573,1550,1548,0,0,0,0,0,0,0,0,0,0
1683203564.89960313,70328524,1571,1570,1547,1547,0,0,0,0,0,0,0,0,0,0
1683203564.99956298,70428484,1570,1569,1546,1546,0,0,0,0,0,0,0,0,0,0
1683203565.09952307,70528444,1568,1568,1545,1546,0,0,0,0,0,0,0,0,0,0
1683203565.19948292,70628404,1567,1568,1545,1546,0,0,0,0,0,0,0,0,0,0
1683203565.29944301,70728364,1566,1568,1545,1546,0,0,0,0,0,0,0,0,0,0
1683203565.39940310,70828324,1566,1568,1546,1547,0,0,0,0,0,0,0,0,0,0
1683203565.49936295,70928284,1566,1569,1547,1548,0,0,0,0,0,0,0,0,0,0
1683203565.59932303,71028244,1567,1569,1548,1549,0,0,0,0,0,0,0,0,0,0
1683203565.69928312,71128204,1568,1571,1549,1550,0,0,0,0,0,0,0,0,0,0
1683203565.79924297,71228164,1569,1571,1550,1550,0,0,0,0,0,0,0,0,0,0
1683203565.90003610,71328957,1570,1572,1551,1551,0,0,0,0,0,0,0,0,0,0
1683203565.99999595,71428917,1571,1574,1552,1552,0,0,0,0,0,0,0,0,0,0
1683203566.09995604,71528877,1573,1574,1553,1553,0,0,0,0,0,0,0,0,0,0
1683203566.19991612,71628837,1575,1575,1554,1554,0,0,0,0,0,0,0,0,0,0
1683203566.29987597,71728797,1577,1577,1555,1557,0,0,0,0,0,0,0,0,0,0
1683203566.39983606,71828757,1578,1579,1555,1557,0,0,0,0,0,0,0,0,0,0
1683203566.49979591,71928717,1579,1580,1556,1557,0,0,0,0,0,0,0,0,0,0
1683203566.59975600,72028677,1580,1581,1556,1557,0,0,0,0,0,0,0,0,0,0
1683203566.69971609,72128637,1583,1583,1559,1559,0,0,0,0,0,0,0,0,0,0
1683203566.79967594,72228597,1584,1584,1560,1560,0,0,0,0,0,0,0,0,0,0
1683203566.89963603,72328557,1585,1585,1561,1562,0,0,0,0,0,0,0,0,0,0
1683203566.99959612,72428517,1586,1586,1561,1562,0,0,0,0,0,0,0,0,0,0
1683203567.09955597,72528477,1587,1587,1563,1564,0,0,0,0,0,0,0,0,0,0
1683203567.19951606,72628437,1589,1588,1565,1565,0,0,0,0,0,0,0,0,0,0
1683203567.29947591,72728397,1589,1588,1567,1567,0,0,0,0,0,0,0,0,0,0
1683203567.39943600,72828357,1591,1589,1568,1569,0,0,0,0,0,0,0,0,0,0
1683203567.49939609,72928317,1590,1589,1569,1569,0,0,0,0,0,0,0,0,0,0
1683203567.59935594,73028277,1590,1589,1570,1570,0,0,0,0,0,0,0,0,0,0
1683203567.69931602,73128237,1590,1589,1570,1570,0,0,0,0,0,0,0,0,0,0
1683203567.79927611,73228197,1590,1589,1570,1570,0,0,0,0,0,0,0,0,0,0
1683203567.89923596,73328157,1589,1589,1571,1570,0,0,0,0,0,0,0,0,0,0
1683203568.00002909,73428950,1589,1589,1571,1570,0,0,0,0,0,0,0,0,0,0
1683203568.09998894,73528910,1589,1589,1571,1570,0,0,0,0,0,0,0,0,0,0
1683203568.19994903,73628870,1589,1589,1571,1570,0,0,0,0,0,0,0,0,0,0
1683203568.29990911,73728830,1591,1587,1572,1571,0,0,0,0,0,0,0,0,0,0
1683203568.39986897,73828790,1579,1570,1590,1589,0,0,0,0,0,0,0,0,0,0
1683203568.49982905,73928750,1561,1554,1609,1609,0,0,0,0,0,0,0,0,0,0
1683203568.59978890,74028710,1547,1543,1616,1618,0,0,0,0,0,0,0,0,0,0
1683203568.69974899,74128670,1537,1540,1617,1620,0,0,0,0,0,0,0,0,0,0
1683203568.79970908,74228630,1533,1540,1616,1618,0,0,0,0,0,0,0,0,0,0
1683203568.89966893,74328590,1533,1543,1614,1614,0,0,0,0,0,0,0,0,0,0
1683203568.99962902,74428550,1537,1547,1611,1609,0,0,0,0,0,0,0,0,0,0
1683203569.09958911,74528510,1543,1551,1606,1603,0,0,0,0,0,0,0,0,0,0
1683203569.19954896,74628470,1551,1555,1600,1597,0,0,0,0,0,0,0,0,0,0
1683203569.29950905,74728430,1559,1559,1593,1591,0,0,0,0,0,0,0,0,0,0
1683203569.39946890,74828390,1567,1565,1588,1587,0,0,0,0,0,0,0,0,0,0
1683203569.49942899,74928350,1573,1569,1582,1582,0,0,0,0,0,0,0,0,0,0
1683203569.59938908,75028310,1578,1574,1577,1578,0,0,0,0,0,0,0,0,0,0
1683203569.69934893,75128270,1580,1577,1573,1574,0,0,0,0,0,0,0,0,0,0
1683203569.79930902,75228230,1583,1581,1571,1572,0,0,0,0,0,0,0,0,0,0
1683203569.89926910,75328190,1585,1585,1571,1572,0,0,0,0,0,0,0,0,0,0
1683203570.00006199,75428983,1587,1587,1571,1571,0,0,0,0,0,0,0,0,0,0
1683203570.10002208,75528943,1588,1588,1571,1572,0,0,0,0,0,0,0,0,0,0
1683203570.19998193,75628903,1589,1589,1572,1572,0,0,0,0,0,0,0,0,0,0
1683203570.29994202,75728863,1589,1588,1572,1572,0,0,0,0,0,0,0,0,0,0
1683203570.39990211,75828823,1590,1588,1573,1574,0,0,0,0,0,0,0,0,0,0
1683203570.49986196,75928783,1588,1588,1573,1574,0,0,0,0,0,0,0,0,0,0
1683203570.59982204,76028743,1588,1587,1574,1575,0,0,0,0,0,0,0,0,0,0
1683203570.69978213,76128703,1587,1587,1575,1575,0,0,0,0,0,0,0,0,0,0
1683203570.79974198,76228663,1586,1586,1576,1577,0,0,0,0,0,0,0,0,0,0
1683203570.89970207,76328623,1585,1584,1576,1576,0,0,0,0,0,0,0,0,0,0
1683203570.99966192,76428583,1584,1584,1577,1577,0,0,0,0,0,0,0,0,0,0
1683203571.09962201,76528543,1582,1582,1577,1577,0,0,0,0,0,0,0,0,0,0
1683203571.19958210,76628503,1581,1582,1578,1578,0,0,0,0,0,0,0,0,0,0
1683203571.29954195,76728463,1582,1581,1580,1579,0,0,0,0,0,0,0,0,0,0
1683203571.39950204,76828423,1581,1581,1580,1580,0,0,0,0,0,0,0,0,0,0
1683203571.49946213,76928383,1581,1581,1581,1581,0,0,0,0,0,0,0,0,0,0
1683203571.59942198,77028343,1580,1580,1586,1577,0,0,0,0,0,0,0,0,0,0
1683203571.69938207,77128303,1581,1579,1587,1574,0,0,0,0,0,0,0,0,0,0
1683203571.79934192,77228263,1579,1578,1579,1574,0,0,0,0,0,0,0,0,0,0
1683203571.89930201,77328223,1577,1577,1571,1573,0,0,0,0,0,0,0,0,0,0
1683203571.99926209,77428183,1574,1576,1564,1568,0,0,0,0,0,0,0,0,0,0
1683203572.10005498,77528976,1572,1575,1559,1565,0,0,0,0,0,0,0,0,0,0
1683203572.20001507,77628936,1572,1575,1558,1562,0,0,0,0,0,0,0,0,0,0
1683203572.29997492,77728896,1571,1574,1558,1558,0,0,0,0,0,0,0,0,0,0
1683203572.39993501,77828856,1572,1574,1559,1557,0,0,0,0,0,0,0,0,0,0
1683203572.49989510,77928816,1573,1574,1558,1556,0,0,0,0,0,0,0,0,0,0
1683203572.59985495,78028776,1574,1574,1559,1556,0,0,0,0,0,0,0,0,0,0
1683203572.69981503,78128736,1574,1574,1556,1555,0,0,0,0,0,0,0,0,0,0
1683203572.79977512,78228696,1575,1574,1555,1555,0,0,0,0,0,0,0,0,0,0
1683203572.89973497,78328656,1575,1575,1554,1554,0,0,0,0,0,0,0,0,0,0
1683203572.99969506,78428616,1575,1575,1552,1552,0,0,0,0,0,0,0,0,0,0
1683203573.09965491,78528576,1575,1576,1550,1550,0,0,0,0,0,0,0,0,0,0
1683203573.19961500,78628536,1575,1577,1548,1548,0,0,0,0,0,0,0,0,0,0
1683203573.29957509,78728496,1577,1579,1547,1546,0,0,0,0,0,0,0,0,0,0
1683203573.39953494,78828456,1579,1581,1545,1544,0,0,0,0,0,0,0,0,0,0
1683203573.49949503,78928416,1581,1582,1543,1542,0,0,0,0,0,0,0,0,0,0
1683203573.59945512,79028376,1583,1583,1541,1540,0,0,0,0,0,0,0,0,0,0
1683203573.69941497,79128336,1585,1585,1539,1540,0,0,0,0,0,0,0,0,0,0
1683203573.79937506,79228296,1587,1587,1539,1539,0,0,0,0,0,0,0,0,0,0
1683203573.89933491,79328256,1589,1588,1539,1540,0,0,0,0,0,0,0,0,0,0
1683203573.99929500,79428216,1589,1589,1539,1540,0,0,0,0,0,0,0,0,0,0
1683203574.09925508,79528176,1589,1589,1541,1543,0,0,0,0,0,0,0,0,0,0
1683203574.20004797,79628969,1588,1586,1543,1546,0,0,0,0,0,0,0,0,0,0
1683203574.30000806,79728929,1584,1583,1545,1549,0,0,0,0,0,0,0,0,0,0
1683203574.39996791,79828889,1581,1581,1550,1553,0,0,0,0,0,0,0,0,0,0
1683203574.49992800,79928849,1577,1577,1556,1560,0,0,0,0,0,0,0,0,0,0
1683203574.59988809,80028809,1572,1571,1561,1564,0,0,0,0,0,0,0,0,0,0
1683203574.69984794,80128769,1567,1565,1569,1571,0,0,0,0,0,0,0,0,0,0
1683203574.79980803,80228729,1561,1559,1577,1579,0,0,0,0,0,0,0,0,0,0
1683203574.89976811,80328689,1555,1553,1585,1585,0,0,0,0,0,0,0,0,0,0
1683203574.99972796,80428649,1549,1547,1593,1593,0,0,0,0,0,0,0,0,0,0
1683203575.09968805,80528609,1542,1541,1600,1598,0,0,0,0,0,0,0,0,0,0
1683203575.19964790,80628569,1536,1536,1604,1604,0,0,0,0,0,0,0,0,0,0
1683203575.29960799,80728529,1533,1535,1608,1607,0,0,0,0,0,0,0,0,0,0
1683203575.39956808,80828489,1534,1535,1608,1607,0,0,0,0,0,0,0,0,0,0
1683203575.49952793,80928449,1535,1538,1604,1604,0,0,0,0,0,0,0,0,0,0
1683203575.59948802,81028409,1540,1543,1600,1600,0,0,0,0,0,0,0,0,0,0
1683203575.69944811,81128369,1547,1549,1594,1594,0,0,0,0,0,0,0,0,0,0
1683203575.79940796,81228329,1554,1555,1588,1587,0,0,0,0,0,0,0,0,0,0
1683203575.89936805,81328289,1562,1563,1583,1581,0,0,0,0,0,0,0,0,0,0
1683203575.99932790,81428249,1570,1570,1577,1576,0,0,0,0,0,0,0,0,0,0
1683203576.09928799,81528209,1577,1575,1572,1571,0,0,0,0,0,0,0,0,0,0
1683203576.19924808,81628169,1582,1580,1568,1568,0,0,0,0,0,0,0,0,0,0
1683203576.30004096,81728962,1585,1583,1567,1567,0,0,0,0,0,0,0,0,0,0
1683203576.40000105,81828922,1587,1586,1568,1568,0,0,0,0,0,0,0,0,0,0
1683203576.49996090,81928882,1588,1586,1568,1569,0,0,0,0,0,0,0,0,0,0
1683203576.59992099,82028842,1588,1587,1570,1571,0,0,0,0,0,0,0,0,0,0
1683203576.69988108,82128802,1586,1586,1571,1571,0,0,0,0,0,0,0,0,0,0
1683203576.79984093,82228762,1585,1586,1574,1574,0,0,0,0,0,0,0,0,0,0
1683203576.89980102,82328722,1584,1584,1575,1575,0,0,0,0,0,0,0,0,0,0
1683203576.99976110,82428682,1582,1583,1577,1576,0,0,0,0,0,0,0,0,0,0
1683203577.09972095,82528642,1581,1582,1579,1579,0,0,0,0,0,0,0,0,0,0
1683203577.19968104,82628602,1580,1580,1580,1580,0,0,0,0,0,0,0,0,0,0
1683203577.29964113,82728562,1579,1579,1582,1581,0,0,0,0,0,0,0,0,0,0
1683203577.39960098,82828522,1578,1578,1582,1582,0,0,0,0,0,0,0,0,0,0
1683203577.49956107,82928482,1577,1577,1583,1583,0,0,0,0,0,0,0,0,0,0
1683203577.59952092,83028442,1577,1577,1584,1583,0,0,0,0,0,0,0,0,0,0
1683203577.69948101,83128402,1576,1576,1582,1582,0,0,0,0,0,0,0,0,0,0
1683203577.79944110,83228362,1576,1577,1583,1583,0,0,0,0,0,0,0,0,0,0
1683203577.89940095,83328322,1577,1577,1583,1583,0,0,0,0,0,0,0,0,0,0
1683203577.99936104,83428282,1577,1577,1582,1582,0,0,0,0,0,0,0,0,0,0
1683203578.09932113,83528242,1578,1578,1581,1581,0,0,0,0,0,0,0,0,0,0
1683203578.19928098,83628202,1578,1578,1580,1580,0,0,0,0,0,0,0,0,0,0
1683203578.29924107,83728162,1580,1579,1580,1580,0,0,0,0,0,0,0,0,0,0
1683203578.40003395,83828955,1580,1580,1580,1580,0,0,0,0,0,0,0,0,0,0
1683203578.49999404,83928915,1581,1581,1580,1579,0,0,0,0,0,0,0,0,0,0
1683203578.59995413,84028875,1582,1581,1579,1579,0,0,0,0,0,0,0,0,0,0
1683203578.69991398,84128835,1582,1581,1579,1579,0,0,0,0,0,0,0,0,0,0
1683203578.79987407,84228795,1583,1582,1579,1579,0,0,0,0,0,0,0,0,0,0
1683203578.89983392,84328755,1583,1583,1580,1579,0,0,0,0,0,0,0,0,0,0
1683203578.99979401,84428715,1583,1583,1580,1580,0,0,0,0,0,0,0,0,0,0
1683203579.09975410,84528675,1582,1582,1580,1580,0,0,0,0,0,0,0,0,0,0
1683203579.19971395,84628635,1581,1582,1580,1580,0,0,0,0,0,0,0,0,0,0
1683203579.29967403,84728595,1582,1582,1580,1581,0,0,0,0,0,0,0,0,0,0
1683203579.39963412,84828555,1581,1581,1581,1581,0,0,0,0,0,0,0,0,0,0
1683203579.49959397,84928515,1582,1582,1582,1582,0,0,0,0,0,0,0,0,0,0
1683203579.59955406,85028475,1582,1582,1582,1582,0,0,0,0,0,0,0,0,0,0
1683203579.69951391,85128435,1582,1581,1582,1582,0,0,0,0,0,0,0,0,0,0
1683203579.79947400,85228395,1581,1581,1582,1582,0,0,0,0,0,0,0,0,0,0
1683203579.89943409,85328355,1581,1581,1584,1580,0,0,0,0,0,0,0,0,0,0
1683203579.99939394,85428315,1581,1581,1589,1574,0,0,0,0,0,0,0,0,0,0
1683203580.09935403,85528275,1580,1579,1584,1575,0,0,0,0,0,0,0,0,0,0
1683203580.19931412,85628235,1578,1576,1575,1575,0,0,0,0,0,0,0,0,0,0
1683203580.29927397,85728195,1573,1572,1567,1573,0,0,0,0,0,0,0,0,0,0
1683203580.39923406,85828155,1571,1571,1564,1572,0,0,0,0,0,0,0,0,0,0
1683203580.50002694,85928948,1568,1569,1563,1568,0,0,0,0,0,0,0,0,0,0
1683203580.59998703,86028908,1567,1568,1565,1567,0,0,0,0,0,0,0,0,0,0
1683203580.69994712,86128868,1566,1567,1566,1566,0,0,0,0,0,0,0,0,0,0
1683203580.79990697,86228828,1566,1567,1568,1565,0,0,0,0,0,0,0,0,0,0
1683203580.89986706,86328788,1565,1566,1568,1565,0,0,0,0,0,0,0,0,0,0
1683203580.99982691,86428748,1565,1565,1567,1565,0,0,0,0,0,0,0,0,0,0
1683203581.09978700,86528708,1564,1564,1566,1566,0,0,0,0,0,0,0,0,0,0
1683203581.19974709,86628668,1564,1563,1565,1565,0,0,0,0,0,0,0,0,0,0
1683203581.29970694,86728628,1563,1562,1563,1564,0,0,0,0,0,0,0,0,0,0
1683203581.39966702,86828588,1562,1562,1563,1564,0,0,0,0,0,0,0,0,0,0
1683203581.49962711,86928548,1562,1562,1562,1563,0,0,0,0,0,0,0,0,0,0
1683203581.59958696,87028508,1561,1561,1562,1561,0,0,0,0,0,0,0,0,0,0
1683203581.69954705,87128468,1560,1561,1561,1560,0,0,0,0,0,0,0,0,0,0
1683203581.79950690,87228428,1560,1561,1561,1560,0,0,0,0,0,0,0,0,0,0
1683203581.89946699,87328388,1560,1560,1561,1560,0,0,0,0,0,0,0,0,0,0
1683203581.99942708,87428348,1560,1560,1561,1559,0,0,0,0,0,0,0,0,0,0
1683203582.09938693,87528308,1560,1560,1560,1560,0,0,0,0,0,0,0,0,0,0
1683203582.19934702,87628268,1560,1559,1559,1558,0,0,0,0,0,0,0,0,0,0
1683203582.29930711,87728228,1559,1558,1558,1557,0,0,0,0,0,0,0,0,0,0
1683203582.39926696,87828188,1559,1559,1559,1558,0,0,0,0,0,0,0,0,0,0
1683203582.50006008,87928981,1559,1559,1559,1558,0,0,0,0,0,0,0,0,0,0
1683203582.60001993,88028941,1558,1558,1559,1557,0,0,0,0,0,0,0,0,0,0
1683203582.69998002,88128901,1558,1558,1559,1556,0,0,0,0,0,0,0,0,0,0
1683203582.79994011,88228861,1559,1558,1560,1559,0,0,0,0,0,0,0,0,0,0
1683203582.89989996,88328821,1559,1559,1557,1562,0,0,0,0,0,0,0,0,0,0
1683203582.99986005,88428781,1560,1560,1558,1564,0,0,0,0,0,0,0,0,0,0
1683203583.09981990,88528741,1558,1559,1556,1561,0,0,0,0,0,0,0,0,0,0
1683203583.19977999,88628701,1557,1559,1557,1559,0,0,0,0,0,0,0,0,0,0
1683203583.29974008,88728661,1557,1558,1556,1559,0,0,0,0,0,0,0,0,0,0
1683203583.39969993,88828621,1555,1555,1552,1554,0,0,0,0,0,0,0,0,0,0
1683203583.49966002,88928581,1551,1551,1548,1549,0,0,0,0,0,0,0,0,0,0
1683203583.59962010,89028541,1546,1547,1543,1542,0,0,0,0,0,0,0,0,0,0
1683203583.69957995,89128501,1541,1541,1535,1535,0,0,0,0,0,0,0,0,0,0
1683203583.79954004,89228461,1534,1534,1528,1527,0,0,0,0,0,0,0,0,0,0
1683203583.89950013,89328421,1528,1527,1521,1521,0,0,0,0,0,0,0,0,0,0
1683203583.99945998,89428381,1523,1523,1518,1518,0,0,0,0,0,0,0,0,0,0
1683203584.09942007,89528341,1521,1521,1518,1519,0,0,0,0,0,0,0,0,0,0
1683203584.19937992,89628301,1520,1520,1521,1522,0,0,0,0,0,0,0,0,0,0
1683203584.29934001,89728261,1520,1520,1524,1524,0,0,0,0,0,0,0,0,0,0
1683203584.39930010,89828221,1522,1522,1529,1529,0,0,0,0,0,0,0,0,0,0
1683203584.49925995,89928181,1525,1525,1534,1534,0,0,0,0,0,0,0,0,0,0
1683203584.60005307,90028974,1529,1529,1540,1540,0,0,0,0,0,0,0,0,0,0
1683203584.70001292,90128934,1533,1532,1543,1543,0,0,0,0,0,0,0,0,0,0
1683203584.79997301,90228894,1536,1536,1544,1544,0,0,0,0,0,0,0,0,0,0
1683203584.89993310,90328854,1539,1539,1546,1545,0,0,0,0,0,0,0,0,0,0
1683203584.99989295,90428814,1541,1542,1546,1545,0,0,0,0,0,0,0,0,0,0
1683203585.09985304,90528774,1544,1544,1545,1545,0,0,0,0,0,0,0,0,0,0
1683203585.19981313,90628734,1547,1547,1545,1545,0,0,0,0,0,0,0,0,0,0
1683203585.29977298,90728694,1548,1548,1545,1544,0,0,0,0,0,0,0,0,0,0
1683203585.39973307,90828654,1549,1549,1544,1544,0,0,0,0,0,0,0,0,0,0
1683203585.49969292,90928614,1550,1549,1544,1543,0,0,0,0,0,0,0,0,0,0
1683203585.59965301,91028574,1550,1550,1544,1543,0,0,0,0,0,0,0,0,0,0
1683203585.69961309,91128534,1550,1550,1545,1544,0,0,0,0,0,0,0,0,0,0
1683203585.79957294,91228494,1550,1550,1545,1544,0,0,0,0,0,0,0,0,0,0
1683203585.89953303,91328454,1549,1550,1545,1545,0,0,0,0,0,0,0,0,0,0
1683203585.99949312,91428414,1549,1549,1545,1545,0,0,0,0,0,0,0,0,0,0
1683203586.09945297,91528374,1548,1548,1546,1546,0,0,0,0,0,0,0,0,0,0
1683203586.19941306,91628334,1546,1547,1546,1546,0,0,0,0,0,0,0,0,0,0
1683203586.29937291,91728294,1545,1545,1546,1545,0,0,0,0,0,0,0,0,0,0
1683203586.39933300,91828254,1544,1544,1546,1545,0,0,0,0,0,0,0,0,0,0
1683203586.49929309,91928214,1544,1544,1546,1546,0,0,0,0,0,0,0,0,0,0
1683203586.59925294,92028174,1544,1543,1546,1546,0,0,0,0,0,0,0,0,0,0
1683203586.70004606,92128967,1543,1543,1545,1545,0,0,0,0,0,0,0,0,0,0
1683203586.80000591,92228927,1543,1543,1545,1545,0,0,0,0,0,0,0,0,0,0
1683203586.89996600,92328887,1543,1543,1545,1544,0,0,0,0,0,0,0,0,0,0
1683203586.99992609,92428847,1543,1543,1545,1545,0,0,0,0,0,0,0,0,0,0
1683203587.09988594,92528807,1543,1543,1544,1544,0,0,0,0,0,0,0,0,0,0
1683203587.19984603,92628767,1543,1543,1544,1544,0,0,0,0,0,0,0,0,0,0
1683203587.29980612,92728727,1544,1544,1544,1544,0,0,0,0,0,0,0,0,0,0
1683203587.39976597,92828687,1543,1543,1543,1543,0,0,0,0,0,0,0,0,0,0
1683203587.49972606,92928647,1544,1543,1543,1543,0,0,0,0,0,0,0,0,0,0
1683203587.59968591,93028607,1544,1544,1543,1543,0,0,0,0,0,0,0,0,0,0
1683203587.69964600,93128567,1544,1544,1543,1543,0,0,0,0,0,0,0,0,0,0
1683203587.79960608,93228527,1545,1544,1544,1544,0,0,0,0,0,0,0,0,0,0
1683203587.89956594,93328487,1544,1544,1543,1543,0,0,0,0,0,0,0,0,0,0
1683203587.99952602,93428447,1545,1545,1544,1544,0,0,0,0,0,0,0,0,0,0
1683203588.09948611,93528407,1545,1544,1544,1544,0,0,0,0,0,0,0,0,0,0
1683203588.19944596,93628367,1545,1545,1544,1545,0,0,0,0,0,0,0,0,0,0
1683203588.29940605,93728327,1544,1544,1544,1543,0,0,0,0,0,0,0,0,0,0
1683203588.39936590,93828287,1544,1544,1544,1544,0,0,0,0,0,0,0,0,0,0
1683203588.49932599,93928247,1545,1545,1545,1545,0,0,0,0,0,0,0,0,0,0
1683203588.59928608,94028207,1544,1544,1545,1544,0,0,0,0,0,0,0,0,0,0
1683203588.69924593,94128167,1544,1544,1544,1544,0,0,0,0,0,0,0,0,0,0
1683203588.80003905,94228960,1544,1544,1544,1544,0,0,0,0,0,0,0,0,0,0
1683203588.89999890,94328920,1544,1544,1544,1544,0,0,0,0,0,0,0,0,0,0
1683203588.99995899,94428880,1544,1544,1544,1544,0,0,0,0,0,0,0,0,0,0
1683203589.09991908,94528840,1544,1544,1544,1544,0,0,0,0,0,0,0,0,0,0
1683203589.19987893,94628800,1544,1544,1545,1544,0,0,0,0,0,0,0,0,0,0
1683203589.29983902,94728760,1544,1544,1544,1544,0,0,0,0,0,0,0,0,0,0
1683203589.39979911,94828720,1544,1544,1544,1544,0,0,0,0,0,0,0,0,0,0
1683203589.49975896,94928680,1544,1545,1545,1545,0,0,0,0,0,0,0,0,0,0
1683203589.59971905,95028640,1545,1545,1545,1545,0,0,0,0,0,0,0,0,0,0
1683203589.69967890,95128600,1545,1544,1544,1545,0,0,0,0,0,0,0,0,0,0
1683203589.79963899,95228560,1545,1545,1545,1546,0,0,0,0,0,0,0,0,0,0
1683203589.89959908,95328520,1545,1545,1544,1545,0,0,0,0,0,0,0,0,0,0
1683203589.99955893,95428480,1545,1545,1544,1545,0,0,0,0,0,0,0,0,0,0
1683203590.09951901,95528440,1544,1545,1544,1544,0,0,0,0,0,0,0,0,0,0
1683203590.19947910,95628400,1544,1545,1544,1544,0,0,0,0,0,0,0,0,0,0
1683203590.29943895,95728360,1544,1544,1544,1543,0,0,0,0,0,0,0,0,0,0
1683203590.39939904,95828320,1545,1545,1544,1544,0,0,0,0,0,0,0,0,0,0
1683203590.49935913,95928280,1544,1544,1544,1544,0,0,0,0,0,0,0,0,0,0
1683203590.59931898,96028240,1545,1544,1545,1544,0,0,0,0,0,0,0,0,0,0
1683203590.69927907,96128200,1544,1544,1544,1544,0,0,0,0,0,0,0,0,0,0
1683203590.79923892,96228160,1544,1545,1544,1545,0,0,0,0,0,0,0,0,0,0
1683203590.90003204,96328953,1544,1544,1545,1545,0,0,0,0,0,0,0,0,0,0
1683203590.99999213,96428913,1545,1545,1545,1545,0,0,0,0,0,0,0,0,0,0
1683203591.09995198,96528873,1545,1544,1544,1545,0,0,0,0,0,0,0,0,0,0
1683203591.19991207,96628833,1545,1545,1545,1545,0,0,0,0,0,0,0,0,0,0
1683203591.29987192,96728793,1545,1545,1545,1545,0,0,0,0,0,0,0,0,0,0
1683203591.39983201,96828753,1545,1545,1545,1544,0,0,0,0,0,0,0,0,0,0
1683203591.49979210,96928713,1544,1544,1543,1543,0,0,0,0,0,0,0,0,0,0
1683203591.59975195,97028673,1544,1544,1544,1544,0,0,0,0,0,0,0,0,0,0
1683203591.69971204,97128633,1544,1544,1544,1544,0,0,0,0,0,0,0,0,0,0
1683203591.79967213,97228593,1544,1544,1543,1543,0,0,0,0,0,0,0,0,0,0
1683203591.89963198,97328553,1544,1543,1543,1543,0,0,0,0,0,0,0,0,0,0
1683203591.99959207,97428513,1543,1543,1544,1543,0,0,0,0,0,0,0,0,0,0
1683203592.09955192,97528473,1544,1544,1544,1544,0,0,0,0,0,0,0,0,0,0
1683203592.19951200,97628433,1544,1543,1543,1543,0,0,0,0,0,0,0,0,0,0
1683203592.29947209,97728393,1544,1544,1544,1544,0,0,0,0,0,0,0,0,0,0
1683203592.39943194,97828353,1544,1544,1544,1544,0,0,0,0,0,0,0,0,0,0
1683203592.49939203,97928313,1544,1544,1544,1545,0,0,0,0,0,0,0,0,0,0
1683203592.59935212,98028273,1544,1545,1545,1544,0,0,0,0,0,0,0,0,0,0
1683203592.69931197,98128233,1543,1544,1544,1544,0,0,0,0,0,0,0,0,0,0
1683203592.79927206,98228193,1543,1544,1544,1543,0,0,0,0,0,0,0,0,0,0
1683203592.90006495,98328986,1544,1544,1544,1544,0,0,0,0,0,0,0,0,0,0
1683203593.00002503,98428946,1545,1545,1545,1545,0,0,0,0,0,0,0,0,0,0
1683203593.09998512,98528906,1545,1544,1545,1545,0,0,0,0,0,0,0,0,0,0
1683203593.19994497,98628866,1544,1544,1544,1544,0,0,0,0,0,0,0,0,0,0
1683203593.29990506,98728826,1545,1545,1545,1545,0,0,0,0,0,0,0,0,0,0
1683203593.39986491,98828786,1545,1545,1545,1545,0,0,0,0,0,0,0,0,0,0
1683203593.49982500,98928746,1544,1544,1544,1544,0,0,0,0,0,0,0,0,0,0
1683203593.59978509,99028706,1544,1544,1544,1544,0,0,0,0,0,0,0,0,0,0
1683203593.69974494,99128666,1441,1439,1385,1384,0,0,0,0,0,0,0,0,0,0
1683203593.79970503,99228626,1370,1368,1261,1259,0,0,0,0,0,0,0,0,0,0
1683203593.89966512,99328586,1348,1346,1217,1216,0,0,0,0,0,0,0,0,0,0
1683203593.99962497,99428546,1339,1337,1199,1197,0,0,0,0,0,0,0,0,0,0
1683203594.09958506,99528506,1320,1317,1157,1154,0,0,0,0,0,0,0,0,0,0
1683203594.19954491,99628466,1271,1269,1154,1150,0,0,0,0,0,0,0,0,0,0
1683203594.29950500,99728426,1172,1169,1153,1150,0,0,0,0,0,0,0,0,0,0
1683203594.39946508,99828386,1072,1068,1154,1150,0,0,0,0,0,0,0,0,0,0
1683203594.49942493,99928346,975,972,1152,1150,0,0,0,0,0,0,0,0,0,0
1683203594.59938502,100028306,974,972,1153,1150,0,0,0,0,0,0,0,0,0,0
1683203594.69934511,100128266,975,971,1153,1150,0,0,0,0,0,0,0,0,0,0
1683203594.79930496,100228226,975,963,1150,1163,0,0,0,0,0,0,0,0,0,0
1683203594.89926505,100328186,975,962,1150,1166,0,0,0,0,0,0,0,0,0,0
1683203595.00005794,100428979,975,966,1150,1159,0,0,0,0,0,0,0,0,0,0
1683203595.10001802,100528939,975,967,1150,1157,0,0,0,0,0,0,0,0,0,0
1683203595.19997811,100628899,975,967,1150,1157,0,0,0,0,0,0,0,0,0,0
1683203595.29993796,100728859,976,967,1150,1158,0,0,0,0,0,0,0,0,0,0
1683203595.39989805,100828819,975,967,1150,1158,0,0,0,0,0,0,0,0,0,0
1683203595.49985790,100928779,975,966,1150,1159,0,0,0,0,0,0,0,0,0,0
1683203595.59981799,101028739,972,974,1152,1150,0,0,0,0,0,0,0,0,0,0
1683203595.69977808,101128699,975,973,1150,1151,0,0,0,0,0,0,0,0,0,0
1683203595.79973793,101228659,975,972,1150,1151,0,0,0,0,0,0,0,0,0,0
1683203595.89969802,101328619,975,972,1150,1151,0,0,0,0,0,0,0,0,0,0
1683203595.99965811,101428579,975,972,1150,1151,0,0,0,0,0,0,0,0,0,0
1683203596.09961796,101528539,1000,1000,1000,1000,0,0,0,0,0,0,0,0,0,0
1683203596.19957805,101628499,1000,1000,1000,1000,0,0,0,0,0,0,0,0,0,0
1683203596.29953790,101728459,1000,1000,1000,1000,0,0,0,0,0,0,0,0,0,0
1683203596.39949799,101828419,1000,1000,1000,1000,0,0,0,0,0,0,0,0,0,0
1683203596.49945807,101928379,1000,1000,1000,1000,0,0,0,0,0,0,0,0,0,0
1683203596.59941792,102028339,1000,1000,1000,1000,0,0,0,0,0,0,0,0,0,0
1683203596.69937801,102128299,1000,1000,1000,1000,0,0,0,0,0,0,0,0,0,0
1683203596.79933810,102228259,1000,1000,1000,1000,0,0,0,0,0,0,0,0,0,0
1683203596.89929795,102328219,1000,1000,1000,1000,0,0,0,0,0,0,0,0,0,0
1683203596.99925804,102428179,1000,1000,1000,1000,0,0,0,0,0,0,0,0,0,0
1683203597.10005093,102528972,1000,1000,1000,1000,0,0,0,0,0,0,0,0,0,0
1683203597.20001101,102628932,1000,1000,1000,1000,0,0,0,0,0,0,0,0,0,0
1683203597.29997110,102728892,1000,1000,1000,1000,0,0,0,0,0,0,0,0,0,0
1683203597.39993095,102828852,1000,1000,1000,1000,0,0,0,0,0,0,0,0,0,0
1683203597.49989104,102928812,1000,1000,1000,1000,0,0,0,0,0,0,0,0,0,0
1683203597.59985113,103028772,1000,1000,1000,1000,0,0,0,0,0,0,0,0,0,0
1683203597.69981098,103128732,1000,1000,1000,1000,0,0,0,0,0,0,0,0,0,0
1683203597.79977107,103228692,1000,1000,1000,1000,0,0,0,0,0,0,0,0,0,0
1683203597.89973092,103328652,1000,1000,1000,1000,0,0,0,0,0,0,0,0,0,0
1683203597.99969101,103428612,1000,1000,1000,1000,0,0,0,0,0,0,0,0,0,0
1683203598.09965110,103528572,1000,1000,1000,1000,0,0,0,0,0,0,0,0,0,0
1683203598.19961095,103628532,1000,1000,1000,1000,0,0,0,0,0,0,0,0,0,0
1683203598.29957104,103728492,1000,1000,1000,1000,0,0,0,0,0,0,0,0,0,0
1683203598.39953113,103828452,1000,1000,1000,1000,0,0,0,0,0,0,0,0,0,0
1683203598.49949098,103928412,1000,1000,1000,1000,0,0,0,0,0,0,0,0,0,0
1683203598.59945107,104028372,1000,1000,1000,1000,0,0,0,0,0,0,0,0,0,0
1683203598.69941092,104128332,1000,1000,1000,1000,0,0,0,0,0,0,0,0,0,0
1683203598.79937100,104228292,1000,1000,1000,1000,0,0,0,0,0,0,0,0,0,0
1683203598.89933109,104328252,1000,1000,1000,1000,0,0,0,0,0,0,0,0,0,0
1683203598.99929094,104428212,1000,1000,1000,1000,0,0,0,0,0,0,0,0,0,0
1683203599.09925103,104528172,1000,1000,1000,1000,0,0,0,0,0,0,0,0,0,0
1683203599.20004392,104628965,1000,1000,1000,1000,0,0,0,0,0,0,0,0,0,0
1683203599.30000401,104728925,1000,1000,1000,1000,0,0,0,0,0,0,0,0,0,0
1683203599.39996409,104828885,1000,1000,1000,1000,0,0,0,0,0,0,0,0,0,0
1683203599.49992394,104928845,1000,1000,1000,1000,0,0,0,0,0,0,0,0,0,0
1683203599.59988403,105028805,1000,1000,1000,1000,0,0,0,0,0,0,0,0,0,0
1683203599.69984412,105128765,1000,1000,1000,1000,0,0,0,0,0,0,0,0,0,0
1683203599.79980397,105228725,1000,1000,1000,1000,0,0,0,0,0,0,0,0,0,0
1683203599.89976406,105328685,1000,1000,1000,1000,0,0,0,0,0,0,0,0,0,0
1683203599.99972391,105428645,1000,1000,1000,1000,0,0,0,0,0,0,0,0,0,0
1683203600.09968400,105528605,1000,1000,1000,1000,0,0,0,0,0,0,0,0,0,0
1683203600.19964409,105628565,1000,1000,1000,1000,0,0,0,0,0,0,0,0,0,0
1683203600.29960394,105728525,1000,1000,1000,1000,0,0,0,0,0,0,0,0,0,0
1683203600.39956403,105828485,1000,1000,1000,1000,0,0,0,0,0,0,0,0,0,0
1683203600.49952412,105928445,1000,1000,1000,1000,0,0,0,0,0,0,0,0,0,0
1683203600.59948397,106028405,1000,1000,1000,1000,0,0,0,0,0,0,0,0,0,0
1683203600.69944406,106128365,1000,1000,1000,1000,0,0,0,0,0,0,0,0,0,0
1683203600.79940391,106228325,1000,1000,1000,1000,0,0,0,0,0,0,0,0,0,0
1683203600.89936399,106328285,1000,1000,1000,1000,0,0,0,0,0,0,0,0,0,0
1683203600.99932408,106428245,1000,1000,1000,1000,0,0,0,0,0,0,0,0,0,0
1683203601.09928393,106528205,1000,1000,1000,1000,0,0,0,0,0,0,0,0,0,0
1683203601.19924402,106628165,1000,1000,1000,1000,0,0,0,0,0,0,0,0,0,0
1683203601.30003691,106728958,1000,1000,1000,1000,0,0,0,0,0,0,0,0,0,0
1683203601.39999700,106828918,1000,1000,1000,1000,0,0,0,0,0,0,0,0,0,0
1683203601.49995708,106928878,1000,1000,1000,1000,0,0,0,0,0,0,0,0,0,0
1683203601.59991693,107028838,1000,1000,1000,1000,0,0,0,0,0,0,0,0,0,0
1683203601.69987702,107128798,1000,1000,1000,1000,0,0,0,0,0,0,0,0,0,0
1683203601.79983711,107228758,1000,1000,1000,1000,0,0,0,0,0,0,0,0,0,0
1683203601.89979696,107328718,1000,1000,1000,1000,0,0,0,0,0,0,0,0,0,0
1683203601.99975705,107428678,1000,1000,1000,1000,0,0,0,0,0,0,0,0,0,0
1683203602.09971690,107528638,1000,1000,1000,1000,0,0,0,0,0,0,0,0,0,0
1683203602.19967699,107628598,1000,1000,1000,1000,0,0,0,0,0,0,0,0,0,0
1683203602.29963708,107728558,1000,1000,1000,1000,0,0,0,0,0,0,0,0,0,0
1683203602.39959693,107828518,1000,1000,1000,1000,0,0,0,0,0,0,0,0,0,0
1683203602.49955702,107928478,1000,1000,1000,1000,0,0,0,0,0,0,0,0,0,0
1683203602.59951711,108028438,1000,1000,1000,1000,0,0,0,0,0,0,0,0,0,0
1683203602.69947696,108128398,1000,1000,1000,1000,0,0,0,0,0,0,0,0,0,0
1683203602.79943705,108228358,1000,1000,1000,1000,0,0,0,0,0,0,0,0,0,0
1683203602.89939713,108328318,1000,1000,1000,1000,0,0,0,0,0,0,0,0,0,0
1683203602.99935699,108428278,1000,1000,1000,1000,0,0,0,0,0,0,0,0,0,0
1683203603.09931707,108528238,1000,1000,1000,1000,0,0,0,0,0,0,0,0,0,0
1683203603.19927692,108628198,1000,1000,1000,1000,0,0,0,0,0,0,0,0,0,0
1683203603.29923701,108728158,1000,1000,1000,1000,0,0,0,0,0,0,0,0,0,0
1683203603.40002990,108828951,1000,1000,1000,1000,0,0,0,0,0,0,0,0,0,0
1683203603.49998999,108928911,1000,1000,1000,1000,0,0,0,0,0,0,0,0,0,0
1683203603.59995008,109028871,1000,1000,1000,1000,0,0,0,0,0,0,0,0,0,0
1683203603.69990993,109128831,1000,1000,1000,1000,0,0,0,0,0,0,0,0,0,0
