timestamp,TimeUS,C1,C2,C3,C4,C5,C6,C7,C8,C9,C10,C11,C12,C13,C14
1683187423.70003986,49128674,1000,1000,1000,1000,0,0,0,0,0,0,0,0,0,0
1683187423.79999995,49228634,1000,1000,1000,1000,0,0,0,0,0,0,0,0,0,0
1683187423.89995980,49328594,1000,1000,1000,1000,0,0,0,0,0,0,0,0,0,0
1683187423.99991989,49428554,1000,1000,1000,1000,0,0,0,0,0,0,0,0,0,0
1683187424.09987974,49528514,1000,1000,1000,1000,0,0,0,0,0,0,0,0,0,0
1683187424.19983983,49628474,1000,1000,1000,1000,0,0,0,0,0,0,0,0,0,0
1683187424.29979992,49728434,1000,1000,1000,1000,0,0,0,0,0,0,0,0,0,0
1683187424.39975977,49828394,1000,1000,1000,1000,0,0,0,0,0,0,0,0,0,0
1683187424.49971986,49928354,1000,1000,1000,1000,0,0,0,0,0,0,0,0,0,0
1683187424.59967995,50028314,1000,1000,1000,1000,0,0,0,0,0,0,0,0,0,0
1683187424.69963980,50128274,1000,1000,1000,1000,0,0,0,0,0,0,0,0,0,0
1683187424.79959989,50228234,1000,1000,1000,1000,0,0,0,0,0,0,0,0,0,0
1683187424.89955974,50328194,1000,1000,1000,1000,0,0,0,0,0,0,0,0,0,0
1683187424.99951982,50428154,1000,1000,1000,1000,0,0,0,0,0,0,0,0,0,0
1683187425.10031295,50528947,1000,1000,1000,1000,0,0,0,0,0,0,0,0,0,0
1683187425.20027280,50628907,1000,1000,1000,1000,0,0,0,0,0,0,0,0,0,0
1683187425.30023289,50728867,1000,1000,1000,1000,0,0,0,0,0,0,0,0,0,0
1683187425.40019274,50828827,1000,1000,1000,1000,0,0,0,0,0,0,0,0,0,0
1683187425.50015283,50928787,1000,1000,1000,1000,0,0,0,0,0,0,0,0,0,0
1683187425.60011292,51028747,1000,1000,1000,1000,0,0,0,0,0,0,0,0,0,0
1683187425.70007277,51128707,1023,1023,1023,1023,0,0,0,0,0,0,0,0,0,0
1683187425.80003285,51228667,1053,1053,1053,1053,0,0,0,0,0,0,0,0,0,0
1683187425.89999294,51328627,1083,1083,1083,1083,0,0,0,0,0,0,0,0,0,0
1683187425.99995279,51428587,1100,1100,1100,1100,0,0,0,0,0,0,0,0,0,0
1683187426.09991288,51528547,1100,1100,1100,1100,0,0,0,0,0,0,0,0,0,0
1683187426.19987273,51628507,1100,1100,1100,1100,0,0,0,0,0,0,0,0,0,0
1683187426.29983282,51728467,1100,1100,1100,1100,0,0,0,0,0,0,0,0,0,0
1683187426.39979291,51828427,1100,1100,1100,1100,0,0,0,0,0,0,0,0,0,0
1683187426.49975276,51928387,1100,1100,1100,1100,0,0,0,0,0,0,0,0,0,0
1683187426.59971285,52028347,1100,1100,1100,1100,0,0,0,0,0,0,0,0,0,0
1683187426.69967294,52128307,1100,1100,1100,1100,0,0,0,0,0,0,0,0,0,0
1683187426.79963279,52228267,1100,1100,1100,1100,0,0,0,0,0,0,0,0,0,0
1683187426.89959288,52328227,1100,1100,1100,1100,0,0,0,0,0,0,0,0,0,0
1683187426.99955273,52428187,1100,1100,1100,1100,0,0,0,0,0,0,0,0,0,0
1683187427.10034585,52528980,1100,1100,1100,1100,0,0,0,0,0,0,0,0,0,0
1683187427.20030594,52628940,1100,1100,1100,1100,0,0,0,0,0,0,0,0,0,0
1683187427.30026579,52728900,1100,1100,1100,1100,0,0,0,0,0,0,0,0,0,0
1683187427.40022588,52828860,1100,1100,1100,1100,0,0,0,0,0,0,0,0,0,0
1683187427.50018573,52928820,1100,1100,1100,1100,0,0,0,0,0,0,0,0,0,0
1683187427.60014582,53028780,1100,1100,1100,1100,0,0,0,0,0,0,0,0,0,0
1683187427.70010591,53128740,1100,1100,1100,1100,0,0,0,0,0,0,0,0,0,0
1683187427.80006576,53228700,1100,1100,1100,1100,0,0,0,0,0,0,0,0,0,0
1683187427.90002584,53328660,1100,1100,1100,1100,0,0,0,0,0,0,0,0,0,0
1683187427.99998593,53428620,1100,1100,1100,1100,0,0,0,0,0,0,0,0,0,0
1683187428.09994578,53528580,1100,1100,1100,1100,0,0,0,0,0,0,0,0,0,0
1683187428.19990587,53628540,1100,1100,1100,1100,0,0,0,0,0,0,0,0,0,0
1683187428.29986572,53728500,1100,1100,1100,1100,0,0,0,0,0,0,0,0,0,0
1683187428.39982581,53828460,1100,1100,1100,1100,0,0,0,0,0,0,0,0,0,0
1683187428.49978590,53928420,1100,1100,1100,1100,0,0,0,0,0,0,0,0,0,0
1683187428.59974575,54028380,1100,1100,1100,1100,0,0,0,0,0,0,0,0,0,0
1683187428.69970584,54128340,1100,1100,1100,1100,0,0,0,0,0,0,0,0,0,0
1683187428.79966593,54228300,1100,1100,1100,1100,0,0,0,0,0,0,0,0,0,0
1683187428.89962578,54328260,1100,1100,1100,1100,0,0,0,0,0,0,0,0,0,0
1683187428.99958587,54428220,1103,1103,1103,1103,0,0,0,0,0,0,0,0,0,0
1683187429.09954572,54528180,1133,1133,1133,1133,0,0,0,0,0,0,0,0,0,0
1683187429.20033884,54628973,1182,1176,1176,1183,0,0,0,0,0,0,0,0,0,0
1683187429.30029893,54728933,1210,1203,1203,1210,0,0,0,0,0,0,0,0,0,0
1683187429.40025878,54828893,1246,1239,1239,1246,0,0,0,0,0,0,0,0,0,0
1683187429.50021887,54928853,1291,1284,1284,1292,0,0,0,0,0,0,0,0,0,0
1683187429.60017872,55028813,1340,1333,1333,1340,0,0,0,0,0,0,0,0,0,0
1683187429.70013881,55128773,1389,1381,1382,1389,0,0,0,0,0,0,0,0,0,0
1683187429.80009890,55228733,1440,1432,1432,1440,0,0,0,0,0,0,0,0,0,0
1683187429.90005875,55328693,1492,1484,1484,1492,0,0,0,0,0,0,0,0,0,0
1683187430.00001884,55428653,1545,1538,1537,1545,0,0,0,0,0,0,0,0,0,0
1683187430.09997892,55528613,1594,1586,1587,1594,0,0,0,0,0,0,0,0,0,0
1683187430.19993877,55628573,1626,1618,1618,1626,0,0,0,0,0,0,0,0,0,0
1683187430.29989886,55728533,1659,1651,1651,1660,0,0,0,0,0,0,0,0,0,0
1683187430.39985895,55828493,1694,1685,1685,1694,0,0,0,0,0,0,0,0,0,0
1683187430.49981880,55928453,1731,1723,1722,1731,0,0,0,0,0,0,0,0,0,0
1683187430.59977889,56028413,1767,1758,1758,1767,0,0,0,0,0,0,0,0,0,0
1683187430.69973874,56128373,1747,1743,1743,1747,0,0,0,0,0,0,0,0,0,0
1683187430.79969883,56228333,1610,1611,1611,1610,0,0,0,0,0,0,0,0,0,0
1683187430.89965892,56328293,1553,1556,1556,1553,0,0,0,0,0,0,0,0,0,0
1683187430.99961877,56428253,1574,1577,1578,1574,0,0,0,0,0,0,0,0,0,0
1683187431.09957886,56528213,1612,1615,1615,1612,0,0,0,0,0,0,0,0,0,0
1683187431.19953895,56628173,1639,1640,1640,1638,0,0,0,0,0,0,0,0,0,0
1683187431.30033183,56728966,1646,1646,1646,1646,0,0,0,0,0,0,0,0,0,0
1683187431.40029192,56828926,1642,1641,1641,1642,0,0,0,0,0,0,0,0,0,0
1683187431.50025177,56928886,1638,1636,1635,1638,0,0,0,0,0,0,0,0,0,0
1683187431.60021186,57028846,1635,1633,1633,1635,0,0,0,0,0,0,0,0,0,0
1683187431.70017195,57128806,1628,1633,1634,1627,0,0,0,0,0,0,0,0,0,0
1683187431.80013180,57228766,1616,1616,1609,1622,0,0,0,0,0,0,0,0,0,0
1683187431.90009189,57328726,1612,1612,1605,1619,0,0,0,0,0,0,0,0,0,0
1683187432.00005174,57428686,1612,1611,1608,1615,0,0,0,0,0,0,0,0,0,0
1683187432.10001183,57528646,1614,1612,1613,1612,0,0,0,0,0,0,0,0,0,0
1683187432.19997191,57628606,1617,1616,1618,1613,0,0,0,0,0,0,0,0,0,0
1683187432.29993176,57728566,1621,1620,1624,1617,0,0,0,0,0,0,0,0,0,0
1683187432.39989185,57828526,1602,1603,1612,1593,0,0,0,0,0,0,0,0,0,0
1683187432.49985194,57928486,1584,1586,1601,1570,0,0,0,0,0,0,0,0,0,0
1683187432.59981179,58028446,1571,1572,1580,1565,0,0,0,0,0,0,0,0,0,0
1683187432.69977188,58128406,1560,1561,1558,1564,0,0,0,0,0,0,0,0,0,0
1683187432.79973173,58228366,1551,1551,1541,1562,0,0,0,0,0,0,0,0,0,0
1683187432.89969182,58328326,1544,1543,1532,1554,0,0,0,0,0,0,0,0,0,0
1683187432.99965191,58428286,1536,1536,1528,1544,0,0,0,0,0,0,0,0,0,0
1683187433.09961176,58528246,1532,1531,1528,1535,0,0,0,0,0,0,0,0,0,0
1683187433.19957185,58628206,1531,1530,1530,1530,0,0,0,0,0,0,0,0,0,0
1683187433.29953194,58728166,1531,1530,1532,1528,0,0,0,0,0,0,0,0,0,0
1683187433.40032482,58828959,1533,1533,1536,1530,0,0,0,0,0,0,0,0,0,0
1683187433.50028491,58928919,1536,1537,1540,1532,0,0,0,0,0,0,0,0,0,0
1683187433.60024476,59028879,1539,1540,1543,1536,0,0,0,0,0,0,0,0,0,0
1683187433.70020485,59128839,1543,1543,1545,1541,0,0,0,0,0,0,0,0,0,0
1683187433.80016494,59228799,1546,1546,1546,1546,0,0,0,0,0,0,0,0,0,0
1683187433.90012479,59328759,1549,1549,1548,1550,0,0,0,0,0,0,0,0,0,0
1683187434.00008488,59428719,1551,1551,1550,1552,0,0,0,0,0,0,0,0,0,0
1683187434.10004473,59528679,1552,1550,1554,1558,0,0,0,0,0,0,0,0,0,0
1683187434.20000482,59628639,1549,1550,1561,1564,0,0,0,0,0,0,0,0,0,0
1683187434.29996490,59728599,1552,1552,1562,1564,0,0,0,0,0,0,0,0,0,0
1683187434.39992476,59828559,1557,1557,1564,1564,0,0,0,0,0,0,0,0,0,0
1683187434.49988484,59928519,1561,1561,1564,1563,0,0,0,0,0,0,0,0,0,0
1683187434.59984493,60028479,1565,1565,1564,1563,0,0,0,0,0,0,0,0,0,0
1683187434.69980478,60128439,1568,1568,1564,1563,0,0,0,0,0,0,0,0,0,0
1683187434.79976487,60228399,1570,1570,1563,1563,0,0,0,0,0,0,0,0,0,0
1683187434.89972472,60328359,1572,1572,1565,1565,0,0,0,0,0,0,0,0,0,0
1683187434.99968481,60428319,1572,1572,1564,1564,0,0,0,0,0,0,0,0,0,0
1683187435.09964490,60528279,1572,1572,1565,1566,0,0,0,0,0,0,0,0,0,0
1683187435.19960475,60628239,1574,1573,1568,1568,0,0,0,0,0,0,0,0,0,0
1683187435.29956484,60728199,1573,1572,1569,1569,0,0,0,0,0,0,0,0,0,0
1683187435.39952493,60828159,1573,1573,1571,1571,0,0,0,0,0,0,0,0,0,0
1683187435.50031781,60928952,1574,1574,1574,1573,0,0,0,0,0,0,0,0,0,0
1683187435.60027790,61028912,1573,1574,1575,1574,0,0,0,0,0,0,0,0,0,0
1683187435.70023775,61128872,1574,1574,1577,1575,0,0,0,0,0,0,0,0,0,0
1683187435.80019784,61228832,1574,1574,1577,1576,0,0,0,0,0,0,0,0,0,0
1683187435.90015793,61328792,1574,1574,1577,1577,0,0,0,0,0,0,0,0,0,0
1683187436.00011778,61428752,1575,1575,1578,1578,0,0,0,0,0,0,0,0,0,0
1683187436.10007787,61528712,1575,1575,1577,1577,0,0,0,0,0,0,0,0,0,0
1683187436.20003772,61628672,1575,1575,1576,1577,0,0,0,0,0,0,0,0,0,0
1683187436.29999781,61728632,1576,1576,1577,1577,0,0,0,0,0,0,0,0,0,0
1683187436.39995790,61828592,1577,1578,1577,1578,0,0,0,0,0,0,0,0,0,0
1683187436.49991775,61928552,1579,1578,1578,1578,0,0,0,0,0,0,0,0,0,0
1683187436.59987783,62028512,1578,1578,1577,1577,0,0,0,0,0,0,0,0,0,0
1683187436.69983792,62128472,1579,1578,1577,1577,0,0,0,0,0,0,0,0,0,0
1683187436.79979777,62228432,1579,1579,1578,1578,0,0,0,0,0,0,0,0,0,0
1683187436.89975786,62328392,1579,1579,1578,1578,0,0,0,0,0,0,0,0,0,0
1683187436.99971795,62428352,1578,1578,1578,1577,0,0,0,0,0,0,0,0,0,0
1683187437.09967780,62528312,1579,1579,1578,1579,0,0,0,0,0,0,0,0,0,0
1683187437.19963789,62628272,1578,1578,1578,1578,0,0,0,0,0,0,0,0,0,0
1683187437.29959774,62728232,1579,1579,1579,1579,0,0,0,0,0,0,0,0,0,0
1683187437.39955783,62828192,1579,1580,1580,1580,0,0,0,0,0,0,0,0,0,0
1683187437.50035095,62928985,1579,1579,1579,1579,0,0,0,0,0,0,0,0,0,0
1683187437.60031080,63028945,1578,1578,1579,1579,0,0,0,0,0,0,0,0,0,0
1683187437.70027089,63128905,1579,1578,1579,1579,0,0,0,0,0,0,0,0,0,0
1683187437.80023074,63228865,1579,1578,1579,1579,0,0,0,0,0,0,0,0,0,0
1683187437.90019083,63328825,1578,1578,1579,1579,0,0,0,0,0,0,0,0,0,0
1683187438.00015092,63428785,1578,1578,1579,1579,0,0,0,0,0,0,0,0,0,0
1683187438.10011077,63528745,1578,1579,1579,1579,0,0,0,0,0,0,0,0,0,0
1683187438.20007086,63628705,1579,1579,1580,1579,0,0,0,0,0,0,0,0,0,0
1683187438.30003095,63728665,1579,1579,1579,1579,0,0,0,0,0,0,0,0,0,0
1683187438.39999080,63828625,1580,1579,1580,1579,0,0,0,0,0,0,0,0,0,0
1683187438.49995089,63928585,1580,1580,1580,1580,0,0,0,0,0,0,0,0,0,0
1683187438.59991074,64028545,1580,1580,1579,1580,0,0,0,0,0,0,0,0,0,0
1683187438.69987082,64128505,1579,1580,1579,1579,0,0,0,0,0,0,0,0,0,0
1683187438.79983091,64228465,1581,1581,1580,1580,0,0,0,0,0,0,0,0,0,0
1683187438.89979076,64328425,1580,1580,1580,1580,0,0,0,0,0,0,0,0,0,0
1683187438.99975085,64428385,1580,1581,1580,1581,0,0,0,0,0,0,0,0,0,0
1683187439.09971094,64528345,1581,1581,1581,1581,0,0,0,0,0,0,0,0,0,0
1683187439.19967079,64628305,1581,1581,1581,1581,0,0,0,0,0,0,0,0,0,0
1683187439.29963088,64728265,1581,1581,1581,1581,0,0,0,0,0,0,0,0,0,0
1683187439.39959073,64828225,1581,1580,1581,1581,0,0,0,0,0,0,0,0,0,0
1683187439.49955082,64928185,1582,1582,1582,1582,0,0,0,0,0,0,0,0,0,0
1683187439.60034394,65028978,1580,1580,1581,1580,0,0,0,0,0,0,0,0,0,0
1683187439.70030379,65128938,1580,1580,1580,1580,0,0,0,0,0,0,0,0,0,0
1683187439.80026388,65228898,1580,1580,1580,1580,0,0,0,0,0,0,0,0,0,0
1683187439.90022373,65328858,1580,1580,1580,1580,0,0,0,0,0,0,0,0,0,0
1683187440.00018382,65428818,1581,1580,1580,1580,0,0,0,0,0,0,0,0,0,0
1683187440.10014391,65528778,1580,1580,1580,1580,0,0,0,0,0,0,0,0,0,0
1683187440.20010376,65628738,1581,1580,1581,1580,0,0,0,0,0,0,0,0,0,0
1683187440.30006385,65728698,1581,1581,1581,1581,0,0,0,0,0,0,0,0,0,0
1683187440.40002394,65828658,1580,1582,1588,1573,0,0,0,0,0,0,0,0,0,0
1683187440.49998379,65928618,1580,1582,1584,1573,0,0,0,0,0,0,0,0,0,0
1683187440.59994388,66028578,1579,1582,1577,1574,0,0,0,0,0,0,0,0,0,0
1683187440.69990373,66128538,1578,1580,1568,1572,0,0,0,0,0,0,0,0,0,0
1683187440.79986382,66228498,1577,1579,1561,1568,0,0,0,0,0,0,0,0,0,0
1683187440.89982390,66328458,1577,1578,1557,1563,0,0,0,0,0,0,0,0,0,0
1683187440.99978375,66428418,1578,1577,1555,1558,0,0,0,0,0,0,0,0,0,0
1683187441.09974384,66528378,1580,1578,1556,1556,0,0,0,0,0,0,0,0,0,0
1683187441.19970393,66628338,1580,1578,1556,1554,0,0,0,0,0,0,0,0,0,0
1683187441.29966378,66728298,1578,1578,1557,1554,0,0,0,0,0,0,0,0,0,0
1683187441.39962387,66828258,1577,1576,1555,1553,0,0,0,0,0,0,0,0,0,0
1683187441.49958372,66928218,1575,1576,1555,1554,0,0,0,0,0,0,0,0,0,0
1683187441.59954381,67028178,1575,1577,1554,1555,0,0,0,0,0,0,0,0,0,0
1683187441.70033693,67128971,1575,1577,1553,1554,0,0,0,0,0,0,0,0,0,0
1683187441.80029678,67228931,1575,1577,1551,1552,0,0,0,0,0,0,0,0,0,0
1683187441.90025687,67328891,1576,1578,1549,1550,0,0,0,0,0,0,0,0,0,0
1683187442.00021672,67428851,1578,1579,1547,1547,0,0,0,0,0,0,0,0,0,0
1683187442.10017681,67528811,1581,1581,1545,1545,0,0,0,0,0,0,0,0,0,0
1683187442.20013690,67628771,1584,1584,1543,1542,0,0,0,0,0,0,0,0,0,0
1683187442.30009675,67728731,1587,1587,1540,1540,0,0,0,0,0,0,0,0,0,0
1683187442.40005684,67828691,1590,1591,1537,1538,0,0,0,0,0,0,0,0,0,0
1683187442.50001693,67928651,1593,1593,1535,1536,0,0,0,0,0,0,0,0,0,0
1683187442.59997678,68028611,1595,1594,1535,1535,0,0,0,0,0,0,0,0,0,0
1683187442.69993687,68128571,1595,1595,1535,1536,0,0,0,0,0,0,0,0,0,0
1683187442.79989672,68228531,1594,1594,1536,1539,0,0,0,0,0,0,0,0,0,0
1683187442.89985681,68328491,1592,1592,1539,1542,0,0,0,0,0,0,0,0,0,0
1683187442.99981689,68428451,1589,1588,1545,1548,0,0,0,0,0,0,0,0,0,0
1683187443.09977674,68528411,1583,1580,1552,1555,0,0,0,0,0,0,0,0,0,0
1683187443.19973683,68628371,1575,1571,1563,1565,0,0,0,0,0,0,0,0,0,0
1683187443.29969692,68728331,1564,1560,1574,1576,0,0,0,0,0,0,0,0,0,0
1683187443.39965677,68828291,1554,1550,1587,1588,0,0,0,0,0,0,0,0,0,0
1683187443.49961686,68928251,1543,1541,1599,1598,0,0,0,0,0,0,0,0,0,0
1683187443.59957695,69028211,1534,1534,1608,1606,0,0,0,0,0,0,0,0,0,0
1683187443.69953680,69128171,1529,1530,1613,1612,0,0,0,0,0,0,0,0,0,0
1683187443.80032992,69228964,1529,1531,1615,1614,0,0,0,0,0,0,0,0,0,0
1683187443.90028977,69328924,1531,1534,1613,1613,0,0,0,0,0,0,0,0,0,0
1683187444.00024986,69428884,1537,1539,1609,1609,0,0,0,0,0,0,0,0,0,0
1683187444.10020995,69528844,1545,1546,1602,1603,0,0,0,0,0,0,0,0,0,0
1683187444.20016980,69628804,1554,1555,1596,1596,0,0,0,0,0,0,0,0,0,0
1683187444.30012989,69728764,1563,1562,1588,1588,0,0,0,0,0,0,0,0,0,0
1683187444.40008974,69828724,1570,1569,1580,1580,0,0,0,0,0,0,0,0,0,0
1683187444.50004983,69928684,1577,1577,1575,1574,0,0,0,0,0,0,0,0,0,0
1683187444.60000992,70028644,1583,1582,1571,1570,0,0,0,0,0,0,0,0,0,0
1683187444.69996977,70128604,1587,1585,1568,1568,0,0,0,0,0,0,0,0,0,0
1683187444.79992986,70228564,1588,1586,1566,1567,0,0,0,0,0,0,0,0,0,0
1683187444.89988995,70328524,1588,1587,1568,1568,0,0,0,0,0,0,0,0,0,0
1683187444.99984980,70428484,1586,1586,1569,1569,0,0,0,0,0,0,0,0,0,0
1683187445.09980989,70528444,1584,1583,1571,1571,0,0,0,0,0,0,0,0,0,0
1683187445.19976974,70628404,1581,1580,1573,1574,0,0,0,0,0,0,0,0,0,0
1683187445.29972982,70728364,1579,1579,1577,1577,0,0,0,0,0,0,0,0,0,0
1683187445.39968991,70828324,1576,1576,1579,1580,0,0,0,0,0,0,0,0,0,0
1683187445.49964976,70928284,1574,1574,1582,1581,0,0,0,0,0,0,0,0,0,0
1683187445.59960985,71028244,1573,1573,1583,1583,0,0,0,0,0,0,0,0,0,0
1683187445.69956994,71128204,1571,1571,1582,1582,0,0,0,0,0,0,0,0,0,0
1683187445.79952979,71228164,1572,1572,1583,1583,0,0,0,0,0,0,0,0,0,0
1683187445.90032291,71328957,1573,1573,1583,1582,0,0,0,0,0,0,0,0,0,0
1683187446.00028276,71428917,1574,1574,1581,1582,0,0,0,0,0,0,0,0,0,0
1683187446.10024285,71528877,1575,1576,1580,1581,0,0,0,0,0,0,0,0,0,0
1683187446.20020294,71628837,1577,1578,1580,1580,0,0,0,0,0,0,0,0,0,0
1683187446.30016279,71728797,1579,1579,1579,1579,0,0,0,0,0,0,0,0,0,0
1683187446.40012288,71828757,1580,1580,1578,1578,0,0,0,0,0,0,0,0,0,0
1683187446.50008273,71928717,1580,1580,1577,1577,0,0,0,0,0,0,0,0,0,0
1683187446.60004282,72028677,1581,1581,1577,1577,0,0,0,0,0,0,0,0,0,0
1683187446.70000291,72128637,1582,1582,1578,1578,0,0,0,0,0,0,0,0,0,0
1683187446.79996276,72228597,1582,1581,1577,1578,0,0,0,0,0,0,0,0,0,0
1683187446.89992285,72328557,1582,1581,1578,1578,0,0,0,0,0,0,0,0,0,0
1683187446.99988294,72428517,1580,1581,1578,1578,0,0,0,0,0,0,0,0,0,0
1683187447.09984279,72528477,1581,1581,1579,1579,0,0,0,0,0,0,0,0,0,0
1683187447.19980288,72628437,1580,1580,1579,1579,0,0,0,0,0,0,0,0,0,0
1683187447.29976273,72728397,1579,1579,1579,1579,0,0,0,0,0,0,0,0,0,0
1683187447.39972281,72828357,1578,1578,1579,1579,0,0,0,0,0,0,0,0,0,0
1683187447.49968290,72928317,1578,1578,1579,1580,0,0,0,0,0,0,0,0,0,0
1683187447.59964275,73028277,1579,1579,1580,1580,0,0,0,0,0,0,0,0,0,0
1683187447.69960284,73128237,1578,1579,1580,1580,0,0,0,0,0,0,0,0,0,0
1683187447.79956293,73228197,1580,1579,1581,1581,0,0,0,0,0,0,0,0,0,0
1683187447.89952278,73328157,1580,1580,1581,1581,0,0,0,0,0,0,0,0,0,0
1683187448.00031590,73428950,1581,1581,1582,1582,0,0,0,0,0,0,0,0,0,0
1683187448.10027575,73528910,1580,1580,1581,1581,0,0,0,0,0,0,0,0,0,0
1683187448.20023584,73628870,1581,1581,1581,1581,0,0,0,0,0,0,0,0,0,0
1683187448.30019593,73728830,1581,1581,1580,1580,0,0,0,0,0,0,0,0,0,0
1683187448.40015578,73828790,1580,1582,1586,1573,0,0,0,0,0,0,0,0,0,0
1683187448.50011587,73928750,1580,1584,1584,1571,0,0,0,0,0,0,0,0,0,0
1683187448.60007572,74028710,1580,1584,1576,1571,0,0,0,0,0,0,0,0,0,0
1683187448.70003581,74128670,1580,1582,1566,1569,0,0,0,0,0,0,0,0,0,0
1683187448.79999590,74228630,1579,1581,1559,1565,0,0,0,0,0,0,0,0,0,0
1683187448.89995575,74328590,1580,1581,1555,1562,0,0,0,0,0,0,0,0,0,0
1683187448.99991584,74428550,1581,1580,1553,1556,0,0,0,0,0,0,0,0,0,0
1683187449.09987593,74528510,1582,1580,1553,1554,0,0,0,0,0,0,0,0,0,0
1683187449.19983578,74628470,1581,1580,1553,1552,0,0,0,0,0,0,0,0,0,0
1683187449.29979587,74728430,1580,1580,1554,1552,0,0,0,0,0,0,0,0,0,0
1683187449.39975572,74828390,1579,1580,1555,1552,0,0,0,0,0,0,0,0,0,0
1683187449.49971581,74928350,1578,1579,1555,1553,0,0,0,0,0,0,0,0,0,0
1683187449.59967589,75028310,1577,1579,1554,1554,0,0,0,0,0,0,0,0,0,0
1683187449.69963574,75128270,1576,1578,1553,1553,0,0,0,0,0,0,0,0,0,0
1683187449.79959583,75228230,1577,1579,1552,1553,0,0,0,0,0,0,0,0,0,0
1683187449.89955592,75328190,1578,1579,1550,1551,0,0,0,0,0,0,0,0,0,0
1683187450.00034881,75428983,1581,1581,1550,1550,0,0,0,0,0,0,0,0,0,0
1683187450.10030890,75528943,1582,1583,1547,1547,0,0,0,0,0,0,0,0,0,0
1683187450.20026875,75628903,1584,1586,1546,1546,0,0,0,0,0,0,0,0,0,0
1683187450.30022883,75728863,1587,1587,1544,1544,0,0,0,0,0,0,0,0,0,0
1683187450.40018892,75828823,1588,1589,1542,1542,0,0,0,0,0,0,0,0,0,0
1683187450.50014877,75928783,1590,1591,1539,1540,0,0,0,0,0,0,0,0,0,0
1683187450.60010886,76028743,1591,1593,1538,1540,0,0,0,0,0,0,0,0,0,0
1683187450.70006895,76128703,1593,1592,1539,1542,0,0,0,0,0,0,0,0,0,0
1683187450.80002880,76228663,1592,1590,1542,1545,0,0,0,0,0,0,0,0,0,0
1683187450.89998889,76328623,1588,1585,1548,1550,0,0,0,0,0,0,0,0,0,0
1683187450.99994874,76428583,1582,1578,1556,1559,0,0,0,0,0,0,0,0,0,0
1683187451.09990883,76528543,1574,1570,1567,1568,0,0,0,0,0,0,0,0,0,0
1683187451.19986892,76628503,1564,1561,1578,1579,0,0,0,0,0,0,0,0,0,0
1683187451.29982877,76728463,1554,1551,1588,1589,0,0,0,0,0,0,0,0,0,0
1683187451.39978886,76828423,1545,1544,1598,1598,0,0,0,0,0,0,0,0,0,0
1683187451.49974895,76928383,1539,1540,1605,1605,0,0,0,0,0,0,0,0,0,0
1683187451.59970880,77028343,1537,1538,1610,1609,0,0,0,0,0,0,0,0,0,0
1683187451.69966888,77128303,1536,1538,1611,1610,0,0,0,0,0,0,0,0,0,0
1683187451.79962873,77228263,1540,1541,1609,1609,0,0,0,0,0,0,0,0,0,0
1683187451.89958882,77328223,1545,1547,1606,1605,0,0,0,0,0,0,0,0,0,0
1683187451.99954891,77428183,1552,1553,1600,1599,0,0,0,0,0,0,0,0,0,0
1683187452.10034180,77528976,1560,1561,1595,1594,0,0,0,0,0,0,0,0,0,0
1683187452.20030189,77628936,1566,1566,1587,1586,0,0,0,0,0,0,0,0,0,0
1683187452.30026174,77728896,1573,1573,1581,1580,0,0,0,0,0,0,0,0,0,0
1683187452.40022182,77828856,1578,1577,1574,1575,0,0,0,0,0,0,0,0,0,0
1683187452.50018191,77928816,1582,1580,1570,1571,0,0,0,0,0,0,0,0,0,0
1683187452.60014176,78028776,1586,1585,1570,1570,0,0,0,0,0,0,0,0,0,0
1683187452.70010185,78128736,1586,1585,1569,1569,0,0,0,0,0,0,0,0,0,0
1683187452.80006194,78228696,1586,1585,1569,1569,0,0,0,0,0,0,0,0,0,0
1683187452.90002179,78328656,1583,1583,1570,1570,0,0,0,0,0,0,0,0,0,0
1683187452.99998188,78428616,1582,1581,1573,1573,0,0,0,0,0,0,0,0,0,0
1683187453.09994173,78528576,1580,1579,1575,1575,0,0,0,0,0,0,0,0,0,0
1683187453.19990182,78628536,1578,1578,1578,1578,0,0,0,0,0,0,0,0,0,0
1683187453.29986191,78728496,1576,1576,1580,1581,0,0,0,0,0,0,0,0,0,0
1683187453.39982176,78828456,1574,1576,1582,1582,0,0,0,0,0,0,0,0,0,0
1683187453.49978185,78928416,1574,1575,1584,1583,0,0,0,0,0,0,0,0,0,0
1683187453.59974194,79028376,1574,1575,1585,1584,0,0,0,0,0,0,0,0,0,0
1683187453.69970179,79128336,1574,1574,1584,1584,0,0,0,0,0,0,0,0,0,0
1683187453.79966187,79228296,1575,1574,1582,1583,0,0,0,0,0,0,0,0,0,0
1683187453.89962173,79328256,1576,1576,1582,1582,0,0,0,0,0,0,0,0,0,0
1683187453.99958181,79428216,1577,1577,1581,1582,0,0,0,0,0,0,0,0,0,0
1683187454.09954190,79528176,1579,1579,1581,1581,0,0,0,0,0,0,0,0,0,0
1683187454.20033479,79628969,1579,1579,1579,1579,0,0,0,0,0,0,0,0,0,0
1683187454.30029488,79728929,1581,1581,1579,1579,0,0,0,0,0,0,0,0,0,0
1683187454.40025473,79828889,1581,1581,1579,1578,0,0,0,0,0,0,0,0,0,0
1683187454.50021482,79928849,1582,1582,1578,1579,0,0,0,0,0,0,0,0,0,0
1683187454.60017490,80028809,1582,1582,1578,1578,0,0,0,0,0,0,0,0,0,0
1683187454.70013475,80128769,1582,1581,1578,1578,0,0,0,0,0,0,0,0,0,0
1683187454.80009484,80228729,1582,1581,1579,1579,0,0,0,0,0,0,0,0,0,0
1683187454.90005493,80328689,1581,1580,1579,1579,0,0,0,0,0,0,0,0,0,0
1683187455.00001478,80428649,1581,1581,1580,1580,0,0,0,0,0,0,0,0,0,0
1683187455.09997487,80528609,1580,1580,1580,1580,0,0,0,0,0,0,0,0,0,0
1683187455.19993472,80628569,1580,1580,1580,1581,0,0,0,0,0,0,0,0,0,0
1683187455.29989481,80728529,1579,1580,1581,1581,0,0,0,0,0,0,0,0,0,0
1683187455.39985490,80828489,1580,1580,1581,1581,0,0,0,0,0,0,0,0,0,0
1683187455.49981475,80928449,1579,1579,1581,1581,0,0,0,0,0,0,0,0,0,0
1683187455.59977484,81028409,1580,1580,1581,1582,0,0,0,0,0,0,0,0,0,0
1683187455.69973493,81128369,1580,1581,1581,1582,0,0,0,0,0,0,0,0,0,0
1683187455.79969478,81228329,1580,1580,1581,1581,0,0,0,0,0,0,0,0,0,0
1683187455.89965487,81328289,1579,1579,1580,1580,0,0,0,0,0,0,0,0,0,0
1683187455.99961472,81428249,1581,1581,1581,1581,0,0,0,0,0,0,0,0,0,0
1683187456.09957480,81528209,1581,1581,1581,1580,0,0,0,0,0,0,0,0,0,0
1683187456.19953489,81628169,1581,1581,1580,1580,0,0,0,0,0,0,0,0,0,0
1683187456.30032778,81728962,1582,1581,1581,1581,0,0,0,0,0,0,0,0,0,0
1683187456.40028787,81828922,1582,1581,1580,1581,0,0,0,0,0,0,0,0,0,0
1683187456.50024772,81928882,1581,1583,1585,1577,0,0,0,0,0,0,0,0,0,0
1683187456.60020781,82028842,1581,1583,1587,1572,0,0,0,0,0,0,0,0,0,0
1683187456.70016789,82128802,1579,1582,1580,1572,0,0,0,0,0,0,0,0,0,0
1683187456.80012774,82228762,1578,1581,1571,1571,0,0,0,0,0,0,0,0,0,0
1683187456.90008783,82328722,1576,1579,1562,1568,0,0,0,0,0,0,0,0,0,0
1683187457.00004792,82428682,1576,1578,1557,1564,0,0,0,0,0,0,0,0,0,0
1683187457.10000777,82528642,1579,1579,1555,1561,0,0,0,0,0,0,0,0,0,0
1683187457.19996786,82628602,1579,1577,1553,1556,0,0,0,0,0,0,0,0,0,0
1683187457.29992795,82728562,1580,1578,1555,1554,0,0,0,0,0,0,0,0,0,0
1683187457.39988780,82828522,1579,1578,1556,1553,0,0,0,0,0,0,0,0,0,0
1683187457.49984789,82928482,1579,1578,1555,1553,0,0,0,0,0,0,0,0,0,0
1683187457.59980774,83028442,1577,1578,1555,1553,0,0,0,0,0,0,0,0,0,0
1683187457.69976783,83128402,1576,1578,1555,1554,0,0,0,0,0,0,0,0,0,0
1683187457.79972792,83228362,1575,1577,1554,1554,0,0,0,0,0,0,0,0,0,0
1683187457.89968777,83328322,1575,1577,1552,1553,0,0,0,0,0,0,0,0,0,0
1683187457.99964786,83428282,1577,1578,1552,1552,0,0,0,0,0,0,0,0,0,0
1683187458.09960794,83528242,1577,1579,1549,1550,0,0,0,0,0,0,0,0,0,0
1683187458.19956779,83628202,1580,1580,1547,1548,0,0,0,0,0,0,0,0,0,0
1683187458.29952788,83728162,1583,1583,1546,1546,0,0,0,0,0,0,0,0,0,0
1683187458.40032077,83828955,1585,1585,1543,1542,0,0,0,0,0,0,0,0,0,0
1683187458.50028086,83928915,1589,1589,1542,1542,0,0,0,0,0,0,0,0,0,0
1683187458.60024095,84028875,1591,1591,1540,1540,0,0,0,0,0,0,0,0,0,0
1683187458.70020080,84128835,1592,1592,1539,1538,0,0,0,0,0,0,0,0,0,0
1683187458.80016088,84228795,1593,1594,1537,1539,0,0,0,0,0,0,0,0,0,0
1683187458.90012074,84328755,1594,1595,1539,1541,0,0,0,0,0,0,0,0,0,0
1683187459.00008082,84428715,1593,1593,1540,1543,0,0,0,0,0,0,0,0,0,0
1683187459.10004091,84528675,1590,1588,1544,1547,0,0,0,0,0,0,0,0,0,0
1683187459.20000076,84628635,1584,1582,1551,1553,0,0,0,0,0,0,0,0,0,0
1683187459.29996085,84728595,1578,1574,1561,1563,0,0,0,0,0,0,0,0,0,0
1683187459.39992094,84828555,1568,1564,1572,1573,0,0,0,0,0,0,0,0,0,0
1683187459.49988079,84928515,1557,1554,1583,1584,0,0,0,0,0,0,0,0,0,0
1683187459.59984088,85028475,1546,1544,1593,1594,0,0,0,0,0,0,0,0,0,0
1683187459.69980073,85128435,1538,1537,1602,1602,0,0,0,0,0,0,0,0,0,0
1683187459.79976082,85228395,1533,1533,1609,1608,0,0,0,0,0,0,0,0,0,0
1683187459.89972091,85328355,1532,1534,1613,1611,0,0,0,0,0,0,0,0,0,0
1683187459.99968076,85428315,1535,1537,1613,1612,0,0,0,0,0,0,0,0,0,0
1683187460.09964085,85528275,1539,1542,1610,1609,0,0,0,0,0,0,0,0,0,0
1683187460.19960093,85628235,1546,1548,1604,1604,0,0,0,0,0,0,0,0,0,0
1683187460.29956079,85728195,1553,1554,1598,1597,0,0,0,0,0,0,0,0,0,0
1683187460.39952087,85828155,1562,1562,1591,1590,0,0,0,0,0,0,0,0,0,0
1683187460.50031376,85928948,1569,1569,1583,1582,0,0,0,0,0,0,0,0,0,0
1683187460.60027385,86028908,1576,1576,1577,1577,0,0,0,0,0,0,0,0,0,0
1683187460.70023394,86128868,1581,1580,1572,1572,0,0,0,0,0,0,0,0,0,0
1683187460.80019379,86228828,1586,1584,1569,1570,0,0,0,0,0,0,0,0,0,0
1683187460.90015388,86328788,1587,1585,1567,1568,0,0,0,0,0,0,0,0,0,0
1683187461.00011373,86428748,1587,1585,1567,1567,0,0,0,0,0,0,0,0,0,0
1683187461.10007381,86528708,1585,1585,1569,1569,0,0,0,0,0,0,0,0,0,0
1683187461.20003390,86628668,1583,1583,1570,1571,0,0,0,0,0,0,0,0,0,0
1683187461.29999375,86728628,1580,1580,1572,1573,0,0,0,0,0,0,0,0,0,0
1683187461.39995384,86828588,1578,1578,1576,1576,0,0,0,0,0,0,0,0,0,0
1683187461.49991393,86928548,1576,1576,1579,1578,0,0,0,0,0,0,0,0,0,0
1683187461.59987378,87028508,1574,1575,1581,1580,0,0,0,0,0,0,0,0,0,0
1683187461.69983387,87128468,1574,1574,1583,1583,0,0,0,0,0,0,0,0,0,0
1683187461.79979372,87228428,1573,1574,1584,1584,0,0,0,0,0,0,0,0,0,0
1683187461.89975381,87328388,1573,1573,1583,1583,0,0,0,0,0,0,0,0,0,0
1683187461.99971390,87428348,1573,1574,1583,1583,0,0,0,0,0,0,0,0,0,0
1683187462.09967375,87528308,1575,1576,1583,1583,0,0,0,0,0,0,0,0,0,0
1683187462.19963384,87628268,1576,1576,1582,1581,0,0,0,0,0,0,0,0,0,0
1683187462.29959393,87728228,1577,1577,1580,1580,0,0,0,0,0,0,0,0,0,0
1683187462.39955378,87828188,1579,1579,1580,1580,0,0,0,0,0,0,0,0,0,0
1683187462.50034690,87928981,1581,1580,1579,1579,0,0,0,0,0,0,0,0,0,0
1683187462.60030675,88028941,1581,1581,1578,1578,0,0,0,0,0,0,0,0,0,0
1683187462.70026684,88128901,1581,1581,1577,1577,0,0,0,0,0,0,0,0,0,0
1683187462.80022693,88228861,1582,1581,1577,1577,0,0,0,0,0,0,0,0,0,0
1683187462.90018678,88328821,1581,1581,1577,1577,0,0,0,0,0,0,0,0,0,0
1683187463.00014687,88428781,1582,1583,1579,1579,0,0,0,0,0,0,0,0,0,0
1683187463.10010672,88528741,1581,1582,1579,1579,0,0,0,0,0,0,0,0,0,0
1683187463.20006680,88628701,1580,1580,1579,1579,0,0,0,0,0,0,0,0,0,0
1683187463.30002689,88728661,1580,1580,1580,1579,0,0,0,0,0,0,0,0,0,0
1683187463.39998674,88828621,1580,1579,1580,1580,0,0,0,0,0,0,0,0,0,0
1683187463.49994683,88928581,1579,1579,1580,1580,0,0,0,0,0,0,0,0,0,0
1683187463.59990692,89028541,1578,1579,1580,1580,0,0,0,0,0,0,0,0,0,0
1683187463.69986677,89128501,1579,1579,1580,1581,0,0,0,0,0,0,0,0,0,0
1683187463.79982686,89228461,1579,1579,1581,1581,0,0,0,0,0,0,0,0,0,0
1683187463.89978695,89328421,1580,1580,1581,1581,0,0,0,0,0,0,0,0,0,0
1683187463.99974680,89428381,1579,1580,1581,1581,0,0,0,0,0,0,0,0,0,0
1683187464.09970689,89528341,1581,1581,1581,1582,0,0,0,0,0,0,0,0,0,0
1683187464.19966674,89628301,1581,1581,1582,1581,0,0,0,0,0,0,0,0,0,0
1683187464.29962683,89728261,1580,1581,1581,1580,0,0,0,0,0,0,0,0,0,0
1683187464.39958692,89828221,1580,1581,1581,1579,0,0,0,0,0,0,0,0,0,0
1683187464.49954677,89928181,1581,1581,1586,1572,0,0,0,0,0,0,0,0,0,0
1683187464.60033989,90028974,1580,1581,1584,1573,0,0,0,0,0,0,0,0,0,0
1683187464.70029974,90128934,1579,1578,1577,1575,0,0,0,0,0,0,0,0,0,0
1683187464.80025983,90228894,1574,1574,1570,1574,0,0,0,0,0,0,0,0,0,0
1683187464.90021992,90328854,1572,1572,1567,1575,0,0,0,0,0,0,0,0,0,0
1683187465.00017977,90428814,1569,1569,1565,1571,0,0,0,0,0,0,0,0,0,0
1683187465.10013986,90528774,1567,1567,1564,1569,0,0,0,0,0,0,0,0,0,0
1683187465.20009995,90628734,1566,1566,1566,1566,0,0,0,0,0,0,0,0,0,0
1683187465.30005980,90728694,1566,1566,1567,1566,0,0,0,0,0,0,0,0,0,0
1683187465.40001988,90828654,1565,1566,1567,1565,0,0,0,0,0,0,0,0,0,0
1683187465.49997973,90928614,1565,1565,1567,1565,0,0,0,0,0,0,0,0,0,0
1683187465.59993982,91028574,1565,1565,1567,1564,0,0,0,0,0,0,0,0,0,0
1683187465.69989991,91128534,1563,1563,1564,1564,0,0,0,0,0,0,0,0,0,0
1683187465.79985976,91228494,1562,1562,1563,1563,0,0,0,0,0,0,0,0,0,0
1683187465.89981985,91328454,1563,1563,1563,1564,0,0,0,0,0,0,0,0,0,0
1683187465.99977994,91428414,1562,1562,1562,1562,0,0,0,0,0,0,0,0,0,0
1683187466.09973979,91528374,1561,1561,1561,1561,0,0,0,0,0,0,0,0,0,0
1683187466.19969988,91628334,1561,1562,1561,1561,0,0,0,0,0,0,0,0,0,0
1683187466.29965973,91728294,1561,1561,1561,1561,0,0,0,0,0,0,0,0,0,0
1683187466.39961982,91828254,1559,1560,1560,1559,0,0,0,0,0,0,0,0,0,0
1683187466.49957991,91928214,1559,1559,1559,1558,0,0,0,0,0,0,0,0,0,0
1683187466.59953976,92028174,1558,1558,1558,1557,0,0,0,0,0,0,0,0,0,0
1683187466.70033288,92128967,1558,1558,1558,1557,0,0,0,0,0,0,0,0,0,0
1683187466.80029273,92228927,1558,1558,1558,1557,0,0,0,0,0,0,0,0,0,0
1683187466.90025282,92328887,1558,1558,1558,1557,0,0,0,0,0,0,0,0,0,0
1683187467.00021291,92428847,1558,1558,1558,1557,0,0,0,0,0,0,0,0,0,0
1683187467.10017276,92528807,1559,1559,1560,1558,0,0,0,0,0,0,0,0,0,0
1683187467.20013285,92628767,1558,1558,1559,1556,0,0,0,0,0,0,0,0,0,0
1683187467.30009294,92728727,1558,1558,1558,1559,0,0,0,0,0,0,0,0,0,0
1683187467.40005279,92828687,1559,1560,1557,1562,0,0,0,0,0,0,0,0,0,0
1683187467.50001287,92928647,1560,1560,1557,1564,0,0,0,0,0,0,0,0,0,0
1683187467.59997272,93028607,1562,1561,1559,1564,0,0,0,0,0,0,0,0,0,0
1683187467.69993281,93128567,1562,1562,1560,1564,0,0,0,0,0,0,0,0,0,0
1683187467.79989290,93228527,1562,1562,1562,1562,0,0,0,0,0,0,0,0,0,0
1683187467.89985275,93328487,1562,1562,1563,1560,0,0,0,0,0,0,0,0,0,0
1683187467.99981284,93428447,1560,1561,1563,1558,0,0,0,0,0,0,0,0,0,0
1683187468.09977293,93528407,1560,1560,1559,1561,0,0,0,0,0,0,0,0,0,0
1683187468.19973278,93628367,1558,1558,1555,1560,0,0,0,0,0,0,0,0,0,0
1683187468.29969287,93728327,1553,1553,1551,1555,0,0,0,0,0,0,0,0,0,0
1683187468.39965272,93828287,1548,1547,1547,1548,0,0,0,0,0,0,0,0,0,0
1683187468.49961281,93928247,1541,1541,1541,1541,0,0,0,0,0,0,0,0,0,0
1683187468.59957290,94028207,1535,1536,1536,1535,0,0,0,0,0,0,0,0,0,0
1683187468.69953275,94128167,1527,1527,1528,1526,0,0,0,0,0,0,0,0,0,0
1683187468.80032587,94228960,1521,1521,1522,1520,0,0,0,0,0,0,0,0,0,0
1683187468.90028572,94328920,1519,1519,1519,1519,0,0,0,0,0,0,0,0,0,0
1683187469.00024581,94428880,1520,1519,1519,1520,0,0,0,0,0,0,0,0,0,0
1683187469.10020590,94528840,1521,1521,1521,1522,0,0,0,0,0,0,0,0,0,0
1683187469.20016575,94628800,1524,1524,1523,1524,0,0,0,0,0,0,0,0,0,0
1683187469.30012584,94728760,1527,1527,1527,1527,0,0,0,0,0,0,0,0,0,0
1683187469.40008593,94828720,1532,1532,1532,1532,0,0,0,0,0,0,0,0,0,0
1683187469.50004578,94928680,1536,1536,1536,1536,0,0,0,0,0,0,0,0,0,0
1683187469.60000587,95028640,1540,1540,1540,1540,0,0,0,0,0,0,0,0,0,0
1683187469.69996572,95128600,1542,1542,1542,1542,0,0,0,0,0,0,0,0,0,0
1683187469.79992580,95228560,1542,1543,1543,1542,0,0,0,0,0,0,0,0,0,0
1683187469.89988589,95328520,1544,1544,1544,1543,0,0,0,0,0,0,0,0,0,0
1683187469.99984574,95428480,1545,1545,1545,1545,0,0,0,0,0,0,0,0,0,0
1683187470.09980583,95528440,1546,1545,1546,1545,0,0,0,0,0,0,0,0,0,0
1683187470.19976592,95628400,1546,1546,1546,1546,0,0,0,0,0,0,0,0,0,0
1683187470.29972577,95728360,1547,1547,1547,1547,0,0,0,0,0,0,0,0,0,0
1683187470.39968586,95828320,1546,1546,1546,1546,0,0,0,0,0,0,0,0,0,0
1683187470.49964595,95928280,1545,1545,1545,1545,0,0,0,0,0,0,0,0,0,0
1683187470.59960580,96028240,1545,1545,1545,1545,0,0,0,0,0,0,0,0,0,0
1683187470.69956589,96128200,1545,1545,1545,1545,0,0,0,0,0,0,0,0,0,0
1683187470.79952574,96228160,1546,1546,1546,1545,0,0,0,0,0,0,0,0,0,0
1683187470.90031886,96328953,1545,1545,1545,1545,0,0,0,0,0,0,0,0,0,0
1683187471.00027895,96428913,1544,1545,1545,1545,0,0,0,0,0,0,0,0,0,0
1683187471.10023880,96528873,1545,1545,1545,1545,0,0,0,0,0,0,0,0,0,0
1683187471.20019889,96628833,1545,1545,1545,1545,0,0,0,0,0,0,0,0,0,0
1683187471.30015874,96728793,1545,1544,1544,1544,0,0,0,0,0,0,0,0,0,0
1683187471.40011883,96828753,1545,1544,1545,1544,0,0,0,0,0,0,0,0,0,0
1683187471.50007892,96928713,1544,1544,1544,1544,0,0,0,0,0,0,0,0,0,0
1683187471.60003877,97028673,1544,1544,1544,1544,0,0,0,0,0,0,0,0,0,0
1683187471.69999886,97128633,1544,1544,1544,1544,0,0,0,0,0,0,0,0,0,0
1683187471.79995894,97228593,1544,1544,1544,1544,0,0,0,0,0,0,0,0,0,0
1683187471.89991879,97328553,1543,1543,1544,1543,0,0,0,0,0,0,0,0,0,0
1683187471.99987888,97428513,1543,1544,1544,1544,0,0,0,0,0,0,0,0,0,0
1683187472.09983873,97528473,1543,1543,1543,1543,0,0,0,0,0,0,0,0,0,0
1683187472.19979882,97628433,1544,1544,1544,1544,0,0,0,0,0,0,0,0,0,0
1683187472.29975891,97728393,1545,1545,1545,1545,0,0,0,0,0,0,0,0,0,0
1683187472.39971876,97828353,1544,1545,1544,1544,0,0,0,0,0,0,0,0,0,0
1683187472.49967885,97928313,1545,1544,1544,1545,0,0,0,0,0,0,0,0,0,0
1683187472.59963894,98028273,1545,1544,1545,1545,0,0,0,0,0,0,0,0,0,0
1683187472.69959879,98128233,1545,1544,1545,1544,0,0,0,0,0,0,0,0,0,0
1683187472.79955888,98228193,1544,1545,1545,1544,0,0,0,0,0,0,0,0,0,0
1683187472.90035176,98328986,1544,1544,1544,1544,0,0,0,0,0,0,0,0,0,0
1683187473.00031185,98428946,1544,1545,1544,1544,0,0,0,0,0,0,0,0,0,0
1683187473.10027194,98528906,1544,1544,1544,1545,0,0,0,0,0,0,0,0,0,0
1683187473.20023179,98628866,1544,1544,1544,1544,0,0,0,0,0,0,0,0,0,0
1683187473.30019188,98728826,1545,1545,1545,1545,0,0,0,0,0,0,0,0,0,0
1683187473.40015173,98828786,1545,1544,1544,1545,0,0,0,0,0,0,0,0,0,0
1683187473.50011182,98928746,1544,1544,1544,1544,0,0,0,0,0,0,0,0,0,0
1683187473.60007191,99028706,1544,1545,1545,1544,0,0,0,0,0,0,0,0,0,0
1683187473.70003176,99128666,1544,1544,1544,1544,0,0,0,0,0,0,0,0,0,0
1683187473.79999185,99228626,1545,1545,1545,1545,0,0,0,0,0,0,0,0,0,0
1683187473.89995193,99328586,1544,1544,1544,1544,0,0,0,0,0,0,0,0,0,0
1683187473.99991179,99428546,1544,1544,1545,1544,0,0,0,0,0,0,0,0,0,0
1683187474.09987187,99528506,1544,1543,1543,1544,0,0,0,0,0,0,0,0,0,0
1683187474.19983172,99628466,1544,1544,1544,1544,0,0,0,0,0,0,0,0,0,0
1683187474.29979181,99728426,1544,1544,1544,1544,0,0,0,0,0,0,0,0,0,0
1683187474.39975190,99828386,1543,1543,1543,1543,0,0,0,0,0,0,0,0,0,0
1683187474.49971175,99928346,1544,1544,1544,1544,0,0,0,0,0,0,0,0,0,0
1683187474.59967184,100028306,1544,1544,1544,1544,0,0,0,0,0,0,0,0,0,0
1683187474.69963193,100128266,1544,1544,1544,1544,0,0,0,0,0,0,0,0,0,0
1683187474.79959178,100228226,1544,1544,1544,1544,0,0,0,0,0,0,0,0,0,0
1683187474.89955187,100328186,1544,1543,1544,1544,0,0,0,0,0,0,0,0,0,0
1683187475.00034475,100428979,1544,1544,1544,1544,0,0,0,0,0,0,0,0,0,0
1683187475.10030484,100528939,1544,1544,1544,1544,0,0,0,0,0,0,0,0,0,0
1683187475.20026493,100628899,1543,1544,1543,1543,0,0,0,0,0,0,0,0,0,0
1683187475.30022478,100728859,1544,1544,1544,1544,0,0,0,0,0,0,0,0,0,0
1683187475.40018487,100828819,1544,1544,1545,1544,0,0,0,0,0,0,0,0,0,0
1683187475.50014472,100928779,1544,1544,1544,1544,0,0,0,0,0,0,0,0,0,0
1683187475.60010481,101028739,1544,1544,1544,1544,0,0,0,0,0,0,0,0,0,0
1683187475.70006490,101128699,1544,1545,1544,1545,0,0,0,0,0,0,0,0,0,0
1683187475.80002475,101228659,1544,1545,1544,1545,0,0,0,0,0,0,0,0,0,0
1683187475.89998484,101328619,1544,1544,1544,1544,0,0,0,0,0,0,0,0,0,0
1683187475.99994493,101428579,1544,1544,1544,1544,0,0,0,0,0,0,0,0,0,0
1683187476.09990478,101528539,1544,1544,1544,1544,0,0,0,0,0,0,0,0,0,0
1683187476.19986486,101628499,1544,1544,1544,1544,0,0,0,0,0,0,0,0,0,0
1683187476.29982471,101728459,1544,1544,1544,1544,0,0,0,0,0,0,0,0,0,0
1683187476.39978480,101828419,1544,1544,1544,1544,0,0,0,0,0,0,0,0,0,0
1683187476.49974489,101928379,1544,1544,1544,1544,0,0,0,0,0,0,0,0,0,0
1683187476.59970474,102028339,1544,1544,1544,1544,0,0,0,0,0,0,0,0,0,0
1683187476.69966483,102128299,1544,1544,1545,1544,0,0,0,0,0,0,0,0,0,0
1683187476.79962492,102228259,1545,1545,1545,1545,0,0,0,0,0,0,0,0,0,0
1683187476.89958477,102328219,1545,1545,1545,1545,0,0,0,0,0,0,0,0,0,0
1683187476.99954486,102428179,1544,1544,1544,1544,0,0,0,0,0,0,0,0,0,0
1683187477.10033774,102528972,1545,1545,1545,1545,0,0,0,0,0,0,0,0,0,0
1683187477.20029783,102628932,1545,1546,1545,1545,0,0,0,0,0,0,0,0,0,0
1683187477.30025792,102728892,1545,1545,1544,1545,0,0,0,0,0,0,0,0,0,0
1683187477.40021777,102828852,1545,1545,1545,1545,0,0,0,0,0,0,0,0,0,0
1683187477.50017786,102928812,1544,1543,1544,1544,0,0,0,0,0,0,0,0,0,0
1683187477.60013795,103028772,1545,1545,1545,1545,0,0,0,0,0,0,0,0,0,0
1683187477.70009780,103128732,1544,1544,1544,1545,0,0,0,0,0,0,0,0,0,0
1683187477.80005789,103228692,1544,1544,1544,1544,0,0,0,0,0,0,0,0,0,0
1683187477.90001774,103328652,1545,1545,1545,1545,0,0,0,0,0,0,0,0,0,0
1683187477.99997783,103428612,1545,1545,1545,1545,0,0,0,0,0,0,0,0,0,0
1683187478.09993792,103528572,1544,1544,1544,1544,0,0,0,0,0,0,0,0,0,0
1683187478.19989777,103628532,1544,1544,1544,1544,0,0,0,0,0,0,0,0,0,0
1683187478.29985785,103728492,1544,1543,1543,1544,0,0,0,0,0,0,0,0,0,0
1683187478.39981794,103828452,1544,1544,1544,1544,0,0,0,0,0,0,0,0,0,0
1683187478.49977779,103928412,1544,1544,1544,1545,0,0,0,0,0,0,0,0,0,0
1683187478.59973788,104028372,1402,1400,1401,1401,0,0,0,0,0,0,0,0,0,0
1683187478.69969773,104128332,1272,1268,1270,1270,0,0,0,0,0,0,0,0,0,0
1683187478.79965782,104228292,1224,1221,1223,1222,0,0,0,0,0,0,0,0,0,0
1683187478.89961791,104328252,1204,1200,1202,1202,0,0,0,0,0,0,0,0,0,0
1683187478.99957776,104428212,1165,1163,1164,1164,0,0,0,0,0,0,0,0,0,0
1683187479.09953785,104528172,1153,1150,1151,1152,0,0,0,0,0,0,0,0,0,0
1683187479.20033073,104628965,1152,1150,1151,1150,0,0,0,0,0,0,0,0,0,0
1683187479.30029082,104728925,1188,1150,1151,1187,0,0,0,0,0,0,0,0,0,0
1683187479.40025091,104828885,1177,1150,1152,1176,0,0,0,0,0,0,0,0,0,0
1683187479.50021076,104928845,1173,1150,1152,1172,0,0,0,0,0,0,0,0,0,0
1683187479.60017085,105028805,1174,1150,1152,1172,0,0,0,0,0,0,0,0,0,0
1683187479.70013094,105128765,1176,1150,1152,1174,0,0,0,0,0,0,0,0,0,0
1683187479.80009079,105228725,1177,1150,1152,1176,0,0,0,0,0,0,0,0,0,0
1683187479.90005088,105328685,1180,1150,1152,1178,0,0,0,0,0,0,0,0,0,0
1683187480.00001073,105428645,1181,1150,1152,1179,0,0,0,0,0,0,0,0,0,0
1683187480.09997082,105528605,1166,1150,1151,1165,0,0,0,0,0,0,0,0,0,0
1683187480.19993091,105628565,1168,1150,1152,1167,0,0,0,0,0,0,0,0,0,0
1683187480.29989076,105728525,1169,1150,1152,1168,0,0,0,0,0,0,0,0,0,0
1683187480.39985085,105828485,1169,1150,1152,1168,0,0,0,0,0,0,0,0,0,0
1683187480.49981093,105928445,1170,1150,1152,1169,0,0,0,0,0,0,0,0,0,0
1683187480.59977078,106028405,1000,1000,1000,1000,0,0,0,0,0,0,0,0,0,0
1683187480.69973087,106128365,1000,1000,1000,1000,0,0,0,0,0,0,0,0,0,0
1683187480.79969072,106228325,1000,1000,1000,1000,0,0,0,0,0,0,0,0,0,0
1683187480.89965081,106328285,1000,1000,1000,1000,0,0,0,0,0,0,0,0,0,0
1683187480.99961090,106428245,1000,1000,1000,1000,0,0,0,0,0,0,0,0,0,0
1683187481.09957075,106528205,1000,1000,1000,1000,0,0,0,0,0,0,0,0,0,0
1683187481.19953084,106628165,1000,1000,1000,1000,0,0,0,0,0,0,0,0,0,0
1683187481.30032372,106728958,1000,1000,1000,1000,0,0,0,0,0,0,0,0,0,0
1683187481.40028381,106828918,1000,1000,1000,1000,0,0,0,0,0,0,0,0,0,0
1683187481.50024390,106928878,1000,1000,1000,1000,0,0,0,0,0,0,0,0,0,0
1683187481.60020375,107028838,1000,1000,1000,1000,0,0,0,0,0,0,0,0,0,0
1683187481.70016384,107128798,1000,1000,1000,1000,0,0,0,0,0,0,0,0,0,0
1683187481.80012393,107228758,1000,1000,1000,1000,0,0,0,0,0,0,0,0,0,0
1683187481.90008378,107328718,1000,1000,1000,1000,0,0,0,0,0,0,0,0,0,0
1683187482.00004387,107428678,1000,1000,1000,1000,0,0,0,0,0,0,0,0,0,0
1683187482.10000372,107528638,1000,1000,1000,1000,0,0,0,0,0,0,0,0,0,0
1683187482.19996381,107628598,1000,1000,1000,1000,0,0,0,0,0,0,0,0,0,0
1683187482.29992390,107728558,1000,1000,1000,1000,0,0,0,0,0,0,0,0,0,0
1683187482.39988375,107828518,1000,1000,1000,1000,0,0,0,0,0,0,0,0,0,0
1683187482.49984384,107928478,1000,1000,1000,1000,0,0,0,0,0,0,0,0,0,0
1683187482.59980392,108028438,1000,1000,1000,1000,0,0,0,0,0,0,0,0,0,0
1683187482.69976377,108128398,1000,1000,1000,1000,0,0,0,0,0,0,0,0,0,0
1683187482.79972386,108228358,1000,1000,1000,1000,0,0,0,0,0,0,0,0,0,0
1683187482.89968395,108328318,1000,1000,1000,1000,0,0,0,0,0,0,0,0,0,0
1683187482.99964380,108428278,1000,1000,1000,1000,0,0,0,0,0,0,0,0,0,0
1683187483.09960389,108528238,1000,1000,1000,1000,0,0,0,0,0,0,0,0,0,0
1683187483.19956374,108628198,1000,1000,1000,1000,0,0,0,0,0,0,0,0,0,0
1683187483.29952383,108728158,1000,1000,1000,1000,0,0,0,0,0,0,0,0,0,0
1683187483.40031672,108828951,1000,1000,1000,1000,0,0,0,0,0,0,0,0,0,0
1683187483.50027680,108928911,1000,1000,1000,1000,0,0,0,0,0,0,0,0,0,0
1683187483.60023689,109028871,1000,1000,1000,1000,0,0,0,0,0,0,0,0,0,0
1683187483.70019674,109128831,1000,1000,1000,1000,0,0,0,0,0,0,0,0,0,0
1683187483.80015683,109228791,1000,1000,1000,1000,0,0,0,0,0,0,0,0,0,0
1683187483.90011692,109328751,1000,1000,1000,1000,0,0,0,0,0,0,0,0,0,0
1683187484.00007677,109428711,1000,1000,1000,1000,0,0,0,0,0,0,0,0,0,0
1683187484.10003686,109528671,1000,1000,1000,1000,0,0,0,0,0,0,0,0,0,0
1683187484.19999695,109628631,1000,1000,1000,1000,0,0,0,0,0,0,0,0,0,0
1683187484.29995680,109728591,1000,1000,1000,1000,0,0,0,0,0,0,0,0,0,0
1683187484.39991689,109828551,1000,1000,1000,1000,0,0,0,0,0,0,0,0,0,0
1683187484.49987674,109928511,1000,1000,1000,1000,0,0,0,0,0,0,0,0,0,0
1683187484.59983683,110028471,1000,1000,1000,1000,0,0,0,0,0,0,0,0,0,0
1683187484.69979692,110128431,1000,1000,1000,1000,0,0,0,0,0,0,0,0,0,0
1683187484.79975677,110228391,1000,1000,1000,1000,0,0,0,0,0,0,0,0,0,0
1683187484.89971685,110328351,1000,1000,1000,1000,0,0,0,0,0,0,0,0,0,0
1683187484.99967694,110428311,1000,1000,1000,1000,0,0,0,0,0,0,0,0,0,0
1683187485.09963679,110528271,1000,1000,1000,1000,0,0,0,0,0,0,0,0,0,0
1683187485.19959688,110628231,1000,1000,1000,1000,0,0,0,0,0,0,0,0,0,0
1683187485.29955673,110728191,1000,1000,1000,1000,0,0,0,0,0,0,0,0,0,0
1683187485.40034986,110828984,1000,1000,1000,1000,0,0,0,0,0,0,0,0,0,0
1683187485.50030994,110928944,1000,1000,1000,1000,0,0,0,0,0,0,0,0,0,0
1683187485.60026979,111028904,1000,1000,1000,1000,0,0,0,0,0,0,0,0,0,0
1683187485.70022988,111128864,1000,1000,1000,1000,0,0,0,0,0,0,0,0,0,0
1683187485.80018973,111228824,1000,1000,1000,1000,0,0,0,0,0,0,0,0,0,0
1683187485.90014982,111328784,1000,1000,1000,1000,0,0,0,0,0,0,0,0,0,0
1683187486.00010991,111428744,1000,1000,1000,1000,0,0,0,0,0,0,0,0,0,0
1683187486.10006976,111528704,1000,1000,1000,1000,0,0,0,0,0,0,0,0,0,0
1683187486.20002985,111628664,1000,1000,1000,1000,0,0,0,0,0,0,0,0,0,0
1683187486.29998994,111728624,1000,1000,1000,1000,0,0,0,0,0,0,0,0,0,0
1683187486.39994979,111828584,1000,1000,1000,1000,0,0,0,0,0,0,0,0,0,0
1683187486.49990988,111928544,1000,1000,1000,1000,0,0,0,0,0,0,0,0,0,0
1683187486.59986973,112028504,1000,1000,1000,1000,0,0,0,0,0,0,0,0,0,0
1683187486.69982982,112128464,1000,1000,1000,1000,0,0,0,0,0,0,0,0,0,0
1683187486.79978991,112228424,1000,1000,1000,1000,0,0,0,0,0,0,0,0,0,0
1683187486.89974976,112328384,1000,1000,1000,1000,0,0,0,0,0,0,0,0,0,0
1683187486.99970984,112428344,1000,1000,1000,1000,0,0,0,0,0,0,0,0,0,0
1683187487.09966993,112528304,1000,1000,1000,1000,0,0,0,0,0,0,0,0,0,0
1683187487.19962978,112628264,1000,1000,1000,1000,0,0,0,0,0,0,0,0,0,0
1683187487.29958987,112728224,1000,1000,1000,1000,0,0,0,0,0,0,0,0,0,0
1683187487.39954972,112828184,1000,1000,1000,1000,0,0,0,0,0,0,0,0,0,0
1683187487.50034285,112928977,1000,1000,1000,1000,0,0,0,0,0,0,0,0,0,0
1683187487.60030293,113028937,1000,1000,1000,1000,0,0,0,0,0,0,0,0,0,0
1683187487.70026278,113128897,1000,1000,1000,1000,0,0,0,0,0,0,0,0,0,0
1683187487.80022287,113228857,1000,1000,1000,1000,0,0,0,0,0,0,0,0,0,0
1683187487.90018272,113328817,1000,1000,1000,1000,0,0,0,0,0,0,0,0,0,0
1683187488.00014281,113428777,1000,1000,1000,1000,0,0,0,0,0,0,0,0,0,0
1683187488.10010290,113528737,1000,1000,1000,1000,0,0,0,0,0,0,0,0,0,0
1683187488.20006275,113628697,1000,1000,1000,1000,0,0,0,0,0,0,0,0,0,0
1683187488.30002284,113728657,1000,1000,1000,1000,0,0,0,0,0,0,0,0,0,0
1683187488.39998293,113828617,1000,1000,1000,1000,0,0,0,0,0,0,0,0,0,0
1683187488.49994278,113928577,1000,1000,1000,1000,0,0,0,0,0,0,0,0,0,0
1683187488.59990287,114028537,1000,1000,1000,1000,0,0,0,0,0,0,0,0,0,0
1683187488.69986272,114128497,1000,1000,1000,1000,0,0,0,0,0,0,0,0,0,0
