TimeUS,M1,M2,M3,M4,TimeUS,C1,C2,C3,C4
49383572,1000,1000,1000,1000,49428554,1000,1000,1000,1000
49386071,1000,1000,1000,1000,49528514,1000,1000,1000,1000
49388570,1000,1000,1000,1000,49628474,1000,1000,1000,1000
49391069,1000,1000,1000,1000,49728434,1000,1000,1000,1000
49393568,1000,1000,1000,1000,49828394,1000,1000,1000,1000
49396067,1000,1000,1000,1000,49928354,1000,1000,1000,1000
49398566,1000,1000,1000,1000,50028314,1000,1000,1000,1000
49401065,1000,1000,1000,1000,50128274,1000,1000,1000,1000
49403564,1000,1000,1000,1000,50228234,1000,1000,1000,1000
49406063,1000,1000,1000,1000,50328194,1000,1000,1000,1000
49408562,1000,1000,1000,1000,50428154,1000,1000,1000,1000
49411061,1000,1000,1000,1000,50528947,1000,1000,1000,1000
49413560,1000,1000,1000,1000,50628907,1000,1000,1000,1000
49416059,1000,1000,1000,1000,50728867,1000,1000,1000,1000
49418558,1000,1000,1000,1000,50828827,1000,1000,1000,1000
49421057,1000,1000,1000,1000,50928787,1000,1000,1000,1000
49423556,1000,1000,1000,1000,51028747,1000,1000,1000,1000
49426055,1000,1000,1000,1000,51128707,1000,1000,1000,1000
49428554,1000,1000,1000,1000,51228667,1000,1000,1000,1000
49431053,1000,1000,1000,1000,51328627,1000,1000,1000,1000
49433552,1000,1000,1000,1000,51428587,1013,1013,1013,1013
49436051,1000,1000,1000,1000,51528547,1043,1043,1043,1043
49438550,1000,1000,1000,1000,51628507,1073,1073,1073,1073
49441049,1000,1000,1000,1000,51728467,1103,1103,1103,1103
49443548,1000,1000,1000,1000,51828427,1133,1133,1133,1133
49446047,1000,1000,1000,1000,51928387,1275,1268,1269,1275
49448546,1000,1000,1000,1000,52028347,1485,1481,1481,1486
49451045,1000,1000,1000,1000,52128307,1649,1643,1644,1648
49453544,1000,1000,1000,1000,52228267,1786,1781,1781,1786
49456043,1000,1000,1000,1000,52328227,1897,1893,1893,1898
49458542,1000,1000,1000,1000,52428187,1875,1873,1873,1875
49461041,1000,1000,1000,1000,52528980,1749,1748,1749,1749
49463540,1000,1000,1000,1000,52628940,1650,1651,1652,1651
49466039,1000,1000,1000,1000,52728900,1621,1623,1624,1621
49468538,1000,1000,1000,1000,52828860,1626,1628,1628,1626
49471037,1000,1000,1000,1000,52928820,1634,1636,1635,1634
49473536,1000,1000,1000,1000,53028780,1634,1634,1634,1634
49476035,1000,1000,1000,1000,53128740,1626,1626,1626,1626
49478534,1000,1000,1000,1000,53228700,1620,1619,1619,1620
49481033,1000,1000,1000,1000,53328660,1616,1615,1615,1616
49483532,1000,1000,1000,1000,53428620,1614,1613,1613,1613
49486031,1000,1000,1000,1000,53528580,1615,1614,1614,1614
49488530,1000,1000,1000,1000,53628540,1615,1615,1615,1615
49491029,1000,1000,1000,1000,53728500,1617,1618,1617,1617
49493528,1000,1000,1000,1000,53828460,1618,1618,1618,1618
49496027,1000,1000,1000,1000,53928420,1620,1620,1620,1620
49498526,1000,1000,1000,1000,54028380,1622,1621,1622,1622
49501025,1000,1000,1000,1000,54128340,1622,1622,1623,1622
49503524,1000,1000,1000,1000,54228300,1625,1625,1625,1625
49506023,1000,1000,1000,1000,54328260,1626,1625,1626,1626
49508522,1000,1000,1000,1000,54428220,1626,1627,1627,1627
49511021,1000,1000,1000,1000,54528180,1628,1628,1628,1628
49513520,1000,1000,1000,1000,54628973,1610,1611,1611,1610
49516019,1000,1000,1000,1000,54728933,1591,1591,1591,1591
49518518,1000,1000,1000,1000,54828893,1580,1580,1580,1580
49521017,1000,1000,1000,1000,54928853,1570,1570,1570,1571
49523516,1000,1000,1000,1000,55028813,1563,1562,1562,1563
49526015,1000,1000,1000,1000,55128773,1556,1556,1556,1556
49528514,1000,1000,1000,1000,55228733,1550,1550,1550,1549
49531013,1000,1000,1000,1000,55328693,1544,1544,1544,1544
49533512,1000,1000,1000,1000,55428653,1538,1538,1538,1538
49536011,1000,1000,1000,1000,55528613,1534,1533,1533,1533
49538510,1000,1000,1000,1000,55628573,1529,1529,1529,1529
49541009,1000,1000,1000,1000,55728533,1525,1525,1524,1525
49543508,1000,1000,1000,1000,55828493,1522,1522,1522,1522
49546007,1000,1000,1000,1000,55928453,1520,1519,1519,1520
49548506,1000,1000,1000,1000,56028413,1517,1517,1517,1518
49551005,1000,1000,1000,1000,56128373,1514,1513,1513,1514
49553504,1000,1000,1000,1000,56228333,1509,1509,1509,1509
49556003,1000,1000,1000,1000,56328293,1507,1507,1507,1507
49558502,1000,1000,1000,1000,56428253,1504,1504,1504,1504
49561001,1000,1000,1000,1000,56528213,1502,1501,1501,1502
49563500,1000,1000,1000,1000,56628173,1498,1499,1498,1499
49565999,1000,1000,1000,1000,56728966,1498,1498,1498,1498
49568498,1000,1000,1000,1000,56828926,1495,1495,1495,1495
49570997,1000,1000,1000,1000,56928886,1493,1493,1493,1493
49573496,1000,1000,1000,1000,57028846,1492,1492,1492,1492
49575995,1000,1000,1000,1000,57128806,1495,1494,1495,1494
49578494,1000,1000,1000,1000,57228766,1497,1497,1498,1496
49580993,1000,1000,1000,1000,57328726,1500,1500,1500,1499
49583492,1000,1000,1000,1000,57428686,1501,1502,1502,1501
49585991,1000,1000,1000,1000,57528646,1504,1503,1504,1503
49588490,1000,1000,1000,1000,57628606,1505,1505,1505,1505
49590989,1000,1000,1000,1000,57728566,1508,1508,1508,1508
49593488,1000,1000,1000,1000,57828526,1509,1508,1509,1508
49595987,1000,1000,1000,1000,57928486,1547,1547,1548,1546
49598486,1000,1000,1000,1000,58028446,1562,1562,1562,1563
49600985,1000,1000,1000,1000,58128406,1571,1571,1568,1573
49603484,1000,1000,1000,1000,58228366,1578,1578,1575,1581
49605983,1000,1000,1000,1000,58328326,1581,1581,1579,1584
49608482,1000,1000,1000,1000,58428286,1583,1583,1582,1585
49610981,1000,1000,1000,1000,58528246,1584,1584,1583,1584
49613480,1000,1000,1000,1000,58628206,1585,1585,1587,1583
49615979,1000,1000,1000,1000,58728166,1584,1584,1587,1581
49618478,1000,1000,1000,1000,58828959,1582,1582,1584,1580
49620977,1000,1000,1000,1000,58928919,1579,1579,1581,1578
49623476,1000,1000,1000,1000,59028879,1578,1579,1579,1578
49625975,1000,1000,1000,1000,59128839,1575,1575,1574,1575
49628474,1000,1000,1000,1000,59228799,1574,1573,1572,1575
49630973,1000,1000,1000,1000,59328759,1569,1568,1573,1577
49633472,1000,1000,1000,1000,59428719,1567,1567,1576,1578
49635971,1000,1000,1000,1000,59528679,1566,1567,1574,1575
49638470,1000,1000,1000,1000,59628639,1567,1568,1573,1573
49640969,1000,1000,1000,1000,59728599,1568,1569,1571,1570
49643468,1000,1000,1000,1000,59828559,1570,1570,1570,1569
49645967,1000,1000,1000,1000,59928519,1572,1571,1568,1568
49648466,1000,1000,1000,1000,60028479,1573,1573,1568,1568
49650965,1000,1000,1000,1000,60128439,1574,1574,1568,1568
49653464,1000,1000,1000,1000,60228399,1574,1574,1568,1568
49655963,1000,1000,1000,1000,60328359,1574,1574,1569,1569
49658462,1000,1000,1000,1000,60428319,1574,1574,1570,1570
49660961,1000,1000,1000,1000,60528279,1574,1574,1571,1572
49663460,1000,1000,1000,1000,60628239,1574,1574,1573,1573
49665959,1000,1000,1000,1000,60728199,1574,1574,1575,1574
49668458,1000,1000,1000,1000,60828159,1574,1574,1576,1574
49670957,1000,1000,1000,1000,60928952,1574,1575,1577,1576
49673456,1000,1000,1000,1000,61028912,1575,1575,1577,1577
49675955,1000,1000,1000,1000,61128872,1575,1575,1577,1577
49678454,1000,1000,1000,1000,61228832,1576,1576,1578,1578
49680953,1000,1000,1000,1000,61328792,1577,1577,1578,1578
49683452,1000,1000,1000,1000,61428752,1577,1577,1578,1578
49685951,1000,1000,1000,1000,61528712,1577,1577,1577,1578
49688450,1000,1000,1000,1000,61628672,1577,1577,1577,1577
49690949,1000,1000,1000,1000,61728632,1579,1578,1578,1578
49693448,1000,1000,1000,1000,61828592,1579,1579,1579,1578
49695947,1000,1000,1000,1000,61928552,1579,1578,1578,1577
49698446,1000,1000,1000,1000,62028512,1579,1579,1578,1578
49700945,1000,1000,1000,1000,62128472,1579,1578,1578,1578
49703444,1000,1000,1000,1000,62228432,1580,1580,1579,1579
49705943,1000,1000,1000,1000,62328392,1579,1579,1578,1579
49708442,1000,1000,1000,1000,62428352,1579,1578,1578,1578
49710941,1000,1000,1000,1000,62528312,1578,1578,1578,1578
49713440,1000,1000,1000,1000,62628272,1578,1578,1578,1579
49715939,1000,1000,1000,1000,62728232,1579,1579,1579,1579
49718438,1000,1000,1000,1000,62828192,1579,1579,1580,1580
49720937,1000,1000,1000,1000,62928985,1580,1579,1580,1580
49723436,1000,1000,1000,1000,63028945,1580,1580,1580,1580
49725935,1000,1000,1000,1000,63128905,1579,1579,1580,1580
49728434,1000,1000,1000,1000,63228865,1581,1580,1582,1581
49730933,1000,1000,1000,1000,63328825,1581,1581,1582,1581
49733432,1000,1000,1000,1000,63428785,1580,1580,1581,1581
49735931,1000,1000,1000,1000,63528745,1579,1579,1579,1579
49738430,1000,1000,1000,1000,63628705,1580,1580,1580,1581
49740929,1000,1000,1000,1000,63728665,1580,1580,1580,1580
49743428,1000,1000,1000,1000,63828625,1580,1580,1580,1580
49745927,1000,1000,1000,1000,63928585,1580,1580,1580,1580
49748426,1000,1000,1000,1000,64028545,1580,1580,1580,1580
49750925,1000,1000,1000,1000,64128505,1581,1580,1580,1580
49753424,1000,1000,1000,1000,64228465,1581,1580,1580,1580
49755923,1000,1000,1000,1000,64328425,1580,1580,1580,1580
49758422,1000,1000,1000,1000,64428385,1580,1580,1580,1580
49760921,1000,1000,1000,1000,64528345,1581,1581,1581,1582
49763420,1000,1000,1000,1000,64628305,1581,1582,1582,1581
49765919,1000,1000,1000,1000,64728265,1581,1582,1582,1582
49768418,1000,1000,1000,1000,64828225,1581,1581,1582,1581
49770917,1000,1000,1000,1000,64928185,1581,1581,1581,1581
49773416,1000,1000,1000,1000,65028978,1581,1581,1581,1581
49775915,1000,1000,1000,1000,65128938,1582,1581,1581,1582
49778414,1000,1000,1000,1000,65228898,1582,1582,1582,1582
49780913,1000,1000,1000,1000,65328858,1581,1580,1581,1581
49783412,1000,1000,1000,1000,65428818,1581,1581,1581,1581
49785911,1000,1000,1000,1000,65528778,1579,1581,1585,1575
49788410,1000,1000,1000,1000,65628738,1579,1582,1586,1572
49790909,1000,1000,1000,1000,65728698,1578,1581,1579,1573
49793408,1000,1000,1000,1000,65828658,1577,1580,1570,1572
49795907,1000,1000,1000,1000,65928618,1577,1579,1563,1569
49798406,1000,1000,1000,1000,66028578,1577,1578,1558,1565
49800905,1000,1000,1000,1000,66128538,1578,1577,1555,1560
49803404,1000,1000,1000,1000,66228498,1580,1578,1555,1557
49805903,1000,1000,1000,1000,66328458,1579,1577,1555,1554
49808402,1000,1000,1000,1000,66428418,1580,1579,1557,1554
49810901,1000,1000,1000,1000,66528378,1577,1577,1556,1553
49813400,1000,1000,1000,1000,66628338,1575,1577,1555,1553
49815899,1000,1000,1000,1000,66728298,1575,1576,1554,1554
49818398,1000,1000,1000,1000,66828258,1575,1577,1554,1554
49820897,1000,1000,1000,1000,66928218,1575,1576,1552,1552
49823396,1000,1000,1000,1000,67028178,1576,1577,1551,1550
49825895,1000,1000,1000,1000,67128971,1577,1578,1548,1548
49828394,1000,1000,1000,1000,67228931,1580,1580,1546,1546
49830893,1000,1000,1000,1000,67328891,1582,1583,1543,1543
49833392,1000,1000,1000,1000,67428851,1586,1587,1541,1541
49835891,1000,1000,1000,1000,67528811,1589,1590,1539,1539
49838390,1000,1000,1000,1000,67628771,1592,1592,1537,1537
49840889,1000,1000,1000,1000,67728731,1593,1593,1534,1534
49843388,1000,1000,1000,1000,67828691,1595,1595,1535,1536
49845887,1000,1000,1000,1000,67928651,1594,1594,1535,1537
49848386,1000,1000,1000,1000,68028611,1593,1593,1538,1541
49850885,1000,1000,1000,1000,68128571,1591,1589,1543,1546
49853384,1000,1000,1000,1000,68228531,1586,1584,1550,1553
49855883,1000,1000,1000,1000,68328491,1579,1575,1559,1563
49858382,1000,1000,1000,1000,68428451,1568,1564,1570,1572
49860881,1000,1000,1000,1000,68528411,1558,1553,1583,1584
49863380,1000,1000,1000,1000,68628371,1547,1544,1595,1596
49865879,1000,1000,1000,1000,68728331,1537,1535,1605,1604
49868378,1000,1000,1000,1000,68828291,1531,1531,1612,1611
49870877,1000,1000,1000,1000,68928251,1529,1531,1616,1614
49873376,1000,1000,1000,1000,69028211,1530,1532,1615,1614
49875875,1000,1000,1000,1000,69128171,1535,1537,1611,1611
49878374,1000,1000,1000,1000,69228964,1542,1544,1606,1606
49880873,1000,1000,1000,1000,69328924,1551,1552,1599,1599
49883372,1000,1000,1000,1000,69428884,1560,1560,1591,1591
49885871,1000,1000,1000,1000,69528844,1569,1568,1583,1583
49888370,1000,1000,1000,1000,69628804,1575,1574,1576,1575
49890869,1000,1000,1000,1000,69728764,1581,1579,1571,1570
49893368,1000,1000,1000,1000,69828724,1584,1583,1567,1567
49895867,1000,1000,1000,1000,69928684,1586,1585,1565,1565
49898366,1000,1000,1000,1000,70028644,1587,1586,1566,1565
49900865,1000,1000,1000,1000,70128604,1586,1585,1567,1567
49903364,1000,1000,1000,1000,70228564,1584,1583,1569,1569
49905863,1000,1000,1000,1000,70328524,1581,1580,1572,1572
49908362,1000,1000,1000,1000,70428484,1578,1579,1575,1576
49910861,1000,1000,1000,1000,70528444,1575,1576,1578,1577
49913360,1000,1000,1000,1000,70628404,1508,1508,1592,1593
49915859,1000,1000,1000,1000,70728364,1529,1531,1601,1602
49918358,1000,1000,1000,1000,70828324,1546,1549,1599,1598
49920857,1000,1000,1000,1000,70928284,1562,1565,1593,1591
49923356,1000,1000,1000,1000,71028244,1578,1579,1586,1585
49925855,1000,1000,1000,1000,71128204,1590,1590,1579,1577
49928354,1000,1000,1000,1000,71228164,1600,1598,1573,1573
49930853,1000,1000,1000,1000,71328957,1604,1602,1569,1569
49933352,1000,1000,1000,1000,71428917,1606,1603,1568,1569
49935851,1000,1000,1000,1000,71528877,1604,1602,1568,1569
49938350,1000,1000,1000,1000,71628837,1602,1600,1570,1571
49940849,1000,1000,1000,1000,71728797,1598,1597,1572,1573
49943348,1000,1000,1000,1000,71828757,1594,1594,1574,1574
49945847,1000,1000,1000,1000,71928717,1590,1590,1577,1577
49948346,1000,1000,1000,1000,72028677,1585,1586,1579,1579
49950845,1000,1000,1000,1000,72128637,1582,1583,1581,1581
49953344,1000,1000,1000,1000,72228597,1579,1579,1583,1583
49955843,1000,1000,1000,1000,72328557,1576,1576,1584,1584
49958342,1000,1000,1000,1000,72428517,1575,1576,1587,1586
49960841,1000,1000,1000,1000,72528477,1573,1574,1587,1587
49963340,1000,1000,1000,1000,72628437,1572,1573,1586,1586
49965839,1000,1000,1000,1000,72728397,1573,1574,1585,1586
49968338,1000,1000,1000,1000,72828357,1574,1574,1584,1584
49970837,1000,1000,1000,1000,72928317,1576,1576,1583,1583
49973336,1000,1000,1000,1000,73028277,1577,1577,1581,1581
49975835,1000,1000,1000,1000,73128237,1578,1579,1579,1579
49978334,1000,1000,1000,1000,73228197,1581,1581,1579,1579
49980833,1000,1000,1000,1000,73328157,1582,1581,1577,1577
49983332,1000,1000,1000,1000,73428950,1583,1583,1577,1577
49985831,1000,1000,1000,1000,73528910,1583,1583,1580,1573
49988330,1000,1000,1000,1000,73628870,1584,1584,1583,1568
49990829,1000,1000,1000,1000,73728830,1583,1585,1578,1569
49993328,1000,1000,1000,1000,73828790,1581,1582,1568,1568
49995827,1000,1000,1000,1000,73928750,1579,1581,1560,1566
49998326,1000,1000,1000,1000,74028710,1577,1580,1555,1562
50000825,1000,1000,1000,1000,74128670,1576,1578,1552,1557
50003324,1000,1000,1000,1000,74228630,1578,1578,1554,1556
50005823,1000,1000,1000,1000,74328590,1578,1577,1554,1553
50008322,1000,1000,1000,1000,74428550,1578,1577,1556,1554
50010821,1000,1000,1000,1000,74528510,1577,1577,1555,1553
50013320,1000,1000,1000,1000,74628470,1575,1576,1555,1552
50015819,1000,1000,1000,1000,74728430,1575,1576,1554,1553
50018318,1000,1000,1000,1000,74828390,1575,1577,1553,1553
50020817,1000,1000,1000,1000,74928350,1576,1578,1552,1553
50023316,1000,1000,1000,1000,75028310,1576,1578,1550,1550
50025815,1000,1000,1000,1000,75128270,1578,1579,1548,1549
50028314,1000,1000,1000,1000,75228230,1581,1582,1547,1547
50030813,1000,1000,1000,1000,75328190,1582,1583,1544,1544
50033312,1000,1000,1000,1000,75428983,1585,1586,1543,1542
50035811,1000,1000,1000,1000,75528943,1587,1587,1541,1540
50038310,1000,1000,1000,1000,75628903,1589,1589,1540,1541
50040809,1000,1000,1000,1000,75728863,1590,1589,1538,1540
50043308,1000,1000,1000,1000,75828823,1590,1592,1539,1541
50045807,1000,1000,1000,1000,75928783,1591,1591,1540,1543
50048306,1000,1000,1000,1000,76028743,1589,1589,1542,1545
50050805,1000,1000,1000,1000,76128703,1588,1586,1549,1551
50053304,1000,1000,1000,1000,76228663,1582,1580,1554,1557
50055803,1000,1000,1000,1000,76328623,1577,1573,1564,1567
50058302,1000,1000,1000,1000,76428583,1567,1562,1574,1576
50060801,1000,1000,1000,1000,76528543,1556,1553,1586,1587
50063300,1000,1000,1000,1000,76628503,1547,1545,1596,1597
50065799,1000,1000,1000,1000,76728463,1539,1538,1604,1604
50068298,1000,1000,1000,1000,76828423,1534,1535,1609,1608
50070797,1000,1000,1000,1000,76928383,1533,1534,1611,1611
50073296,1000,1000,1000,1000,77028343,1535,1537,1610,1610
50075795,1000,1000,1000,1000,77128303,1539,1541,1607,1606
50078294,1000,1000,1000,1000,77228263,1546,1547,1602,1601
50080793,1000,1000,1000,1000,77328223,1554,1555,1595,1594
50083292,1000,1000,1000,1000,77428183,1562,1563,1589,1588
50085791,1000,1000,1000,1000,77528976,1570,1570,1582,1582
50088290,1000,1000,1000,1000,77628936,1577,1576,1577,1577
50090789,1000,1000,1000,1000,77728896,1582,1581,1572,1571
50093288,1000,1000,1000,1000,77828856,1586,1585,1569,1569
50095787,1000,1000,1000,1000,77928816,1587,1585,1566,1567
50098286,1000,1000,1000,1000,78028776,1588,1587,1568,1568
50100785,1000,1000,1000,1000,78128736,1588,1587,1570,1570
50103284,1000,1000,1000,1000,78228696,1586,1585,1572,1572
50105783,1000,1000,1000,1000,78328656,1583,1583,1574,1574
50108282,1000,1000,1000,1000,78428616,1581,1580,1577,1577
50110781,1000,1000,1000,1000,78528576,1578,1578,1580,1579
50113280,1000,1000,1000,1000,78628536,1576,1577,1582,1582
50115779,1000,1000,1000,1000,78728496,1574,1575,1583,1583
50118278,1000,1000,1000,1000,78828456,1573,1574,1583,1583
50120777,1000,1000,1000,1000,78928416,1573,1574,1584,1584
50123276,1000,1000,1000,1000,79028376,1573,1573,1583,1583
50125775,1000,1000,1000,1000,79128336,1574,1575,1583,1582
50128274,1000,1000,1000,1000,79228296,1575,1576,1582,1581
50130773,1000,1000,1000,1000,79328256,1577,1577,1581,1581
50133272,1000,1000,1000,1000,79428216,1578,1578,1580,1580
50135771,1000,1000,1000,1000,79528176,1580,1579,1579,1579
50138270,1000,1000,1000,1000,79628969,1580,1580,1578,1578
50140769,1000,1000,1000,1000,79728929,1582,1581,1578,1578
50143268,1000,1000,1000,1000,79828889,1582,1582,1578,1578
50145767,1000,1000,1000,1000,79928849,1582,1582,1578,1578
50148266,1000,1000,1000,1000,80028809,1581,1581,1578,1577
50150765,1000,1000,1000,1000,80128769,1582,1581,1578,1578
50153264,1000,1000,1000,1000,80228729,1582,1581,1579,1579
50155763,1000,1000,1000,1000,80328689,1581,1581,1579,1580
50158262,1000,1000,1000,1000,80428649,1581,1582,1581,1581
50160761,1000,1000,1000,1000,80528609,1581,1580,1581,1581
50163260,1000,1000,1000,1000,80628569,1580,1580,1581,1581
50165759,1000,1000,1000,1000,80728529,1580,1581,1582,1582
50168258,1000,1000,1000,1000,80828489,1579,1580,1581,1582
50170757,1000,1000,1000,1000,80928449,1580,1581,1582,1582
50173256,1000,1000,1000,1000,81028409,1580,1581,1581,1582
50175755,1000,1000,1000,1000,81128369,1580,1580,1581,1581
50178254,1000,1000,1000,1000,81228329,1580,1579,1580,1580
50180753,1000,1000,1000,1000,81328289,1581,1581,1582,1581
50183252,1000,1000,1000,1000,81428249,1581,1581,1581,1581
50185751,1000,1000,1000,1000,81528209,1581,1581,1581,1580
50188250,1000,1000,1000,1000,81628169,1582,1582,1581,1581
50190749,1000,1000,1000,1000,81728962,1582,1582,1581,1581
50193248,1000,1000,1000,1000,81828922,1582,1582,1585,1577
50195747,1000,1000,1000,1000,81928882,1582,1583,1588,1573
50198246,1000,1000,1000,1000,82028842,1581,1583,1581,1573
50200745,1000,1000,1000,1000,82128802,1578,1581,1571,1572
50203244,1000,1000,1000,1000,82228762,1577,1580,1563,1569
50205743,1000,1000,1000,1000,82328722,1578,1580,1559,1566
50208242,1000,1000,1000,1000,82428682,1579,1579,1556,1561
50210741,1000,1000,1000,1000,82528642,1580,1579,1555,1558
50213240,1000,1000,1000,1000,82628602,1580,1578,1556,1555
50215739,1000,1000,1000,1000,82728562,1579,1578,1556,1554
50218238,1000,1000,1000,1000,82828522,1578,1578,1556,1553
50220737,1000,1000,1000,1000,82928482,1578,1578,1556,1554
50223236,1000,1000,1000,1000,83028442,1576,1577,1555,1554
50225735,1000,1000,1000,1000,83128402,1575,1577,1554,1554
50228234,1000,1000,1000,1000,83228362,1574,1576,1552,1553
50230733,1000,1000,1000,1000,83328322,1575,1577,1551,1552
50233232,1000,1000,1000,1000,83428282,1577,1578,1550,1550
50235731,1000,1000,1000,1000,83528242,1578,1580,1548,1548
50238230,1000,1000,1000,1000,83628202,1581,1582,1546,1545
50240729,1000,1000,1000,1000,83728162,1584,1584,1544,1544
50243228,1000,1000,1000,1000,83828955,1586,1587,1541,1541
50245727,1000,1000,1000,1000,83928915,1589,1589,1540,1540
50248226,1000,1000,1000,1000,84028875,1591,1591,1538,1539
50250725,1000,1000,1000,1000,84128835,1592,1592,1537,1539
50253224,1000,1000,1000,1000,84228795,1593,1594,1538,1540
50255723,1000,1000,1000,1000,84328755,1592,1592,1539,1541
50258222,1000,1000,1000,1000,84428715,1590,1589,1543,1545
50260721,1000,1000,1000,1000,84528675,1586,1584,1549,1552
50263220,1000,1000,1000,1000,84628635,1581,1578,1557,1560
50265719,1000,1000,1000,1000,84728595,1573,1569,1567,1570
50268218,1000,1000,1000,1000,84828555,1563,1559,1578,1580
50270717,1000,1000,1000,1000,84928515,1553,1550,1590,1591
50273216,1000,1000,1000,1000,85028475,1543,1542,1599,1599
50275715,1000,1000,1000,1000,85128435,1536,1536,1606,1606
50278214,1000,1000,1000,1000,85228395,1533,1534,1611,1610
50280713,1000,1000,1000,1000,85328355,1532,1534,1611,1610
50283212,1000,1000,1000,1000,85428315,1535,1537,1610,1609
50285711,1000,1000,1000,1000,85528275,1541,1542,1606,1606
50288210,1000,1000,1000,1000,85628235,1548,1549,1600,1600
50290709,1000,1000,1000,1000,85728195,1556,1557,1593,1593
50293208,1000,1000,1000,1000,85828155,1565,1565,1588,1587
50295707,1000,1000,1000,1000,85928948,1571,1571,1580,1579
50298206,1000,1000,1000,1000,86028908,1578,1577,1576,1575
50300705,1000,1000,1000,1000,86128868,1583,1581,1571,1571
50303204,1000,1000,1000,1000,86228828,1585,1584,1567,1568
50305703,1000,1000,1000,1000,86328788,1587,1586,1566,1568
50308202,1000,1000,1000,1000,86428748,1589,1588,1569,1569
50310701,1000,1000,1000,1000,86528708,1586,1585,1569,1568
50313200,1000,1000,1000,1000,86628668,1585,1584,1572,1572
50315699,1000,1000,1000,1000,86728628,1582,1582,1574,1574
50318198,1000,1000,1000,1000,86828588,1579,1579,1577,1577
50320697,1000,1000,1000,1000,86928548,1577,1578,1580,1579
50323196,1000,1000,1000,1000,87028508,1575,1576,1582,1581
50325695,1000,1000,1000,1000,87128468,1575,1575,1584,1584
50328194,1000,1000,1000,1000,87228428,1573,1574,1584,1584
50330693,1000,1000,1000,1000,87328388,1574,1574,1584,1585
50333192,1000,1000,1000,1000,87428348,1575,1575,1585,1585
50335691,1000,1000,1000,1000,87528308,1575,1575,1583,1583
50338190,1000,1000,1000,1000,87628268,1576,1576,1582,1582
50340689,1000,1000,1000,1000,87728228,1577,1577,1580,1581
50343188,1000,1000,1000,1000,87828188,1578,1579,1580,1579
50345687,1000,1000,1000,1000,87928981,1579,1579,1578,1578
50348186,1000,1000,1000,1000,88028941,1580,1580,1578,1578
50350685,1000,1000,1000,1000,88128901,1581,1581,1577,1578
50353184,1000,1000,1000,1000,88228861,1580,1580,1576,1576
50355683,1000,1000,1000,1000,88328821,1581,1580,1576,1576
50358182,1000,1000,1000,1000,88428781,1581,1580,1577,1576
50360681,1000,1000,1000,1000,88528741,1580,1580,1577,1577
50363180,1000,1000,1000,1000,88628701,1579,1580,1577,1578
50365679,1000,1000,1000,1000,88728661,1579,1580,1578,1579
50368178,1000,1000,1000,1000,88828621,1580,1580,1580,1580
50370677,1000,1000,1000,1000,88928581,1580,1580,1580,1581
50373176,1000,1000,1000,1000,89028541,1580,1580,1581,1581
50375675,1000,1000,1000,1000,89128501,1579,1579,1581,1580
50378174,1000,1000,1000,1000,89228461,1579,1580,1581,1581
50380673,1000,1000,1000,1000,89328421,1580,1580,1582,1581
50383172,1000,1000,1000,1000,89428381,1580,1580,1582,1582
50385671,1000,1000,1000,1000,89528341,1581,1580,1582,1582
50388170,1000,1000,1000,1000,89628301,1581,1581,1581,1581
50390669,1000,1000,1000,1000,89728261,1581,1581,1582,1582
50393168,1000,1000,1000,1000,89828221,1581,1582,1584,1577
50395667,1000,1000,1000,1000,89928181,1581,1582,1587,1573
50398166,1000,1000,1000,1000,90028974,1579,1579,1582,1573
50400665,1000,1000,1000,1000,90128934,1577,1576,1574,1575
50403164,1000,1000,1000,1000,90228894,1574,1573,1568,1575
50405663,1000,1000,1000,1000,90328854,1572,1572,1567,1574
50408162,1000,1000,1000,1000,90428814,1569,1569,1565,1570
50410661,1000,1000,1000,1000,90528774,1568,1568,1565,1568
50413160,1000,1000,1000,1000,90628734,1566,1566,1566,1566
50415659,1000,1000,1000,1000,90728694,1565,1565,1567,1564
50418158,1000,1000,1000,1000,90828654,1564,1565,1566,1563
50420657,1000,1000,1000,1000,90928614,1564,1564,1566,1564
50423156,1000,1000,1000,1000,91028574,1564,1564,1566,1565
50425655,1000,1000,1000,1000,91128534,1563,1563,1564,1564
50428154,1000,1000,1000,1000,91228494,1563,1563,1564,1564
50431486,1000,1000,1000,1000,91328454,1562,1562,1563,1563
50433985,1000,1000,1000,1000,91428414,1561,1562,1562,1562
50436484,1000,1000,1000,1000,91528374,1560,1561,1561,1561
50438983,1000,1000,1000,1000,91628334,1560,1561,1560,1560
50441482,1000,1000,1000,1000,91728294,1559,1559,1559,1559
50443981,1000,1000,1000,1000,91828254,1559,1559,1559,1558
50446480,1000,1000,1000,1000,91928214,1558,1558,1558,1557
50448979,1000,1000,1000,1000,92028174,1557,1558,1558,1557
50451478,1000,1000,1000,1000,92128967,1558,1558,1558,1557
50453977,1000,1000,1000,1000,92228927,1558,1557,1558,1556
50456476,1000,1000,1000,1000,92328887,1557,1557,1558,1556
50458975,1000,1000,1000,1000,92428847,1558,1558,1558,1557
50461474,1000,1000,1000,1000,92528807,1557,1557,1558,1556
50463973,1000,1000,1000,1000,92628767,1558,1557,1559,1557
50466472,1000,1000,1000,1000,92728727,1559,1559,1558,1561
50468971,1000,1000,1000,1000,92828687,1558,1559,1556,1562
50471470,1000,1000,1000,1000,92928647,1560,1560,1557,1563
50473969,1000,1000,1000,1000,93028607,1560,1561,1558,1563
50476468,1000,1000,1000,1000,93128567,1561,1561,1560,1563
50478967,1000,1000,1000,1000,93228527,1561,1561,1561,1561
50481466,1000,1000,1000,1000,93328487,1561,1560,1563,1559
50483965,1000,1000,1000,1000,93428447,1560,1559,1559,1560
50486464,1000,1000,1000,1000,93528407,1559,1558,1557,1560
50488963,1000,1000,1000,1000,93628367,1554,1554,1552,1555
50491462,1000,1000,1000,1000,93728327,1549,1549,1547,1549
50493961,1000,1000,1000,1000,93828287,1543,1544,1542,1542
50496460,1000,1000,1000,1000,93928247,1536,1536,1535,1534
50498959,1000,1000,1000,1000,94028207,1528,1529,1527,1527
50501458,1000,1000,1000,1000,94128167,1522,1523,1521,1521
50503957,1000,1000,1000,1000,94228960,1519,1519,1519,1519
50506456,1000,1000,1000,1000,94328920,1519,1519,1519,1520
50508955,1000,1000,1000,1000,94428880,1521,1520,1521,1522
50511454,1000,1000,1000,1000,94528840,1523,1522,1524,1525
50513953,1000,1000,1000,1000,94628800,1526,1526,1528,1529
50516452,1000,1000,1000,1000,94728760,1531,1531,1534,1534
50518951,1000,1000,1000,1000,94828720,1535,1536,1538,1538
50521450,1000,1000,1000,1000,94928680,1538,1538,1540,1540
50523949,1000,1000,1000,1000,95028640,1541,1540,1542,1542
50526448,1000,1000,1000,1000,95128600,1543,1543,1544,1544
50528947,1000,1000,1000,1000,95228560,1545,1545,1546,1545
50531446,1000,1000,1000,1000,95328520,1546,1546,1546,1545
50533945,1000,1000,1000,1000,95428480,1547,1547,1546,1546
50536444,1000,1000,1000,1000,95528440,1547,1548,1546,1546
50538943,1000,1000,1000,1000,95628400,1547,1547,1545,1545
50541442,1000,1000,1000,1000,95728360,1548,1547,1546,1545
50543941,1000,1000,1000,1000,95828320,1548,1548,1546,1546
50546440,1000,1000,1000,1000,95928280,1548,1547,1546,1546
50548939,1000,1000,1000,1000,96028240,1547,1547,1546,1546
50551438,1000,1000,1000,1000,96128200,1546,1546,1545,1545
50553937,1000,1000,1000,1000,96228160,1545,1546,1545,1545
50556436,1000,1000,1000,1000,96328953,1544,1545,1545,1544
50558935,1000,1000,1000,1000,96428913,1545,1545,1546,1545
50561434,1000,1000,1000,1000,96528873,1545,1545,1546,1546
50563933,1000,1000,1000,1000,96628833,1544,1544,1545,1544
50566432,1000,1000,1000,1000,96728793,1543,1543,1544,1544
50568931,1000,1000,1000,1000,96828753,1543,1543,1544,1544
50571430,1000,1000,1000,1000,96928713,1543,1543,1543,1544
50573929,1000,1000,1000,1000,97028673,1543,1543,1544,1544
50576428,1000,1000,1000,1000,97128633,1544,1543,1543,1543
50578927,1000,1000,1000,1000,97228593,1544,1543,1543,1543
50581426,1000,1000,1000,1000,97328553,1543,1543,1543,1542
50583925,1000,1000,1000,1000,97428513,1543,1544,1543,1543
50586424,1000,1000,1000,1000,97528473,1544,1544,1544,1544
50588923,1000,1000,1000,1000,97628433,1544,1545,1544,1544
50591422,1000,1000,1000,1000,97728393,1544,1544,1544,1544
50593921,1000,1000,1000,1000,97828353,1545,1544,1544,1544
50596420,1000,1000,1000,1000,97928313,1544,1544,1544,1544
50598919,1000,1000,1000,1000,98028273,1544,1544,1544,1544
50601418,1000,1000,1000,1000,98128233,1544,1543,1544,1543
50603917,1000,1000,1000,1000,98228193,1544,1544,1544,1544
50606416,1000,1000,1000,1000,98328986,1544,1544,1544,1544
50608915,1000,1000,1000,1000,98428946,1544,1544,1544,1544
50611414,1000,1000,1000,1000,98528906,1544,1544,1544,1545
50613913,1000,1000,1000,1000,98628866,1544,1544,1544,1543
50616412,1000,1000,1000,1000,98728826,1545,1544,1544,1545
50618911,1000,1000,1000,1000,98828786,1544,1544,1544,1545
50621410,1000,1000,1000,1000,98928746,1543,1543,1543,1544
50623909,1000,1000,1000,1000,99028706,1544,1544,1544,1543
50626408,1000,1000,1000,1000,99128666,1544,1544,1544,1544
50628907,1000,1000,1000,1000,99228626,1544,1544,1544,1544
50631406,1000,1000,1000,1000,99328586,1544,1544,1543,1544
50633905,1000,1000,1000,1000,99428546,1544,1545,1544,1544
50636404,1000,1000,1000,1000,99528506,1544,1545,1544,1544
50638903,1000,1000,1000,1000,99628466,1544,1544,1544,1544
50641402,1000,1000,1000,1000,99728426,1545,1544,1545,1545
50643901,1000,1000,1000,1000,99828386,1545,1544,1545,1544
50646400,1000,1000,1000,1000,99928346,1544,1543,1543,1544
50648899,1000,1000,1000,1000,100028306,1543,1544,1544,1544
50651398,1000,1000,1000,1000,100128266,1543,1544,1544,1544
50653897,1000,1000,1000,1000,100228226,1543,1544,1543,1544
50656396,1000,1000,1000,1000,100328186,1544,1544,1543,1544
50658895,1000,1000,1000,1000,100428979,1544,1544,1544,1544
50661394,1000,1000,1000,1000,100528939,1544,1544,1544,1544
50663893,1000,1000,1000,1000,100628899,1544,1544,1544,1544
50666392,1000,1000,1000,1000,100728859,1543,1544,1543,1543
50668891,1000,1000,1000,1000,100828819,1543,1544,1543,1543
50671390,1000,1000,1000,1000,100928779,1544,1544,1544,1544
50673889,1000,1000,1000,1000,101028739,1544,1545,1545,1545
50676388,1000,1000,1000,1000,101128699,1544,1544,1544,1544
50678887,1000,1000,1000,1000,101228659,1545,1545,1545,1545
50681386,1000,1000,1000,1000,101328619,1544,1544,1544,1544
50683885,1000,1000,1000,1000,101428579,1544,1545,1545,1544
50686384,1000,1000,1000,1000,101528539,1545,1545,1545,1546
50688883,1000,1000,1000,1000,101628499,1545,1545,1545,1545
50691382,1000,1000,1000,1000,101728459,1544,1544,1544,1544
50693881,1000,1000,1000,1000,101828419,1544,1544,1544,1544
50696380,1000,1000,1000,1000,101928379,1545,1545,1545,1545
50698879,1000,1000,1000,1000,102028339,1545,1545,1545,1545
50701378,1000,1000,1000,1000,102128299,1544,1544,1544,1544
50703877,1000,1000,1000,1000,102228259,1544,1544,1544,1544
50706376,1000,1000,1000,1000,102328219,1544,1543,1544,1544
50708875,1000,1000,1000,1000,102428179,1544,1544,1544,1544
50711374,1000,1000,1000,1000,102528972,1543,1543,1543,1543
50713873,1000,1000,1000,1000,102628932,1544,1544,1544,1544
50716372,1000,1000,1000,1000,102728892,1543,1544,1543,1544
50718871,1000,1000,1000,1000,102828852,1544,1544,1544,1544
50721370,1000,1000,1000,1000,102928812,1544,1544,1544,1544
50723869,1000,1000,1000,1000,103028772,1544,1544,1544,1545
50726368,1000,1000,1000,1000,103128732,1544,1544,1544,1545
50728867,1000,1000,1000,1000,103228692,1544,1545,1545,1544
50731366,1000,1000,1000,1000,103328652,1544,1544,1544,1544
50733865,1000,1000,1000,1000,103428612,1544,1544,1544,1544
50736364,1000,1000,1000,1000,103528572,1545,1544,1544,1545
50738863,1000,1000,1000,1000,103628532,1545,1545,1545,1545
50741362,1000,1000,1000,1000,103728492,1545,1545,1545,1545
50743861,1000,1000,1000,1000,103828452,1543,1542,1543,1542
50746360,1000,1000,1000,1000,103928412,1382,1380,1360,1359
50748859,1000,1000,1000,1000,104028372,1292,1291,1253,1252
50751358,1000,1000,1000,1000,104128332,1265,1263,1219,1218
50753857,1000,1000,1000,1000,104228292,1251,1249,1201,1199
50756356,1000,1000,1000,1000,104328252,1216,1214,1155,1154
50758855,1000,1000,1000,1000,104428212,1213,1211,1152,1150
50761354,1000,1000,1000,1000,104528172,1213,1211,1152,1150
50763853,1000,1000,1000,1000,104628965,1214,1211,1153,1150
50766352,1000,1000,1000,1000,104728925,1232,1207,1150,1183
50768851,1000,1000,1000,1000,104828885,1227,1210,1150,1170
50771350,1000,1000,1000,1000,104928845,1225,1209,1150,1166
50773849,1000,1000,1000,1000,105028805,1225,1209,1150,1167
50776348,1000,1000,1000,1000,105128765,1227,1209,1150,1169
50778847,1000,1000,1000,1000,105228725,1228,1209,1150,1170
50781346,1000,1000,1000,1000,105328685,1230,1209,1150,1173
50783845,1000,1000,1000,1000,105428645,1231,1208,1150,1174
50786344,1000,1000,1000,1000,105528605,1220,1209,1150,1161
50788843,1000,1000,1000,1000,105628565,1221,1209,1150,1162
50791342,1000,1000,1000,1000,105728525,1222,1209,1150,1163
50793841,1000,1000,1000,1000,105828485,1222,1209,1150,1163
50796340,1000,1000,1000,1000,105928445,1174,1164,1150,1159
50798839,1000,1000,1000,1000,106028405,1000,1000,1000,1000
50801338,1000,1000,1000,1000,106128365,1000,1000,1000,1000
50803837,1000,1000,1000,1000,106228325,1000,1000,1000,1000
50806336,1000,1000,1000,1000,106328285,1000,1000,1000,1000
50808835,1000,1000,1000,1000,106428245,1000,1000,1000,1000
50811334,1000,1000,1000,1000,106528205,1000,1000,1000,1000
50813833,1000,1000,1000,1000,106628165,1000,1000,1000,1000
50816332,1000,1000,1000,1000,106728958,1000,1000,1000,1000
50818831,1000,1000,1000,1000,106828918,1000,1000,1000,1000
50821330,1000,1000,1000,1000,106928878,1000,1000,1000,1000
50823829,1000,1000,1000,1000,107028838,1000,1000,1000,1000
50826328,1000,1000,1000,1000,107128798,1000,1000,1000,1000
50828827,1000,1000,1000,1000,107228758,1000,1000,1000,1000
50831326,1000,1000,1000,1000,107328718,1000,1000,1000,1000
50833825,1000,1000,1000,1000,107428678,1000,1000,1000,1000
50836324,1000,1000,1000,1000,107528638,1000,1000,1000,1000
50838823,1000,1000,1000,1000,107628598,1000,1000,1000,1000
50841322,1000,1000,1000,1000,107728558,1000,1000,1000,1000
50843821,1000,1000,1000,1000,107828518,1000,1000,1000,1000
50846320,1000,1000,1000,1000,107928478,1000,1000,1000,1000
50848819,1000,1000,1000,1000,108028438,1000,1000,1000,1000
50851318,1000,1000,1000,1000,108128398,1000,1000,1000,1000
50853817,1000,1000,1000,1000,108228358,1000,1000,1000,1000
50856316,1000,1000,1000,1000,108328318,1000,1000,1000,1000
50858815,1000,1000,1000,1000,108428278,1000,1000,1000,1000
50861314,1000,1000,1000,1000,108528238,1000,1000,1000,1000
50863813,1000,1000,1000,1000,108628198,1000,1000,1000,1000
50866312,1000,1000,1000,1000,108728158,1000,1000,1000,1000
50868811,1000,1000,1000,1000,108828951,1000,1000,1000,1000
50871310,1000,1000,1000,1000,108928911,1000,1000,1000,1000
50873809,1000,1000,1000,1000,109028871,1000,1000,1000,1000
50876308,1000,1000,1000,1000,109128831,1000,1000,1000,1000
50878807,1000,1000,1000,1000,109228791,1000,1000,1000,1000
50881306,1000,1000,1000,1000,109328751,1000,1000,1000,1000
50883805,1000,1000,1000,1000,109428711,1000,1000,1000,1000
50886304,1000,1000,1000,1000,109528671,1000,1000,1000,1000
50888803,1000,1000,1000,1000,109628631,1000,1000,1000,1000
50891302,1000,1000,1000,1000,109728591,1000,1000,1000,1000
50893801,1000,1000,1000,1000,109828551,1000,1000,1000,1000
50896300,1000,1000,1000,1000,109928511,1000,1000,1000,1000
50898799,1000,1000,1000,1000,110028471,1000,1000,1000,1000
50901298,1000,1000,1000,1000,110128431,1000,1000,1000,1000
50903797,1000,1000,1000,1000,110228391,1000,1000,1000,1000
50906296,1000,1000,1000,1000,110328351,1000,1000,1000,1000
50908795,1000,1000,1000,1000,110428311,1000,1000,1000,1000
50911294,1000,1000,1000,1000,110528271,1000,1000,1000,1000
50913793,1000,1000,1000,1000,110628231,1000,1000,1000,1000
50916292,1000,1000,1000,1000,110728191,1000,1000,1000,1000
50918791,1000,1000,1000,1000,110828984,1000,1000,1000,1000
50921290,1000,1000,1000,1000,110928944,1000,1000,1000,1000
50923789,1000,1000,1000,1000,111028904,1000,1000,1000,1000
50926288,1000,1000,1000,1000,111128864,1000,1000,1000,1000
50928787,1000,1000,1000,1000,111228824,1000,1000,1000,1000
50931286,1000,1000,1000,1000,111328784,1000,1000,1000,1000
50933785,1000,1000,1000,1000,111428744,1000,1000,1000,1000
50936284,1000,1000,1000,1000,111528704,1000,1000,1000,1000
50938783,1000,1000,1000,1000,111628664,1000,1000,1000,1000
50941282,1000,1000,1000,1000,111728624,1000,1000,1000,1000
50943781,1000,1000,1000,1000,111828584,1000,1000,1000,1000
50946280,1000,1000,1000,1000,111928544,1000,1000,1000,1000
50948779,1000,1000,1000,1000,112028504,1000,1000,1000,1000
50951278,1000,1000,1000,1000,112128464,1000,1000,1000,1000
50953777,1000,1000,1000,1000,112228424,1000,1000,1000,1000
50956276,1000,1000,1000,1000,112328384,1000,1000,1000,1000
50958775,1000,1000,1000,1000,112428344,1000,1000,1000,1000
50961274,1000,1000,1000,1000,112528304,1000,1000,1000,1000
50963773,1000,1000,1000,1000,112628264,1000,1000,1000,1000
50966272,1000,1000,1000,1000,112728224,1000,1000,1000,1000
50968771,1000,1000,1000,1000,112828184,1000,1000,1000,1000
50971270,1000,1000,1000,1000,112928977,1000,1000,1000,1000
50973769,1000,1000,1000,1000,113028937,1000,1000,1000,1000
50976268,1000,1000,1000,1000,113128897,1000,1000,1000,1000
50978767,1000,1000,1000,1000,113228857,1000,1000,1000,1000
50981266,1000,1000,1000,1000,113328817,1000,1000,1000,1000
50983765,1000,1000,1000,1000,113428777,1000,1000,1000,1000
50986264,1000,1000,1000,1000,113528737,1000,1000,1000,1000
50988763,1000,1000,1000,1000,113628697,1000,1000,1000,1000
50991262,1000,1000,1000,1000,113728657,1000,1000,1000,1000
50993761,1000,1000,1000,1000,113828617,1000,1000,1000,1000
50996260,1000,1000,1000,1000,113928577,1000,1000,1000,1000
50998759,1000,1000,1000,1000,114028537,1000,1000,1000,1000
51001258,1000,1000,1000,1000,114128497,1000,1000,1000,1000
51003757,1000,1000,1000,1000,114228457,1000,1000,1000,1000
51006256,1000,1000,1000,1000,114328417,1000,1000,1000,1000
51008755,1000,1000,1000,1000,114428377,1000,1000,1000,1000
51011254,1000,1000,1000,1000,114528337,1000,1000,1000,1000
51013753,1000,1000,1000,1000,114628297,1000,1000,1000,1000
51016252,1000,1000,1000,1000,114728257,1000,1000,1000,1000
51018751,1000,1000,1000,1000,114828217,1000,1000,1000,1000
51021250,1000,1000,1000,1000,114928177,1000,1000,1000,1000
51023749,1000,1000,1000,1000,115028970,1000,1000,1000,1000
51026248,1000,1000,1000,1000,115128930,1000,1000,1000,1000
51028747,1000,1000,1000,1000,115228890,1000,1000,1000,1000
51031246,1000,1000,1000,1000,115328850,1000,1000,1000,1000
51033745,1000,1000,1000,1000,115428810,1000,1000,1000,1000
51036244,1000,1000,1000,1000,115528770,1000,1000,1000,1000
51038743,1000,1000,1000,1000,115628730,1000,1000,1000,1000
51041242,1000,1000,1000,1000,115728690,1000,1000,1000,1000
51043741,1000,1000,1000,1000,115828650,1000,1000,1000,1000
51046240,1000,1000,1000,1000,115928610,1000,1000,1000,1000
51048739,1000,1000,1000,1000,116028570,1000,1000,1000,1000
51051238,1000,1000,1000,1000,116128530,1000,1000,1000,1000
51053737,1000,1000,1000,1000,116228490,1000,1000,1000,1000
51056236,1000,1000,1000,1000,116328450,1000,1000,1000,1000
51058735,1000,1000,1000,1000,116428410,1000,1000,1000,1000
51061234,1000,1000,1000,1000,116528370,1000,1000,1000,1000
51063733,1000,1000,1000,1000,116628330,1000,1000,1000,1000
51066232,1000,1000,1000,1000,116728290,1000,1000,1000,1000
51068731,1000,1000,1000,1000,116828250,1000,1000,1000,1000
51071230,1000,1000,1000,1000,116928210,1000,1000,1000,1000
51073729,1000,1000,1000,1000,117028170,1000,1000,1000,1000
51076228,1000,1000,1000,1000,117128963,1000,1000,1000,1000
51078727,1000,1000,1000,1000,117228923,1000,1000,1000,1000
51081226,1000,1000,1000,1000,117328883,1000,1000,1000,1000
51083725,1000,1000,1000,1000,117428843,1000,1000,1000,1000
51086224,1000,1000,1000,1000,117528803,1000,1000,1000,1000
51088723,1000,1000,1000,1000,117628763,1000,1000,1000,1000
51091222,1000,1000,1000,1000,117728723,1000,1000,1000,1000
51093721,1000,1000,1000,1000,117828683,1000,1000,1000,1000
51096220,1000,1000,1000,1000,117928643,1000,1000,1000,1000
51098719,1000,1000,1000,1000,118028603,1000,1000,1000,1000
51101218,1000,1000,1000,1000,118128563,1000,1000,1000,1000
51103717,1000,1000,1000,1000,118228523,1000,1000,1000,1000
51106216,1000,1000,1000,1000,118328483,1000,1000,1000,1000
51108715,1000,1000,1000,1000,118428443,1000,1000,1000,1000
51111214,1000,1000,1000,1000,118528403,1000,1000,1000,1000
51113713,1000,1000,1000,1000,118628363,1000,1000,1000,1000
51116212,1000,1000,1000,1000,118728323,1000,1000,1000,1000
51118711,1000,1000,1000,1000,118828283,1000,1000,1000,1000
51121210,1000,1000,1000,1000,118928243,1000,1000,1000,1000
51123709,1000,1000,1000,1000,119028203,1000,1000,1000,1000
51126208,1000,1000,1000,1000,119128163,1000,1000,1000,1000
51128707,1000,1000,1000,1000,119228956,1000,1000,1000,1000
51131206,1000,1000,1000,1000,119328916,1000,1000,1000,1000
51133705,1000,1000,1000,1000,119428876,1000,1000,1000,1000
51136204,1000,1000,1000,1000,119528836,1000,1000,1000,1000
51138703,1000,1000,1000,1000,119628796,1000,1000,1000,1000
51141202,1000,1000,1000,1000,119728756,1000,1000,1000,1000
51143701,1000,1000,1000,1000,119828716,1000,1000,1000,1000
51146200,1000,1000,1000,1000,119928676,1000,1000,1000,1000
51148699,1000,1000,1000,1000,120028636,1000,1000,1000,1000
51151198,1000,1000,1000,1000,120128596,1000,1000,1000,1000
51153697,1000,1000,1000,1000,120228556,1000,1000,1000,1000
51156196,1000,1000,1000,1000,120328516,1000,1000,1000,1000
51158695,1000,1000,1000,1000,120428476,1000,1000,1000,1000
51161194,1000,1000,1000,1000,120528436,1000,1000,1000,1000
51163693,1000,1000,1000,1000,120628396,1000,1000,1000,1000
51166192,1000,1000,1000,1000,120728356,1000,1000,1000,1000
51168691,1000,1000,1000,1000,120828316,1000,1000,1000,1000
51171190,1000,1000,1000,1000,,,,,
51173689,1000,1000,1000,1000,,,,,
51176188,1000,1000,1000,1000,,,,,
51178687,1000,1000,1000,1000,,,,,
51181186,1000,1000,1000,1000,,,,,
51183685,1000,1000,1000,1000,,,,,
51186184,1000,1000,1000,1000,,,,,
51188683,1000,1000,1000,1000,,,,,
51191182,1000,1000,1000,1000,,,,,
51193681,1000,1000,1000,1000,,,,,
51196180,1000,1000,1000,1000,,,,,
51198679,1000,1000,1000,1000,,,,,
51201178,1000,1000,1000,1000,,,,,
51203677,1000,1000,1000,1000,,,,,
51206176,1000,1000,1000,1000,,,,,
51208675,1000,1000,1000,1000,,,,,
51211174,1000,1000,1000,1000,,,,,
51213673,1000,1000,1000,1000,,,,,
51216172,1000,1000,1000,1000,,,,,
51218671,1000,1000,1000,1000,,,,,
51221170,1000,1000,1000,1000,,,,,
51223669,1000,1000,1000,1000,,,,,
51226168,1000,1000,1000,1000,,,,,
51228667,1000,1000,1000,1000,,,,,
51231166,1000,1000,1000,1000,,,,,
51233665,1000,1000,1000,1000,,,,,
51236164,1000,1000,1000,1000,,,,,
51238663,1000,1000,1000,1000,,,,,
51241162,1000,1000,1000,1000,,,,,
51243661,1000,1000,1000,1000,,,,,
51246160,1000,1000,1000,1000,,,,,
51248659,1000,1000,1000,1000,,,,,
51251158,1000,1000,1000,1000,,,,,
51253657,1000,1000,1000,1000,,,,,
51256156,1000,1000,1000,1000,,,,,
51258655,1000,1000,1000,1000,,,,,
51261154,1000,1000,1000,1000,,,,,
51263653,1000,1000,1000,1000,,,,,
51266152,1000,1000,1000,1000,,,,,
51268651,1000,1000,1000,1000,,,,,
51271150,1000,1000,1000,1000,,,,,
51273649,1000,1000,1000,1000,,,,,
51276148,1000,1000,1000,1000,,,,,
51278647,1000,1000,1000,1000,,,,,
51281146,1000,1000,1000,1000,,,,,
51283645,1000,1000,1000,1000,,,,,
51286144,1000,1000,1000,1000,,,,,
51288643,1000,1000,1000,1000,,,,,
51291142,1000,1000,1000,1000,,,,,
51293641,1000,1000,1000,1000,,,,,
51296140,1000,1000,1000,1000,,,,,
51298639,1000,1000,1000,1000,,,,,
51301138,1000,1000,1000,1000,,,,,
51303637,1000,1000,1000,1000,,,,,
51306136,1000,1000,1000,1000,,,,,
51308635,1000,1000,1000,1000,,,,,
51311134,1000,1000,1000,1000,,,,,
51313633,1000,1000,1000,1000,,,,,
51316132,1000,1000,1000,1000,,,,,
51318631,1000,1000,1000,1000,,,,,
51321130,1000,1000,1000,1000,,,,,
51323629,1000,1000,1000,1000,,,,,
51326128,1000,1000,1000,1000,,,,,
51328627,1000,1000,1000,1000,,,,,
51331126,1000,1000,1000,1000,,,,,
51333625,1000,1000,1000,1000,,,,,
51336124,1000,1000,1000,1000,,,,,
51338623,1000,1000,1000,1000,,,,,
51341122,1000,1000,1000,1000,,,,,
51343621,1000,1000,1000,1000,,,,,
51346120,1000,1000,1000,1000,,,,,
51348619,1000,1000,1000,1000,,,,,
51351118,1000,1000,1000,1000,,,,,
51353617,1000,1000,1000,1000,,,,,
51356116,1000,1000,1000,1000,,,,,
51358615,1000,1000,1000,1000,,,,,
51361114,1000,1000,1000,1000,,,,,
51363613,1000,1000,1000,1000,,,,,
51366112,1000,1000,1000,1000,,,,,
51368611,1000,1000,1000,1000,,,,,
51371110,1000,1000,1000,1000,,,,,
51373609,1000,1000,1000,1000,,,,,
51376108,1000,1000,1000,1000,,,,,
51378607,1000,1000,1000,1000,,,,,
51381106,1000,1000,1000,1000,,,,,
51383605,1000,1000,1000,1000,,,,,
51386104,1000,1000,1000,1000,,,,,
51388603,1000,1000,1000,1000,,,,,
51391102,1001,1001,1001,1001,,,,,
51393601,1002,1002,1002,1002,,,,,
51396100,1003,1003,1003,1003,,,,,
51398599,1003,1003,1003,1003,,,,,
51401098,1004,1004,1004,1004,,,,,
51403597,1005,1005,1005,1005,,,,,
51406096,1006,1006,1006,1006,,,,,
51408595,1006,1006,1006,1006,,,,,
51411094,1007,1007,1007,1007,,,,,
51413593,1008,1008,1008,1008,,,,,
51416092,1009,1009,1009,1009,,,,,
51418591,1009,1009,1009,1009,,,,,
51421090,1010,1010,1010,1010,,,,,
51423589,1011,1011,1011,1011,,,,,
51426088,1012,1012,1012,1012,,,,,
51428587,1012,1012,1012,1012,,,,,
51431086,1013,1013,1013,1013,,,,,
51433585,1014,1014,1014,1014,,,,,
51436084,1015,1015,1015,1015,,,,,
51438583,1015,1015,1015,1015,,,,,
51441082,1016,1016,1016,1016,,,,,
51443581,1017,1017,1017,1017,,,,,
51446080,1018,1018,1018,1018,,,,,
51448579,1018,1018,1018,1018,,,,,
51451078,1019,1019,1019,1019,,,,,
51453577,1020,1020,1020,1020,,,,,
51456076,1021,1021,1021,1021,,,,,
51458575,1021,1021,1021,1021,,,,,
51461074,1022,1022,1022,1022,,,,,
51463573,1023,1023,1023,1023,,,,,
51466072,1024,1024,1024,1024,,,,,
51468571,1024,1024,1024,1024,,,,,
51471070,1025,1025,1025,1025,,,,,
51473569,1026,1026,1026,1026,,,,,
51476068,1027,1027,1027,1027,,,,,
51478567,1027,1027,1027,1027,,,,,
51481066,1028,1028,1028,1028,,,,,
51483565,1029,1029,1029,1029,,,,,
51486064,1030,1030,1030,1030,,,,,
51488563,1030,1030,1030,1030,,,,,
51491062,1031,1031,1031,1031,,,,,
51493561,1032,1032,1032,1032,,,,,
51496060,1033,1033,1033,1033,,,,,
51498559,1033,1033,1033,1033,,,,,
51501058,1034,1034,1034,1034,,,,,
51503557,1035,1035,1035,1035,,,,,
51506056,1036,1036,1036,1036,,,,,
51508555,1036,1036,1036,1036,,,,,
51511054,1037,1037,1037,1037,,,,,
51513553,1038,1038,1038,1038,,,,,
51516052,1039,1039,1039,1039,,,,,
51518551,1039,1039,1039,1039,,,,,
51521050,1040,1040,1040,1040,,,,,
51523549,1041,1041,1041,1041,,,,,
51526048,1042,1042,1042,1042,,,,,
51528547,1042,1042,1042,1042,,,,,
51531046,1043,1043,1043,1043,,,,,
51533545,1044,1044,1044,1044,,,,,
51536044,1045,1045,1045,1045,,,,,
51538543,1045,1045,1045,1045,,,,,
51541042,1046,1046,1046,1046,,,,,
51543541,1047,1047,1047,1047,,,,,
51546040,1048,1048,1048,1048,,,,,
51548539,1048,1048,1048,1048,,,,,
51551038,1049,1049,1049,1049,,,,,
51553537,1050,1050,1050,1050,,,,,
51556036,1051,1051,1051,1051,,,,,
51558535,1051,1051,1051,1051,,,,,
51561034,1052,1052,1052,1052,,,,,
51563533,1053,1053,1053,1053,,,,,
51566032,1054,1054,1054,1054,,,,,
51568531,1054,1054,1054,1054,,,,,
51571030,1055,1055,1055,1055,,,,,
51573529,1056,1056,1056,1056,,,,,
51576028,1057,1057,1057,1057,,,,,
51578527,1057,1057,1057,1057,,,,,
51581026,1058,1058,1058,1058,,,,,
51583525,1059,1059,1059,1059,,,,,
51586024,1060,1060,1060,1060,,,,,
51588523,1060,1060,1060,1060,,,,,
51591022,1061,1061,1061,1061,,,,,
51593521,1062,1062,1062,1062,,,,,
51596020,1063,1063,1063,1063,,,,,
51598519,1063,1063,1063,1063,,,,,
51601018,1064,1064,1064,1064,,,,,
51603517,1065,1065,1065,1065,,,,,
51606016,1066,1066,1066,1066,,,,,
51608515,1066,1066,1066,1066,,,,,
51611014,1067,1067,1067,1067,,,,,
51613513,1068,1068,1068,1068,,,,,
51616012,1069,1069,1069,1069,,,,,
51618511,1069,1069,1069,1069,,,,,
51621010,1070,1070,1070,1070,,,,,
51623509,1071,1071,1071,1071,,,,,
51626008,1072,1072,1072,1072,,,,,
51628507,1072,1072,1072,1072,,,,,
51631006,1073,1073,1073,1073,,,,,
51633505,1074,1074,1074,1074,,,,,
51636004,1075,1075,1075,1075,,,,,
51638503,1075,1075,1075,1075,,,,,
51641002,1076,1076,1076,1076,,,,,
51643501,1077,1077,1077,1077,,,,,
51646000,1078,1078,1078,1078,,,,,
51648499,1078,1078,1078,1078,,,,,
51650998,1079,1079,1079,1079,,,,,
51653497,1080,1080,1080,1080,,,,,
51655996,1081,1081,1081,1081,,,,,
51658495,1081,1081,1081,1081,,,,,
51660994,1082,1082,1082,1082,,,,,
51663493,1083,1083,1083,1083,,,,,
51665992,1084,1084,1084,1084,,,,,
51668491,1084,1084,1084,1084,,,,,
51670990,1085,1085,1085,1085,,,,,
51673489,1086,1086,1086,1086,,,,,
51675988,1087,1087,1087,1087,,,,,
51678487,1087,1087,1087,1087,,,,,
51680986,1088,1088,1088,1088,,,,,
51683485,1089,1089,1089,1089,,,,,
51685984,1090,1090,1090,1090,,,,,
51688483,1090,1090,1090,1090,,,,,
51690982,1091,1091,1091,1091,,,,,
51693481,1092,1092,1092,1092,,,,,
51695980,1093,1093,1093,1093,,,,,
51698479,1093,1093,1093,1093,,,,,
51700978,1094,1094,1094,1094,,,,,
51703477,1095,1095,1095,1095,,,,,
51705976,1096,1096,1096,1096,,,,,
51708475,1096,1096,1096,1096,,,,,
51710974,1097,1097,1097,1097,,,,,
51713473,1098,1098,1098,1098,,,,,
51715972,1099,1099,1099,1099,,,,,
51718471,1099,1099,1099,1099,,,,,
51720970,1100,1100,1100,1100,,,,,
51723469,1101,1101,1101,1101,,,,,
51725968,1101,1101,1101,1101,,,,,
51728467,1102,1102,1102,1102,,,,,
51730966,1103,1103,1103,1103,,,,,
51733465,1104,1104,1104,1104,,,,,
51735964,1104,1104,1104,1104,,,,,
51738463,1105,1105,1105,1105,,,,,
51740962,1106,1106,1106,1106,,,,,
51743461,1107,1107,1107,1107,,,,,
51745960,1107,1107,1107,1107,,,,,
51748459,1108,1108,1108,1108,,,,,
51750958,1109,1109,1109,1109,,,,,
51753457,1110,1110,1110,1110,,,,,
51755956,1110,1110,1110,1110,,,,,
51758455,1111,1111,1111,1111,,,,,
51760954,1112,1112,1112,1112,,,,,
51763453,1113,1113,1113,1113,,,,,
51765952,1113,1113,1113,1113,,,,,
51768451,1114,1114,1114,1114,,,,,
51770950,1115,1115,1115,1115,,,,,
51773449,1116,1116,1116,1116,,,,,
51775948,1116,1116,1116,1116,,,,,
51778447,1117,1117,1117,1117,,,,,
51780946,1118,1118,1118,1118,,,,,
51783445,1119,1119,1119,1119,,,,,
51785944,1119,1119,1119,1119,,,,,
51788443,1120,1120,1120,1120,,,,,
51790942,1121,1121,1121,1121,,,,,
51793441,1122,1122,1122,1122,,,,,
51795940,1122,1122,1122,1122,,,,,
51798439,1123,1123,1123,1123,,,,,
51800938,1124,1124,1124,1124,,,,,
51803437,1125,1125,1125,1125,,,,,
51805936,1125,1125,1125,1125,,,,,
51808435,1126,1126,1126,1126,,,,,
51810934,1127,1127,1127,1127,,,,,
51813433,1128,1128,1128,1128,,,,,
51815932,1128,1128,1128,1128,,,,,
51818431,1129,1129,1129,1129,,,,,
51820930,1130,1130,1130,1130,,,,,
51823429,1131,1131,1131,1131,,,,,
51825928,1131,1131,1131,1131,,,,,
51828427,1132,1132,1132,1132,,,,,
51830926,1133,1133,1133,1133,,,,,
51833425,1134,1134,1134,1134,,,,,
51835924,1134,1134,1134,1134,,,,,
51838423,1135,1135,1135,1135,,,,,
51840922,1136,1136,1136,1136,,,,,
51843421,1137,1137,1137,1137,,,,,
51845920,1137,1137,1137,1137,,,,,
51848419,1138,1138,1138,1138,,,,,
51850918,1139,1139,1139,1139,,,,,
51853417,1140,1140,1140,1140,,,,,
51855916,1140,1140,1140,1140,,,,,
51858415,1141,1141,1141,1141,,,,,
51860914,1142,1142,1142,1142,,,,,
51863413,1143,1143,1143,1143,,,,,
51865912,1143,1143,1143,1143,,,,,
51868411,1144,1144,1144,1144,,,,,
51870910,1145,1145,1145,1145,,,,,
51873409,1146,1146,1146,1146,,,,,
51875908,1146,1146,1146,1146,,,,,
51878407,1147,1147,1147,1147,,,,,
51880906,1148,1148,1148,1148,,,,,
51883405,1149,1149,1149,1149,,,,,
51885904,1149,1149,1149,1149,,,,,
51888403,1150,1150,1150,1150,,,,,
51890902,1161,1154,1154,1162,,,,,
51893401,1169,1162,1162,1170,,,,,
51895900,1177,1170,1170,1178,,,,,
51898399,1185,1177,1178,1185,,,,,
51900898,1192,1185,1185,1193,,,,,
51903397,1200,1193,1193,1200,,,,,
51905896,1207,1200,1200,1208,,,,,
51908395,1214,1207,1208,1215,,,,,
51910894,1222,1215,1215,1222,,,,,
51913393,1229,1222,1222,1229,,,,,
51915892,1235,1229,1229,1236,,,,,
51918391,1242,1235,1236,1243,,,,,
51920890,1249,1242,1243,1249,,,,,
51923389,1256,1249,1249,1256,,,,,
51925888,1262,1255,1256,1263,,,,,
51928387,1269,1262,1262,1269,,,,,
51930886,1275,1268,1269,1275,,,,,
51933385,1281,1275,1275,1282,,,,,
51935884,1287,1281,1281,1288,,,,,
51938383,1294,1287,1288,1294,,,,,
51940882,1300,1293,1294,1300,,,,,
51943381,1306,1299,1300,1306,,,,,
51945880,1312,1305,1306,1312,,,,,
51948379,1317,1311,1312,1318,,,,,
51950878,1323,1317,1318,1324,,,,,
51953377,1329,1323,1323,1329,,,,,
51955876,1335,1329,1329,1335,,,,,
51958375,1340,1334,1335,1341,,,,,
51960874,1346,1340,1340,1346,,,,,
51963373,1352,1346,1346,1352,,,,,
51965872,1357,1351,1352,1357,,,,,
51968371,1362,1357,1357,1363,,,,,
51970870,1368,1362,1362,1368,,,,,
51973369,1373,1368,1368,1374,,,,,
51975868,1379,1373,1373,1379,,,,,
51978367,1384,1378,1378,1384,,,,,
51980866,1389,1383,1384,1389,,,,,
51983365,1394,1389,1389,1395,,,,,
51985864,1399,1394,1394,1400,,,,,
51988363,1404,1399,1399,1405,,,,,
51990862,1409,1404,1404,1410,,,,,
51993361,1414,1409,1409,1415,,,,,
51995860,1419,1414,1414,1420,,,,,
51998359,1424,1419,1419,1425,,,,,
52000858,1429,1424,1424,1430,,,,,
52003357,1434,1429,1429,1434,,,,,
52005856,1439,1434,1434,1439,,,,,
52008355,1444,1439,1439,1444,,,,,
52010854,1448,1444,1444,1449,,,,,
52013353,1453,1448,1448,1454,,,,,
52015852,1458,1453,1453,1458,,,,,
52018351,1463,1458,1458,1463,,,,,
52020850,1467,1462,1463,1468,,,,,
52023349,1472,1467,1467,1472,,,,,
52025848,1476,1472,1472,1477,,,,,
52028347,1481,1476,1476,1481,,,,,
52030846,1485,1481,1481,1486,,,,,
52033345,1490,1485,1486,1490,,,,,
52035844,1494,1490,1490,1495,,,,,
52038343,1499,1494,1494,1499,,,,,
52040842,1503,1499,1499,1504,,,,,
52043341,1508,1503,1503,1508,,,,,
52045840,1512,1507,1508,1512,,,,,
52048339,1516,1512,1512,1517,,,,,
52050838,1521,1516,1516,1521,,,,,
52053337,1525,1520,1521,1525,,,,,
52055836,1529,1525,1525,1530,,,,,
52058335,1534,1529,1529,1534,,,,,
52060834,1538,1533,1534,1538,,,,,
52063333,1542,1537,1538,1542,,,,,
52065832,1546,1542,1542,1546,,,,,
52068331,1550,1546,1546,1551,,,,,
52070830,1555,1550,1550,1555,,,,,
52073329,1559,1554,1554,1559,,,,,
52075828,1563,1558,1558,1563,,,,,
52078327,1567,1562,1563,1567,,,,,
52080826,1571,1566,1567,1571,,,,,
52083325,1575,1570,1571,1575,,,,,
52085824,1579,1574,1575,1579,,,,,
52088323,1583,1578,1579,1583,,,,,
52090822,1587,1582,1583,1587,,,,,
52093321,1591,1586,1587,1591,,,,,
52095820,1595,1590,1591,1595,,,,,
52098319,1599,1594,1595,1599,,,,,
52100818,1603,1598,1599,1603,,,,,
52103317,1607,1602,1602,1607,,,,,
52105816,1611,1606,1606,1611,,,,,
52108315,1615,1610,1610,1614,,,,,
52110814,1618,1613,1614,1618,,,,,
52113313,1622,1617,1618,1622,,,,,
52115812,1626,1621,1622,1626,,,,,
52118311,1630,1625,1625,1630,,,,,
52120810,1634,1629,1629,1633,,,,,
52123309,1637,1632,1633,1637,,,,,
52125808,1641,1636,1637,1641,,,,,
52128307,1645,1640,1640,1645,,,,,
52130806,1649,1643,1644,1648,,,,,
52133305,1652,1647,1648,1652,,,,,
52135804,1656,1651,1652,1656,,,,,
52138303,1660,1654,1655,1659,,,,,
52140802,1663,1658,1659,1663,,,,,
52143301,1667,1662,1663,1667,,,,,
52145800,1671,1665,1666,1670,,,,,
52148299,1674,1669,1670,1674,,,,,
52150798,1678,1673,1673,1677,,,,,
52153297,1681,1676,1677,1681,,,,,
52155796,1685,1680,1681,1685,,,,,
52158295,1688,1683,1684,1688,,,,,
52160794,1692,1687,1688,1692,,,,,
52163293,1695,1690,1691,1695,,,,,
52165792,1699,1694,1695,1699,,,,,
52168291,1702,1697,1698,1702,,,,,
52170790,1706,1701,1702,1706,,,,,
52173289,1709,1704,1705,1709,,,,,
52175788,1713,1708,1709,1713,,,,,
52178287,1716,1711,1712,1716,,,,,
52180786,1720,1715,1715,1720,,,,,
52183285,1723,1718,1719,1723,,,,,
52185784,1726,1722,1722,1726,,,,,
52188283,1730,1725,1726,1730,,,,,
52190782,1733,1728,1729,1733,,,,,
52193281,1737,1732,1732,1737,,,,,
52195780,1740,1735,1736,1740,,,,,
52198279,1743,1739,1739,1743,,,,,
52200778,1747,1742,1742,1747,,,,,
52203277,1750,1745,1746,1750,,,,,
52205776,1753,1749,1749,1753,,,,,
52208275,1757,1752,1752,1757,,,,,
52210774,1760,1755,1756,1760,,,,,
52213273,1763,1759,1759,1763,,,,,
52215772,1766,1762,1762,1767,,,,,
52218271,1770,1765,1765,1770,,,,,
52220770,1773,1768,1769,1773,,,,,
52223269,1776,1772,1772,1776,,,,,
52225768,1779,1775,1775,1780,,,,,
52228267,1783,1778,1778,1783,,,,,
52230766,1786,1781,1781,1786,,,,,
52233265,1789,1785,1785,1789,,,,,
52235764,1792,1788,1788,1793,,,,,
52238263,1795,1791,1791,1796,,,,,
52240762,1799,1794,1794,1799,,,,,
52243261,1802,1797,1797,1802,,,,,
52245760,1805,1800,1800,1805,,,,,
52248259,1808,1804,1804,1808,,,,,
52250758,1811,1807,1807,1812,,,,,
52253257,1814,1810,1810,1815,,,,,
52255756,1817,1813,1813,1818,,,,,
52258255,1820,1816,1816,1821,,,,,
52260754,1824,1819,1819,1824,,,,,
52263253,1827,1822,1822,1827,,,,,
52265752,1830,1825,1825,1830,,,,,
52268251,1833,1829,1828,1833,,,,,
52270750,1836,1832,1832,1836,,,,,
52273249,1839,1835,1835,1839,,,,,
52275748,1842,1838,1838,1842,,,,,
52278247,1845,1841,1841,1845,,,,,
52280746,1848,1844,1844,1849,,,,,
52283245,1851,1847,1847,1852,,,,,
52285744,1854,1850,1850,1855,,,,,
52288243,1857,1853,1853,1858,,,,,
52290742,1860,1856,1856,1861,,,,,
52293241,1863,1859,1859,1864,,,,,
52295740,1866,1862,1862,1867,,,,,
52298239,1869,1865,1865,1869,,,,,
52300738,1872,1868,1868,1872,,,,,
52303237,1875,1871,1871,1875,,,,,
52305736,1878,1874,1874,1878,,,,,
52308235,1881,1877,1877,1881,,,,,
52310734,1884,1880,1879,1884,,,,,
52313233,1887,1882,1882,1887,,,,,
52315732,1890,1885,1885,1890,,,,,
52318231,1893,1888,1888,1893,,,,,
52320730,1895,1891,1891,1896,,,,,
52323229,1898,1894,1894,1899,,,,,
52325728,1899,1895,1895,1900,,,,,
52328227,1898,1894,1894,1899,,,,,
52330726,1897,1893,1893,1898,,,,,
52333225,1896,1892,1892,1897,,,,,
52335724,1896,1891,1891,1896,,,,,
52338223,1895,1890,1890,1895,,,,,
52340722,1894,1890,1890,1894,,,,,
52343221,1893,1889,1889,1893,,,,,
52345720,1892,1888,1888,1893,,,,,
52348219,1892,1887,1888,1892,,,,,
52350718,1891,1887,1887,1891,,,,,
52353217,1891,1886,1886,1891,,,,,
52355716,1890,1886,1886,1890,,,,,
52358215,1890,1885,1885,1890,,,,,
52360714,1889,1885,1885,1890,,,,,
52363213,1889,1885,1885,1889,,,,,
52365712,1889,1885,1885,1889,,,,,
52368211,1889,1885,1885,1889,,,,,
52370710,1889,1885,1885,1889,,,,,
52373209,1889,1885,1885,1889,,,,,
52375708,1889,1885,1885,1889,,,,,
52378207,1889,1885,1885,1890,,,,,
52380706,1889,1885,1885,1890,,,,,
52383205,1889,1886,1886,1890,,,,,
52385704,1890,1886,1886,1890,,,,,
52388203,1890,1886,1886,1890,,,,,
52390702,1890,1887,1887,1891,,,,,
52393201,1890,1887,1887,1891,,,,,
52395700,1890,1887,1887,1891,,,,,
52398199,1890,1887,1887,1890,,,,,
52400698,1890,1887,1887,1890,,,,,
52403197,1889,1887,1887,1890,,,,,
52405696,1889,1886,1886,1889,,,,,
52408195,1888,1886,1886,1889,,,,,
52410694,1887,1885,1885,1888,,,,,
52413193,1886,1884,1884,1887,,,,,
52415692,1885,1883,1883,1886,,,,,
52418191,1884,1882,1882,1884,,,,,
52420690,1882,1880,1880,1883,,,,,
52423189,1881,1879,1878,1881,,,,,
52425688,1879,1877,1877,1879,,,,,
52428187,1877,1875,1875,1878,,,,,
52430686,1875,1873,1873,1875,,,,,
52433185,1873,1871,1871,1873,,,,,
52435684,1870,1868,1868,1871,,,,,
52438183,1868,1866,1866,1868,,,,,
52440682,1865,1863,1863,1866,,,,,
52443181,1863,1861,1861,1863,,,,,
52445680,1860,1858,1858,1861,,,,,
52448179,1857,1855,1855,1858,,,,,
52450678,1854,1853,1853,1855,,,,,
52453177,1851,1850,1850,1852,,,,,
52455676,1848,1847,1847,1849,,,,,
52458175,1845,1844,1844,1846,,,,,
52460674,1842,1841,1841,1843,,,,,
52463173,1839,1838,1838,1840,,,,,
52465672,1836,1834,1834,1836,,,,,
52468171,1833,1831,1831,1833,,,,,
52470670,1830,1828,1828,1830,,,,,
52473169,1826,1825,1825,1827,,,,,
52475668,1823,1821,1822,1823,,,,,
52478167,1820,1818,1818,1820,,,,,
52480666,1816,1815,1815,1817,,,,,
52483165,1813,1811,1812,1813,,,,,
52485664,1810,1808,1808,1810,,,,,
52488163,1806,1805,1805,1806,,,,,
52490662,1803,1801,1802,1803,,,,,
52493161,1799,1798,1798,1800,,,,,
52495660,1796,1795,1795,1796,,,,,
52498159,1793,1791,1791,1793,,,,,
52500658,1789,1788,1788,1789,,,,,
52503157,1786,1784,1785,1786,,,,,
52505656,1782,1781,1781,1783,,,,,
52508155,1779,1778,1778,1779,,,,,
52510654,1776,1774,1775,1776,,,,,
