timestamp,TimeUS,C1,C2,C3,C4,C5,C6,C7,C8,C9,C10,C11,C12,C13,C14
1684140012.59999990,74028710,1000,1000,1000,1000,0,0,0,0,0,0,0,0,0,0
1684140012.69995999,74128670,1000,1000,1000,1000,0,0,0,0,0,0,0,0,0,0
1684140012.79992008,74228630,1000,1000,1000,1000,0,0,0,0,0,0,0,0,0,0
1684140012.89987993,74328590,1000,1000,1000,1000,0,0,0,0,0,0,0,0,0,0
1684140012.99984002,74428550,1000,1000,1000,1000,0,0,0,0,0,0,0,0,0,0
1684140013.09980011,74528510,1000,1000,1000,1000,0,0,0,0,0,0,0,0,0,0
1684140013.19975996,74628470,1000,1000,1000,1000,0,0,0,0,0,0,0,0,0,0
1684140013.29972005,74728430,1000,1000,1000,1000,0,0,0,0,0,0,0,0,0,0
1684140013.39967990,74828390,1000,1000,1000,1000,0,0,0,0,0,0,0,0,0,0
1684140013.49963999,74928350,1000,1000,1000,1000,0,0,0,0,0,0,0,0,0,0
1684140013.59960008,75028310,1000,1000,1000,1000,0,0,0,0,0,0,0,0,0,0
1684140013.69955993,75128270,1000,1000,1000,1000,0,0,0,0,0,0,0,0,0,0
1684140013.79952002,75228230,1000,1000,1000,1000,0,0,0,0,0,0,0,0,0,0
1684140013.89948010,75328190,1000,1000,1000,1000,0,0,0,0,0,0,0,0,0,0
1684140014.00027299,75428983,1000,1000,1000,1000,0,0,0,0,0,0,0,0,0,0
1684140014.10023308,75528943,1000,1000,1000,1000,0,0,0,0,0,0,0,0,0,0
1684140014.20019293,75628903,1000,1000,1000,1000,0,0,0,0,0,0,0,0,0,0
1684140014.30015302,75728863,1000,1000,1000,1000,0,0,0,0,0,0,0,0,0,0
1684140014.40011311,75828823,1000,1000,1000,1000,0,0,0,0,0,0,0,0,0,0
1684140014.50007296,75928783,1000,1000,1000,1000,0,0,0,0,0,0,0,0,0,0
1684140014.60003304,76028743,1026,1026,1026,1026,0,0,0,0,0,0,0,0,0,0
1684140014.69999313,76128703,1056,1056,1056,1056,0,0,0,0,0,0,0,0,0,0
1684140014.79995298,76228663,1086,1086,1086,1086,0,0,0,0,0,0,0,0,0,0
1684140014.89991307,76328623,1116,1116,1116,1116,0,0,0,0,0,0,0,0,0,0
1684140014.99987292,76428583,1146,1146,1146,1146,0,0,0,0,0,0,0,0,0,0
1684140015.09983301,76528543,1375,1365,1366,1375,0,0,0,0,0,0,0,0,0,0
1684140015.19979310,76628503,1560,1552,1553,1561,0,0,0,0,0,0,0,0,0,0
1684140015.29975295,76728463,1710,1703,1704,1711,0,0,0,0,0,0,0,0,0,0
1684140015.39971304,76828423,1840,1833,1834,1840,0,0,0,0,0,0,0,0,0,0
1684140015.49967313,76928383,1884,1876,1877,1884,0,0,0,0,0,0,0,0,0,0
1684140015.59963298,77028343,1824,1821,1821,1825,0,0,0,0,0,0,0,0,0,0
1684140015.69959307,77128303,1694,1695,1693,1697,0,0,0,0,0,0,0,0,0,0
1684140015.79955292,77228263,1625,1627,1625,1628,0,0,0,0,0,0,0,0,0,0
1684140015.89951301,77328223,1615,1617,1616,1617,0,0,0,0,0,0,0,0,0,0
1684140015.99947309,77428183,1625,1626,1627,1624,0,0,0,0,0,0,0,0,0,0
1684140016.10026598,77528976,1630,1631,1632,1629,0,0,0,0,0,0,0,0,0,0
1684140016.20022607,77628936,1628,1628,1629,1626,0,0,0,0,0,0,0,0,0,0
1684140016.30018592,77728896,1622,1620,1621,1621,0,0,0,0,0,0,0,0,0,0
1684140016.40014601,77828856,1619,1617,1617,1618,0,0,0,0,0,0,0,0,0,0
1684140016.50010610,77928816,1618,1617,1617,1618,0,0,0,0,0,0,0,0,0,0
1684140016.60006595,78028776,1620,1619,1619,1619,0,0,0,0,0,0,0,0,0,0
1684140016.70002604,78128736,1620,1620,1621,1620,0,0,0,0,0,0,0,0,0,0
1684140016.79998612,78228696,1607,1608,1610,1604,0,0,0,0,0,0,0,0,0,0
1684140016.89994597,78328656,1585,1586,1594,1577,0,0,0,0,0,0,0,0,0,0
1684140016.99990606,78428616,1573,1574,1578,1569,0,0,0,0,0,0,0,0,0,0
1684140017.09986591,78528576,1563,1563,1563,1563,0,0,0,0,0,0,0,0,0,0
1684140017.19982600,78628536,1555,1554,1551,1558,0,0,0,0,0,0,0,0,0,0
1684140017.29978609,78728496,1547,1546,1539,1555,0,0,0,0,0,0,0,0,0,0
1684140017.39974594,78828456,1541,1540,1533,1548,0,0,0,0,0,0,0,0,0,0
1684140017.49970603,78928416,1534,1534,1529,1539,0,0,0,0,0,0,0,0,0,0
1684140017.59966612,79028376,1530,1530,1528,1531,0,0,0,0,0,0,0,0,0,0
1684140017.69962597,79128336,1528,1527,1528,1527,0,0,0,0,0,0,0,0,0,0
1684140017.79958606,79228296,1529,1529,1531,1526,0,0,0,0,0,0,0,0,0,0
1684140017.89954591,79328256,1531,1531,1534,1528,0,0,0,0,0,0,0,0,0,0
1684140017.99950600,79428216,1534,1534,1537,1532,0,0,0,0,0,0,0,0,0,0
1684140018.09946609,79528176,1538,1538,1540,1537,0,0,0,0,0,0,0,0,0,0
1684140018.20025897,79628969,1541,1542,1543,1540,0,0,0,0,0,0,0,0,0,0
1684140018.30021906,79728929,1545,1544,1545,1544,0,0,0,0,0,0,0,0,0,0
1684140018.40017891,79828889,1547,1547,1547,1547,0,0,0,0,0,0,0,0,0,0
1684140018.50013900,79928849,1550,1551,1550,1551,0,0,0,0,0,0,0,0,0,0
1684140018.60009909,80028809,1553,1553,1553,1554,0,0,0,0,0,0,0,0,0,0
1684140018.70005894,80128769,1555,1554,1553,1556,0,0,0,0,0,0,0,0,0,0
1684140018.80001903,80228729,1555,1555,1559,1561,0,0,0,0,0,0,0,0,0,0
1684140018.89997911,80328689,1557,1556,1562,1563,0,0,0,0,0,0,0,0,0,0
1684140018.99993896,80428649,1559,1559,1564,1564,0,0,0,0,0,0,0,0,0,0
1684140019.09989905,80528609,1560,1561,1565,1565,0,0,0,0,0,0,0,0,0,0
1684140019.19985890,80628569,1563,1564,1566,1566,0,0,0,0,0,0,0,0,0,0
1684140019.29981899,80728529,1565,1565,1566,1565,0,0,0,0,0,0,0,0,0,0
1684140019.39977908,80828489,1567,1567,1566,1566,0,0,0,0,0,0,0,0,0,0
1684140019.49973893,80928449,1568,1568,1566,1566,0,0,0,0,0,0,0,0,0,0
1684140019.59969902,81028409,1571,1571,1567,1567,0,0,0,0,0,0,0,0,0,0
1684140019.69965911,81128369,1571,1571,1568,1568,0,0,0,0,0,0,0,0,0,0
1684140019.79961896,81228329,1573,1573,1569,1569,0,0,0,0,0,0,0,0,0,0
1684140019.89957905,81328289,1573,1573,1569,1570,0,0,0,0,0,0,0,0,0,0
1684140019.99953890,81428249,1573,1573,1570,1570,0,0,0,0,0,0,0,0,0,0
1684140020.09949899,81528209,1573,1573,1571,1571,0,0,0,0,0,0,0,0,0,0
1684140020.19945908,81628169,1575,1574,1574,1573,0,0,0,0,0,0,0,0,0,0
1684140020.30025196,81728962,1574,1574,1575,1573,0,0,0,0,0,0,0,0,0,0
1684140020.40021205,81828922,1574,1575,1575,1574,0,0,0,0,0,0,0,0,0,0
1684140020.50017190,81928882,1575,1576,1577,1576,0,0,0,0,0,0,0,0,0,0
1684140020.60013199,82028842,1576,1576,1577,1577,0,0,0,0,0,0,0,0,0,0
1684140020.70009208,82128802,1576,1576,1577,1577,0,0,0,0,0,0,0,0,0,0
1684140020.80005193,82228762,1576,1576,1577,1577,0,0,0,0,0,0,0,0,0,0
1684140020.90001202,82328722,1576,1576,1577,1577,0,0,0,0,0,0,0,0,0,0
1684140020.99997211,82428682,1576,1577,1577,1577,0,0,0,0,0,0,0,0,0,0
1684140021.09993196,82528642,1577,1577,1577,1577,0,0,0,0,0,0,0,0,0,0
1684140021.19989204,82628602,1577,1576,1577,1577,0,0,0,0,0,0,0,0,0,0
1684140021.29985213,82728562,1578,1577,1577,1578,0,0,0,0,0,0,0,0,0,0
1684140021.39981198,82828522,1578,1578,1577,1577,0,0,0,0,0,0,0,0,0,0
1684140021.49977207,82928482,1578,1578,1577,1577,0,0,0,0,0,0,0,0,0,0
1684140021.59973192,83028442,1577,1577,1577,1576,0,0,0,0,0,0,0,0,0,0
1684140021.69969201,83128402,1578,1578,1578,1578,0,0,0,0,0,0,0,0,0,0
1684140021.79965210,83228362,1578,1577,1577,1577,0,0,0,0,0,0,0,0,0,0
1684140021.89961195,83328322,1578,1578,1578,1578,0,0,0,0,0,0,0,0,0,0
1684140021.99957204,83428282,1579,1578,1578,1579,0,0,0,0,0,0,0,0,0,0
1684140022.09953213,83528242,1578,1578,1578,1578,0,0,0,0,0,0,0,0,0,0
1684140022.19949198,83628202,1578,1579,1579,1578,0,0,0,0,0,0,0,0,0,0
1684140022.29945207,83728162,1579,1578,1578,1578,0,0,0,0,0,0,0,0,0,0
1684140022.40024495,83828955,1578,1578,1578,1579,0,0,0,0,0,0,0,0,0,0
1684140022.50020504,83928915,1579,1579,1580,1580,0,0,0,0,0,0,0,0,0,0
1684140022.60016513,84028875,1578,1578,1579,1578,0,0,0,0,0,0,0,0,0,0
1684140022.70012498,84128835,1578,1578,1578,1578,0,0,0,0,0,0,0,0,0,0
1684140022.80008507,84228795,1578,1578,1578,1579,0,0,0,0,0,0,0,0,0,0
1684140022.90004492,84328755,1579,1579,1579,1579,0,0,0,0,0,0,0,0,0,0
1684140023.00000501,84428715,1579,1579,1580,1579,0,0,0,0,0,0,0,0,0,0
1684140023.09996510,84528675,1580,1580,1580,1580,0,0,0,0,0,0,0,0,0,0
1684140023.19992495,84628635,1581,1580,1581,1581,0,0,0,0,0,0,0,0,0,0
1684140023.29988503,84728595,1580,1580,1580,1580,0,0,0,0,0,0,0,0,0,0
1684140023.39984512,84828555,1579,1579,1579,1580,0,0,0,0,0,0,0,0,0,0
1684140023.49980497,84928515,1579,1579,1578,1579,0,0,0,0,0,0,0,0,0,0
1684140023.59976506,85028475,1580,1580,1579,1580,0,0,0,0,0,0,0,0,0,0
1684140023.69972491,85128435,1581,1581,1581,1580,0,0,0,0,0,0,0,0,0,0
1684140023.79968500,85228395,1581,1581,1581,1581,0,0,0,0,0,0,0,0,0,0
1684140023.89964509,85328355,1580,1580,1580,1579,0,0,0,0,0,0,0,0,0,0
1684140023.99960494,85428315,1580,1580,1580,1580,0,0,0,0,0,0,0,0,0,0
1684140024.09956503,85528275,1581,1581,1581,1580,0,0,0,0,0,0,0,0,0,0
1684140024.19952512,85628235,1580,1581,1581,1581,0,0,0,0,0,0,0,0,0,0
1684140024.29948497,85728195,1581,1581,1581,1581,0,0,0,0,0,0,0,0,0,0
1684140024.39944506,85828155,1581,1581,1581,1581,0,0,0,0,0,0,0,0,0,0
1684140024.50023794,85928948,1582,1581,1581,1582,0,0,0,0,0,0,0,0,0,0
1684140024.60019803,86028908,1582,1581,1582,1581,0,0,0,0,0,0,0,0,0,0
1684140024.70015812,86128868,1581,1581,1581,1581,0,0,0,0,0,0,0,0,0,0
1684140024.80011797,86228828,1581,1581,1581,1581,0,0,0,0,0,0,0,0,0,0
1684140024.90007806,86328788,1581,1581,1581,1581,0,0,0,0,0,0,0,0,0,0
1684140025.00003791,86428748,1580,1582,1588,1574,0,0,0,0,0,0,0,0,0,0
1684140025.09999800,86528708,1580,1583,1585,1573,0,0,0,0,0,0,0,0,0,0
1684140025.19995809,86628668,1578,1582,1576,1573,0,0,0,0,0,0,0,0,0,0
1684140025.29991794,86728628,1577,1580,1567,1571,0,0,0,0,0,0,0,0,0,0
1684140025.39987803,86828588,1577,1579,1561,1568,0,0,0,0,0,0,0,0,0,0
1684140025.49983811,86928548,1578,1578,1556,1563,0,0,0,0,0,0,0,0,0,0
1684140025.59979796,87028508,1579,1578,1555,1559,0,0,0,0,0,0,0,0,0,0
1684140025.69975805,87128468,1580,1578,1556,1556,0,0,0,0,0,0,0,0,0,0
1684140025.79971790,87228428,1579,1578,1556,1554,0,0,0,0,0,0,0,0,0,0
1684140025.89967799,87328388,1578,1578,1556,1553,0,0,0,0,0,0,0,0,0,0
1684140025.99963808,87428348,1577,1578,1556,1554,0,0,0,0,0,0,0,0,0,0
1684140026.09959793,87528308,1576,1578,1555,1554,0,0,0,0,0,0,0,0,0,0
1684140026.19955802,87628268,1576,1577,1555,1554,0,0,0,0,0,0,0,0,0,0
1684140026.29951811,87728228,1575,1577,1553,1553,0,0,0,0,0,0,0,0,0,0
1684140026.39947796,87828188,1575,1577,1551,1551,0,0,0,0,0,0,0,0,0,0
1684140026.50027108,87928981,1577,1578,1549,1550,0,0,0,0,0,0,0,0,0,0
1684140026.60023093,88028941,1579,1580,1547,1547,0,0,0,0,0,0,0,0,0,0
1684140026.70019102,88128901,1581,1582,1544,1544,0,0,0,0,0,0,0,0,0,0
1684140026.80015111,88228861,1584,1585,1542,1541,0,0,0,0,0,0,0,0,0,0
1684140026.90011096,88328821,1587,1587,1539,1539,0,0,0,0,0,0,0,0,0,0
1684140027.00007105,88428781,1590,1591,1537,1536,0,0,0,0,0,0,0,0,0,0
1684140027.10003090,88528741,1593,1593,1535,1536,0,0,0,0,0,0,0,0,0,0
1684140027.19999099,88628701,1595,1595,1534,1535,0,0,0,0,0,0,0,0,0,0
1684140027.29995108,88728661,1595,1595,1535,1537,0,0,0,0,0,0,0,0,0,0
1684140027.39991093,88828621,1594,1594,1536,1538,0,0,0,0,0,0,0,0,0,0
1684140027.49987102,88928581,1592,1591,1540,1543,0,0,0,0,0,0,0,0,0,0
1684140027.59983110,89028541,1587,1586,1546,1549,0,0,0,0,0,0,0,0,0,0
1684140027.69979095,89128501,1581,1578,1554,1557,0,0,0,0,0,0,0,0,0,0
1684140027.79975104,89228461,1573,1570,1565,1568,0,0,0,0,0,0,0,0,0,0
1684140027.89971113,89328421,1314,1317,1647,1653,0,0,0,0,0,0,0,0,0,0
1684140027.99967098,89428381,1383,1388,1663,1664,0,0,0,0,0,0,0,0,0,0
1684140028.09963107,89528341,1445,1449,1658,1652,0,0,0,0,0,0,0,0,0,0
1684140028.19959092,89628301,1497,1499,1647,1638,0,0,0,0,0,0,0,0,0,0
1684140028.29955101,89728261,1536,1535,1636,1629,0,0,0,0,0,0,0,0,0,0
1684140028.39951110,89828221,1565,1561,1626,1623,0,0,0,0,0,0,0,0,0,0
1684140028.49947095,89928181,1595,1586,1605,1607,0,0,0,0,0,0,0,0,0,0
1684140028.60026407,90028974,1600,1590,1545,1554,0,0,0,0,0,0,0,0,0,0
1684140028.70022392,90128934,1600,1597,1533,1545,0,0,0,0,0,0,0,0,0,0
1684140028.80018401,90228894,1595,1600,1539,1545,0,0,0,0,0,0,0,0,0,0
1684140028.90014410,90328854,1593,1600,1549,1549,0,0,0,0,0,0,0,0,0,0
1684140029.00010395,90428814,1594,1600,1561,1557,0,0,0,0,0,0,0,0,0,0
1684140029.10006404,90528774,1598,1600,1571,1567,0,0,0,0,0,0,0,0,0,0
1684140029.20002413,90628734,1600,1598,1576,1573,0,0,0,0,0,0,0,0,0,0
1684140029.29998398,90728694,1600,1596,1577,1577,0,0,0,0,0,0,0,0,0,0
1684140029.39994407,90828654,1600,1597,1579,1581,0,0,0,0,0,0,0,0,0,0
1684140029.49990392,90928614,1600,1598,1581,1583,0,0,0,0,0,0,0,0,0,0
1684140029.59986401,91028574,1600,1599,1584,1585,0,0,0,0,0,0,0,0,0,0
1684140029.69982409,91128534,1599,1599,1585,1585,0,0,0,0,0,0,0,0,0,0
1684140029.79978395,91228494,1597,1599,1585,1585,0,0,0,0,0,0,0,0,0,0
1684140029.89974403,91328454,1597,1599,1586,1584,0,0,0,0,0,0,0,0,0,0
1684140029.99970412,91428414,1598,1599,1587,1586,0,0,0,0,0,0,0,0,0,0
1684140030.09966397,91528374,1599,1599,1588,1585,0,0,0,0,0,0,0,0,0,0
1684140030.19962406,91628334,1599,1598,1586,1585,0,0,0,0,0,0,0,0,0,0
1684140030.29958391,91728294,1599,1598,1586,1586,0,0,0,0,0,0,0,0,0,0
1684140030.39954400,91828254,1597,1597,1583,1584,0,0,0,0,0,0,0,0,0,0
1684140030.49950409,91928214,1597,1597,1583,1583,0,0,0,0,0,0,0,0,0,0
1684140030.59946394,92028174,1595,1595,1580,1580,0,0,0,0,0,0,0,0,0,0
1684140030.70025706,92128967,1594,1594,1578,1578,0,0,0,0,0,0,0,0,0,0
1684140030.80021691,92228927,1592,1592,1576,1576,0,0,0,0,0,0,0,0,0,0
1684140030.90017700,92328887,1590,1591,1574,1574,0,0,0,0,0,0,0,0,0,0
1684140031.00013709,92428847,1589,1590,1573,1572,0,0,0,0,0,0,0,0,0,0
1684140031.10009694,92528807,1589,1589,1572,1572,0,0,0,0,0,0,0,0,0,0
1684140031.20005703,92628767,1588,1588,1571,1571,0,0,0,0,0,0,0,0,0,0
1684140031.30001712,92728727,1586,1586,1569,1569,0,0,0,0,0,0,0,0,0,0
1684140031.39997697,92828687,1586,1586,1569,1569,0,0,0,0,0,0,0,0,0,0
1684140031.49993706,92928647,1585,1585,1568,1568,0,0,0,0,0,0,0,0,0,0
1684140031.59989691,93028607,1585,1585,1568,1567,0,0,0,0,0,0,0,0,0,0
1684140031.69985700,93128567,1585,1585,1568,1568,0,0,0,0,0,0,0,0,0,0
1684140031.79981709,93228527,1585,1585,1568,1569,0,0,0,0,0,0,0,0,0,0
1684140031.89977694,93328487,1585,1586,1569,1569,0,0,0,0,0,0,0,0,0,0
1684140031.99973702,93428447,1586,1586,1568,1569,0,0,0,0,0,0,0,0,0,0
1684140032.09969711,93528407,1585,1585,1568,1568,0,0,0,0,0,0,0,0,0,0
1684140032.19965696,93628367,1586,1586,1569,1569,0,0,0,0,0,0,0,0,0,0
1684140032.29961705,93728327,1587,1587,1570,1570,0,0,0,0,0,0,0,0,0,0
1684140032.39957690,93828287,1586,1586,1570,1569,0,0,0,0,0,0,0,0,0,0
1684140032.49953699,93928247,1588,1587,1571,1571,0,0,0,0,0,0,0,0,0,0
1684140032.59949708,94028207,1588,1587,1571,1571,0,0,0,0,0,0,0,0,0,0
1684140032.69945693,94128167,1587,1587,1570,1570,0,0,0,0,0,0,0,0,0,0
1684140032.80025005,94228960,1588,1588,1571,1571,0,0,0,0,0,0,0,0,0,0
1684140032.90020990,94328920,1589,1588,1572,1571,0,0,0,0,0,0,0,0,0,0
1684140033.00016999,94428880,1591,1586,1578,1566,0,0,0,0,0,0,0,0,0,0
1684140033.10013008,94528840,1592,1584,1575,1568,0,0,0,0,0,0,0,0,0,0
1684140033.20008993,94628800,1584,1576,1576,1575,0,0,0,0,0,0,0,0,0,0
1684140033.30005002,94728760,1568,1564,1583,1586,0,0,0,0,0,0,0,0,0,0
1684140033.40001011,94828720,1552,1554,1589,1593,0,0,0,0,0,0,0,0,0,0
1684140033.49996996,94928680,1543,1550,1591,1595,0,0,0,0,0,0,0,0,0,0
1684140033.59993005,95028640,1539,1548,1589,1590,0,0,0,0,0,0,0,0,0,0
1684140033.69988990,95128600,1541,1550,1587,1584,0,0,0,0,0,0,0,0,0,0
1684140033.79984999,95228560,1546,1551,1582,1577,0,0,0,0,0,0,0,0,0,0
1684140033.89981008,95328520,1552,1554,1576,1571,0,0,0,0,0,0,0,0,0,0
1684140033.99976993,95428480,1558,1557,1569,1566,0,0,0,0,0,0,0,0,0,0
1684140034.09973001,95528440,1565,1562,1560,1558,0,0,0,0,0,0,0,0,0,0
1684140034.19969010,95628400,1573,1569,1548,1548,0,0,0,0,0,0,0,0,0,0
1684140034.29964995,95728360,1581,1578,1538,1540,0,0,0,0,0,0,0,0,0,0
1684140034.39961004,95828320,1586,1585,1530,1532,0,0,0,0,0,0,0,0,0,0
1684140034.49957013,95928280,1590,1591,1527,1529,0,0,0,0,0,0,0,0,0,0
1684140034.59952998,96028240,1591,1594,1527,1528,0,0,0,0,0,0,0,0,0,0
1684140034.69949007,96128200,1592,1595,1530,1529,0,0,0,0,0,0,0,0,0,0
1684140034.79944992,96228160,1591,1594,1533,1532,0,0,0,0,0,0,0,0,0,0
1684140034.90024304,96328953,1589,1590,1536,1535,0,0,0,0,0,0,0,0,0,0
1684140035.00020313,96428913,1586,1587,1539,1538,0,0,0,0,0,0,0,0,0,0
1684140035.10016298,96528873,1585,1585,1542,1542,0,0,0,0,0,0,0,0,0,0
1684140035.20012307,96628833,1583,1583,1543,1545,0,0,0,0,0,0,0,0,0,0
1684140035.30008292,96728793,1582,1582,1545,1546,0,0,0,0,0,0,0,0,0,0
1684140035.40004301,96828753,1581,1581,1546,1548,0,0,0,0,0,0,0,0,0,0
1684140035.50000310,96928713,1581,1580,1548,1550,0,0,0,0,0,0,0,0,0,0
1684140035.59996295,97028673,1580,1579,1548,1551,0,0,0,0,0,0,0,0,0,0
1684140035.69992304,97128633,1576,1575,1553,1556,0,0,0,0,0,0,0,0,0,0
1684140035.79988313,97228593,1571,1570,1560,1563,0,0,0,0,0,0,0,0,0,0
1684140035.89984298,97328553,1565,1563,1566,1569,0,0,0,0,0,0,0,0,0,0
1684140035.99980307,97428513,1560,1559,1572,1575,0,0,0,0,0,0,0,0,0,0
1684140036.09976292,97528473,1556,1556,1576,1578,0,0,0,0,0,0,0,0,0,0
1684140036.19972301,97628433,1553,1552,1579,1580,0,0,0,0,0,0,0,0,0,0
1684140036.29968309,97728393,1551,1550,1582,1582,0,0,0,0,0,0,0,0,0,0
1684140036.39964294,97828353,1549,1549,1584,1584,0,0,0,0,0,0,0,0,0,0
1684140036.49960303,97928313,1547,1547,1585,1585,0,0,0,0,0,0,0,0,0,0
1684140036.59956312,98028273,1548,1548,1588,1587,0,0,0,0,0,0,0,0,0,0
1684140036.69952297,98128233,1548,1548,1588,1588,0,0,0,0,0,0,0,0,0,0
1684140036.79948306,98228193,1550,1550,1589,1588,0,0,0,0,0,0,0,0,0,0
1684140036.90027595,98328986,1552,1552,1589,1589,0,0,0,0,0,0,0,0,0,0
1684140037.00023603,98428946,1554,1554,1587,1588,0,0,0,0,0,0,0,0,0,0
1684140037.10019612,98528906,1556,1557,1586,1587,0,0,0,0,0,0,0,0,0,0
1684140037.20015597,98628866,1559,1560,1586,1585,0,0,0,0,0,0,0,0,0,0
1684140037.30011606,98728826,1562,1563,1584,1583,0,0,0,0,0,0,0,0,0,0
1684140037.40007591,98828786,1565,1566,1583,1582,0,0,0,0,0,0,0,0,0,0
1684140037.50003600,98928746,1568,1569,1582,1580,0,0,0,0,0,0,0,0,0,0
1684140037.59999609,99028706,1571,1571,1580,1579,0,0,0,0,0,0,0,0,0,0
1684140037.69995594,99128666,1575,1574,1580,1579,0,0,0,0,0,0,0,0,0,0
1684140037.79991603,99228626,1577,1575,1579,1578,0,0,0,0,0,0,0,0,0,0
1684140037.89987612,99328586,1578,1577,1577,1577,0,0,0,0,0,0,0,0,0,0
1684140037.99983597,99428546,1579,1579,1576,1576,0,0,0,0,0,0,0,0,0,0
1684140038.09979606,99528506,1580,1579,1575,1575,0,0,0,0,0,0,0,0,0,0
1684140038.19975591,99628466,1581,1580,1575,1576,0,0,0,0,0,0,0,0,0,0
1684140038.29971600,99728426,1581,1581,1575,1575,0,0,0,0,0,0,0,0,0,0
1684140038.39967608,99828386,1580,1582,1574,1574,0,0,0,0,0,0,0,0,0,0
1684140038.49963593,99928346,1581,1582,1575,1574,0,0,0,0,0,0,0,0,0,0
1684140038.59959602,100028306,1582,1583,1577,1576,0,0,0,0,0,0,0,0,0,0
1684140038.69955611,100128266,1583,1583,1577,1577,0,0,0,0,0,0,0,0,0,0
1684140038.79951596,100228226,1584,1583,1578,1578,0,0,0,0,0,0,0,0,0,0
1684140038.89947605,100328186,1583,1582,1577,1578,0,0,0,0,0,0,0,0,0,0
1684140039.00026894,100428979,1582,1581,1577,1578,0,0,0,0,0,0,0,0,0,0
1684140039.10022902,100528939,1581,1582,1577,1578,0,0,0,0,0,0,0,0,0,0
1684140039.20018911,100628899,1581,1581,1578,1578,0,0,0,0,0,0,0,0,0,0
1684140039.30014896,100728859,1580,1581,1578,1578,0,0,0,0,0,0,0,0,0,0
1684140039.40010905,100828819,1580,1581,1578,1578,0,0,0,0,0,0,0,0,0,0
1684140039.50006890,100928779,1581,1581,1580,1579,0,0,0,0,0,0,0,0,0,0
1684140039.60002899,101028739,1581,1581,1581,1580,0,0,0,0,0,0,0,0,0,0
1684140039.69998908,101128699,1581,1581,1580,1580,0,0,0,0,0,0,0,0,0,0
1684140039.79994893,101228659,1580,1580,1580,1580,0,0,0,0,0,0,0,0,0,0
1684140039.89990902,101328619,1581,1581,1581,1581,0,0,0,0,0,0,0,0,0,0
1684140039.99986911,101428579,1580,1580,1579,1580,0,0,0,0,0,0,0,0,0,0
1684140040.09982896,101528539,1579,1580,1579,1580,0,0,0,0,0,0,0,0,0,0
1684140040.19978905,101628499,1580,1580,1580,1580,0,0,0,0,0,0,0,0,0,0
1684140040.29974890,101728459,1579,1580,1580,1580,0,0,0,0,0,0,0,0,0,0
1684140040.39970899,101828419,1580,1580,1581,1580,0,0,0,0,0,0,0,0,0,0
1684140040.49966908,101928379,1580,1580,1581,1581,0,0,0,0,0,0,0,0,0,0
1684140040.59962893,102028339,1580,1581,1581,1581,0,0,0,0,0,0,0,0,0,0
1684140040.69958901,102128299,1580,1580,1581,1580,0,0,0,0,0,0,0,0,0,0
1684140040.79954910,102228259,1580,1580,1581,1580,0,0,0,0,0,0,0,0,0,0
1684140040.89950895,102328219,1581,1581,1581,1581,0,0,0,0,0,0,0,0,0,0
1684140040.99946904,102428179,1581,1581,1581,1581,0,0,0,0,0,0,0,0,0,0
1684140041.10026193,102528972,1582,1581,1581,1581,0,0,0,0,0,0,0,0,0,0
1684140041.20022202,102628932,1581,1581,1580,1581,0,0,0,0,0,0,0,0,0,0
1684140041.30018210,102728892,1582,1582,1581,1582,0,0,0,0,0,0,0,0,0,0
1684140041.40014195,102828852,1581,1582,1581,1581,0,0,0,0,0,0,0,0,0,0
1684140041.50010204,102928812,1582,1582,1582,1581,0,0,0,0,0,0,0,0,0,0
1684140041.60006213,103028772,1581,1582,1581,1580,0,0,0,0,0,0,0,0,0,0
1684140041.70002198,103128732,1582,1582,1581,1581,0,0,0,0,0,0,0,0,0,0
1684140041.79998207,103228692,1582,1582,1581,1581,0,0,0,0,0,0,0,0,0,0
1684140041.89994192,103328652,1582,1582,1587,1576,0,0,0,0,0,0,0,0,0,0
1684140041.99990201,103428612,1582,1581,1587,1573,0,0,0,0,0,0,0,0,0,0
1684140042.09986210,103528572,1581,1580,1579,1573,0,0,0,0,0,0,0,0,0,0
1684140042.19982195,103628532,1578,1579,1569,1571,0,0,0,0,0,0,0,0,0,0
1684140042.29978204,103728492,1576,1577,1561,1568,0,0,0,0,0,0,0,0,0,0
1684140042.39974213,103828452,1574,1577,1557,1564,0,0,0,0,0,0,0,0,0,0
1684140042.49970198,103928412,1575,1577,1557,1560,0,0,0,0,0,0,0,0,0,0
1684140042.59966207,104028372,1576,1578,1559,1558,0,0,0,0,0,0,0,0,0,0
1684140042.69962192,104128332,1576,1577,1558,1556,0,0,0,0,0,0,0,0,0,0
1684140042.79958200,104228292,1577,1577,1558,1556,0,0,0,0,0,0,0,0,0,0
1684140042.89954209,104328252,1577,1576,1558,1556,0,0,0,0,0,0,0,0,0,0
1684140042.99950194,104428212,1577,1576,1557,1556,0,0,0,0,0,0,0,0,0,0
1684140043.09946203,104528172,1576,1576,1554,1554,0,0,0,0,0,0,0,0,0,0
1684140043.20025492,104628965,1575,1575,1553,1552,0,0,0,0,0,0,0,0,0,0
1684140043.30021501,104728925,1575,1576,1550,1551,0,0,0,0,0,0,0,0,0,0
1684140043.40017509,104828885,1576,1578,1550,1550,0,0,0,0,0,0,0,0,0,0
1684140043.50013494,104928845,1576,1578,1549,1549,0,0,0,0,0,0,0,0,0,0
1684140043.60009503,105028805,1578,1580,1547,1547,0,0,0,0,0,0,0,0,0,0
1684140043.70005512,105128765,1580,1581,1546,1545,0,0,0,0,0,0,0,0,0,0
1684140043.80001497,105228725,1581,1582,1544,1542,0,0,0,0,0,0,0,0,0,0
1684140043.89997506,105328685,1584,1585,1543,1542,0,0,0,0,0,0,0,0,0,0
1684140043.99993491,105428645,1586,1587,1541,1541,0,0,0,0,0,0,0,0,0,0
1684140044.09989500,105528605,1588,1588,1540,1541,0,0,0,0,0,0,0,0,0,0
1684140044.19985509,105628565,1590,1589,1539,1541,0,0,0,0,0,0,0,0,0,0
1684140044.29981494,105728525,1591,1590,1541,1542,0,0,0,0,0,0,0,0,0,0
1684140044.39977503,105828485,1590,1589,1541,1544,0,0,0,0,0,0,0,0,0,0
1684140044.49973512,105928445,1588,1587,1543,1546,0,0,0,0,0,0,0,0,0,0
1684140044.59969497,106028405,1586,1586,1547,1550,0,0,0,0,0,0,0,0,0,0
1684140044.69965506,106128365,1582,1581,1551,1555,0,0,0,0,0,0,0,0,0,0
1684140044.79961491,106228325,1578,1576,1558,1561,0,0,0,0,0,0,0,0,0,0
1684140044.89957500,106328285,1572,1570,1566,1569,0,0,0,0,0,0,0,0,0,0
1684140044.99953508,106428245,1566,1563,1576,1578,0,0,0,0,0,0,0,0,0,0
1684140045.09949493,106528205,1557,1554,1585,1586,0,0,0,0,0,0,0,0,0,0
1684140045.19945502,106628165,1549,1547,1596,1596,0,0,0,0,0,0,0,0,0,0
1684140045.30024791,106728958,1540,1539,1603,1602,0,0,0,0,0,0,0,0,0,0
1684140045.40020800,106828918,1535,1535,1609,1608,0,0,0,0,0,0,0,0,0,0
1684140045.50016809,106928878,1532,1533,1611,1610,0,0,0,0,0,0,0,0,0,0
1684140045.60012794,107028838,1531,1534,1610,1610,0,0,0,0,0,0,0,0,0,0
1684140045.70008802,107128798,1535,1537,1606,1607,0,0,0,0,0,0,0,0,0,0
1684140045.80004811,107228758,1540,1543,1602,1602,0,0,0,0,0,0,0,0,0,0
1684140045.90000796,107328718,1547,1549,1595,1595,0,0,0,0,0,0,0,0,0,0
1684140045.99996805,107428678,1849,1848,1530,1521,0,0,0,0,0,0,0,0,0,0
1684140046.09992790,107528638,1778,1770,1495,1489,0,0,0,0,0,0,0,0,0,0
1684140046.19988799,107628598,1708,1697,1503,1505,0,0,0,0,0,0,0,0,0,0
1684140046.29984808,107728558,1638,1629,1524,1529,0,0,0,0,0,0,0,0,0,0
1684140046.39980793,107828518,1583,1578,1544,1547,0,0,0,0,0,0,0,0,0,0
1684140046.49976802,107928478,1544,1547,1562,1559,0,0,0,0,0,0,0,0,0,0
1684140046.59972811,108028438,1509,1518,1584,1578,0,0,0,0,0,0,0,0,0,0
1684140046.69968796,108128398,1480,1488,1607,1604,0,0,0,0,0,0,0,0,0,0
1684140046.79964805,108228358,1470,1479,1615,1619,0,0,0,0,0,0,0,0,0,0
1684140046.89960814,108328318,1484,1486,1607,1614,0,0,0,0,0,0,0,0,0,0
1684140046.99956799,108428278,1502,1498,1598,1605,0,0,0,0,0,0,0,0,0,0
1684140047.09952807,108528238,1517,1512,1593,1597,0,0,0,0,0,0,0,0,0,0
1684140047.19948792,108628198,1530,1526,1591,1591,0,0,0,0,0,0,0,0,0,0
1684140047.29944801,108728158,1540,1539,1590,1587,0,0,0,0,0,0,0,0,0,0
1684140047.40024090,108828951,1548,1550,1590,1586,0,0,0,0,0,0,0,0,0,0
1684140047.50020099,108928911,1557,1560,1590,1588,0,0,0,0,0,0,0,0,0,0
1684140047.60016108,109028871,1562,1566,1590,1589,0,0,0,0,0,0,0,0,0,0
1684140047.70012093,109128831,1568,1571,1592,1592,0,0,0,0,0,0,0,0,0,0
1684140047.80008101,109228791,1572,1573,1592,1593,0,0,0,0,0,0,0,0,0,0
1684140047.90004110,109328751,1575,1575,1593,1593,0,0,0,0,0,0,0,0,0,0
1684140048.00000095,109428711,1577,1576,1594,1594,0,0,0,0,0,0,0,0,0,0
1684140048.09996104,109528671,1578,1576,1594,1593,0,0,0,0,0,0,0,0,0,0
1684140048.19992113,109628631,1579,1578,1595,1593,0,0,0,0,0,0,0,0,0,0
1684140048.29988098,109728591,1579,1579,1595,1594,0,0,0,0,0,0,0,0,0,0
1684140048.39984107,109828551,1579,1579,1595,1594,0,0,0,0,0,0,0,0,0,0
1684140048.49980092,109928511,1579,1579,1595,1595,0,0,0,0,0,0,0,0,0,0
1684140048.59976101,110028471,1578,1578,1595,1595,0,0,0,0,0,0,0,0,0,0
1684140048.69972110,110128431,1577,1578,1594,1595,0,0,0,0,0,0,0,0,0,0
1684140048.79968095,110228391,1576,1578,1593,1593,0,0,0,0,0,0,0,0,0,0
1684140048.89964104,110328351,1584,1586,1584,1584,0,0,0,0,0,0,0,0,0,0
1684140048.99960113,110428311,1595,1597,1570,1571,0,0,0,0,0,0,0,0,0,0
1684140049.09956098,110528271,1604,1605,1557,1557,0,0,0,0,0,0,0,0,0,0
1684140049.19952106,110628231,1613,1610,1550,1551,0,0,0,0,0,0,0,0,0,0
1684140049.29948092,110728191,1615,1611,1550,1550,0,0,0,0,0,0,0,0,0,0
1684140049.40027404,110828984,1611,1606,1554,1553,0,0,0,0,0,0,0,0,0,0
1684140049.50023413,110928944,1604,1600,1563,1562,0,0,0,0,0,0,0,0,0,0
1684140049.60019398,111028904,1592,1591,1573,1571,0,0,0,0,0,0,0,0,0,0
1684140049.70015407,111128864,1581,1581,1583,1582,0,0,0,0,0,0,0,0,0,0
1684140049.80011392,111228824,1571,1572,1592,1591,0,0,0,0,0,0,0,0,0,0
1684140049.90007401,111328784,1564,1566,1598,1598,0,0,0,0,0,0,0,0,0,0
1684140050.00003409,111428744,1559,1562,1601,1602,0,0,0,0,0,0,0,0,0,0
1684140050.09999394,111528704,1568,1582,1593,1582,0,0,0,0,0,0,0,0,0,0
1684140050.19995403,111628664,1590,1599,1566,1562,0,0,0,0,0,0,0,0,0,0
1684140050.29991412,111728624,1593,1595,1555,1561,0,0,0,0,0,0,0,0,0,0
1684140050.39987397,111828584,1588,1585,1554,1562,0,0,0,0,0,0,0,0,0,0
1684140050.49983406,111928544,1584,1578,1557,1563,0,0,0,0,0,0,0,0,0,0
1684140050.59979391,112028504,1579,1572,1561,1561,0,0,0,0,0,0,0,0,0,0
1684140050.69975400,112128464,1577,1572,1566,1563,0,0,0,0,0,0,0,0,0,0
1684140050.79971409,112228424,1572,1570,1568,1563,0,0,0,0,0,0,0,0,0,0
1684140050.89967394,112328384,1568,1570,1568,1564,0,0,0,0,0,0,0,0,0,0
1684140050.99963403,112428344,1566,1569,1569,1566,0,0,0,0,0,0,0,0,0,0
1684140051.09959412,112528304,1564,1567,1568,1567,0,0,0,0,0,0,0,0,0,0
1684140051.19955397,112628264,1562,1565,1566,1567,0,0,0,0,0,0,0,0,0,0
1684140051.29951406,112728224,1563,1563,1565,1567,0,0,0,0,0,0,0,0,0,0
1684140051.39947391,112828184,1562,1561,1565,1566,0,0,0,0,0,0,0,0,0,0
1684140051.50026703,112928977,1561,1559,1565,1565,0,0,0,0,0,0,0,0,0,0
1684140051.60022712,113028937,1560,1559,1565,1564,0,0,0,0,0,0,0,0,0,0
1684140051.70018697,113128897,1559,1558,1565,1564,0,0,0,0,0,0,0,0,0,0
1684140051.80014706,113228857,1557,1557,1564,1563,0,0,0,0,0,0,0,0,0,0
1684140051.90010691,113328817,1556,1557,1563,1563,0,0,0,0,0,0,0,0,0,0
1684140052.00006700,113428777,1556,1557,1564,1563,0,0,0,0,0,0,0,0,0,0
1684140052.10002708,113528737,1555,1556,1562,1562,0,0,0,0,0,0,0,0,0,0
1684140052.19998693,113628697,1555,1555,1562,1562,0,0,0,0,0,0,0,0,0,0
1684140052.29994702,113728657,1554,1554,1561,1562,0,0,0,0,0,0,0,0,0,0
1684140052.39990711,113828617,1554,1555,1562,1562,0,0,0,0,0,0,0,0,0,0
1684140052.49986696,113928577,1554,1555,1563,1563,0,0,0,0,0,0,0,0,0,0
1684140052.59982705,114028537,1554,1555,1563,1562,0,0,0,0,0,0,0,0,0,0
1684140052.69978690,114128497,1554,1556,1563,1563,0,0,0,0,0,0,0,0,0,0
1684140052.79974699,114228457,1556,1557,1564,1565,0,0,0,0,0,0,0,0,0,0
1684140052.89970708,114328417,1557,1555,1561,1565,0,0,0,0,0,0,0,0,0,0
1684140052.99966693,114428377,1560,1556,1563,1566,0,0,0,0,0,0,0,0,0,0
1684140053.09962702,114528337,1561,1556,1563,1566,0,0,0,0,0,0,0,0,0,0
1684140053.19958711,114628297,1561,1556,1563,1563,0,0,0,0,0,0,0,0,0,0
1684140053.29954696,114728257,1560,1557,1564,1562,0,0,0,0,0,0,0,0,0,0
1684140053.39950705,114828217,1558,1559,1563,1561,0,0,0,0,0,0,0,0,0,0
1684140053.49946713,114928177,1558,1558,1560,1562,0,0,0,0,0,0,0,0,0,0
1684140053.60026002,115028970,1555,1555,1556,1558,0,0,0,0,0,0,0,0,0,0
1684140053.70022011,115128930,1551,1550,1551,1553,0,0,0,0,0,0,0,0,0,0
1684140053.80017996,115228890,1545,1544,1545,1546,0,0,0,0,0,0,0,0,0,0
1684140053.90014005,115328850,1538,1539,1539,1540,0,0,0,0,0,0,0,0,0,0
1684140054.00009990,115428810,1531,1531,1531,1532,0,0,0,0,0,0,0,0,0,0
1684140054.10005999,115528770,1524,1524,1524,1524,0,0,0,0,0,0,0,0,0,0
1684140054.20002007,115628730,1521,1521,1521,1521,0,0,0,0,0,0,0,0,0,0
1684140054.29997993,115728690,1519,1520,1520,1520,0,0,0,0,0,0,0,0,0,0
1684140054.39994001,115828650,1520,1520,1520,1520,0,0,0,0,0,0,0,0,0,0
1684140054.49990010,115928610,1523,1524,1523,1524,0,0,0,0,0,0,0,0,0,0
1684140054.59985995,116028570,1526,1526,1526,1527,0,0,0,0,0,0,0,0,0,0
1684140054.69982004,116128530,1530,1531,1530,1531,0,0,0,0,0,0,0,0,0,0
1684140054.79978013,116228490,1535,1535,1535,1535,0,0,0,0,0,0,0,0,0,0
1684140054.89973998,116328450,1538,1539,1539,1539,0,0,0,0,0,0,0,0,0,0
1684140054.99970007,116428410,1541,1542,1542,1541,0,0,0,0,0,0,0,0,0,0
1684140055.09965992,116528370,1543,1543,1543,1543,0,0,0,0,0,0,0,0,0,0
1684140055.19962001,116628330,1544,1545,1544,1544,0,0,0,0,0,0,0,0,0,0
1684140055.29958010,116728290,1545,1546,1545,1545,0,0,0,0,0,0,0,0,0,0
1684140055.39953995,116828250,1547,1547,1547,1546,0,0,0,0,0,0,0,0,0,0
1684140055.49950004,116928210,1546,1546,1546,1546,0,0,0,0,0,0,0,0,0,0
1684140055.59946012,117028170,1546,1546,1546,1545,0,0,0,0,0,0,0,0,0,0
1684140055.70025301,117128963,1546,1546,1546,1546,0,0,0,0,0,0,0,0,0,0
1684140055.80021310,117228923,1546,1546,1546,1546,0,0,0,0,0,0,0,0,0,0
1684140055.90017295,117328883,1545,1545,1545,1545,0,0,0,0,0,0,0,0,0,0
1684140056.00013304,117428843,1544,1544,1545,1544,0,0,0,0,0,0,0,0,0,0
1684140056.10009313,117528803,1544,1544,1544,1544,0,0,0,0,0,0,0,0,0,0
1684140056.20005298,117628763,1545,1545,1545,1545,0,0,0,0,0,0,0,0,0,0
1684140056.30001307,117728723,1543,1544,1544,1544,0,0,0,0,0,0,0,0,0,0
1684140056.39997292,117828683,1544,1544,1544,1544,0,0,0,0,0,0,0,0,0,0
1684140056.49993300,117928643,1545,1544,1545,1545,0,0,0,0,0,0,0,0,0,0
1684140056.59989309,118028603,1545,1545,1545,1545,0,0,0,0,0,0,0,0,0,0
1684140056.69985294,118128563,1545,1545,1545,1545,0,0,0,0,0,0,0,0,0,0
1684140056.79981303,118228523,1545,1545,1545,1545,0,0,0,0,0,0,0,0,0,0
1684140056.89977312,118328483,1544,1544,1544,1545,0,0,0,0,0,0,0,0,0,0
1684140056.99973297,118428443,1544,1544,1544,1544,0,0,0,0,0,0,0,0,0,0
1684140057.09969306,118528403,1545,1545,1545,1545,0,0,0,0,0,0,0,0,0,0
1684140057.19965291,118628363,1544,1544,1545,1544,0,0,0,0,0,0,0,0,0,0
1684140057.29961300,118728323,1544,1544,1544,1544,0,0,0,0,0,0,0,0,0,0
1684140057.39957309,118828283,1544,1544,1544,1544,0,0,0,0,0,0,0,0,0,0
1684140057.49953294,118928243,1544,1545,1545,1545,0,0,0,0,0,0,0,0,0,0
1684140057.59949303,119028203,1545,1545,1545,1545,0,0,0,0,0,0,0,0,0,0
1684140057.69945312,119128163,1544,1544,1544,1544,0,0,0,0,0,0,0,0,0,0
1684140057.80024600,119228956,1545,1544,1545,1545,0,0,0,0,0,0,0,0,0,0
1684140057.90020609,119328916,1545,1545,1545,1545,0,0,0,0,0,0,0,0,0,0
1684140058.00016594,119428876,1544,1544,1544,1544,0,0,0,0,0,0,0,0,0,0
1684140058.10012603,119528836,1544,1544,1545,1545,0,0,0,0,0,0,0,0,0,0
1684140058.20008612,119628796,1544,1544,1544,1544,0,0,0,0,0,0,0,0,0,0
1684140058.30004597,119728756,1545,1544,1544,1545,0,0,0,0,0,0,0,0,0,0
1684140058.40000606,119828716,1543,1543,1543,1543,0,0,0,0,0,0,0,0,0,0
1684140058.49996591,119928676,1545,1544,1544,1545,0,0,0,0,0,0,0,0,0,0
1684140058.59992599,120028636,1544,1545,1545,1544,0,0,0,0,0,0,0,0,0,0
1684140058.69988608,120128596,1544,1544,1544,1544,0,0,0,0,0,0,0,0,0,0
1684140058.79984593,120228556,1544,1544,1544,1544,0,0,0,0,0,0,0,0,0,0
1684140058.89980602,120328516,1545,1545,1545,1545,0,0,0,0,0,0,0,0,0,0
1684140058.99976611,120428476,1544,1544,1544,1544,0,0,0,0,0,0,0,0,0,0
1684140059.09972596,120528436,1544,1544,1544,1545,0,0,0,0,0,0,0,0,0,0
1684140059.19968605,120628396,1544,1544,1544,1544,0,0,0,0,0,0,0,0,0,0
1684140059.29964590,120728356,1544,1543,1543,1544,0,0,0,0,0,0,0,0,0,0
1684140059.39960599,120828316,1544,1543,1544,1543,0,0,0,0,0,0,0,0,0,0
1684140059.49956608,120928276,1545,1544,1544,1545,0,0,0,0,0,0,0,0,0,0
1684140059.59952593,121028236,1544,1544,1544,1544,0,0,0,0,0,0,0,0,0,0
1684140059.69948602,121128196,1543,1543,1543,1544,0,0,0,0,0,0,0,0,0,0
1684140059.79944611,121228156,1544,1544,1544,1544,0,0,0,0,0,0,0,0,0,0
1684140059.90023899,121328949,1544,1545,1544,1545,0,0,0,0,0,0,0,0,0,0
1684140060.00019908,121428909,1544,1545,1545,1544,0,0,0,0,0,0,0,0,0,0
1684140060.10015893,121528869,1544,1544,1544,1545,0,0,0,0,0,0,0,0,0,0
1684140060.20011902,121628829,1544,1544,1544,1544,0,0,0,0,0,0,0,0,0,0
1684140060.30007911,121728789,1545,1544,1544,1545,0,0,0,0,0,0,0,0,0,0
1684140060.40003896,121828749,1544,1544,1544,1544,0,0,0,0,0,0,0,0,0,0
1684140060.49999905,121928709,1543,1543,1543,1543,0,0,0,0,0,0,0,0,0,0
1684140060.59995914,122028669,1543,1544,1544,1543,0,0,0,0,0,0,0,0,0,0
1684140060.69991899,122128629,1543,1543,1543,1544,0,0,0,0,0,0,0,0,0,0
1684140060.79987907,122228589,1544,1544,1545,1544,0,0,0,0,0,0,0,0,0,0
1684140060.89983892,122328549,1544,1543,1543,1544,0,0,0,0,0,0,0,0,0,0
1684140060.99979901,122428509,1545,1545,1544,1545,0,0,0,0,0,0,0,0,0,0
1684140061.09975910,122528469,1545,1545,1545,1545,0,0,0,0,0,0,0,0,0,0
1684140061.19971895,122628429,1544,1545,1545,1545,0,0,0,0,0,0,0,0,0,0
1684140061.29967904,122728389,1544,1544,1544,1544,0,0,0,0,0,0,0,0,0,0
1684140061.39963913,122828349,1545,1545,1545,1544,0,0,0,0,0,0,0,0,0,0
1684140061.49959898,122928309,1546,1545,1545,1546,0,0,0,0,0,0,0,0,0,0
1684140061.59955907,123028269,1545,1545,1545,1545,0,0,0,0,0,0,0,0,0,0
1684140061.69951892,123128229,1546,1545,1545,1545,0,0,0,0,0,0,0,0,0,0
1684140061.79947901,123228189,1545,1544,1545,1544,0,0,0,0,0,0,0,0,0,0
1684140061.90027213,123328982,1544,1545,1544,1545,0,0,0,0,0,0,0,0,0,0
1684140062.00023198,123428942,1544,1545,1545,1545,0,0,0,0,0,0,0,0,0,0
1684140062.10019207,123528902,1545,1545,1544,1545,0,0,0,0,0,0,0,0,0,0
1684140062.20015192,123628862,1544,1544,1544,1544,0,0,0,0,0,0,0,0,0,0
1684140062.30011201,123728822,1545,1544,1544,1544,0,0,0,0,0,0,0,0,0,0
1684140062.40007210,123828782,1544,1544,1545,1544,0,0,0,0,0,0,0,0,0,0
1684140062.50003195,123928742,1545,1544,1545,1545,0,0,0,0,0,0,0,0,0,0
1684140062.59999204,124028702,1544,1545,1545,1544,0,0,0,0,0,0,0,0,0,0
1684140062.69995213,124128662,1544,1544,1544,1545,0,0,0,0,0,0,0,0,0,0
1684140062.79991198,124228622,1545,1545,1545,1544,0,0,0,0,0,0,0,0,0,0
1684140062.89987206,124328582,1544,1544,1544,1544,0,0,0,0,0,0,0,0,0,0
1684140062.99983191,124428542,1544,1544,1544,1544,0,0,0,0,0,0,0,0,0,0
1684140063.09979200,124528502,1544,1544,1543,1544,0,0,0,0,0,0,0,0,0,0
1684140063.19975209,124628462,1544,1544,1544,1544,0,0,0,0,0,0,0,0,0,0
1684140063.29971194,124728422,1544,1544,1544,1544,0,0,0,0,0,0,0,0,0,0
1684140063.39967203,124828382,1544,1544,1544,1544,0,0,0,0,0,0,0,0,0,0
1684140063.49963212,124928342,1544,1543,1544,1544,0,0,0,0,0,0,0,0,0,0
1684140063.59959197,125028302,1544,1544,1544,1544,0,0,0,0,0,0,0,0,0,0
1684140063.69955206,125128262,1544,1544,1544,1545,0,0,0,0,0,0,0,0,0,0
1684140063.79951191,125228222,1544,1545,1545,1544,0,0,0,0,0,0,0,0,0,0
1684140063.89947200,125328182,1546,1546,1545,1546,0,0,0,0,0,0,0,0,0,0
1684140064.00026512,125428975,1398,1398,1401,1398,0,0,0,0,0,0,0,0,0,0
1684140064.10022497,125528935,1267,1266,1272,1267,0,0,0,0,0,0,0,0,0,0
1684140064.20018506,125628895,1219,1219,1226,1221,0,0,0,0,0,0,0,0,0,0
1684140064.30014491,125728855,1199,1198,1207,1203,0,0,0,0,0,0,0,0,0,0
1684140064.40010500,125828815,1160,1160,1171,1166,0,0,0,0,0,0,0,0,0,0
1684140064.50006509,125928775,1150,1150,1161,1157,0,0,0,0,0,0,0,0,0,0
1684140064.60002494,126028735,1150,1150,1164,1158,0,0,0,0,0,0,0,0,0,0
1684140064.69998503,126128695,1191,1150,1159,1205,0,0,0,0,0,0,0,0,0,0
1684140064.79994512,126228655,1181,1150,1165,1192,0,0,0,0,0,0,0,0,0,0
1684140064.89990497,126328615,1177,1150,1168,1187,0,0,0,0,0,0,0,0,0,0
1684140064.99986506,126428575,1177,1150,1169,1188,0,0,0,0,0,0,0,0,0,0
1684140065.09982491,126528535,1180,1150,1170,1192,0,0,0,0,0,0,0,0,0,0
1684140065.19978499,126628495,1182,1150,1172,1195,0,0,0,0,0,0,0,0,0,0
1684140065.29974508,126728455,1185,1150,1173,1199,0,0,0,0,0,0,0,0,0,0
1684140065.39970493,126828415,1188,1150,1175,1202,0,0,0,0,0,0,0,0,0,0
1684140065.49966502,126928375,1170,1150,1175,1186,0,0,0,0,0,0,0,0,0,0
1684140065.59962511,127028335,1171,1150,1176,1189,0,0,0,0,0,0,0,0,0,0
1684140065.69958496,127128295,1172,1150,1177,1192,0,0,0,0,0,0,0,0,0,0
1684140065.79954505,127228255,1173,1150,1178,1193,0,0,0,0,0,0,0,0,0,0
1684140065.89950490,127328215,1173,1150,1179,1195,0,0,0,0,0,0,0,0,0,0
1684140065.99946499,127428175,1000,1000,1000,1000,0,0,0,0,0,0,0,0,0,0
1684140066.10025811,127528968,1000,1000,1000,1000,0,0,0,0,0,0,0,0,0,0
1684140066.20021796,127628928,1000,1000,1000,1000,0,0,0,0,0,0,0,0,0,0
1684140066.30017805,127728888,1000,1000,1000,1000,0,0,0,0,0,0,0,0,0,0
1684140066.40013790,127828848,1000,1000,1000,1000,0,0,0,0,0,0,0,0,0,0
1684140066.50009799,127928808,1000,1000,1000,1000,0,0,0,0,0,0,0,0,0,0
1684140066.60005808,128028768,1000,1000,1000,1000,0,0,0,0,0,0,0,0,0,0
1684140066.70001793,128128728,1000,1000,1000,1000,0,0,0,0,0,0,0,0,0,0
1684140066.79997802,128228688,1000,1000,1000,1000,0,0,0,0,0,0,0,0,0,0
1684140066.89993811,128328648,1000,1000,1000,1000,0,0,0,0,0,0,0,0,0,0
1684140066.99989796,128428608,1000,1000,1000,1000,0,0,0,0,0,0,0,0,0,0
1684140067.09985805,128528568,1000,1000,1000,1000,0,0,0,0,0,0,0,0,0,0
1684140067.19981813,128628528,1000,1000,1000,1000,0,0,0,0,0,0,0,0,0,0
1684140067.29977798,128728488,1000,1000,1000,1000,0,0,0,0,0,0,0,0,0,0
1684140067.39973807,128828448,1000,1000,1000,1000,0,0,0,0,0,0,0,0,0,0
1684140067.49969792,128928408,1000,1000,1000,1000,0,0,0,0,0,0,0,0,0,0
1684140067.59965801,129028368,1000,1000,1000,1000,0,0,0,0,0,0,0,0,0,0
1684140067.69961810,129128328,1000,1000,1000,1000,0,0,0,0,0,0,0,0,0,0
1684140067.79957795,129228288,1000,1000,1000,1000,0,0,0,0,0,0,0,0,0,0
1684140067.89953804,129328248,1000,1000,1000,1000,0,0,0,0,0,0,0,0,0,0
1684140067.99949813,129428208,1000,1000,1000,1000,0,0,0,0,0,0,0,0,0,0
1684140068.09945798,129528168,1000,1000,1000,1000,0,0,0,0,0,0,0,0,0,0
1684140068.20025110,129628961,1000,1000,1000,1000,0,0,0,0,0,0,0,0,0,0
1684140068.30021095,129728921,1000,1000,1000,1000,0,0,0,0,0,0,0,0,0,0
1684140068.40017104,129828881,1000,1000,1000,1000,0,0,0,0,0,0,0,0,0,0
1684140068.50013113,129928841,1000,1000,1000,1000,0,0,0,0,0,0,0,0,0,0
1684140068.60009098,130028801,1000,1000,1000,1000,0,0,0,0,0,0,0,0,0,0
1684140068.70005107,130128761,1000,1000,1000,1000,0,0,0,0,0,0,0,0,0,0
1684140068.80001092,130228721,1000,1000,1000,1000,0,0,0,0,0,0,0,0,0,0
1684140068.89997101,130328681,1000,1000,1000,1000,0,0,0,0,0,0,0,0,0,0
1684140068.99993110,130428641,1000,1000,1000,1000,0,0,0,0,0,0,0,0,0,0
1684140069.09989095,130528601,1000,1000,1000,1000,0,0,0,0,0,0,0,0,0,0
1684140069.19985104,130628561,1000,1000,1000,1000,0,0,0,0,0,0,0,0,0,0
1684140069.29981112,130728521,1000,1000,1000,1000,0,0,0,0,0,0,0,0,0,0
1684140069.39977098,130828481,1000,1000,1000,1000,0,0,0,0,0,0,0,0,0,0
1684140069.49973106,130928441,1000,1000,1000,1000,0,0,0,0,0,0,0,0,0,0
1684140069.59969091,131028401,1000,1000,1000,1000,0,0,0,0,0,0,0,0,0,0
1684140069.69965100,131128361,1000,1000,1000,1000,0,0,0,0,0,0,0,0,0,0
1684140069.79961109,131228321,1000,1000,1000,1000,0,0,0,0,0,0,0,0,0,0
1684140069.89957094,131328281,1000,1000,1000,1000,0,0,0,0,0,0,0,0,0,0
1684140069.99953103,131428241,1000,1000,1000,1000,0,0,0,0,0,0,0,0,0,0
1684140070.09949112,131528201,1000,1000,1000,1000,0,0,0,0,0,0,0,0,0,0
1684140070.19945097,131628161,1000,1000,1000,1000,0,0,0,0,0,0,0,0,0,0
1684140070.30024409,131728954,1000,1000,1000,1000,0,0,0,0,0,0,0,0,0,0
1684140070.40020394,131828914,1000,1000,1000,1000,0,0,0,0,0,0,0,0,0,0
1684140070.50016403,131928874,1000,1000,1000,1000,0,0,0,0,0,0,0,0,0,0
1684140070.60012412,132028834,1000,1000,1000,1000,0,0,0,0,0,0,0,0,0,0
1684140070.70008397,132128794,1000,1000,1000,1000,0,0,0,0,0,0,0,0,0,0
1684140070.80004406,132228754,1000,1000,1000,1000,0,0,0,0,0,0,0,0,0,0
1684140070.90000391,132328714,1000,1000,1000,1000,0,0,0,0,0,0,0,0,0,0
1684140070.99996400,132428674,1000,1000,1000,1000,0,0,0,0,0,0,0,0,0,0
1684140071.09992409,132528634,1000,1000,1000,1000,0,0,0,0,0,0,0,0,0,0
1684140071.19988394,132628594,1000,1000,1000,1000,0,0,0,0,0,0,0,0,0,0
1684140071.29984403,132728554,1000,1000,1000,1000,0,0,0,0,0,0,0,0,0,0
1684140071.39980412,132828514,1000,1000,1000,1000,0,0,0,0,0,0,0,0,0,0
1684140071.49976397,132928474,1000,1000,1000,1000,0,0,0,0,0,0,0,0,0,0
1684140071.59972405,133028434,1000,1000,1000,1000,0,0,0,0,0,0,0,0,0,0
1684140071.69968390,133128394,1000,1000,1000,1000,0,0,0,0,0,0,0,0,0,0
1684140071.79964399,133228354,1000,1000,1000,1000,0,0,0,0,0,0,0,0,0,0
1684140071.89960408,133328314,1000,1000,1000,1000,0,0,0,0,0,0,0,0,0,0
1684140071.99956393,133428274,1000,1000,1000,1000,0,0,0,0,0,0,0,0,0,0
1684140072.09952402,133528234,1000,1000,1000,1000,0,0,0,0,0,0,0,0,0,0
1684140072.19948411,133628194,1000,1000,1000,1000,0,0,0,0,0,0,0,0,0,0
1684140072.29944396,133728154,1000,1000,1000,1000,0,0,0,0,0,0,0,0,0,0
1684140072.40023708,133828947,1000,1000,1000,1000,0,0,0,0,0,0,0,0,0,0
1684140072.50019693,133928907,1000,1000,1000,1000,0,0,0,0,0,0,0,0,0,0
1684140072.60015702,134028867,1000,1000,1000,1000,0,0,0,0,0,0,0,0,0,0
1684140072.70011711,134128827,1000,1000,1000,1000,0,0,0,0,0,0,0,0,0,0
1684140072.80007696,134228787,1000,1000,1000,1000,0,0,0,0,0,0,0,0,0,0
1684140072.90003705,134328747,1000,1000,1000,1000,0,0,0,0,0,0,0,0,0,0
1684140072.99999690,134428707,1000,1000,1000,1000,0,0,0,0,0,0,0,0,0,0
1684140073.09995699,134528667,1000,1000,1000,1000,0,0,0,0,0,0,0,0,0,0
1684140073.19991708,134628627,1000,1000,1000,1000,0,0,0,0,0,0,0,0,0,0
1684140073.29987693,134728587,1000,1000,1000,1000,0,0,0,0,0,0,0,0,0,0
1684140073.39983702,134828547,1000,1000,1000,1000,0,0,0,0,0,0,0,0,0,0
1684140073.49979711,134928507,1000,1000,1000,1000,0,0,0,0,0,0,0,0,0,0
1684140073.59975696,135028467,1000,1000,1000,1000,0,0,0,0,0,0,0,0,0,0
1684140073.69971704,135128427,1000,1000,1000,1000,0,0,0,0,0,0,0,0,0,0
1684140073.79967713,135228387,1000,1000,1000,1000,0,0,0,0,0,0,0,0,0,0
1684140073.89963698,135328347,1000,1000,1000,1000,0,0,0,0,0,0,0,0,0,0
1684140073.99959707,135428307,1000,1000,1000,1000,0,0,0,0,0,0,0,0,0,0
1684140074.09955692,135528267,1000,1000,1000,1000,0,0,0,0,0,0,0,0,0,0
1684140074.19951701,135628227,1000,1000,1000,1000,0,0,0,0,0,0,0,0,0,0
1684140074.29947710,135728187,1000,1000,1000,1000,0,0,0,0,0,0,0,0,0,0
1684140074.40026999,135828980,1000,1000,1000,1000,0,0,0,0,0,0,0,0,0,0
1684140074.50023007,135928940,1000,1000,1000,1000,0,0,0,0,0,0,0,0,0,0
1684140074.60018992,136028900,1000,1000,1000,1000,0,0,0,0,0,0,0,0,0,0
1684140074.70015001,136128860,1000,1000,1000,1000,0,0,0,0,0,0,0,0,0,0
1684140074.80011010,136228820,1000,1000,1000,1000,0,0,0,0,0,0,0,0,0,0
1684140074.90006995,136328780,1000,1000,1000,1000,0,0,0,0,0,0,0,0,0,0
1684140075.00003004,136428740,1000,1000,1000,1000,0,0,0,0,0,0,0,0,0,0
1684140075.09999013,136528700,1000,1000,1000,1000,0,0,0,0,0,0,0,0,0,0
1684140075.19994998,136628660,1000,1000,1000,1000,0,0,0,0,0,0,0,0,0,0
1684140075.29991007,136728620,1000,1000,1000,1000,0,0,0,0,0,0,0,0,0,0
1684140075.39986992,136828580,1000,1000,1000,1000,0,0,0,0,0,0,0,0,0,0
1684140075.49983001,136928540,1000,1000,1000,1000,0,0,0,0,0,0,0,0,0,0
1684140075.59979010,137028500,1000,1000,1000,1000,0,0,0,0,0,0,0,0,0,0
1684140075.69974995,137128460,1000,1000,1000,1000,0,0,0,0,0,0,0,0,0,0
1684140075.79971004,137228420,1000,1000,1000,1000,0,0,0,0,0,0,0,0,0,0
1684140075.89967012,137328380,1000,1000,1000,1000,0,0,0,0,0,0,0,0,0,0
1684140075.99962997,137428340,1000,1000,1000,1000,0,0,0,0,0,0,0,0,0,0
1684140076.09959006,137528300,1000,1000,1000,1000,0,0,0,0,0,0,0,0,0,0
1684140076.19954991,137628260,1000,1000,1000,1000,0,0,0,0,0,0,0,0,0,0
1684140076.29951000,137728220,1000,1000,1000,1000,0,0,0,0,0,0,0,0,0,0
1684140076.39947009,137828180,1000,1000,1000,1000,0,0,0,0,0,0,0,0,0,0
1684140076.50026298,137928973,1000,1000,1000,1000,0,0,0,0,0,0,0,0,0,0
1684140076.60022306,138028933,1000,1000,1000,1000,0,0,0,0,0,0,0,0,0,0
1684140076.70018291,138128893,1000,1000,1000,1000,0,0,0,0,0,0,0,0,0,0
1684140076.80014300,138228853,1000,1000,1000,1000,0,0,0,0,0,0,0,0,0,0
1684140076.90010309,138328813,1000,1000,1000,1000,0,0,0,0,0,0,0,0,0,0
1684140077.00006294,138428773,1000,1000,1000,1000,0,0,0,0,0,0,0,0,0,0
1684140077.10002303,138528733,1000,1000,1000,1000,0,0,0,0,0,0,0,0,0,0
1684140077.19998312,138628693,1000,1000,1000,1000,0,0,0,0,0,0,0,0,0,0
1684140077.29994297,138728653,1000,1000,1000,1000,0,0,0,0,0,0,0,0,0,0
1684140077.39990306,138828613,1000,1000,1000,1000,0,0,0,0,0,0,0,0,0,0
1684140077.49986291,138928573,1000,1000,1000,1000,0,0,0,0,0,0,0,0,0,0
1684140077.59982300,139028533,1000,1000,1000,1000,0,0,0,0,0,0,0,0,0,0
1684140077.69978309,139128493,1000,1000,1000,1000,0,0,0,0,0,0,0,0,0,0
