timestamp,TimeUS,C1,C2,C3,C4,C5,C6,C7,C8,C9,C10,C11,C12,C13,C14
1683131328.30004001,44328928,1000,1000,1000,1000,0,0,0,0,0,0,0,0,0,0
1683131328.40000010,44428888,1000,1000,1000,1000,0,0,0,0,0,0,0,0,0,0
1683131328.49995995,44528848,1000,1000,1000,1000,0,0,0,0,0,0,0,0,0,0
1683131328.59992003,44628808,1000,1000,1000,1000,0,0,0,0,0,0,0,0,0,0
1683131328.69988012,44728768,1000,1000,1000,1000,0,0,0,0,0,0,0,0,0,0
1683131328.79983997,44828728,1000,1000,1000,1000,0,0,0,0,0,0,0,0,0,0
1683131328.89980006,44928688,1000,1000,1000,1000,0,0,0,0,0,0,0,0,0,0
1683131328.99975991,45028648,1000,1000,1000,1000,0,0,0,0,0,0,0,0,0,0
1683131329.09972000,45128608,1000,1000,1000,1000,0,0,0,0,0,0,0,0,0,0
1683131329.19968009,45228568,1000,1000,1000,1000,0,0,0,0,0,0,0,0,0,0
1683131329.29963994,45328528,1000,1000,1000,1000,0,0,0,0,0,0,0,0,0,0
1683131329.39960003,45428488,1000,1000,1000,1000,0,0,0,0,0,0,0,0,0,0
1683131329.49956012,45528448,1000,1000,1000,1000,0,0,0,0,0,0,0,0,0,0
1683131329.59951997,45628408,1000,1000,1000,1000,0,0,0,0,0,0,0,0,0,0
1683131329.69948006,45728368,1000,1000,1000,1000,0,0,0,0,0,0,0,0,0,0
1683131329.79943991,45828328,1000,1000,1000,1000,0,0,0,0,0,0,0,0,0,0
1683131329.89940000,45928288,1000,1000,1000,1000,0,0,0,0,0,0,0,0,0,0
1683131329.99936008,46028248,1000,1000,1000,1000,0,0,0,0,0,0,0,0,0,0
1683131330.09931993,46128208,1000,1000,1000,1000,0,0,0,0,0,0,0,0,0,0
1683131330.19928002,46228168,1000,1000,1000,1000,0,0,0,0,0,0,0,0,0,0
1683131330.30007291,46328961,1012,1012,1012,1012,0,0,0,0,0,0,0,0,0,0
1683131330.40003300,46428921,1042,1042,1042,1042,0,0,0,0,0,0,0,0,0,0
1683131330.49999309,46528881,1072,1072,1072,1072,0,0,0,0,0,0,0,0,0,0
1683131330.59995294,46628841,1102,1102,1102,1102,0,0,0,0,0,0,0,0,0,0
1683131330.69991302,46728801,1132,1132,1132,1132,0,0,0,0,0,0,0,0,0,0
1683131330.79987311,46828761,1268,1263,1263,1268,0,0,0,0,0,0,0,0,0,0
1683131330.89983296,46928721,1481,1477,1477,1481,0,0,0,0,0,0,0,0,0,0
1683131330.99979305,47028681,1644,1641,1641,1644,0,0,0,0,0,0,0,0,0,0
1683131331.09975290,47128641,1782,1779,1779,1782,0,0,0,0,0,0,0,0,0,0
1683131331.19971299,47228601,1903,1901,1900,1904,0,0,0,0,0,0,0,0,0,0
1683131331.29967308,47328561,1880,1878,1879,1880,0,0,0,0,0,0,0,0,0,0
1683131331.39963293,47428521,1754,1753,1754,1754,0,0,0,0,0,0,0,0,0,0
1683131331.49959302,47528481,1653,1654,1654,1653,0,0,0,0,0,0,0,0,0,0
1683131331.59955311,47628441,1620,1621,1621,1620,0,0,0,0,0,0,0,0,0,0
1683131331.69951296,47728401,1623,1624,1624,1623,0,0,0,0,0,0,0,0,0,0
1683131331.79947305,47828361,1631,1632,1632,1631,0,0,0,0,0,0,0,0,0,0
1683131331.89943290,47928321,1629,1629,1629,1629,0,0,0,0,0,0,0,0,0,0
1683131331.99939299,48028281,1623,1622,1622,1622,0,0,0,0,0,0,0,0,0,0
1683131332.09935308,48128241,1615,1615,1615,1615,0,0,0,0,0,0,0,0,0,0
1683131332.19931293,48228201,1611,1611,1610,1611,0,0,0,0,0,0,0,0,0,0
1683131332.29927301,48328161,1610,1610,1609,1610,0,0,0,0,0,0,0,0,0,0
1683131332.40006590,48428954,1611,1611,1611,1611,0,0,0,0,0,0,0,0,0,0
1683131332.50002599,48528914,1613,1613,1613,1613,0,0,0,0,0,0,0,0,0,0
1683131332.59998608,48628874,1615,1614,1615,1614,0,0,0,0,0,0,0,0,0,0
1683131332.69994593,48728834,1616,1617,1617,1616,0,0,0,0,0,0,0,0,0,0
1683131332.79990602,48828794,1619,1619,1620,1619,0,0,0,0,0,0,0,0,0,0
1683131332.89986610,48928754,1602,1602,1602,1602,0,0,0,0,0,0,0,0,0,0
1683131332.99982595,49028714,1582,1581,1582,1581,0,0,0,0,0,0,0,0,0,0
1683131333.09978604,49128674,1569,1569,1569,1570,0,0,0,0,0,0,0,0,0,0
1683131333.19974613,49228634,1559,1559,1559,1560,0,0,0,0,0,0,0,0,0,0
1683131333.29970598,49328594,1550,1550,1549,1551,0,0,0,0,0,0,0,0,0,0
1683131333.39966607,49428554,1541,1541,1540,1542,0,0,0,0,0,0,0,0,0,0
1683131333.49962592,49528514,1532,1532,1531,1533,0,0,0,0,0,0,0,0,0,0
1683131333.59958601,49628474,1521,1521,1521,1522,0,0,0,0,0,0,0,0,0,0
1683131333.69954610,49728434,1513,1513,1513,1513,0,0,0,0,0,0,0,0,0,0
1683131333.79950595,49828394,1508,1508,1508,1509,0,0,0,0,0,0,0,0,0,0
1683131333.89946604,49928354,1507,1507,1506,1507,0,0,0,0,0,0,0,0,0,0
1683131333.99942613,50028314,1505,1505,1505,1505,0,0,0,0,0,0,0,0,0,0
1683131334.09938598,50128274,1503,1503,1502,1503,0,0,0,0,0,0,0,0,0,0
1683131334.19934607,50228234,1501,1501,1500,1501,0,0,0,0,0,0,0,0,0,0
1683131334.29930592,50328194,1501,1501,1500,1501,0,0,0,0,0,0,0,0,0,0
1683131334.39926600,50428154,1501,1501,1501,1501,0,0,0,0,0,0,0,0,0,0
1683131334.50005913,50528947,1500,1501,1500,1501,0,0,0,0,0,0,0,0,0,0
1683131334.60001898,50628907,1517,1517,1519,1516,0,0,0,0,0,0,0,0,0,0
1683131334.69997907,50728867,1540,1540,1547,1533,0,0,0,0,0,0,0,0,0,0
1683131334.79993892,50828827,1550,1550,1553,1546,0,0,0,0,0,0,0,0,0,0
1683131334.89989901,50928787,1557,1557,1556,1558,0,0,0,0,0,0,0,0,0,0
1683131334.99985909,51028747,1562,1562,1558,1566,0,0,0,0,0,0,0,0,0,0
1683131335.09981894,51128707,1565,1565,1560,1570,0,0,0,0,0,0,0,0,0,0
1683131335.19977903,51228667,1567,1567,1563,1571,0,0,0,0,0,0,0,0,0,0
1683131335.29973912,51328627,1569,1569,1567,1571,0,0,0,0,0,0,0,0,0,0
1683131335.39969897,51428587,1571,1571,1572,1569,0,0,0,0,0,0,0,0,0,0
1683131335.49965906,51528547,1574,1573,1576,1570,0,0,0,0,0,0,0,0,0,0
1683131335.59961891,51628507,1574,1574,1577,1571,0,0,0,0,0,0,0,0,0,0
1683131335.69957900,51728467,1574,1574,1576,1572,0,0,0,0,0,0,0,0,0,0
1683131335.79953909,51828427,1574,1574,1574,1573,0,0,0,0,0,0,0,0,0,0
1683131335.89949894,51928387,1572,1571,1571,1574,0,0,0,0,0,0,0,0,0,0
1683131335.99945903,52028347,1565,1565,1575,1579,0,0,0,0,0,0,0,0,0,0
1683131336.09941912,52128307,1563,1563,1573,1577,0,0,0,0,0,0,0,0,0,0
1683131336.19937897,52228267,1566,1566,1573,1575,0,0,0,0,0,0,0,0,0,0
1683131336.29933906,52328227,1568,1569,1572,1572,0,0,0,0,0,0,0,0,0,0
1683131336.39929891,52428187,1569,1570,1569,1569,0,0,0,0,0,0,0,0,0,0
1683131336.50009203,52528980,1571,1571,1568,1567,0,0,0,0,0,0,0,0,0,0
1683131336.60005212,52628940,1572,1572,1567,1566,0,0,0,0,0,0,0,0,0,0
1683131336.70001197,52728900,1573,1573,1566,1566,0,0,0,0,0,0,0,0,0,0
1683131336.79997206,52828860,1574,1574,1567,1567,0,0,0,0,0,0,0,0,0,0
1683131336.89993191,52928820,1574,1574,1567,1568,0,0,0,0,0,0,0,0,0,0
1683131336.99989200,53028780,1574,1574,1568,1569,0,0,0,0,0,0,0,0,0,0
1683131337.09985209,53128740,1574,1573,1570,1570,0,0,0,0,0,0,0,0,0,0
1683131337.19981194,53228700,1574,1574,1572,1572,0,0,0,0,0,0,0,0,0,0
1683131337.29977202,53328660,1574,1573,1574,1573,0,0,0,0,0,0,0,0,0,0
1683131337.39973211,53428620,1573,1574,1576,1574,0,0,0,0,0,0,0,0,0,0
1683131337.49969196,53528580,1573,1574,1576,1575,0,0,0,0,0,0,0,0,0,0
1683131337.59965205,53628540,1574,1575,1577,1576,0,0,0,0,0,0,0,0,0,0
1683131337.69961190,53728500,1574,1574,1577,1576,0,0,0,0,0,0,0,0,0,0
1683131337.79957199,53828460,1574,1574,1577,1576,0,0,0,0,0,0,0,0,0,0
1683131337.89953208,53928420,1574,1574,1576,1576,0,0,0,0,0,0,0,0,0,0
1683131337.99949193,54028380,1575,1575,1577,1577,0,0,0,0,0,0,0,0,0,0
1683131338.09945202,54128340,1576,1575,1576,1577,0,0,0,0,0,0,0,0,0,0
1683131338.19941211,54228300,1577,1576,1577,1577,0,0,0,0,0,0,0,0,0,0
1683131338.29937196,54328260,1576,1576,1576,1576,0,0,0,0,0,0,0,0,0,0
1683131338.39933205,54428220,1577,1578,1577,1577,0,0,0,0,0,0,0,0,0,0
1683131338.49929190,54528180,1577,1576,1575,1575,0,0,0,0,0,0,0,0,0,0
1683131338.60008502,54628973,1579,1579,1578,1577,0,0,0,0,0,0,0,0,0,0
1683131338.70004511,54728933,1578,1578,1577,1577,0,0,0,0,0,0,0,0,0,0
1683131338.80000496,54828893,1578,1578,1578,1577,0,0,0,0,0,0,0,0,0,0
1683131338.89996505,54928853,1578,1579,1578,1578,0,0,0,0,0,0,0,0,0,0
1683131338.99992490,55028813,1579,1579,1578,1578,0,0,0,0,0,0,0,0,0,0
1683131339.09988499,55128773,1578,1578,1578,1578,0,0,0,0,0,0,0,0,0,0
1683131339.19984508,55228733,1579,1579,1579,1579,0,0,0,0,0,0,0,0,0,0
1683131339.29980493,55328693,1579,1579,1579,1579,0,0,0,0,0,0,0,0,0,0
1683131339.39976501,55428653,1578,1579,1579,1579,0,0,0,0,0,0,0,0,0,0
1683131339.49972510,55528613,1580,1579,1580,1580,0,0,0,0,0,0,0,0,0,0
1683131339.59968495,55628573,1578,1579,1579,1579,0,0,0,0,0,0,0,0,0,0
1683131339.69964504,55728533,1579,1579,1580,1580,0,0,0,0,0,0,0,0,0,0
1683131339.79960513,55828493,1579,1579,1579,1580,0,0,0,0,0,0,0,0,0,0
1683131339.89956498,55928453,1580,1580,1580,1580,0,0,0,0,0,0,0,0,0,0
1683131339.99952507,56028413,1580,1580,1580,1580,0,0,0,0,0,0,0,0,0,0
1683131340.09948492,56128373,1580,1580,1580,1579,0,0,0,0,0,0,0,0,0,0
1683131340.19944501,56228333,1580,1580,1580,1580,0,0,0,0,0,0,0,0,0,0
1683131340.29940510,56328293,1580,1580,1580,1581,0,0,0,0,0,0,0,0,0,0
1683131340.39936495,56428253,1580,1580,1580,1580,0,0,0,0,0,0,0,0,0,0
1683131340.49932504,56528213,1580,1580,1580,1579,0,0,0,0,0,0,0,0,0,0
1683131340.59928513,56628173,1580,1580,1580,1580,0,0,0,0,0,0,0,0,0,0
1683131340.70007801,56728966,1580,1581,1580,1580,0,0,0,0,0,0,0,0,0,0
1683131340.80003810,56828926,1581,1581,1581,1581,0,0,0,0,0,0,0,0,0,0
1683131340.89999795,56928886,1581,1580,1581,1580,0,0,0,0,0,0,0,0,0,0
1683131340.99995804,57028846,1581,1581,1581,1581,0,0,0,0,0,0,0,0,0,0
1683131341.09991813,57128806,1581,1580,1580,1581,0,0,0,0,0,0,0,0,0,0
1683131341.19987798,57228766,1580,1580,1580,1580,0,0,0,0,0,0,0,0,0,0
1683131341.29983807,57328726,1581,1581,1581,1581,0,0,0,0,0,0,0,0,0,0
1683131341.39979792,57428686,1580,1580,1580,1580,0,0,0,0,0,0,0,0,0,0
1683131341.49975801,57528646,1580,1580,1580,1580,0,0,0,0,0,0,0,0,0,0
1683131341.59971809,57628606,1580,1580,1581,1580,0,0,0,0,0,0,0,0,0,0
1683131341.69967794,57728566,1580,1580,1581,1580,0,0,0,0,0,0,0,0,0,0
1683131341.79963803,57828526,1581,1581,1581,1581,0,0,0,0,0,0,0,0,0,0
1683131341.89959812,57928486,1580,1580,1580,1580,0,0,0,0,0,0,0,0,0,0
1683131341.99955797,58028446,1580,1580,1580,1580,0,0,0,0,0,0,0,0,0,0
1683131342.09951806,58128406,1581,1581,1581,1581,0,0,0,0,0,0,0,0,0,0
1683131342.19947791,58228366,1581,1581,1586,1576,0,0,0,0,0,0,0,0,0,0
1683131342.29943800,58328326,1581,1583,1587,1574,0,0,0,0,0,0,0,0,0,0
1683131342.39939809,58428286,1578,1582,1579,1573,0,0,0,0,0,0,0,0,0,0
1683131342.49935794,58528246,1577,1580,1570,1572,0,0,0,0,0,0,0,0,0,0
1683131342.59931803,58628206,1576,1579,1563,1569,0,0,0,0,0,0,0,0,0,0
1683131342.69927812,58728166,1578,1579,1558,1566,0,0,0,0,0,0,0,0,0,0
1683131342.80007100,58828959,1580,1578,1557,1561,0,0,0,0,0,0,0,0,0,0
1683131342.90003109,58928919,1580,1579,1557,1557,0,0,0,0,0,0,0,0,0,0
1683131342.99999094,59028879,1580,1578,1557,1555,0,0,0,0,0,0,0,0,0,0
1683131343.09995103,59128839,1579,1577,1556,1554,0,0,0,0,0,0,0,0,0,0
1683131343.19991112,59228799,1578,1578,1556,1554,0,0,0,0,0,0,0,0,0,0
1683131343.29987097,59328759,1576,1577,1556,1554,0,0,0,0,0,0,0,0,0,0
1683131343.39983106,59428719,1576,1578,1556,1555,0,0,0,0,0,0,0,0,0,0
1683131343.49979091,59528679,1575,1576,1553,1554,0,0,0,0,0,0,0,0,0,0
1683131343.59975100,59628639,1575,1577,1552,1552,0,0,0,0,0,0,0,0,0,0
1683131343.69971108,59728599,1576,1577,1551,1551,0,0,0,0,0,0,0,0,0,0
1683131343.79967093,59828559,1577,1578,1548,1548,0,0,0,0,0,0,0,0,0,0
1683131343.89963102,59928519,1580,1580,1546,1546,0,0,0,0,0,0,0,0,0,0
1683131343.99959111,60028479,1583,1583,1544,1544,0,0,0,0,0,0,0,0,0,0
1683131344.09955096,60128439,1586,1587,1542,1542,0,0,0,0,0,0,0,0,0,0
1683131344.19951105,60228399,1589,1590,1540,1539,0,0,0,0,0,0,0,0,0,0
1683131344.29947090,60328359,1591,1592,1537,1536,0,0,0,0,0,0,0,0,0,0
1683131344.39943099,60428319,1593,1594,1535,1535,0,0,0,0,0,0,0,0,0,0
1683131344.49939108,60528279,1594,1593,1535,1535,0,0,0,0,0,0,0,0,0,0
1683131344.59935093,60628239,1594,1594,1535,1537,0,0,0,0,0,0,0,0,0,0
1683131344.69931102,60728199,1593,1592,1538,1541,0,0,0,0,0,0,0,0,0,0
1683131344.79927111,60828159,1589,1588,1541,1544,0,0,0,0,0,0,0,0,0,0
1683131344.90006399,60928952,1585,1582,1548,1551,0,0,0,0,0,0,0,0,0,0
1683131345.00002408,61028912,1578,1575,1558,1561,0,0,0,0,0,0,0,0,0,0
1683131345.09998393,61128872,1569,1565,1569,1571,0,0,0,0,0,0,0,0,0,0
1683131345.19994402,61228832,1558,1555,1581,1583,0,0,0,0,0,0,0,0,0,0
1683131345.29990411,61328792,1548,1545,1594,1594,0,0,0,0,0,0,0,0,0,0
1683131345.39986396,61428752,1538,1537,1604,1603,0,0,0,0,0,0,0,0,0,0
1683131345.49982405,61528712,1532,1532,1610,1610,0,0,0,0,0,0,0,0,0,0
1683131345.59978390,61628672,1530,1531,1615,1613,0,0,0,0,0,0,0,0,0,0
1683131345.69974399,61728632,1531,1533,1614,1613,0,0,0,0,0,0,0,0,0,0
1683131345.79970407,61828592,1535,1537,1611,1611,0,0,0,0,0,0,0,0,0,0
1683131345.89966393,61928552,1542,1543,1606,1606,0,0,0,0,0,0,0,0,0,0
1683131345.99962401,62028512,1549,1550,1598,1598,0,0,0,0,0,0,0,0,0,0
1683131346.09958410,62128472,1558,1559,1591,1591,0,0,0,0,0,0,0,0,0,0
1683131346.19954395,62228432,1568,1568,1585,1584,0,0,0,0,0,0,0,0,0,0
1683131346.29950404,62328392,1574,1574,1577,1577,0,0,0,0,0,0,0,0,0,0
1683131346.39946413,62428352,1580,1579,1572,1572,0,0,0,0,0,0,0,0,0,0
1683131346.49942398,62528312,1584,1583,1568,1568,0,0,0,0,0,0,0,0,0,0
1683131346.59938407,62628272,1587,1586,1567,1567,0,0,0,0,0,0,0,0,0,0
1683131346.69934392,62728232,1587,1585,1566,1566,0,0,0,0,0,0,0,0,0,0
1683131346.79930401,62828192,1586,1585,1567,1568,0,0,0,0,0,0,0,0,0,0
1683131346.90009713,62928985,1584,1584,1569,1569,0,0,0,0,0,0,0,0,0,0
1683131347.00005698,63028945,1581,1582,1572,1572,0,0,0,0,0,0,0,0,0,0
1683131347.10001707,63128905,1578,1578,1574,1574,0,0,0,0,0,0,0,0,0,0
1683131347.19997692,63228865,1575,1575,1577,1576,0,0,0,0,0,0,0,0,0,0
1683131347.29993701,63328825,1573,1574,1580,1579,0,0,0,0,0,0,0,0,0,0
1683131347.39989710,63428785,1572,1572,1581,1581,0,0,0,0,0,0,0,0,0,0
1683131347.49985695,63528745,1571,1572,1581,1582,0,0,0,0,0,0,0,0,0,0
1683131347.59981704,63628705,1571,1572,1582,1582,0,0,0,0,0,0,0,0,0,0
1683131347.69977713,63728665,1572,1572,1582,1582,0,0,0,0,0,0,0,0,0,0
1683131347.79973698,63828625,1573,1573,1581,1582,0,0,0,0,0,0,0,0,0,0
1683131347.89969707,63928585,1575,1576,1582,1582,0,0,0,0,0,0,0,0,0,0
1683131347.99965692,64028545,1577,1577,1581,1581,0,0,0,0,0,0,0,0,0,0
1683131348.09961700,64128505,1578,1578,1580,1580,0,0,0,0,0,0,0,0,0,0
1683131348.19957709,64228465,1579,1579,1579,1579,0,0,0,0,0,0,0,0,0,0
1683131348.29953694,64328425,1581,1581,1578,1578,0,0,0,0,0,0,0,0,0,0
1683131348.39949703,64428385,1581,1581,1577,1578,0,0,0,0,0,0,0,0,0,0
1683131348.49945712,64528345,1582,1582,1577,1578,0,0,0,0,0,0,0,0,0,0
1683131348.59941697,64628305,1582,1581,1577,1577,0,0,0,0,0,0,0,0,0,0
1683131348.69937706,64728265,1582,1581,1577,1578,0,0,0,0,0,0,0,0,0,0
1683131348.79933691,64828225,1581,1581,1578,1578,0,0,0,0,0,0,0,0,0,0
1683131348.89929700,64928185,1581,1581,1579,1579,0,0,0,0,0,0,0,0,0,0
1683131349.00009012,65028978,1581,1580,1579,1579,0,0,0,0,0,0,0,0,0,0
1683131349.10004997,65128938,1579,1579,1579,1579,0,0,0,0,0,0,0,0,0,0
1683131349.20001006,65228898,1579,1580,1580,1580,0,0,0,0,0,0,0,0,0,0
1683131349.29996991,65328858,1579,1580,1581,1581,0,0,0,0,0,0,0,0,0,0
1683131349.39993000,65428818,1578,1579,1581,1580,0,0,0,0,0,0,0,0,0,0
1683131349.49989009,65528778,1579,1579,1581,1580,0,0,0,0,0,0,0,0,0,0
1683131349.59984994,65628738,1580,1580,1582,1581,0,0,0,0,0,0,0,0,0,0
1683131349.69981003,65728698,1581,1581,1582,1582,0,0,0,0,0,0,0,0,0,0
1683131349.79977012,65828658,1580,1580,1581,1581,0,0,0,0,0,0,0,0,0,0
1683131349.89972997,65928618,1580,1580,1580,1580,0,0,0,0,0,0,0,0,0,0
1683131349.99969006,66028578,1582,1581,1581,1582,0,0,0,0,0,0,0,0,0,0
1683131350.09964991,66128538,1581,1581,1581,1581,0,0,0,0,0,0,0,0,0,0
1683131350.19960999,66228498,1581,1582,1584,1577,0,0,0,0,0,0,0,0,0,0
1683131350.29957008,66328458,1580,1583,1586,1571,0,0,0,0,0,0,0,0,0,0
1683131350.39952993,66428418,1580,1583,1579,1571,0,0,0,0,0,0,0,0,0,0
1683131350.49949002,66528378,1580,1583,1570,1571,0,0,0,0,0,0,0,0,0,0
1683131350.59945011,66628338,1579,1581,1562,1568,0,0,0,0,0,0,0,0,0,0
1683131350.69940996,66728298,1579,1580,1556,1563,0,0,0,0,0,0,0,0,0,0
1683131350.79937005,66828258,1580,1580,1553,1558,0,0,0,0,0,0,0,0,0,0
1683131350.89932990,66928218,1581,1579,1552,1555,0,0,0,0,0,0,0,0,0,0
1683131350.99928999,67028178,1581,1580,1553,1553,0,0,0,0,0,0,0,0,0,0
1683131351.10008311,67128971,1581,1580,1555,1552,0,0,0,0,0,0,0,0,0,0
1683131351.20004296,67228931,1579,1579,1555,1552,0,0,0,0,0,0,0,0,0,0
1683131351.30000305,67328891,1579,1580,1556,1554,0,0,0,0,0,0,0,0,0,0
1683131351.39996290,67428851,1577,1578,1554,1553,0,0,0,0,0,0,0,0,0,0
1683131351.49992299,67528811,1575,1577,1552,1553,0,0,0,0,0,0,0,0,0,0
1683131351.59988308,67628771,1576,1578,1552,1552,0,0,0,0,0,0,0,0,0,0
1683131351.69984293,67728731,1577,1578,1551,1551,0,0,0,0,0,0,0,0,0,0
1683131351.79980302,67828691,1579,1580,1550,1550,0,0,0,0,0,0,0,0,0,0
1683131351.89976311,67928651,1581,1581,1548,1547,0,0,0,0,0,0,0,0,0,0
1683131351.99972296,68028611,1584,1584,1546,1546,0,0,0,0,0,0,0,0,0,0
1683131352.09968305,68128571,1585,1585,1543,1543,0,0,0,0,0,0,0,0,0,0
1683131352.19964290,68228531,1587,1588,1541,1542,0,0,0,0,0,0,0,0,0,0
1683131352.29960299,68328491,1589,1590,1540,1540,0,0,0,0,0,0,0,0,0,0
1683131352.39956307,68428451,1591,1592,1539,1540,0,0,0,0,0,0,0,0,0,0
1683131352.49952292,68528411,1593,1593,1539,1541,0,0,0,0,0,0,0,0,0,0
1683131352.59948301,68628371,1593,1592,1541,1543,0,0,0,0,0,0,0,0,0,0
1683131352.69944310,68728331,1590,1588,1545,1548,0,0,0,0,0,0,0,0,0,0
1683131352.79940295,68828291,1585,1582,1552,1555,0,0,0,0,0,0,0,0,0,0
1683131352.89936304,68928251,1578,1574,1561,1564,0,0,0,0,0,0,0,0,0,0
1683131352.99932313,69028211,1569,1565,1572,1574,0,0,0,0,0,0,0,0,0,0
1683131353.09928298,69128171,1558,1555,1583,1584,0,0,0,0,0,0,0,0,0,0
1683131353.20007610,69228964,1549,1547,1593,1594,0,0,0,0,0,0,0,0,0,0
1683131353.30003595,69328924,1541,1541,1602,1601,0,0,0,0,0,0,0,0,0,0
1683131353.39999604,69428884,1537,1537,1608,1607,0,0,0,0,0,0,0,0,0,0
1683131353.49995613,69528844,1535,1537,1611,1610,0,0,0,0,0,0,0,0,0,0
1683131353.59991598,69628804,1537,1539,1610,1609,0,0,0,0,0,0,0,0,0,0
1683131353.69987607,69728764,1541,1543,1607,1607,0,0,0,0,0,0,0,0,0,0
1683131353.79983592,69828724,1547,1548,1602,1601,0,0,0,0,0,0,0,0,0,0
1683131353.89979601,69928684,1555,1556,1597,1596,0,0,0,0,0,0,0,0,0,0
1683131353.99975610,70028644,1562,1563,1590,1589,0,0,0,0,0,0,0,0,0,0
1683131354.09971595,70128604,1570,1570,1584,1584,0,0,0,0,0,0,0,0,0,0
1683131354.19967604,70228564,1577,1576,1578,1578,0,0,0,0,0,0,0,0,0,0
1683131354.29963613,70328524,1581,1580,1573,1573,0,0,0,0,0,0,0,0,0,0
1683131354.39959598,70428484,1584,1583,1570,1571,0,0,0,0,0,0,0,0,0,0
1683131354.49955606,70528444,1585,1584,1568,1568,0,0,0,0,0,0,0,0,0,0
1683131354.59951591,70628404,1585,1584,1568,1568,0,0,0,0,0,0,0,0,0,0
1683131354.69947600,70728364,1586,1585,1570,1571,0,0,0,0,0,0,0,0,0,0
1683131354.79943609,70828324,1584,1583,1572,1572,0,0,0,0,0,0,0,0,0,0
1683131354.89939594,70928284,1581,1581,1574,1574,0,0,0,0,0,0,0,0,0,0
1683131354.99935603,71028244,1578,1579,1577,1577,0,0,0,0,0,0,0,0,0,0
1683131355.09931612,71128204,1576,1576,1578,1579,0,0,0,0,0,0,0,0,0,0
1683131355.19927597,71228164,1574,1575,1581,1581,0,0,0,0,0,0,0,0,0,0
1683131355.30006909,71328957,1574,1575,1583,1583,0,0,0,0,0,0,0,0,0,0
1683131355.40002894,71428917,1573,1573,1583,1583,0,0,0,0,0,0,0,0,0,0
1683131355.49998903,71528877,1573,1573,1583,1583,0,0,0,0,0,0,0,0,0,0
1683131355.59994912,71628837,1573,1573,1582,1583,0,0,0,0,0,0,0,0,0,0
1683131355.69990897,71728797,1574,1575,1582,1582,0,0,0,0,0,0,0,0,0,0
1683131355.79986906,71828757,1575,1575,1581,1581,0,0,0,0,0,0,0,0,0,0
1683131355.89982891,71928717,1576,1577,1580,1580,0,0,0,0,0,0,0,0,0,0
1683131355.99978900,72028677,1577,1577,1579,1578,0,0,0,0,0,0,0,0,0,0
1683131356.09974909,72128637,1579,1579,1579,1578,0,0,0,0,0,0,0,0,0,0
1683131356.19970894,72228597,1580,1580,1578,1578,0,0,0,0,0,0,0,0,0,0
1683131356.29966903,72328557,1580,1581,1577,1578,0,0,0,0,0,0,0,0,0,0
1683131356.39962912,72428517,1580,1581,1577,1577,0,0,0,0,0,0,0,0,0,0
1683131356.49958897,72528477,1582,1582,1579,1579,0,0,0,0,0,0,0,0,0,0
1683131356.59954906,72628437,1582,1582,1579,1579,0,0,0,0,0,0,0,0,0,0
1683131356.69950891,72728397,1581,1580,1578,1578,0,0,0,0,0,0,0,0,0,0
1683131356.79946899,72828357,1581,1580,1579,1579,0,0,0,0,0,0,0,0,0,0
1683131356.89942908,72928317,1581,1580,1580,1580,0,0,0,0,0,0,0,0,0,0
1683131356.99938893,73028277,1580,1580,1581,1580,0,0,0,0,0,0,0,0,0,0
1683131357.09934902,73128237,1580,1581,1581,1581,0,0,0,0,0,0,0,0,0,0
1683131357.19930911,73228197,1580,1581,1582,1582,0,0,0,0,0,0,0,0,0,0
1683131357.29926896,73328157,1581,1580,1582,1582,0,0,0,0,0,0,0,0,0,0
1683131357.40006208,73428950,1580,1580,1582,1582,0,0,0,0,0,0,0,0,0,0
1683131357.50002193,73528910,1580,1580,1581,1582,0,0,0,0,0,0,0,0,0,0
1683131357.59998202,73628870,1581,1581,1582,1582,0,0,0,0,0,0,0,0,0,0
1683131357.69994211,73728830,1580,1579,1581,1580,0,0,0,0,0,0,0,0,0,0
1683131357.79990196,73828790,1580,1581,1581,1581,0,0,0,0,0,0,0,0,0,0
1683131357.89986205,73928750,1581,1581,1581,1581,0,0,0,0,0,0,0,0,0,0
1683131357.99982190,74028710,1581,1581,1581,1581,0,0,0,0,0,0,0,0,0,0
1683131358.09978199,74128670,1581,1581,1580,1580,0,0,0,0,0,0,0,0,0,0
1683131358.19974208,74228630,1582,1582,1581,1581,0,0,0,0,0,0,0,0,0,0
1683131358.29970193,74328590,1582,1582,1581,1582,0,0,0,0,0,0,0,0,0,0
1683131358.39966202,74428550,1581,1582,1586,1576,0,0,0,0,0,0,0,0,0,0
1683131358.49962211,74528510,1580,1583,1586,1572,0,0,0,0,0,0,0,0,0,0
1683131358.59958196,74628470,1580,1582,1579,1573,0,0,0,0,0,0,0,0,0,0
1683131358.69954205,74728430,1579,1581,1570,1572,0,0,0,0,0,0,0,0,0,0
1683131358.79950190,74828390,1577,1579,1562,1568,0,0,0,0,0,0,0,0,0,0
1683131358.89946198,74928350,1577,1579,1557,1564,0,0,0,0,0,0,0,0,0,0
1683131358.99942207,75028310,1578,1578,1555,1559,0,0,0,0,0,0,0,0,0,0
1683131359.09938192,75128270,1578,1577,1554,1555,0,0,0,0,0,0,0,0,0,0
1683131359.19934201,75228230,1579,1578,1555,1554,0,0,0,0,0,0,0,0,0,0
1683131359.29930210,75328190,1578,1577,1555,1553,0,0,0,0,0,0,0,0,0,0
1683131359.40009499,75428983,1578,1578,1556,1554,0,0,0,0,0,0,0,0,0,0
1683131359.50005507,75528943,1577,1577,1556,1554,0,0,0,0,0,0,0,0,0,0
1683131359.60001493,75628903,1575,1576,1554,1554,0,0,0,0,0,0,0,0,0,0
1683131359.69997501,75728863,1574,1576,1553,1553,0,0,0,0,0,0,0,0,0,0
1683131359.79993510,75828823,1575,1577,1552,1552,0,0,0,0,0,0,0,0,0,0
1683131359.89989495,75928783,1576,1577,1551,1551,0,0,0,0,0,0,0,0,0,0
1683131359.99985504,76028743,1578,1579,1550,1550,0,0,0,0,0,0,0,0,0,0
1683131360.09981513,76128703,1580,1581,1547,1548,0,0,0,0,0,0,0,0,0,0
1683131360.19977498,76228663,1582,1584,1545,1544,0,0,0,0,0,0,0,0,0,0
1683131360.29973507,76328623,1585,1586,1542,1542,0,0,0,0,0,0,0,0,0,0
1683131360.39969492,76428583,1587,1588,1539,1539,0,0,0,0,0,0,0,0,0,0
1683131360.49965501,76528543,1590,1590,1538,1538,0,0,0,0,0,0,0,0,0,0
1683131360.59961510,76628503,1592,1592,1537,1538,0,0,0,0,0,0,0,0,0,0
1683131360.69957495,76728463,1594,1594,1537,1539,0,0,0,0,0,0,0,0,0,0
1683131360.79953504,76828423,1594,1594,1538,1540,0,0,0,0,0,0,0,0,0,0
1683131360.89949512,76928383,1593,1593,1540,1543,0,0,0,0,0,0,0,0,0,0
1683131360.99945498,77028343,1590,1588,1545,1547,0,0,0,0,0,0,0,0,0,0
1683131361.09941506,77128303,1585,1581,1553,1555,0,0,0,0,0,0,0,0,0,0
1683131361.19937491,77228263,1577,1573,1563,1564,0,0,0,0,0,0,0,0,0,0
1683131361.29933500,77328223,1568,1564,1574,1576,0,0,0,0,0,0,0,0,0,0
1683131361.39929509,77428183,1557,1554,1585,1587,0,0,0,0,0,0,0,0,0,0
1683131361.50008798,77528976,1547,1545,1597,1597,0,0,0,0,0,0,0,0,0,0
1683131361.60004807,77628936,1539,1538,1605,1605,0,0,0,0,0,0,0,0,0,0
1683131361.70000792,77728896,1533,1534,1611,1610,0,0,0,0,0,0,0,0,0,0
1683131361.79996800,77828856,1532,1535,1614,1612,0,0,0,0,0,0,0,0,0,0
1683131361.89992809,77928816,1535,1537,1613,1612,0,0,0,0,0,0,0,0,0,0
1683131361.99988794,78028776,1539,1540,1608,1608,0,0,0,0,0,0,0,0,0,0
1683131362.09984803,78128736,1546,1547,1603,1603,0,0,0,0,0,0,0,0,0,0
1683131362.19980812,78228696,1554,1555,1596,1596,0,0,0,0,0,0,0,0,0,0
1683131362.29976797,78328656,1562,1562,1589,1589,0,0,0,0,0,0,0,0,0,0
1683131362.39972806,78428616,1569,1569,1582,1582,0,0,0,0,0,0,0,0,0,0
1683131362.49968791,78528576,1576,1576,1577,1576,0,0,0,0,0,0,0,0,0,0
1683131362.59964800,78628536,1582,1581,1573,1572,0,0,0,0,0,0,0,0,0,0
1683131362.69960809,78728496,1586,1584,1569,1570,0,0,0,0,0,0,0,0,0,0
1683131362.79956794,78828456,1587,1585,1567,1567,0,0,0,0,0,0,0,0,0,0
1683131362.89952803,78928416,1588,1586,1568,1568,0,0,0,0,0,0,0,0,0,0
1683131362.99948812,79028376,1587,1586,1570,1570,0,0,0,0,0,0,0,0,0,0
1683131363.09944797,79128336,1584,1583,1571,1571,0,0,0,0,0,0,0,0,0,0
1683131363.19940805,79228296,1581,1580,1573,1573,0,0,0,0,0,0,0,0,0,0
1683131363.29936790,79328256,1578,1578,1577,1576,0,0,0,0,0,0,0,0,0,0
1683131363.39932799,79428216,1575,1577,1579,1579,0,0,0,0,0,0,0,0,0,0
1683131363.49928808,79528176,1573,1574,1580,1580,0,0,0,0,0,0,0,0,0,0
1683131363.60008097,79628969,1573,1574,1583,1583,0,0,0,0,0,0,0,0,0,0
1683131363.70004106,79728929,1571,1572,1582,1582,0,0,0,0,0,0,0,0,0,0
1683131363.80000091,79828889,1572,1573,1583,1583,0,0,0,0,0,0,0,0,0,0
1683131363.89996099,79928849,1573,1573,1582,1582,0,0,0,0,0,0,0,0,0,0
1683131363.99992108,80028809,1573,1573,1581,1581,0,0,0,0,0,0,0,0,0,0
1683131364.09988093,80128769,1575,1575,1580,1580,0,0,0,0,0,0,0,0,0,0
1683131364.19984102,80228729,1578,1578,1581,1581,0,0,0,0,0,0,0,0,0,0
1683131364.29980111,80328689,1577,1578,1578,1578,0,0,0,0,0,0,0,0,0,0
1683131364.39976096,80428649,1580,1580,1579,1579,0,0,0,0,0,0,0,0,0,0
1683131364.49972105,80528609,1581,1581,1579,1578,0,0,0,0,0,0,0,0,0,0
1683131364.59968090,80628569,1582,1582,1578,1578,0,0,0,0,0,0,0,0,0,0
1683131364.69964099,80728529,1581,1581,1577,1577,0,0,0,0,0,0,0,0,0,0
1683131364.79960108,80828489,1582,1582,1578,1578,0,0,0,0,0,0,0,0,0,0
1683131364.89956093,80928449,1581,1581,1577,1578,0,0,0,0,0,0,0,0,0,0
1683131364.99952102,81028409,1580,1580,1577,1577,0,0,0,0,0,0,0,0,0,0
1683131365.09948111,81128369,1580,1580,1579,1579,0,0,0,0,0,0,0,0,0,0
1683131365.19944096,81228329,1580,1580,1580,1579,0,0,0,0,0,0,0,0,0,0
1683131365.29940104,81328289,1580,1581,1581,1580,0,0,0,0,0,0,0,0,0,0
1683131365.39936090,81428249,1580,1581,1582,1581,0,0,0,0,0,0,0,0,0,0
1683131365.49932098,81528209,1579,1579,1580,1580,0,0,0,0,0,0,0,0,0,0
1683131365.59928107,81628169,1580,1579,1581,1581,0,0,0,0,0,0,0,0,0,0
1683131365.70007396,81728962,1579,1579,1580,1581,0,0,0,0,0,0,0,0,0,0
1683131365.80003405,81828922,1580,1580,1581,1581,0,0,0,0,0,0,0,0,0,0
1683131365.89999390,81928882,1580,1580,1581,1581,0,0,0,0,0,0,0,0,0,0
1683131365.99995399,82028842,1580,1580,1580,1581,0,0,0,0,0,0,0,0,0,0
1683131366.09991407,82128802,1581,1580,1581,1581,0,0,0,0,0,0,0,0,0,0
1683131366.19987392,82228762,1580,1580,1580,1580,0,0,0,0,0,0,0,0,0,0
1683131366.29983401,82328722,1580,1581,1581,1580,0,0,0,0,0,0,0,0,0,0
1683131366.39979410,82428682,1582,1583,1588,1573,0,0,0,0,0,0,0,0,0,0
1683131366.49975395,82528642,1581,1581,1585,1573,0,0,0,0,0,0,0,0,0,0
1683131366.59971404,82628602,1578,1578,1578,1575,0,0,0,0,0,0,0,0,0,0
1683131366.69967413,82728562,1575,1574,1571,1575,0,0,0,0,0,0,0,0,0,0
1683131366.79963398,82828522,1571,1571,1566,1573,0,0,0,0,0,0,0,0,0,0
1683131366.89959407,82928482,1569,1568,1564,1571,0,0,0,0,0,0,0,0,0,0
1683131366.99955392,83028442,1567,1567,1565,1568,0,0,0,0,0,0,0,0,0,0
1683131367.09951401,83128402,1567,1566,1567,1566,0,0,0,0,0,0,0,0,0,0
1683131367.19947410,83228362,1566,1566,1567,1565,0,0,0,0,0,0,0,0,0,0
1683131367.29943395,83328322,1565,1564,1566,1564,0,0,0,0,0,0,0,0,0,0
1683131367.39939404,83428282,1564,1564,1566,1564,0,0,0,0,0,0,0,0,0,0
1683131367.49935412,83528242,1563,1563,1564,1564,0,0,0,0,0,0,0,0,0,0
1683131367.59931397,83628202,1562,1562,1563,1563,0,0,0,0,0,0,0,0,0,0
1683131367.69927406,83728162,1563,1563,1564,1564,0,0,0,0,0,0,0,0,0,0
1683131367.80006695,83828955,1562,1562,1563,1562,0,0,0,0,0,0,0,0,0,0
1683131367.90002704,83928915,1562,1561,1562,1562,0,0,0,0,0,0,0,0,0,0
1683131367.99998713,84028875,1562,1562,1562,1561,0,0,0,0,0,0,0,0,0,0
1683131368.09994698,84128835,1561,1562,1562,1561,0,0,0,0,0,0,0,0,0,0
1683131368.19990706,84228795,1561,1561,1561,1560,0,0,0,0,0,0,0,0,0,0
1683131368.29986691,84328755,1559,1559,1559,1559,0,0,0,0,0,0,0,0,0,0
1683131368.39982700,84428715,1558,1558,1559,1558,0,0,0,0,0,0,0,0,0,0
1683131368.49978709,84528675,1558,1557,1557,1557,0,0,0,0,0,0,0,0,0,0
1683131368.59974694,84628635,1559,1558,1559,1558,0,0,0,0,0,0,0,0,0,0
1683131368.69970703,84728595,1558,1558,1558,1557,0,0,0,0,0,0,0,0,0,0
1683131368.79966712,84828555,1558,1558,1558,1556,0,0,0,0,0,0,0,0,0,0
1683131368.89962697,84928515,1557,1557,1558,1556,0,0,0,0,0,0,0,0,0,0
1683131368.99958706,85028475,1557,1557,1559,1556,0,0,0,0,0,0,0,0,0,0
1683131369.09954691,85128435,1557,1557,1559,1556,0,0,0,0,0,0,0,0,0,0
1683131369.19950700,85228395,1558,1558,1558,1559,0,0,0,0,0,0,0,0,0,0
1683131369.29946709,85328355,1559,1559,1557,1562,0,0,0,0,0,0,0,0,0,0
1683131369.39942694,85428315,1560,1560,1556,1564,0,0,0,0,0,0,0,0,0,0
1683131369.49938703,85528275,1561,1561,1558,1564,0,0,0,0,0,0,0,0,0,0
1683131369.59934711,85628235,1563,1563,1561,1565,0,0,0,0,0,0,0,0,0,0
1683131369.69930696,85728195,1563,1563,1562,1563,0,0,0,0,0,0,0,0,0,0
1683131369.79926705,85828155,1562,1562,1563,1561,0,0,0,0,0,0,0,0,0,0
1683131369.90005994,85928948,1561,1561,1564,1559,0,0,0,0,0,0,0,0,0,0
1683131370.00002003,86028908,1560,1561,1560,1561,0,0,0,0,0,0,0,0,0,0
1683131370.09998012,86128868,1559,1559,1556,1561,0,0,0,0,0,0,0,0,0,0
1683131370.19993997,86228828,1554,1554,1552,1556,0,0,0,0,0,0,0,0,0,0
1683131370.29990005,86328788,1549,1549,1548,1550,0,0,0,0,0,0,0,0,0,0
1683131370.39985991,86428748,1543,1543,1543,1543,0,0,0,0,0,0,0,0,0,0
1683131370.49981999,86528708,1536,1536,1536,1535,0,0,0,0,0,0,0,0,0,0
1683131370.59978008,86628668,1528,1528,1529,1527,0,0,0,0,0,0,0,0,0,0
1683131370.69973993,86728628,1522,1522,1522,1521,0,0,0,0,0,0,0,0,0,0
1683131370.79970002,86828588,1519,1519,1519,1519,0,0,0,0,0,0,0,0,0,0
1683131370.89966011,86928548,1520,1520,1519,1520,0,0,0,0,0,0,0,0,0,0
1683131370.99961996,87028508,1521,1521,1521,1522,0,0,0,0,0,0,0,0,0,0
1683131371.09958005,87128468,1523,1524,1523,1524,0,0,0,0,0,0,0,0,0,0
1683131371.19953990,87228428,1528,1528,1528,1528,0,0,0,0,0,0,0,0,0,0
1683131371.29949999,87328388,1532,1532,1532,1532,0,0,0,0,0,0,0,0,0,0
1683131371.39946008,87428348,1537,1537,1537,1537,0,0,0,0,0,0,0,0,0,0
1683131371.49941993,87528308,1540,1540,1540,1540,0,0,0,0,0,0,0,0,0,0
1683131371.59938002,87628268,1542,1542,1543,1542,0,0,0,0,0,0,0,0,0,0
1683131371.69934011,87728228,1543,1543,1543,1543,0,0,0,0,0,0,0,0,0,0
1683131371.79929996,87828188,1545,1545,1545,1544,0,0,0,0,0,0,0,0,0,0
1683131371.90009308,87928981,1546,1545,1545,1545,0,0,0,0,0,0,0,0,0,0
1683131372.00005293,88028941,1546,1546,1546,1546,0,0,0,0,0,0,0,0,0,0
1683131372.10001302,88128901,1546,1547,1546,1547,0,0,0,0,0,0,0,0,0,0
1683131372.19997311,88228861,1547,1547,1547,1547,0,0,0,0,0,0,0,0,0,0
1683131372.29993296,88328821,1547,1547,1547,1546,0,0,0,0,0,0,0,0,0,0
1683131372.39989305,88428781,1546,1546,1546,1546,0,0,0,0,0,0,0,0,0,0
1683131372.49985290,88528741,1545,1546,1546,1545,0,0,0,0,0,0,0,0,0,0
1683131372.59981298,88628701,1545,1545,1545,1545,0,0,0,0,0,0,0,0,0,0
1683131372.69977307,88728661,1545,1545,1546,1545,0,0,0,0,0,0,0,0,0,0
1683131372.79973292,88828621,1545,1545,1545,1545,0,0,0,0,0,0,0,0,0,0
1683131372.89969301,88928581,1545,1544,1545,1544,0,0,0,0,0,0,0,0,0,0
1683131372.99965310,89028541,1545,1545,1545,1545,0,0,0,0,0,0,0,0,0,0
1683131373.09961295,89128501,1545,1545,1545,1545,0,0,0,0,0,0,0,0,0,0
1683131373.19957304,89228461,1545,1546,1545,1545,0,0,0,0,0,0,0,0,0,0
1683131373.29953313,89328421,1544,1544,1544,1545,0,0,0,0,0,0,0,0,0,0
1683131373.39949298,89428381,1544,1545,1544,1544,0,0,0,0,0,0,0,0,0,0
1683131373.49945307,89528341,1545,1544,1544,1544,0,0,0,0,0,0,0,0,0,0
1683131373.59941292,89628301,1544,1544,1544,1544,0,0,0,0,0,0,0,0,0,0
1683131373.69937301,89728261,1544,1543,1544,1543,0,0,0,0,0,0,0,0,0,0
1683131373.79933310,89828221,1544,1544,1545,1544,0,0,0,0,0,0,0,0,0,0
1683131373.89929295,89928181,1543,1543,1543,1543,0,0,0,0,0,0,0,0,0,0
1683131374.00008607,90028974,1543,1543,1543,1542,0,0,0,0,0,0,0,0,0,0
1683131374.10004592,90128934,1543,1543,1543,1543,0,0,0,0,0,0,0,0,0,0
1683131374.20000601,90228894,1545,1544,1544,1545,0,0,0,0,0,0,0,0,0,0
1683131374.29996610,90328854,1545,1544,1544,1545,0,0,0,0,0,0,0,0,0,0
1683131374.39992595,90428814,1545,1544,1544,1544,0,0,0,0,0,0,0,0,0,0
1683131374.49988604,90528774,1544,1544,1544,1544,0,0,0,0,0,0,0,0,0,0
1683131374.59984612,90628734,1545,1545,1545,1544,0,0,0,0,0,0,0,0,0,0
1683131374.69980597,90728694,1544,1544,1544,1544,0,0,0,0,0,0,0,0,0,0
1683131374.79976606,90828654,1544,1544,1544,1544,0,0,0,0,0,0,0,0,0,0
1683131374.89972591,90928614,1543,1543,1543,1544,0,0,0,0,0,0,0,0,0,0
1683131374.99968600,91028574,1543,1543,1543,1543,0,0,0,0,0,0,0,0,0,0
1683131375.09964609,91128534,1544,1543,1543,1544,0,0,0,0,0,0,0,0,0,0
1683131375.19960594,91228494,1544,1544,1545,1544,0,0,0,0,0,0,0,0,0,0
1683131375.29956603,91328454,1544,1544,1544,1544,0,0,0,0,0,0,0,0,0,0
1683131375.39952612,91428414,1543,1543,1543,1543,0,0,0,0,0,0,0,0,0,0
1683131375.49948597,91528374,1544,1544,1544,1544,0,0,0,0,0,0,0,0,0,0
1683131375.59944606,91628334,1544,1544,1545,1545,0,0,0,0,0,0,0,0,0,0
1683131375.69940591,91728294,1544,1544,1544,1544,0,0,0,0,0,0,0,0,0,0
1683131375.79936600,91828254,1543,1544,1544,1544,0,0,0,0,0,0,0,0,0,0
1683131375.89932609,91928214,1544,1544,1544,1544,0,0,0,0,0,0,0,0,0,0
1683131375.99928594,92028174,1544,1544,1543,1544,0,0,0,0,0,0,0,0,0,0
1683131376.10007906,92128967,1544,1543,1543,1543,0,0,0,0,0,0,0,0,0,0
1683131376.20003891,92228927,1545,1545,1545,1544,0,0,0,0,0,0,0,0,0,0
1683131376.29999900,92328887,1544,1544,1544,1544,0,0,0,0,0,0,0,0,0,0
1683131376.39995909,92428847,1545,1545,1545,1545,0,0,0,0,0,0,0,0,0,0
1683131376.49991894,92528807,1545,1545,1545,1545,0,0,0,0,0,0,0,0,0,0
1683131376.59987903,92628767,1545,1545,1544,1545,0,0,0,0,0,0,0,0,0,0
1683131376.69983912,92728727,1544,1544,1544,1544,0,0,0,0,0,0,0,0,0,0
1683131376.79979897,92828687,1544,1544,1544,1544,0,0,0,0,0,0,0,0,0,0
1683131376.89975905,92928647,1545,1544,1544,1544,0,0,0,0,0,0,0,0,0,0
1683131376.99971890,93028607,1544,1544,1544,1544,0,0,0,0,0,0,0,0,0,0
1683131377.09967899,93128567,1545,1545,1545,1545,0,0,0,0,0,0,0,0,0,0
1683131377.19963908,93228527,1544,1545,1544,1545,0,0,0,0,0,0,0,0,0,0
1683131377.29959893,93328487,1544,1545,1545,1545,0,0,0,0,0,0,0,0,0,0
1683131377.39955902,93428447,1544,1544,1544,1544,0,0,0,0,0,0,0,0,0,0
1683131377.49951911,93528407,1545,1544,1545,1545,0,0,0,0,0,0,0,0,0,0
1683131377.59947896,93628367,1544,1544,1544,1545,0,0,0,0,0,0,0,0,0,0
1683131377.69943905,93728327,1545,1545,1545,1545,0,0,0,0,0,0,0,0,0,0
1683131377.79939890,93828287,1545,1544,1545,1544,0,0,0,0,0,0,0,0,0,0
1683131377.89935899,93928247,1544,1544,1544,1544,0,0,0,0,0,0,0,0,0,0
1683131377.99931908,94028207,1544,1544,1544,1543,0,0,0,0,0,0,0,0,0,0
1683131378.09927893,94128167,1544,1544,1544,1544,0,0,0,0,0,0,0,0,0,0
1683131378.20007205,94228960,1544,1544,1544,1544,0,0,0,0,0,0,0,0,0,0
1683131378.30003190,94328920,1543,1544,1544,1544,0,0,0,0,0,0,0,0,0,0
1683131378.39999199,94428880,1544,1545,1545,1544,0,0,0,0,0,0,0,0,0,0
1683131378.49995208,94528840,1544,1544,1544,1544,0,0,0,0,0,0,0,0,0,0
1683131378.59991193,94628800,1544,1543,1544,1544,0,0,0,0,0,0,0,0,0,0
1683131378.69987202,94728760,1545,1544,1544,1544,0,0,0,0,0,0,0,0,0,0
1683131378.79983211,94828720,1543,1543,1543,1543,0,0,0,0,0,0,0,0,0,0
1683131378.89979196,94928680,1544,1544,1544,1544,0,0,0,0,0,0,0,0,0,0
1683131378.99975204,95028640,1543,1544,1543,1543,0,0,0,0,0,0,0,0,0,0
1683131379.09971189,95128600,1545,1544,1544,1544,0,0,0,0,0,0,0,0,0,0
1683131379.19967198,95228560,1544,1544,1545,1544,0,0,0,0,0,0,0,0,0,0
1683131379.29963207,95328520,1545,1545,1545,1545,0,0,0,0,0,0,0,0,0,0
1683131379.39959192,95428480,1544,1544,1544,1544,0,0,0,0,0,0,0,0,0,0
1683131379.49955201,95528440,1544,1544,1544,1544,0,0,0,0,0,0,0,0,0,0
1683131379.59951210,95628400,1545,1545,1545,1545,0,0,0,0,0,0,0,0,0,0
1683131379.69947195,95728360,1545,1545,1545,1545,0,0,0,0,0,0,0,0,0,0
1683131379.79943204,95828320,1544,1544,1544,1544,0,0,0,0,0,0,0,0,0,0
1683131379.89939213,95928280,1544,1544,1544,1544,0,0,0,0,0,0,0,0,0,0
1683131379.99935198,96028240,1544,1544,1544,1544,0,0,0,0,0,0,0,0,0,0
1683131380.09931207,96128200,1544,1544,1545,1544,0,0,0,0,0,0,0,0,0,0
1683131380.19927192,96228160,1544,1545,1545,1544,0,0,0,0,0,0,0,0,0,0
1683131380.30006504,96328953,1545,1544,1544,1545,0,0,0,0,0,0,0,0,0,0
1683131380.40002513,96428913,1544,1544,1544,1544,0,0,0,0,0,0,0,0,0,0
1683131380.49998498,96528873,1407,1407,1408,1407,0,0,0,0,0,0,0,0,0,0
1683131380.59994507,96628833,1274,1272,1273,1272,0,0,0,0,0,0,0,0,0,0
1683131380.69990492,96728793,1224,1222,1223,1223,0,0,0,0,0,0,0,0,0,0
1683131380.79986501,96828753,1203,1202,1203,1202,0,0,0,0,0,0,0,0,0,0
1683131380.89982510,96928713,1164,1163,1164,1163,0,0,0,0,0,0,0,0,0,0
1683131380.99978495,97028673,1151,1150,1152,1150,0,0,0,0,0,0,0,0,0,0
1683131381.09974504,97128633,1151,1150,1151,1150,0,0,0,0,0,0,0,0,0,0
1683131381.19970512,97228593,1181,1150,1150,1181,0,0,0,0,0,0,0,0,0,0
1683131381.29966497,97328553,1172,1150,1151,1172,0,0,0,0,0,0,0,0,0,0
1683131381.39962506,97428513,1169,1150,1151,1167,0,0,0,0,0,0,0,0,0,0
1683131381.49958491,97528473,1170,1150,1151,1168,0,0,0,0,0,0,0,0,0,0
1683131381.59954500,97628433,1171,1150,1151,1170,0,0,0,0,0,0,0,0,0,0
1683131381.69950509,97728393,1173,1150,1152,1172,0,0,0,0,0,0,0,0,0,0
1683131381.79946494,97828353,1175,1150,1152,1173,0,0,0,0,0,0,0,0,0,0
1683131381.89942503,97928313,1177,1150,1152,1175,0,0,0,0,0,0,0,0,0,0
1683131381.99938512,98028273,1163,1150,1151,1162,0,0,0,0,0,0,0,0,0,0
1683131382.09934497,98128233,1165,1150,1151,1164,0,0,0,0,0,0,0,0,0,0
1683131382.19930506,98228193,1166,1150,1151,1165,0,0,0,0,0,0,0,0,0,0
1683131382.30009794,98328986,1166,1150,1151,1165,0,0,0,0,0,0,0,0,0,0
1683131382.40005803,98428946,1167,1150,1151,1166,0,0,0,0,0,0,0,0,0,0
1683131382.50001812,98528906,1000,1000,1000,1000,0,0,0,0,0,0,0,0,0,0
1683131382.59997797,98628866,1000,1000,1000,1000,0,0,0,0,0,0,0,0,0,0
1683131382.69993806,98728826,1000,1000,1000,1000,0,0,0,0,0,0,0,0,0,0
1683131382.79989791,98828786,1000,1000,1000,1000,0,0,0,0,0,0,0,0,0,0
1683131382.89985800,98928746,1000,1000,1000,1000,0,0,0,0,0,0,0,0,0,0
1683131382.99981809,99028706,1000,1000,1000,1000,0,0,0,0,0,0,0,0,0,0
1683131383.09977794,99128666,1000,1000,1000,1000,0,0,0,0,0,0,0,0,0,0
1683131383.19973803,99228626,1000,1000,1000,1000,0,0,0,0,0,0,0,0,0,0
1683131383.29969811,99328586,1000,1000,1000,1000,0,0,0,0,0,0,0,0,0,0
1683131383.39965796,99428546,1000,1000,1000,1000,0,0,0,0,0,0,0,0,0,0
1683131383.49961805,99528506,1000,1000,1000,1000,0,0,0,0,0,0,0,0,0,0
1683131383.59957790,99628466,1000,1000,1000,1000,0,0,0,0,0,0,0,0,0,0
1683131383.69953799,99728426,1000,1000,1000,1000,0,0,0,0,0,0,0,0,0,0
1683131383.79949808,99828386,1000,1000,1000,1000,0,0,0,0,0,0,0,0,0,0
1683131383.89945793,99928346,1000,1000,1000,1000,0,0,0,0,0,0,0,0,0,0
1683131383.99941802,100028306,1000,1000,1000,1000,0,0,0,0,0,0,0,0,0,0
1683131384.09937811,100128266,1000,1000,1000,1000,0,0,0,0,0,0,0,0,0,0
1683131384.19933796,100228226,1000,1000,1000,1000,0,0,0,0,0,0,0,0,0,0
1683131384.29929805,100328186,1000,1000,1000,1000,0,0,0,0,0,0,0,0,0,0
1683131384.40009093,100428979,1000,1000,1000,1000,0,0,0,0,0,0,0,0,0,0
1683131384.50005102,100528939,1000,1000,1000,1000,0,0,0,0,0,0,0,0,0,0
1683131384.60001111,100628899,1000,1000,1000,1000,0,0,0,0,0,0,0,0,0,0
1683131384.69997096,100728859,1000,1000,1000,1000,0,0,0,0,0,0,0,0,0,0
1683131384.79993105,100828819,1000,1000,1000,1000,0,0,0,0,0,0,0,0,0,0
1683131384.89989090,100928779,1000,1000,1000,1000,0,0,0,0,0,0,0,0,0,0
1683131384.99985099,101028739,1000,1000,1000,1000,0,0,0,0,0,0,0,0,0,0
1683131385.09981108,101128699,1000,1000,1000,1000,0,0,0,0,0,0,0,0,0,0
1683131385.19977093,101228659,1000,1000,1000,1000,0,0,0,0,0,0,0,0,0,0
1683131385.29973102,101328619,1000,1000,1000,1000,0,0,0,0,0,0,0,0,0,0
1683131385.39969110,101428579,1000,1000,1000,1000,0,0,0,0,0,0,0,0,0,0
1683131385.49965096,101528539,1000,1000,1000,1000,0,0,0,0,0,0,0,0,0,0
1683131385.59961104,101628499,1000,1000,1000,1000,0,0,0,0,0,0,0,0,0,0
1683131385.69957089,101728459,1000,1000,1000,1000,0,0,0,0,0,0,0,0,0,0
1683131385.79953098,101828419,1000,1000,1000,1000,0,0,0,0,0,0,0,0,0,0
1683131385.89949107,101928379,1000,1000,1000,1000,0,0,0,0,0,0,0,0,0,0
1683131385.99945092,102028339,1000,1000,1000,1000,0,0,0,0,0,0,0,0,0,0
1683131386.09941101,102128299,1000,1000,1000,1000,0,0,0,0,0,0,0,0,0,0
1683131386.19937110,102228259,1000,1000,1000,1000,0,0,0,0,0,0,0,0,0,0
1683131386.29933095,102328219,1000,1000,1000,1000,0,0,0,0,0,0,0,0,0,0
1683131386.39929104,102428179,1000,1000,1000,1000,0,0,0,0,0,0,0,0,0,0
1683131386.50008392,102528972,1000,1000,1000,1000,0,0,0,0,0,0,0,0,0,0
1683131386.60004401,102628932,1000,1000,1000,1000,0,0,0,0,0,0,0,0,0,0
1683131386.70000410,102728892,1000,1000,1000,1000,0,0,0,0,0,0,0,0,0,0
1683131386.79996395,102828852,1000,1000,1000,1000,0,0,0,0,0,0,0,0,0,0
1683131386.89992404,102928812,1000,1000,1000,1000,0,0,0,0,0,0,0,0,0,0
1683131386.99988413,103028772,1000,1000,1000,1000,0,0,0,0,0,0,0,0,0,0
1683131387.09984398,103128732,1000,1000,1000,1000,0,0,0,0,0,0,0,0,0,0
1683131387.19980407,103228692,1000,1000,1000,1000,0,0,0,0,0,0,0,0,0,0
1683131387.29976392,103328652,1000,1000,1000,1000,0,0,0,0,0,0,0,0,0,0
1683131387.39972401,103428612,1000,1000,1000,1000,0,0,0,0,0,0,0,0,0,0
1683131387.49968410,103528572,1000,1000,1000,1000,0,0,0,0,0,0,0,0,0,0
1683131387.59964395,103628532,1000,1000,1000,1000,0,0,0,0,0,0,0,0,0,0
1683131387.69960403,103728492,1000,1000,1000,1000,0,0,0,0,0,0,0,0,0,0
1683131387.79956412,103828452,1000,1000,1000,1000,0,0,0,0,0,0,0,0,0,0
1683131387.89952397,103928412,1000,1000,1000,1000,0,0,0,0,0,0,0,0,0,0
1683131387.99948406,104028372,1000,1000,1000,1000,0,0,0,0,0,0,0,0,0,0
1683131388.09944391,104128332,1000,1000,1000,1000,0,0,0,0,0,0,0,0,0,0
1683131388.19940400,104228292,1000,1000,1000,1000,0,0,0,0,0,0,0,0,0,0
1683131388.29936409,104328252,1000,1000,1000,1000,0,0,0,0,0,0,0,0,0,0
1683131388.39932394,104428212,1000,1000,1000,1000,0,0,0,0,0,0,0,0,0,0
1683131388.49928403,104528172,1000,1000,1000,1000,0,0,0,0,0,0,0,0,0,0
1683131388.60007691,104628965,1000,1000,1000,1000,0,0,0,0,0,0,0,0,0,0
1683131388.70003700,104728925,1000,1000,1000,1000,0,0,0,0,0,0,0,0,0,0
1683131388.79999709,104828885,1000,1000,1000,1000,0,0,0,0,0,0,0,0,0,0
1683131388.89995694,104928845,1000,1000,1000,1000,0,0,0,0,0,0,0,0,0,0
1683131388.99991703,105028805,1000,1000,1000,1000,0,0,0,0,0,0,0,0,0,0
1683131389.09987712,105128765,1000,1000,1000,1000,0,0,0,0,0,0,0,0,0,0
1683131389.19983697,105228725,1000,1000,1000,1000,0,0,0,0,0,0,0,0,0,0
1683131389.29979706,105328685,1000,1000,1000,1000,0,0,0,0,0,0,0,0,0,0
1683131389.39975691,105428645,1000,1000,1000,1000,0,0,0,0,0,0,0,0,0,0
1683131389.49971700,105528605,1000,1000,1000,1000,0,0,0,0,0,0,0,0,0,0
1683131389.59967709,105628565,1000,1000,1000,1000,0,0,0,0,0,0,0,0,0,0
1683131389.69963694,105728525,1000,1000,1000,1000,0,0,0,0,0,0,0,0,0,0
1683131389.79959702,105828485,1000,1000,1000,1000,0,0,0,0,0,0,0,0,0,0
1683131389.89955711,105928445,1000,1000,1000,1000,0,0,0,0,0,0,0,0,0,0
1683131389.99951696,106028405,1000,1000,1000,1000,0,0,0,0,0,0,0,0,0,0
1683131390.09947705,106128365,1000,1000,1000,1000,0,0,0,0,0,0,0,0,0,0
1683131390.19943690,106228325,1000,1000,1000,1000,0,0,0,0,0,0,0,0,0,0
1683131390.29939699,106328285,1000,1000,1000,1000,0,0,0,0,0,0,0,0,0,0
