TimeUS,M1,M2,M3,M4,TimeUS,C1,C2,C3,C4
45750859,1000,1000,1000,1000,45828328,1000,1000,1000,1000
45753358,1000,1000,1000,1000,45928288,1000,1000,1000,1000
45755857,1000,1000,1000,1000,46028248,1000,1000,1000,1000
45758356,1000,1000,1000,1000,46128208,1000,1000,1000,1000
45760855,1000,1000,1000,1000,46228168,1000,1000,1000,1000
45763354,1000,1000,1000,1000,46328961,1000,1000,1000,1000
45765853,1000,1000,1000,1000,46428921,1000,1000,1000,1000
45768352,1000,1000,1000,1000,46528881,1000,1000,1000,1000
45770851,1000,1000,1000,1000,46628841,1000,1000,1000,1000
45773350,1000,1000,1000,1000,46728801,1000,1000,1000,1000
45775849,1000,1000,1000,1000,46828761,1000,1000,1000,1000
45778348,1000,1000,1000,1000,46928721,1000,1000,1000,1000
45780847,1000,1000,1000,1000,47028681,1000,1000,1000,1000
45783346,1000,1000,1000,1000,47128641,1000,1000,1000,1000
45785845,1000,1000,1000,1000,47228601,1000,1000,1000,1000
45788344,1000,1000,1000,1000,47328561,1000,1000,1000,1000
45790843,1000,1000,1000,1000,47428521,1000,1000,1000,1000
45793342,1000,1000,1000,1000,47528481,1000,1000,1000,1000
45795841,1000,1000,1000,1000,47628441,1000,1000,1000,1000
45798340,1000,1000,1000,1000,47728401,1000,1000,1000,1000
45800839,1000,1000,1000,1000,47828361,1023,1023,1023,1023
45803338,1000,1000,1000,1000,47928321,1053,1053,1053,1053
45805837,1000,1000,1000,1000,48028281,1083,1083,1083,1083
45808336,1000,1000,1000,1000,48128241,1113,1113,1113,1113
45810835,1000,1000,1000,1000,48228201,1143,1143,1143,1143
45813334,1000,1000,1000,1000,48328161,1351,1346,1347,1351
45815833,1000,1000,1000,1000,48428954,1542,1538,1538,1542
45818332,1000,1000,1000,1000,48528914,1695,1691,1691,1695
45820831,1000,1000,1000,1000,48628874,1827,1822,1823,1826
45823330,1000,1000,1000,1000,48728834,1912,1908,1909,1911
45825829,1000,1000,1000,1000,48828794,1853,1851,1851,1853
45828328,1000,1000,1000,1000,48928754,1724,1724,1724,1725
45830827,1000,1000,1000,1000,49028714,1649,1651,1651,1650
45833326,1000,1000,1000,1000,49128674,1632,1634,1634,1632
45835825,1000,1000,1000,1000,49228634,1639,1641,1640,1639
45838324,1000,1000,1000,1000,49328594,1643,1644,1643,1643
45840823,1000,1000,1000,1000,49428554,1638,1638,1638,1638
45843322,1000,1000,1000,1000,49528514,1616,1616,1609,1622
45845821,1000,1000,1000,1000,49628474,1604,1603,1594,1612
45848320,1000,1000,1000,1000,49728434,1598,1597,1592,1603
45850819,1000,1000,1000,1000,49828394,1599,1599,1598,1599
45853318,1000,1000,1000,1000,49928354,1602,1602,1605,1599
45855817,1000,1000,1000,1000,50028314,1603,1603,1608,1599
45858316,1000,1000,1000,1000,50128274,1578,1579,1597,1559
45860815,1000,1000,1000,1000,50228234,1567,1568,1582,1553
45863314,1000,1000,1000,1000,50328194,1557,1557,1561,1554
45865813,1000,1000,1000,1000,50428154,1547,1547,1540,1555
45868312,1000,1000,1000,1000,50528947,1540,1539,1527,1553
45870811,1000,1000,1000,1000,50628907,1534,1534,1522,1546
45873310,1000,1000,1000,1000,50728867,1529,1528,1521,1536
45875809,1000,1000,1000,1000,50828827,1525,1526,1523,1528
45878308,1000,1000,1000,1000,50928787,1527,1527,1528,1526
45880807,1000,1000,1000,1000,51028747,1530,1529,1532,1527
45883306,1000,1000,1000,1000,51128707,1533,1533,1537,1529
45885805,1000,1000,1000,1000,51228667,1536,1537,1540,1533
45888304,1000,1000,1000,1000,51328627,1541,1541,1543,1538
45890803,1000,1000,1000,1000,51428587,1545,1545,1546,1543
45893302,1000,1000,1000,1000,51528547,1547,1547,1547,1547
45895801,1000,1000,1000,1000,51628507,1549,1549,1548,1551
45898300,1000,1000,1000,1000,51728467,1552,1552,1550,1554
45900799,1000,1000,1000,1000,51828427,1552,1552,1557,1560
45903298,1000,1000,1000,1000,51928387,1552,1552,1560,1563
45905797,1000,1000,1000,1000,52028347,1554,1555,1563,1563
45908296,1000,1000,1000,1000,52128307,1558,1558,1564,1563
45910795,1000,1000,1000,1000,52228267,1561,1563,1565,1564
45913294,1000,1000,1000,1000,52328227,1564,1565,1565,1564
45915793,1000,1000,1000,1000,52428187,1568,1568,1565,1565
45918292,1000,1000,1000,1000,52528980,1571,1570,1566,1565
45920791,1000,1000,1000,1000,52628940,1572,1571,1566,1566
45923290,1000,1000,1000,1000,52728900,1573,1572,1567,1567
45925789,1000,1000,1000,1000,52828860,1573,1573,1567,1568
45928288,1000,1000,1000,1000,52928820,1573,1573,1568,1569
45930787,1000,1000,1000,1000,53028780,1574,1574,1570,1571
45933286,1000,1000,1000,1000,53128740,1574,1573,1572,1572
45935785,1000,1000,1000,1000,53228700,1574,1574,1574,1572
45938284,1000,1000,1000,1000,53328660,1573,1574,1575,1573
45940783,1000,1000,1000,1000,53428620,1573,1574,1576,1574
45943282,1000,1000,1000,1000,53528580,1574,1574,1576,1576
45945781,1000,1000,1000,1000,53628540,1574,1574,1576,1576
45948280,1000,1000,1000,1000,53728500,1575,1574,1576,1576
45950779,1000,1000,1000,1000,53828460,1575,1575,1577,1577
45953278,1000,1000,1000,1000,53928420,1575,1576,1577,1577
45955777,1000,1000,1000,1000,54028380,1575,1576,1576,1577
45958276,1000,1000,1000,1000,54128340,1576,1576,1577,1577
45960775,1000,1000,1000,1000,54228300,1577,1577,1577,1577
45963274,1000,1000,1000,1000,54328260,1578,1578,1578,1577
45965773,1000,1000,1000,1000,54428220,1579,1579,1578,1578
45968272,1000,1000,1000,1000,54528180,1578,1577,1577,1577
45970771,1000,1000,1000,1000,54628973,1578,1578,1578,1577
45973270,1000,1000,1000,1000,54728933,1577,1577,1577,1577
45975769,1000,1000,1000,1000,54828893,1578,1578,1578,1578
45978268,1000,1000,1000,1000,54928853,1578,1578,1577,1578
45980767,1000,1000,1000,1000,55028813,1578,1579,1578,1578
45983266,1000,1000,1000,1000,55128773,1578,1578,1577,1578
45985765,1000,1000,1000,1000,55228733,1578,1578,1578,1578
45988264,1000,1000,1000,1000,55328693,1578,1578,1579,1579
45990763,1000,1000,1000,1000,55428653,1579,1579,1580,1579
45993262,1000,1000,1000,1000,55528613,1579,1579,1579,1579
45995761,1000,1000,1000,1000,55628573,1580,1579,1580,1580
45998260,1000,1000,1000,1000,55728533,1578,1578,1578,1579
46000759,1000,1000,1000,1000,55828493,1579,1579,1579,1579
46003258,1000,1000,1000,1000,55928453,1579,1579,1579,1579
46005757,1000,1000,1000,1000,56028413,1579,1579,1579,1579
46008256,1000,1000,1000,1000,56128373,1581,1580,1581,1581
46010755,1000,1000,1000,1000,56228333,1580,1580,1580,1580
46013254,1000,1000,1000,1000,56328293,1580,1580,1580,1580
46015753,1000,1000,1000,1000,56428253,1579,1579,1579,1579
46018252,1000,1000,1000,1000,56528213,1580,1580,1580,1580
46020751,1000,1000,1000,1000,56628173,1580,1580,1579,1580
46023250,1000,1000,1000,1000,56728966,1579,1579,1580,1579
46025749,1000,1000,1000,1000,56828926,1580,1579,1580,1579
46028248,1000,1000,1000,1000,56928886,1580,1580,1580,1580
46030747,1000,1000,1000,1000,57028846,1580,1579,1580,1580
46033246,1000,1000,1000,1000,57128806,1580,1580,1580,1580
46035745,1000,1000,1000,1000,57228766,1580,1581,1581,1581
46038244,1000,1000,1000,1000,57328726,1580,1580,1580,1580
46040743,1000,1000,1000,1000,57428686,1580,1580,1580,1580
46043242,1000,1000,1000,1000,57528646,1581,1581,1581,1581
46045741,1000,1000,1000,1000,57628606,1581,1581,1581,1580
46048240,1000,1000,1000,1000,57728566,1581,1581,1581,1581
46050739,1000,1000,1000,1000,57828526,1581,1581,1581,1581
46053238,1000,1000,1000,1000,57928486,1582,1582,1582,1582
46055737,1000,1000,1000,1000,58028446,1581,1582,1585,1578
46058236,1000,1000,1000,1000,58128406,1581,1583,1588,1574
46060735,1000,1000,1000,1000,58228366,1580,1582,1582,1574
46063234,1000,1000,1000,1000,58328326,1577,1580,1572,1572
46065733,1000,1000,1000,1000,58428286,1577,1579,1565,1570
46068232,1000,1000,1000,1000,58528246,1576,1577,1557,1565
46070731,1000,1000,1000,1000,58628206,1578,1578,1556,1561
46073230,1000,1000,1000,1000,58728166,1579,1577,1555,1558
46075729,1000,1000,1000,1000,58828959,1579,1578,1556,1555
46078228,1000,1000,1000,1000,58928919,1578,1577,1555,1554
46080727,1000,1000,1000,1000,59028879,1578,1577,1556,1553
46083226,1000,1000,1000,1000,59128839,1576,1577,1555,1553
46085725,1000,1000,1000,1000,59228799,1575,1577,1556,1554
46088224,1000,1000,1000,1000,59328759,1575,1577,1554,1554
46090723,1000,1000,1000,1000,59428719,1574,1576,1552,1553
46093222,1000,1000,1000,1000,59528679,1575,1577,1551,1551
46095721,1000,1000,1000,1000,59628639,1578,1579,1550,1550
46098220,1000,1000,1000,1000,59728599,1579,1580,1547,1547
46100719,1000,1000,1000,1000,59828559,1583,1583,1545,1545
46103218,1000,1000,1000,1000,59928519,1585,1585,1542,1542
46105717,1000,1000,1000,1000,60028479,1590,1590,1541,1540
46108216,1000,1000,1000,1000,60128439,1591,1592,1537,1537
46110715,1000,1000,1000,1000,60228399,1594,1594,1536,1536
46113214,1000,1000,1000,1000,60328359,1594,1594,1534,1535
46115713,1000,1000,1000,1000,60428319,1595,1595,1535,1537
46118212,1000,1000,1000,1000,60528279,1594,1593,1536,1539
46120711,1000,1000,1000,1000,60628239,1592,1591,1541,1543
46123210,1000,1000,1000,1000,60728199,1587,1585,1546,1549
46125709,1000,1000,1000,1000,60828159,1581,1578,1556,1558
46128208,1000,1000,1000,1000,60928952,1571,1568,1566,1568
46130707,1000,1000,1000,1000,61028912,1561,1557,1579,1580
46133206,1000,1000,1000,1000,61128872,1550,1546,1591,1592
46135705,1000,1000,1000,1000,61228832,1540,1538,1602,1602
46138204,1000,1000,1000,1000,61328792,1533,1533,1610,1609
46140703,1000,1000,1000,1000,61428752,1529,1530,1615,1613
46143202,1000,1000,1000,1000,61528712,1529,1531,1616,1614
46145701,1000,1000,1000,1000,61628672,1533,1535,1613,1612
46148200,1000,1000,1000,1000,61728632,1539,1542,1608,1608
46150699,1000,1000,1000,1000,61828592,1547,1549,1601,1601
46153198,1000,1000,1000,1000,61928552,1557,1557,1594,1594
46155697,1000,1000,1000,1000,62028512,1566,1565,1586,1586
46158196,1000,1000,1000,1000,62128472,1573,1573,1579,1578
46160695,1000,1000,1000,1000,62228432,1579,1578,1573,1572
46163194,1000,1000,1000,1000,62328392,1584,1583,1569,1569
46165693,1000,1000,1000,1000,62428352,1587,1585,1566,1566
46168192,1000,1000,1000,1000,62528312,1326,1329,1631,1639
46170691,1000,1000,1000,1000,62628272,1404,1412,1644,1648
46173190,1000,1000,1000,1000,62728232,1470,1479,1636,1631
46175689,1000,1000,1000,1000,62828192,1523,1529,1627,1617
46178188,1000,1000,1000,1000,62928985,1564,1564,1620,1611
46180687,1000,1000,1000,1000,63028945,1600,1586,1599,1595
46183186,1000,1000,1000,1000,63128905,1600,1585,1527,1533
46185685,1000,1000,1000,1000,63228865,1600,1590,1483,1499
46188184,1000,1000,1000,1000,63328825,1599,1600,1497,1509
46190683,1000,1000,1000,1000,63428785,1592,1600,1512,1516
46193182,1000,1000,1000,1000,63528745,1590,1600,1531,1529
46195681,1000,1000,1000,1000,63628705,1593,1600,1549,1544
46198180,1000,1000,1000,1000,63728665,1598,1600,1563,1559
46200679,1000,1000,1000,1000,63828625,1600,1597,1570,1567
46203178,1000,1000,1000,1000,63928585,1600,1595,1572,1573
46205677,1000,1000,1000,1000,64028545,1600,1596,1574,1577
46208176,1000,1000,1000,1000,64128505,1600,1598,1578,1581
46210675,1000,1000,1000,1000,64228465,1600,1597,1585,1578
46213174,1000,1000,1000,1000,64328425,1600,1595,1587,1582
46215673,1000,1000,1000,1000,64428385,1600,1595,1588,1586
46218172,1000,1000,1000,1000,64528345,1600,1597,1588,1588
46220671,1000,1000,1000,1000,64628305,1600,1598,1588,1589
46223170,1000,1000,1000,1000,64728265,1599,1600,1588,1589
46225669,1000,1000,1000,1000,64828225,1597,1600,1584,1589
46228168,1000,1000,1000,1000,64928185,1595,1600,1583,1586
46230667,1000,1000,1000,1000,65028978,1595,1600,1584,1583
46233166,1000,1000,1000,1000,65128938,1596,1600,1585,1583
46235665,1000,1000,1000,1000,65228898,1598,1600,1586,1584
46238164,1000,1000,1000,1000,65328858,1595,1600,1581,1584
46240663,1000,1000,1000,1000,65428818,1594,1600,1580,1581
46243162,1000,1000,1000,1000,65528778,1595,1600,1580,1580
46245661,1000,1000,1000,1000,65628738,1595,1600,1580,1578
46248160,1000,1000,1000,1000,65728698,1596,1600,1580,1579
46250659,1000,1000,1000,1000,65828658,1598,1600,1580,1579
46253158,1000,1000,1000,1000,65928618,1600,1599,1580,1580
46255657,1000,1000,1000,1000,66028578,1600,1598,1577,1579
46258156,1000,1000,1000,1000,66128538,1600,1592,1573,1570
46260655,1000,1000,1000,1000,66228498,1600,1585,1577,1567
46263154,1000,1000,1000,1000,66328458,1600,1586,1580,1577
46266486,1000,1000,1000,1000,66428418,1600,1589,1581,1585
46268985,1000,1000,1000,1000,66528378,1599,1595,1583,1588
46271484,1000,1000,1000,1000,66628338,1587,1589,1570,1575
46273983,1000,1000,1000,1000,66728298,1580,1586,1564,1566
46276482,1000,1000,1000,1000,66828258,1575,1582,1560,1558
46278981,1000,1000,1000,1000,66928218,1573,1579,1558,1553
46281480,1000,1000,1000,1000,67028178,1573,1576,1556,1550
46283979,1000,1000,1000,1000,67128971,1573,1573,1554,1549
46286478,1000,1000,1000,1000,67228931,1573,1571,1552,1549
46288977,1000,1000,1000,1000,67328891,1573,1570,1549,1549
46291476,1000,1000,1000,1000,67428851,1572,1569,1547,1548
46293975,1000,1000,1000,1000,67528811,1570,1570,1547,1548
46296474,1000,1000,1000,1000,67628771,1569,1570,1546,1547
46298973,1000,1000,1000,1000,67728731,1568,1571,1546,1546
46301472,1000,1000,1000,1000,67828691,1567,1570,1546,1545
46303971,1000,1000,1000,1000,67928651,1567,1570,1546,1544
46306470,1000,1000,1000,1000,68028611,1568,1570,1548,1546
46308969,1000,1000,1000,1000,68128571,1569,1570,1548,1546
46311468,1000,1000,1000,1000,68228531,1570,1571,1549,1548
46313967,1000,1000,1000,1000,68328491,1570,1571,1548,1548
46316466,1000,1000,1000,1000,68428451,1571,1572,1550,1550
46318965,1000,1000,1000,1000,68528411,1571,1571,1549,1550
46321464,1000,1000,1000,1000,68628371,1572,1573,1550,1551
46323963,1000,1000,1000,1000,68728331,1572,1574,1550,1552
46326462,1000,1000,1000,1000,68828291,1573,1574,1551,1552
46328961,1000,1000,1000,1000,68928251,1574,1575,1551,1552
46331460,1000,1000,1000,1000,69028211,1575,1575,1552,1553
46333959,1000,1000,1000,1000,69128171,1577,1576,1552,1554
46336458,1000,1000,1000,1000,69228964,1577,1575,1551,1553
46338957,1000,1000,1000,1000,69328924,1578,1577,1552,1555
46341456,1000,1000,1000,1000,69428884,1578,1578,1553,1556
46343955,1000,1000,1000,1000,69528844,1578,1579,1553,1555
46346454,1000,1000,1000,1000,69628804,1578,1579,1553,1554
46348953,1000,1000,1000,1000,69728764,1578,1579,1554,1555
46351452,1000,1000,1000,1000,69828724,1580,1579,1556,1556
46353951,1000,1000,1000,1000,69928684,1573,1569,1567,1569
46356450,1000,1000,1000,1000,70028644,1561,1555,1585,1587
46358949,1000,1000,1000,1000,70128604,1550,1545,1596,1599
46361448,1000,1000,1000,1000,70228564,1542,1540,1602,1604
46363947,1000,1000,1000,1000,70328524,1538,1538,1605,1605
46366446,1000,1000,1000,1000,70428484,1537,1539,1606,1604
46368945,1000,1000,1000,1000,70528444,1538,1542,1605,1603
46371444,1000,1000,1000,1000,70628404,1541,1545,1603,1600
46373943,1000,1000,1000,1000,70728364,1546,1549,1599,1597
46376442,1000,1000,1000,1000,70828324,1551,1553,1595,1593
46378941,1000,1000,1000,1000,70928284,1557,1557,1591,1590
46381440,1000,1000,1000,1000,71028244,1562,1561,1586,1585
46383939,1000,1000,1000,1000,71128204,1567,1566,1583,1582
46386438,1000,1000,1000,1000,71228164,1572,1570,1580,1580
46388937,1000,1000,1000,1000,71328957,1575,1574,1578,1578
46391436,1000,1000,1000,1000,71428917,1578,1577,1575,1576
46393935,1000,1000,1000,1000,71528877,1579,1579,1573,1574
46396434,1000,1000,1000,1000,71628837,1581,1582,1573,1574
46398933,1000,1000,1000,1000,71728797,1584,1584,1574,1574
46401432,1000,1000,1000,1000,71828757,1584,1584,1573,1573
46403931,1000,1000,1000,1000,71928717,1585,1585,1573,1573
46406430,1000,1000,1000,1000,72028677,1586,1586,1574,1574
46408929,1000,1000,1000,1000,72128637,1586,1585,1574,1574
46411428,1000,1000,1000,1000,72228597,1586,1585,1574,1574
46413927,1000,1000,1000,1000,72328557,1585,1584,1575,1575
46416426,1000,1000,1000,1000,72428517,1585,1584,1575,1575
46418925,1000,1000,1000,1000,72528477,1584,1583,1576,1576
46421424,1000,1000,1000,1000,72628437,1583,1583,1575,1575
46423923,1000,1000,1000,1000,72728397,1583,1583,1577,1577
46426422,1000,1000,1000,1000,72828357,1582,1583,1578,1577
46428921,1000,1000,1000,1000,72928317,1581,1582,1578,1578
46431420,1000,1000,1000,1000,73028277,1581,1581,1578,1578
46433919,1000,1000,1000,1000,73128237,1581,1581,1580,1579
46436418,1000,1000,1000,1000,73228197,1580,1580,1579,1579
46438917,1000,1000,1000,1000,73328157,1580,1580,1579,1579
46441416,1000,1000,1000,1000,73428950,1580,1579,1579,1579
46443915,1000,1000,1000,1000,73528910,1580,1580,1580,1580
46446414,1000,1000,1000,1000,73628870,1580,1580,1580,1581
46448913,1000,1000,1000,1000,73728830,1580,1580,1581,1581
46451412,1000,1000,1000,1000,73828790,1579,1580,1580,1580
46453911,1000,1000,1000,1000,73928750,1579,1580,1580,1580
46456410,1000,1000,1000,1000,74028710,1580,1580,1581,1581
46458909,1000,1000,1000,1000,74128670,1580,1580,1580,1580
46461408,1000,1000,1000,1000,74228630,1580,1579,1580,1580
46463907,1000,1000,1000,1000,74328590,1580,1581,1581,1581
46466406,1000,1000,1000,1000,74428550,1580,1580,1581,1581
46468905,1000,1000,1000,1000,74528510,1580,1580,1580,1580
46471404,1000,1000,1000,1000,74628470,1581,1581,1580,1581
46473903,1000,1000,1000,1000,74728430,1580,1580,1580,1580
46476402,1000,1000,1000,1000,74828390,1581,1581,1580,1580
46478901,1000,1000,1000,1000,74928350,1581,1581,1581,1581
46481400,1000,1000,1000,1000,75028310,1582,1581,1581,1581
46483899,1000,1000,1000,1000,75128270,1582,1581,1581,1581
46486398,1000,1000,1000,1000,75228230,1581,1581,1585,1575
46488897,1000,1000,1000,1000,75328190,1581,1580,1586,1572
46491396,1000,1000,1000,1000,75428983,1581,1580,1580,1574
46493895,1000,1000,1000,1000,75528943,1578,1579,1569,1572
46496394,1000,1000,1000,1000,75628903,1576,1578,1562,1568
46498893,1000,1000,1000,1000,75728863,1575,1577,1558,1564
46501392,1000,1000,1000,1000,75828823,1575,1577,1557,1561
46503891,1000,1000,1000,1000,75928783,1575,1576,1558,1558
46506390,1000,1000,1000,1000,76028743,1574,1575,1557,1555
46508889,1000,1000,1000,1000,76128703,1575,1575,1557,1555
46511388,1000,1000,1000,1000,76228663,1574,1574,1556,1554
46513887,1000,1000,1000,1000,76328623,1574,1574,1555,1554
46516386,1000,1000,1000,1000,76428583,1575,1575,1555,1555
46518885,1000,1000,1000,1000,76528543,1575,1575,1553,1553
46521384,1000,1000,1000,1000,76628503,1575,1576,1552,1552
46523883,1000,1000,1000,1000,76728463,1575,1576,1550,1550
46526382,1000,1000,1000,1000,76828423,1576,1578,1549,1548
46528881,1000,1000,1000,1000,76928383,1578,1579,1547,1547
46531380,1000,1000,1000,1000,77028343,1579,1581,1545,1545
46533879,1000,1000,1000,1000,77128303,1581,1583,1543,1543
46536378,1000,1000,1000,1000,77228263,1584,1585,1542,1541
46538877,1000,1000,1000,1000,77328223,1586,1586,1540,1540
46541376,1000,1000,1000,1000,77428183,1587,1588,1538,1537
46543875,1000,1000,1000,1000,77528976,1589,1589,1537,1538
46546374,1000,1000,1000,1000,77628936,1590,1590,1539,1540
46548873,1000,1000,1000,1000,77728896,1591,1589,1541,1543
46551372,1000,1000,1000,1000,77828856,1588,1587,1542,1545
46553871,1000,1000,1000,1000,77928816,1586,1585,1546,1549
46556370,1000,1000,1000,1000,78028776,1583,1582,1550,1554
46558869,1000,1000,1000,1000,78128736,1578,1577,1556,1560
46561368,1000,1000,1000,1000,78228696,1573,1571,1564,1567
46563867,1000,1000,1000,1000,78328656,1567,1564,1573,1575
46566366,1000,1000,1000,1000,78428616,1559,1557,1582,1583
46568865,1000,1000,1000,1000,78528576,1551,1549,1591,1591
46571364,1000,1000,1000,1000,78628536,1543,1541,1600,1599
46573863,1000,1000,1000,1000,78728496,1536,1536,1607,1606
46576362,1000,1000,1000,1000,78828456,1532,1533,1611,1610
46578861,1000,1000,1000,1000,78928416,1531,1533,1611,1611
46581360,1000,1000,1000,1000,79028376,1533,1535,1609,1609
46583859,1000,1000,1000,1000,79128336,1537,1540,1604,1605
46586358,1000,1000,1000,1000,79228296,1543,1545,1597,1598
46588857,1000,1000,1000,1000,79328256,1551,1552,1591,1591
46591356,1000,1000,1000,1000,79428216,1559,1559,1584,1583
46593855,1000,1000,1000,1000,79528176,1568,1568,1579,1578
46596354,1000,1000,1000,1000,79628969,1575,1574,1573,1571
46598853,1000,1000,1000,1000,79728929,1581,1580,1568,1568
46601352,1000,1000,1000,1000,79828889,1586,1584,1566,1566
46603851,1000,1000,1000,1000,79928849,1589,1587,1566,1566
46606350,1000,1000,1000,1000,80028809,1590,1588,1566,1567
46608849,1000,1000,1000,1000,80128769,1590,1588,1568,1568
46611348,1000,1000,1000,1000,80228729,1588,1588,1570,1571
46613847,1000,1000,1000,1000,80328689,1587,1587,1572,1573
46616346,1000,1000,1000,1000,80428649,1584,1585,1575,1575
46618845,1000,1000,1000,1000,80528609,1583,1583,1577,1577
46621344,1000,1000,1000,1000,80628569,1581,1581,1579,1579
46623843,1000,1000,1000,1000,80728529,1579,1579,1581,1581
46626342,1000,1000,1000,1000,80828489,1577,1578,1583,1583
46628841,1000,1000,1000,1000,80928449,1576,1576,1584,1583
46631340,1000,1000,1000,1000,81028409,1575,1575,1584,1584
46633839,1000,1000,1000,1000,81128369,1574,1574,1583,1583
46636338,1000,1000,1000,1000,81228329,1574,1575,1583,1583
46638837,1000,1000,1000,1000,81328289,1574,1574,1582,1582
46641336,1000,1000,1000,1000,81428249,1575,1575,1581,1581
46643835,1000,1000,1000,1000,81528209,1577,1577,1581,1582
46646334,1000,1000,1000,1000,81628169,1578,1578,1581,1580
46648833,1000,1000,1000,1000,81728962,1578,1578,1579,1579
46651332,1000,1000,1000,1000,81828922,1581,1580,1580,1580
46653831,1000,1000,1000,1000,81928882,1581,1581,1579,1578
46656330,1000,1000,1000,1000,82028842,1582,1582,1579,1579
46658829,1000,1000,1000,1000,82128802,1583,1583,1579,1579
46661328,1000,1000,1000,1000,82228762,1582,1582,1577,1577
46663827,1000,1000,1000,1000,82328722,1583,1583,1579,1579
46666326,1000,1000,1000,1000,82428682,1582,1582,1578,1578
46668825,1000,1000,1000,1000,82528642,1582,1582,1579,1579
46671324,1000,1000,1000,1000,82628602,1581,1581,1579,1579
46673823,1000,1000,1000,1000,82728562,1581,1581,1580,1580
46676322,1000,1000,1000,1000,82828522,1581,1581,1580,1580
46678821,1000,1000,1000,1000,82928482,1580,1580,1580,1580
46681320,1000,1000,1000,1000,83028442,1580,1580,1581,1581
46683819,1000,1000,1000,1000,83128402,1580,1580,1581,1581
46686318,1000,1000,1000,1000,83228362,1579,1579,1581,1581
46688817,1000,1000,1000,1000,83328322,1580,1580,1581,1581
46691316,1000,1000,1000,1000,83428282,1580,1580,1582,1582
46693815,1000,1000,1000,1000,83528242,1580,1580,1588,1575
46696314,1000,1000,1000,1000,83628202,1580,1579,1586,1574
46698813,1000,1000,1000,1000,83728162,1578,1577,1578,1574
46701312,1000,1000,1000,1000,83828955,1575,1575,1571,1575
46703811,1000,1000,1000,1000,83928915,1572,1572,1565,1573
46706310,1000,1000,1000,1000,84028875,1569,1570,1563,1569
46708809,1000,1000,1000,1000,84128835,1568,1568,1563,1568
46711308,1000,1000,1000,1000,84228795,1567,1568,1565,1566
46713807,1000,1000,1000,1000,84328755,1566,1567,1566,1565
46716306,1000,1000,1000,1000,84428715,1565,1565,1567,1564
46718805,1000,1000,1000,1000,84528675,1565,1565,1567,1564
46721304,1000,1000,1000,1000,84628635,1565,1565,1567,1565
46723803,1000,1000,1000,1000,84728595,1564,1564,1566,1566
46726302,1000,1000,1000,1000,84828555,1563,1563,1565,1565
46728801,1000,1000,1000,1000,84928515,1562,1562,1563,1564
46731300,1000,1000,1000,1000,85028475,1561,1561,1562,1562
46733799,1000,1000,1000,1000,85128435,1561,1561,1562,1562
46736298,1000,1000,1000,1000,85228395,1561,1561,1561,1560
46738797,1000,1000,1000,1000,85328355,1561,1561,1561,1561
46741296,1000,1000,1000,1000,85428315,1560,1560,1561,1560
46743795,1000,1000,1000,1000,85528275,1560,1560,1560,1560
46746294,1000,1000,1000,1000,85628235,1560,1560,1560,1560
46748793,1000,1000,1000,1000,85728195,1560,1559,1560,1559
46751292,1000,1000,1000,1000,85828155,1559,1559,1560,1559
46753791,1000,1000,1000,1000,85928948,1559,1559,1560,1559
46756290,1000,1000,1000,1000,86028908,1558,1558,1559,1557
46758789,1000,1000,1000,1000,86128868,1559,1559,1560,1558
46761288,1000,1000,1000,1000,86228828,1559,1559,1560,1557
46763787,1000,1000,1000,1000,86328788,1560,1559,1561,1559
46766286,1000,1000,1000,1000,86428748,1560,1559,1559,1562
46768785,1000,1000,1000,1000,86528708,1560,1560,1557,1564
46771284,1000,1000,1000,1000,86628668,1560,1561,1558,1564
46773783,1000,1000,1000,1000,86728628,1560,1562,1558,1565
46776282,1000,1000,1000,1000,86828588,1560,1561,1559,1561
46778781,1000,1000,1000,1000,86928548,1559,1559,1559,1557
46781280,1000,1000,1000,1000,87028508,1559,1559,1558,1558
46783779,1000,1000,1000,1000,87128468,1557,1557,1555,1557
46786278,1000,1000,1000,1000,87228428,1554,1554,1550,1553
46788777,1000,1000,1000,1000,87328388,1550,1549,1545,1546
46791276,1000,1000,1000,1000,87428348,1545,1544,1540,1540
46793775,1000,1000,1000,1000,87528308,1539,1538,1533,1532
46796274,1000,1000,1000,1000,87628268,1532,1531,1526,1525
46798773,1000,1000,1000,1000,87728228,1525,1526,1520,1520
46801272,1000,1000,1000,1000,87828188,1522,1522,1519,1518
46803771,1000,1000,1000,1000,87928981,1519,1519,1518,1519
46806270,1000,1000,1000,1000,88028941,1518,1519,1521,1522
46808769,1000,1000,1000,1000,88128901,1520,1520,1525,1526
46811268,1000,1000,1000,1000,88228861,1522,1521,1529,1530
46813767,1000,1000,1000,1000,88328821,1525,1525,1535,1535
46816266,1000,1000,1000,1000,88428781,1530,1530,1540,1540
46818765,1000,1000,1000,1000,88528741,1533,1533,1543,1543
46821264,1000,1000,1000,1000,88628701,1536,1537,1545,1545
46823763,1000,1000,1000,1000,88728661,1539,1540,1545,1545
46826262,1000,1000,1000,1000,88828621,1543,1543,1546,1546
46828761,1000,1000,1000,1000,88928581,1545,1546,1546,1545
46831260,1000,1000,1000,1000,89028541,1547,1547,1545,1544
46833759,1000,1000,1000,1000,89128501,1549,1549,1545,1544
46836258,1000,1000,1000,1000,89228461,1550,1550,1544,1544
46838757,1000,1000,1000,1000,89328421,1551,1550,1544,1544
46841256,1000,1000,1000,1000,89428381,1550,1550,1543,1543
46843755,1000,1000,1000,1000,89528341,1551,1550,1544,1544
46846254,1000,1000,1000,1000,89628301,1549,1549,1543,1543
46848753,1000,1000,1000,1000,89728261,1548,1549,1544,1544
46851252,1000,1000,1000,1000,89828221,1548,1548,1545,1545
46853751,1000,1000,1000,1000,89928181,1546,1546,1545,1544
46856250,1000,1000,1000,1000,90028974,1546,1546,1546,1546
46858749,1000,1000,1000,1000,90128934,1545,1544,1546,1545
46861248,1000,1000,1000,1000,90228894,1543,1544,1545,1545
46863747,1000,1000,1000,1000,90328854,1543,1543,1545,1546
46866246,1000,1000,1000,1000,90428814,1543,1543,1545,1546
46868745,1000,1000,1000,1000,90528774,1542,1542,1545,1545
46871244,1000,1000,1000,1000,90628734,1543,1543,1545,1545
46873743,1000,1000,1000,1000,90728694,1543,1543,1546,1545
46876242,1000,1000,1000,1000,90828654,1543,1543,1545,1544
46878741,1000,1000,1000,1000,90928614,1543,1543,1544,1545
46881240,1000,1000,1000,1000,91028574,1543,1544,1544,1544
46883739,1000,1000,1000,1000,91128534,1544,1544,1544,1544
46886238,1000,1000,1000,1000,91228494,1544,1544,1543,1543
46888737,1000,1000,1000,1000,91328454,1544,1544,1542,1542
46891236,1000,1000,1000,1000,91428414,1544,1544,1542,1542
46893735,1000,1000,1000,1000,91528374,1544,1543,1542,1542
46896234,1000,1000,1000,1000,91628334,1544,1543,1543,1542
46898733,1000,1000,1000,1000,91728294,1544,1544,1543,1543
46901232,1000,1000,1000,1000,91828254,1543,1544,1544,1543
46903731,1000,1000,1000,1000,91928214,1544,1544,1543,1544
46906230,1000,1000,1000,1000,92028174,1544,1544,1544,1544
46908729,1000,1000,1000,1000,92128967,1544,1543,1544,1543
46911228,1000,1000,1000,1000,92228927,1544,1544,1544,1544
46913727,1000,1000,1000,1000,92328887,1543,1543,1543,1544
46916226,1000,1000,1000,1000,92428847,1543,1543,1544,1544
46918725,1000,1000,1000,1000,92528807,1544,1544,1544,1544
46921224,1000,1000,1000,1000,92628767,1544,1544,1544,1544
46923723,1000,1000,1000,1000,92728727,1545,1544,1545,1545
46926222,1000,1000,1000,1000,92828687,1544,1544,1544,1545
46928721,1000,1000,1000,1000,92928647,1545,1545,1545,1545
46931220,1000,1000,1000,1000,93028607,1544,1544,1545,1544
46933719,1000,1000,1000,1000,93128567,1544,1544,1544,1544
46936218,1000,1000,1000,1000,93228527,1545,1545,1545,1545
46938717,1000,1000,1000,1000,93328487,1545,1545,1544,1544
46941216,1000,1000,1000,1000,93428447,1545,1546,1545,1545
46943715,1000,1000,1000,1000,93528407,1545,1545,1545,1545
46946214,1000,1000,1000,1000,93628367,1545,1544,1544,1544
46948713,1000,1000,1000,1000,93728327,1545,1544,1544,1544
46951212,1000,1000,1000,1000,93828287,1544,1544,1543,1543
46953711,1000,1000,1000,1000,93928247,1544,1544,1543,1544
46956210,1000,1000,1000,1000,94028207,1544,1544,1543,1544
46958709,1000,1000,1000,1000,94128167,1545,1545,1545,1545
46961208,1000,1000,1000,1000,94228960,1544,1544,1544,1543
46963707,1000,1000,1000,1000,94328920,1544,1544,1544,1544
46966206,1000,1000,1000,1000,94428880,1544,1545,1545,1544
46968705,1000,1000,1000,1000,94528840,1544,1544,1545,1545
46971204,1000,1000,1000,1000,94628800,1545,1544,1544,1545
46973703,1000,1000,1000,1000,94728760,1544,1544,1544,1544
46976202,1000,1000,1000,1000,94828720,1545,1545,1545,1545
46978701,1000,1000,1000,1000,94928680,1545,1545,1545,1545
46981200,1000,1000,1000,1000,95028640,1545,1545,1545,1544
46983699,1000,1000,1000,1000,95128600,1544,1544,1543,1544
46986198,1000,1000,1000,1000,95228560,1544,1544,1544,1544
46988697,1000,1000,1000,1000,95328520,1545,1545,1544,1545
46991196,1000,1000,1000,1000,95428480,1545,1545,1544,1545
46993695,1000,1000,1000,1000,95528440,1545,1545,1545,1545
46996194,1000,1000,1000,1000,95628400,1545,1545,1546,1545
46998693,1000,1000,1000,1000,95728360,1545,1545,1545,1544
47001192,1000,1000,1000,1000,95828320,1544,1544,1544,1544
47003691,1000,1000,1000,1000,95928280,1545,1545,1545,1545
47006190,1000,1000,1000,1000,96028240,1545,1544,1544,1544
47008689,1000,1000,1000,1000,96128200,1544,1544,1544,1544
47011188,1000,1000,1000,1000,96228160,1544,1543,1543,1544
47013687,1000,1000,1000,1000,96328953,1544,1544,1543,1544
47016186,1000,1000,1000,1000,96428913,1543,1544,1543,1544
47018685,1000,1000,1000,1000,96528873,1544,1545,1545,1545
47021184,1000,1000,1000,1000,96628833,1544,1544,1545,1544
47023683,1000,1000,1000,1000,96728793,1545,1544,1545,1544
47026182,1000,1000,1000,1000,96828753,1544,1544,1544,1543
47028681,1000,1000,1000,1000,96928713,1545,1544,1545,1545
47031180,1000,1000,1000,1000,97028673,1545,1545,1545,1545
47033679,1000,1000,1000,1000,97128633,1544,1544,1544,1545
47036178,1000,1000,1000,1000,97228593,1544,1545,1545,1545
47038677,1000,1000,1000,1000,97328553,1544,1544,1544,1544
47041176,1000,1000,1000,1000,97428513,1531,1531,1525,1525
47043675,1000,1000,1000,1000,97528473,1412,1410,1335,1338
47046174,1000,1000,1000,1000,97628433,1360,1358,1241,1243
47048673,1000,1000,1000,1000,97728393,1345,1344,1212,1215
47051172,1000,1000,1000,1000,97828353,1335,1334,1192,1194
47053671,1000,1000,1000,1000,97928313,1316,1315,1150,1153
47056170,1000,1000,1000,1000,98028273,1244,1243,1150,1152
47058669,1000,1000,1000,1000,98128233,1152,1150,1150,1153
47061168,1000,1000,1000,1000,98228193,1052,1050,1150,1152
47063667,1000,1000,1000,1000,98328986,975,973,1150,1152
47066166,1000,1000,1000,1000,98428946,975,973,1150,1152
47068665,1000,1000,1000,1000,98528906,975,973,1150,1152
47071164,1000,1000,1000,1000,98628866,975,961,1150,1169
47073663,1000,1000,1000,1000,98728826,975,964,1150,1165
47076162,1000,1000,1000,1000,98828786,975,967,1150,1161
47078661,1000,1000,1000,1000,98928746,975,967,1150,1160
47081160,1000,1000,1000,1000,99028706,975,968,1150,1160
47083659,1000,1000,1000,1000,99128666,975,967,1150,1160
47086158,1000,1000,1000,1000,99228626,975,967,1150,1160
47088657,1000,1000,1000,1000,99328586,975,967,1150,1160
47091156,1000,1000,1000,1000,99428546,975,975,1150,1150
47093655,1000,1000,1000,1000,99528506,975,973,1150,1152
47096154,1000,1000,1000,1000,99628466,975,973,1150,1152
47098653,1000,1000,1000,1000,99728426,975,973,1150,1152
47101152,1000,1000,1000,1000,99828386,975,973,1150,1153
47103651,1000,1000,1000,1000,99928346,1000,1000,1000,1000
47106150,1000,1000,1000,1000,100028306,1000,1000,1000,1000
47108649,1000,1000,1000,1000,100128266,1000,1000,1000,1000
47111148,1000,1000,1000,1000,100228226,1000,1000,1000,1000
47113647,1000,1000,1000,1000,100328186,1000,1000,1000,1000
47116146,1000,1000,1000,1000,100428979,1000,1000,1000,1000
47118645,1000,1000,1000,1000,100528939,1000,1000,1000,1000
47121144,1000,1000,1000,1000,100628899,1000,1000,1000,1000
47123643,1000,1000,1000,1000,100728859,1000,1000,1000,1000
47126142,1000,1000,1000,1000,100828819,1000,1000,1000,1000
47128641,1000,1000,1000,1000,100928779,1000,1000,1000,1000
47131140,1000,1000,1000,1000,101028739,1000,1000,1000,1000
47133639,1000,1000,1000,1000,101128699,1000,1000,1000,1000
47136138,1000,1000,1000,1000,101228659,1000,1000,1000,1000
47138637,1000,1000,1000,1000,101328619,1000,1000,1000,1000
47141136,1000,1000,1000,1000,101428579,1000,1000,1000,1000
47143635,1000,1000,1000,1000,101528539,1000,1000,1000,1000
47146134,1000,1000,1000,1000,101628499,1000,1000,1000,1000
47148633,1000,1000,1000,1000,101728459,1000,1000,1000,1000
47151132,1000,1000,1000,1000,101828419,1000,1000,1000,1000
47153631,1000,1000,1000,1000,101928379,1000,1000,1000,1000
47156130,1000,1000,1000,1000,102028339,1000,1000,1000,1000
47158629,1000,1000,1000,1000,102128299,1000,1000,1000,1000
47161128,1000,1000,1000,1000,102228259,1000,1000,1000,1000
47163627,1000,1000,1000,1000,102328219,1000,1000,1000,1000
47166126,1000,1000,1000,1000,102428179,1000,1000,1000,1000
47168625,1000,1000,1000,1000,102528972,1000,1000,1000,1000
47171124,1000,1000,1000,1000,102628932,1000,1000,1000,1000
47173623,1000,1000,1000,1000,102728892,1000,1000,1000,1000
47176122,1000,1000,1000,1000,102828852,1000,1000,1000,1000
47178621,1000,1000,1000,1000,102928812,1000,1000,1000,1000
47181120,1000,1000,1000,1000,103028772,1000,1000,1000,1000
47183619,1000,1000,1000,1000,103128732,1000,1000,1000,1000
47186118,1000,1000,1000,1000,103228692,1000,1000,1000,1000
47188617,1000,1000,1000,1000,103328652,1000,1000,1000,1000
47191116,1000,1000,1000,1000,103428612,1000,1000,1000,1000
47193615,1000,1000,1000,1000,103528572,1000,1000,1000,1000
47196114,1000,1000,1000,1000,103628532,1000,1000,1000,1000
47198613,1000,1000,1000,1000,103728492,1000,1000,1000,1000
47201112,1000,1000,1000,1000,103828452,1000,1000,1000,1000
47203611,1000,1000,1000,1000,103928412,1000,1000,1000,1000
47206110,1000,1000,1000,1000,104028372,1000,1000,1000,1000
47208609,1000,1000,1000,1000,104128332,1000,1000,1000,1000
47211108,1000,1000,1000,1000,104228292,1000,1000,1000,1000
47213607,1000,1000,1000,1000,104328252,1000,1000,1000,1000
47216106,1000,1000,1000,1000,104428212,1000,1000,1000,1000
47218605,1000,1000,1000,1000,104528172,1000,1000,1000,1000
47221104,1000,1000,1000,1000,104628965,1000,1000,1000,1000
47223603,1000,1000,1000,1000,104728925,1000,1000,1000,1000
47226102,1000,1000,1000,1000,104828885,1000,1000,1000,1000
47228601,1000,1000,1000,1000,104928845,1000,1000,1000,1000
47231100,1000,1000,1000,1000,105028805,1000,1000,1000,1000
47233599,1000,1000,1000,1000,105128765,1000,1000,1000,1000
47236098,1000,1000,1000,1000,105228725,1000,1000,1000,1000
47238597,1000,1000,1000,1000,105328685,1000,1000,1000,1000
47241096,1000,1000,1000,1000,105428645,1000,1000,1000,1000
47243595,1000,1000,1000,1000,105528605,1000,1000,1000,1000
47246094,1000,1000,1000,1000,105628565,1000,1000,1000,1000
47248593,1000,1000,1000,1000,105728525,1000,1000,1000,1000
47251092,1000,1000,1000,1000,105828485,1000,1000,1000,1000
47253591,1000,1000,1000,1000,105928445,1000,1000,1000,1000
47256090,1000,1000,1000,1000,106028405,1000,1000,1000,1000
47258589,1000,1000,1000,1000,106128365,1000,1000,1000,1000
47261088,1000,1000,1000,1000,106228325,1000,1000,1000,1000
47263587,1000,1000,1000,1000,106328285,1000,1000,1000,1000
47266086,1000,1000,1000,1000,106428245,1000,1000,1000,1000
47268585,1000,1000,1000,1000,106528205,1000,1000,1000,1000
47271084,1000,1000,1000,1000,106628165,1000,1000,1000,1000
47273583,1000,1000,1000,1000,106728958,1000,1000,1000,1000
47276082,1000,1000,1000,1000,106828918,1000,1000,1000,1000
47278581,1000,1000,1000,1000,106928878,1000,1000,1000,1000
47281080,1000,1000,1000,1000,107028838,1000,1000,1000,1000
47283579,1000,1000,1000,1000,107128798,1000,1000,1000,1000
47286078,1000,1000,1000,1000,107228758,1000,1000,1000,1000
47288577,1000,1000,1000,1000,107328718,1000,1000,1000,1000
47291076,1000,1000,1000,1000,107428678,1000,1000,1000,1000
47293575,1000,1000,1000,1000,107528638,1000,1000,1000,1000
47296074,1000,1000,1000,1000,107628598,1000,1000,1000,1000
47298573,1000,1000,1000,1000,107728558,1000,1000,1000,1000
47301072,1000,1000,1000,1000,107828518,1000,1000,1000,1000
47303571,1000,1000,1000,1000,107928478,1000,1000,1000,1000
47306070,1000,1000,1000,1000,108028438,1000,1000,1000,1000
47308569,1000,1000,1000,1000,108128398,1000,1000,1000,1000
47311068,1000,1000,1000,1000,108228358,1000,1000,1000,1000
47313567,1000,1000,1000,1000,108328318,1000,1000,1000,1000
47316066,1000,1000,1000,1000,108428278,1000,1000,1000,1000
47318565,1000,1000,1000,1000,108528238,1000,1000,1000,1000
47321064,1000,1000,1000,1000,108628198,1000,1000,1000,1000
47323563,1000,1000,1000,1000,108728158,1000,1000,1000,1000
47326062,1000,1000,1000,1000,108828951,1000,1000,1000,1000
47328561,1000,1000,1000,1000,108928911,1000,1000,1000,1000
47331060,1000,1000,1000,1000,109028871,1000,1000,1000,1000
47333559,1000,1000,1000,1000,109128831,1000,1000,1000,1000
47336058,1000,1000,1000,1000,109228791,1000,1000,1000,1000
47338557,1000,1000,1000,1000,109328751,1000,1000,1000,1000
47341056,1000,1000,1000,1000,109428711,1000,1000,1000,1000
47343555,1000,1000,1000,1000,109528671,1000,1000,1000,1000
47346054,1000,1000,1000,1000,109628631,1000,1000,1000,1000
47348553,1000,1000,1000,1000,109728591,1000,1000,1000,1000
47351052,1000,1000,1000,1000,109828551,1000,1000,1000,1000
47353551,1000,1000,1000,1000,109928511,1000,1000,1000,1000
47356050,1000,1000,1000,1000,110028471,1000,1000,1000,1000
47358549,1000,1000,1000,1000,110128431,1000,1000,1000,1000
47361048,1000,1000,1000,1000,110228391,1000,1000,1000,1000
47363547,1000,1000,1000,1000,110328351,1000,1000,1000,1000
47366046,1000,1000,1000,1000,110428311,1000,1000,1000,1000
47368545,1000,1000,1000,1000,110528271,1000,1000,1000,1000
47371044,1000,1000,1000,1000,110628231,1000,1000,1000,1000
47373543,1000,1000,1000,1000,110728191,1000,1000,1000,1000
47376042,1000,1000,1000,1000,110828984,1000,1000,1000,1000
47378541,1000,1000,1000,1000,110928944,1000,1000,1000,1000
47381040,1000,1000,1000,1000,111028904,1000,1000,1000,1000
47383539,1000,1000,1000,1000,111128864,1000,1000,1000,1000
47386038,1000,1000,1000,1000,111228824,1000,1000,1000,1000
47388537,1000,1000,1000,1000,111328784,1000,1000,1000,1000
47391036,1000,1000,1000,1000,111428744,1000,1000,1000,1000
47393535,1000,1000,1000,1000,111528704,1000,1000,1000,1000
47396034,1000,1000,1000,1000,111628664,1000,1000,1000,1000
47398533,1000,1000,1000,1000,111728624,1000,1000,1000,1000
47401032,1000,1000,1000,1000,111828584,1000,1000,1000,1000
47403531,1000,1000,1000,1000,111928544,1000,1000,1000,1000
47406030,1000,1000,1000,1000,112028504,1000,1000,1000,1000
47408529,1000,1000,1000,1000,112128464,1000,1000,1000,1000
47411028,1000,1000,1000,1000,112228424,1000,1000,1000,1000
47413527,1000,1000,1000,1000,112328384,1000,1000,1000,1000
47416026,1000,1000,1000,1000,112428344,1000,1000,1000,1000
47418525,1000,1000,1000,1000,112528304,1000,1000,1000,1000
47421024,1000,1000,1000,1000,112628264,1000,1000,1000,1000
47423523,1000,1000,1000,1000,112728224,1000,1000,1000,1000
47426022,1000,1000,1000,1000,112828184,1000,1000,1000,1000
47428521,1000,1000,1000,1000,112928977,1000,1000,1000,1000
47431020,1000,1000,1000,1000,113028937,1000,1000,1000,1000
47433519,1000,1000,1000,1000,113128897,1000,1000,1000,1000
47436018,1000,1000,1000,1000,113228857,1000,1000,1000,1000
47438517,1000,1000,1000,1000,113328817,1000,1000,1000,1000
47441016,1000,1000,1000,1000,113428777,1000,1000,1000,1000
47443515,1000,1000,1000,1000,113528737,1000,1000,1000,1000
47446014,1000,1000,1000,1000,113628697,1000,1000,1000,1000
47448513,1000,1000,1000,1000,113728657,1000,1000,1000,1000
47451012,1000,1000,1000,1000,113828617,1000,1000,1000,1000
47453511,1000,1000,1000,1000,113928577,1000,1000,1000,1000
47456010,1000,1000,1000,1000,114028537,1000,1000,1000,1000
47458509,1000,1000,1000,1000,114128497,1000,1000,1000,1000
47461008,1000,1000,1000,1000,114228457,1000,1000,1000,1000
47463507,1000,1000,1000,1000,114328417,1000,1000,1000,1000
47466006,1000,1000,1000,1000,114428377,1000,1000,1000,1000
47468505,1000,1000,1000,1000,114528337,1000,1000,1000,1000
47471004,1000,1000,1000,1000,114628297,1000,1000,1000,1000
47473503,1000,1000,1000,1000,114728257,1000,1000,1000,1000
47476002,1000,1000,1000,1000,114828217,1000,1000,1000,1000
47478501,1000,1000,1000,1000,,,,,
47481000,1000,1000,1000,1000,,,,,
47483499,1000,1000,1000,1000,,,,,
47485998,1000,1000,1000,1000,,,,,
47488497,1000,1000,1000,1000,,,,,
47490996,1000,1000,1000,1000,,,,,
47493495,1000,1000,1000,1000,,,,,
47495994,1000,1000,1000,1000,,,,,
47498493,1000,1000,1000,1000,,,,,
47500992,1000,1000,1000,1000,,,,,
47503491,1000,1000,1000,1000,,,,,
47505990,1000,1000,1000,1000,,,,,
47508489,1000,1000,1000,1000,,,,,
47510988,1000,1000,1000,1000,,,,,
47513487,1000,1000,1000,1000,,,,,
47515986,1000,1000,1000,1000,,,,,
47518485,1000,1000,1000,1000,,,,,
47520984,1000,1000,1000,1000,,,,,
47523483,1000,1000,1000,1000,,,,,
47525982,1000,1000,1000,1000,,,,,
47528481,1000,1000,1000,1000,,,,,
47530980,1000,1000,1000,1000,,,,,
47533479,1000,1000,1000,1000,,,,,
47535978,1000,1000,1000,1000,,,,,
47538477,1000,1000,1000,1000,,,,,
47540976,1000,1000,1000,1000,,,,,
47543475,1000,1000,1000,1000,,,,,
47545974,1000,1000,1000,1000,,,,,
47548473,1000,1000,1000,1000,,,,,
47550972,1000,1000,1000,1000,,,,,
47553471,1000,1000,1000,1000,,,,,
47555970,1000,1000,1000,1000,,,,,
47558469,1000,1000,1000,1000,,,,,
47560968,1000,1000,1000,1000,,,,,
47563467,1000,1000,1000,1000,,,,,
47565966,1000,1000,1000,1000,,,,,
47568465,1000,1000,1000,1000,,,,,
47570964,1000,1000,1000,1000,,,,,
47573463,1000,1000,1000,1000,,,,,
47575962,1000,1000,1000,1000,,,,,
47578461,1000,1000,1000,1000,,,,,
47580960,1000,1000,1000,1000,,,,,
47583459,1000,1000,1000,1000,,,,,
47585958,1000,1000,1000,1000,,,,,
47588457,1000,1000,1000,1000,,,,,
47590956,1000,1000,1000,1000,,,,,
47593455,1000,1000,1000,1000,,,,,
47595954,1000,1000,1000,1000,,,,,
47598453,1000,1000,1000,1000,,,,,
47600952,1000,1000,1000,1000,,,,,
47603451,1000,1000,1000,1000,,,,,
47605950,1000,1000,1000,1000,,,,,
47608449,1000,1000,1000,1000,,,,,
47610948,1000,1000,1000,1000,,,,,
47613447,1000,1000,1000,1000,,,,,
47615946,1000,1000,1000,1000,,,,,
47618445,1000,1000,1000,1000,,,,,
47620944,1000,1000,1000,1000,,,,,
47623443,1000,1000,1000,1000,,,,,
47625942,1000,1000,1000,1000,,,,,
47628441,1000,1000,1000,1000,,,,,
47630940,1000,1000,1000,1000,,,,,
47633439,1000,1000,1000,1000,,,,,
47635938,1000,1000,1000,1000,,,,,
47638437,1000,1000,1000,1000,,,,,
47640936,1000,1000,1000,1000,,,,,
47643435,1000,1000,1000,1000,,,,,
47645934,1000,1000,1000,1000,,,,,
47648433,1000,1000,1000,1000,,,,,
47650932,1000,1000,1000,1000,,,,,
47653431,1000,1000,1000,1000,,,,,
47655930,1000,1000,1000,1000,,,,,
47658429,1000,1000,1000,1000,,,,,
47660928,1000,1000,1000,1000,,,,,
47663427,1000,1000,1000,1000,,,,,
47665926,1000,1000,1000,1000,,,,,
47668425,1000,1000,1000,1000,,,,,
47670924,1000,1000,1000,1000,,,,,
47673423,1000,1000,1000,1000,,,,,
47675922,1000,1000,1000,1000,,,,,
47678421,1000,1000,1000,1000,,,,,
47680920,1000,1000,1000,1000,,,,,
47683419,1000,1000,1000,1000,,,,,
47685918,1000,1000,1000,1000,,,,,
47688417,1000,1000,1000,1000,,,,,
47690916,1000,1000,1000,1000,,,,,
47693415,1000,1000,1000,1000,,,,,
47695914,1000,1000,1000,1000,,,,,
47698413,1000,1000,1000,1000,,,,,
47700912,1000,1000,1000,1000,,,,,
47703411,1000,1000,1000,1000,,,,,
47705910,1000,1000,1000,1000,,,,,
47708409,1000,1000,1000,1000,,,,,
47710908,1000,1000,1000,1000,,,,,
47713407,1000,1000,1000,1000,,,,,
47715906,1000,1000,1000,1000,,,,,
47718405,1000,1000,1000,1000,,,,,
47720904,1000,1000,1000,1000,,,,,
47723403,1000,1000,1000,1000,,,,,
47725902,1000,1000,1000,1000,,,,,
47728401,1000,1000,1000,1000,,,,,
47730900,1000,1000,1000,1000,,,,,
47733399,1000,1000,1000,1000,,,,,
47735898,1000,1000,1000,1000,,,,,
47738397,1000,1000,1000,1000,,,,,
47740896,1000,1000,1000,1000,,,,,
47743395,1000,1000,1000,1000,,,,,
47745894,1000,1000,1000,1000,,,,,
47748393,1000,1000,1000,1000,,,,,
47750892,1000,1000,1000,1000,,,,,
47753391,1000,1000,1000,1000,,,,,
47755890,1000,1000,1000,1000,,,,,
47758389,1001,1001,1001,1001,,,,,
47760888,1002,1002,1002,1002,,,,,
47763387,1003,1003,1003,1003,,,,,
47765886,1003,1003,1003,1003,,,,,
47768385,1004,1004,1004,1004,,,,,
47770884,1005,1005,1005,1005,,,,,
47773383,1006,1006,1006,1006,,,,,
47775882,1006,1006,1006,1006,,,,,
47778381,1007,1007,1007,1007,,,,,
47780880,1008,1008,1008,1008,,,,,
47783379,1009,1009,1009,1009,,,,,
47785878,1009,1009,1009,1009,,,,,
47788377,1010,1010,1010,1010,,,,,
47790876,1011,1011,1011,1011,,,,,
47793375,1012,1012,1012,1012,,,,,
47795874,1012,1012,1012,1012,,,,,
47798373,1013,1013,1013,1013,,,,,
47800872,1014,1014,1014,1014,,,,,
47803371,1015,1015,1015,1015,,,,,
47805870,1015,1015,1015,1015,,,,,
47808369,1016,1016,1016,1016,,,,,
47810868,1017,1017,1017,1017,,,,,
47813367,1018,1018,1018,1018,,,,,
47815866,1018,1018,1018,1018,,,,,
47818365,1019,1019,1019,1019,,,,,
47820864,1020,1020,1020,1020,,,,,
47823363,1021,1021,1021,1021,,,,,
47825862,1021,1021,1021,1021,,,,,
47828361,1022,1022,1022,1022,,,,,
47830860,1023,1023,1023,1023,,,,,
47833359,1024,1024,1024,1024,,,,,
47835858,1024,1024,1024,1024,,,,,
47838357,1025,1025,1025,1025,,,,,
47840856,1026,1026,1026,1026,,,,,
47843355,1027,1027,1027,1027,,,,,
47845854,1027,1027,1027,1027,,,,,
47848353,1028,1028,1028,1028,,,,,
47850852,1029,1029,1029,1029,,,,,
47853351,1030,1030,1030,1030,,,,,
47855850,1030,1030,1030,1030,,,,,
47858349,1031,1031,1031,1031,,,,,
47860848,1032,1032,1032,1032,,,,,
47863347,1033,1033,1033,1033,,,,,
47865846,1033,1033,1033,1033,,,,,
47868345,1034,1034,1034,1034,,,,,
47870844,1035,1035,1035,1035,,,,,
47873343,1036,1036,1036,1036,,,,,
47875842,1036,1036,1036,1036,,,,,
47878341,1037,1037,1037,1037,,,,,
47880840,1038,1038,1038,1038,,,,,
47883339,1039,1039,1039,1039,,,,,
47885838,1039,1039,1039,1039,,,,,
47888337,1040,1040,1040,1040,,,,,
47890836,1041,1041,1041,1041,,,,,
47893335,1042,1042,1042,1042,,,,,
47895834,1042,1042,1042,1042,,,,,
47898333,1043,1043,1043,1043,,,,,
47900832,1044,1044,1044,1044,,,,,
47903331,1045,1045,1045,1045,,,,,
47905830,1045,1045,1045,1045,,,,,
47908329,1046,1046,1046,1046,,,,,
47910828,1047,1047,1047,1047,,,,,
47913327,1048,1048,1048,1048,,,,,
47915826,1048,1048,1048,1048,,,,,
47918325,1049,1049,1049,1049,,,,,
47920824,1050,1050,1050,1050,,,,,
47923323,1051,1051,1051,1051,,,,,
47925822,1051,1051,1051,1051,,,,,
47928321,1052,1052,1052,1052,,,,,
47930820,1053,1053,1053,1053,,,,,
47933319,1054,1054,1054,1054,,,,,
47935818,1054,1054,1054,1054,,,,,
47938317,1055,1055,1055,1055,,,,,
47940816,1056,1056,1056,1056,,,,,
47943315,1057,1057,1057,1057,,,,,
47945814,1057,1057,1057,1057,,,,,
47948313,1058,1058,1058,1058,,,,,
47950812,1059,1059,1059,1059,,,,,
47953311,1060,1060,1060,1060,,,,,
47955810,1060,1060,1060,1060,,,,,
47958309,1061,1061,1061,1061,,,,,
47960808,1062,1062,1062,1062,,,,,
47963307,1063,1063,1063,1063,,,,,
47965806,1063,1063,1063,1063,,,,,
47968305,1064,1064,1064,1064,,,,,
47970804,1065,1065,1065,1065,,,,,
47973303,1066,1066,1066,1066,,,,,
47975802,1066,1066,1066,1066,,,,,
47978301,1067,1067,1067,1067,,,,,
47980800,1068,1068,1068,1068,,,,,
47983299,1069,1069,1069,1069,,,,,
47985798,1069,1069,1069,1069,,,,,
47988297,1070,1070,1070,1070,,,,,
47990796,1071,1071,1071,1071,,,,,
47993295,1072,1072,1072,1072,,,,,
47995794,1072,1072,1072,1072,,,,,
47998293,1073,1073,1073,1073,,,,,
48000792,1074,1074,1074,1074,,,,,
48003291,1075,1075,1075,1075,,,,,
48005790,1075,1075,1075,1075,,,,,
48008289,1076,1076,1076,1076,,,,,
48010788,1077,1077,1077,1077,,,,,
48013287,1078,1078,1078,1078,,,,,
48015786,1078,1078,1078,1078,,,,,
48018285,1079,1079,1079,1079,,,,,
48020784,1080,1080,1080,1080,,,,,
48023283,1081,1081,1081,1081,,,,,
48025782,1081,1081,1081,1081,,,,,
48028281,1082,1082,1082,1082,,,,,
48030780,1083,1083,1083,1083,,,,,
48033279,1084,1084,1084,1084,,,,,
48035778,1084,1084,1084,1084,,,,,
48038277,1085,1085,1085,1085,,,,,
48040776,1086,1086,1086,1086,,,,,
48043275,1087,1087,1087,1087,,,,,
48045774,1087,1087,1087,1087,,,,,
48048273,1088,1088,1088,1088,,,,,
48050772,1089,1089,1089,1089,,,,,
48053271,1090,1090,1090,1090,,,,,
48055770,1090,1090,1090,1090,,,,,
48058269,1091,1091,1091,1091,,,,,
48060768,1092,1092,1092,1092,,,,,
48063267,1093,1093,1093,1093,,,,,
48065766,1093,1093,1093,1093,,,,,
48068265,1094,1094,1094,1094,,,,,
48070764,1095,1095,1095,1095,,,,,
48073263,1096,1096,1096,1096,,,,,
48075762,1096,1096,1096,1096,,,,,
48078261,1097,1097,1097,1097,,,,,
48080760,1098,1098,1098,1098,,,,,
48083259,1099,1099,1099,1099,,,,,
48085758,1099,1099,1099,1099,,,,,
48088257,1100,1100,1100,1100,,,,,
48090756,1101,1101,1101,1101,,,,,
48093255,1101,1101,1101,1101,,,,,
48095754,1102,1102,1102,1102,,,,,
48098253,1103,1103,1103,1103,,,,,
48100752,1104,1104,1104,1104,,,,,
48103251,1104,1104,1104,1104,,,,,
48105750,1105,1105,1105,1105,,,,,
48108249,1106,1106,1106,1106,,,,,
48110748,1107,1107,1107,1107,,,,,
48113247,1107,1107,1107,1107,,,,,
48115746,1108,1108,1108,1108,,,,,
48118245,1109,1109,1109,1109,,,,,
48120744,1110,1110,1110,1110,,,,,
48123243,1110,1110,1110,1110,,,,,
48125742,1111,1111,1111,1111,,,,,
48128241,1112,1112,1112,1112,,,,,
48130740,1113,1113,1113,1113,,,,,
48133239,1113,1113,1113,1113,,,,,
48135738,1114,1114,1114,1114,,,,,
48138237,1115,1115,1115,1115,,,,,
48140736,1116,1116,1116,1116,,,,,
48143235,1116,1116,1116,1116,,,,,
48145734,1117,1117,1117,1117,,,,,
48148233,1118,1118,1118,1118,,,,,
48150732,1119,1119,1119,1119,,,,,
48153231,1119,1119,1119,1119,,,,,
48155730,1120,1120,1120,1120,,,,,
48158229,1121,1121,1121,1121,,,,,
48160728,1122,1122,1122,1122,,,,,
48163227,1122,1122,1122,1122,,,,,
48165726,1123,1123,1123,1123,,,,,
48168225,1124,1124,1124,1124,,,,,
48170724,1125,1125,1125,1125,,,,,
48173223,1125,1125,1125,1125,,,,,
48175722,1126,1126,1126,1126,,,,,
48178221,1127,1127,1127,1127,,,,,
48180720,1128,1128,1128,1128,,,,,
48183219,1128,1128,1128,1128,,,,,
48185718,1129,1129,1129,1129,,,,,
48188217,1130,1130,1130,1130,,,,,
48190716,1131,1131,1131,1131,,,,,
48193215,1131,1131,1131,1131,,,,,
48195714,1132,1132,1132,1132,,,,,
48198213,1133,1133,1133,1133,,,,,
48200712,1134,1134,1134,1134,,,,,
48203211,1134,1134,1134,1134,,,,,
48205710,1135,1135,1135,1135,,,,,
48208209,1136,1136,1136,1136,,,,,
48210708,1137,1137,1137,1137,,,,,
48213207,1137,1137,1137,1137,,,,,
48215706,1138,1138,1138,1138,,,,,
48218205,1139,1139,1139,1139,,,,,
48220704,1140,1140,1140,1140,,,,,
48223203,1140,1140,1140,1140,,,,,
48225702,1141,1141,1141,1141,,,,,
48228201,1142,1142,1142,1142,,,,,
48230700,1143,1143,1143,1143,,,,,
48233199,1143,1143,1143,1143,,,,,
48235698,1144,1144,1144,1144,,,,,
48238197,1145,1145,1145,1145,,,,,
48240696,1146,1146,1146,1146,,,,,
48243195,1146,1146,1146,1146,,,,,
48245694,1147,1147,1147,1147,,,,,
48248193,1148,1148,1148,1148,,,,,
48250692,1149,1149,1149,1149,,,,,
48253191,1149,1149,1149,1149,,,,,
48255690,1150,1150,1150,1150,,,,,
48258189,1161,1154,1155,1161,,,,,
48260688,1169,1162,1163,1169,,,,,
48263187,1177,1170,1171,1177,,,,,
48265686,1184,1178,1179,1185,,,,,
48268185,1192,1186,1186,1192,,,,,
48270684,1199,1193,1194,1200,,,,,
48273183,1207,1201,1201,1207,,,,,
48275682,1214,1208,1208,1214,,,,,
48278181,1221,1215,1216,1221,,,,,
48280680,1228,1222,1223,1228,,,,,
48283179,1235,1229,1230,1235,,,,,
48285678,1242,1236,1236,1242,,,,,
48288177,1248,1243,1243,1249,,,,,
48290676,1255,1249,1250,1255,,,,,
48293175,1262,1256,1256,1262,,,,,
48295674,1268,1262,1263,1268,,,,,
48298173,1274,1269,1269,1275,,,,,
48300672,1281,1275,1276,1281,,,,,
48303171,1287,1281,1282,1287,,,,,
48305670,1293,1288,1288,1293,,,,,
48308169,1299,1294,1294,1300,,,,,
48310668,1305,1300,1300,1306,,,,,
48313167,1311,1306,1306,1311,,,,,
48315666,1317,1312,1312,1317,,,,,
48318165,1323,1318,1318,1323,,,,,
48320664,1329,1323,1324,1329,,,,,
48323163,1334,1329,1330,1335,,,,,
48325662,1340,1335,1335,1340,,,,,
48328161,1346,1340,1341,1346,,,,,
48330660,1351,1346,1347,1351,,,,,
48333159,1357,1352,1352,1357,,,,,
48335658,1362,1357,1358,1362,,,,,
48338157,1368,1363,1363,1368,,,,,
48340656,1373,1368,1368,1373,,,,,
48343155,1378,1373,1374,1378,,,,,
48345654,1383,1379,1379,1384,,,,,
48348986,1389,1384,1384,1389,,,,,
48351485,1394,1389,1389,1394,,,,,
48353984,1399,1394,1395,1399,,,,,
48356483,1404,1399,1400,1404,,,,,
48358982,1409,1404,1405,1409,,,,,
48361481,1414,1409,1410,1414,,,,,
48363980,1419,1414,1415,1419,,,,,
48366479,1424,1419,1420,1424,,,,,
48368978,1429,1424,1425,1429,,,,,
48371477,1434,1429,1430,1434,,,,,
48373976,1439,1434,1434,1439,,,,,
48376475,1443,1439,1439,1444,,,,,
48378974,1448,1444,1444,1449,,,,,
48381473,1453,1448,1449,1453,,,,,
48383972,1458,1453,1454,1458,,,,,
48386471,1462,1458,1458,1463,,,,,
48388970,1467,1463,1463,1467,,,,,
48391469,1472,1467,1468,1472,,,,,
48393968,1476,1472,1472,1476,,,,,
48396467,1481,1476,1477,1481,,,,,
48398966,1485,1481,1481,1486,,,,,
48401465,1490,1485,1486,1490,,,,,
48403964,1494,1490,1490,1494,,,,,
48406463,1499,1494,1495,1499,,,,,
48408962,1503,1499,1499,1503,,,,,
48411461,1508,1503,1504,1508,,,,,
48413960,1512,1508,1508,1512,,,,,
48416459,1516,1512,1512,1516,,,,,
48418958,1521,1516,1517,1521,,,,,
48421457,1525,1521,1521,1525,,,,,
48423956,1529,1525,1525,1529,,,,,
48426455,1533,1529,1530,1534,,,,,
48428954,1538,1533,1534,1538,,,,,
48431453,1542,1538,1538,1542,,,,,
48433952,1546,1542,1542,1546,,,,,
48436451,1550,1546,1546,1550,,,,,
48438950,1554,1550,1551,1554,,,,,
48441449,1558,1554,1555,1559,,,,,
48443948,1563,1558,1559,1563,,,,,
48446447,1567,1562,1563,1567,,,,,
48448946,1571,1567,1567,1571,,,,,
48451445,1575,1571,1571,1575,,,,,
48453944,1579,1575,1575,1579,,,,,
48456443,1583,1579,1579,1583,,,,,
48458942,1587,1583,1583,1587,,,,,
48461441,1591,1587,1587,1591,,,,,
48463940,1595,1591,1591,1595,,,,,
48466439,1599,1594,1595,1599,,,,,
48468938,1602,1598,1599,1602,,,,,
48471437,1606,1602,1603,1606,,,,,
48473936,1610,1606,1607,1610,,,,,
48476435,1614,1610,1611,1614,,,,,
48478934,1618,1614,1614,1618,,,,,
48481433,1622,1618,1618,1622,,,,,
48483932,1626,1622,1622,1625,,,,,
48486431,1629,1625,1626,1629,,,,,
48488930,1633,1629,1630,1633,,,,,
48491429,1637,1633,1633,1637,,,,,
48493928,1641,1637,1637,1641,,,,,
48496427,1644,1640,1641,1644,,,,,
48498926,1648,1644,1645,1648,,,,,
48501425,1652,1648,1648,1652,,,,,
48503924,1655,1651,1652,1655,,,,,
48506423,1659,1655,1656,1659,,,,,
48508922,1663,1659,1659,1663,,,,,
48511421,1666,1662,1663,1666,,,,,
48513920,1670,1666,1666,1670,,,,,
48516419,1674,1670,1670,1674,,,,,
48518918,1677,1673,1674,1677,,,,,
48521417,1681,1677,1677,1681,,,,,
48523916,1684,1680,1681,1684,,,,,
48526415,1688,1684,1684,1688,,,,,
48528914,1691,1687,1688,1691,,,,,
48531413,1695,1691,1691,1695,,,,,
48533912,1698,1695,1695,1698,,,,,
48536411,1702,1698,1698,1702,,,,,
48538910,1705,1702,1702,1705,,,,,
48541409,1709,1705,1705,1709,,,,,
48543908,1712,1708,1709,1712,,,,,
48546407,1716,1712,1712,1716,,,,,
48548906,1719,1715,1716,1719,,,,,
48551405,1722,1719,1719,1723,,,,,
48553904,1726,1722,1723,1726,,,,,
48556403,1729,1726,1726,1729,,,,,
48558902,1733,1729,1729,1733,,,,,
48561401,1736,1732,1733,1736,,,,,
48563900,1739,1736,1736,1740,,,,,
48566399,1743,1739,1739,1743,,,,,
48568898,1746,1743,1743,1746,,,,,
48571397,1749,1746,1746,1750,,,,,
48573896,1753,1749,1749,1753,,,,,
48576395,1756,1752,1753,1756,,,,,
48578894,1759,1756,1756,1760,,,,,
48581393,1763,1759,1759,1763,,,,,
48583892,1766,1762,1763,1766,,,,,
48586391,1769,1766,1766,1769,,,,,
48588890,1772,1769,1769,1773,,,,,
48591389,1776,1772,1772,1776,,,,,
48593888,1779,1775,1776,1779,,,,,
48596387,1782,1779,1779,1782,,,,,
48598886,1785,1782,1782,1786,,,,,
48601385,1789,1785,1785,1789,,,,,
48603884,1792,1788,1788,1792,,,,,
48606383,1795,1791,1792,1795,,,,,
48608882,1798,1794,1795,1798,,,,,
48611381,1801,1798,1798,1801,,,,,
48613880,1805,1801,1801,1804,,,,,
48616379,1808,1804,1804,1808,,,,,
48618878,1811,1807,1808,1811,,,,,
48621377,1814,1810,1811,1814,,,,,
48623876,1817,1813,1814,1817,,,,,
48626375,1820,1816,1817,1820,,,,,
48628874,1823,1819,1820,1823,,,,,
48631373,1827,1822,1823,1826,,,,,
48633872,1830,1826,1826,1829,,,,,
48636371,1833,1829,1830,1832,,,,,
48638870,1836,1832,1833,1835,,,,,
48641369,1839,1835,1836,1838,,,,,
48643868,1842,1838,1839,1841,,,,,
48646367,1845,1841,1842,1844,,,,,
48648866,1848,1844,1845,1847,,,,,
48651365,1851,1847,1848,1850,,,,,
48653864,1854,1850,1851,1853,,,,,
48656363,1857,1853,1854,1856,,,,,
48658862,1860,1856,1857,1859,,,,,
48661361,1863,1859,1860,1862,,,,,
48663860,1866,1862,1863,1865,,,,,
48666359,1869,1865,1866,1868,,,,,
48668858,1872,1868,1869,1871,,,,,
48671357,1875,1871,1872,1874,,,,,
48673856,1878,1874,1875,1877,,,,,
48676355,1881,1877,1878,1880,,,,,
48678854,1884,1879,1881,1883,,,,,
48681353,1887,1882,1884,1886,,,,,
48683852,1890,1885,1887,1889,,,,,
48686351,1893,1888,1890,1892,,,,,
48688850,1895,1891,1893,1894,,,,,
48691349,1898,1894,1895,1897,,,,,
48693848,1901,1897,1898,1900,,,,,
48696347,1904,1900,1901,1903,,,,,
48698846,1907,1903,1904,1906,,,,,
48701345,1910,1906,1907,1909,,,,,
48703844,1913,1909,1910,1912,,,,,
48706343,1916,1911,1913,1915,,,,,
48708842,1918,1914,1915,1918,,,,,
48711341,1917,1913,1915,1917,,,,,
48713840,1917,1913,1914,1916,,,,,
48716339,1916,1912,1913,1915,,,,,
48718838,1915,1911,1912,1914,,,,,
48721337,1914,1910,1912,1914,,,,,
48723836,1914,1910,1911,1913,,,,,
48726335,1913,1909,1910,1912,,,,,
48728834,1913,1908,1910,1912,,,,,
48731333,1912,1908,1909,1911,,,,,
48733832,1911,1907,1908,1911,,,,,
48736331,1911,1907,1908,1910,,,,,
48738830,1911,1907,1908,1910,,,,,
48741329,1910,1906,1907,1910,,,,,
48743828,1910,1906,1907,1909,,,,,
48746327,1910,1906,1907,1909,,,,,
48748826,1910,1906,1907,1909,,,,,
48751325,1909,1906,1907,1909,,,,,
48753824,1909,1906,1907,1909,,,,,
48756323,1909,1906,1907,1909,,,,,
48758822,1909,1906,1906,1909,,,,,
48761321,1909,1906,1906,1908,,,,,
48763820,1908,1905,1906,1908,,,,,
48766319,1908,1905,1906,1908,,,,,
48768818,1907,1904,1905,1907,,,,,
48771317,1906,1904,1904,1906,,,,,
48773816,1906,1903,1904,1905,,,,,
48776315,1905,1902,1903,1904,,,,,
48778814,1903,1901,1902,1903,,,,,
48781313,1902,1900,1900,1902,,,,,
48783812,1901,1898,1899,1901,,,,,
48786311,1899,1897,1897,1899,,,,,
48788810,1898,1895,1896,1897,,,,,
48791309,1896,1893,1894,1896,,,,,
48793808,1894,1891,1892,1894,,,,,
48796307,1892,1889,1890,1892,,,,,
48798806,1890,1887,1888,1889,,,,,
48801305,1887,1885,1885,1887,,,,,
48803804,1885,1882,1883,1885,,,,,
48806303,1882,1880,1881,1882,,,,,
48808802,1880,1877,1878,1880,,,,,
48811301,1877,1875,1875,1877,,,,,
48813800,1874,1872,1873,1874,,,,,
48816299,1871,1869,1870,1871,,,,,
48818798,1869,1866,1867,1868,,,,,
48821297,1866,1863,1864,1865,,,,,
48823796,1863,1860,1861,1862,,,,,
48826295,1859,1857,1858,1859,,,,,
48828794,1856,1854,1855,1856,,,,,
48831293,1853,1851,1851,1853,,,,,
48833792,1850,1848,1848,1850,,,,,
48836291,1847,1845,1845,1847,,,,,
48838790,1844,1842,1842,1844,,,,,
48841289,1841,1838,1839,1841,,,,,
48843788,1837,1835,1835,1837,,,,,
48846287,1834,1832,1832,1834,,,,,
48848786,1831,1829,1829,1831,,,,,
48851285,1827,1825,1826,1827,,,,,
48853784,1824,1822,1822,1824,,,,,
48856283,1821,1819,1819,1821,,,,,
48858782,1817,1815,1816,1817,,,,,
48861281,1814,1812,1812,1814,,,,,
48863780,1810,1809,1809,1810,,,,,
48866279,1807,1805,1806,1807,,,,,
48868778,1804,1802,1802,1804,,,,,
48871277,1800,1799,1799,1800,,,,,
48873776,1797,1795,1796,1797,,,,,
48876275,1793,1792,1792,1793,,,,,
48878774,1790,1789,1789,1790,,,,,
48881273,1787,1785,1786,1787,,,,,
48883772,1783,1782,1782,1783,,,,,
48886271,1780,1779,1779,1780,,,,,
48888770,1777,1776,1776,1777,,,,,
48891269,1773,1772,1772,1774,,,,,
48893768,1770,1769,1769,1770,,,,,
48896267,1767,1766,1766,1767,,,,,
48898766,1764,1763,1763,1764,,,,,
48901265,1760,1760,1760,1761,,,,,
48903764,1757,1756,1757,1757,,,,,
48906263,1754,1753,1754,1754,,,,,
48908762,1751,1750,1750,1751,,,,,
48911261,1748,1747,1747,1748,,,,,
48913760,1745,1744,1744,1745,,,,,
48916259,1742,1741,1741,1742,,,,,
48918758,1739,1738,1739,1739,,,,,
48921257,1736,1735,1736,1736,,,,,
48923756,1733,1733,1733,1733,,,,,
48926255,1730,1730,1730,1730,,,,,
48928754,1727,1727,1727,1727,,,,,
