timestamp,TimeUS,C1,C2,C3,C4,C5,C6,C7,C8,C9,C10,C11,C12,C13,C14
1706510633.03998399,186468716,1000,1000,1000,1000,0,0,0,0,0,0,0,0,0,0
1706510633.13994408,186568676,1000,1000,1000,1000,0,0,0,0,0,0,0,0,0,0
1706510633.23990417,186668636,1000,1000,1000,1000,0,0,0,0,0,0,0,0,0,0
1706510633.33986402,186768596,1000,1000,1000,1000,0,0,0,0,0,0,0,0,0,0
1706510633.43982410,186868556,1000,1000,1000,1000,0,0,0,0,0,0,0,0,0,0
1706510633.53978419,186968516,1000,1000,1000,1000,0,0,0,0,0,0,0,0,0,0
1706510633.63974404,187068476,1000,1000,1000,1000,0,0,0,0,0,0,0,0,0,0
1706510633.73970413,187168436,1000,1000,1000,1000,0,0,0,0,0,0,0,0,0,0
1706510633.83966398,187268396,1000,1000,1000,1000,0,0,0,0,0,0,0,0,0,0
1706510633.93962407,187368356,1000,1000,1000,1000,0,0,0,0,0,0,0,0,0,0
1706510634.03958416,187468316,1000,1000,1000,1000,0,0,0,0,0,0,0,0,0,0
1706510634.13954401,187568276,1000,1000,1000,1000,0,0,0,0,0,0,0,0,0,0
1706510634.23950410,187668236,1000,1000,1000,1000,0,0,0,0,0,0,0,0,0,0
1706510634.33946419,187768196,1000,1000,1000,1000,0,0,0,0,0,0,0,0,0,0
1706510634.43942404,187868156,1000,1000,1000,1000,0,0,0,0,0,0,0,0,0,0
1706510634.54021716,187968949,1000,1000,1000,1000,0,0,0,0,0,0,0,0,0,0
1706510634.64017701,188068909,1000,1000,1000,1000,0,0,0,0,0,0,0,0,0,0
1706510634.74013710,188168869,1000,1000,1000,1000,0,0,0,0,0,0,0,0,0,0
1706510634.84009719,188268829,1000,1000,1000,1000,0,0,0,0,0,0,0,0,0,0
1706510634.94005704,188368789,1000,1000,1000,1000,0,0,0,0,0,0,0,0,0,0
1706510635.04001713,188468749,1021,1021,1021,1021,0,0,0,0,0,0,0,0,0,0
1706510635.13997698,188568709,1051,1051,1051,1051,0,0,0,0,0,0,0,0,0,0
1706510635.23993707,188668669,1081,1081,1081,1081,0,0,0,0,0,0,0,0,0,0
1706510635.33989716,188768629,1111,1111,1111,1111,0,0,0,0,0,0,0,0,0,0
1706510635.43985701,188868589,1141,1141,1141,1141,0,0,0,0,0,0,0,0,0,0
1706510635.53981709,188968549,1348,1326,1327,1350,0,0,0,0,0,0,0,0,0,0
1706510635.63977718,189068509,1540,1522,1523,1541,0,0,0,0,0,0,0,0,0,0
1706510635.73973703,189168469,1694,1677,1678,1695,0,0,0,0,0,0,0,0,0,0
1706510635.83969712,189268429,1826,1810,1810,1827,0,0,0,0,0,0,0,0,0,0
1706510635.93965697,189368389,1885,1868,1868,1886,0,0,0,0,0,0,0,0,0,0
1706510636.03961706,189468349,1843,1836,1837,1844,0,0,0,0,0,0,0,0,0,0
1706510636.13957715,189568309,1712,1712,1713,1712,0,0,0,0,0,0,0,0,0,0
1706510636.23953700,189668269,1632,1638,1638,1633,0,0,0,0,0,0,0,0,0,0
1706510636.33949709,189768229,1617,1625,1625,1617,0,0,0,0,0,0,0,0,0,0
1706510636.43945718,189868189,1630,1624,1622,1632,0,0,0,0,0,0,0,0,0,0
1706510636.54025006,189968982,1626,1631,1626,1632,0,0,0,0,0,0,0,0,0,0
1706510636.64021015,190068942,1623,1629,1625,1627,0,0,0,0,0,0,0,0,0,0
1706510636.74017000,190168902,1620,1624,1623,1621,0,0,0,0,0,0,0,0,0,0
1706510636.84013009,190268862,1618,1619,1620,1617,0,0,0,0,0,0,0,0,0,0
1706510636.94009018,190368822,1617,1615,1619,1614,0,0,0,0,0,0,0,0,0,0
1706510637.04005003,190468782,1618,1615,1618,1614,0,0,0,0,0,0,0,0,0,0
1706510637.14001012,190568742,1619,1616,1619,1616,0,0,0,0,0,0,0,0,0,0
1706510637.23996997,190668702,1620,1619,1619,1619,0,0,0,0,0,0,0,0,0,0
1706510637.33993006,190768662,1592,1593,1598,1587,0,0,0,0,0,0,0,0,0,0
1706510637.43989015,190868622,1576,1579,1584,1570,0,0,0,0,0,0,0,0,0,0
1706510637.53985000,190968582,1564,1566,1567,1563,0,0,0,0,0,0,0,0,0,0
1706510637.63981009,191068542,1555,1555,1553,1558,0,0,0,0,0,0,0,0,0,0
1706510637.73977017,191168502,1549,1547,1539,1557,0,0,0,0,0,0,0,0,0,0
1706510637.83973002,191268462,1542,1540,1531,1550,0,0,0,0,0,0,0,0,0,0
1706510637.93969011,191368422,1536,1535,1528,1541,0,0,0,0,0,0,0,0,0,0
1706510638.03964996,191468382,1530,1529,1527,1531,0,0,0,0,0,0,0,0,0,0
1706510638.13961005,191568342,1527,1527,1527,1526,0,0,0,0,0,0,0,0,0,0
1706510638.23957014,191668302,1528,1528,1530,1525,0,0,0,0,0,0,0,0,0,0
1706510638.33952999,191768262,1529,1530,1533,1526,0,0,0,0,0,0,0,0,0,0
1706510638.43949008,191868222,1532,1533,1536,1530,0,0,0,0,0,0,0,0,0,0
1706510638.53945017,191968182,1536,1536,1538,1535,0,0,0,0,0,0,0,0,0,0
1706510638.64024305,192068975,1539,1539,1541,1539,0,0,0,0,0,0,0,0,0,0
1706510638.74020314,192168935,1543,1543,1544,1543,0,0,0,0,0,0,0,0,0,0
1706510638.84016299,192268895,1545,1544,1545,1546,0,0,0,0,0,0,0,0,0,0
1706510638.94012308,192368855,1549,1549,1549,1550,0,0,0,0,0,0,0,0,0,0
1706510639.04008317,192468815,1551,1551,1551,1552,0,0,0,0,0,0,0,0,0,0
1706510639.14004302,192568775,1554,1554,1554,1555,0,0,0,0,0,0,0,0,0,0
1706510639.24000311,192668735,1556,1556,1556,1557,0,0,0,0,0,0,0,0,0,0
1706510639.33996320,192768695,1568,1572,1547,1548,0,0,0,0,0,0,0,0,0,0
1706510639.43992305,192868655,1579,1577,1543,1544,0,0,0,0,0,0,0,0,0,0
1706510639.53988314,192968615,1574,1571,1552,1553,0,0,0,0,0,0,0,0,0,0
1706510639.63984299,193068575,1566,1563,1562,1562,0,0,0,0,0,0,0,0,0,0
1706510639.73980308,193168535,1560,1559,1572,1572,0,0,0,0,0,0,0,0,0,0
1706510639.83976316,193268495,1556,1555,1577,1577,0,0,0,0,0,0,0,0,0,0
1706510639.93972301,193368455,1553,1555,1580,1581,0,0,0,0,0,0,0,0,0,0
1706510640.03968310,193468415,1554,1556,1582,1582,0,0,0,0,0,0,0,0,0,0
1706510640.13964319,193568375,1557,1559,1582,1581,0,0,0,0,0,0,0,0,0,0
1706510640.23960304,193668335,1560,1562,1580,1579,0,0,0,0,0,0,0,0,0,0
1706510640.33956313,193768295,1565,1567,1577,1577,0,0,0,0,0,0,0,0,0,0
1706510640.43952298,193868255,1571,1571,1574,1575,0,0,0,0,0,0,0,0,0,0
1706510640.53948307,193968215,1574,1574,1571,1571,0,0,0,0,0,0,0,0,0,0
1706510640.63944316,194068175,1578,1577,1569,1569,0,0,0,0,0,0,0,0,0,0
1706510640.74023604,194168968,1580,1580,1569,1567,0,0,0,0,0,0,0,0,0,0
1706510640.84019613,194268928,1581,1581,1568,1566,0,0,0,0,0,0,0,0,0,0
1706510640.94015598,194368888,1582,1581,1568,1567,0,0,0,0,0,0,0,0,0,0
1706510641.04011607,194468848,1582,1581,1569,1569,0,0,0,0,0,0,0,0,0,0
1706510641.14007616,194568808,1581,1581,1571,1570,0,0,0,0,0,0,0,0,0,0
1706510641.24003601,194668768,1578,1578,1571,1571,0,0,0,0,0,0,0,0,0,0
1706510641.33999610,194768728,1578,1578,1574,1574,0,0,0,0,0,0,0,0,0,0
1706510641.43995619,194868688,1577,1576,1576,1576,0,0,0,0,0,0,0,0,0,0
1706510641.53991604,194968648,1574,1575,1577,1576,0,0,0,0,0,0,0,0,0,0
1706510641.63987613,195068608,1575,1575,1579,1579,0,0,0,0,0,0,0,0,0,0
1706510641.73983598,195168568,1574,1575,1580,1580,0,0,0,0,0,0,0,0,0,0
1706510641.83979607,195268528,1574,1574,1580,1580,0,0,0,0,0,0,0,0,0,0
1706510641.93975616,195368488,1574,1574,1580,1580,0,0,0,0,0,0,0,0,0,0
1706510642.03971601,195468448,1576,1576,1580,1580,0,0,0,0,0,0,0,0,0,0
1706510642.13967609,195568408,1576,1576,1579,1579,0,0,0,0,0,0,0,0,0,0
1706510642.23963618,195668368,1577,1576,1579,1578,0,0,0,0,0,0,0,0,0,0
1706510642.33959603,195768328,1578,1577,1578,1578,0,0,0,0,0,0,0,0,0,0
1706510642.43955612,195868288,1578,1578,1577,1577,0,0,0,0,0,0,0,0,0,0
1706510642.53951597,195968248,1579,1579,1577,1577,0,0,0,0,0,0,0,0,0,0
1706510642.63947606,196068208,1579,1579,1577,1577,0,0,0,0,0,0,0,0,0,0
1706510642.73943615,196168168,1580,1580,1577,1578,0,0,0,0,0,0,0,0,0,0
1706510642.84022903,196268961,1580,1580,1578,1578,0,0,0,0,0,0,0,0,0,0
1706510642.94018912,196368921,1580,1580,1578,1578,0,0,0,0,0,0,0,0,0,0
1706510643.04014897,196468881,1579,1579,1578,1577,0,0,0,0,0,0,0,0,0,0
1706510643.14010906,196568841,1580,1579,1579,1579,0,0,0,0,0,0,0,0,0,0
1706510643.24006915,196668801,1580,1580,1579,1579,0,0,0,0,0,0,0,0,0,0
1706510643.34002900,196768761,1579,1579,1579,1579,0,0,0,0,0,0,0,0,0,0
1706510643.43998909,196868721,1580,1580,1581,1581,0,0,0,0,0,0,0,0,0,0
1706510643.53994918,196968681,1580,1580,1581,1581,0,0,0,0,0,0,0,0,0,0
1706510643.63990903,197068641,1579,1579,1580,1580,0,0,0,0,0,0,0,0,0,0
1706510643.73986912,197168601,1578,1578,1579,1579,0,0,0,0,0,0,0,0,0,0
1706510643.83982897,197268561,1578,1578,1579,1580,0,0,0,0,0,0,0,0,0,0
1706510643.93978906,197368521,1579,1579,1580,1580,0,0,0,0,0,0,0,0,0,0
1706510644.03974915,197468481,1579,1579,1579,1579,0,0,0,0,0,0,0,0,0,0
1706510644.13970900,197568441,1579,1579,1580,1579,0,0,0,0,0,0,0,0,0,0
1706510644.23966908,197668401,1580,1579,1580,1580,0,0,0,0,0,0,0,0,0,0
1706510644.33962917,197768361,1580,1580,1580,1580,0,0,0,0,0,0,0,0,0,0
1706510644.43958902,197868321,1579,1580,1580,1580,0,0,0,0,0,0,0,0,0,0
1706510644.53954911,197968281,1580,1580,1580,1580,0,0,0,0,0,0,0,0,0,0
1706510644.63950896,198068241,1580,1580,1579,1580,0,0,0,0,0,0,0,0,0,0
1706510644.73946905,198168201,1580,1580,1580,1580,0,0,0,0,0,0,0,0,0,0
1706510644.83942914,198268161,1580,1580,1579,1579,0,0,0,0,0,0,0,0,0,0
1706510644.94022202,198368954,1579,1580,1580,1579,0,0,0,0,0,0,0,0,0,0
1706510645.04018211,198468914,1580,1580,1580,1579,0,0,0,0,0,0,0,0,0,0
1706510645.14014196,198568874,1581,1580,1581,1581,0,0,0,0,0,0,0,0,0,0
1706510645.24010205,198668834,1580,1580,1580,1580,0,0,0,0,0,0,0,0,0,0
1706510645.34006214,198768794,1580,1580,1581,1581,0,0,0,0,0,0,0,0,0,0
1706510645.44002199,198868754,1581,1582,1587,1574,0,0,0,0,0,0,0,0,0,0
1706510645.53998208,198968714,1580,1584,1586,1573,0,0,0,0,0,0,0,0,0,0
1706510645.63994217,199068674,1580,1583,1578,1573,0,0,0,0,0,0,0,0,0,0
1706510645.73990202,199168634,1578,1581,1569,1572,0,0,0,0,0,0,0,0,0,0
1706510645.83986211,199268594,1578,1580,1561,1568,0,0,0,0,0,0,0,0,0,0
1706510645.93982220,199368554,1579,1580,1557,1564,0,0,0,0,0,0,0,0,0,0
1706510646.03978205,199468514,1580,1580,1554,1558,0,0,0,0,0,0,0,0,0,0
1706510646.13974214,199568474,1582,1580,1554,1555,0,0,0,0,0,0,0,0,0,0
1706510646.23970199,199668434,1581,1579,1554,1552,0,0,0,0,0,0,0,0,0,0
1706510646.33966208,199768394,1581,1580,1555,1553,0,0,0,0,0,0,0,0,0,0
1706510646.43962216,199868354,1579,1580,1554,1552,0,0,0,0,0,0,0,0,0,0
1706510646.53958201,199968314,1578,1579,1554,1552,0,0,0,0,0,0,0,0,0,0
1706510646.63954210,200068274,1577,1579,1553,1553,0,0,0,0,0,0,0,0,0,0
1706510646.73950219,200168234,1577,1579,1552,1552,0,0,0,0,0,0,0,0,0,0
1706510646.83946204,200268194,1578,1579,1551,1550,0,0,0,0,0,0,0,0,0,0
1706510646.93942213,200368154,1579,1581,1549,1549,0,0,0,0,0,0,0,0,0,0
1706510647.04021502,200468947,1581,1582,1546,1546,0,0,0,0,0,0,0,0,0,0
1706510647.14017510,200568907,1584,1585,1544,1544,0,0,0,0,0,0,0,0,0,0
1706510647.24013519,200668867,1587,1588,1542,1541,0,0,0,0,0,0,0,0,0,0
1706510647.34009504,200768827,1590,1591,1539,1539,0,0,0,0,0,0,0,0,0,0
1706510647.44005513,200868787,1594,1594,1538,1538,0,0,0,0,0,0,0,0,0,0
1706510647.54001498,200968747,1595,1595,1536,1536,0,0,0,0,0,0,0,0,0,0
1706510647.63997507,201068707,1595,1596,1535,1536,0,0,0,0,0,0,0,0,0,0
1706510647.73993516,201168667,1596,1596,1536,1539,0,0,0,0,0,0,0,0,0,0
1706510647.83989501,201268627,1594,1594,1539,1542,0,0,0,0,0,0,0,0,0,0
1706510647.93985510,201368587,1591,1589,1544,1548,0,0,0,0,0,0,0,0,0,0
1706510648.03981519,201468547,1585,1581,1552,1555,0,0,0,0,0,0,0,0,0,0
1706510648.13977504,201568507,1576,1573,1563,1566,0,0,0,0,0,0,0,0,0,0
1706510648.23973513,201668467,1565,1561,1575,1577,0,0,0,0,0,0,0,0,0,0
1706510648.33969498,201768427,1553,1550,1588,1588,0,0,0,0,0,0,0,0,0,0
1706510648.43965507,201868387,1543,1541,1601,1600,0,0,0,0,0,0,0,0,0,0
1706510648.53961515,201968347,1533,1533,1609,1608,0,0,0,0,0,0,0,0,0,0
1706510648.63957500,202068307,1528,1529,1614,1613,0,0,0,0,0,0,0,0,0,0
1706510648.73953509,202168267,1528,1530,1617,1616,0,0,0,0,0,0,0,0,0,0
1706510648.83949518,202268227,1531,1534,1615,1614,0,0,0,0,0,0,0,0,0,0
1706510648.93945503,202368187,1537,1539,1610,1610,0,0,0,0,0,0,0,0,0,0
1706510649.04024816,202468980,1544,1546,1603,1603,0,0,0,0,0,0,0,0,0,0
1706510649.14020801,202568940,1552,1554,1595,1595,0,0,0,0,0,0,0,0,0,0
1706510649.24016809,202668900,1562,1562,1587,1587,0,0,0,0,0,0,0,0,0,0
1706510649.34012818,202768860,1571,1570,1580,1579,0,0,0,0,0,0,0,0,0,0
1706510649.44008803,202868820,1578,1577,1574,1573,0,0,0,0,0,0,0,0,0,0
1706510649.54004812,202968780,1584,1582,1570,1569,0,0,0,0,0,0,0,0,0,0
1706510649.64000797,203068740,1586,1585,1566,1566,0,0,0,0,0,0,0,0,0,0
1706510649.73996806,203168700,1588,1587,1566,1566,0,0,0,0,0,0,0,0,0,0
1706510649.83992815,203268660,1587,1586,1565,1565,0,0,0,0,0,0,0,0,0,0
1706510649.93988800,203368620,1586,1585,1567,1568,0,0,0,0,0,0,0,0,0,0
1706510650.03984809,203468580,1584,1584,1572,1571,0,0,0,0,0,0,0,0,0,0
1706510650.13980818,203568540,1581,1581,1574,1574,0,0,0,0,0,0,0,0,0,0
1706510650.23976803,203668500,1578,1578,1577,1577,0,0,0,0,0,0,0,0,0,0
1706510650.33972812,203768460,1574,1575,1579,1579,0,0,0,0,0,0,0,0,0,0
1706510650.43968797,203868420,1572,1573,1581,1581,0,0,0,0,0,0,0,0,0,0
1706510650.53964806,203968380,1571,1572,1583,1583,0,0,0,0,0,0,0,0,0,0
1706510650.63960814,204068340,1572,1573,1584,1584,0,0,0,0,0,0,0,0,0,0
1706510650.73956800,204168300,1572,1572,1584,1584,0,0,0,0,0,0,0,0,0,0
1706510650.83952808,204268260,1573,1573,1584,1584,0,0,0,0,0,0,0,0,0,0
1706510650.93948817,204368220,1244,1557,1252,1565,0,0,0,0,0,0,0,0,0,0
1706510651.03944802,204468180,1486,1539,1488,1549,0,0,0,0,0,0,0,0,0,0
1706510651.14024115,204568973,1613,1579,1617,1583,0,0,0,0,0,0,0,0,0,0
1706510651.24020100,204668933,1638,1549,1637,1554,0,0,0,0,0,0,0,0,0,0
1706510651.34016109,204768893,1638,1563,1636,1570,0,0,0,0,0,0,0,0,0,0
1706510651.44012117,204868853,1638,1582,1633,1588,0,0,0,0,0,0,0,0,0,0
1706510651.54008102,204968813,1638,1590,1632,1596,0,0,0,0,0,0,0,0,0,0
1706510651.64004111,205068773,1638,1605,1634,1608,0,0,0,0,0,0,0,0,0,0
1706510651.74000096,205168733,1638,1623,1637,1615,0,0,0,0,0,0,0,0,0,0
1706510651.83996105,205268693,1638,1661,1629,1614,0,0,0,0,0,0,0,0,0,0
1706510651.93992114,205368653,1638,1694,1613,1612,0,0,0,0,0,0,0,0,0,0
1706510652.03988099,205468613,1638,1697,1606,1623,0,0,0,0,0,0,0,0,0,0
1706510652.13984108,205568573,1638,1672,1622,1654,0,0,0,0,0,0,0,0,0,0
1706510652.23980117,205668533,1619,1628,1638,1667,0,0,0,0,0,0,0,0,0,0
1706510652.33976102,205768493,1586,1579,1638,1656,0,0,0,0,0,0,0,0,0,0
1706510652.43972111,205868453,1565,1554,1638,1651,0,0,0,0,0,0,0,0,0,0
1706510652.53968120,205968413,1555,1546,1638,1648,0,0,0,0,0,0,0,0,0,0
1706510652.63964105,206068373,1555,1551,1638,1644,0,0,0,0,0,0,0,0,0,0
1706510652.73960114,206168333,1562,1563,1638,1641,0,0,0,0,0,0,0,0,0,0
1706510652.83956099,206268293,1575,1577,1638,1638,0,0,0,0,0,0,0,0,0,0
1706510652.93952107,206368253,1593,1596,1638,1641,0,0,0,0,0,0,0,0,0,0
1706510653.03948116,206468213,1627,1627,1638,1648,0,0,0,0,0,0,0,0,0,0
1706510653.13944101,206568173,1638,1634,1616,1619,0,0,0,0,0,0,0,0,0,0
1706510653.24023414,206668966,1638,1634,1588,1583,0,0,0,0,0,0,0,0,0,0
1706510653.34019399,206768926,1638,1637,1564,1557,0,0,0,0,0,0,0,0,0,0
1706510653.44015408,206868886,1638,1640,1547,1542,0,0,0,0,0,0,0,0,0,0
1706510653.54011416,206968846,1638,1643,1540,1540,0,0,0,0,0,0,0,0,0,0
1706510653.64007401,207068806,1638,1644,1544,1547,0,0,0,0,0,0,0,0,0,0
1706510653.74003410,207168766,1638,1643,1554,1558,0,0,0,0,0,0,0,0,0,0
1706510653.83999419,207268726,1638,1642,1568,1570,0,0,0,0,0,0,0,0,0,0
1706510653.93995404,207368686,1638,1640,1583,1583,0,0,0,0,0,0,0,0,0,0
1706510654.03991413,207468646,1638,1619,1596,1598,0,0,0,0,0,0,0,0,0,0
1706510654.13987398,207568606,1618,1607,1614,1594,0,0,0,0,0,0,0,0,0,0
1706510654.23983407,207668566,1590,1587,1608,1588,0,0,0,0,0,0,0,0,0,0
1706510654.33979416,207768526,1567,1572,1599,1591,0,0,0,0,0,0,0,0,0,0
1706510654.43975401,207868486,1549,1558,1592,1594,0,0,0,0,0,0,0,0,0,0
1706510654.53971410,207968446,1535,1545,1584,1593,0,0,0,0,0,0,0,0,0,0
1706510654.63967419,208068406,1527,1535,1577,1588,0,0,0,0,0,0,0,0,0,0
1706510654.73963404,208168366,1526,1532,1571,1579,0,0,0,0,0,0,0,0,0,0
1706510654.83959413,208268326,1530,1533,1565,1569,0,0,0,0,0,0,0,0,0,0
1706510654.93955398,208368286,1536,1536,1557,1556,0,0,0,0,0,0,0,0,0,0
1706510655.03951406,208468246,1544,1543,1550,1546,0,0,0,0,0,0,0,0,0,0
1706510655.13947415,208568206,1552,1550,1543,1538,0,0,0,0,0,0,0,0,0,0
1706510655.23943400,208668166,1561,1559,1537,1533,0,0,0,0,0,0,0,0,0,0
1706510655.34022713,208768959,1567,1565,1530,1529,0,0,0,0,0,0,0,0,0,0
1706510655.44018698,208868919,1574,1572,1526,1527,0,0,0,0,0,0,0,0,0,0
1706510655.54014707,208968879,1578,1577,1523,1524,0,0,0,0,0,0,0,0,0,0
1706510655.64010715,209068839,1583,1582,1522,1524,0,0,0,0,0,0,0,0,0,0
1706510655.74006701,209168799,1586,1586,1523,1524,0,0,0,0,0,0,0,0,0,0
1706510655.84002709,209268759,1589,1589,1523,1523,0,0,0,0,0,0,0,0,0,0
1706510655.93998718,209368719,1591,1591,1524,1523,0,0,0,0,0,0,0,0,0,0
1706510656.03994703,209468679,1592,1593,1525,1524,0,0,0,0,0,0,0,0,0,0
1706510656.13990712,209568639,1594,1595,1526,1525,0,0,0,0,0,0,0,0,0,0
1706510656.23986697,209668599,1595,1596,1527,1526,0,0,0,0,0,0,0,0,0,0
1706510656.33982706,209768559,1595,1595,1528,1528,0,0,0,0,0,0,0,0,0,0
1706510656.43978715,209868519,1585,1579,1540,1546,0,0,0,0,0,0,0,0,0,0
1706510656.53974700,209968479,1558,1549,1568,1579,0,0,0,0,0,0,0,0,0,0
1706510656.63970709,210068439,1529,1523,1595,1602,0,0,0,0,0,0,0,0,0,0
1706510656.73966718,210168399,1507,1509,1616,1619,0,0,0,0,0,0,0,0,0,0
1706510656.83962703,210268359,1496,1504,1629,1625,0,0,0,0,0,0,0,0,0,0
1706510656.93958712,210368319,1510,1526,1621,1602,0,0,0,0,0,0,0,0,0,0
1706510657.03954697,210468279,1547,1566,1588,1563,0,0,0,0,0,0,0,0,0,0
1706510657.13950706,210568239,1584,1596,1547,1533,0,0,0,0,0,0,0,0,0,0
1706510657.23946714,210668199,1611,1611,1516,1519,0,0,0,0,0,0,0,0,0,0
1706510657.33942699,210768159,1632,1620,1497,1512,0,0,0,0,0,0,0,0,0,0
1706510657.44022012,210868952,1638,1615,1481,1499,0,0,0,0,0,0,0,0,0,0
1706510657.54017997,210968912,1638,1617,1484,1501,0,0,0,0,0,0,0,0,0,0
1706510657.64014006,211068872,1638,1622,1502,1514,0,0,0,0,0,0,0,0,0,0
1706510657.74010015,211168832,1625,1609,1536,1543,0,0,0,0,0,0,0,0,0,0
1706510657.84006000,211268792,1587,1575,1565,1568,0,0,0,0,0,0,0,0,0,0
1706510657.94002008,211368752,1547,1546,1596,1596,0,0,0,0,0,0,0,0,0,0
1706510658.03998017,211468712,1514,1526,1625,1621,0,0,0,0,0,0,0,0,0,0
1706510658.13994002,211568672,1485,1503,1638,1628,0,0,0,0,0,0,0,0,0,0
1706510658.23990011,211668632,1472,1493,1638,1626,0,0,0,0,0,0,0,0,0,0
1706510658.33985996,211768592,1483,1504,1638,1629,0,0,0,0,0,0,0,0,0,0
1706510658.43982005,211868552,1507,1523,1638,1634,0,0,0,0,0,0,0,0,0,0
1706510658.53978014,211968512,1535,1543,1638,1638,0,0,0,0,0,0,0,0,0,0
1706510658.63973999,212068472,1553,1549,1628,1630,0,0,0,0,0,0,0,0,0,0
1706510658.73970008,212168432,1559,1548,1609,1612,0,0,0,0,0,0,0,0,0,0
1706510658.83966017,212268392,1566,1553,1593,1597,0,0,0,0,0,0,0,0,0,0
1706510658.93962002,212368352,1573,1563,1578,1581,0,0,0,0,0,0,0,0,0,0
1706510659.03958011,212468312,1579,1575,1564,1565,0,0,0,0,0,0,0,0,0,0
1706510659.13954020,212568272,1586,1586,1553,1553,0,0,0,0,0,0,0,0,0,0
1706510659.23950005,212668232,1592,1594,1545,1545,0,0,0,0,0,0,0,0,0,0
1706510659.33946013,212768192,1595,1597,1541,1541,0,0,0,0,0,0,0,0,0,0
1706510659.44025302,212868985,1598,1597,1541,1542,0,0,0,0,0,0,0,0,0,0
1706510659.54021311,212968945,1597,1595,1543,1545,0,0,0,0,0,0,0,0,0,0
1706510659.64017320,213068905,1594,1590,1548,1550,0,0,0,0,0,0,0,0,0,0
1706510659.74013305,213168865,1590,1586,1555,1556,0,0,0,0,0,0,0,0,0,0
1706510659.84009314,213268825,1585,1582,1563,1563,0,0,0,0,0,0,0,0,0,0
1706510659.94005299,213368785,1579,1578,1572,1570,0,0,0,0,0,0,0,0,0,0
1706510660.04001307,213468745,1574,1576,1579,1578,0,0,0,0,0,0,0,0,0,0
1706510660.13997316,213568705,1570,1573,1586,1583,0,0,0,0,0,0,0,0,0,0
1706510660.23993301,213668665,1567,1571,1590,1588,0,0,0,0,0,0,0,0,0,0
1706510660.33989310,213768625,1566,1570,1593,1591,0,0,0,0,0,0,0,0,0,0
1706510660.43985319,213868585,1567,1570,1594,1592,0,0,0,0,0,0,0,0,0,0
1706510660.53981304,213968545,1568,1570,1593,1592,0,0,0,0,0,0,0,0,0,0
1706510660.63977313,214068505,1570,1571,1591,1591,0,0,0,0,0,0,0,0,0,0
1706510660.73973298,214168465,1572,1572,1588,1588,0,0,0,0,0,0,0,0,0,0
1706510660.83969307,214268425,1575,1574,1585,1585,0,0,0,0,0,0,0,0,0,0
1706510660.93965316,214368385,1578,1576,1581,1582,0,0,0,0,0,0,0,0,0,0
1706510661.03961301,214468345,1580,1580,1579,1580,0,0,0,0,0,0,0,0,0,0
1706510661.13957310,214568305,1582,1581,1576,1576,0,0,0,0,0,0,0,0,0,0
1706510661.23953319,214668265,1583,1582,1574,1575,0,0,0,0,0,0,0,0,0,0
1706510661.33949304,214768225,1584,1584,1573,1574,0,0,0,0,0,0,0,0,0,0
1706510661.43945312,214868185,1585,1584,1573,1574,0,0,0,0,0,0,0,0,0,0
1706510661.54024601,214968978,1585,1585,1574,1574,0,0,0,0,0,0,0,0,0,0
1706510661.64020610,215068938,1585,1585,1576,1576,0,0,0,0,0,0,0,0,0,0
1706510661.74016619,215168898,1584,1584,1576,1577,0,0,0,0,0,0,0,0,0,0
1706510661.84012604,215268858,1585,1584,1579,1579,0,0,0,0,0,0,0,0,0,0
1706510661.94008613,215368818,1584,1583,1581,1581,0,0,0,0,0,0,0,0,0,0
1706510662.04004598,215468778,1582,1583,1582,1582,0,0,0,0,0,0,0,0,0,0
1706510662.14000607,215568738,1581,1582,1583,1583,0,0,0,0,0,0,0,0,0,0
1706510662.23996615,215668698,1581,1581,1584,1584,0,0,0,0,0,0,0,0,0,0
1706510662.33992600,215768658,1580,1581,1585,1585,0,0,0,0,0,0,0,0,0,0
1706510662.43988609,215868618,1580,1581,1586,1585,0,0,0,0,0,0,0,0,0,0
1706510662.53984618,215968578,1579,1580,1585,1584,0,0,0,0,0,0,0,0,0,0
1706510662.63980603,216068538,1579,1580,1584,1584,0,0,0,0,0,0,0,0,0,0
1706510662.73976612,216168498,1580,1580,1584,1584,0,0,0,0,0,0,0,0,0,0
1706510662.83972597,216268458,1579,1580,1582,1582,0,0,0,0,0,0,0,0,0,0
1706510662.93968606,216368418,1581,1581,1582,1583,0,0,0,0,0,0,0,0,0,0
1706510663.03964615,216468378,1582,1581,1582,1583,0,0,0,0,0,0,0,0,0,0
1706510663.13960600,216568338,1581,1581,1580,1580,0,0,0,0,0,0,0,0,0,0
1706510663.23956609,216668298,1582,1582,1581,1581,0,0,0,0,0,0,0,0,0,0
1706510663.33952618,216768258,1582,1582,1580,1580,0,0,0,0,0,0,0,0,0,0
1706510663.43948603,216868218,1582,1583,1580,1580,0,0,0,0,0,0,0,0,0,0
1706510663.53944612,216968178,1583,1583,1581,1581,0,0,0,0,0,0,0,0,0,0
1706510663.64023900,217068971,1583,1583,1583,1577,0,0,0,0,0,0,0,0,0,0
1706510663.74019909,217168931,1582,1584,1586,1572,0,0,0,0,0,0,0,0,0,0
1706510663.84015918,217268891,1582,1584,1582,1573,0,0,0,0,0,0,0,0,0,0
1706510663.94011903,217368851,1580,1582,1575,1573,0,0,0,0,0,0,0,0,0,0
1706510664.04007912,217468811,1577,1579,1567,1571,0,0,0,0,0,0,0,0,0,0
1706510664.14003897,217568771,1576,1578,1560,1567,0,0,0,0,0,0,0,0,0,0
1706510664.23999906,217668731,1576,1576,1555,1562,0,0,0,0,0,0,0,0,0,0
1706510664.33995914,217768691,1577,1577,1554,1559,0,0,0,0,0,0,0,0,0,0
1706510664.43991899,217868651,1578,1577,1554,1556,0,0,0,0,0,0,0,0,0,0
1706510664.53987908,217968611,1579,1578,1554,1554,0,0,0,0,0,0,0,0,0,0
1706510664.63983917,218068571,1579,1578,1555,1553,0,0,0,0,0,0,0,0,0,0
1706510664.73979902,218168531,1578,1579,1556,1553,0,0,0,0,0,0,0,0,0,0
1706510664.83975911,218268491,1579,1580,1556,1555,0,0,0,0,0,0,0,0,0,0
1706510664.93971920,218368451,1578,1580,1556,1555,0,0,0,0,0,0,0,0,0,0
1706510665.03967905,218468411,1578,1579,1555,1554,0,0,0,0,0,0,0,0,0,0
1706510665.13963914,218568371,1577,1578,1553,1552,0,0,0,0,0,0,0,0,0,0
1706510665.23959899,218668331,1578,1579,1551,1552,0,0,0,0,0,0,0,0,0,0
1706510665.33955908,218768291,1580,1581,1551,1551,0,0,0,0,0,0,0,0,0,0
1706510665.43951917,218868251,1581,1583,1549,1548,0,0,0,0,0,0,0,0,0,0
1706510665.53947902,218968211,1584,1585,1548,1547,0,0,0,0,0,0,0,0,0,0
1706510665.63943911,219068171,1586,1587,1545,1544,0,0,0,0,0,0,0,0,0,0
1706510665.74023199,219168964,1589,1589,1544,1544,0,0,0,0,0,0,0,0,0,0
1706510665.84019208,219268924,1591,1591,1541,1542,0,0,0,0,0,0,0,0,0,0
1706510665.94015217,219368884,1593,1594,1540,1542,0,0,0,0,0,0,0,0,0,0
1706510666.04011202,219468844,1594,1594,1539,1540,0,0,0,0,0,0,0,0,0,0
1706510666.14007211,219568804,1594,1594,1540,1542,0,0,0,0,0,0,0,0,0,0
1706510666.24003220,219668764,1593,1591,1542,1546,0,0,0,0,0,0,0,0,0,0
1706510666.33999205,219768724,1590,1586,1547,1551,0,0,0,0,0,0,0,0,0,0
1706510666.43995214,219868684,1585,1581,1555,1559,0,0,0,0,0,0,0,0,0,0
1706510666.53991199,219968644,1577,1573,1564,1567,0,0,0,0,0,0,0,0,0,0
1706510666.63987207,220068604,1568,1564,1575,1577,0,0,0,0,0,0,0,0,0,0
1706510666.73983216,220168564,1559,1556,1586,1588,0,0,0,0,0,0,0,0,0,0
1706510666.83979201,220268524,1550,1550,1597,1597,0,0,0,0,0,0,0,0,0,0
1706510666.93975210,220368484,1542,1545,1605,1604,0,0,0,0,0,0,0,0,0,0
1706510667.03971219,220468444,1538,1542,1611,1609,0,0,0,0,0,0,0,0,0,0
1706510667.13967204,220568404,1537,1540,1614,1612,0,0,0,0,0,0,0,0,0,0
1706510667.23963213,220668364,1539,1543,1615,1613,0,0,0,0,0,0,0,0,0,0
1706510667.33959198,220768324,1542,1545,1612,1609,0,0,0,0,0,0,0,0,0,0
1706510667.43955207,220868284,1547,1548,1607,1604,0,0,0,0,0,0,0,0,0,0
1706510667.53951216,220968244,1553,1553,1601,1600,0,0,0,0,0,0,0,0,0,0
1706510667.63947201,221068204,1559,1558,1593,1593,0,0,0,0,0,0,0,0,0,0
1706510667.73943210,221168164,1565,1564,1586,1587,0,0,0,0,0,0,0,0,0,0
1706510667.84022498,221268957,1571,1570,1578,1580,0,0,0,0,0,0,0,0,0,0
1706510667.94018507,221368917,1577,1575,1573,1575,0,0,0,0,0,0,0,0,0,0
1706510668.04014516,221468877,1581,1579,1568,1569,0,0,0,0,0,0,0,0,0,0
1706510668.14010501,221568837,1583,1581,1565,1566,0,0,0,0,0,0,0,0,0,0
1706510668.24006510,221668797,1585,1583,1564,1565,0,0,0,0,0,0,0,0,0,0
1706510668.34002519,221768757,1586,1584,1565,1566,0,0,0,0,0,0,0,0,0,0
1706510668.43998504,221868717,1585,1583,1566,1566,0,0,0,0,0,0,0,0,0,0
1706510668.53994513,221968677,1583,1583,1569,1569,0,0,0,0,0,0,0,0,0,0
1706510668.63990498,222068637,1582,1581,1572,1571,0,0,0,0,0,0,0,0,0,0
1706510668.73986506,222168597,1580,1580,1575,1575,0,0,0,0,0,0,0,0,0,0
1706510668.83982515,222268557,1577,1578,1578,1577,0,0,0,0,0,0,0,0,0,0
1706510668.93978500,222368517,1576,1577,1581,1580,0,0,0,0,0,0,0,0,0,0
1706510669.03974509,222468477,1575,1577,1584,1583,0,0,0,0,0,0,0,0,0,0
1706510669.13970518,222568437,1574,1575,1585,1584,0,0,0,0,0,0,0,0,0,0
1706510669.23966503,222668397,1573,1574,1585,1585,0,0,0,0,0,0,0,0,0,0
1706510669.33962512,222768357,1572,1573,1585,1583,0,0,0,0,0,0,0,0,0,0
1706510669.43958497,222868317,1573,1574,1584,1584,0,0,0,0,0,0,0,0,0,0
1706510669.53954506,222968277,1574,1575,1583,1583,0,0,0,0,0,0,0,0,0,0
1706510669.63950515,223068237,1575,1576,1582,1582,0,0,0,0,0,0,0,0,0,0
1706510669.73946500,223168197,1576,1577,1580,1580,0,0,0,0,0,0,0,0,0,0
1706510669.83942509,223268157,1578,1578,1579,1580,0,0,0,0,0,0,0,0,0,0
1706510669.94021797,223368950,1579,1579,1578,1578,0,0,0,0,0,0,0,0,0,0
1706510670.04017806,223468910,1580,1580,1577,1577,0,0,0,0,0,0,0,0,0,0
1706510670.14013815,223568870,1581,1581,1577,1577,0,0,0,0,0,0,0,0,0,0
1706510670.24009800,223668830,1582,1581,1577,1577,0,0,0,0,0,0,0,0,0,0
1706510670.34005809,223768790,1582,1582,1577,1577,0,0,0,0,0,0,0,0,0,0
1706510670.44001818,223868750,1582,1582,1577,1578,0,0,0,0,0,0,0,0,0,0
1706510670.53997803,223968710,1582,1582,1578,1578,0,0,0,0,0,0,0,0,0,0
1706510670.63993812,224068670,1582,1582,1579,1579,0,0,0,0,0,0,0,0,0,0
1706510670.73989797,224168630,1582,1582,1580,1580,0,0,0,0,0,0,0,0,0,0
1706510670.83985806,224268590,1582,1581,1580,1581,0,0,0,0,0,0,0,0,0,0
1706510670.93981814,224368550,1580,1581,1581,1581,0,0,0,0,0,0,0,0,0,0
1706510671.03977799,224468510,1580,1580,1581,1581,0,0,0,0,0,0,0,0,0,0
1706510671.13973808,224568470,1580,1580,1581,1581,0,0,0,0,0,0,0,0,0,0
1706510671.23969817,224668430,1580,1579,1582,1582,0,0,0,0,0,0,0,0,0,0
1706510671.33965802,224768390,1579,1579,1582,1581,0,0,0,0,0,0,0,0,0,0
1706510671.43961811,224868350,1579,1579,1581,1581,0,0,0,0,0,0,0,0,0,0
1706510671.53957820,224968310,1579,1580,1582,1579,0,0,0,0,0,0,0,0,0,0
1706510671.63953805,225068270,1579,1581,1587,1572,0,0,0,0,0,0,0,0,0,0
1706510671.73949814,225168230,1579,1579,1584,1573,0,0,0,0,0,0,0,0,0,0
1706510671.83945799,225268190,1577,1577,1578,1575,0,0,0,0,0,0,0,0,0,0
1706510671.94025111,225368983,1574,1573,1572,1575,0,0,0,0,0,0,0,0,0,0
1706510672.04021120,225468943,1571,1569,1567,1574,0,0,0,0,0,0,0,0,0,0
1706510672.14017105,225568903,1569,1568,1564,1572,0,0,0,0,0,0,0,0,0,0
1706510672.24013114,225668863,1567,1567,1564,1568,0,0,0,0,0,0,0,0,0,0
1706510672.34009099,225768823,1566,1567,1564,1566,0,0,0,0,0,0,0,0,0,0
1706510672.44005108,225868783,1567,1568,1566,1566,0,0,0,0,0,0,0,0,0,0
1706510672.54001117,225968743,1566,1566,1566,1564,0,0,0,0,0,0,0,0,0,0
1706510672.63997102,226068703,1566,1565,1567,1563,0,0,0,0,0,0,0,0,0,0
1706510672.73993111,226168663,1565,1565,1566,1563,0,0,0,0,0,0,0,0,0,0
1706510672.83989120,226268623,1565,1564,1565,1565,0,0,0,0,0,0,0,0,0,0
1706510672.93985105,226368583,1563,1563,1564,1564,0,0,0,0,0,0,0,0,0,0
1706510673.03981113,226468543,1563,1562,1564,1564,0,0,0,0,0,0,0,0,0,0
1706510673.13977098,226568503,1562,1562,1562,1563,0,0,0,0,0,0,0,0,0,0
1706510673.23973107,226668463,1562,1561,1562,1562,0,0,0,0,0,0,0,0,0,0
1706510673.33969116,226768423,1561,1561,1562,1562,0,0,0,0,0,0,0,0,0,0
1706510673.43965101,226868383,1561,1561,1562,1562,0,0,0,0,0,0,0,0,0,0
1706510673.53961110,226968343,1560,1560,1561,1560,0,0,0,0,0,0,0,0,0,0
1706510673.63957119,227068303,1560,1560,1561,1559,0,0,0,0,0,0,0,0,0,0
1706510673.73953104,227168263,1560,1560,1561,1560,0,0,0,0,0,0,0,0,0,0
1706510673.83949113,227268223,1560,1560,1560,1559,0,0,0,0,0,0,0,0,0,0
1706510673.93945098,227368183,1559,1559,1560,1559,0,0,0,0,0,0,0,0,0,0
1706510674.04024410,227468976,1559,1559,1560,1559,0,0,0,0,0,0,0,0,0,0
1706510674.14020419,227568936,1560,1559,1560,1559,0,0,0,0,0,0,0,0,0,0
1706510674.24016404,227668896,1561,1560,1562,1558,0,0,0,0,0,0,0,0,0,0
1706510674.34012413,227768856,1561,1559,1561,1559,0,0,0,0,0,0,0,0,0,0
1706510674.44008398,227868816,1561,1560,1559,1562,0,0,0,0,0,0,0,0,0,0
1706510674.54004407,227968776,1561,1561,1558,1564,0,0,0,0,0,0,0,0,0,0
1706510674.64000416,228068736,1561,1562,1558,1564,0,0,0,0,0,0,0,0,0,0
1706510674.73996401,228168696,1562,1562,1559,1564,0,0,0,0,0,0,0,0,0,0
1706510674.83992410,228268656,1562,1562,1560,1563,0,0,0,0,0,0,0,0,0,0
1706510674.93988419,228368616,1560,1560,1560,1559,0,0,0,0,0,0,0,0,0,0
1706510675.03984404,228468576,1561,1560,1561,1558,0,0,0,0,0,0,0,0,0,0
1706510675.13980412,228568536,1559,1558,1558,1558,0,0,0,0,0,0,0,0,0,0
1706510675.23976398,228668496,1555,1554,1554,1555,0,0,0,0,0,0,0,0,0,0
1706510675.33972406,228768456,1551,1550,1549,1551,0,0,0,0,0,0,0,0,0,0
1706510675.43968415,228868416,1544,1544,1544,1544,0,0,0,0,0,0,0,0,0,0
1706510675.53964400,228968376,1538,1538,1538,1538,0,0,0,0,0,0,0,0,0,0
1706510675.63960409,229068336,1531,1531,1531,1531,0,0,0,0,0,0,0,0,0,0
1706510675.73956418,229168296,1523,1524,1524,1524,0,0,0,0,0,0,0,0,0,0
1706510675.83952403,229268256,1519,1519,1519,1520,0,0,0,0,0,0,0,0,0,0
1706510675.93948412,229368216,1517,1519,1518,1520,0,0,0,0,0,0,0,0,0,0
1706510676.03944397,229468176,1518,1520,1518,1520,0,0,0,0,0,0,0,0,0,0
1706510676.14023709,229568969,1519,1521,1520,1521,0,0,0,0,0,0,0,0,0,0
1706510676.24019718,229668929,1524,1525,1524,1526,0,0,0,0,0,0,0,0,0,0
1706510676.34015703,229768889,1528,1528,1528,1528,0,0,0,0,0,0,0,0,0,0
1706510676.44011712,229868849,1534,1533,1534,1534,0,0,0,0,0,0,0,0,0,0
1706510676.54007697,229968809,1538,1536,1538,1536,0,0,0,0,0,0,0,0,0,0
1706510676.64003706,230068769,1540,1538,1541,1538,0,0,0,0,0,0,0,0,0,0
1706510676.73999715,230168729,1542,1540,1542,1540,0,0,0,0,0,0,0,0,0,0
1706510676.83995700,230268689,1543,1543,1544,1542,0,0,0,0,0,0,0,0,0,0
1706510676.93991709,230368649,1545,1544,1545,1544,0,0,0,0,0,0,0,0,0,0
1706510677.03987718,230468609,1546,1546,1546,1546,0,0,0,0,0,0,0,0,0,0
1706510677.13983703,230568569,1547,1547,1546,1546,0,0,0,0,0,0,0,0,0,0
1706510677.23979712,230668529,1546,1546,1546,1546,0,0,0,0,0,0,0,0,0,0
1706510677.33975697,230768489,1546,1547,1546,1546,0,0,0,0,0,0,0,0,0,0
1706510677.43971705,230868449,1546,1546,1546,1545,0,0,0,0,0,0,0,0,0,0
1706510677.53967714,230968409,1546,1546,1546,1546,0,0,0,0,0,0,0,0,0,0
1706510677.63963699,231068369,1545,1545,1545,1545,0,0,0,0,0,0,0,0,0,0
1706510677.73959708,231168329,1545,1546,1545,1546,0,0,0,0,0,0,0,0,0,0
1706510677.83955717,231268289,1545,1545,1545,1545,0,0,0,0,0,0,0,0,0,0
1706510677.93951702,231368249,1545,1545,1545,1545,0,0,0,0,0,0,0,0,0,0
1706510678.03947711,231468209,1545,1544,1545,1544,0,0,0,0,0,0,0,0,0,0
1706510678.13943720,231568169,1545,1545,1545,1545,0,0,0,0,0,0,0,0,0,0
1706510678.24023008,231668962,1545,1545,1545,1545,0,0,0,0,0,0,0,0,0,0
1706510678.34019017,231768922,1545,1544,1545,1544,0,0,0,0,0,0,0,0,0,0
1706510678.44015002,231868882,1544,1544,1544,1544,0,0,0,0,0,0,0,0,0,0
1706510678.54011011,231968842,1544,1544,1544,1544,0,0,0,0,0,0,0,0,0,0
1706510678.64007020,232068802,1544,1544,1544,1544,0,0,0,0,0,0,0,0,0,0
1706510678.74003005,232168762,1543,1544,1544,1543,0,0,0,0,0,0,0,0,0,0
1706510678.83999014,232268722,1544,1544,1544,1544,0,0,0,0,0,0,0,0,0,0
1706510678.93994999,232368682,1544,1544,1544,1544,0,0,0,0,0,0,0,0,0,0
1706510679.03991008,232468642,1544,1544,1544,1544,0,0,0,0,0,0,0,0,0,0
1706510679.13987017,232568602,1544,1544,1544,1544,0,0,0,0,0,0,0,0,0,0
1706510679.23983002,232668562,1545,1544,1544,1545,0,0,0,0,0,0,0,0,0,0
1706510679.33979011,232768522,1544,1543,1544,1544,0,0,0,0,0,0,0,0,0,0
1706510679.43975019,232868482,1544,1544,1544,1543,0,0,0,0,0,0,0,0,0,0
1706510679.53971004,232968442,1543,1543,1543,1542,0,0,0,0,0,0,0,0,0,0
1706510679.63967013,233068402,1544,1543,1544,1544,0,0,0,0,0,0,0,0,0,0
1706510679.73962998,233168362,1543,1544,1543,1543,0,0,0,0,0,0,0,0,0,0
1706510679.83959007,233268322,1543,1543,1543,1543,0,0,0,0,0,0,0,0,0,0
1706510679.93955016,233368282,1543,1543,1543,1543,0,0,0,0,0,0,0,0,0,0
1706510680.03951001,233468242,1544,1543,1543,1544,0,0,0,0,0,0,0,0,0,0
1706510680.13947010,233568202,1544,1544,1544,1544,0,0,0,0,0,0,0,0,0,0
1706510680.23943019,233668162,1543,1543,1543,1543,0,0,0,0,0,0,0,0,0,0
1706510680.34022307,233768955,1544,1544,1544,1544,0,0,0,0,0,0,0,0,0,0
1706510680.44018316,233868915,1544,1544,1544,1544,0,0,0,0,0,0,0,0,0,0
1706510680.54014301,233968875,1544,1545,1544,1544,0,0,0,0,0,0,0,0,0,0
1706510680.64010310,234068835,1544,1544,1544,1543,0,0,0,0,0,0,0,0,0,0
1706510680.74006319,234168795,1545,1544,1545,1544,0,0,0,0,0,0,0,0,0,0
1706510680.84002304,234268755,1545,1545,1545,1545,0,0,0,0,0,0,0,0,0,0
1706510680.93998313,234368715,1544,1545,1544,1545,0,0,0,0,0,0,0,0,0,0
1706510681.03994298,234468675,1544,1544,1544,1544,0,0,0,0,0,0,0,0,0,0
1706510681.13990307,234568635,1544,1544,1544,1544,0,0,0,0,0,0,0,0,0,0
1706510681.23986316,234668595,1545,1545,1545,1545,0,0,0,0,0,0,0,0,0,0
1706510681.33982301,234768555,1544,1543,1544,1544,0,0,0,0,0,0,0,0,0,0
1706510681.43978310,234868515,1543,1543,1543,1544,0,0,0,0,0,0,0,0,0,0
1706510681.53974319,234968475,1544,1544,1544,1544,0,0,0,0,0,0,0,0,0,0
1706510681.63970304,235068435,1543,1544,1543,1543,0,0,0,0,0,0,0,0,0,0
1706510681.73966312,235168395,1544,1544,1544,1544,0,0,0,0,0,0,0,0,0,0
1706510681.83962297,235268355,1543,1544,1544,1544,0,0,0,0,0,0,0,0,0,0
1706510681.93958306,235368315,1544,1544,1544,1544,0,0,0,0,0,0,0,0,0,0
1706510682.03954315,235468275,1544,1544,1544,1544,0,0,0,0,0,0,0,0,0,0
1706510682.13950300,235568235,1544,1544,1544,1544,0,0,0,0,0,0,0,0,0,0
1706510682.23946309,235668195,1545,1545,1545,1545,0,0,0,0,0,0,0,0,0,0
1706510682.33942318,235768155,1544,1544,1545,1544,0,0,0,0,0,0,0,0,0,0
1706510682.44021606,235868948,1544,1544,1544,1544,0,0,0,0,0,0,0,0,0,0
1706510682.54017615,235968908,1544,1544,1544,1544,0,0,0,0,0,0,0,0,0,0
1706510682.64013600,236068868,1544,1545,1545,1544,0,0,0,0,0,0,0,0,0,0
1706510682.74009609,236168828,1545,1545,1545,1545,0,0,0,0,0,0,0,0,0,0
1706510682.84005618,236268788,1545,1545,1545,1545,0,0,0,0,0,0,0,0,0,0
1706510682.94001603,236368748,1545,1545,1545,1545,0,0,0,0,0,0,0,0,0,0
1706510683.03997612,236468708,1544,1544,1544,1544,0,0,0,0,0,0,0,0,0,0
1706510683.13993597,236568668,1545,1546,1545,1546,0,0,0,0,0,0,0,0,0,0
1706510683.23989606,236668628,1545,1545,1545,1545,0,0,0,0,0,0,0,0,0,0
1706510683.33985615,236768588,1544,1545,1545,1544,0,0,0,0,0,0,0,0,0,0
1706510683.43981600,236868548,1544,1544,1545,1544,0,0,0,0,0,0,0,0,0,0
1706510683.53977609,236968508,1544,1545,1545,1544,0,0,0,0,0,0,0,0,0,0
1706510683.63973618,237068468,1544,1544,1544,1545,0,0,0,0,0,0,0,0,0,0
1706510683.73969603,237168428,1545,1545,1545,1545,0,0,0,0,0,0,0,0,0,0
1706510683.83965611,237268388,1543,1544,1544,1543,0,0,0,0,0,0,0,0,0,0
1706510683.93961596,237368348,1543,1543,1544,1543,0,0,0,0,0,0,0,0,0,0
1706510684.03957605,237468308,1544,1544,1544,1544,0,0,0,0,0,0,0,0,0,0
1706510684.13953614,237568268,1545,1545,1545,1545,0,0,0,0,0,0,0,0,0,0
1706510684.23949599,237668228,1545,1545,1545,1544,0,0,0,0,0,0,0,0,0,0
1706510684.33945608,237768188,1544,1544,1544,1544,0,0,0,0,0,0,0,0,0,0
1706510684.44024897,237868981,1544,1544,1544,1544,0,0,0,0,0,0,0,0,0,0
1706510684.54020905,237968941,1544,1544,1544,1544,0,0,0,0,0,0,0,0,0,0
1706510684.64016914,238068901,1545,1544,1544,1545,0,0,0,0,0,0,0,0,0,0
1706510684.74012899,238168861,1544,1545,1544,1545,0,0,0,0,0,0,0,0,0,0
1706510684.84008908,238268821,1544,1545,1544,1544,0,0,0,0,0,0,0,0,0,0
1706510684.94004917,238368781,1545,1545,1545,1545,0,0,0,0,0,0,0,0,0,0
1706510685.04000902,238468741,1544,1544,1544,1544,0,0,0,0,0,0,0,0,0,0
1706510685.13996911,238568701,1545,1545,1544,1545,0,0,0,0,0,0,0,0,0,0
1706510685.23992920,238668661,1544,1544,1544,1544,0,0,0,0,0,0,0,0,0,0
1706510685.33988905,238768621,1544,1544,1544,1544,0,0,0,0,0,0,0,0,0,0
1706510685.43984914,238868581,1544,1544,1544,1544,0,0,0,0,0,0,0,0,0,0
1706510685.53980899,238968541,1536,1535,1538,1533,0,0,0,0,0,0,0,0,0,0
1706510685.63976908,239068501,1410,1346,1412,1343,0,0,0,0,0,0,0,0,0,0
1706510685.73972917,239168461,1352,1246,1354,1243,0,0,0,0,0,0,0,0,0,0
1706510685.83968902,239268421,1334,1214,1337,1210,0,0,0,0,0,0,0,0,0,0
1706510685.93964911,239368381,1323,1193,1326,1189,0,0,0,0,0,0,0,0,0,0
1706510686.03960919,239468341,1305,1154,1308,1150,0,0,0,0,0,0,0,0,0,0
1706510686.13956904,239568301,1229,1153,1231,1150,0,0,0,0,0,0,0,0,0,0
1706510686.23952913,239668261,1131,1152,1133,1150,0,0,0,0,0,0,0,0,0,0
1706510686.33948898,239768221,1018,1151,1020,1150,0,0,0,0,0,0,0,0,0,0
1706510686.43944907,239868181,1009,1151,1011,1150,0,0,0,0,0,0,0,0,0,0
1706510686.54024220,239968974,1009,1151,1011,1150,0,0,0,0,0,0,0,0,0,0
1706510686.64020205,240068934,1010,1150,1010,1151,0,0,0,0,0,0,0,0,0,0
1706510686.74016213,240168894,1011,1150,997,1169,0,0,0,0,0,0,0,0,0,0
1706510686.84012198,240268854,1010,1150,1002,1162,0,0,0,0,0,0,0,0,0,0
1706510686.94008207,240368814,1010,1150,1004,1160,0,0,0,0,0,0,0,0,0,0
1706510687.04004216,240468774,1010,1150,1004,1160,0,0,0,0,0,0,0,0,0,0
1706510687.14000201,240568734,1010,1150,1003,1161,0,0,0,0,0,0,0,0,0,0
1706510687.23996210,240668694,1010,1150,1002,1162,0,0,0,0,0,0,0,0,0,0
1706510687.33992219,240768654,1010,1150,1002,1163,0,0,0,0,0,0,0,0,0,0
1706510687.43988204,240868614,1009,1151,1012,1150,0,0,0,0,0,0,0,0,0,0
1706510687.53984213,240968574,1010,1150,1008,1155,0,0,0,0,0,0,0,0,0,0
1706510687.63980198,241068534,1010,1150,1007,1156,0,0,0,0,0,0,0,0,0,0
1706510687.73976207,241168494,1010,1150,1007,1156,0,0,0,0,0,0,0,0,0,0
1706510687.83972216,241268454,1010,1150,1007,1157,0,0,0,0,0,0,0,0,0,0
1706510687.93968201,241368414,836,1148,836,1148,0,0,0,0,0,0,0,0,0,0
1706510688.03964210,241468374,1000,1000,1000,1000,0,0,0,0,0,0,0,0,0,0
1706510688.13960218,241568334,1000,1000,1000,1000,0,0,0,0,0,0,0,0,0,0
1706510688.23956203,241668294,1000,1000,1000,1000,0,0,0,0,0,0,0,0,0,0
1706510688.33952212,241768254,1000,1000,1000,1000,0,0,0,0,0,0,0,0,0,0
1706510688.43948197,241868214,1000,1000,1000,1000,0,0,0,0,0,0,0,0,0,0
1706510688.53944206,241968174,1000,1000,1000,1000,0,0,0,0,0,0,0,0,0,0
1706510688.64023519,242068967,1000,1000,1000,1000,0,0,0,0,0,0,0,0,0,0
1706510688.74019504,242168927,1000,1000,1000,1000,0,0,0,0,0,0,0,0,0,0
1706510688.84015512,242268887,1000,1000,1000,1000,0,0,0,0,0,0,0,0,0,0
1706510688.94011497,242368847,1000,1000,1000,1000,0,0,0,0,0,0,0,0,0,0
1706510689.04007506,242468807,1000,1000,1000,1000,0,0,0,0,0,0,0,0,0,0
1706510689.14003515,242568767,1000,1000,1000,1000,0,0,0,0,0,0,0,0,0,0
1706510689.23999500,242668727,1000,1000,1000,1000,0,0,0,0,0,0,0,0,0,0
1706510689.33995509,242768687,1000,1000,1000,1000,0,0,0,0,0,0,0,0,0,0
1706510689.43991518,242868647,1000,1000,1000,1000,0,0,0,0,0,0,0,0,0,0
1706510689.53987503,242968607,1000,1000,1000,1000,0,0,0,0,0,0,0,0,0,0
1706510689.63983512,243068567,1000,1000,1000,1000,0,0,0,0,0,0,0,0,0,0
1706510689.73979497,243168527,1000,1000,1000,1000,0,0,0,0,0,0,0,0,0,0
1706510689.83975506,243268487,1000,1000,1000,1000,0,0,0,0,0,0,0,0,0,0
1706510689.93971515,243368447,1000,1000,1000,1000,0,0,0,0,0,0,0,0,0,0
1706510690.03967500,243468407,1000,1000,1000,1000,0,0,0,0,0,0,0,0,0,0
1706510690.13963509,243568367,1000,1000,1000,1000,0,0,0,0,0,0,0,0,0,0
1706510690.23959517,243668327,1000,1000,1000,1000,0,0,0,0,0,0,0,0,0,0
1706510690.33955503,243768287,1000,1000,1000,1000,0,0,0,0,0,0,0,0,0,0
1706510690.43951511,243868247,1000,1000,1000,1000,0,0,0,0,0,0,0,0,0,0
1706510690.53947496,243968207,1000,1000,1000,1000,0,0,0,0,0,0,0,0,0,0
1706510690.63943505,244068167,1000,1000,1000,1000,0,0,0,0,0,0,0,0,0,0
1706510690.74022818,244168960,1000,1000,1000,1000,0,0,0,0,0,0,0,0,0,0
1706510690.84018803,244268920,1000,1000,1000,1000,0,0,0,0,0,0,0,0,0,0
1706510690.94014812,244368880,1000,1000,1000,1000,0,0,0,0,0,0,0,0,0,0
1706510691.04010797,244468840,1000,1000,1000,1000,0,0,0,0,0,0,0,0,0,0
1706510691.14006805,244568800,1000,1000,1000,1000,0,0,0,0,0,0,0,0,0,0
1706510691.24002814,244668760,1000,1000,1000,1000,0,0,0,0,0,0,0,0,0,0
1706510691.33998799,244768720,1000,1000,1000,1000,0,0,0,0,0,0,0,0,0,0
1706510691.43994808,244868680,1000,1000,1000,1000,0,0,0,0,0,0,0,0,0,0
1706510691.53990817,244968640,1000,1000,1000,1000,0,0,0,0,0,0,0,0,0,0
1706510691.63986802,245068600,1000,1000,1000,1000,0,0,0,0,0,0,0,0,0,0
1706510691.73982811,245168560,1000,1000,1000,1000,0,0,0,0,0,0,0,0,0,0
1706510691.83978820,245268520,1000,1000,1000,1000,0,0,0,0,0,0,0,0,0,0
1706510691.93974805,245368480,1000,1000,1000,1000,0,0,0,0,0,0,0,0,0,0
1706510692.03970814,245468440,1000,1000,1000,1000,0,0,0,0,0,0,0,0,0,0
1706510692.13966799,245568400,1000,1000,1000,1000,0,0,0,0,0,0,0,0,0,0
1706510692.23962808,245668360,1000,1000,1000,1000,0,0,0,0,0,0,0,0,0,0
1706510692.33958817,245768320,1000,1000,1000,1000,0,0,0,0,0,0,0,0,0,0
1706510692.43954802,245868280,1000,1000,1000,1000,0,0,0,0,0,0,0,0,0,0
1706510692.53950810,245968240,1000,1000,1000,1000,0,0,0,0,0,0,0,0,0,0
1706510692.63946819,246068200,1000,1000,1000,1000,0,0,0,0,0,0,0,0,0,0
1706510692.73942804,246168160,1000,1000,1000,1000,0,0,0,0,0,0,0,0,0,0
1706510692.84022117,246268953,1000,1000,1000,1000,0,0,0,0,0,0,0,0,0,0
1706510692.94018102,246368913,1000,1000,1000,1000,0,0,0,0,0,0,0,0,0,0
1706510693.04014111,246468873,1000,1000,1000,1000,0,0,0,0,0,0,0,0,0,0
1706510693.14010119,246568833,1000,1000,1000,1000,0,0,0,0,0,0,0,0,0,0
1706510693.24006104,246668793,1000,1000,1000,1000,0,0,0,0,0,0,0,0,0,0
1706510693.34002113,246768753,1000,1000,1000,1000,0,0,0,0,0,0,0,0,0,0
1706510693.43998098,246868713,1000,1000,1000,1000,0,0,0,0,0,0,0,0,0,0
1706510693.53994107,246968673,1000,1000,1000,1000,0,0,0,0,0,0,0,0,0,0
1706510693.63990116,247068633,1000,1000,1000,1000,0,0,0,0,0,0,0,0,0,0
1706510693.73986101,247168593,1000,1000,1000,1000,0,0,0,0,0,0,0,0,0,0
1706510693.83982110,247268553,1000,1000,1000,1000,0,0,0,0,0,0,0,0,0,0
1706510693.93978119,247368513,1000,1000,1000,1000,0,0,0,0,0,0,0,0,0,0
1706510694.03974104,247468473,1000,1000,1000,1000,0,0,0,0,0,0,0,0,0,0
1706510694.13970113,247568433,1000,1000,1000,1000,0,0,0,0,0,0,0,0,0,0
1706510694.23966098,247668393,1000,1000,1000,1000,0,0,0,0,0,0,0,0,0,0
1706510694.33962107,247768353,1000,1000,1000,1000,0,0,0,0,0,0,0,0,0,0
1706510694.43958116,247868313,1000,1000,1000,1000,0,0,0,0,0,0,0,0,0,0
1706510694.53954101,247968273,1000,1000,1000,1000,0,0,0,0,0,0,0,0,0,0
1706510694.63950109,248068233,1000,1000,1000,1000,0,0,0,0,0,0,0,0,0,0
1706510694.73946118,248168193,1000,1000,1000,1000,0,0,0,0,0,0,0,0,0,0
1706510694.84025407,248268986,1000,1000,1000,1000,0,0,0,0,0,0,0,0,0,0
1706510694.94021416,248368946,1000,1000,1000,1000,0,0,0,0,0,0,0,0,0,0
1706510695.04017401,248468906,1000,1000,1000,1000,0,0,0,0,0,0,0,0,0,0
1706510695.14013410,248568866,1000,1000,1000,1000,0,0,0,0,0,0,0,0,0,0
1706510695.24009418,248668826,1000,1000,1000,1000,0,0,0,0,0,0,0,0,0,0
1706510695.34005404,248768786,1000,1000,1000,1000,0,0,0,0,0,0,0,0,0,0
1706510695.44001412,248868746,1000,1000,1000,1000,0,0,0,0,0,0,0,0,0,0
1706510695.53997397,248968706,1000,1000,1000,1000,0,0,0,0,0,0,0,0,0,0
1706510695.63993406,249068666,1000,1000,1000,1000,0,0,0,0,0,0,0,0,0,0
1706510695.73989415,249168626,1000,1000,1000,1000,0,0,0,0,0,0,0,0,0,0
1706510695.83985400,249268586,1000,1000,1000,1000,0,0,0,0,0,0,0,0,0,0
1706510695.93981409,249368546,1000,1000,1000,1000,0,0,0,0,0,0,0,0,0,0
1706510696.03977418,249468506,1000,1000,1000,1000,0,0,0,0,0,0,0,0,0,0
1706510696.13973403,249568466,1000,1000,1000,1000,0,0,0,0,0,0,0,0,0,0
1706510696.23969412,249668426,1000,1000,1000,1000,0,0,0,0,0,0,0,0,0,0
1706510696.33965397,249768386,1000,1000,1000,1000,0,0,0,0,0,0,0,0,0,0
1706510696.43961406,249868346,1000,1000,1000,1000,0,0,0,0,0,0,0,0,0,0
1706510696.53957415,249968306,1000,1000,1000,1000,0,0,0,0,0,0,0,0,0,0
1706510696.63953400,250068266,1000,1000,1000,1000,0,0,0,0,0,0,0,0,0,0
1706510696.73949409,250168226,1000,1000,1000,1000,0,0,0,0,0,0,0,0,0,0
1706510696.83945417,250268186,1000,1000,1000,1000,0,0,0,0,0,0,0,0,0,0
1706510696.94024706,250368979,1000,1000,1000,1000,0,0,0,0,0,0,0,0,0,0
1706510697.04020715,250468939,1000,1000,1000,1000,0,0,0,0,0,0,0,0,0,0
1706510697.14016700,250568899,1000,1000,1000,1000,0,0,0,0,0,0,0,0,0,0
1706510697.24012709,250668859,1000,1000,1000,1000,0,0,0,0,0,0,0,0,0,0
1706510697.34008718,250768819,1000,1000,1000,1000,0,0,0,0,0,0,0,0,0,0
1706510697.44004703,250868779,1000,1000,1000,1000,0,0,0,0,0,0,0,0,0,0
1706510697.54000711,250968739,1000,1000,1000,1000,0,0,0,0,0,0,0,0,0,0
1706510697.63996696,251068699,1000,1000,1000,1000,0,0,0,0,0,0,0,0,0,0
1706510697.73992705,251168659,1000,1000,1000,1000,0,0,0,0,0,0,0,0,0,0
1706510697.83988714,251268619,1000,1000,1000,1000,0,0,0,0,0,0,0,0,0,0
1706510697.93984699,251368579,1000,1000,1000,1000,0,0,0,0,0,0,0,0,0,0
1706510698.03980708,251468539,1000,1000,1000,1000,0,0,0,0,0,0,0,0,0,0
1706510698.13976717,251568499,1000,1000,1000,1000,0,0,0,0,0,0,0,0,0,0
1706510698.23972702,251668459,1000,1000,1000,1000,0,0,0,0,0,0,0,0,0,0
1706510698.33968711,251768419,1000,1000,1000,1000,0,0,0,0,0,0,0,0,0,0
1706510698.43964720,251868379,1000,1000,1000,1000,0,0,0,0,0,0,0,0,0,0
1706510698.53960705,251968339,1000,1000,1000,1000,0,0,0,0,0,0,0,0,0,0
1706510698.63956714,252068299,1000,1000,1000,1000,0,0,0,0,0,0,0,0,0,0
1706510698.73952699,252168259,1000,1000,1000,1000,0,0,0,0,0,0,0,0,0,0
1706510698.83948708,252268219,1000,1000,1000,1000,0,0,0,0,0,0,0,0,0,0
1706510698.93944716,252368179,1000,1000,1000,1000,0,0,0,0,0,0,0,0,0,0
1706510699.04024005,252468972,1000,1000,1000,1000,0,0,0,0,0,0,0,0,0,0
1706510699.14020014,252568932,1000,1000,1000,1000,0,0,0,0,0,0,0,0,0,0
1706510699.24015999,252668892,1000,1000,1000,1000,0,0,0,0,0,0,0,0,0,0
1706510699.34012008,252768852,1000,1000,1000,1000,0,0,0,0,0,0,0,0,0,0
1706510699.44008017,252868812,1000,1000,1000,1000,0,0,0,0,0,0,0,0,0,0
1706510699.54004002,252968772,1000,1000,1000,1000,0,0,0,0,0,0,0,0,0,0
1706510699.64000010,253068732,1000,1000,1000,1000,0,0,0,0,0,0,0,0,0,0
1706510699.73996019,253168692,1000,1000,1000,1000,0,0,0,0,0,0,0,0,0,0
1706510699.83992004,253268652,1000,1000,1000,1000,0,0,0,0,0,0,0,0,0,0
1706510699.93988013,253368612,1000,1000,1000,1000,0,0,0,0,0,0,0,0,0,0
1706510700.03983998,253468572,1000,1000,1000,1000,0,0,0,0,0,0,0,0,0,0
1706510700.13980007,253568532,1000,1000,1000,1000,0,0,0,0,0,0,0,0,0,0
1706510700.23976016,253668492,1000,1000,1000,1000,0,0,0,0,0,0,0,0,0,0
1706510700.33972001,253768452,1000,1000,1000,1000,0,0,0,0,0,0,0,0,0,0
1706510700.43968010,253868412,1000,1000,1000,1000,0,0,0,0,0,0,0,0,0,0
1706510700.53964019,253968372,1000,1000,1000,1000,0,0,0,0,0,0,0,0,0,0
1706510700.63960004,254068332,1000,1000,1000,1000,0,0,0,0,0,0,0,0,0,0
1706510700.73956013,254168292,1000,1000,1000,1000,0,0,0,0,0,0,0,0,0,0
1706510700.83951998,254268252,1000,1000,1000,1000,0,0,0,0,0,0,0,0,0,0
1706510700.93948007,254368212,1000,1000,1000,1000,0,0,0,0,0,0,0,0,0,0
1706510701.03944016,254468172,1000,1000,1000,1000,0,0,0,0,0,0,0,0,0,0
1706510701.14023304,254568965,1000,1000,1000,1000,0,0,0,0,0,0,0,0,0,0
1706510701.24019313,254668925,1000,1000,1000,1000,0,0,0,0,0,0,0,0,0,0
1706510701.34015298,254768885,1000,1000,1000,1000,0,0,0,0,0,0,0,0,0,0
1706510701.44011307,254868845,1000,1000,1000,1000,0,0,0,0,0,0,0,0,0,0
1706510701.54007316,254968805,1000,1000,1000,1000,0,0,0,0,0,0,0,0,0,0
1706510701.64003301,255068765,1000,1000,1000,1000,0,0,0,0,0,0,0,0,0,0
1706510701.73999310,255168725,1000,1000,1000,1000,0,0,0,0,0,0,0,0,0,0
1706510701.83995318,255268685,1000,1000,1000,1000,0,0,0,0,0,0,0,0,0,0
1706510701.93991303,255368645,1000,1000,1000,1000,0,0,0,0,0,0,0,0,0,0
1706510702.03987312,255468605,1000,1000,1000,1000,0,0,0,0,0,0,0,0,0,0
1706510702.13983297,255568565,1000,1000,1000,1000,0,0,0,0,0,0,0,0,0,0
1706510702.23979306,255668525,1000,1000,1000,1000,0,0,0,0,0,0,0,0,0,0
1706510702.33975315,255768485,1000,1000,1000,1000,0,0,0,0,0,0,0,0,0,0
1706510702.43971300,255868445,1000,1000,1000,1000,0,0,0,0,0,0,0,0,0,0
1706510702.53967309,255968405,1000,1000,1000,1000,0,0,0,0,0,0,0,0,0,0
1706510702.63963318,256068365,1000,1000,1000,1000,0,0,0,0,0,0,0,0,0,0
1706510702.73959303,256168325,1000,1000,1000,1000,0,0,0,0,0,0,0,0,0,0
1706510702.83955312,256268285,1000,1000,1000,1000,0,0,0,0,0,0,0,0,0,0
