TimeUS,M1,M2,M3,M4,TimeUS,C1,C2,C3,C4
55381172,1000,1000,1000,1000,55428653,1000,1000,1000,1000
55383671,1000,1000,1000,1000,55528613,1000,1000,1000,1000
55386170,1000,1000,1000,1000,55628573,1000,1000,1000,1000
55388669,1000,1000,1000,1000,55728533,1000,1000,1000,1000
55391168,1000,1000,1000,1000,55828493,1000,1000,1000,1000
55393667,1000,1000,1000,1000,55928453,1000,1000,1000,1000
55396166,1000,1000,1000,1000,56028413,1000,1000,1000,1000
55398665,1000,1000,1000,1000,56128373,1000,1000,1000,1000
55401164,1000,1000,1000,1000,56228333,1000,1000,1000,1000
55403663,1000,1000,1000,1000,56328293,1000,1000,1000,1000
55406162,1000,1000,1000,1000,56428253,1000,1000,1000,1000
55408661,1000,1000,1000,1000,56528213,1000,1000,1000,1000
55411160,1000,1000,1000,1000,56628173,1000,1000,1000,1000
55413659,1000,1000,1000,1000,56728966,1000,1000,1000,1000
55416158,1000,1000,1000,1000,56828926,1000,1000,1000,1000
55418657,1000,1000,1000,1000,56928886,1000,1000,1000,1000
55421156,1000,1000,1000,1000,57028846,1000,1000,1000,1000
55423655,1000,1000,1000,1000,57128806,1000,1000,1000,1000
55426154,1000,1000,1000,1000,57228766,1000,1000,1000,1000
55428653,1000,1000,1000,1000,57328726,1000,1000,1000,1000
55431152,1000,1000,1000,1000,57428686,1014,1014,1014,1014
55433651,1000,1000,1000,1000,57528646,1044,1044,1044,1044
55436150,1000,1000,1000,1000,57628606,1074,1074,1074,1074
55438649,1000,1000,1000,1000,57728566,1104,1104,1104,1104
55441148,1000,1000,1000,1000,57828526,1134,1134,1134,1134
55443647,1000,1000,1000,1000,57928486,1282,1274,1275,1282
55446146,1000,1000,1000,1000,58028446,1490,1485,1485,1490
55448645,1000,1000,1000,1000,58128406,1652,1647,1648,1652
55451144,1000,1000,1000,1000,58228366,1789,1784,1785,1789
55453643,1000,1000,1000,1000,58328326,1841,1836,1836,1841
55456142,1000,1000,1000,1000,58428286,1856,1853,1854,1857
55458641,1000,1000,1000,1000,58528246,1740,1739,1739,1740
55461140,1000,1000,1000,1000,58628206,1639,1640,1640,1639
55463639,1000,1000,1000,1000,58728166,1612,1614,1614,1612
55466138,1000,1000,1000,1000,58828959,1624,1627,1626,1624
55468637,1000,1000,1000,1000,58928919,1638,1640,1640,1639
55471136,1000,1000,1000,1000,59028879,1642,1642,1642,1642
55473635,1000,1000,1000,1000,59128839,1637,1636,1636,1637
55476134,1000,1000,1000,1000,59228799,1629,1628,1629,1629
55478633,1000,1000,1000,1000,59328759,1626,1624,1624,1625
55481132,1000,1000,1000,1000,59428719,1602,1602,1602,1602
55483631,1000,1000,1000,1000,59528679,1588,1588,1584,1592
55486130,1000,1000,1000,1000,59628639,1584,1583,1575,1591
55488629,1000,1000,1000,1000,59728599,1581,1579,1573,1586
55491128,1000,1000,1000,1000,59828559,1580,1579,1577,1581
55493627,1000,1000,1000,1000,59928519,1581,1582,1583,1580
55496126,1000,1000,1000,1000,60028479,1584,1585,1588,1581
55498625,1000,1000,1000,1000,60128439,1572,1572,1583,1561
55501124,1000,1000,1000,1000,60228399,1560,1561,1575,1546
55503623,1000,1000,1000,1000,60328359,1552,1552,1558,1547
55506122,1000,1000,1000,1000,60428319,1543,1543,1540,1548
55508621,1000,1000,1000,1000,60528279,1537,1536,1528,1546
55511120,1000,1000,1000,1000,60628239,1531,1531,1522,1541
55513619,1000,1000,1000,1000,60728199,1531,1531,1525,1538
55516118,1000,1000,1000,1000,60828159,1533,1533,1531,1536
55518617,1000,1000,1000,1000,60928952,1536,1535,1537,1534
55521116,1000,1000,1000,1000,61028912,1539,1539,1544,1535
55523615,1000,1000,1000,1000,61128872,1542,1542,1547,1538
55526114,1000,1000,1000,1000,61228832,1546,1546,1549,1542
55528613,1000,1000,1000,1000,61328792,1548,1548,1549,1547
55531112,1000,1000,1000,1000,61428752,1550,1550,1549,1551
55533611,1000,1000,1000,1000,61528712,1549,1548,1557,1561
55536110,1000,1000,1000,1000,61628672,1550,1550,1559,1563
55538609,1000,1000,1000,1000,61728632,1554,1554,1560,1563
55541108,1000,1000,1000,1000,61828592,1558,1557,1561,1562
55543607,1000,1000,1000,1000,61928552,1561,1561,1561,1561
55546106,1000,1000,1000,1000,62028512,1564,1565,1562,1562
55548605,1000,1000,1000,1000,62128472,1568,1568,1564,1564
55551104,1000,1000,1000,1000,62228432,1570,1569,1564,1563
55553603,1000,1000,1000,1000,62328392,1571,1571,1565,1565
55556102,1000,1000,1000,1000,62428352,1572,1572,1566,1567
55558601,1000,1000,1000,1000,62528312,1574,1573,1568,1568
55561100,1000,1000,1000,1000,62628272,1574,1574,1570,1570
55563599,1000,1000,1000,1000,62728232,1574,1574,1572,1572
55566098,1000,1000,1000,1000,62828192,1574,1574,1573,1573
55568597,1000,1000,1000,1000,62928985,1574,1575,1576,1574
55571096,1000,1000,1000,1000,63028945,1575,1576,1577,1576
55573595,1000,1000,1000,1000,63128905,1576,1576,1578,1577
55576094,1000,1000,1000,1000,63228865,1576,1576,1578,1577
55578593,1000,1000,1000,1000,63328825,1575,1575,1577,1577
55581092,1000,1000,1000,1000,63428785,1574,1574,1576,1576
55583591,1000,1000,1000,1000,63528745,1575,1574,1576,1576
55586090,1000,1000,1000,1000,63628705,1574,1574,1575,1575
55588589,1000,1000,1000,1000,63728665,1575,1575,1575,1576
55591088,1000,1000,1000,1000,63828625,1575,1576,1575,1575
55593587,1000,1000,1000,1000,63928585,1576,1576,1576,1575
55596086,1000,1000,1000,1000,64028545,1576,1576,1576,1576
55598585,1000,1000,1000,1000,64128505,1577,1577,1576,1576
55601084,1000,1000,1000,1000,64228465,1577,1577,1576,1576
55603583,1000,1000,1000,1000,64328425,1578,1577,1577,1576
55606082,1000,1000,1000,1000,64428385,1578,1578,1577,1577
55608581,1000,1000,1000,1000,64528345,1578,1577,1577,1577
55611080,1000,1000,1000,1000,64628305,1578,1578,1578,1578
55613579,1000,1000,1000,1000,64728265,1578,1579,1578,1579
55616078,1000,1000,1000,1000,64828225,1578,1578,1579,1579
55618577,1000,1000,1000,1000,64928185,1579,1579,1579,1579
55621076,1000,1000,1000,1000,65028978,1579,1579,1579,1579
55623575,1000,1000,1000,1000,65128938,1579,1579,1579,1579
55626074,1000,1000,1000,1000,65228898,1578,1578,1578,1579
55628573,1000,1000,1000,1000,65328858,1579,1578,1579,1579
55631072,1000,1000,1000,1000,65428818,1579,1578,1579,1579
55633571,1000,1000,1000,1000,65528778,1580,1580,1580,1580
55636070,1000,1000,1000,1000,65628738,1580,1580,1580,1580
55638569,1000,1000,1000,1000,65728698,1579,1579,1579,1579
55641068,1000,1000,1000,1000,65828658,1579,1580,1580,1580
55643567,1000,1000,1000,1000,65928618,1580,1580,1580,1580
55646066,1000,1000,1000,1000,66028578,1580,1580,1580,1580
55648565,1000,1000,1000,1000,66128538,1580,1581,1580,1580
55651064,1000,1000,1000,1000,66228498,1581,1581,1581,1581
55653563,1000,1000,1000,1000,66328458,1581,1580,1581,1580
55656062,1000,1000,1000,1000,66428418,1581,1581,1581,1581
55658561,1000,1000,1000,1000,66528378,1581,1581,1580,1581
55661060,1000,1000,1000,1000,66628338,1581,1581,1581,1581
55663559,1000,1000,1000,1000,66728298,1581,1581,1581,1581
55666058,1000,1000,1000,1000,66828258,1580,1581,1580,1580
55668557,1000,1000,1000,1000,66928218,1580,1580,1580,1580
55671056,1000,1000,1000,1000,67028178,1580,1580,1580,1581
55673555,1000,1000,1000,1000,67128971,1581,1580,1581,1581
55676054,1000,1000,1000,1000,67228931,1581,1581,1581,1581
55678553,1000,1000,1000,1000,67328891,1580,1580,1581,1580
55681052,1000,1000,1000,1000,67428851,1581,1581,1581,1581
55683551,1000,1000,1000,1000,67528811,1580,1580,1580,1580
55686050,1000,1000,1000,1000,67628771,1580,1580,1580,1580
55688549,1000,1000,1000,1000,67728731,1581,1581,1581,1581
55691048,1000,1000,1000,1000,67828691,1580,1582,1588,1573
55693547,1000,1000,1000,1000,67928651,1580,1582,1585,1573
55696046,1000,1000,1000,1000,68028611,1578,1581,1576,1573
55698545,1000,1000,1000,1000,68128571,1578,1581,1568,1572
55701044,1000,1000,1000,1000,68228531,1577,1579,1561,1568
55703543,1000,1000,1000,1000,68328491,1578,1578,1557,1563
55706042,1000,1000,1000,1000,68428451,1579,1577,1555,1559
55708541,1000,1000,1000,1000,68528411,1580,1578,1556,1556
55711040,1000,1000,1000,1000,68628371,1578,1577,1556,1554
55713539,1000,1000,1000,1000,68728331,1577,1577,1555,1552
55716038,1000,1000,1000,1000,68828291,1577,1577,1556,1553
55718537,1000,1000,1000,1000,68928251,1575,1577,1555,1554
55721036,1000,1000,1000,1000,69028211,1574,1576,1554,1554
55723535,1000,1000,1000,1000,69128171,1574,1575,1552,1553
55726034,1000,1000,1000,1000,69228964,1575,1577,1552,1552
55728533,1000,1000,1000,1000,69328924,1576,1577,1549,1550
55731032,1000,1000,1000,1000,69428884,1578,1579,1547,1547
55733531,1000,1000,1000,1000,69528844,1581,1581,1545,1545
55736030,1000,1000,1000,1000,69628804,1583,1584,1542,1542
55738529,1000,1000,1000,1000,69728764,1587,1587,1540,1539
55741028,1000,1000,1000,1000,69828724,1590,1590,1537,1537
55743527,1000,1000,1000,1000,69928684,1592,1592,1535,1535
55746026,1000,1000,1000,1000,70028644,1594,1594,1534,1534
55748525,1000,1000,1000,1000,70128604,1594,1594,1534,1536
55751024,1000,1000,1000,1000,70228564,1593,1594,1535,1537
55753523,1000,1000,1000,1000,70328524,1592,1591,1538,1541
55756022,1000,1000,1000,1000,70428484,1588,1587,1543,1547
55758521,1000,1000,1000,1000,70528444,1583,1580,1552,1555
55761020,1000,1000,1000,1000,70628404,1575,1571,1562,1564
55763519,1000,1000,1000,1000,70728364,1565,1561,1574,1576
55766018,1000,1000,1000,1000,70828324,1553,1549,1586,1587
55768517,1000,1000,1000,1000,70928284,1542,1540,1598,1598
55771016,1000,1000,1000,1000,71028244,1534,1534,1607,1606
55773515,1000,1000,1000,1000,71128204,1529,1530,1612,1612
55776014,1000,1000,1000,1000,71228164,1527,1529,1614,1613
55778513,1000,1000,1000,1000,71328957,1531,1533,1613,1613
55781012,1000,1000,1000,1000,71428917,1537,1539,1609,1609
55783511,1000,1000,1000,1000,71528877,1544,1545,1602,1602
55786010,1000,1000,1000,1000,71628837,1552,1553,1594,1594
55788509,1000,1000,1000,1000,71728797,1561,1562,1587,1587
55791008,1000,1000,1000,1000,71828757,1570,1570,1581,1580
55793507,1000,1000,1000,1000,71928717,1577,1577,1575,1574
55796006,1000,1000,1000,1000,72028677,1583,1582,1570,1570
55798505,1000,1000,1000,1000,72128637,1587,1585,1568,1568
55801004,1000,1000,1000,1000,72228597,1587,1586,1566,1566
55803503,1000,1000,1000,1000,72328557,1587,1585,1566,1566
55806002,1000,1000,1000,1000,72428517,1585,1584,1567,1568
55808501,1000,1000,1000,1000,72528477,1584,1583,1571,1571
55811000,1000,1000,1000,1000,72628437,1581,1581,1574,1573
55813499,1000,1000,1000,1000,72728397,1577,1578,1576,1576
55815998,1000,1000,1000,1000,72828357,1575,1576,1579,1579
55818497,1000,1000,1000,1000,72928317,1573,1574,1581,1580
55820996,1000,1000,1000,1000,73028277,1573,1573,1583,1583
55823495,1000,1000,1000,1000,73128237,1572,1573,1583,1583
55825994,1000,1000,1000,1000,73228197,1572,1573,1584,1583
55828493,1000,1000,1000,1000,73328157,1574,1574,1583,1583
55830992,1000,1000,1000,1000,73428950,1575,1575,1583,1583
55833491,1000,1000,1000,1000,73528910,1578,1578,1583,1584
55835990,1000,1000,1000,1000,73628870,1578,1578,1580,1581
55838489,1000,1000,1000,1000,73728830,1580,1580,1580,1580
55840988,1000,1000,1000,1000,73828790,1580,1580,1578,1579
55843487,1000,1000,1000,1000,73928750,1581,1581,1578,1578
55845986,1000,1000,1000,1000,74028710,1656,1592,1653,1588
55848485,1000,1000,1000,1000,74128670,1603,1594,1600,1588
55850984,1000,1000,1000,1000,74228630,1571,1594,1568,1590
55853483,1000,1000,1000,1000,74328590,1558,1590,1553,1586
55855982,1000,1000,1000,1000,74428550,1556,1581,1550,1576
55858481,1000,1000,1000,1000,74528510,1562,1572,1553,1566
55860980,1000,1000,1000,1000,74628470,1570,1567,1561,1560
55863479,1000,1000,1000,1000,74728430,1574,1566,1567,1558
55865978,1000,1000,1000,1000,74828390,1579,1568,1574,1563
55868477,1000,1000,1000,1000,74928350,1579,1571,1578,1569
55870976,1000,1000,1000,1000,75028310,1578,1574,1581,1575
55873475,1000,1000,1000,1000,75128270,1577,1576,1581,1580
55875974,1000,1000,1000,1000,75228230,1576,1577,1582,1583
55878473,1000,1000,1000,1000,75328190,1577,1579,1583,1585
55880972,1000,1000,1000,1000,75428983,1578,1580,1584,1586
55883471,1000,1000,1000,1000,75528943,1579,1579,1584,1585
55885970,1000,1000,1000,1000,75628903,1582,1582,1586,1585
55888469,1000,1000,1000,1000,75728863,1584,1583,1587,1586
55890968,1000,1000,1000,1000,75828823,1584,1586,1594,1580
55893467,1000,1000,1000,1000,75928783,1584,1588,1592,1579
55895966,1000,1000,1000,1000,76028743,1584,1587,1583,1578
55898465,1000,1000,1000,1000,76128703,1584,1586,1571,1574
55900964,1000,1000,1000,1000,76228663,1586,1586,1563,1570
55903463,1000,1000,1000,1000,76328623,1586,1586,1558,1564
55905962,1000,1000,1000,1000,76428583,1586,1586,1554,1558
55908461,1000,1000,1000,1000,76528543,1587,1586,1554,1555
55910960,1000,1000,1000,1000,76628503,1586,1585,1555,1552
55913459,1000,1000,1000,1000,76728463,1585,1585,1556,1553
55915958,1000,1000,1000,1000,76828423,1582,1583,1556,1553
55918457,1000,1000,1000,1000,76928383,1581,1581,1556,1555
55920956,1000,1000,1000,1000,77028343,1579,1580,1555,1555
55923455,1000,1000,1000,1000,77128303,1577,1579,1554,1555
55925954,1000,1000,1000,1000,77228263,1577,1579,1553,1554
55928453,1000,1000,1000,1000,77328223,1578,1580,1552,1553
55930952,1000,1000,1000,1000,77428183,1579,1581,1550,1551
55933451,1000,1000,1000,1000,77528976,1582,1584,1548,1548
55935950,1000,1000,1000,1000,77628936,1586,1588,1544,1545
55938449,1000,1000,1000,1000,77728896,1590,1591,1541,1541
55940948,1000,1000,1000,1000,77828856,1594,1595,1538,1539
55943447,1000,1000,1000,1000,77928816,1597,1596,1538,1539
55945946,1000,1000,1000,1000,78028776,1598,1597,1540,1541
55948445,1000,1000,1000,1000,78128736,1597,1595,1545,1547
55950944,1000,1000,1000,1000,78228696,1591,1589,1550,1553
55953443,1000,1000,1000,1000,78328656,1585,1581,1559,1562
55955942,1000,1000,1000,1000,78428616,1575,1572,1570,1572
55958441,1000,1000,1000,1000,78528576,1565,1562,1582,1583
55960940,1000,1000,1000,1000,78628536,1555,1553,1592,1593
55963439,1000,1000,1000,1000,78728496,1547,1545,1601,1601
55965938,1000,1000,1000,1000,78828456,1542,1541,1607,1608
55968437,1000,1000,1000,1000,78928416,1539,1539,1610,1610
55970936,1000,1000,1000,1000,79028376,1540,1541,1613,1611
55973435,1000,1000,1000,1000,79128336,1544,1544,1611,1609
55975934,1000,1000,1000,1000,79228296,1548,1550,1606,1605
55978433,1000,1000,1000,1000,79328256,1555,1557,1600,1599
55980932,1000,1000,1000,1000,79428216,1562,1563,1591,1592
55983431,1000,1000,1000,1000,79528176,1570,1571,1586,1586
55985930,1000,1000,1000,1000,79628969,1576,1576,1579,1579
55988429,1000,1000,1000,1000,79728929,1582,1581,1575,1575
55990928,1000,1000,1000,1000,79828889,1586,1585,1573,1572
55993427,1000,1000,1000,1000,79928849,1586,1585,1570,1570
55995926,1000,1000,1000,1000,80028809,1587,1585,1570,1570
55998425,1000,1000,1000,1000,80128769,1586,1585,1572,1571
56000924,1000,1000,1000,1000,80228729,1583,1582,1573,1573
56003423,1000,1000,1000,1000,80328689,1581,1580,1575,1575
56005922,1000,1000,1000,1000,80428649,1578,1578,1577,1577
56008421,1000,1000,1000,1000,80528609,1576,1576,1580,1580
56010920,1000,1000,1000,1000,80628569,1574,1575,1582,1582
56013419,1000,1000,1000,1000,80728529,1573,1574,1583,1583
56015918,1000,1000,1000,1000,80828489,1572,1573,1583,1583
56018417,1000,1000,1000,1000,80928449,1572,1574,1583,1584
56020916,1000,1000,1000,1000,81028409,1575,1575,1584,1584
56023415,1000,1000,1000,1000,81128369,1576,1575,1583,1583
56025914,1000,1000,1000,1000,81228329,1577,1577,1582,1582
56028413,1000,1000,1000,1000,81328289,1578,1578,1581,1581
56030912,1000,1000,1000,1000,81428249,1579,1579,1580,1580
56033411,1000,1000,1000,1000,81528209,1581,1581,1579,1579
56035910,1000,1000,1000,1000,81628169,1582,1582,1580,1580
56038409,1000,1000,1000,1000,81728962,1581,1581,1578,1578
56040908,1000,1000,1000,1000,81828922,1581,1582,1578,1578
56043407,1000,1000,1000,1000,81928882,1582,1582,1579,1579
56045906,1000,1000,1000,1000,82028842,1582,1582,1579,1580
56048405,1000,1000,1000,1000,82128802,1580,1580,1578,1579
56050904,1000,1000,1000,1000,82228762,1581,1580,1580,1580
56053403,1000,1000,1000,1000,82328722,1580,1580,1580,1580
56055902,1000,1000,1000,1000,82428682,1579,1580,1581,1580
56058401,1000,1000,1000,1000,82528642,1580,1580,1581,1581
56060900,1000,1000,1000,1000,82628602,1580,1580,1581,1581
56063399,1000,1000,1000,1000,82728562,1579,1579,1581,1581
56065898,1000,1000,1000,1000,82828522,1579,1580,1581,1581
56068397,1000,1000,1000,1000,82928482,1579,1579,1580,1580
56070896,1000,1000,1000,1000,83028442,1580,1580,1581,1581
56073395,1000,1000,1000,1000,83128402,1580,1580,1580,1580
56075894,1000,1000,1000,1000,83228362,1581,1580,1581,1580
56078393,1000,1000,1000,1000,83328322,1581,1581,1581,1581
56080892,1000,1000,1000,1000,83428282,1581,1581,1581,1581
56083391,1000,1000,1000,1000,83528242,1581,1581,1580,1580
56085890,1000,1000,1000,1000,83628202,1580,1580,1580,1579
56088389,1000,1000,1000,1000,83728162,1581,1583,1587,1573
56090888,1000,1000,1000,1000,83828955,1580,1583,1583,1572
56093387,1000,1000,1000,1000,83928915,1578,1582,1573,1572
56095886,1000,1000,1000,1000,84028875,1578,1581,1565,1570
56098385,1000,1000,1000,1000,84128835,1579,1580,1559,1566
56100884,1000,1000,1000,1000,84228795,1579,1579,1555,1561
56103383,1000,1000,1000,1000,84328755,1581,1580,1555,1558
56105882,1000,1000,1000,1000,84428715,1582,1580,1556,1555
56108381,1000,1000,1000,1000,84528675,1580,1579,1556,1554
56110880,1000,1000,1000,1000,84628635,1580,1580,1558,1555
56113379,1000,1000,1000,1000,84728595,1578,1578,1556,1555
56115878,1000,1000,1000,1000,84828555,1577,1578,1556,1555
56118377,1000,1000,1000,1000,84928515,1575,1577,1555,1555
56120876,1000,1000,1000,1000,85028475,1575,1577,1553,1554
56123375,1000,1000,1000,1000,85128435,1575,1577,1552,1552
56125874,1000,1000,1000,1000,85228395,1577,1578,1550,1550
56128373,1000,1000,1000,1000,85328355,1579,1580,1548,1547
56130872,1000,1000,1000,1000,85428315,1581,1582,1545,1545
56133371,1000,1000,1000,1000,85528275,1584,1584,1543,1542
56135870,1000,1000,1000,1000,85628235,1586,1586,1540,1539
56138369,1000,1000,1000,1000,85728195,1589,1589,1538,1539
56140868,1000,1000,1000,1000,85828155,1591,1591,1537,1538
56143367,1000,1000,1000,1000,85928948,1592,1592,1537,1538
56145866,1000,1000,1000,1000,86028908,1592,1593,1537,1538
56148365,1000,1000,1000,1000,86128868,1592,1592,1540,1542
56150864,1000,1000,1000,1000,86228828,1589,1589,1544,1546
56153363,1000,1000,1000,1000,86328788,1584,1582,1550,1553
56155862,1000,1000,1000,1000,86428748,1578,1575,1560,1562
56158361,1000,1000,1000,1000,86528708,1570,1565,1571,1573
56160860,1000,1000,1000,1000,86628668,1559,1555,1583,1584
56163359,1000,1000,1000,1000,86728628,1549,1545,1593,1594
56165858,1000,1000,1000,1000,86828588,1541,1539,1603,1603
56168357,1000,1000,1000,1000,86928548,1535,1535,1609,1609
56170856,1000,1000,1000,1000,87028508,1532,1533,1611,1611
56173355,1000,1000,1000,1000,87128468,1534,1535,1611,1610
56175854,1000,1000,1000,1000,87228428,1539,1540,1608,1608
56178353,1000,1000,1000,1000,87328388,1544,1546,1602,1602
56180852,1000,1000,1000,1000,87428348,1553,1554,1596,1596
56183351,1000,1000,1000,1000,87528308,1562,1563,1590,1589
56185850,1000,1000,1000,1000,87628268,1570,1571,1584,1583
56188349,1000,1000,1000,1000,87728228,1577,1577,1578,1577
56190848,1000,1000,1000,1000,87828188,1581,1581,1572,1572
56193347,1000,1000,1000,1000,87928981,1585,1584,1570,1569
56195846,1000,1000,1000,1000,88028941,1587,1586,1568,1568
56198345,1000,1000,1000,1000,88128901,1586,1585,1568,1568
56200844,1000,1000,1000,1000,88228861,1585,1584,1570,1570
56203343,1000,1000,1000,1000,88328821,1584,1583,1573,1573
56205842,1000,1000,1000,1000,88428781,1581,1581,1576,1575
56208341,1000,1000,1000,1000,88528741,1578,1579,1578,1578
56210840,1000,1000,1000,1000,88628701,1576,1576,1580,1580
56213339,1000,1000,1000,1000,88728661,1573,1574,1581,1581
56215838,1000,1000,1000,1000,88828621,1573,1574,1583,1584
56218337,1000,1000,1000,1000,88928581,1573,1574,1584,1584
56220836,1000,1000,1000,1000,89028541,1573,1574,1583,1584
56223335,1000,1000,1000,1000,89128501,1575,1575,1583,1583
56225834,1000,1000,1000,1000,89228461,1575,1576,1582,1582
56228333,1000,1000,1000,1000,89328421,1577,1577,1581,1581
56230832,1000,1000,1000,1000,89428381,1579,1579,1581,1581
56233331,1000,1000,1000,1000,89528341,1580,1580,1580,1580
56235830,1000,1000,1000,1000,89628301,1581,1580,1579,1578
56238329,1000,1000,1000,1000,89728261,1581,1581,1577,1578
56240828,1000,1000,1000,1000,89828221,1581,1581,1577,1577
56243327,1000,1000,1000,1000,89928181,1583,1582,1579,1578
56245826,1000,1000,1000,1000,90028974,1582,1581,1578,1578
56248325,1000,1000,1000,1000,90128934,1582,1581,1579,1579
56250824,1000,1000,1000,1000,90228894,1580,1580,1578,1579
56253323,1000,1000,1000,1000,90328854,1580,1580,1579,1580
56255822,1000,1000,1000,1000,90428814,1580,1581,1581,1581
56258321,1000,1000,1000,1000,90528774,1580,1580,1581,1581
56260820,1000,1000,1000,1000,90628734,1580,1580,1581,1581
56263319,1000,1000,1000,1000,90728694,1580,1580,1581,1581
56265818,1000,1000,1000,1000,90828654,1579,1579,1580,1581
56268317,1000,1000,1000,1000,90928614,1580,1580,1581,1582
56270816,1000,1000,1000,1000,91028574,1580,1580,1581,1581
56273315,1000,1000,1000,1000,91128534,1581,1581,1582,1582
56275814,1000,1000,1000,1000,91228494,1581,1581,1581,1581
56278313,1000,1000,1000,1000,91328454,1580,1580,1580,1580
56280812,1000,1000,1000,1000,91428414,1582,1582,1582,1582
56283311,1000,1000,1000,1000,91528374,1581,1582,1581,1582
56285810,1000,1000,1000,1000,91628334,1582,1583,1589,1575
56288309,1000,1000,1000,1000,91728294,1581,1582,1586,1574
56290808,1000,1000,1000,1000,91828254,1578,1579,1578,1575
56293307,1000,1000,1000,1000,91928214,1575,1575,1571,1574
56295806,1000,1000,1000,1000,92028174,1572,1572,1567,1573
56298305,1000,1000,1000,1000,92128967,1571,1570,1566,1572
56300804,1000,1000,1000,1000,92228927,1570,1570,1567,1571
56303303,1000,1000,1000,1000,92328887,1568,1568,1568,1568
56305802,1000,1000,1000,1000,92428847,1566,1567,1568,1566
56308301,1000,1000,1000,1000,92528807,1565,1565,1567,1565
56310800,1000,1000,1000,1000,92628767,1565,1564,1567,1564
56313299,1000,1000,1000,1000,92728727,1564,1564,1565,1564
56315798,1000,1000,1000,1000,92828687,1563,1563,1565,1564
56318297,1000,1000,1000,1000,92928647,1562,1562,1563,1563
56320796,1000,1000,1000,1000,93028607,1562,1562,1562,1562
56323295,1000,1000,1000,1000,93128567,1562,1562,1562,1562
56325794,1000,1000,1000,1000,93228527,1561,1561,1561,1561
56328293,1000,1000,1000,1000,93328487,1561,1561,1561,1560
56330792,1000,1000,1000,1000,93428447,1561,1561,1561,1560
56333291,1000,1000,1000,1000,93528407,1560,1560,1560,1560
56335790,1000,1000,1000,1000,93628367,1559,1559,1559,1558
56338289,1000,1000,1000,1000,93728327,1558,1558,1558,1557
56340788,1000,1000,1000,1000,93828287,1557,1557,1558,1556
56343287,1000,1000,1000,1000,93928247,1557,1557,1558,1557
56345786,1000,1000,1000,1000,94028207,1557,1558,1558,1557
56348285,1000,1000,1000,1000,94128167,1558,1558,1559,1557
56350784,1000,1000,1000,1000,94228960,1558,1557,1560,1557
56353283,1000,1000,1000,1000,94328920,1559,1558,1560,1558
56355782,1000,1000,1000,1000,94428880,1559,1558,1558,1559
56358281,1000,1000,1000,1000,94528840,1559,1559,1556,1561
56360780,1000,1000,1000,1000,94628800,1560,1560,1557,1563
56363279,1000,1000,1000,1000,94728760,1560,1560,1557,1563
56365778,1000,1000,1000,1000,94828720,1562,1562,1560,1563
56368277,1000,1000,1000,1000,94928680,1562,1562,1561,1563
56370776,1000,1000,1000,1000,95028640,1561,1562,1563,1561
56373275,1000,1000,1000,1000,95128600,1561,1561,1563,1559
56375774,1000,1000,1000,1000,95228560,1560,1559,1561,1558
56378273,1000,1000,1000,1000,95328520,1560,1559,1556,1562
56380772,1000,1000,1000,1000,95428480,1556,1557,1553,1559
56383271,1000,1000,1000,1000,95528440,1553,1553,1551,1555
56385770,1000,1000,1000,1000,95628400,1547,1548,1547,1548
56388269,1000,1000,1000,1000,95728360,1540,1540,1541,1539
56390768,1000,1000,1000,1000,95828320,1533,1533,1535,1532
56393267,1000,1000,1000,1000,95928280,1526,1526,1527,1525
56395766,1000,1000,1000,1000,96028240,1522,1522,1522,1521
56398265,1000,1000,1000,1000,96128200,1519,1519,1520,1519
56400764,1000,1000,1000,1000,96228160,1520,1520,1520,1520
56403263,1000,1000,1000,1000,96328953,1522,1521,1521,1522
56405762,1000,1000,1000,1000,96428913,1526,1525,1525,1526
56408261,1000,1000,1000,1000,96528873,1530,1530,1530,1531
56410760,1000,1000,1000,1000,96628833,1535,1535,1535,1535
56413259,1000,1000,1000,1000,96728793,1539,1539,1539,1539
56415758,1000,1000,1000,1000,96828753,1541,1541,1541,1541
56418257,1000,1000,1000,1000,96928713,1543,1543,1543,1543
56420756,1000,1000,1000,1000,97028673,1544,1545,1545,1545
56423255,1000,1000,1000,1000,97128633,1545,1545,1545,1545
56425754,1000,1000,1000,1000,97228593,1546,1546,1546,1546
56428253,1000,1000,1000,1000,97328553,1546,1546,1546,1546
56430752,1000,1000,1000,1000,97428513,1546,1546,1546,1546
56433251,1000,1000,1000,1000,97528473,1546,1546,1546,1546
56435750,1000,1000,1000,1000,97628433,1546,1546,1546,1546
56438249,1000,1000,1000,1000,97728393,1546,1546,1546,1546
56440748,1000,1000,1000,1000,97828353,1545,1545,1545,1545
56443247,1000,1000,1000,1000,97928313,1546,1545,1545,1545
56445746,1000,1000,1000,1000,98028273,1546,1545,1545,1545
56448245,1000,1000,1000,1000,98128233,1545,1545,1544,1545
56450744,1000,1000,1000,1000,98228193,1544,1544,1544,1544
56453243,1000,1000,1000,1000,98328986,1544,1544,1544,1544
56455742,1000,1000,1000,1000,98428946,1544,1545,1545,1544
56458241,1000,1000,1000,1000,98528906,1544,1544,1544,1544
56460740,1000,1000,1000,1000,98628866,1544,1544,1545,1544
56463239,1000,1000,1000,1000,98728826,1545,1544,1545,1544
56465738,1000,1000,1000,1000,98828786,1544,1544,1544,1544
56468237,1000,1000,1000,1000,98928746,1545,1545,1545,1545
56470736,1000,1000,1000,1000,99028706,1544,1545,1544,1545
56473235,1000,1000,1000,1000,99128666,1544,1544,1544,1543
56475734,1000,1000,1000,1000,99228626,1544,1545,1545,1544
56478233,1000,1000,1000,1000,99328586,1545,1545,1545,1545
56480732,1000,1000,1000,1000,99428546,1544,1545,1544,1545
56483231,1000,1000,1000,1000,99528506,1544,1544,1544,1544
56485730,1000,1000,1000,1000,99628466,1544,1544,1544,1544
56488229,1000,1000,1000,1000,99728426,1543,1543,1543,1543
56490728,1000,1000,1000,1000,99828386,1544,1544,1544,1544
56493227,1000,1000,1000,1000,99928346,1543,1544,1544,1543
56495726,1000,1000,1000,1000,100028306,1544,1544,1544,1544
56498225,1000,1000,1000,1000,100128266,1544,1544,1544,1544
56500724,1000,1000,1000,1000,100228226,1544,1544,1544,1544
56503223,1000,1000,1000,1000,100328186,1544,1544,1544,1544
56505722,1000,1000,1000,1000,100428979,1545,1545,1545,1545
56508221,1000,1000,1000,1000,100528939,1546,1545,1545,1545
56510720,1000,1000,1000,1000,100628899,1545,1545,1545,1545
56513219,1000,1000,1000,1000,100728859,1544,1544,1544,1544
56515718,1000,1000,1000,1000,100828819,1544,1544,1544,1544
56518217,1000,1000,1000,1000,100928779,1545,1545,1545,1545
56520716,1000,1000,1000,1000,101028739,1544,1545,1545,1544
56523215,1000,1000,1000,1000,101128699,1545,1545,1545,1545
56525714,1000,1000,1000,1000,101228659,1545,1544,1544,1545
56528213,1000,1000,1000,1000,101328619,1544,1544,1544,1544
56530712,1000,1000,1000,1000,101428579,1544,1544,1544,1544
56533211,1000,1000,1000,1000,101528539,1544,1544,1544,1544
56535710,1000,1000,1000,1000,101628499,1545,1545,1545,1545
56538209,1000,1000,1000,1000,101728459,1545,1544,1545,1544
56540708,1000,1000,1000,1000,101828419,1544,1545,1545,1545
56543207,1000,1000,1000,1000,101928379,1544,1544,1544,1544
56545706,1000,1000,1000,1000,102028339,1544,1545,1545,1545
56548205,1000,1000,1000,1000,102128299,1544,1544,1544,1544
56550704,1000,1000,1000,1000,102228259,1544,1544,1544,1544
56553203,1000,1000,1000,1000,102328219,1545,1544,1545,1544
56555702,1000,1000,1000,1000,102428179,1543,1543,1543,1543
56558201,1000,1000,1000,1000,102528972,1543,1543,1543,1543
56560700,1000,1000,1000,1000,102628932,1542,1543,1543,1543
56563199,1000,1000,1000,1000,102728892,1544,1544,1544,1544
56565698,1000,1000,1000,1000,102828852,1543,1543,1543,1543
56568197,1000,1000,1000,1000,102928812,1545,1544,1544,1545
56570696,1000,1000,1000,1000,103028772,1544,1544,1544,1544
56573195,1000,1000,1000,1000,103128732,1544,1544,1544,1544
56575694,1000,1000,1000,1000,103228692,1543,1544,1544,1544
56578193,1000,1000,1000,1000,103328652,1544,1545,1544,1544
56580692,1000,1000,1000,1000,103428612,1543,1543,1543,1543
56583191,1000,1000,1000,1000,103528572,1545,1544,1544,1545
56585690,1000,1000,1000,1000,103628532,1544,1544,1544,1544
56588189,1000,1000,1000,1000,103728492,1544,1543,1544,1544
56590688,1000,1000,1000,1000,103828452,1545,1545,1546,1545
56593187,1000,1000,1000,1000,103928412,1544,1545,1544,1545
56595686,1000,1000,1000,1000,104028372,1545,1545,1545,1545
56598185,1000,1000,1000,1000,104128332,1545,1545,1545,1545
56600684,1000,1000,1000,1000,104228292,1544,1545,1545,1545
56603183,1000,1000,1000,1000,104328252,1545,1545,1545,1545
56605682,1000,1000,1000,1000,104428212,1545,1545,1545,1545
56608181,1000,1000,1000,1000,104528172,1544,1544,1544,1544
56610680,1000,1000,1000,1000,104628965,1544,1544,1543,1544
56613179,1000,1000,1000,1000,104728925,1544,1543,1543,1544
56615678,1000,1000,1000,1000,104828885,1545,1544,1545,1544
56618177,1000,1000,1000,1000,104928845,1545,1544,1545,1544
56620676,1000,1000,1000,1000,105028805,1544,1544,1544,1544
56623175,1000,1000,1000,1000,105128765,1543,1544,1543,1544
56625674,1000,1000,1000,1000,105228725,1544,1544,1544,1544
56628173,1000,1000,1000,1000,105328685,1545,1545,1545,1545
56630672,1000,1000,1000,1000,105428645,1544,1545,1545,1545
56633171,1000,1000,1000,1000,105528605,1545,1545,1545,1545
56635670,1000,1000,1000,1000,105628565,1545,1544,1545,1545
56638169,1000,1000,1000,1000,105728525,1545,1544,1544,1544
56640668,1000,1000,1000,1000,105828485,1367,1392,1368,1392
56643167,1000,1000,1000,1000,105928445,1241,1292,1240,1293
56645666,1000,1000,1000,1000,106028405,1240,1292,1240,1293
56648165,1000,1000,1000,1000,106128365,1241,1291,1240,1293
56650664,1000,1000,1000,1000,106228325,1240,1292,1240,1292
56653163,1000,1000,1000,1000,106328285,1240,1291,1240,1292
56655662,1000,1000,1000,1000,106428245,1241,1291,1240,1293
56658161,1000,1000,1000,1000,106528205,1267,1271,1240,1293
56660660,1000,1000,1000,1000,106628165,1258,1278,1240,1293
56663159,1000,1000,1000,1000,106728958,1256,1280,1240,1293
56665658,1000,1000,1000,1000,106828918,1256,1280,1240,1293
56668157,1000,1000,1000,1000,106928878,1257,1279,1240,1293
56670656,1000,1000,1000,1000,107028838,1258,1278,1240,1293
56673155,1000,1000,1000,1000,107128798,1259,1277,1240,1293
56675654,1000,1000,1000,1000,107228758,1241,1286,1240,1289
56678986,1000,1000,1000,1000,107328718,1247,1286,1240,1293
56681485,1000,1000,1000,1000,107428678,1249,1285,1240,1293
56683984,1000,1000,1000,1000,107528638,1249,1285,1240,1293
56686483,1000,1000,1000,1000,107628598,1250,1284,1240,1293
56688982,1000,1000,1000,1000,107728558,1240,1150,1240,1150
56691481,1000,1000,1000,1000,107828518,1000,1000,1000,1000
56693980,1000,1000,1000,1000,107928478,1000,1000,1000,1000
56696479,1000,1000,1000,1000,108028438,1000,1000,1000,1000
56698978,1000,1000,1000,1000,108128398,1000,1000,1000,1000
56701477,1000,1000,1000,1000,108228358,1000,1000,1000,1000
56703976,1000,1000,1000,1000,108328318,1000,1000,1000,1000
56706475,1000,1000,1000,1000,108428278,1000,1000,1000,1000
56708974,1000,1000,1000,1000,108528238,1000,1000,1000,1000
56711473,1000,1000,1000,1000,108628198,1000,1000,1000,1000
56713972,1000,1000,1000,1000,108728158,1000,1000,1000,1000
56716471,1000,1000,1000,1000,108828951,1000,1000,1000,1000
56718970,1000,1000,1000,1000,108928911,1000,1000,1000,1000
56721469,1000,1000,1000,1000,109028871,1000,1000,1000,1000
56723968,1000,1000,1000,1000,109128831,1000,1000,1000,1000
56726467,1000,1000,1000,1000,109228791,1000,1000,1000,1000
56728966,1000,1000,1000,1000,109328751,1000,1000,1000,1000
56731465,1000,1000,1000,1000,109428711,1000,1000,1000,1000
56733964,1000,1000,1000,1000,109528671,1000,1000,1000,1000
56736463,1000,1000,1000,1000,109628631,1000,1000,1000,1000
56738962,1000,1000,1000,1000,109728591,1000,1000,1000,1000
56741461,1000,1000,1000,1000,109828551,1000,1000,1000,1000
56743960,1000,1000,1000,1000,109928511,1000,1000,1000,1000
56746459,1000,1000,1000,1000,110028471,1000,1000,1000,1000
56748958,1000,1000,1000,1000,110128431,1000,1000,1000,1000
56751457,1000,1000,1000,1000,110228391,1000,1000,1000,1000
56753956,1000,1000,1000,1000,110328351,1000,1000,1000,1000
56756455,1000,1000,1000,1000,110428311,1000,1000,1000,1000
56758954,1000,1000,1000,1000,110528271,1000,1000,1000,1000
56761453,1000,1000,1000,1000,110628231,1000,1000,1000,1000
56763952,1000,1000,1000,1000,110728191,1000,1000,1000,1000
56766451,1000,1000,1000,1000,110828984,1000,1000,1000,1000
56768950,1000,1000,1000,1000,110928944,1000,1000,1000,1000
56771449,1000,1000,1000,1000,111028904,1000,1000,1000,1000
56773948,1000,1000,1000,1000,111128864,1000,1000,1000,1000
56776447,1000,1000,1000,1000,111228824,1000,1000,1000,1000
56778946,1000,1000,1000,1000,111328784,1000,1000,1000,1000
56781445,1000,1000,1000,1000,111428744,1000,1000,1000,1000
56783944,1000,1000,1000,1000,111528704,1000,1000,1000,1000
56786443,1000,1000,1000,1000,111628664,1000,1000,1000,1000
56788942,1000,1000,1000,1000,111728624,1000,1000,1000,1000
56791441,1000,1000,1000,1000,111828584,1000,1000,1000,1000
56793940,1000,1000,1000,1000,111928544,1000,1000,1000,1000
56796439,1000,1000,1000,1000,112028504,1000,1000,1000,1000
56798938,1000,1000,1000,1000,112128464,1000,1000,1000,1000
56801437,1000,1000,1000,1000,112228424,1000,1000,1000,1000
56803936,1000,1000,1000,1000,112328384,1000,1000,1000,1000
56806435,1000,1000,1000,1000,112428344,1000,1000,1000,1000
56808934,1000,1000,1000,1000,112528304,1000,1000,1000,1000
56811433,1000,1000,1000,1000,112628264,1000,1000,1000,1000
56813932,1000,1000,1000,1000,112728224,1000,1000,1000,1000
56816431,1000,1000,1000,1000,112828184,1000,1000,1000,1000
56818930,1000,1000,1000,1000,112928977,1000,1000,1000,1000
56821429,1000,1000,1000,1000,113028937,1000,1000,1000,1000
56823928,1000,1000,1000,1000,113128897,1000,1000,1000,1000
56826427,1000,1000,1000,1000,113228857,1000,1000,1000,1000
56828926,1000,1000,1000,1000,113328817,1000,1000,1000,1000
56831425,1000,1000,1000,1000,113428777,1000,1000,1000,1000
56833924,1000,1000,1000,1000,113528737,1000,1000,1000,1000
56836423,1000,1000,1000,1000,113628697,1000,1000,1000,1000
56838922,1000,1000,1000,1000,113728657,1000,1000,1000,1000
56841421,1000,1000,1000,1000,113828617,1000,1000,1000,1000
56843920,1000,1000,1000,1000,113928577,1000,1000,1000,1000
56846419,1000,1000,1000,1000,114028537,1000,1000,1000,1000
56848918,1000,1000,1000,1000,114128497,1000,1000,1000,1000
56851417,1000,1000,1000,1000,114228457,1000,1000,1000,1000
56853916,1000,1000,1000,1000,114328417,1000,1000,1000,1000
56856415,1000,1000,1000,1000,,,,,
56858914,1000,1000,1000,1000,,,,,
56861413,1000,1000,1000,1000,,,,,
56863912,1000,1000,1000,1000,,,,,
56866411,1000,1000,1000,1000,,,,,
56868910,1000,1000,1000,1000,,,,,
56871409,1000,1000,1000,1000,,,,,
56873908,1000,1000,1000,1000,,,,,
56876407,1000,1000,1000,1000,,,,,
56878906,1000,1000,1000,1000,,,,,
56881405,1000,1000,1000,1000,,,,,
56883904,1000,1000,1000,1000,,,,,
56886403,1000,1000,1000,1000,,,,,
56888902,1000,1000,1000,1000,,,,,
56891401,1000,1000,1000,1000,,,,,
56893900,1000,1000,1000,1000,,,,,
56896399,1000,1000,1000,1000,,,,,
56898898,1000,1000,1000,1000,,,,,
56901397,1000,1000,1000,1000,,,,,
56903896,1000,1000,1000,1000,,,,,
56906395,1000,1000,1000,1000,,,,,
56908894,1000,1000,1000,1000,,,,,
56911393,1000,1000,1000,1000,,,,,
56913892,1000,1000,1000,1000,,,,,
56916391,1000,1000,1000,1000,,,,,
56918890,1000,1000,1000,1000,,,,,
56921389,1000,1000,1000,1000,,,,,
56923888,1000,1000,1000,1000,,,,,
56926387,1000,1000,1000,1000,,,,,
56928886,1000,1000,1000,1000,,,,,
56931385,1000,1000,1000,1000,,,,,
56933884,1000,1000,1000,1000,,,,,
56936383,1000,1000,1000,1000,,,,,
56938882,1000,1000,1000,1000,,,,,
56941381,1000,1000,1000,1000,,,,,
56943880,1000,1000,1000,1000,,,,,
56946379,1000,1000,1000,1000,,,,,
56948878,1000,1000,1000,1000,,,,,
56951377,1000,1000,1000,1000,,,,,
56953876,1000,1000,1000,1000,,,,,
56956375,1000,1000,1000,1000,,,,,
56958874,1000,1000,1000,1000,,,,,
56961373,1000,1000,1000,1000,,,,,
56963872,1000,1000,1000,1000,,,,,
56966371,1000,1000,1000,1000,,,,,
56968870,1000,1000,1000,1000,,,,,
56971369,1000,1000,1000,1000,,,,,
56973868,1000,1000,1000,1000,,,,,
56976367,1000,1000,1000,1000,,,,,
56978866,1000,1000,1000,1000,,,,,
56981365,1000,1000,1000,1000,,,,,
56983864,1000,1000,1000,1000,,,,,
56986363,1000,1000,1000,1000,,,,,
56988862,1000,1000,1000,1000,,,,,
56991361,1000,1000,1000,1000,,,,,
56993860,1000,1000,1000,1000,,,,,
56996359,1000,1000,1000,1000,,,,,
56998858,1000,1000,1000,1000,,,,,
57001357,1000,1000,1000,1000,,,,,
57003856,1000,1000,1000,1000,,,,,
57006355,1000,1000,1000,1000,,,,,
57008854,1000,1000,1000,1000,,,,,
57011353,1000,1000,1000,1000,,,,,
57013852,1000,1000,1000,1000,,,,,
57016351,1000,1000,1000,1000,,,,,
57018850,1000,1000,1000,1000,,,,,
57021349,1000,1000,1000,1000,,,,,
57023848,1000,1000,1000,1000,,,,,
57026347,1000,1000,1000,1000,,,,,
57028846,1000,1000,1000,1000,,,,,
57031345,1000,1000,1000,1000,,,,,
57033844,1000,1000,1000,1000,,,,,
57036343,1000,1000,1000,1000,,,,,
57038842,1000,1000,1000,1000,,,,,
57041341,1000,1000,1000,1000,,,,,
57043840,1000,1000,1000,1000,,,,,
57046339,1000,1000,1000,1000,,,,,
57048838,1000,1000,1000,1000,,,,,
57051337,1000,1000,1000,1000,,,,,
57053836,1000,1000,1000,1000,,,,,
57056335,1000,1000,1000,1000,,,,,
57058834,1000,1000,1000,1000,,,,,
57061333,1000,1000,1000,1000,,,,,
57063832,1000,1000,1000,1000,,,,,
57066331,1000,1000,1000,1000,,,,,
57068830,1000,1000,1000,1000,,,,,
57071329,1000,1000,1000,1000,,,,,
57073828,1000,1000,1000,1000,,,,,
57076327,1000,1000,1000,1000,,,,,
57078826,1000,1000,1000,1000,,,,,
57081325,1000,1000,1000,1000,,,,,
57083824,1000,1000,1000,1000,,,,,
57086323,1000,1000,1000,1000,,,,,
57088822,1000,1000,1000,1000,,,,,
57091321,1000,1000,1000,1000,,,,,
57093820,1000,1000,1000,1000,,,,,
57096319,1000,1000,1000,1000,,,,,
57098818,1000,1000,1000,1000,,,,,
57101317,1000,1000,1000,1000,,,,,
57103816,1000,1000,1000,1000,,,,,
57106315,1000,1000,1000,1000,,,,,
57108814,1000,1000,1000,1000,,,,,
57111313,1000,1000,1000,1000,,,,,
57113812,1000,1000,1000,1000,,,,,
57116311,1000,1000,1000,1000,,,,,
57118810,1000,1000,1000,1000,,,,,
57121309,1000,1000,1000,1000,,,,,
57123808,1000,1000,1000,1000,,,,,
57126307,1000,1000,1000,1000,,,,,
57128806,1000,1000,1000,1000,,,,,
57131305,1000,1000,1000,1000,,,,,
57133804,1000,1000,1000,1000,,,,,
57136303,1000,1000,1000,1000,,,,,
57138802,1000,1000,1000,1000,,,,,
57141301,1000,1000,1000,1000,,,,,
57143800,1000,1000,1000,1000,,,,,
57146299,1000,1000,1000,1000,,,,,
57148798,1000,1000,1000,1000,,,,,
57151297,1000,1000,1000,1000,,,,,
57153796,1000,1000,1000,1000,,,,,
57156295,1000,1000,1000,1000,,,,,
57158794,1000,1000,1000,1000,,,,,
57161293,1000,1000,1000,1000,,,,,
57163792,1000,1000,1000,1000,,,,,
57166291,1000,1000,1000,1000,,,,,
57168790,1000,1000,1000,1000,,,,,
57171289,1000,1000,1000,1000,,,,,
57173788,1000,1000,1000,1000,,,,,
57176287,1000,1000,1000,1000,,,,,
57178786,1000,1000,1000,1000,,,,,
57181285,1000,1000,1000,1000,,,,,
57183784,1000,1000,1000,1000,,,,,
57186283,1000,1000,1000,1000,,,,,
57188782,1000,1000,1000,1000,,,,,
57191281,1000,1000,1000,1000,,,,,
57193780,1000,1000,1000,1000,,,,,
57196279,1000,1000,1000,1000,,,,,
57198778,1000,1000,1000,1000,,,,,
57201277,1000,1000,1000,1000,,,,,
57203776,1000,1000,1000,1000,,,,,
57206275,1000,1000,1000,1000,,,,,
57208774,1000,1000,1000,1000,,,,,
57211273,1000,1000,1000,1000,,,,,
57213772,1000,1000,1000,1000,,,,,
57216271,1000,1000,1000,1000,,,,,
57218770,1000,1000,1000,1000,,,,,
57221269,1000,1000,1000,1000,,,,,
57223768,1000,1000,1000,1000,,,,,
57226267,1000,1000,1000,1000,,,,,
57228766,1000,1000,1000,1000,,,,,
57231265,1000,1000,1000,1000,,,,,
57233764,1000,1000,1000,1000,,,,,
57236263,1000,1000,1000,1000,,,,,
57238762,1000,1000,1000,1000,,,,,
57241261,1000,1000,1000,1000,,,,,
57243760,1000,1000,1000,1000,,,,,
57246259,1000,1000,1000,1000,,,,,
57248758,1000,1000,1000,1000,,,,,
57251257,1000,1000,1000,1000,,,,,
57253756,1000,1000,1000,1000,,,,,
57256255,1000,1000,1000,1000,,,,,
57258754,1000,1000,1000,1000,,,,,
57261253,1000,1000,1000,1000,,,,,
57263752,1000,1000,1000,1000,,,,,
57266251,1000,1000,1000,1000,,,,,
57268750,1000,1000,1000,1000,,,,,
57271249,1000,1000,1000,1000,,,,,
57273748,1000,1000,1000,1000,,,,,
57276247,1000,1000,1000,1000,,,,,
57278746,1000,1000,1000,1000,,,,,
57281245,1000,1000,1000,1000,,,,,
57283744,1000,1000,1000,1000,,,,,
57286243,1000,1000,1000,1000,,,,,
57288742,1000,1000,1000,1000,,,,,
57291241,1000,1000,1000,1000,,,,,
57293740,1000,1000,1000,1000,,,,,
57296239,1000,1000,1000,1000,,,,,
57298738,1000,1000,1000,1000,,,,,
57301237,1000,1000,1000,1000,,,,,
57303736,1000,1000,1000,1000,,,,,
57306235,1000,1000,1000,1000,,,,,
57308734,1000,1000,1000,1000,,,,,
57311233,1000,1000,1000,1000,,,,,
57313732,1000,1000,1000,1000,,,,,
57316231,1000,1000,1000,1000,,,,,
57318730,1000,1000,1000,1000,,,,,
57321229,1000,1000,1000,1000,,,,,
57323728,1000,1000,1000,1000,,,,,
57326227,1000,1000,1000,1000,,,,,
57328726,1000,1000,1000,1000,,,,,
57331225,1000,1000,1000,1000,,,,,
57333724,1000,1000,1000,1000,,,,,
57336223,1000,1000,1000,1000,,,,,
57338722,1000,1000,1000,1000,,,,,
57341221,1000,1000,1000,1000,,,,,
57343720,1000,1000,1000,1000,,,,,
57346219,1000,1000,1000,1000,,,,,
57348718,1000,1000,1000,1000,,,,,
57351217,1000,1000,1000,1000,,,,,
57353716,1000,1000,1000,1000,,,,,
57356215,1000,1000,1000,1000,,,,,
57358714,1000,1000,1000,1000,,,,,
57361213,1000,1000,1000,1000,,,,,
57363712,1000,1000,1000,1000,,,,,
57366211,1000,1000,1000,1000,,,,,
57368710,1000,1000,1000,1000,,,,,
57371209,1000,1000,1000,1000,,,,,
57373708,1000,1000,1000,1000,,,,,
57376207,1000,1000,1000,1000,,,,,
57378706,1000,1000,1000,1000,,,,,
57381205,1000,1000,1000,1000,,,,,
57383704,1000,1000,1000,1000,,,,,
57386203,1000,1000,1000,1000,,,,,
57388702,1001,1001,1001,1001,,,,,
57391201,1002,1002,1002,1002,,,,,
57393700,1003,1003,1003,1003,,,,,
57396199,1003,1003,1003,1003,,,,,
57398698,1004,1004,1004,1004,,,,,
57401197,1005,1005,1005,1005,,,,,
57403696,1006,1006,1006,1006,,,,,
57406195,1006,1006,1006,1006,,,,,
57408694,1007,1007,1007,1007,,,,,
57411193,1008,1008,1008,1008,,,,,
57413692,1009,1009,1009,1009,,,,,
57416191,1009,1009,1009,1009,,,,,
57418690,1010,1010,1010,1010,,,,,
57421189,1011,1011,1011,1011,,,,,
57423688,1012,1012,1012,1012,,,,,
57426187,1012,1012,1012,1012,,,,,
57428686,1013,1013,1013,1013,,,,,
57431185,1014,1014,1014,1014,,,,,
57433684,1015,1015,1015,1015,,,,,
57436183,1015,1015,1015,1015,,,,,
57438682,1016,1016,1016,1016,,,,,
57441181,1017,1017,1017,1017,,,,,
57443680,1018,1018,1018,1018,,,,,
57446179,1018,1018,1018,1018,,,,,
57448678,1019,1019,1019,1019,,,,,
57451177,1020,1020,1020,1020,,,,,
57453676,1021,1021,1021,1021,,,,,
57456175,1021,1021,1021,1021,,,,,
57458674,1022,1022,1022,1022,,,,,
57461173,1023,1023,1023,1023,,,,,
57463672,1024,1024,1024,1024,,,,,
57466171,1024,1024,1024,1024,,,,,
57468670,1025,1025,1025,1025,,,,,
57471169,1026,1026,1026,1026,,,,,
57473668,1027,1027,1027,1027,,,,,
57476167,1027,1027,1027,1027,,,,,
57478666,1028,1028,1028,1028,,,,,
57481165,1029,1029,1029,1029,,,,,
57483664,1030,1030,1030,1030,,,,,
57486163,1030,1030,1030,1030,,,,,
57488662,1031,1031,1031,1031,,,,,
57491161,1032,1032,1032,1032,,,,,
57493660,1033,1033,1033,1033,,,,,
57496159,1033,1033,1033,1033,,,,,
57498658,1034,1034,1034,1034,,,,,
57501157,1035,1035,1035,1035,,,,,
57503656,1036,1036,1036,1036,,,,,
57506155,1036,1036,1036,1036,,,,,
57508654,1037,1037,1037,1037,,,,,
57511153,1038,1038,1038,1038,,,,,
57513652,1039,1039,1039,1039,,,,,
57516151,1039,1039,1039,1039,,,,,
57518650,1040,1040,1040,1040,,,,,
57521149,1041,1041,1041,1041,,,,,
57523648,1042,1042,1042,1042,,,,,
57526147,1042,1042,1042,1042,,,,,
57528646,1043,1043,1043,1043,,,,,
57531145,1044,1044,1044,1044,,,,,
57533644,1045,1045,1045,1045,,,,,
57536143,1045,1045,1045,1045,,,,,
57538642,1046,1046,1046,1046,,,,,
57541141,1047,1047,1047,1047,,,,,
57543640,1048,1048,1048,1048,,,,,
57546139,1048,1048,1048,1048,,,,,
57548638,1049,1049,1049,1049,,,,,
57551137,1050,1050,1050,1050,,,,,
57553636,1051,1051,1051,1051,,,,,
57556135,1051,1051,1051,1051,,,,,
57558634,1052,1052,1052,1052,,,,,
57561133,1053,1053,1053,1053,,,,,
57563632,1054,1054,1054,1054,,,,,
57566131,1054,1054,1054,1054,,,,,
57568630,1055,1055,1055,1055,,,,,
57571129,1056,1056,1056,1056,,,,,
57573628,1057,1057,1057,1057,,,,,
57576127,1057,1057,1057,1057,,,,,
57578626,1058,1058,1058,1058,,,,,
57581125,1059,1059,1059,1059,,,,,
57583624,1060,1060,1060,1060,,,,,
57586123,1060,1060,1060,1060,,,,,
57588622,1061,1061,1061,1061,,,,,
57591121,1062,1062,1062,1062,,,,,
57593620,1063,1063,1063,1063,,,,,
57596119,1063,1063,1063,1063,,,,,
57598618,1064,1064,1064,1064,,,,,
57601117,1065,1065,1065,1065,,,,,
57603616,1066,1066,1066,1066,,,,,
57606115,1066,1066,1066,1066,,,,,
57608614,1067,1067,1067,1067,,,,,
57611113,1068,1068,1068,1068,,,,,
57613612,1069,1069,1069,1069,,,,,
57616111,1069,1069,1069,1069,,,,,
57618610,1070,1070,1070,1070,,,,,
57621109,1071,1071,1071,1071,,,,,
57623608,1072,1072,1072,1072,,,,,
57626107,1072,1072,1072,1072,,,,,
57628606,1073,1073,1073,1073,,,,,
57631105,1074,1074,1074,1074,,,,,
57633604,1075,1075,1075,1075,,,,,
57636103,1075,1075,1075,1075,,,,,
57638602,1076,1076,1076,1076,,,,,
57641101,1077,1077,1077,1077,,,,,
57643600,1078,1078,1078,1078,,,,,
57646099,1078,1078,1078,1078,,,,,
57648598,1079,1079,1079,1079,,,,,
57651097,1080,1080,1080,1080,,,,,
57653596,1081,1081,1081,1081,,,,,
57656095,1081,1081,1081,1081,,,,,
57658594,1082,1082,1082,1082,,,,,
57661093,1083,1083,1083,1083,,,,,
57663592,1084,1084,1084,1084,,,,,
57666091,1084,1084,1084,1084,,,,,
57668590,1085,1085,1085,1085,,,,,
57671089,1086,1086,1086,1086,,,,,
57673588,1087,1087,1087,1087,,,,,
57676087,1087,1087,1087,1087,,,,,
57678586,1088,1088,1088,1088,,,,,
57681085,1089,1089,1089,1089,,,,,
57683584,1090,1090,1090,1090,,,,,
57686083,1090,1090,1090,1090,,,,,
57688582,1091,1091,1091,1091,,,,,
57691081,1092,1092,1092,1092,,,,,
57693580,1093,1093,1093,1093,,,,,
57696079,1093,1093,1093,1093,,,,,
57698578,1094,1094,1094,1094,,,,,
57701077,1095,1095,1095,1095,,,,,
57703576,1096,1096,1096,1096,,,,,
57706075,1096,1096,1096,1096,,,,,
57708574,1097,1097,1097,1097,,,,,
57711073,1098,1098,1098,1098,,,,,
57713572,1099,1099,1099,1099,,,,,
57716071,1099,1099,1099,1099,,,,,
57718570,1100,1100,1100,1100,,,,,
57721069,1101,1101,1101,1101,,,,,
57723568,1101,1101,1101,1101,,,,,
57726067,1102,1102,1102,1102,,,,,
57728566,1103,1103,1103,1103,,,,,
57731065,1104,1104,1104,1104,,,,,
57733564,1104,1104,1104,1104,,,,,
57736063,1105,1105,1105,1105,,,,,
57738562,1106,1106,1106,1106,,,,,
57741061,1107,1107,1107,1107,,,,,
57743560,1107,1107,1107,1107,,,,,
57746059,1108,1108,1108,1108,,,,,
57748558,1109,1109,1109,1109,,,,,
57751057,1110,1110,1110,1110,,,,,
57753556,1110,1110,1110,1110,,,,,
57756055,1111,1111,1111,1111,,,,,
57758554,1112,1112,1112,1112,,,,,
57761053,1113,1113,1113,1113,,,,,
57763552,1113,1113,1113,1113,,,,,
57766051,1114,1114,1114,1114,,,,,
57768550,1115,1115,1115,1115,,,,,
57771049,1116,1116,1116,1116,,,,,
57773548,1116,1116,1116,1116,,,,,
57776047,1117,1117,1117,1117,,,,,
57778546,1118,1118,1118,1118,,,,,
57781045,1119,1119,1119,1119,,,,,
57783544,1119,1119,1119,1119,,,,,
57786043,1120,1120,1120,1120,,,,,
57788542,1121,1121,1121,1121,,,,,
57791041,1122,1122,1122,1122,,,,,
57793540,1122,1122,1122,1122,,,,,
57796039,1123,1123,1123,1123,,,,,
57798538,1124,1124,1124,1124,,,,,
57801037,1125,1125,1125,1125,,,,,
57803536,1125,1125,1125,1125,,,,,
57806035,1126,1126,1126,1126,,,,,
57808534,1127,1127,1127,1127,,,,,
57811033,1128,1128,1128,1128,,,,,
57813532,1128,1128,1128,1128,,,,,
57816031,1129,1129,1129,1129,,,,,
57818530,1130,1130,1130,1130,,,,,
57821029,1131,1131,1131,1131,,,,,
57823528,1131,1131,1131,1131,,,,,
57826027,1132,1132,1132,1132,,,,,
57828526,1133,1133,1133,1133,,,,,
57831025,1134,1134,1134,1134,,,,,
57833524,1134,1134,1134,1134,,,,,
57836023,1135,1135,1135,1135,,,,,
57838522,1136,1136,1136,1136,,,,,
57841021,1137,1137,1137,1137,,,,,
57843520,1137,1137,1137,1137,,,,,
57846019,1138,1138,1138,1138,,,,,
57848518,1139,1139,1139,1139,,,,,
57851017,1140,1140,1140,1140,,,,,
57853516,1140,1140,1140,1140,,,,,
57856015,1141,1141,1141,1141,,,,,
57858514,1142,1142,1142,1142,,,,,
57861013,1143,1143,1143,1143,,,,,
57863512,1143,1143,1143,1143,,,,,
57866011,1144,1144,1144,1144,,,,,
57868510,1145,1145,1145,1145,,,,,
57871009,1146,1146,1146,1146,,,,,
57873508,1146,1146,1146,1146,,,,,
57876007,1147,1147,1147,1147,,,,,
57878506,1148,1148,1148,1148,,,,,
57881005,1149,1149,1149,1149,,,,,
57883504,1149,1149,1149,1149,,,,,
57886003,1150,1150,1150,1150,,,,,
57888502,1162,1153,1154,1162,,,,,
57891001,1170,1161,1162,1170,,,,,
57893500,1178,1169,1170,1178,,,,,
57895999,1185,1177,1178,1186,,,,,
57898498,1193,1185,1185,1193,,,,,
57900997,1200,1192,1193,1201,,,,,
57903496,1208,1200,1200,1208,,,,,
57905995,1215,1207,1208,1215,,,,,
57908494,1222,1214,1215,1222,,,,,
57910993,1229,1221,1222,1229,,,,,
57913492,1236,1228,1229,1236,,,,,
57915991,1243,1235,1236,1243,,,,,
57918490,1249,1242,1242,1250,,,,,
57920989,1256,1248,1249,1256,,,,,
57923488,1263,1255,1256,1263,,,,,
57925987,1269,1262,1262,1269,,,,,
57928486,1275,1268,1269,1276,,,,,
57930985,1282,1274,1275,1282,,,,,
57933484,1288,1281,1281,1288,,,,,
57935983,1294,1287,1287,1294,,,,,
57938482,1300,1293,1294,1300,,,,,
57940981,1306,1299,1300,1306,,,,,
57943480,1312,1305,1306,1312,,,,,
57945979,1318,1311,1312,1318,,,,,
57948478,1324,1317,1317,1324,,,,,
57950977,1329,1323,1323,1330,,,,,
57953476,1335,1328,1329,1335,,,,,
57955975,1341,1334,1335,1341,,,,,
57958474,1346,1340,1340,1347,,,,,
57960973,1352,1345,1346,1352,,,,,
57963472,1357,1351,1351,1358,,,,,
57965971,1363,1356,1357,1363,,,,,
57968470,1368,1362,1362,1368,,,,,
57970969,1374,1367,1368,1374,,,,,
57973468,1379,1373,1373,1379,,,,,
57975967,1384,1378,1378,1384,,,,,
57978466,1389,1383,1384,1389,,,,,
57980965,1394,1388,1389,1395,,,,,
57983464,1400,1394,1394,1400,,,,,
57985963,1405,1399,1399,1405,,,,,
57988462,1410,1404,1404,1410,,,,,
57990961,1415,1409,1409,1415,,,,,
57993460,1420,1414,1414,1420,,,,,
57995959,1425,1419,1419,1425,,,,,
57998458,1430,1424,1424,1430,,,,,
58000957,1435,1429,1429,1435,,,,,
58003456,1439,1433,1434,1439,,,,,
58005955,1444,1438,1439,1444,,,,,
58008454,1449,1443,1444,1449,,,,,
58010953,1454,1448,1448,1454,,,,,
58013452,1458,1453,1453,1458,,,,,
58015951,1463,1457,1458,1463,,,,,
58018450,1468,1462,1463,1468,,,,,
58020949,1472,1467,1467,1472,,,,,
58023448,1477,1471,1472,1477,,,,,
58025947,1481,1476,1476,1481,,,,,
58028446,1486,1480,1481,1486,,,,,
58030945,1490,1485,1485,1490,,,,,
58033444,1495,1489,1490,1495,,,,,
58035943,1499,1494,1494,1499,,,,,
58038442,1504,1498,1499,1504,,,,,
58040941,1508,1503,1503,1508,,,,,
58043440,1513,1507,1508,1512,,,,,
58045939,1517,1511,1512,1517,,,,,
58048438,1521,1516,1516,1521,,,,,
58050937,1526,1520,1521,1525,,,,,
58053436,1530,1524,1525,1530,,,,,
58055935,1534,1529,1529,1534,,,,,
58058434,1538,1533,1533,1538,,,,,
58060933,1542,1537,1538,1542,,,,,
58063432,1547,1541,1542,1547,,,,,
58065931,1551,1545,1546,1551,,,,,
58068430,1555,1550,1550,1555,,,,,
58070929,1559,1554,1554,1559,,,,,
58073428,1563,1558,1559,1563,,,,,
58075927,1567,1562,1563,1567,,,,,
58078426,1571,1566,1567,1571,,,,,
58080925,1575,1570,1571,1575,,,,,
58083424,1579,1574,1575,1579,,,,,
58085923,1583,1578,1579,1583,,,,,
58088422,1587,1582,1583,1587,,,,,
58090921,1591,1586,1587,1591,,,,,
58093420,1595,1590,1591,1595,,,,,
58095919,1599,1594,1595,1599,,,,,
58098418,1603,1598,1599,1603,,,,,
58100917,1607,1602,1602,1607,,,,,
58103416,1611,1606,1606,1611,,,,,
58105915,1615,1609,1610,1614,,,,,
58108414,1618,1613,1614,1618,,,,,
58110913,1622,1617,1618,1622,,,,,
58113412,1626,1621,1622,1626,,,,,
58115911,1630,1625,1625,1630,,,,,
58118410,1634,1628,1629,1633,,,,,
58120909,1637,1632,1633,1637,,,,,
58123408,1641,1636,1637,1641,,,,,
58125907,1645,1640,1640,1645,,,,,
58128406,1649,1643,1644,1648,,,,,
58130905,1652,1647,1648,1652,,,,,
58133404,1656,1651,1652,1656,,,,,
58135903,1660,1654,1655,1659,,,,,
58138402,1663,1658,1659,1663,,,,,
58140901,1667,1662,1662,1667,,,,,
58143400,1671,1665,1666,1670,,,,,
58145899,1674,1669,1670,1674,,,,,
58148398,1678,1672,1673,1678,,,,,
58150897,1681,1676,1677,1681,,,,,
58153396,1685,1680,1680,1685,,,,,
58155895,1689,1683,1684,1688,,,,,
58158394,1692,1687,1688,1692,,,,,
58160893,1696,1690,1691,1695,,,,,
58163392,1699,1694,1695,1699,,,,,
58165891,1703,1697,1698,1702,,,,,
58168390,1706,1701,1701,1706,,,,,
58170889,1710,1704,1705,1709,,,,,
58173388,1713,1708,1708,1713,,,,,
58175887,1716,1711,1712,1716,,,,,
58178386,1720,1715,1715,1720,,,,,
58180885,1723,1718,1719,1723,,,,,
58183384,1727,1721,1722,1726,,,,,
58185883,1730,1725,1726,1730,,,,,
58188382,1733,1728,1729,1733,,,,,
58190881,1737,1732,1732,1737,,,,,
58193380,1740,1735,1736,1740,,,,,
58195879,1744,1738,1739,1743,,,,,
58198378,1747,1742,1742,1747,,,,,
58200877,1750,1745,1746,1750,,,,,
58203376,1753,1748,1749,1753,,,,,
58205875,1757,1752,1752,1757,,,,,
58208374,1760,1755,1756,1760,,,,,
58210873,1763,1758,1759,1763,,,,,
58213372,1767,1762,1762,1767,,,,,
58215871,1770,1765,1765,1770,,,,,
58218370,1773,1768,1769,1773,,,,,
58220869,1776,1771,1772,1776,,,,,
58223368,1780,1775,1775,1780,,,,,
58225867,1783,1778,1778,1783,,,,,
58228366,1786,1781,1782,1786,,,,,
58230865,1789,1784,1785,1789,,,,,
58233364,1792,1787,1788,1792,,,,,
58235863,1796,1791,1791,1796,,,,,
58238362,1799,1794,1794,1799,,,,,
58240861,1802,1797,1797,1802,,,,,
58243360,1805,1800,1801,1805,,,,,
58245859,1808,1803,1804,1808,,,,,
58248358,1811,1806,1807,1811,,,,,
58250857,1815,1809,1810,1815,,,,,
58253356,1818,1813,1813,1818,,,,,
58255855,1821,1816,1816,1821,,,,,
58258354,1824,1819,1819,1824,,,,,
58260853,1827,1822,1822,1827,,,,,
58263352,1830,1825,1825,1830,,,,,
58265851,1833,1828,1828,1833,,,,,
58268350,1836,1831,1831,1836,,,,,
58270849,1839,1834,1835,1839,,,,,
58273348,1842,1837,1838,1843,,,,,
58275847,1845,1840,1841,1846,,,,,
58278346,1848,1843,1844,1849,,,,,
58280845,1851,1846,1847,1852,,,,,
58283344,1855,1849,1850,1855,,,,,
58285843,1857,1851,1852,1857,,,,,
58288342,1855,1850,1850,1856,,,,,
58290841,1854,1849,1849,1854,,,,,
58293340,1853,1848,1848,1853,,,,,
58295839,1852,1846,1847,1852,,,,,
58298338,1850,1845,1845,1851,,,,,
58300837,1849,1844,1844,1849,,,,,
58303336,1848,1843,1843,1848,,,,,
58305835,1847,1842,1842,1847,,,,,
58308334,1846,1841,1841,1846,,,,,
58310833,1845,1840,1840,1845,,,,,
58313332,1844,1839,1839,1845,,,,,
58315831,1844,1838,1839,1844,,,,,
58318330,1843,1838,1838,1843,,,,,
58320829,1842,1837,1837,1843,,,,,
58323328,1842,1837,1837,1842,,,,,
58325827,1842,1836,1837,1842,,,,,
58328326,1841,1836,1836,1842,,,,,
58330825,1841,1836,1836,1841,,,,,
58333324,1841,1836,1836,1841,,,,,
58335823,1841,1836,1836,1841,,,,,
58338322,1841,1836,1836,1841,,,,,
58340821,1841,1836,1836,1841,,,,,
58343320,1841,1836,1836,1842,,,,,
58345819,1842,1837,1837,1842,,,,,
58348318,1842,1837,1837,1842,,,,,
58350817,1842,1837,1838,1843,,,,,
58353316,1843,1838,1838,1843,,,,,
58355815,1843,1838,1839,1844,,,,,
58358314,1844,1839,1839,1844,,,,,
58360813,1844,1840,1840,1845,,,,,
58363312,1845,1840,1840,1845,,,,,
58365811,1846,1841,1841,1846,,,,,
58368310,1846,1842,1842,1847,,,,,
58370809,1847,1842,1842,1848,,,,,
58373308,1848,1843,1843,1848,,,,,
58375807,1849,1844,1844,1849,,,,,
58378306,1850,1845,1845,1850,,,,,
58380805,1851,1846,1846,1851,,,,,
58383304,1851,1846,1847,1852,,,,,
58385803,1852,1847,1848,1853,,,,,
58388302,1853,1848,1849,1854,,,,,
58390801,1854,1849,1850,1855,,,,,
58393300,1855,1851,1851,1856,,,,,
58395799,1856,1852,1852,1856,,,,,
58398298,1857,1853,1853,1857,,,,,
58400797,1858,1854,1854,1858,,,,,
58403296,1859,1855,1855,1859,,,,,
58405795,1859,1855,1856,1859,,,,,
58408294,1860,1856,1856,1860,,,,,
58410793,1860,1856,1857,1860,,,,,
58413292,1860,1857,1857,1860,,,,,
58415791,1860,1857,1857,1860,,,,,
58418290,1860,1857,1857,1860,,,,,
58420789,1860,1856,1857,1860,,,,,
58423288,1859,1856,1856,1859,,,,,
58425787,1858,1855,1856,1859,,,,,
58428286,1857,1854,1855,1858,,,,,
58430785,1856,1853,1854,1857,,,,,
58433284,1855,1852,1852,1855,,,,,
58435783,1854,1851,1851,1854,,,,,
58438282,1852,1849,1849,1852,,,,,
58440781,1850,1847,1848,1851,,,,,
58443280,1848,1846,1846,1849,,,,,
58445779,1846,1844,1844,1847,,,,,
58448278,1844,1842,1842,1845,,,,,
58450777,1842,1839,1840,1842,,,,,
58453276,1840,1837,1837,1840,,,,,
58455775,1837,1835,1835,1837,,,,,
58458274,1835,1832,1832,1835,,,,,
58460773,1832,1829,1830,1832,,,,,
58463272,1829,1827,1827,1829,,,,,
58465771,1826,1824,1824,1827,,,,,
58468270,1823,1821,1821,1824,,,,,
58470769,1820,1818,1818,1821,,,,,
58473268,1817,1815,1815,1817,,,,,
58475767,1814,1812,1812,1814,,,,,
58478266,1811,1809,1809,1811,,,,,
58480765,1808,1806,1806,1808,,,,,
58483264,1805,1802,1803,1805,,,,,
58485763,1801,1799,1799,1801,,,,,
58488262,1798,1796,1796,1798,,,,,
58490761,1795,1792,1793,1795,,,,,
58493260,1791,1789,1790,1791,,,,,
58495759,1788,1786,1786,1788,,,,,
58498258,1785,1782,1783,1785,,,,,
58500757,1781,1779,1779,1781,,,,,
58503256,1778,1776,1776,1778,,,,,
58505755,1774,1772,1773,1775,,,,,
58508254,1771,1769,1769,1771,,,,,
58510753,1767,1766,1766,1768,,,,,
58513252,1764,1762,1762,1764,,,,,
58515751,1760,1759,1759,1761,,,,,
58518250,1757,1755,1756,1757,,,,,
58520749,1754,1752,1752,1754,,,,,
58523248,1750,1749,1749,1750,,,,,
58525747,1747,1745,1746,1747,,,,,
58528246,1743,1742,1742,1744,,,,,
58530745,1740,1739,1739,1740,,,,,
58533244,1737,1736,1736,1737,,,,,
58535743,1734,1732,1733,1734,,,,,
58538242,1730,1729,1729,1731,,,,,
58540741,1727,1726,1726,1727,,,,,
58543240,1724,1723,1723,1724,,,,,
58545739,1721,1720,1720,1721,,,,,
58548238,1718,1717,1717,1718,,,,,
58550737,1715,1714,1714,1715,,,,,
58553236,1712,1711,1711,1712,,,,,
58555735,1709,1708,1708,1709,,,,,
58558234,1706,1705,1705,1706,,,,,
58560733,1703,1702,1702,1703,,,,,
58563232,1700,1699,1700,1700,,,,,
58565731,1697,1697,1697,1697,,,,,
58568230,1694,1694,1694,1694,,,,,
58570729,1691,1691,1691,1692,,,,,
58573228,1689,1688,1689,1689,,,,,
58575727,1686,1686,1686,1686,,,,,
58578226,1683,1683,1684,1684,,,,,
58580725,1681,1681,1681,1681,,,,,
58583224,1678,1678,1679,1678,,,,,
58585723,1676,1676,1676,1676,,,,,
58588222,1673,1674,1674,1674,,,,,
58590721,1671,1671,1672,1671,,,,,
58593220,1669,1669,1669,1669,,,,,
58595719,1666,1667,1667,1667,,,,,
58598218,1664,1665,1665,1664,,,,,
58600717,1662,1662,1663,1662,,,,,
58603216,1660,1660,1661,1660,,,,,
58605715,1658,1658,1659,1658,,,,,
58608214,1656,1656,1657,1656,,,,,
58610713,1654,1654,1655,1654,,,,,
58613212,1652,1652,1653,1652,,,,,
58615711,1650,1650,1651,1650,,,,,
58618210,1648,1648,1649,1648,,,,,
58620709,1646,1647,1647,1646,,,,,
58623208,1644,1645,1645,1644,,,,,
58625707,1643,1643,1644,1643,,,,,
58628206,1641,1642,1642,1641,,,,,
58630705,1639,1640,1640,1639,,,,,
58633204,1638,1639,1639,1638,,,,,
58635703,1636,1637,1637,1636,,,,,
58638202,1635,1636,1636,1635,,,,,
58640701,1633,1634,1635,1633,,,,,
58643200,1632,1633,1633,1632,,,,,
58645699,1631,1632,1632,1631,,,,,
58648198,1630,1630,1631,1629,,,,,
58650697,1628,1629,1630,1628,,,,,
58653196,1627,1628,1629,1627,,,,,
58655695,1626,1627,1627,1626,,,,,
58658194,1625,1626,1626,1625,,,,,
58660693,1624,1625,1625,1624,,,,,
58663192,1623,1624,1625,1623,,,,,
58665691,1622,1623,1624,1622,,,,,
58668190,1621,1623,1623,1621,,,,,
58670689,1620,1622,1622,1621,,,,,
58673188,1620,1621,1621,1620,,,,,
58675687,1619,1620,1620,1619,,,,,
58678186,1618,1620,1620,1618,,,,,
58680685,1618,1619,1619,1618,,,,,
58683184,1617,1618,1619,1617,,,,,
58685683,1616,1618,1618,1617,,,,,
58688182,1616,1617,1617,1616,,,,,
58690681,1615,1617,1617,1615,,,,,
58693180,1615,1616,1616,1615,,,,,
58695679,1614,1616,1616,1615,,,,,
58698178,1614,1616,1616,1614,,,,,
58700677,1613,1615,1615,1614,,,,,
58703176,1613,1615,1615,1613,,,,,
58705675,1613,1615,1615,1613,,,,,
58708174,1612,1614,1614,1613,,,,,
58710673,1612,1614,1614,1613,,,,,
58713172,1612,1614,1614,1612,,,,,
58715671,1612,1614,1614,1612,,,,,
58718170,1612,1614,1614,1612,,,,,
58720669,1612,1614,1614,1612,,,,,
58723168,1612,1614,1614,1612,,,,,
58725667,1612,1614,1614,1612,,,,,
58728166,1612,1614,1614,1612,,,,,
58730665,1612,1614,1614,1612,,,,,
58733164,1612,1614,1614,1612,,,,,
