timestamp,TimeUS,C1,C2,C3,C4,C5,C6,C7,C8,C9,C10,C11,C12,C13,C14
1706428519.20000005,55428653,1000,1000,1000,1000,0,0,0,0,0,0,0,0,0,0
1706428519.29996014,55528613,1000,1000,1000,1000,0,0,0,0,0,0,0,0,0,0
1706428519.39991999,55628573,1000,1000,1000,1000,0,0,0,0,0,0,0,0,0,0
1706428519.49988008,55728533,1000,1000,1000,1000,0,0,0,0,0,0,0,0,0,0
1706428519.59984016,55828493,1000,1000,1000,1000,0,0,0,0,0,0,0,0,0,0
1706428519.69980001,55928453,1000,1000,1000,1000,0,0,0,0,0,0,0,0,0,0
1706428519.79976010,56028413,1000,1000,1000,1000,0,0,0,0,0,0,0,0,0,0
1706428519.89971995,56128373,1000,1000,1000,1000,0,0,0,0,0,0,0,0,0,0
1706428519.99968004,56228333,1000,1000,1000,1000,0,0,0,0,0,0,0,0,0,0
1706428520.09964013,56328293,1000,1000,1000,1000,0,0,0,0,0,0,0,0,0,0
1706428520.19959998,56428253,1000,1000,1000,1000,0,0,0,0,0,0,0,0,0,0
1706428520.29956007,56528213,1000,1000,1000,1000,0,0,0,0,0,0,0,0,0,0
1706428520.39952016,56628173,1000,1000,1000,1000,0,0,0,0,0,0,0,0,0,0
1706428520.50031304,56728966,1000,1000,1000,1000,0,0,0,0,0,0,0,0,0,0
1706428520.60027313,56828926,1000,1000,1000,1000,0,0,0,0,0,0,0,0,0,0
1706428520.70023298,56928886,1000,1000,1000,1000,0,0,0,0,0,0,0,0,0,0
1706428520.80019307,57028846,1000,1000,1000,1000,0,0,0,0,0,0,0,0,0,0
1706428520.90015316,57128806,1000,1000,1000,1000,0,0,0,0,0,0,0,0,0,0
1706428521.00011301,57228766,1000,1000,1000,1000,0,0,0,0,0,0,0,0,0,0
1706428521.10007310,57328726,1000,1000,1000,1000,0,0,0,0,0,0,0,0,0,0
1706428521.20003295,57428686,1014,1014,1014,1014,0,0,0,0,0,0,0,0,0,0
1706428521.29999304,57528646,1044,1044,1044,1044,0,0,0,0,0,0,0,0,0,0
1706428521.39995313,57628606,1074,1074,1074,1074,0,0,0,0,0,0,0,0,0,0
1706428521.49991298,57728566,1104,1104,1104,1104,0,0,0,0,0,0,0,0,0,0
1706428521.59987307,57828526,1134,1134,1134,1134,0,0,0,0,0,0,0,0,0,0
1706428521.69983315,57928486,1282,1274,1275,1282,0,0,0,0,0,0,0,0,0,0
1706428521.79979300,58028446,1490,1485,1485,1490,0,0,0,0,0,0,0,0,0,0
1706428521.89975309,58128406,1652,1647,1648,1652,0,0,0,0,0,0,0,0,0,0
1706428521.99971294,58228366,1789,1784,1785,1789,0,0,0,0,0,0,0,0,0,0
1706428522.09967303,58328326,1841,1836,1836,1841,0,0,0,0,0,0,0,0,0,0
1706428522.19963312,58428286,1856,1853,1854,1857,0,0,0,0,0,0,0,0,0,0
1706428522.29959297,58528246,1740,1739,1739,1740,0,0,0,0,0,0,0,0,0,0
1706428522.39955306,58628206,1639,1640,1640,1639,0,0,0,0,0,0,0,0,0,0
1706428522.49951315,58728166,1612,1614,1614,1612,0,0,0,0,0,0,0,0,0,0
1706428522.60030603,58828959,1624,1627,1626,1624,0,0,0,0,0,0,0,0,0,0
1706428522.70026612,58928919,1638,1640,1640,1639,0,0,0,0,0,0,0,0,0,0
1706428522.80022597,59028879,1642,1642,1642,1642,0,0,0,0,0,0,0,0,0,0
1706428522.90018606,59128839,1637,1636,1636,1637,0,0,0,0,0,0,0,0,0,0
1706428523.00014615,59228799,1629,1628,1629,1629,0,0,0,0,0,0,0,0,0,0
1706428523.10010600,59328759,1626,1624,1624,1625,0,0,0,0,0,0,0,0,0,0
1706428523.20006609,59428719,1602,1602,1602,1602,0,0,0,0,0,0,0,0,0,0
1706428523.30002594,59528679,1588,1588,1584,1592,0,0,0,0,0,0,0,0,0,0
1706428523.39998603,59628639,1584,1583,1575,1591,0,0,0,0,0,0,0,0,0,0
1706428523.49994612,59728599,1581,1579,1573,1586,0,0,0,0,0,0,0,0,0,0
1706428523.59990597,59828559,1580,1579,1577,1581,0,0,0,0,0,0,0,0,0,0
1706428523.69986606,59928519,1581,1582,1583,1580,0,0,0,0,0,0,0,0,0,0
1706428523.79982615,60028479,1584,1585,1588,1581,0,0,0,0,0,0,0,0,0,0
1706428523.89978600,60128439,1572,1572,1583,1561,0,0,0,0,0,0,0,0,0,0
1706428523.99974608,60228399,1560,1561,1575,1546,0,0,0,0,0,0,0,0,0,0
1706428524.09970593,60328359,1552,1552,1558,1547,0,0,0,0,0,0,0,0,0,0
1706428524.19966602,60428319,1543,1543,1540,1548,0,0,0,0,0,0,0,0,0,0
1706428524.29962611,60528279,1537,1536,1528,1546,0,0,0,0,0,0,0,0,0,0
1706428524.39958596,60628239,1531,1531,1522,1541,0,0,0,0,0,0,0,0,0,0
1706428524.49954605,60728199,1531,1531,1525,1538,0,0,0,0,0,0,0,0,0,0
1706428524.59950614,60828159,1533,1533,1531,1536,0,0,0,0,0,0,0,0,0,0
1706428524.70029902,60928952,1536,1535,1537,1534,0,0,0,0,0,0,0,0,0,0
1706428524.80025911,61028912,1539,1539,1544,1535,0,0,0,0,0,0,0,0,0,0
1706428524.90021896,61128872,1542,1542,1547,1538,0,0,0,0,0,0,0,0,0,0
1706428525.00017905,61228832,1546,1546,1549,1542,0,0,0,0,0,0,0,0,0,0
1706428525.10013914,61328792,1548,1548,1549,1547,0,0,0,0,0,0,0,0,0,0
1706428525.20009899,61428752,1550,1550,1549,1551,0,0,0,0,0,0,0,0,0,0
1706428525.30005908,61528712,1549,1548,1557,1561,0,0,0,0,0,0,0,0,0,0
1706428525.40001893,61628672,1550,1550,1559,1563,0,0,0,0,0,0,0,0,0,0
1706428525.49997902,61728632,1554,1554,1560,1563,0,0,0,0,0,0,0,0,0,0
1706428525.59993911,61828592,1558,1557,1561,1562,0,0,0,0,0,0,0,0,0,0
1706428525.69989896,61928552,1561,1561,1561,1561,0,0,0,0,0,0,0,0,0,0
1706428525.79985905,62028512,1564,1565,1562,1562,0,0,0,0,0,0,0,0,0,0
1706428525.89981914,62128472,1568,1568,1564,1564,0,0,0,0,0,0,0,0,0,0
1706428525.99977899,62228432,1570,1569,1564,1563,0,0,0,0,0,0,0,0,0,0
1706428526.09973907,62328392,1571,1571,1565,1565,0,0,0,0,0,0,0,0,0,0
1706428526.19969916,62428352,1572,1572,1566,1567,0,0,0,0,0,0,0,0,0,0
1706428526.29965901,62528312,1574,1573,1568,1568,0,0,0,0,0,0,0,0,0,0
1706428526.39961910,62628272,1574,1574,1570,1570,0,0,0,0,0,0,0,0,0,0
1706428526.49957895,62728232,1574,1574,1572,1572,0,0,0,0,0,0,0,0,0,0
1706428526.59953904,62828192,1574,1574,1573,1573,0,0,0,0,0,0,0,0,0,0
1706428526.70033216,62928985,1574,1575,1576,1574,0,0,0,0,0,0,0,0,0,0
1706428526.80029202,63028945,1575,1576,1577,1576,0,0,0,0,0,0,0,0,0,0
1706428526.90025210,63128905,1576,1576,1578,1577,0,0,0,0,0,0,0,0,0,0
1706428527.00021195,63228865,1576,1576,1578,1577,0,0,0,0,0,0,0,0,0,0
1706428527.10017204,63328825,1575,1575,1577,1577,0,0,0,0,0,0,0,0,0,0
1706428527.20013213,63428785,1574,1574,1576,1576,0,0,0,0,0,0,0,0,0,0
1706428527.30009198,63528745,1575,1574,1576,1576,0,0,0,0,0,0,0,0,0,0
1706428527.40005207,63628705,1574,1574,1575,1575,0,0,0,0,0,0,0,0,0,0
1706428527.50001216,63728665,1575,1575,1575,1576,0,0,0,0,0,0,0,0,0,0
1706428527.59997201,63828625,1575,1576,1575,1575,0,0,0,0,0,0,0,0,0,0
1706428527.69993210,63928585,1576,1576,1576,1575,0,0,0,0,0,0,0,0,0,0
1706428527.79989195,64028545,1576,1576,1576,1576,0,0,0,0,0,0,0,0,0,0
1706428527.89985204,64128505,1577,1577,1576,1576,0,0,0,0,0,0,0,0,0,0
1706428527.99981213,64228465,1577,1577,1576,1576,0,0,0,0,0,0,0,0,0,0
1706428528.09977198,64328425,1578,1577,1577,1576,0,0,0,0,0,0,0,0,0,0
1706428528.19973207,64428385,1578,1578,1577,1577,0,0,0,0,0,0,0,0,0,0
1706428528.29969215,64528345,1578,1577,1577,1577,0,0,0,0,0,0,0,0,0,0
1706428528.39965200,64628305,1578,1578,1578,1578,0,0,0,0,0,0,0,0,0,0
1706428528.49961209,64728265,1578,1579,1578,1579,0,0,0,0,0,0,0,0,0,0
1706428528.59957194,64828225,1578,1578,1579,1579,0,0,0,0,0,0,0,0,0,0
1706428528.69953203,64928185,1579,1579,1579,1579,0,0,0,0,0,0,0,0,0,0
1706428528.80032516,65028978,1579,1579,1579,1579,0,0,0,0,0,0,0,0,0,0
1706428528.90028501,65128938,1579,1579,1579,1579,0,0,0,0,0,0,0,0,0,0
1706428529.00024509,65228898,1578,1578,1578,1579,0,0,0,0,0,0,0,0,0,0
1706428529.10020494,65328858,1579,1578,1579,1579,0,0,0,0,0,0,0,0,0,0
1706428529.20016503,65428818,1579,1578,1579,1579,0,0,0,0,0,0,0,0,0,0
1706428529.30012512,65528778,1580,1580,1580,1580,0,0,0,0,0,0,0,0,0,0
1706428529.40008497,65628738,1580,1580,1580,1580,0,0,0,0,0,0,0,0,0,0
1706428529.50004506,65728698,1579,1579,1579,1579,0,0,0,0,0,0,0,0,0,0
1706428529.60000515,65828658,1579,1580,1580,1580,0,0,0,0,0,0,0,0,0,0
1706428529.69996500,65928618,1580,1580,1580,1580,0,0,0,0,0,0,0,0,0,0
1706428529.79992509,66028578,1580,1580,1580,1580,0,0,0,0,0,0,0,0,0,0
1706428529.89988494,66128538,1580,1581,1580,1580,0,0,0,0,0,0,0,0,0,0
1706428529.99984503,66228498,1581,1581,1581,1581,0,0,0,0,0,0,0,0,0,0
1706428530.09980512,66328458,1581,1580,1581,1580,0,0,0,0,0,0,0,0,0,0
1706428530.19976497,66428418,1581,1581,1581,1581,0,0,0,0,0,0,0,0,0,0
1706428530.29972506,66528378,1581,1581,1580,1581,0,0,0,0,0,0,0,0,0,0
1706428530.39968514,66628338,1581,1581,1581,1581,0,0,0,0,0,0,0,0,0,0
1706428530.49964499,66728298,1581,1581,1581,1581,0,0,0,0,0,0,0,0,0,0
1706428530.59960508,66828258,1580,1581,1580,1580,0,0,0,0,0,0,0,0,0,0
1706428530.69956493,66928218,1580,1580,1580,1580,0,0,0,0,0,0,0,0,0,0
1706428530.79952502,67028178,1580,1580,1580,1581,0,0,0,0,0,0,0,0,0,0
1706428530.90031815,67128971,1581,1580,1581,1581,0,0,0,0,0,0,0,0,0,0
1706428531.00027800,67228931,1581,1581,1581,1581,0,0,0,0,0,0,0,0,0,0
1706428531.10023808,67328891,1580,1580,1581,1580,0,0,0,0,0,0,0,0,0,0
1706428531.20019794,67428851,1581,1581,1581,1581,0,0,0,0,0,0,0,0,0,0
1706428531.30015802,67528811,1580,1580,1580,1580,0,0,0,0,0,0,0,0,0,0
1706428531.40011811,67628771,1580,1580,1580,1580,0,0,0,0,0,0,0,0,0,0
1706428531.50007796,67728731,1581,1581,1581,1581,0,0,0,0,0,0,0,0,0,0
1706428531.60003805,67828691,1580,1582,1588,1573,0,0,0,0,0,0,0,0,0,0
1706428531.69999814,67928651,1580,1582,1585,1573,0,0,0,0,0,0,0,0,0,0
1706428531.79995799,68028611,1578,1581,1576,1573,0,0,0,0,0,0,0,0,0,0
1706428531.89991808,68128571,1578,1581,1568,1572,0,0,0,0,0,0,0,0,0,0
1706428531.99987793,68228531,1577,1579,1561,1568,0,0,0,0,0,0,0,0,0,0
1706428532.09983802,68328491,1578,1578,1557,1563,0,0,0,0,0,0,0,0,0,0
1706428532.19979811,68428451,1579,1577,1555,1559,0,0,0,0,0,0,0,0,0,0
1706428532.29975796,68528411,1580,1578,1556,1556,0,0,0,0,0,0,0,0,0,0
1706428532.39971805,68628371,1578,1577,1556,1554,0,0,0,0,0,0,0,0,0,0
1706428532.49967813,68728331,1577,1577,1555,1552,0,0,0,0,0,0,0,0,0,0
1706428532.59963799,68828291,1577,1577,1556,1553,0,0,0,0,0,0,0,0,0,0
1706428532.69959807,68928251,1575,1577,1555,1554,0,0,0,0,0,0,0,0,0,0
1706428532.79955816,69028211,1574,1576,1554,1554,0,0,0,0,0,0,0,0,0,0
1706428532.89951801,69128171,1574,1575,1552,1553,0,0,0,0,0,0,0,0,0,0
1706428533.00031114,69228964,1575,1577,1552,1552,0,0,0,0,0,0,0,0,0,0
1706428533.10027099,69328924,1576,1577,1549,1550,0,0,0,0,0,0,0,0,0,0
1706428533.20023108,69428884,1578,1579,1547,1547,0,0,0,0,0,0,0,0,0,0
1706428533.30019116,69528844,1581,1581,1545,1545,0,0,0,0,0,0,0,0,0,0
1706428533.40015101,69628804,1583,1584,1542,1542,0,0,0,0,0,0,0,0,0,0
1706428533.50011110,69728764,1587,1587,1540,1539,0,0,0,0,0,0,0,0,0,0
1706428533.60007095,69828724,1590,1590,1537,1537,0,0,0,0,0,0,0,0,0,0
1706428533.70003104,69928684,1592,1592,1535,1535,0,0,0,0,0,0,0,0,0,0
1706428533.79999113,70028644,1594,1594,1534,1534,0,0,0,0,0,0,0,0,0,0
1706428533.89995098,70128604,1594,1594,1534,1536,0,0,0,0,0,0,0,0,0,0
1706428533.99991107,70228564,1593,1594,1535,1537,0,0,0,0,0,0,0,0,0,0
1706428534.09987116,70328524,1592,1591,1538,1541,0,0,0,0,0,0,0,0,0,0
1706428534.19983101,70428484,1588,1587,1543,1547,0,0,0,0,0,0,0,0,0,0
1706428534.29979110,70528444,1583,1580,1552,1555,0,0,0,0,0,0,0,0,0,0
1706428534.39975095,70628404,1575,1571,1562,1564,0,0,0,0,0,0,0,0,0,0
1706428534.49971104,70728364,1565,1561,1574,1576,0,0,0,0,0,0,0,0,0,0
1706428534.59967113,70828324,1553,1549,1586,1587,0,0,0,0,0,0,0,0,0,0
1706428534.69963098,70928284,1542,1540,1598,1598,0,0,0,0,0,0,0,0,0,0
1706428534.79959106,71028244,1534,1534,1607,1606,0,0,0,0,0,0,0,0,0,0
1706428534.89955115,71128204,1529,1530,1612,1612,0,0,0,0,0,0,0,0,0,0
1706428534.99951100,71228164,1527,1529,1614,1613,0,0,0,0,0,0,0,0,0,0
1706428535.10030413,71328957,1531,1533,1613,1613,0,0,0,0,0,0,0,0,0,0
1706428535.20026398,71428917,1537,1539,1609,1609,0,0,0,0,0,0,0,0,0,0
1706428535.30022407,71528877,1544,1545,1602,1602,0,0,0,0,0,0,0,0,0,0
1706428535.40018415,71628837,1552,1553,1594,1594,0,0,0,0,0,0,0,0,0,0
1706428535.50014400,71728797,1561,1562,1587,1587,0,0,0,0,0,0,0,0,0,0
1706428535.60010409,71828757,1570,1570,1581,1580,0,0,0,0,0,0,0,0,0,0
1706428535.70006394,71928717,1577,1577,1575,1574,0,0,0,0,0,0,0,0,0,0
1706428535.80002403,72028677,1583,1582,1570,1570,0,0,0,0,0,0,0,0,0,0
1706428535.89998412,72128637,1587,1585,1568,1568,0,0,0,0,0,0,0,0,0,0
1706428535.99994397,72228597,1587,1586,1566,1566,0,0,0,0,0,0,0,0,0,0
1706428536.09990406,72328557,1587,1585,1566,1566,0,0,0,0,0,0,0,0,0,0
1706428536.19986415,72428517,1585,1584,1567,1568,0,0,0,0,0,0,0,0,0,0
1706428536.29982400,72528477,1584,1583,1571,1571,0,0,0,0,0,0,0,0,0,0
1706428536.39978409,72628437,1581,1581,1574,1573,0,0,0,0,0,0,0,0,0,0
1706428536.49974394,72728397,1577,1578,1576,1576,0,0,0,0,0,0,0,0,0,0
1706428536.59970403,72828357,1575,1576,1579,1579,0,0,0,0,0,0,0,0,0,0
1706428536.69966412,72928317,1573,1574,1581,1580,0,0,0,0,0,0,0,0,0,0
1706428536.79962397,73028277,1573,1573,1583,1583,0,0,0,0,0,0,0,0,0,0
1706428536.89958405,73128237,1572,1573,1583,1583,0,0,0,0,0,0,0,0,0,0
1706428536.99954414,73228197,1572,1573,1584,1583,0,0,0,0,0,0,0,0,0,0
1706428537.09950399,73328157,1574,1574,1583,1583,0,0,0,0,0,0,0,0,0,0
1706428537.20029712,73428950,1575,1575,1583,1583,0,0,0,0,0,0,0,0,0,0
1706428537.30025697,73528910,1578,1578,1583,1584,0,0,0,0,0,0,0,0,0,0
1706428537.40021706,73628870,1578,1578,1580,1581,0,0,0,0,0,0,0,0,0,0
1706428537.50017715,73728830,1580,1580,1580,1580,0,0,0,0,0,0,0,0,0,0
1706428537.60013700,73828790,1580,1580,1578,1579,0,0,0,0,0,0,0,0,0,0
1706428537.70009708,73928750,1581,1581,1578,1578,0,0,0,0,0,0,0,0,0,0
1706428537.80005693,74028710,1656,1592,1653,1588,0,0,0,0,0,0,0,0,0,0
1706428537.90001702,74128670,1603,1594,1600,1588,0,0,0,0,0,0,0,0,0,0
1706428537.99997711,74228630,1571,1594,1568,1590,0,0,0,0,0,0,0,0,0,0
1706428538.09993696,74328590,1558,1590,1553,1586,0,0,0,0,0,0,0,0,0,0
1706428538.19989705,74428550,1556,1581,1550,1576,0,0,0,0,0,0,0,0,0,0
1706428538.29985714,74528510,1562,1572,1553,1566,0,0,0,0,0,0,0,0,0,0
1706428538.39981699,74628470,1570,1567,1561,1560,0,0,0,0,0,0,0,0,0,0
1706428538.49977708,74728430,1574,1566,1567,1558,0,0,0,0,0,0,0,0,0,0
1706428538.59973693,74828390,1579,1568,1574,1563,0,0,0,0,0,0,0,0,0,0
1706428538.69969702,74928350,1579,1571,1578,1569,0,0,0,0,0,0,0,0,0,0
1706428538.79965711,75028310,1578,1574,1581,1575,0,0,0,0,0,0,0,0,0,0
1706428538.89961696,75128270,1577,1576,1581,1580,0,0,0,0,0,0,0,0,0,0
1706428538.99957705,75228230,1576,1577,1582,1583,0,0,0,0,0,0,0,0,0,0
1706428539.09953713,75328190,1577,1579,1583,1585,0,0,0,0,0,0,0,0,0,0
1706428539.20033002,75428983,1578,1580,1584,1586,0,0,0,0,0,0,0,0,0,0
1706428539.30029011,75528943,1579,1579,1584,1585,0,0,0,0,0,0,0,0,0,0
1706428539.40024996,75628903,1582,1582,1586,1585,0,0,0,0,0,0,0,0,0,0
1706428539.50021005,75728863,1584,1583,1587,1586,0,0,0,0,0,0,0,0,0,0
1706428539.60017014,75828823,1584,1586,1594,1580,0,0,0,0,0,0,0,0,0,0
1706428539.70012999,75928783,1584,1588,1592,1579,0,0,0,0,0,0,0,0,0,0
1706428539.80009007,76028743,1584,1587,1583,1578,0,0,0,0,0,0,0,0,0,0
1706428539.90005016,76128703,1584,1586,1571,1574,0,0,0,0,0,0,0,0,0,0
1706428540.00001001,76228663,1586,1586,1563,1570,0,0,0,0,0,0,0,0,0,0
1706428540.09997010,76328623,1586,1586,1558,1564,0,0,0,0,0,0,0,0,0,0
1706428540.19992995,76428583,1586,1586,1554,1558,0,0,0,0,0,0,0,0,0,0
1706428540.29989004,76528543,1587,1586,1554,1555,0,0,0,0,0,0,0,0,0,0
1706428540.39985013,76628503,1586,1585,1555,1552,0,0,0,0,0,0,0,0,0,0
1706428540.49980998,76728463,1585,1585,1556,1553,0,0,0,0,0,0,0,0,0,0
1706428540.59977007,76828423,1582,1583,1556,1553,0,0,0,0,0,0,0,0,0,0
1706428540.69973016,76928383,1581,1581,1556,1555,0,0,0,0,0,0,0,0,0,0
1706428540.79969001,77028343,1579,1580,1555,1555,0,0,0,0,0,0,0,0,0,0
1706428540.89965010,77128303,1577,1579,1554,1555,0,0,0,0,0,0,0,0,0,0
1706428540.99960995,77228263,1577,1579,1553,1554,0,0,0,0,0,0,0,0,0,0
1706428541.09957004,77328223,1578,1580,1552,1553,0,0,0,0,0,0,0,0,0,0
1706428541.19953012,77428183,1579,1581,1550,1551,0,0,0,0,0,0,0,0,0,0
1706428541.30032301,77528976,1582,1584,1548,1548,0,0,0,0,0,0,0,0,0,0
1706428541.40028310,77628936,1586,1588,1544,1545,0,0,0,0,0,0,0,0,0,0
1706428541.50024295,77728896,1590,1591,1541,1541,0,0,0,0,0,0,0,0,0,0
1706428541.60020304,77828856,1594,1595,1538,1539,0,0,0,0,0,0,0,0,0,0
1706428541.70016313,77928816,1597,1596,1538,1539,0,0,0,0,0,0,0,0,0,0
1706428541.80012298,78028776,1598,1597,1540,1541,0,0,0,0,0,0,0,0,0,0
1706428541.90008307,78128736,1597,1595,1545,1547,0,0,0,0,0,0,0,0,0,0
1706428542.00004315,78228696,1591,1589,1550,1553,0,0,0,0,0,0,0,0,0,0
1706428542.10000300,78328656,1585,1581,1559,1562,0,0,0,0,0,0,0,0,0,0
1706428542.19996309,78428616,1575,1572,1570,1572,0,0,0,0,0,0,0,0,0,0
1706428542.29992294,78528576,1565,1562,1582,1583,0,0,0,0,0,0,0,0,0,0
1706428542.39988303,78628536,1555,1553,1592,1593,0,0,0,0,0,0,0,0,0,0
1706428542.49984312,78728496,1547,1545,1601,1601,0,0,0,0,0,0,0,0,0,0
1706428542.59980297,78828456,1542,1541,1607,1608,0,0,0,0,0,0,0,0,0,0
1706428542.69976306,78928416,1539,1539,1610,1610,0,0,0,0,0,0,0,0,0,0
1706428542.79972315,79028376,1540,1541,1613,1611,0,0,0,0,0,0,0,0,0,0
1706428542.89968300,79128336,1544,1544,1611,1609,0,0,0,0,0,0,0,0,0,0
1706428542.99964309,79228296,1548,1550,1606,1605,0,0,0,0,0,0,0,0,0,0
1706428543.09960294,79328256,1555,1557,1600,1599,0,0,0,0,0,0,0,0,0,0
1706428543.19956303,79428216,1562,1563,1591,1592,0,0,0,0,0,0,0,0,0,0
1706428543.29952312,79528176,1570,1571,1586,1586,0,0,0,0,0,0,0,0,0,0
1706428543.40031600,79628969,1576,1576,1579,1579,0,0,0,0,0,0,0,0,0,0
1706428543.50027609,79728929,1582,1581,1575,1575,0,0,0,0,0,0,0,0,0,0
1706428543.60023594,79828889,1586,1585,1573,1572,0,0,0,0,0,0,0,0,0,0
1706428543.70019603,79928849,1586,1585,1570,1570,0,0,0,0,0,0,0,0,0,0
1706428543.80015612,80028809,1587,1585,1570,1570,0,0,0,0,0,0,0,0,0,0
1706428543.90011597,80128769,1586,1585,1572,1571,0,0,0,0,0,0,0,0,0,0
1706428544.00007606,80228729,1583,1582,1573,1573,0,0,0,0,0,0,0,0,0,0
1706428544.10003614,80328689,1581,1580,1575,1575,0,0,0,0,0,0,0,0,0,0
1706428544.19999599,80428649,1578,1578,1577,1577,0,0,0,0,0,0,0,0,0,0
1706428544.29995608,80528609,1576,1576,1580,1580,0,0,0,0,0,0,0,0,0,0
1706428544.39991593,80628569,1574,1575,1582,1582,0,0,0,0,0,0,0,0,0,0
1706428544.49987602,80728529,1573,1574,1583,1583,0,0,0,0,0,0,0,0,0,0
1706428544.59983611,80828489,1572,1573,1583,1583,0,0,0,0,0,0,0,0,0,0
1706428544.69979596,80928449,1572,1574,1583,1584,0,0,0,0,0,0,0,0,0,0
1706428544.79975605,81028409,1575,1575,1584,1584,0,0,0,0,0,0,0,0,0,0
1706428544.89971614,81128369,1576,1575,1583,1583,0,0,0,0,0,0,0,0,0,0
1706428544.99967599,81228329,1577,1577,1582,1582,0,0,0,0,0,0,0,0,0,0
1706428545.09963608,81328289,1578,1578,1581,1581,0,0,0,0,0,0,0,0,0,0
1706428545.19959593,81428249,1579,1579,1580,1580,0,0,0,0,0,0,0,0,0,0
1706428545.29955602,81528209,1581,1581,1579,1579,0,0,0,0,0,0,0,0,0,0
1706428545.39951611,81628169,1582,1582,1580,1580,0,0,0,0,0,0,0,0,0,0
1706428545.50030899,81728962,1581,1581,1578,1578,0,0,0,0,0,0,0,0,0,0
1706428545.60026908,81828922,1581,1582,1578,1578,0,0,0,0,0,0,0,0,0,0
1706428545.70022893,81928882,1582,1582,1579,1579,0,0,0,0,0,0,0,0,0,0
1706428545.80018902,82028842,1582,1582,1579,1580,0,0,0,0,0,0,0,0,0,0
1706428545.90014911,82128802,1580,1580,1578,1579,0,0,0,0,0,0,0,0,0,0
1706428546.00010896,82228762,1581,1580,1580,1580,0,0,0,0,0,0,0,0,0,0
1706428546.10006905,82328722,1580,1580,1580,1580,0,0,0,0,0,0,0,0,0,0
1706428546.20002913,82428682,1579,1580,1581,1580,0,0,0,0,0,0,0,0,0,0
1706428546.29998899,82528642,1580,1580,1581,1581,0,0,0,0,0,0,0,0,0,0
1706428546.39994907,82628602,1580,1580,1581,1581,0,0,0,0,0,0,0,0,0,0
1706428546.49990916,82728562,1579,1579,1581,1581,0,0,0,0,0,0,0,0,0,0
1706428546.59986901,82828522,1579,1580,1581,1581,0,0,0,0,0,0,0,0,0,0
1706428546.69982910,82928482,1579,1579,1580,1580,0,0,0,0,0,0,0,0,0,0
1706428546.79978895,83028442,1580,1580,1581,1581,0,0,0,0,0,0,0,0,0,0
1706428546.89974904,83128402,1580,1580,1580,1580,0,0,0,0,0,0,0,0,0,0
1706428546.99970913,83228362,1581,1580,1581,1580,0,0,0,0,0,0,0,0,0,0
1706428547.09966898,83328322,1581,1581,1581,1581,0,0,0,0,0,0,0,0,0,0
1706428547.19962907,83428282,1581,1581,1581,1581,0,0,0,0,0,0,0,0,0,0
1706428547.29958916,83528242,1581,1581,1580,1580,0,0,0,0,0,0,0,0,0,0
1706428547.39954901,83628202,1580,1580,1580,1579,0,0,0,0,0,0,0,0,0,0
1706428547.49950910,83728162,1581,1583,1587,1573,0,0,0,0,0,0,0,0,0,0
1706428547.60030198,83828955,1580,1583,1583,1572,0,0,0,0,0,0,0,0,0,0
1706428547.70026207,83928915,1578,1582,1573,1572,0,0,0,0,0,0,0,0,0,0
1706428547.80022216,84028875,1578,1581,1565,1570,0,0,0,0,0,0,0,0,0,0
1706428547.90018201,84128835,1579,1580,1559,1566,0,0,0,0,0,0,0,0,0,0
1706428548.00014210,84228795,1579,1579,1555,1561,0,0,0,0,0,0,0,0,0,0
1706428548.10010195,84328755,1581,1580,1555,1558,0,0,0,0,0,0,0,0,0,0
1706428548.20006204,84428715,1582,1580,1556,1555,0,0,0,0,0,0,0,0,0,0
1706428548.30002213,84528675,1580,1579,1556,1554,0,0,0,0,0,0,0,0,0,0
1706428548.39998198,84628635,1580,1580,1558,1555,0,0,0,0,0,0,0,0,0,0
1706428548.49994206,84728595,1578,1578,1556,1555,0,0,0,0,0,0,0,0,0,0
1706428548.59990215,84828555,1577,1578,1556,1555,0,0,0,0,0,0,0,0,0,0
1706428548.69986200,84928515,1575,1577,1555,1555,0,0,0,0,0,0,0,0,0,0
1706428548.79982209,85028475,1575,1577,1553,1554,0,0,0,0,0,0,0,0,0,0
1706428548.89978194,85128435,1575,1577,1552,1552,0,0,0,0,0,0,0,0,0,0
1706428548.99974203,85228395,1577,1578,1550,1550,0,0,0,0,0,0,0,0,0,0
1706428549.09970212,85328355,1579,1580,1548,1547,0,0,0,0,0,0,0,0,0,0
1706428549.19966197,85428315,1581,1582,1545,1545,0,0,0,0,0,0,0,0,0,0
1706428549.29962206,85528275,1584,1584,1543,1542,0,0,0,0,0,0,0,0,0,0
1706428549.39958215,85628235,1586,1586,1540,1539,0,0,0,0,0,0,0,0,0,0
1706428549.49954200,85728195,1589,1589,1538,1539,0,0,0,0,0,0,0,0,0,0
1706428549.59950209,85828155,1591,1591,1537,1538,0,0,0,0,0,0,0,0,0,0
1706428549.70029497,85928948,1592,1592,1537,1538,0,0,0,0,0,0,0,0,0,0
1706428549.80025506,86028908,1592,1593,1537,1538,0,0,0,0,0,0,0,0,0,0
1706428549.90021515,86128868,1592,1592,1540,1542,0,0,0,0,0,0,0,0,0,0
1706428550.00017500,86228828,1589,1589,1544,1546,0,0,0,0,0,0,0,0,0,0
1706428550.10013509,86328788,1584,1582,1550,1553,0,0,0,0,0,0,0,0,0,0
1706428550.20009494,86428748,1578,1575,1560,1562,0,0,0,0,0,0,0,0,0,0
1706428550.30005503,86528708,1570,1565,1571,1573,0,0,0,0,0,0,0,0,0,0
1706428550.40001512,86628668,1559,1555,1583,1584,0,0,0,0,0,0,0,0,0,0
1706428550.49997497,86728628,1549,1545,1593,1594,0,0,0,0,0,0,0,0,0,0
1706428550.59993505,86828588,1541,1539,1603,1603,0,0,0,0,0,0,0,0,0,0
1706428550.69989514,86928548,1535,1535,1609,1609,0,0,0,0,0,0,0,0,0,0
1706428550.79985499,87028508,1532,1533,1611,1611,0,0,0,0,0,0,0,0,0,0
1706428550.89981508,87128468,1534,1535,1611,1610,0,0,0,0,0,0,0,0,0,0
1706428550.99977493,87228428,1539,1540,1608,1608,0,0,0,0,0,0,0,0,0,0
1706428551.09973502,87328388,1544,1546,1602,1602,0,0,0,0,0,0,0,0,0,0
1706428551.19969511,87428348,1553,1554,1596,1596,0,0,0,0,0,0,0,0,0,0
1706428551.29965496,87528308,1562,1563,1590,1589,0,0,0,0,0,0,0,0,0,0
1706428551.39961505,87628268,1570,1571,1584,1583,0,0,0,0,0,0,0,0,0,0
1706428551.49957514,87728228,1577,1577,1578,1577,0,0,0,0,0,0,0,0,0,0
1706428551.59953499,87828188,1581,1581,1572,1572,0,0,0,0,0,0,0,0,0,0
1706428551.70032811,87928981,1585,1584,1570,1569,0,0,0,0,0,0,0,0,0,0
1706428551.80028796,88028941,1587,1586,1568,1568,0,0,0,0,0,0,0,0,0,0
1706428551.90024805,88128901,1586,1585,1568,1568,0,0,0,0,0,0,0,0,0,0
1706428552.00020814,88228861,1585,1584,1570,1570,0,0,0,0,0,0,0,0,0,0
1706428552.10016799,88328821,1584,1583,1573,1573,0,0,0,0,0,0,0,0,0,0
1706428552.20012808,88428781,1581,1581,1576,1575,0,0,0,0,0,0,0,0,0,0
1706428552.30008793,88528741,1578,1579,1578,1578,0,0,0,0,0,0,0,0,0,0
1706428552.40004802,88628701,1576,1576,1580,1580,0,0,0,0,0,0,0,0,0,0
1706428552.50000811,88728661,1573,1574,1581,1581,0,0,0,0,0,0,0,0,0,0
1706428552.59996796,88828621,1573,1574,1583,1584,0,0,0,0,0,0,0,0,0,0
1706428552.69992805,88928581,1573,1574,1584,1584,0,0,0,0,0,0,0,0,0,0
1706428552.79988813,89028541,1573,1574,1583,1584,0,0,0,0,0,0,0,0,0,0
1706428552.89984798,89128501,1575,1575,1583,1583,0,0,0,0,0,0,0,0,0,0
1706428552.99980807,89228461,1575,1576,1582,1582,0,0,0,0,0,0,0,0,0,0
1706428553.09976816,89328421,1577,1577,1581,1581,0,0,0,0,0,0,0,0,0,0
1706428553.19972801,89428381,1579,1579,1581,1581,0,0,0,0,0,0,0,0,0,0
1706428553.29968810,89528341,1580,1580,1580,1580,0,0,0,0,0,0,0,0,0,0
1706428553.39964795,89628301,1581,1580,1579,1578,0,0,0,0,0,0,0,0,0,0
1706428553.49960804,89728261,1581,1581,1577,1578,0,0,0,0,0,0,0,0,0,0
1706428553.59956813,89828221,1581,1581,1577,1577,0,0,0,0,0,0,0,0,0,0
1706428553.69952798,89928181,1583,1582,1579,1578,0,0,0,0,0,0,0,0,0,0
1706428553.80032110,90028974,1582,1581,1578,1578,0,0,0,0,0,0,0,0,0,0
1706428553.90028095,90128934,1582,1581,1579,1579,0,0,0,0,0,0,0,0,0,0
1706428554.00024104,90228894,1580,1580,1578,1579,0,0,0,0,0,0,0,0,0,0
1706428554.10020113,90328854,1580,1580,1579,1580,0,0,0,0,0,0,0,0,0,0
1706428554.20016098,90428814,1580,1581,1581,1581,0,0,0,0,0,0,0,0,0,0
1706428554.30012107,90528774,1580,1580,1581,1581,0,0,0,0,0,0,0,0,0,0
1706428554.40008116,90628734,1580,1580,1581,1581,0,0,0,0,0,0,0,0,0,0
1706428554.50004101,90728694,1580,1580,1581,1581,0,0,0,0,0,0,0,0,0,0
1706428554.60000110,90828654,1579,1579,1580,1581,0,0,0,0,0,0,0,0,0,0
1706428554.69996095,90928614,1580,1580,1581,1582,0,0,0,0,0,0,0,0,0,0
1706428554.79992104,91028574,1580,1580,1581,1581,0,0,0,0,0,0,0,0,0,0
1706428554.89988112,91128534,1581,1581,1582,1582,0,0,0,0,0,0,0,0,0,0
1706428554.99984097,91228494,1581,1581,1581,1581,0,0,0,0,0,0,0,0,0,0
1706428555.09980106,91328454,1580,1580,1580,1580,0,0,0,0,0,0,0,0,0,0
1706428555.19976115,91428414,1582,1582,1582,1582,0,0,0,0,0,0,0,0,0,0
1706428555.29972100,91528374,1581,1582,1581,1582,0,0,0,0,0,0,0,0,0,0
1706428555.39968109,91628334,1582,1583,1589,1575,0,0,0,0,0,0,0,0,0,0
1706428555.49964094,91728294,1581,1582,1586,1574,0,0,0,0,0,0,0,0,0,0
1706428555.59960103,91828254,1578,1579,1578,1575,0,0,0,0,0,0,0,0,0,0
1706428555.69956112,91928214,1575,1575,1571,1574,0,0,0,0,0,0,0,0,0,0
1706428555.79952097,92028174,1572,1572,1567,1573,0,0,0,0,0,0,0,0,0,0
1706428555.90031409,92128967,1571,1570,1566,1572,0,0,0,0,0,0,0,0,0,0
1706428556.00027394,92228927,1570,1570,1567,1571,0,0,0,0,0,0,0,0,0,0
1706428556.10023403,92328887,1568,1568,1568,1568,0,0,0,0,0,0,0,0,0,0
1706428556.20019412,92428847,1566,1567,1568,1566,0,0,0,0,0,0,0,0,0,0
1706428556.30015397,92528807,1565,1565,1567,1565,0,0,0,0,0,0,0,0,0,0
1706428556.40011406,92628767,1565,1564,1567,1564,0,0,0,0,0,0,0,0,0,0
1706428556.50007415,92728727,1564,1564,1565,1564,0,0,0,0,0,0,0,0,0,0
1706428556.60003400,92828687,1563,1563,1565,1564,0,0,0,0,0,0,0,0,0,0
1706428556.69999409,92928647,1562,1562,1563,1563,0,0,0,0,0,0,0,0,0,0
1706428556.79995394,93028607,1562,1562,1562,1562,0,0,0,0,0,0,0,0,0,0
1706428556.89991403,93128567,1562,1562,1562,1562,0,0,0,0,0,0,0,0,0,0
1706428556.99987411,93228527,1561,1561,1561,1561,0,0,0,0,0,0,0,0,0,0
1706428557.09983397,93328487,1561,1561,1561,1560,0,0,0,0,0,0,0,0,0,0
1706428557.19979405,93428447,1561,1561,1561,1560,0,0,0,0,0,0,0,0,0,0
1706428557.29975414,93528407,1560,1560,1560,1560,0,0,0,0,0,0,0,0,0,0
1706428557.39971399,93628367,1559,1559,1559,1558,0,0,0,0,0,0,0,0,0,0
1706428557.49967408,93728327,1558,1558,1558,1557,0,0,0,0,0,0,0,0,0,0
1706428557.59963393,93828287,1557,1557,1558,1556,0,0,0,0,0,0,0,0,0,0
1706428557.69959402,93928247,1557,1557,1558,1557,0,0,0,0,0,0,0,0,0,0
1706428557.79955411,94028207,1557,1558,1558,1557,0,0,0,0,0,0,0,0,0,0
1706428557.89951396,94128167,1558,1558,1559,1557,0,0,0,0,0,0,0,0,0,0
1706428558.00030708,94228960,1558,1557,1560,1557,0,0,0,0,0,0,0,0,0,0
1706428558.10026693,94328920,1559,1558,1560,1558,0,0,0,0,0,0,0,0,0,0
1706428558.20022702,94428880,1559,1558,1558,1559,0,0,0,0,0,0,0,0,0,0
1706428558.30018711,94528840,1559,1559,1556,1561,0,0,0,0,0,0,0,0,0,0
1706428558.40014696,94628800,1560,1560,1557,1563,0,0,0,0,0,0,0,0,0,0
1706428558.50010705,94728760,1560,1560,1557,1563,0,0,0,0,0,0,0,0,0,0
1706428558.60006714,94828720,1562,1562,1560,1563,0,0,0,0,0,0,0,0,0,0
1706428558.70002699,94928680,1562,1562,1561,1563,0,0,0,0,0,0,0,0,0,0
1706428558.79998708,95028640,1561,1562,1563,1561,0,0,0,0,0,0,0,0,0,0
1706428558.89994693,95128600,1561,1561,1563,1559,0,0,0,0,0,0,0,0,0,0
1706428558.99990702,95228560,1560,1559,1561,1558,0,0,0,0,0,0,0,0,0,0
1706428559.09986711,95328520,1560,1559,1556,1562,0,0,0,0,0,0,0,0,0,0
1706428559.19982696,95428480,1556,1557,1553,1559,0,0,0,0,0,0,0,0,0,0
1706428559.29978704,95528440,1553,1553,1551,1555,0,0,0,0,0,0,0,0,0,0
1706428559.39974713,95628400,1547,1548,1547,1548,0,0,0,0,0,0,0,0,0,0
1706428559.49970698,95728360,1540,1540,1541,1539,0,0,0,0,0,0,0,0,0,0
1706428559.59966707,95828320,1533,1533,1535,1532,0,0,0,0,0,0,0,0,0,0
1706428559.69962716,95928280,1526,1526,1527,1525,0,0,0,0,0,0,0,0,0,0
1706428559.79958701,96028240,1522,1522,1522,1521,0,0,0,0,0,0,0,0,0,0
1706428559.89954710,96128200,1519,1519,1520,1519,0,0,0,0,0,0,0,0,0,0
1706428559.99950695,96228160,1520,1520,1520,1520,0,0,0,0,0,0,0,0,0,0
1706428560.10030007,96328953,1522,1521,1521,1522,0,0,0,0,0,0,0,0,0,0
1706428560.20026016,96428913,1526,1525,1525,1526,0,0,0,0,0,0,0,0,0,0
1706428560.30022001,96528873,1530,1530,1530,1531,0,0,0,0,0,0,0,0,0,0
1706428560.40018010,96628833,1535,1535,1535,1535,0,0,0,0,0,0,0,0,0,0
1706428560.50013995,96728793,1539,1539,1539,1539,0,0,0,0,0,0,0,0,0,0
1706428560.60010004,96828753,1541,1541,1541,1541,0,0,0,0,0,0,0,0,0,0
1706428560.70006013,96928713,1543,1543,1543,1543,0,0,0,0,0,0,0,0,0,0
1706428560.80001998,97028673,1544,1545,1545,1545,0,0,0,0,0,0,0,0,0,0
1706428560.89998007,97128633,1545,1545,1545,1545,0,0,0,0,0,0,0,0,0,0
1706428560.99994016,97228593,1546,1546,1546,1546,0,0,0,0,0,0,0,0,0,0
1706428561.09990001,97328553,1546,1546,1546,1546,0,0,0,0,0,0,0,0,0,0
1706428561.19986010,97428513,1546,1546,1546,1546,0,0,0,0,0,0,0,0,0,0
1706428561.29981995,97528473,1546,1546,1546,1546,0,0,0,0,0,0,0,0,0,0
1706428561.39978004,97628433,1546,1546,1546,1546,0,0,0,0,0,0,0,0,0,0
1706428561.49974012,97728393,1546,1546,1546,1546,0,0,0,0,0,0,0,0,0,0
1706428561.59969997,97828353,1545,1545,1545,1545,0,0,0,0,0,0,0,0,0,0
1706428561.69966006,97928313,1546,1545,1545,1545,0,0,0,0,0,0,0,0,0,0
1706428561.79962015,98028273,1546,1545,1545,1545,0,0,0,0,0,0,0,0,0,0
1706428561.89958000,98128233,1545,1545,1544,1545,0,0,0,0,0,0,0,0,0,0
1706428561.99954009,98228193,1544,1544,1544,1544,0,0,0,0,0,0,0,0,0,0
1706428562.10033298,98328986,1544,1544,1544,1544,0,0,0,0,0,0,0,0,0,0
1706428562.20029306,98428946,1544,1545,1545,1544,0,0,0,0,0,0,0,0,0,0
1706428562.30025315,98528906,1544,1544,1544,1544,0,0,0,0,0,0,0,0,0,0
1706428562.40021300,98628866,1544,1544,1545,1544,0,0,0,0,0,0,0,0,0,0
1706428562.50017309,98728826,1545,1544,1545,1544,0,0,0,0,0,0,0,0,0,0
1706428562.60013294,98828786,1544,1544,1544,1544,0,0,0,0,0,0,0,0,0,0
1706428562.70009303,98928746,1545,1545,1545,1545,0,0,0,0,0,0,0,0,0,0
1706428562.80005312,99028706,1544,1545,1544,1545,0,0,0,0,0,0,0,0,0,0
1706428562.90001297,99128666,1544,1544,1544,1543,0,0,0,0,0,0,0,0,0,0
1706428562.99997306,99228626,1544,1545,1545,1544,0,0,0,0,0,0,0,0,0,0
1706428563.09993315,99328586,1545,1545,1545,1545,0,0,0,0,0,0,0,0,0,0
1706428563.19989300,99428546,1544,1545,1544,1545,0,0,0,0,0,0,0,0,0,0
1706428563.29985309,99528506,1544,1544,1544,1544,0,0,0,0,0,0,0,0,0,0
1706428563.39981294,99628466,1544,1544,1544,1544,0,0,0,0,0,0,0,0,0,0
1706428563.49977303,99728426,1543,1543,1543,1543,0,0,0,0,0,0,0,0,0,0
1706428563.59973311,99828386,1544,1544,1544,1544,0,0,0,0,0,0,0,0,0,0
1706428563.69969296,99928346,1543,1544,1544,1543,0,0,0,0,0,0,0,0,0,0
1706428563.79965305,100028306,1544,1544,1544,1544,0,0,0,0,0,0,0,0,0,0
1706428563.89961314,100128266,1544,1544,1544,1544,0,0,0,0,0,0,0,0,0,0
1706428563.99957299,100228226,1544,1544,1544,1544,0,0,0,0,0,0,0,0,0,0
1706428564.09953308,100328186,1544,1544,1544,1544,0,0,0,0,0,0,0,0,0,0
1706428564.20032597,100428979,1545,1545,1545,1545,0,0,0,0,0,0,0,0,0,0
1706428564.30028605,100528939,1546,1545,1545,1545,0,0,0,0,0,0,0,0,0,0
1706428564.40024614,100628899,1545,1545,1545,1545,0,0,0,0,0,0,0,0,0,0
1706428564.50020599,100728859,1544,1544,1544,1544,0,0,0,0,0,0,0,0,0,0
1706428564.60016608,100828819,1544,1544,1544,1544,0,0,0,0,0,0,0,0,0,0
1706428564.70012593,100928779,1545,1545,1545,1545,0,0,0,0,0,0,0,0,0,0
1706428564.80008602,101028739,1544,1545,1545,1544,0,0,0,0,0,0,0,0,0,0
1706428564.90004611,101128699,1545,1545,1545,1545,0,0,0,0,0,0,0,0,0,0
1706428565.00000596,101228659,1545,1544,1544,1545,0,0,0,0,0,0,0,0,0,0
1706428565.09996605,101328619,1544,1544,1544,1544,0,0,0,0,0,0,0,0,0,0
1706428565.19992614,101428579,1544,1544,1544,1544,0,0,0,0,0,0,0,0,0,0
1706428565.29988599,101528539,1544,1544,1544,1544,0,0,0,0,0,0,0,0,0,0
1706428565.39984608,101628499,1545,1545,1545,1545,0,0,0,0,0,0,0,0,0,0
1706428565.49980593,101728459,1545,1544,1545,1544,0,0,0,0,0,0,0,0,0,0
1706428565.59976602,101828419,1544,1545,1545,1545,0,0,0,0,0,0,0,0,0,0
1706428565.69972610,101928379,1544,1544,1544,1544,0,0,0,0,0,0,0,0,0,0
1706428565.79968596,102028339,1544,1545,1545,1545,0,0,0,0,0,0,0,0,0,0
1706428565.89964604,102128299,1544,1544,1544,1544,0,0,0,0,0,0,0,0,0,0
1706428565.99960613,102228259,1544,1544,1544,1544,0,0,0,0,0,0,0,0,0,0
1706428566.09956598,102328219,1545,1544,1545,1544,0,0,0,0,0,0,0,0,0,0
1706428566.19952607,102428179,1543,1543,1543,1543,0,0,0,0,0,0,0,0,0,0
1706428566.30031896,102528972,1543,1543,1543,1543,0,0,0,0,0,0,0,0,0,0
1706428566.40027905,102628932,1542,1543,1543,1543,0,0,0,0,0,0,0,0,0,0
1706428566.50023913,102728892,1544,1544,1544,1544,0,0,0,0,0,0,0,0,0,0
1706428566.60019898,102828852,1543,1543,1543,1543,0,0,0,0,0,0,0,0,0,0
1706428566.70015907,102928812,1545,1544,1544,1545,0,0,0,0,0,0,0,0,0,0
1706428566.80011916,103028772,1544,1544,1544,1544,0,0,0,0,0,0,0,0,0,0
1706428566.90007901,103128732,1544,1544,1544,1544,0,0,0,0,0,0,0,0,0,0
1706428567.00003910,103228692,1543,1544,1544,1544,0,0,0,0,0,0,0,0,0,0
1706428567.09999895,103328652,1544,1545,1544,1544,0,0,0,0,0,0,0,0,0,0
1706428567.19995904,103428612,1543,1543,1543,1543,0,0,0,0,0,0,0,0,0,0
1706428567.29991913,103528572,1545,1544,1544,1545,0,0,0,0,0,0,0,0,0,0
1706428567.39987898,103628532,1544,1544,1544,1544,0,0,0,0,0,0,0,0,0,0
1706428567.49983907,103728492,1544,1543,1544,1544,0,0,0,0,0,0,0,0,0,0
1706428567.59979916,103828452,1545,1545,1546,1545,0,0,0,0,0,0,0,0,0,0
1706428567.69975901,103928412,1544,1545,1544,1545,0,0,0,0,0,0,0,0,0,0
1706428567.79971910,104028372,1545,1545,1545,1545,0,0,0,0,0,0,0,0,0,0
1706428567.89967895,104128332,1545,1545,1545,1545,0,0,0,0,0,0,0,0,0,0
1706428567.99963903,104228292,1544,1545,1545,1545,0,0,0,0,0,0,0,0,0,0
1706428568.09959912,104328252,1545,1545,1545,1545,0,0,0,0,0,0,0,0,0,0
1706428568.19955897,104428212,1545,1545,1545,1545,0,0,0,0,0,0,0,0,0,0
1706428568.29951906,104528172,1544,1544,1544,1544,0,0,0,0,0,0,0,0,0,0
1706428568.40031195,104628965,1544,1544,1543,1544,0,0,0,0,0,0,0,0,0,0
1706428568.50027204,104728925,1544,1543,1543,1544,0,0,0,0,0,0,0,0,0,0
1706428568.60023212,104828885,1545,1544,1545,1544,0,0,0,0,0,0,0,0,0,0
1706428568.70019197,104928845,1545,1544,1545,1544,0,0,0,0,0,0,0,0,0,0
1706428568.80015206,105028805,1544,1544,1544,1544,0,0,0,0,0,0,0,0,0,0
1706428568.90011215,105128765,1543,1544,1543,1544,0,0,0,0,0,0,0,0,0,0
1706428569.00007200,105228725,1544,1544,1544,1544,0,0,0,0,0,0,0,0,0,0
1706428569.10003209,105328685,1545,1545,1545,1545,0,0,0,0,0,0,0,0,0,0
1706428569.19999194,105428645,1544,1545,1545,1545,0,0,0,0,0,0,0,0,0,0
1706428569.29995203,105528605,1545,1545,1545,1545,0,0,0,0,0,0,0,0,0,0
1706428569.39991212,105628565,1545,1544,1545,1545,0,0,0,0,0,0,0,0,0,0
1706428569.49987197,105728525,1545,1544,1544,1544,0,0,0,0,0,0,0,0,0,0
1706428569.59983206,105828485,1367,1392,1368,1392,0,0,0,0,0,0,0,0,0,0
1706428569.69979215,105928445,1241,1292,1240,1293,0,0,0,0,0,0,0,0,0,0
1706428569.79975200,106028405,1240,1292,1240,1293,0,0,0,0,0,0,0,0,0,0
1706428569.89971209,106128365,1241,1291,1240,1293,0,0,0,0,0,0,0,0,0,0
1706428569.99967194,106228325,1240,1292,1240,1292,0,0,0,0,0,0,0,0,0,0
1706428570.09963202,106328285,1240,1291,1240,1292,0,0,0,0,0,0,0,0,0,0
1706428570.19959211,106428245,1241,1291,1240,1293,0,0,0,0,0,0,0,0,0,0
1706428570.29955196,106528205,1267,1271,1240,1293,0,0,0,0,0,0,0,0,0,0
1706428570.39951205,106628165,1258,1278,1240,1293,0,0,0,0,0,0,0,0,0,0
1706428570.50030494,106728958,1256,1280,1240,1293,0,0,0,0,0,0,0,0,0,0
1706428570.60026503,106828918,1256,1280,1240,1293,0,0,0,0,0,0,0,0,0,0
1706428570.70022511,106928878,1257,1279,1240,1293,0,0,0,0,0,0,0,0,0,0
1706428570.80018497,107028838,1258,1278,1240,1293,0,0,0,0,0,0,0,0,0,0
1706428570.90014505,107128798,1259,1277,1240,1293,0,0,0,0,0,0,0,0,0,0
1706428571.00010514,107228758,1241,1286,1240,1289,0,0,0,0,0,0,0,0,0,0
1706428571.10006499,107328718,1247,1286,1240,1293,0,0,0,0,0,0,0,0,0,0
1706428571.20002508,107428678,1249,1285,1240,1293,0,0,0,0,0,0,0,0,0,0
1706428571.29998493,107528638,1249,1285,1240,1293,0,0,0,0,0,0,0,0,0,0
1706428571.39994502,107628598,1250,1284,1240,1293,0,0,0,0,0,0,0,0,0,0
1706428571.49990511,107728558,1240,1150,1240,1150,0,0,0,0,0,0,0,0,0,0
1706428571.59986496,107828518,1000,1000,1000,1000,0,0,0,0,0,0,0,0,0,0
1706428571.69982505,107928478,1000,1000,1000,1000,0,0,0,0,0,0,0,0,0,0
1706428571.79978514,108028438,1000,1000,1000,1000,0,0,0,0,0,0,0,0,0,0
1706428571.89974499,108128398,1000,1000,1000,1000,0,0,0,0,0,0,0,0,0,0
1706428571.99970508,108228358,1000,1000,1000,1000,0,0,0,0,0,0,0,0,0,0
1706428572.09966516,108328318,1000,1000,1000,1000,0,0,0,0,0,0,0,0,0,0
1706428572.19962502,108428278,1000,1000,1000,1000,0,0,0,0,0,0,0,0,0,0
1706428572.29958510,108528238,1000,1000,1000,1000,0,0,0,0,0,0,0,0,0,0
1706428572.39954495,108628198,1000,1000,1000,1000,0,0,0,0,0,0,0,0,0,0
1706428572.49950504,108728158,1000,1000,1000,1000,0,0,0,0,0,0,0,0,0,0
1706428572.60029793,108828951,1000,1000,1000,1000,0,0,0,0,0,0,0,0,0,0
1706428572.70025802,108928911,1000,1000,1000,1000,0,0,0,0,0,0,0,0,0,0
1706428572.80021811,109028871,1000,1000,1000,1000,0,0,0,0,0,0,0,0,0,0
1706428572.90017796,109128831,1000,1000,1000,1000,0,0,0,0,0,0,0,0,0,0
1706428573.00013804,109228791,1000,1000,1000,1000,0,0,0,0,0,0,0,0,0,0
1706428573.10009813,109328751,1000,1000,1000,1000,0,0,0,0,0,0,0,0,0,0
1706428573.20005798,109428711,1000,1000,1000,1000,0,0,0,0,0,0,0,0,0,0
1706428573.30001807,109528671,1000,1000,1000,1000,0,0,0,0,0,0,0,0,0,0
1706428573.39997816,109628631,1000,1000,1000,1000,0,0,0,0,0,0,0,0,0,0
1706428573.49993801,109728591,1000,1000,1000,1000,0,0,0,0,0,0,0,0,0,0
1706428573.59989810,109828551,1000,1000,1000,1000,0,0,0,0,0,0,0,0,0,0
1706428573.69985795,109928511,1000,1000,1000,1000,0,0,0,0,0,0,0,0,0,0
1706428573.79981804,110028471,1000,1000,1000,1000,0,0,0,0,0,0,0,0,0,0
1706428573.89977813,110128431,1000,1000,1000,1000,0,0,0,0,0,0,0,0,0,0
1706428573.99973798,110228391,1000,1000,1000,1000,0,0,0,0,0,0,0,0,0,0
1706428574.09969807,110328351,1000,1000,1000,1000,0,0,0,0,0,0,0,0,0,0
1706428574.19965816,110428311,1000,1000,1000,1000,0,0,0,0,0,0,0,0,0,0
1706428574.29961801,110528271,1000,1000,1000,1000,0,0,0,0,0,0,0,0,0,0
1706428574.39957809,110628231,1000,1000,1000,1000,0,0,0,0,0,0,0,0,0,0
1706428574.49953794,110728191,1000,1000,1000,1000,0,0,0,0,0,0,0,0,0,0
1706428574.60033107,110828984,1000,1000,1000,1000,0,0,0,0,0,0,0,0,0,0
1706428574.70029116,110928944,1000,1000,1000,1000,0,0,0,0,0,0,0,0,0,0
1706428574.80025101,111028904,1000,1000,1000,1000,0,0,0,0,0,0,0,0,0,0
1706428574.90021110,111128864,1000,1000,1000,1000,0,0,0,0,0,0,0,0,0,0
1706428575.00017095,111228824,1000,1000,1000,1000,0,0,0,0,0,0,0,0,0,0
1706428575.10013103,111328784,1000,1000,1000,1000,0,0,0,0,0,0,0,0,0,0
1706428575.20009112,111428744,1000,1000,1000,1000,0,0,0,0,0,0,0,0,0,0
1706428575.30005097,111528704,1000,1000,1000,1000,0,0,0,0,0,0,0,0,0,0
1706428575.40001106,111628664,1000,1000,1000,1000,0,0,0,0,0,0,0,0,0,0
1706428575.49997115,111728624,1000,1000,1000,1000,0,0,0,0,0,0,0,0,0,0
1706428575.59993100,111828584,1000,1000,1000,1000,0,0,0,0,0,0,0,0,0,0
1706428575.69989109,111928544,1000,1000,1000,1000,0,0,0,0,0,0,0,0,0,0
1706428575.79985094,112028504,1000,1000,1000,1000,0,0,0,0,0,0,0,0,0,0
1706428575.89981103,112128464,1000,1000,1000,1000,0,0,0,0,0,0,0,0,0,0
1706428575.99977112,112228424,1000,1000,1000,1000,0,0,0,0,0,0,0,0,0,0
1706428576.09973097,112328384,1000,1000,1000,1000,0,0,0,0,0,0,0,0,0,0
1706428576.19969106,112428344,1000,1000,1000,1000,0,0,0,0,0,0,0,0,0,0
1706428576.29965115,112528304,1000,1000,1000,1000,0,0,0,0,0,0,0,0,0,0
1706428576.39961100,112628264,1000,1000,1000,1000,0,0,0,0,0,0,0,0,0,0
1706428576.49957108,112728224,1000,1000,1000,1000,0,0,0,0,0,0,0,0,0,0
1706428576.59953094,112828184,1000,1000,1000,1000,0,0,0,0,0,0,0,0,0,0
1706428576.70032406,112928977,1000,1000,1000,1000,0,0,0,0,0,0,0,0,0,0
1706428576.80028415,113028937,1000,1000,1000,1000,0,0,0,0,0,0,0,0,0,0
1706428576.90024400,113128897,1000,1000,1000,1000,0,0,0,0,0,0,0,0,0,0
1706428577.00020409,113228857,1000,1000,1000,1000,0,0,0,0,0,0,0,0,0,0
1706428577.10016394,113328817,1000,1000,1000,1000,0,0,0,0,0,0,0,0,0,0
1706428577.20012403,113428777,1000,1000,1000,1000,0,0,0,0,0,0,0,0,0,0
1706428577.30008411,113528737,1000,1000,1000,1000,0,0,0,0,0,0,0,0,0,0
1706428577.40004396,113628697,1000,1000,1000,1000,0,0,0,0,0,0,0,0,0,0
1706428577.50000405,113728657,1000,1000,1000,1000,0,0,0,0,0,0,0,0,0,0
1706428577.59996414,113828617,1000,1000,1000,1000,0,0,0,0,0,0,0,0,0,0
1706428577.69992399,113928577,1000,1000,1000,1000,0,0,0,0,0,0,0,0,0,0
1706428577.79988408,114028537,1000,1000,1000,1000,0,0,0,0,0,0,0,0,0,0
1706428577.89984393,114128497,1000,1000,1000,1000,0,0,0,0,0,0,0,0,0,0
1706428577.99980402,114228457,1000,1000,1000,1000,0,0,0,0,0,0,0,0,0,0
1706428578.09976411,114328417,1000,1000,1000,1000,0,0,0,0,0,0,0,0,0,0
