timestamp,TimeUS,C1,C2,C3,C4,C5,C6,C7,C8,C9,C10,C11,C12,C13,C14
1706447062.59999990,47228601,1000,1000,1000,1000,0,0,0,0,0,0,0,0,0,0
1706447062.69995999,47328561,1000,1000,1000,1000,0,0,0,0,0,0,0,0,0,0
1706447062.79991984,47428521,1000,1000,1000,1000,0,0,0,0,0,0,0,0,0,0
1706447062.89987993,47528481,1000,1000,1000,1000,0,0,0,0,0,0,0,0,0,0
1706447062.99984002,47628441,1000,1000,1000,1000,0,0,0,0,0,0,0,0,0,0
1706447063.09979987,47728401,1000,1000,1000,1000,0,0,0,0,0,0,0,0,0,0
1706447063.19975996,47828361,1000,1000,1000,1000,0,0,0,0,0,0,0,0,0,0
1706447063.29971981,47928321,1000,1000,1000,1000,0,0,0,0,0,0,0,0,0,0
1706447063.39967990,48028281,1000,1000,1000,1000,0,0,0,0,0,0,0,0,0,0
1706447063.49963999,48128241,1000,1000,1000,1000,0,0,0,0,0,0,0,0,0,0
1706447063.59959984,48228201,1000,1000,1000,1000,0,0,0,0,0,0,0,0,0,0
1706447063.69955993,48328161,1000,1000,1000,1000,0,0,0,0,0,0,0,0,0,0
1706447063.80035281,48428954,1000,1000,1000,1000,0,0,0,0,0,0,0,0,0,0
1706447063.90031290,48528914,1000,1000,1000,1000,0,0,0,0,0,0,0,0,0,0
1706447064.00027299,48628874,1000,1000,1000,1000,0,0,0,0,0,0,0,0,0,0
1706447064.10023284,48728834,1000,1000,1000,1000,0,0,0,0,0,0,0,0,0,0
1706447064.20019293,48828794,1000,1000,1000,1000,0,0,0,0,0,0,0,0,0,0
1706447064.30015302,48928754,1000,1000,1000,1000,0,0,0,0,0,0,0,0,0,0
1706447064.40011287,49028714,1000,1000,1000,1000,0,0,0,0,0,0,0,0,0,0
1706447064.50007296,49128674,1000,1000,1000,1000,0,0,0,0,0,0,0,0,0,0
1706447064.60003304,49228634,1003,1003,1003,1003,0,0,0,0,0,0,0,0,0,0
1706447064.69999290,49328594,1033,1033,1033,1033,0,0,0,0,0,0,0,0,0,0
1706447064.79995298,49428554,1063,1063,1063,1063,0,0,0,0,0,0,0,0,0,0
1706447064.89991283,49528514,1093,1093,1093,1093,0,0,0,0,0,0,0,0,0,0
1706447064.99987292,49628474,1122,1122,1122,1122,0,0,0,0,0,0,0,0,0,0
1706447065.09983301,49728434,1177,1170,1170,1177,0,0,0,0,0,0,0,0,0,0
1706447065.19979286,49828394,1419,1415,1415,1419,0,0,0,0,0,0,0,0,0,0
1706447065.29975295,49928354,1594,1591,1590,1595,0,0,0,0,0,0,0,0,0,0
1706447065.39971304,50028314,1739,1736,1736,1740,0,0,0,0,0,0,0,0,0,0
1706447065.49967289,50128274,1865,1861,1861,1865,0,0,0,0,0,0,0,0,0,0
1706447065.59963298,50228234,1860,1856,1856,1861,0,0,0,0,0,0,0,0,0,0
1706447065.69959283,50328194,1786,1785,1785,1786,0,0,0,0,0,0,0,0,0,0
1706447065.79955292,50428154,1664,1664,1665,1664,0,0,0,0,0,0,0,0,0,0
1706447065.90034604,50528947,1611,1612,1613,1611,0,0,0,0,0,0,0,0,0,0
1706447066.00030589,50628907,1613,1614,1614,1612,0,0,0,0,0,0,0,0,0,0
1706447066.10026598,50728867,1628,1630,1629,1628,0,0,0,0,0,0,0,0,0,0
1706447066.20022583,50828827,1635,1636,1636,1635,0,0,0,0,0,0,0,0,0,0
1706447066.30018592,50928787,1631,1631,1631,1631,0,0,0,0,0,0,0,0,0,0
1706447066.40014601,51028747,1626,1625,1625,1626,0,0,0,0,0,0,0,0,0,0
1706447066.50010586,51128707,1612,1611,1610,1613,0,0,0,0,0,0,0,0,0,0
1706447066.60006595,51228667,1600,1600,1591,1608,0,0,0,0,0,0,0,0,0,0
1706447066.70002604,51328627,1598,1597,1590,1604,0,0,0,0,0,0,0,0,0,0
1706447066.79998589,51428587,1600,1600,1598,1602,0,0,0,0,0,0,0,0,0,0
1706447066.89994597,51528547,1604,1604,1605,1602,0,0,0,0,0,0,0,0,0,0
1706447066.99990582,51628507,1609,1609,1612,1605,0,0,0,0,0,0,0,0,0,0
1706447067.09986591,51728467,1611,1611,1615,1607,0,0,0,0,0,0,0,0,0,0
1706447067.19982600,51828427,1582,1583,1599,1566,0,0,0,0,0,0,0,0,0,0
1706447067.29978585,51928387,1571,1571,1583,1559,0,0,0,0,0,0,0,0,0,0
1706447067.39974594,52028347,1560,1559,1561,1559,0,0,0,0,0,0,0,0,0,0
1706447067.49970603,52128307,1551,1550,1542,1560,0,0,0,0,0,0,0,0,0,0
1706447067.59966588,52228267,1543,1542,1531,1555,0,0,0,0,0,0,0,0,0,0
1706447067.69962597,52328227,1535,1535,1525,1545,0,0,0,0,0,0,0,0,0,0
1706447067.79958582,52428187,1529,1529,1524,1535,0,0,0,0,0,0,0,0,0,0
1706447067.90037894,52528980,1528,1528,1527,1529,0,0,0,0,0,0,0,0,0,0
1706447068.00033903,52628940,1529,1529,1531,1528,0,0,0,0,0,0,0,0,0,0
1706447068.10029888,52728900,1532,1532,1536,1529,0,0,0,0,0,0,0,0,0,0
1706447068.20025897,52828860,1536,1536,1541,1532,0,0,0,0,0,0,0,0,0,0
1706447068.30021882,52928820,1538,1539,1542,1535,0,0,0,0,0,0,0,0,0,0
1706447068.40017891,53028780,1542,1543,1544,1540,0,0,0,0,0,0,0,0,0,0
1706447068.50013900,53128740,1546,1546,1546,1545,0,0,0,0,0,0,0,0,0,0
1706447068.60009885,53228700,1549,1549,1548,1549,0,0,0,0,0,0,0,0,0,0
1706447068.70005894,53328660,1551,1551,1549,1553,0,0,0,0,0,0,0,0,0,0
1706447068.80001903,53428620,1549,1548,1555,1559,0,0,0,0,0,0,0,0,0,0
1706447068.89997888,53528580,1549,1550,1561,1564,0,0,0,0,0,0,0,0,0,0
1706447068.99993896,53628540,1552,1553,1562,1563,0,0,0,0,0,0,0,0,0,0
1706447069.09989882,53728500,1557,1557,1563,1563,0,0,0,0,0,0,0,0,0,0
1706447069.19985890,53828460,1561,1561,1563,1562,0,0,0,0,0,0,0,0,0,0
1706447069.29981899,53928420,1564,1565,1563,1562,0,0,0,0,0,0,0,0,0,0
1706447069.39977884,54028380,1568,1568,1563,1562,0,0,0,0,0,0,0,0,0,0
1706447069.49973893,54128340,1570,1569,1563,1563,0,0,0,0,0,0,0,0,0,0
1706447069.59969902,54228300,1572,1571,1564,1564,0,0,0,0,0,0,0,0,0,0
1706447069.69965887,54328260,1573,1572,1565,1565,0,0,0,0,0,0,0,0,0,0
1706447069.79961896,54428220,1574,1573,1567,1567,0,0,0,0,0,0,0,0,0,0
1706447069.89957881,54528180,1573,1574,1569,1569,0,0,0,0,0,0,0,0,0,0
1706447070.00037193,54628973,1572,1573,1570,1570,0,0,0,0,0,0,0,0,0,0
1706447070.10033202,54728933,1574,1575,1573,1573,0,0,0,0,0,0,0,0,0,0
1706447070.20029187,54828893,1574,1575,1575,1574,0,0,0,0,0,0,0,0,0,0
1706447070.30025196,54928853,1574,1574,1576,1575,0,0,0,0,0,0,0,0,0,0
1706447070.40021181,55028813,1574,1574,1577,1575,0,0,0,0,0,0,0,0,0,0
1706447070.50017190,55128773,1575,1574,1578,1577,0,0,0,0,0,0,0,0,0,0
1706447070.60013199,55228733,1575,1575,1578,1577,0,0,0,0,0,0,0,0,0,0
1706447070.70009184,55328693,1575,1575,1578,1578,0,0,0,0,0,0,0,0,0,0
1706447070.80005193,55428653,1575,1576,1578,1578,0,0,0,0,0,0,0,0,0,0
1706447070.90001202,55528613,1576,1576,1578,1578,0,0,0,0,0,0,0,0,0,0
1706447070.99997187,55628573,1577,1577,1578,1578,0,0,0,0,0,0,0,0,0,0
1706447071.09993196,55728533,1578,1578,1577,1578,0,0,0,0,0,0,0,0,0,0
1706447071.19989204,55828493,1577,1577,1577,1577,0,0,0,0,0,0,0,0,0,0
1706447071.29985189,55928453,1577,1578,1577,1577,0,0,0,0,0,0,0,0,0,0
1706447071.39981198,56028413,1577,1577,1577,1576,0,0,0,0,0,0,0,0,0,0
1706447071.49977183,56128373,1577,1577,1576,1576,0,0,0,0,0,0,0,0,0,0
1706447071.59973192,56228333,1578,1578,1577,1577,0,0,0,0,0,0,0,0,0,0
1706447071.69969201,56328293,1578,1578,1577,1577,0,0,0,0,0,0,0,0,0,0
1706447071.79965186,56428253,1579,1578,1578,1577,0,0,0,0,0,0,0,0,0,0
1706447071.89961195,56528213,1578,1578,1578,1578,0,0,0,0,0,0,0,0,0,0
1706447071.99957204,56628173,1578,1579,1578,1579,0,0,0,0,0,0,0,0,0,0
1706447072.10036492,56728966,1578,1578,1578,1578,0,0,0,0,0,0,0,0,0,0
1706447072.20032501,56828926,1579,1579,1579,1579,0,0,0,0,0,0,0,0,0,0
1706447072.30028486,56928886,1579,1579,1580,1579,0,0,0,0,0,0,0,0,0,0
1706447072.40024495,57028846,1578,1578,1579,1579,0,0,0,0,0,0,0,0,0,0
1706447072.50020504,57128806,1579,1579,1580,1580,0,0,0,0,0,0,0,0,0,0
1706447072.60016489,57228766,1580,1580,1580,1580,0,0,0,0,0,0,0,0,0,0
1706447072.70012498,57328726,1579,1580,1580,1580,0,0,0,0,0,0,0,0,0,0
1706447072.80008483,57428686,1580,1579,1580,1580,0,0,0,0,0,0,0,0,0,0
1706447072.90004492,57528646,1580,1579,1580,1580,0,0,0,0,0,0,0,0,0,0
1706447073.00000501,57628606,1579,1579,1579,1579,0,0,0,0,0,0,0,0,0,0
1706447073.09996486,57728566,1579,1579,1579,1579,0,0,0,0,0,0,0,0,0,0
1706447073.19992495,57828526,1580,1580,1580,1580,0,0,0,0,0,0,0,0,0,0
1706447073.29988503,57928486,1580,1580,1579,1580,0,0,0,0,0,0,0,0,0,0
1706447073.39984488,58028446,1580,1581,1580,1580,0,0,0,0,0,0,0,0,0,0
1706447073.49980497,58128406,1580,1580,1580,1579,0,0,0,0,0,0,0,0,0,0
1706447073.59976482,58228366,1580,1580,1581,1580,0,0,0,0,0,0,0,0,0,0
1706447073.69972491,58328326,1580,1580,1580,1580,0,0,0,0,0,0,0,0,0,0
1706447073.79968500,58428286,1581,1580,1580,1581,0,0,0,0,0,0,0,0,0,0
1706447073.89964485,58528246,1579,1579,1579,1579,0,0,0,0,0,0,0,0,0,0
1706447073.99960494,58628206,1579,1579,1579,1579,0,0,0,0,0,0,0,0,0,0
1706447074.09956503,58728166,1580,1580,1580,1580,0,0,0,0,0,0,0,0,0,0
1706447074.20035791,58828959,1581,1581,1581,1581,0,0,0,0,0,0,0,0,0,0
1706447074.30031800,58928919,1580,1580,1579,1580,0,0,0,0,0,0,0,0,0,0
1706447074.40027785,59028879,1579,1579,1580,1579,0,0,0,0,0,0,0,0,0,0
1706447074.50023794,59128839,1580,1580,1580,1580,0,0,0,0,0,0,0,0,0,0
1706447074.60019803,59228799,1580,1580,1581,1580,0,0,0,0,0,0,0,0,0,0
1706447074.70015788,59328759,1580,1580,1580,1580,0,0,0,0,0,0,0,0,0,0
1706447074.80011797,59428719,1580,1580,1580,1580,0,0,0,0,0,0,0,0,0,0
1706447074.90007782,59528679,1580,1580,1580,1580,0,0,0,0,0,0,0,0,0,0
1706447075.00003791,59628639,1581,1581,1583,1579,0,0,0,0,0,0,0,0,0,0
1706447075.09999800,59728599,1581,1581,1588,1573,0,0,0,0,0,0,0,0,0,0
1706447075.19995785,59828559,1579,1582,1583,1573,0,0,0,0,0,0,0,0,0,0
1706447075.29991794,59928519,1577,1581,1574,1573,0,0,0,0,0,0,0,0,0,0
1706447075.39987803,60028479,1577,1580,1566,1571,0,0,0,0,0,0,0,0,0,0
1706447075.49983788,60128439,1577,1579,1560,1567,0,0,0,0,0,0,0,0,0,0
1706447075.59979796,60228399,1577,1577,1556,1562,0,0,0,0,0,0,0,0,0,0
1706447075.69975781,60328359,1579,1577,1555,1558,0,0,0,0,0,0,0,0,0,0
1706447075.79971790,60428319,1579,1577,1556,1555,0,0,0,0,0,0,0,0,0,0
1706447075.89967799,60528279,1578,1577,1555,1554,0,0,0,0,0,0,0,0,0,0
1706447075.99963784,60628239,1577,1577,1556,1553,0,0,0,0,0,0,0,0,0,0
1706447076.09959793,60728199,1577,1577,1556,1554,0,0,0,0,0,0,0,0,0,0
1706447076.19955802,60828159,1575,1577,1556,1555,0,0,0,0,0,0,0,0,0,0
1706447076.30035090,60928952,1575,1576,1554,1554,0,0,0,0,0,0,0,0,0,0
1706447076.40031099,61028912,1575,1576,1553,1554,0,0,0,0,0,0,0,0,0,0
1706447076.50027084,61128872,1575,1577,1551,1552,0,0,0,0,0,0,0,0,0,0
1706447076.60023093,61228832,1577,1578,1549,1549,0,0,0,0,0,0,0,0,0,0
1706447076.70019102,61328792,1579,1580,1548,1548,0,0,0,0,0,0,0,0,0,0
1706447076.80015087,61428752,1582,1583,1546,1545,0,0,0,0,0,0,0,0,0,0
1706447076.90011096,61528712,1585,1586,1543,1542,0,0,0,0,0,0,0,0,0,0
1706447077.00007081,61628672,1587,1588,1540,1539,0,0,0,0,0,0,0,0,0,0
1706447077.10003090,61728632,1590,1590,1536,1537,0,0,0,0,0,0,0,0,0,0
1706447077.19999099,61828592,1594,1594,1535,1536,0,0,0,0,0,0,0,0,0,0
1706447077.29995084,61928552,1595,1595,1534,1535,0,0,0,0,0,0,0,0,0,0
1706447077.39991093,62028512,1596,1595,1535,1536,0,0,0,0,0,0,0,0,0,0
1706447077.49987102,62128472,1595,1595,1537,1539,0,0,0,0,0,0,0,0,0,0
1706447077.59983087,62228432,1592,1591,1540,1542,0,0,0,0,0,0,0,0,0,0
1706447077.69979095,62328392,1589,1587,1546,1549,0,0,0,0,0,0,0,0,0,0
1706447077.79975104,62428352,1582,1579,1554,1556,0,0,0,0,0,0,0,0,0,0
1706447077.89971089,62528312,1573,1570,1564,1567,0,0,0,0,0,0,0,0,0,0
1706447077.99967098,62628272,1562,1559,1575,1577,0,0,0,0,0,0,0,0,0,0
1706447078.09963083,62728232,1551,1548,1587,1589,0,0,0,0,0,0,0,0,0,0
1706447078.19959092,62828192,1541,1540,1599,1599,0,0,0,0,0,0,0,0,0,0
1706447078.30038404,62928985,1534,1533,1608,1607,0,0,0,0,0,0,0,0,0,0
1706447078.40034389,63028945,1529,1530,1614,1612,0,0,0,0,0,0,0,0,0,0
1706447078.50030398,63128905,1529,1531,1615,1614,0,0,0,0,0,0,0,0,0,0
1706447078.60026383,63228865,1532,1534,1613,1613,0,0,0,0,0,0,0,0,0,0
1706447078.70022392,63328825,1538,1540,1609,1609,0,0,0,0,0,0,0,0,0,0
1706447078.80018401,63428785,1545,1547,1602,1602,0,0,0,0,0,0,0,0,0,0
1706447078.90014386,63528745,1553,1554,1594,1594,0,0,0,0,0,0,0,0,0,0
1706447079.00010395,63628705,1562,1563,1587,1586,0,0,0,0,0,0,0,0,0,0
1706447079.10006404,63728665,1572,1571,1581,1580,0,0,0,0,0,0,0,0,0,0
1706447079.20002389,63828625,1576,1575,1573,1572,0,0,0,0,0,0,0,0,0,0
1706447079.29998398,63928585,1582,1581,1569,1569,0,0,0,0,0,0,0,0,0,0
1706447079.39994383,64028545,1586,1584,1567,1566,0,0,0,0,0,0,0,0,0,0
1706447079.49990392,64128505,1588,1586,1566,1566,0,0,0,0,0,0,0,0,0,0
1706447079.59986401,64228465,1586,1585,1565,1566,0,0,0,0,0,0,0,0,0,0
1706447079.69982386,64328425,1586,1584,1568,1568,0,0,0,0,0,0,0,0,0,0
1706447079.79978395,64428385,1584,1583,1571,1571,0,0,0,0,0,0,0,0,0,0
1706447079.89974403,64528345,1580,1580,1574,1574,0,0,0,0,0,0,0,0,0,0
1706447079.99970388,64628305,1577,1577,1576,1577,0,0,0,0,0,0,0,0,0,0
1706447080.09966397,64728265,1575,1576,1579,1579,0,0,0,0,0,0,0,0,0,0
1706447080.19962382,64828225,1574,1574,1582,1582,0,0,0,0,0,0,0,0,0,0
1706447080.29958391,64928185,1571,1573,1583,1582,0,0,0,0,0,0,0,0,0,0
1706447080.40037704,65028978,1572,1573,1584,1584,0,0,0,0,0,0,0,0,0,0
1706447080.50033689,65128938,1572,1573,1583,1583,0,0,0,0,0,0,0,0,0,0
1706447080.60029697,65228898,1574,1574,1583,1584,0,0,0,0,0,0,0,0,0,0
1706447080.70025682,65328858,1576,1576,1583,1583,0,0,0,0,0,0,0,0,0,0
1706447080.80021691,65428818,1576,1576,1581,1581,0,0,0,0,0,0,0,0,0,0
1706447080.90017700,65528778,1578,1578,1581,1580,0,0,0,0,0,0,0,0,0,0
1706447081.00013685,65628738,1579,1579,1579,1579,0,0,0,0,0,0,0,0,0,0
1706447081.10009694,65728698,1580,1580,1578,1578,0,0,0,0,0,0,0,0,0,0
1706447081.20005703,65828658,1581,1581,1577,1577,0,0,0,0,0,0,0,0,0,0
1706447081.30001688,65928618,1582,1581,1577,1577,0,0,0,0,0,0,0,0,0,0
1706447081.39997697,66028578,1582,1582,1578,1578,0,0,0,0,0,0,0,0,0,0
1706447081.49993682,66128538,1581,1581,1578,1578,0,0,0,0,0,0,0,0,0,0
1706447081.59989691,66228498,1581,1581,1578,1578,0,0,0,0,0,0,0,0,0,0
1706447081.69985700,66328458,1581,1582,1579,1579,0,0,0,0,0,0,0,0,0,0
1706447081.79981685,66428418,1581,1581,1580,1580,0,0,0,0,0,0,0,0,0,0
1706447081.89977694,66528378,1581,1581,1581,1581,0,0,0,0,0,0,0,0,0,0
1706447081.99973702,66628338,1580,1580,1581,1581,0,0,0,0,0,0,0,0,0,0
1706447082.09969687,66728298,1579,1580,1580,1581,0,0,0,0,0,0,0,0,0,0
1706447082.19965696,66828258,1578,1579,1580,1580,0,0,0,0,0,0,0,0,0,0
1706447082.29961681,66928218,1580,1580,1581,1581,0,0,0,0,0,0,0,0,0,0
1706447082.39957690,67028178,1579,1579,1581,1581,0,0,0,0,0,0,0,0,0,0
1706447082.50037003,67128971,1579,1579,1581,1580,0,0,0,0,0,0,0,0,0,0
1706447082.60032988,67228931,1579,1579,1580,1580,0,0,0,0,0,0,0,0,0,0
1706447082.70028996,67328891,1580,1580,1581,1580,0,0,0,0,0,0,0,0,0,0
1706447082.80024981,67428851,1581,1581,1581,1581,0,0,0,0,0,0,0,0,0,0
1706447082.90020990,67528811,1581,1582,1581,1581,0,0,0,0,0,0,0,0,0,0
1706447083.00016999,67628771,1581,1581,1580,1580,0,0,0,0,0,0,0,0,0,0
1706447083.10012984,67728731,1580,1583,1586,1573,0,0,0,0,0,0,0,0,0,0
1706447083.20008993,67828691,1580,1584,1584,1571,0,0,0,0,0,0,0,0,0,0
1706447083.30005002,67928651,1711,1608,1707,1595,0,0,0,0,0,0,0,0,0,0
1706447083.40000987,68028611,1602,1607,1592,1593,0,0,0,0,0,0,0,0,0,0
1706447083.49996996,68128571,1555,1611,1534,1597,0,0,0,0,0,0,0,0,0,0
1706447083.59992981,68228531,1549,1606,1515,1585,0,0,0,0,0,0,0,0,0,0
1706447083.69988990,68328491,1562,1594,1516,1561,0,0,0,0,0,0,0,0,0,0
1706447083.79984999,68428451,1573,1578,1521,1534,0,0,0,0,0,0,0,0,0,0
1706447083.89980984,68528411,1575,1563,1528,1519,0,0,0,0,0,0,0,0,0,0
1706447083.99976993,68628371,1573,1555,1540,1520,0,0,0,0,0,0,0,0,0,0
1706447084.09973001,68728331,1567,1552,1552,1532,0,0,0,0,0,0,0,0,0,0
1706447084.19968987,68828291,1560,1552,1561,1545,0,0,0,0,0,0,0,0,0,0
1706447084.29964995,68928251,1555,1553,1563,1556,0,0,0,0,0,0,0,0,0,0
1706447084.39961004,69028211,1554,1556,1563,1562,0,0,0,0,0,0,0,0,0,0
1706447084.49956989,69128171,1555,1560,1560,1563,0,0,0,0,0,0,0,0,0,0
1706447084.60036302,69228964,1561,1565,1558,1561,0,0,0,0,0,0,0,0,0,0
1706447084.70032287,69328924,1569,1572,1556,1558,0,0,0,0,0,0,0,0,0,0
1706447084.80028296,69428884,1578,1578,1554,1553,0,0,0,0,0,0,0,0,0,0
1706447084.90024304,69528844,1584,1583,1551,1550,0,0,0,0,0,0,0,0,0,0
1706447085.00020289,69628804,1589,1589,1549,1546,0,0,0,0,0,0,0,0,0,0
1706447085.10016298,69728764,1594,1593,1547,1545,0,0,0,0,0,0,0,0,0,0
1706447085.20012283,69828724,1596,1595,1545,1544,0,0,0,0,0,0,0,0,0,0
1706447085.30008292,69928684,1597,1597,1545,1544,0,0,0,0,0,0,0,0,0,0
1706447085.40004301,70028644,1597,1597,1544,1545,0,0,0,0,0,0,0,0,0,0
1706447085.50000286,70128604,1597,1597,1546,1548,0,0,0,0,0,0,0,0,0,0
1706447085.59996295,70228564,1594,1595,1548,1550,0,0,0,0,0,0,0,0,0,0
1706447085.69992304,70328524,1591,1590,1551,1553,0,0,0,0,0,0,0,0,0,0
1706447085.79988289,70428484,1588,1587,1559,1561,0,0,0,0,0,0,0,0,0,0
1706447085.89984298,70528444,1581,1579,1565,1566,0,0,0,0,0,0,0,0,0,0
1706447085.99980283,70628404,1575,1573,1573,1575,0,0,0,0,0,0,0,0,0,0
1706447086.09976292,70728364,1567,1565,1580,1582,0,0,0,0,0,0,0,0,0,0
1706447086.19972301,70828324,1559,1558,1588,1589,0,0,0,0,0,0,0,0,0,0
1706447086.29968286,70928284,1552,1552,1594,1595,0,0,0,0,0,0,0,0,0,0
1706447086.39964294,71028244,1549,1548,1599,1600,0,0,0,0,0,0,0,0,0,0
1706447086.49960303,71128204,1546,1545,1602,1603,0,0,0,0,0,0,0,0,0,0
1706447086.59956288,71228164,1547,1547,1604,1604,0,0,0,0,0,0,0,0,0,0
1706447086.70035601,71328957,1550,1550,1603,1603,0,0,0,0,0,0,0,0,0,0
1706447086.80031586,71428917,1553,1554,1600,1600,0,0,0,0,0,0,0,0,0,0
1706447086.90027595,71528877,1556,1558,1595,1595,0,0,0,0,0,0,0,0,0,0
1706447087.00023603,71628837,1563,1563,1592,1591,0,0,0,0,0,0,0,0,0,0
1706447087.10019588,71728797,1568,1568,1587,1586,0,0,0,0,0,0,0,0,0,0
1706447087.20015597,71828757,1574,1574,1585,1583,0,0,0,0,0,0,0,0,0,0
1706447087.30011582,71928717,1577,1577,1580,1579,0,0,0,0,0,0,0,0,0,0
1706447087.40007591,72028677,1580,1580,1577,1577,0,0,0,0,0,0,0,0,0,0
1706447087.50003600,72128637,1582,1582,1576,1576,0,0,0,0,0,0,0,0,0,0
1706447087.59999585,72228597,1583,1582,1576,1575,0,0,0,0,0,0,0,0,0,0
1706447087.69995594,72328557,1581,1581,1574,1574,0,0,0,0,0,0,0,0,0,0
1706447087.79991603,72428517,1581,1580,1576,1576,0,0,0,0,0,0,0,0,0,0
1706447087.89987588,72528477,1579,1578,1576,1576,0,0,0,0,0,0,0,0,0,0
1706447087.99983597,72628437,1578,1577,1578,1578,0,0,0,0,0,0,0,0,0,0
1706447088.09979582,72728397,1576,1576,1580,1580,0,0,0,0,0,0,0,0,0,0
1706447088.19975591,72828357,1576,1575,1581,1581,0,0,0,0,0,0,0,0,0,0
1706447088.29971600,72928317,1575,1575,1581,1582,0,0,0,0,0,0,0,0,0,0
1706447088.39967585,73028277,1573,1574,1581,1581,0,0,0,0,0,0,0,0,0,0
1706447088.49963593,73128237,1574,1575,1581,1582,0,0,0,0,0,0,0,0,0,0
1706447088.59959602,73228197,1575,1575,1581,1581,0,0,0,0,0,0,0,0,0,0
1706447088.69955587,73328157,1576,1576,1581,1581,0,0,0,0,0,0,0,0,0,0
1706447088.80034900,73428950,1577,1576,1580,1580,0,0,0,0,0,0,0,0,0,0
1706447088.90030885,73528910,1578,1578,1580,1580,0,0,0,0,0,0,0,0,0,0
1706447089.00026894,73628870,1579,1578,1579,1579,0,0,0,0,0,0,0,0,0,0
1706447089.10022902,73728830,1578,1578,1578,1578,0,0,0,0,0,0,0,0,0,0
1706447089.20018888,73828790,1578,1579,1578,1578,0,0,0,0,0,0,0,0,0,0
1706447089.30014896,73928750,1579,1579,1578,1578,0,0,0,0,0,0,0,0,0,0
1706447089.40010881,74028710,1580,1580,1578,1578,0,0,0,0,0,0,0,0,0,0
1706447089.50006890,74128670,1579,1580,1578,1578,0,0,0,0,0,0,0,0,0,0
1706447089.60002899,74228630,1580,1580,1579,1579,0,0,0,0,0,0,0,0,0,0
1706447089.69998884,74328590,1580,1580,1580,1580,0,0,0,0,0,0,0,0,0,0
1706447089.79994893,74428550,1580,1580,1579,1580,0,0,0,0,0,0,0,0,0,0
1706447089.89990902,74528510,1580,1580,1580,1580,0,0,0,0,0,0,0,0,0,0
1706447089.99986887,74628470,1578,1578,1579,1579,0,0,0,0,0,0,0,0,0,0
1706447090.09982896,74728430,1579,1579,1580,1580,0,0,0,0,0,0,0,0,0,0
1706447090.19978881,74828390,1579,1579,1580,1580,0,0,0,0,0,0,0,0,0,0
1706447090.29974890,74928350,1579,1579,1579,1580,0,0,0,0,0,0,0,0,0,0
1706447090.39970899,75028310,1579,1579,1580,1580,0,0,0,0,0,0,0,0,0,0
1706447090.49966884,75128270,1580,1580,1581,1581,0,0,0,0,0,0,0,0,0,0
1706447090.59962893,75228230,1580,1580,1581,1581,0,0,0,0,0,0,0,0,0,0
1706447090.69958901,75328190,1581,1581,1581,1581,0,0,0,0,0,0,0,0,0,0
1706447090.80038190,75428983,1582,1582,1582,1582,0,0,0,0,0,0,0,0,0,0
1706447090.90034199,75528943,1582,1582,1581,1582,0,0,0,0,0,0,0,0,0,0
1706447091.00030184,75628903,1580,1580,1579,1580,0,0,0,0,0,0,0,0,0,0
1706447091.10026193,75728863,1580,1580,1579,1580,0,0,0,0,0,0,0,0,0,0
1706447091.20022202,75828823,1580,1580,1580,1579,0,0,0,0,0,0,0,0,0,0
1706447091.30018187,75928783,1580,1581,1581,1580,0,0,0,0,0,0,0,0,0,0
1706447091.40014195,76028743,1580,1580,1580,1579,0,0,0,0,0,0,0,0,0,0
1706447091.50010204,76128703,1582,1581,1581,1581,0,0,0,0,0,0,0,0,0,0
1706447091.60006189,76228663,1580,1583,1588,1574,0,0,0,0,0,0,0,0,0,0
1706447091.70002198,76328623,1579,1583,1583,1571,0,0,0,0,0,0,0,0,0,0
1706447091.79998183,76428583,1579,1583,1574,1571,0,0,0,0,0,0,0,0,0,0
1706447091.89994192,76528543,1580,1582,1565,1569,0,0,0,0,0,0,0,0,0,0
1706447091.99990201,76628503,1580,1581,1558,1565,0,0,0,0,0,0,0,0,0,0
1706447092.09986186,76728463,1582,1582,1555,1561,0,0,0,0,0,0,0,0,0,0
1706447092.19982195,76828423,1582,1582,1555,1557,0,0,0,0,0,0,0,0,0,0
1706447092.29978204,76928383,1582,1580,1555,1554,0,0,0,0,0,0,0,0,0,0
1706447092.39974189,77028343,1581,1579,1555,1552,0,0,0,0,0,0,0,0,0,0
1706447092.49970198,77128303,1580,1580,1557,1554,0,0,0,0,0,0,0,0,0,0
1706447092.59966183,77228263,1577,1579,1556,1554,0,0,0,0,0,0,0,0,0,0
1706447092.69962192,77328223,1576,1578,1555,1554,0,0,0,0,0,0,0,0,0,0
1706447092.79958200,77428183,1576,1578,1555,1555,0,0,0,0,0,0,0,0,0,0
1706447092.90037489,77528976,1576,1577,1553,1554,0,0,0,0,0,0,0,0,0,0
1706447093.00033498,77628936,1576,1578,1550,1552,0,0,0,0,0,0,0,0,0,0
1706447093.10029483,77728896,1580,1580,1550,1550,0,0,0,0,0,0,0,0,0,0
1706447093.20025492,77828856,1581,1582,1547,1547,0,0,0,0,0,0,0,0,0,0
1706447093.30021501,77928816,1583,1583,1543,1544,0,0,0,0,0,0,0,0,0,0
1706447093.40017486,78028776,1585,1586,1541,1541,0,0,0,0,0,0,0,0,0,0
1706447093.50013494,78128736,1588,1588,1539,1538,0,0,0,0,0,0,0,0,0,0
1706447093.60009503,78228696,1590,1591,1538,1537,0,0,0,0,0,0,0,0,0,0
1706447093.70005488,78328656,1591,1591,1535,1536,0,0,0,0,0,0,0,0,0,0
1706447093.80001497,78428616,1592,1593,1536,1537,0,0,0,0,0,0,0,0,0,0
1706447093.89997482,78528576,1593,1593,1537,1540,0,0,0,0,0,0,0,0,0,0
1706447093.99993491,78628536,1590,1590,1540,1542,0,0,0,0,0,0,0,0,0,0
1706447094.09989500,78728496,1587,1586,1547,1549,0,0,0,0,0,0,0,0,0,0
1706447094.19985485,78828456,1581,1578,1556,1557,0,0,0,0,0,0,0,0,0,0
1706447094.29981494,78928416,1572,1568,1566,1568,0,0,0,0,0,0,0,0,0,0
1706447094.39977503,79028376,1562,1558,1578,1580,0,0,0,0,0,0,0,0,0,0
1706447094.49973488,79128336,1550,1547,1590,1591,0,0,0,0,0,0,0,0,0,0
1706447094.59969497,79228296,1542,1539,1601,1601,0,0,0,0,0,0,0,0,0,0
1706447094.69965482,79328256,1534,1532,1607,1608,0,0,0,0,0,0,0,0,0,0
1706447094.79961491,79428216,1531,1530,1611,1612,0,0,0,0,0,0,0,0,0,0
1706447094.89957500,79528176,1532,1532,1612,1613,0,0,0,0,0,0,0,0,0,0
1706447095.00036788,79628969,1536,1537,1609,1610,0,0,0,0,0,0,0,0,0,0
1706447095.10032797,79728929,1544,1545,1605,1605,0,0,0,0,0,0,0,0,0,0
1706447095.20028782,79828889,1552,1553,1598,1598,0,0,0,0,0,0,0,0,0,0
1706447095.30024791,79928849,1560,1562,1591,1590,0,0,0,0,0,0,0,0,0,0
1706447095.40020800,80028809,1568,1570,1584,1582,0,0,0,0,0,0,0,0,0,0
1706447095.50016785,80128769,1576,1577,1578,1576,0,0,0,0,0,0,0,0,0,0
1706447095.60012794,80228729,1582,1582,1574,1572,0,0,0,0,0,0,0,0,0,0
1706447095.70008802,80328689,1587,1586,1571,1570,0,0,0,0,0,0,0,0,0,0
1706447095.80004787,80428649,1588,1587,1569,1569,0,0,0,0,0,0,0,0,0,0
1706447095.90000796,80528609,1587,1587,1569,1569,0,0,0,0,0,0,0,0,0,0
1706447095.99996781,80628569,1586,1586,1571,1571,0,0,0,0,0,0,0,0,0,0
1706447096.09992790,80728529,1583,1583,1573,1574,0,0,0,0,0,0,0,0,0,0
1706447096.19988799,80828489,1580,1579,1575,1575,0,0,0,0,0,0,0,0,0,0
1706447096.29984784,80928449,1578,1577,1578,1578,0,0,0,0,0,0,0,0,0,0
1706447096.39980793,81028409,1577,1577,1582,1582,0,0,0,0,0,0,0,0,0,0
1706447096.49976802,81128369,1573,1573,1581,1582,0,0,0,0,0,0,0,0,0,0
1706447096.59972787,81228329,1574,1574,1584,1584,0,0,0,0,0,0,0,0,0,0
1706447096.69968796,81328289,1573,1573,1583,1584,0,0,0,0,0,0,0,0,0,0
1706447096.79964781,81428249,1573,1574,1583,1583,0,0,0,0,0,0,0,0,0,0
1706447096.89960790,81528209,1574,1575,1583,1583,0,0,0,0,0,0,0,0,0,0
1706447096.99956799,81628169,1575,1576,1581,1582,0,0,0,0,0,0,0,0,0,0
1706447097.10036087,81728962,1577,1577,1580,1580,0,0,0,0,0,0,0,0,0,0
1706447097.20032096,81828922,1578,1578,1579,1579,0,0,0,0,0,0,0,0,0,0
1706447097.30028081,81928882,1580,1579,1578,1579,0,0,0,0,0,0,0,0,0,0
1706447097.40024090,82028842,1580,1580,1578,1577,0,0,0,0,0,0,0,0,0,0
1706447097.50020099,82128802,1581,1581,1578,1578,0,0,0,0,0,0,0,0,0,0
1706447097.60016084,82228762,1581,1581,1577,1577,0,0,0,0,0,0,0,0,0,0
1706447097.70012093,82328722,1581,1581,1578,1578,0,0,0,0,0,0,0,0,0,0
1706447097.80008101,82428682,1581,1581,1578,1578,0,0,0,0,0,0,0,0,0,0
1706447097.90004086,82528642,1581,1580,1578,1579,0,0,0,0,0,0,0,0,0,0
1706447098.00000095,82628602,1580,1580,1579,1579,0,0,0,0,0,0,0,0,0,0
1706447098.09996104,82728562,1580,1579,1580,1580,0,0,0,0,0,0,0,0,0,0
1706447098.19992089,82828522,1579,1579,1580,1580,0,0,0,0,0,0,0,0,0,0
1706447098.29988098,82928482,1580,1580,1581,1581,0,0,0,0,0,0,0,0,0,0
1706447098.39984083,83028442,1580,1580,1581,1581,0,0,0,0,0,0,0,0,0,0
1706447098.49980092,83128402,1580,1580,1581,1581,0,0,0,0,0,0,0,0,0,0
1706447098.59976101,83228362,1579,1579,1580,1581,0,0,0,0,0,0,0,0,0,0
1706447098.69972086,83328322,1579,1579,1580,1581,0,0,0,0,0,0,0,0,0,0
1706447098.79968095,83428282,1579,1579,1580,1580,0,0,0,0,0,0,0,0,0,0
1706447098.89964104,83528242,1580,1580,1580,1580,0,0,0,0,0,0,0,0,0,0
1706447098.99960089,83628202,1579,1580,1580,1579,0,0,0,0,0,0,0,0,0,0
1706447099.09956098,83728162,1579,1580,1579,1579,0,0,0,0,0,0,0,0,0,0
1706447099.20035386,83828955,1582,1581,1581,1581,0,0,0,0,0,0,0,0,0,0
1706447099.30031395,83928915,1582,1582,1582,1581,0,0,0,0,0,0,0,0,0,0
1706447099.40027404,84028875,1581,1582,1582,1579,0,0,0,0,0,0,0,0,0,0
1706447099.50023389,84128835,1581,1582,1588,1573,0,0,0,0,0,0,0,0,0,0
1706447099.60019398,84228795,1580,1581,1583,1574,0,0,0,0,0,0,0,0,0,0
1706447099.70015383,84328755,1578,1578,1575,1576,0,0,0,0,0,0,0,0,0,0
1706447099.80011392,84428715,1574,1574,1568,1575,0,0,0,0,0,0,0,0,0,0
1706447099.90007401,84528675,1572,1571,1566,1573,0,0,0,0,0,0,0,0,0,0
1706447100.00003386,84628635,1570,1569,1566,1572,0,0,0,0,0,0,0,0,0,0
1706447100.09999394,84728595,1568,1567,1567,1569,0,0,0,0,0,0,0,0,0,0
1706447100.19995403,84828555,1567,1567,1569,1567,0,0,0,0,0,0,0,0,0,0
1706447100.29991388,84928515,1567,1567,1569,1567,0,0,0,0,0,0,0,0,0,0
1706447100.39987397,85028475,1565,1565,1568,1566,0,0,0,0,0,0,0,0,0,0
1706447100.49983382,85128435,1564,1564,1566,1565,0,0,0,0,0,0,0,0,0,0
1706447100.59979391,85228395,1563,1564,1564,1564,0,0,0,0,0,0,0,0,0,0
1706447100.69975400,85328355,1562,1563,1563,1563,0,0,0,0,0,0,0,0,0,0
1706447100.79971385,85428315,1562,1562,1562,1562,0,0,0,0,0,0,0,0,0,0
1706447100.89967394,85528275,1562,1562,1562,1562,0,0,0,0,0,0,0,0,0,0
1706447100.99963403,85628235,1562,1561,1562,1561,0,0,0,0,0,0,0,0,0,0
1706447101.09959388,85728195,1562,1561,1561,1561,0,0,0,0,0,0,0,0,0,0
1706447101.19955397,85828155,1560,1561,1560,1559,0,0,0,0,0,0,0,0,0,0
1706447101.30034685,85928948,1560,1560,1560,1559,0,0,0,0,0,0,0,0,0,0
1706447101.40030694,86028908,1558,1558,1558,1557,0,0,0,0,0,0,0,0,0,0
1706447101.50026703,86128868,1558,1557,1558,1557,0,0,0,0,0,0,0,0,0,0
1706447101.60022688,86228828,1557,1556,1556,1556,0,0,0,0,0,0,0,0,0,0
1706447101.70018697,86328788,1555,1555,1555,1555,0,0,0,0,0,0,0,0,0,0
1706447101.80014682,86428748,1555,1554,1555,1554,0,0,0,0,0,0,0,0,0,0
1706447101.90010691,86528708,1555,1555,1556,1554,0,0,0,0,0,0,0,0,0,0
1706447102.00006700,86628668,1556,1557,1558,1555,0,0,0,0,0,0,0,0,0,0
1706447102.10002685,86728628,1557,1557,1559,1556,0,0,0,0,0,0,0,0,0,0
1706447102.19998693,86828588,1558,1559,1560,1558,0,0,0,0,0,0,0,0,0,0
1706447102.29994702,86928548,1559,1559,1557,1560,0,0,0,0,0,0,0,0,0,0
1706447102.39990687,87028508,1559,1559,1555,1562,0,0,0,0,0,0,0,0,0,0
1706447102.49986696,87128468,1561,1560,1557,1563,0,0,0,0,0,0,0,0,0,0
1706447102.59982681,87228428,1562,1562,1560,1564,0,0,0,0,0,0,0,0,0,0
1706447102.69978690,87328388,1563,1563,1562,1564,0,0,0,0,0,0,0,0,0,0
1706447102.79974699,87428348,1563,1563,1564,1563,0,0,0,0,0,0,0,0,0,0
1706447102.89970684,87528308,1562,1562,1564,1561,0,0,0,0,0,0,0,0,0,0
1706447102.99966693,87628268,1562,1563,1565,1561,0,0,0,0,0,0,0,0,0,0
1706447103.09962702,87728228,1562,1562,1561,1563,0,0,0,0,0,0,0,0,0,0
1706447103.19958687,87828188,1559,1559,1555,1562,0,0,0,0,0,0,0,0,0,0
1706447103.30037999,87928981,1553,1553,1550,1556,0,0,0,0,0,0,0,0,0,0
1706447103.40033984,88028941,1548,1549,1547,1549,0,0,0,0,0,0,0,0,0,0
1706447103.50029993,88128901,1541,1541,1541,1541,0,0,0,0,0,0,0,0,0,0
1706447103.60026002,88228861,1534,1534,1535,1533,0,0,0,0,0,0,0,0,0,0
1706447103.70021987,88328821,1526,1525,1527,1525,0,0,0,0,0,0,0,0,0,0
1706447103.80017996,88428781,1521,1520,1522,1519,0,0,0,0,0,0,0,0,0,0
1706447103.90013981,88528741,1519,1518,1519,1518,0,0,0,0,0,0,0,0,0,0
1706447104.00009990,88628701,1520,1519,1519,1519,0,0,0,0,0,0,0,0,0,0
1706447104.10005999,88728661,1522,1521,1522,1522,0,0,0,0,0,0,0,0,0,0
1706447104.20001984,88828621,1525,1524,1524,1525,0,0,0,0,0,0,0,0,0,0
1706447104.29997993,88928581,1529,1529,1529,1530,0,0,0,0,0,0,0,0,0,0
1706447104.39994001,89028541,1534,1534,1534,1534,0,0,0,0,0,0,0,0,0,0
1706447104.49989986,89128501,1538,1539,1538,1539,0,0,0,0,0,0,0,0,0,0
1706447104.59985995,89228461,1541,1542,1541,1542,0,0,0,0,0,0,0,0,0,0
1706447104.69982004,89328421,1543,1543,1543,1543,0,0,0,0,0,0,0,0,0,0
1706447104.79977989,89428381,1545,1545,1545,1545,0,0,0,0,0,0,0,0,0,0
1706447104.89973998,89528341,1546,1546,1546,1546,0,0,0,0,0,0,0,0,0,0
1706447104.99969983,89628301,1545,1546,1546,1546,0,0,0,0,0,0,0,0,0,0
1706447105.09965992,89728261,1546,1546,1546,1545,0,0,0,0,0,0,0,0,0,0
1706447105.19962001,89828221,1545,1546,1546,1546,0,0,0,0,0,0,0,0,0,0
1706447105.29957986,89928181,1546,1546,1546,1546,0,0,0,0,0,0,0,0,0,0
1706447105.40037298,90028974,1545,1546,1546,1545,0,0,0,0,0,0,0,0,0,0
1706447105.50033283,90128934,1546,1545,1545,1545,0,0,0,0,0,0,0,0,0,0
1706447105.60029292,90228894,1546,1545,1545,1546,0,0,0,0,0,0,0,0,0,0
1706447105.70025301,90328854,1545,1545,1545,1545,0,0,0,0,0,0,0,0,0,0
1706447105.80021286,90428814,1545,1545,1545,1545,0,0,0,0,0,0,0,0,0,0
1706447105.90017295,90528774,1545,1546,1546,1545,0,0,0,0,0,0,0,0,0,0
1706447106.00013304,90628734,1545,1545,1545,1544,0,0,0,0,0,0,0,0,0,0
1706447106.10009289,90728694,1545,1544,1544,1544,0,0,0,0,0,0,0,0,0,0
1706447106.20005298,90828654,1544,1544,1544,1544,0,0,0,0,0,0,0,0,0,0
1706447106.30001283,90928614,1544,1544,1544,1544,0,0,0,0,0,0,0,0,0,0
1706447106.39997292,91028574,1544,1544,1544,1544,0,0,0,0,0,0,0,0,0,0
1706447106.49993300,91128534,1545,1545,1545,1545,0,0,0,0,0,0,0,0,0,0
1706447106.59989285,91228494,1544,1544,1544,1543,0,0,0,0,0,0,0,0,0,0
1706447106.69985294,91328454,1544,1544,1545,1544,0,0,0,0,0,0,0,0,0,0
1706447106.79981303,91428414,1544,1544,1544,1544,0,0,0,0,0,0,0,0,0,0
1706447106.89977288,91528374,1544,1543,1543,1544,0,0,0,0,0,0,0,0,0,0
1706447106.99973297,91628334,1543,1544,1543,1544,0,0,0,0,0,0,0,0,0,0
1706447107.09969282,91728294,1544,1544,1544,1544,0,0,0,0,0,0,0,0,0,0
1706447107.19965291,91828254,1544,1544,1544,1544,0,0,0,0,0,0,0,0,0,0
1706447107.29961300,91928214,1545,1544,1545,1544,0,0,0,0,0,0,0,0,0,0
1706447107.39957285,92028174,1544,1544,1544,1544,0,0,0,0,0,0,0,0,0,0
1706447107.50036597,92128967,1545,1544,1544,1544,0,0,0,0,0,0,0,0,0,0
1706447107.60032582,92228927,1544,1545,1544,1545,0,0,0,0,0,0,0,0,0,0
1706447107.70028591,92328887,1543,1544,1544,1544,0,0,0,0,0,0,0,0,0,0
1706447107.80024600,92428847,1543,1544,1544,1544,0,0,0,0,0,0,0,0,0,0
1706447107.90020585,92528807,1545,1545,1545,1545,0,0,0,0,0,0,0,0,0,0
1706447108.00016594,92628767,1544,1545,1545,1544,0,0,0,0,0,0,0,0,0,0
1706447108.10012603,92728727,1543,1543,1543,1543,0,0,0,0,0,0,0,0,0,0
1706447108.20008588,92828687,1544,1544,1544,1544,0,0,0,0,0,0,0,0,0,0
1706447108.30004597,92928647,1546,1545,1545,1546,0,0,0,0,0,0,0,0,0,0
1706447108.40000582,93028607,1544,1544,1544,1544,0,0,0,0,0,0,0,0,0,0
1706447108.49996591,93128567,1545,1545,1545,1544,0,0,0,0,0,0,0,0,0,0
1706447108.59992599,93228527,1543,1544,1544,1544,0,0,0,0,0,0,0,0,0,0
1706447108.69988585,93328487,1544,1544,1544,1544,0,0,0,0,0,0,0,0,0,0
1706447108.79984593,93428447,1544,1544,1544,1544,0,0,0,0,0,0,0,0,0,0
1706447108.89980602,93528407,1544,1543,1543,1544,0,0,0,0,0,0,0,0,0,0
1706447108.99976587,93628367,1544,1544,1544,1544,0,0,0,0,0,0,0,0,0,0
1706447109.09972596,93728327,1544,1545,1544,1545,0,0,0,0,0,0,0,0,0,0
1706447109.19968581,93828287,1545,1545,1545,1545,0,0,0,0,0,0,0,0,0,0
1706447109.29964590,93928247,1545,1545,1545,1545,0,0,0,0,0,0,0,0,0,0
1706447109.39960599,94028207,1545,1545,1544,1545,0,0,0,0,0,0,0,0,0,0
1706447109.49956584,94128167,1545,1545,1544,1545,0,0,0,0,0,0,0,0,0,0
1706447109.60035896,94228960,1545,1545,1544,1545,0,0,0,0,0,0,0,0,0,0
1706447109.70031881,94328920,1544,1544,1544,1544,0,0,0,0,0,0,0,0,0,0
1706447109.80027890,94428880,1545,1545,1545,1545,0,0,0,0,0,0,0,0,0,0
1706447109.90023899,94528840,1545,1545,1545,1545,0,0,0,0,0,0,0,0,0,0
1706447110.00019884,94628800,1545,1545,1545,1545,0,0,0,0,0,0,0,0,0,0
1706447110.10015893,94728760,1545,1545,1545,1545,0,0,0,0,0,0,0,0,0,0
1706447110.20011902,94828720,1544,1544,1544,1544,0,0,0,0,0,0,0,0,0,0
1706447110.30007887,94928680,1544,1543,1544,1543,0,0,0,0,0,0,0,0,0,0
1706447110.40003896,95028640,1544,1544,1544,1544,0,0,0,0,0,0,0,0,0,0
1706447110.49999881,95128600,1543,1543,1543,1543,0,0,0,0,0,0,0,0,0,0
1706447110.59995890,95228560,1544,1544,1544,1544,0,0,0,0,0,0,0,0,0,0
1706447110.69991899,95328520,1544,1543,1544,1544,0,0,0,0,0,0,0,0,0,0
1706447110.79987884,95428480,1544,1544,1545,1544,0,0,0,0,0,0,0,0,0,0
1706447110.89983892,95528440,1545,1544,1544,1544,0,0,0,0,0,0,0,0,0,0
1706447110.99979901,95628400,1545,1545,1545,1545,0,0,0,0,0,0,0,0,0,0
1706447111.09975886,95728360,1545,1544,1545,1545,0,0,0,0,0,0,0,0,0,0
1706447111.19971895,95828320,1545,1545,1544,1545,0,0,0,0,0,0,0,0,0,0
1706447111.29967904,95928280,1545,1545,1545,1545,0,0,0,0,0,0,0,0,0,0
1706447111.39963889,96028240,1546,1546,1546,1546,0,0,0,0,0,0,0,0,0,0
1706447111.49959898,96128200,1544,1544,1543,1544,0,0,0,0,0,0,0,0,0,0
1706447111.59955883,96228160,1545,1545,1545,1545,0,0,0,0,0,0,0,0,0,0
1706447111.70035195,96328953,1545,1544,1544,1545,0,0,0,0,0,0,0,0,0,0
1706447111.80031204,96428913,1544,1544,1544,1544,0,0,0,0,0,0,0,0,0,0
1706447111.90027189,96528873,1544,1543,1544,1543,0,0,0,0,0,0,0,0,0,0
1706447112.00023198,96628833,1543,1543,1544,1543,0,0,0,0,0,0,0,0,0,0
1706447112.10019183,96728793,1545,1544,1545,1545,0,0,0,0,0,0,0,0,0,0
1706447112.20015192,96828753,1544,1545,1545,1545,0,0,0,0,0,0,0,0,0,0
1706447112.30011201,96928713,1545,1545,1545,1545,0,0,0,0,0,0,0,0,0,0
1706447112.40007186,97028673,1545,1545,1545,1545,0,0,0,0,0,0,0,0,0,0
1706447112.50003195,97128633,1545,1546,1545,1545,0,0,0,0,0,0,0,0,0,0
1706447112.59999204,97228593,1544,1545,1545,1545,0,0,0,0,0,0,0,0,0,0
1706447112.69995189,97328553,1545,1545,1545,1545,0,0,0,0,0,0,0,0,0,0
1706447112.79991198,97428513,1545,1545,1545,1545,0,0,0,0,0,0,0,0,0,0
1706447112.89987183,97528473,1545,1544,1545,1545,0,0,0,0,0,0,0,0,0,0
1706447112.99983191,97628433,1544,1544,1544,1544,0,0,0,0,0,0,0,0,0,0
1706447113.09979200,97728393,1544,1544,1544,1544,0,0,0,0,0,0,0,0,0,0
1706447113.19975185,97828353,1545,1544,1544,1544,0,0,0,0,0,0,0,0,0,0
1706447113.29971194,97928313,1545,1545,1545,1544,0,0,0,0,0,0,0,0,0,0
1706447113.39967203,98028273,1544,1545,1545,1544,0,0,0,0,0,0,0,0,0,0
1706447113.49963188,98128233,1545,1545,1545,1545,0,0,0,0,0,0,0,0,0,0
1706447113.59959197,98228193,1348,1407,1346,1408,0,0,0,0,0,0,0,0,0,0
1706447113.70038486,98328986,1342,1404,1341,1405,0,0,0,0,0,0,0,0,0,0
1706447113.80034494,98428946,1341,1404,1341,1405,0,0,0,0,0,0,0,0,0,0
1706447113.90030503,98528906,1342,1389,1341,1390,0,0,0,0,0,0,0,0,0,0
1706447114.00026488,98628866,1341,1330,1341,1330,0,0,0,0,0,0,0,0,0,0
1706447114.10022497,98728826,1342,1302,1341,1303,0,0,0,0,0,0,0,0,0,0
1706447114.20018482,98828786,1342,1302,1341,1303,0,0,0,0,0,0,0,0,0,0
1706447114.30014491,98928746,1356,1291,1341,1303,0,0,0,0,0,0,0,0,0,0
1706447114.40010500,99028706,1351,1295,1341,1303,0,0,0,0,0,0,0,0,0,0
1706447114.50006485,99128666,1350,1296,1341,1303,0,0,0,0,0,0,0,0,0,0
1706447114.60002494,99228626,1349,1296,1341,1303,0,0,0,0,0,0,0,0,0,0
1706447114.69998503,99328586,1350,1295,1341,1303,0,0,0,0,0,0,0,0,0,0
1706447114.79994488,99428546,1351,1295,1341,1303,0,0,0,0,0,0,0,0,0,0
1706447114.89990497,99528506,1351,1295,1341,1303,0,0,0,0,0,0,0,0,0,0
1706447114.99986482,99628466,1342,1302,1341,1303,0,0,0,0,0,0,0,0,0,0
1706447115.09982491,99728426,1345,1300,1341,1303,0,0,0,0,0,0,0,0,0,0
1706447115.19978499,99828386,1345,1299,1341,1303,0,0,0,0,0,0,0,0,0,0
1706447115.29974484,99928346,1346,1299,1341,1303,0,0,0,0,0,0,0,0,0,0
1706447115.39970493,100028306,1346,1299,1341,1303,0,0,0,0,0,0,0,0,0,0
1706447115.49966502,100128266,1341,1150,1341,1150,0,0,0,0,0,0,0,0,0,0
1706447115.59962487,100228226,1000,1000,1000,1000,0,0,0,0,0,0,0,0,0,0
1706447115.69958496,100328186,1000,1000,1000,1000,0,0,0,0,0,0,0,0,0,0
1706447115.80037785,100428979,1000,1000,1000,1000,0,0,0,0,0,0,0,0,0,0
1706447115.90033793,100528939,1000,1000,1000,1000,0,0,0,0,0,0,0,0,0,0
1706447116.00029802,100628899,1000,1000,1000,1000,0,0,0,0,0,0,0,0,0,0
1706447116.10025787,100728859,1000,1000,1000,1000,0,0,0,0,0,0,0,0,0,0
1706447116.20021796,100828819,1000,1000,1000,1000,0,0,0,0,0,0,0,0,0,0
1706447116.30017781,100928779,1000,1000,1000,1000,0,0,0,0,0,0,0,0,0,0
1706447116.40013790,101028739,1000,1000,1000,1000,0,0,0,0,0,0,0,0,0,0
1706447116.50009799,101128699,1000,1000,1000,1000,0,0,0,0,0,0,0,0,0,0
1706447116.60005784,101228659,1000,1000,1000,1000,0,0,0,0,0,0,0,0,0,0
1706447116.70001793,101328619,1000,1000,1000,1000,0,0,0,0,0,0,0,0,0,0
1706447116.79997802,101428579,1000,1000,1000,1000,0,0,0,0,0,0,0,0,0,0
1706447116.89993787,101528539,1000,1000,1000,1000,0,0,0,0,0,0,0,0,0,0
1706447116.99989796,101628499,1000,1000,1000,1000,0,0,0,0,0,0,0,0,0,0
1706447117.09985781,101728459,1000,1000,1000,1000,0,0,0,0,0,0,0,0,0,0
1706447117.19981790,101828419,1000,1000,1000,1000,0,0,0,0,0,0,0,0,0,0
1706447117.29977798,101928379,1000,1000,1000,1000,0,0,0,0,0,0,0,0,0,0
1706447117.39973783,102028339,1000,1000,1000,1000,0,0,0,0,0,0,0,0,0,0
1706447117.49969792,102128299,1000,1000,1000,1000,0,0,0,0,0,0,0,0,0,0
1706447117.59965801,102228259,1000,1000,1000,1000,0,0,0,0,0,0,0,0,0,0
1706447117.69961786,102328219,1000,1000,1000,1000,0,0,0,0,0,0,0,0,0,0
1706447117.79957795,102428179,1000,1000,1000,1000,0,0,0,0,0,0,0,0,0,0
1706447117.90037084,102528972,1000,1000,1000,1000,0,0,0,0,0,0,0,0,0,0
1706447118.00033092,102628932,1000,1000,1000,1000,0,0,0,0,0,0,0,0,0,0
1706447118.10029101,102728892,1000,1000,1000,1000,0,0,0,0,0,0,0,0,0,0
1706447118.20025086,102828852,1000,1000,1000,1000,0,0,0,0,0,0,0,0,0,0
1706447118.30021095,102928812,1000,1000,1000,1000,0,0,0,0,0,0,0,0,0,0
1706447118.40017104,103028772,1000,1000,1000,1000,0,0,0,0,0,0,0,0,0,0
1706447118.50013089,103128732,1000,1000,1000,1000,0,0,0,0,0,0,0,0,0,0
1706447118.60009098,103228692,1000,1000,1000,1000,0,0,0,0,0,0,0,0,0,0
1706447118.70005083,103328652,1000,1000,1000,1000,0,0,0,0,0,0,0,0,0,0
1706447118.80001092,103428612,1000,1000,1000,1000,0,0,0,0,0,0,0,0,0,0
1706447118.89997101,103528572,1000,1000,1000,1000,0,0,0,0,0,0,0,0,0,0
1706447118.99993086,103628532,1000,1000,1000,1000,0,0,0,0,0,0,0,0,0,0
1706447119.09989095,103728492,1000,1000,1000,1000,0,0,0,0,0,0,0,0,0,0
1706447119.19985104,103828452,1000,1000,1000,1000,0,0,0,0,0,0,0,0,0,0
1706447119.29981089,103928412,1000,1000,1000,1000,0,0,0,0,0,0,0,0,0,0
1706447119.39977098,104028372,1000,1000,1000,1000,0,0,0,0,0,0,0,0,0,0
1706447119.49973083,104128332,1000,1000,1000,1000,0,0,0,0,0,0,0,0,0,0
1706447119.59969091,104228292,1000,1000,1000,1000,0,0,0,0,0,0,0,0,0,0
1706447119.69965100,104328252,1000,1000,1000,1000,0,0,0,0,0,0,0,0,0,0
1706447119.79961085,104428212,1000,1000,1000,1000,0,0,0,0,0,0,0,0,0,0
1706447119.89957094,104528172,1000,1000,1000,1000,0,0,0,0,0,0,0,0,0,0
1706447120.00036383,104628965,1000,1000,1000,1000,0,0,0,0,0,0,0,0,0,0
1706447120.10032392,104728925,1000,1000,1000,1000,0,0,0,0,0,0,0,0,0,0
1706447120.20028400,104828885,1000,1000,1000,1000,0,0,0,0,0,0,0,0,0,0
1706447120.30024385,104928845,1000,1000,1000,1000,0,0,0,0,0,0,0,0,0,0
1706447120.40020394,105028805,1000,1000,1000,1000,0,0,0,0,0,0,0,0,0,0
1706447120.50016403,105128765,1000,1000,1000,1000,0,0,0,0,0,0,0,0,0,0
1706447120.60012388,105228725,1000,1000,1000,1000,0,0,0,0,0,0,0,0,0,0
1706447120.70008397,105328685,1000,1000,1000,1000,0,0,0,0,0,0,0,0,0,0
1706447120.80004382,105428645,1000,1000,1000,1000,0,0,0,0,0,0,0,0,0,0
1706447120.90000391,105528605,1000,1000,1000,1000,0,0,0,0,0,0,0,0,0,0
1706447120.99996400,105628565,1000,1000,1000,1000,0,0,0,0,0,0,0,0,0,0
1706447121.09992385,105728525,1000,1000,1000,1000,0,0,0,0,0,0,0,0,0,0
1706447121.19988394,105828485,1000,1000,1000,1000,0,0,0,0,0,0,0,0,0,0
1706447121.29984403,105928445,1000,1000,1000,1000,0,0,0,0,0,0,0,0,0,0
1706447121.39980388,106028405,1000,1000,1000,1000,0,0,0,0,0,0,0,0,0,0
1706447121.49976397,106128365,1000,1000,1000,1000,0,0,0,0,0,0,0,0,0,0
1706447121.59972382,106228325,1000,1000,1000,1000,0,0,0,0,0,0,0,0,0,0
1706447121.69968390,106328285,1000,1000,1000,1000,0,0,0,0,0,0,0,0,0,0
1706447121.79964399,106428245,1000,1000,1000,1000,0,0,0,0,0,0,0,0,0,0
1706447121.89960384,106528205,1000,1000,1000,1000,0,0,0,0,0,0,0,0,0,0
1706447121.99956393,106628165,1000,1000,1000,1000,0,0,0,0,0,0,0,0,0,0
1706447122.10035682,106728958,1000,1000,1000,1000,0,0,0,0,0,0,0,0,0,0
1706447122.20031691,106828918,1000,1000,1000,1000,0,0,0,0,0,0,0,0,0,0
1706447122.30027699,106928878,1000,1000,1000,1000,0,0,0,0,0,0,0,0,0,0
1706447122.40023685,107028838,1000,1000,1000,1000,0,0,0,0,0,0,0,0,0,0
1706447122.50019693,107128798,1000,1000,1000,1000,0,0,0,0,0,0,0,0,0,0
1706447122.60015702,107228758,1000,1000,1000,1000,0,0,0,0,0,0,0,0,0,0
1706447122.70011687,107328718,1000,1000,1000,1000,0,0,0,0,0,0,0,0,0,0
1706447122.80007696,107428678,1000,1000,1000,1000,0,0,0,0,0,0,0,0,0,0
1706447122.90003681,107528638,1000,1000,1000,1000,0,0,0,0,0,0,0,0,0,0
1706447122.99999690,107628598,1000,1000,1000,1000,0,0,0,0,0,0,0,0,0,0
1706447123.09995699,107728558,1000,1000,1000,1000,0,0,0,0,0,0,0,0,0,0
1706447123.19991684,107828518,1000,1000,1000,1000,0,0,0,0,0,0,0,0,0,0
1706447123.29987693,107928478,1000,1000,1000,1000,0,0,0,0,0,0,0,0,0,0
1706447123.39983702,108028438,1000,1000,1000,1000,0,0,0,0,0,0,0,0,0,0
1706447123.49979687,108128398,1000,1000,1000,1000,0,0,0,0,0,0,0,0,0,0
1706447123.59975696,108228358,1000,1000,1000,1000,0,0,0,0,0,0,0,0,0,0
1706447123.69971704,108328318,1000,1000,1000,1000,0,0,0,0,0,0,0,0,0,0
1706447123.79967690,108428278,1000,1000,1000,1000,0,0,0,0,0,0,0,0,0,0
1706447123.89963698,108528238,1000,1000,1000,1000,0,0,0,0,0,0,0,0,0,0
1706447123.99959683,108628198,1000,1000,1000,1000,0,0,0,0,0,0,0,0,0,0
1706447124.09955692,108728158,1000,1000,1000,1000,0,0,0,0,0,0,0,0,0,0
1706447124.20034981,108828951,1000,1000,1000,1000,0,0,0,0,0,0,0,0,0,0
1706447124.30030990,108928911,1000,1000,1000,1000,0,0,0,0,0,0,0,0,0,0
1706447124.40026999,109028871,1000,1000,1000,1000,0,0,0,0,0,0,0,0,0,0
1706447124.50022984,109128831,1000,1000,1000,1000,0,0,0,0,0,0,0,0,0,0
1706447124.60018992,109228791,1000,1000,1000,1000,0,0,0,0,0,0,0,0,0,0
1706447124.70015001,109328751,1000,1000,1000,1000,0,0,0,0,0,0,0,0,0,0
1706447124.80010986,109428711,1000,1000,1000,1000,0,0,0,0,0,0,0,0,0,0
1706447124.90006995,109528671,1000,1000,1000,1000,0,0,0,0,0,0,0,0,0,0
1706447125.00003004,109628631,1000,1000,1000,1000,0,0,0,0,0,0,0,0,0,0
1706447125.09998989,109728591,1000,1000,1000,1000,0,0,0,0,0,0,0,0,0,0
1706447125.19994998,109828551,1000,1000,1000,1000,0,0,0,0,0,0,0,0,0,0
1706447125.29990983,109928511,1000,1000,1000,1000,0,0,0,0,0,0,0,0,0,0
1706447125.39986992,110028471,1000,1000,1000,1000,0,0,0,0,0,0,0,0,0,0
1706447125.49983001,110128431,1000,1000,1000,1000,0,0,0,0,0,0,0,0,0,0
1706447125.59978986,110228391,1000,1000,1000,1000,0,0,0,0,0,0,0,0,0,0
1706447125.69974995,110328351,1000,1000,1000,1000,0,0,0,0,0,0,0,0,0,0
1706447125.79971004,110428311,1000,1000,1000,1000,0,0,0,0,0,0,0,0,0,0
1706447125.89966989,110528271,1000,1000,1000,1000,0,0,0,0,0,0,0,0,0,0
1706447125.99962997,110628231,1000,1000,1000,1000,0,0,0,0,0,0,0,0,0,0
1706447126.09958982,110728191,1000,1000,1000,1000,0,0,0,0,0,0,0,0,0,0
1706447126.20038295,110828984,1000,1000,1000,1000,0,0,0,0,0,0,0,0,0,0
1706447126.30034304,110928944,1000,1000,1000,1000,0,0,0,0,0,0,0,0,0,0
1706447126.40030289,111028904,1000,1000,1000,1000,0,0,0,0,0,0,0,0,0,0
1706447126.50026298,111128864,1000,1000,1000,1000,0,0,0,0,0,0,0,0,0,0
1706447126.60022283,111228824,1000,1000,1000,1000,0,0,0,0,0,0,0,0,0,0
1706447126.70018291,111328784,1000,1000,1000,1000,0,0,0,0,0,0,0,0,0,0
1706447126.80014300,111428744,1000,1000,1000,1000,0,0,0,0,0,0,0,0,0,0
1706447126.90010285,111528704,1000,1000,1000,1000,0,0,0,0,0,0,0,0,0,0
1706447127.00006294,111628664,1000,1000,1000,1000,0,0,0,0,0,0,0,0,0,0
1706447127.10002303,111728624,1000,1000,1000,1000,0,0,0,0,0,0,0,0,0,0
1706447127.19998288,111828584,1000,1000,1000,1000,0,0,0,0,0,0,0,0,0,0
1706447127.29994297,111928544,1000,1000,1000,1000,0,0,0,0,0,0,0,0,0,0
1706447127.39990282,112028504,1000,1000,1000,1000,0,0,0,0,0,0,0,0,0,0
1706447127.49986291,112128464,1000,1000,1000,1000,0,0,0,0,0,0,0,0,0,0
1706447127.59982300,112228424,1000,1000,1000,1000,0,0,0,0,0,0,0,0,0,0
1706447127.69978285,112328384,1000,1000,1000,1000,0,0,0,0,0,0,0,0,0,0
1706447127.79974294,112428344,1000,1000,1000,1000,0,0,0,0,0,0,0,0,0,0
1706447127.89970303,112528304,1000,1000,1000,1000,0,0,0,0,0,0,0,0,0,0
1706447127.99966288,112628264,1000,1000,1000,1000,0,0,0,0,0,0,0,0,0,0
1706447128.09962296,112728224,1000,1000,1000,1000,0,0,0,0,0,0,0,0,0,0
1706447128.19958282,112828184,1000,1000,1000,1000,0,0,0,0,0,0,0,0,0,0
1706447128.30037594,112928977,1000,1000,1000,1000,0,0,0,0,0,0,0,0,0,0
1706447128.40033603,113028937,1000,1000,1000,1000,0,0,0,0,0,0,0,0,0,0
1706447128.50029588,113128897,1000,1000,1000,1000,0,0,0,0,0,0,0,0,0,0
1706447128.60025597,113228857,1000,1000,1000,1000,0,0,0,0,0,0,0,0,0,0
1706447128.70021582,113328817,1000,1000,1000,1000,0,0,0,0,0,0,0,0,0,0
1706447128.80017591,113428777,1000,1000,1000,1000,0,0,0,0,0,0,0,0,0,0
1706447128.90013599,113528737,1000,1000,1000,1000,0,0,0,0,0,0,0,0,0,0
1706447129.00009584,113628697,1000,1000,1000,1000,0,0,0,0,0,0,0,0,0,0
1706447129.10005593,113728657,1000,1000,1000,1000,0,0,0,0,0,0,0,0,0,0
1706447129.20001602,113828617,1000,1000,1000,1000,0,0,0,0,0,0,0,0,0,0
1706447129.29997587,113928577,1000,1000,1000,1000,0,0,0,0,0,0,0,0,0,0
1706447129.39993596,114028537,1000,1000,1000,1000,0,0,0,0,0,0,0,0,0,0
1706447129.49989581,114128497,1000,1000,1000,1000,0,0,0,0,0,0,0,0,0,0
1706447129.59985590,114228457,1000,1000,1000,1000,0,0,0,0,0,0,0,0,0,0
1706447129.69981599,114328417,1000,1000,1000,1000,0,0,0,0,0,0,0,0,0,0
1706447129.79977584,114428377,1000,1000,1000,1000,0,0,0,0,0,0,0,0,0,0
1706447129.89973593,114528337,1000,1000,1000,1000,0,0,0,0,0,0,0,0,0,0
1706447129.99969602,114628297,1000,1000,1000,1000,0,0,0,0,0,0,0,0,0,0
1706447130.09965587,114728257,1000,1000,1000,1000,0,0,0,0,0,0,0,0,0,0
1706447130.19961596,114828217,1000,1000,1000,1000,0,0,0,0,0,0,0,0,0,0
1706447130.29957604,114928177,1000,1000,1000,1000,0,0,0,0,0,0,0,0,0,0
1706447130.40036893,115028970,1000,1000,1000,1000,0,0,0,0,0,0,0,0,0,0
