TimeUS,M1,M2,M3,M4,TimeUS,C1,C2,C3,C4
186396245,1000,1000,1000,1000,186468716,1000,1000,1000,1000
186398744,1000,1000,1000,1000,186568676,1000,1000,1000,1000
186401243,1000,1000,1000,1000,186668636,1000,1000,1000,1000
186403742,1000,1000,1000,1000,186768596,1000,1000,1000,1000
186406241,1000,1000,1000,1000,186868556,1000,1000,1000,1000
186408740,1000,1000,1000,1000,186968516,1000,1000,1000,1000
186411239,1000,1000,1000,1000,187068476,1000,1000,1000,1000
186413738,1000,1000,1000,1000,187168436,1000,1000,1000,1000
186416237,1000,1000,1000,1000,187268396,1000,1000,1000,1000
186418736,1000,1000,1000,1000,187368356,1000,1000,1000,1000
186421235,1000,1000,1000,1000,187468316,1000,1000,1000,1000
186423734,1000,1000,1000,1000,187568276,1000,1000,1000,1000
186426233,1000,1000,1000,1000,187668236,1000,1000,1000,1000
186428732,1000,1000,1000,1000,187768196,1000,1000,1000,1000
186431231,1000,1000,1000,1000,187868156,1000,1000,1000,1000
186433730,1000,1000,1000,1000,187968949,1000,1000,1000,1000
186436229,1000,1000,1000,1000,188068909,1000,1000,1000,1000
186438728,1000,1000,1000,1000,188168869,1000,1000,1000,1000
186441227,1000,1000,1000,1000,188268829,1000,1000,1000,1000
186443726,1000,1000,1000,1000,188368789,1000,1000,1000,1000
186446225,1000,1000,1000,1000,188468749,1021,1021,1021,1021
186448724,1000,1000,1000,1000,188568709,1051,1051,1051,1051
186451223,1000,1000,1000,1000,188668669,1081,1081,1081,1081
186453722,1000,1000,1000,1000,188768629,1111,1111,1111,1111
186456221,1000,1000,1000,1000,188868589,1141,1141,1141,1141
186458720,1000,1000,1000,1000,188968549,1348,1326,1327,1350
186461219,1000,1000,1000,1000,189068509,1540,1522,1523,1541
186463718,1000,1000,1000,1000,189168469,1694,1677,1678,1695
186466217,1000,1000,1000,1000,189268429,1826,1810,1810,1827
186468716,1000,1000,1000,1000,189368389,1885,1868,1868,1886
186471215,1000,1000,1000,1000,189468349,1843,1836,1837,1844
186473714,1000,1000,1000,1000,189568309,1712,1712,1713,1712
186476213,1000,1000,1000,1000,189668269,1632,1638,1638,1633
186478712,1000,1000,1000,1000,189768229,1617,1625,1625,1617
186481211,1000,1000,1000,1000,189868189,1630,1624,1622,1632
186483710,1000,1000,1000,1000,189968982,1626,1631,1626,1632
186486209,1000,1000,1000,1000,190068942,1623,1629,1625,1627
186488708,1000,1000,1000,1000,190168902,1620,1624,1623,1621
186491207,1000,1000,1000,1000,190268862,1618,1619,1620,1617
186493706,1000,1000,1000,1000,190368822,1617,1615,1619,1614
186496205,1000,1000,1000,1000,190468782,1618,1615,1618,1614
186498704,1000,1000,1000,1000,190568742,1619,1616,1619,1616
186501203,1000,1000,1000,1000,190668702,1620,1619,1619,1619
186503702,1000,1000,1000,1000,190768662,1592,1593,1598,1587
186506201,1000,1000,1000,1000,190868622,1576,1579,1584,1570
186508700,1000,1000,1000,1000,190968582,1564,1566,1567,1563
186511199,1000,1000,1000,1000,191068542,1555,1555,1553,1558
186513698,1000,1000,1000,1000,191168502,1549,1547,1539,1557
186516197,1000,1000,1000,1000,191268462,1542,1540,1531,1550
186518696,1000,1000,1000,1000,191368422,1536,1535,1528,1541
186521195,1000,1000,1000,1000,191468382,1530,1529,1527,1531
186523694,1000,1000,1000,1000,191568342,1527,1527,1527,1526
186526193,1000,1000,1000,1000,191668302,1528,1528,1530,1525
186528692,1000,1000,1000,1000,191768262,1529,1530,1533,1526
186531191,1000,1000,1000,1000,191868222,1532,1533,1536,1530
186533690,1000,1000,1000,1000,191968182,1536,1536,1538,1535
186536189,1000,1000,1000,1000,192068975,1539,1539,1541,1539
186538688,1000,1000,1000,1000,192168935,1543,1543,1544,1543
186541187,1000,1000,1000,1000,192268895,1545,1544,1545,1546
186543686,1000,1000,1000,1000,192368855,1549,1549,1549,1550
186546185,1000,1000,1000,1000,192468815,1551,1551,1551,1552
186548684,1000,1000,1000,1000,192568775,1554,1554,1554,1555
186551183,1000,1000,1000,1000,192668735,1556,1556,1556,1557
186553682,1000,1000,1000,1000,192768695,1568,1572,1547,1548
186556181,1000,1000,1000,1000,192868655,1579,1577,1543,1544
186558680,1000,1000,1000,1000,192968615,1574,1571,1552,1553
186561179,1000,1000,1000,1000,193068575,1566,1563,1562,1562
186563678,1000,1000,1000,1000,193168535,1560,1559,1572,1572
186566177,1000,1000,1000,1000,193268495,1556,1555,1577,1577
186568676,1000,1000,1000,1000,193368455,1553,1555,1580,1581
186571175,1000,1000,1000,1000,193468415,1554,1556,1582,1582
186573674,1000,1000,1000,1000,193568375,1557,1559,1582,1581
186576173,1000,1000,1000,1000,193668335,1560,1562,1580,1579
186578672,1000,1000,1000,1000,193768295,1565,1567,1577,1577
186581171,1000,1000,1000,1000,193868255,1571,1571,1574,1575
186583670,1000,1000,1000,1000,193968215,1574,1574,1571,1571
186586169,1000,1000,1000,1000,194068175,1578,1577,1569,1569
186588668,1000,1000,1000,1000,194168968,1580,1580,1569,1567
186591167,1000,1000,1000,1000,194268928,1581,1581,1568,1566
186593666,1000,1000,1000,1000,194368888,1582,1581,1568,1567
186596165,1000,1000,1000,1000,194468848,1582,1581,1569,1569
186598664,1000,1000,1000,1000,194568808,1581,1581,1571,1570
186601163,1000,1000,1000,1000,194668768,1578,1578,1571,1571
186603662,1000,1000,1000,1000,194768728,1578,1578,1574,1574
186606161,1000,1000,1000,1000,194868688,1577,1576,1576,1576
186608660,1000,1000,1000,1000,194968648,1574,1575,1577,1576
186611159,1000,1000,1000,1000,195068608,1575,1575,1579,1579
186613658,1000,1000,1000,1000,195168568,1574,1575,1580,1580
186616157,1000,1000,1000,1000,195268528,1574,1574,1580,1580
186618656,1000,1000,1000,1000,195368488,1574,1574,1580,1580
186621155,1000,1000,1000,1000,195468448,1576,1576,1580,1580
186623654,1000,1000,1000,1000,195568408,1576,1576,1579,1579
186626153,1000,1000,1000,1000,195668368,1577,1576,1579,1578
186628652,1000,1000,1000,1000,195768328,1578,1577,1578,1578
186631151,1000,1000,1000,1000,195868288,1578,1578,1577,1577
186633650,1000,1000,1000,1000,195968248,1579,1579,1577,1577
186636149,1000,1000,1000,1000,196068208,1579,1579,1577,1577
186638648,1000,1000,1000,1000,196168168,1580,1580,1577,1578
186641147,1000,1000,1000,1000,196268961,1580,1580,1578,1578
186643646,1000,1000,1000,1000,196368921,1580,1580,1578,1578
186646145,1000,1000,1000,1000,196468881,1579,1579,1578,1577
186648644,1000,1000,1000,1000,196568841,1580,1579,1579,1579
186651143,1000,1000,1000,1000,196668801,1580,1580,1579,1579
186653642,1000,1000,1000,1000,196768761,1579,1579,1579,1579
186656141,1000,1000,1000,1000,196868721,1580,1580,1581,1581
186658640,1000,1000,1000,1000,196968681,1580,1580,1581,1581
186661139,1000,1000,1000,1000,197068641,1579,1579,1580,1580
186663638,1000,1000,1000,1000,197168601,1578,1578,1579,1579
186666137,1000,1000,1000,1000,197268561,1578,1578,1579,1580
186668636,1000,1000,1000,1000,197368521,1579,1579,1580,1580
186671135,1000,1000,1000,1000,197468481,1579,1579,1579,1579
186673634,1000,1000,1000,1000,197568441,1579,1579,1580,1579
186676133,1000,1000,1000,1000,197668401,1580,1579,1580,1580
186678632,1000,1000,1000,1000,197768361,1580,1580,1580,1580
186681131,1000,1000,1000,1000,197868321,1579,1580,1580,1580
186683630,1000,1000,1000,1000,197968281,1580,1580,1580,1580
186686129,1000,1000,1000,1000,198068241,1580,1580,1579,1580
186688628,1000,1000,1000,1000,198168201,1580,1580,1580,1580
186691127,1000,1000,1000,1000,198268161,1580,1580,1579,1579
186693626,1000,1000,1000,1000,198368954,1579,1580,1580,1579
186696125,1000,1000,1000,1000,198468914,1580,1580,1580,1579
186698624,1000,1000,1000,1000,198568874,1581,1580,1581,1581
186701123,1000,1000,1000,1000,198668834,1580,1580,1580,1580
186703622,1000,1000,1000,1000,198768794,1580,1580,1581,1581
186706121,1000,1000,1000,1000,198868754,1581,1582,1587,1574
186708620,1000,1000,1000,1000,198968714,1580,1584,1586,1573
186711119,1000,1000,1000,1000,199068674,1580,1583,1578,1573
186713618,1000,1000,1000,1000,199168634,1578,1581,1569,1572
186716117,1000,1000,1000,1000,199268594,1578,1580,1561,1568
186718616,1000,1000,1000,1000,199368554,1579,1580,1557,1564
186721115,1000,1000,1000,1000,199468514,1580,1580,1554,1558
186723614,1000,1000,1000,1000,199568474,1582,1580,1554,1555
186726113,1000,1000,1000,1000,199668434,1581,1579,1554,1552
186728612,1000,1000,1000,1000,199768394,1581,1580,1555,1553
186731111,1000,1000,1000,1000,199868354,1579,1580,1554,1552
186733610,1000,1000,1000,1000,199968314,1578,1579,1554,1552
186736109,1000,1000,1000,1000,200068274,1577,1579,1553,1553
186738608,1000,1000,1000,1000,200168234,1577,1579,1552,1552
186741107,1000,1000,1000,1000,200268194,1578,1579,1551,1550
186743606,1000,1000,1000,1000,200368154,1579,1581,1549,1549
186746105,1000,1000,1000,1000,200468947,1581,1582,1546,1546
186748604,1000,1000,1000,1000,200568907,1584,1585,1544,1544
186751103,1000,1000,1000,1000,200668867,1587,1588,1542,1541
186753602,1000,1000,1000,1000,200768827,1590,1591,1539,1539
186756101,1000,1000,1000,1000,200868787,1594,1594,1538,1538
186758600,1000,1000,1000,1000,200968747,1595,1595,1536,1536
186761099,1000,1000,1000,1000,201068707,1595,1596,1535,1536
186763598,1000,1000,1000,1000,201168667,1596,1596,1536,1539
186766097,1000,1000,1000,1000,201268627,1594,1594,1539,1542
186768596,1000,1000,1000,1000,201368587,1591,1589,1544,1548
186771095,1000,1000,1000,1000,201468547,1585,1581,1552,1555
186773594,1000,1000,1000,1000,201568507,1576,1573,1563,1566
186776093,1000,1000,1000,1000,201668467,1565,1561,1575,1577
186778592,1000,1000,1000,1000,201768427,1553,1550,1588,1588
186781091,1000,1000,1000,1000,201868387,1543,1541,1601,1600
186783590,1000,1000,1000,1000,201968347,1533,1533,1609,1608
186786089,1000,1000,1000,1000,202068307,1528,1529,1614,1613
186788588,1000,1000,1000,1000,202168267,1528,1530,1617,1616
186791087,1000,1000,1000,1000,202268227,1531,1534,1615,1614
186793586,1000,1000,1000,1000,202368187,1537,1539,1610,1610
186796085,1000,1000,1000,1000,202468980,1544,1546,1603,1603
186798584,1000,1000,1000,1000,202568940,1552,1554,1595,1595
186801083,1000,1000,1000,1000,202668900,1562,1562,1587,1587
186803582,1000,1000,1000,1000,202768860,1571,1570,1580,1579
186806081,1000,1000,1000,1000,202868820,1578,1577,1574,1573
186808580,1000,1000,1000,1000,202968780,1584,1582,1570,1569
186811079,1000,1000,1000,1000,203068740,1586,1585,1566,1566
186813578,1000,1000,1000,1000,203168700,1588,1587,1566,1566
186816077,1000,1000,1000,1000,203268660,1587,1586,1565,1565
186818576,1000,1000,1000,1000,203368620,1586,1585,1567,1568
186821075,1000,1000,1000,1000,203468580,1584,1584,1572,1571
186823574,1000,1000,1000,1000,203568540,1581,1581,1574,1574
186826073,1000,1000,1000,1000,203668500,1578,1578,1577,1577
186828572,1000,1000,1000,1000,203768460,1574,1575,1579,1579
186831071,1000,1000,1000,1000,203868420,1572,1573,1581,1581
186833570,1000,1000,1000,1000,203968380,1571,1572,1583,1583
186836069,1000,1000,1000,1000,204068340,1572,1573,1584,1584
186838568,1000,1000,1000,1000,204168300,1572,1572,1584,1584
186841067,1000,1000,1000,1000,204268260,1573,1573,1584,1584
186843566,1000,1000,1000,1000,204368220,1244,1557,1252,1565
186846065,1000,1000,1000,1000,204468180,1486,1539,1488,1549
186848564,1000,1000,1000,1000,204568973,1613,1579,1617,1583
186851063,1000,1000,1000,1000,204668933,1638,1549,1637,1554
186853562,1000,1000,1000,1000,204768893,1638,1563,1636,1570
186856061,1000,1000,1000,1000,204868853,1638,1582,1633,1588
186858560,1000,1000,1000,1000,204968813,1638,1590,1632,1596
186861059,1000,1000,1000,1000,205068773,1638,1605,1634,1608
186863558,1000,1000,1000,1000,205168733,1638,1623,1637,1615
186866057,1000,1000,1000,1000,205268693,1638,1661,1629,1614
186868556,1000,1000,1000,1000,205368653,1638,1694,1613,1612
186871055,1000,1000,1000,1000,205468613,1638,1697,1606,1623
186873554,1000,1000,1000,1000,205568573,1638,1672,1622,1654
186876053,1000,1000,1000,1000,205668533,1619,1628,1638,1667
186878552,1000,1000,1000,1000,205768493,1586,1579,1638,1656
186881051,1000,1000,1000,1000,205868453,1565,1554,1638,1651
186883550,1000,1000,1000,1000,205968413,1555,1546,1638,1648
186886049,1000,1000,1000,1000,206068373,1555,1551,1638,1644
186888548,1000,1000,1000,1000,206168333,1562,1563,1638,1641
186891047,1000,1000,1000,1000,206268293,1575,1577,1638,1638
186893546,1000,1000,1000,1000,206368253,1593,1596,1638,1641
186896045,1000,1000,1000,1000,206468213,1627,1627,1638,1648
186898544,1000,1000,1000,1000,206568173,1638,1634,1616,1619
186901043,1000,1000,1000,1000,206668966,1638,1634,1588,1583
186903542,1000,1000,1000,1000,206768926,1638,1637,1564,1557
186906041,1000,1000,1000,1000,206868886,1638,1640,1547,1542
186908540,1000,1000,1000,1000,206968846,1638,1643,1540,1540
186911039,1000,1000,1000,1000,207068806,1638,1644,1544,1547
186913538,1000,1000,1000,1000,207168766,1638,1643,1554,1558
186916037,1000,1000,1000,1000,207268726,1638,1642,1568,1570
186918536,1000,1000,1000,1000,207368686,1638,1640,1583,1583
186921035,1000,1000,1000,1000,207468646,1638,1619,1596,1598
186923534,1000,1000,1000,1000,207568606,1618,1607,1614,1594
186926033,1000,1000,1000,1000,207668566,1590,1587,1608,1588
186928532,1000,1000,1000,1000,207768526,1567,1572,1599,1591
186931031,1000,1000,1000,1000,207868486,1549,1558,1592,1594
186933530,1000,1000,1000,1000,207968446,1535,1545,1584,1593
186936029,1000,1000,1000,1000,208068406,1527,1535,1577,1588
186938528,1000,1000,1000,1000,208168366,1526,1532,1571,1579
186941027,1000,1000,1000,1000,208268326,1530,1533,1565,1569
186943526,1000,1000,1000,1000,208368286,1536,1536,1557,1556
186946025,1000,1000,1000,1000,208468246,1544,1543,1550,1546
186948524,1000,1000,1000,1000,208568206,1552,1550,1543,1538
186951023,1000,1000,1000,1000,208668166,1561,1559,1537,1533
186953522,1000,1000,1000,1000,208768959,1567,1565,1530,1529
186956021,1000,1000,1000,1000,208868919,1574,1572,1526,1527
186958520,1000,1000,1000,1000,208968879,1578,1577,1523,1524
186961019,1000,1000,1000,1000,209068839,1583,1582,1522,1524
186963518,1000,1000,1000,1000,209168799,1586,1586,1523,1524
186966017,1000,1000,1000,1000,209268759,1589,1589,1523,1523
186968516,1000,1000,1000,1000,209368719,1591,1591,1524,1523
186971015,1000,1000,1000,1000,209468679,1592,1593,1525,1524
186973514,1000,1000,1000,1000,209568639,1594,1595,1526,1525
186976013,1000,1000,1000,1000,209668599,1595,1596,1527,1526
186978512,1000,1000,1000,1000,209768559,1595,1595,1528,1528
186981011,1000,1000,1000,1000,209868519,1585,1579,1540,1546
186983510,1000,1000,1000,1000,209968479,1558,1549,1568,1579
186986009,1000,1000,1000,1000,210068439,1529,1523,1595,1602
186988508,1000,1000,1000,1000,210168399,1507,1509,1616,1619
186991007,1000,1000,1000,1000,210268359,1496,1504,1629,1625
186993506,1000,1000,1000,1000,210368319,1510,1526,1621,1602
186996005,1000,1000,1000,1000,210468279,1547,1566,1588,1563
186998504,1000,1000,1000,1000,210568239,1584,1596,1547,1533
187001003,1000,1000,1000,1000,210668199,1611,1611,1516,1519
187003502,1000,1000,1000,1000,210768159,1632,1620,1497,1512
187006001,1000,1000,1000,1000,210868952,1638,1615,1481,1499
187008500,1000,1000,1000,1000,210968912,1638,1617,1484,1501
187010999,1000,1000,1000,1000,211068872,1638,1622,1502,1514
187013498,1000,1000,1000,1000,211168832,1625,1609,1536,1543
187015997,1000,1000,1000,1000,211268792,1587,1575,1565,1568
187018496,1000,1000,1000,1000,211368752,1547,1546,1596,1596
187020995,1000,1000,1000,1000,211468712,1514,1526,1625,1621
187023494,1000,1000,1000,1000,211568672,1485,1503,1638,1628
187025993,1000,1000,1000,1000,211668632,1472,1493,1638,1626
187028492,1000,1000,1000,1000,211768592,1483,1504,1638,1629
187030991,1000,1000,1000,1000,211868552,1507,1523,1638,1634
187033490,1000,1000,1000,1000,211968512,1535,1543,1638,1638
187035989,1000,1000,1000,1000,212068472,1553,1549,1628,1630
187038488,1000,1000,1000,1000,212168432,1559,1548,1609,1612
187040987,1000,1000,1000,1000,212268392,1566,1553,1593,1597
187043486,1000,1000,1000,1000,212368352,1573,1563,1578,1581
187045985,1000,1000,1000,1000,212468312,1579,1575,1564,1565
187048484,1000,1000,1000,1000,212568272,1586,1586,1553,1553
187050983,1000,1000,1000,1000,212668232,1592,1594,1545,1545
187053482,1000,1000,1000,1000,212768192,1595,1597,1541,1541
187055981,1000,1000,1000,1000,212868985,1598,1597,1541,1542
187058480,1000,1000,1000,1000,212968945,1597,1595,1543,1545
187060979,1000,1000,1000,1000,213068905,1594,1590,1548,1550
187063478,1000,1000,1000,1000,213168865,1590,1586,1555,1556
187065977,1000,1000,1000,1000,213268825,1585,1582,1563,1563
187068476,1000,1000,1000,1000,213368785,1579,1578,1572,1570
187070975,1000,1000,1000,1000,213468745,1574,1576,1579,1578
187073474,1000,1000,1000,1000,213568705,1570,1573,1586,1583
187075973,1000,1000,1000,1000,213668665,1567,1571,1590,1588
187078472,1000,1000,1000,1000,213768625,1566,1570,1593,1591
187080971,1000,1000,1000,1000,213868585,1567,1570,1594,1592
187083470,1000,1000,1000,1000,213968545,1568,1570,1593,1592
187085969,1000,1000,1000,1000,214068505,1570,1571,1591,1591
187088468,1000,1000,1000,1000,214168465,1572,1572,1588,1588
187090967,1000,1000,1000,1000,214268425,1575,1574,1585,1585
187093466,1000,1000,1000,1000,214368385,1578,1576,1581,1582
187095965,1000,1000,1000,1000,214468345,1580,1580,1579,1580
187098464,1000,1000,1000,1000,214568305,1582,1581,1576,1576
187100963,1000,1000,1000,1000,214668265,1583,1582,1574,1575
187103462,1000,1000,1000,1000,214768225,1584,1584,1573,1574
187105961,1000,1000,1000,1000,214868185,1585,1584,1573,1574
187108460,1000,1000,1000,1000,214968978,1585,1585,1574,1574
187110959,1000,1000,1000,1000,215068938,1585,1585,1576,1576
187113458,1000,1000,1000,1000,215168898,1584,1584,1576,1577
187115957,1000,1000,1000,1000,215268858,1585,1584,1579,1579
187118456,1000,1000,1000,1000,215368818,1584,1583,1581,1581
187120955,1000,1000,1000,1000,215468778,1582,1583,1582,1582
187123454,1000,1000,1000,1000,215568738,1581,1582,1583,1583
187125953,1000,1000,1000,1000,215668698,1581,1581,1584,1584
187128452,1000,1000,1000,1000,215768658,1580,1581,1585,1585
187130951,1000,1000,1000,1000,215868618,1580,1581,1586,1585
187133450,1000,1000,1000,1000,215968578,1579,1580,1585,1584
187135949,1000,1000,1000,1000,216068538,1579,1580,1584,1584
187138448,1000,1000,1000,1000,216168498,1580,1580,1584,1584
187140947,1000,1000,1000,1000,216268458,1579,1580,1582,1582
187143446,1000,1000,1000,1000,216368418,1581,1581,1582,1583
187145945,1000,1000,1000,1000,216468378,1582,1581,1582,1583
187148444,1000,1000,1000,1000,216568338,1581,1581,1580,1580
187150943,1000,1000,1000,1000,216668298,1582,1582,1581,1581
187153442,1000,1000,1000,1000,216768258,1582,1582,1580,1580
187155941,1000,1000,1000,1000,216868218,1582,1583,1580,1580
187158440,1000,1000,1000,1000,216968178,1583,1583,1581,1581
187160939,1000,1000,1000,1000,217068971,1583,1583,1583,1577
187163438,1000,1000,1000,1000,217168931,1582,1584,1586,1572
187165937,1000,1000,1000,1000,217268891,1582,1584,1582,1573
187168436,1000,1000,1000,1000,217368851,1580,1582,1575,1573
187170935,1000,1000,1000,1000,217468811,1577,1579,1567,1571
187173434,1000,1000,1000,1000,217568771,1576,1578,1560,1567
187175933,1000,1000,1000,1000,217668731,1576,1576,1555,1562
187178432,1000,1000,1000,1000,217768691,1577,1577,1554,1559
187180931,1000,1000,1000,1000,217868651,1578,1577,1554,1556
187183430,1000,1000,1000,1000,217968611,1579,1578,1554,1554
187185929,1000,1000,1000,1000,218068571,1579,1578,1555,1553
187188428,1000,1000,1000,1000,218168531,1578,1579,1556,1553
187190927,1000,1000,1000,1000,218268491,1579,1580,1556,1555
187193426,1000,1000,1000,1000,218368451,1578,1580,1556,1555
187195925,1000,1000,1000,1000,218468411,1578,1579,1555,1554
187198424,1000,1000,1000,1000,218568371,1577,1578,1553,1552
187200923,1000,1000,1000,1000,218668331,1578,1579,1551,1552
187203422,1000,1000,1000,1000,218768291,1580,1581,1551,1551
187205921,1000,1000,1000,1000,218868251,1581,1583,1549,1548
187208420,1000,1000,1000,1000,218968211,1584,1585,1548,1547
187210919,1000,1000,1000,1000,219068171,1586,1587,1545,1544
187213418,1000,1000,1000,1000,219168964,1589,1589,1544,1544
187215917,1000,1000,1000,1000,219268924,1591,1591,1541,1542
187218416,1000,1000,1000,1000,219368884,1593,1594,1540,1542
187220915,1000,1000,1000,1000,219468844,1594,1594,1539,1540
187223414,1000,1000,1000,1000,219568804,1594,1594,1540,1542
187225913,1000,1000,1000,1000,219668764,1593,1591,1542,1546
187228412,1000,1000,1000,1000,219768724,1590,1586,1547,1551
187230911,1000,1000,1000,1000,219868684,1585,1581,1555,1559
187233410,1000,1000,1000,1000,219968644,1577,1573,1564,1567
187235909,1000,1000,1000,1000,220068604,1568,1564,1575,1577
187238408,1000,1000,1000,1000,220168564,1559,1556,1586,1588
187240907,1000,1000,1000,1000,220268524,1550,1550,1597,1597
187243406,1000,1000,1000,1000,220368484,1542,1545,1605,1604
187245905,1000,1000,1000,1000,220468444,1538,1542,1611,1609
187248404,1000,1000,1000,1000,220568404,1537,1540,1614,1612
187250903,1000,1000,1000,1000,220668364,1539,1543,1615,1613
187253402,1000,1000,1000,1000,220768324,1542,1545,1612,1609
187255901,1000,1000,1000,1000,220868284,1547,1548,1607,1604
187258400,1000,1000,1000,1000,220968244,1553,1553,1601,1600
187260899,1000,1000,1000,1000,221068204,1559,1558,1593,1593
187263398,1000,1000,1000,1000,221168164,1565,1564,1586,1587
187265897,1000,1000,1000,1000,221268957,1571,1570,1578,1580
187268396,1000,1000,1000,1000,221368917,1577,1575,1573,1575
187270895,1000,1000,1000,1000,221468877,1581,1579,1568,1569
187273394,1000,1000,1000,1000,221568837,1583,1581,1565,1566
187275893,1000,1000,1000,1000,221668797,1585,1583,1564,1565
187278392,1000,1000,1000,1000,221768757,1586,1584,1565,1566
187280891,1000,1000,1000,1000,221868717,1585,1583,1566,1566
187283390,1000,1000,1000,1000,221968677,1583,1583,1569,1569
187285889,1000,1000,1000,1000,222068637,1582,1581,1572,1571
187288388,1000,1000,1000,1000,222168597,1580,1580,1575,1575
187290887,1000,1000,1000,1000,222268557,1577,1578,1578,1577
187293386,1000,1000,1000,1000,222368517,1576,1577,1581,1580
187295885,1000,1000,1000,1000,222468477,1575,1577,1584,1583
187298384,1000,1000,1000,1000,222568437,1574,1575,1585,1584
187300883,1000,1000,1000,1000,222668397,1573,1574,1585,1585
187303382,1000,1000,1000,1000,222768357,1572,1573,1585,1583
187305881,1000,1000,1000,1000,222868317,1573,1574,1584,1584
187308380,1000,1000,1000,1000,222968277,1574,1575,1583,1583
187310879,1000,1000,1000,1000,223068237,1575,1576,1582,1582
187313378,1000,1000,1000,1000,223168197,1576,1577,1580,1580
187315877,1000,1000,1000,1000,223268157,1578,1578,1579,1580
187318376,1000,1000,1000,1000,223368950,1579,1579,1578,1578
187320875,1000,1000,1000,1000,223468910,1580,1580,1577,1577
187323374,1000,1000,1000,1000,223568870,1581,1581,1577,1577
187325873,1000,1000,1000,1000,223668830,1582,1581,1577,1577
187328372,1000,1000,1000,1000,223768790,1582,1582,1577,1577
187330871,1000,1000,1000,1000,223868750,1582,1582,1577,1578
187333370,1000,1000,1000,1000,223968710,1582,1582,1578,1578
187335869,1000,1000,1000,1000,224068670,1582,1582,1579,1579
187338368,1000,1000,1000,1000,224168630,1582,1582,1580,1580
187340867,1000,1000,1000,1000,224268590,1582,1581,1580,1581
187343366,1000,1000,1000,1000,224368550,1580,1581,1581,1581
187345865,1000,1000,1000,1000,224468510,1580,1580,1581,1581
187348364,1000,1000,1000,1000,224568470,1580,1580,1581,1581
187350863,1000,1000,1000,1000,224668430,1580,1579,1582,1582
187353362,1000,1000,1000,1000,224768390,1579,1579,1582,1581
187355861,1000,1000,1000,1000,224868350,1579,1579,1581,1581
187358360,1000,1000,1000,1000,224968310,1579,1580,1582,1579
187360859,1000,1000,1000,1000,225068270,1579,1581,1587,1572
187363358,1000,1000,1000,1000,225168230,1579,1579,1584,1573
187365857,1000,1000,1000,1000,225268190,1577,1577,1578,1575
187368356,1000,1000,1000,1000,225368983,1574,1573,1572,1575
187370855,1000,1000,1000,1000,225468943,1571,1569,1567,1574
187373354,1000,1000,1000,1000,225568903,1569,1568,1564,1572
187375853,1000,1000,1000,1000,225668863,1567,1567,1564,1568
187378352,1000,1000,1000,1000,225768823,1566,1567,1564,1566
187380851,1000,1000,1000,1000,225868783,1567,1568,1566,1566
187383350,1000,1000,1000,1000,225968743,1566,1566,1566,1564
187385849,1000,1000,1000,1000,226068703,1566,1565,1567,1563
187388348,1000,1000,1000,1000,226168663,1565,1565,1566,1563
187390847,1000,1000,1000,1000,226268623,1565,1564,1565,1565
187393346,1000,1000,1000,1000,226368583,1563,1563,1564,1564
187395845,1000,1000,1000,1000,226468543,1563,1562,1564,1564
187398344,1000,1000,1000,1000,226568503,1562,1562,1562,1563
187400843,1000,1000,1000,1000,226668463,1562,1561,1562,1562
187403342,1000,1000,1000,1000,226768423,1561,1561,1562,1562
187405841,1000,1000,1000,1000,226868383,1561,1561,1562,1562
187408340,1000,1000,1000,1000,226968343,1560,1560,1561,1560
187410839,1000,1000,1000,1000,227068303,1560,1560,1561,1559
187413338,1000,1000,1000,1000,227168263,1560,1560,1561,1560
187415837,1000,1000,1000,1000,227268223,1560,1560,1560,1559
187418336,1000,1000,1000,1000,227368183,1559,1559,1560,1559
187420835,1000,1000,1000,1000,227468976,1559,1559,1560,1559
187423334,1000,1000,1000,1000,227568936,1560,1559,1560,1559
187425833,1000,1000,1000,1000,227668896,1561,1560,1562,1558
187428332,1000,1000,1000,1000,227768856,1561,1559,1561,1559
187430831,1000,1000,1000,1000,227868816,1561,1560,1559,1562
187433330,1000,1000,1000,1000,227968776,1561,1561,1558,1564
187435829,1000,1000,1000,1000,228068736,1561,1562,1558,1564
187438328,1000,1000,1000,1000,228168696,1562,1562,1559,1564
187440827,1000,1000,1000,1000,228268656,1562,1562,1560,1563
187443326,1000,1000,1000,1000,228368616,1560,1560,1560,1559
187445825,1000,1000,1000,1000,228468576,1561,1560,1561,1558
187448324,1000,1000,1000,1000,228568536,1559,1558,1558,1558
187450823,1000,1000,1000,1000,228668496,1555,1554,1554,1555
187453322,1000,1000,1000,1000,228768456,1551,1550,1549,1551
187455821,1000,1000,1000,1000,228868416,1544,1544,1544,1544
187458320,1000,1000,1000,1000,228968376,1538,1538,1538,1538
187460819,1000,1000,1000,1000,229068336,1531,1531,1531,1531
187463318,1000,1000,1000,1000,229168296,1523,1524,1524,1524
187465817,1000,1000,1000,1000,229268256,1519,1519,1519,1520
187468316,1000,1000,1000,1000,229368216,1517,1519,1518,1520
187470815,1000,1000,1000,1000,229468176,1518,1520,1518,1520
187473314,1000,1000,1000,1000,229568969,1519,1521,1520,1521
187475813,1000,1000,1000,1000,229668929,1524,1525,1524,1526
187478312,1000,1000,1000,1000,229768889,1528,1528,1528,1528
187480811,1000,1000,1000,1000,229868849,1534,1533,1534,1534
187483310,1000,1000,1000,1000,229968809,1538,1536,1538,1536
187485809,1000,1000,1000,1000,230068769,1540,1538,1541,1538
187488308,1000,1000,1000,1000,230168729,1542,1540,1542,1540
187490807,1000,1000,1000,1000,230268689,1543,1543,1544,1542
187493306,1000,1000,1000,1000,230368649,1545,1544,1545,1544
187495805,1000,1000,1000,1000,230468609,1546,1546,1546,1546
187498304,1000,1000,1000,1000,230568569,1547,1547,1546,1546
187500803,1000,1000,1000,1000,230668529,1546,1546,1546,1546
187503302,1000,1000,1000,1000,230768489,1546,1547,1546,1546
187505801,1000,1000,1000,1000,230868449,1546,1546,1546,1545
187508300,1000,1000,1000,1000,230968409,1546,1546,1546,1546
187510799,1000,1000,1000,1000,231068369,1545,1545,1545,1545
187513298,1000,1000,1000,1000,231168329,1545,1546,1545,1546
187515797,1000,1000,1000,1000,231268289,1545,1545,1545,1545
187518296,1000,1000,1000,1000,231368249,1545,1545,1545,1545
187520795,1000,1000,1000,1000,231468209,1545,1544,1545,1544
187523294,1000,1000,1000,1000,231568169,1545,1545,1545,1545
187525793,1000,1000,1000,1000,231668962,1545,1545,1545,1545
187528292,1000,1000,1000,1000,231768922,1545,1544,1545,1544
187530791,1000,1000,1000,1000,231868882,1544,1544,1544,1544
187533290,1000,1000,1000,1000,231968842,1544,1544,1544,1544
187535789,1000,1000,1000,1000,232068802,1544,1544,1544,1544
187538288,1000,1000,1000,1000,232168762,1543,1544,1544,1543
187540787,1000,1000,1000,1000,232268722,1544,1544,1544,1544
187543286,1000,1000,1000,1000,232368682,1544,1544,1544,1544
187545785,1000,1000,1000,1000,232468642,1544,1544,1544,1544
187548284,1000,1000,1000,1000,232568602,1544,1544,1544,1544
187550783,1000,1000,1000,1000,232668562,1545,1544,1544,1545
187553282,1000,1000,1000,1000,232768522,1544,1543,1544,1544
187555781,1000,1000,1000,1000,232868482,1544,1544,1544,1543
187558280,1000,1000,1000,1000,232968442,1543,1543,1543,1542
187560779,1000,1000,1000,1000,233068402,1544,1543,1544,1544
187563278,1000,1000,1000,1000,233168362,1543,1544,1543,1543
187565777,1000,1000,1000,1000,233268322,1543,1543,1543,1543
187568276,1000,1000,1000,1000,233368282,1543,1543,1543,1543
187570775,1000,1000,1000,1000,233468242,1544,1543,1543,1544
187573274,1000,1000,1000,1000,233568202,1544,1544,1544,1544
187575773,1000,1000,1000,1000,233668162,1543,1543,1543,1543
187578272,1000,1000,1000,1000,233768955,1544,1544,1544,1544
187580771,1000,1000,1000,1000,233868915,1544,1544,1544,1544
187583270,1000,1000,1000,1000,233968875,1544,1545,1544,1544
187585769,1000,1000,1000,1000,234068835,1544,1544,1544,1543
187588268,1000,1000,1000,1000,234168795,1545,1544,1545,1544
187590767,1000,1000,1000,1000,234268755,1545,1545,1545,1545
187593266,1000,1000,1000,1000,234368715,1544,1545,1544,1545
187595765,1000,1000,1000,1000,234468675,1544,1544,1544,1544
187598264,1000,1000,1000,1000,234568635,1544,1544,1544,1544
187600763,1000,1000,1000,1000,234668595,1545,1545,1545,1545
187603262,1000,1000,1000,1000,234768555,1544,1543,1544,1544
187605761,1000,1000,1000,1000,234868515,1543,1543,1543,1544
187608260,1000,1000,1000,1000,234968475,1544,1544,1544,1544
187610759,1000,1000,1000,1000,235068435,1543,1544,1543,1543
187613258,1000,1000,1000,1000,235168395,1544,1544,1544,1544
187615757,1000,1000,1000,1000,235268355,1543,1544,1544,1544
187618256,1000,1000,1000,1000,235368315,1544,1544,1544,1544
187620755,1000,1000,1000,1000,235468275,1544,1544,1544,1544
187623254,1000,1000,1000,1000,235568235,1544,1544,1544,1544
187625753,1000,1000,1000,1000,235668195,1545,1545,1545,1545
187628252,1000,1000,1000,1000,235768155,1544,1544,1545,1544
187630751,1000,1000,1000,1000,235868948,1544,1544,1544,1544
187633250,1000,1000,1000,1000,235968908,1544,1544,1544,1544
187635749,1000,1000,1000,1000,236068868,1544,1545,1545,1544
187638248,1000,1000,1000,1000,236168828,1545,1545,1545,1545
187640747,1000,1000,1000,1000,236268788,1545,1545,1545,1545
187643246,1000,1000,1000,1000,236368748,1545,1545,1545,1545
187645745,1000,1000,1000,1000,236468708,1544,1544,1544,1544
187648244,1000,1000,1000,1000,236568668,1545,1546,1545,1546
187650743,1000,1000,1000,1000,236668628,1545,1545,1545,1545
187653242,1000,1000,1000,1000,236768588,1544,1545,1545,1544
187655741,1000,1000,1000,1000,236868548,1544,1544,1545,1544
187658240,1000,1000,1000,1000,236968508,1544,1545,1545,1544
187660739,1000,1000,1000,1000,237068468,1544,1544,1544,1545
187663238,1000,1000,1000,1000,237168428,1545,1545,1545,1545
187665737,1000,1000,1000,1000,237268388,1543,1544,1544,1543
187668236,1000,1000,1000,1000,237368348,1543,1543,1544,1543
187670735,1000,1000,1000,1000,237468308,1544,1544,1544,1544
187673234,1000,1000,1000,1000,237568268,1545,1545,1545,1545
187675733,1000,1000,1000,1000,237668228,1545,1545,1545,1544
187678232,1000,1000,1000,1000,237768188,1544,1544,1544,1544
187680731,1000,1000,1000,1000,237868981,1544,1544,1544,1544
187683230,1000,1000,1000,1000,237968941,1544,1544,1544,1544
187685729,1000,1000,1000,1000,238068901,1545,1544,1544,1545
187688228,1000,1000,1000,1000,238168861,1544,1545,1544,1545
187690727,1000,1000,1000,1000,238268821,1544,1545,1544,1544
187693226,1000,1000,1000,1000,238368781,1545,1545,1545,1545
187695725,1000,1000,1000,1000,238468741,1544,1544,1544,1544
187698224,1000,1000,1000,1000,238568701,1545,1545,1544,1545
187700723,1000,1000,1000,1000,238668661,1544,1544,1544,1544
187703222,1000,1000,1000,1000,238768621,1544,1544,1544,1544
187705721,1000,1000,1000,1000,238868581,1544,1544,1544,1544
187708220,1000,1000,1000,1000,238968541,1536,1535,1538,1533
187710719,1000,1000,1000,1000,239068501,1410,1346,1412,1343
187713218,1000,1000,1000,1000,239168461,1352,1246,1354,1243
187715717,1000,1000,1000,1000,239268421,1334,1214,1337,1210
187718216,1000,1000,1000,1000,239368381,1323,1193,1326,1189
187720715,1000,1000,1000,1000,239468341,1305,1154,1308,1150
187723214,1000,1000,1000,1000,239568301,1229,1153,1231,1150
187725713,1000,1000,1000,1000,239668261,1131,1152,1133,1150
187728212,1000,1000,1000,1000,239768221,1018,1151,1020,1150
187730711,1000,1000,1000,1000,239868181,1009,1151,1011,1150
187733210,1000,1000,1000,1000,239968974,1009,1151,1011,1150
187735709,1000,1000,1000,1000,240068934,1010,1150,1010,1151
187738208,1000,1000,1000,1000,240168894,1011,1150,997,1169
187740707,1000,1000,1000,1000,240268854,1010,1150,1002,1162
187743206,1000,1000,1000,1000,240368814,1010,1150,1004,1160
187745705,1000,1000,1000,1000,240468774,1010,1150,1004,1160
187748204,1000,1000,1000,1000,240568734,1010,1150,1003,1161
187750703,1000,1000,1000,1000,240668694,1010,1150,1002,1162
187753202,1000,1000,1000,1000,240768654,1010,1150,1002,1163
187755701,1000,1000,1000,1000,240868614,1009,1151,1012,1150
187758200,1000,1000,1000,1000,240968574,1010,1150,1008,1155
187760699,1000,1000,1000,1000,241068534,1010,1150,1007,1156
187763198,1000,1000,1000,1000,241168494,1010,1150,1007,1156
187765697,1000,1000,1000,1000,241268454,1010,1150,1007,1157
187768196,1000,1000,1000,1000,241368414,836,1148,836,1148
187770695,1000,1000,1000,1000,241468374,1000,1000,1000,1000
187773194,1000,1000,1000,1000,241568334,1000,1000,1000,1000
187775693,1000,1000,1000,1000,241668294,1000,1000,1000,1000
187778192,1000,1000,1000,1000,241768254,1000,1000,1000,1000
187780691,1000,1000,1000,1000,241868214,1000,1000,1000,1000
187783190,1000,1000,1000,1000,241968174,1000,1000,1000,1000
187785689,1000,1000,1000,1000,242068967,1000,1000,1000,1000
187788188,1000,1000,1000,1000,242168927,1000,1000,1000,1000
187790687,1000,1000,1000,1000,242268887,1000,1000,1000,1000
187793186,1000,1000,1000,1000,242368847,1000,1000,1000,1000
187795685,1000,1000,1000,1000,242468807,1000,1000,1000,1000
187798184,1000,1000,1000,1000,242568767,1000,1000,1000,1000
187800683,1000,1000,1000,1000,242668727,1000,1000,1000,1000
187803182,1000,1000,1000,1000,242768687,1000,1000,1000,1000
187805681,1000,1000,1000,1000,242868647,1000,1000,1000,1000
187808180,1000,1000,1000,1000,242968607,1000,1000,1000,1000
187810679,1000,1000,1000,1000,243068567,1000,1000,1000,1000
187813178,1000,1000,1000,1000,243168527,1000,1000,1000,1000
187815677,1000,1000,1000,1000,243268487,1000,1000,1000,1000
187818176,1000,1000,1000,1000,243368447,1000,1000,1000,1000
187820675,1000,1000,1000,1000,243468407,1000,1000,1000,1000
187823174,1000,1000,1000,1000,243568367,1000,1000,1000,1000
187825673,1000,1000,1000,1000,243668327,1000,1000,1000,1000
187828172,1000,1000,1000,1000,243768287,1000,1000,1000,1000
187830671,1000,1000,1000,1000,243868247,1000,1000,1000,1000
187833170,1000,1000,1000,1000,243968207,1000,1000,1000,1000
187835669,1000,1000,1000,1000,244068167,1000,1000,1000,1000
187838168,1000,1000,1000,1000,244168960,1000,1000,1000,1000
187840667,1000,1000,1000,1000,244268920,1000,1000,1000,1000
187843166,1000,1000,1000,1000,244368880,1000,1000,1000,1000
187845665,1000,1000,1000,1000,244468840,1000,1000,1000,1000
187848164,1000,1000,1000,1000,244568800,1000,1000,1000,1000
187850663,1000,1000,1000,1000,244668760,1000,1000,1000,1000
187853162,1000,1000,1000,1000,244768720,1000,1000,1000,1000
187855661,1000,1000,1000,1000,244868680,1000,1000,1000,1000
187858160,1000,1000,1000,1000,244968640,1000,1000,1000,1000
187860659,1000,1000,1000,1000,245068600,1000,1000,1000,1000
187863158,1000,1000,1000,1000,245168560,1000,1000,1000,1000
187865657,1000,1000,1000,1000,245268520,1000,1000,1000,1000
187868156,1000,1000,1000,1000,245368480,1000,1000,1000,1000
187870655,1000,1000,1000,1000,245468440,1000,1000,1000,1000
187873154,1000,1000,1000,1000,245568400,1000,1000,1000,1000
187876486,1000,1000,1000,1000,245668360,1000,1000,1000,1000
187878985,1000,1000,1000,1000,245768320,1000,1000,1000,1000
187881484,1000,1000,1000,1000,245868280,1000,1000,1000,1000
187883983,1000,1000,1000,1000,245968240,1000,1000,1000,1000
187886482,1000,1000,1000,1000,246068200,1000,1000,1000,1000
187888981,1000,1000,1000,1000,246168160,1000,1000,1000,1000
187891480,1000,1000,1000,1000,246268953,1000,1000,1000,1000
187893979,1000,1000,1000,1000,246368913,1000,1000,1000,1000
187896478,1000,1000,1000,1000,246468873,1000,1000,1000,1000
187898977,1000,1000,1000,1000,246568833,1000,1000,1000,1000
187901476,1000,1000,1000,1000,246668793,1000,1000,1000,1000
187903975,1000,1000,1000,1000,246768753,1000,1000,1000,1000
187906474,1000,1000,1000,1000,246868713,1000,1000,1000,1000
187908973,1000,1000,1000,1000,246968673,1000,1000,1000,1000
187911472,1000,1000,1000,1000,247068633,1000,1000,1000,1000
187913971,1000,1000,1000,1000,247168593,1000,1000,1000,1000
187916470,1000,1000,1000,1000,247268553,1000,1000,1000,1000
187918969,1000,1000,1000,1000,247368513,1000,1000,1000,1000
187921468,1000,1000,1000,1000,247468473,1000,1000,1000,1000
187923967,1000,1000,1000,1000,247568433,1000,1000,1000,1000
187926466,1000,1000,1000,1000,247668393,1000,1000,1000,1000
187928965,1000,1000,1000,1000,247768353,1000,1000,1000,1000
187931464,1000,1000,1000,1000,247868313,1000,1000,1000,1000
187933963,1000,1000,1000,1000,247968273,1000,1000,1000,1000
187936462,1000,1000,1000,1000,248068233,1000,1000,1000,1000
187938961,1000,1000,1000,1000,248168193,1000,1000,1000,1000
187941460,1000,1000,1000,1000,248268986,1000,1000,1000,1000
187943959,1000,1000,1000,1000,248368946,1000,1000,1000,1000
187946458,1000,1000,1000,1000,248468906,1000,1000,1000,1000
187948957,1000,1000,1000,1000,248568866,1000,1000,1000,1000
187951456,1000,1000,1000,1000,248668826,1000,1000,1000,1000
187953955,1000,1000,1000,1000,248768786,1000,1000,1000,1000
187956454,1000,1000,1000,1000,248868746,1000,1000,1000,1000
187958953,1000,1000,1000,1000,248968706,1000,1000,1000,1000
187961452,1000,1000,1000,1000,249068666,1000,1000,1000,1000
187963951,1000,1000,1000,1000,249168626,1000,1000,1000,1000
187966450,1000,1000,1000,1000,249268586,1000,1000,1000,1000
187968949,1000,1000,1000,1000,249368546,1000,1000,1000,1000
187971448,1000,1000,1000,1000,249468506,1000,1000,1000,1000
187973947,1000,1000,1000,1000,249568466,1000,1000,1000,1000
187976446,1000,1000,1000,1000,249668426,1000,1000,1000,1000
187978945,1000,1000,1000,1000,249768386,1000,1000,1000,1000
187981444,1000,1000,1000,1000,249868346,1000,1000,1000,1000
187983943,1000,1000,1000,1000,249968306,1000,1000,1000,1000
187986442,1000,1000,1000,1000,250068266,1000,1000,1000,1000
187988941,1000,1000,1000,1000,250168226,1000,1000,1000,1000
187991440,1000,1000,1000,1000,250268186,1000,1000,1000,1000
187993939,1000,1000,1000,1000,250368979,1000,1000,1000,1000
187996438,1000,1000,1000,1000,250468939,1000,1000,1000,1000
187998937,1000,1000,1000,1000,250568899,1000,1000,1000,1000
188001436,1000,1000,1000,1000,250668859,1000,1000,1000,1000
188003935,1000,1000,1000,1000,250768819,1000,1000,1000,1000
188006434,1000,1000,1000,1000,250868779,1000,1000,1000,1000
188008933,1000,1000,1000,1000,250968739,1000,1000,1000,1000
188011432,1000,1000,1000,1000,251068699,1000,1000,1000,1000
188013931,1000,1000,1000,1000,251168659,1000,1000,1000,1000
188016430,1000,1000,1000,1000,251268619,1000,1000,1000,1000
188018929,1000,1000,1000,1000,251368579,1000,1000,1000,1000
188021428,1000,1000,1000,1000,251468539,1000,1000,1000,1000
188023927,1000,1000,1000,1000,251568499,1000,1000,1000,1000
188026426,1000,1000,1000,1000,251668459,1000,1000,1000,1000
188028925,1000,1000,1000,1000,251768419,1000,1000,1000,1000
188031424,1000,1000,1000,1000,251868379,1000,1000,1000,1000
188033923,1000,1000,1000,1000,251968339,1000,1000,1000,1000
188036422,1000,1000,1000,1000,252068299,1000,1000,1000,1000
188038921,1000,1000,1000,1000,252168259,1000,1000,1000,1000
188041420,1000,1000,1000,1000,252268219,1000,1000,1000,1000
188043919,1000,1000,1000,1000,252368179,1000,1000,1000,1000
188046418,1000,1000,1000,1000,252468972,1000,1000,1000,1000
188048917,1000,1000,1000,1000,252568932,1000,1000,1000,1000
188051416,1000,1000,1000,1000,252668892,1000,1000,1000,1000
188053915,1000,1000,1000,1000,252768852,1000,1000,1000,1000
188056414,1000,1000,1000,1000,252868812,1000,1000,1000,1000
188058913,1000,1000,1000,1000,252968772,1000,1000,1000,1000
188061412,1000,1000,1000,1000,253068732,1000,1000,1000,1000
188063911,1000,1000,1000,1000,253168692,1000,1000,1000,1000
188066410,1000,1000,1000,1000,253268652,1000,1000,1000,1000
188068909,1000,1000,1000,1000,253368612,1000,1000,1000,1000
188071408,1000,1000,1000,1000,253468572,1000,1000,1000,1000
188073907,1000,1000,1000,1000,253568532,1000,1000,1000,1000
188076406,1000,1000,1000,1000,253668492,1000,1000,1000,1000
188078905,1000,1000,1000,1000,253768452,1000,1000,1000,1000
188081404,1000,1000,1000,1000,253868412,1000,1000,1000,1000
188083903,1000,1000,1000,1000,253968372,1000,1000,1000,1000
188086402,1000,1000,1000,1000,254068332,1000,1000,1000,1000
188088901,1000,1000,1000,1000,254168292,1000,1000,1000,1000
188091400,1000,1000,1000,1000,254268252,1000,1000,1000,1000
188093899,1000,1000,1000,1000,254368212,1000,1000,1000,1000
188096398,1000,1000,1000,1000,254468172,1000,1000,1000,1000
188098897,1000,1000,1000,1000,254568965,1000,1000,1000,1000
188101396,1000,1000,1000,1000,254668925,1000,1000,1000,1000
188103895,1000,1000,1000,1000,254768885,1000,1000,1000,1000
188106394,1000,1000,1000,1000,254868845,1000,1000,1000,1000
188108893,1000,1000,1000,1000,254968805,1000,1000,1000,1000
188111392,1000,1000,1000,1000,255068765,1000,1000,1000,1000
188113891,1000,1000,1000,1000,255168725,1000,1000,1000,1000
188116390,1000,1000,1000,1000,255268685,1000,1000,1000,1000
188118889,1000,1000,1000,1000,255368645,1000,1000,1000,1000
188121388,1000,1000,1000,1000,255468605,1000,1000,1000,1000
188123887,1000,1000,1000,1000,255568565,1000,1000,1000,1000
188126386,1000,1000,1000,1000,255668525,1000,1000,1000,1000
188128885,1000,1000,1000,1000,255768485,1000,1000,1000,1000
188131384,1000,1000,1000,1000,255868445,1000,1000,1000,1000
188133883,1000,1000,1000,1000,255968405,1000,1000,1000,1000
188136382,1000,1000,1000,1000,256068365,1000,1000,1000,1000
188138881,1000,1000,1000,1000,256168325,1000,1000,1000,1000
188141380,1000,1000,1000,1000,256268285,1000,1000,1000,1000
188143879,1000,1000,1000,1000,,,,,
188146378,1000,1000,1000,1000,,,,,
188148877,1000,1000,1000,1000,,,,,
188151376,1000,1000,1000,1000,,,,,
188153875,1000,1000,1000,1000,,,,,
188156374,1000,1000,1000,1000,,,,,
188158873,1000,1000,1000,1000,,,,,
188161372,1000,1000,1000,1000,,,,,
188163871,1000,1000,1000,1000,,,,,
188166370,1000,1000,1000,1000,,,,,
188168869,1000,1000,1000,1000,,,,,
188171368,1000,1000,1000,1000,,,,,
188173867,1000,1000,1000,1000,,,,,
188176366,1000,1000,1000,1000,,,,,
188178865,1000,1000,1000,1000,,,,,
188181364,1000,1000,1000,1000,,,,,
188183863,1000,1000,1000,1000,,,,,
188186362,1000,1000,1000,1000,,,,,
188188861,1000,1000,1000,1000,,,,,
188191360,1000,1000,1000,1000,,,,,
188193859,1000,1000,1000,1000,,,,,
188196358,1000,1000,1000,1000,,,,,
188198857,1000,1000,1000,1000,,,,,
188201356,1000,1000,1000,1000,,,,,
188203855,1000,1000,1000,1000,,,,,
188206354,1000,1000,1000,1000,,,,,
188208853,1000,1000,1000,1000,,,,,
188211352,1000,1000,1000,1000,,,,,
188213851,1000,1000,1000,1000,,,,,
188216350,1000,1000,1000,1000,,,,,
188218849,1000,1000,1000,1000,,,,,
188221348,1000,1000,1000,1000,,,,,
188223847,1000,1000,1000,1000,,,,,
188226346,1000,1000,1000,1000,,,,,
188228845,1000,1000,1000,1000,,,,,
188231344,1000,1000,1000,1000,,,,,
188233843,1000,1000,1000,1000,,,,,
188236342,1000,1000,1000,1000,,,,,
188238841,1000,1000,1000,1000,,,,,
188241340,1000,1000,1000,1000,,,,,
188243839,1000,1000,1000,1000,,,,,
188246338,1000,1000,1000,1000,,,,,
188248837,1000,1000,1000,1000,,,,,
188251336,1000,1000,1000,1000,,,,,
188253835,1000,1000,1000,1000,,,,,
188256334,1000,1000,1000,1000,,,,,
188258833,1000,1000,1000,1000,,,,,
188261332,1000,1000,1000,1000,,,,,
188263831,1000,1000,1000,1000,,,,,
188266330,1000,1000,1000,1000,,,,,
188268829,1000,1000,1000,1000,,,,,
188271328,1000,1000,1000,1000,,,,,
188273827,1000,1000,1000,1000,,,,,
188276326,1000,1000,1000,1000,,,,,
188278825,1000,1000,1000,1000,,,,,
188281324,1000,1000,1000,1000,,,,,
188283823,1000,1000,1000,1000,,,,,
188286322,1000,1000,1000,1000,,,,,
188288821,1000,1000,1000,1000,,,,,
188291320,1000,1000,1000,1000,,,,,
188293819,1000,1000,1000,1000,,,,,
188296318,1000,1000,1000,1000,,,,,
188298817,1000,1000,1000,1000,,,,,
188301316,1000,1000,1000,1000,,,,,
188303815,1000,1000,1000,1000,,,,,
188306314,1000,1000,1000,1000,,,,,
188308813,1000,1000,1000,1000,,,,,
188311312,1000,1000,1000,1000,,,,,
188313811,1000,1000,1000,1000,,,,,
188316310,1000,1000,1000,1000,,,,,
188318809,1000,1000,1000,1000,,,,,
188321308,1000,1000,1000,1000,,,,,
188323807,1000,1000,1000,1000,,,,,
188326306,1000,1000,1000,1000,,,,,
188328805,1000,1000,1000,1000,,,,,
188331304,1000,1000,1000,1000,,,,,
188333803,1000,1000,1000,1000,,,,,
188336302,1000,1000,1000,1000,,,,,
188338801,1000,1000,1000,1000,,,,,
188341300,1000,1000,1000,1000,,,,,
188343799,1000,1000,1000,1000,,,,,
188346298,1000,1000,1000,1000,,,,,
188348797,1000,1000,1000,1000,,,,,
188351296,1000,1000,1000,1000,,,,,
188353795,1000,1000,1000,1000,,,,,
188356294,1000,1000,1000,1000,,,,,
188358793,1000,1000,1000,1000,,,,,
188361292,1000,1000,1000,1000,,,,,
188363791,1000,1000,1000,1000,,,,,
188366290,1000,1000,1000,1000,,,,,
188368789,1000,1000,1000,1000,,,,,
188371288,1000,1000,1000,1000,,,,,
188373787,1000,1000,1000,1000,,,,,
188376286,1000,1000,1000,1000,,,,,
188378785,1000,1000,1000,1000,,,,,
188381284,1000,1000,1000,1000,,,,,
188383783,1000,1000,1000,1000,,,,,
188386282,1000,1000,1000,1000,,,,,
188388781,1000,1000,1000,1000,,,,,
188391280,1000,1000,1000,1000,,,,,
188393779,1000,1000,1000,1000,,,,,
188396278,1000,1000,1000,1000,,,,,
188398777,1000,1000,1000,1000,,,,,
188401276,1000,1000,1000,1000,,,,,
188403775,1001,1001,1001,1001,,,,,
188406274,1002,1002,1002,1002,,,,,
188408773,1003,1003,1003,1003,,,,,
188411272,1003,1003,1003,1003,,,,,
188413771,1004,1004,1004,1004,,,,,
188416270,1005,1005,1005,1005,,,,,
188418769,1006,1006,1006,1006,,,,,
188421268,1006,1006,1006,1006,,,,,
188423767,1007,1007,1007,1007,,,,,
188426266,1008,1008,1008,1008,,,,,
188428765,1009,1009,1009,1009,,,,,
188431264,1009,1009,1009,1009,,,,,
188433763,1010,1010,1010,1010,,,,,
188436262,1011,1011,1011,1011,,,,,
188438761,1012,1012,1012,1012,,,,,
188441260,1012,1012,1012,1012,,,,,
188443759,1013,1013,1013,1013,,,,,
188446258,1014,1014,1014,1014,,,,,
188448757,1015,1015,1015,1015,,,,,
188451256,1015,1015,1015,1015,,,,,
188453755,1016,1016,1016,1016,,,,,
188456254,1017,1017,1017,1017,,,,,
188458753,1018,1018,1018,1018,,,,,
188461252,1018,1018,1018,1018,,,,,
188463751,1019,1019,1019,1019,,,,,
188466250,1020,1020,1020,1020,,,,,
188468749,1021,1021,1021,1021,,,,,
188471248,1021,1021,1021,1021,,,,,
188473747,1022,1022,1022,1022,,,,,
188476246,1023,1023,1023,1023,,,,,
188478745,1024,1024,1024,1024,,,,,
188481244,1024,1024,1024,1024,,,,,
188483743,1025,1025,1025,1025,,,,,
188486242,1026,1026,1026,1026,,,,,
188488741,1027,1027,1027,1027,,,,,
188491240,1027,1027,1027,1027,,,,,
188493739,1028,1028,1028,1028,,,,,
188496238,1029,1029,1029,1029,,,,,
188498737,1030,1030,1030,1030,,,,,
188501236,1030,1030,1030,1030,,,,,
188503735,1031,1031,1031,1031,,,,,
188506234,1032,1032,1032,1032,,,,,
188508733,1033,1033,1033,1033,,,,,
188511232,1033,1033,1033,1033,,,,,
188513731,1034,1034,1034,1034,,,,,
188516230,1035,1035,1035,1035,,,,,
188518729,1036,1036,1036,1036,,,,,
188521228,1036,1036,1036,1036,,,,,
188523727,1037,1037,1037,1037,,,,,
188526226,1038,1038,1038,1038,,,,,
188528725,1039,1039,1039,1039,,,,,
188531224,1039,1039,1039,1039,,,,,
188533723,1040,1040,1040,1040,,,,,
188536222,1041,1041,1041,1041,,,,,
188538721,1042,1042,1042,1042,,,,,
188541220,1042,1042,1042,1042,,,,,
188543719,1043,1043,1043,1043,,,,,
188546218,1044,1044,1044,1044,,,,,
188548717,1045,1045,1045,1045,,,,,
188551216,1045,1045,1045,1045,,,,,
188553715,1046,1046,1046,1046,,,,,
188556214,1047,1047,1047,1047,,,,,
188558713,1048,1048,1048,1048,,,,,
188561212,1048,1048,1048,1048,,,,,
188563711,1049,1049,1049,1049,,,,,
188566210,1050,1050,1050,1050,,,,,
188568709,1051,1051,1051,1051,,,,,
188571208,1051,1051,1051,1051,,,,,
188573707,1052,1052,1052,1052,,,,,
188576206,1053,1053,1053,1053,,,,,
188578705,1054,1054,1054,1054,,,,,
188581204,1054,1054,1054,1054,,,,,
188583703,1055,1055,1055,1055,,,,,
188586202,1056,1056,1056,1056,,,,,
188588701,1057,1057,1057,1057,,,,,
188591200,1057,1057,1057,1057,,,,,
188593699,1058,1058,1058,1058,,,,,
188596198,1059,1059,1059,1059,,,,,
188598697,1060,1060,1060,1060,,,,,
188601196,1060,1060,1060,1060,,,,,
188603695,1061,1061,1061,1061,,,,,
188606194,1062,1062,1062,1062,,,,,
188608693,1063,1063,1063,1063,,,,,
188611192,1063,1063,1063,1063,,,,,
188613691,1064,1064,1064,1064,,,,,
188616190,1065,1065,1065,1065,,,,,
188618689,1066,1066,1066,1066,,,,,
188621188,1066,1066,1066,1066,,,,,
188623687,1067,1067,1067,1067,,,,,
188626186,1068,1068,1068,1068,,,,,
188628685,1069,1069,1069,1069,,,,,
188631184,1069,1069,1069,1069,,,,,
188633683,1070,1070,1070,1070,,,,,
188636182,1071,1071,1071,1071,,,,,
188638681,1072,1072,1072,1072,,,,,
188641180,1072,1072,1072,1072,,,,,
188643679,1073,1073,1073,1073,,,,,
188646178,1074,1074,1074,1074,,,,,
188648677,1075,1075,1075,1075,,,,,
188651176,1075,1075,1075,1075,,,,,
188653675,1076,1076,1076,1076,,,,,
188656174,1077,1077,1077,1077,,,,,
188658673,1078,1078,1078,1078,,,,,
188661172,1078,1078,1078,1078,,,,,
188663671,1079,1079,1079,1079,,,,,
188666170,1080,1080,1080,1080,,,,,
188668669,1081,1081,1081,1081,,,,,
188671168,1081,1081,1081,1081,,,,,
188673667,1082,1082,1082,1082,,,,,
188676166,1083,1083,1083,1083,,,,,
188678665,1084,1084,1084,1084,,,,,
188681164,1084,1084,1084,1084,,,,,
188683663,1085,1085,1085,1085,,,,,
188686162,1086,1086,1086,1086,,,,,
188688661,1087,1087,1087,1087,,,,,
188691160,1087,1087,1087,1087,,,,,
188693659,1088,1088,1088,1088,,,,,
188696158,1089,1089,1089,1089,,,,,
188698657,1090,1090,1090,1090,,,,,
188701156,1090,1090,1090,1090,,,,,
188703655,1091,1091,1091,1091,,,,,
188706154,1092,1092,1092,1092,,,,,
188708653,1093,1093,1093,1093,,,,,
188711152,1093,1093,1093,1093,,,,,
188713651,1094,1094,1094,1094,,,,,
188716150,1095,1095,1095,1095,,,,,
188718649,1096,1096,1096,1096,,,,,
188721148,1096,1096,1096,1096,,,,,
188723647,1097,1097,1097,1097,,,,,
188726146,1098,1098,1098,1098,,,,,
188728645,1099,1099,1099,1099,,,,,
188731144,1099,1099,1099,1099,,,,,
188733643,1100,1100,1100,1100,,,,,
188736142,1101,1101,1101,1101,,,,,
188738641,1101,1101,1101,1101,,,,,
188741140,1102,1102,1102,1102,,,,,
188743639,1103,1103,1103,1103,,,,,
188746138,1104,1104,1104,1104,,,,,
188748637,1104,1104,1104,1104,,,,,
188751136,1105,1105,1105,1105,,,,,
188753635,1106,1106,1106,1106,,,,,
188756134,1107,1107,1107,1107,,,,,
188758633,1107,1107,1107,1107,,,,,
188761132,1108,1108,1108,1108,,,,,
188763631,1109,1109,1109,1109,,,,,
188766130,1110,1110,1110,1110,,,,,
188768629,1110,1110,1110,1110,,,,,
188771128,1111,1111,1111,1111,,,,,
188773627,1112,1112,1112,1112,,,,,
188776126,1113,1113,1113,1113,,,,,
188778625,1113,1113,1113,1113,,,,,
188781124,1114,1114,1114,1114,,,,,
188783623,1115,1115,1115,1115,,,,,
188786122,1116,1116,1116,1116,,,,,
188788621,1116,1116,1116,1116,,,,,
188791120,1117,1117,1117,1117,,,,,
188793619,1118,1118,1118,1118,,,,,
188796118,1119,1119,1119,1119,,,,,
188798617,1119,1119,1119,1119,,,,,
188801116,1120,1120,1120,1120,,,,,
188803615,1121,1121,1121,1121,,,,,
188806114,1122,1122,1122,1122,,,,,
188808613,1122,1122,1122,1122,,,,,
188811112,1123,1123,1123,1123,,,,,
188813611,1124,1124,1124,1124,,,,,
188816110,1125,1125,1125,1125,,,,,
188818609,1125,1125,1125,1125,,,,,
188821108,1126,1126,1126,1126,,,,,
188823607,1127,1127,1127,1127,,,,,
188826106,1128,1128,1128,1128,,,,,
188828605,1128,1128,1128,1128,,,,,
188831104,1129,1129,1129,1129,,,,,
188833603,1130,1130,1130,1130,,,,,
188836102,1131,1131,1131,1131,,,,,
188838601,1131,1131,1131,1131,,,,,
188841100,1132,1132,1132,1132,,,,,
188843599,1133,1133,1133,1133,,,,,
188846098,1134,1134,1134,1134,,,,,
188848597,1134,1134,1134,1134,,,,,
188851096,1135,1135,1135,1135,,,,,
188853595,1136,1136,1136,1136,,,,,
188856094,1137,1137,1137,1137,,,,,
188858593,1137,1137,1137,1137,,,,,
188861092,1138,1138,1138,1138,,,,,
188863591,1139,1139,1139,1139,,,,,
188866090,1140,1140,1140,1140,,,,,
188868589,1140,1140,1140,1140,,,,,
188871088,1141,1141,1141,1141,,,,,
188873587,1142,1142,1142,1142,,,,,
188876086,1143,1143,1143,1143,,,,,
188878585,1143,1143,1143,1143,,,,,
188881084,1144,1144,1144,1144,,,,,
188883583,1145,1145,1145,1145,,,,,
188886082,1146,1146,1146,1146,,,,,
188888581,1146,1146,1146,1146,,,,,
188891080,1147,1147,1147,1147,,,,,
188893579,1148,1148,1148,1148,,,,,
188896078,1149,1149,1149,1149,,,,,
188898577,1149,1149,1149,1149,,,,,
188901076,1150,1150,1150,1150,,,,,
188903575,1165,1150,1150,1166,,,,,
188906074,1180,1150,1151,1182,,,,,
188908573,1188,1158,1159,1189,,,,,
188911072,1195,1166,1167,1197,,,,,
188913571,1203,1173,1175,1204,,,,,
188916070,1210,1181,1183,1212,,,,,
188918569,1217,1189,1190,1219,,,,,
188921068,1224,1196,1198,1226,,,,,
188923567,1231,1203,1205,1233,,,,,
188926066,1238,1211,1212,1240,,,,,
188928565,1245,1218,1219,1246,,,,,
188931064,1252,1225,1226,1253,,,,,
188933563,1258,1232,1233,1260,,,,,
188936062,1265,1238,1240,1266,,,,,
188938561,1271,1245,1246,1273,,,,,
188941060,1277,1252,1253,1279,,,,,
188943559,1284,1258,1260,1285,,,,,
188946058,1290,1265,1266,1291,,,,,
188948557,1296,1271,1272,1297,,,,,
188951056,1302,1278,1279,1303,,,,,
188953555,1308,1284,1285,1309,,,,,
188956054,1314,1290,1291,1315,,,,,
188958553,1320,1296,1297,1321,,,,,
188961052,1326,1302,1303,1327,,,,,
188963551,1331,1308,1309,1333,,,,,
188966050,1337,1314,1315,1338,,,,,
188968549,1343,1320,1321,1344,,,,,
188971048,1348,1326,1327,1350,,,,,
188973547,1354,1331,1332,1355,,,,,
188976046,1359,1337,1338,1361,,,,,
188978545,1365,1343,1344,1366,,,,,
188981044,1370,1348,1349,1371,,,,,
188983543,1375,1354,1355,1377,,,,,
188986042,1381,1359,1360,1382,,,,,
188988541,1386,1365,1366,1387,,,,,
188991040,1391,1370,1371,1392,,,,,
188993539,1396,1375,1376,1397,,,,,
188996038,1401,1381,1382,1403,,,,,
188998537,1406,1386,1387,1408,,,,,
189001036,1411,1391,1392,1413,,,,,
189003535,1417,1396,1397,1418,,,,,
189006034,1421,1401,1402,1423,,,,,
189008533,1426,1406,1407,1428,,,,,
189011032,1431,1411,1412,1432,,,,,
189013531,1436,1416,1417,1437,,,,,
189016030,1441,1421,1422,1442,,,,,
189018529,1446,1426,1427,1447,,,,,
189021028,1451,1431,1432,1452,,,,,
189023527,1455,1436,1437,1456,,,,,
189026026,1460,1441,1442,1461,,,,,
189028525,1465,1445,1446,1466,,,,,
189031024,1469,1450,1451,1470,,,,,
189033523,1474,1455,1456,1475,,,,,
189036022,1479,1459,1460,1480,,,,,
189038521,1483,1464,1465,1484,,,,,
189041020,1488,1469,1470,1489,,,,,
189043519,1492,1473,1474,1493,,,,,
189046018,1497,1478,1479,1498,,,,,
189048517,1501,1482,1483,1502,,,,,
189051016,1506,1487,1488,1507,,,,,
189053515,1510,1491,1492,1511,,,,,
189056014,1514,1496,1496,1515,,,,,
189058513,1519,1500,1501,1520,,,,,
189061012,1523,1504,1505,1524,,,,,
189063511,1527,1509,1510,1528,,,,,
189066010,1532,1513,1514,1533,,,,,
189068509,1536,1517,1518,1537,,,,,
189071008,1540,1522,1523,1541,,,,,
189073507,1544,1526,1527,1545,,,,,
189076006,1549,1530,1531,1550,,,,,
189078505,1553,1534,1535,1554,,,,,
189081004,1557,1539,1539,1558,,,,,
189083503,1561,1543,1544,1562,,,,,
189086002,1565,1547,1548,1566,,,,,
189088501,1569,1551,1552,1570,,,,,
189091000,1573,1555,1556,1574,,,,,
189093499,1577,1559,1560,1578,,,,,
189095998,1581,1563,1564,1582,,,,,
189098497,1585,1567,1568,1586,,,,,
189100996,1589,1571,1572,1590,,,,,
189103495,1593,1575,1576,1594,,,,,
189105994,1597,1579,1580,1598,,,,,
189108493,1601,1583,1584,1602,,,,,
189110992,1605,1587,1588,1606,,,,,
189113491,1609,1591,1592,1610,,,,,
189115990,1613,1595,1596,1614,,,,,
189118489,1617,1599,1600,1618,,,,,
189120988,1621,1603,1603,1622,,,,,
189123487,1625,1607,1607,1625,,,,,
189125986,1628,1610,1611,1629,,,,,
189128485,1632,1614,1615,1633,,,,,
189130984,1636,1618,1619,1637,,,,,
189133483,1640,1622,1623,1641,,,,,
189135982,1643,1626,1626,1644,,,,,
189138481,1647,1629,1630,1648,,,,,
189140980,1651,1633,1634,1652,,,,,
189143479,1655,1637,1638,1656,,,,,
189145978,1658,1641,1641,1659,,,,,
189148477,1662,1644,1645,1663,,,,,
189150976,1666,1648,1649,1666,,,,,
189153475,1669,1652,1652,1670,,,,,
189155974,1673,1655,1656,1674,,,,,
189158473,1676,1659,1660,1677,,,,,
189160972,1680,1663,1663,1681,,,,,
189163471,1684,1666,1667,1684,,,,,
189165970,1687,1670,1670,1688,,,,,
189168469,1691,1673,1674,1692,,,,,
189170968,1694,1677,1678,1695,,,,,
189173467,1698,1680,1681,1699,,,,,
189175966,1701,1684,1685,1702,,,,,
189178465,1705,1688,1688,1706,,,,,
189180964,1708,1691,1692,1709,,,,,
189183463,1712,1695,1695,1713,,,,,
189185962,1715,1698,1699,1716,,,,,
189188461,1719,1702,1702,1719,,,,,
189190960,1722,1705,1706,1723,,,,,
189193459,1725,1708,1709,1726,,,,,
189195958,1729,1712,1713,1730,,,,,
189198457,1732,1715,1716,1733,,,,,
189200956,1736,1719,1719,1736,,,,,
189203455,1739,1722,1723,1740,,,,,
189205954,1742,1726,1726,1743,,,,,
189208453,1746,1729,1730,1747,,,,,
189210952,1749,1732,1733,1750,,,,,
189213451,1752,1736,1736,1753,,,,,
189215950,1756,1739,1740,1757,,,,,
189218449,1759,1742,1743,1760,,,,,
189220948,1762,1746,1746,1763,,,,,
189223447,1766,1749,1750,1766,,,,,
189225946,1769,1752,1753,1770,,,,,
189228445,1772,1755,1756,1773,,,,,
189230944,1775,1759,1759,1776,,,,,
189233443,1779,1762,1763,1779,,,,,
189235942,1782,1765,1766,1783,,,,,
189238441,1785,1768,1769,1786,,,,,
189240940,1788,1772,1772,1789,,,,,
189243439,1792,1775,1776,1792,,,,,
189245938,1795,1778,1779,1796,,,,,
189248437,1798,1781,1782,1799,,,,,
189250936,1801,1784,1785,1802,,,,,
189253435,1804,1788,1788,1805,,,,,
189255934,1808,1791,1792,1808,,,,,
189258433,1811,1794,1795,1811,,,,,
189260932,1814,1797,1798,1815,,,,,
189263431,1817,1800,1801,1818,,,,,
189265930,1820,1803,1804,1821,,,,,
189268429,1823,1806,1807,1824,,,,,
189270928,1826,1810,1810,1827,,,,,
189273427,1829,1813,1813,1830,,,,,
189275926,1833,1816,1816,1833,,,,,
189278425,1836,1819,1820,1836,,,,,
189280924,1839,1822,1823,1840,,,,,
189283423,1842,1825,1826,1843,,,,,
189285922,1845,1828,1829,1846,,,,,
189288421,1848,1831,1832,1849,,,,,
189290920,1851,1834,1835,1852,,,,,
189293419,1854,1837,1838,1855,,,,,
189295918,1857,1840,1841,1858,,,,,
189298417,1860,1843,1844,1861,,,,,
189300916,1863,1846,1847,1864,,,,,
189303415,1866,1849,1850,1867,,,,,
189305914,1869,1852,1853,1870,,,,,
189308413,1872,1855,1856,1873,,,,,
189310912,1875,1858,1859,1876,,,,,
189313411,1878,1861,1862,1879,,,,,
189315910,1881,1864,1865,1882,,,,,
189318409,1884,1867,1867,1885,,,,,
189320908,1887,1870,1870,1888,,,,,
189323407,1890,1873,1873,1891,,,,,
189325906,1893,1876,1876,1894,,,,,
189328405,1896,1879,1879,1897,,,,,
189330904,1898,1881,1881,1899,,,,,
189333403,1896,1880,1880,1898,,,,,
189335902,1895,1879,1879,1897,,,,,
189338401,1894,1877,1878,1895,,,,,
189340900,1893,1876,1877,1894,,,,,
189343399,1892,1875,1876,1893,,,,,
189345898,1891,1874,1875,1892,,,,,
189348397,1890,1873,1874,1891,,,,,
189350896,1889,1872,1873,1891,,,,,
189353395,1888,1871,1872,1890,,,,,
189355894,1888,1871,1871,1889,,,,,
189358393,1887,1870,1870,1888,,,,,
189360892,1886,1869,1870,1888,,,,,
189363391,1886,1869,1869,1887,,,,,
189365890,1885,1868,1868,1887,,,,,
189368389,1885,1868,1868,1886,,,,,
189370888,1885,1868,1868,1886,,,,,
189373387,1885,1867,1868,1886,,,,,
189375886,1885,1867,1868,1886,,,,,
189378385,1885,1867,1867,1886,,,,,
189380884,1885,1867,1868,1886,,,,,
189383383,1885,1867,1868,1886,,,,,
189385882,1885,1868,1868,1886,,,,,
189388381,1885,1868,1868,1887,,,,,
189390880,1886,1868,1869,1887,,,,,
189393379,1886,1869,1869,1887,,,,,
189395878,1886,1870,1870,1887,,,,,
189398377,1887,1870,1871,1888,,,,,
189400876,1887,1871,1872,1888,,,,,
189403375,1887,1872,1872,1888,,,,,
189405874,1887,1873,1873,1888,,,,,
189408373,1887,1873,1874,1888,,,,,
189410872,1887,1874,1874,1888,,,,,
189413371,1887,1874,1875,1887,,,,,
189415870,1886,1874,1875,1887,,,,,
189418369,1886,1874,1875,1887,,,,,
189420868,1885,1874,1874,1886,,,,,
189423367,1884,1873,1874,1885,,,,,
189425866,1883,1873,1873,1884,,,,,
189428365,1882,1872,1872,1883,,,,,
