TimeUS,M1,M2,M3,M4,TimeUS,C1,C2,C3,C4
44813734,1000,1000,1000,1000,44828728,1000,1000,1000,1000
44816233,1000,1000,1000,1000,44928688,1000,1000,1000,1000
44818732,1000,1000,1000,1000,45028648,1000,1000,1000,1000
44821231,1000,1000,1000,1000,45128608,1000,1000,1000,1000
44823730,1000,1000,1000,1000,45228568,1000,1000,1000,1000
44826229,1000,1000,1000,1000,45328528,1000,1000,1000,1000
44828728,1000,1000,1000,1000,45428488,1000,1000,1000,1000
44831227,1000,1000,1000,1000,45528448,1000,1000,1000,1000
44833726,1000,1000,1000,1000,45628408,1000,1000,1000,1000
44836225,1000,1000,1000,1000,45728368,1000,1000,1000,1000
44838724,1000,1000,1000,1000,45828328,1000,1000,1000,1000
44841223,1000,1000,1000,1000,45928288,1000,1000,1000,1000
44843722,1000,1000,1000,1000,46028248,1000,1000,1000,1000
44846221,1000,1000,1000,1000,46128208,1000,1000,1000,1000
44848720,1000,1000,1000,1000,46228168,1000,1000,1000,1000
44851219,1000,1000,1000,1000,46328961,1000,1000,1000,1000
44853718,1000,1000,1000,1000,46428921,1000,1000,1000,1000
44856217,1000,1000,1000,1000,46528881,1000,1000,1000,1000
44858716,1000,1000,1000,1000,46628841,1000,1000,1000,1000
44861215,1000,1000,1000,1000,46728801,1000,1000,1000,1000
44863714,1000,1000,1000,1000,46828761,1004,1004,1004,1004
44866213,1000,1000,1000,1000,46928721,1034,1034,1034,1034
44868712,1000,1000,1000,1000,47028681,1064,1064,1064,1064
44871211,1000,1000,1000,1000,47128641,1094,1094,1094,1094
44873710,1000,1000,1000,1000,47228601,1124,1124,1124,1124
44876209,1000,1000,1000,1000,47328561,1192,1186,1186,1192
44878708,1000,1000,1000,1000,47428521,1429,1424,1425,1429
44881207,1000,1000,1000,1000,47528481,1602,1598,1599,1603
44883706,1000,1000,1000,1000,47628441,1746,1743,1743,1746
44886205,1000,1000,1000,1000,47728401,1872,1868,1868,1872
44888704,1000,1000,1000,1000,47828361,1883,1879,1879,1883
44891203,1000,1000,1000,1000,47928321,1789,1789,1789,1789
44893702,1000,1000,1000,1000,48028281,1677,1678,1678,1677
44896201,1000,1000,1000,1000,48128241,1632,1633,1633,1632
44898700,1000,1000,1000,1000,48228201,1633,1635,1635,1633
44901199,1000,1000,1000,1000,48328161,1644,1645,1645,1644
44903698,1000,1000,1000,1000,48428954,1646,1646,1647,1646
44906197,1000,1000,1000,1000,48528914,1640,1640,1640,1640
44908696,1000,1000,1000,1000,48628874,1632,1631,1631,1632
44911195,1000,1000,1000,1000,48728834,1625,1624,1624,1625
44913694,1000,1000,1000,1000,48828794,1622,1621,1621,1621
44916193,1000,1000,1000,1000,48928754,1620,1620,1620,1620
44918692,1000,1000,1000,1000,49028714,1621,1621,1621,1621
44921191,1000,1000,1000,1000,49128674,1622,1622,1622,1622
44923690,1000,1000,1000,1000,49228634,1619,1621,1621,1619
44926189,1000,1000,1000,1000,49328594,1590,1590,1590,1590
44928688,1000,1000,1000,1000,49428554,1578,1578,1578,1578
44931187,1000,1000,1000,1000,49528514,1568,1568,1568,1568
44933686,1000,1000,1000,1000,49628474,1560,1559,1559,1560
44936185,1000,1000,1000,1000,49728434,1551,1551,1551,1552
44938684,1000,1000,1000,1000,49828394,1543,1543,1542,1544
44941183,1000,1000,1000,1000,49928354,1535,1535,1534,1536
44943682,1000,1000,1000,1000,50028314,1526,1526,1525,1527
44946181,1000,1000,1000,1000,50128274,1517,1517,1516,1517
44948680,1000,1000,1000,1000,50228234,1511,1511,1511,1511
44951179,1000,1000,1000,1000,50328194,1507,1507,1507,1508
44953678,1000,1000,1000,1000,50428154,1504,1505,1504,1505
44956177,1000,1000,1000,1000,50528947,1503,1503,1503,1504
44958676,1000,1000,1000,1000,50628907,1502,1502,1501,1502
44961175,1000,1000,1000,1000,50728867,1501,1501,1501,1501
44963674,1000,1000,1000,1000,50828827,1500,1500,1500,1500
44966173,1000,1000,1000,1000,50928787,1500,1499,1499,1499
44968672,1000,1000,1000,1000,51028747,1501,1500,1500,1500
44971171,1000,1000,1000,1000,51128707,1524,1524,1527,1520
44973670,1000,1000,1000,1000,51228667,1542,1542,1549,1536
44976169,1000,1000,1000,1000,51328627,1552,1552,1554,1549
44978668,1000,1000,1000,1000,51428587,1558,1559,1557,1560
44981167,1000,1000,1000,1000,51528547,1563,1563,1559,1568
44983666,1000,1000,1000,1000,51628507,1566,1566,1561,1571
44986165,1000,1000,1000,1000,51728467,1568,1568,1565,1572
44988664,1000,1000,1000,1000,51828427,1571,1571,1570,1572
44991163,1000,1000,1000,1000,51928387,1571,1571,1573,1570
44993662,1000,1000,1000,1000,52028347,1573,1573,1576,1570
44996161,1000,1000,1000,1000,52128307,1573,1573,1576,1570
44998660,1000,1000,1000,1000,52228267,1573,1573,1575,1571
45001159,1000,1000,1000,1000,52328227,1572,1571,1571,1572
45003658,1000,1000,1000,1000,52428187,1568,1568,1571,1575
45006157,1000,1000,1000,1000,52528980,1564,1565,1574,1577
45008656,1000,1000,1000,1000,52628940,1565,1565,1573,1576
45011155,1000,1000,1000,1000,52728900,1566,1567,1572,1573
45013654,1000,1000,1000,1000,52828860,1567,1568,1570,1570
45016153,1000,1000,1000,1000,52928820,1569,1570,1569,1568
45018652,1000,1000,1000,1000,53028780,1571,1571,1568,1567
45021151,1000,1000,1000,1000,53128740,1573,1572,1567,1567
45023650,1000,1000,1000,1000,53228700,1573,1573,1567,1566
45026149,1000,1000,1000,1000,53328660,1573,1572,1566,1566
45028648,1000,1000,1000,1000,53428620,1574,1573,1568,1568
45031147,1000,1000,1000,1000,53528580,1573,1574,1569,1569
45033646,1000,1000,1000,1000,53628540,1574,1574,1571,1571
45036145,1000,1000,1000,1000,53728500,1574,1574,1573,1573
45038644,1000,1000,1000,1000,53828460,1574,1573,1574,1573
45041143,1000,1000,1000,1000,53928420,1574,1574,1576,1575
45043642,1000,1000,1000,1000,54028380,1574,1575,1577,1576
45046141,1000,1000,1000,1000,54128340,1575,1575,1577,1576
45048640,1000,1000,1000,1000,54228300,1575,1576,1578,1577
45051139,1000,1000,1000,1000,54328260,1576,1576,1578,1578
45053638,1000,1000,1000,1000,54428220,1576,1576,1577,1577
45056137,1000,1000,1000,1000,54528180,1577,1577,1578,1578
45058636,1000,1000,1000,1000,54628973,1578,1577,1578,1578
45061135,1000,1000,1000,1000,54728933,1577,1577,1578,1577
45063634,1000,1000,1000,1000,54828893,1578,1577,1577,1577
45066133,1000,1000,1000,1000,54928853,1578,1577,1577,1577
45068632,1000,1000,1000,1000,55028813,1578,1578,1578,1577
45071131,1000,1000,1000,1000,55128773,1578,1578,1577,1578
45073630,1000,1000,1000,1000,55228733,1578,1578,1577,1577
45076129,1000,1000,1000,1000,55328693,1579,1579,1578,1578
45078628,1000,1000,1000,1000,55428653,1579,1579,1579,1579
45081127,1000,1000,1000,1000,55528613,1579,1579,1579,1579
45083626,1000,1000,1000,1000,55628573,1578,1578,1578,1578
45086125,1000,1000,1000,1000,55728533,1579,1579,1579,1579
45088624,1000,1000,1000,1000,55828493,1579,1579,1579,1580
45091123,1000,1000,1000,1000,55928453,1579,1579,1579,1579
45093622,1000,1000,1000,1000,56028413,1579,1579,1580,1579
45096121,1000,1000,1000,1000,56128373,1579,1579,1580,1580
45098620,1000,1000,1000,1000,56228333,1578,1578,1579,1579
45101119,1000,1000,1000,1000,56328293,1579,1578,1579,1579
45103618,1000,1000,1000,1000,56428253,1579,1579,1579,1579
45106117,1000,1000,1000,1000,56528213,1579,1579,1579,1580
45108616,1000,1000,1000,1000,56628173,1579,1580,1580,1579
45111115,1000,1000,1000,1000,56728966,1579,1579,1580,1580
45113614,1000,1000,1000,1000,56828926,1580,1580,1580,1580
45116113,1000,1000,1000,1000,56928886,1580,1580,1579,1580
45118612,1000,1000,1000,1000,57028846,1580,1580,1580,1580
45121111,1000,1000,1000,1000,57128806,1581,1581,1580,1580
45123610,1000,1000,1000,1000,57228766,1581,1581,1581,1580
45126109,1000,1000,1000,1000,57328726,1581,1580,1580,1580
45128608,1000,1000,1000,1000,57428686,1581,1581,1581,1580
45131107,1000,1000,1000,1000,57528646,1581,1581,1580,1581
45133606,1000,1000,1000,1000,57628606,1581,1581,1581,1581
45136105,1000,1000,1000,1000,57728566,1580,1581,1581,1581
45138604,1000,1000,1000,1000,57828526,1581,1582,1581,1582
45141103,1000,1000,1000,1000,57928486,1582,1582,1582,1582
45143602,1000,1000,1000,1000,58028446,1581,1581,1582,1582
45146101,1000,1000,1000,1000,58128406,1581,1582,1582,1581
45148600,1000,1000,1000,1000,58228366,1582,1581,1582,1581
45151099,1000,1000,1000,1000,58328326,1582,1582,1582,1582
45153598,1000,1000,1000,1000,58428286,1582,1582,1581,1582
45156097,1000,1000,1000,1000,58528246,1581,1581,1581,1581
45158596,1000,1000,1000,1000,58628206,1580,1580,1580,1580
45161095,1000,1000,1000,1000,58728166,1581,1582,1587,1574
45163594,1000,1000,1000,1000,58828959,1580,1582,1586,1573
45166093,1000,1000,1000,1000,58928919,1579,1582,1578,1574
45168592,1000,1000,1000,1000,59028879,1578,1581,1570,1573
45171091,1000,1000,1000,1000,59128839,1577,1580,1563,1570
45173590,1000,1000,1000,1000,59228799,1578,1579,1559,1565
45176089,1000,1000,1000,1000,59328759,1579,1578,1556,1560
45178588,1000,1000,1000,1000,59428719,1579,1577,1555,1557
45181087,1000,1000,1000,1000,59528679,1580,1579,1557,1556
45183586,1000,1000,1000,1000,59628639,1578,1577,1556,1553
45186085,1000,1000,1000,1000,59728599,1576,1577,1556,1553
45188584,1000,1000,1000,1000,59828559,1575,1576,1555,1553
45191083,1000,1000,1000,1000,59928519,1575,1577,1554,1554
45193582,1000,1000,1000,1000,60028479,1574,1576,1553,1553
45196081,1000,1000,1000,1000,60128439,1575,1576,1552,1552
45198580,1000,1000,1000,1000,60228399,1576,1578,1551,1551
45201079,1000,1000,1000,1000,60328359,1578,1579,1549,1548
45203578,1000,1000,1000,1000,60428319,1580,1582,1547,1546
45206077,1000,1000,1000,1000,60528279,1584,1584,1544,1544
45208576,1000,1000,1000,1000,60628239,1586,1587,1540,1540
45211075,1000,1000,1000,1000,60728199,1589,1590,1538,1538
45213574,1000,1000,1000,1000,60828159,1591,1592,1535,1535
45216073,1000,1000,1000,1000,60928952,1594,1593,1534,1535
45218572,1000,1000,1000,1000,61028912,1594,1594,1534,1535
45221071,1000,1000,1000,1000,61128872,1594,1595,1536,1538
45223570,1000,1000,1000,1000,61228832,1593,1593,1538,1541
45226069,1000,1000,1000,1000,61328792,1590,1589,1543,1546
45228568,1000,1000,1000,1000,61428752,1585,1582,1550,1553
45231067,1000,1000,1000,1000,61528712,1576,1573,1559,1561
45233566,1000,1000,1000,1000,61628672,1568,1564,1571,1573
45236065,1000,1000,1000,1000,61728632,1556,1552,1583,1585
45238564,1000,1000,1000,1000,61828592,1546,1543,1596,1596
45241063,1000,1000,1000,1000,61928552,1537,1535,1605,1605
45243562,1000,1000,1000,1000,62028512,1531,1532,1613,1611
45246061,1000,1000,1000,1000,62128472,1529,1530,1615,1614
45248560,1000,1000,1000,1000,62228432,1530,1532,1614,1614
45251059,1000,1000,1000,1000,62328392,1535,1537,1610,1610
45253558,1000,1000,1000,1000,62428352,1543,1544,1605,1605
45256057,1000,1000,1000,1000,62528312,1551,1552,1598,1598
45258556,1000,1000,1000,1000,62628272,1560,1560,1590,1590
45261055,1000,1000,1000,1000,62728232,1569,1569,1584,1583
45263554,1000,1000,1000,1000,62828192,1576,1575,1577,1576
45266053,1000,1000,1000,1000,62928985,1583,1582,1572,1572
45268552,1000,1000,1000,1000,63028945,1586,1585,1569,1568
45271051,1000,1000,1000,1000,63128905,1587,1586,1566,1566
45273550,1000,1000,1000,1000,63228865,1588,1586,1566,1566
45276049,1000,1000,1000,1000,63328825,1587,1585,1567,1568
45278548,1000,1000,1000,1000,63428785,1584,1583,1570,1570
45281047,1000,1000,1000,1000,63528745,1581,1581,1573,1573
45283546,1000,1000,1000,1000,63628705,1579,1580,1576,1577
45286045,1000,1000,1000,1000,63728665,1576,1576,1578,1578
45288544,1000,1000,1000,1000,63828625,1574,1575,1581,1581
45291043,1000,1000,1000,1000,63928585,1572,1573,1583,1582
45293542,1000,1000,1000,1000,64028545,1572,1572,1583,1583
45296041,1000,1000,1000,1000,64128505,1572,1572,1583,1583
45298540,1000,1000,1000,1000,64228465,1306,1547,1316,1557
45301039,1000,1000,1000,1000,64328425,1565,1561,1572,1571
45303538,1000,1000,1000,1000,64428385,1600,1571,1606,1578
45306037,1000,1000,1000,1000,64528345,1623,1587,1628,1591
45308536,1000,1000,1000,1000,64628305,1631,1601,1633,1601
45311035,1000,1000,1000,1000,64728265,1623,1608,1623,1605
45313534,1000,1000,1000,1000,64828225,1607,1609,1606,1604
45316033,1000,1000,1000,1000,64928185,1590,1603,1588,1601
45318532,1000,1000,1000,1000,65028978,1578,1596,1579,1599
45321031,1000,1000,1000,1000,65128938,1572,1588,1577,1595
45323530,1000,1000,1000,1000,65228898,1571,1580,1578,1589
45326029,1000,1000,1000,1000,65328858,1573,1575,1580,1583
45328528,1000,1000,1000,1000,65428818,1578,1576,1583,1580
45331027,1000,1000,1000,1000,65528778,1581,1577,1582,1578
45333526,1000,1000,1000,1000,65628738,1582,1578,1581,1576
45336025,1000,1000,1000,1000,65728698,1583,1581,1579,1576
45338524,1000,1000,1000,1000,65828658,1583,1583,1576,1575
45341023,1000,1000,1000,1000,65928618,1582,1583,1574,1575
45343522,1000,1000,1000,1000,66028578,1581,1582,1573,1574
45346021,1000,1000,1000,1000,66128538,1579,1581,1571,1573
45348520,1000,1000,1000,1000,66228498,1579,1580,1571,1573
45351019,1000,1000,1000,1000,66328458,1578,1579,1572,1573
45353518,1000,1000,1000,1000,66428418,1577,1577,1573,1573
45356017,1000,1000,1000,1000,66528378,1577,1576,1573,1573
45358516,1000,1000,1000,1000,66628338,1577,1576,1575,1574
45361015,1000,1000,1000,1000,66728298,1577,1576,1579,1571
45363514,1000,1000,1000,1000,66828258,1576,1576,1582,1567
45366013,1000,1000,1000,1000,66928218,1575,1578,1577,1569
45368512,1000,1000,1000,1000,67028178,1573,1577,1570,1570
45371011,1000,1000,1000,1000,67128971,1572,1576,1563,1568
45373510,1000,1000,1000,1000,67228931,1572,1574,1557,1564
45376009,1000,1000,1000,1000,67328891,1574,1573,1554,1560
45378508,1000,1000,1000,1000,67428851,1575,1574,1554,1556
45381007,1000,1000,1000,1000,67528811,1576,1574,1554,1554
45383506,1000,1000,1000,1000,67628771,1576,1575,1553,1552
45386005,1000,1000,1000,1000,67728731,1576,1576,1553,1551
45388504,1000,1000,1000,1000,67828691,1576,1577,1553,1551
45391003,1000,1000,1000,1000,67928651,1576,1577,1552,1551
45393502,1000,1000,1000,1000,68028611,1576,1577,1552,1550
45396001,1000,1000,1000,1000,68128571,1576,1577,1550,1550
45398500,1000,1000,1000,1000,68228531,1577,1578,1549,1549
45400999,1000,1000,1000,1000,68328491,1578,1579,1547,1548
45403498,1000,1000,1000,1000,68428451,1580,1581,1546,1546
45405997,1000,1000,1000,1000,68528411,1583,1583,1544,1545
45408496,1000,1000,1000,1000,68628371,1584,1584,1542,1542
45410995,1000,1000,1000,1000,68728331,1587,1588,1542,1541
45413494,1000,1000,1000,1000,68828291,1589,1589,1540,1540
45415993,1000,1000,1000,1000,68928251,1589,1589,1539,1540
45418492,1000,1000,1000,1000,69028211,1590,1590,1541,1542
45420991,1000,1000,1000,1000,69128171,1588,1587,1542,1543
45423490,1000,1000,1000,1000,69228964,1586,1586,1545,1548
45425989,1000,1000,1000,1000,69328924,1582,1582,1548,1551
45428488,1000,1000,1000,1000,69428884,1578,1577,1554,1557
45430987,1000,1000,1000,1000,69528844,1573,1570,1562,1564
45433486,1000,1000,1000,1000,69628804,1566,1563,1570,1572
45435985,1000,1000,1000,1000,69728764,1559,1556,1581,1581
45438484,1000,1000,1000,1000,69828724,1551,1549,1589,1589
45440983,1000,1000,1000,1000,69928684,1544,1543,1597,1596
45443482,1000,1000,1000,1000,70028644,1540,1540,1603,1602
45445981,1000,1000,1000,1000,70128604,1538,1539,1606,1605
45448480,1000,1000,1000,1000,70228564,1538,1541,1607,1606
45450979,1000,1000,1000,1000,70328524,1542,1544,1605,1605
45453478,1000,1000,1000,1000,70428484,1546,1548,1601,1600
45455977,1000,1000,1000,1000,70528444,1552,1553,1596,1595
45458476,1000,1000,1000,1000,70628404,1559,1559,1590,1590
45460975,1000,1000,1000,1000,70728364,1565,1564,1584,1584
45463474,1000,1000,1000,1000,70828324,1572,1571,1580,1579
45465973,1000,1000,1000,1000,70928284,1577,1576,1576,1576
45468472,1000,1000,1000,1000,71028244,1581,1579,1572,1572
45470971,1000,1000,1000,1000,71128204,1583,1582,1570,1570
45473470,1000,1000,1000,1000,71228164,1584,1584,1569,1569
45475969,1000,1000,1000,1000,71328957,1585,1584,1570,1570
45478468,1000,1000,1000,1000,71428917,1583,1583,1571,1571
45480967,1000,1000,1000,1000,71528877,1581,1581,1571,1572
45483466,1000,1000,1000,1000,71628837,1581,1580,1575,1575
45485965,1000,1000,1000,1000,71728797,1578,1579,1577,1577
45488464,1000,1000,1000,1000,71828757,1577,1577,1579,1579
45490963,1000,1000,1000,1000,71928717,1575,1576,1581,1580
45493462,1000,1000,1000,1000,72028677,1575,1576,1583,1582
45495961,1000,1000,1000,1000,72128637,1575,1575,1583,1582
45498460,1000,1000,1000,1000,72228597,1575,1575,1583,1583
45500959,1000,1000,1000,1000,72328557,1574,1574,1582,1582
45503458,1000,1000,1000,1000,72428517,1575,1576,1582,1583
45505957,1000,1000,1000,1000,72528477,1577,1577,1581,1582
45508456,1000,1000,1000,1000,72628437,1578,1578,1580,1581
45510955,1000,1000,1000,1000,72728397,1579,1578,1580,1579
45513454,1000,1000,1000,1000,72828357,1580,1580,1579,1579
45515953,1000,1000,1000,1000,72928317,1580,1580,1578,1579
45518452,1000,1000,1000,1000,73028277,1581,1580,1578,1578
45520951,1000,1000,1000,1000,73128237,1581,1581,1578,1578
45523450,1000,1000,1000,1000,73228197,1581,1581,1578,1578
45525949,1000,1000,1000,1000,73328157,1582,1581,1579,1578
45528448,1000,1000,1000,1000,73428950,1581,1581,1579,1579
45530947,1000,1000,1000,1000,73528910,1581,1581,1579,1579
45533446,1000,1000,1000,1000,73628870,1581,1582,1580,1580
45535945,1000,1000,1000,1000,73728830,1581,1581,1581,1581
45538444,1000,1000,1000,1000,73828790,1580,1580,1580,1580
45540943,1000,1000,1000,1000,73928750,1580,1579,1580,1580
45543442,1000,1000,1000,1000,74028710,1579,1580,1580,1581
45545941,1000,1000,1000,1000,74128670,1579,1579,1580,1580
45548440,1000,1000,1000,1000,74228630,1579,1580,1580,1581
45550939,1000,1000,1000,1000,74328590,1580,1580,1581,1581
45553438,1000,1000,1000,1000,74428550,1581,1581,1582,1581
45555937,1000,1000,1000,1000,74528510,1581,1581,1582,1581
45558436,1000,1000,1000,1000,74628470,1581,1581,1581,1581
45560935,1000,1000,1000,1000,74728430,1581,1580,1580,1580
45563434,1000,1000,1000,1000,74828390,1581,1581,1581,1581
45565933,1000,1000,1000,1000,74928350,1582,1581,1581,1581
45568432,1000,1000,1000,1000,75028310,1582,1583,1582,1582
45570931,1000,1000,1000,1000,75128270,1582,1583,1581,1581
45573430,1000,1000,1000,1000,75228230,1582,1583,1586,1576
45575929,1000,1000,1000,1000,75328190,1581,1583,1587,1573
45578428,1000,1000,1000,1000,75428983,1579,1582,1579,1572
45580927,1000,1000,1000,1000,75528943,1578,1581,1571,1572
45583426,1000,1000,1000,1000,75628903,1576,1578,1563,1569
45585925,1000,1000,1000,1000,75728863,1577,1578,1558,1565
45588424,1000,1000,1000,1000,75828823,1578,1578,1555,1560
45590923,1000,1000,1000,1000,75928783,1580,1578,1555,1558
45593422,1000,1000,1000,1000,76028743,1580,1579,1556,1555
45595921,1000,1000,1000,1000,76128703,1580,1578,1556,1554
45598420,1000,1000,1000,1000,76228663,1578,1578,1555,1553
45600919,1000,1000,1000,1000,76328623,1578,1579,1556,1554
45603418,1000,1000,1000,1000,76428583,1577,1578,1555,1554
45605917,1000,1000,1000,1000,76528543,1576,1577,1554,1554
45608416,1000,1000,1000,1000,76628503,1575,1577,1553,1553
45610915,1000,1000,1000,1000,76728463,1577,1578,1552,1553
45613414,1000,1000,1000,1000,76828423,1577,1579,1550,1550
45615913,1000,1000,1000,1000,76928383,1579,1581,1548,1548
45618412,1000,1000,1000,1000,77028343,1581,1583,1545,1545
45620911,1000,1000,1000,1000,77128303,1584,1584,1543,1543
45623410,1000,1000,1000,1000,77228263,1586,1587,1540,1540
45625909,1000,1000,1000,1000,77328223,1590,1590,1539,1540
45628408,1000,1000,1000,1000,77428183,1590,1590,1537,1538
45630907,1000,1000,1000,1000,77528976,1592,1592,1536,1538
45633406,1000,1000,1000,1000,77628936,1593,1594,1537,1539
45635905,1000,1000,1000,1000,77728896,1593,1592,1539,1542
45638404,1000,1000,1000,1000,77828856,1590,1589,1543,1546
45640903,1000,1000,1000,1000,77928816,1585,1582,1549,1552
45643402,1000,1000,1000,1000,78028776,1579,1575,1559,1562
45645901,1000,1000,1000,1000,78128736,1570,1565,1570,1572
45648400,1000,1000,1000,1000,78228696,1560,1556,1581,1583
45650899,1000,1000,1000,1000,78328656,1549,1547,1592,1592
45653398,1000,1000,1000,1000,78428616,1541,1541,1603,1602
45655897,1000,1000,1000,1000,78528576,1536,1538,1610,1609
45658396,1000,1000,1000,1000,78628536,1534,1536,1614,1613
45660895,1000,1000,1000,1000,78728496,1535,1538,1614,1613
45663394,1000,1000,1000,1000,78828456,1538,1541,1611,1610
45665893,1000,1000,1000,1000,78928416,1545,1546,1607,1605
45668392,1000,1000,1000,1000,79028376,1552,1553,1601,1599
45670891,1000,1000,1000,1000,79128336,1559,1559,1593,1593
45673390,1000,1000,1000,1000,79228296,1566,1566,1585,1585
45675889,1000,1000,1000,1000,79328256,1573,1572,1579,1579
45678388,1000,1000,1000,1000,79428216,1579,1577,1573,1574
45680887,1000,1000,1000,1000,79528176,1583,1582,1570,1570
45683386,1000,1000,1000,1000,79628969,1585,1584,1567,1568
45685885,1000,1000,1000,1000,79728929,1586,1585,1566,1566
45688384,1000,1000,1000,1000,79828889,1586,1584,1566,1567
45690883,1000,1000,1000,1000,79928849,1584,1583,1568,1568
45693382,1000,1000,1000,1000,80028809,1582,1582,1571,1571
45695881,1000,1000,1000,1000,80128769,1580,1580,1574,1574
45698380,1000,1000,1000,1000,80228729,1578,1578,1577,1577
45700879,1000,1000,1000,1000,80328689,1576,1576,1579,1579
45703378,1000,1000,1000,1000,80428649,1574,1575,1582,1581
45705877,1000,1000,1000,1000,80528609,1573,1575,1583,1583
45708376,1000,1000,1000,1000,80628569,1572,1573,1583,1583
45710875,1000,1000,1000,1000,80728529,1573,1574,1584,1584
45713374,1000,1000,1000,1000,80828489,1574,1574,1584,1584
45715873,1000,1000,1000,1000,80928449,1575,1576,1583,1583
45718372,1000,1000,1000,1000,81028409,1575,1576,1581,1581
45720871,1000,1000,1000,1000,81128369,1577,1577,1580,1580
45723370,1000,1000,1000,1000,81228329,1578,1578,1579,1579
45725869,1000,1000,1000,1000,81328289,1580,1580,1578,1578
45728368,1000,1000,1000,1000,81428249,1580,1579,1577,1577
45730867,1000,1000,1000,1000,81528209,1580,1581,1577,1577
45733366,1000,1000,1000,1000,81628169,1581,1581,1577,1577
45735865,1000,1000,1000,1000,81728962,1582,1581,1577,1577
45738364,1000,1000,1000,1000,81828922,1581,1581,1577,1577
45740863,1000,1000,1000,1000,81928882,1581,1581,1578,1578
45743362,1000,1000,1000,1000,82028842,1582,1582,1580,1580
45745861,1000,1000,1000,1000,82128802,1581,1581,1580,1580
45748360,1000,1000,1000,1000,82228762,1579,1580,1580,1579
45750859,1000,1000,1000,1000,82328722,1580,1580,1580,1580
45753358,1000,1000,1000,1000,82428682,1579,1580,1581,1581
45755857,1000,1000,1000,1000,82528642,1579,1579,1581,1581
45758356,1000,1000,1000,1000,82628602,1580,1580,1582,1581
45760855,1000,1000,1000,1000,82728562,1580,1580,1582,1582
45763354,1000,1000,1000,1000,82828522,1580,1581,1582,1582
45765853,1000,1000,1000,1000,82928482,1581,1581,1582,1582
45768352,1000,1000,1000,1000,83028442,1581,1581,1581,1581
45770851,1000,1000,1000,1000,83128402,1581,1581,1582,1581
45773350,1000,1000,1000,1000,83228362,1581,1582,1587,1573
45775849,1000,1000,1000,1000,83328322,1580,1580,1584,1572
45778348,1000,1000,1000,1000,83428282,1578,1578,1578,1574
45780847,1000,1000,1000,1000,83528242,1575,1575,1572,1576
45783346,1000,1000,1000,1000,83628202,1572,1572,1567,1574
45785845,1000,1000,1000,1000,83728162,1569,1569,1564,1572
45788344,1000,1000,1000,1000,83828955,1568,1568,1565,1569
45790843,1000,1000,1000,1000,83928915,1566,1566,1565,1566
45793342,1000,1000,1000,1000,84028875,1565,1566,1566,1565
45795841,1000,1000,1000,1000,84128835,1565,1565,1566,1563
45798340,1000,1000,1000,1000,84228795,1565,1565,1567,1564
45800839,1000,1000,1000,1000,84328755,1565,1564,1566,1564
45803338,1000,1000,1000,1000,84428715,1564,1564,1565,1564
45805837,1000,1000,1000,1000,84528675,1563,1563,1564,1563
45808336,1000,1000,1000,1000,84628635,1562,1562,1563,1563
45810835,1000,1000,1000,1000,84728595,1561,1561,1562,1562
45813334,1000,1000,1000,1000,84828555,1561,1561,1561,1561
45815833,1000,1000,1000,1000,84928515,1561,1561,1562,1562
45818332,1000,1000,1000,1000,85028475,1561,1561,1561,1561
45820831,1000,1000,1000,1000,85128435,1559,1559,1559,1559
45823330,1000,1000,1000,1000,85228395,1560,1560,1560,1559
45825829,1000,1000,1000,1000,85328355,1559,1559,1559,1558
45828328,1000,1000,1000,1000,85428315,1559,1559,1559,1558
45830827,1000,1000,1000,1000,85528275,1559,1559,1559,1558
45833326,1000,1000,1000,1000,85628235,1559,1559,1560,1558
45835825,1000,1000,1000,1000,85728195,1559,1558,1559,1558
45838324,1000,1000,1000,1000,85828155,1559,1559,1560,1558
45840823,1000,1000,1000,1000,85928948,1559,1559,1560,1557
45843322,1000,1000,1000,1000,86028908,1559,1559,1559,1560
45845821,1000,1000,1000,1000,86128868,1559,1560,1557,1562
45848320,1000,1000,1000,1000,86228828,1560,1560,1557,1563
45850819,1000,1000,1000,1000,86328788,1561,1560,1558,1564
45853318,1000,1000,1000,1000,86428748,1561,1561,1559,1562
45855817,1000,1000,1000,1000,86528708,1559,1559,1559,1559
45858316,1000,1000,1000,1000,86628668,1558,1558,1560,1556
45860815,1000,1000,1000,1000,86728628,1559,1559,1558,1559
45863314,1000,1000,1000,1000,86828588,1557,1556,1555,1558
45865813,1000,1000,1000,1000,86928548,1553,1552,1551,1554
45868312,1000,1000,1000,1000,87028508,1547,1546,1546,1547
45870811,1000,1000,1000,1000,87128468,1540,1540,1539,1539
45873310,1000,1000,1000,1000,87228428,1534,1534,1534,1533
45875809,1000,1000,1000,1000,87328388,1526,1527,1527,1526
45878308,1000,1000,1000,1000,87428348,1521,1522,1521,1521
45880807,1000,1000,1000,1000,87528308,1519,1520,1519,1520
45883306,1000,1000,1000,1000,87628268,1520,1520,1520,1520
45885805,1000,1000,1000,1000,87728228,1521,1521,1521,1522
45888304,1000,1000,1000,1000,87828188,1524,1525,1524,1525
45890803,1000,1000,1000,1000,87928981,1528,1528,1528,1529
45893302,1000,1000,1000,1000,88028941,1533,1533,1533,1533
45895801,1000,1000,1000,1000,88128901,1538,1538,1538,1537
45898300,1000,1000,1000,1000,88228861,1540,1539,1541,1539
45900799,1000,1000,1000,1000,88328821,1543,1542,1543,1542
45903298,1000,1000,1000,1000,88428781,1545,1544,1545,1544
45905797,1000,1000,1000,1000,88528741,1546,1545,1546,1545
45908296,1000,1000,1000,1000,88628701,1546,1545,1546,1546
45910795,1000,1000,1000,1000,88728661,1546,1546,1546,1547
45913294,1000,1000,1000,1000,88828621,1547,1548,1547,1547
45915793,1000,1000,1000,1000,88928581,1548,1548,1548,1548
45918292,1000,1000,1000,1000,89028541,1546,1546,1547,1546
45920791,1000,1000,1000,1000,89128501,1547,1547,1547,1546
45923290,1000,1000,1000,1000,89228461,1546,1546,1545,1545
45925789,1000,1000,1000,1000,89328421,1546,1546,1546,1546
45928288,1000,1000,1000,1000,89428381,1546,1546,1546,1546
45930787,1000,1000,1000,1000,89528341,1545,1545,1545,1545
45933286,1000,1000,1000,1000,89628301,1545,1545,1545,1545
45935785,1000,1000,1000,1000,89728261,1546,1546,1546,1545
45938284,1000,1000,1000,1000,89828221,1545,1545,1545,1545
45940783,1000,1000,1000,1000,89928181,1544,1545,1545,1545
45943282,1000,1000,1000,1000,90028974,1544,1544,1544,1544
45945781,1000,1000,1000,1000,90128934,1544,1544,1544,1544
45948280,1000,1000,1000,1000,90228894,1545,1545,1545,1545
45950779,1000,1000,1000,1000,90328854,1544,1544,1544,1544
45953278,1000,1000,1000,1000,90428814,1544,1544,1544,1543
45955777,1000,1000,1000,1000,90528774,1544,1544,1544,1544
45958276,1000,1000,1000,1000,90628734,1544,1544,1544,1544
45960775,1000,1000,1000,1000,90728694,1544,1543,1543,1544
45963274,1000,1000,1000,1000,90828654,1545,1544,1545,1545
45965773,1000,1000,1000,1000,90928614,1543,1543,1543,1543
45968272,1000,1000,1000,1000,91028574,1544,1544,1544,1544
45970771,1000,1000,1000,1000,91128534,1544,1544,1544,1544
45973270,1000,1000,1000,1000,91228494,1544,1544,1544,1544
45975769,1000,1000,1000,1000,91328454,1544,1544,1544,1544
45978268,1000,1000,1000,1000,91428414,1543,1544,1543,1543
45980767,1000,1000,1000,1000,91528374,1544,1544,1544,1544
45983266,1000,1000,1000,1000,91628334,1544,1544,1544,1544
45985765,1000,1000,1000,1000,91728294,1544,1544,1544,1544
45988264,1000,1000,1000,1000,91828254,1544,1544,1544,1544
45990763,1000,1000,1000,1000,91928214,1544,1544,1544,1544
45993262,1000,1000,1000,1000,92028174,1544,1544,1544,1544
45995761,1000,1000,1000,1000,92128967,1545,1544,1544,1545
45998260,1000,1000,1000,1000,92228927,1544,1544,1544,1544
46000759,1000,1000,1000,1000,92328887,1544,1544,1545,1544
46003258,1000,1000,1000,1000,92428847,1544,1544,1545,1544
46005757,1000,1000,1000,1000,92528807,1545,1545,1545,1545
46008256,1000,1000,1000,1000,92628767,1544,1545,1544,1544
46010755,1000,1000,1000,1000,92728727,1544,1543,1544,1544
46013254,1000,1000,1000,1000,92828687,1545,1544,1544,1545
46015753,1000,1000,1000,1000,92928647,1544,1544,1544,1544
46018252,1000,1000,1000,1000,93028607,1544,1544,1544,1544
46020751,1000,1000,1000,1000,93128567,1544,1544,1544,1544
46023250,1000,1000,1000,1000,93228527,1544,1544,1544,1544
46025749,1000,1000,1000,1000,93328487,1544,1544,1544,1544
46028248,1000,1000,1000,1000,93428447,1545,1545,1545,1545
46030747,1000,1000,1000,1000,93528407,1544,1544,1544,1544
46033246,1000,1000,1000,1000,93628367,1545,1544,1544,1544
46035745,1000,1000,1000,1000,93728327,1544,1544,1544,1544
46038244,1000,1000,1000,1000,93828287,1544,1544,1544,1544
46040743,1000,1000,1000,1000,93928247,1544,1544,1544,1545
46043242,1000,1000,1000,1000,94028207,1544,1544,1544,1544
46045741,1000,1000,1000,1000,94128167,1544,1544,1544,1544
46048240,1000,1000,1000,1000,94228960,1544,1544,1544,1543
46050739,1000,1000,1000,1000,94328920,1544,1543,1543,1544
46053238,1000,1000,1000,1000,94428880,1543,1543,1543,1544
46055737,1000,1000,1000,1000,94528840,1544,1543,1544,1544
46058236,1000,1000,1000,1000,94628800,1544,1544,1544,1544
46060735,1000,1000,1000,1000,94728760,1545,1545,1545,1544
46063234,1000,1000,1000,1000,94828720,1544,1545,1544,1544
46065733,1000,1000,1000,1000,94928680,1544,1544,1544,1544
46068232,1000,1000,1000,1000,95028640,1544,1544,1544,1544
46070731,1000,1000,1000,1000,95128600,1545,1545,1545,1545
46073230,1000,1000,1000,1000,95228560,1544,1544,1544,1544
46075729,1000,1000,1000,1000,95328520,1545,1545,1544,1545
46078228,1000,1000,1000,1000,95428480,1543,1544,1544,1544
46080727,1000,1000,1000,1000,95528440,1544,1544,1544,1544
46083226,1000,1000,1000,1000,95628400,1544,1545,1545,1544
46085725,1000,1000,1000,1000,95728360,1544,1544,1544,1543
46088224,1000,1000,1000,1000,95828320,1543,1543,1543,1543
46090723,1000,1000,1000,1000,95928280,1544,1543,1544,1544
46093222,1000,1000,1000,1000,96028240,1544,1544,1544,1545
46095721,1000,1000,1000,1000,96128200,1544,1543,1543,1544
46098220,1000,1000,1000,1000,96228160,1543,1543,1543,1543
46100719,1000,1000,1000,1000,96328953,1543,1543,1543,1543
46103218,1000,1000,1000,1000,96428913,1544,1544,1544,1544
46105717,1000,1000,1000,1000,96528873,1544,1544,1544,1544
46108216,1000,1000,1000,1000,96628833,1544,1544,1544,1544
46110715,1000,1000,1000,1000,96728793,1544,1544,1544,1544
46113214,1000,1000,1000,1000,96828753,1544,1545,1545,1544
46115713,1000,1000,1000,1000,96928713,1545,1544,1544,1545
46118212,1000,1000,1000,1000,97028673,1545,1545,1545,1546
46120711,1000,1000,1000,1000,97128633,1533,1530,1532,1531
46123210,1000,1000,1000,1000,97228593,1371,1339,1370,1340
46125709,1000,1000,1000,1000,97328553,1294,1241,1293,1243
46128208,1000,1000,1000,1000,97428513,1271,1210,1270,1211
46130707,1000,1000,1000,1000,97528473,1254,1186,1253,1188
46133206,1000,1000,1000,1000,97628433,1228,1150,1227,1151
46135705,1000,1000,1000,1000,97728393,1193,1150,1192,1151
46138204,1000,1000,1000,1000,97828353,1193,1150,1193,1150
46140703,1000,1000,1000,1000,97928313,1193,1150,1192,1151
46143202,1000,1000,1000,1000,98028273,1193,1150,1176,1172
46145701,1000,1000,1000,1000,98128233,1193,1150,1182,1165
46148200,1000,1000,1000,1000,98228193,1193,1150,1184,1162
46150699,1000,1000,1000,1000,98328986,1193,1150,1184,1163
46153198,1000,1000,1000,1000,98428946,1193,1150,1183,1163
46155697,1000,1000,1000,1000,98528906,1193,1150,1183,1164
46158196,1000,1000,1000,1000,98628866,1193,1150,1182,1165
46160695,1000,1000,1000,1000,98728826,1193,1150,1182,1165
46163194,1000,1000,1000,1000,98828786,1193,1150,1189,1155
46165693,1000,1000,1000,1000,98928746,1193,1150,1189,1157
46168192,1000,1000,1000,1000,99028706,1193,1150,1188,1157
46170691,1000,1000,1000,1000,99128666,1193,1150,1188,1158
46173190,1000,1000,1000,1000,99228626,1172,1150,1167,1156
46175689,1000,1000,1000,1000,99328586,1000,1000,1000,1000
46178188,1000,1000,1000,1000,99428546,1000,1000,1000,1000
46180687,1000,1000,1000,1000,99528506,1000,1000,1000,1000
46183186,1000,1000,1000,1000,99628466,1000,1000,1000,1000
46185685,1000,1000,1000,1000,99728426,1000,1000,1000,1000
46188184,1000,1000,1000,1000,99828386,1000,1000,1000,1000
46190683,1000,1000,1000,1000,99928346,1000,1000,1000,1000
46193182,1000,1000,1000,1000,100028306,1000,1000,1000,1000
46195681,1000,1000,1000,1000,100128266,1000,1000,1000,1000
46198180,1000,1000,1000,1000,100228226,1000,1000,1000,1000
46200679,1000,1000,1000,1000,100328186,1000,1000,1000,1000
46203178,1000,1000,1000,1000,100428979,1000,1000,1000,1000
46205677,1000,1000,1000,1000,100528939,1000,1000,1000,1000
46208176,1000,1000,1000,1000,100628899,1000,1000,1000,1000
46210675,1000,1000,1000,1000,100728859,1000,1000,1000,1000
46213174,1000,1000,1000,1000,100828819,1000,1000,1000,1000
46215673,1000,1000,1000,1000,100928779,1000,1000,1000,1000
46218172,1000,1000,1000,1000,101028739,1000,1000,1000,1000
46220671,1000,1000,1000,1000,101128699,1000,1000,1000,1000
46223170,1000,1000,1000,1000,101228659,1000,1000,1000,1000
46225669,1000,1000,1000,1000,101328619,1000,1000,1000,1000
46228168,1000,1000,1000,1000,101428579,1000,1000,1000,1000
46230667,1000,1000,1000,1000,101528539,1000,1000,1000,1000
46233166,1000,1000,1000,1000,101628499,1000,1000,1000,1000
46235665,1000,1000,1000,1000,101728459,1000,1000,1000,1000
46238164,1000,1000,1000,1000,101828419,1000,1000,1000,1000
46240663,1000,1000,1000,1000,101928379,1000,1000,1000,1000
46243162,1000,1000,1000,1000,102028339,1000,1000,1000,1000
46245661,1000,1000,1000,1000,102128299,1000,1000,1000,1000
46248160,1000,1000,1000,1000,102228259,1000,1000,1000,1000
46250659,1000,1000,1000,1000,102328219,1000,1000,1000,1000
46253158,1000,1000,1000,1000,102428179,1000,1000,1000,1000
46255657,1000,1000,1000,1000,102528972,1000,1000,1000,1000
46258156,1000,1000,1000,1000,102628932,1000,1000,1000,1000
46260655,1000,1000,1000,1000,102728892,1000,1000,1000,1000
46263154,1000,1000,1000,1000,102828852,1000,1000,1000,1000
46266486,1000,1000,1000,1000,102928812,1000,1000,1000,1000
46268985,1000,1000,1000,1000,103028772,1000,1000,1000,1000
46271484,1000,1000,1000,1000,103128732,1000,1000,1000,1000
46273983,1000,1000,1000,1000,103228692,1000,1000,1000,1000
46276482,1000,1000,1000,1000,103328652,1000,1000,1000,1000
46278981,1000,1000,1000,1000,103428612,1000,1000,1000,1000
46281480,1000,1000,1000,1000,103528572,1000,1000,1000,1000
46283979,1000,1000,1000,1000,103628532,1000,1000,1000,1000
46286478,1000,1000,1000,1000,103728492,1000,1000,1000,1000
46288977,1000,1000,1000,1000,103828452,1000,1000,1000,1000
46291476,1000,1000,1000,1000,103928412,1000,1000,1000,1000
46293975,1000,1000,1000,1000,104028372,1000,1000,1000,1000
46296474,1000,1000,1000,1000,104128332,1000,1000,1000,1000
46298973,1000,1000,1000,1000,104228292,1000,1000,1000,1000
46301472,1000,1000,1000,1000,104328252,1000,1000,1000,1000
46303971,1000,1000,1000,1000,104428212,1000,1000,1000,1000
46306470,1000,1000,1000,1000,104528172,1000,1000,1000,1000
46308969,1000,1000,1000,1000,104628965,1000,1000,1000,1000
46311468,1000,1000,1000,1000,104728925,1000,1000,1000,1000
46313967,1000,1000,1000,1000,104828885,1000,1000,1000,1000
46316466,1000,1000,1000,1000,104928845,1000,1000,1000,1000
46318965,1000,1000,1000,1000,105028805,1000,1000,1000,1000
46321464,1000,1000,1000,1000,105128765,1000,1000,1000,1000
46323963,1000,1000,1000,1000,105228725,1000,1000,1000,1000
46326462,1000,1000,1000,1000,105328685,1000,1000,1000,1000
46328961,1000,1000,1000,1000,105428645,1000,1000,1000,1000
46331460,1000,1000,1000,1000,105528605,1000,1000,1000,1000
46333959,1000,1000,1000,1000,105628565,1000,1000,1000,1000
46336458,1000,1000,1000,1000,105728525,1000,1000,1000,1000
46338957,1000,1000,1000,1000,105828485,1000,1000,1000,1000
46341456,1000,1000,1000,1000,105928445,1000,1000,1000,1000
46343955,1000,1000,1000,1000,106028405,1000,1000,1000,1000
46346454,1000,1000,1000,1000,106128365,1000,1000,1000,1000
46348953,1000,1000,1000,1000,106228325,1000,1000,1000,1000
46351452,1000,1000,1000,1000,106328285,1000,1000,1000,1000
46353951,1000,1000,1000,1000,106428245,1000,1000,1000,1000
46356450,1000,1000,1000,1000,106528205,1000,1000,1000,1000
46358949,1000,1000,1000,1000,106628165,1000,1000,1000,1000
46361448,1000,1000,1000,1000,,,,,
46363947,1000,1000,1000,1000,,,,,
46366446,1000,1000,1000,1000,,,,,
46368945,1000,1000,1000,1000,,,,,
46371444,1000,1000,1000,1000,,,,,
46373943,1000,1000,1000,1000,,,,,
46376442,1000,1000,1000,1000,,,,,
46378941,1000,1000,1000,1000,,,,,
46381440,1000,1000,1000,1000,,,,,
46383939,1000,1000,1000,1000,,,,,
46386438,1000,1000,1000,1000,,,,,
46388937,1000,1000,1000,1000,,,,,
46391436,1000,1000,1000,1000,,,,,
46393935,1000,1000,1000,1000,,,,,
46396434,1000,1000,1000,1000,,,,,
46398933,1000,1000,1000,1000,,,,,
46401432,1000,1000,1000,1000,,,,,
46403931,1000,1000,1000,1000,,,,,
46406430,1000,1000,1000,1000,,,,,
46408929,1000,1000,1000,1000,,,,,
46411428,1000,1000,1000,1000,,,,,
46413927,1000,1000,1000,1000,,,,,
46416426,1000,1000,1000,1000,,,,,
46418925,1000,1000,1000,1000,,,,,
46421424,1000,1000,1000,1000,,,,,
46423923,1000,1000,1000,1000,,,,,
46426422,1000,1000,1000,1000,,,,,
46428921,1000,1000,1000,1000,,,,,
46431420,1000,1000,1000,1000,,,,,
46433919,1000,1000,1000,1000,,,,,
46436418,1000,1000,1000,1000,,,,,
46438917,1000,1000,1000,1000,,,,,
46441416,1000,1000,1000,1000,,,,,
46443915,1000,1000,1000,1000,,,,,
46446414,1000,1000,1000,1000,,,,,
46448913,1000,1000,1000,1000,,,,,
46451412,1000,1000,1000,1000,,,,,
46453911,1000,1000,1000,1000,,,,,
46456410,1000,1000,1000,1000,,,,,
46458909,1000,1000,1000,1000,,,,,
46461408,1000,1000,1000,1000,,,,,
46463907,1000,1000,1000,1000,,,,,
46466406,1000,1000,1000,1000,,,,,
46468905,1000,1000,1000,1000,,,,,
46471404,1000,1000,1000,1000,,,,,
46473903,1000,1000,1000,1000,,,,,
46476402,1000,1000,1000,1000,,,,,
46478901,1000,1000,1000,1000,,,,,
46481400,1000,1000,1000,1000,,,,,
46483899,1000,1000,1000,1000,,,,,
46486398,1000,1000,1000,1000,,,,,
46488897,1000,1000,1000,1000,,,,,
46491396,1000,1000,1000,1000,,,,,
46493895,1000,1000,1000,1000,,,,,
46496394,1000,1000,1000,1000,,,,,
46498893,1000,1000,1000,1000,,,,,
46501392,1000,1000,1000,1000,,,,,
46503891,1000,1000,1000,1000,,,,,
46506390,1000,1000,1000,1000,,,,,
46508889,1000,1000,1000,1000,,,,,
46511388,1000,1000,1000,1000,,,,,
46513887,1000,1000,1000,1000,,,,,
46516386,1000,1000,1000,1000,,,,,
46518885,1000,1000,1000,1000,,,,,
46521384,1000,1000,1000,1000,,,,,
46523883,1000,1000,1000,1000,,,,,
46526382,1000,1000,1000,1000,,,,,
46528881,1000,1000,1000,1000,,,,,
46531380,1000,1000,1000,1000,,,,,
46533879,1000,1000,1000,1000,,,,,
46536378,1000,1000,1000,1000,,,,,
46538877,1000,1000,1000,1000,,,,,
46541376,1000,1000,1000,1000,,,,,
46543875,1000,1000,1000,1000,,,,,
46546374,1000,1000,1000,1000,,,,,
46548873,1000,1000,1000,1000,,,,,
46551372,1000,1000,1000,1000,,,,,
46553871,1000,1000,1000,1000,,,,,
46556370,1000,1000,1000,1000,,,,,
46558869,1000,1000,1000,1000,,,,,
46561368,1000,1000,1000,1000,,,,,
46563867,1000,1000,1000,1000,,,,,
46566366,1000,1000,1000,1000,,,,,
46568865,1000,1000,1000,1000,,,,,
46571364,1000,1000,1000,1000,,,,,
46573863,1000,1000,1000,1000,,,,,
46576362,1000,1000,1000,1000,,,,,
46578861,1000,1000,1000,1000,,,,,
46581360,1000,1000,1000,1000,,,,,
46583859,1000,1000,1000,1000,,,,,
46586358,1000,1000,1000,1000,,,,,
46588857,1000,1000,1000,1000,,,,,
46591356,1000,1000,1000,1000,,,,,
46593855,1000,1000,1000,1000,,,,,
46596354,1000,1000,1000,1000,,,,,
46598853,1000,1000,1000,1000,,,,,
46601352,1000,1000,1000,1000,,,,,
46603851,1000,1000,1000,1000,,,,,
46606350,1000,1000,1000,1000,,,,,
46608849,1000,1000,1000,1000,,,,,
46611348,1000,1000,1000,1000,,,,,
46613847,1000,1000,1000,1000,,,,,
46616346,1000,1000,1000,1000,,,,,
46618845,1000,1000,1000,1000,,,,,
46621344,1000,1000,1000,1000,,,,,
46623843,1000,1000,1000,1000,,,,,
46626342,1000,1000,1000,1000,,,,,
46628841,1000,1000,1000,1000,,,,,
46631340,1000,1000,1000,1000,,,,,
46633839,1000,1000,1000,1000,,,,,
46636338,1000,1000,1000,1000,,,,,
46638837,1000,1000,1000,1000,,,,,
46641336,1000,1000,1000,1000,,,,,
46643835,1000,1000,1000,1000,,,,,
46646334,1000,1000,1000,1000,,,,,
46648833,1000,1000,1000,1000,,,,,
46651332,1000,1000,1000,1000,,,,,
46653831,1000,1000,1000,1000,,,,,
46656330,1000,1000,1000,1000,,,,,
46658829,1000,1000,1000,1000,,,,,
46661328,1000,1000,1000,1000,,,,,
46663827,1000,1000,1000,1000,,,,,
46666326,1000,1000,1000,1000,,,,,
46668825,1000,1000,1000,1000,,,,,
46671324,1000,1000,1000,1000,,,,,
46673823,1000,1000,1000,1000,,,,,
46676322,1000,1000,1000,1000,,,,,
46678821,1000,1000,1000,1000,,,,,
46681320,1000,1000,1000,1000,,,,,
46683819,1000,1000,1000,1000,,,,,
46686318,1000,1000,1000,1000,,,,,
46688817,1000,1000,1000,1000,,,,,
46691316,1000,1000,1000,1000,,,,,
46693815,1000,1000,1000,1000,,,,,
46696314,1000,1000,1000,1000,,,,,
46698813,1000,1000,1000,1000,,,,,
46701312,1000,1000,1000,1000,,,,,
46703811,1000,1000,1000,1000,,,,,
46706310,1000,1000,1000,1000,,,,,
46708809,1000,1000,1000,1000,,,,,
46711308,1000,1000,1000,1000,,,,,
46713807,1000,1000,1000,1000,,,,,
46716306,1000,1000,1000,1000,,,,,
46718805,1000,1000,1000,1000,,,,,
46721304,1000,1000,1000,1000,,,,,
46723803,1000,1000,1000,1000,,,,,
46726302,1000,1000,1000,1000,,,,,
46728801,1000,1000,1000,1000,,,,,
46731300,1000,1000,1000,1000,,,,,
46733799,1000,1000,1000,1000,,,,,
46736298,1000,1000,1000,1000,,,,,
46738797,1000,1000,1000,1000,,,,,
46741296,1000,1000,1000,1000,,,,,
46743795,1000,1000,1000,1000,,,,,
46746294,1000,1000,1000,1000,,,,,
46748793,1000,1000,1000,1000,,,,,
46751292,1000,1000,1000,1000,,,,,
46753791,1000,1000,1000,1000,,,,,
46756290,1000,1000,1000,1000,,,,,
46758789,1000,1000,1000,1000,,,,,
46761288,1000,1000,1000,1000,,,,,
46763787,1000,1000,1000,1000,,,,,
46766286,1000,1000,1000,1000,,,,,
46768785,1000,1000,1000,1000,,,,,
46771284,1000,1000,1000,1000,,,,,
46773783,1000,1000,1000,1000,,,,,
46776282,1000,1000,1000,1000,,,,,
46778781,1000,1000,1000,1000,,,,,
46781280,1000,1000,1000,1000,,,,,
46783779,1000,1000,1000,1000,,,,,
46786278,1000,1000,1000,1000,,,,,
46788777,1000,1000,1000,1000,,,,,
46791276,1000,1000,1000,1000,,,,,
46793775,1000,1000,1000,1000,,,,,
46796274,1000,1000,1000,1000,,,,,
46798773,1000,1000,1000,1000,,,,,
46801272,1000,1000,1000,1000,,,,,
46803771,1000,1000,1000,1000,,,,,
46806270,1000,1000,1000,1000,,,,,
46808769,1000,1000,1000,1000,,,,,
46811268,1000,1000,1000,1000,,,,,
46813767,1000,1000,1000,1000,,,,,
46816266,1000,1000,1000,1000,,,,,
46818765,1000,1000,1000,1000,,,,,
46821264,1001,1001,1001,1001,,,,,
46823763,1002,1002,1002,1002,,,,,
46826262,1003,1003,1003,1003,,,,,
46828761,1003,1003,1003,1003,,,,,
46831260,1004,1004,1004,1004,,,,,
46833759,1005,1005,1005,1005,,,,,
46836258,1006,1006,1006,1006,,,,,
46838757,1006,1006,1006,1006,,,,,
46841256,1007,1007,1007,1007,,,,,
46843755,1008,1008,1008,1008,,,,,
46846254,1009,1009,1009,1009,,,,,
46848753,1009,1009,1009,1009,,,,,
46851252,1010,1010,1010,1010,,,,,
46853751,1011,1011,1011,1011,,,,,
46856250,1012,1012,1012,1012,,,,,
46858749,1012,1012,1012,1012,,,,,
46861248,1013,1013,1013,1013,,,,,
46863747,1014,1014,1014,1014,,,,,
46866246,1015,1015,1015,1015,,,,,
46868745,1015,1015,1015,1015,,,,,
46871244,1016,1016,1016,1016,,,,,
46873743,1017,1017,1017,1017,,,,,
46876242,1018,1018,1018,1018,,,,,
46878741,1018,1018,1018,1018,,,,,
46881240,1019,1019,1019,1019,,,,,
46883739,1020,1020,1020,1020,,,,,
46886238,1021,1021,1021,1021,,,,,
46888737,1021,1021,1021,1021,,,,,
46891236,1022,1022,1022,1022,,,,,
46893735,1023,1023,1023,1023,,,,,
46896234,1024,1024,1024,1024,,,,,
46898733,1024,1024,1024,1024,,,,,
46901232,1025,1025,1025,1025,,,,,
46903731,1026,1026,1026,1026,,,,,
46906230,1027,1027,1027,1027,,,,,
46908729,1027,1027,1027,1027,,,,,
46911228,1028,1028,1028,1028,,,,,
46913727,1029,1029,1029,1029,,,,,
46916226,1030,1030,1030,1030,,,,,
46918725,1030,1030,1030,1030,,,,,
46921224,1031,1031,1031,1031,,,,,
46923723,1032,1032,1032,1032,,,,,
46926222,1033,1033,1033,1033,,,,,
46928721,1033,1033,1033,1033,,,,,
46931220,1034,1034,1034,1034,,,,,
46933719,1035,1035,1035,1035,,,,,
46936218,1036,1036,1036,1036,,,,,
46938717,1036,1036,1036,1036,,,,,
46941216,1037,1037,1037,1037,,,,,
46943715,1038,1038,1038,1038,,,,,
46946214,1039,1039,1039,1039,,,,,
46948713,1039,1039,1039,1039,,,,,
46951212,1040,1040,1040,1040,,,,,
46953711,1041,1041,1041,1041,,,,,
46956210,1042,1042,1042,1042,,,,,
46958709,1042,1042,1042,1042,,,,,
46961208,1043,1043,1043,1043,,,,,
46963707,1044,1044,1044,1044,,,,,
46966206,1045,1045,1045,1045,,,,,
46968705,1045,1045,1045,1045,,,,,
46971204,1046,1046,1046,1046,,,,,
46973703,1047,1047,1047,1047,,,,,
46976202,1048,1048,1048,1048,,,,,
46978701,1048,1048,1048,1048,,,,,
46981200,1049,1049,1049,1049,,,,,
46983699,1050,1050,1050,1050,,,,,
46986198,1051,1051,1051,1051,,,,,
46988697,1051,1051,1051,1051,,,,,
46991196,1052,1052,1052,1052,,,,,
46993695,1053,1053,1053,1053,,,,,
46996194,1054,1054,1054,1054,,,,,
46998693,1054,1054,1054,1054,,,,,
47001192,1055,1055,1055,1055,,,,,
47003691,1056,1056,1056,1056,,,,,
47006190,1057,1057,1057,1057,,,,,
47008689,1057,1057,1057,1057,,,,,
47011188,1058,1058,1058,1058,,,,,
47013687,1059,1059,1059,1059,,,,,
47016186,1060,1060,1060,1060,,,,,
47018685,1060,1060,1060,1060,,,,,
47021184,1061,1061,1061,1061,,,,,
47023683,1062,1062,1062,1062,,,,,
47026182,1063,1063,1063,1063,,,,,
47028681,1063,1063,1063,1063,,,,,
47031180,1064,1064,1064,1064,,,,,
47033679,1065,1065,1065,1065,,,,,
47036178,1066,1066,1066,1066,,,,,
47038677,1066,1066,1066,1066,,,,,
47041176,1067,1067,1067,1067,,,,,
47043675,1068,1068,1068,1068,,,,,
47046174,1069,1069,1069,1069,,,,,
47048673,1069,1069,1069,1069,,,,,
47051172,1070,1070,1070,1070,,,,,
47053671,1071,1071,1071,1071,,,,,
47056170,1072,1072,1072,1072,,,,,
47058669,1072,1072,1072,1072,,,,,
47061168,1073,1073,1073,1073,,,,,
47063667,1074,1074,1074,1074,,,,,
47066166,1075,1075,1075,1075,,,,,
47068665,1075,1075,1075,1075,,,,,
47071164,1076,1076,1076,1076,,,,,
47073663,1077,1077,1077,1077,,,,,
47076162,1078,1078,1078,1078,,,,,
47078661,1078,1078,1078,1078,,,,,
47081160,1079,1079,1079,1079,,,,,
47083659,1080,1080,1080,1080,,,,,
47086158,1081,1081,1081,1081,,,,,
47088657,1081,1081,1081,1081,,,,,
47091156,1082,1082,1082,1082,,,,,
47093655,1083,1083,1083,1083,,,,,
47096154,1084,1084,1084,1084,,,,,
47098653,1084,1084,1084,1084,,,,,
47101152,1085,1085,1085,1085,,,,,
47103651,1086,1086,1086,1086,,,,,
47106150,1087,1087,1087,1087,,,,,
47108649,1087,1087,1087,1087,,,,,
47111148,1088,1088,1088,1088,,,,,
47113647,1089,1089,1089,1089,,,,,
47116146,1090,1090,1090,1090,,,,,
47118645,1090,1090,1090,1090,,,,,
47121144,1091,1091,1091,1091,,,,,
47123643,1092,1092,1092,1092,,,,,
47126142,1093,1093,1093,1093,,,,,
47128641,1093,1093,1093,1093,,,,,
47131140,1094,1094,1094,1094,,,,,
47133639,1095,1095,1095,1095,,,,,
47136138,1096,1096,1096,1096,,,,,
47138637,1096,1096,1096,1096,,,,,
47141136,1097,1097,1097,1097,,,,,
47143635,1098,1098,1098,1098,,,,,
47146134,1099,1099,1099,1099,,,,,
47148633,1099,1099,1099,1099,,,,,
47151132,1100,1100,1100,1100,,,,,
47153631,1101,1101,1101,1101,,,,,
47156130,1101,1101,1101,1101,,,,,
47158629,1102,1102,1102,1102,,,,,
47161128,1103,1103,1103,1103,,,,,
47163627,1104,1104,1104,1104,,,,,
47166126,1104,1104,1104,1104,,,,,
47168625,1105,1105,1105,1105,,,,,
47171124,1106,1106,1106,1106,,,,,
47173623,1107,1107,1107,1107,,,,,
47176122,1107,1107,1107,1107,,,,,
47178621,1108,1108,1108,1108,,,,,
47181120,1109,1109,1109,1109,,,,,
47183619,1110,1110,1110,1110,,,,,
47186118,1110,1110,1110,1110,,,,,
47188617,1111,1111,1111,1111,,,,,
47191116,1112,1112,1112,1112,,,,,
47193615,1113,1113,1113,1113,,,,,
47196114,1113,1113,1113,1113,,,,,
47198613,1114,1114,1114,1114,,,,,
47201112,1115,1115,1115,1115,,,,,
47203611,1116,1116,1116,1116,,,,,
47206110,1116,1116,1116,1116,,,,,
47208609,1117,1117,1117,1117,,,,,
47211108,1118,1118,1118,1118,,,,,
47213607,1119,1119,1119,1119,,,,,
47216106,1119,1119,1119,1119,,,,,
47218605,1120,1120,1120,1120,,,,,
47221104,1121,1121,1121,1121,,,,,
47223603,1122,1122,1122,1122,,,,,
47226102,1122,1122,1122,1122,,,,,
47228601,1123,1123,1123,1123,,,,,
47231100,1124,1124,1124,1124,,,,,
47233599,1125,1125,1125,1125,,,,,
47236098,1125,1125,1125,1125,,,,,
47238597,1126,1126,1126,1126,,,,,
47241096,1127,1127,1127,1127,,,,,
47243595,1128,1128,1128,1128,,,,,
47246094,1128,1128,1128,1128,,,,,
47248593,1129,1129,1129,1129,,,,,
47251092,1130,1130,1130,1130,,,,,
47253591,1131,1131,1131,1131,,,,,
47256090,1131,1131,1131,1131,,,,,
47258589,1132,1132,1132,1132,,,,,
47261088,1133,1133,1133,1133,,,,,
47263587,1134,1134,1134,1134,,,,,
47266086,1134,1134,1134,1134,,,,,
47268585,1135,1135,1135,1135,,,,,
47271084,1136,1136,1136,1136,,,,,
47273583,1137,1137,1137,1137,,,,,
47276082,1137,1137,1137,1137,,,,,
47278581,1138,1138,1138,1138,,,,,
47281080,1139,1139,1139,1139,,,,,
47283579,1140,1140,1140,1140,,,,,
47286078,1140,1140,1140,1140,,,,,
47288577,1141,1141,1141,1141,,,,,
47291076,1142,1142,1142,1142,,,,,
47293575,1143,1143,1143,1143,,,,,
47296074,1143,1143,1143,1143,,,,,
47298573,1144,1144,1144,1144,,,,,
47301072,1145,1145,1145,1145,,,,,
47303571,1146,1146,1146,1146,,,,,
47306070,1146,1146,1146,1146,,,,,
47308569,1147,1147,1147,1147,,,,,
47311068,1148,1148,1148,1148,,,,,
47313567,1149,1149,1149,1149,,,,,
47316066,1149,1149,1149,1149,,,,,
47318565,1150,1150,1150,1150,,,,,
47321064,1161,1154,1155,1161,,,,,
47323563,1169,1162,1163,1169,,,,,
47326062,1177,1170,1171,1177,,,,,
47328561,1184,1178,1178,1185,,,,,
47331060,1192,1186,1186,1192,,,,,
47333559,1199,1193,1194,1200,,,,,
47336058,1207,1201,1201,1207,,,,,
47338557,1214,1208,1208,1214,,,,,
47341056,1221,1215,1215,1222,,,,,
47343555,1228,1222,1223,1228,,,,,
47346054,1235,1229,1230,1235,,,,,
47348553,1242,1236,1236,1242,,,,,
47351052,1248,1243,1243,1249,,,,,
47353551,1255,1249,1250,1255,,,,,
47356050,1262,1256,1256,1262,,,,,
47358549,1268,1263,1263,1268,,,,,
47361048,1274,1269,1269,1275,,,,,
47363547,1281,1275,1276,1281,,,,,
47366046,1287,1282,1282,1287,,,,,
47368545,1293,1288,1288,1293,,,,,
47371044,1299,1294,1294,1299,,,,,
47373543,1305,1300,1300,1305,,,,,
47376042,1311,1306,1306,1311,,,,,
47378541,1317,1312,1312,1317,,,,,
47381040,1323,1318,1318,1323,,,,,
47383539,1328,1324,1324,1329,,,,,
47386038,1334,1329,1330,1335,,,,,
47388537,1340,1335,1335,1340,,,,,
47391036,1345,1341,1341,1346,,,,,
47393535,1351,1346,1347,1351,,,,,
47396034,1357,1352,1352,1357,,,,,
47398533,1362,1357,1358,1362,,,,,
47401032,1367,1363,1363,1368,,,,,
47403531,1373,1368,1368,1373,,,,,
47406030,1378,1373,1374,1378,,,,,
47408529,1383,1379,1379,1384,,,,,
47411028,1389,1384,1384,1389,,,,,
47413527,1394,1389,1390,1394,,,,,
47416026,1399,1394,1395,1399,,,,,
47418525,1404,1399,1400,1404,,,,,
47421024,1409,1404,1405,1409,,,,,
47423523,1414,1409,1410,1414,,,,,
47426022,1419,1414,1415,1419,,,,,
47428521,1424,1419,1420,1424,,,,,
47431020,1429,1424,1425,1429,,,,,
47433519,1434,1429,1430,1434,,,,,
47436018,1439,1434,1435,1439,,,,,
47438517,1444,1439,1439,1444,,,,,
47441016,1448,1444,1444,1448,,,,,
47443515,1453,1448,1449,1453,,,,,
47446014,1458,1453,1454,1458,,,,,
47448513,1462,1458,1458,1462,,,,,
47451012,1467,1463,1463,1467,,,,,
47453511,1472,1467,1468,1472,,,,,
47456010,1476,1472,1472,1476,,,,,
47458509,1481,1476,1477,1481,,,,,
47461008,1485,1481,1481,1485,,,,,
47463507,1490,1485,1486,1490,,,,,
47466006,1494,1490,1490,1494,,,,,
47468505,1499,1494,1495,1499,,,,,
47471004,1503,1499,1499,1503,,,,,
47473503,1508,1503,1504,1508,,,,,
47476002,1512,1508,1508,1512,,,,,
47478501,1516,1512,1512,1516,,,,,
47481000,1521,1516,1517,1521,,,,,
47483499,1525,1521,1521,1525,,,,,
47485998,1529,1525,1525,1529,,,,,
47488497,1533,1529,1530,1534,,,,,
47490996,1538,1533,1534,1538,,,,,
47493495,1542,1538,1538,1542,,,,,
47495994,1546,1542,1542,1546,,,,,
47498493,1550,1546,1546,1550,,,,,
47500992,1554,1550,1551,1555,,,,,
47503491,1558,1554,1555,1559,,,,,
47505990,1563,1558,1559,1563,,,,,
47508489,1567,1562,1563,1567,,,,,
47510988,1571,1567,1567,1571,,,,,
47513487,1575,1571,1571,1575,,,,,
47515986,1579,1575,1575,1579,,,,,
47518485,1583,1579,1579,1583,,,,,
47520984,1587,1583,1583,1587,,,,,
47523483,1591,1587,1587,1591,,,,,
47525982,1595,1591,1591,1595,,,,,
47528481,1599,1594,1595,1599,,,,,
47530980,1602,1598,1599,1603,,,,,
47533479,1606,1602,1603,1606,,,,,
47535978,1610,1606,1607,1610,,,,,
47538477,1614,1610,1610,1614,,,,,
47540976,1618,1614,1614,1618,,,,,
47543475,1622,1618,1618,1622,,,,,
47545974,1626,1621,1622,1626,,,,,
47548473,1629,1625,1626,1629,,,,,
47550972,1633,1629,1630,1633,,,,,
47553471,1637,1633,1633,1637,,,,,
47555970,1641,1637,1637,1641,,,,,
47558469,1644,1640,1641,1644,,,,,
47560968,1648,1644,1644,1648,,,,,
47563467,1652,1648,1648,1652,,,,,
47565966,1655,1652,1652,1655,,,,,
47568465,1659,1655,1656,1659,,,,,
47570964,1662,1659,1659,1663,,,,,
47573463,1666,1663,1663,1666,,,,,
47575962,1670,1666,1666,1670,,,,,
47578461,1673,1670,1670,1674,,,,,
47580960,1677,1673,1674,1677,,,,,
47583459,1680,1677,1677,1681,,,,,
47585958,1684,1681,1681,1684,,,,,
47588457,1688,1684,1684,1688,,,,,
47590956,1691,1688,1688,1691,,,,,
47593455,1695,1691,1691,1695,,,,,
47595954,1698,1695,1695,1698,,,,,
47598453,1702,1698,1698,1702,,,,,
47600952,1705,1702,1702,1705,,,,,
47603451,1708,1705,1705,1709,,,,,
47605950,1712,1709,1709,1712,,,,,
47608449,1715,1712,1712,1716,,,,,
47610948,1719,1716,1716,1719,,,,,
47613447,1722,1719,1719,1723,,,,,
47615946,1726,1723,1723,1726,,,,,
47618445,1729,1726,1726,1729,,,,,
47620944,1732,1729,1729,1733,,,,,
47623443,1736,1733,1733,1736,,,,,
47625942,1739,1736,1736,1740,,,,,
47628441,1742,1740,1739,1743,,,,,
47630940,1746,1743,1743,1746,,,,,
47633439,1749,1746,1746,1750,,,,,
47635938,1752,1750,1749,1753,,,,,
47638437,1756,1753,1753,1756,,,,,
47640936,1759,1756,1756,1760,,,,,
47643435,1762,1759,1759,1763,,,,,
47645934,1766,1763,1763,1766,,,,,
47648433,1769,1766,1766,1769,,,,,
47650932,1772,1769,1769,1773,,,,,
47653431,1775,1772,1772,1776,,,,,
47655930,1779,1776,1776,1779,,,,,
47658429,1782,1779,1779,1782,,,,,
47660928,1785,1782,1782,1786,,,,,
47663427,1788,1785,1785,1789,,,,,
47665926,1791,1788,1788,1792,,,,,
47668425,1795,1792,1792,1795,,,,,
47670924,1798,1795,1795,1798,,,,,
47673423,1801,1798,1798,1801,,,,,
47675922,1804,1801,1801,1805,,,,,
47678421,1807,1804,1804,1808,,,,,
47680920,1811,1807,1807,1811,,,,,
47683419,1814,1810,1810,1814,,,,,
47685918,1817,1814,1814,1817,,,,,
47688417,1820,1817,1817,1820,,,,,
47690916,1823,1820,1820,1823,,,,,
47693415,1826,1823,1823,1826,,,,,
47695914,1829,1826,1826,1830,,,,,
47698413,1832,1829,1829,1833,,,,,
47700912,1835,1832,1832,1836,,,,,
47703411,1839,1835,1835,1839,,,,,
47705910,1842,1838,1838,1842,,,,,
47708409,1845,1841,1841,1845,,,,,
47710908,1848,1844,1844,1848,,,,,
47713407,1851,1847,1847,1851,,,,,
47715906,1854,1850,1850,1854,,,,,
47718405,1857,1853,1853,1857,,,,,
47720904,1860,1856,1856,1860,,,,,
47723403,1863,1859,1859,1863,,,,,
47725902,1866,1862,1862,1866,,,,,
47728401,1869,1865,1865,1869,,,,,
47730900,1872,1868,1868,1872,,,,,
47733399,1875,1871,1871,1875,,,,,
47735898,1878,1874,1874,1878,,,,,
47738397,1881,1877,1877,1881,,,,,
47740896,1884,1880,1880,1884,,,,,
47743395,1887,1883,1883,1887,,,,,
47745894,1887,1883,1883,1887,,,,,
47748393,1886,1882,1882,1886,,,,,
47750892,1885,1881,1881,1885,,,,,
47753391,1884,1879,1880,1884,,,,,
47755890,1883,1878,1879,1883,,,,,
47758389,1882,1877,1878,1882,,,,,
47760888,1881,1877,1877,1881,,,,,
47763387,1880,1876,1876,1880,,,,,
47765886,1879,1875,1875,1879,,,,,
47768385,1879,1874,1874,1879,,,,,
47770884,1878,1874,1874,1878,,,,,
47773383,1877,1873,1873,1878,,,,,
47775882,1877,1873,1873,1877,,,,,
47778381,1877,1872,1873,1877,,,,,
47780880,1876,1872,1872,1877,,,,,
47783379,1876,1872,1872,1876,,,,,
47785878,1876,1872,1872,1876,,,,,
47788377,1876,1872,1872,1876,,,,,
47790876,1876,1872,1872,1877,,,,,
47793375,1876,1872,1872,1877,,,,,
47795874,1877,1872,1872,1877,,,,,
47798373,1877,1872,1873,1877,,,,,
47800872,1877,1873,1873,1878,,,,,
47803371,1878,1873,1873,1878,,,,,
47805870,1878,1874,1874,1878,,,,,
47808369,1879,1874,1874,1879,,,,,
47810868,1879,1875,1875,1880,,,,,
47813367,1880,1875,1876,1880,,,,,
47815866,1881,1876,1876,1881,,,,,
47818365,1881,1877,1877,1881,,,,,
47820864,1882,1877,1878,1882,,,,,
47823363,1882,1878,1878,1882,,,,,
47825862,1882,1878,1879,1882,,,,,
47828361,1882,1879,1879,1883,,,,,
47830860,1883,1879,1879,1883,,,,,
47833359,1882,1879,1879,1882,,,,,
47835858,1882,1879,1879,1882,,,,,
47838357,1882,1879,1879,1882,,,,,
47840856,1881,1878,1878,1881,,,,,
47843355,1880,1877,1878,1880,,,,,
47845854,1879,1876,1877,1879,,,,,
47848353,1878,1875,1876,1878,,,,,
47850852,1877,1874,1875,1877,,,,,
47853351,1876,1873,1873,1876,,,,,
47855850,1874,1871,1872,1874,,,,,
47858349,1872,1870,1870,1872,,,,,
47860848,1870,1868,1868,1870,,,,,
47863347,1868,1866,1866,1868,,,,,
47865846,1866,1864,1864,1866,,,,,
47868345,1864,1862,1862,1864,,,,,
47870844,1862,1860,1860,1862,,,,,
47873343,1860,1857,1858,1860,,,,,
47875842,1857,1855,1855,1857,,,,,
47878341,1855,1852,1853,1855,,,,,
47880840,1852,1850,1850,1852,,,,,
47883339,1849,1847,1848,1849,,,,,
47885838,1846,1845,1845,1847,,,,,
47888337,1844,1842,1842,1844,,,,,
47890836,1841,1839,1839,1841,,,,,
47893335,1838,1836,1836,1838,,,,,
47895834,1835,1833,1833,1835,,,,,
47898333,1831,1830,1830,1831,,,,,
47900832,1828,1827,1827,1828,,,,,
47903331,1825,1824,1824,1825,,,,,
47905830,1822,1820,1821,1822,,,,,
47908329,1818,1817,1818,1819,,,,,
47910828,1815,1814,1814,1815,,,,,
47913327,1812,1811,1811,1812,,,,,
47915826,1809,1808,1808,1809,,,,,
47918325,1805,1805,1805,1806,,,,,
47920824,1802,1801,1802,1802,,,,,
47923323,1799,1798,1799,1799,,,,,
47925822,1796,1795,1795,1796,,,,,
47928321,1793,1792,1792,1793,,,,,
47930820,1789,1789,1789,1789,,,,,
47933319,1786,1785,1786,1786,,,,,
47935818,1783,1782,1783,1783,,,,,
47938317,1780,1779,1779,1780,,,,,
47940816,1776,1776,1776,1776,,,,,
47943315,1773,1773,1773,1773,,,,,
47945814,1770,1770,1770,1770,,,,,
47948313,1767,1766,1767,1767,,,,,
47950812,1763,1763,1763,1764,,,,,
47953311,1760,1760,1760,1760,,,,,
47955810,1757,1757,1757,1757,,,,,
47958309,1754,1754,1754,1754,,,,,
47960808,1750,1751,1751,1751,,,,,
47963307,1747,1747,1748,1747,,,,,
47965806,1744,1744,1744,1744,,,,,
47968305,1741,1741,1741,1741,,,,,
47970804,1738,1738,1738,1738,,,,,
47973303,1735,1735,1735,1735,,,,,
47975802,1732,1732,1732,1732,,,,,
47978301,1729,1729,1729,1729,,,,,
47980800,1726,1726,1727,1726,,,,,
47983299,1723,1724,1724,1723,,,,,
47985798,1720,1721,1721,1720,,,,,
47988297,1717,1718,1718,1718,,,,,
47990796,1715,1715,1715,1715,,,,,
47993295,1712,1713,1713,1712,,,,,
47995794,1709,1710,1710,1710,,,,,
47998293,1707,1708,1708,1707,,,,,
48000792,1704,1705,1705,1705,,,,,
48003291,1702,1703,1703,1702,,,,,
48005790,1699,1700,1700,1700,,,,,
48008289,1697,1698,1698,1697,,,,,
48010788,1694,1695,1695,1695,,,,,
48013287,1692,1693,1693,1692,,,,,
48015786,1690,1691,1691,1690,,,,,
48018285,1687,1689,1688,1688,,,,,
48020784,1685,1686,1686,1685,,,,,
48023283,1683,1684,1684,1683,,,,,
48025782,1681,1682,1682,1681,,,,,
48028281,1679,1680,1680,1679,,,,,
48030780,1677,1678,1678,1677,,,,,
48033279,1674,1676,1676,1675,,,,,
48035778,1673,1674,1674,1673,,,,,
48038277,1671,1672,1672,1671,,,,,
48040776,1669,1670,1670,1669,,,,,
48043275,1667,1669,1669,1667,,,,,
48045774,1665,1667,1667,1665,,,,,
48048273,1663,1665,1665,1664,,,,,
48050772,1661,1663,1663,1662,,,,,
48053271,1660,1662,1662,1660,,,,,
48055770,1658,1660,1660,1659,,,,,
48058269,1656,1658,1658,1657,,,,,
48060768,1655,1657,1657,1655,,,,,
48063267,1653,1655,1655,1654,,,,,
48065766,1652,1654,1654,1652,,,,,
48068265,1651,1652,1652,1651,,,,,
48070764,1649,1651,1651,1650,,,,,
48073263,1648,1650,1650,1648,,,,,
48075762,1647,1649,1648,1647,,,,,
48078261,1646,1647,1647,1646,,,,,
48080760,1645,1646,1646,1645,,,,,
48083259,1644,1645,1645,1644,,,,,
48085758,1643,1644,1644,1643,,,,,
48088257,1642,1644,1643,1642,,,,,
48090756,1641,1643,1643,1641,,,,,
48093255,1640,1642,1642,1641,,,,,
48095754,1639,1641,1641,1640,,,,,
48098253,1639,1640,1640,1639,,,,,
48100752,1638,1640,1639,1638,,,,,
48103251,1637,1639,1639,1638,,,,,
48105750,1637,1638,1638,1637,,,,,
48108249,1636,1638,1637,1636,,,,,
48110748,1635,1637,1637,1636,,,,,
48113247,1635,1636,1636,1635,,,,,
48115746,1634,1636,1636,1635,,,,,
48118245,1634,1635,1635,1634,,,,,
48120744,1633,1635,1635,1634,,,,,
