timestamp,TimeUS,C1,C2,C3,C4,C5,C6,C7,C8,C9,C10,C11,C12,C13,C14
1706444295.59999990,44828728,1000,1000,1000,1000,0,0,0,0,0,0,0,0,0,0
1706444295.69995999,44928688,1000,1000,1000,1000,0,0,0,0,0,0,0,0,0,0
1706444295.79991984,45028648,1000,1000,1000,1000,0,0,0,0,0,0,0,0,0,0
1706444295.89987993,45128608,1000,1000,1000,1000,0,0,0,0,0,0,0,0,0,0
1706444295.99984002,45228568,1000,1000,1000,1000,0,0,0,0,0,0,0,0,0,0
1706444296.09979987,45328528,1000,1000,1000,1000,0,0,0,0,0,0,0,0,0,0
1706444296.19975996,45428488,1000,1000,1000,1000,0,0,0,0,0,0,0,0,0,0
1706444296.29972005,45528448,1000,1000,1000,1000,0,0,0,0,0,0,0,0,0,0
1706444296.39967990,45628408,1000,1000,1000,1000,0,0,0,0,0,0,0,0,0,0
1706444296.49963999,45728368,1000,1000,1000,1000,0,0,0,0,0,0,0,0,0,0
1706444296.59959984,45828328,1000,1000,1000,1000,0,0,0,0,0,0,0,0,0,0
1706444296.69955993,45928288,1000,1000,1000,1000,0,0,0,0,0,0,0,0,0,0
1706444296.79952002,46028248,1000,1000,1000,1000,0,0,0,0,0,0,0,0,0,0
1706444296.89947987,46128208,1000,1000,1000,1000,0,0,0,0,0,0,0,0,0,0
1706444296.99943995,46228168,1000,1000,1000,1000,0,0,0,0,0,0,0,0,0,0
1706444297.10023284,46328961,1000,1000,1000,1000,0,0,0,0,0,0,0,0,0,0
1706444297.20019293,46428921,1000,1000,1000,1000,0,0,0,0,0,0,0,0,0,0
1706444297.30015302,46528881,1000,1000,1000,1000,0,0,0,0,0,0,0,0,0,0
1706444297.40011287,46628841,1000,1000,1000,1000,0,0,0,0,0,0,0,0,0,0
1706444297.50007296,46728801,1000,1000,1000,1000,0,0,0,0,0,0,0,0,0,0
1706444297.60003304,46828761,1004,1004,1004,1004,0,0,0,0,0,0,0,0,0,0
1706444297.69999290,46928721,1034,1034,1034,1034,0,0,0,0,0,0,0,0,0,0
1706444297.79995298,47028681,1064,1064,1064,1064,0,0,0,0,0,0,0,0,0,0
1706444297.89991283,47128641,1094,1094,1094,1094,0,0,0,0,0,0,0,0,0,0
1706444297.99987292,47228601,1124,1124,1124,1124,0,0,0,0,0,0,0,0,0,0
1706444298.09983301,47328561,1192,1186,1186,1192,0,0,0,0,0,0,0,0,0,0
1706444298.19979286,47428521,1429,1424,1425,1429,0,0,0,0,0,0,0,0,0,0
1706444298.29975295,47528481,1602,1598,1599,1603,0,0,0,0,0,0,0,0,0,0
1706444298.39971304,47628441,1746,1743,1743,1746,0,0,0,0,0,0,0,0,0,0
1706444298.49967289,47728401,1872,1868,1868,1872,0,0,0,0,0,0,0,0,0,0
1706444298.59963298,47828361,1883,1879,1879,1883,0,0,0,0,0,0,0,0,0,0
1706444298.69959283,47928321,1789,1789,1789,1789,0,0,0,0,0,0,0,0,0,0
1706444298.79955292,48028281,1677,1678,1678,1677,0,0,0,0,0,0,0,0,0,0
1706444298.89951301,48128241,1632,1633,1633,1632,0,0,0,0,0,0,0,0,0,0
1706444298.99947286,48228201,1633,1635,1635,1633,0,0,0,0,0,0,0,0,0,0
1706444299.09943295,48328161,1644,1645,1645,1644,0,0,0,0,0,0,0,0,0,0
1706444299.20022583,48428954,1646,1646,1647,1646,0,0,0,0,0,0,0,0,0,0
1706444299.30018592,48528914,1640,1640,1640,1640,0,0,0,0,0,0,0,0,0,0
1706444299.40014601,48628874,1632,1631,1631,1632,0,0,0,0,0,0,0,0,0,0
1706444299.50010586,48728834,1625,1624,1624,1625,0,0,0,0,0,0,0,0,0,0
1706444299.60006595,48828794,1622,1621,1621,1621,0,0,0,0,0,0,0,0,0,0
1706444299.70002604,48928754,1620,1620,1620,1620,0,0,0,0,0,0,0,0,0,0
1706444299.79998589,49028714,1621,1621,1621,1621,0,0,0,0,0,0,0,0,0,0
1706444299.89994597,49128674,1622,1622,1622,1622,0,0,0,0,0,0,0,0,0,0
1706444299.99990606,49228634,1619,1621,1621,1619,0,0,0,0,0,0,0,0,0,0
1706444300.09986591,49328594,1590,1590,1590,1590,0,0,0,0,0,0,0,0,0,0
1706444300.19982600,49428554,1578,1578,1578,1578,0,0,0,0,0,0,0,0,0,0
1706444300.29978585,49528514,1568,1568,1568,1568,0,0,0,0,0,0,0,0,0,0
1706444300.39974594,49628474,1560,1559,1559,1560,0,0,0,0,0,0,0,0,0,0
1706444300.49970603,49728434,1551,1551,1551,1552,0,0,0,0,0,0,0,0,0,0
1706444300.59966588,49828394,1543,1543,1542,1544,0,0,0,0,0,0,0,0,0,0
1706444300.69962597,49928354,1535,1535,1534,1536,0,0,0,0,0,0,0,0,0,0
1706444300.79958606,50028314,1526,1526,1525,1527,0,0,0,0,0,0,0,0,0,0
1706444300.89954591,50128274,1517,1517,1516,1517,0,0,0,0,0,0,0,0,0,0
1706444300.99950600,50228234,1511,1511,1511,1511,0,0,0,0,0,0,0,0,0,0
1706444301.09946585,50328194,1507,1507,1507,1508,0,0,0,0,0,0,0,0,0,0
1706444301.19942594,50428154,1504,1505,1504,1505,0,0,0,0,0,0,0,0,0,0
1706444301.30021906,50528947,1503,1503,1503,1504,0,0,0,0,0,0,0,0,0,0
1706444301.40017891,50628907,1502,1502,1501,1502,0,0,0,0,0,0,0,0,0,0
1706444301.50013900,50728867,1501,1501,1501,1501,0,0,0,0,0,0,0,0,0,0
1706444301.60009885,50828827,1500,1500,1500,1500,0,0,0,0,0,0,0,0,0,0
1706444301.70005894,50928787,1500,1499,1499,1499,0,0,0,0,0,0,0,0,0,0
1706444301.80001903,51028747,1501,1500,1500,1500,0,0,0,0,0,0,0,0,0,0
1706444301.89997888,51128707,1524,1524,1527,1520,0,0,0,0,0,0,0,0,0,0
1706444301.99993896,51228667,1542,1542,1549,1536,0,0,0,0,0,0,0,0,0,0
1706444302.09989905,51328627,1552,1552,1554,1549,0,0,0,0,0,0,0,0,0,0
1706444302.19985890,51428587,1558,1559,1557,1560,0,0,0,0,0,0,0,0,0,0
1706444302.29981899,51528547,1563,1563,1559,1568,0,0,0,0,0,0,0,0,0,0
1706444302.39977884,51628507,1566,1566,1561,1571,0,0,0,0,0,0,0,0,0,0
1706444302.49973893,51728467,1568,1568,1565,1572,0,0,0,0,0,0,0,0,0,0
1706444302.59969902,51828427,1571,1571,1570,1572,0,0,0,0,0,0,0,0,0,0
1706444302.69965887,51928387,1571,1571,1573,1570,0,0,0,0,0,0,0,0,0,0
1706444302.79961896,52028347,1573,1573,1576,1570,0,0,0,0,0,0,0,0,0,0
1706444302.89957905,52128307,1573,1573,1576,1570,0,0,0,0,0,0,0,0,0,0
1706444302.99953890,52228267,1573,1573,1575,1571,0,0,0,0,0,0,0,0,0,0
1706444303.09949899,52328227,1572,1571,1571,1572,0,0,0,0,0,0,0,0,0,0
1706444303.19945884,52428187,1568,1568,1571,1575,0,0,0,0,0,0,0,0,0,0
1706444303.30025196,52528980,1564,1565,1574,1577,0,0,0,0,0,0,0,0,0,0
1706444303.40021205,52628940,1565,1565,1573,1576,0,0,0,0,0,0,0,0,0,0
1706444303.50017190,52728900,1566,1567,1572,1573,0,0,0,0,0,0,0,0,0,0
1706444303.60013199,52828860,1567,1568,1570,1570,0,0,0,0,0,0,0,0,0,0
1706444303.70009184,52928820,1569,1570,1569,1568,0,0,0,0,0,0,0,0,0,0
1706444303.80005193,53028780,1571,1571,1568,1567,0,0,0,0,0,0,0,0,0,0
1706444303.90001202,53128740,1573,1572,1567,1567,0,0,0,0,0,0,0,0,0,0
1706444303.99997187,53228700,1573,1573,1567,1566,0,0,0,0,0,0,0,0,0,0
1706444304.09993196,53328660,1573,1572,1566,1566,0,0,0,0,0,0,0,0,0,0
1706444304.19989204,53428620,1574,1573,1568,1568,0,0,0,0,0,0,0,0,0,0
1706444304.29985189,53528580,1573,1574,1569,1569,0,0,0,0,0,0,0,0,0,0
1706444304.39981198,53628540,1574,1574,1571,1571,0,0,0,0,0,0,0,0,0,0
1706444304.49977183,53728500,1574,1574,1573,1573,0,0,0,0,0,0,0,0,0,0
1706444304.59973192,53828460,1574,1573,1574,1573,0,0,0,0,0,0,0,0,0,0
1706444304.69969201,53928420,1574,1574,1576,1575,0,0,0,0,0,0,0,0,0,0
1706444304.79965186,54028380,1574,1575,1577,1576,0,0,0,0,0,0,0,0,0,0
1706444304.89961195,54128340,1575,1575,1577,1576,0,0,0,0,0,0,0,0,0,0
1706444304.99957204,54228300,1575,1576,1578,1577,0,0,0,0,0,0,0,0,0,0
1706444305.09953189,54328260,1576,1576,1578,1578,0,0,0,0,0,0,0,0,0,0
1706444305.19949198,54428220,1576,1576,1577,1577,0,0,0,0,0,0,0,0,0,0
1706444305.29945183,54528180,1577,1577,1578,1578,0,0,0,0,0,0,0,0,0,0
1706444305.40024495,54628973,1578,1577,1578,1578,0,0,0,0,0,0,0,0,0,0
1706444305.50020504,54728933,1577,1577,1578,1577,0,0,0,0,0,0,0,0,0,0
1706444305.60016489,54828893,1578,1577,1577,1577,0,0,0,0,0,0,0,0,0,0
1706444305.70012498,54928853,1578,1577,1577,1577,0,0,0,0,0,0,0,0,0,0
1706444305.80008483,55028813,1578,1578,1578,1577,0,0,0,0,0,0,0,0,0,0
1706444305.90004492,55128773,1578,1578,1577,1578,0,0,0,0,0,0,0,0,0,0
1706444306.00000501,55228733,1578,1578,1577,1577,0,0,0,0,0,0,0,0,0,0
1706444306.09996486,55328693,1579,1579,1578,1578,0,0,0,0,0,0,0,0,0,0
1706444306.19992495,55428653,1579,1579,1579,1579,0,0,0,0,0,0,0,0,0,0
1706444306.29988503,55528613,1579,1579,1579,1579,0,0,0,0,0,0,0,0,0,0
1706444306.39984488,55628573,1578,1578,1578,1578,0,0,0,0,0,0,0,0,0,0
1706444306.49980497,55728533,1579,1579,1579,1579,0,0,0,0,0,0,0,0,0,0
1706444306.59976506,55828493,1579,1579,1579,1580,0,0,0,0,0,0,0,0,0,0
1706444306.69972491,55928453,1579,1579,1579,1579,0,0,0,0,0,0,0,0,0,0
1706444306.79968500,56028413,1579,1579,1580,1579,0,0,0,0,0,0,0,0,0,0
1706444306.89964485,56128373,1579,1579,1580,1580,0,0,0,0,0,0,0,0,0,0
1706444306.99960494,56228333,1578,1578,1579,1579,0,0,0,0,0,0,0,0,0,0
1706444307.09956503,56328293,1579,1578,1579,1579,0,0,0,0,0,0,0,0,0,0
1706444307.19952488,56428253,1579,1579,1579,1579,0,0,0,0,0,0,0,0,0,0
1706444307.29948497,56528213,1579,1579,1579,1580,0,0,0,0,0,0,0,0,0,0
1706444307.39944506,56628173,1579,1580,1580,1579,0,0,0,0,0,0,0,0,0,0
1706444307.50023794,56728966,1579,1579,1580,1580,0,0,0,0,0,0,0,0,0,0
1706444307.60019803,56828926,1580,1580,1580,1580,0,0,0,0,0,0,0,0,0,0
1706444307.70015788,56928886,1580,1580,1579,1580,0,0,0,0,0,0,0,0,0,0
1706444307.80011797,57028846,1580,1580,1580,1580,0,0,0,0,0,0,0,0,0,0
1706444307.90007806,57128806,1581,1581,1580,1580,0,0,0,0,0,0,0,0,0,0
1706444308.00003791,57228766,1581,1581,1581,1580,0,0,0,0,0,0,0,0,0,0
1706444308.09999800,57328726,1581,1580,1580,1580,0,0,0,0,0,0,0,0,0,0
1706444308.19995785,57428686,1581,1581,1581,1580,0,0,0,0,0,0,0,0,0,0
1706444308.29991794,57528646,1581,1581,1580,1581,0,0,0,0,0,0,0,0,0,0
1706444308.39987803,57628606,1581,1581,1581,1581,0,0,0,0,0,0,0,0,0,0
1706444308.49983788,57728566,1580,1581,1581,1581,0,0,0,0,0,0,0,0,0,0
1706444308.59979796,57828526,1581,1582,1581,1582,0,0,0,0,0,0,0,0,0,0
1706444308.69975805,57928486,1582,1582,1582,1582,0,0,0,0,0,0,0,0,0,0
1706444308.79971790,58028446,1581,1581,1582,1582,0,0,0,0,0,0,0,0,0,0
1706444308.89967799,58128406,1581,1582,1582,1581,0,0,0,0,0,0,0,0,0,0
1706444308.99963784,58228366,1582,1581,1582,1581,0,0,0,0,0,0,0,0,0,0
1706444309.09959793,58328326,1582,1582,1582,1582,0,0,0,0,0,0,0,0,0,0
1706444309.19955802,58428286,1582,1582,1581,1582,0,0,0,0,0,0,0,0,0,0
1706444309.29951787,58528246,1581,1581,1581,1581,0,0,0,0,0,0,0,0,0,0
1706444309.39947796,58628206,1580,1580,1580,1580,0,0,0,0,0,0,0,0,0,0
1706444309.49943805,58728166,1581,1582,1587,1574,0,0,0,0,0,0,0,0,0,0
1706444309.60023093,58828959,1580,1582,1586,1573,0,0,0,0,0,0,0,0,0,0
1706444309.70019102,58928919,1579,1582,1578,1574,0,0,0,0,0,0,0,0,0,0
1706444309.80015087,59028879,1578,1581,1570,1573,0,0,0,0,0,0,0,0,0,0
1706444309.90011096,59128839,1577,1580,1563,1570,0,0,0,0,0,0,0,0,0,0
1706444310.00007105,59228799,1578,1579,1559,1565,0,0,0,0,0,0,0,0,0,0
1706444310.10003090,59328759,1579,1578,1556,1560,0,0,0,0,0,0,0,0,0,0
1706444310.19999099,59428719,1579,1577,1555,1557,0,0,0,0,0,0,0,0,0,0
1706444310.29995084,59528679,1580,1579,1557,1556,0,0,0,0,0,0,0,0,0,0
1706444310.39991093,59628639,1578,1577,1556,1553,0,0,0,0,0,0,0,0,0,0
1706444310.49987102,59728599,1576,1577,1556,1553,0,0,0,0,0,0,0,0,0,0
1706444310.59983087,59828559,1575,1576,1555,1553,0,0,0,0,0,0,0,0,0,0
1706444310.69979095,59928519,1575,1577,1554,1554,0,0,0,0,0,0,0,0,0,0
1706444310.79975104,60028479,1574,1576,1553,1553,0,0,0,0,0,0,0,0,0,0
1706444310.89971089,60128439,1575,1576,1552,1552,0,0,0,0,0,0,0,0,0,0
1706444310.99967098,60228399,1576,1578,1551,1551,0,0,0,0,0,0,0,0,0,0
1706444311.09963083,60328359,1578,1579,1549,1548,0,0,0,0,0,0,0,0,0,0
1706444311.19959092,60428319,1580,1582,1547,1546,0,0,0,0,0,0,0,0,0,0
1706444311.29955101,60528279,1584,1584,1544,1544,0,0,0,0,0,0,0,0,0,0
1706444311.39951086,60628239,1586,1587,1540,1540,0,0,0,0,0,0,0,0,0,0
1706444311.49947095,60728199,1589,1590,1538,1538,0,0,0,0,0,0,0,0,0,0
1706444311.59943104,60828159,1591,1592,1535,1535,0,0,0,0,0,0,0,0,0,0
1706444311.70022392,60928952,1594,1593,1534,1535,0,0,0,0,0,0,0,0,0,0
1706444311.80018401,61028912,1594,1594,1534,1535,0,0,0,0,0,0,0,0,0,0
1706444311.90014386,61128872,1594,1595,1536,1538,0,0,0,0,0,0,0,0,0,0
1706444312.00010395,61228832,1593,1593,1538,1541,0,0,0,0,0,0,0,0,0,0
1706444312.10006404,61328792,1590,1589,1543,1546,0,0,0,0,0,0,0,0,0,0
1706444312.20002389,61428752,1585,1582,1550,1553,0,0,0,0,0,0,0,0,0,0
1706444312.29998398,61528712,1576,1573,1559,1561,0,0,0,0,0,0,0,0,0,0
1706444312.39994383,61628672,1568,1564,1571,1573,0,0,0,0,0,0,0,0,0,0
1706444312.49990392,61728632,1556,1552,1583,1585,0,0,0,0,0,0,0,0,0,0
1706444312.59986401,61828592,1546,1543,1596,1596,0,0,0,0,0,0,0,0,0,0
1706444312.69982386,61928552,1537,1535,1605,1605,0,0,0,0,0,0,0,0,0,0
1706444312.79978395,62028512,1531,1532,1613,1611,0,0,0,0,0,0,0,0,0,0
1706444312.89974403,62128472,1529,1530,1615,1614,0,0,0,0,0,0,0,0,0,0
1706444312.99970388,62228432,1530,1532,1614,1614,0,0,0,0,0,0,0,0,0,0
1706444313.09966397,62328392,1535,1537,1610,1610,0,0,0,0,0,0,0,0,0,0
1706444313.19962406,62428352,1543,1544,1605,1605,0,0,0,0,0,0,0,0,0,0
1706444313.29958391,62528312,1551,1552,1598,1598,0,0,0,0,0,0,0,0,0,0
1706444313.39954400,62628272,1560,1560,1590,1590,0,0,0,0,0,0,0,0,0,0
1706444313.49950385,62728232,1569,1569,1584,1583,0,0,0,0,0,0,0,0,0,0
1706444313.59946394,62828192,1576,1575,1577,1576,0,0,0,0,0,0,0,0,0,0
1706444313.70025706,62928985,1583,1582,1572,1572,0,0,0,0,0,0,0,0,0,0
1706444313.80021691,63028945,1586,1585,1569,1568,0,0,0,0,0,0,0,0,0,0
1706444313.90017700,63128905,1587,1586,1566,1566,0,0,0,0,0,0,0,0,0,0
1706444314.00013685,63228865,1588,1586,1566,1566,0,0,0,0,0,0,0,0,0,0
1706444314.10009694,63328825,1587,1585,1567,1568,0,0,0,0,0,0,0,0,0,0
1706444314.20005703,63428785,1584,1583,1570,1570,0,0,0,0,0,0,0,0,0,0
1706444314.30001688,63528745,1581,1581,1573,1573,0,0,0,0,0,0,0,0,0,0
1706444314.39997697,63628705,1579,1580,1576,1577,0,0,0,0,0,0,0,0,0,0
1706444314.49993706,63728665,1576,1576,1578,1578,0,0,0,0,0,0,0,0,0,0
1706444314.59989691,63828625,1574,1575,1581,1581,0,0,0,0,0,0,0,0,0,0
1706444314.69985700,63928585,1572,1573,1583,1582,0,0,0,0,0,0,0,0,0,0
1706444314.79981685,64028545,1572,1572,1583,1583,0,0,0,0,0,0,0,0,0,0
1706444314.89977694,64128505,1572,1572,1583,1583,0,0,0,0,0,0,0,0,0,0
1706444314.99973702,64228465,1306,1547,1316,1557,0,0,0,0,0,0,0,0,0,0
1706444315.09969687,64328425,1565,1561,1572,1571,0,0,0,0,0,0,0,0,0,0
1706444315.19965696,64428385,1600,1571,1606,1578,0,0,0,0,0,0,0,0,0,0
1706444315.29961705,64528345,1623,1587,1628,1591,0,0,0,0,0,0,0,0,0,0
1706444315.39957690,64628305,1631,1601,1633,1601,0,0,0,0,0,0,0,0,0,0
1706444315.49953699,64728265,1623,1608,1623,1605,0,0,0,0,0,0,0,0,0,0
1706444315.59949684,64828225,1607,1609,1606,1604,0,0,0,0,0,0,0,0,0,0
1706444315.69945693,64928185,1590,1603,1588,1601,0,0,0,0,0,0,0,0,0,0
1706444315.80025005,65028978,1578,1596,1579,1599,0,0,0,0,0,0,0,0,0,0
1706444315.90020990,65128938,1572,1588,1577,1595,0,0,0,0,0,0,0,0,0,0
1706444316.00016999,65228898,1571,1580,1578,1589,0,0,0,0,0,0,0,0,0,0
1706444316.10012984,65328858,1573,1575,1580,1583,0,0,0,0,0,0,0,0,0,0
1706444316.20008993,65428818,1578,1576,1583,1580,0,0,0,0,0,0,0,0,0,0
1706444316.30005002,65528778,1581,1577,1582,1578,0,0,0,0,0,0,0,0,0,0
1706444316.40000987,65628738,1582,1578,1581,1576,0,0,0,0,0,0,0,0,0,0
1706444316.49996996,65728698,1583,1581,1579,1576,0,0,0,0,0,0,0,0,0,0
1706444316.59993005,65828658,1583,1583,1576,1575,0,0,0,0,0,0,0,0,0,0
1706444316.69988990,65928618,1582,1583,1574,1575,0,0,0,0,0,0,0,0,0,0
1706444316.79984999,66028578,1581,1582,1573,1574,0,0,0,0,0,0,0,0,0,0
1706444316.89980984,66128538,1579,1581,1571,1573,0,0,0,0,0,0,0,0,0,0
1706444316.99976993,66228498,1579,1580,1571,1573,0,0,0,0,0,0,0,0,0,0
1706444317.09973001,66328458,1578,1579,1572,1573,0,0,0,0,0,0,0,0,0,0
1706444317.19968987,66428418,1577,1577,1573,1573,0,0,0,0,0,0,0,0,0,0
1706444317.29964995,66528378,1577,1576,1573,1573,0,0,0,0,0,0,0,0,0,0
1706444317.39961004,66628338,1577,1576,1575,1574,0,0,0,0,0,0,0,0,0,0
1706444317.49956989,66728298,1577,1576,1579,1571,0,0,0,0,0,0,0,0,0,0
1706444317.59952998,66828258,1576,1576,1582,1567,0,0,0,0,0,0,0,0,0,0
1706444317.69948983,66928218,1575,1578,1577,1569,0,0,0,0,0,0,0,0,0,0
1706444317.79944992,67028178,1573,1577,1570,1570,0,0,0,0,0,0,0,0,0,0
1706444317.90024304,67128971,1572,1576,1563,1568,0,0,0,0,0,0,0,0,0,0
1706444318.00020289,67228931,1572,1574,1557,1564,0,0,0,0,0,0,0,0,0,0
1706444318.10016298,67328891,1574,1573,1554,1560,0,0,0,0,0,0,0,0,0,0
1706444318.20012283,67428851,1575,1574,1554,1556,0,0,0,0,0,0,0,0,0,0
1706444318.30008292,67528811,1576,1574,1554,1554,0,0,0,0,0,0,0,0,0,0
1706444318.40004301,67628771,1576,1575,1553,1552,0,0,0,0,0,0,0,0,0,0
1706444318.50000286,67728731,1576,1576,1553,1551,0,0,0,0,0,0,0,0,0,0
1706444318.59996295,67828691,1576,1577,1553,1551,0,0,0,0,0,0,0,0,0,0
1706444318.69992304,67928651,1576,1577,1552,1551,0,0,0,0,0,0,0,0,0,0
1706444318.79988289,68028611,1576,1577,1552,1550,0,0,0,0,0,0,0,0,0,0
1706444318.89984298,68128571,1576,1577,1550,1550,0,0,0,0,0,0,0,0,0,0
1706444318.99980283,68228531,1577,1578,1549,1549,0,0,0,0,0,0,0,0,0,0
1706444319.09976292,68328491,1578,1579,1547,1548,0,0,0,0,0,0,0,0,0,0
1706444319.19972301,68428451,1580,1581,1546,1546,0,0,0,0,0,0,0,0,0,0
1706444319.29968286,68528411,1583,1583,1544,1545,0,0,0,0,0,0,0,0,0,0
1706444319.39964294,68628371,1584,1584,1542,1542,0,0,0,0,0,0,0,0,0,0
1706444319.49960303,68728331,1587,1588,1542,1541,0,0,0,0,0,0,0,0,0,0
1706444319.59956288,68828291,1589,1589,1540,1540,0,0,0,0,0,0,0,0,0,0
1706444319.69952297,68928251,1589,1589,1539,1540,0,0,0,0,0,0,0,0,0,0
1706444319.79948306,69028211,1590,1590,1541,1542,0,0,0,0,0,0,0,0,0,0
1706444319.89944291,69128171,1588,1587,1542,1543,0,0,0,0,0,0,0,0,0,0
1706444320.00023603,69228964,1586,1586,1545,1548,0,0,0,0,0,0,0,0,0,0
1706444320.10019588,69328924,1582,1582,1548,1551,0,0,0,0,0,0,0,0,0,0
1706444320.20015597,69428884,1578,1577,1554,1557,0,0,0,0,0,0,0,0,0,0
1706444320.30011606,69528844,1573,1570,1562,1564,0,0,0,0,0,0,0,0,0,0
1706444320.40007591,69628804,1566,1563,1570,1572,0,0,0,0,0,0,0,0,0,0
1706444320.50003600,69728764,1559,1556,1581,1581,0,0,0,0,0,0,0,0,0,0
1706444320.59999585,69828724,1551,1549,1589,1589,0,0,0,0,0,0,0,0,0,0
1706444320.69995594,69928684,1544,1543,1597,1596,0,0,0,0,0,0,0,0,0,0
1706444320.79991603,70028644,1540,1540,1603,1602,0,0,0,0,0,0,0,0,0,0
1706444320.89987588,70128604,1538,1539,1606,1605,0,0,0,0,0,0,0,0,0,0
1706444320.99983597,70228564,1538,1541,1607,1606,0,0,0,0,0,0,0,0,0,0
1706444321.09979606,70328524,1542,1544,1605,1605,0,0,0,0,0,0,0,0,0,0
1706444321.19975591,70428484,1546,1548,1601,1600,0,0,0,0,0,0,0,0,0,0
1706444321.29971600,70528444,1552,1553,1596,1595,0,0,0,0,0,0,0,0,0,0
1706444321.39967585,70628404,1559,1559,1590,1590,0,0,0,0,0,0,0,0,0,0
1706444321.49963593,70728364,1565,1564,1584,1584,0,0,0,0,0,0,0,0,0,0
1706444321.59959602,70828324,1572,1571,1580,1579,0,0,0,0,0,0,0,0,0,0
1706444321.69955587,70928284,1577,1576,1576,1576,0,0,0,0,0,0,0,0,0,0
1706444321.79951596,71028244,1581,1579,1572,1572,0,0,0,0,0,0,0,0,0,0
1706444321.89947605,71128204,1583,1582,1570,1570,0,0,0,0,0,0,0,0,0,0
1706444321.99943590,71228164,1584,1584,1569,1569,0,0,0,0,0,0,0,0,0,0
1706444322.10022902,71328957,1585,1584,1570,1570,0,0,0,0,0,0,0,0,0,0
1706444322.20018888,71428917,1583,1583,1571,1571,0,0,0,0,0,0,0,0,0,0
1706444322.30014896,71528877,1581,1581,1571,1572,0,0,0,0,0,0,0,0,0,0
1706444322.40010905,71628837,1581,1580,1575,1575,0,0,0,0,0,0,0,0,0,0
1706444322.50006890,71728797,1578,1579,1577,1577,0,0,0,0,0,0,0,0,0,0
1706444322.60002899,71828757,1577,1577,1579,1579,0,0,0,0,0,0,0,0,0,0
1706444322.69998884,71928717,1575,1576,1581,1580,0,0,0,0,0,0,0,0,0,0
1706444322.79994893,72028677,1575,1576,1583,1582,0,0,0,0,0,0,0,0,0,0
1706444322.89990902,72128637,1575,1575,1583,1582,0,0,0,0,0,0,0,0,0,0
1706444322.99986887,72228597,1575,1575,1583,1583,0,0,0,0,0,0,0,0,0,0
1706444323.09982896,72328557,1574,1574,1582,1582,0,0,0,0,0,0,0,0,0,0
1706444323.19978905,72428517,1575,1576,1582,1583,0,0,0,0,0,0,0,0,0,0
1706444323.29974890,72528477,1577,1577,1581,1582,0,0,0,0,0,0,0,0,0,0
1706444323.39970899,72628437,1578,1578,1580,1581,0,0,0,0,0,0,0,0,0,0
1706444323.49966884,72728397,1579,1578,1580,1579,0,0,0,0,0,0,0,0,0,0
1706444323.59962893,72828357,1580,1580,1579,1579,0,0,0,0,0,0,0,0,0,0
1706444323.69958901,72928317,1580,1580,1578,1579,0,0,0,0,0,0,0,0,0,0
1706444323.79954886,73028277,1581,1580,1578,1578,0,0,0,0,0,0,0,0,0,0
1706444323.89950895,73128237,1581,1581,1578,1578,0,0,0,0,0,0,0,0,0,0
1706444323.99946904,73228197,1581,1581,1578,1578,0,0,0,0,0,0,0,0,0,0
1706444324.09942889,73328157,1582,1581,1579,1578,0,0,0,0,0,0,0,0,0,0
1706444324.20022202,73428950,1581,1581,1579,1579,0,0,0,0,0,0,0,0,0,0
1706444324.30018187,73528910,1581,1581,1579,1579,0,0,0,0,0,0,0,0,0,0
1706444324.40014195,73628870,1581,1582,1580,1580,0,0,0,0,0,0,0,0,0,0
1706444324.50010204,73728830,1581,1581,1581,1581,0,0,0,0,0,0,0,0,0,0
1706444324.60006189,73828790,1580,1580,1580,1580,0,0,0,0,0,0,0,0,0,0
1706444324.70002198,73928750,1580,1579,1580,1580,0,0,0,0,0,0,0,0,0,0
1706444324.79998183,74028710,1579,1580,1580,1581,0,0,0,0,0,0,0,0,0,0
1706444324.89994192,74128670,1579,1579,1580,1580,0,0,0,0,0,0,0,0,0,0
1706444324.99990201,74228630,1579,1580,1580,1581,0,0,0,0,0,0,0,0,0,0
1706444325.09986186,74328590,1580,1580,1581,1581,0,0,0,0,0,0,0,0,0,0
1706444325.19982195,74428550,1581,1581,1582,1581,0,0,0,0,0,0,0,0,0,0
1706444325.29978204,74528510,1581,1581,1582,1581,0,0,0,0,0,0,0,0,0,0
1706444325.39974189,74628470,1581,1581,1581,1581,0,0,0,0,0,0,0,0,0,0
1706444325.49970198,74728430,1581,1580,1580,1580,0,0,0,0,0,0,0,0,0,0
1706444325.59966183,74828390,1581,1581,1581,1581,0,0,0,0,0,0,0,0,0,0
1706444325.69962192,74928350,1582,1581,1581,1581,0,0,0,0,0,0,0,0,0,0
1706444325.79958200,75028310,1582,1583,1582,1582,0,0,0,0,0,0,0,0,0,0
1706444325.89954185,75128270,1582,1583,1581,1581,0,0,0,0,0,0,0,0,0,0
1706444325.99950194,75228230,1582,1583,1586,1576,0,0,0,0,0,0,0,0,0,0
1706444326.09946203,75328190,1581,1583,1587,1573,0,0,0,0,0,0,0,0,0,0
1706444326.20025492,75428983,1579,1582,1579,1572,0,0,0,0,0,0,0,0,0,0
1706444326.30021501,75528943,1578,1581,1571,1572,0,0,0,0,0,0,0,0,0,0
1706444326.40017486,75628903,1576,1578,1563,1569,0,0,0,0,0,0,0,0,0,0
1706444326.50013494,75728863,1577,1578,1558,1565,0,0,0,0,0,0,0,0,0,0
1706444326.60009503,75828823,1578,1578,1555,1560,0,0,0,0,0,0,0,0,0,0
1706444326.70005488,75928783,1580,1578,1555,1558,0,0,0,0,0,0,0,0,0,0
1706444326.80001497,76028743,1580,1579,1556,1555,0,0,0,0,0,0,0,0,0,0
1706444326.89997506,76128703,1580,1578,1556,1554,0,0,0,0,0,0,0,0,0,0
1706444326.99993491,76228663,1578,1578,1555,1553,0,0,0,0,0,0,0,0,0,0
1706444327.09989500,76328623,1578,1579,1556,1554,0,0,0,0,0,0,0,0,0,0
1706444327.19985485,76428583,1577,1578,1555,1554,0,0,0,0,0,0,0,0,0,0
1706444327.29981494,76528543,1576,1577,1554,1554,0,0,0,0,0,0,0,0,0,0
1706444327.39977503,76628503,1575,1577,1553,1553,0,0,0,0,0,0,0,0,0,0
1706444327.49973488,76728463,1577,1578,1552,1553,0,0,0,0,0,0,0,0,0,0
1706444327.59969497,76828423,1577,1579,1550,1550,0,0,0,0,0,0,0,0,0,0
1706444327.69965506,76928383,1579,1581,1548,1548,0,0,0,0,0,0,0,0,0,0
1706444327.79961491,77028343,1581,1583,1545,1545,0,0,0,0,0,0,0,0,0,0
1706444327.89957500,77128303,1584,1584,1543,1543,0,0,0,0,0,0,0,0,0,0
1706444327.99953485,77228263,1586,1587,1540,1540,0,0,0,0,0,0,0,0,0,0
1706444328.09949493,77328223,1590,1590,1539,1540,0,0,0,0,0,0,0,0,0,0
1706444328.19945502,77428183,1590,1590,1537,1538,0,0,0,0,0,0,0,0,0,0
1706444328.30024791,77528976,1592,1592,1536,1538,0,0,0,0,0,0,0,0,0,0
1706444328.40020800,77628936,1593,1594,1537,1539,0,0,0,0,0,0,0,0,0,0
1706444328.50016785,77728896,1593,1592,1539,1542,0,0,0,0,0,0,0,0,0,0
1706444328.60012794,77828856,1590,1589,1543,1546,0,0,0,0,0,0,0,0,0,0
1706444328.70008802,77928816,1585,1582,1549,1552,0,0,0,0,0,0,0,0,0,0
1706444328.80004787,78028776,1579,1575,1559,1562,0,0,0,0,0,0,0,0,0,0
1706444328.90000796,78128736,1570,1565,1570,1572,0,0,0,0,0,0,0,0,0,0
1706444328.99996805,78228696,1560,1556,1581,1583,0,0,0,0,0,0,0,0,0,0
1706444329.09992790,78328656,1549,1547,1592,1592,0,0,0,0,0,0,0,0,0,0
1706444329.19988799,78428616,1541,1541,1603,1602,0,0,0,0,0,0,0,0,0,0
1706444329.29984784,78528576,1536,1538,1610,1609,0,0,0,0,0,0,0,0,0,0
1706444329.39980793,78628536,1534,1536,1614,1613,0,0,0,0,0,0,0,0,0,0
1706444329.49976802,78728496,1535,1538,1614,1613,0,0,0,0,0,0,0,0,0,0
1706444329.59972787,78828456,1538,1541,1611,1610,0,0,0,0,0,0,0,0,0,0
1706444329.69968796,78928416,1545,1546,1607,1605,0,0,0,0,0,0,0,0,0,0
1706444329.79964805,79028376,1552,1553,1601,1599,0,0,0,0,0,0,0,0,0,0
1706444329.89960790,79128336,1559,1559,1593,1593,0,0,0,0,0,0,0,0,0,0
1706444329.99956799,79228296,1566,1566,1585,1585,0,0,0,0,0,0,0,0,0,0
1706444330.09952784,79328256,1573,1572,1579,1579,0,0,0,0,0,0,0,0,0,0
1706444330.19948792,79428216,1579,1577,1573,1574,0,0,0,0,0,0,0,0,0,0
1706444330.29944801,79528176,1583,1582,1570,1570,0,0,0,0,0,0,0,0,0,0
1706444330.40024090,79628969,1585,1584,1567,1568,0,0,0,0,0,0,0,0,0,0
1706444330.50020099,79728929,1586,1585,1566,1566,0,0,0,0,0,0,0,0,0,0
1706444330.60016084,79828889,1586,1584,1566,1567,0,0,0,0,0,0,0,0,0,0
1706444330.70012093,79928849,1584,1583,1568,1568,0,0,0,0,0,0,0,0,0,0
1706444330.80008101,80028809,1582,1582,1571,1571,0,0,0,0,0,0,0,0,0,0
1706444330.90004086,80128769,1580,1580,1574,1574,0,0,0,0,0,0,0,0,0,0
1706444331.00000095,80228729,1578,1578,1577,1577,0,0,0,0,0,0,0,0,0,0
1706444331.09996104,80328689,1576,1576,1579,1579,0,0,0,0,0,0,0,0,0,0
1706444331.19992089,80428649,1574,1575,1582,1581,0,0,0,0,0,0,0,0,0,0
1706444331.29988098,80528609,1573,1575,1583,1583,0,0,0,0,0,0,0,0,0,0
1706444331.39984083,80628569,1572,1573,1583,1583,0,0,0,0,0,0,0,0,0,0
1706444331.49980092,80728529,1573,1574,1584,1584,0,0,0,0,0,0,0,0,0,0
1706444331.59976101,80828489,1574,1574,1584,1584,0,0,0,0,0,0,0,0,0,0
1706444331.69972086,80928449,1575,1576,1583,1583,0,0,0,0,0,0,0,0,0,0
1706444331.79968095,81028409,1575,1576,1581,1581,0,0,0,0,0,0,0,0,0,0
1706444331.89964104,81128369,1577,1577,1580,1580,0,0,0,0,0,0,0,0,0,0
1706444331.99960089,81228329,1578,1578,1579,1579,0,0,0,0,0,0,0,0,0,0
1706444332.09956098,81328289,1580,1580,1578,1578,0,0,0,0,0,0,0,0,0,0
1706444332.19952083,81428249,1580,1579,1577,1577,0,0,0,0,0,0,0,0,0,0
1706444332.29948092,81528209,1580,1581,1577,1577,0,0,0,0,0,0,0,0,0,0
1706444332.39944100,81628169,1581,1581,1577,1577,0,0,0,0,0,0,0,0,0,0
1706444332.50023389,81728962,1582,1581,1577,1577,0,0,0,0,0,0,0,0,0,0
1706444332.60019398,81828922,1581,1581,1577,1577,0,0,0,0,0,0,0,0,0,0
1706444332.70015383,81928882,1581,1581,1578,1578,0,0,0,0,0,0,0,0,0,0
1706444332.80011392,82028842,1582,1582,1580,1580,0,0,0,0,0,0,0,0,0,0
1706444332.90007401,82128802,1581,1581,1580,1580,0,0,0,0,0,0,0,0,0,0
1706444333.00003386,82228762,1579,1580,1580,1579,0,0,0,0,0,0,0,0,0,0
1706444333.09999394,82328722,1580,1580,1580,1580,0,0,0,0,0,0,0,0,0,0
1706444333.19995403,82428682,1579,1580,1581,1581,0,0,0,0,0,0,0,0,0,0
1706444333.29991388,82528642,1579,1579,1581,1581,0,0,0,0,0,0,0,0,0,0
1706444333.39987397,82628602,1580,1580,1582,1581,0,0,0,0,0,0,0,0,0,0
1706444333.49983406,82728562,1580,1580,1582,1582,0,0,0,0,0,0,0,0,0,0
1706444333.59979391,82828522,1580,1581,1582,1582,0,0,0,0,0,0,0,0,0,0
1706444333.69975400,82928482,1581,1581,1582,1582,0,0,0,0,0,0,0,0,0,0
1706444333.79971385,83028442,1581,1581,1581,1581,0,0,0,0,0,0,0,0,0,0
1706444333.89967394,83128402,1581,1581,1582,1581,0,0,0,0,0,0,0,0,0,0
1706444333.99963403,83228362,1581,1582,1587,1573,0,0,0,0,0,0,0,0,0,0
1706444334.09959388,83328322,1580,1580,1584,1572,0,0,0,0,0,0,0,0,0,0
1706444334.19955397,83428282,1578,1578,1578,1574,0,0,0,0,0,0,0,0,0,0
1706444334.29951406,83528242,1575,1575,1572,1576,0,0,0,0,0,0,0,0,0,0
1706444334.39947391,83628202,1572,1572,1567,1574,0,0,0,0,0,0,0,0,0,0
1706444334.49943399,83728162,1569,1569,1564,1572,0,0,0,0,0,0,0,0,0,0
1706444334.60022688,83828955,1568,1568,1565,1569,0,0,0,0,0,0,0,0,0,0
1706444334.70018697,83928915,1566,1566,1565,1566,0,0,0,0,0,0,0,0,0,0
1706444334.80014706,84028875,1565,1566,1566,1565,0,0,0,0,0,0,0,0,0,0
1706444334.90010691,84128835,1565,1565,1566,1563,0,0,0,0,0,0,0,0,0,0
1706444335.00006700,84228795,1565,1565,1567,1564,0,0,0,0,0,0,0,0,0,0
1706444335.10002685,84328755,1565,1564,1566,1564,0,0,0,0,0,0,0,0,0,0
1706444335.19998693,84428715,1564,1564,1565,1564,0,0,0,0,0,0,0,0,0,0
1706444335.29994702,84528675,1563,1563,1564,1563,0,0,0,0,0,0,0,0,0,0
1706444335.39990687,84628635,1562,1562,1563,1563,0,0,0,0,0,0,0,0,0,0
1706444335.49986696,84728595,1561,1561,1562,1562,0,0,0,0,0,0,0,0,0,0
1706444335.59982705,84828555,1561,1561,1561,1561,0,0,0,0,0,0,0,0,0,0
1706444335.69978690,84928515,1561,1561,1562,1562,0,0,0,0,0,0,0,0,0,0
1706444335.79974699,85028475,1561,1561,1561,1561,0,0,0,0,0,0,0,0,0,0
1706444335.89970684,85128435,1559,1559,1559,1559,0,0,0,0,0,0,0,0,0,0
1706444335.99966693,85228395,1560,1560,1560,1559,0,0,0,0,0,0,0,0,0,0
1706444336.09962702,85328355,1559,1559,1559,1558,0,0,0,0,0,0,0,0,0,0
1706444336.19958687,85428315,1559,1559,1559,1558,0,0,0,0,0,0,0,0,0,0
1706444336.29954696,85528275,1559,1559,1559,1558,0,0,0,0,0,0,0,0,0,0
1706444336.39950705,85628235,1559,1559,1560,1558,0,0,0,0,0,0,0,0,0,0
1706444336.49946690,85728195,1559,1558,1559,1558,0,0,0,0,0,0,0,0,0,0
1706444336.59942698,85828155,1559,1559,1560,1558,0,0,0,0,0,0,0,0,0,0
1706444336.70021987,85928948,1559,1559,1560,1557,0,0,0,0,0,0,0,0,0,0
1706444336.80017996,86028908,1559,1559,1559,1560,0,0,0,0,0,0,0,0,0,0
1706444336.90014005,86128868,1559,1560,1557,1562,0,0,0,0,0,0,0,0,0,0
1706444337.00009990,86228828,1560,1560,1557,1563,0,0,0,0,0,0,0,0,0,0
1706444337.10005999,86328788,1561,1560,1558,1564,0,0,0,0,0,0,0,0,0,0
1706444337.20001984,86428748,1561,1561,1559,1562,0,0,0,0,0,0,0,0,0,0
1706444337.29997993,86528708,1559,1559,1559,1559,0,0,0,0,0,0,0,0,0,0
1706444337.39994001,86628668,1558,1558,1560,1556,0,0,0,0,0,0,0,0,0,0
1706444337.49989986,86728628,1559,1559,1558,1559,0,0,0,0,0,0,0,0,0,0
1706444337.59985995,86828588,1557,1556,1555,1558,0,0,0,0,0,0,0,0,0,0
1706444337.69982004,86928548,1553,1552,1551,1554,0,0,0,0,0,0,0,0,0,0
1706444337.79977989,87028508,1547,1546,1546,1547,0,0,0,0,0,0,0,0,0,0
1706444337.89973998,87128468,1540,1540,1539,1539,0,0,0,0,0,0,0,0,0,0
1706444337.99969983,87228428,1534,1534,1534,1533,0,0,0,0,0,0,0,0,0,0
1706444338.09965992,87328388,1526,1527,1527,1526,0,0,0,0,0,0,0,0,0,0
1706444338.19962001,87428348,1521,1522,1521,1521,0,0,0,0,0,0,0,0,0,0
1706444338.29957986,87528308,1519,1520,1519,1520,0,0,0,0,0,0,0,0,0,0
1706444338.39953995,87628268,1520,1520,1520,1520,0,0,0,0,0,0,0,0,0,0
1706444338.49950004,87728228,1521,1521,1521,1522,0,0,0,0,0,0,0,0,0,0
1706444338.59945989,87828188,1524,1525,1524,1525,0,0,0,0,0,0,0,0,0,0
1706444338.70025301,87928981,1528,1528,1528,1529,0,0,0,0,0,0,0,0,0,0
1706444338.80021286,88028941,1533,1533,1533,1533,0,0,0,0,0,0,0,0,0,0
1706444338.90017295,88128901,1538,1538,1538,1537,0,0,0,0,0,0,0,0,0,0
1706444339.00013304,88228861,1540,1539,1541,1539,0,0,0,0,0,0,0,0,0,0
1706444339.10009289,88328821,1543,1542,1543,1542,0,0,0,0,0,0,0,0,0,0
1706444339.20005298,88428781,1545,1544,1545,1544,0,0,0,0,0,0,0,0,0,0
1706444339.30001283,88528741,1546,1545,1546,1545,0,0,0,0,0,0,0,0,0,0
1706444339.39997292,88628701,1546,1545,1546,1546,0,0,0,0,0,0,0,0,0,0
1706444339.49993300,88728661,1546,1546,1546,1547,0,0,0,0,0,0,0,0,0,0
1706444339.59989285,88828621,1547,1548,1547,1547,0,0,0,0,0,0,0,0,0,0
1706444339.69985294,88928581,1548,1548,1548,1548,0,0,0,0,0,0,0,0,0,0
1706444339.79981303,89028541,1546,1546,1547,1546,0,0,0,0,0,0,0,0,0,0
1706444339.89977288,89128501,1547,1547,1547,1546,0,0,0,0,0,0,0,0,0,0
1706444339.99973297,89228461,1546,1546,1545,1545,0,0,0,0,0,0,0,0,0,0
1706444340.09969306,89328421,1546,1546,1546,1546,0,0,0,0,0,0,0,0,0,0
1706444340.19965291,89428381,1546,1546,1546,1546,0,0,0,0,0,0,0,0,0,0
1706444340.29961300,89528341,1545,1545,1545,1545,0,0,0,0,0,0,0,0,0,0
1706444340.39957285,89628301,1545,1545,1545,1545,0,0,0,0,0,0,0,0,0,0
1706444340.49953294,89728261,1546,1546,1546,1545,0,0,0,0,0,0,0,0,0,0
1706444340.59949303,89828221,1545,1545,1545,1545,0,0,0,0,0,0,0,0,0,0
1706444340.69945288,89928181,1544,1545,1545,1545,0,0,0,0,0,0,0,0,0,0
1706444340.80024600,90028974,1544,1544,1544,1544,0,0,0,0,0,0,0,0,0,0
1706444340.90020585,90128934,1544,1544,1544,1544,0,0,0,0,0,0,0,0,0,0
1706444341.00016594,90228894,1545,1545,1545,1545,0,0,0,0,0,0,0,0,0,0
1706444341.10012603,90328854,1544,1544,1544,1544,0,0,0,0,0,0,0,0,0,0
1706444341.20008588,90428814,1544,1544,1544,1543,0,0,0,0,0,0,0,0,0,0
1706444341.30004597,90528774,1544,1544,1544,1544,0,0,0,0,0,0,0,0,0,0
1706444341.40000606,90628734,1544,1544,1544,1544,0,0,0,0,0,0,0,0,0,0
1706444341.49996591,90728694,1544,1543,1543,1544,0,0,0,0,0,0,0,0,0,0
1706444341.59992599,90828654,1545,1544,1545,1545,0,0,0,0,0,0,0,0,0,0
1706444341.69988585,90928614,1543,1543,1543,1543,0,0,0,0,0,0,0,0,0,0
1706444341.79984593,91028574,1544,1544,1544,1544,0,0,0,0,0,0,0,0,0,0
1706444341.89980602,91128534,1544,1544,1544,1544,0,0,0,0,0,0,0,0,0,0
1706444341.99976587,91228494,1544,1544,1544,1544,0,0,0,0,0,0,0,0,0,0
1706444342.09972596,91328454,1544,1544,1544,1544,0,0,0,0,0,0,0,0,0,0
1706444342.19968605,91428414,1543,1544,1543,1543,0,0,0,0,0,0,0,0,0,0
1706444342.29964590,91528374,1544,1544,1544,1544,0,0,0,0,0,0,0,0,0,0
1706444342.39960599,91628334,1544,1544,1544,1544,0,0,0,0,0,0,0,0,0,0
1706444342.49956584,91728294,1544,1544,1544,1544,0,0,0,0,0,0,0,0,0,0
1706444342.59952593,91828254,1544,1544,1544,1544,0,0,0,0,0,0,0,0,0,0
1706444342.69948602,91928214,1544,1544,1544,1544,0,0,0,0,0,0,0,0,0,0
1706444342.79944587,92028174,1544,1544,1544,1544,0,0,0,0,0,0,0,0,0,0
1706444342.90023899,92128967,1545,1544,1544,1545,0,0,0,0,0,0,0,0,0,0
1706444343.00019884,92228927,1544,1544,1544,1544,0,0,0,0,0,0,0,0,0,0
1706444343.10015893,92328887,1544,1544,1545,1544,0,0,0,0,0,0,0,0,0,0
1706444343.20011902,92428847,1544,1544,1545,1544,0,0,0,0,0,0,0,0,0,0
1706444343.30007887,92528807,1545,1545,1545,1545,0,0,0,0,0,0,0,0,0,0
1706444343.40003896,92628767,1544,1545,1544,1544,0,0,0,0,0,0,0,0,0,0
1706444343.49999905,92728727,1544,1543,1544,1544,0,0,0,0,0,0,0,0,0,0
1706444343.59995890,92828687,1545,1544,1544,1545,0,0,0,0,0,0,0,0,0,0
1706444343.69991899,92928647,1544,1544,1544,1544,0,0,0,0,0,0,0,0,0,0
1706444343.79987884,93028607,1544,1544,1544,1544,0,0,0,0,0,0,0,0,0,0
1706444343.89983892,93128567,1544,1544,1544,1544,0,0,0,0,0,0,0,0,0,0
1706444343.99979901,93228527,1544,1544,1544,1544,0,0,0,0,0,0,0,0,0,0
1706444344.09975886,93328487,1544,1544,1544,1544,0,0,0,0,0,0,0,0,0,0
1706444344.19971895,93428447,1545,1545,1545,1545,0,0,0,0,0,0,0,0,0,0
1706444344.29967904,93528407,1544,1544,1544,1544,0,0,0,0,0,0,0,0,0,0
1706444344.39963889,93628367,1545,1544,1544,1544,0,0,0,0,0,0,0,0,0,0
1706444344.49959898,93728327,1544,1544,1544,1544,0,0,0,0,0,0,0,0,0,0
1706444344.59955883,93828287,1544,1544,1544,1544,0,0,0,0,0,0,0,0,0,0
1706444344.69951892,93928247,1544,1544,1544,1545,0,0,0,0,0,0,0,0,0,0
1706444344.79947901,94028207,1544,1544,1544,1544,0,0,0,0,0,0,0,0,0,0
1706444344.89943886,94128167,1544,1544,1544,1544,0,0,0,0,0,0,0,0,0,0
1706444345.00023198,94228960,1544,1544,1544,1543,0,0,0,0,0,0,0,0,0,0
1706444345.10019183,94328920,1544,1543,1543,1544,0,0,0,0,0,0,0,0,0,0
1706444345.20015192,94428880,1543,1543,1543,1544,0,0,0,0,0,0,0,0,0,0
1706444345.30011201,94528840,1544,1543,1544,1544,0,0,0,0,0,0,0,0,0,0
1706444345.40007186,94628800,1544,1544,1544,1544,0,0,0,0,0,0,0,0,0,0
1706444345.50003195,94728760,1545,1545,1545,1544,0,0,0,0,0,0,0,0,0,0
1706444345.59999204,94828720,1544,1545,1544,1544,0,0,0,0,0,0,0,0,0,0
1706444345.69995189,94928680,1544,1544,1544,1544,0,0,0,0,0,0,0,0,0,0
1706444345.79991198,95028640,1544,1544,1544,1544,0,0,0,0,0,0,0,0,0,0
1706444345.89987183,95128600,1545,1545,1545,1545,0,0,0,0,0,0,0,0,0,0
1706444345.99983191,95228560,1544,1544,1544,1544,0,0,0,0,0,0,0,0,0,0
1706444346.09979200,95328520,1545,1545,1544,1545,0,0,0,0,0,0,0,0,0,0
1706444346.19975185,95428480,1543,1544,1544,1544,0,0,0,0,0,0,0,0,0,0
1706444346.29971194,95528440,1544,1544,1544,1544,0,0,0,0,0,0,0,0,0,0
1706444346.39967203,95628400,1544,1545,1545,1544,0,0,0,0,0,0,0,0,0,0
1706444346.49963188,95728360,1544,1544,1544,1543,0,0,0,0,0,0,0,0,0,0
1706444346.59959197,95828320,1543,1543,1543,1543,0,0,0,0,0,0,0,0,0,0
1706444346.69955206,95928280,1544,1543,1544,1544,0,0,0,0,0,0,0,0,0,0
1706444346.79951191,96028240,1544,1544,1544,1545,0,0,0,0,0,0,0,0,0,0
1706444346.89947200,96128200,1544,1543,1543,1544,0,0,0,0,0,0,0,0,0,0
1706444346.99943185,96228160,1543,1543,1543,1543,0,0,0,0,0,0,0,0,0,0
1706444347.10022497,96328953,1543,1543,1543,1543,0,0,0,0,0,0,0,0,0,0
1706444347.20018506,96428913,1544,1544,1544,1544,0,0,0,0,0,0,0,0,0,0
1706444347.30014491,96528873,1544,1544,1544,1544,0,0,0,0,0,0,0,0,0,0
1706444347.40010500,96628833,1544,1544,1544,1544,0,0,0,0,0,0,0,0,0,0
1706444347.50006485,96728793,1544,1544,1544,1544,0,0,0,0,0,0,0,0,0,0
1706444347.60002494,96828753,1544,1545,1545,1544,0,0,0,0,0,0,0,0,0,0
1706444347.69998503,96928713,1545,1544,1544,1545,0,0,0,0,0,0,0,0,0,0
1706444347.79994488,97028673,1545,1545,1545,1546,0,0,0,0,0,0,0,0,0,0
1706444347.89990497,97128633,1533,1530,1532,1531,0,0,0,0,0,0,0,0,0,0
1706444347.99986506,97228593,1371,1339,1370,1340,0,0,0,0,0,0,0,0,0,0
1706444348.09982491,97328553,1294,1241,1293,1243,0,0,0,0,0,0,0,0,0,0
1706444348.19978499,97428513,1271,1210,1270,1211,0,0,0,0,0,0,0,0,0,0
1706444348.29974484,97528473,1254,1186,1253,1188,0,0,0,0,0,0,0,0,0,0
1706444348.39970493,97628433,1228,1150,1227,1151,0,0,0,0,0,0,0,0,0,0
1706444348.49966502,97728393,1193,1150,1192,1151,0,0,0,0,0,0,0,0,0,0
1706444348.59962487,97828353,1193,1150,1193,1150,0,0,0,0,0,0,0,0,0,0
1706444348.69958496,97928313,1193,1150,1192,1151,0,0,0,0,0,0,0,0,0,0
1706444348.79954505,98028273,1193,1150,1176,1172,0,0,0,0,0,0,0,0,0,0
1706444348.89950490,98128233,1193,1150,1182,1165,0,0,0,0,0,0,0,0,0,0
1706444348.99946499,98228193,1193,1150,1184,1162,0,0,0,0,0,0,0,0,0,0
1706444349.10025787,98328986,1193,1150,1184,1163,0,0,0,0,0,0,0,0,0,0
1706444349.20021796,98428946,1193,1150,1183,1163,0,0,0,0,0,0,0,0,0,0
1706444349.30017805,98528906,1193,1150,1183,1164,0,0,0,0,0,0,0,0,0,0
1706444349.40013790,98628866,1193,1150,1182,1165,0,0,0,0,0,0,0,0,0,0
1706444349.50009799,98728826,1193,1150,1182,1165,0,0,0,0,0,0,0,0,0,0
1706444349.60005784,98828786,1193,1150,1189,1155,0,0,0,0,0,0,0,0,0,0
1706444349.70001793,98928746,1193,1150,1189,1157,0,0,0,0,0,0,0,0,0,0
1706444349.79997802,99028706,1193,1150,1188,1157,0,0,0,0,0,0,0,0,0,0
1706444349.89993787,99128666,1193,1150,1188,1158,0,0,0,0,0,0,0,0,0,0
1706444349.99989796,99228626,1172,1150,1167,1156,0,0,0,0,0,0,0,0,0,0
1706444350.09985805,99328586,1000,1000,1000,1000,0,0,0,0,0,0,0,0,0,0
1706444350.19981790,99428546,1000,1000,1000,1000,0,0,0,0,0,0,0,0,0,0
1706444350.29977798,99528506,1000,1000,1000,1000,0,0,0,0,0,0,0,0,0,0
1706444350.39973783,99628466,1000,1000,1000,1000,0,0,0,0,0,0,0,0,0,0
1706444350.49969792,99728426,1000,1000,1000,1000,0,0,0,0,0,0,0,0,0,0
1706444350.59965801,99828386,1000,1000,1000,1000,0,0,0,0,0,0,0,0,0,0
1706444350.69961786,99928346,1000,1000,1000,1000,0,0,0,0,0,0,0,0,0,0
1706444350.79957795,100028306,1000,1000,1000,1000,0,0,0,0,0,0,0,0,0,0
1706444350.89953804,100128266,1000,1000,1000,1000,0,0,0,0,0,0,0,0,0,0
1706444350.99949789,100228226,1000,1000,1000,1000,0,0,0,0,0,0,0,0,0,0
1706444351.09945798,100328186,1000,1000,1000,1000,0,0,0,0,0,0,0,0,0,0
1706444351.20025086,100428979,1000,1000,1000,1000,0,0,0,0,0,0,0,0,0,0
1706444351.30021095,100528939,1000,1000,1000,1000,0,0,0,0,0,0,0,0,0,0
1706444351.40017104,100628899,1000,1000,1000,1000,0,0,0,0,0,0,0,0,0,0
1706444351.50013089,100728859,1000,1000,1000,1000,0,0,0,0,0,0,0,0,0,0
1706444351.60009098,100828819,1000,1000,1000,1000,0,0,0,0,0,0,0,0,0,0
1706444351.70005083,100928779,1000,1000,1000,1000,0,0,0,0,0,0,0,0,0,0
1706444351.80001092,101028739,1000,1000,1000,1000,0,0,0,0,0,0,0,0,0,0
1706444351.89997101,101128699,1000,1000,1000,1000,0,0,0,0,0,0,0,0,0,0
1706444351.99993086,101228659,1000,1000,1000,1000,0,0,0,0,0,0,0,0,0,0
1706444352.09989095,101328619,1000,1000,1000,1000,0,0,0,0,0,0,0,0,0,0
1706444352.19985104,101428579,1000,1000,1000,1000,0,0,0,0,0,0,0,0,0,0
1706444352.29981089,101528539,1000,1000,1000,1000,0,0,0,0,0,0,0,0,0,0
1706444352.39977098,101628499,1000,1000,1000,1000,0,0,0,0,0,0,0,0,0,0
1706444352.49973083,101728459,1000,1000,1000,1000,0,0,0,0,0,0,0,0,0,0
1706444352.59969091,101828419,1000,1000,1000,1000,0,0,0,0,0,0,0,0,0,0
1706444352.69965100,101928379,1000,1000,1000,1000,0,0,0,0,0,0,0,0,0,0
1706444352.79961085,102028339,1000,1000,1000,1000,0,0,0,0,0,0,0,0,0,0
1706444352.89957094,102128299,1000,1000,1000,1000,0,0,0,0,0,0,0,0,0,0
1706444352.99953103,102228259,1000,1000,1000,1000,0,0,0,0,0,0,0,0,0,0
1706444353.09949088,102328219,1000,1000,1000,1000,0,0,0,0,0,0,0,0,0,0
1706444353.19945097,102428179,1000,1000,1000,1000,0,0,0,0,0,0,0,0,0,0
1706444353.30024385,102528972,1000,1000,1000,1000,0,0,0,0,0,0,0,0,0,0
1706444353.40020394,102628932,1000,1000,1000,1000,0,0,0,0,0,0,0,0,0,0
1706444353.50016403,102728892,1000,1000,1000,1000,0,0,0,0,0,0,0,0,0,0
1706444353.60012388,102828852,1000,1000,1000,1000,0,0,0,0,0,0,0,0,0,0
1706444353.70008397,102928812,1000,1000,1000,1000,0,0,0,0,0,0,0,0,0,0
1706444353.80004406,103028772,1000,1000,1000,1000,0,0,0,0,0,0,0,0,0,0
1706444353.90000391,103128732,1000,1000,1000,1000,0,0,0,0,0,0,0,0,0,0
1706444353.99996400,103228692,1000,1000,1000,1000,0,0,0,0,0,0,0,0,0,0
1706444354.09992385,103328652,1000,1000,1000,1000,0,0,0,0,0,0,0,0,0,0
1706444354.19988394,103428612,1000,1000,1000,1000,0,0,0,0,0,0,0,0,0,0
1706444354.29984403,103528572,1000,1000,1000,1000,0,0,0,0,0,0,0,0,0,0
1706444354.39980388,103628532,1000,1000,1000,1000,0,0,0,0,0,0,0,0,0,0
1706444354.49976397,103728492,1000,1000,1000,1000,0,0,0,0,0,0,0,0,0,0
1706444354.59972405,103828452,1000,1000,1000,1000,0,0,0,0,0,0,0,0,0,0
1706444354.69968390,103928412,1000,1000,1000,1000,0,0,0,0,0,0,0,0,0,0
1706444354.79964399,104028372,1000,1000,1000,1000,0,0,0,0,0,0,0,0,0,0
1706444354.89960384,104128332,1000,1000,1000,1000,0,0,0,0,0,0,0,0,0,0
1706444354.99956393,104228292,1000,1000,1000,1000,0,0,0,0,0,0,0,0,0,0
1706444355.09952402,104328252,1000,1000,1000,1000,0,0,0,0,0,0,0,0,0,0
1706444355.19948387,104428212,1000,1000,1000,1000,0,0,0,0,0,0,0,0,0,0
1706444355.29944396,104528172,1000,1000,1000,1000,0,0,0,0,0,0,0,0,0,0
1706444355.40023685,104628965,1000,1000,1000,1000,0,0,0,0,0,0,0,0,0,0
1706444355.50019693,104728925,1000,1000,1000,1000,0,0,0,0,0,0,0,0,0,0
1706444355.60015702,104828885,1000,1000,1000,1000,0,0,0,0,0,0,0,0,0,0
1706444355.70011687,104928845,1000,1000,1000,1000,0,0,0,0,0,0,0,0,0,0
1706444355.80007696,105028805,1000,1000,1000,1000,0,0,0,0,0,0,0,0,0,0
1706444355.90003705,105128765,1000,1000,1000,1000,0,0,0,0,0,0,0,0,0,0
1706444355.99999690,105228725,1000,1000,1000,1000,0,0,0,0,0,0,0,0,0,0
1706444356.09995699,105328685,1000,1000,1000,1000,0,0,0,0,0,0,0,0,0,0
1706444356.19991684,105428645,1000,1000,1000,1000,0,0,0,0,0,0,0,0,0,0
1706444356.29987693,105528605,1000,1000,1000,1000,0,0,0,0,0,0,0,0,0,0
1706444356.39983702,105628565,1000,1000,1000,1000,0,0,0,0,0,0,0,0,0,0
1706444356.49979687,105728525,1000,1000,1000,1000,0,0,0,0,0,0,0,0,0,0
1706444356.59975696,105828485,1000,1000,1000,1000,0,0,0,0,0,0,0,0,0,0
1706444356.69971704,105928445,1000,1000,1000,1000,0,0,0,0,0,0,0,0,0,0
1706444356.79967690,106028405,1000,1000,1000,1000,0,0,0,0,0,0,0,0,0,0
1706444356.89963698,106128365,1000,1000,1000,1000,0,0,0,0,0,0,0,0,0,0
1706444356.99959683,106228325,1000,1000,1000,1000,0,0,0,0,0,0,0,0,0,0
1706444357.09955692,106328285,1000,1000,1000,1000,0,0,0,0,0,0,0,0,0,0
1706444357.19951701,106428245,1000,1000,1000,1000,0,0,0,0,0,0,0,0,0,0
1706444357.29947686,106528205,1000,1000,1000,1000,0,0,0,0,0,0,0,0,0,0
1706444357.39943695,106628165,1000,1000,1000,1000,0,0,0,0,0,0,0,0,0,0
