timestamp,TimeUS,C1,C2,C3,C4,C5,C6,C7,C8,C9,C10,C11,C12,C13,C14
1706443865.30004001,81928882,1000,1000,1000,1000,0,0,0,0,0,0,0,0,0,0
1706443865.40000010,82028842,1000,1000,1000,1000,0,0,0,0,0,0,0,0,0,0
1706443865.49996018,82128802,1000,1000,1000,1000,0,0,0,0,0,0,0,0,0,0
1706443865.59992003,82228762,1000,1000,1000,1000,0,0,0,0,0,0,0,0,0,0
1706443865.69988012,82328722,1000,1000,1000,1000,0,0,0,0,0,0,0,0,0,0
1706443865.79984021,82428682,1000,1000,1000,1000,0,0,0,0,0,0,0,0,0,0
1706443865.89980006,82528642,1000,1000,1000,1000,0,0,0,0,0,0,0,0,0,0
1706443865.99976015,82628602,1000,1000,1000,1000,0,0,0,0,0,0,0,0,0,0
1706443866.09972024,82728562,1000,1000,1000,1000,0,0,0,0,0,0,0,0,0,0
1706443866.19968009,82828522,1000,1000,1000,1000,0,0,0,0,0,0,0,0,0,0
1706443866.29964018,82928482,1000,1000,1000,1000,0,0,0,0,0,0,0,0,0,0
1706443866.39960003,83028442,1000,1000,1000,1000,0,0,0,0,0,0,0,0,0,0
1706443866.49956012,83128402,1000,1000,1000,1000,0,0,0,0,0,0,0,0,0,0
1706443866.59952021,83228362,1000,1000,1000,1000,0,0,0,0,0,0,0,0,0,0
1706443866.69948006,83328322,1000,1000,1000,1000,0,0,0,0,0,0,0,0,0,0
1706443866.79944015,83428282,1000,1000,1000,1000,0,0,0,0,0,0,0,0,0,0
1706443866.89940023,83528242,1000,1000,1000,1000,0,0,0,0,0,0,0,0,0,0
1706443866.99936008,83628202,1000,1000,1000,1000,0,0,0,0,0,0,0,0,0,0
1706443867.09932017,83728162,1000,1000,1000,1000,0,0,0,0,0,0,0,0,0,0
1706443867.20011306,83828955,1000,1000,1000,1000,0,0,0,0,0,0,0,0,0,0
1706443867.30007315,83928915,1007,1007,1007,1007,0,0,0,0,0,0,0,0,0,0
1706443867.40003324,84028875,1037,1037,1037,1037,0,0,0,0,0,0,0,0,0,0
1706443867.49999309,84128835,1067,1067,1067,1067,0,0,0,0,0,0,0,0,0,0
1706443867.59995317,84228795,1097,1097,1097,1097,0,0,0,0,0,0,0,0,0,0
1706443867.69991302,84328755,1127,1127,1127,1127,0,0,0,0,0,0,0,0,0,0
1706443867.79987311,84428715,1224,1212,1213,1224,0,0,0,0,0,0,0,0,0,0
1706443867.89983320,84528675,1450,1441,1442,1451,0,0,0,0,0,0,0,0,0,0
1706443867.99979305,84628635,1620,1612,1612,1620,0,0,0,0,0,0,0,0,0,0
1706443868.09975314,84728595,1761,1754,1754,1762,0,0,0,0,0,0,0,0,0,0
1706443868.19971323,84828555,1885,1878,1879,1885,0,0,0,0,0,0,0,0,0,0
1706443868.29967308,84928515,1883,1877,1878,1883,0,0,0,0,0,0,0,0,0,0
1706443868.39963317,85028475,1778,1777,1777,1779,0,0,0,0,0,0,0,0,0,0
1706443868.49959302,85128435,1672,1673,1674,1672,0,0,0,0,0,0,0,0,0,0
1706443868.59955311,85228395,1633,1636,1636,1633,0,0,0,0,0,0,0,0,0,0
1706443868.69951320,85328355,1635,1638,1638,1635,0,0,0,0,0,0,0,0,0,0
1706443868.79947305,85428315,1648,1650,1650,1648,0,0,0,0,0,0,0,0,0,0
1706443868.89943314,85528275,1648,1649,1649,1649,0,0,0,0,0,0,0,0,0,0
1706443868.99939322,85628235,1642,1642,1641,1642,0,0,0,0,0,0,0,0,0,0
1706443869.09935308,85728195,1635,1633,1633,1635,0,0,0,0,0,0,0,0,0,0
1706443869.19931316,85828155,1619,1620,1620,1619,0,0,0,0,0,0,0,0,0,0
1706443869.30010605,85928948,1589,1589,1589,1589,0,0,0,0,0,0,0,0,0,0
1706443869.40006614,86028908,1575,1575,1575,1576,0,0,0,0,0,0,0,0,0,0
1706443869.50002623,86128868,1565,1564,1564,1565,0,0,0,0,0,0,0,0,0,0
1706443869.59998608,86228828,1556,1556,1556,1556,0,0,0,0,0,0,0,0,0,0
1706443869.69994617,86328788,1553,1552,1546,1559,0,0,0,0,0,0,0,0,0,0
1706443869.79990602,86428748,1551,1551,1544,1557,0,0,0,0,0,0,0,0,0,0
1706443869.89986610,86528708,1550,1551,1547,1554,0,0,0,0,0,0,0,0,0,0
1706443869.99982619,86628668,1551,1551,1551,1551,0,0,0,0,0,0,0,0,0,0
1706443870.09978604,86728628,1552,1553,1555,1550,0,0,0,0,0,0,0,0,0,0
1706443870.19974613,86828588,1555,1555,1559,1551,0,0,0,0,0,0,0,0,0,0
1706443870.29970622,86928548,1558,1557,1562,1554,0,0,0,0,0,0,0,0,0,0
1706443870.39966607,87028508,1544,1544,1555,1534,0,0,0,0,0,0,0,0,0,0
1706443870.49962616,87128468,1541,1541,1548,1535,0,0,0,0,0,0,0,0,0,0
1706443870.59958601,87228428,1539,1538,1539,1540,0,0,0,0,0,0,0,0,0,0
1706443870.69954610,87328388,1539,1538,1533,1545,0,0,0,0,0,0,0,0,0,0
1706443870.79950619,87428348,1538,1538,1531,1545,0,0,0,0,0,0,0,0,0,0
1706443870.89946604,87528308,1539,1539,1533,1544,0,0,0,0,0,0,0,0,0,0
1706443870.99942613,87628268,1541,1541,1538,1544,0,0,0,0,0,0,0,0,0,0
1706443871.09938622,87728228,1544,1544,1544,1544,0,0,0,0,0,0,0,0,0,0
1706443871.19934607,87828188,1548,1548,1551,1545,0,0,0,0,0,0,0,0,0,0
1706443871.30013919,87928981,1551,1551,1555,1547,0,0,0,0,0,0,0,0,0,0
1706443871.40009904,88028941,1554,1555,1557,1551,0,0,0,0,0,0,0,0,0,0
1706443871.50005913,88128901,1557,1557,1558,1556,0,0,0,0,0,0,0,0,0,0
1706443871.60001922,88228861,1558,1558,1557,1559,0,0,0,0,0,0,0,0,0,0
1706443871.69997907,88328821,1556,1556,1562,1566,0,0,0,0,0,0,0,0,0,0
1706443871.79993916,88428781,1556,1557,1563,1567,0,0,0,0,0,0,0,0,0,0
1706443871.89989901,88528741,1560,1560,1565,1569,0,0,0,0,0,0,0,0,0,0
1706443871.99985909,88628701,1561,1562,1565,1567,0,0,0,0,0,0,0,0,0,0
1706443872.09981918,88728661,1564,1565,1566,1566,0,0,0,0,0,0,0,0,0,0
1706443872.19977903,88828621,1567,1566,1566,1565,0,0,0,0,0,0,0,0,0,0
1706443872.29973912,88928581,1568,1568,1566,1565,0,0,0,0,0,0,0,0,0,0
1706443872.39969921,89028541,1570,1570,1567,1566,0,0,0,0,0,0,0,0,0,0
1706443872.49965906,89128501,1571,1571,1566,1566,0,0,0,0,0,0,0,0,0,0
1706443872.59961915,89228461,1572,1572,1567,1567,0,0,0,0,0,0,0,0,0,0
1706443872.69957924,89328421,1572,1572,1567,1568,0,0,0,0,0,0,0,0,0,0
1706443872.79953909,89428381,1572,1571,1567,1568,0,0,0,0,0,0,0,0,0,0
1706443872.89949918,89528341,1573,1572,1570,1570,0,0,0,0,0,0,0,0,0,0
1706443872.99945903,89628301,1573,1573,1571,1571,0,0,0,0,0,0,0,0,0,0
1706443873.09941912,89728261,1574,1573,1573,1573,0,0,0,0,0,0,0,0,0,0
1706443873.19937921,89828221,1575,1575,1576,1574,0,0,0,0,0,0,0,0,0,0
1706443873.29933906,89928181,1574,1575,1576,1575,0,0,0,0,0,0,0,0,0,0
1706443873.40013218,90028974,1575,1575,1577,1575,0,0,0,0,0,0,0,0,0,0
1706443873.50009203,90128934,1576,1575,1578,1577,0,0,0,0,0,0,0,0,0,0
1706443873.60005212,90228894,1575,1575,1577,1577,0,0,0,0,0,0,0,0,0,0
1706443873.70001221,90328854,1576,1576,1577,1577,0,0,0,0,0,0,0,0,0,0
1706443873.79997206,90428814,1575,1575,1576,1577,0,0,0,0,0,0,0,0,0,0
1706443873.89993215,90528774,1577,1576,1577,1578,0,0,0,0,0,0,0,0,0,0
1706443873.99989223,90628734,1576,1576,1577,1576,0,0,0,0,0,0,0,0,0,0
1706443874.09985209,90728694,1577,1576,1577,1576,0,0,0,0,0,0,0,0,0,0
1706443874.19981217,90828654,1577,1578,1578,1577,0,0,0,0,0,0,0,0,0,0
1706443874.29977202,90928614,1578,1578,1577,1577,0,0,0,0,0,0,0,0,0,0
1706443874.39973211,91028574,1577,1577,1577,1576,0,0,0,0,0,0,0,0,0,0
1706443874.49969220,91128534,1578,1578,1577,1577,0,0,0,0,0,0,0,0,0,0
1706443874.59965205,91228494,1579,1580,1579,1579,0,0,0,0,0,0,0,0,0,0
1706443874.69961214,91328454,1578,1578,1578,1578,0,0,0,0,0,0,0,0,0,0
1706443874.79957223,91428414,1579,1579,1578,1579,0,0,0,0,0,0,0,0,0,0
1706443874.89953208,91528374,1578,1579,1578,1578,0,0,0,0,0,0,0,0,0,0
1706443874.99949217,91628334,1578,1579,1578,1578,0,0,0,0,0,0,0,0,0,0
1706443875.09945202,91728294,1579,1579,1579,1579,0,0,0,0,0,0,0,0,0,0
1706443875.19941211,91828254,1579,1578,1579,1579,0,0,0,0,0,0,0,0,0,0
1706443875.29937220,91928214,1579,1579,1579,1580,0,0,0,0,0,0,0,0,0,0
1706443875.39933205,92028174,1578,1579,1579,1579,0,0,0,0,0,0,0,0,0,0
1706443875.50012517,92128967,1578,1579,1579,1579,0,0,0,0,0,0,0,0,0,0
1706443875.60008502,92228927,1579,1579,1580,1579,0,0,0,0,0,0,0,0,0,0
1706443875.70004511,92328887,1579,1579,1579,1579,0,0,0,0,0,0,0,0,0,0
1706443875.80000520,92428847,1579,1579,1579,1579,0,0,0,0,0,0,0,0,0,0
1706443875.89996505,92528807,1580,1579,1580,1580,0,0,0,0,0,0,0,0,0,0
1706443875.99992514,92628767,1579,1579,1579,1580,0,0,0,0,0,0,0,0,0,0
1706443876.09988523,92728727,1579,1579,1579,1579,0,0,0,0,0,0,0,0,0,0
1706443876.19984508,92828687,1579,1579,1579,1579,0,0,0,0,0,0,0,0,0,0
1706443876.29980516,92928647,1579,1579,1580,1580,0,0,0,0,0,0,0,0,0,0
1706443876.39976501,93028607,1580,1580,1580,1580,0,0,0,0,0,0,0,0,0,0
1706443876.49972510,93128567,1580,1580,1580,1580,0,0,0,0,0,0,0,0,0,0
1706443876.59968519,93228527,1580,1580,1580,1581,0,0,0,0,0,0,0,0,0,0
1706443876.69964504,93328487,1580,1580,1580,1580,0,0,0,0,0,0,0,0,0,0
1706443876.79960513,93428447,1580,1580,1580,1580,0,0,0,0,0,0,0,0,0,0
1706443876.89956522,93528407,1581,1581,1581,1581,0,0,0,0,0,0,0,0,0,0
1706443876.99952507,93628367,1581,1581,1581,1581,0,0,0,0,0,0,0,0,0,0
1706443877.09948516,93728327,1581,1581,1580,1581,0,0,0,0,0,0,0,0,0,0
1706443877.19944501,93828287,1581,1580,1580,1581,0,0,0,0,0,0,0,0,0,0
1706443877.29940510,93928247,1581,1581,1581,1581,0,0,0,0,0,0,0,0,0,0
1706443877.39936519,94028207,1582,1581,1582,1581,0,0,0,0,0,0,0,0,0,0
1706443877.49932504,94128167,1582,1582,1582,1582,0,0,0,0,0,0,0,0,0,0
1706443877.60011816,94228960,1582,1582,1582,1582,0,0,0,0,0,0,0,0,0,0
1706443877.70007801,94328920,1581,1581,1581,1582,0,0,0,0,0,0,0,0,0,0
1706443877.80003810,94428880,1581,1581,1581,1581,0,0,0,0,0,0,0,0,0,0
1706443877.89999819,94528840,1581,1582,1582,1582,0,0,0,0,0,0,0,0,0,0
1706443877.99995804,94628800,1581,1582,1588,1573,0,0,0,0,0,0,0,0,0,0
1706443878.09991813,94728760,1580,1582,1585,1573,0,0,0,0,0,0,0,0,0,0
1706443878.19987822,94828720,1579,1581,1576,1573,0,0,0,0,0,0,0,0,0,0
1706443878.29983807,94928680,1577,1580,1567,1572,0,0,0,0,0,0,0,0,0,0
1706443878.39979815,95028640,1577,1579,1560,1568,0,0,0,0,0,0,0,0,0,0
1706443878.49975801,95128600,1577,1578,1556,1562,0,0,0,0,0,0,0,0,0,0
1706443878.59971809,95228560,1580,1578,1556,1559,0,0,0,0,0,0,0,0,0,0
1706443878.69967818,95328520,1580,1578,1555,1555,0,0,0,0,0,0,0,0,0,0
1706443878.79963803,95428480,1579,1578,1555,1553,0,0,0,0,0,0,0,0,0,0
1706443878.89959812,95528440,1579,1578,1556,1553,0,0,0,0,0,0,0,0,0,0
1706443878.99955821,95628400,1578,1578,1556,1554,0,0,0,0,0,0,0,0,0,0
1706443879.09951806,95728360,1576,1577,1555,1554,0,0,0,0,0,0,0,0,0,0
1706443879.19947815,95828320,1574,1576,1553,1553,0,0,0,0,0,0,0,0,0,0
1706443879.29943824,95928280,1574,1576,1552,1552,0,0,0,0,0,0,0,0,0,0
1706443879.39939809,96028240,1575,1577,1551,1551,0,0,0,0,0,0,0,0,0,0
1706443879.49935818,96128200,1577,1578,1549,1549,0,0,0,0,0,0,0,0,0,0
1706443879.59931803,96228160,1580,1581,1548,1548,0,0,0,0,0,0,0,0,0,0
1706443879.70011115,96328953,1582,1583,1545,1546,0,0,0,0,0,0,0,0,0,0
1706443879.80007124,96428913,1584,1585,1542,1542,0,0,0,0,0,0,0,0,0,0
1706443879.90003109,96528873,1587,1587,1539,1538,0,0,0,0,0,0,0,0,0,0
1706443879.99999118,96628833,1590,1591,1538,1537,0,0,0,0,0,0,0,0,0,0
1706443880.09995103,96728793,1593,1593,1536,1537,0,0,0,0,0,0,0,0,0,0
1706443880.19991112,96828753,1594,1595,1535,1536,0,0,0,0,0,0,0,0,0,0
1706443880.29987121,96928713,1594,1594,1534,1536,0,0,0,0,0,0,0,0,0,0
1706443880.39983106,97028673,1593,1594,1537,1539,0,0,0,0,0,0,0,0,0,0
1706443880.49979115,97128633,1593,1591,1541,1544,0,0,0,0,0,0,0,0,0,0
1706443880.59975123,97228593,1589,1587,1547,1551,0,0,0,0,0,0,0,0,0,0
1706443880.69971108,97328553,1583,1579,1556,1559,0,0,0,0,0,0,0,0,0,0
1706443880.79967117,97428513,1574,1569,1566,1568,0,0,0,0,0,0,0,0,0,0
1706443880.89963102,97528473,1563,1559,1578,1580,0,0,0,0,0,0,0,0,0,0
1706443880.99959111,97628433,1551,1548,1590,1591,0,0,0,0,0,0,0,0,0,0
1706443881.09955120,97728393,1540,1539,1601,1601,0,0,0,0,0,0,0,0,0,0
1706443881.19951105,97828353,1533,1533,1610,1609,0,0,0,0,0,0,0,0,0,0
1706443881.29947114,97928313,1529,1531,1615,1614,0,0,0,0,0,0,0,0,0,0
1706443881.39943123,98028273,1529,1530,1615,1614,0,0,0,0,0,0,0,0,0,0
1706443881.49939108,98128233,1532,1534,1613,1612,0,0,0,0,0,0,0,0,0,0
1706443881.59935117,98228193,1538,1540,1607,1607,0,0,0,0,0,0,0,0,0,0
1706443881.70014405,98328986,1546,1547,1600,1601,0,0,0,0,0,0,0,0,0,0
1706443881.80010414,98428946,1555,1556,1593,1593,0,0,0,0,0,0,0,0,0,0
1706443881.90006423,98528906,1564,1565,1586,1586,0,0,0,0,0,0,0,0,0,0
1706443882.00002408,98628866,1573,1572,1579,1579,0,0,0,0,0,0,0,0,0,0
1706443882.09998417,98728826,1579,1578,1573,1573,0,0,0,0,0,0,0,0,0,0
1706443882.19994402,98828786,1584,1583,1569,1569,0,0,0,0,0,0,0,0,0,0
1706443882.29990411,98928746,1586,1585,1566,1566,0,0,0,0,0,0,0,0,0,0
1706443882.39986420,99028706,1587,1586,1565,1566,0,0,0,0,0,0,0,0,0,0
1706443882.49982405,99128666,1587,1586,1567,1567,0,0,0,0,0,0,0,0,0,0
1706443882.59978414,99228626,1585,1585,1569,1569,0,0,0,0,0,0,0,0,0,0
1706443882.69974422,99328586,1583,1583,1572,1572,0,0,0,0,0,0,0,0,0,0
1706443882.79970407,99428546,1580,1580,1574,1574,0,0,0,0,0,0,0,0,0,0
1706443882.89966416,99528506,1577,1577,1576,1577,0,0,0,0,0,0,0,0,0,0
1706443882.99962401,99628466,1574,1575,1579,1579,0,0,0,0,0,0,0,0,0,0
1706443883.09958410,99728426,1572,1572,1580,1580,0,0,0,0,0,0,0,0,0,0
1706443883.19954419,99828386,1571,1571,1582,1582,0,0,0,0,0,0,0,0,0,0
1706443883.29950404,99928346,1571,1572,1583,1583,0,0,0,0,0,0,0,0,0,0
1706443883.39946413,100028306,1572,1573,1583,1583,0,0,0,0,0,0,0,0,0,0
1706443883.49942422,100128266,1573,1574,1583,1583,0,0,0,0,0,0,0,0,0,0
1706443883.59938407,100228226,1575,1575,1583,1582,0,0,0,0,0,0,0,0,0,0
1706443883.69934416,100328186,1576,1575,1580,1580,0,0,0,0,0,0,0,0,0,0
1706443883.80013704,100428979,1578,1578,1580,1580,0,0,0,0,0,0,0,0,0,0
1706443883.90009713,100528939,1580,1579,1579,1579,0,0,0,0,0,0,0,0,0,0
1706443884.00005722,100628899,1580,1579,1577,1578,0,0,0,0,0,0,0,0,0,0
1706443884.10001707,100728859,1581,1581,1577,1577,0,0,0,0,0,0,0,0,0,0
1706443884.19997716,100828819,1580,1581,1577,1576,0,0,0,0,0,0,0,0,0,0
1706443884.29993701,100928779,1581,1581,1577,1577,0,0,0,0,0,0,0,0,0,0
1706443884.39989710,101028739,1581,1581,1577,1577,0,0,0,0,0,0,0,0,0,0
1706443884.49985719,101128699,1581,1580,1577,1578,0,0,0,0,0,0,0,0,0,0
1706443884.59981704,101228659,1581,1581,1578,1578,0,0,0,0,0,0,0,0,0,0
1706443884.69977713,101328619,1580,1580,1579,1579,0,0,0,0,0,0,0,0,0,0
1706443884.79973722,101428579,1580,1580,1580,1580,0,0,0,0,0,0,0,0,0,0
1706443884.89969707,101528539,1579,1579,1580,1580,0,0,0,0,0,0,0,0,0,0
1706443884.99965715,101628499,1579,1579,1580,1580,0,0,0,0,0,0,0,0,0,0
1706443885.09961700,101728459,1580,1580,1581,1581,0,0,0,0,0,0,0,0,0,0
1706443885.19957709,101828419,1579,1579,1581,1581,0,0,0,0,0,0,0,0,0,0
1706443885.29953718,101928379,1579,1579,1581,1581,0,0,0,0,0,0,0,0,0,0
1706443885.39949703,102028339,1580,1580,1581,1582,0,0,0,0,0,0,0,0,0,0
1706443885.49945712,102128299,1720,1548,1720,1550,0,0,0,0,0,0,0,0,0,0
1706443885.59941721,102228259,1621,1588,1624,1588,0,0,0,0,0,0,0,0,0,0
1706443885.69937706,102328219,1588,1593,1589,1592,0,0,0,0,0,0,0,0,0,0
1706443885.79933715,102428179,1566,1591,1566,1591,0,0,0,0,0,0,0,0,0,0
1706443885.90013003,102528972,1558,1586,1556,1585,0,0,0,0,0,0,0,0,0,0
1706443886.00009012,102628932,1559,1579,1564,1569,0,0,0,0,0,0,0,0,0,0
1706443886.10005021,102728892,1564,1573,1565,1561,0,0,0,0,0,0,0,0,0,0
1706443886.20001006,102828852,1571,1570,1562,1556,0,0,0,0,0,0,0,0,0,0
1706443886.29997015,102928812,1577,1570,1558,1552,0,0,0,0,0,0,0,0,0,0
1706443886.39993024,103028772,1582,1573,1554,1551,0,0,0,0,0,0,0,0,0,0
1706443886.49989009,103128732,1583,1576,1551,1550,0,0,0,0,0,0,0,0,0,0
1706443886.59985018,103228692,1583,1578,1552,1552,0,0,0,0,0,0,0,0,0,0
1706443886.69981003,103328652,1581,1579,1552,1552,0,0,0,0,0,0,0,0,0,0
1706443886.79977012,103428612,1578,1579,1554,1554,0,0,0,0,0,0,0,0,0,0
1706443886.89973021,103528572,1576,1578,1556,1555,0,0,0,0,0,0,0,0,0,0
1706443886.99969006,103628532,1575,1577,1558,1557,0,0,0,0,0,0,0,0,0,0
1706443887.09965014,103728492,1574,1576,1559,1558,0,0,0,0,0,0,0,0,0,0
1706443887.19961023,103828452,1575,1576,1560,1559,0,0,0,0,0,0,0,0,0,0
1706443887.29957008,103928412,1576,1576,1559,1558,0,0,0,0,0,0,0,0,0,0
1706443887.39953017,104028372,1577,1578,1557,1557,0,0,0,0,0,0,0,0,0,0
1706443887.49949002,104128332,1578,1579,1554,1554,0,0,0,0,0,0,0,0,0,0
1706443887.59945011,104228292,1581,1581,1552,1552,0,0,0,0,0,0,0,0,0,0
1706443887.69941020,104328252,1583,1584,1550,1550,0,0,0,0,0,0,0,0,0,0
1706443887.79937005,104428212,1585,1586,1548,1547,0,0,0,0,0,0,0,0,0,0
1706443887.89933014,104528172,1588,1588,1545,1545,0,0,0,0,0,0,0,0,0,0
1706443888.00012302,104628965,1590,1592,1544,1544,0,0,0,0,0,0,0,0,0,0
1706443888.10008311,104728925,1593,1594,1542,1542,0,0,0,0,0,0,0,0,0,0
1706443888.20004320,104828885,1595,1596,1541,1543,0,0,0,0,0,0,0,0,0,0
1706443888.30000305,104928845,1595,1595,1541,1543,0,0,0,0,0,0,0,0,0,0
1706443888.39996314,105028805,1595,1594,1545,1547,0,0,0,0,0,0,0,0,0,0
1706443888.49992323,105128765,1591,1588,1549,1552,0,0,0,0,0,0,0,0,0,0
1706443888.59988308,105228725,1585,1582,1557,1559,0,0,0,0,0,0,0,0,0,0
1706443888.69984317,105328685,1577,1573,1567,1568,0,0,0,0,0,0,0,0,0,0
1706443888.79980302,105428645,1567,1564,1576,1578,0,0,0,0,0,0,0,0,0,0
1706443888.89976311,105528605,1558,1555,1587,1588,0,0,0,0,0,0,0,0,0,0
1706443888.99972320,105628565,1549,1548,1596,1596,0,0,0,0,0,0,0,0,0,0
1706443889.09968305,105728525,1542,1542,1602,1602,0,0,0,0,0,0,0,0,0,0
1706443889.19964314,105828485,1539,1539,1606,1606,0,0,0,0,0,0,0,0,0,0
1706443889.29960322,105928445,1539,1540,1608,1608,0,0,0,0,0,0,0,0,0,0
1706443889.39956307,106028405,1541,1542,1607,1607,0,0,0,0,0,0,0,0,0,0
1706443889.49952316,106128365,1547,1548,1605,1604,0,0,0,0,0,0,0,0,0,0
1706443889.59948301,106228325,1553,1554,1600,1599,0,0,0,0,0,0,0,0,0,0
1706443889.69944310,106328285,1561,1562,1596,1595,0,0,0,0,0,0,0,0,0,0
1706443889.79940319,106428245,1567,1568,1589,1588,0,0,0,0,0,0,0,0,0,0
1706443889.89936304,106528205,1573,1573,1583,1582,0,0,0,0,0,0,0,0,0,0
1706443889.99932313,106628165,1578,1578,1577,1577,0,0,0,0,0,0,0,0,0,0
1706443890.10011601,106728958,1581,1581,1573,1573,0,0,0,0,0,0,0,0,0,0
1706443890.20007610,106828918,1585,1583,1572,1572,0,0,0,0,0,0,0,0,0,0
1706443890.30003619,106928878,1585,1584,1570,1571,0,0,0,0,0,0,0,0,0,0
1706443890.39999604,107028838,1585,1583,1570,1571,0,0,0,0,0,0,0,0,0,0
1706443890.49995613,107128798,1583,1582,1572,1572,0,0,0,0,0,0,0,0,0,0
1706443890.59991622,107228758,1581,1581,1575,1574,0,0,0,0,0,0,0,0,0,0
1706443890.69987607,107328718,1580,1580,1577,1577,0,0,0,0,0,0,0,0,0,0
1706443890.79983616,107428678,1578,1578,1579,1580,0,0,0,0,0,0,0,0,0,0
1706443890.89979601,107528638,1576,1576,1581,1581,0,0,0,0,0,0,0,0,0,0
1706443890.99975610,107628598,1574,1575,1582,1582,0,0,0,0,0,0,0,0,0,0
1706443891.09971619,107728558,1573,1574,1583,1583,0,0,0,0,0,0,0,0,0,0
1706443891.19967604,107828518,1573,1574,1583,1584,0,0,0,0,0,0,0,0,0,0
1706443891.29963613,107928478,1574,1574,1583,1583,0,0,0,0,0,0,0,0,0,0
1706443891.39959621,108028438,1575,1575,1583,1582,0,0,0,0,0,0,0,0,0,0
1706443891.49955606,108128398,1576,1576,1582,1582,0,0,0,0,0,0,0,0,0,0
1706443891.59951615,108228358,1578,1578,1581,1581,0,0,0,0,0,0,0,0,0,0
1706443891.69947624,108328318,1579,1579,1580,1580,0,0,0,0,0,0,0,0,0,0
1706443891.79943609,108428278,1579,1579,1579,1579,0,0,0,0,0,0,0,0,0,0
1706443891.89939618,108528238,1580,1579,1578,1578,0,0,0,0,0,0,0,0,0,0
1706443891.99935603,108628198,1580,1580,1578,1578,0,0,0,0,0,0,0,0,0,0
1706443892.09931612,108728158,1581,1581,1578,1578,0,0,0,0,0,0,0,0,0,0
1706443892.20010900,108828951,1580,1580,1577,1577,0,0,0,0,0,0,0,0,0,0
1706443892.30006909,108928911,1581,1580,1578,1578,0,0,0,0,0,0,0,0,0,0
1706443892.40002918,109028871,1580,1581,1579,1579,0,0,0,0,0,0,0,0,0,0
1706443892.49998903,109128831,1580,1579,1578,1579,0,0,0,0,0,0,0,0,0,0
1706443892.59994912,109228791,1580,1579,1579,1579,0,0,0,0,0,0,0,0,0,0
1706443892.69990921,109328751,1581,1580,1581,1581,0,0,0,0,0,0,0,0,0,0
1706443892.79986906,109428711,1580,1580,1581,1580,0,0,0,0,0,0,0,0,0,0
1706443892.89982915,109528671,1579,1579,1581,1581,0,0,0,0,0,0,0,0,0,0
1706443892.99978924,109628631,1580,1580,1582,1582,0,0,0,0,0,0,0,0,0,0
1706443893.09974909,109728591,1580,1580,1581,1581,0,0,0,0,0,0,0,0,0,0
1706443893.19970918,109828551,1580,1580,1581,1581,0,0,0,0,0,0,0,0,0,0
1706443893.29966903,109928511,1581,1581,1582,1582,0,0,0,0,0,0,0,0,0,0
1706443893.39962912,110028471,1580,1580,1581,1581,0,0,0,0,0,0,0,0,0,0
1706443893.49958920,110128431,1581,1581,1581,1581,0,0,0,0,0,0,0,0,0,0
1706443893.59954906,110228391,1580,1580,1580,1580,0,0,0,0,0,0,0,0,0,0
1706443893.69950914,110328351,1580,1580,1580,1580,0,0,0,0,0,0,0,0,0,0
1706443893.79946923,110428311,1581,1581,1581,1581,0,0,0,0,0,0,0,0,0,0
1706443893.89942908,110528271,1581,1580,1580,1580,0,0,0,0,0,0,0,0,0,0
1706443893.99938917,110628231,1582,1581,1581,1581,0,0,0,0,0,0,0,0,0,0
1706443894.09934902,110728191,1582,1582,1583,1580,0,0,0,0,0,0,0,0,0,0
1706443894.20014215,110828984,1581,1584,1588,1573,0,0,0,0,0,0,0,0,0,0
1706443894.30010223,110928944,1580,1584,1582,1572,0,0,0,0,0,0,0,0,0,0
1706443894.40006208,111028904,1580,1583,1572,1572,0,0,0,0,0,0,0,0,0,0
1706443894.50002217,111128864,1579,1581,1563,1569,0,0,0,0,0,0,0,0,0,0
1706443894.59998202,111228824,1580,1580,1558,1565,0,0,0,0,0,0,0,0,0,0
1706443894.69994211,111328784,1581,1580,1555,1561,0,0,0,0,0,0,0,0,0,0
1706443894.79990220,111428744,1581,1580,1554,1556,0,0,0,0,0,0,0,0,0,0
1706443894.89986205,111528704,1582,1581,1556,1555,0,0,0,0,0,0,0,0,0,0
1706443894.99982214,111628664,1581,1580,1557,1554,0,0,0,0,0,0,0,0,0,0
1706443895.09978223,111728624,1580,1580,1557,1554,0,0,0,0,0,0,0,0,0,0
1706443895.19974208,111828584,1578,1579,1556,1554,0,0,0,0,0,0,0,0,0,0
1706443895.29970217,111928544,1576,1578,1555,1554,0,0,0,0,0,0,0,0,0,0
1706443895.39966202,112028504,1575,1577,1554,1554,0,0,0,0,0,0,0,0,0,0
1706443895.49962211,112128464,1575,1576,1552,1553,0,0,0,0,0,0,0,0,0,0
1706443895.59958220,112228424,1576,1577,1550,1551,0,0,0,0,0,0,0,0,0,0
1706443895.69954205,112328384,1578,1579,1549,1549,0,0,0,0,0,0,0,0,0,0
1706443895.79950213,112428344,1580,1582,1548,1547,0,0,0,0,0,0,0,0,0,0
1706443895.89946222,112528304,1583,1583,1545,1545,0,0,0,0,0,0,0,0,0,0
1706443895.99942207,112628264,1585,1586,1543,1542,0,0,0,0,0,0,0,0,0,0
1706443896.09938216,112728224,1588,1588,1540,1541,0,0,0,0,0,0,0,0,0,0
1706443896.19934201,112828184,1591,1591,1540,1540,0,0,0,0,0,0,0,0,0,0
1706443896.30013514,112928977,1591,1593,1538,1539,0,0,0,0,0,0,0,0,0,0
1706443896.40009522,113028937,1593,1594,1537,1539,0,0,0,0,0,0,0,0,0,0
1706443896.50005507,113128897,1593,1593,1538,1540,0,0,0,0,0,0,0,0,0,0
1706443896.60001516,113228857,1592,1592,1542,1544,0,0,0,0,0,0,0,0,0,0
1706443896.69997501,113328817,1590,1587,1548,1551,0,0,0,0,0,0,0,0,0,0
1706443896.79993510,113428777,1584,1580,1557,1559,0,0,0,0,0,0,0,0,0,0
1706443896.89989519,113528737,1574,1570,1567,1568,0,0,0,0,0,0,0,0,0,0
1706443896.99985504,113628697,1564,1560,1578,1579,0,0,0,0,0,0,0,0,0,0
1706443897.09981513,113728657,1553,1550,1589,1590,0,0,0,0,0,0,0,0,0,0
1706443897.19977522,113828617,1543,1541,1599,1599,0,0,0,0,0,0,0,0,0,0
1706443897.29973507,113928577,1536,1536,1606,1606,0,0,0,0,0,0,0,0,0,0
1706443897.39969516,114028537,1534,1534,1611,1611,0,0,0,0,0,0,0,0,0,0
1706443897.49965501,114128497,1534,1535,1613,1613,0,0,0,0,0,0,0,0,0,0
1706443897.59961510,114228457,1537,1539,1610,1611,0,0,0,0,0,0,0,0,0,0
1706443897.69957519,114328417,1543,1544,1606,1606,0,0,0,0,0,0,0,0,0,0
1706443897.79953504,114428377,1552,1553,1601,1600,0,0,0,0,0,0,0,0,0,0
1706443897.89949512,114528337,1559,1560,1594,1592,0,0,0,0,0,0,0,0,0,0
1706443897.99945521,114628297,1566,1567,1586,1585,0,0,0,0,0,0,0,0,0,0
1706443898.09941506,114728257,1574,1574,1580,1580,0,0,0,0,0,0,0,0,0,0
1706443898.19937515,114828217,1580,1580,1575,1574,0,0,0,0,0,0,0,0,0,0
1706443898.29933524,114928177,1584,1583,1571,1570,0,0,0,0,0,0,0,0,0,0
1706443898.40012813,115028970,1585,1584,1568,1568,0,0,0,0,0,0,0,0,0,0
1706443898.50008821,115128930,1587,1585,1568,1568,0,0,0,0,0,0,0,0,0,0
1706443898.60004807,115228890,1585,1585,1569,1569,0,0,0,0,0,0,0,0,0,0
1706443898.70000815,115328850,1584,1583,1571,1571,0,0,0,0,0,0,0,0,0,0
1706443898.79996800,115428810,1581,1581,1573,1573,0,0,0,0,0,0,0,0,0,0
1706443898.89992809,115528770,1579,1579,1576,1576,0,0,0,0,0,0,0,0,0,0
1706443898.99988818,115628730,1577,1577,1579,1579,0,0,0,0,0,0,0,0,0,0
1706443899.09984803,115728690,1575,1575,1581,1581,0,0,0,0,0,0,0,0,0,0
1706443899.19980812,115828650,1573,1574,1583,1582,0,0,0,0,0,0,0,0,0,0
1706443899.29976821,115928610,1573,1573,1583,1583,0,0,0,0,0,0,0,0,0,0
1706443899.39972806,116028570,1573,1574,1583,1584,0,0,0,0,0,0,0,0,0,0
1706443899.49968815,116128530,1574,1574,1583,1584,0,0,0,0,0,0,0,0,0,0
1706443899.59964824,116228490,1574,1574,1582,1582,0,0,0,0,0,0,0,0,0,0
1706443899.69960809,116328450,1576,1575,1581,1581,0,0,0,0,0,0,0,0,0,0
1706443899.79956818,116428410,1578,1577,1580,1580,0,0,0,0,0,0,0,0,0,0
1706443899.89952803,116528370,1579,1578,1579,1579,0,0,0,0,0,0,0,0,0,0
1706443899.99948812,116628330,1580,1580,1579,1578,0,0,0,0,0,0,0,0,0,0
1706443900.09944820,116728290,1580,1580,1578,1578,0,0,0,0,0,0,0,0,0,0
1706443900.19940805,116828250,1581,1581,1578,1578,0,0,0,0,0,0,0,0,0,0
1706443900.29936814,116928210,1582,1582,1579,1578,0,0,0,0,0,0,0,0,0,0
1706443900.39932823,117028170,1582,1582,1579,1579,0,0,0,0,0,0,0,0,0,0
1706443900.50012112,117128963,1581,1580,1578,1578,0,0,0,0,0,0,0,0,0,0
1706443900.60008121,117228923,1580,1581,1578,1578,0,0,0,0,0,0,0,0,0,0
1706443900.70004106,117328883,1581,1580,1579,1579,0,0,0,0,0,0,0,0,0,0
1706443900.80000114,117428843,1580,1580,1580,1580,0,0,0,0,0,0,0,0,0,0
1706443900.89996123,117528803,1581,1580,1581,1581,0,0,0,0,0,0,0,0,0,0
1706443900.99992108,117628763,1580,1580,1582,1581,0,0,0,0,0,0,0,0,0,0
1706443901.09988117,117728723,1579,1579,1580,1581,0,0,0,0,0,0,0,0,0,0
1706443901.19984102,117828683,1579,1579,1581,1581,0,0,0,0,0,0,0,0,0,0
1706443901.29980111,117928643,1578,1579,1580,1581,0,0,0,0,0,0,0,0,0,0
1706443901.39976120,118028603,1579,1579,1580,1581,0,0,0,0,0,0,0,0,0,0
1706443901.49972105,118128563,1580,1580,1581,1581,0,0,0,0,0,0,0,0,0,0
1706443901.59968114,118228523,1580,1580,1581,1580,0,0,0,0,0,0,0,0,0,0
1706443901.69964123,118328483,1579,1579,1580,1580,0,0,0,0,0,0,0,0,0,0
1706443901.79960108,118428443,1580,1580,1580,1580,0,0,0,0,0,0,0,0,0,0
1706443901.89956117,118528403,1581,1581,1581,1580,0,0,0,0,0,0,0,0,0,0
1706443901.99952102,118628363,1581,1582,1586,1575,0,0,0,0,0,0,0,0,0,0
1706443902.09948111,118728323,1581,1582,1586,1572,0,0,0,0,0,0,0,0,0,0
1706443902.19944119,118828283,1580,1579,1580,1575,0,0,0,0,0,0,0,0,0,0
1706443902.29940104,118928243,1576,1576,1572,1575,0,0,0,0,0,0,0,0,0,0
1706443902.39936113,119028203,1572,1572,1567,1574,0,0,0,0,0,0,0,0,0,0
1706443902.49932122,119128163,1570,1570,1565,1572,0,0,0,0,0,0,0,0,0,0
1706443902.60011411,119228956,1568,1568,1566,1570,0,0,0,0,0,0,0,0,0,0
1706443902.70007420,119328916,1568,1567,1567,1568,0,0,0,0,0,0,0,0,0,0
1706443902.80003405,119428876,1567,1567,1568,1566,0,0,0,0,0,0,0,0,0,0
1706443902.89999413,119528836,1565,1565,1567,1565,0,0,0,0,0,0,0,0,0,0
1706443902.99995422,119628796,1564,1565,1567,1564,0,0,0,0,0,0,0,0,0,0
1706443903.09991407,119728756,1565,1565,1567,1565,0,0,0,0,0,0,0,0,0,0
1706443903.19987416,119828716,1564,1564,1565,1564,0,0,0,0,0,0,0,0,0,0
1706443903.29983401,119928676,1563,1563,1564,1564,0,0,0,0,0,0,0,0,0,0
1706443903.39979410,120028636,1563,1563,1564,1564,0,0,0,0,0,0,0,0,0,0
1706443903.49975419,120128596,1563,1563,1563,1563,0,0,0,0,0,0,0,0,0,0
1706443903.59971404,120228556,1561,1562,1562,1562,0,0,0,0,0,0,0,0,0,0
1706443903.69967413,120328516,1561,1561,1561,1561,0,0,0,0,0,0,0,0,0,0
1706443903.79963422,120428476,1560,1561,1561,1560,0,0,0,0,0,0,0,0,0,0
1706443903.89959407,120528436,1559,1559,1559,1558,0,0,0,0,0,0,0,0,0,0
1706443903.99955416,120628396,1558,1558,1558,1557,0,0,0,0,0,0,0,0,0,0
1706443904.09951401,120728356,1557,1556,1556,1556,0,0,0,0,0,0,0,0,0,0
1706443904.19947410,120828316,1557,1557,1557,1556,0,0,0,0,0,0,0,0,0,0
1706443904.29943419,120928276,1557,1557,1557,1556,0,0,0,0,0,0,0,0,0,0
1706443904.39939404,121028236,1557,1557,1558,1555,0,0,0,0,0,0,0,0,0,0
1706443904.49935412,121128196,1557,1557,1558,1557,0,0,0,0,0,0,0,0,0,0
1706443904.59931421,121228156,1557,1557,1558,1556,0,0,0,0,0,0,0,0,0,0
1706443904.70010710,121328949,1558,1558,1559,1556,0,0,0,0,0,0,0,0,0,0
1706443904.80006719,121428909,1558,1558,1559,1558,0,0,0,0,0,0,0,0,0,0
1706443904.90002704,121528869,1559,1559,1557,1561,0,0,0,0,0,0,0,0,0,0
1706443904.99998713,121628829,1561,1561,1558,1564,0,0,0,0,0,0,0,0,0,0
1706443905.09994721,121728789,1561,1561,1558,1564,0,0,0,0,0,0,0,0,0,0
1706443905.19990706,121828749,1562,1562,1560,1565,0,0,0,0,0,0,0,0,0,0
1706443905.29986715,121928709,1564,1563,1562,1565,0,0,0,0,0,0,0,0,0,0
1706443905.39982724,122028669,1563,1564,1565,1563,0,0,0,0,0,0,0,0,0,0
1706443905.49978709,122128629,1563,1563,1565,1561,0,0,0,0,0,0,0,0,0,0
1706443905.59974718,122228589,1562,1562,1562,1561,0,0,0,0,0,0,0,0,0,0
1706443905.69970703,122328549,1558,1558,1555,1560,0,0,0,0,0,0,0,0,0,0
1706443905.79966712,122428509,1555,1555,1553,1556,0,0,0,0,0,0,0,0,0,0
1706443905.89962721,122528469,1549,1549,1547,1550,0,0,0,0,0,0,0,0,0,0
1706443905.99958706,122628429,1542,1543,1543,1543,0,0,0,0,0,0,0,0,0,0
1706443906.09954715,122728389,1535,1536,1536,1535,0,0,0,0,0,0,0,0,0,0
1706443906.19950724,122828349,1529,1529,1530,1528,0,0,0,0,0,0,0,0,0,0
1706443906.29946709,122928309,1522,1522,1522,1522,0,0,0,0,0,0,0,0,0,0
1706443906.39942718,123028269,1519,1519,1520,1519,0,0,0,0,0,0,0,0,0,0
1706443906.49938703,123128229,1519,1519,1519,1519,0,0,0,0,0,0,0,0,0,0
1706443906.59934711,123228189,1520,1520,1521,1520,0,0,0,0,0,0,0,0,0,0
1706443906.70014024,123328982,1524,1524,1524,1524,0,0,0,0,0,0,0,0,0,0
1706443906.80010009,123428942,1526,1526,1526,1527,0,0,0,0,0,0,0,0,0,0
1706443906.90006018,123528902,1532,1531,1531,1532,0,0,0,0,0,0,0,0,0,0
1706443907.00002003,123628862,1537,1537,1537,1537,0,0,0,0,0,0,0,0,0,0
1706443907.09998012,123728822,1540,1540,1540,1540,0,0,0,0,0,0,0,0,0,0
1706443907.19994020,123828782,1542,1542,1542,1542,0,0,0,0,0,0,0,0,0,0
1706443907.29990005,123928742,1543,1543,1543,1543,0,0,0,0,0,0,0,0,0,0
1706443907.39986014,124028702,1544,1545,1544,1544,0,0,0,0,0,0,0,0,0,0
1706443907.49982023,124128662,1545,1545,1545,1545,0,0,0,0,0,0,0,0,0,0
1706443907.59978008,124228622,1545,1545,1545,1545,0,0,0,0,0,0,0,0,0,0
1706443907.69974017,124328582,1546,1546,1546,1546,0,0,0,0,0,0,0,0,0,0
1706443907.79970002,124428542,1546,1546,1547,1546,0,0,0,0,0,0,0,0,0,0
1706443907.89966011,124528502,1546,1546,1546,1546,0,0,0,0,0,0,0,0,0,0
1706443907.99962020,124628462,1546,1546,1546,1546,0,0,0,0,0,0,0,0,0,0
1706443908.09958005,124728422,1546,1546,1546,1546,0,0,0,0,0,0,0,0,0,0
1706443908.19954014,124828382,1546,1546,1546,1546,0,0,0,0,0,0,0,0,0,0
1706443908.29950023,124928342,1546,1546,1545,1546,0,0,0,0,0,0,0,0,0,0
1706443908.39946008,125028302,1545,1545,1545,1545,0,0,0,0,0,0,0,0,0,0
1706443908.49942017,125128262,1545,1545,1545,1545,0,0,0,0,0,0,0,0,0,0
1706443908.59938002,125228222,1545,1545,1545,1545,0,0,0,0,0,0,0,0,0,0
1706443908.69934011,125328182,1544,1544,1544,1544,0,0,0,0,0,0,0,0,0,0
1706443908.80013323,125428975,1544,1545,1545,1544,0,0,0,0,0,0,0,0,0,0
1706443908.90009308,125528935,1543,1544,1543,1543,0,0,0,0,0,0,0,0,0,0
1706443909.00005317,125628895,1543,1543,1543,1543,0,0,0,0,0,0,0,0,0,0
1706443909.10001302,125728855,1544,1544,1544,1544,0,0,0,0,0,0,0,0,0,0
1706443909.19997311,125828815,1544,1544,1544,1544,0,0,0,0,0,0,0,0,0,0
1706443909.29993320,125928775,1544,1544,1544,1544,0,0,0,0,0,0,0,0,0,0
1706443909.39989305,126028735,1543,1543,1543,1543,0,0,0,0,0,0,0,0,0,0
1706443909.49985313,126128695,1544,1544,1544,1545,0,0,0,0,0,0,0,0,0,0
1706443909.59981322,126228655,1544,1544,1545,1544,0,0,0,0,0,0,0,0,0,0
1706443909.69977307,126328615,1545,1544,1544,1545,0,0,0,0,0,0,0,0,0,0
1706443909.79973316,126428575,1544,1545,1544,1544,0,0,0,0,0,0,0,0,0,0
1706443909.89969301,126528535,1544,1544,1544,1544,0,0,0,0,0,0,0,0,0,0
1706443909.99965310,126628495,1544,1545,1544,1544,0,0,0,0,0,0,0,0,0,0
1706443910.09961319,126728455,1544,1544,1544,1544,0,0,0,0,0,0,0,0,0,0
1706443910.19957304,126828415,1545,1545,1545,1545,0,0,0,0,0,0,0,0,0,0
1706443910.29953313,126928375,1544,1544,1544,1544,0,0,0,0,0,0,0,0,0,0
1706443910.39949322,127028335,1544,1544,1544,1544,0,0,0,0,0,0,0,0,0,0
1706443910.49945307,127128295,1545,1545,1545,1545,0,0,0,0,0,0,0,0,0,0
1706443910.59941316,127228255,1544,1544,1544,1544,0,0,0,0,0,0,0,0,0,0
1706443910.69937301,127328215,1544,1544,1543,1544,0,0,0,0,0,0,0,0,0,0
1706443910.79933310,127428175,1544,1544,1544,1544,0,0,0,0,0,0,0,0,0,0
1706443910.90012622,127528968,1543,1543,1543,1544,0,0,0,0,0,0,0,0,0,0
1706443911.00008607,127628928,1543,1544,1544,1543,0,0,0,0,0,0,0,0,0,0
1706443911.10004616,127728888,1544,1544,1544,1544,0,0,0,0,0,0,0,0,0,0
1706443911.20000601,127828848,1543,1543,1543,1543,0,0,0,0,0,0,0,0,0,0
1706443911.29996610,127928808,1544,1544,1544,1544,0,0,0,0,0,0,0,0,0,0
1706443911.39992619,128028768,1544,1544,1544,1544,0,0,0,0,0,0,0,0,0,0
1706443911.49988604,128128728,1544,1543,1543,1543,0,0,0,0,0,0,0,0,0,0
1706443911.59984612,128228688,1543,1543,1543,1543,0,0,0,0,0,0,0,0,0,0
1706443911.69980621,128328648,1544,1544,1544,1544,0,0,0,0,0,0,0,0,0,0
1706443911.79976606,128428608,1545,1545,1545,1544,0,0,0,0,0,0,0,0,0,0
1706443911.89972615,128528568,1545,1544,1544,1545,0,0,0,0,0,0,0,0,0,0
1706443911.99968624,128628528,1544,1544,1544,1544,0,0,0,0,0,0,0,0,0,0
1706443912.09964609,128728488,1544,1544,1544,1544,0,0,0,0,0,0,0,0,0,0
1706443912.19960618,128828448,1544,1545,1545,1545,0,0,0,0,0,0,0,0,0,0
1706443912.29956603,128928408,1546,1545,1545,1545,0,0,0,0,0,0,0,0,0,0
1706443912.39952612,129028368,1545,1545,1545,1545,0,0,0,0,0,0,0,0,0,0
1706443912.49948621,129128328,1544,1545,1545,1544,0,0,0,0,0,0,0,0,0,0
1706443912.59944606,129228288,1544,1545,1545,1544,0,0,0,0,0,0,0,0,0,0
1706443912.69940615,129328248,1545,1544,1544,1545,0,0,0,0,0,0,0,0,0,0
1706443912.79936624,129428208,1544,1544,1544,1544,0,0,0,0,0,0,0,0,0,0
1706443912.89932609,129528168,1544,1544,1544,1544,0,0,0,0,0,0,0,0,0,0
1706443913.00011921,129628961,1544,1544,1544,1544,0,0,0,0,0,0,0,0,0,0
1706443913.10007906,129728921,1544,1544,1545,1544,0,0,0,0,0,0,0,0,0,0
1706443913.20003915,129828881,1543,1544,1544,1544,0,0,0,0,0,0,0,0,0,0
1706443913.29999924,129928841,1543,1543,1543,1543,0,0,0,0,0,0,0,0,0,0
1706443913.39995909,130028801,1544,1544,1544,1544,0,0,0,0,0,0,0,0,0,0
1706443913.49991918,130128761,1544,1544,1544,1544,0,0,0,0,0,0,0,0,0,0
1706443913.59987903,130228721,1543,1544,1544,1544,0,0,0,0,0,0,0,0,0,0
1706443913.69983912,130328681,1544,1544,1544,1544,0,0,0,0,0,0,0,0,0,0
1706443913.79979920,130428641,1544,1544,1544,1543,0,0,0,0,0,0,0,0,0,0
1706443913.89975905,130528601,1543,1543,1543,1543,0,0,0,0,0,0,0,0,0,0
1706443913.99971914,130628561,1543,1544,1544,1544,0,0,0,0,0,0,0,0,0,0
1706443914.09967923,130728521,1544,1544,1544,1544,0,0,0,0,0,0,0,0,0,0
1706443914.19963908,130828481,1544,1544,1544,1544,0,0,0,0,0,0,0,0,0,0
1706443914.29959917,130928441,1544,1543,1544,1544,0,0,0,0,0,0,0,0,0,0
1706443914.39955902,131028401,1544,1544,1544,1544,0,0,0,0,0,0,0,0,0,0
1706443914.49951911,131128361,1545,1544,1544,1545,0,0,0,0,0,0,0,0,0,0
1706443914.59947920,131228321,1544,1544,1544,1544,0,0,0,0,0,0,0,0,0,0
1706443914.69943905,131328281,1544,1544,1544,1544,0,0,0,0,0,0,0,0,0,0
1706443914.79939914,131428241,1544,1544,1545,1544,0,0,0,0,0,0,0,0,0,0
1706443914.89935923,131528201,1545,1544,1545,1544,0,0,0,0,0,0,0,0,0,0
1706443914.99931908,131628161,1544,1544,1544,1544,0,0,0,0,0,0,0,0,0,0
1706443915.10011220,131728954,1545,1545,1544,1545,0,0,0,0,0,0,0,0,0,0
1706443915.20007205,131828914,1544,1544,1544,1544,0,0,0,0,0,0,0,0,0,0
1706443915.30003214,131928874,1544,1544,1544,1544,0,0,0,0,0,0,0,0,0,0
1706443915.39999223,132028834,1545,1545,1545,1545,0,0,0,0,0,0,0,0,0,0
1706443915.49995208,132128794,1544,1544,1544,1544,0,0,0,0,0,0,0,0,0,0
1706443915.59991217,132228754,1544,1544,1544,1544,0,0,0,0,0,0,0,0,0,0
1706443915.69987202,132328714,1545,1544,1544,1545,0,0,0,0,0,0,0,0,0,0
1706443915.79983211,132428674,1544,1544,1544,1545,0,0,0,0,0,0,0,0,0,0
1706443915.89979219,132528634,1544,1544,1544,1544,0,0,0,0,0,0,0,0,0,0
1706443915.99975204,132628594,1543,1544,1544,1543,0,0,0,0,0,0,0,0,0,0
1706443916.09971213,132728554,1465,1472,1464,1473,0,0,0,0,0,0,0,0,0,0
1706443916.19967222,132828514,1264,1304,1265,1303,0,0,0,0,0,0,0,0,0,0
1706443916.29963207,132928474,1227,1274,1227,1274,0,0,0,0,0,0,0,0,0,0
1706443916.39959216,133028434,1227,1275,1228,1275,0,0,0,0,0,0,0,0,0,0
1706443916.49955201,133128394,1227,1274,1227,1275,0,0,0,0,0,0,0,0,0,0
1706443916.59951210,133228354,1227,1274,1228,1274,0,0,0,0,0,0,0,0,0,0
1706443916.69947219,133328314,1227,1274,1227,1274,0,0,0,0,0,0,0,0,0,0
1706443916.79943204,133428274,1267,1264,1227,1297,0,0,0,0,0,0,0,0,0,0
1706443916.89939213,133528234,1257,1272,1227,1297,0,0,0,0,0,0,0,0,0,0
1706443916.99935222,133628194,1250,1272,1227,1291,0,0,0,0,0,0,0,0,0,0
1706443917.09931207,133728154,1250,1272,1227,1292,0,0,0,0,0,0,0,0,0,0
1706443917.20010519,133828947,1252,1272,1227,1293,0,0,0,0,0,0,0,0,0,0
1706443917.30006504,133928907,1255,1272,1227,1295,0,0,0,0,0,0,0,0,0,0
1706443917.40002513,134028867,1257,1271,1227,1297,0,0,0,0,0,0,0,0,0,0
1706443917.49998522,134128827,1259,1270,1227,1297,0,0,0,0,0,0,0,0,0,0
1706443917.59994507,134228787,1240,1271,1227,1283,0,0,0,0,0,0,0,0,0,0
1706443917.69990516,134328747,1242,1271,1227,1285,0,0,0,0,0,0,0,0,0,0
1706443917.79986501,134428707,1243,1271,1227,1286,0,0,0,0,0,0,0,0,0,0
1706443917.89982510,134528667,1244,1271,1227,1286,0,0,0,0,0,0,0,0,0,0
1706443917.99978518,134628627,1245,1271,1227,1287,0,0,0,0,0,0,0,0,0,0
1706443918.09974504,134728587,1000,1000,1000,1000,0,0,0,0,0,0,0,0,0,0
1706443918.19970512,134828547,1000,1000,1000,1000,0,0,0,0,0,0,0,0,0,0
1706443918.29966521,134928507,1000,1000,1000,1000,0,0,0,0,0,0,0,0,0,0
1706443918.39962506,135028467,1000,1000,1000,1000,0,0,0,0,0,0,0,0,0,0
1706443918.49958515,135128427,1000,1000,1000,1000,0,0,0,0,0,0,0,0,0,0
1706443918.59954524,135228387,1000,1000,1000,1000,0,0,0,0,0,0,0,0,0,0
1706443918.69950509,135328347,1000,1000,1000,1000,0,0,0,0,0,0,0,0,0,0
1706443918.79946518,135428307,1000,1000,1000,1000,0,0,0,0,0,0,0,0,0,0
1706443918.89942503,135528267,1000,1000,1000,1000,0,0,0,0,0,0,0,0,0,0
1706443918.99938512,135628227,1000,1000,1000,1000,0,0,0,0,0,0,0,0,0,0
1706443919.09934521,135728187,1000,1000,1000,1000,0,0,0,0,0,0,0,0,0,0
1706443919.20013809,135828980,1000,1000,1000,1000,0,0,0,0,0,0,0,0,0,0
1706443919.30009818,135928940,1000,1000,1000,1000,0,0,0,0,0,0,0,0,0,0
1706443919.40005803,136028900,1000,1000,1000,1000,0,0,0,0,0,0,0,0,0,0
1706443919.50001812,136128860,1000,1000,1000,1000,0,0,0,0,0,0,0,0,0,0
1706443919.59997821,136228820,1000,1000,1000,1000,0,0,0,0,0,0,0,0,0,0
1706443919.69993806,136328780,1000,1000,1000,1000,0,0,0,0,0,0,0,0,0,0
1706443919.79989815,136428740,1000,1000,1000,1000,0,0,0,0,0,0,0,0,0,0
1706443919.89985824,136528700,1000,1000,1000,1000,0,0,0,0,0,0,0,0,0,0
1706443919.99981809,136628660,1000,1000,1000,1000,0,0,0,0,0,0,0,0,0,0
1706443920.09977818,136728620,1000,1000,1000,1000,0,0,0,0,0,0,0,0,0,0
1706443920.19973803,136828580,1000,1000,1000,1000,0,0,0,0,0,0,0,0,0,0
1706443920.29969811,136928540,1000,1000,1000,1000,0,0,0,0,0,0,0,0,0,0
1706443920.39965820,137028500,1000,1000,1000,1000,0,0,0,0,0,0,0,0,0,0
1706443920.49961805,137128460,1000,1000,1000,1000,0,0,0,0,0,0,0,0,0,0
1706443920.59957814,137228420,1000,1000,1000,1000,0,0,0,0,0,0,0,0,0,0
1706443920.69953823,137328380,1000,1000,1000,1000,0,0,0,0,0,0,0,0,0,0
1706443920.79949808,137428340,1000,1000,1000,1000,0,0,0,0,0,0,0,0,0,0
1706443920.89945817,137528300,1000,1000,1000,1000,0,0,0,0,0,0,0,0,0,0
1706443920.99941802,137628260,1000,1000,1000,1000,0,0,0,0,0,0,0,0,0,0
1706443921.09937811,137728220,1000,1000,1000,1000,0,0,0,0,0,0,0,0,0,0
1706443921.19933820,137828180,1000,1000,1000,1000,0,0,0,0,0,0,0,0,0,0
1706443921.30013108,137928973,1000,1000,1000,1000,0,0,0,0,0,0,0,0,0,0
1706443921.40009117,138028933,1000,1000,1000,1000,0,0,0,0,0,0,0,0,0,0
1706443921.50005102,138128893,1000,1000,1000,1000,0,0,0,0,0,0,0,0,0,0
1706443921.60001111,138228853,1000,1000,1000,1000,0,0,0,0,0,0,0,0,0,0
1706443921.69997120,138328813,1000,1000,1000,1000,0,0,0,0,0,0,0,0,0,0
1706443921.79993105,138428773,1000,1000,1000,1000,0,0,0,0,0,0,0,0,0,0
1706443921.89989114,138528733,1000,1000,1000,1000,0,0,0,0,0,0,0,0,0,0
1706443921.99985123,138628693,1000,1000,1000,1000,0,0,0,0,0,0,0,0,0,0
1706443922.09981108,138728653,1000,1000,1000,1000,0,0,0,0,0,0,0,0,0,0
1706443922.19977117,138828613,1000,1000,1000,1000,0,0,0,0,0,0,0,0,0,0
1706443922.29973102,138928573,1000,1000,1000,1000,0,0,0,0,0,0,0,0,0,0
1706443922.39969110,139028533,1000,1000,1000,1000,0,0,0,0,0,0,0,0,0,0
1706443922.49965119,139128493,1000,1000,1000,1000,0,0,0,0,0,0,0,0,0,0
1706443922.59961104,139228453,1000,1000,1000,1000,0,0,0,0,0,0,0,0,0,0
1706443922.69957113,139328413,1000,1000,1000,1000,0,0,0,0,0,0,0,0,0,0
1706443922.79953122,139428373,1000,1000,1000,1000,0,0,0,0,0,0,0,0,0,0
1706443922.89949107,139528333,1000,1000,1000,1000,0,0,0,0,0,0,0,0,0,0
1706443922.99945116,139628293,1000,1000,1000,1000,0,0,0,0,0,0,0,0,0,0
1706443923.09941101,139728253,1000,1000,1000,1000,0,0,0,0,0,0,0,0,0,0
1706443923.19937110,139828213,1000,1000,1000,1000,0,0,0,0,0,0,0,0,0,0
1706443923.29933119,139928173,1000,1000,1000,1000,0,0,0,0,0,0,0,0,0,0
1706443923.40012407,140028966,1000,1000,1000,1000,0,0,0,0,0,0,0,0,0,0
1706443923.50008416,140128926,1000,1000,1000,1000,0,0,0,0,0,0,0,0,0,0
1706443923.60004401,140228886,1000,1000,1000,1000,0,0,0,0,0,0,0,0,0,0
1706443923.70000410,140328846,1000,1000,1000,1000,0,0,0,0,0,0,0,0,0,0
1706443923.79996419,140428806,1000,1000,1000,1000,0,0,0,0,0,0,0,0,0,0
1706443923.89992404,140528766,1000,1000,1000,1000,0,0,0,0,0,0,0,0,0,0
1706443923.99988413,140628726,1000,1000,1000,1000,0,0,0,0,0,0,0,0,0,0
1706443924.09984422,140728686,1000,1000,1000,1000,0,0,0,0,0,0,0,0,0,0
1706443924.19980407,140828646,1000,1000,1000,1000,0,0,0,0,0,0,0,0,0,0
1706443924.29976416,140928606,1000,1000,1000,1000,0,0,0,0,0,0,0,0,0,0
1706443924.39972401,141028566,1000,1000,1000,1000,0,0,0,0,0,0,0,0,0,0
1706443924.49968410,141128526,1000,1000,1000,1000,0,0,0,0,0,0,0,0,0,0
1706443924.59964418,141228486,1000,1000,1000,1000,0,0,0,0,0,0,0,0,0,0
1706443924.69960403,141328446,1000,1000,1000,1000,0,0,0,0,0,0,0,0,0,0
1706443924.79956412,141428406,1000,1000,1000,1000,0,0,0,0,0,0,0,0,0,0
1706443924.89952421,141528366,1000,1000,1000,1000,0,0,0,0,0,0,0,0,0,0
1706443924.99948406,141628326,1000,1000,1000,1000,0,0,0,0,0,0,0,0,0,0
1706443925.09944415,141728286,1000,1000,1000,1000,0,0,0,0,0,0,0,0,0,0
1706443925.19940424,141828246,1000,1000,1000,1000,0,0,0,0,0,0,0,0,0,0
1706443925.29936409,141928206,1000,1000,1000,1000,0,0,0,0,0,0,0,0,0,0
1706443925.39932418,142028166,1000,1000,1000,1000,0,0,0,0,0,0,0,0,0,0
1706443925.50011706,142128959,1000,1000,1000,1000,0,0,0,0,0,0,0,0,0,0
1706443925.60007715,142228919,1000,1000,1000,1000,0,0,0,0,0,0,0,0,0,0
1706443925.70003724,142328879,1000,1000,1000,1000,0,0,0,0,0,0,0,0,0,0
1706443925.79999709,142428839,1000,1000,1000,1000,0,0,0,0,0,0,0,0,0,0
1706443925.89995718,142528799,1000,1000,1000,1000,0,0,0,0,0,0,0,0,0,0
1706443925.99991703,142628759,1000,1000,1000,1000,0,0,0,0,0,0,0,0,0,0
1706443926.09987712,142728719,1000,1000,1000,1000,0,0,0,0,0,0,0,0,0,0
1706443926.19983721,142828679,1000,1000,1000,1000,0,0,0,0,0,0,0,0,0,0
1706443926.29979706,142928639,1000,1000,1000,1000,0,0,0,0,0,0,0,0,0,0
1706443926.39975715,143028599,1000,1000,1000,1000,0,0,0,0,0,0,0,0,0,0
1706443926.49971724,143128559,1000,1000,1000,1000,0,0,0,0,0,0,0,0,0,0
1706443926.59967709,143228519,1000,1000,1000,1000,0,0,0,0,0,0,0,0,0,0
1706443926.69963717,143328479,1000,1000,1000,1000,0,0,0,0,0,0,0,0,0,0
1706443926.79959702,143428439,1000,1000,1000,1000,0,0,0,0,0,0,0,0,0,0
1706443926.89955711,143528399,1000,1000,1000,1000,0,0,0,0,0,0,0,0,0,0
