timestamp,TimeUS,C1,C2,C3,C4,C5,C6,C7,C8,C9,C10,C11,C12,C13,C14
1706426012.50004005,44728768,1000,1000,1000,1000,0,0,0,0,0,0,0,0,0,0
1706426012.59999990,44828728,1000,1000,1000,1000,0,0,0,0,0,0,0,0,0,0
1706426012.69995999,44928688,1000,1000,1000,1000,0,0,0,0,0,0,0,0,0,0
1706426012.79991984,45028648,1000,1000,1000,1000,0,0,0,0,0,0,0,0,0,0
1706426012.89987993,45128608,1000,1000,1000,1000,0,0,0,0,0,0,0,0,0,0
1706426012.99984002,45228568,1000,1000,1000,1000,0,0,0,0,0,0,0,0,0,0
1706426013.09979987,45328528,1000,1000,1000,1000,0,0,0,0,0,0,0,0,0,0
1706426013.19975996,45428488,1000,1000,1000,1000,0,0,0,0,0,0,0,0,0,0
1706426013.29972005,45528448,1000,1000,1000,1000,0,0,0,0,0,0,0,0,0,0
1706426013.39967990,45628408,1000,1000,1000,1000,0,0,0,0,0,0,0,0,0,0
1706426013.49963999,45728368,1000,1000,1000,1000,0,0,0,0,0,0,0,0,0,0
1706426013.59959984,45828328,1000,1000,1000,1000,0,0,0,0,0,0,0,0,0,0
1706426013.69955993,45928288,1000,1000,1000,1000,0,0,0,0,0,0,0,0,0,0
1706426013.79952002,46028248,1000,1000,1000,1000,0,0,0,0,0,0,0,0,0,0
1706426013.89947987,46128208,1000,1000,1000,1000,0,0,0,0,0,0,0,0,0,0
1706426013.99943995,46228168,1000,1000,1000,1000,0,0,0,0,0,0,0,0,0,0
1706426014.10023284,46328961,1000,1000,1000,1000,0,0,0,0,0,0,0,0,0,0
1706426014.20019293,46428921,1000,1000,1000,1000,0,0,0,0,0,0,0,0,0,0
1706426014.30015302,46528881,1000,1000,1000,1000,0,0,0,0,0,0,0,0,0,0
1706426014.40011287,46628841,1000,1000,1000,1000,0,0,0,0,0,0,0,0,0,0
1706426014.50007296,46728801,1023,1023,1023,1023,0,0,0,0,0,0,0,0,0,0
1706426014.60003304,46828761,1053,1053,1053,1053,0,0,0,0,0,0,0,0,0,0
1706426014.69999290,46928721,1083,1083,1083,1083,0,0,0,0,0,0,0,0,0,0
1706426014.79995298,47028681,1113,1113,1113,1113,0,0,0,0,0,0,0,0,0,0
1706426014.89991283,47128641,1143,1143,1143,1143,0,0,0,0,0,0,0,0,0,0
1706426014.99987292,47228601,1351,1346,1347,1351,0,0,0,0,0,0,0,0,0,0
1706426015.09983301,47328561,1542,1538,1538,1542,0,0,0,0,0,0,0,0,0,0
1706426015.19979286,47428521,1695,1691,1692,1695,0,0,0,0,0,0,0,0,0,0
1706426015.29975295,47528481,1826,1823,1823,1827,0,0,0,0,0,0,0,0,0,0
1706426015.39971304,47628441,1869,1866,1866,1869,0,0,0,0,0,0,0,0,0,0
1706426015.49967289,47728401,1837,1835,1836,1837,0,0,0,0,0,0,0,0,0,0
1706426015.59963298,47828361,1711,1712,1712,1712,0,0,0,0,0,0,0,0,0,0
1706426015.69959283,47928321,1637,1638,1638,1637,0,0,0,0,0,0,0,0,0,0
1706426015.79955292,48028281,1626,1627,1627,1626,0,0,0,0,0,0,0,0,0,0
1706426015.89951301,48128241,1637,1639,1639,1637,0,0,0,0,0,0,0,0,0,0
1706426015.99947286,48228201,1645,1646,1646,1645,0,0,0,0,0,0,0,0,0,0
1706426016.09943295,48328161,1642,1642,1642,1642,0,0,0,0,0,0,0,0,0,0
1706426016.20022583,48428954,1634,1633,1633,1634,0,0,0,0,0,0,0,0,0,0
1706426016.30018592,48528914,1627,1626,1626,1627,0,0,0,0,0,0,0,0,0,0
1706426016.40014601,48628874,1623,1622,1622,1623,0,0,0,0,0,0,0,0,0,0
1706426016.50010586,48728834,1620,1620,1620,1620,0,0,0,0,0,0,0,0,0,0
1706426016.60006595,48828794,1621,1621,1621,1620,0,0,0,0,0,0,0,0,0,0
1706426016.70002604,48928754,1621,1621,1621,1621,0,0,0,0,0,0,0,0,0,0
1706426016.79998589,49028714,1621,1622,1622,1622,0,0,0,0,0,0,0,0,0,0
1706426016.89994597,49128674,1622,1622,1622,1622,0,0,0,0,0,0,0,0,0,0
1706426016.99990606,49228634,1623,1623,1623,1623,0,0,0,0,0,0,0,0,0,0
1706426017.09986591,49328594,1623,1623,1623,1623,0,0,0,0,0,0,0,0,0,0
1706426017.19982600,49428554,1625,1624,1625,1624,0,0,0,0,0,0,0,0,0,0
1706426017.29978585,49528514,1626,1626,1626,1626,0,0,0,0,0,0,0,0,0,0
1706426017.39974594,49628474,1627,1628,1628,1628,0,0,0,0,0,0,0,0,0,0
1706426017.49970603,49728434,1627,1628,1627,1628,0,0,0,0,0,0,0,0,0,0
1706426017.59966588,49828394,1628,1628,1628,1629,0,0,0,0,0,0,0,0,0,0
1706426017.69962597,49928354,1629,1629,1629,1629,0,0,0,0,0,0,0,0,0,0
1706426017.79958606,50028314,1630,1629,1630,1629,0,0,0,0,0,0,0,0,0,0
1706426017.89954591,50128274,1629,1630,1630,1629,0,0,0,0,0,0,0,0,0,0
1706426017.99950600,50228234,1629,1629,1629,1629,0,0,0,0,0,0,0,0,0,0
1706426018.09946585,50328194,1626,1626,1626,1626,0,0,0,0,0,0,0,0,0,0
1706426018.19942594,50428154,1623,1624,1624,1623,0,0,0,0,0,0,0,0,0,0
1706426018.30021906,50528947,1621,1620,1621,1621,0,0,0,0,0,0,0,0,0,0
1706426018.40017891,50628907,1617,1616,1617,1617,0,0,0,0,0,0,0,0,0,0
1706426018.50013900,50728867,1602,1602,1602,1602,0,0,0,0,0,0,0,0,0,0
1706426018.60009885,50828827,1586,1587,1586,1587,0,0,0,0,0,0,0,0,0,0
1706426018.70005894,50928787,1577,1577,1577,1577,0,0,0,0,0,0,0,0,0,0
1706426018.80001903,51028747,1569,1568,1569,1569,0,0,0,0,0,0,0,0,0,0
1706426018.89997888,51128707,1562,1562,1562,1562,0,0,0,0,0,0,0,0,0,0
1706426018.99993896,51228667,1556,1556,1556,1556,0,0,0,0,0,0,0,0,0,0
1706426019.09989905,51328627,1549,1549,1549,1549,0,0,0,0,0,0,0,0,0,0
1706426019.19985890,51428587,1544,1544,1544,1544,0,0,0,0,0,0,0,0,0,0
1706426019.29981899,51528547,1540,1539,1539,1539,0,0,0,0,0,0,0,0,0,0
1706426019.39977884,51628507,1536,1535,1535,1535,0,0,0,0,0,0,0,0,0,0
1706426019.49973893,51728467,1532,1532,1531,1532,0,0,0,0,0,0,0,0,0,0
1706426019.59969902,51828427,1530,1530,1530,1530,0,0,0,0,0,0,0,0,0,0
1706426019.69965887,51928387,1527,1527,1527,1527,0,0,0,0,0,0,0,0,0,0
1706426019.79961896,52028347,1525,1525,1524,1525,0,0,0,0,0,0,0,0,0,0
1706426019.89957905,52128307,1522,1523,1522,1523,0,0,0,0,0,0,0,0,0,0
1706426019.99953890,52228267,1518,1519,1519,1519,0,0,0,0,0,0,0,0,0,0
1706426020.09949899,52328227,1516,1516,1516,1516,0,0,0,0,0,0,0,0,0,0
1706426020.19945884,52428187,1513,1513,1513,1513,0,0,0,0,0,0,0,0,0,0
1706426020.30025196,52528980,1510,1509,1509,1510,0,0,0,0,0,0,0,0,0,0
1706426020.40021205,52628940,1508,1507,1507,1508,0,0,0,0,0,0,0,0,0,0
1706426020.50017190,52728900,1504,1504,1504,1504,0,0,0,0,0,0,0,0,0,0
1706426020.60013199,52828860,1501,1502,1502,1502,0,0,0,0,0,0,0,0,0,0
1706426020.70009184,52928820,1499,1498,1498,1498,0,0,0,0,0,0,0,0,0,0
1706426020.80005193,53028780,1496,1497,1497,1496,0,0,0,0,0,0,0,0,0,0
1706426020.90001202,53128740,1494,1494,1494,1494,0,0,0,0,0,0,0,0,0,0
1706426020.99997187,53228700,1493,1493,1493,1493,0,0,0,0,0,0,0,0,0,0
1706426021.09993196,53328660,1494,1494,1494,1494,0,0,0,0,0,0,0,0,0,0
1706426021.19989204,53428620,1496,1496,1496,1496,0,0,0,0,0,0,0,0,0,0
1706426021.29985189,53528580,1498,1498,1498,1497,0,0,0,0,0,0,0,0,0,0
1706426021.39981198,53628540,1500,1500,1500,1500,0,0,0,0,0,0,0,0,0,0
1706426021.49977183,53728500,1502,1502,1502,1502,0,0,0,0,0,0,0,0,0,0
1706426021.59973192,53828460,1504,1505,1504,1504,0,0,0,0,0,0,0,0,0,0
1706426021.69969201,53928420,1507,1507,1507,1507,0,0,0,0,0,0,0,0,0,0
1706426021.79965186,54028380,1508,1508,1508,1508,0,0,0,0,0,0,0,0,0,0
1706426021.89961195,54128340,1510,1509,1509,1509,0,0,0,0,0,0,0,0,0,0
1706426021.99957204,54228300,1510,1510,1510,1510,0,0,0,0,0,0,0,0,0,0
1706426022.09953189,54328260,1511,1511,1511,1511,0,0,0,0,0,0,0,0,0,0
1706426022.19949198,54428220,1512,1512,1513,1512,0,0,0,0,0,0,0,0,0,0
1706426022.29945183,54528180,1513,1513,1513,1513,0,0,0,0,0,0,0,0,0,0
1706426022.40024495,54628973,1513,1514,1514,1513,0,0,0,0,0,0,0,0,0,0
1706426022.50020504,54728933,1514,1514,1514,1514,0,0,0,0,0,0,0,0,0,0
1706426022.60016489,54828893,1515,1514,1514,1514,0,0,0,0,0,0,0,0,0,0
1706426022.70012498,54928853,1515,1515,1515,1515,0,0,0,0,0,0,0,0,0,0
1706426022.80008483,55028813,1514,1515,1515,1514,0,0,0,0,0,0,0,0,0,0
1706426022.90004492,55128773,1514,1514,1514,1515,0,0,0,0,0,0,0,0,0,0
1706426023.00000501,55228733,1515,1515,1515,1515,0,0,0,0,0,0,0,0,0,0
1706426023.09996486,55328693,1515,1515,1515,1515,0,0,0,0,0,0,0,0,0,0
1706426023.19992495,55428653,1515,1514,1515,1515,0,0,0,0,0,0,0,0,0,0
1706426023.29988503,55528613,1542,1542,1542,1542,0,0,0,0,0,0,0,0,0,0
1706426023.39984488,55628573,1557,1557,1556,1559,0,0,0,0,0,0,0,0,0,0
1706426023.49980497,55728533,1569,1569,1567,1571,0,0,0,0,0,0,0,0,0,0
1706426023.59976506,55828493,1576,1576,1573,1578,0,0,0,0,0,0,0,0,0,0
1706426023.69972491,55928453,1582,1581,1579,1583,0,0,0,0,0,0,0,0,0,0
1706426023.79968500,56028413,1584,1583,1582,1585,0,0,0,0,0,0,0,0,0,0
1706426023.89964485,56128373,1585,1585,1585,1585,0,0,0,0,0,0,0,0,0,0
1706426023.99960494,56228333,1584,1585,1586,1583,0,0,0,0,0,0,0,0,0,0
1706426024.09956503,56328293,1583,1583,1586,1581,0,0,0,0,0,0,0,0,0,0
1706426024.19952488,56428253,1583,1583,1585,1582,0,0,0,0,0,0,0,0,0,0
1706426024.29948497,56528213,1581,1581,1582,1581,0,0,0,0,0,0,0,0,0,0
1706426024.39944506,56628173,1579,1579,1579,1578,0,0,0,0,0,0,0,0,0,0
1706426024.50023794,56728966,1579,1578,1579,1578,0,0,0,0,0,0,0,0,0,0
1706426024.60019803,56828926,1576,1576,1575,1576,0,0,0,0,0,0,0,0,0,0
1706426024.70015788,56928886,1574,1573,1573,1574,0,0,0,0,0,0,0,0,0,0
1706426024.80011797,57028846,1572,1572,1572,1573,0,0,0,0,0,0,0,0,0,0
1706426024.90007806,57128806,1570,1571,1570,1572,0,0,0,0,0,0,0,0,0,0
1706426025.00003791,57228766,1564,1564,1575,1576,0,0,0,0,0,0,0,0,0,0
1706426025.09999800,57328726,1563,1564,1575,1577,0,0,0,0,0,0,0,0,0,0
1706426025.19995785,57428686,1565,1566,1573,1574,0,0,0,0,0,0,0,0,0,0
1706426025.29991794,57528646,1567,1567,1571,1571,0,0,0,0,0,0,0,0,0,0
1706426025.39987803,57628606,1569,1570,1569,1569,0,0,0,0,0,0,0,0,0,0
1706426025.49983788,57728566,1572,1571,1568,1568,0,0,0,0,0,0,0,0,0,0
1706426025.59979796,57828526,1572,1572,1566,1566,0,0,0,0,0,0,0,0,0,0
1706426025.69975805,57928486,1574,1574,1566,1566,0,0,0,0,0,0,0,0,0,0
1706426025.79971790,58028446,1575,1575,1568,1568,0,0,0,0,0,0,0,0,0,0
1706426025.89967799,58128406,1576,1576,1568,1569,0,0,0,0,0,0,0,0,0,0
1706426025.99963784,58228366,1575,1575,1569,1569,0,0,0,0,0,0,0,0,0,0
1706426026.09959793,58328326,1574,1574,1570,1570,0,0,0,0,0,0,0,0,0,0
1706426026.19955802,58428286,1575,1575,1572,1573,0,0,0,0,0,0,0,0,0,0
1706426026.29951787,58528246,1575,1575,1575,1574,0,0,0,0,0,0,0,0,0,0
1706426026.39947796,58628206,1575,1575,1576,1575,0,0,0,0,0,0,0,0,0,0
1706426026.49943805,58728166,1575,1575,1578,1576,0,0,0,0,0,0,0,0,0,0
1706426026.60023093,58828959,1576,1576,1580,1578,0,0,0,0,0,0,0,0,0,0
1706426026.70019102,58928919,1575,1575,1579,1578,0,0,0,0,0,0,0,0,0,0
1706426026.80015087,59028879,1574,1575,1578,1578,0,0,0,0,0,0,0,0,0,0
1706426026.90011096,59128839,1576,1576,1578,1579,0,0,0,0,0,0,0,0,0,0
1706426027.00007105,59228799,1575,1576,1577,1578,0,0,0,0,0,0,0,0,0,0
1706426027.10003090,59328759,1577,1576,1578,1578,0,0,0,0,0,0,0,0,0,0
1706426027.19999099,59428719,1577,1577,1577,1578,0,0,0,0,0,0,0,0,0,0
1706426027.29995084,59528679,1577,1578,1577,1577,0,0,0,0,0,0,0,0,0,0
1706426027.39991093,59628639,1579,1579,1578,1578,0,0,0,0,0,0,0,0,0,0
1706426027.49987102,59728599,1579,1578,1578,1577,0,0,0,0,0,0,0,0,0,0
1706426027.59983087,59828559,1580,1579,1578,1578,0,0,0,0,0,0,0,0,0,0
1706426027.69979095,59928519,1580,1580,1578,1578,0,0,0,0,0,0,0,0,0,0
1706426027.79975104,60028479,1579,1579,1578,1578,0,0,0,0,0,0,0,0,0,0
1706426027.89971089,60128439,1579,1580,1579,1579,0,0,0,0,0,0,0,0,0,0
1706426027.99967098,60228399,1579,1580,1579,1579,0,0,0,0,0,0,0,0,0,0
1706426028.09963083,60328359,1580,1580,1580,1580,0,0,0,0,0,0,0,0,0,0
1706426028.19959092,60428319,1580,1580,1580,1580,0,0,0,0,0,0,0,0,0,0
1706426028.29955101,60528279,1580,1580,1580,1580,0,0,0,0,0,0,0,0,0,0
1706426028.39951086,60628239,1579,1580,1580,1580,0,0,0,0,0,0,0,0,0,0
1706426028.49947095,60728199,1579,1579,1580,1579,0,0,0,0,0,0,0,0,0,0
1706426028.59943104,60828159,1578,1579,1579,1579,0,0,0,0,0,0,0,0,0,0
1706426028.70022392,60928952,1579,1579,1579,1579,0,0,0,0,0,0,0,0,0,0
1706426028.80018401,61028912,1580,1579,1580,1580,0,0,0,0,0,0,0,0,0,0
1706426028.90014386,61128872,1579,1579,1580,1579,0,0,0,0,0,0,0,0,0,0
1706426029.00010395,61228832,1579,1579,1580,1580,0,0,0,0,0,0,0,0,0,0
1706426029.10006404,61328792,1579,1579,1579,1579,0,0,0,0,0,0,0,0,0,0
1706426029.20002389,61428752,1579,1579,1579,1579,0,0,0,0,0,0,0,0,0,0
1706426029.29998398,61528712,1580,1580,1580,1580,0,0,0,0,0,0,0,0,0,0
1706426029.39994383,61628672,1579,1579,1579,1579,0,0,0,0,0,0,0,0,0,0
1706426029.49990392,61728632,1580,1580,1580,1580,0,0,0,0,0,0,0,0,0,0
1706426029.59986401,61828592,1580,1580,1580,1580,0,0,0,0,0,0,0,0,0,0
1706426029.69982386,61928552,1580,1580,1580,1580,0,0,0,0,0,0,0,0,0,0
1706426029.79978395,62028512,1581,1581,1581,1581,0,0,0,0,0,0,0,0,0,0
1706426029.89974403,62128472,1581,1581,1581,1581,0,0,0,0,0,0,0,0,0,0
1706426029.99970388,62228432,1580,1580,1581,1580,0,0,0,0,0,0,0,0,0,0
1706426030.09966397,62328392,1581,1581,1581,1581,0,0,0,0,0,0,0,0,0,0
1706426030.19962406,62428352,1581,1580,1581,1581,0,0,0,0,0,0,0,0,0,0
1706426030.29958391,62528312,1580,1580,1580,1580,0,0,0,0,0,0,0,0,0,0
1706426030.39954400,62628272,1580,1580,1580,1580,0,0,0,0,0,0,0,0,0,0
1706426030.49950385,62728232,1581,1581,1581,1581,0,0,0,0,0,0,0,0,0,0
1706426030.59946394,62828192,1580,1580,1580,1580,0,0,0,0,0,0,0,0,0,0
1706426030.70025706,62928985,1581,1581,1581,1581,0,0,0,0,0,0,0,0,0,0
1706426030.80021691,63028945,1581,1581,1581,1581,0,0,0,0,0,0,0,0,0,0
1706426030.90017700,63128905,1581,1580,1581,1581,0,0,0,0,0,0,0,0,0,0
1706426031.00013685,63228865,1580,1580,1580,1580,0,0,0,0,0,0,0,0,0,0
1706426031.10009694,63328825,1581,1581,1583,1579,0,0,0,0,0,0,0,0,0,0
1706426031.20005703,63428785,1580,1582,1588,1573,0,0,0,0,0,0,0,0,0,0
1706426031.30001688,63528745,1580,1583,1583,1573,0,0,0,0,0,0,0,0,0,0
1706426031.39997697,63628705,1579,1581,1575,1574,0,0,0,0,0,0,0,0,0,0
1706426031.49993706,63728665,1577,1580,1566,1571,0,0,0,0,0,0,0,0,0,0
1706426031.59989691,63828625,1577,1579,1560,1567,0,0,0,0,0,0,0,0,0,0
1706426031.69985700,63928585,1577,1578,1556,1562,0,0,0,0,0,0,0,0,0,0
1706426031.79981685,64028545,1578,1576,1554,1557,0,0,0,0,0,0,0,0,0,0
1706426031.89977694,64128505,1579,1577,1555,1555,0,0,0,0,0,0,0,0,0,0
1706426031.99973702,64228465,1578,1577,1555,1553,0,0,0,0,0,0,0,0,0,0
1706426032.09969687,64328425,1577,1577,1555,1553,0,0,0,0,0,0,0,0,0,0
1706426032.19965696,64428385,1575,1576,1554,1552,0,0,0,0,0,0,0,0,0,0
1706426032.29961705,64528345,1574,1576,1554,1553,0,0,0,0,0,0,0,0,0,0
1706426032.39957690,64628305,1575,1576,1554,1553,0,0,0,0,0,0,0,0,0,0
1706426032.49953699,64728265,1575,1577,1553,1554,0,0,0,0,0,0,0,0,0,0
1706426032.59949684,64828225,1576,1577,1551,1551,0,0,0,0,0,0,0,0,0,0
1706426032.69945693,64928185,1577,1578,1549,1550,0,0,0,0,0,0,0,0,0,0
1706426032.80025005,65028978,1579,1580,1547,1547,0,0,0,0,0,0,0,0,0,0
1706426032.90020990,65128938,1582,1582,1545,1545,0,0,0,0,0,0,0,0,0,0
1706426033.00016999,65228898,1584,1586,1542,1542,0,0,0,0,0,0,0,0,0,0
1706426033.10012984,65328858,1587,1588,1539,1538,0,0,0,0,0,0,0,0,0,0
1706426033.20008993,65428818,1591,1591,1537,1537,0,0,0,0,0,0,0,0,0,0
1706426033.30005002,65528778,1593,1593,1534,1535,0,0,0,0,0,0,0,0,0,0
1706426033.40000987,65628738,1595,1595,1534,1535,0,0,0,0,0,0,0,0,0,0
1706426033.49996996,65728698,1595,1595,1535,1536,0,0,0,0,0,0,0,0,0,0
1706426033.59993005,65828658,1594,1594,1536,1538,0,0,0,0,0,0,0,0,0,0
1706426033.69988990,65928618,1591,1590,1539,1542,0,0,0,0,0,0,0,0,0,0
1706426033.79984999,66028578,1587,1585,1545,1548,0,0,0,0,0,0,0,0,0,0
1706426033.89980984,66128538,1581,1578,1554,1557,0,0,0,0,0,0,0,0,0,0
1706426033.99976993,66228498,1572,1569,1565,1568,0,0,0,0,0,0,0,0,0,0
1706426034.09973001,66328458,1562,1558,1577,1580,0,0,0,0,0,0,0,0,0,0
1706426034.19968987,66428418,1551,1548,1590,1590,0,0,0,0,0,0,0,0,0,0
1706426034.29964995,66528378,1541,1538,1601,1601,0,0,0,0,0,0,0,0,0,0
1706426034.39961004,66628338,1533,1533,1609,1608,0,0,0,0,0,0,0,0,0,0
1706426034.49956989,66728298,1529,1530,1614,1613,0,0,0,0,0,0,0,0,0,0
1706426034.59952998,66828258,1528,1530,1614,1613,0,0,0,0,0,0,0,0,0,0
1706426034.69948983,66928218,1532,1534,1612,1612,0,0,0,0,0,0,0,0,0,0
1706426034.79944992,67028178,1538,1540,1608,1608,0,0,0,0,0,0,0,0,0,0
1706426034.90024304,67128971,1546,1547,1601,1601,0,0,0,0,0,0,0,0,0,0
1706426035.00020289,67228931,1556,1556,1594,1594,0,0,0,0,0,0,0,0,0,0
1706426035.10016298,67328891,1564,1564,1587,1586,0,0,0,0,0,0,0,0,0,0
1706426035.20012283,67428851,1572,1572,1580,1579,0,0,0,0,0,0,0,0,0,0
1706426035.30008292,67528811,1579,1578,1574,1573,0,0,0,0,0,0,0,0,0,0
1706426035.40004301,67628771,1583,1582,1569,1569,0,0,0,0,0,0,0,0,0,0
1706426035.50000286,67728731,1586,1585,1567,1567,0,0,0,0,0,0,0,0,0,0
1706426035.59996295,67828691,1587,1586,1566,1566,0,0,0,0,0,0,0,0,0,0
1706426035.69992304,67928651,1587,1585,1566,1567,0,0,0,0,0,0,0,0,0,0
1706426035.79988289,68028611,1586,1585,1569,1569,0,0,0,0,0,0,0,0,0,0
1706426035.89984298,68128571,1582,1582,1571,1571,0,0,0,0,0,0,0,0,0,0
1706426035.99980283,68228531,1580,1579,1574,1574,0,0,0,0,0,0,0,0,0,0
1706426036.09976292,68328491,1577,1578,1577,1577,0,0,0,0,0,0,0,0,0,0
1706426036.19972301,68428451,1576,1576,1581,1580,0,0,0,0,0,0,0,0,0,0
1706426036.29968286,68528411,1573,1574,1582,1581,0,0,0,0,0,0,0,0,0,0
1706426036.39964294,68628371,1572,1573,1583,1583,0,0,0,0,0,0,0,0,0,0
1706426036.49960303,68728331,1572,1573,1584,1584,0,0,0,0,0,0,0,0,0,0
1706426036.59956288,68828291,1572,1573,1584,1584,0,0,0,0,0,0,0,0,0,0
1706426036.69952297,68928251,1574,1574,1584,1584,0,0,0,0,0,0,0,0,0,0
1706426036.79948306,69028211,1575,1574,1582,1582,0,0,0,0,0,0,0,0,0,0
1706426036.89944291,69128171,1576,1576,1580,1581,0,0,0,0,0,0,0,0,0,0
1706426037.00023603,69228964,1577,1578,1580,1580,0,0,0,0,0,0,0,0,0,0
1706426037.10019588,69328924,1689,1598,1688,1598,0,0,0,0,0,0,0,0,0,0
1706426037.20015597,69428884,1616,1591,1616,1587,0,0,0,0,0,0,0,0,0,0
1706426037.30011606,69528844,1581,1594,1577,1590,0,0,0,0,0,0,0,0,0,0
1706426037.40007591,69628804,1562,1592,1557,1588,0,0,0,0,0,0,0,0,0,0
1706426037.50003600,69728764,1558,1586,1550,1580,0,0,0,0,0,0,0,0,0,0
1706426037.59999585,69828724,1563,1579,1553,1570,0,0,0,0,0,0,0,0,0,0
1706426037.69995594,69928684,1568,1571,1557,1561,0,0,0,0,0,0,0,0,0,0
1706426037.79991603,70028644,1575,1567,1564,1558,0,0,0,0,0,0,0,0,0,0
1706426037.89987588,70128604,1579,1569,1572,1561,0,0,0,0,0,0,0,0,0,0
1706426037.99983597,70228564,1580,1570,1576,1565,0,0,0,0,0,0,0,0,0,0
1706426038.09979606,70328524,1579,1572,1579,1572,0,0,0,0,0,0,0,0,0,0
1706426038.19975591,70428484,1577,1574,1580,1577,0,0,0,0,0,0,0,0,0,0
1706426038.29971600,70528444,1575,1576,1580,1581,0,0,0,0,0,0,0,0,0,0
1706426038.39967585,70628404,1574,1577,1581,1584,0,0,0,0,0,0,0,0,0,0
1706426038.49963593,70728364,1575,1577,1582,1584,0,0,0,0,0,0,0,0,0,0
1706426038.59959602,70828324,1578,1579,1585,1585,0,0,0,0,0,0,0,0,0,0
1706426038.69955587,70928284,1580,1579,1586,1585,0,0,0,0,0,0,0,0,0,0
1706426038.79951596,71028244,1583,1582,1588,1587,0,0,0,0,0,0,0,0,0,0
1706426038.89947605,71128204,1584,1583,1587,1586,0,0,0,0,0,0,0,0,0,0
1706426038.99943590,71228164,1585,1584,1587,1586,0,0,0,0,0,0,0,0,0,0
1706426039.10022902,71328957,1585,1585,1586,1585,0,0,0,0,0,0,0,0,0,0
1706426039.20018888,71428917,1584,1587,1592,1577,0,0,0,0,0,0,0,0,0,0
1706426039.30014896,71528877,1583,1588,1587,1575,0,0,0,0,0,0,0,0,0,0
1706426039.40010905,71628837,1584,1587,1576,1575,0,0,0,0,0,0,0,0,0,0
1706426039.50006890,71728797,1585,1586,1568,1572,0,0,0,0,0,0,0,0,0,0
1706426039.60002899,71828757,1586,1586,1561,1567,0,0,0,0,0,0,0,0,0,0
1706426039.69998884,71928717,1586,1586,1556,1562,0,0,0,0,0,0,0,0,0,0
1706426039.79994893,72028677,1587,1586,1555,1558,0,0,0,0,0,0,0,0,0,0
1706426039.89990902,72128637,1588,1586,1555,1556,0,0,0,0,0,0,0,0,0,0
1706426039.99986887,72228597,1586,1585,1555,1553,0,0,0,0,0,0,0,0,0,0
1706426040.09982896,72328557,1585,1584,1557,1555,0,0,0,0,0,0,0,0,0,0
1706426040.19978905,72428517,1580,1582,1555,1553,0,0,0,0,0,0,0,0,0,0
1706426040.29974890,72528477,1579,1581,1556,1555,0,0,0,0,0,0,0,0,0,0
1706426040.39970899,72628437,1578,1579,1555,1555,0,0,0,0,0,0,0,0,0,0
1706426040.49966884,72728397,1579,1580,1556,1556,0,0,0,0,0,0,0,0,0,0
1706426040.59962893,72828357,1579,1580,1554,1555,0,0,0,0,0,0,0,0,0,0
1706426040.69958901,72928317,1580,1580,1552,1553,0,0,0,0,0,0,0,0,0,0
1706426040.79954886,73028277,1581,1583,1550,1551,0,0,0,0,0,0,0,0,0,0
1706426040.89950895,73128237,1583,1586,1547,1547,0,0,0,0,0,0,0,0,0,0
1706426040.99946904,73228197,1587,1590,1543,1543,0,0,0,0,0,0,0,0,0,0
1706426041.09942889,73328157,1590,1592,1539,1539,0,0,0,0,0,0,0,0,0,0
1706426041.20022202,73428950,1596,1597,1538,1538,0,0,0,0,0,0,0,0,0,0
1706426041.30018187,73528910,1598,1597,1538,1538,0,0,0,0,0,0,0,0,0,0
1706426041.40014195,73628870,1598,1595,1540,1541,0,0,0,0,0,0,0,0,0,0
1706426041.50010204,73728830,1595,1592,1544,1547,0,0,0,0,0,0,0,0,0,0
1706426041.60006189,73828790,1588,1585,1551,1554,0,0,0,0,0,0,0,0,0,0
1706426041.70002198,73928750,1583,1579,1563,1566,0,0,0,0,0,0,0,0,0,0
1706426041.79998183,74028710,1571,1568,1573,1575,0,0,0,0,0,0,0,0,0,0
1706426041.89994192,74128670,1562,1559,1586,1587,0,0,0,0,0,0,0,0,0,0
1706426041.99990201,74228630,1552,1550,1596,1596,0,0,0,0,0,0,0,0,0,0
1706426042.09986186,74328590,1544,1543,1603,1604,0,0,0,0,0,0,0,0,0,0
1706426042.19982195,74428550,1539,1540,1609,1609,0,0,0,0,0,0,0,0,0,0
1706426042.29978204,74528510,1539,1540,1613,1612,0,0,0,0,0,0,0,0,0,0
1706426042.39974189,74628470,1540,1541,1612,1611,0,0,0,0,0,0,0,0,0,0
1706426042.49970198,74728430,1545,1545,1609,1608,0,0,0,0,0,0,0,0,0,0
1706426042.59966183,74828390,1551,1552,1605,1603,0,0,0,0,0,0,0,0,0,0
1706426042.69962192,74928350,1557,1559,1597,1597,0,0,0,0,0,0,0,0,0,0
1706426042.79958200,75028310,1565,1566,1590,1590,0,0,0,0,0,0,0,0,0,0
1706426042.89954185,75128270,1572,1572,1583,1584,0,0,0,0,0,0,0,0,0,0
1706426042.99950194,75228230,1577,1577,1577,1577,0,0,0,0,0,0,0,0,0,0
1706426043.09946203,75328190,1582,1582,1573,1573,0,0,0,0,0,0,0,0,0,0
1706426043.20025492,75428983,1584,1584,1570,1570,0,0,0,0,0,0,0,0,0,0
1706426043.30021501,75528943,1587,1585,1570,1569,0,0,0,0,0,0,0,0,0,0
1706426043.40017486,75628903,1586,1585,1570,1570,0,0,0,0,0,0,0,0,0,0
1706426043.50013494,75728863,1586,1584,1572,1572,0,0,0,0,0,0,0,0,0,0
1706426043.60009503,75828823,1583,1582,1574,1574,0,0,0,0,0,0,0,0,0,0
1706426043.70005488,75928783,1581,1581,1577,1577,0,0,0,0,0,0,0,0,0,0
1706426043.80001497,76028743,1578,1578,1578,1579,0,0,0,0,0,0,0,0,0,0
1706426043.89997506,76128703,1576,1576,1581,1581,0,0,0,0,0,0,0,0,0,0
1706426043.99993491,76228663,1574,1574,1582,1582,0,0,0,0,0,0,0,0,0,0
1706426044.09989500,76328623,1572,1572,1582,1582,0,0,0,0,0,0,0,0,0,0
1706426044.19985485,76428583,1572,1573,1584,1583,0,0,0,0,0,0,0,0,0,0
1706426044.29981494,76528543,1573,1573,1583,1583,0,0,0,0,0,0,0,0,0,0
1706426044.39977503,76628503,1574,1574,1583,1583,0,0,0,0,0,0,0,0,0,0
1706426044.49973488,76728463,1575,1575,1582,1582,0,0,0,0,0,0,0,0,0,0
1706426044.59969497,76828423,1577,1576,1581,1580,0,0,0,0,0,0,0,0,0,0
1706426044.69965506,76928383,1578,1578,1580,1580,0,0,0,0,0,0,0,0,0,0
1706426044.79961491,77028343,1579,1579,1579,1579,0,0,0,0,0,0,0,0,0,0
1706426044.89957500,77128303,1580,1580,1579,1579,0,0,0,0,0,0,0,0,0,0
1706426044.99953485,77228263,1580,1581,1578,1578,0,0,0,0,0,0,0,0,0,0
1706426045.09949493,77328223,1582,1582,1578,1578,0,0,0,0,0,0,0,0,0,0
1706426045.19945502,77428183,1582,1581,1578,1578,0,0,0,0,0,0,0,0,0,0
1706426045.30024791,77528976,1581,1581,1578,1578,0,0,0,0,0,0,0,0,0,0
1706426045.40020800,77628936,1581,1581,1579,1579,0,0,0,0,0,0,0,0,0,0
1706426045.50016785,77728896,1581,1581,1580,1580,0,0,0,0,0,0,0,0,0,0
1706426045.60012794,77828856,1581,1581,1580,1580,0,0,0,0,0,0,0,0,0,0
1706426045.70008802,77928816,1580,1579,1580,1580,0,0,0,0,0,0,0,0,0,0
1706426045.80004787,78028776,1579,1579,1581,1580,0,0,0,0,0,0,0,0,0,0
1706426045.90000796,78128736,1579,1580,1581,1581,0,0,0,0,0,0,0,0,0,0
1706426045.99996805,78228696,1579,1579,1581,1581,0,0,0,0,0,0,0,0,0,0
1706426046.09992790,78328656,1580,1581,1582,1582,0,0,0,0,0,0,0,0,0,0
1706426046.19988799,78428616,1580,1580,1581,1581,0,0,0,0,0,0,0,0,0,0
1706426046.29984784,78528576,1580,1580,1581,1581,0,0,0,0,0,0,0,0,0,0
1706426046.39980793,78628536,1580,1580,1581,1581,0,0,0,0,0,0,0,0,0,0
1706426046.49976802,78728496,1581,1581,1582,1581,0,0,0,0,0,0,0,0,0,0
1706426046.59972787,78828456,1581,1581,1581,1581,0,0,0,0,0,0,0,0,0,0
1706426046.69968796,78928416,1581,1581,1581,1581,0,0,0,0,0,0,0,0,0,0
1706426046.79964805,79028376,1582,1582,1581,1581,0,0,0,0,0,0,0,0,0,0
1706426046.89960790,79128336,1581,1581,1580,1580,0,0,0,0,0,0,0,0,0,0
1706426046.99956799,79228296,1581,1582,1584,1577,0,0,0,0,0,0,0,0,0,0
1706426047.09952784,79328256,1580,1583,1586,1572,0,0,0,0,0,0,0,0,0,0
1706426047.19948792,79428216,1580,1584,1580,1573,0,0,0,0,0,0,0,0,0,0
1706426047.29944801,79528176,1579,1581,1570,1571,0,0,0,0,0,0,0,0,0,0
1706426047.40024090,79628969,1578,1580,1562,1569,0,0,0,0,0,0,0,0,0,0
1706426047.50020099,79728929,1579,1579,1557,1564,0,0,0,0,0,0,0,0,0,0
1706426047.60016084,79828889,1579,1579,1554,1559,0,0,0,0,0,0,0,0,0,0
1706426047.70012093,79928849,1580,1579,1555,1555,0,0,0,0,0,0,0,0,0,0
1706426047.80008101,80028809,1581,1579,1556,1554,0,0,0,0,0,0,0,0,0,0
1706426047.90004086,80128769,1579,1578,1555,1553,0,0,0,0,0,0,0,0,0,0
1706426048.00000095,80228729,1578,1578,1556,1554,0,0,0,0,0,0,0,0,0,0
1706426048.09996104,80328689,1577,1577,1556,1555,0,0,0,0,0,0,0,0,0,0
1706426048.19992089,80428649,1576,1578,1555,1555,0,0,0,0,0,0,0,0,0,0
1706426048.29988098,80528609,1575,1577,1554,1554,0,0,0,0,0,0,0,0,0,0
1706426048.39984083,80628569,1575,1577,1553,1553,0,0,0,0,0,0,0,0,0,0
1706426048.49980092,80728529,1576,1577,1551,1551,0,0,0,0,0,0,0,0,0,0
1706426048.59976101,80828489,1579,1580,1550,1550,0,0,0,0,0,0,0,0,0,0
1706426048.69972086,80928449,1580,1581,1547,1547,0,0,0,0,0,0,0,0,0,0
1706426048.79968095,81028409,1582,1582,1544,1543,0,0,0,0,0,0,0,0,0,0
1706426048.89964104,81128369,1584,1585,1541,1541,0,0,0,0,0,0,0,0,0,0
1706426048.99960089,81228329,1588,1589,1541,1540,0,0,0,0,0,0,0,0,0,0
1706426049.09956098,81328289,1589,1590,1538,1538,0,0,0,0,0,0,0,0,0,0
1706426049.19952083,81428249,1591,1591,1537,1538,0,0,0,0,0,0,0,0,0,0
1706426049.29948092,81528209,1593,1593,1538,1539,0,0,0,0,0,0,0,0,0,0
1706426049.39944100,81628169,1592,1593,1537,1540,0,0,0,0,0,0,0,0,0,0
1706426049.50023389,81728962,1591,1591,1540,1543,0,0,0,0,0,0,0,0,0,0
1706426049.60019398,81828922,1588,1587,1546,1548,0,0,0,0,0,0,0,0,0,0
1706426049.70015383,81928882,1584,1580,1554,1556,0,0,0,0,0,0,0,0,0,0
1706426049.80011392,82028842,1575,1571,1564,1565,0,0,0,0,0,0,0,0,0,0
1706426049.90007401,82128802,1566,1562,1575,1577,0,0,0,0,0,0,0,0,0,0
1706426050.00003386,82228762,1555,1552,1587,1588,0,0,0,0,0,0,0,0,0,0
1706426050.09999394,82328722,1545,1542,1597,1597,0,0,0,0,0,0,0,0,0,0
1706426050.19995403,82428682,1537,1536,1604,1604,0,0,0,0,0,0,0,0,0,0
1706426050.29991388,82528642,1533,1534,1611,1610,0,0,0,0,0,0,0,0,0,0
1706426050.39987397,82628602,1533,1534,1612,1612,0,0,0,0,0,0,0,0,0,0
1706426050.49983406,82728562,1535,1536,1610,1610,0,0,0,0,0,0,0,0,0,0
1706426050.59979391,82828522,1541,1542,1606,1606,0,0,0,0,0,0,0,0,0,0
1706426050.69975400,82928482,1547,1548,1599,1599,0,0,0,0,0,0,0,0,0,0
1706426050.79971385,83028442,1557,1558,1595,1594,0,0,0,0,0,0,0,0,0,0
1706426050.89967394,83128402,1565,1566,1587,1586,0,0,0,0,0,0,0,0,0,0
1706426050.99963403,83228362,1573,1573,1581,1580,0,0,0,0,0,0,0,0,0,0
1706426051.09959388,83328322,1579,1579,1576,1575,0,0,0,0,0,0,0,0,0,0
1706426051.19955397,83428282,1584,1583,1572,1572,0,0,0,0,0,0,0,0,0,0
1706426051.29951406,83528242,1587,1586,1570,1570,0,0,0,0,0,0,0,0,0,0
1706426051.39947391,83628202,1587,1586,1568,1568,0,0,0,0,0,0,0,0,0,0
1706426051.49943399,83728162,1586,1585,1569,1569,0,0,0,0,0,0,0,0,0,0
1706426051.60022688,83828955,1585,1583,1570,1571,0,0,0,0,0,0,0,0,0,0
1706426051.70018697,83928915,1583,1582,1574,1574,0,0,0,0,0,0,0,0,0,0
1706426051.80014706,84028875,1580,1581,1577,1577,0,0,0,0,0,0,0,0,0,0
1706426051.90010691,84128835,1578,1578,1580,1579,0,0,0,0,0,0,0,0,0,0
1706426052.00006700,84228795,1576,1576,1581,1581,0,0,0,0,0,0,0,0,0,0
1706426052.10002685,84328755,1574,1574,1583,1583,0,0,0,0,0,0,0,0,0,0
1706426052.19998693,84428715,1572,1574,1583,1583,0,0,0,0,0,0,0,0,0,0
1706426052.29994702,84528675,1573,1573,1583,1584,0,0,0,0,0,0,0,0,0,0
1706426052.39990687,84628635,1574,1574,1583,1584,0,0,0,0,0,0,0,0,0,0
1706426052.49986696,84728595,1574,1575,1582,1582,0,0,0,0,0,0,0,0,0,0
1706426052.59982705,84828555,1576,1576,1582,1581,0,0,0,0,0,0,0,0,0,0
1706426052.69978690,84928515,1577,1577,1580,1580,0,0,0,0,0,0,0,0,0,0
1706426052.79974699,85028475,1578,1578,1579,1579,0,0,0,0,0,0,0,0,0,0
1706426052.89970684,85128435,1579,1579,1578,1579,0,0,0,0,0,0,0,0,0,0
1706426052.99966693,85228395,1581,1580,1578,1578,0,0,0,0,0,0,0,0,0,0
1706426053.09962702,85328355,1581,1580,1578,1577,0,0,0,0,0,0,0,0,0,0
1706426053.19958687,85428315,1582,1582,1579,1578,0,0,0,0,0,0,0,0,0,0
1706426053.29954696,85528275,1580,1581,1578,1577,0,0,0,0,0,0,0,0,0,0
1706426053.39950705,85628235,1580,1581,1577,1578,0,0,0,0,0,0,0,0,0,0
1706426053.49946690,85728195,1579,1580,1577,1577,0,0,0,0,0,0,0,0,0,0
1706426053.59942698,85828155,1580,1579,1578,1578,0,0,0,0,0,0,0,0,0,0
1706426053.70021987,85928948,1580,1579,1578,1579,0,0,0,0,0,0,0,0,0,0
1706426053.80017996,86028908,1579,1579,1580,1580,0,0,0,0,0,0,0,0,0,0
1706426053.90014005,86128868,1578,1578,1579,1579,0,0,0,0,0,0,0,0,0,0
1706426054.00009990,86228828,1579,1579,1580,1580,0,0,0,0,0,0,0,0,0,0
1706426054.10005999,86328788,1578,1579,1580,1580,0,0,0,0,0,0,0,0,0,0
1706426054.20001984,86428748,1578,1578,1580,1580,0,0,0,0,0,0,0,0,0,0
1706426054.29997993,86528708,1579,1579,1581,1580,0,0,0,0,0,0,0,0,0,0
1706426054.39994001,86628668,1580,1580,1581,1581,0,0,0,0,0,0,0,0,0,0
1706426054.49989986,86728628,1580,1579,1581,1580,0,0,0,0,0,0,0,0,0,0
1706426054.59985995,86828588,1580,1580,1580,1580,0,0,0,0,0,0,0,0,0,0
1706426054.69982004,86928548,1580,1580,1580,1580,0,0,0,0,0,0,0,0,0,0
1706426054.79977989,87028508,1581,1581,1581,1581,0,0,0,0,0,0,0,0,0,0
1706426054.89973998,87128468,1582,1582,1583,1579,0,0,0,0,0,0,0,0,0,0
1706426054.99969983,87228428,1581,1582,1587,1573,0,0,0,0,0,0,0,0,0,0
1706426055.09965992,87328388,1580,1581,1583,1574,0,0,0,0,0,0,0,0,0,0
1706426055.19962001,87428348,1578,1578,1576,1576,0,0,0,0,0,0,0,0,0,0
1706426055.29957986,87528308,1575,1574,1570,1575,0,0,0,0,0,0,0,0,0,0
1706426055.39953995,87628268,1571,1571,1566,1573,0,0,0,0,0,0,0,0,0,0
1706426055.49950004,87728228,1569,1569,1565,1571,0,0,0,0,0,0,0,0,0,0
1706426055.59945989,87828188,1569,1568,1567,1570,0,0,0,0,0,0,0,0,0,0
1706426055.70025301,87928981,1568,1567,1568,1568,0,0,0,0,0,0,0,0,0,0
1706426055.80021286,88028941,1565,1566,1567,1565,0,0,0,0,0,0,0,0,0,0
1706426055.90017295,88128901,1566,1566,1568,1566,0,0,0,0,0,0,0,0,0,0
1706426056.00013304,88228861,1565,1565,1567,1565,0,0,0,0,0,0,0,0,0,0
1706426056.10009289,88328821,1564,1564,1565,1564,0,0,0,0,0,0,0,0,0,0
1706426056.20005298,88428781,1564,1563,1565,1564,0,0,0,0,0,0,0,0,0,0
1706426056.30001283,88528741,1563,1563,1563,1563,0,0,0,0,0,0,0,0,0,0
1706426056.39997292,88628701,1561,1561,1561,1562,0,0,0,0,0,0,0,0,0,0
1706426056.49993300,88728661,1561,1561,1560,1561,0,0,0,0,0,0,0,0,0,0
1706426056.59989285,88828621,1560,1560,1560,1559,0,0,0,0,0,0,0,0,0,0
1706426056.69985294,88928581,1560,1560,1560,1560,0,0,0,0,0,0,0,0,0,0
1706426056.79981303,89028541,1559,1560,1560,1559,0,0,0,0,0,0,0,0,0,0
1706426056.89977288,89128501,1559,1558,1558,1558,0,0,0,0,0,0,0,0,0,0
1706426056.99973297,89228461,1558,1558,1558,1557,0,0,0,0,0,0,0,0,0,0
1706426057.09969306,89328421,1557,1557,1557,1557,0,0,0,0,0,0,0,0,0,0
1706426057.19965291,89428381,1557,1557,1558,1557,0,0,0,0,0,0,0,0,0,0
1706426057.29961300,89528341,1557,1557,1557,1557,0,0,0,0,0,0,0,0,0,0
1706426057.39957285,89628301,1557,1556,1557,1556,0,0,0,0,0,0,0,0,0,0
1706426057.49953294,89728261,1557,1557,1558,1556,0,0,0,0,0,0,0,0,0,0
1706426057.59949303,89828221,1558,1558,1559,1556,0,0,0,0,0,0,0,0,0,0
1706426057.69945288,89928181,1560,1559,1561,1558,0,0,0,0,0,0,0,0,0,0
1706426057.80024600,90028974,1559,1560,1558,1561,0,0,0,0,0,0,0,0,0,0
1706426057.90020585,90128934,1560,1560,1557,1563,0,0,0,0,0,0,0,0,0,0
1706426058.00016594,90228894,1561,1561,1558,1564,0,0,0,0,0,0,0,0,0,0
1706426058.10012603,90328854,1563,1562,1559,1565,0,0,0,0,0,0,0,0,0,0
1706426058.20008588,90428814,1563,1563,1562,1564,0,0,0,0,0,0,0,0,0,0
1706426058.30004597,90528774,1562,1562,1563,1562,0,0,0,0,0,0,0,0,0,0
1706426058.40000606,90628734,1560,1561,1562,1559,0,0,0,0,0,0,0,0,0,0
1706426058.49996591,90728694,1559,1560,1562,1557,0,0,0,0,0,0,0,0,0,0
1706426058.59992599,90828654,1560,1559,1558,1561,0,0,0,0,0,0,0,0,0,0
1706426058.69988585,90928614,1555,1555,1552,1558,0,0,0,0,0,0,0,0,0,0
1706426058.79984593,91028574,1551,1551,1548,1553,0,0,0,0,0,0,0,0,0,0
1706426058.89980602,91128534,1545,1546,1545,1546,0,0,0,0,0,0,0,0,0,0
1706426058.99976587,91228494,1540,1540,1540,1539,0,0,0,0,0,0,0,0,0,0
1706426059.09972596,91328454,1532,1532,1532,1531,0,0,0,0,0,0,0,0,0,0
1706426059.19968605,91428414,1525,1525,1526,1525,0,0,0,0,0,0,0,0,0,0
1706426059.29964590,91528374,1520,1520,1521,1520,0,0,0,0,0,0,0,0,0,0
1706426059.39960599,91628334,1519,1519,1519,1519,0,0,0,0,0,0,0,0,0,0
1706426059.49956584,91728294,1520,1519,1520,1519,0,0,0,0,0,0,0,0,0,0
1706426059.59952593,91828254,1522,1522,1522,1521,0,0,0,0,0,0,0,0,0,0
1706426059.69948602,91928214,1525,1525,1525,1525,0,0,0,0,0,0,0,0,0,0
1706426059.79944587,92028174,1530,1529,1529,1530,0,0,0,0,0,0,0,0,0,0
1706426059.90023899,92128967,1534,1534,1534,1534,0,0,0,0,0,0,0,0,0,0
1706426060.00019884,92228927,1538,1538,1538,1538,0,0,0,0,0,0,0,0,0,0
1706426060.10015893,92328887,1541,1542,1541,1541,0,0,0,0,0,0,0,0,0,0
1706426060.20011902,92428847,1543,1543,1543,1543,0,0,0,0,0,0,0,0,0,0
1706426060.30007887,92528807,1545,1545,1545,1546,0,0,0,0,0,0,0,0,0,0
1706426060.40003896,92628767,1546,1546,1546,1546,0,0,0,0,0,0,0,0,0,0
1706426060.49999905,92728727,1545,1546,1546,1545,0,0,0,0,0,0,0,0,0,0
1706426060.59995890,92828687,1545,1545,1546,1545,0,0,0,0,0,0,0,0,0,0
1706426060.69991899,92928647,1546,1546,1546,1546,0,0,0,0,0,0,0,0,0,0
1706426060.79987884,93028607,1546,1546,1546,1546,0,0,0,0,0,0,0,0,0,0
1706426060.89983892,93128567,1546,1546,1546,1546,0,0,0,0,0,0,0,0,0,0
1706426060.99979901,93228527,1545,1545,1545,1545,0,0,0,0,0,0,0,0,0,0
1706426061.09975886,93328487,1545,1545,1545,1545,0,0,0,0,0,0,0,0,0,0
1706426061.19971895,93428447,1545,1545,1545,1545,0,0,0,0,0,0,0,0,0,0
1706426061.29967904,93528407,1545,1545,1545,1545,0,0,0,0,0,0,0,0,0,0
1706426061.39963889,93628367,1546,1546,1546,1545,0,0,0,0,0,0,0,0,0,0
1706426061.49959898,93728327,1545,1545,1545,1545,0,0,0,0,0,0,0,0,0,0
1706426061.59955883,93828287,1544,1544,1544,1544,0,0,0,0,0,0,0,0,0,0
1706426061.69951892,93928247,1545,1544,1544,1545,0,0,0,0,0,0,0,0,0,0
1706426061.79947901,94028207,1544,1545,1545,1545,0,0,0,0,0,0,0,0,0,0
1706426061.89943886,94128167,1544,1543,1544,1543,0,0,0,0,0,0,0,0,0,0
1706426062.00023198,94228960,1543,1544,1544,1543,0,0,0,0,0,0,0,0,0,0
1706426062.10019183,94328920,1544,1544,1544,1544,0,0,0,0,0,0,0,0,0,0
1706426062.20015192,94428880,1544,1544,1544,1544,0,0,0,0,0,0,0,0,0,0
1706426062.30011201,94528840,1543,1543,1543,1543,0,0,0,0,0,0,0,0,0,0
1706426062.40007186,94628800,1545,1544,1545,1544,0,0,0,0,0,0,0,0,0,0
1706426062.50003195,94728760,1545,1545,1545,1545,0,0,0,0,0,0,0,0,0,0
1706426062.59999204,94828720,1544,1544,1544,1544,0,0,0,0,0,0,0,0,0,0
1706426062.69995189,94928680,1544,1544,1544,1544,0,0,0,0,0,0,0,0,0,0
1706426062.79991198,95028640,1544,1545,1545,1544,0,0,0,0,0,0,0,0,0,0
1706426062.89987183,95128600,1544,1544,1544,1544,0,0,0,0,0,0,0,0,0,0
1706426062.99983191,95228560,1545,1545,1545,1544,0,0,0,0,0,0,0,0,0,0
1706426063.09979200,95328520,1545,1544,1544,1545,0,0,0,0,0,0,0,0,0,0
1706426063.19975185,95428480,1543,1544,1544,1544,0,0,0,0,0,0,0,0,0,0
1706426063.29971194,95528440,1544,1544,1544,1544,0,0,0,0,0,0,0,0,0,0
1706426063.39967203,95628400,1544,1544,1544,1543,0,0,0,0,0,0,0,0,0,0
1706426063.49963188,95728360,1544,1544,1544,1544,0,0,0,0,0,0,0,0,0,0
1706426063.59959197,95828320,1545,1545,1545,1545,0,0,0,0,0,0,0,0,0,0
1706426063.69955206,95928280,1544,1544,1544,1544,0,0,0,0,0,0,0,0,0,0
1706426063.79951191,96028240,1544,1544,1544,1544,0,0,0,0,0,0,0,0,0,0
1706426063.89947200,96128200,1544,1544,1544,1544,0,0,0,0,0,0,0,0,0,0
1706426063.99943185,96228160,1543,1543,1543,1543,0,0,0,0,0,0,0,0,0,0
1706426064.10022497,96328953,1544,1544,1543,1544,0,0,0,0,0,0,0,0,0,0
1706426064.20018506,96428913,1543,1543,1543,1543,0,0,0,0,0,0,0,0,0,0
1706426064.30014491,96528873,1544,1544,1544,1544,0,0,0,0,0,0,0,0,0,0
1706426064.40010500,96628833,1545,1545,1545,1545,0,0,0,0,0,0,0,0,0,0
1706426064.50006485,96728793,1545,1545,1545,1545,0,0,0,0,0,0,0,0,0,0
1706426064.60002494,96828753,1545,1545,1545,1544,0,0,0,0,0,0,0,0,0,0
1706426064.69998503,96928713,1544,1544,1544,1545,0,0,0,0,0,0,0,0,0,0
1706426064.79994488,97028673,1544,1545,1544,1545,0,0,0,0,0,0,0,0,0,0
1706426064.89990497,97128633,1545,1544,1544,1545,0,0,0,0,0,0,0,0,0,0
1706426064.99986506,97228593,1545,1544,1544,1545,0,0,0,0,0,0,0,0,0,0
1706426065.09982491,97328553,1545,1545,1545,1545,0,0,0,0,0,0,0,0,0,0
1706426065.19978499,97428513,1545,1545,1545,1545,0,0,0,0,0,0,0,0,0,0
1706426065.29974484,97528473,1545,1545,1545,1545,0,0,0,0,0,0,0,0,0,0
1706426065.39970493,97628433,1544,1544,1544,1544,0,0,0,0,0,0,0,0,0,0
1706426065.49966502,97728393,1545,1544,1545,1545,0,0,0,0,0,0,0,0,0,0
1706426065.59962487,97828353,1545,1545,1545,1545,0,0,0,0,0,0,0,0,0,0
1706426065.69958496,97928313,1545,1544,1544,1545,0,0,0,0,0,0,0,0,0,0
1706426065.79954505,98028273,1544,1544,1544,1544,0,0,0,0,0,0,0,0,0,0
1706426065.89950490,98128233,1544,1544,1544,1544,0,0,0,0,0,0,0,0,0,0
1706426065.99946499,98228193,1544,1545,1544,1545,0,0,0,0,0,0,0,0,0,0
1706426066.10025787,98328986,1544,1544,1543,1544,0,0,0,0,0,0,0,0,0,0
1706426066.20021796,98428946,1544,1544,1544,1544,0,0,0,0,0,0,0,0,0,0
1706426066.30017805,98528906,1544,1543,1544,1544,0,0,0,0,0,0,0,0,0,0
1706426066.40013790,98628866,1544,1544,1544,1544,0,0,0,0,0,0,0,0,0,0
1706426066.50009799,98728826,1544,1544,1544,1544,0,0,0,0,0,0,0,0,0,0
1706426066.60005784,98828786,1544,1544,1544,1544,0,0,0,0,0,0,0,0,0,0
1706426066.70001793,98928746,1544,1544,1544,1544,0,0,0,0,0,0,0,0,0,0
1706426066.79997802,99028706,1544,1545,1544,1544,0,0,0,0,0,0,0,0,0,0
1706426066.89993787,99128666,1545,1545,1544,1545,0,0,0,0,0,0,0,0,0,0
1706426066.99989796,99228626,1545,1545,1545,1545,0,0,0,0,0,0,0,0,0,0
1706426067.09985805,99328586,1544,1544,1544,1545,0,0,0,0,0,0,0,0,0,0
1706426067.19981790,99428546,1542,1543,1543,1543,0,0,0,0,0,0,0,0,0,0
1706426067.29977798,99528506,1543,1543,1543,1543,0,0,0,0,0,0,0,0,0,0
1706426067.39973783,99628466,1543,1544,1544,1543,0,0,0,0,0,0,0,0,0,0
1706426067.49969792,99728426,1545,1544,1544,1544,0,0,0,0,0,0,0,0,0,0
1706426067.59965801,99828386,1545,1545,1545,1545,0,0,0,0,0,0,0,0,0,0
1706426067.69961786,99928346,1544,1544,1544,1544,0,0,0,0,0,0,0,0,0,0
1706426067.79957795,100028306,1544,1544,1544,1544,0,0,0,0,0,0,0,0,0,0
1706426067.89953804,100128266,1544,1544,1544,1544,0,0,0,0,0,0,0,0,0,0
1706426067.99949789,100228226,1544,1544,1544,1544,0,0,0,0,0,0,0,0,0,0
1706426068.09945798,100328186,1544,1543,1543,1544,0,0,0,0,0,0,0,0,0,0
1706426068.20025086,100428979,1544,1545,1545,1544,0,0,0,0,0,0,0,0,0,0
1706426068.30021095,100528939,1545,1544,1544,1545,0,0,0,0,0,0,0,0,0,0
1706426068.40017104,100628899,1545,1545,1545,1545,0,0,0,0,0,0,0,0,0,0
1706426068.50013089,100728859,1546,1545,1545,1546,0,0,0,0,0,0,0,0,0,0
1706426068.60009098,100828819,1545,1545,1545,1545,0,0,0,0,0,0,0,0,0,0
1706426068.70005083,100928779,1545,1545,1545,1545,0,0,0,0,0,0,0,0,0,0
1706426068.80001092,101028739,1544,1545,1545,1544,0,0,0,0,0,0,0,0,0,0
1706426068.89997101,101128699,1545,1544,1545,1545,0,0,0,0,0,0,0,0,0,0
1706426068.99993086,101228659,1525,1527,1524,1528,0,0,0,0,0,0,0,0,0,0
1706426069.09989095,101328619,1303,1339,1302,1340,0,0,0,0,0,0,0,0,0,0
1706426069.19985104,101428579,1237,1290,1237,1290,0,0,0,0,0,0,0,0,0,0
1706426069.29981089,101528539,1238,1290,1237,1292,0,0,0,0,0,0,0,0,0,0
1706426069.39977098,101628499,1237,1290,1237,1291,0,0,0,0,0,0,0,0,0,0
1706426069.49973083,101728459,1238,1290,1237,1291,0,0,0,0,0,0,0,0,0,0
1706426069.59969091,101828419,1238,1290,1237,1291,0,0,0,0,0,0,0,0,0,0
1706426069.69965100,101928379,1263,1271,1237,1292,0,0,0,0,0,0,0,0,0,0
1706426069.79961085,102028339,1259,1274,1237,1292,0,0,0,0,0,0,0,0,0,0
1706426069.89957094,102128299,1254,1279,1237,1292,0,0,0,0,0,0,0,0,0,0
1706426069.99953103,102228259,1253,1279,1237,1292,0,0,0,0,0,0,0,0,0,0
1706426070.09949088,102328219,1254,1278,1237,1292,0,0,0,0,0,0,0,0,0,0
1706426070.19945097,102428179,1254,1278,1237,1292,0,0,0,0,0,0,0,0,0,0
1706426070.30024385,102528972,1256,1277,1237,1292,0,0,0,0,0,0,0,0,0,0
1706426070.40020394,102628932,1257,1276,1237,1292,0,0,0,0,0,0,0,0,0,0
1706426070.50016403,102728892,1241,1284,1237,1288,0,0,0,0,0,0,0,0,0,0
1706426070.60012388,102828852,1245,1284,1237,1291,0,0,0,0,0,0,0,0,0,0
1706426070.70008397,102928812,1246,1284,1237,1291,0,0,0,0,0,0,0,0,0,0
1706426070.80004406,103028772,1247,1284,1237,1292,0,0,0,0,0,0,0,0,0,0
1706426070.90000391,103128732,1247,1283,1237,1292,0,0,0,0,0,0,0,0,0,0
1706426070.99996400,103228692,1000,1000,1000,1000,0,0,0,0,0,0,0,0,0,0
1706426071.09992385,103328652,1000,1000,1000,1000,0,0,0,0,0,0,0,0,0,0
1706426071.19988394,103428612,1000,1000,1000,1000,0,0,0,0,0,0,0,0,0,0
1706426071.29984403,103528572,1000,1000,1000,1000,0,0,0,0,0,0,0,0,0,0
1706426071.39980388,103628532,1000,1000,1000,1000,0,0,0,0,0,0,0,0,0,0
1706426071.49976397,103728492,1000,1000,1000,1000,0,0,0,0,0,0,0,0,0,0
1706426071.59972405,103828452,1000,1000,1000,1000,0,0,0,0,0,0,0,0,0,0
1706426071.69968390,103928412,1000,1000,1000,1000,0,0,0,0,0,0,0,0,0,0
1706426071.79964399,104028372,1000,1000,1000,1000,0,0,0,0,0,0,0,0,0,0
1706426071.89960384,104128332,1000,1000,1000,1000,0,0,0,0,0,0,0,0,0,0
1706426071.99956393,104228292,1000,1000,1000,1000,0,0,0,0,0,0,0,0,0,0
1706426072.09952402,104328252,1000,1000,1000,1000,0,0,0,0,0,0,0,0,0,0
1706426072.19948387,104428212,1000,1000,1000,1000,0,0,0,0,0,0,0,0,0,0
1706426072.29944396,104528172,1000,1000,1000,1000,0,0,0,0,0,0,0,0,0,0
1706426072.40023685,104628965,1000,1000,1000,1000,0,0,0,0,0,0,0,0,0,0
1706426072.50019693,104728925,1000,1000,1000,1000,0,0,0,0,0,0,0,0,0,0
1706426072.60015702,104828885,1000,1000,1000,1000,0,0,0,0,0,0,0,0,0,0
1706426072.70011687,104928845,1000,1000,1000,1000,0,0,0,0,0,0,0,0,0,0
1706426072.80007696,105028805,1000,1000,1000,1000,0,0,0,0,0,0,0,0,0,0
1706426072.90003705,105128765,1000,1000,1000,1000,0,0,0,0,0,0,0,0,0,0
1706426072.99999690,105228725,1000,1000,1000,1000,0,0,0,0,0,0,0,0,0,0
1706426073.09995699,105328685,1000,1000,1000,1000,0,0,0,0,0,0,0,0,0,0
1706426073.19991684,105428645,1000,1000,1000,1000,0,0,0,0,0,0,0,0,0,0
1706426073.29987693,105528605,1000,1000,1000,1000,0,0,0,0,0,0,0,0,0,0
1706426073.39983702,105628565,1000,1000,1000,1000,0,0,0,0,0,0,0,0,0,0
1706426073.49979687,105728525,1000,1000,1000,1000,0,0,0,0,0,0,0,0,0,0
1706426073.59975696,105828485,1000,1000,1000,1000,0,0,0,0,0,0,0,0,0,0
1706426073.69971704,105928445,1000,1000,1000,1000,0,0,0,0,0,0,0,0,0,0
1706426073.79967690,106028405,1000,1000,1000,1000,0,0,0,0,0,0,0,0,0,0
1706426073.89963698,106128365,1000,1000,1000,1000,0,0,0,0,0,0,0,0,0,0
1706426073.99959683,106228325,1000,1000,1000,1000,0,0,0,0,0,0,0,0,0,0
1706426074.09955692,106328285,1000,1000,1000,1000,0,0,0,0,0,0,0,0,0,0
1706426074.19951701,106428245,1000,1000,1000,1000,0,0,0,0,0,0,0,0,0,0
1706426074.29947686,106528205,1000,1000,1000,1000,0,0,0,0,0,0,0,0,0,0
1706426074.39943695,106628165,1000,1000,1000,1000,0,0,0,0,0,0,0,0,0,0
1706426074.50022984,106728958,1000,1000,1000,1000,0,0,0,0,0,0,0,0,0,0
1706426074.60018992,106828918,1000,1000,1000,1000,0,0,0,0,0,0,0,0,0,0
1706426074.70015001,106928878,1000,1000,1000,1000,0,0,0,0,0,0,0,0,0,0
1706426074.80010986,107028838,1000,1000,1000,1000,0,0,0,0,0,0,0,0,0,0
1706426074.90006995,107128798,1000,1000,1000,1000,0,0,0,0,0,0,0,0,0,0
1706426075.00003004,107228758,1000,1000,1000,1000,0,0,0,0,0,0,0,0,0,0
1706426075.09998989,107328718,1000,1000,1000,1000,0,0,0,0,0,0,0,0,0,0
1706426075.19994998,107428678,1000,1000,1000,1000,0,0,0,0,0,0,0,0,0,0
1706426075.29990983,107528638,1000,1000,1000,1000,0,0,0,0,0,0,0,0,0,0
1706426075.39986992,107628598,1000,1000,1000,1000,0,0,0,0,0,0,0,0,0,0
1706426075.49983001,107728558,1000,1000,1000,1000,0,0,0,0,0,0,0,0,0,0
1706426075.59978986,107828518,1000,1000,1000,1000,0,0,0,0,0,0,0,0,0,0
1706426075.69974995,107928478,1000,1000,1000,1000,0,0,0,0,0,0,0,0,0,0
1706426075.79971004,108028438,1000,1000,1000,1000,0,0,0,0,0,0,0,0,0,0
1706426075.89966989,108128398,1000,1000,1000,1000,0,0,0,0,0,0,0,0,0,0
1706426075.99962997,108228358,1000,1000,1000,1000,0,0,0,0,0,0,0,0,0,0
1706426076.09959006,108328318,1000,1000,1000,1000,0,0,0,0,0,0,0,0,0,0
1706426076.19954991,108428278,1000,1000,1000,1000,0,0,0,0,0,0,0,0,0,0
1706426076.29951000,108528238,1000,1000,1000,1000,0,0,0,0,0,0,0,0,0,0
1706426076.39946985,108628198,1000,1000,1000,1000,0,0,0,0,0,0,0,0,0,0
1706426076.49942994,108728158,1000,1000,1000,1000,0,0,0,0,0,0,0,0,0,0
1706426076.60022283,108828951,1000,1000,1000,1000,0,0,0,0,0,0,0,0,0,0
1706426076.70018291,108928911,1000,1000,1000,1000,0,0,0,0,0,0,0,0,0,0
1706426076.80014300,109028871,1000,1000,1000,1000,0,0,0,0,0,0,0,0,0,0
1706426076.90010285,109128831,1000,1000,1000,1000,0,0,0,0,0,0,0,0,0,0
1706426077.00006294,109228791,1000,1000,1000,1000,0,0,0,0,0,0,0,0,0,0
1706426077.10002303,109328751,1000,1000,1000,1000,0,0,0,0,0,0,0,0,0,0
1706426077.19998288,109428711,1000,1000,1000,1000,0,0,0,0,0,0,0,0,0,0
1706426077.29994297,109528671,1000,1000,1000,1000,0,0,0,0,0,0,0,0,0,0
1706426077.39990306,109628631,1000,1000,1000,1000,0,0,0,0,0,0,0,0,0,0
1706426077.49986291,109728591,1000,1000,1000,1000,0,0,0,0,0,0,0,0,0,0
1706426077.59982300,109828551,1000,1000,1000,1000,0,0,0,0,0,0,0,0,0,0
1706426077.69978285,109928511,1000,1000,1000,1000,0,0,0,0,0,0,0,0,0,0
1706426077.79974294,110028471,1000,1000,1000,1000,0,0,0,0,0,0,0,0,0,0
1706426077.89970303,110128431,1000,1000,1000,1000,0,0,0,0,0,0,0,0,0,0
1706426077.99966288,110228391,1000,1000,1000,1000,0,0,0,0,0,0,0,0,0,0
1706426078.09962296,110328351,1000,1000,1000,1000,0,0,0,0,0,0,0,0,0,0
1706426078.19958305,110428311,1000,1000,1000,1000,0,0,0,0,0,0,0,0,0,0
1706426078.29954290,110528271,1000,1000,1000,1000,0,0,0,0,0,0,0,0,0,0
1706426078.39950299,110628231,1000,1000,1000,1000,0,0,0,0,0,0,0,0,0,0
1706426078.49946284,110728191,1000,1000,1000,1000,0,0,0,0,0,0,0,0,0,0
1706426078.60025597,110828984,1000,1000,1000,1000,0,0,0,0,0,0,0,0,0,0
1706426078.70021605,110928944,1000,1000,1000,1000,0,0,0,0,0,0,0,0,0,0
1706426078.80017591,111028904,1000,1000,1000,1000,0,0,0,0,0,0,0,0,0,0
1706426078.90013599,111128864,1000,1000,1000,1000,0,0,0,0,0,0,0,0,0,0
1706426079.00009584,111228824,1000,1000,1000,1000,0,0,0,0,0,0,0,0,0,0
1706426079.10005593,111328784,1000,1000,1000,1000,0,0,0,0,0,0,0,0,0,0
1706426079.20001602,111428744,1000,1000,1000,1000,0,0,0,0,0,0,0,0,0,0
1706426079.29997587,111528704,1000,1000,1000,1000,0,0,0,0,0,0,0,0,0,0
1706426079.39993596,111628664,1000,1000,1000,1000,0,0,0,0,0,0,0,0,0,0
1706426079.49989605,111728624,1000,1000,1000,1000,0,0,0,0,0,0,0,0,0,0
1706426079.59985590,111828584,1000,1000,1000,1000,0,0,0,0,0,0,0,0,0,0
1706426079.69981599,111928544,1000,1000,1000,1000,0,0,0,0,0,0,0,0,0,0
1706426079.79977584,112028504,1000,1000,1000,1000,0,0,0,0,0,0,0,0,0,0
1706426079.89973593,112128464,1000,1000,1000,1000,0,0,0,0,0,0,0,0,0,0
1706426079.99969602,112228424,1000,1000,1000,1000,0,0,0,0,0,0,0,0,0,0
1706426080.09965587,112328384,1000,1000,1000,1000,0,0,0,0,0,0,0,0,0,0
1706426080.19961596,112428344,1000,1000,1000,1000,0,0,0,0,0,0,0,0,0,0
1706426080.29957604,112528304,1000,1000,1000,1000,0,0,0,0,0,0,0,0,0,0
1706426080.39953589,112628264,1000,1000,1000,1000,0,0,0,0,0,0,0,0,0,0
1706426080.49949598,112728224,1000,1000,1000,1000,0,0,0,0,0,0,0,0,0,0
1706426080.59945583,112828184,1000,1000,1000,1000,0,0,0,0,0,0,0,0,0,0
1706426080.70024896,112928977,1000,1000,1000,1000,0,0,0,0,0,0,0,0,0,0
1706426080.80020905,113028937,1000,1000,1000,1000,0,0,0,0,0,0,0,0,0,0
1706426080.90016890,113128897,1000,1000,1000,1000,0,0,0,0,0,0,0,0,0,0
1706426081.00012898,113228857,1000,1000,1000,1000,0,0,0,0,0,0,0,0,0,0
1706426081.10008883,113328817,1000,1000,1000,1000,0,0,0,0,0,0,0,0,0,0
1706426081.20004892,113428777,1000,1000,1000,1000,0,0,0,0,0,0,0,0,0,0
1706426081.30000901,113528737,1000,1000,1000,1000,0,0,0,0,0,0,0,0,0,0
1706426081.39996886,113628697,1000,1000,1000,1000,0,0,0,0,0,0,0,0,0,0
1706426081.49992895,113728657,1000,1000,1000,1000,0,0,0,0,0,0,0,0,0,0
1706426081.59988904,113828617,1000,1000,1000,1000,0,0,0,0,0,0,0,0,0,0
1706426081.69984889,113928577,1000,1000,1000,1000,0,0,0,0,0,0,0,0,0,0
1706426081.79980898,114028537,1000,1000,1000,1000,0,0,0,0,0,0,0,0,0,0
1706426081.89976883,114128497,1000,1000,1000,1000,0,0,0,0,0,0,0,0,0,0
1706426081.99972892,114228457,1000,1000,1000,1000,0,0,0,0,0,0,0,0,0,0
1706426082.09968901,114328417,1000,1000,1000,1000,0,0,0,0,0,0,0,0,0,0
