TimeUS,M1,M2,M3,M4,TimeUS,C1,C2,C3,C4
74905859,1000,1000,1000,1000,74928350,1000,1000,1000,1000
74908358,1000,1000,1000,1000,75028310,1000,1000,1000,1000
74910857,1000,1000,1000,1000,75128270,1000,1000,1000,1000
74913356,1000,1000,1000,1000,75228230,1000,1000,1000,1000
74915855,1000,1000,1000,1000,75328190,1000,1000,1000,1000
74918354,1000,1000,1000,1000,75428983,1000,1000,1000,1000
74920853,1000,1000,1000,1000,75528943,1000,1000,1000,1000
74923352,1000,1000,1000,1000,75628903,1000,1000,1000,1000
74925851,1000,1000,1000,1000,75728863,1000,1000,1000,1000
74928350,1000,1000,1000,1000,75828823,1000,1000,1000,1000
74930849,1000,1000,1000,1000,75928783,1000,1000,1000,1000
74933348,1000,1000,1000,1000,76028743,1000,1000,1000,1000
74935847,1000,1000,1000,1000,76128703,1000,1000,1000,1000
74938346,1000,1000,1000,1000,76228663,1000,1000,1000,1000
74940845,1000,1000,1000,1000,76328623,1000,1000,1000,1000
74943344,1000,1000,1000,1000,76428583,1000,1000,1000,1000
74945843,1000,1000,1000,1000,76528543,1000,1000,1000,1000
74948342,1000,1000,1000,1000,76628503,1000,1000,1000,1000
74950841,1000,1000,1000,1000,76728463,1000,1000,1000,1000
74953340,1000,1000,1000,1000,76828423,1000,1000,1000,1000
74955839,1000,1000,1000,1000,76928383,1006,1006,1006,1006
74958338,1000,1000,1000,1000,77028343,1036,1036,1036,1036
74960837,1000,1000,1000,1000,77128303,1066,1066,1066,1066
74963336,1000,1000,1000,1000,77228263,1096,1096,1096,1096
74965835,1000,1000,1000,1000,77328223,1126,1126,1126,1126
74968334,1000,1000,1000,1000,77428183,1216,1205,1206,1217
74970833,1000,1000,1000,1000,77528976,1445,1437,1437,1446
74973332,1000,1000,1000,1000,77628936,1615,1608,1609,1616
74975831,1000,1000,1000,1000,77728896,1757,1751,1751,1758
74978330,1000,1000,1000,1000,77828856,1882,1875,1876,1882
74980829,1000,1000,1000,1000,77928816,1892,1887,1887,1892
74983328,1000,1000,1000,1000,78028776,1786,1785,1785,1787
74985827,1000,1000,1000,1000,78128736,1676,1678,1678,1676
74988326,1000,1000,1000,1000,78228696,1634,1638,1638,1634
74990825,1000,1000,1000,1000,78328656,1637,1639,1640,1636
74993324,1000,1000,1000,1000,78428616,1649,1641,1639,1650
74995823,1000,1000,1000,1000,78528576,1638,1638,1631,1645
74998322,1000,1000,1000,1000,78628536,1628,1630,1623,1635
75000821,1000,1000,1000,1000,78728496,1621,1622,1620,1624
75003320,1000,1000,1000,1000,78828456,1618,1618,1619,1616
75005819,1000,1000,1000,1000,78928416,1620,1619,1623,1616
75008318,1000,1000,1000,1000,79028376,1621,1621,1625,1616
75010817,1000,1000,1000,1000,79128336,1591,1591,1605,1576
75013316,1000,1000,1000,1000,79228296,1578,1578,1590,1566
75015815,1000,1000,1000,1000,79328256,1566,1566,1569,1563
75018314,1000,1000,1000,1000,79428216,1556,1556,1551,1561
75020813,1000,1000,1000,1000,79528176,1548,1548,1539,1557
75023312,1000,1000,1000,1000,79628969,1541,1541,1529,1552
75025811,1000,1000,1000,1000,79728929,1536,1535,1527,1544
75028310,1000,1000,1000,1000,79828889,1531,1531,1527,1534
75030809,1000,1000,1000,1000,79928849,1528,1527,1527,1527
75033308,1000,1000,1000,1000,80028809,1526,1526,1528,1524
75035807,1000,1000,1000,1000,80128769,1528,1528,1530,1526
75038306,1000,1000,1000,1000,80228729,1532,1531,1534,1529
75040805,1000,1000,1000,1000,80328689,1535,1535,1537,1533
75043304,1000,1000,1000,1000,80428649,1538,1538,1540,1536
75045803,1000,1000,1000,1000,80528609,1542,1542,1544,1541
75048302,1000,1000,1000,1000,80628569,1545,1545,1546,1545
75050801,1000,1000,1000,1000,80728529,1549,1548,1548,1549
75053300,1000,1000,1000,1000,80828489,1551,1550,1550,1551
75055799,1000,1000,1000,1000,80928449,1554,1554,1553,1555
75058298,1000,1000,1000,1000,81028409,1555,1556,1553,1556
75060797,1000,1000,1000,1000,81128369,1560,1559,1555,1557
75063296,1000,1000,1000,1000,81228329,1560,1561,1560,1561
75065795,1000,1000,1000,1000,81328289,1560,1559,1562,1563
75068294,1000,1000,1000,1000,81428249,1561,1561,1566,1566
75070793,1000,1000,1000,1000,81528209,1562,1562,1568,1567
75073292,1000,1000,1000,1000,81628169,1563,1564,1570,1569
75075791,1000,1000,1000,1000,81728962,1566,1566,1571,1570
75078290,1000,1000,1000,1000,81828922,1568,1567,1570,1570
75080789,1000,1000,1000,1000,81928882,1568,1568,1569,1569
75083288,1000,1000,1000,1000,82028842,1569,1569,1569,1569
75085787,1000,1000,1000,1000,82128802,1572,1571,1570,1570
75088286,1000,1000,1000,1000,82228762,1573,1573,1570,1570
75090785,1000,1000,1000,1000,82328722,1575,1574,1571,1572
75093284,1000,1000,1000,1000,82428682,1575,1576,1572,1571
75095783,1000,1000,1000,1000,82528642,1575,1575,1572,1571
75098282,1000,1000,1000,1000,82628602,1575,1575,1573,1571
75100781,1000,1000,1000,1000,82728562,1576,1575,1574,1573
75103280,1000,1000,1000,1000,82828522,1575,1575,1574,1573
75105779,1000,1000,1000,1000,82928482,1577,1576,1576,1576
75108278,1000,1000,1000,1000,83028442,1576,1576,1575,1576
75110777,1000,1000,1000,1000,83128402,1576,1576,1576,1577
75113276,1000,1000,1000,1000,83228362,1576,1576,1577,1577
75115775,1000,1000,1000,1000,83328322,1576,1576,1578,1577
75118274,1000,1000,1000,1000,83428282,1576,1576,1578,1577
75120773,1000,1000,1000,1000,83528242,1578,1578,1579,1579
75123272,1000,1000,1000,1000,83628202,1577,1577,1578,1578
75125771,1000,1000,1000,1000,83728162,1578,1579,1579,1579
75128270,1000,1000,1000,1000,83828955,1578,1578,1578,1578
75130769,1000,1000,1000,1000,83928915,1577,1577,1577,1578
75133268,1000,1000,1000,1000,84028875,1578,1578,1578,1578
75135767,1000,1000,1000,1000,84128835,1580,1578,1578,1579
75138266,1000,1000,1000,1000,84228795,1579,1579,1579,1579
75140765,1000,1000,1000,1000,84328755,1580,1580,1579,1579
75143264,1000,1000,1000,1000,84428715,1579,1579,1579,1578
75145763,1000,1000,1000,1000,84528675,1579,1579,1578,1578
75148262,1000,1000,1000,1000,84628635,1579,1579,1579,1579
75150761,1000,1000,1000,1000,84728595,1579,1579,1579,1579
75153260,1000,1000,1000,1000,84828555,1579,1579,1579,1580
75155759,1000,1000,1000,1000,84928515,1579,1579,1579,1580
75158258,1000,1000,1000,1000,85028475,1579,1579,1579,1579
75160757,1000,1000,1000,1000,85128435,1579,1579,1580,1579
75163256,1000,1000,1000,1000,85228395,1579,1579,1580,1579
75165755,1000,1000,1000,1000,85328355,1579,1579,1579,1580
75168254,1000,1000,1000,1000,85428315,1579,1580,1580,1580
75170753,1000,1000,1000,1000,85528275,1579,1579,1579,1580
75173252,1000,1000,1000,1000,85628235,1580,1580,1580,1580
75175751,1000,1000,1000,1000,85728195,1580,1579,1580,1580
75178250,1000,1000,1000,1000,85828155,1580,1580,1580,1580
75180749,1000,1000,1000,1000,85928948,1580,1580,1581,1580
75183248,1000,1000,1000,1000,86028908,1580,1580,1580,1580
75185747,1000,1000,1000,1000,86128868,1580,1580,1580,1580
75188246,1000,1000,1000,1000,86228828,1581,1580,1580,1580
75190745,1000,1000,1000,1000,86328788,1581,1580,1580,1580
75193244,1000,1000,1000,1000,86428748,1581,1581,1580,1581
75195743,1000,1000,1000,1000,86528708,1580,1580,1580,1580
75198242,1000,1000,1000,1000,86628668,1581,1581,1581,1581
75200741,1000,1000,1000,1000,86728628,1581,1581,1581,1581
75203240,1000,1000,1000,1000,86828588,1581,1581,1581,1581
75205739,1000,1000,1000,1000,86928548,1580,1580,1580,1580
75208238,1000,1000,1000,1000,87028508,1581,1581,1581,1581
75210737,1000,1000,1000,1000,87128468,1581,1581,1581,1581
75213236,1000,1000,1000,1000,87228428,1581,1581,1584,1577
75215735,1000,1000,1000,1000,87328388,1581,1583,1588,1574
75218234,1000,1000,1000,1000,87428348,1580,1582,1582,1574
75220733,1000,1000,1000,1000,87528308,1579,1581,1573,1574
75223232,1000,1000,1000,1000,87628268,1577,1579,1564,1570
75225731,1000,1000,1000,1000,87728228,1576,1579,1558,1565
75228230,1000,1000,1000,1000,87828188,1578,1578,1556,1561
75230729,1000,1000,1000,1000,87928981,1579,1577,1555,1557
75233228,1000,1000,1000,1000,88028941,1580,1579,1556,1555
75235727,1000,1000,1000,1000,88128901,1578,1578,1556,1553
75238226,1000,1000,1000,1000,88228861,1578,1578,1556,1554
75240725,1000,1000,1000,1000,88328821,1577,1578,1555,1554
75243224,1000,1000,1000,1000,88428781,1576,1577,1555,1554
75245723,1000,1000,1000,1000,88528741,1575,1576,1554,1553
75248222,1000,1000,1000,1000,88628701,1576,1577,1553,1553
75250721,1000,1000,1000,1000,88728661,1576,1578,1551,1551
75253220,1000,1000,1000,1000,88828621,1578,1580,1549,1550
75255719,1000,1000,1000,1000,88928581,1579,1580,1546,1546
75258218,1000,1000,1000,1000,89028541,1583,1584,1544,1544
75260717,1000,1000,1000,1000,89128501,1586,1587,1541,1541
75263216,1000,1000,1000,1000,89228461,1589,1590,1539,1539
75265715,1000,1000,1000,1000,89328421,1593,1593,1537,1537
75268214,1000,1000,1000,1000,89428381,1595,1594,1535,1535
75270713,1000,1000,1000,1000,89528341,1596,1595,1535,1536
75273212,1000,1000,1000,1000,89628301,1595,1595,1535,1537
75275711,1000,1000,1000,1000,89728261,1593,1593,1537,1540
75278210,1000,1000,1000,1000,89828221,1590,1589,1541,1544
75280709,1000,1000,1000,1000,89928181,1585,1583,1548,1551
75283208,1000,1000,1000,1000,90028974,1578,1575,1558,1560
75285707,1000,1000,1000,1000,90128934,1569,1565,1570,1572
75288206,1000,1000,1000,1000,90228894,1557,1553,1581,1583
75290705,1000,1000,1000,1000,90328854,1547,1543,1594,1595
75293204,1000,1000,1000,1000,90428814,1537,1536,1605,1604
75295703,1000,1000,1000,1000,90528774,1531,1531,1612,1611
75298202,1000,1000,1000,1000,90628734,1528,1530,1616,1614
75300701,1000,1000,1000,1000,90728694,1530,1532,1616,1615
75303200,1000,1000,1000,1000,90828654,1534,1536,1612,1611
75305699,1000,1000,1000,1000,90928614,1542,1543,1606,1607
75308198,1000,1000,1000,1000,91028574,1549,1551,1599,1599
75310697,1000,1000,1000,1000,91128534,1558,1559,1591,1591
75313196,1000,1000,1000,1000,91228494,1568,1568,1584,1584
75315695,1000,1000,1000,1000,91328454,1575,1574,1577,1576
75318194,1000,1000,1000,1000,91428414,1582,1580,1572,1572
75320693,1000,1000,1000,1000,91528374,1586,1585,1569,1568
75323192,1000,1000,1000,1000,91628334,1588,1586,1566,1566
75325691,1000,1000,1000,1000,91728294,1588,1587,1566,1566
75328190,1000,1000,1000,1000,91828254,1587,1586,1567,1567
75330689,1000,1000,1000,1000,91928214,1584,1584,1569,1569
75333188,1000,1000,1000,1000,92028174,1582,1582,1573,1573
75335687,1000,1000,1000,1000,92128967,1580,1580,1577,1576
75338186,1000,1000,1000,1000,92228927,1576,1577,1578,1578
75340685,1000,1000,1000,1000,92328887,1575,1576,1581,1582
75343184,1000,1000,1000,1000,92428847,1572,1573,1582,1582
75345683,1000,1000,1000,1000,92528807,1572,1572,1583,1583
75348182,1000,1000,1000,1000,92628767,1571,1571,1583,1583
75350681,1000,1000,1000,1000,92728727,1573,1573,1584,1583
75353180,1000,1000,1000,1000,92828687,1574,1574,1583,1583
75355679,1000,1000,1000,1000,92928647,1575,1575,1582,1581
75358178,1000,1000,1000,1000,93028607,1576,1576,1580,1580
75360677,1000,1000,1000,1000,93128567,1578,1578,1579,1579
75363176,1000,1000,1000,1000,93228527,1579,1579,1578,1578
75365675,1000,1000,1000,1000,93328487,1580,1580,1578,1578
75368174,1000,1000,1000,1000,93428447,1581,1580,1577,1577
75370673,1000,1000,1000,1000,93528407,1581,1581,1577,1577
75373172,1000,1000,1000,1000,93628367,1581,1581,1577,1577
75375671,1000,1000,1000,1000,93728327,1581,1581,1578,1577
75378170,1000,1000,1000,1000,93828287,1582,1582,1579,1579
75380669,1000,1000,1000,1000,93928247,1581,1581,1579,1579
75383168,1000,1000,1000,1000,94028207,1581,1581,1580,1579
75385667,1000,1000,1000,1000,94128167,1580,1579,1579,1579
75388166,1000,1000,1000,1000,94228960,1580,1580,1580,1580
75390665,1000,1000,1000,1000,94328920,1579,1579,1580,1581
75393164,1000,1000,1000,1000,94428880,1580,1580,1581,1582
75395663,1000,1000,1000,1000,94528840,1580,1580,1582,1582
75398162,1000,1000,1000,1000,94628800,1579,1579,1581,1581
75400661,1000,1000,1000,1000,94728760,1578,1579,1580,1580
75403160,1000,1000,1000,1000,94828720,1580,1580,1581,1581
75405659,1000,1000,1000,1000,94928680,1580,1580,1580,1581
75408158,1000,1000,1000,1000,95028640,1597,1576,1596,1577
75410657,1000,1000,1000,1000,95128600,1600,1580,1601,1579
75413156,1000,1000,1000,1000,95228560,1602,1588,1606,1582
75415655,1000,1000,1000,1000,95328520,1598,1594,1602,1579
75418154,1000,1000,1000,1000,95428480,1590,1595,1587,1579
75421486,1000,1000,1000,1000,95528440,1583,1592,1572,1579
75423985,1000,1000,1000,1000,95628400,1578,1588,1561,1576
75426484,1000,1000,1000,1000,95728360,1575,1582,1554,1569
75428983,1000,1000,1000,1000,95828320,1576,1580,1553,1561
75431482,1000,1000,1000,1000,95928280,1580,1578,1553,1556
75433981,1000,1000,1000,1000,96028240,1581,1578,1555,1552
75436480,1000,1000,1000,1000,96128200,1582,1579,1555,1550
75438979,1000,1000,1000,1000,96228160,1581,1579,1554,1550
75441478,1000,1000,1000,1000,96328953,1579,1579,1553,1550
75443977,1000,1000,1000,1000,96428913,1576,1578,1550,1550
75446476,1000,1000,1000,1000,96528873,1577,1579,1550,1551
75448975,1000,1000,1000,1000,96628833,1576,1578,1548,1549
75451474,1000,1000,1000,1000,96728793,1577,1579,1547,1549
75453973,1000,1000,1000,1000,96828753,1579,1581,1547,1547
75456472,1000,1000,1000,1000,96928713,1581,1582,1545,1545
75458971,1000,1000,1000,1000,97028673,1584,1585,1544,1544
75461470,1000,1000,1000,1000,97128633,1586,1586,1543,1542
75463969,1000,1000,1000,1000,97228593,1588,1588,1542,1541
75466468,1000,1000,1000,1000,97328553,1589,1589,1539,1540
75468967,1000,1000,1000,1000,97428513,1590,1591,1538,1540
75471466,1000,1000,1000,1000,97528473,1590,1590,1538,1541
75473965,1000,1000,1000,1000,97628433,1591,1590,1543,1545
75476464,1000,1000,1000,1000,97728393,1588,1585,1548,1551
75478963,1000,1000,1000,1000,97828353,1582,1578,1556,1558
75481462,1000,1000,1000,1000,97928313,1575,1571,1566,1568
75483961,1000,1000,1000,1000,98028273,1565,1561,1576,1577
75486460,1000,1000,1000,1000,98128233,1555,1552,1587,1588
75488959,1000,1000,1000,1000,98228193,1546,1545,1597,1597
75491458,1000,1000,1000,1000,98328986,1539,1539,1604,1604
75493957,1000,1000,1000,1000,98428946,1536,1537,1609,1608
75496456,1000,1000,1000,1000,98528906,1535,1537,1610,1609
75498955,1000,1000,1000,1000,98628866,1538,1539,1608,1608
75501454,1000,1000,1000,1000,98728826,1543,1545,1605,1605
75503953,1000,1000,1000,1000,98828786,1550,1552,1601,1600
75506452,1000,1000,1000,1000,98928746,1558,1559,1595,1594
75508951,1000,1000,1000,1000,99028706,1566,1566,1588,1587
75511450,1000,1000,1000,1000,99128666,1572,1572,1582,1581
75513949,1000,1000,1000,1000,99228626,1578,1577,1576,1576
75516448,1000,1000,1000,1000,99328586,1582,1581,1572,1572
75518947,1000,1000,1000,1000,99428546,1585,1583,1569,1570
75521446,1000,1000,1000,1000,99528506,1586,1584,1568,1568
75523945,1000,1000,1000,1000,99628466,1585,1585,1568,1569
75526444,1000,1000,1000,1000,99728426,1584,1584,1570,1570
75528943,1000,1000,1000,1000,99828386,1583,1582,1573,1572
75531442,1000,1000,1000,1000,99928346,1580,1580,1574,1574
75533941,1000,1000,1000,1000,100028306,1579,1579,1578,1578
75536440,1000,1000,1000,1000,100128266,1577,1577,1580,1580
75538939,1000,1000,1000,1000,100228226,1575,1576,1582,1581
75541438,1000,1000,1000,1000,100328186,1574,1575,1584,1583
75543937,1000,1000,1000,1000,100428979,1574,1575,1584,1584
75546436,1000,1000,1000,1000,100528939,1574,1575,1585,1585
75548935,1000,1000,1000,1000,100628899,1574,1574,1583,1583
75551434,1000,1000,1000,1000,100728859,1575,1576,1582,1582
75553933,1000,1000,1000,1000,100828819,1576,1577,1582,1581
75556432,1000,1000,1000,1000,100928779,1578,1578,1581,1581
75558931,1000,1000,1000,1000,101028739,1579,1579,1580,1580
75561430,1000,1000,1000,1000,101128699,1579,1579,1578,1579
75563929,1000,1000,1000,1000,101228659,1581,1580,1577,1578
75566428,1000,1000,1000,1000,101328619,1582,1581,1578,1578
75568927,1000,1000,1000,1000,101428579,1582,1581,1578,1577
75571426,1000,1000,1000,1000,101528539,1582,1581,1578,1578
75573925,1000,1000,1000,1000,101628499,1582,1582,1579,1579
75576424,1000,1000,1000,1000,101728459,1581,1581,1579,1579
75578923,1000,1000,1000,1000,101828419,1582,1582,1580,1580
75581422,1000,1000,1000,1000,101928379,1580,1580,1580,1580
75583921,1000,1000,1000,1000,102028339,1579,1579,1580,1579
75586420,1000,1000,1000,1000,102128299,1580,1579,1580,1580
75588919,1000,1000,1000,1000,102228259,1580,1580,1581,1581
75591418,1000,1000,1000,1000,102328219,1579,1579,1580,1581
75593917,1000,1000,1000,1000,102428179,1579,1579,1581,1580
75596416,1000,1000,1000,1000,102528972,1580,1580,1581,1581
75598915,1000,1000,1000,1000,102628932,1580,1580,1581,1581
75601414,1000,1000,1000,1000,102728892,1581,1580,1581,1581
75603913,1000,1000,1000,1000,102828852,1581,1581,1582,1581
75606412,1000,1000,1000,1000,102928812,1581,1582,1582,1581
75608911,1000,1000,1000,1000,103028772,1581,1581,1581,1581
75611410,1000,1000,1000,1000,103128732,1581,1581,1580,1581
75613909,1000,1000,1000,1000,103228692,1581,1581,1580,1580
75616408,1000,1000,1000,1000,103328652,1582,1582,1583,1579
75618907,1000,1000,1000,1000,103428612,1581,1583,1588,1573
75621406,1000,1000,1000,1000,103528572,1581,1583,1583,1573
75623905,1000,1000,1000,1000,103628532,1578,1581,1573,1572
75626404,1000,1000,1000,1000,103728492,1577,1581,1566,1571
75628903,1000,1000,1000,1000,103828452,1577,1579,1559,1566
75631402,1000,1000,1000,1000,103928412,1579,1579,1556,1562
75633901,1000,1000,1000,1000,104028372,1580,1579,1555,1558
75636400,1000,1000,1000,1000,104128332,1581,1579,1556,1556
75638899,1000,1000,1000,1000,104228292,1581,1579,1557,1554
75641398,1000,1000,1000,1000,104328252,1579,1579,1556,1554
75643897,1000,1000,1000,1000,104428212,1578,1578,1556,1553
75646396,1000,1000,1000,1000,104528172,1577,1579,1556,1555
75648895,1000,1000,1000,1000,104628965,1576,1578,1555,1554
75651394,1000,1000,1000,1000,104728925,1575,1576,1553,1554
75653893,1000,1000,1000,1000,104828885,1576,1577,1552,1553
75656392,1000,1000,1000,1000,104928845,1577,1578,1550,1551
75658891,1000,1000,1000,1000,105028805,1578,1580,1548,1548
75661390,1000,1000,1000,1000,105128765,1581,1583,1546,1546
75663889,1000,1000,1000,1000,105228725,1584,1585,1543,1543
75666388,1000,1000,1000,1000,105328685,1587,1587,1542,1541
75668887,1000,1000,1000,1000,105428645,1589,1589,1540,1539
75671386,1000,1000,1000,1000,105528605,1592,1591,1539,1539
75673885,1000,1000,1000,1000,105628565,1592,1593,1537,1539
75676384,1000,1000,1000,1000,105728525,1593,1593,1537,1539
75678883,1000,1000,1000,1000,105828485,1593,1593,1539,1541
75681382,1000,1000,1000,1000,105928445,1590,1589,1543,1545
75683881,1000,1000,1000,1000,106028405,1587,1585,1549,1552
75686380,1000,1000,1000,1000,106128365,1581,1577,1558,1561
75688879,1000,1000,1000,1000,106228325,1572,1567,1568,1571
75691378,1000,1000,1000,1000,106328285,1562,1558,1581,1582
75693877,1000,1000,1000,1000,106428245,1551,1548,1591,1592
75696376,1000,1000,1000,1000,106528205,1542,1541,1601,1601
75698875,1000,1000,1000,1000,106628165,1535,1536,1608,1606
75701374,1000,1000,1000,1000,106728958,1532,1534,1612,1610
75703873,1000,1000,1000,1000,106828918,1534,1536,1613,1612
75706372,1000,1000,1000,1000,106928878,1537,1539,1610,1609
75708871,1000,1000,1000,1000,107028838,1543,1545,1605,1606
75711370,1000,1000,1000,1000,107128798,1551,1553,1601,1600
75713869,1000,1000,1000,1000,107228758,1559,1558,1592,1592
75716368,1000,1000,1000,1000,107328718,1567,1566,1586,1585
75718867,1000,1000,1000,1000,107428678,1573,1573,1579,1578
75721366,1000,1000,1000,1000,107528638,1580,1579,1574,1574
75723865,1000,1000,1000,1000,107628598,1584,1582,1570,1570
75726364,1000,1000,1000,1000,107728558,1587,1585,1568,1568
75728863,1000,1000,1000,1000,107828518,1587,1586,1567,1568
75731362,1000,1000,1000,1000,107928478,1587,1585,1568,1569
75733861,1000,1000,1000,1000,108028438,1585,1584,1570,1570
75736360,1000,1000,1000,1000,108128398,1582,1582,1572,1572
75738859,1000,1000,1000,1000,108228358,1579,1580,1575,1574
75741358,1000,1000,1000,1000,108328318,1577,1578,1578,1578
75743857,1000,1000,1000,1000,108428278,1575,1576,1580,1580
75746356,1000,1000,1000,1000,108528238,1574,1574,1582,1582
75748855,1000,1000,1000,1000,108628198,1572,1573,1583,1583
75751354,1000,1000,1000,1000,108728158,1573,1573,1583,1584
75753853,1000,1000,1000,1000,108828951,1573,1574,1584,1583
75756352,1000,1000,1000,1000,108928911,1574,1574,1582,1582
75758851,1000,1000,1000,1000,109028871,1575,1576,1582,1583
75761350,1000,1000,1000,1000,109128831,1577,1577,1581,1581
75763849,1000,1000,1000,1000,109228791,1578,1578,1580,1580
75766348,1000,1000,1000,1000,109328751,1579,1579,1579,1579
75768847,1000,1000,1000,1000,109428711,1580,1580,1578,1579
75771346,1000,1000,1000,1000,109528671,1581,1581,1578,1579
75773845,1000,1000,1000,1000,109628631,1581,1581,1577,1577
75776344,1000,1000,1000,1000,109728591,1582,1582,1577,1578
75778843,1000,1000,1000,1000,109828551,1582,1581,1577,1578
75781342,1000,1000,1000,1000,109928511,1581,1580,1578,1577
75783841,1000,1000,1000,1000,110028471,1582,1581,1579,1579
75786340,1000,1000,1000,1000,110128431,1581,1581,1580,1580
75788839,1000,1000,1000,1000,110228391,1581,1581,1581,1580
75791338,1000,1000,1000,1000,110328351,1580,1580,1580,1581
75793837,1000,1000,1000,1000,110428311,1580,1580,1581,1581
75796336,1000,1000,1000,1000,110528271,1579,1579,1581,1581
75798835,1000,1000,1000,1000,110628231,1580,1580,1582,1582
75801334,1000,1000,1000,1000,110728191,1580,1581,1582,1582
75803833,1000,1000,1000,1000,110828984,1579,1579,1581,1580
75806332,1000,1000,1000,1000,110928944,1580,1580,1581,1581
75808831,1000,1000,1000,1000,111028904,1580,1580,1581,1581
75811330,1000,1000,1000,1000,111128864,1581,1580,1581,1581
75813829,1000,1000,1000,1000,111228824,1581,1580,1580,1580
75816328,1000,1000,1000,1000,111328784,1582,1583,1588,1575
75818827,1000,1000,1000,1000,111428744,1581,1582,1586,1573
75821326,1000,1000,1000,1000,111528704,1578,1579,1579,1574
75823825,1000,1000,1000,1000,111628664,1575,1574,1571,1574
75826324,1000,1000,1000,1000,111728624,1573,1572,1567,1575
75828823,1000,1000,1000,1000,111828584,1570,1569,1565,1572
75831322,1000,1000,1000,1000,111928544,1568,1567,1564,1569
75833821,1000,1000,1000,1000,112028504,1567,1567,1566,1567
75836320,1000,1000,1000,1000,112128464,1566,1567,1567,1566
75838819,1000,1000,1000,1000,112228424,1566,1566,1568,1565
75841318,1000,1000,1000,1000,112328384,1564,1564,1566,1563
75843817,1000,1000,1000,1000,112428344,1563,1563,1565,1562
75846316,1000,1000,1000,1000,112528304,1563,1563,1564,1563
75848815,1000,1000,1000,1000,112628264,1562,1562,1562,1563
75851314,1000,1000,1000,1000,112728224,1562,1562,1562,1563
75853813,1000,1000,1000,1000,112828184,1561,1561,1562,1562
75856312,1000,1000,1000,1000,112928977,1561,1562,1561,1562
75858811,1000,1000,1000,1000,113028937,1562,1561,1562,1561
75861310,1000,1000,1000,1000,113128897,1561,1561,1561,1560
75863809,1000,1000,1000,1000,113228857,1561,1560,1561,1559
75866308,1000,1000,1000,1000,113328817,1559,1560,1560,1559
75868807,1000,1000,1000,1000,113428777,1558,1559,1559,1558
75871306,1000,1000,1000,1000,113528737,1558,1558,1558,1557
75873805,1000,1000,1000,1000,113628697,1558,1558,1558,1557
75876304,1000,1000,1000,1000,113728657,1558,1558,1558,1557
75878803,1000,1000,1000,1000,113828617,1559,1558,1559,1557
75881302,1000,1000,1000,1000,113928577,1558,1558,1560,1557
75883801,1000,1000,1000,1000,114028537,1559,1559,1561,1557
75886300,1000,1000,1000,1000,114128497,1559,1559,1559,1560
75888799,1000,1000,1000,1000,114228457,1560,1560,1558,1563
75891298,1000,1000,1000,1000,114328417,1560,1560,1557,1564
75893797,1000,1000,1000,1000,114428377,1562,1562,1560,1565
75896296,1000,1000,1000,1000,114528337,1563,1562,1560,1564
75898795,1000,1000,1000,1000,114628297,1564,1563,1563,1564
75901294,1000,1000,1000,1000,114728257,1564,1564,1564,1563
75903793,1000,1000,1000,1000,114828217,1563,1563,1564,1562
75906292,1000,1000,1000,1000,114928177,1559,1560,1558,1560
75908791,1000,1000,1000,1000,115028970,1555,1555,1554,1556
75911290,1000,1000,1000,1000,115128930,1550,1550,1549,1551
75913789,1000,1000,1000,1000,115228890,1544,1544,1544,1544
75916288,1000,1000,1000,1000,115328850,1538,1537,1537,1538
75918787,1000,1000,1000,1000,115428810,1531,1531,1531,1531
75921286,1000,1000,1000,1000,115528770,1524,1524,1524,1523
75923785,1000,1000,1000,1000,115628730,1521,1521,1521,1521
75926284,1000,1000,1000,1000,115728690,1520,1520,1520,1520
75928783,1000,1000,1000,1000,115828650,1521,1521,1521,1521
75931282,1000,1000,1000,1000,115928610,1523,1523,1523,1524
75933781,1000,1000,1000,1000,116028570,1525,1526,1525,1526
75936280,1000,1000,1000,1000,116128530,1531,1530,1530,1531
75938779,1000,1000,1000,1000,116228490,1536,1535,1535,1535
75941278,1000,1000,1000,1000,116328450,1538,1538,1538,1538
75943777,1000,1000,1000,1000,116428410,1541,1541,1541,1541
75946276,1000,1000,1000,1000,116528370,1543,1543,1543,1543
75948775,1000,1000,1000,1000,116628330,1545,1545,1545,1545
75951274,1000,1000,1000,1000,116728290,1546,1546,1546,1545
75953773,1000,1000,1000,1000,116828250,1545,1546,1546,1545
75956272,1000,1000,1000,1000,116928210,1546,1546,1546,1546
75958771,1000,1000,1000,1000,117028170,1546,1546,1546,1546
75961270,1000,1000,1000,1000,117128963,1546,1546,1546,1545
75963769,1000,1000,1000,1000,117228923,1546,1546,1546,1546
75966268,1000,1000,1000,1000,117328883,1546,1546,1546,1546
75968767,1000,1000,1000,1000,117428843,1545,1545,1545,1545
75971266,1000,1000,1000,1000,117528803,1545,1545,1545,1545
75973765,1000,1000,1000,1000,117628763,1544,1544,1545,1544
75976264,1000,1000,1000,1000,117728723,1545,1545,1545,1545
75978763,1000,1000,1000,1000,117828683,1544,1545,1545,1544
75981262,1000,1000,1000,1000,117928643,1545,1545,1545,1545
75983761,1000,1000,1000,1000,118028603,1545,1545,1545,1545
75986260,1000,1000,1000,1000,118128563,1544,1544,1544,1544
75988759,1000,1000,1000,1000,118228523,1543,1543,1543,1543
75991258,1000,1000,1000,1000,118328483,1544,1544,1544,1544
75993757,1000,1000,1000,1000,118428443,1544,1544,1544,1544
75996256,1000,1000,1000,1000,118528403,1544,1544,1544,1543
75998755,1000,1000,1000,1000,118628363,1544,1544,1544,1544
76001254,1000,1000,1000,1000,118728323,1543,1543,1543,1543
76003753,1000,1000,1000,1000,118828283,1543,1544,1544,1543
76006252,1000,1000,1000,1000,118928243,1542,1542,1542,1542
76008751,1000,1000,1000,1000,119028203,1543,1543,1543,1544
76011250,1000,1000,1000,1000,119128163,1543,1543,1543,1543
76013749,1000,1000,1000,1000,119228956,1544,1543,1543,1543
76016248,1000,1000,1000,1000,119328916,1544,1544,1544,1544
76018747,1000,1000,1000,1000,119428876,1543,1543,1543,1543
76021246,1000,1000,1000,1000,119528836,1544,1543,1543,1544
76023745,1000,1000,1000,1000,119628796,1544,1544,1544,1544
76026244,1000,1000,1000,1000,119728756,1544,1543,1544,1543
76028743,1000,1000,1000,1000,119828716,1544,1544,1544,1544
76031242,1000,1000,1000,1000,119928676,1544,1545,1545,1545
76033741,1000,1000,1000,1000,120028636,1544,1544,1544,1544
76036240,1000,1000,1000,1000,120128596,1546,1545,1545,1545
76038739,1000,1000,1000,1000,120228556,1544,1545,1544,1545
76041238,1000,1000,1000,1000,120328516,1544,1544,1544,1544
76043737,1000,1000,1000,1000,120428476,1545,1545,1545,1545
76046236,1000,1000,1000,1000,120528436,1544,1544,1544,1543
76048735,1000,1000,1000,1000,120628396,1544,1544,1545,1544
76051234,1000,1000,1000,1000,120728356,1544,1544,1544,1544
76053733,1000,1000,1000,1000,120828316,1544,1544,1544,1544
76056232,1000,1000,1000,1000,120928276,1545,1544,1544,1545
76058731,1000,1000,1000,1000,121028236,1544,1545,1544,1544
76061230,1000,1000,1000,1000,121128196,1543,1543,1543,1543
76063729,1000,1000,1000,1000,121228156,1543,1544,1544,1543
76066228,1000,1000,1000,1000,121328949,1544,1544,1544,1544
76068727,1000,1000,1000,1000,121428909,1544,1544,1544,1544
76071226,1000,1000,1000,1000,121528869,1545,1545,1545,1545
76073725,1000,1000,1000,1000,121628829,1544,1544,1544,1544
76076224,1000,1000,1000,1000,121728789,1545,1545,1545,1545
76078723,1000,1000,1000,1000,121828749,1545,1545,1545,1545
76081222,1000,1000,1000,1000,121928709,1545,1544,1544,1544
76083721,1000,1000,1000,1000,122028669,1545,1545,1545,1545
76086220,1000,1000,1000,1000,122128629,1544,1544,1544,1544
76088719,1000,1000,1000,1000,122228589,1544,1544,1544,1544
76091218,1000,1000,1000,1000,122328549,1545,1544,1544,1545
76093717,1000,1000,1000,1000,122428509,1544,1545,1545,1544
76096216,1000,1000,1000,1000,122528469,1545,1544,1544,1545
76098715,1000,1000,1000,1000,122628429,1545,1545,1545,1545
76101214,1000,1000,1000,1000,122728389,1545,1545,1545,1545
76103713,1000,1000,1000,1000,122828349,1544,1544,1544,1544
76106212,1000,1000,1000,1000,122928309,1545,1545,1545,1545
76108711,1000,1000,1000,1000,123028269,1544,1544,1544,1544
76111210,1000,1000,1000,1000,123128229,1544,1544,1544,1544
76113709,1000,1000,1000,1000,123228189,1544,1544,1544,1544
76116208,1000,1000,1000,1000,123328982,1544,1544,1544,1544
76118707,1000,1000,1000,1000,123428942,1544,1545,1545,1544
76121206,1000,1000,1000,1000,123528902,1545,1545,1545,1545
76123705,1000,1000,1000,1000,123628862,1544,1545,1544,1544
76126204,1000,1000,1000,1000,123728822,1545,1545,1545,1545
76128703,1000,1000,1000,1000,123828782,1544,1545,1545,1545
76131202,1000,1000,1000,1000,123928742,1545,1545,1544,1545
76133701,1000,1000,1000,1000,124028702,1544,1544,1544,1544
76136200,1000,1000,1000,1000,124128662,1544,1544,1544,1544
76138699,1000,1000,1000,1000,124228622,1544,1544,1544,1544
76141198,1000,1000,1000,1000,124328582,1545,1544,1544,1545
76143697,1000,1000,1000,1000,124428542,1545,1545,1545,1545
76146196,1000,1000,1000,1000,124528502,1544,1545,1544,1545
76148695,1000,1000,1000,1000,124628462,1544,1545,1544,1544
76151194,1000,1000,1000,1000,124728422,1545,1544,1544,1545
76153693,1000,1000,1000,1000,124828382,1544,1544,1544,1544
76156192,1000,1000,1000,1000,124928342,1544,1544,1544,1545
76158691,1000,1000,1000,1000,125028302,1543,1544,1544,1543
76161190,1000,1000,1000,1000,125128262,1544,1543,1544,1544
76163689,1000,1000,1000,1000,125228222,1545,1545,1545,1545
76166188,1000,1000,1000,1000,125328182,1522,1519,1522,1520
76168687,1000,1000,1000,1000,125428975,1344,1334,1345,1333
76171186,1000,1000,1000,1000,125528935,1260,1242,1260,1243
76173685,1000,1000,1000,1000,125628895,1234,1214,1235,1213
76176184,1000,1000,1000,1000,125728855,1212,1188,1212,1188
76178683,1000,1000,1000,1000,125828815,1179,1150,1180,1150
76181182,1000,1000,1000,1000,125928775,1178,1150,1179,1150
76183681,1000,1000,1000,1000,126028735,1178,1151,1180,1150
76186180,1000,1000,1000,1000,126128695,1218,1150,1179,1194
76188679,1000,1000,1000,1000,126228655,1205,1150,1179,1180
76191178,1000,1000,1000,1000,126328615,1200,1150,1179,1175
76193677,1000,1000,1000,1000,126428575,1200,1150,1179,1175
76196176,1000,1000,1000,1000,126528535,1202,1150,1179,1178
76198675,1000,1000,1000,1000,126628495,1204,1150,1179,1179
76201174,1000,1000,1000,1000,126728455,1207,1150,1179,1183
76203673,1000,1000,1000,1000,126828415,1208,1150,1180,1184
76206172,1000,1000,1000,1000,126928375,1194,1150,1180,1167
76208671,1000,1000,1000,1000,127028335,1195,1150,1180,1169
76211170,1000,1000,1000,1000,127128295,1196,1150,1180,1170
76213669,1000,1000,1000,1000,127228255,1197,1150,1180,1171
76216168,1000,1000,1000,1000,127328215,1198,1150,1180,1172
76218667,1000,1000,1000,1000,127428175,1000,1000,1000,1000
76221166,1000,1000,1000,1000,127528968,1000,1000,1000,1000
76223665,1000,1000,1000,1000,127628928,1000,1000,1000,1000
76226164,1000,1000,1000,1000,127728888,1000,1000,1000,1000
76228663,1000,1000,1000,1000,127828848,1000,1000,1000,1000
76231162,1000,1000,1000,1000,127928808,1000,1000,1000,1000
76233661,1000,1000,1000,1000,128028768,1000,1000,1000,1000
76236160,1000,1000,1000,1000,128128728,1000,1000,1000,1000
76238659,1000,1000,1000,1000,128228688,1000,1000,1000,1000
76241158,1000,1000,1000,1000,128328648,1000,1000,1000,1000
76243657,1000,1000,1000,1000,128428608,1000,1000,1000,1000
76246156,1000,1000,1000,1000,128528568,1000,1000,1000,1000
76248655,1000,1000,1000,1000,128628528,1000,1000,1000,1000
76251154,1000,1000,1000,1000,128728488,1000,1000,1000,1000
76253653,1000,1000,1000,1000,128828448,1000,1000,1000,1000
76256152,1000,1000,1000,1000,128928408,1000,1000,1000,1000
76258651,1000,1000,1000,1000,129028368,1000,1000,1000,1000
76261150,1000,1000,1000,1000,129128328,1000,1000,1000,1000
76263649,1000,1000,1000,1000,129228288,1000,1000,1000,1000
76266148,1000,1000,1000,1000,129328248,1000,1000,1000,1000
76268647,1000,1000,1000,1000,129428208,1000,1000,1000,1000
76271146,1000,1000,1000,1000,129528168,1000,1000,1000,1000
76273645,1000,1000,1000,1000,129628961,1000,1000,1000,1000
76276144,1000,1000,1000,1000,129728921,1000,1000,1000,1000
76278643,1000,1000,1000,1000,129828881,1000,1000,1000,1000
76281142,1000,1000,1000,1000,129928841,1000,1000,1000,1000
76283641,1000,1000,1000,1000,130028801,1000,1000,1000,1000
76286140,1000,1000,1000,1000,130128761,1000,1000,1000,1000
76288639,1000,1000,1000,1000,130228721,1000,1000,1000,1000
76291138,1000,1000,1000,1000,130328681,1000,1000,1000,1000
76293637,1000,1000,1000,1000,130428641,1000,1000,1000,1000
76296136,1000,1000,1000,1000,130528601,1000,1000,1000,1000
76298635,1000,1000,1000,1000,130628561,1000,1000,1000,1000
76301134,1000,1000,1000,1000,130728521,1000,1000,1000,1000
76303633,1000,1000,1000,1000,130828481,1000,1000,1000,1000
76306132,1000,1000,1000,1000,130928441,1000,1000,1000,1000
76308631,1000,1000,1000,1000,131028401,1000,1000,1000,1000
76311130,1000,1000,1000,1000,131128361,1000,1000,1000,1000
76313629,1000,1000,1000,1000,131228321,1000,1000,1000,1000
76316128,1000,1000,1000,1000,131328281,1000,1000,1000,1000
76318627,1000,1000,1000,1000,131428241,1000,1000,1000,1000
76321126,1000,1000,1000,1000,131528201,1000,1000,1000,1000
76323625,1000,1000,1000,1000,131628161,1000,1000,1000,1000
76326124,1000,1000,1000,1000,131728954,1000,1000,1000,1000
76328623,1000,1000,1000,1000,131828914,1000,1000,1000,1000
76331122,1000,1000,1000,1000,131928874,1000,1000,1000,1000
76333621,1000,1000,1000,1000,132028834,1000,1000,1000,1000
76336120,1000,1000,1000,1000,132128794,1000,1000,1000,1000
76338619,1000,1000,1000,1000,132228754,1000,1000,1000,1000
76341118,1000,1000,1000,1000,132328714,1000,1000,1000,1000
76343617,1000,1000,1000,1000,132428674,1000,1000,1000,1000
76346116,1000,1000,1000,1000,132528634,1000,1000,1000,1000
76348615,1000,1000,1000,1000,132628594,1000,1000,1000,1000
76351114,1000,1000,1000,1000,132728554,1000,1000,1000,1000
76353613,1000,1000,1000,1000,132828514,1000,1000,1000,1000
76356112,1000,1000,1000,1000,132928474,1000,1000,1000,1000
76358611,1000,1000,1000,1000,133028434,1000,1000,1000,1000
76361110,1000,1000,1000,1000,133128394,1000,1000,1000,1000
76363609,1000,1000,1000,1000,133228354,1000,1000,1000,1000
76366108,1000,1000,1000,1000,133328314,1000,1000,1000,1000
76368607,1000,1000,1000,1000,133428274,1000,1000,1000,1000
76371106,1000,1000,1000,1000,133528234,1000,1000,1000,1000
76373605,1000,1000,1000,1000,133628194,1000,1000,1000,1000
76376104,1000,1000,1000,1000,133728154,1000,1000,1000,1000
76378603,1000,1000,1000,1000,133828947,1000,1000,1000,1000
76381102,1000,1000,1000,1000,133928907,1000,1000,1000,1000
76383601,1000,1000,1000,1000,134028867,1000,1000,1000,1000
76386100,1000,1000,1000,1000,134128827,1000,1000,1000,1000
76388599,1000,1000,1000,1000,134228787,1000,1000,1000,1000
76391098,1000,1000,1000,1000,134328747,1000,1000,1000,1000
76393597,1000,1000,1000,1000,134428707,1000,1000,1000,1000
76396096,1000,1000,1000,1000,134528667,1000,1000,1000,1000
76398595,1000,1000,1000,1000,134628627,1000,1000,1000,1000
76401094,1000,1000,1000,1000,134728587,1000,1000,1000,1000
76403593,1000,1000,1000,1000,134828547,1000,1000,1000,1000
76406092,1000,1000,1000,1000,134928507,1000,1000,1000,1000
76408591,1000,1000,1000,1000,135028467,1000,1000,1000,1000
76411090,1000,1000,1000,1000,135128427,1000,1000,1000,1000
76413589,1000,1000,1000,1000,135228387,1000,1000,1000,1000
76416088,1000,1000,1000,1000,135328347,1000,1000,1000,1000
76418587,1000,1000,1000,1000,135428307,1000,1000,1000,1000
76421086,1000,1000,1000,1000,135528267,1000,1000,1000,1000
76423585,1000,1000,1000,1000,135628227,1000,1000,1000,1000
76426084,1000,1000,1000,1000,135728187,1000,1000,1000,1000
76428583,1000,1000,1000,1000,135828980,1000,1000,1000,1000
76431082,1000,1000,1000,1000,135928940,1000,1000,1000,1000
76433581,1000,1000,1000,1000,136028900,1000,1000,1000,1000
76436080,1000,1000,1000,1000,136128860,1000,1000,1000,1000
76438579,1000,1000,1000,1000,136228820,1000,1000,1000,1000
76441078,1000,1000,1000,1000,136328780,1000,1000,1000,1000
76443577,1000,1000,1000,1000,136428740,1000,1000,1000,1000
76446076,1000,1000,1000,1000,136528700,1000,1000,1000,1000
76448575,1000,1000,1000,1000,136628660,1000,1000,1000,1000
76451074,1000,1000,1000,1000,136728620,1000,1000,1000,1000
76453573,1000,1000,1000,1000,136828580,1000,1000,1000,1000
76456072,1000,1000,1000,1000,136928540,1000,1000,1000,1000
76458571,1000,1000,1000,1000,137028500,1000,1000,1000,1000
76461070,1000,1000,1000,1000,137128460,1000,1000,1000,1000
76463569,1000,1000,1000,1000,137228420,1000,1000,1000,1000
76466068,1000,1000,1000,1000,137328380,1000,1000,1000,1000
76468567,1000,1000,1000,1000,137428340,1000,1000,1000,1000
76471066,1000,1000,1000,1000,137528300,1000,1000,1000,1000
76473565,1000,1000,1000,1000,137628260,1000,1000,1000,1000
76476064,1000,1000,1000,1000,137728220,1000,1000,1000,1000
76478563,1000,1000,1000,1000,137828180,1000,1000,1000,1000
76481062,1000,1000,1000,1000,137928973,1000,1000,1000,1000
76483561,1000,1000,1000,1000,138028933,1000,1000,1000,1000
76486060,1000,1000,1000,1000,138128893,1000,1000,1000,1000
76488559,1000,1000,1000,1000,138228853,1000,1000,1000,1000
76491058,1000,1000,1000,1000,138328813,1000,1000,1000,1000
76493557,1000,1000,1000,1000,138428773,1000,1000,1000,1000
76496056,1000,1000,1000,1000,138528733,1000,1000,1000,1000
76498555,1000,1000,1000,1000,138628693,1000,1000,1000,1000
76501054,1000,1000,1000,1000,138728653,1000,1000,1000,1000
76503553,1000,1000,1000,1000,138828613,1000,1000,1000,1000
76506052,1000,1000,1000,1000,138928573,1000,1000,1000,1000
76508551,1000,1000,1000,1000,139028533,1000,1000,1000,1000
76511050,1000,1000,1000,1000,139128493,1000,1000,1000,1000
76513549,1000,1000,1000,1000,139228453,1000,1000,1000,1000
76516048,1000,1000,1000,1000,139328413,1000,1000,1000,1000
76518547,1000,1000,1000,1000,139428373,1000,1000,1000,1000
76521046,1000,1000,1000,1000,139528333,1000,1000,1000,1000
76523545,1000,1000,1000,1000,139628293,1000,1000,1000,1000
76526044,1000,1000,1000,1000,139728253,1000,1000,1000,1000
76528543,1000,1000,1000,1000,139828213,1000,1000,1000,1000
76531042,1000,1000,1000,1000,139928173,1000,1000,1000,1000
76533541,1000,1000,1000,1000,140028966,1000,1000,1000,1000
76536040,1000,1000,1000,1000,140128926,1000,1000,1000,1000
76538539,1000,1000,1000,1000,140228886,1000,1000,1000,1000
76541038,1000,1000,1000,1000,140328846,1000,1000,1000,1000
76543537,1000,1000,1000,1000,140428806,1000,1000,1000,1000
76546036,1000,1000,1000,1000,140528766,1000,1000,1000,1000
76548535,1000,1000,1000,1000,140628726,1000,1000,1000,1000
76551034,1000,1000,1000,1000,140728686,1000,1000,1000,1000
76553533,1000,1000,1000,1000,140828646,1000,1000,1000,1000
76556032,1000,1000,1000,1000,140928606,1000,1000,1000,1000
76558531,1000,1000,1000,1000,141028566,1000,1000,1000,1000
76561030,1000,1000,1000,1000,141128526,1000,1000,1000,1000
76563529,1000,1000,1000,1000,141228486,1000,1000,1000,1000
76566028,1000,1000,1000,1000,141328446,1000,1000,1000,1000
76568527,1000,1000,1000,1000,141428406,1000,1000,1000,1000
76571026,1000,1000,1000,1000,141528366,1000,1000,1000,1000
76573525,1000,1000,1000,1000,141628326,1000,1000,1000,1000
76576024,1000,1000,1000,1000,141728286,1000,1000,1000,1000
76578523,1000,1000,1000,1000,141828246,1000,1000,1000,1000
76581022,1000,1000,1000,1000,141928206,1000,1000,1000,1000
76583521,1000,1000,1000,1000,142028166,1000,1000,1000,1000
76586020,1000,1000,1000,1000,142128959,1000,1000,1000,1000
76588519,1000,1000,1000,1000,142228919,1000,1000,1000,1000
76591018,1000,1000,1000,1000,142328879,1000,1000,1000,1000
76593517,1000,1000,1000,1000,,,,,
76596016,1000,1000,1000,1000,,,,,
76598515,1000,1000,1000,1000,,,,,
76601014,1000,1000,1000,1000,,,,,
76603513,1000,1000,1000,1000,,,,,
76606012,1000,1000,1000,1000,,,,,
76608511,1000,1000,1000,1000,,,,,
76611010,1000,1000,1000,1000,,,,,
76613509,1000,1000,1000,1000,,,,,
76616008,1000,1000,1000,1000,,,,,
76618507,1000,1000,1000,1000,,,,,
76621006,1000,1000,1000,1000,,,,,
76623505,1000,1000,1000,1000,,,,,
76626004,1000,1000,1000,1000,,,,,
76628503,1000,1000,1000,1000,,,,,
76631002,1000,1000,1000,1000,,,,,
76633501,1000,1000,1000,1000,,,,,
76636000,1000,1000,1000,1000,,,,,
76638499,1000,1000,1000,1000,,,,,
76640998,1000,1000,1000,1000,,,,,
76643497,1000,1000,1000,1000,,,,,
76645996,1000,1000,1000,1000,,,,,
76648495,1000,1000,1000,1000,,,,,
76650994,1000,1000,1000,1000,,,,,
76653493,1000,1000,1000,1000,,,,,
76655992,1000,1000,1000,1000,,,,,
76658491,1000,1000,1000,1000,,,,,
76660990,1000,1000,1000,1000,,,,,
76663489,1000,1000,1000,1000,,,,,
76665988,1000,1000,1000,1000,,,,,
76668487,1000,1000,1000,1000,,,,,
76670986,1000,1000,1000,1000,,,,,
76673485,1000,1000,1000,1000,,,,,
76675984,1000,1000,1000,1000,,,,,
76678483,1000,1000,1000,1000,,,,,
76680982,1000,1000,1000,1000,,,,,
76683481,1000,1000,1000,1000,,,,,
76685980,1000,1000,1000,1000,,,,,
76688479,1000,1000,1000,1000,,,,,
76690978,1000,1000,1000,1000,,,,,
76693477,1000,1000,1000,1000,,,,,
76695976,1000,1000,1000,1000,,,,,
76698475,1000,1000,1000,1000,,,,,
76700974,1000,1000,1000,1000,,,,,
76703473,1000,1000,1000,1000,,,,,
76705972,1000,1000,1000,1000,,,,,
76708471,1000,1000,1000,1000,,,,,
76710970,1000,1000,1000,1000,,,,,
76713469,1000,1000,1000,1000,,,,,
76715968,1000,1000,1000,1000,,,,,
76718467,1000,1000,1000,1000,,,,,
76720966,1000,1000,1000,1000,,,,,
76723465,1000,1000,1000,1000,,,,,
76725964,1000,1000,1000,1000,,,,,
76728463,1000,1000,1000,1000,,,,,
76730962,1000,1000,1000,1000,,,,,
76733461,1000,1000,1000,1000,,,,,
76735960,1000,1000,1000,1000,,,,,
76738459,1000,1000,1000,1000,,,,,
76740958,1000,1000,1000,1000,,,,,
76743457,1000,1000,1000,1000,,,,,
76745956,1000,1000,1000,1000,,,,,
76748455,1000,1000,1000,1000,,,,,
76750954,1000,1000,1000,1000,,,,,
76753453,1000,1000,1000,1000,,,,,
76755952,1000,1000,1000,1000,,,,,
76758451,1000,1000,1000,1000,,,,,
76760950,1000,1000,1000,1000,,,,,
76763449,1000,1000,1000,1000,,,,,
76765948,1000,1000,1000,1000,,,,,
76768447,1000,1000,1000,1000,,,,,
76770946,1000,1000,1000,1000,,,,,
76773445,1000,1000,1000,1000,,,,,
76775944,1000,1000,1000,1000,,,,,
76778443,1000,1000,1000,1000,,,,,
76780942,1000,1000,1000,1000,,,,,
76783441,1000,1000,1000,1000,,,,,
76785940,1000,1000,1000,1000,,,,,
76788439,1000,1000,1000,1000,,,,,
76790938,1000,1000,1000,1000,,,,,
76793437,1000,1000,1000,1000,,,,,
76795936,1000,1000,1000,1000,,,,,
76798435,1000,1000,1000,1000,,,,,
76800934,1000,1000,1000,1000,,,,,
76803433,1000,1000,1000,1000,,,,,
76805932,1000,1000,1000,1000,,,,,
76808431,1000,1000,1000,1000,,,,,
76810930,1000,1000,1000,1000,,,,,
76813429,1000,1000,1000,1000,,,,,
76815928,1000,1000,1000,1000,,,,,
76818427,1000,1000,1000,1000,,,,,
76820926,1000,1000,1000,1000,,,,,
76823425,1000,1000,1000,1000,,,,,
76825924,1000,1000,1000,1000,,,,,
76828423,1000,1000,1000,1000,,,,,
76830922,1000,1000,1000,1000,,,,,
76833421,1000,1000,1000,1000,,,,,
76835920,1000,1000,1000,1000,,,,,
76838419,1000,1000,1000,1000,,,,,
76840918,1000,1000,1000,1000,,,,,
76843417,1000,1000,1000,1000,,,,,
76845916,1000,1000,1000,1000,,,,,
76848415,1000,1000,1000,1000,,,,,
76850914,1000,1000,1000,1000,,,,,
76853413,1000,1000,1000,1000,,,,,
76855912,1000,1000,1000,1000,,,,,
76858411,1000,1000,1000,1000,,,,,
76860910,1000,1000,1000,1000,,,,,
76863409,1000,1000,1000,1000,,,,,
76865908,1000,1000,1000,1000,,,,,
76868407,1000,1000,1000,1000,,,,,
76870906,1000,1000,1000,1000,,,,,
76873405,1000,1000,1000,1000,,,,,
76875904,1000,1000,1000,1000,,,,,
76878403,1000,1000,1000,1000,,,,,
76880902,1000,1000,1000,1000,,,,,
76883401,1000,1000,1000,1000,,,,,
76885900,1000,1000,1000,1000,,,,,
76888399,1000,1000,1000,1000,,,,,
76890898,1000,1000,1000,1000,,,,,
76893397,1000,1000,1000,1000,,,,,
76895896,1000,1000,1000,1000,,,,,
76898395,1000,1000,1000,1000,,,,,
76900894,1000,1000,1000,1000,,,,,
76903393,1000,1000,1000,1000,,,,,
76905892,1000,1000,1000,1000,,,,,
76908391,1000,1000,1000,1000,,,,,
76910890,1000,1000,1000,1000,,,,,
76913389,1001,1001,1001,1001,,,,,
76915888,1002,1002,1002,1002,,,,,
76918387,1003,1003,1003,1003,,,,,
76920886,1003,1003,1003,1003,,,,,
76923385,1004,1004,1004,1004,,,,,
76925884,1005,1005,1005,1005,,,,,
76928383,1006,1006,1006,1006,,,,,
76930882,1006,1006,1006,1006,,,,,
76933381,1007,1007,1007,1007,,,,,
76935880,1008,1008,1008,1008,,,,,
76938379,1009,1009,1009,1009,,,,,
76940878,1009,1009,1009,1009,,,,,
76943377,1010,1010,1010,1010,,,,,
76945876,1011,1011,1011,1011,,,,,
76948375,1012,1012,1012,1012,,,,,
76950874,1012,1012,1012,1012,,,,,
76953373,1013,1013,1013,1013,,,,,
76955872,1014,1014,1014,1014,,,,,
76958371,1015,1015,1015,1015,,,,,
76960870,1015,1015,1015,1015,,,,,
76963369,1016,1016,1016,1016,,,,,
76965868,1017,1017,1017,1017,,,,,
76968367,1018,1018,1018,1018,,,,,
76970866,1018,1018,1018,1018,,,,,
76973365,1019,1019,1019,1019,,,,,
76975864,1020,1020,1020,1020,,,,,
76978363,1021,1021,1021,1021,,,,,
76980862,1021,1021,1021,1021,,,,,
76983361,1022,1022,1022,1022,,,,,
76985860,1023,1023,1023,1023,,,,,
76988359,1024,1024,1024,1024,,,,,
76990858,1024,1024,1024,1024,,,,,
76993357,1025,1025,1025,1025,,,,,
76995856,1026,1026,1026,1026,,,,,
76998355,1027,1027,1027,1027,,,,,
77000854,1027,1027,1027,1027,,,,,
77003353,1028,1028,1028,1028,,,,,
77005852,1029,1029,1029,1029,,,,,
77008351,1030,1030,1030,1030,,,,,
77010850,1030,1030,1030,1030,,,,,
77013349,1031,1031,1031,1031,,,,,
77015848,1032,1032,1032,1032,,,,,
77018347,1033,1033,1033,1033,,,,,
77020846,1033,1033,1033,1033,,,,,
77023345,1034,1034,1034,1034,,,,,
77025844,1035,1035,1035,1035,,,,,
77028343,1036,1036,1036,1036,,,,,
77030842,1036,1036,1036,1036,,,,,
77033341,1037,1037,1037,1037,,,,,
77035840,1038,1038,1038,1038,,,,,
77038339,1039,1039,1039,1039,,,,,
77040838,1039,1039,1039,1039,,,,,
77043337,1040,1040,1040,1040,,,,,
77045836,1041,1041,1041,1041,,,,,
77048335,1042,1042,1042,1042,,,,,
77050834,1042,1042,1042,1042,,,,,
77053333,1043,1043,1043,1043,,,,,
77055832,1044,1044,1044,1044,,,,,
77058331,1045,1045,1045,1045,,,,,
77060830,1045,1045,1045,1045,,,,,
77063329,1046,1046,1046,1046,,,,,
77065828,1047,1047,1047,1047,,,,,
77068327,1048,1048,1048,1048,,,,,
77070826,1048,1048,1048,1048,,,,,
77073325,1049,1049,1049,1049,,,,,
77075824,1050,1050,1050,1050,,,,,
77078323,1051,1051,1051,1051,,,,,
77080822,1051,1051,1051,1051,,,,,
77083321,1052,1052,1052,1052,,,,,
77085820,1053,1053,1053,1053,,,,,
77088319,1054,1054,1054,1054,,,,,
77090818,1054,1054,1054,1054,,,,,
77093317,1055,1055,1055,1055,,,,,
77095816,1056,1056,1056,1056,,,,,
77098315,1057,1057,1057,1057,,,,,
77100814,1057,1057,1057,1057,,,,,
77103313,1058,1058,1058,1058,,,,,
77105812,1059,1059,1059,1059,,,,,
77108311,1060,1060,1060,1060,,,,,
77110810,1060,1060,1060,1060,,,,,
77113309,1061,1061,1061,1061,,,,,
77115808,1062,1062,1062,1062,,,,,
77118307,1063,1063,1063,1063,,,,,
77120806,1063,1063,1063,1063,,,,,
77123305,1064,1064,1064,1064,,,,,
77125804,1065,1065,1065,1065,,,,,
77128303,1066,1066,1066,1066,,,,,
77130802,1066,1066,1066,1066,,,,,
77133301,1067,1067,1067,1067,,,,,
77135800,1068,1068,1068,1068,,,,,
77138299,1069,1069,1069,1069,,,,,
77140798,1069,1069,1069,1069,,,,,
77143297,1070,1070,1070,1070,,,,,
77145796,1071,1071,1071,1071,,,,,
77148295,1072,1072,1072,1072,,,,,
77150794,1072,1072,1072,1072,,,,,
77153293,1073,1073,1073,1073,,,,,
77155792,1074,1074,1074,1074,,,,,
77158291,1075,1075,1075,1075,,,,,
77160790,1075,1075,1075,1075,,,,,
77163289,1076,1076,1076,1076,,,,,
77165788,1077,1077,1077,1077,,,,,
77168287,1078,1078,1078,1078,,,,,
77170786,1078,1078,1078,1078,,,,,
77173285,1079,1079,1079,1079,,,,,
77175784,1080,1080,1080,1080,,,,,
77178283,1081,1081,1081,1081,,,,,
77180782,1081,1081,1081,1081,,,,,
77183281,1082,1082,1082,1082,,,,,
77185780,1083,1083,1083,1083,,,,,
77188279,1084,1084,1084,1084,,,,,
77190778,1084,1084,1084,1084,,,,,
77193277,1085,1085,1085,1085,,,,,
77195776,1086,1086,1086,1086,,,,,
77198275,1087,1087,1087,1087,,,,,
77200774,1087,1087,1087,1087,,,,,
77203273,1088,1088,1088,1088,,,,,
77205772,1089,1089,1089,1089,,,,,
77208271,1090,1090,1090,1090,,,,,
77210770,1090,1090,1090,1090,,,,,
77213269,1091,1091,1091,1091,,,,,
77215768,1092,1092,1092,1092,,,,,
77218267,1093,1093,1093,1093,,,,,
77220766,1093,1093,1093,1093,,,,,
77223265,1094,1094,1094,1094,,,,,
77225764,1095,1095,1095,1095,,,,,
77228263,1096,1096,1096,1096,,,,,
77230762,1096,1096,1096,1096,,,,,
77233261,1097,1097,1097,1097,,,,,
77235760,1098,1098,1098,1098,,,,,
77238259,1099,1099,1099,1099,,,,,
77240758,1099,1099,1099,1099,,,,,
77243257,1100,1100,1100,1100,,,,,
77245756,1101,1101,1101,1101,,,,,
77248255,1101,1101,1101,1101,,,,,
77250754,1102,1102,1102,1102,,,,,
77253253,1103,1103,1103,1103,,,,,
77255752,1104,1104,1104,1104,,,,,
77258251,1104,1104,1104,1104,,,,,
77260750,1105,1105,1105,1105,,,,,
77263249,1106,1106,1106,1106,,,,,
77265748,1107,1107,1107,1107,,,,,
77268247,1107,1107,1107,1107,,,,,
77270746,1108,1108,1108,1108,,,,,
77273245,1109,1109,1109,1109,,,,,
77275744,1110,1110,1110,1110,,,,,
77278243,1110,1110,1110,1110,,,,,
77280742,1111,1111,1111,1111,,,,,
77283241,1112,1112,1112,1112,,,,,
77285740,1113,1113,1113,1113,,,,,
77288239,1113,1113,1113,1113,,,,,
77290738,1114,1114,1114,1114,,,,,
77293237,1115,1115,1115,1115,,,,,
77295736,1116,1116,1116,1116,,,,,
77298235,1116,1116,1116,1116,,,,,
77300734,1117,1117,1117,1117,,,,,
77303233,1118,1118,1118,1118,,,,,
77305732,1119,1119,1119,1119,,,,,
77308231,1119,1119,1119,1119,,,,,
77310730,1120,1120,1120,1120,,,,,
77313229,1121,1121,1121,1121,,,,,
77315728,1122,1122,1122,1122,,,,,
77318227,1122,1122,1122,1122,,,,,
77320726,1123,1123,1123,1123,,,,,
77323225,1124,1124,1124,1124,,,,,
77325724,1125,1125,1125,1125,,,,,
77328223,1125,1125,1125,1125,,,,,
77330722,1126,1126,1126,1126,,,,,
77333221,1127,1127,1127,1127,,,,,
77335720,1128,1128,1128,1128,,,,,
77338219,1128,1128,1128,1128,,,,,
77340718,1129,1129,1129,1129,,,,,
77343217,1130,1130,1130,1130,,,,,
77345716,1131,1131,1131,1131,,,,,
77348215,1131,1131,1131,1131,,,,,
77350714,1132,1132,1132,1132,,,,,
77353213,1133,1133,1133,1133,,,,,
77355712,1134,1134,1134,1134,,,,,
77358211,1134,1134,1134,1134,,,,,
77360710,1135,1135,1135,1135,,,,,
77363209,1136,1136,1136,1136,,,,,
77365708,1137,1137,1137,1137,,,,,
77368207,1137,1137,1137,1137,,,,,
77370706,1138,1138,1138,1138,,,,,
77373205,1139,1139,1139,1139,,,,,
77375704,1140,1140,1140,1140,,,,,
77378203,1140,1140,1140,1140,,,,,
77380702,1141,1141,1141,1141,,,,,
77383201,1142,1142,1142,1142,,,,,
77385700,1143,1143,1143,1143,,,,,
77388199,1143,1143,1143,1143,,,,,
77390698,1144,1144,1144,1144,,,,,
77393197,1145,1145,1145,1145,,,,,
77395696,1146,1146,1146,1146,,,,,
77398195,1146,1146,1146,1146,,,,,
77400694,1147,1147,1147,1147,,,,,
77403193,1148,1148,1148,1148,,,,,
77405692,1149,1149,1149,1149,,,,,
77408191,1149,1149,1149,1149,,,,,
77410690,1150,1150,1150,1150,,,,,
77413189,1163,1151,1152,1164,,,,,
77415688,1171,1159,1160,1172,,,,,
77418187,1179,1167,1168,1180,,,,,
77420686,1187,1175,1176,1188,,,,,
77423185,1194,1183,1184,1195,,,,,
77425684,1202,1191,1191,1202,,,,,
77428183,1209,1198,1199,1210,,,,,
77430682,1216,1205,1206,1217,,,,,
77433181,1223,1213,1213,1224,,,,,
77435680,1230,1220,1220,1231,,,,,
77438179,1237,1227,1227,1238,,,,,
77440678,1244,1234,1234,1245,,,,,
77443177,1250,1240,1241,1251,,,,,
77445676,1257,1247,1248,1258,,,,,
77448175,1264,1254,1254,1264,,,,,
77450674,1270,1260,1261,1271,,,,,
77453173,1276,1267,1267,1277,,,,,
77455672,1283,1273,1274,1283,,,,,
77458171,1289,1279,1280,1290,,,,,
77460670,1295,1285,1286,1296,,,,,
77463169,1301,1292,1292,1302,,,,,
77465668,1307,1298,1298,1308,,,,,
77468167,1313,1304,1304,1314,,,,,
77470666,1319,1310,1310,1320,,,,,
77473165,1325,1316,1316,1325,,,,,
77475664,1330,1321,1322,1331,,,,,
77478163,1336,1327,1328,1337,,,,,
77480662,1342,1333,1333,1342,,,,,
77483161,1347,1338,1339,1348,,,,,
77485660,1353,1344,1345,1354,,,,,
77488159,1358,1350,1350,1359,,,,,
77490658,1364,1355,1356,1365,,,,,
77493157,1369,1360,1361,1370,,,,,
77495656,1375,1366,1366,1375,,,,,
77498155,1380,1371,1372,1381,,,,,
77500654,1385,1376,1377,1386,,,,,
77503986,1390,1382,1382,1391,,,,,
77506485,1396,1387,1388,1396,,,,,
77508984,1401,1392,1393,1401,,,,,
77511483,1406,1397,1398,1406,,,,,
77513982,1411,1402,1403,1411,,,,,
77516481,1416,1407,1408,1416,,,,,
77518980,1421,1412,1413,1421,,,,,
77521479,1426,1417,1418,1426,,,,,
77523978,1431,1422,1423,1431,,,,,
77526477,1436,1427,1428,1436,,,,,
77528976,1440,1432,1433,1441,,,,,
77531475,1445,1437,1437,1446,,,,,
77533974,1450,1442,1442,1451,,,,,
77536473,1455,1446,1447,1455,,,,,
77538972,1459,1451,1452,1460,,,,,
77541471,1464,1456,1456,1465,,,,,
77543970,1469,1461,1461,1469,,,,,
77546469,1473,1465,1466,1474,,,,,
77548968,1478,1470,1470,1478,,,,,
77551467,1482,1474,1475,1483,,,,,
77553966,1487,1479,1480,1487,,,,,
77556465,1491,1484,1484,1492,,,,,
77558964,1496,1488,1489,1496,,,,,
77561463,1500,1493,1493,1501,,,,,
77563962,1505,1497,1498,1505,,,,,
77566461,1509,1501,1502,1510,,,,,
77568960,1513,1506,1506,1514,,,,,
77571459,1518,1510,1511,1518,,,,,
77573958,1522,1515,1515,1523,,,,,
77576457,1526,1519,1519,1527,,,,,
77578956,1531,1523,1524,1531,,,,,
77581455,1535,1527,1528,1535,,,,,
77583954,1539,1532,1532,1540,,,,,
77586453,1543,1536,1536,1544,,,,,
77588952,1548,1540,1541,1548,,,,,
77591451,1552,1544,1545,1552,,,,,
77593950,1556,1548,1549,1556,,,,,
77596449,1560,1553,1553,1560,,,,,
77598948,1564,1557,1557,1565,,,,,
77601447,1568,1561,1561,1569,,,,,
77603946,1572,1565,1565,1573,,,,,
77606445,1576,1569,1569,1577,,,,,
77608944,1580,1573,1573,1581,,,,,
77611443,1584,1577,1577,1585,,,,,
77613942,1588,1581,1581,1589,,,,,
77616441,1592,1585,1585,1593,,,,,
77618940,1596,1589,1589,1597,,,,,
77621439,1600,1593,1593,1601,,,,,
77623938,1604,1597,1597,1604,,,,,
77626437,1608,1601,1601,1608,,,,,
77628936,1612,1605,1605,1612,,,,,
77631435,1615,1608,1609,1616,,,,,
77633934,1619,1612,1613,1620,,,,,
77636433,1623,1616,1616,1624,,,,,
77638932,1627,1620,1620,1628,,,,,
77641431,1631,1624,1624,1631,,,,,
77643930,1634,1628,1628,1635,,,,,
77646429,1638,1631,1631,1639,,,,,
77648928,1642,1635,1635,1643,,,,,
77651427,1646,1639,1639,1646,,,,,
77653926,1649,1643,1643,1650,,,,,
77656425,1653,1646,1646,1654,,,,,
77658924,1657,1650,1650,1657,,,,,
77661423,1660,1654,1654,1661,,,,,
77663922,1664,1657,1657,1665,,,,,
77666421,1668,1661,1661,1668,,,,,
77668920,1671,1664,1665,1672,,,,,
77671419,1675,1668,1668,1676,,,,,
77673918,1678,1672,1672,1679,,,,,
77676417,1682,1675,1675,1683,,,,,
77678916,1686,1679,1679,1686,,,,,
77681415,1689,1682,1683,1690,,,,,
77683914,1693,1686,1686,1693,,,,,
77686413,1696,1689,1690,1697,,,,,
77688912,1700,1693,1693,1700,,,,,
77691411,1703,1697,1697,1704,,,,,
77693910,1707,1700,1700,1707,,,,,
77696409,1710,1704,1704,1711,,,,,
77698908,1714,1707,1707,1714,,,,,
77701407,1717,1710,1711,1718,,,,,
77703906,1720,1714,1714,1721,,,,,
77706405,1724,1717,1717,1725,,,,,
77708904,1727,1721,1721,1728,,,,,
77711403,1731,1724,1724,1731,,,,,
77713902,1734,1728,1728,1735,,,,,
77716401,1737,1731,1731,1738,,,,,
77718900,1741,1734,1734,1741,,,,,
77721399,1744,1738,1738,1745,,,,,
77723898,1747,1741,1741,1748,,,,,
77726397,1751,1744,1744,1752,,,,,
77728896,1754,1748,1748,1755,,,,,
77731395,1757,1751,1751,1758,,,,,
77733894,1761,1754,1754,1761,,,,,
77736393,1764,1758,1758,1765,,,,,
77738892,1767,1761,1761,1768,,,,,
77741391,1770,1764,1764,1771,,,,,
77743890,1774,1767,1767,1775,,,,,
77746389,1777,1771,1771,1778,,,,,
77748888,1780,1774,1774,1781,,,,,
77751387,1783,1777,1777,1784,,,,,
77753886,1787,1780,1780,1787,,,,,
77756385,1790,1784,1783,1791,,,,,
77758884,1793,1787,1787,1794,,,,,
77761383,1796,1790,1790,1797,,,,,
77763882,1799,1793,1793,1800,,,,,
77766381,1802,1796,1796,1803,,,,,
77768880,1806,1799,1799,1807,,,,,
77771379,1809,1803,1803,1810,,,,,
77773878,1812,1806,1806,1813,,,,,
77776377,1815,1809,1809,1816,,,,,
77778876,1818,1812,1812,1819,,,,,
77781375,1821,1815,1815,1822,,,,,
77783874,1824,1818,1818,1825,,,,,
77786373,1827,1821,1821,1828,,,,,
77788872,1831,1824,1824,1831,,,,,
77791371,1834,1827,1827,1834,,,,,
77793870,1837,1831,1830,1838,,,,,
77796369,1840,1834,1834,1841,,,,,
77798868,1843,1837,1837,1844,,,,,
77801367,1846,1840,1840,1847,,,,,
77803866,1849,1843,1843,1850,,,,,
77806365,1852,1846,1846,1853,,,,,
77808864,1855,1849,1849,1856,,,,,
77811363,1858,1852,1852,1859,,,,,
77813862,1861,1855,1855,1862,,,,,
77816361,1864,1858,1858,1865,,,,,
77818860,1867,1861,1861,1868,,,,,
77821359,1870,1864,1864,1871,,,,,
77823858,1873,1867,1867,1873,,,,,
77826357,1876,1870,1870,1876,,,,,
77828856,1879,1872,1873,1879,,,,,
77831355,1882,1875,1876,1882,,,,,
77833854,1885,1878,1879,1885,,,,,
77836353,1888,1881,1882,1888,,,,,
77838852,1891,1884,1885,1891,,,,,
77841351,1894,1887,1887,1894,,,,,
77843850,1896,1890,1890,1897,,,,,
77846349,1899,1893,1893,1900,,,,,
77848848,1899,1893,1893,1899,,,,,
77851347,1898,1891,1892,1898,,,,,
77853846,1897,1891,1891,1897,,,,,
77856345,1896,1890,1890,1896,,,,,
77858844,1895,1889,1889,1896,,,,,
77861343,1894,1888,1888,1895,,,,,
77863842,1894,1887,1888,1894,,,,,
77866341,1893,1886,1887,1893,,,,,
77868840,1892,1886,1886,1893,,,,,
77871339,1892,1885,1886,1892,,,,,
77873838,1891,1885,1885,1892,,,,,
77876337,1891,1884,1885,1891,,,,,
77878836,1891,1884,1884,1891,,,,,
77881335,1891,1884,1884,1891,,,,,
77883834,1890,1884,1884,1891,,,,,
77886333,1890,1883,1884,1891,,,,,
77888832,1890,1883,1884,1891,,,,,
77891331,1890,1883,1884,1891,,,,,
77893830,1890,1883,1884,1891,,,,,
77896329,1891,1884,1884,1891,,,,,
77898828,1891,1884,1884,1891,,,,,
77901327,1891,1884,1885,1891,,,,,
77903826,1891,1884,1885,1892,,,,,
77906325,1892,1885,1885,1892,,,,,
77908824,1892,1885,1886,1892,,,,,
77911323,1892,1886,1886,1893,,,,,
77913822,1893,1886,1887,1893,,,,,
77916321,1893,1887,1887,1893,,,,,
77918820,1893,1887,1887,1893,,,,,
77921319,1893,1887,1888,1893,,,,,
77923818,1893,1887,1888,1893,,,,,
77926317,1893,1887,1888,1893,,,,,
77928816,1892,1887,1887,1892,,,,,
77931315,1892,1887,1887,1892,,,,,
77933814,1891,1886,1886,1891,,,,,
77936313,1890,1885,1886,1890,,,,,
77938812,1889,1884,1885,1889,,,,,
77941311,1888,1883,1884,1888,,,,,
77943810,1886,1882,1882,1887,,,,,
77946309,1885,1881,1881,1886,,,,,
77948808,1883,1879,1879,1884,,,,,
77951307,1882,1877,1878,1882,,,,,
77953806,1880,1875,1876,1880,,,,,
77956305,1877,1873,1874,1878,,,,,
77958804,1875,1871,1872,1876,,,,,
77961303,1873,1869,1869,1874,,,,,
77963802,1870,1867,1867,1871,,,,,
77966301,1868,1864,1864,1869,,,,,
77968800,1865,1862,1862,1866,,,,,
77971299,1863,1859,1859,1863,,,,,
77973798,1860,1856,1857,1861,,,,,
77976297,1857,1854,1854,1858,,,,,
77978796,1854,1851,1851,1855,,,,,
77981295,1851,1848,1848,1852,,,,,
77983794,1848,1845,1845,1849,,,,,
77986293,1845,1842,1842,1846,,,,,
77988792,1842,1839,1839,1843,,,,,
77991291,1839,1836,1836,1839,,,,,
77993790,1836,1833,1833,1836,,,,,
77996289,1833,1830,1830,1833,,,,,
77998788,1829,1827,1827,1830,,,,,
78001287,1826,1824,1824,1827,,,,,
78003786,1823,1820,1821,1823,,,,,
78006285,1820,1817,1817,1820,,,,,
78008784,1816,1814,1814,1817,,,,,
78011283,1813,1811,1811,1814,,,,,
78013782,1810,1808,1808,1810,,,,,
78016281,1806,1805,1805,1807,,,,,
78018780,1803,1801,1802,1804,,,,,
78021279,1800,1798,1798,1800,,,,,
78023778,1796,1795,1795,1797,,,,,
78026277,1793,1792,1792,1794,,,,,
78028776,1790,1788,1789,1790,,,,,
78031275,1786,1785,1785,1787,,,,,
78033774,1783,1782,1782,1784,,,,,
78036273,1780,1779,1779,1781,,,,,
78038772,1777,1776,1776,1777,,,,,
78041271,1773,1772,1772,1774,,,,,
78043770,1770,1769,1769,1771,,,,,
78046269,1767,1766,1766,1767,,,,,
78048768,1764,1763,1763,1764,,,,,
78051267,1760,1760,1760,1761,,,,,
78053766,1757,1757,1757,1758,,,,,
78056265,1754,1753,1754,1755,,,,,
78058764,1751,1750,1751,1751,,,,,
78061263,1748,1747,1747,1748,,,,,
78063762,1745,1744,1744,1745,,,,,
78066261,1741,1741,1741,1742,,,,,
78068760,1738,1738,1738,1739,,,,,
78071259,1735,1735,1735,1736,,,,,
78073758,1732,1732,1733,1733,,,,,
78076257,1729,1729,1730,1730,,,,,
78078756,1726,1727,1727,1727,,,,,
78081255,1723,1724,1724,1724,,,,,
78083754,1721,1721,1721,1721,,,,,
78086253,1718,1718,1719,1718,,,,,
78088752,1715,1716,1716,1716,,,,,
