TimeUS,M1,M2,M3,M4,TimeUS,C1,C2,C3,C4
44651299,1000,1000,1000,1000,44728768,1000,1000,1000,1000
44653798,1000,1000,1000,1000,44828728,1000,1000,1000,1000
44656297,1000,1000,1000,1000,44928688,1000,1000,1000,1000
44658796,1000,1000,1000,1000,45028648,1000,1000,1000,1000
44661295,1000,1000,1000,1000,45128608,1000,1000,1000,1000
44663794,1000,1000,1000,1000,45228568,1000,1000,1000,1000
44666293,1000,1000,1000,1000,45328528,1000,1000,1000,1000
44668792,1000,1000,1000,1000,45428488,1000,1000,1000,1000
44671291,1000,1000,1000,1000,45528448,1000,1000,1000,1000
44673790,1000,1000,1000,1000,45628408,1000,1000,1000,1000
44676289,1000,1000,1000,1000,45728368,1000,1000,1000,1000
44678788,1000,1000,1000,1000,45828328,1000,1000,1000,1000
44681287,1000,1000,1000,1000,45928288,1000,1000,1000,1000
44683786,1000,1000,1000,1000,46028248,1000,1000,1000,1000
44686285,1000,1000,1000,1000,46128208,1000,1000,1000,1000
44688784,1000,1000,1000,1000,46228168,1000,1000,1000,1000
44691283,1000,1000,1000,1000,46328961,1000,1000,1000,1000
44693782,1000,1000,1000,1000,46428921,1000,1000,1000,1000
44696281,1000,1000,1000,1000,46528881,1000,1000,1000,1000
44698780,1000,1000,1000,1000,46628841,1000,1000,1000,1000
44701279,1000,1000,1000,1000,46728801,1023,1023,1023,1023
44703778,1000,1000,1000,1000,46828761,1053,1053,1053,1053
44706277,1000,1000,1000,1000,46928721,1083,1083,1083,1083
44708776,1000,1000,1000,1000,47028681,1113,1113,1113,1113
44711275,1000,1000,1000,1000,47128641,1143,1143,1143,1143
44713774,1000,1000,1000,1000,47228601,1351,1346,1347,1351
44716273,1000,1000,1000,1000,47328561,1542,1538,1538,1542
44718772,1000,1000,1000,1000,47428521,1695,1691,1692,1695
44721271,1000,1000,1000,1000,47528481,1826,1823,1823,1827
44723770,1000,1000,1000,1000,47628441,1869,1866,1866,1869
44726269,1000,1000,1000,1000,47728401,1837,1835,1836,1837
44728768,1000,1000,1000,1000,47828361,1711,1712,1712,1712
44731267,1000,1000,1000,1000,47928321,1637,1638,1638,1637
44733766,1000,1000,1000,1000,48028281,1626,1627,1627,1626
44736265,1000,1000,1000,1000,48128241,1637,1639,1639,1637
44738764,1000,1000,1000,1000,48228201,1645,1646,1646,1645
44741263,1000,1000,1000,1000,48328161,1642,1642,1642,1642
44743762,1000,1000,1000,1000,48428954,1634,1633,1633,1634
44746261,1000,1000,1000,1000,48528914,1627,1626,1626,1627
44748760,1000,1000,1000,1000,48628874,1623,1622,1622,1623
44751259,1000,1000,1000,1000,48728834,1620,1620,1620,1620
44753758,1000,1000,1000,1000,48828794,1621,1621,1621,1620
44756257,1000,1000,1000,1000,48928754,1621,1621,1621,1621
44758756,1000,1000,1000,1000,49028714,1621,1622,1622,1622
44761255,1000,1000,1000,1000,49128674,1622,1622,1622,1622
44763754,1000,1000,1000,1000,49228634,1623,1623,1623,1623
44766253,1000,1000,1000,1000,49328594,1623,1623,1623,1623
44768752,1000,1000,1000,1000,49428554,1625,1624,1625,1624
44771251,1000,1000,1000,1000,49528514,1626,1626,1626,1626
44773750,1000,1000,1000,1000,49628474,1627,1628,1628,1628
44776249,1000,1000,1000,1000,49728434,1627,1628,1627,1628
44778748,1000,1000,1000,1000,49828394,1628,1628,1628,1629
44781247,1000,1000,1000,1000,49928354,1629,1629,1629,1629
44783746,1000,1000,1000,1000,50028314,1630,1629,1630,1629
44786245,1000,1000,1000,1000,50128274,1629,1630,1630,1629
44788744,1000,1000,1000,1000,50228234,1629,1629,1629,1629
44791243,1000,1000,1000,1000,50328194,1626,1626,1626,1626
44793742,1000,1000,1000,1000,50428154,1623,1624,1624,1623
44796241,1000,1000,1000,1000,50528947,1621,1620,1621,1621
44798740,1000,1000,1000,1000,50628907,1617,1616,1617,1617
44801239,1000,1000,1000,1000,50728867,1602,1602,1602,1602
44803738,1000,1000,1000,1000,50828827,1586,1587,1586,1587
44806237,1000,1000,1000,1000,50928787,1577,1577,1577,1577
44808736,1000,1000,1000,1000,51028747,1569,1568,1569,1569
44811235,1000,1000,1000,1000,51128707,1562,1562,1562,1562
44813734,1000,1000,1000,1000,51228667,1556,1556,1556,1556
44816233,1000,1000,1000,1000,51328627,1549,1549,1549,1549
44818732,1000,1000,1000,1000,51428587,1544,1544,1544,1544
44821231,1000,1000,1000,1000,51528547,1540,1539,1539,1539
44823730,1000,1000,1000,1000,51628507,1536,1535,1535,1535
44826229,1000,1000,1000,1000,51728467,1532,1532,1531,1532
44828728,1000,1000,1000,1000,51828427,1530,1530,1530,1530
44831227,1000,1000,1000,1000,51928387,1527,1527,1527,1527
44833726,1000,1000,1000,1000,52028347,1525,1525,1524,1525
44836225,1000,1000,1000,1000,52128307,1522,1523,1522,1523
44838724,1000,1000,1000,1000,52228267,1518,1519,1519,1519
44841223,1000,1000,1000,1000,52328227,1516,1516,1516,1516
44843722,1000,1000,1000,1000,52428187,1513,1513,1513,1513
44846221,1000,1000,1000,1000,52528980,1510,1509,1509,1510
44848720,1000,1000,1000,1000,52628940,1508,1507,1507,1508
44851219,1000,1000,1000,1000,52728900,1504,1504,1504,1504
44853718,1000,1000,1000,1000,52828860,1501,1502,1502,1502
44856217,1000,1000,1000,1000,52928820,1499,1498,1498,1498
44858716,1000,1000,1000,1000,53028780,1496,1497,1497,1496
44861215,1000,1000,1000,1000,53128740,1494,1494,1494,1494
44863714,1000,1000,1000,1000,53228700,1493,1493,1493,1493
44866213,1000,1000,1000,1000,53328660,1494,1494,1494,1494
44868712,1000,1000,1000,1000,53428620,1496,1496,1496,1496
44871211,1000,1000,1000,1000,53528580,1498,1498,1498,1497
44873710,1000,1000,1000,1000,53628540,1500,1500,1500,1500
44876209,1000,1000,1000,1000,53728500,1502,1502,1502,1502
44878708,1000,1000,1000,1000,53828460,1504,1505,1504,1504
44881207,1000,1000,1000,1000,53928420,1507,1507,1507,1507
44883706,1000,1000,1000,1000,54028380,1508,1508,1508,1508
44886205,1000,1000,1000,1000,54128340,1510,1509,1509,1509
44888704,1000,1000,1000,1000,54228300,1510,1510,1510,1510
44891203,1000,1000,1000,1000,54328260,1511,1511,1511,1511
44893702,1000,1000,1000,1000,54428220,1512,1512,1513,1512
44896201,1000,1000,1000,1000,54528180,1513,1513,1513,1513
44898700,1000,1000,1000,1000,54628973,1513,1514,1514,1513
44901199,1000,1000,1000,1000,54728933,1514,1514,1514,1514
44903698,1000,1000,1000,1000,54828893,1515,1514,1514,1514
44906197,1000,1000,1000,1000,54928853,1515,1515,1515,1515
44908696,1000,1000,1000,1000,55028813,1514,1515,1515,1514
44911195,1000,1000,1000,1000,55128773,1514,1514,1514,1515
44913694,1000,1000,1000,1000,55228733,1515,1515,1515,1515
44916193,1000,1000,1000,1000,55328693,1515,1515,1515,1515
44918692,1000,1000,1000,1000,55428653,1515,1514,1515,1515
44921191,1000,1000,1000,1000,55528613,1542,1542,1542,1542
44923690,1000,1000,1000,1000,55628573,1557,1557,1556,1559
44926189,1000,1000,1000,1000,55728533,1569,1569,1567,1571
44928688,1000,1000,1000,1000,55828493,1576,1576,1573,1578
44931187,1000,1000,1000,1000,55928453,1582,1581,1579,1583
44933686,1000,1000,1000,1000,56028413,1584,1583,1582,1585
44936185,1000,1000,1000,1000,56128373,1585,1585,1585,1585
44938684,1000,1000,1000,1000,56228333,1584,1585,1586,1583
44941183,1000,1000,1000,1000,56328293,1583,1583,1586,1581
44943682,1000,1000,1000,1000,56428253,1583,1583,1585,1582
44946181,1000,1000,1000,1000,56528213,1581,1581,1582,1581
44948680,1000,1000,1000,1000,56628173,1579,1579,1579,1578
44951179,1000,1000,1000,1000,56728966,1579,1578,1579,1578
44953678,1000,1000,1000,1000,56828926,1576,1576,1575,1576
44956177,1000,1000,1000,1000,56928886,1574,1573,1573,1574
44958676,1000,1000,1000,1000,57028846,1572,1572,1572,1573
44961175,1000,1000,1000,1000,57128806,1570,1571,1570,1572
44963674,1000,1000,1000,1000,57228766,1564,1564,1575,1576
44966173,1000,1000,1000,1000,57328726,1563,1564,1575,1577
44968672,1000,1000,1000,1000,57428686,1565,1566,1573,1574
44971171,1000,1000,1000,1000,57528646,1567,1567,1571,1571
44973670,1000,1000,1000,1000,57628606,1569,1570,1569,1569
44976169,1000,1000,1000,1000,57728566,1572,1571,1568,1568
44978668,1000,1000,1000,1000,57828526,1572,1572,1566,1566
44981167,1000,1000,1000,1000,57928486,1574,1574,1566,1566
44983666,1000,1000,1000,1000,58028446,1575,1575,1568,1568
44986165,1000,1000,1000,1000,58128406,1576,1576,1568,1569
44988664,1000,1000,1000,1000,58228366,1575,1575,1569,1569
44991163,1000,1000,1000,1000,58328326,1574,1574,1570,1570
44993662,1000,1000,1000,1000,58428286,1575,1575,1572,1573
44996161,1000,1000,1000,1000,58528246,1575,1575,1575,1574
44998660,1000,1000,1000,1000,58628206,1575,1575,1576,1575
45001159,1000,1000,1000,1000,58728166,1575,1575,1578,1576
45003658,1000,1000,1000,1000,58828959,1576,1576,1580,1578
45006157,1000,1000,1000,1000,58928919,1575,1575,1579,1578
45008656,1000,1000,1000,1000,59028879,1574,1575,1578,1578
45011155,1000,1000,1000,1000,59128839,1576,1576,1578,1579
45013654,1000,1000,1000,1000,59228799,1575,1576,1577,1578
45016153,1000,1000,1000,1000,59328759,1577,1576,1578,1578
45018652,1000,1000,1000,1000,59428719,1577,1577,1577,1578
45021151,1000,1000,1000,1000,59528679,1577,1578,1577,1577
45023650,1000,1000,1000,1000,59628639,1579,1579,1578,1578
45026149,1000,1000,1000,1000,59728599,1579,1578,1578,1577
45028648,1000,1000,1000,1000,59828559,1580,1579,1578,1578
45031147,1000,1000,1000,1000,59928519,1580,1580,1578,1578
45033646,1000,1000,1000,1000,60028479,1579,1579,1578,1578
45036145,1000,1000,1000,1000,60128439,1579,1580,1579,1579
45038644,1000,1000,1000,1000,60228399,1579,1580,1579,1579
45041143,1000,1000,1000,1000,60328359,1580,1580,1580,1580
45043642,1000,1000,1000,1000,60428319,1580,1580,1580,1580
45046141,1000,1000,1000,1000,60528279,1580,1580,1580,1580
45048640,1000,1000,1000,1000,60628239,1579,1580,1580,1580
45051139,1000,1000,1000,1000,60728199,1579,1579,1580,1579
45053638,1000,1000,1000,1000,60828159,1578,1579,1579,1579
45056137,1000,1000,1000,1000,60928952,1579,1579,1579,1579
45058636,1000,1000,1000,1000,61028912,1580,1579,1580,1580
45061135,1000,1000,1000,1000,61128872,1579,1579,1580,1579
45063634,1000,1000,1000,1000,61228832,1579,1579,1580,1580
45066133,1000,1000,1000,1000,61328792,1579,1579,1579,1579
45068632,1000,1000,1000,1000,61428752,1579,1579,1579,1579
45071131,1000,1000,1000,1000,61528712,1580,1580,1580,1580
45073630,1000,1000,1000,1000,61628672,1579,1579,1579,1579
45076129,1000,1000,1000,1000,61728632,1580,1580,1580,1580
45078628,1000,1000,1000,1000,61828592,1580,1580,1580,1580
45081127,1000,1000,1000,1000,61928552,1580,1580,1580,1580
45083626,1000,1000,1000,1000,62028512,1581,1581,1581,1581
45086125,1000,1000,1000,1000,62128472,1581,1581,1581,1581
45088624,1000,1000,1000,1000,62228432,1580,1580,1581,1580
45091123,1000,1000,1000,1000,62328392,1581,1581,1581,1581
45093622,1000,1000,1000,1000,62428352,1581,1580,1581,1581
45096121,1000,1000,1000,1000,62528312,1580,1580,1580,1580
45098620,1000,1000,1000,1000,62628272,1580,1580,1580,1580
45101119,1000,1000,1000,1000,62728232,1581,1581,1581,1581
45103618,1000,1000,1000,1000,62828192,1580,1580,1580,1580
45106117,1000,1000,1000,1000,62928985,1581,1581,1581,1581
45108616,1000,1000,1000,1000,63028945,1581,1581,1581,1581
45111115,1000,1000,1000,1000,63128905,1581,1580,1581,1581
45113614,1000,1000,1000,1000,63228865,1580,1580,1580,1580
45116113,1000,1000,1000,1000,63328825,1581,1581,1583,1579
45118612,1000,1000,1000,1000,63428785,1580,1582,1588,1573
45121111,1000,1000,1000,1000,63528745,1580,1583,1583,1573
45123610,1000,1000,1000,1000,63628705,1579,1581,1575,1574
45126109,1000,1000,1000,1000,63728665,1577,1580,1566,1571
45128608,1000,1000,1000,1000,63828625,1577,1579,1560,1567
45131107,1000,1000,1000,1000,63928585,1577,1578,1556,1562
45133606,1000,1000,1000,1000,64028545,1578,1576,1554,1557
45136105,1000,1000,1000,1000,64128505,1579,1577,1555,1555
45138604,1000,1000,1000,1000,64228465,1578,1577,1555,1553
45141103,1000,1000,1000,1000,64328425,1577,1577,1555,1553
45143602,1000,1000,1000,1000,64428385,1575,1576,1554,1552
45146101,1000,1000,1000,1000,64528345,1574,1576,1554,1553
45148600,1000,1000,1000,1000,64628305,1575,1576,1554,1553
45151099,1000,1000,1000,1000,64728265,1575,1577,1553,1554
45153598,1000,1000,1000,1000,64828225,1576,1577,1551,1551
45156097,1000,1000,1000,1000,64928185,1577,1578,1549,1550
45158596,1000,1000,1000,1000,65028978,1579,1580,1547,1547
45161095,1000,1000,1000,1000,65128938,1582,1582,1545,1545
45163594,1000,1000,1000,1000,65228898,1584,1586,1542,1542
45166093,1000,1000,1000,1000,65328858,1587,1588,1539,1538
45168592,1000,1000,1000,1000,65428818,1591,1591,1537,1537
45171091,1000,1000,1000,1000,65528778,1593,1593,1534,1535
45173590,1000,1000,1000,1000,65628738,1595,1595,1534,1535
45176089,1000,1000,1000,1000,65728698,1595,1595,1535,1536
45178588,1000,1000,1000,1000,65828658,1594,1594,1536,1538
45181087,1000,1000,1000,1000,65928618,1591,1590,1539,1542
45183586,1000,1000,1000,1000,66028578,1587,1585,1545,1548
45186085,1000,1000,1000,1000,66128538,1581,1578,1554,1557
45188584,1000,1000,1000,1000,66228498,1572,1569,1565,1568
45191083,1000,1000,1000,1000,66328458,1562,1558,1577,1580
45193582,1000,1000,1000,1000,66428418,1551,1548,1590,1590
45196081,1000,1000,1000,1000,66528378,1541,1538,1601,1601
45198580,1000,1000,1000,1000,66628338,1533,1533,1609,1608
45201079,1000,1000,1000,1000,66728298,1529,1530,1614,1613
45203578,1000,1000,1000,1000,66828258,1528,1530,1614,1613
45206077,1000,1000,1000,1000,66928218,1532,1534,1612,1612
45208576,1000,1000,1000,1000,67028178,1538,1540,1608,1608
45211075,1000,1000,1000,1000,67128971,1546,1547,1601,1601
45213574,1000,1000,1000,1000,67228931,1556,1556,1594,1594
45216073,1000,1000,1000,1000,67328891,1564,1564,1587,1586
45218572,1000,1000,1000,1000,67428851,1572,1572,1580,1579
45221071,1000,1000,1000,1000,67528811,1579,1578,1574,1573
45223570,1000,1000,1000,1000,67628771,1583,1582,1569,1569
45226069,1000,1000,1000,1000,67728731,1586,1585,1567,1567
45228568,1000,1000,1000,1000,67828691,1587,1586,1566,1566
45231067,1000,1000,1000,1000,67928651,1587,1585,1566,1567
45233566,1000,1000,1000,1000,68028611,1586,1585,1569,1569
45236065,1000,1000,1000,1000,68128571,1582,1582,1571,1571
45238564,1000,1000,1000,1000,68228531,1580,1579,1574,1574
45241063,1000,1000,1000,1000,68328491,1577,1578,1577,1577
45243562,1000,1000,1000,1000,68428451,1576,1576,1581,1580
45246061,1000,1000,1000,1000,68528411,1573,1574,1582,1581
45248560,1000,1000,1000,1000,68628371,1572,1573,1583,1583
45251059,1000,1000,1000,1000,68728331,1572,1573,1584,1584
45253558,1000,1000,1000,1000,68828291,1572,1573,1584,1584
45256057,1000,1000,1000,1000,68928251,1574,1574,1584,1584
45258556,1000,1000,1000,1000,69028211,1575,1574,1582,1582
45261055,1000,1000,1000,1000,69128171,1576,1576,1580,1581
45263554,1000,1000,1000,1000,69228964,1577,1578,1580,1580
45266053,1000,1000,1000,1000,69328924,1689,1598,1688,1598
45268552,1000,1000,1000,1000,69428884,1616,1591,1616,1587
45271051,1000,1000,1000,1000,69528844,1581,1594,1577,1590
45273550,1000,1000,1000,1000,69628804,1562,1592,1557,1588
45276049,1000,1000,1000,1000,69728764,1558,1586,1550,1580
45278548,1000,1000,1000,1000,69828724,1563,1579,1553,1570
45281047,1000,1000,1000,1000,69928684,1568,1571,1557,1561
45283546,1000,1000,1000,1000,70028644,1575,1567,1564,1558
45286045,1000,1000,1000,1000,70128604,1579,1569,1572,1561
45288544,1000,1000,1000,1000,70228564,1580,1570,1576,1565
45291043,1000,1000,1000,1000,70328524,1579,1572,1579,1572
45293542,1000,1000,1000,1000,70428484,1577,1574,1580,1577
45296041,1000,1000,1000,1000,70528444,1575,1576,1580,1581
45298540,1000,1000,1000,1000,70628404,1574,1577,1581,1584
45301039,1000,1000,1000,1000,70728364,1575,1577,1582,1584
45303538,1000,1000,1000,1000,70828324,1578,1579,1585,1585
45306037,1000,1000,1000,1000,70928284,1580,1579,1586,1585
45308536,1000,1000,1000,1000,71028244,1583,1582,1588,1587
45311035,1000,1000,1000,1000,71128204,1584,1583,1587,1586
45313534,1000,1000,1000,1000,71228164,1585,1584,1587,1586
45316033,1000,1000,1000,1000,71328957,1585,1585,1586,1585
45318532,1000,1000,1000,1000,71428917,1584,1587,1592,1577
45321031,1000,1000,1000,1000,71528877,1583,1588,1587,1575
45323530,1000,1000,1000,1000,71628837,1584,1587,1576,1575
45326029,1000,1000,1000,1000,71728797,1585,1586,1568,1572
45328528,1000,1000,1000,1000,71828757,1586,1586,1561,1567
45331027,1000,1000,1000,1000,71928717,1586,1586,1556,1562
45333526,1000,1000,1000,1000,72028677,1587,1586,1555,1558
45336025,1000,1000,1000,1000,72128637,1588,1586,1555,1556
45338524,1000,1000,1000,1000,72228597,1586,1585,1555,1553
45341023,1000,1000,1000,1000,72328557,1585,1584,1557,1555
45343522,1000,1000,1000,1000,72428517,1580,1582,1555,1553
45346021,1000,1000,1000,1000,72528477,1579,1581,1556,1555
45348520,1000,1000,1000,1000,72628437,1578,1579,1555,1555
45351019,1000,1000,1000,1000,72728397,1579,1580,1556,1556
45353518,1000,1000,1000,1000,72828357,1579,1580,1554,1555
45356017,1000,1000,1000,1000,72928317,1580,1580,1552,1553
45358516,1000,1000,1000,1000,73028277,1581,1583,1550,1551
45361015,1000,1000,1000,1000,73128237,1583,1586,1547,1547
45363514,1000,1000,1000,1000,73228197,1587,1590,1543,1543
45366013,1000,1000,1000,1000,73328157,1590,1592,1539,1539
45368512,1000,1000,1000,1000,73428950,1596,1597,1538,1538
45371011,1000,1000,1000,1000,73528910,1598,1597,1538,1538
45373510,1000,1000,1000,1000,73628870,1598,1595,1540,1541
45376009,1000,1000,1000,1000,73728830,1595,1592,1544,1547
45378508,1000,1000,1000,1000,73828790,1588,1585,1551,1554
45381007,1000,1000,1000,1000,73928750,1583,1579,1563,1566
45383506,1000,1000,1000,1000,74028710,1571,1568,1573,1575
45386005,1000,1000,1000,1000,74128670,1562,1559,1586,1587
45388504,1000,1000,1000,1000,74228630,1552,1550,1596,1596
45391003,1000,1000,1000,1000,74328590,1544,1543,1603,1604
45393502,1000,1000,1000,1000,74428550,1539,1540,1609,1609
45396001,1000,1000,1000,1000,74528510,1539,1540,1613,1612
45398500,1000,1000,1000,1000,74628470,1540,1541,1612,1611
45400999,1000,1000,1000,1000,74728430,1545,1545,1609,1608
45403498,1000,1000,1000,1000,74828390,1551,1552,1605,1603
45405997,1000,1000,1000,1000,74928350,1557,1559,1597,1597
45408496,1000,1000,1000,1000,75028310,1565,1566,1590,1590
45410995,1000,1000,1000,1000,75128270,1572,1572,1583,1584
45413494,1000,1000,1000,1000,75228230,1577,1577,1577,1577
45415993,1000,1000,1000,1000,75328190,1582,1582,1573,1573
45418492,1000,1000,1000,1000,75428983,1584,1584,1570,1570
45420991,1000,1000,1000,1000,75528943,1587,1585,1570,1569
45423490,1000,1000,1000,1000,75628903,1586,1585,1570,1570
45425989,1000,1000,1000,1000,75728863,1586,1584,1572,1572
45428488,1000,1000,1000,1000,75828823,1583,1582,1574,1574
45430987,1000,1000,1000,1000,75928783,1581,1581,1577,1577
45433486,1000,1000,1000,1000,76028743,1578,1578,1578,1579
45435985,1000,1000,1000,1000,76128703,1576,1576,1581,1581
45438484,1000,1000,1000,1000,76228663,1574,1574,1582,1582
45440983,1000,1000,1000,1000,76328623,1572,1572,1582,1582
45443482,1000,1000,1000,1000,76428583,1572,1573,1584,1583
45445981,1000,1000,1000,1000,76528543,1573,1573,1583,1583
45448480,1000,1000,1000,1000,76628503,1574,1574,1583,1583
45450979,1000,1000,1000,1000,76728463,1575,1575,1582,1582
45453478,1000,1000,1000,1000,76828423,1577,1576,1581,1580
45455977,1000,1000,1000,1000,76928383,1578,1578,1580,1580
45458476,1000,1000,1000,1000,77028343,1579,1579,1579,1579
45460975,1000,1000,1000,1000,77128303,1580,1580,1579,1579
45463474,1000,1000,1000,1000,77228263,1580,1581,1578,1578
45465973,1000,1000,1000,1000,77328223,1582,1582,1578,1578
45468472,1000,1000,1000,1000,77428183,1582,1581,1578,1578
45470971,1000,1000,1000,1000,77528976,1581,1581,1578,1578
45473470,1000,1000,1000,1000,77628936,1581,1581,1579,1579
45475969,1000,1000,1000,1000,77728896,1581,1581,1580,1580
45478468,1000,1000,1000,1000,77828856,1581,1581,1580,1580
45480967,1000,1000,1000,1000,77928816,1580,1579,1580,1580
45483466,1000,1000,1000,1000,78028776,1579,1579,1581,1580
45485965,1000,1000,1000,1000,78128736,1579,1580,1581,1581
45488464,1000,1000,1000,1000,78228696,1579,1579,1581,1581
45490963,1000,1000,1000,1000,78328656,1580,1581,1582,1582
45493462,1000,1000,1000,1000,78428616,1580,1580,1581,1581
45495961,1000,1000,1000,1000,78528576,1580,1580,1581,1581
45498460,1000,1000,1000,1000,78628536,1580,1580,1581,1581
45500959,1000,1000,1000,1000,78728496,1581,1581,1582,1581
45503458,1000,1000,1000,1000,78828456,1581,1581,1581,1581
45505957,1000,1000,1000,1000,78928416,1581,1581,1581,1581
45508456,1000,1000,1000,1000,79028376,1582,1582,1581,1581
45510955,1000,1000,1000,1000,79128336,1581,1581,1580,1580
45513454,1000,1000,1000,1000,79228296,1581,1582,1584,1577
45515953,1000,1000,1000,1000,79328256,1580,1583,1586,1572
45518452,1000,1000,1000,1000,79428216,1580,1584,1580,1573
45520951,1000,1000,1000,1000,79528176,1579,1581,1570,1571
45523450,1000,1000,1000,1000,79628969,1578,1580,1562,1569
45525949,1000,1000,1000,1000,79728929,1579,1579,1557,1564
45528448,1000,1000,1000,1000,79828889,1579,1579,1554,1559
45530947,1000,1000,1000,1000,79928849,1580,1579,1555,1555
45533446,1000,1000,1000,1000,80028809,1581,1579,1556,1554
45535945,1000,1000,1000,1000,80128769,1579,1578,1555,1553
45538444,1000,1000,1000,1000,80228729,1578,1578,1556,1554
45540943,1000,1000,1000,1000,80328689,1577,1577,1556,1555
45543442,1000,1000,1000,1000,80428649,1576,1578,1555,1555
45545941,1000,1000,1000,1000,80528609,1575,1577,1554,1554
45548440,1000,1000,1000,1000,80628569,1575,1577,1553,1553
45550939,1000,1000,1000,1000,80728529,1576,1577,1551,1551
45553438,1000,1000,1000,1000,80828489,1579,1580,1550,1550
45555937,1000,1000,1000,1000,80928449,1580,1581,1547,1547
45558436,1000,1000,1000,1000,81028409,1582,1582,1544,1543
45560935,1000,1000,1000,1000,81128369,1584,1585,1541,1541
45563434,1000,1000,1000,1000,81228329,1588,1589,1541,1540
45565933,1000,1000,1000,1000,81328289,1589,1590,1538,1538
45568432,1000,1000,1000,1000,81428249,1591,1591,1537,1538
45570931,1000,1000,1000,1000,81528209,1593,1593,1538,1539
45573430,1000,1000,1000,1000,81628169,1592,1593,1537,1540
45575929,1000,1000,1000,1000,81728962,1591,1591,1540,1543
45578428,1000,1000,1000,1000,81828922,1588,1587,1546,1548
45580927,1000,1000,1000,1000,81928882,1584,1580,1554,1556
45583426,1000,1000,1000,1000,82028842,1575,1571,1564,1565
45585925,1000,1000,1000,1000,82128802,1566,1562,1575,1577
45588424,1000,1000,1000,1000,82228762,1555,1552,1587,1588
45590923,1000,1000,1000,1000,82328722,1545,1542,1597,1597
45593422,1000,1000,1000,1000,82428682,1537,1536,1604,1604
45595921,1000,1000,1000,1000,82528642,1533,1534,1611,1610
45598420,1000,1000,1000,1000,82628602,1533,1534,1612,1612
45600919,1000,1000,1000,1000,82728562,1535,1536,1610,1610
45603418,1000,1000,1000,1000,82828522,1541,1542,1606,1606
45605917,1000,1000,1000,1000,82928482,1547,1548,1599,1599
45608416,1000,1000,1000,1000,83028442,1557,1558,1595,1594
45610915,1000,1000,1000,1000,83128402,1565,1566,1587,1586
45613414,1000,1000,1000,1000,83228362,1573,1573,1581,1580
45615913,1000,1000,1000,1000,83328322,1579,1579,1576,1575
45618412,1000,1000,1000,1000,83428282,1584,1583,1572,1572
45620911,1000,1000,1000,1000,83528242,1587,1586,1570,1570
45623410,1000,1000,1000,1000,83628202,1587,1586,1568,1568
45625909,1000,1000,1000,1000,83728162,1586,1585,1569,1569
45628408,1000,1000,1000,1000,83828955,1585,1583,1570,1571
45630907,1000,1000,1000,1000,83928915,1583,1582,1574,1574
45633406,1000,1000,1000,1000,84028875,1580,1581,1577,1577
45635905,1000,1000,1000,1000,84128835,1578,1578,1580,1579
45638404,1000,1000,1000,1000,84228795,1576,1576,1581,1581
45640903,1000,1000,1000,1000,84328755,1574,1574,1583,1583
45643402,1000,1000,1000,1000,84428715,1572,1574,1583,1583
45645901,1000,1000,1000,1000,84528675,1573,1573,1583,1584
45648400,1000,1000,1000,1000,84628635,1574,1574,1583,1584
45650899,1000,1000,1000,1000,84728595,1574,1575,1582,1582
45653398,1000,1000,1000,1000,84828555,1576,1576,1582,1581
45655897,1000,1000,1000,1000,84928515,1577,1577,1580,1580
45658396,1000,1000,1000,1000,85028475,1578,1578,1579,1579
45660895,1000,1000,1000,1000,85128435,1579,1579,1578,1579
45663394,1000,1000,1000,1000,85228395,1581,1580,1578,1578
45665893,1000,1000,1000,1000,85328355,1581,1580,1578,1577
45668392,1000,1000,1000,1000,85428315,1582,1582,1579,1578
45670891,1000,1000,1000,1000,85528275,1580,1581,1578,1577
45673390,1000,1000,1000,1000,85628235,1580,1581,1577,1578
45675889,1000,1000,1000,1000,85728195,1579,1580,1577,1577
45678388,1000,1000,1000,1000,85828155,1580,1579,1578,1578
45680887,1000,1000,1000,1000,85928948,1580,1579,1578,1579
45683386,1000,1000,1000,1000,86028908,1579,1579,1580,1580
45685885,1000,1000,1000,1000,86128868,1578,1578,1579,1579
45688384,1000,1000,1000,1000,86228828,1579,1579,1580,1580
45690883,1000,1000,1000,1000,86328788,1578,1579,1580,1580
45693382,1000,1000,1000,1000,86428748,1578,1578,1580,1580
45695881,1000,1000,1000,1000,86528708,1579,1579,1581,1580
45698380,1000,1000,1000,1000,86628668,1580,1580,1581,1581
45700879,1000,1000,1000,1000,86728628,1580,1579,1581,1580
45703378,1000,1000,1000,1000,86828588,1580,1580,1580,1580
45705877,1000,1000,1000,1000,86928548,1580,1580,1580,1580
45708376,1000,1000,1000,1000,87028508,1581,1581,1581,1581
45710875,1000,1000,1000,1000,87128468,1582,1582,1583,1579
45713374,1000,1000,1000,1000,87228428,1581,1582,1587,1573
45715873,1000,1000,1000,1000,87328388,1580,1581,1583,1574
45718372,1000,1000,1000,1000,87428348,1578,1578,1576,1576
45720871,1000,1000,1000,1000,87528308,1575,1574,1570,1575
45723370,1000,1000,1000,1000,87628268,1571,1571,1566,1573
45725869,1000,1000,1000,1000,87728228,1569,1569,1565,1571
45728368,1000,1000,1000,1000,87828188,1569,1568,1567,1570
45730867,1000,1000,1000,1000,87928981,1568,1567,1568,1568
45733366,1000,1000,1000,1000,88028941,1565,1566,1567,1565
45735865,1000,1000,1000,1000,88128901,1566,1566,1568,1566
45738364,1000,1000,1000,1000,88228861,1565,1565,1567,1565
45740863,1000,1000,1000,1000,88328821,1564,1564,1565,1564
45743362,1000,1000,1000,1000,88428781,1564,1563,1565,1564
45745861,1000,1000,1000,1000,88528741,1563,1563,1563,1563
45748360,1000,1000,1000,1000,88628701,1561,1561,1561,1562
45750859,1000,1000,1000,1000,88728661,1561,1561,1560,1561
45753358,1000,1000,1000,1000,88828621,1560,1560,1560,1559
45755857,1000,1000,1000,1000,88928581,1560,1560,1560,1560
45758356,1000,1000,1000,1000,89028541,1559,1560,1560,1559
45760855,1000,1000,1000,1000,89128501,1559,1558,1558,1558
45763354,1000,1000,1000,1000,89228461,1558,1558,1558,1557
45765853,1000,1000,1000,1000,89328421,1557,1557,1557,1557
45768352,1000,1000,1000,1000,89428381,1557,1557,1558,1557
45770851,1000,1000,1000,1000,89528341,1557,1557,1557,1557
45773350,1000,1000,1000,1000,89628301,1557,1556,1557,1556
45775849,1000,1000,1000,1000,89728261,1557,1557,1558,1556
45778348,1000,1000,1000,1000,89828221,1558,1558,1559,1556
45780847,1000,1000,1000,1000,89928181,1560,1559,1561,1558
45783346,1000,1000,1000,1000,90028974,1559,1560,1558,1561
45785845,1000,1000,1000,1000,90128934,1560,1560,1557,1563
45788344,1000,1000,1000,1000,90228894,1561,1561,1558,1564
45790843,1000,1000,1000,1000,90328854,1563,1562,1559,1565
45793342,1000,1000,1000,1000,90428814,1563,1563,1562,1564
45795841,1000,1000,1000,1000,90528774,1562,1562,1563,1562
45798340,1000,1000,1000,1000,90628734,1560,1561,1562,1559
45800839,1000,1000,1000,1000,90728694,1559,1560,1562,1557
45803338,1000,1000,1000,1000,90828654,1560,1559,1558,1561
45805837,1000,1000,1000,1000,90928614,1555,1555,1552,1558
45808336,1000,1000,1000,1000,91028574,1551,1551,1548,1553
45810835,1000,1000,1000,1000,91128534,1545,1546,1545,1546
45813334,1000,1000,1000,1000,91228494,1540,1540,1540,1539
45815833,1000,1000,1000,1000,91328454,1532,1532,1532,1531
45818332,1000,1000,1000,1000,91428414,1525,1525,1526,1525
45820831,1000,1000,1000,1000,91528374,1520,1520,1521,1520
45823330,1000,1000,1000,1000,91628334,1519,1519,1519,1519
45825829,1000,1000,1000,1000,91728294,1520,1519,1520,1519
45828328,1000,1000,1000,1000,91828254,1522,1522,1522,1521
45830827,1000,1000,1000,1000,91928214,1525,1525,1525,1525
45833326,1000,1000,1000,1000,92028174,1530,1529,1529,1530
45835825,1000,1000,1000,1000,92128967,1534,1534,1534,1534
45838324,1000,1000,1000,1000,92228927,1538,1538,1538,1538
45840823,1000,1000,1000,1000,92328887,1541,1542,1541,1541
45843322,1000,1000,1000,1000,92428847,1543,1543,1543,1543
45845821,1000,1000,1000,1000,92528807,1545,1545,1545,1546
45848320,1000,1000,1000,1000,92628767,1546,1546,1546,1546
45850819,1000,1000,1000,1000,92728727,1545,1546,1546,1545
45853318,1000,1000,1000,1000,92828687,1545,1545,1546,1545
45855817,1000,1000,1000,1000,92928647,1546,1546,1546,1546
45858316,1000,1000,1000,1000,93028607,1546,1546,1546,1546
45860815,1000,1000,1000,1000,93128567,1546,1546,1546,1546
45863314,1000,1000,1000,1000,93228527,1545,1545,1545,1545
45865813,1000,1000,1000,1000,93328487,1545,1545,1545,1545
45868312,1000,1000,1000,1000,93428447,1545,1545,1545,1545
45870811,1000,1000,1000,1000,93528407,1545,1545,1545,1545
45873310,1000,1000,1000,1000,93628367,1546,1546,1546,1545
45875809,1000,1000,1000,1000,93728327,1545,1545,1545,1545
45878308,1000,1000,1000,1000,93828287,1544,1544,1544,1544
45880807,1000,1000,1000,1000,93928247,1545,1544,1544,1545
45883306,1000,1000,1000,1000,94028207,1544,1545,1545,1545
45885805,1000,1000,1000,1000,94128167,1544,1543,1544,1543
45888304,1000,1000,1000,1000,94228960,1543,1544,1544,1543
45890803,1000,1000,1000,1000,94328920,1544,1544,1544,1544
45893302,1000,1000,1000,1000,94428880,1544,1544,1544,1544
45895801,1000,1000,1000,1000,94528840,1543,1543,1543,1543
45898300,1000,1000,1000,1000,94628800,1545,1544,1545,1544
45900799,1000,1000,1000,1000,94728760,1545,1545,1545,1545
45903298,1000,1000,1000,1000,94828720,1544,1544,1544,1544
45905797,1000,1000,1000,1000,94928680,1544,1544,1544,1544
45908296,1000,1000,1000,1000,95028640,1544,1545,1545,1544
45910795,1000,1000,1000,1000,95128600,1544,1544,1544,1544
45913294,1000,1000,1000,1000,95228560,1545,1545,1545,1544
45915793,1000,1000,1000,1000,95328520,1545,1544,1544,1545
45918292,1000,1000,1000,1000,95428480,1543,1544,1544,1544
45920791,1000,1000,1000,1000,95528440,1544,1544,1544,1544
45923290,1000,1000,1000,1000,95628400,1544,1544,1544,1543
45925789,1000,1000,1000,1000,95728360,1544,1544,1544,1544
45928288,1000,1000,1000,1000,95828320,1545,1545,1545,1545
45930787,1000,1000,1000,1000,95928280,1544,1544,1544,1544
45933286,1000,1000,1000,1000,96028240,1544,1544,1544,1544
45935785,1000,1000,1000,1000,96128200,1544,1544,1544,1544
45938284,1000,1000,1000,1000,96228160,1543,1543,1543,1543
45940783,1000,1000,1000,1000,96328953,1544,1544,1543,1544
45943282,1000,1000,1000,1000,96428913,1543,1543,1543,1543
45945781,1000,1000,1000,1000,96528873,1544,1544,1544,1544
45948280,1000,1000,1000,1000,96628833,1545,1545,1545,1545
45950779,1000,1000,1000,1000,96728793,1545,1545,1545,1545
45953278,1000,1000,1000,1000,96828753,1545,1545,1545,1544
45955777,1000,1000,1000,1000,96928713,1544,1544,1544,1545
45958276,1000,1000,1000,1000,97028673,1544,1545,1544,1545
45960775,1000,1000,1000,1000,97128633,1545,1544,1544,1545
45963274,1000,1000,1000,1000,97228593,1545,1544,1544,1545
45965773,1000,1000,1000,1000,97328553,1545,1545,1545,1545
45968272,1000,1000,1000,1000,97428513,1545,1545,1545,1545
45970771,1000,1000,1000,1000,97528473,1545,1545,1545,1545
45973270,1000,1000,1000,1000,97628433,1544,1544,1544,1544
45975769,1000,1000,1000,1000,97728393,1545,1544,1545,1545
45978268,1000,1000,1000,1000,97828353,1545,1545,1545,1545
45980767,1000,1000,1000,1000,97928313,1545,1544,1544,1545
45983266,1000,1000,1000,1000,98028273,1544,1544,1544,1544
45985765,1000,1000,1000,1000,98128233,1544,1544,1544,1544
45988264,1000,1000,1000,1000,98228193,1544,1545,1544,1545
45990763,1000,1000,1000,1000,98328986,1544,1544,1543,1544
45993262,1000,1000,1000,1000,98428946,1544,1544,1544,1544
45995761,1000,1000,1000,1000,98528906,1544,1543,1544,1544
45998260,1000,1000,1000,1000,98628866,1544,1544,1544,1544
46000759,1000,1000,1000,1000,98728826,1544,1544,1544,1544
46003258,1000,1000,1000,1000,98828786,1544,1544,1544,1544
46005757,1000,1000,1000,1000,98928746,1544,1544,1544,1544
46008256,1000,1000,1000,1000,99028706,1544,1545,1544,1544
46010755,1000,1000,1000,1000,99128666,1545,1545,1544,1545
46013254,1000,1000,1000,1000,99228626,1545,1545,1545,1545
46015753,1000,1000,1000,1000,99328586,1544,1544,1544,1545
46018252,1000,1000,1000,1000,99428546,1542,1543,1543,1543
46020751,1000,1000,1000,1000,99528506,1543,1543,1543,1543
46023250,1000,1000,1000,1000,99628466,1543,1544,1544,1543
46025749,1000,1000,1000,1000,99728426,1545,1544,1544,1544
46028248,1000,1000,1000,1000,99828386,1545,1545,1545,1545
46030747,1000,1000,1000,1000,99928346,1544,1544,1544,1544
46033246,1000,1000,1000,1000,100028306,1544,1544,1544,1544
46035745,1000,1000,1000,1000,100128266,1544,1544,1544,1544
46038244,1000,1000,1000,1000,100228226,1544,1544,1544,1544
46040743,1000,1000,1000,1000,100328186,1544,1543,1543,1544
46043242,1000,1000,1000,1000,100428979,1544,1545,1545,1544
46045741,1000,1000,1000,1000,100528939,1545,1544,1544,1545
46048240,1000,1000,1000,1000,100628899,1545,1545,1545,1545
46050739,1000,1000,1000,1000,100728859,1546,1545,1545,1546
46053238,1000,1000,1000,1000,100828819,1545,1545,1545,1545
46055737,1000,1000,1000,1000,100928779,1545,1545,1545,1545
46058236,1000,1000,1000,1000,101028739,1544,1545,1545,1544
46060735,1000,1000,1000,1000,101128699,1545,1544,1545,1545
46063234,1000,1000,1000,1000,101228659,1525,1527,1524,1528
46065733,1000,1000,1000,1000,101328619,1303,1339,1302,1340
46068232,1000,1000,1000,1000,101428579,1237,1290,1237,1290
46070731,1000,1000,1000,1000,101528539,1238,1290,1237,1292
46073230,1000,1000,1000,1000,101628499,1237,1290,1237,1291
46075729,1000,1000,1000,1000,101728459,1238,1290,1237,1291
46078228,1000,1000,1000,1000,101828419,1238,1290,1237,1291
46080727,1000,1000,1000,1000,101928379,1263,1271,1237,1292
46083226,1000,1000,1000,1000,102028339,1259,1274,1237,1292
46085725,1000,1000,1000,1000,102128299,1254,1279,1237,1292
46088224,1000,1000,1000,1000,102228259,1253,1279,1237,1292
46090723,1000,1000,1000,1000,102328219,1254,1278,1237,1292
46093222,1000,1000,1000,1000,102428179,1254,1278,1237,1292
46095721,1000,1000,1000,1000,102528972,1256,1277,1237,1292
46098220,1000,1000,1000,1000,102628932,1257,1276,1237,1292
46100719,1000,1000,1000,1000,102728892,1241,1284,1237,1288
46103218,1000,1000,1000,1000,102828852,1245,1284,1237,1291
46105717,1000,1000,1000,1000,102928812,1246,1284,1237,1291
46108216,1000,1000,1000,1000,103028772,1247,1284,1237,1292
46110715,1000,1000,1000,1000,103128732,1247,1283,1237,1292
46113214,1000,1000,1000,1000,103228692,1000,1000,1000,1000
46115713,1000,1000,1000,1000,103328652,1000,1000,1000,1000
46118212,1000,1000,1000,1000,103428612,1000,1000,1000,1000
46120711,1000,1000,1000,1000,103528572,1000,1000,1000,1000
46123210,1000,1000,1000,1000,103628532,1000,1000,1000,1000
46125709,1000,1000,1000,1000,103728492,1000,1000,1000,1000
46128208,1000,1000,1000,1000,103828452,1000,1000,1000,1000
46130707,1000,1000,1000,1000,103928412,1000,1000,1000,1000
46133206,1000,1000,1000,1000,104028372,1000,1000,1000,1000
46135705,1000,1000,1000,1000,104128332,1000,1000,1000,1000
46138204,1000,1000,1000,1000,104228292,1000,1000,1000,1000
46140703,1000,1000,1000,1000,104328252,1000,1000,1000,1000
46143202,1000,1000,1000,1000,104428212,1000,1000,1000,1000
46145701,1000,1000,1000,1000,104528172,1000,1000,1000,1000
46148200,1000,1000,1000,1000,104628965,1000,1000,1000,1000
46150699,1000,1000,1000,1000,104728925,1000,1000,1000,1000
46153198,1000,1000,1000,1000,104828885,1000,1000,1000,1000
46155697,1000,1000,1000,1000,104928845,1000,1000,1000,1000
46158196,1000,1000,1000,1000,105028805,1000,1000,1000,1000
46160695,1000,1000,1000,1000,105128765,1000,1000,1000,1000
46163194,1000,1000,1000,1000,105228725,1000,1000,1000,1000
46165693,1000,1000,1000,1000,105328685,1000,1000,1000,1000
46168192,1000,1000,1000,1000,105428645,1000,1000,1000,1000
46170691,1000,1000,1000,1000,105528605,1000,1000,1000,1000
46173190,1000,1000,1000,1000,105628565,1000,1000,1000,1000
46175689,1000,1000,1000,1000,105728525,1000,1000,1000,1000
46178188,1000,1000,1000,1000,105828485,1000,1000,1000,1000
46180687,1000,1000,1000,1000,105928445,1000,1000,1000,1000
46183186,1000,1000,1000,1000,106028405,1000,1000,1000,1000
46185685,1000,1000,1000,1000,106128365,1000,1000,1000,1000
46188184,1000,1000,1000,1000,106228325,1000,1000,1000,1000
46190683,1000,1000,1000,1000,106328285,1000,1000,1000,1000
46193182,1000,1000,1000,1000,106428245,1000,1000,1000,1000
46195681,1000,1000,1000,1000,106528205,1000,1000,1000,1000
46198180,1000,1000,1000,1000,106628165,1000,1000,1000,1000
46200679,1000,1000,1000,1000,106728958,1000,1000,1000,1000
46203178,1000,1000,1000,1000,106828918,1000,1000,1000,1000
46205677,1000,1000,1000,1000,106928878,1000,1000,1000,1000
46208176,1000,1000,1000,1000,107028838,1000,1000,1000,1000
46210675,1000,1000,1000,1000,107128798,1000,1000,1000,1000
46213174,1000,1000,1000,1000,107228758,1000,1000,1000,1000
46215673,1000,1000,1000,1000,107328718,1000,1000,1000,1000
46218172,1000,1000,1000,1000,107428678,1000,1000,1000,1000
46220671,1000,1000,1000,1000,107528638,1000,1000,1000,1000
46223170,1000,1000,1000,1000,107628598,1000,1000,1000,1000
46225669,1000,1000,1000,1000,107728558,1000,1000,1000,1000
46228168,1000,1000,1000,1000,107828518,1000,1000,1000,1000
46230667,1000,1000,1000,1000,107928478,1000,1000,1000,1000
46233166,1000,1000,1000,1000,108028438,1000,1000,1000,1000
46235665,1000,1000,1000,1000,108128398,1000,1000,1000,1000
46238164,1000,1000,1000,1000,108228358,1000,1000,1000,1000
46240663,1000,1000,1000,1000,108328318,1000,1000,1000,1000
46243162,1000,1000,1000,1000,108428278,1000,1000,1000,1000
46245661,1000,1000,1000,1000,108528238,1000,1000,1000,1000
46248160,1000,1000,1000,1000,108628198,1000,1000,1000,1000
46250659,1000,1000,1000,1000,108728158,1000,1000,1000,1000
46253158,1000,1000,1000,1000,108828951,1000,1000,1000,1000
46255657,1000,1000,1000,1000,108928911,1000,1000,1000,1000
46258156,1000,1000,1000,1000,109028871,1000,1000,1000,1000
46260655,1000,1000,1000,1000,109128831,1000,1000,1000,1000
46263154,1000,1000,1000,1000,109228791,1000,1000,1000,1000
46266486,1000,1000,1000,1000,109328751,1000,1000,1000,1000
46268985,1000,1000,1000,1000,109428711,1000,1000,1000,1000
46271484,1000,1000,1000,1000,109528671,1000,1000,1000,1000
46273983,1000,1000,1000,1000,109628631,1000,1000,1000,1000
46276482,1000,1000,1000,1000,109728591,1000,1000,1000,1000
46278981,1000,1000,1000,1000,109828551,1000,1000,1000,1000
46281480,1000,1000,1000,1000,109928511,1000,1000,1000,1000
46283979,1000,1000,1000,1000,110028471,1000,1000,1000,1000
46286478,1000,1000,1000,1000,110128431,1000,1000,1000,1000
46288977,1000,1000,1000,1000,110228391,1000,1000,1000,1000
46291476,1000,1000,1000,1000,110328351,1000,1000,1000,1000
46293975,1000,1000,1000,1000,110428311,1000,1000,1000,1000
46296474,1000,1000,1000,1000,110528271,1000,1000,1000,1000
46298973,1000,1000,1000,1000,110628231,1000,1000,1000,1000
46301472,1000,1000,1000,1000,110728191,1000,1000,1000,1000
46303971,1000,1000,1000,1000,110828984,1000,1000,1000,1000
46306470,1000,1000,1000,1000,110928944,1000,1000,1000,1000
46308969,1000,1000,1000,1000,111028904,1000,1000,1000,1000
46311468,1000,1000,1000,1000,111128864,1000,1000,1000,1000
46313967,1000,1000,1000,1000,111228824,1000,1000,1000,1000
46316466,1000,1000,1000,1000,111328784,1000,1000,1000,1000
46318965,1000,1000,1000,1000,111428744,1000,1000,1000,1000
46321464,1000,1000,1000,1000,111528704,1000,1000,1000,1000
46323963,1000,1000,1000,1000,111628664,1000,1000,1000,1000
46326462,1000,1000,1000,1000,111728624,1000,1000,1000,1000
46328961,1000,1000,1000,1000,111828584,1000,1000,1000,1000
46331460,1000,1000,1000,1000,111928544,1000,1000,1000,1000
46333959,1000,1000,1000,1000,112028504,1000,1000,1000,1000
46336458,1000,1000,1000,1000,112128464,1000,1000,1000,1000
46338957,1000,1000,1000,1000,112228424,1000,1000,1000,1000
46341456,1000,1000,1000,1000,112328384,1000,1000,1000,1000
46343955,1000,1000,1000,1000,112428344,1000,1000,1000,1000
46346454,1000,1000,1000,1000,112528304,1000,1000,1000,1000
46348953,1000,1000,1000,1000,112628264,1000,1000,1000,1000
46351452,1000,1000,1000,1000,112728224,1000,1000,1000,1000
46353951,1000,1000,1000,1000,112828184,1000,1000,1000,1000
46356450,1000,1000,1000,1000,112928977,1000,1000,1000,1000
46358949,1000,1000,1000,1000,113028937,1000,1000,1000,1000
46361448,1000,1000,1000,1000,113128897,1000,1000,1000,1000
46363947,1000,1000,1000,1000,113228857,1000,1000,1000,1000
46366446,1000,1000,1000,1000,113328817,1000,1000,1000,1000
46368945,1000,1000,1000,1000,113428777,1000,1000,1000,1000
46371444,1000,1000,1000,1000,113528737,1000,1000,1000,1000
46373943,1000,1000,1000,1000,113628697,1000,1000,1000,1000
46376442,1000,1000,1000,1000,113728657,1000,1000,1000,1000
46378941,1000,1000,1000,1000,113828617,1000,1000,1000,1000
46381440,1000,1000,1000,1000,113928577,1000,1000,1000,1000
46383939,1000,1000,1000,1000,114028537,1000,1000,1000,1000
46386438,1000,1000,1000,1000,114128497,1000,1000,1000,1000
46388937,1000,1000,1000,1000,114228457,1000,1000,1000,1000
46391436,1000,1000,1000,1000,114328417,1000,1000,1000,1000
46393935,1000,1000,1000,1000,,,,,
46396434,1000,1000,1000,1000,,,,,
46398933,1000,1000,1000,1000,,,,,
46401432,1000,1000,1000,1000,,,,,
46403931,1000,1000,1000,1000,,,,,
46406430,1000,1000,1000,1000,,,,,
46408929,1000,1000,1000,1000,,,,,
46411428,1000,1000,1000,1000,,,,,
46413927,1000,1000,1000,1000,,,,,
46416426,1000,1000,1000,1000,,,,,
46418925,1000,1000,1000,1000,,,,,
46421424,1000,1000,1000,1000,,,,,
46423923,1000,1000,1000,1000,,,,,
46426422,1000,1000,1000,1000,,,,,
46428921,1000,1000,1000,1000,,,,,
46431420,1000,1000,1000,1000,,,,,
46433919,1000,1000,1000,1000,,,,,
46436418,1000,1000,1000,1000,,,,,
46438917,1000,1000,1000,1000,,,,,
46441416,1000,1000,1000,1000,,,,,
46443915,1000,1000,1000,1000,,,,,
46446414,1000,1000,1000,1000,,,,,
46448913,1000,1000,1000,1000,,,,,
46451412,1000,1000,1000,1000,,,,,
46453911,1000,1000,1000,1000,,,,,
46456410,1000,1000,1000,1000,,,,,
46458909,1000,1000,1000,1000,,,,,
46461408,1000,1000,1000,1000,,,,,
46463907,1000,1000,1000,1000,,,,,
46466406,1000,1000,1000,1000,,,,,
46468905,1000,1000,1000,1000,,,,,
46471404,1000,1000,1000,1000,,,,,
46473903,1000,1000,1000,1000,,,,,
46476402,1000,1000,1000,1000,,,,,
46478901,1000,1000,1000,1000,,,,,
46481400,1000,1000,1000,1000,,,,,
46483899,1000,1000,1000,1000,,,,,
46486398,1000,1000,1000,1000,,,,,
46488897,1000,1000,1000,1000,,,,,
46491396,1000,1000,1000,1000,,,,,
46493895,1000,1000,1000,1000,,,,,
46496394,1000,1000,1000,1000,,,,,
46498893,1000,1000,1000,1000,,,,,
46501392,1000,1000,1000,1000,,,,,
46503891,1000,1000,1000,1000,,,,,
46506390,1000,1000,1000,1000,,,,,
46508889,1000,1000,1000,1000,,,,,
46511388,1000,1000,1000,1000,,,,,
46513887,1000,1000,1000,1000,,,,,
46516386,1000,1000,1000,1000,,,,,
46518885,1000,1000,1000,1000,,,,,
46521384,1000,1000,1000,1000,,,,,
46523883,1000,1000,1000,1000,,,,,
46526382,1000,1000,1000,1000,,,,,
46528881,1000,1000,1000,1000,,,,,
46531380,1000,1000,1000,1000,,,,,
46533879,1000,1000,1000,1000,,,,,
46536378,1000,1000,1000,1000,,,,,
46538877,1000,1000,1000,1000,,,,,
46541376,1000,1000,1000,1000,,,,,
46543875,1000,1000,1000,1000,,,,,
46546374,1000,1000,1000,1000,,,,,
46548873,1000,1000,1000,1000,,,,,
46551372,1000,1000,1000,1000,,,,,
46553871,1000,1000,1000,1000,,,,,
46556370,1000,1000,1000,1000,,,,,
46558869,1000,1000,1000,1000,,,,,
46561368,1000,1000,1000,1000,,,,,
46563867,1000,1000,1000,1000,,,,,
46566366,1000,1000,1000,1000,,,,,
46568865,1000,1000,1000,1000,,,,,
46571364,1000,1000,1000,1000,,,,,
46573863,1000,1000,1000,1000,,,,,
46576362,1000,1000,1000,1000,,,,,
46578861,1000,1000,1000,1000,,,,,
46581360,1000,1000,1000,1000,,,,,
46583859,1000,1000,1000,1000,,,,,
46586358,1000,1000,1000,1000,,,,,
46588857,1000,1000,1000,1000,,,,,
46591356,1000,1000,1000,1000,,,,,
46593855,1000,1000,1000,1000,,,,,
46596354,1000,1000,1000,1000,,,,,
46598853,1000,1000,1000,1000,,,,,
46601352,1000,1000,1000,1000,,,,,
46603851,1000,1000,1000,1000,,,,,
46606350,1000,1000,1000,1000,,,,,
46608849,1000,1000,1000,1000,,,,,
46611348,1000,1000,1000,1000,,,,,
46613847,1000,1000,1000,1000,,,,,
46616346,1000,1000,1000,1000,,,,,
46618845,1000,1000,1000,1000,,,,,
46621344,1000,1000,1000,1000,,,,,
46623843,1000,1000,1000,1000,,,,,
46626342,1000,1000,1000,1000,,,,,
46628841,1000,1000,1000,1000,,,,,
46631340,1000,1000,1000,1000,,,,,
46633839,1000,1000,1000,1000,,,,,
46636338,1000,1000,1000,1000,,,,,
46638837,1000,1000,1000,1000,,,,,
46641336,1000,1000,1000,1000,,,,,
46643835,1000,1000,1000,1000,,,,,
46646334,1000,1000,1000,1000,,,,,
46648833,1000,1000,1000,1000,,,,,
46651332,1000,1000,1000,1000,,,,,
46653831,1000,1000,1000,1000,,,,,
46656330,1000,1000,1000,1000,,,,,
46658829,1001,1001,1001,1001,,,,,
46661328,1002,1002,1002,1002,,,,,
46663827,1003,1003,1003,1003,,,,,
46666326,1003,1003,1003,1003,,,,,
46668825,1004,1004,1004,1004,,,,,
46671324,1005,1005,1005,1005,,,,,
46673823,1006,1006,1006,1006,,,,,
46676322,1006,1006,1006,1006,,,,,
46678821,1007,1007,1007,1007,,,,,
46681320,1008,1008,1008,1008,,,,,
46683819,1009,1009,1009,1009,,,,,
46686318,1009,1009,1009,1009,,,,,
46688817,1010,1010,1010,1010,,,,,
46691316,1011,1011,1011,1011,,,,,
46693815,1012,1012,1012,1012,,,,,
46696314,1012,1012,1012,1012,,,,,
46698813,1013,1013,1013,1013,,,,,
46701312,1014,1014,1014,1014,,,,,
46703811,1015,1015,1015,1015,,,,,
46706310,1015,1015,1015,1015,,,,,
46708809,1016,1016,1016,1016,,,,,
46711308,1017,1017,1017,1017,,,,,
46713807,1018,1018,1018,1018,,,,,
46716306,1018,1018,1018,1018,,,,,
46718805,1019,1019,1019,1019,,,,,
46721304,1020,1020,1020,1020,,,,,
46723803,1021,1021,1021,1021,,,,,
46726302,1021,1021,1021,1021,,,,,
46728801,1022,1022,1022,1022,,,,,
46731300,1023,1023,1023,1023,,,,,
46733799,1024,1024,1024,1024,,,,,
46736298,1024,1024,1024,1024,,,,,
46738797,1025,1025,1025,1025,,,,,
46741296,1026,1026,1026,1026,,,,,
46743795,1027,1027,1027,1027,,,,,
46746294,1027,1027,1027,1027,,,,,
46748793,1028,1028,1028,1028,,,,,
46751292,1029,1029,1029,1029,,,,,
46753791,1030,1030,1030,1030,,,,,
46756290,1030,1030,1030,1030,,,,,
46758789,1031,1031,1031,1031,,,,,
46761288,1032,1032,1032,1032,,,,,
46763787,1033,1033,1033,1033,,,,,
46766286,1033,1033,1033,1033,,,,,
46768785,1034,1034,1034,1034,,,,,
46771284,1035,1035,1035,1035,,,,,
46773783,1036,1036,1036,1036,,,,,
46776282,1036,1036,1036,1036,,,,,
46778781,1037,1037,1037,1037,,,,,
46781280,1038,1038,1038,1038,,,,,
46783779,1039,1039,1039,1039,,,,,
46786278,1039,1039,1039,1039,,,,,
46788777,1040,1040,1040,1040,,,,,
46791276,1041,1041,1041,1041,,,,,
46793775,1042,1042,1042,1042,,,,,
46796274,1042,1042,1042,1042,,,,,
46798773,1043,1043,1043,1043,,,,,
46801272,1044,1044,1044,1044,,,,,
46803771,1045,1045,1045,1045,,,,,
46806270,1045,1045,1045,1045,,,,,
46808769,1046,1046,1046,1046,,,,,
46811268,1047,1047,1047,1047,,,,,
46813767,1048,1048,1048,1048,,,,,
46816266,1048,1048,1048,1048,,,,,
46818765,1049,1049,1049,1049,,,,,
46821264,1050,1050,1050,1050,,,,,
46823763,1051,1051,1051,1051,,,,,
46826262,1051,1051,1051,1051,,,,,
46828761,1052,1052,1052,1052,,,,,
46831260,1053,1053,1053,1053,,,,,
46833759,1054,1054,1054,1054,,,,,
46836258,1054,1054,1054,1054,,,,,
46838757,1055,1055,1055,1055,,,,,
46841256,1056,1056,1056,1056,,,,,
46843755,1057,1057,1057,1057,,,,,
46846254,1057,1057,1057,1057,,,,,
46848753,1058,1058,1058,1058,,,,,
46851252,1059,1059,1059,1059,,,,,
46853751,1060,1060,1060,1060,,,,,
46856250,1060,1060,1060,1060,,,,,
46858749,1061,1061,1061,1061,,,,,
46861248,1062,1062,1062,1062,,,,,
46863747,1063,1063,1063,1063,,,,,
46866246,1063,1063,1063,1063,,,,,
46868745,1064,1064,1064,1064,,,,,
46871244,1065,1065,1065,1065,,,,,
46873743,1066,1066,1066,1066,,,,,
46876242,1066,1066,1066,1066,,,,,
46878741,1067,1067,1067,1067,,,,,
46881240,1068,1068,1068,1068,,,,,
46883739,1069,1069,1069,1069,,,,,
46886238,1069,1069,1069,1069,,,,,
46888737,1070,1070,1070,1070,,,,,
46891236,1071,1071,1071,1071,,,,,
46893735,1072,1072,1072,1072,,,,,
46896234,1072,1072,1072,1072,,,,,
46898733,1073,1073,1073,1073,,,,,
46901232,1074,1074,1074,1074,,,,,
46903731,1075,1075,1075,1075,,,,,
46906230,1075,1075,1075,1075,,,,,
46908729,1076,1076,1076,1076,,,,,
46911228,1077,1077,1077,1077,,,,,
46913727,1078,1078,1078,1078,,,,,
46916226,1078,1078,1078,1078,,,,,
46918725,1079,1079,1079,1079,,,,,
46921224,1080,1080,1080,1080,,,,,
46923723,1081,1081,1081,1081,,,,,
46926222,1081,1081,1081,1081,,,,,
46928721,1082,1082,1082,1082,,,,,
46931220,1083,1083,1083,1083,,,,,
46933719,1084,1084,1084,1084,,,,,
46936218,1084,1084,1084,1084,,,,,
46938717,1085,1085,1085,1085,,,,,
46941216,1086,1086,1086,1086,,,,,
46943715,1087,1087,1087,1087,,,,,
46946214,1087,1087,1087,1087,,,,,
46948713,1088,1088,1088,1088,,,,,
46951212,1089,1089,1089,1089,,,,,
46953711,1090,1090,1090,1090,,,,,
46956210,1090,1090,1090,1090,,,,,
46958709,1091,1091,1091,1091,,,,,
46961208,1092,1092,1092,1092,,,,,
46963707,1093,1093,1093,1093,,,,,
46966206,1093,1093,1093,1093,,,,,
46968705,1094,1094,1094,1094,,,,,
46971204,1095,1095,1095,1095,,,,,
46973703,1096,1096,1096,1096,,,,,
46976202,1096,1096,1096,1096,,,,,
46978701,1097,1097,1097,1097,,,,,
46981200,1098,1098,1098,1098,,,,,
46983699,1099,1099,1099,1099,,,,,
46986198,1099,1099,1099,1099,,,,,
46988697,1100,1100,1100,1100,,,,,
46991196,1101,1101,1101,1101,,,,,
46993695,1101,1101,1101,1101,,,,,
46996194,1102,1102,1102,1102,,,,,
46998693,1103,1103,1103,1103,,,,,
47001192,1104,1104,1104,1104,,,,,
47003691,1104,1104,1104,1104,,,,,
47006190,1105,1105,1105,1105,,,,,
47008689,1106,1106,1106,1106,,,,,
47011188,1107,1107,1107,1107,,,,,
47013687,1107,1107,1107,1107,,,,,
47016186,1108,1108,1108,1108,,,,,
47018685,1109,1109,1109,1109,,,,,
47021184,1110,1110,1110,1110,,,,,
47023683,1110,1110,1110,1110,,,,,
47026182,1111,1111,1111,1111,,,,,
47028681,1112,1112,1112,1112,,,,,
47031180,1113,1113,1113,1113,,,,,
47033679,1113,1113,1113,1113,,,,,
47036178,1114,1114,1114,1114,,,,,
47038677,1115,1115,1115,1115,,,,,
47041176,1116,1116,1116,1116,,,,,
47043675,1116,1116,1116,1116,,,,,
47046174,1117,1117,1117,1117,,,,,
47048673,1118,1118,1118,1118,,,,,
47051172,1119,1119,1119,1119,,,,,
47053671,1119,1119,1119,1119,,,,,
47056170,1120,1120,1120,1120,,,,,
47058669,1121,1121,1121,1121,,,,,
47061168,1122,1122,1122,1122,,,,,
47063667,1122,1122,1122,1122,,,,,
47066166,1123,1123,1123,1123,,,,,
47068665,1124,1124,1124,1124,,,,,
47071164,1125,1125,1125,1125,,,,,
47073663,1125,1125,1125,1125,,,,,
47076162,1126,1126,1126,1126,,,,,
47078661,1127,1127,1127,1127,,,,,
47081160,1128,1128,1128,1128,,,,,
47083659,1128,1128,1128,1128,,,,,
47086158,1129,1129,1129,1129,,,,,
47088657,1130,1130,1130,1130,,,,,
47091156,1131,1131,1131,1131,,,,,
47093655,1131,1131,1131,1131,,,,,
47096154,1132,1132,1132,1132,,,,,
47098653,1133,1133,1133,1133,,,,,
47101152,1134,1134,1134,1134,,,,,
47103651,1134,1134,1134,1134,,,,,
47106150,1135,1135,1135,1135,,,,,
47108649,1136,1136,1136,1136,,,,,
47111148,1137,1137,1137,1137,,,,,
47113647,1137,1137,1137,1137,,,,,
47116146,1138,1138,1138,1138,,,,,
47118645,1139,1139,1139,1139,,,,,
47121144,1140,1140,1140,1140,,,,,
47123643,1140,1140,1140,1140,,,,,
47126142,1141,1141,1141,1141,,,,,
47128641,1142,1142,1142,1142,,,,,
47131140,1143,1143,1143,1143,,,,,
47133639,1143,1143,1143,1143,,,,,
47136138,1144,1144,1144,1144,,,,,
47138637,1145,1145,1145,1145,,,,,
47141136,1146,1146,1146,1146,,,,,
47143635,1146,1146,1146,1146,,,,,
47146134,1147,1147,1147,1147,,,,,
47148633,1148,1148,1148,1148,,,,,
47151132,1149,1149,1149,1149,,,,,
47153631,1149,1149,1149,1149,,,,,
47156130,1150,1150,1150,1150,,,,,
47158629,1161,1154,1155,1161,,,,,
47161128,1169,1162,1163,1169,,,,,
47163627,1177,1170,1171,1177,,,,,
47166126,1184,1178,1179,1185,,,,,
47168625,1192,1186,1186,1192,,,,,
47171124,1199,1193,1194,1200,,,,,
47173623,1207,1201,1201,1207,,,,,
47176122,1214,1208,1209,1214,,,,,
47178621,1221,1215,1216,1221,,,,,
47181120,1228,1222,1223,1228,,,,,
47183619,1235,1229,1230,1235,,,,,
47186118,1242,1236,1237,1242,,,,,
47188617,1248,1243,1243,1249,,,,,
47191116,1255,1249,1250,1255,,,,,
47193615,1262,1256,1257,1262,,,,,
47196114,1268,1262,1263,1268,,,,,
47198613,1274,1269,1270,1274,,,,,
47201112,1281,1275,1276,1281,,,,,
47203611,1287,1282,1282,1287,,,,,
47206110,1293,1288,1288,1293,,,,,
47208609,1299,1294,1295,1299,,,,,
47211108,1305,1300,1301,1305,,,,,
47213607,1311,1306,1307,1311,,,,,
47216106,1317,1312,1313,1317,,,,,
47218605,1323,1318,1318,1323,,,,,
47221104,1328,1324,1324,1329,,,,,
47223603,1334,1329,1330,1334,,,,,
47226102,1340,1335,1336,1340,,,,,
47228601,1345,1341,1341,1346,,,,,
47231100,1351,1346,1347,1351,,,,,
47233599,1356,1352,1352,1357,,,,,
47236098,1362,1357,1358,1362,,,,,
47238597,1367,1363,1363,1367,,,,,
47241096,1373,1368,1369,1373,,,,,
47243595,1378,1373,1374,1378,,,,,
47246094,1383,1379,1379,1383,,,,,
47248593,1388,1384,1385,1389,,,,,
47251092,1394,1389,1390,1394,,,,,
47253591,1399,1394,1395,1399,,,,,
47256090,1404,1399,1400,1404,,,,,
47258589,1409,1405,1405,1409,,,,,
47261088,1414,1410,1410,1414,,,,,
47263587,1419,1415,1415,1419,,,,,
47266086,1424,1420,1420,1424,,,,,
47268585,1429,1424,1425,1429,,,,,
47271084,1434,1429,1430,1434,,,,,
47273583,1439,1434,1435,1439,,,,,
47276082,1443,1439,1440,1443,,,,,
47278581,1448,1444,1444,1448,,,,,
47281080,1453,1449,1449,1453,,,,,
47283579,1458,1453,1454,1458,,,,,
47286078,1462,1458,1459,1462,,,,,
47288577,1467,1463,1463,1467,,,,,
47291076,1472,1467,1468,1472,,,,,
47293575,1476,1472,1472,1476,,,,,
47296074,1481,1476,1477,1481,,,,,
47298573,1485,1481,1482,1485,,,,,
47301072,1490,1485,1486,1490,,,,,
47303571,1494,1490,1491,1494,,,,,
47306070,1499,1494,1495,1499,,,,,
47308569,1503,1499,1499,1503,,,,,
47311068,1508,1503,1504,1508,,,,,
47313567,1512,1508,1508,1512,,,,,
47316066,1516,1512,1513,1516,,,,,
47318565,1521,1516,1517,1521,,,,,
47321064,1525,1521,1521,1525,,,,,
47323563,1529,1525,1525,1529,,,,,
47326062,1533,1529,1530,1533,,,,,
47328561,1538,1533,1534,1538,,,,,
47331060,1542,1538,1538,1542,,,,,
47333559,1546,1542,1542,1546,,,,,
47336058,1550,1546,1547,1550,,,,,
47338557,1554,1550,1551,1554,,,,,
47341056,1558,1554,1555,1558,,,,,
47343555,1563,1558,1559,1562,,,,,
47346054,1567,1562,1563,1567,,,,,
47348553,1571,1567,1567,1571,,,,,
47351052,1575,1571,1571,1575,,,,,
47353551,1579,1575,1575,1579,,,,,
47356050,1583,1579,1579,1583,,,,,
47358549,1587,1583,1583,1587,,,,,
47361048,1591,1587,1587,1591,,,,,
47363547,1595,1591,1591,1594,,,,,
47366046,1599,1594,1595,1598,,,,,
47368545,1602,1598,1599,1602,,,,,
47371044,1606,1602,1603,1606,,,,,
47373543,1610,1606,1607,1610,,,,,
47376042,1614,1610,1611,1614,,,,,
47378541,1618,1614,1615,1618,,,,,
47381040,1622,1618,1618,1622,,,,,
47383539,1625,1622,1622,1625,,,,,
47386038,1629,1625,1626,1629,,,,,
47388537,1633,1629,1630,1633,,,,,
47391036,1637,1633,1634,1637,,,,,
47393535,1640,1637,1637,1640,,,,,
47396034,1644,1640,1641,1644,,,,,
47398533,1648,1644,1645,1648,,,,,
47401032,1652,1648,1648,1652,,,,,
47403531,1655,1652,1652,1655,,,,,
47406030,1659,1655,1656,1659,,,,,
47408529,1663,1659,1659,1663,,,,,
47411028,1666,1662,1663,1666,,,,,
47413527,1670,1666,1667,1670,,,,,
47416026,1673,1670,1670,1673,,,,,
47418525,1677,1673,1674,1677,,,,,
47421024,1681,1677,1677,1681,,,,,
47423523,1684,1680,1681,1684,,,,,
47426022,1688,1684,1685,1688,,,,,
47428521,1691,1688,1688,1691,,,,,
47431020,1695,1691,1692,1695,,,,,
47433519,1698,1695,1695,1698,,,,,
47436018,1702,1698,1699,1702,,,,,
47438517,1705,1702,1702,1705,,,,,
47441016,1709,1705,1705,1709,,,,,
47443515,1712,1709,1709,1712,,,,,
47446014,1715,1712,1712,1716,,,,,
47448513,1719,1716,1716,1719,,,,,
47451012,1722,1719,1719,1723,,,,,
47453511,1726,1722,1723,1726,,,,,
47456010,1729,1726,1726,1729,,,,,
47458509,1733,1729,1729,1733,,,,,
47461008,1736,1733,1733,1736,,,,,
47463507,1739,1736,1736,1740,,,,,
47466006,1743,1739,1739,1743,,,,,
47468505,1746,1743,1743,1746,,,,,
47471004,1749,1746,1746,1750,,,,,
47473503,1753,1749,1749,1753,,,,,
47476002,1756,1753,1753,1756,,,,,
47478501,1759,1756,1756,1760,,,,,
47481000,1762,1759,1759,1763,,,,,
47483499,1766,1762,1763,1766,,,,,
47485998,1769,1766,1766,1769,,,,,
47488497,1772,1769,1769,1773,,,,,
47490996,1775,1772,1772,1776,,,,,
47493495,1779,1776,1775,1779,,,,,
47495994,1782,1779,1779,1782,,,,,
47498493,1785,1782,1782,1786,,,,,
47500992,1788,1785,1785,1789,,,,,
47503491,1792,1788,1788,1792,,,,,
47505990,1795,1792,1791,1795,,,,,
47508489,1798,1795,1795,1798,,,,,
47510988,1801,1798,1798,1802,,,,,
47513487,1804,1801,1801,1805,,,,,
47515986,1807,1804,1804,1808,,,,,
47518485,1811,1807,1807,1811,,,,,
47520984,1814,1810,1810,1814,,,,,
47523483,1817,1813,1813,1817,,,,,
47525982,1820,1817,1817,1820,,,,,
47528481,1823,1820,1820,1824,,,,,
47530980,1826,1823,1823,1827,,,,,
47533479,1829,1826,1826,1830,,,,,
47535978,1832,1829,1829,1833,,,,,
47538477,1836,1832,1832,1836,,,,,
47540976,1839,1835,1835,1839,,,,,
47543475,1842,1838,1838,1842,,,,,
47545974,1845,1841,1841,1845,,,,,
47548473,1848,1844,1844,1848,,,,,
47550972,1851,1847,1847,1851,,,,,
47553471,1854,1850,1850,1854,,,,,
47555970,1857,1853,1853,1857,,,,,
47558469,1860,1856,1856,1860,,,,,
47560968,1863,1859,1859,1863,,,,,
47563467,1866,1862,1862,1866,,,,,
47565966,1869,1865,1865,1869,,,,,
47568465,1872,1868,1868,1872,,,,,
47570964,1875,1871,1871,1875,,,,,
47573463,1878,1874,1874,1878,,,,,
47575962,1881,1877,1877,1881,,,,,
47578461,1882,1878,1878,1882,,,,,
47580960,1881,1877,1877,1881,,,,,
47583459,1880,1876,1876,1880,,,,,
47585958,1878,1875,1875,1879,,,,,
47588457,1877,1874,1874,1877,,,,,
47590956,1876,1872,1873,1876,,,,,
47593455,1875,1871,1872,1875,,,,,
47595954,1874,1870,1871,1874,,,,,
47598453,1873,1870,1870,1873,,,,,
47600952,1872,1869,1869,1873,,,,,
47603451,1872,1868,1868,1872,,,,,
47605950,1871,1867,1868,1871,,,,,
47608449,1870,1867,1867,1871,,,,,
47610948,1870,1866,1867,1870,,,,,
47613447,1870,1866,1866,1870,,,,,
47615946,1869,1866,1866,1870,,,,,
47618445,1869,1866,1866,1869,,,,,
47620944,1869,1865,1866,1869,,,,,
47623443,1869,1865,1865,1869,,,,,
47625942,1869,1865,1866,1869,,,,,
47628441,1869,1865,1866,1869,,,,,
47630940,1869,1866,1866,1869,,,,,
47633439,1869,1866,1866,1870,,,,,
47635938,1870,1866,1866,1870,,,,,
47638437,1870,1866,1867,1870,,,,,
47640936,1871,1867,1867,1871,,,,,
47643435,1871,1867,1868,1871,,,,,
47645934,1872,1868,1868,1872,,,,,
47648433,1872,1868,1869,1872,,,,,
47650932,1873,1869,1869,1873,,,,,
47653431,1873,1870,1870,1873,,,,,
47655930,1874,1870,1871,1874,,,,,
47658429,1874,1871,1871,1874,,,,,
47660928,1875,1872,1872,1875,,,,,
47663427,1875,1872,1873,1875,,,,,
47665926,1876,1873,1873,1876,,,,,
47668425,1876,1873,1874,1876,,,,,
47670924,1876,1873,1874,1876,,,,,
47673423,1876,1873,1874,1876,,,,,
47675922,1876,1873,1874,1876,,,,,
47678421,1876,1873,1874,1876,,,,,
47680920,1876,1873,1873,1875,,,,,
47683419,1875,1872,1873,1875,,,,,
47685918,1874,1871,1872,1874,,,,,
47688417,1873,1871,1871,1873,,,,,
47690916,1872,1869,1870,1872,,,,,
47693415,1871,1868,1869,1871,,,,,
47695914,1869,1867,1867,1869,,,,,
47698413,1868,1865,1866,1868,,,,,
47700912,1866,1864,1864,1866,,,,,
47703411,1864,1862,1862,1864,,,,,
47705910,1862,1860,1860,1862,,,,,
47708409,1860,1858,1858,1860,,,,,
47710908,1858,1855,1856,1858,,,,,
47713407,1856,1853,1854,1856,,,,,
47715906,1853,1851,1851,1853,,,,,
47718405,1851,1848,1849,1851,,,,,
47720904,1848,1846,1846,1848,,,,,
47723403,1846,1843,1844,1846,,,,,
47725902,1843,1841,1841,1843,,,,,
47728401,1840,1838,1838,1840,,,,,
47730900,1837,1835,1836,1837,,,,,
47733399,1834,1832,1833,1835,,,,,
47735898,1831,1829,1830,1832,,,,,
47738397,1828,1827,1827,1829,,,,,
47740896,1825,1824,1824,1826,,,,,
47743395,1822,1821,1821,1823,,,,,
47745894,1819,1818,1818,1819,,,,,
47748393,1816,1814,1815,1816,,,,,
47750892,1813,1811,1812,1813,,,,,
47753391,1810,1808,1808,1810,,,,,
47755890,1806,1805,1805,1807,,,,,
47758389,1803,1802,1802,1804,,,,,
47760888,1800,1799,1799,1800,,,,,
47763387,1797,1795,1796,1797,,,,,
47765886,1793,1792,1792,1794,,,,,
47768385,1790,1789,1789,1790,,,,,
47770884,1787,1786,1786,1787,,,,,
47773383,1783,1783,1783,1784,,,,,
47775882,1780,1779,1779,1781,,,,,
47778381,1777,1776,1776,1777,,,,,
47780880,1774,1773,1773,1774,,,,,
47783379,1770,1770,1770,1771,,,,,
47785878,1767,1767,1766,1768,,,,,
47788377,1764,1763,1763,1764,,,,,
47790876,1760,1760,1760,1761,,,,,
47793375,1757,1757,1757,1758,,,,,
47795874,1754,1754,1754,1755,,,,,
47798373,1751,1751,1750,1751,,,,,
47800872,1748,1748,1747,1748,,,,,
47803371,1744,1744,1744,1745,,,,,
47805870,1741,1741,1741,1742,,,,,
47808369,1738,1738,1738,1739,,,,,
47810868,1735,1735,1735,1736,,,,,
47813367,1732,1732,1732,1733,,,,,
47815866,1729,1729,1729,1730,,,,,
