TimeUS,M1,M2,M3,M4,TimeUS,C1,C2,C3,C4
81903892,1000,1000,1000,1000,81928882,1000,1000,1000,1000
81906391,1000,1000,1000,1000,82028842,1000,1000,1000,1000
81908890,1000,1000,1000,1000,82128802,1000,1000,1000,1000
81911389,1000,1000,1000,1000,82228762,1000,1000,1000,1000
81913888,1000,1000,1000,1000,82328722,1000,1000,1000,1000
81916387,1000,1000,1000,1000,82428682,1000,1000,1000,1000
81918886,1000,1000,1000,1000,82528642,1000,1000,1000,1000
81921385,1000,1000,1000,1000,82628602,1000,1000,1000,1000
81923884,1000,1000,1000,1000,82728562,1000,1000,1000,1000
81926383,1000,1000,1000,1000,82828522,1000,1000,1000,1000
81928882,1000,1000,1000,1000,82928482,1000,1000,1000,1000
81931381,1000,1000,1000,1000,83028442,1000,1000,1000,1000
81933880,1000,1000,1000,1000,83128402,1000,1000,1000,1000
81936379,1000,1000,1000,1000,83228362,1000,1000,1000,1000
81938878,1000,1000,1000,1000,83328322,1000,1000,1000,1000
81941377,1000,1000,1000,1000,83428282,1000,1000,1000,1000
81943876,1000,1000,1000,1000,83528242,1000,1000,1000,1000
81946375,1000,1000,1000,1000,83628202,1000,1000,1000,1000
81948874,1000,1000,1000,1000,83728162,1000,1000,1000,1000
81951373,1000,1000,1000,1000,83828955,1000,1000,1000,1000
81953872,1000,1000,1000,1000,83928915,1007,1007,1007,1007
81956371,1000,1000,1000,1000,84028875,1037,1037,1037,1037
81958870,1000,1000,1000,1000,84128835,1067,1067,1067,1067
81961369,1000,1000,1000,1000,84228795,1097,1097,1097,1097
81963868,1000,1000,1000,1000,84328755,1127,1127,1127,1127
81966367,1000,1000,1000,1000,84428715,1224,1212,1213,1224
81968866,1000,1000,1000,1000,84528675,1450,1441,1442,1451
81971365,1000,1000,1000,1000,84628635,1620,1612,1612,1620
81973864,1000,1000,1000,1000,84728595,1761,1754,1754,1762
81976363,1000,1000,1000,1000,84828555,1885,1878,1879,1885
81978862,1000,1000,1000,1000,84928515,1883,1877,1878,1883
81981361,1000,1000,1000,1000,85028475,1778,1777,1777,1779
81983860,1000,1000,1000,1000,85128435,1672,1673,1674,1672
81986359,1000,1000,1000,1000,85228395,1633,1636,1636,1633
81988858,1000,1000,1000,1000,85328355,1635,1638,1638,1635
81991357,1000,1000,1000,1000,85428315,1648,1650,1650,1648
81993856,1000,1000,1000,1000,85528275,1648,1649,1649,1649
81996355,1000,1000,1000,1000,85628235,1642,1642,1641,1642
81998854,1000,1000,1000,1000,85728195,1635,1633,1633,1635
82001353,1000,1000,1000,1000,85828155,1619,1620,1620,1619
82003852,1000,1000,1000,1000,85928948,1589,1589,1589,1589
82006351,1000,1000,1000,1000,86028908,1575,1575,1575,1576
82008850,1000,1000,1000,1000,86128868,1565,1564,1564,1565
82011349,1000,1000,1000,1000,86228828,1556,1556,1556,1556
82013848,1000,1000,1000,1000,86328788,1553,1552,1546,1559
82016347,1000,1000,1000,1000,86428748,1551,1551,1544,1557
82018846,1000,1000,1000,1000,86528708,1550,1551,1547,1554
82021345,1000,1000,1000,1000,86628668,1551,1551,1551,1551
82023844,1000,1000,1000,1000,86728628,1552,1553,1555,1550
82026343,1000,1000,1000,1000,86828588,1555,1555,1559,1551
82028842,1000,1000,1000,1000,86928548,1558,1557,1562,1554
82031341,1000,1000,1000,1000,87028508,1544,1544,1555,1534
82033840,1000,1000,1000,1000,87128468,1541,1541,1548,1535
82036339,1000,1000,1000,1000,87228428,1539,1538,1539,1540
82038838,1000,1000,1000,1000,87328388,1539,1538,1533,1545
82041337,1000,1000,1000,1000,87428348,1538,1538,1531,1545
82043836,1000,1000,1000,1000,87528308,1539,1539,1533,1544
82046335,1000,1000,1000,1000,87628268,1541,1541,1538,1544
82048834,1000,1000,1000,1000,87728228,1544,1544,1544,1544
82051333,1000,1000,1000,1000,87828188,1548,1548,1551,1545
82053832,1000,1000,1000,1000,87928981,1551,1551,1555,1547
82056331,1000,1000,1000,1000,88028941,1554,1555,1557,1551
82058830,1000,1000,1000,1000,88128901,1557,1557,1558,1556
82061329,1000,1000,1000,1000,88228861,1558,1558,1557,1559
82063828,1000,1000,1000,1000,88328821,1556,1556,1562,1566
82066327,1000,1000,1000,1000,88428781,1556,1557,1563,1567
82068826,1000,1000,1000,1000,88528741,1560,1560,1565,1569
82071325,1000,1000,1000,1000,88628701,1561,1562,1565,1567
82073824,1000,1000,1000,1000,88728661,1564,1565,1566,1566
82076323,1000,1000,1000,1000,88828621,1567,1566,1566,1565
82078822,1000,1000,1000,1000,88928581,1568,1568,1566,1565
82081321,1000,1000,1000,1000,89028541,1570,1570,1567,1566
82083820,1000,1000,1000,1000,89128501,1571,1571,1566,1566
82086319,1000,1000,1000,1000,89228461,1572,1572,1567,1567
82088818,1000,1000,1000,1000,89328421,1572,1572,1567,1568
82091317,1000,1000,1000,1000,89428381,1572,1571,1567,1568
82093816,1000,1000,1000,1000,89528341,1573,1572,1570,1570
82096315,1000,1000,1000,1000,89628301,1573,1573,1571,1571
82098814,1000,1000,1000,1000,89728261,1574,1573,1573,1573
82101313,1000,1000,1000,1000,89828221,1575,1575,1576,1574
82103812,1000,1000,1000,1000,89928181,1574,1575,1576,1575
82106311,1000,1000,1000,1000,90028974,1575,1575,1577,1575
82108810,1000,1000,1000,1000,90128934,1576,1575,1578,1577
82111309,1000,1000,1000,1000,90228894,1575,1575,1577,1577
82113808,1000,1000,1000,1000,90328854,1576,1576,1577,1577
82116307,1000,1000,1000,1000,90428814,1575,1575,1576,1577
82118806,1000,1000,1000,1000,90528774,1577,1576,1577,1578
82121305,1000,1000,1000,1000,90628734,1576,1576,1577,1576
82123804,1000,1000,1000,1000,90728694,1577,1576,1577,1576
82126303,1000,1000,1000,1000,90828654,1577,1578,1578,1577
82128802,1000,1000,1000,1000,90928614,1578,1578,1577,1577
82131301,1000,1000,1000,1000,91028574,1577,1577,1577,1576
82133800,1000,1000,1000,1000,91128534,1578,1578,1577,1577
82136299,1000,1000,1000,1000,91228494,1579,1580,1579,1579
82138798,1000,1000,1000,1000,91328454,1578,1578,1578,1578
82141297,1000,1000,1000,1000,91428414,1579,1579,1578,1579
82143796,1000,1000,1000,1000,91528374,1578,1579,1578,1578
82146295,1000,1000,1000,1000,91628334,1578,1579,1578,1578
82148794,1000,1000,1000,1000,91728294,1579,1579,1579,1579
82151293,1000,1000,1000,1000,91828254,1579,1578,1579,1579
82153792,1000,1000,1000,1000,91928214,1579,1579,1579,1580
82156291,1000,1000,1000,1000,92028174,1578,1579,1579,1579
82158790,1000,1000,1000,1000,92128967,1578,1579,1579,1579
82161289,1000,1000,1000,1000,92228927,1579,1579,1580,1579
82163788,1000,1000,1000,1000,92328887,1579,1579,1579,1579
82166287,1000,1000,1000,1000,92428847,1579,1579,1579,1579
82168786,1000,1000,1000,1000,92528807,1580,1579,1580,1580
82171285,1000,1000,1000,1000,92628767,1579,1579,1579,1580
82173784,1000,1000,1000,1000,92728727,1579,1579,1579,1579
82176283,1000,1000,1000,1000,92828687,1579,1579,1579,1579
82178782,1000,1000,1000,1000,92928647,1579,1579,1580,1580
82181281,1000,1000,1000,1000,93028607,1580,1580,1580,1580
82183780,1000,1000,1000,1000,93128567,1580,1580,1580,1580
82186279,1000,1000,1000,1000,93228527,1580,1580,1580,1581
82188778,1000,1000,1000,1000,93328487,1580,1580,1580,1580
82191277,1000,1000,1000,1000,93428447,1580,1580,1580,1580
82193776,1000,1000,1000,1000,93528407,1581,1581,1581,1581
82196275,1000,1000,1000,1000,93628367,1581,1581,1581,1581
82198774,1000,1000,1000,1000,93728327,1581,1581,1580,1581
82201273,1000,1000,1000,1000,93828287,1581,1580,1580,1581
82203772,1000,1000,1000,1000,93928247,1581,1581,1581,1581
82206271,1000,1000,1000,1000,94028207,1582,1581,1582,1581
82208770,1000,1000,1000,1000,94128167,1582,1582,1582,1582
82211269,1000,1000,1000,1000,94228960,1582,1582,1582,1582
82213768,1000,1000,1000,1000,94328920,1581,1581,1581,1582
82216267,1000,1000,1000,1000,94428880,1581,1581,1581,1581
82218766,1000,1000,1000,1000,94528840,1581,1582,1582,1582
82221265,1000,1000,1000,1000,94628800,1581,1582,1588,1573
82223764,1000,1000,1000,1000,94728760,1580,1582,1585,1573
82226263,1000,1000,1000,1000,94828720,1579,1581,1576,1573
82228762,1000,1000,1000,1000,94928680,1577,1580,1567,1572
82231261,1000,1000,1000,1000,95028640,1577,1579,1560,1568
82233760,1000,1000,1000,1000,95128600,1577,1578,1556,1562
82236259,1000,1000,1000,1000,95228560,1580,1578,1556,1559
82238758,1000,1000,1000,1000,95328520,1580,1578,1555,1555
82241257,1000,1000,1000,1000,95428480,1579,1578,1555,1553
82243756,1000,1000,1000,1000,95528440,1579,1578,1556,1553
82246255,1000,1000,1000,1000,95628400,1578,1578,1556,1554
82248754,1000,1000,1000,1000,95728360,1576,1577,1555,1554
82251253,1000,1000,1000,1000,95828320,1574,1576,1553,1553
82253752,1000,1000,1000,1000,95928280,1574,1576,1552,1552
82256251,1000,1000,1000,1000,96028240,1575,1577,1551,1551
82258750,1000,1000,1000,1000,96128200,1577,1578,1549,1549
82261249,1000,1000,1000,1000,96228160,1580,1581,1548,1548
82263748,1000,1000,1000,1000,96328953,1582,1583,1545,1546
82266247,1000,1000,1000,1000,96428913,1584,1585,1542,1542
82268746,1000,1000,1000,1000,96528873,1587,1587,1539,1538
82271245,1000,1000,1000,1000,96628833,1590,1591,1538,1537
82273744,1000,1000,1000,1000,96728793,1593,1593,1536,1537
82276243,1000,1000,1000,1000,96828753,1594,1595,1535,1536
82278742,1000,1000,1000,1000,96928713,1594,1594,1534,1536
82281241,1000,1000,1000,1000,97028673,1593,1594,1537,1539
82283740,1000,1000,1000,1000,97128633,1593,1591,1541,1544
82286239,1000,1000,1000,1000,97228593,1589,1587,1547,1551
82288738,1000,1000,1000,1000,97328553,1583,1579,1556,1559
82291237,1000,1000,1000,1000,97428513,1574,1569,1566,1568
82293736,1000,1000,1000,1000,97528473,1563,1559,1578,1580
82296235,1000,1000,1000,1000,97628433,1551,1548,1590,1591
82298734,1000,1000,1000,1000,97728393,1540,1539,1601,1601
82301233,1000,1000,1000,1000,97828353,1533,1533,1610,1609
82303732,1000,1000,1000,1000,97928313,1529,1531,1615,1614
82306231,1000,1000,1000,1000,98028273,1529,1530,1615,1614
82308730,1000,1000,1000,1000,98128233,1532,1534,1613,1612
82311229,1000,1000,1000,1000,98228193,1538,1540,1607,1607
82313728,1000,1000,1000,1000,98328986,1546,1547,1600,1601
82316227,1000,1000,1000,1000,98428946,1555,1556,1593,1593
82318726,1000,1000,1000,1000,98528906,1564,1565,1586,1586
82321225,1000,1000,1000,1000,98628866,1573,1572,1579,1579
82323724,1000,1000,1000,1000,98728826,1579,1578,1573,1573
82326223,1000,1000,1000,1000,98828786,1584,1583,1569,1569
82328722,1000,1000,1000,1000,98928746,1586,1585,1566,1566
82331221,1000,1000,1000,1000,99028706,1587,1586,1565,1566
82333720,1000,1000,1000,1000,99128666,1587,1586,1567,1567
82336219,1000,1000,1000,1000,99228626,1585,1585,1569,1569
82338718,1000,1000,1000,1000,99328586,1583,1583,1572,1572
82341217,1000,1000,1000,1000,99428546,1580,1580,1574,1574
82343716,1000,1000,1000,1000,99528506,1577,1577,1576,1577
82346215,1000,1000,1000,1000,99628466,1574,1575,1579,1579
82348714,1000,1000,1000,1000,99728426,1572,1572,1580,1580
82351213,1000,1000,1000,1000,99828386,1571,1571,1582,1582
82353712,1000,1000,1000,1000,99928346,1571,1572,1583,1583
82356211,1000,1000,1000,1000,100028306,1572,1573,1583,1583
82358710,1000,1000,1000,1000,100128266,1573,1574,1583,1583
82361209,1000,1000,1000,1000,100228226,1575,1575,1583,1582
82363708,1000,1000,1000,1000,100328186,1576,1575,1580,1580
82366207,1000,1000,1000,1000,100428979,1578,1578,1580,1580
82368706,1000,1000,1000,1000,100528939,1580,1579,1579,1579
82371205,1000,1000,1000,1000,100628899,1580,1579,1577,1578
82373704,1000,1000,1000,1000,100728859,1581,1581,1577,1577
82376203,1000,1000,1000,1000,100828819,1580,1581,1577,1576
82378702,1000,1000,1000,1000,100928779,1581,1581,1577,1577
82381201,1000,1000,1000,1000,101028739,1581,1581,1577,1577
82383700,1000,1000,1000,1000,101128699,1581,1580,1577,1578
82386199,1000,1000,1000,1000,101228659,1581,1581,1578,1578
82388698,1000,1000,1000,1000,101328619,1580,1580,1579,1579
82391197,1000,1000,1000,1000,101428579,1580,1580,1580,1580
82393696,1000,1000,1000,1000,101528539,1579,1579,1580,1580
82396195,1000,1000,1000,1000,101628499,1579,1579,1580,1580
82398694,1000,1000,1000,1000,101728459,1580,1580,1581,1581
82401193,1000,1000,1000,1000,101828419,1579,1579,1581,1581
82403692,1000,1000,1000,1000,101928379,1579,1579,1581,1581
82406191,1000,1000,1000,1000,102028339,1580,1580,1581,1582
82408690,1000,1000,1000,1000,102128299,1720,1548,1720,1550
82411189,1000,1000,1000,1000,102228259,1621,1588,1624,1588
82413688,1000,1000,1000,1000,102328219,1588,1593,1589,1592
82416187,1000,1000,1000,1000,102428179,1566,1591,1566,1591
82418686,1000,1000,1000,1000,102528972,1558,1586,1556,1585
82421185,1000,1000,1000,1000,102628932,1559,1579,1564,1569
82423684,1000,1000,1000,1000,102728892,1564,1573,1565,1561
82426183,1000,1000,1000,1000,102828852,1571,1570,1562,1556
82428682,1000,1000,1000,1000,102928812,1577,1570,1558,1552
82431181,1000,1000,1000,1000,103028772,1582,1573,1554,1551
82433680,1000,1000,1000,1000,103128732,1583,1576,1551,1550
82436179,1000,1000,1000,1000,103228692,1583,1578,1552,1552
82438678,1000,1000,1000,1000,103328652,1581,1579,1552,1552
82441177,1000,1000,1000,1000,103428612,1578,1579,1554,1554
82443676,1000,1000,1000,1000,103528572,1576,1578,1556,1555
82446175,1000,1000,1000,1000,103628532,1575,1577,1558,1557
82448674,1000,1000,1000,1000,103728492,1574,1576,1559,1558
82451173,1000,1000,1000,1000,103828452,1575,1576,1560,1559
82453672,1000,1000,1000,1000,103928412,1576,1576,1559,1558
82456171,1000,1000,1000,1000,104028372,1577,1578,1557,1557
82458670,1000,1000,1000,1000,104128332,1578,1579,1554,1554
82461169,1000,1000,1000,1000,104228292,1581,1581,1552,1552
82463668,1000,1000,1000,1000,104328252,1583,1584,1550,1550
82466167,1000,1000,1000,1000,104428212,1585,1586,1548,1547
82468666,1000,1000,1000,1000,104528172,1588,1588,1545,1545
82471165,1000,1000,1000,1000,104628965,1590,1592,1544,1544
82473664,1000,1000,1000,1000,104728925,1593,1594,1542,1542
82476163,1000,1000,1000,1000,104828885,1595,1596,1541,1543
82478662,1000,1000,1000,1000,104928845,1595,1595,1541,1543
82481161,1000,1000,1000,1000,105028805,1595,1594,1545,1547
82483660,1000,1000,1000,1000,105128765,1591,1588,1549,1552
82486159,1000,1000,1000,1000,105228725,1585,1582,1557,1559
82488658,1000,1000,1000,1000,105328685,1577,1573,1567,1568
82491157,1000,1000,1000,1000,105428645,1567,1564,1576,1578
82493656,1000,1000,1000,1000,105528605,1558,1555,1587,1588
82496155,1000,1000,1000,1000,105628565,1549,1548,1596,1596
82498654,1000,1000,1000,1000,105728525,1542,1542,1602,1602
82501153,1000,1000,1000,1000,105828485,1539,1539,1606,1606
82503652,1000,1000,1000,1000,105928445,1539,1540,1608,1608
82506151,1000,1000,1000,1000,106028405,1541,1542,1607,1607
82508650,1000,1000,1000,1000,106128365,1547,1548,1605,1604
82511149,1000,1000,1000,1000,106228325,1553,1554,1600,1599
82513648,1000,1000,1000,1000,106328285,1561,1562,1596,1595
82516147,1000,1000,1000,1000,106428245,1567,1568,1589,1588
82518646,1000,1000,1000,1000,106528205,1573,1573,1583,1582
82521145,1000,1000,1000,1000,106628165,1578,1578,1577,1577
82523644,1000,1000,1000,1000,106728958,1581,1581,1573,1573
82526143,1000,1000,1000,1000,106828918,1585,1583,1572,1572
82528642,1000,1000,1000,1000,106928878,1585,1584,1570,1571
82531141,1000,1000,1000,1000,107028838,1585,1583,1570,1571
82533640,1000,1000,1000,1000,107128798,1583,1582,1572,1572
82536139,1000,1000,1000,1000,107228758,1581,1581,1575,1574
82538638,1000,1000,1000,1000,107328718,1580,1580,1577,1577
82541137,1000,1000,1000,1000,107428678,1578,1578,1579,1580
82543636,1000,1000,1000,1000,107528638,1576,1576,1581,1581
82546135,1000,1000,1000,1000,107628598,1574,1575,1582,1582
82548634,1000,1000,1000,1000,107728558,1573,1574,1583,1583
82551133,1000,1000,1000,1000,107828518,1573,1574,1583,1584
82553632,1000,1000,1000,1000,107928478,1574,1574,1583,1583
82556131,1000,1000,1000,1000,108028438,1575,1575,1583,1582
82558630,1000,1000,1000,1000,108128398,1576,1576,1582,1582
82561129,1000,1000,1000,1000,108228358,1578,1578,1581,1581
82563628,1000,1000,1000,1000,108328318,1579,1579,1580,1580
82566127,1000,1000,1000,1000,108428278,1579,1579,1579,1579
82568626,1000,1000,1000,1000,108528238,1580,1579,1578,1578
82571125,1000,1000,1000,1000,108628198,1580,1580,1578,1578
82573624,1000,1000,1000,1000,108728158,1581,1581,1578,1578
82576123,1000,1000,1000,1000,108828951,1580,1580,1577,1577
82578622,1000,1000,1000,1000,108928911,1581,1580,1578,1578
82581121,1000,1000,1000,1000,109028871,1580,1581,1579,1579
82583620,1000,1000,1000,1000,109128831,1580,1579,1578,1579
82586119,1000,1000,1000,1000,109228791,1580,1579,1579,1579
82588618,1000,1000,1000,1000,109328751,1581,1580,1581,1581
82591117,1000,1000,1000,1000,109428711,1580,1580,1581,1580
82593616,1000,1000,1000,1000,109528671,1579,1579,1581,1581
82596115,1000,1000,1000,1000,109628631,1580,1580,1582,1582
82598614,1000,1000,1000,1000,109728591,1580,1580,1581,1581
82601113,1000,1000,1000,1000,109828551,1580,1580,1581,1581
82603612,1000,1000,1000,1000,109928511,1581,1581,1582,1582
82606111,1000,1000,1000,1000,110028471,1580,1580,1581,1581
82608610,1000,1000,1000,1000,110128431,1581,1581,1581,1581
82611109,1000,1000,1000,1000,110228391,1580,1580,1580,1580
82613608,1000,1000,1000,1000,110328351,1580,1580,1580,1580
82616107,1000,1000,1000,1000,110428311,1581,1581,1581,1581
82618606,1000,1000,1000,1000,110528271,1581,1580,1580,1580
82621105,1000,1000,1000,1000,110628231,1582,1581,1581,1581
82623604,1000,1000,1000,1000,110728191,1582,1582,1583,1580
82626103,1000,1000,1000,1000,110828984,1581,1584,1588,1573
82628602,1000,1000,1000,1000,110928944,1580,1584,1582,1572
82631101,1000,1000,1000,1000,111028904,1580,1583,1572,1572
82633600,1000,1000,1000,1000,111128864,1579,1581,1563,1569
82636099,1000,1000,1000,1000,111228824,1580,1580,1558,1565
82638598,1000,1000,1000,1000,111328784,1581,1580,1555,1561
82641097,1000,1000,1000,1000,111428744,1581,1580,1554,1556
82643596,1000,1000,1000,1000,111528704,1582,1581,1556,1555
82646095,1000,1000,1000,1000,111628664,1581,1580,1557,1554
82648594,1000,1000,1000,1000,111728624,1580,1580,1557,1554
82651093,1000,1000,1000,1000,111828584,1578,1579,1556,1554
82653592,1000,1000,1000,1000,111928544,1576,1578,1555,1554
82656091,1000,1000,1000,1000,112028504,1575,1577,1554,1554
82658590,1000,1000,1000,1000,112128464,1575,1576,1552,1553
82661089,1000,1000,1000,1000,112228424,1576,1577,1550,1551
82663588,1000,1000,1000,1000,112328384,1578,1579,1549,1549
82666087,1000,1000,1000,1000,112428344,1580,1582,1548,1547
82668586,1000,1000,1000,1000,112528304,1583,1583,1545,1545
82671085,1000,1000,1000,1000,112628264,1585,1586,1543,1542
82673584,1000,1000,1000,1000,112728224,1588,1588,1540,1541
82676083,1000,1000,1000,1000,112828184,1591,1591,1540,1540
82678582,1000,1000,1000,1000,112928977,1591,1593,1538,1539
82681081,1000,1000,1000,1000,113028937,1593,1594,1537,1539
82683580,1000,1000,1000,1000,113128897,1593,1593,1538,1540
82686079,1000,1000,1000,1000,113228857,1592,1592,1542,1544
82688578,1000,1000,1000,1000,113328817,1590,1587,1548,1551
82691077,1000,1000,1000,1000,113428777,1584,1580,1557,1559
82693576,1000,1000,1000,1000,113528737,1574,1570,1567,1568
82696075,1000,1000,1000,1000,113628697,1564,1560,1578,1579
82698574,1000,1000,1000,1000,113728657,1553,1550,1589,1590
82701073,1000,1000,1000,1000,113828617,1543,1541,1599,1599
82703572,1000,1000,1000,1000,113928577,1536,1536,1606,1606
82706071,1000,1000,1000,1000,114028537,1534,1534,1611,1611
82708570,1000,1000,1000,1000,114128497,1534,1535,1613,1613
82711069,1000,1000,1000,1000,114228457,1537,1539,1610,1611
82713568,1000,1000,1000,1000,114328417,1543,1544,1606,1606
82716067,1000,1000,1000,1000,114428377,1552,1553,1601,1600
82718566,1000,1000,1000,1000,114528337,1559,1560,1594,1592
82721065,1000,1000,1000,1000,114628297,1566,1567,1586,1585
82723564,1000,1000,1000,1000,114728257,1574,1574,1580,1580
82726063,1000,1000,1000,1000,114828217,1580,1580,1575,1574
82728562,1000,1000,1000,1000,114928177,1584,1583,1571,1570
82731061,1000,1000,1000,1000,115028970,1585,1584,1568,1568
82733560,1000,1000,1000,1000,115128930,1587,1585,1568,1568
82736059,1000,1000,1000,1000,115228890,1585,1585,1569,1569
82738558,1000,1000,1000,1000,115328850,1584,1583,1571,1571
82741057,1000,1000,1000,1000,115428810,1581,1581,1573,1573
82743556,1000,1000,1000,1000,115528770,1579,1579,1576,1576
82746055,1000,1000,1000,1000,115628730,1577,1577,1579,1579
82748554,1000,1000,1000,1000,115728690,1575,1575,1581,1581
82751053,1000,1000,1000,1000,115828650,1573,1574,1583,1582
82753552,1000,1000,1000,1000,115928610,1573,1573,1583,1583
82756051,1000,1000,1000,1000,116028570,1573,1574,1583,1584
82758550,1000,1000,1000,1000,116128530,1574,1574,1583,1584
82761049,1000,1000,1000,1000,116228490,1574,1574,1582,1582
82763548,1000,1000,1000,1000,116328450,1576,1575,1581,1581
82766047,1000,1000,1000,1000,116428410,1578,1577,1580,1580
82768546,1000,1000,1000,1000,116528370,1579,1578,1579,1579
82771045,1000,1000,1000,1000,116628330,1580,1580,1579,1578
82773544,1000,1000,1000,1000,116728290,1580,1580,1578,1578
82776043,1000,1000,1000,1000,116828250,1581,1581,1578,1578
82778542,1000,1000,1000,1000,116928210,1582,1582,1579,1578
82781041,1000,1000,1000,1000,117028170,1582,1582,1579,1579
82783540,1000,1000,1000,1000,117128963,1581,1580,1578,1578
82786039,1000,1000,1000,1000,117228923,1580,1581,1578,1578
82788538,1000,1000,1000,1000,117328883,1581,1580,1579,1579
82791037,1000,1000,1000,1000,117428843,1580,1580,1580,1580
82793536,1000,1000,1000,1000,117528803,1581,1580,1581,1581
82796035,1000,1000,1000,1000,117628763,1580,1580,1582,1581
82798534,1000,1000,1000,1000,117728723,1579,1579,1580,1581
82801033,1000,1000,1000,1000,117828683,1579,1579,1581,1581
82803532,1000,1000,1000,1000,117928643,1578,1579,1580,1581
82806031,1000,1000,1000,1000,118028603,1579,1579,1580,1581
82808530,1000,1000,1000,1000,118128563,1580,1580,1581,1581
82811029,1000,1000,1000,1000,118228523,1580,1580,1581,1580
82813528,1000,1000,1000,1000,118328483,1579,1579,1580,1580
82816027,1000,1000,1000,1000,118428443,1580,1580,1580,1580
82818526,1000,1000,1000,1000,118528403,1581,1581,1581,1580
82821025,1000,1000,1000,1000,118628363,1581,1582,1586,1575
82823524,1000,1000,1000,1000,118728323,1581,1582,1586,1572
82826023,1000,1000,1000,1000,118828283,1580,1579,1580,1575
82828522,1000,1000,1000,1000,118928243,1576,1576,1572,1575
82831021,1000,1000,1000,1000,119028203,1572,1572,1567,1574
82833520,1000,1000,1000,1000,119128163,1570,1570,1565,1572
82836019,1000,1000,1000,1000,119228956,1568,1568,1566,1570
82838518,1000,1000,1000,1000,119328916,1568,1567,1567,1568
82841017,1000,1000,1000,1000,119428876,1567,1567,1568,1566
82843516,1000,1000,1000,1000,119528836,1565,1565,1567,1565
82846015,1000,1000,1000,1000,119628796,1564,1565,1567,1564
82848514,1000,1000,1000,1000,119728756,1565,1565,1567,1565
82851013,1000,1000,1000,1000,119828716,1564,1564,1565,1564
82853512,1000,1000,1000,1000,119928676,1563,1563,1564,1564
82856011,1000,1000,1000,1000,120028636,1563,1563,1564,1564
82858510,1000,1000,1000,1000,120128596,1563,1563,1563,1563
82861009,1000,1000,1000,1000,120228556,1561,1562,1562,1562
82863508,1000,1000,1000,1000,120328516,1561,1561,1561,1561
82866007,1000,1000,1000,1000,120428476,1560,1561,1561,1560
82868506,1000,1000,1000,1000,120528436,1559,1559,1559,1558
82871005,1000,1000,1000,1000,120628396,1558,1558,1558,1557
82873504,1000,1000,1000,1000,120728356,1557,1556,1556,1556
82876003,1000,1000,1000,1000,120828316,1557,1557,1557,1556
82878502,1000,1000,1000,1000,120928276,1557,1557,1557,1556
82881001,1000,1000,1000,1000,121028236,1557,1557,1558,1555
82883500,1000,1000,1000,1000,121128196,1557,1557,1558,1557
82885999,1000,1000,1000,1000,121228156,1557,1557,1558,1556
82888498,1000,1000,1000,1000,121328949,1558,1558,1559,1556
82890997,1000,1000,1000,1000,121428909,1558,1558,1559,1558
82893496,1000,1000,1000,1000,121528869,1559,1559,1557,1561
82895995,1000,1000,1000,1000,121628829,1561,1561,1558,1564
82898494,1000,1000,1000,1000,121728789,1561,1561,1558,1564
82900993,1000,1000,1000,1000,121828749,1562,1562,1560,1565
82903492,1000,1000,1000,1000,121928709,1564,1563,1562,1565
82905991,1000,1000,1000,1000,122028669,1563,1564,1565,1563
82908490,1000,1000,1000,1000,122128629,1563,1563,1565,1561
82910989,1000,1000,1000,1000,122228589,1562,1562,1562,1561
82913488,1000,1000,1000,1000,122328549,1558,1558,1555,1560
82915987,1000,1000,1000,1000,122428509,1555,1555,1553,1556
82918486,1000,1000,1000,1000,122528469,1549,1549,1547,1550
82920985,1000,1000,1000,1000,122628429,1542,1543,1543,1543
82923484,1000,1000,1000,1000,122728389,1535,1536,1536,1535
82925983,1000,1000,1000,1000,122828349,1529,1529,1530,1528
82928482,1000,1000,1000,1000,122928309,1522,1522,1522,1522
82930981,1000,1000,1000,1000,123028269,1519,1519,1520,1519
82933480,1000,1000,1000,1000,123128229,1519,1519,1519,1519
82935979,1000,1000,1000,1000,123228189,1520,1520,1521,1520
82938478,1000,1000,1000,1000,123328982,1524,1524,1524,1524
82940977,1000,1000,1000,1000,123428942,1526,1526,1526,1527
82943476,1000,1000,1000,1000,123528902,1532,1531,1531,1532
82945975,1000,1000,1000,1000,123628862,1537,1537,1537,1537
82948474,1000,1000,1000,1000,123728822,1540,1540,1540,1540
82950973,1000,1000,1000,1000,123828782,1542,1542,1542,1542
82953472,1000,1000,1000,1000,123928742,1543,1543,1543,1543
82955971,1000,1000,1000,1000,124028702,1544,1545,1544,1544
82958470,1000,1000,1000,1000,124128662,1545,1545,1545,1545
82960969,1000,1000,1000,1000,124228622,1545,1545,1545,1545
82963468,1000,1000,1000,1000,124328582,1546,1546,1546,1546
82965967,1000,1000,1000,1000,124428542,1546,1546,1547,1546
82968466,1000,1000,1000,1000,124528502,1546,1546,1546,1546
82970965,1000,1000,1000,1000,124628462,1546,1546,1546,1546
82973464,1000,1000,1000,1000,124728422,1546,1546,1546,1546
82975963,1000,1000,1000,1000,124828382,1546,1546,1546,1546
82978462,1000,1000,1000,1000,124928342,1546,1546,1545,1546
82980961,1000,1000,1000,1000,125028302,1545,1545,1545,1545
82983460,1000,1000,1000,1000,125128262,1545,1545,1545,1545
82985959,1000,1000,1000,1000,125228222,1545,1545,1545,1545
82988458,1000,1000,1000,1000,125328182,1544,1544,1544,1544
82990957,1000,1000,1000,1000,125428975,1544,1545,1545,1544
82993456,1000,1000,1000,1000,125528935,1543,1544,1543,1543
82995955,1000,1000,1000,1000,125628895,1543,1543,1543,1543
82998454,1000,1000,1000,1000,125728855,1544,1544,1544,1544
83000953,1000,1000,1000,1000,125828815,1544,1544,1544,1544
83003452,1000,1000,1000,1000,125928775,1544,1544,1544,1544
83005951,1000,1000,1000,1000,126028735,1543,1543,1543,1543
83008450,1000,1000,1000,1000,126128695,1544,1544,1544,1545
83010949,1000,1000,1000,1000,126228655,1544,1544,1545,1544
83013448,1000,1000,1000,1000,126328615,1545,1544,1544,1545
83015947,1000,1000,1000,1000,126428575,1544,1545,1544,1544
83018446,1000,1000,1000,1000,126528535,1544,1544,1544,1544
83020945,1000,1000,1000,1000,126628495,1544,1545,1544,1544
83023444,1000,1000,1000,1000,126728455,1544,1544,1544,1544
83025943,1000,1000,1000,1000,126828415,1545,1545,1545,1545
83028442,1000,1000,1000,1000,126928375,1544,1544,1544,1544
83030941,1000,1000,1000,1000,127028335,1544,1544,1544,1544
83033440,1000,1000,1000,1000,127128295,1545,1545,1545,1545
83035939,1000,1000,1000,1000,127228255,1544,1544,1544,1544
83038438,1000,1000,1000,1000,127328215,1544,1544,1543,1544
83040937,1000,1000,1000,1000,127428175,1544,1544,1544,1544
83043436,1000,1000,1000,1000,127528968,1543,1543,1543,1544
83045935,1000,1000,1000,1000,127628928,1543,1544,1544,1543
83048434,1000,1000,1000,1000,127728888,1544,1544,1544,1544
83050933,1000,1000,1000,1000,127828848,1543,1543,1543,1543
83053432,1000,1000,1000,1000,127928808,1544,1544,1544,1544
83055931,1000,1000,1000,1000,128028768,1544,1544,1544,1544
83058430,1000,1000,1000,1000,128128728,1544,1543,1543,1543
83060929,1000,1000,1000,1000,128228688,1543,1543,1543,1543
83063428,1000,1000,1000,1000,128328648,1544,1544,1544,1544
83065927,1000,1000,1000,1000,128428608,1545,1545,1545,1544
83068426,1000,1000,1000,1000,128528568,1545,1544,1544,1545
83070925,1000,1000,1000,1000,128628528,1544,1544,1544,1544
83073424,1000,1000,1000,1000,128728488,1544,1544,1544,1544
83075923,1000,1000,1000,1000,128828448,1544,1545,1545,1545
83078422,1000,1000,1000,1000,128928408,1546,1545,1545,1545
83080921,1000,1000,1000,1000,129028368,1545,1545,1545,1545
83083420,1000,1000,1000,1000,129128328,1544,1545,1545,1544
83085919,1000,1000,1000,1000,129228288,1544,1545,1545,1544
83088418,1000,1000,1000,1000,129328248,1545,1544,1544,1545
83090917,1000,1000,1000,1000,129428208,1544,1544,1544,1544
83093416,1000,1000,1000,1000,129528168,1544,1544,1544,1544
83095915,1000,1000,1000,1000,129628961,1544,1544,1544,1544
83098414,1000,1000,1000,1000,129728921,1544,1544,1545,1544
83100913,1000,1000,1000,1000,129828881,1543,1544,1544,1544
83103412,1000,1000,1000,1000,129928841,1543,1543,1543,1543
83105911,1000,1000,1000,1000,130028801,1544,1544,1544,1544
83108410,1000,1000,1000,1000,130128761,1544,1544,1544,1544
83110909,1000,1000,1000,1000,130228721,1543,1544,1544,1544
83113408,1000,1000,1000,1000,130328681,1544,1544,1544,1544
83115907,1000,1000,1000,1000,130428641,1544,1544,1544,1543
83118406,1000,1000,1000,1000,130528601,1543,1543,1543,1543
83120905,1000,1000,1000,1000,130628561,1543,1544,1544,1544
83123404,1000,1000,1000,1000,130728521,1544,1544,1544,1544
83125903,1000,1000,1000,1000,130828481,1544,1544,1544,1544
83128402,1000,1000,1000,1000,130928441,1544,1543,1544,1544
83130901,1000,1000,1000,1000,131028401,1544,1544,1544,1544
83133400,1000,1000,1000,1000,131128361,1545,1544,1544,1545
83135899,1000,1000,1000,1000,131228321,1544,1544,1544,1544
83138398,1000,1000,1000,1000,131328281,1544,1544,1544,1544
83140897,1000,1000,1000,1000,131428241,1544,1544,1545,1544
83143396,1000,1000,1000,1000,131528201,1545,1544,1545,1544
83145895,1000,1000,1000,1000,131628161,1544,1544,1544,1544
83148394,1000,1000,1000,1000,131728954,1545,1545,1544,1545
83150893,1000,1000,1000,1000,131828914,1544,1544,1544,1544
83153392,1000,1000,1000,1000,131928874,1544,1544,1544,1544
83155891,1000,1000,1000,1000,132028834,1545,1545,1545,1545
83158390,1000,1000,1000,1000,132128794,1544,1544,1544,1544
83160889,1000,1000,1000,1000,132228754,1544,1544,1544,1544
83163388,1000,1000,1000,1000,132328714,1545,1544,1544,1545
83165887,1000,1000,1000,1000,132428674,1544,1544,1544,1545
83168386,1000,1000,1000,1000,132528634,1544,1544,1544,1544
83170885,1000,1000,1000,1000,132628594,1543,1544,1544,1543
83173384,1000,1000,1000,1000,132728554,1465,1472,1464,1473
83175883,1000,1000,1000,1000,132828514,1264,1304,1265,1303
83178382,1000,1000,1000,1000,132928474,1227,1274,1227,1274
83180881,1000,1000,1000,1000,133028434,1227,1275,1228,1275
83183380,1000,1000,1000,1000,133128394,1227,1274,1227,1275
83185879,1000,1000,1000,1000,133228354,1227,1274,1228,1274
83188378,1000,1000,1000,1000,133328314,1227,1274,1227,1274
83190877,1000,1000,1000,1000,133428274,1267,1264,1227,1297
83193376,1000,1000,1000,1000,133528234,1257,1272,1227,1297
83195875,1000,1000,1000,1000,133628194,1250,1272,1227,1291
83198374,1000,1000,1000,1000,133728154,1250,1272,1227,1292
83200873,1000,1000,1000,1000,133828947,1252,1272,1227,1293
83203372,1000,1000,1000,1000,133928907,1255,1272,1227,1295
83205871,1000,1000,1000,1000,134028867,1257,1271,1227,1297
83208370,1000,1000,1000,1000,134128827,1259,1270,1227,1297
83210869,1000,1000,1000,1000,134228787,1240,1271,1227,1283
83213368,1000,1000,1000,1000,134328747,1242,1271,1227,1285
83215867,1000,1000,1000,1000,134428707,1243,1271,1227,1286
83218366,1000,1000,1000,1000,134528667,1244,1271,1227,1286
83220865,1000,1000,1000,1000,134628627,1245,1271,1227,1287
83223364,1000,1000,1000,1000,134728587,1000,1000,1000,1000
83225863,1000,1000,1000,1000,134828547,1000,1000,1000,1000
83228362,1000,1000,1000,1000,134928507,1000,1000,1000,1000
83230861,1000,1000,1000,1000,135028467,1000,1000,1000,1000
83233360,1000,1000,1000,1000,135128427,1000,1000,1000,1000
83235859,1000,1000,1000,1000,135228387,1000,1000,1000,1000
83238358,1000,1000,1000,1000,135328347,1000,1000,1000,1000
83240857,1000,1000,1000,1000,135428307,1000,1000,1000,1000
83243356,1000,1000,1000,1000,135528267,1000,1000,1000,1000
83245855,1000,1000,1000,1000,135628227,1000,1000,1000,1000
83248354,1000,1000,1000,1000,135728187,1000,1000,1000,1000
83250853,1000,1000,1000,1000,135828980,1000,1000,1000,1000
83253352,1000,1000,1000,1000,135928940,1000,1000,1000,1000
83255851,1000,1000,1000,1000,136028900,1000,1000,1000,1000
83258350,1000,1000,1000,1000,136128860,1000,1000,1000,1000
83260849,1000,1000,1000,1000,136228820,1000,1000,1000,1000
83263348,1000,1000,1000,1000,136328780,1000,1000,1000,1000
83265847,1000,1000,1000,1000,136428740,1000,1000,1000,1000
83268346,1000,1000,1000,1000,136528700,1000,1000,1000,1000
83270845,1000,1000,1000,1000,136628660,1000,1000,1000,1000
83273344,1000,1000,1000,1000,136728620,1000,1000,1000,1000
83275843,1000,1000,1000,1000,136828580,1000,1000,1000,1000
83278342,1000,1000,1000,1000,136928540,1000,1000,1000,1000
83280841,1000,1000,1000,1000,137028500,1000,1000,1000,1000
83283340,1000,1000,1000,1000,137128460,1000,1000,1000,1000
83285839,1000,1000,1000,1000,137228420,1000,1000,1000,1000
83288338,1000,1000,1000,1000,137328380,1000,1000,1000,1000
83290837,1000,1000,1000,1000,137428340,1000,1000,1000,1000
83293336,1000,1000,1000,1000,137528300,1000,1000,1000,1000
83295835,1000,1000,1000,1000,137628260,1000,1000,1000,1000
83298334,1000,1000,1000,1000,137728220,1000,1000,1000,1000
83300833,1000,1000,1000,1000,137828180,1000,1000,1000,1000
83303332,1000,1000,1000,1000,137928973,1000,1000,1000,1000
83305831,1000,1000,1000,1000,138028933,1000,1000,1000,1000
83308330,1000,1000,1000,1000,138128893,1000,1000,1000,1000
83310829,1000,1000,1000,1000,138228853,1000,1000,1000,1000
83313328,1000,1000,1000,1000,138328813,1000,1000,1000,1000
83315827,1000,1000,1000,1000,138428773,1000,1000,1000,1000
83318326,1000,1000,1000,1000,138528733,1000,1000,1000,1000
83320825,1000,1000,1000,1000,138628693,1000,1000,1000,1000
83323324,1000,1000,1000,1000,138728653,1000,1000,1000,1000
83325823,1000,1000,1000,1000,138828613,1000,1000,1000,1000
83328322,1000,1000,1000,1000,138928573,1000,1000,1000,1000
83330821,1000,1000,1000,1000,139028533,1000,1000,1000,1000
83333320,1000,1000,1000,1000,139128493,1000,1000,1000,1000
83335819,1000,1000,1000,1000,139228453,1000,1000,1000,1000
83338318,1000,1000,1000,1000,139328413,1000,1000,1000,1000
83340817,1000,1000,1000,1000,139428373,1000,1000,1000,1000
83343316,1000,1000,1000,1000,139528333,1000,1000,1000,1000
83345815,1000,1000,1000,1000,139628293,1000,1000,1000,1000
83348314,1000,1000,1000,1000,139728253,1000,1000,1000,1000
83350813,1000,1000,1000,1000,139828213,1000,1000,1000,1000
83353312,1000,1000,1000,1000,139928173,1000,1000,1000,1000
83355811,1000,1000,1000,1000,140028966,1000,1000,1000,1000
83358310,1000,1000,1000,1000,140128926,1000,1000,1000,1000
83360809,1000,1000,1000,1000,140228886,1000,1000,1000,1000
83363308,1000,1000,1000,1000,140328846,1000,1000,1000,1000
83365807,1000,1000,1000,1000,140428806,1000,1000,1000,1000
83368306,1000,1000,1000,1000,140528766,1000,1000,1000,1000
83370805,1000,1000,1000,1000,140628726,1000,1000,1000,1000
83373304,1000,1000,1000,1000,140728686,1000,1000,1000,1000
83375803,1000,1000,1000,1000,140828646,1000,1000,1000,1000
83378302,1000,1000,1000,1000,140928606,1000,1000,1000,1000
83380801,1000,1000,1000,1000,141028566,1000,1000,1000,1000
83383300,1000,1000,1000,1000,141128526,1000,1000,1000,1000
83385799,1000,1000,1000,1000,141228486,1000,1000,1000,1000
83388298,1000,1000,1000,1000,141328446,1000,1000,1000,1000
83390797,1000,1000,1000,1000,141428406,1000,1000,1000,1000
83393296,1000,1000,1000,1000,141528366,1000,1000,1000,1000
83395795,1000,1000,1000,1000,141628326,1000,1000,1000,1000
83398294,1000,1000,1000,1000,141728286,1000,1000,1000,1000
83400793,1000,1000,1000,1000,141828246,1000,1000,1000,1000
83403292,1000,1000,1000,1000,141928206,1000,1000,1000,1000
83405791,1000,1000,1000,1000,142028166,1000,1000,1000,1000
83408290,1000,1000,1000,1000,142128959,1000,1000,1000,1000
83410789,1000,1000,1000,1000,142228919,1000,1000,1000,1000
83413288,1000,1000,1000,1000,142328879,1000,1000,1000,1000
83415787,1000,1000,1000,1000,142428839,1000,1000,1000,1000
83418286,1000,1000,1000,1000,142528799,1000,1000,1000,1000
83420785,1000,1000,1000,1000,142628759,1000,1000,1000,1000
83423284,1000,1000,1000,1000,142728719,1000,1000,1000,1000
83425783,1000,1000,1000,1000,142828679,1000,1000,1000,1000
83428282,1000,1000,1000,1000,142928639,1000,1000,1000,1000
83430781,1000,1000,1000,1000,143028599,1000,1000,1000,1000
83433280,1000,1000,1000,1000,143128559,1000,1000,1000,1000
83435779,1000,1000,1000,1000,143228519,1000,1000,1000,1000
83438278,1000,1000,1000,1000,143328479,1000,1000,1000,1000
83440777,1000,1000,1000,1000,143428439,1000,1000,1000,1000
83443276,1000,1000,1000,1000,143528399,1000,1000,1000,1000
83445775,1000,1000,1000,1000,,,,,
83448274,1000,1000,1000,1000,,,,,
83450773,1000,1000,1000,1000,,,,,
83453272,1000,1000,1000,1000,,,,,
83455771,1000,1000,1000,1000,,,,,
83458270,1000,1000,1000,1000,,,,,
83460769,1000,1000,1000,1000,,,,,
83463268,1000,1000,1000,1000,,,,,
83465767,1000,1000,1000,1000,,,,,
83468266,1000,1000,1000,1000,,,,,
83470765,1000,1000,1000,1000,,,,,
83473264,1000,1000,1000,1000,,,,,
83475763,1000,1000,1000,1000,,,,,
83478262,1000,1000,1000,1000,,,,,
83480761,1000,1000,1000,1000,,,,,
83483260,1000,1000,1000,1000,,,,,
83485759,1000,1000,1000,1000,,,,,
83488258,1000,1000,1000,1000,,,,,
83490757,1000,1000,1000,1000,,,,,
83493256,1000,1000,1000,1000,,,,,
83495755,1000,1000,1000,1000,,,,,
83498254,1000,1000,1000,1000,,,,,
83500753,1000,1000,1000,1000,,,,,
83503252,1000,1000,1000,1000,,,,,
83505751,1000,1000,1000,1000,,,,,
83508250,1000,1000,1000,1000,,,,,
83510749,1000,1000,1000,1000,,,,,
83513248,1000,1000,1000,1000,,,,,
83515747,1000,1000,1000,1000,,,,,
83518246,1000,1000,1000,1000,,,,,
83520745,1000,1000,1000,1000,,,,,
83523244,1000,1000,1000,1000,,,,,
83525743,1000,1000,1000,1000,,,,,
83528242,1000,1000,1000,1000,,,,,
83530741,1000,1000,1000,1000,,,,,
83533240,1000,1000,1000,1000,,,,,
83535739,1000,1000,1000,1000,,,,,
83538238,1000,1000,1000,1000,,,,,
83540737,1000,1000,1000,1000,,,,,
83543236,1000,1000,1000,1000,,,,,
83545735,1000,1000,1000,1000,,,,,
83548234,1000,1000,1000,1000,,,,,
83550733,1000,1000,1000,1000,,,,,
83553232,1000,1000,1000,1000,,,,,
83555731,1000,1000,1000,1000,,,,,
83558230,1000,1000,1000,1000,,,,,
83560729,1000,1000,1000,1000,,,,,
83563228,1000,1000,1000,1000,,,,,
83565727,1000,1000,1000,1000,,,,,
83568226,1000,1000,1000,1000,,,,,
83570725,1000,1000,1000,1000,,,,,
83573224,1000,1000,1000,1000,,,,,
83575723,1000,1000,1000,1000,,,,,
83578222,1000,1000,1000,1000,,,,,
83580721,1000,1000,1000,1000,,,,,
83583220,1000,1000,1000,1000,,,,,
83585719,1000,1000,1000,1000,,,,,
83588218,1000,1000,1000,1000,,,,,
83590717,1000,1000,1000,1000,,,,,
83593216,1000,1000,1000,1000,,,,,
83595715,1000,1000,1000,1000,,,,,
83598214,1000,1000,1000,1000,,,,,
83600713,1000,1000,1000,1000,,,,,
83603212,1000,1000,1000,1000,,,,,
83605711,1000,1000,1000,1000,,,,,
83608210,1000,1000,1000,1000,,,,,
83610709,1000,1000,1000,1000,,,,,
83613208,1000,1000,1000,1000,,,,,
83615707,1000,1000,1000,1000,,,,,
83618206,1000,1000,1000,1000,,,,,
83620705,1000,1000,1000,1000,,,,,
83623204,1000,1000,1000,1000,,,,,
83625703,1000,1000,1000,1000,,,,,
83628202,1000,1000,1000,1000,,,,,
83630701,1000,1000,1000,1000,,,,,
83633200,1000,1000,1000,1000,,,,,
83635699,1000,1000,1000,1000,,,,,
83638198,1000,1000,1000,1000,,,,,
83640697,1000,1000,1000,1000,,,,,
83643196,1000,1000,1000,1000,,,,,
83645695,1000,1000,1000,1000,,,,,
83648194,1000,1000,1000,1000,,,,,
83650693,1000,1000,1000,1000,,,,,
83653192,1000,1000,1000,1000,,,,,
83655691,1000,1000,1000,1000,,,,,
83658190,1000,1000,1000,1000,,,,,
83660689,1000,1000,1000,1000,,,,,
83663188,1000,1000,1000,1000,,,,,
83665687,1000,1000,1000,1000,,,,,
83668186,1000,1000,1000,1000,,,,,
83670685,1000,1000,1000,1000,,,,,
83673184,1000,1000,1000,1000,,,,,
83675683,1000,1000,1000,1000,,,,,
83678182,1000,1000,1000,1000,,,,,
83680681,1000,1000,1000,1000,,,,,
83683180,1000,1000,1000,1000,,,,,
83685679,1000,1000,1000,1000,,,,,
83688178,1000,1000,1000,1000,,,,,
83690677,1000,1000,1000,1000,,,,,
83693176,1000,1000,1000,1000,,,,,
83695675,1000,1000,1000,1000,,,,,
83698174,1000,1000,1000,1000,,,,,
83700673,1000,1000,1000,1000,,,,,
83703172,1000,1000,1000,1000,,,,,
83705671,1000,1000,1000,1000,,,,,
83708170,1000,1000,1000,1000,,,,,
83710669,1000,1000,1000,1000,,,,,
83713168,1000,1000,1000,1000,,,,,
83715667,1000,1000,1000,1000,,,,,
83718166,1000,1000,1000,1000,,,,,
83720665,1000,1000,1000,1000,,,,,
83723164,1000,1000,1000,1000,,,,,
83725663,1000,1000,1000,1000,,,,,
83728162,1000,1000,1000,1000,,,,,
83730661,1000,1000,1000,1000,,,,,
83733160,1000,1000,1000,1000,,,,,
83735659,1000,1000,1000,1000,,,,,
83738158,1000,1000,1000,1000,,,,,
83740657,1000,1000,1000,1000,,,,,
83743156,1000,1000,1000,1000,,,,,
83745655,1000,1000,1000,1000,,,,,
83748154,1000,1000,1000,1000,,,,,
83751486,1000,1000,1000,1000,,,,,
83753985,1000,1000,1000,1000,,,,,
83756484,1000,1000,1000,1000,,,,,
83758983,1000,1000,1000,1000,,,,,
83761482,1000,1000,1000,1000,,,,,
83763981,1000,1000,1000,1000,,,,,
83766480,1000,1000,1000,1000,,,,,
83768979,1000,1000,1000,1000,,,,,
83771478,1000,1000,1000,1000,,,,,
83773977,1000,1000,1000,1000,,,,,
83776476,1000,1000,1000,1000,,,,,
83778975,1000,1000,1000,1000,,,,,
83781474,1000,1000,1000,1000,,,,,
83783973,1000,1000,1000,1000,,,,,
83786472,1000,1000,1000,1000,,,,,
83788971,1000,1000,1000,1000,,,,,
83791470,1000,1000,1000,1000,,,,,
83793969,1000,1000,1000,1000,,,,,
83796468,1000,1000,1000,1000,,,,,
83798967,1000,1000,1000,1000,,,,,
83801466,1000,1000,1000,1000,,,,,
83803965,1000,1000,1000,1000,,,,,
83806464,1000,1000,1000,1000,,,,,
83808963,1000,1000,1000,1000,,,,,
83811462,1000,1000,1000,1000,,,,,
83813961,1000,1000,1000,1000,,,,,
83816460,1000,1000,1000,1000,,,,,
83818959,1000,1000,1000,1000,,,,,
83821458,1000,1000,1000,1000,,,,,
83823957,1000,1000,1000,1000,,,,,
83826456,1000,1000,1000,1000,,,,,
83828955,1000,1000,1000,1000,,,,,
83831454,1000,1000,1000,1000,,,,,
83833953,1000,1000,1000,1000,,,,,
83836452,1000,1000,1000,1000,,,,,
83838951,1000,1000,1000,1000,,,,,
83841450,1000,1000,1000,1000,,,,,
83843949,1000,1000,1000,1000,,,,,
83846448,1000,1000,1000,1000,,,,,
83848947,1000,1000,1000,1000,,,,,
83851446,1000,1000,1000,1000,,,,,
83853945,1000,1000,1000,1000,,,,,
83856444,1000,1000,1000,1000,,,,,
83858943,1000,1000,1000,1000,,,,,
83861442,1000,1000,1000,1000,,,,,
83863941,1000,1000,1000,1000,,,,,
83866440,1000,1000,1000,1000,,,,,
83868939,1000,1000,1000,1000,,,,,
83871438,1000,1000,1000,1000,,,,,
83873937,1000,1000,1000,1000,,,,,
83876436,1000,1000,1000,1000,,,,,
83878935,1000,1000,1000,1000,,,,,
83881434,1000,1000,1000,1000,,,,,
83883933,1000,1000,1000,1000,,,,,
83886432,1000,1000,1000,1000,,,,,
83888931,1000,1000,1000,1000,,,,,
83891430,1000,1000,1000,1000,,,,,
83893929,1000,1000,1000,1000,,,,,
83896428,1000,1000,1000,1000,,,,,
83898927,1000,1000,1000,1000,,,,,
83901426,1000,1000,1000,1000,,,,,
83903925,1000,1000,1000,1000,,,,,
83906424,1000,1000,1000,1000,,,,,
83908923,1000,1000,1000,1000,,,,,
83911422,1001,1001,1001,1001,,,,,
83913921,1002,1002,1002,1002,,,,,
83916420,1003,1003,1003,1003,,,,,
83918919,1003,1003,1003,1003,,,,,
83921418,1004,1004,1004,1004,,,,,
83923917,1005,1005,1005,1005,,,,,
83926416,1006,1006,1006,1006,,,,,
83928915,1006,1006,1006,1006,,,,,
83931414,1007,1007,1007,1007,,,,,
83933913,1008,1008,1008,1008,,,,,
83936412,1009,1009,1009,1009,,,,,
83938911,1009,1009,1009,1009,,,,,
83941410,1010,1010,1010,1010,,,,,
83943909,1011,1011,1011,1011,,,,,
83946408,1012,1012,1012,1012,,,,,
83948907,1012,1012,1012,1012,,,,,
83951406,1013,1013,1013,1013,,,,,
83953905,1014,1014,1014,1014,,,,,
83956404,1015,1015,1015,1015,,,,,
83958903,1015,1015,1015,1015,,,,,
83961402,1016,1016,1016,1016,,,,,
83963901,1017,1017,1017,1017,,,,,
83966400,1018,1018,1018,1018,,,,,
83968899,1018,1018,1018,1018,,,,,
83971398,1019,1019,1019,1019,,,,,
83973897,1020,1020,1020,1020,,,,,
83976396,1021,1021,1021,1021,,,,,
83978895,1021,1021,1021,1021,,,,,
83981394,1022,1022,1022,1022,,,,,
83983893,1023,1023,1023,1023,,,,,
83986392,1024,1024,1024,1024,,,,,
83988891,1024,1024,1024,1024,,,,,
83991390,1025,1025,1025,1025,,,,,
83993889,1026,1026,1026,1026,,,,,
83996388,1027,1027,1027,1027,,,,,
83998887,1027,1027,1027,1027,,,,,
84001386,1028,1028,1028,1028,,,,,
84003885,1029,1029,1029,1029,,,,,
84006384,1030,1030,1030,1030,,,,,
84008883,1030,1030,1030,1030,,,,,
84011382,1031,1031,1031,1031,,,,,
84013881,1032,1032,1032,1032,,,,,
84016380,1033,1033,1033,1033,,,,,
84018879,1033,1033,1033,1033,,,,,
84021378,1034,1034,1034,1034,,,,,
84023877,1035,1035,1035,1035,,,,,
84026376,1036,1036,1036,1036,,,,,
84028875,1036,1036,1036,1036,,,,,
84031374,1037,1037,1037,1037,,,,,
84033873,1038,1038,1038,1038,,,,,
84036372,1039,1039,1039,1039,,,,,
84038871,1039,1039,1039,1039,,,,,
84041370,1040,1040,1040,1040,,,,,
84043869,1041,1041,1041,1041,,,,,
84046368,1042,1042,1042,1042,,,,,
84048867,1042,1042,1042,1042,,,,,
84051366,1043,1043,1043,1043,,,,,
84053865,1044,1044,1044,1044,,,,,
84056364,1045,1045,1045,1045,,,,,
84058863,1045,1045,1045,1045,,,,,
84061362,1046,1046,1046,1046,,,,,
84063861,1047,1047,1047,1047,,,,,
84066360,1048,1048,1048,1048,,,,,
84068859,1048,1048,1048,1048,,,,,
84071358,1049,1049,1049,1049,,,,,
84073857,1050,1050,1050,1050,,,,,
84076356,1051,1051,1051,1051,,,,,
84078855,1051,1051,1051,1051,,,,,
84081354,1052,1052,1052,1052,,,,,
84083853,1053,1053,1053,1053,,,,,
84086352,1054,1054,1054,1054,,,,,
84088851,1054,1054,1054,1054,,,,,
84091350,1055,1055,1055,1055,,,,,
84093849,1056,1056,1056,1056,,,,,
84096348,1057,1057,1057,1057,,,,,
84098847,1057,1057,1057,1057,,,,,
84101346,1058,1058,1058,1058,,,,,
84103845,1059,1059,1059,1059,,,,,
84106344,1060,1060,1060,1060,,,,,
84108843,1060,1060,1060,1060,,,,,
84111342,1061,1061,1061,1061,,,,,
84113841,1062,1062,1062,1062,,,,,
84116340,1063,1063,1063,1063,,,,,
84118839,1063,1063,1063,1063,,,,,
84121338,1064,1064,1064,1064,,,,,
84123837,1065,1065,1065,1065,,,,,
84126336,1066,1066,1066,1066,,,,,
84128835,1066,1066,1066,1066,,,,,
84131334,1067,1067,1067,1067,,,,,
84133833,1068,1068,1068,1068,,,,,
84136332,1069,1069,1069,1069,,,,,
84138831,1069,1069,1069,1069,,,,,
84141330,1070,1070,1070,1070,,,,,
84143829,1071,1071,1071,1071,,,,,
84146328,1072,1072,1072,1072,,,,,
84148827,1072,1072,1072,1072,,,,,
84151326,1073,1073,1073,1073,,,,,
84153825,1074,1074,1074,1074,,,,,
84156324,1075,1075,1075,1075,,,,,
84158823,1075,1075,1075,1075,,,,,
84161322,1076,1076,1076,1076,,,,,
84163821,1077,1077,1077,1077,,,,,
84166320,1078,1078,1078,1078,,,,,
84168819,1078,1078,1078,1078,,,,,
84171318,1079,1079,1079,1079,,,,,
84173817,1080,1080,1080,1080,,,,,
84176316,1081,1081,1081,1081,,,,,
84178815,1081,1081,1081,1081,,,,,
84181314,1082,1082,1082,1082,,,,,
84183813,1083,1083,1083,1083,,,,,
84186312,1084,1084,1084,1084,,,,,
84188811,1084,1084,1084,1084,,,,,
84191310,1085,1085,1085,1085,,,,,
84193809,1086,1086,1086,1086,,,,,
84196308,1087,1087,1087,1087,,,,,
84198807,1087,1087,1087,1087,,,,,
84201306,1088,1088,1088,1088,,,,,
84203805,1089,1089,1089,1089,,,,,
84206304,1090,1090,1090,1090,,,,,
84208803,1090,1090,1090,1090,,,,,
84211302,1091,1091,1091,1091,,,,,
84213801,1092,1092,1092,1092,,,,,
84216300,1093,1093,1093,1093,,,,,
84218799,1093,1093,1093,1093,,,,,
84221298,1094,1094,1094,1094,,,,,
84223797,1095,1095,1095,1095,,,,,
84226296,1096,1096,1096,1096,,,,,
84228795,1096,1096,1096,1096,,,,,
84231294,1097,1097,1097,1097,,,,,
84233793,1098,1098,1098,1098,,,,,
84236292,1099,1099,1099,1099,,,,,
84238791,1099,1099,1099,1099,,,,,
84241290,1100,1100,1100,1100,,,,,
84243789,1101,1101,1101,1101,,,,,
84246288,1101,1101,1101,1101,,,,,
84248787,1102,1102,1102,1102,,,,,
84251286,1103,1103,1103,1103,,,,,
84253785,1104,1104,1104,1104,,,,,
84256284,1104,1104,1104,1104,,,,,
84258783,1105,1105,1105,1105,,,,,
84261282,1106,1106,1106,1106,,,,,
84263781,1107,1107,1107,1107,,,,,
84266280,1107,1107,1107,1107,,,,,
84268779,1108,1108,1108,1108,,,,,
84271278,1109,1109,1109,1109,,,,,
84273777,1110,1110,1110,1110,,,,,
84276276,1110,1110,1110,1110,,,,,
84278775,1111,1111,1111,1111,,,,,
84281274,1112,1112,1112,1112,,,,,
84283773,1113,1113,1113,1113,,,,,
84286272,1113,1113,1113,1113,,,,,
84288771,1114,1114,1114,1114,,,,,
84291270,1115,1115,1115,1115,,,,,
84293769,1116,1116,1116,1116,,,,,
84296268,1116,1116,1116,1116,,,,,
84298767,1117,1117,1117,1117,,,,,
84301266,1118,1118,1118,1118,,,,,
84303765,1119,1119,1119,1119,,,,,
84306264,1119,1119,1119,1119,,,,,
84308763,1120,1120,1120,1120,,,,,
84311262,1121,1121,1121,1121,,,,,
84313761,1122,1122,1122,1122,,,,,
84316260,1122,1122,1122,1122,,,,,
84318759,1123,1123,1123,1123,,,,,
84321258,1124,1124,1124,1124,,,,,
84323757,1125,1125,1125,1125,,,,,
84326256,1125,1125,1125,1125,,,,,
84328755,1126,1126,1126,1126,,,,,
84331254,1127,1127,1127,1127,,,,,
84333753,1128,1128,1128,1128,,,,,
84336252,1128,1128,1128,1128,,,,,
84338751,1129,1129,1129,1129,,,,,
84341250,1130,1130,1130,1130,,,,,
84343749,1131,1131,1131,1131,,,,,
84346248,1131,1131,1131,1131,,,,,
84348747,1132,1132,1132,1132,,,,,
84351246,1133,1133,1133,1133,,,,,
84353745,1134,1134,1134,1134,,,,,
84356244,1134,1134,1134,1134,,,,,
84358743,1135,1135,1135,1135,,,,,
84361242,1136,1136,1136,1136,,,,,
84363741,1137,1137,1137,1137,,,,,
84366240,1137,1137,1137,1137,,,,,
84368739,1138,1138,1138,1138,,,,,
84371238,1139,1139,1139,1139,,,,,
84373737,1140,1140,1140,1140,,,,,
84376236,1140,1140,1140,1140,,,,,
84378735,1141,1141,1141,1141,,,,,
84381234,1142,1142,1142,1142,,,,,
84383733,1143,1143,1143,1143,,,,,
84386232,1143,1143,1143,1143,,,,,
84388731,1144,1144,1144,1144,,,,,
84391230,1145,1145,1145,1145,,,,,
84393729,1146,1146,1146,1146,,,,,
84396228,1146,1146,1146,1146,,,,,
84398727,1147,1147,1147,1147,,,,,
84401226,1148,1148,1148,1148,,,,,
84403725,1149,1149,1149,1149,,,,,
84406224,1149,1149,1149,1149,,,,,
84408723,1150,1150,1150,1150,,,,,
84411222,1164,1151,1152,1165,,,,,
84413721,1172,1159,1160,1173,,,,,
84416220,1180,1167,1168,1180,,,,,
84418719,1187,1175,1176,1188,,,,,
84421218,1195,1182,1183,1196,,,,,
84423717,1202,1190,1191,1203,,,,,
84426216,1209,1197,1198,1210,,,,,
84428715,1217,1205,1206,1217,,,,,
84431214,1224,1212,1213,1224,,,,,
84433713,1231,1219,1220,1231,,,,,
84436212,1238,1226,1227,1238,,,,,
84438711,1244,1233,1234,1245,,,,,
84441210,1251,1240,1241,1252,,,,,
84443709,1258,1246,1247,1258,,,,,
84446208,1264,1253,1254,1265,,,,,
84448707,1271,1260,1260,1271,,,,,
84451206,1277,1266,1267,1278,,,,,
84453705,1283,1272,1273,1284,,,,,
84456204,1289,1279,1279,1290,,,,,
84458703,1295,1285,1286,1296,,,,,
84461202,1301,1291,1292,1302,,,,,
84463701,1307,1297,1298,1308,,,,,
84466200,1313,1303,1304,1314,,,,,
84468699,1319,1309,1310,1320,,,,,
84471198,1325,1315,1316,1326,,,,,
84473697,1331,1321,1322,1332,,,,,
84476196,1337,1327,1327,1337,,,,,
84478695,1342,1332,1333,1343,,,,,
84481194,1348,1338,1339,1349,,,,,
84483693,1353,1344,1344,1354,,,,,
84486192,1359,1349,1350,1360,,,,,
84488691,1364,1355,1355,1365,,,,,
84491190,1370,1360,1361,1370,,,,,
84493689,1375,1365,1366,1376,,,,,
84496188,1380,1371,1371,1381,,,,,
84498687,1386,1376,1377,1386,,,,,
84501186,1391,1381,1382,1392,,,,,
84503685,1396,1387,1387,1397,,,,,
84506184,1401,1392,1392,1402,,,,,
84508683,1406,1397,1397,1407,,,,,
84511182,1411,1402,1402,1412,,,,,
84513681,1416,1407,1407,1417,,,,,
84516180,1421,1412,1412,1422,,,,,
84518679,1426,1417,1417,1427,,,,,
84521178,1431,1422,1422,1432,,,,,
84523677,1436,1427,1427,1437,,,,,
84526176,1441,1432,1432,1442,,,,,
84528675,1445,1437,1437,1446,,,,,
84531174,1450,1441,1442,1451,,,,,
84533673,1455,1446,1446,1456,,,,,
84536172,1460,1451,1451,1461,,,,,
84538671,1464,1456,1456,1465,,,,,
84541170,1469,1460,1461,1470,,,,,
84543669,1474,1465,1465,1474,,,,,
84546168,1478,1470,1470,1479,,,,,
84548667,1483,1474,1474,1484,,,,,
84551166,1487,1479,1479,1488,,,,,
84553665,1492,1483,1484,1492,,,,,
84556164,1496,1488,1488,1497,,,,,
84558663,1501,1492,1493,1501,,,,,
84561162,1505,1497,1497,1506,,,,,
84563661,1509,1501,1501,1510,,,,,
84566160,1514,1505,1506,1515,,,,,
84568659,1518,1510,1510,1519,,,,,
84571158,1522,1514,1515,1523,,,,,
84573657,1527,1518,1519,1527,,,,,
84576156,1531,1523,1523,1532,,,,,
84578655,1535,1527,1527,1536,,,,,
84581154,1540,1531,1532,1540,,,,,
84583653,1544,1536,1536,1544,,,,,
84586152,1548,1540,1540,1549,,,,,
84588651,1552,1544,1544,1553,,,,,
84591150,1556,1548,1548,1557,,,,,
84593649,1560,1552,1553,1561,,,,,
84596148,1564,1556,1557,1565,,,,,
84598647,1568,1560,1561,1569,,,,,
84601146,1573,1564,1565,1573,,,,,
84603645,1577,1569,1569,1577,,,,,
84606144,1581,1573,1573,1581,,,,,
84608643,1585,1577,1577,1585,,,,,
84611142,1589,1581,1581,1589,,,,,
84613641,1593,1585,1585,1593,,,,,
84616140,1596,1588,1589,1597,,,,,
84618639,1600,1592,1593,1601,,,,,
84621138,1604,1596,1597,1605,,,,,
84623637,1608,1600,1601,1609,,,,,
84626136,1612,1604,1605,1612,,,,,
84628635,1616,1608,1609,1616,,,,,
84631134,1620,1612,1612,1620,,,,,
84633633,1624,1616,1616,1624,,,,,
84636132,1627,1619,1620,1628,,,,,
84638631,1631,1623,1624,1631,,,,,
84641130,1635,1627,1628,1635,,,,,
84643629,1639,1631,1631,1639,,,,,
84646128,1642,1635,1635,1643,,,,,
84648627,1646,1638,1639,1646,,,,,
84651126,1650,1642,1643,1650,,,,,
84653625,1653,1646,1646,1654,,,,,
84656124,1657,1649,1650,1658,,,,,
84658623,1661,1653,1654,1661,,,,,
84661122,1664,1657,1657,1665,,,,,
84663621,1668,1660,1661,1668,,,,,
84666120,1672,1664,1665,1672,,,,,
84668619,1675,1668,1668,1676,,,,,
84671118,1679,1671,1672,1679,,,,,
84673617,1682,1675,1675,1683,,,,,
84676116,1686,1678,1679,1686,,,,,
84678615,1690,1682,1682,1690,,,,,
84681114,1693,1685,1686,1693,,,,,
84683613,1697,1689,1690,1697,,,,,
84686112,1700,1692,1693,1700,,,,,
84688611,1704,1696,1697,1704,,,,,
84691110,1707,1699,1700,1707,,,,,
84693609,1711,1703,1704,1711,,,,,
84696108,1714,1706,1707,1714,,,,,
84698607,1718,1710,1710,1718,,,,,
84701106,1721,1713,1714,1721,,,,,
84703605,1724,1717,1717,1725,,,,,
84706104,1728,1720,1721,1728,,,,,
84708603,1731,1724,1724,1732,,,,,
84711102,1735,1727,1727,1735,,,,,
84713601,1738,1730,1731,1738,,,,,
84716100,1741,1734,1734,1742,,,,,
84718599,1745,1737,1738,1745,,,,,
84721098,1748,1740,1741,1748,,,,,
84723597,1751,1744,1744,1752,,,,,
84726096,1755,1747,1748,1755,,,,,
84728595,1758,1750,1751,1758,,,,,
84731094,1761,1754,1754,1762,,,,,
84733593,1765,1757,1757,1765,,,,,
84736092,1768,1760,1761,1768,,,,,
84738591,1771,1763,1764,1771,,,,,
84741090,1774,1767,1767,1775,,,,,
84743589,1778,1770,1770,1778,,,,,
84746088,1781,1773,1774,1781,,,,,
84748587,1784,1776,1777,1784,,,,,
84751086,1787,1780,1780,1788,,,,,
84753585,1791,1783,1783,1791,,,,,
84756084,1794,1786,1787,1794,,,,,
84758583,1797,1789,1790,1797,,,,,
84761082,1800,1792,1793,1800,,,,,
84763581,1803,1795,1796,1804,,,,,
84766080,1806,1799,1799,1807,,,,,
84768579,1810,1802,1802,1810,,,,,
84771078,1813,1805,1805,1813,,,,,
84773577,1816,1808,1809,1816,,,,,
84776076,1819,1811,1812,1819,,,,,
84778575,1822,1814,1815,1822,,,,,
84781074,1825,1817,1818,1825,,,,,
84783573,1828,1821,1821,1829,,,,,
84786072,1831,1824,1824,1832,,,,,
84788571,1834,1827,1827,1835,,,,,
84791070,1837,1830,1830,1838,,,,,
84793569,1841,1833,1833,1841,,,,,
84796068,1844,1836,1836,1844,,,,,
84798567,1847,1839,1840,1847,,,,,
84801066,1850,1842,1843,1850,,,,,
84803565,1853,1845,1846,1853,,,,,
84806064,1856,1848,1849,1856,,,,,
84808563,1859,1851,1852,1859,,,,,
84811062,1862,1854,1855,1862,,,,,
84813561,1865,1857,1858,1865,,,,,
84816060,1868,1860,1861,1868,,,,,
84818559,1871,1863,1864,1871,,,,,
84821058,1874,1866,1867,1874,,,,,
84823557,1877,1869,1870,1877,,,,,
84826056,1880,1872,1873,1880,,,,,
84828555,1883,1875,1876,1882,,,,,
84831054,1885,1878,1879,1885,,,,,
84833553,1888,1881,1881,1888,,,,,
84836052,1891,1883,1884,1891,,,,,
84838551,1891,1883,1884,1890,,,,,
84841050,1890,1882,1883,1889,,,,,
84843549,1889,1881,1882,1888,,,,,
84846048,1888,1880,1881,1887,,,,,
84848547,1887,1879,1880,1886,,,,,
84851046,1886,1878,1879,1886,,,,,
84853545,1885,1877,1878,1885,,,,,
84856044,1884,1876,1877,1884,,,,,
84858543,1883,1875,1876,1883,,,,,
84861042,1882,1875,1875,1883,,,,,
84863541,1882,1874,1875,1882,,,,,
84866040,1881,1873,1874,1881,,,,,
84868539,1881,1873,1874,1881,,,,,
84871038,1880,1873,1873,1881,,,,,
84873537,1880,1872,1873,1880,,,,,
84876036,1880,1872,1873,1880,,,,,
84878535,1880,1872,1873,1880,,,,,
84881034,1880,1872,1872,1880,,,,,
84883533,1880,1872,1872,1880,,,,,
84886032,1880,1872,1873,1880,,,,,
84888531,1880,1872,1873,1880,,,,,
84891030,1880,1872,1873,1880,,,,,
84893529,1880,1873,1873,1881,,,,,
84896028,1881,1873,1874,1881,,,,,
84898527,1881,1874,1874,1882,,,,,
84901026,1882,1874,1875,1882,,,,,
84903525,1882,1875,1875,1882,,,,,
84906024,1883,1875,1876,1883,,,,,
84908523,1883,1876,1876,1883,,,,,
84911022,1883,1877,1877,1884,,,,,
84913521,1884,1877,1878,1884,,,,,
84916020,1884,1878,1878,1884,,,,,
84918519,1884,1878,1878,1884,,,,,
84921018,1884,1878,1879,1884,,,,,
84923517,1884,1878,1879,1884,,,,,
84926016,1884,1878,1879,1884,,,,,
84928515,1883,1878,1878,1883,,,,,
84931014,1883,1877,1878,1883,,,,,
84933513,1882,1877,1877,1882,,,,,
84936012,1881,1876,1876,1881,,,,,
84938511,1880,1875,1875,1880,,,,,
84941010,1878,1874,1874,1879,,,,,
84943509,1877,1873,1873,1878,,,,,
84946008,1876,1871,1871,1876,,,,,
84948507,1874,1870,1870,1874,,,,,
84951006,1872,1868,1868,1873,,,,,
84953505,1870,1866,1866,1871,,,,,
84956004,1868,1864,1864,1868,,,,,
84958503,1866,1862,1862,1866,,,,,
84961002,1863,1859,1860,1864,,,,,
84963501,1861,1857,1857,1861,,,,,
84966000,1858,1855,1855,1859,,,,,
84968499,1856,1852,1852,1856,,,,,
84970998,1853,1849,1850,1853,,,,,
84973497,1850,1847,1847,1851,,,,,
84975996,1847,1844,1844,1848,,,,,
84978495,1845,1841,1841,1845,,,,,
84980994,1842,1838,1839,1842,,,,,
84983493,1839,1835,1836,1839,,,,,
84985992,1836,1832,1833,1836,,,,,
84988491,1833,1829,1830,1833,,,,,
84990990,1830,1826,1827,1830,,,,,
84993489,1826,1823,1824,1827,,,,,
84995988,1823,1820,1821,1824,,,,,
84998487,1820,1817,1818,1821,,,,,
85000986,1817,1814,1815,1818,,,,,
85003485,1814,1811,1812,1814,,,,,
85005984,1811,1808,1809,1811,,,,,
85008483,1808,1805,1806,1808,,,,,
85010982,1804,1802,1803,1805,,,,,
85013481,1801,1799,1799,1802,,,,,
85015980,1798,1796,1796,1799,,,,,
85018479,1795,1793,1793,1795,,,,,
85020978,1791,1790,1790,1792,,,,,
85023477,1788,1787,1787,1789,,,,,
85025976,1785,1783,1784,1786,,,,,
85028475,1782,1780,1780,1782,,,,,
85030974,1778,1777,1777,1779,,,,,
85033473,1775,1774,1774,1776,,,,,
85035972,1772,1771,1771,1772,,,,,
85038471,1769,1768,1768,1769,,,,,
85040970,1765,1764,1765,1766,,,,,
85043469,1762,1761,1762,1763,,,,,
85045968,1759,1758,1758,1760,,,,,
85048467,1756,1755,1755,1756,,,,,
85050966,1753,1752,1752,1753,,,,,
85053465,1749,1749,1749,1750,,,,,
85055964,1746,1746,1746,1747,,,,,
85058463,1743,1743,1743,1744,,,,,
85060962,1740,1740,1740,1741,,,,,
85063461,1737,1737,1737,1738,,,,,
85065960,1734,1734,1735,1735,,,,,
85068459,1731,1732,1732,1732,,,,,
85070958,1729,1729,1729,1729,,,,,
85073457,1726,1726,1726,1727,,,,,
85075956,1723,1723,1723,1724,,,,,
85078455,1720,1721,1721,1721,,,,,
85080954,1718,1718,1718,1718,,,,,
85083453,1715,1715,1715,1716,,,,,
85085952,1712,1713,1713,1713,,,,,
85088451,1710,1710,1710,1710,,,,,
85090950,1707,1708,1708,1708,,,,,
85093449,1704,1705,1705,1705,,,,,
85095948,1702,1703,1703,1703,,,,,
85098447,1700,1700,1701,1700,,,,,
85100946,1697,1698,1698,1698,,,,,
85103445,1695,1696,1696,1695,,,,,
85105944,1692,1693,1694,1693,,,,,
85108443,1690,1691,1692,1690,,,,,
85110942,1688,1689,1689,1688,,,,,
85113441,1686,1687,1687,1686,,,,,
85115940,1684,1685,1685,1684,,,,,
85118439,1681,1683,1683,1682,,,,,
85120938,1679,1681,1681,1680,,,,,
85123437,1677,1679,1679,1678,,,,,
85125936,1675,1677,1677,1676,,,,,
85128435,1674,1675,1676,1674,,,,,
85130934,1672,1673,1674,1672,,,,,
85133433,1670,1672,1672,1670,,,,,
85135932,1668,1670,1671,1668,,,,,
85138431,1667,1668,1669,1667,,,,,
85140930,1665,1667,1668,1665,,,,,
85143429,1664,1665,1666,1663,,,,,
85145928,1662,1664,1665,1662,,,,,
85148427,1660,1662,1663,1660,,,,,
85150926,1659,1661,1662,1659,,,,,
85153425,1657,1659,1660,1657,,,,,
85155924,1656,1658,1659,1656,,,,,
85158423,1655,1657,1657,1654,,,,,
85160922,1653,1655,1656,1653,,,,,
85163421,1652,1654,1655,1652,,,,,
85165920,1651,1653,1654,1651,,,,,
85168419,1650,1652,1653,1649,,,,,
85170918,1648,1651,1651,1648,,,,,
85173417,1647,1650,1650,1647,,,,,
85175916,1646,1649,1649,1646,,,,,
85178415,1645,1648,1648,1645,,,,,
85180914,1644,1647,1647,1644,,,,,
85183413,1643,1646,1647,1643,,,,,
85185912,1643,1645,1646,1642,,,,,
85188411,1642,1644,1645,1641,,,,,
