TimeUS,PN,PE,PD,Roll,Pitch,Yaw,VN,VE,VD,GX,GY,GZ,M1,M2,M3,M4
55381172,-0.022835674,0.022299057,-0.00252517,0.001667123,0.001463955,0.007165777,-0.025880428,0.024975488,-0.000901985,0.00056244,0.000216033,0.00033606,1000,1000,1000,1000
55383671,-0.022913415,0.022374056,-0.002527856,0.001667247,0.001464561,0.00716573,-0.025946079,0.025023194,-0.000888644,0.000533248,0.000225772,0.000345187,1000,1000,1000,1000
55386170,-0.022965325,0.02242413,-0.002529627,0.001667534,0.001465439,0.007165441,-0.025962334,0.025049618,-0.000882948,0.000514873,0.000267786,0.000327321,1000,1000,1000,1000
55388669,-0.02278268,0.022244878,-0.002522755,0.001667577,0.001465566,0.007166249,-0.025852477,0.024961913,-0.000883904,0.000482314,0.000337698,0.000317888,1000,1000,1000,1000
55391168,-0.022834422,0.022294831,-0.002524508,0.001667092,0.001465289,0.007167209,-0.025888437,0.024988312,-0.00086904,0.000463092,0.000353634,0.000326548,1000,1000,1000,1000
55393667,-0.022912156,0.022369858,-0.002527147,0.001668188,0.001465718,0.007166944,-0.025932109,0.025028313,-0.000890418,0.000454688,0.000391973,0.000344592,1000,1000,1000,1000
55396166,-0.022964058,0.022419948,-0.00252892,0.001667971,0.001464467,0.007166359,-0.025969181,0.025060687,-0.000882345,0.00045537,0.000388588,0.000336382,1000,1000,1000,1000
55398665,-0.022790201,0.022249298,-0.002522395,0.001668753,0.001464823,0.007165814,-0.025860706,0.024974905,-0.000871295,0.000465824,0.000367376,0.000286028,1000,1000,1000,1000
55401164,-0.022841956,0.022299269,-0.002524143,0.001667876,0.001464718,0.00716493,-0.025893833,0.024994645,-0.000876775,0.00045961,0.000366976,0.000249052,1000,1000,1000,1000
55403663,-0.022919724,0.022374306,-0.00252679,0.001668506,0.001465433,0.007165574,-0.025949813,0.025028499,-0.000888154,0.000451894,0.000359881,0.000217134,1000,1000,1000,1000
55406162,-0.022971645,0.022424404,-0.002528566,0.001668027,0.001464941,0.00716495,-0.025969615,0.025067966,-0.000887515,0.000443347,0.00036697,0.000199358,1000,1000,1000,1000
55408661,-0.022806309,0.022262068,-0.002522442,0.001668704,0.001463814,0.007164874,-0.025866458,0.024966413,-0.000896642,0.000433166,0.000331067,0.00016761,1000,1000,1000,1000
55411160,-0.022858074,0.022312021,-0.002524223,0.001667935,0.001463736,0.007164955,-0.025897574,0.024984691,-0.000884279,0.000431082,0.000299562,0.000156232,1000,1000,1000,1000
55413659,-0.022935856,0.022387033,-0.002526874,0.001669185,0.001465104,0.007165074,-0.025956128,0.025021827,-0.000883525,0.000441956,0.000308058,0.000177809,1000,1000,1000,1000
55416158,-0.02298779,0.022437099,-0.002528657,0.001669395,0.001464903,0.00716415,-0.025977662,0.025042102,-0.000899208,0.000458822,0.00032519,0.000166183,1000,1000,1000,1000
55418657,-0.022830762,0.022282768,-0.002522269,0.001670739,0.001466078,0.007164286,-0.025887074,0.024943227,-0.000904018,0.000488038,0.000361226,0.000149813,1000,1000,1000,1000
55421156,-0.022882579,0.022332674,-0.002524064,0.001671198,0.001465859,0.007165245,-0.025928555,0.024960402,-0.000891469,0.000522969,0.000389155,0.000164384,1000,1000,1000,1000
55423655,-0.022960437,0.022407632,-0.002526767,0.001672142,0.001466751,0.007166749,-0.025975509,0.025011091,-0.000909977,0.000556396,0.000417484,0.000222819,1000,1000,1000,1000
55426154,-0.023012426,0.022457685,-0.002528589,0.001671419,0.001465882,0.007167404,-0.026011171,0.025040168,-0.000912754,0.000564804,0.000427888,0.000281137,1000,1000,1000,1000
55428653,-0.022863505,0.022311201,-0.002522552,0.001671992,0.00146575,0.007167376,-0.025914039,0.024941938,-0.000887763,0.00056258,0.000414371,0.000336767,1000,1000,1000,1000
55431152,-0.022915376,0.022361103,-0.002524333,0.001672338,0.001465832,0.007168007,-0.02595501,0.024959495,-0.000893751,0.000562086,0.000398243,0.000367181,1000,1000,1000,1000
55433651,-0.022993337,0.02243603,-0.002527025,0.001672992,0.001467046,0.007169113,-0.026017517,0.024990108,-0.00090077,0.000553476,0.000395863,0.000418904,1000,1000,1000,1000
55436150,-0.023045421,0.022486052,-0.002528831,0.001673845,0.001466171,0.007170008,-0.026063582,0.025030086,-0.000905508,0.000561797,0.000396871,0.000459349,1000,1000,1000,1000
55438649,-0.022904454,0.022347201,-0.002523171,0.00167422,0.001466173,0.007170819,-0.025968885,0.024964157,-0.000918483,0.000565089,0.000385123,0.000508567,1000,1000,1000,1000
55441148,-0.022956418,0.022397168,-0.002524998,0.001674475,0.001466101,0.007170878,-0.025994319,0.025002105,-0.000907784,0.000573018,0.000366274,0.000521156,1000,1000,1000,1000
55443647,-0.023034479,0.022472246,-0.002527719,0.001676397,0.001466115,0.007170847,-0.026044773,0.025047813,-0.000906603,0.000593859,0.000336914,0.000509944,1000,1000,1000,1000
55446146,-0.023086594,0.02252236,-0.002529528,0.001676821,0.001465642,0.007170778,-0.026067961,0.025065113,-0.000902493,0.000622715,0.000325681,0.000495425,1000,1000,1000,1000
55448645,-0.022953246,0.022391001,-0.002524178,0.001677013,0.001466384,0.007171213,-0.026002176,0.02499295,-0.000907153,0.000626338,0.00031049,0.000467757,1000,1000,1000,1000
55451144,-0.023005269,0.022441007,-0.002525976,0.001677191,0.001466439,0.007172232,-0.026020907,0.02501232,-0.000890369,0.000624345,0.000317122,0.000459386,1000,1000,1000,1000
55453643,-0.023083409,0.022516124,-0.00252864,0.00167909,0.001466117,0.007172569,-0.026071161,0.025063932,-0.000885357,0.00062976,0.000311085,0.000444633,1000,1000,1000,1000
55456142,-0.023135576,0.022566283,-0.002530405,0.001678991,0.00146726,0.007172595,-0.026094982,0.025093442,-0.000879771,0.000641141,0.00032484,0.000446605,1000,1000,1000,1000
55458641,-0.023009675,0.022442179,-0.002525305,0.001681032,0.001467397,0.007172506,-0.026044933,0.02501774,-0.000880445,0.000664155,0.000349726,0.000421452,1000,1000,1000,1000
55461140,-0.023061801,0.02249225,-0.00252706,0.001680437,0.00146752,0.007172904,-0.02608005,0.025052957,-0.000873544,0.000673987,0.000367455,0.00040932,1000,1000,1000,1000
55463639,-0.023140095,0.022567481,-0.002529709,0.001681049,0.001468254,0.007174105,-0.02611501,0.025099751,-0.000892692,0.000657304,0.000383441,0.000400906,1000,1000,1000,1000
55466138,-0.023192352,0.022617722,-0.002531495,0.001681482,0.001468741,0.00717452,-0.026139481,0.025140854,-0.000893817,0.00063509,0.000415731,0.000419808,1000,1000,1000,1000
55468637,-0.023073662,0.022500733,-0.002526755,0.001682507,0.001470006,0.00717529,-0.026054403,0.025070194,-0.000900445,0.000632483,0.000464517,0.000436285,1000,1000,1000,1000
55471136,-0.023125788,0.022550903,-0.002528548,0.001682947,0.001470335,0.007176045,-0.026069721,0.025097961,-0.000893115,0.000622631,0.000489131,0.000453616,1000,1000,1000,1000
55473635,-0.023204084,0.022626242,-0.00253123,0.001682873,0.001471195,0.007176674,-0.02612637,0.0251265,-0.000894555,0.000592037,0.000524559,0.000475181,1000,1000,1000,1000
55476134,-0.023256363,0.022676513,-0.002533014,0.001682402,0.001471381,0.007177081,-0.026150838,0.0251425,-0.000889535,0.000557894,0.000532235,0.000488692,1000,1000,1000,1000
55478633,-0.023144679,0.022566281,-0.00252855,0.001683556,0.001471116,0.007177957,-0.026099667,0.025063675,-0.000891061,0.000513732,0.000508802,0.000488596,1000,1000,1000,1000
55481132,-0.023196908,0.022616452,-0.00253033,0.001683913,0.001471212,0.007177837,-0.02612843,0.025106099,-0.000889279,0.000503966,0.000491947,0.000489237,1000,1000,1000,1000
55483631,-0.023275342,0.022691866,-0.002533011,0.001683615,0.001471693,0.007178195,-0.026159514,0.025168482,-0.000897715,0.000469742,0.000472301,0.000478989,1000,1000,1000,1000
55486130,-0.023327705,0.022742245,-0.002534808,0.0016848,0.001471619,0.007179038,-0.026202539,0.025209889,-0.000899726,0.00046767,0.000446821,0.000471811,1000,1000,1000,1000
55488629,-0.023222879,0.02263879,-0.002530661,0.001685807,0.001472976,0.007179915,-0.026140543,0.025138672,-0.000899903,0.000491558,0.000434402,0.000480397,1000,1000,1000,1000
55491128,-0.023275193,0.022689113,-0.00253246,0.001684965,0.001473114,0.007180093,-0.026172243,0.025182614,-0.000899364,0.000497349,0.00044604,0.0004694,1000,1000,1000,1000
55493627,-0.023353783,0.022764757,-0.002535155,0.001684656,0.001472911,0.007181048,-0.026220452,0.025245145,-0.000897267,0.00045761,0.00042802,0.000463784,1000,1000,1000,1000
55496126,-0.023406263,0.022815276,-0.002536959,0.001684728,0.001472993,0.007180454,-0.026258633,0.025271991,-0.000906951,0.00043882,0.000416565,0.000452168,1000,1000,1000,1000
55498625,-0.023308139,0.022718403,-0.002533105,0.001685083,0.001473634,0.00718129,-0.026208065,0.025218954,-0.000903378,0.000399971,0.00039902,0.000434117,1000,1000,1000,1000
55501124,-0.023360582,0.02276887,-0.002534909,0.001684586,0.001473132,0.007181302,-0.026232922,0.025245909,-0.000901067,0.00038835,0.000391991,0.000425938,1000,1000,1000,1000
55503623,-0.023439346,0.022844676,-0.002537625,0.001684408,0.001473118,0.007182301,-0.026275191,0.025289729,-0.000909078,0.000344519,0.000356064,0.000401697,1000,1000,1000,1000
55506122,-0.023491923,0.022895293,-0.002539459,0.001685158,0.00147407,0.007183246,-0.026300758,0.025326246,-0.000925052,0.000338012,0.000351954,0.000413401,1000,1000,1000,1000
55508621,-0.023227608,0.022636283,-0.00253346,0.001686585,0.001473652,0.007183322,-0.026153395,0.025174877,-0.000930449,0.000376636,0.000354063,0.000440904,1000,1000,1000,1000
55511120,-0.023279928,0.022686657,-0.002535316,0.001685159,0.001472746,0.007184264,-0.02616591,0.025197608,-0.000925634,0.000391792,0.000331519,0.000440685,1000,1000,1000,1000
55513619,-0.02335849,0.022762325,-0.002538108,0.001685672,0.001472949,0.007184878,-0.026208142,0.025246754,-0.0009357,0.00039324,0.000302697,0.000457532,1000,1000,1000,1000
55516118,-0.023410935,0.022812841,-0.002539994,0.001684536,0.001472698,0.007185356,-0.0262357,0.025269127,-0.000950421,0.000390549,0.000298478,0.000458841,1000,1000,1000,1000
55518617,-0.023157705,0.022564711,-0.002533773,0.001685336,0.001472568,0.007186803,-0.026071202,0.025119325,-0.00096029,0.000388297,0.000299364,0.000471585,1000,1000,1000,1000
55521116,-0.02320989,0.022614989,-0.002535698,0.001684742,0.001472088,0.007187421,-0.026112497,0.025158318,-0.0009639,0.000400495,0.00030595,0.000491185,1000,1000,1000,1000
55523615,-0.023288289,0.022690523,-0.002538573,0.001683754,0.001471385,0.007187734,-0.026151931,0.025196044,-0.00095319,0.000383069,0.000291992,0.000496136,1000,1000,1000,1000
55526114,-0.02334062,0.022740962,-0.002540474,0.001683225,0.001472113,0.007187462,-0.026176965,0.025241049,-0.000947117,0.000352159,0.000291742,0.000481336,1000,1000,1000,1000
55528613,-0.023098197,0.022503449,-0.002534562,0.001683743,0.001471257,0.007188563,-0.026045907,0.025099719,-0.000934003,0.000334668,0.000297472,0.000453957,1000,1000,1000,1000
55531112,-0.023150316,0.022553666,-0.002536438,0.001684157,0.001470243,0.007188071,-0.026071297,0.025116058,-0.000941584,0.00035096,0.000281093,0.000445068,1000,1000,1000,1000
55533611,-0.023228617,0.022629114,-0.002539248,0.001684326,0.001470762,0.007187377,-0.026128413,0.025180938,-0.00093182,0.000387478,0.000278162,0.000390431,1000,1000,1000,1000
55536110,-0.023280911,0.022679498,-0.002541103,0.001684428,0.001470629,0.007187305,-0.026163874,0.025201794,-0.000923297,0.000416588,0.000280947,0.000358495,1000,1000,1000,1000
55538609,-0.023049025,0.022452202,-0.002535482,0.001684894,0.001472576,0.00718739,-0.026029043,0.025061768,-0.000922773,0.000448248,0.000333769,0.000314598,1000,1000,1000,1000
55541108,-0.023101104,0.022502361,-0.002537333,0.001684811,0.001472031,0.007187267,-0.026048865,0.025096331,-0.000928285,0.000473608,0.000376877,0.000289426,1000,1000,1000,1000
55543607,-0.023179334,0.022577742,-0.002540124,0.001684624,0.001472743,0.0071862,-0.026102412,0.025156263,-0.00093245,0.000483101,0.000437225,0.00024317,1000,1000,1000,1000
55546106,-0.023231564,0.022628088,-0.002541979,0.001684178,0.001472846,0.007186044,-0.02612609,0.025187582,-0.000921985,0.000477624,0.000455186,0.000215021,1000,1000,1000,1000
55548605,-0.023009818,0.022410754,-0.002536654,0.001683833,0.001473809,0.007185345,-0.026002081,0.025053291,-0.000903672,0.000459604,0.000507726,0.000169965,1000,1000,1000,1000
55551104,-0.023061853,0.022460891,-0.002538473,0.001682441,0.001473228,0.007184877,-0.026032304,0.025081564,-0.000915332,0.000418804,0.000511118,0.000143815,1000,1000,1000,1000
55553603,-0.023140024,0.022536224,-0.0025412,0.00168364,0.001473206,0.007184397,-0.026080536,0.025138685,-0.000902631,0.000385045,0.000495471,0.000109471,1000,1000,1000,1000
55556102,-0.023192206,0.022586543,-0.002543018,0.001683275,0.001473676,0.007184964,-0.02610031,0.025179835,-0.000915435,0.000376389,0.000494569,0.000110015,1000,1000,1000,1000
55558601,-0.022980269,0.022378858,-0.002538014,0.001683818,0.001474029,0.007185622,-0.025963843,0.025048081,-0.00091009,0.000380298,0.000499197,0.000140882,1000,1000,1000,1000
55561100,-0.023032233,0.02242898,-0.002539825,0.001683727,0.001473493,0.007185382,-0.025999358,0.025072038,-0.000900348,0.000396583,0.000483269,0.000166567,1000,1000,1000,1000
55563599,-0.023110336,0.022504255,-0.002542504,0.001683976,0.00147413,0.007186441,-0.026067754,0.025109507,-0.000885732,0.000409667,0.000469088,0.000211896,1000,1000,1000,1000
55566098,-0.023162512,0.022554524,-0.002544271,0.001684588,0.001474291,0.007186243,-0.026107958,0.025158715,-0.000880874,0.000431991,0.000464887,0.000256622,1000,1000,1000,1000
55568597,-0.022960246,0.022356182,-0.002539474,0.001683876,0.00147523,0.007186355,-0.025993669,0.025036018,-0.000878636,0.000446786,0.000473341,0.000280829,1000,1000,1000,1000
55571096,-0.023012277,0.022406299,-0.002541229,0.001684246,0.001475227,0.007185494,-0.026036749,0.025079401,-0.000876176,0.000455884,0.000481535,0.000288506,1000,1000,1000,1000
55573595,-0.023090472,0.022481589,-0.002543858,0.001684856,0.001475553,0.007186175,-0.026092008,0.025113132,-0.000876681,0.000458813,0.000484741,0.00029474,1000,1000,1000,1000
55576094,-0.023142699,0.022531835,-0.002545602,0.001685212,0.001475578,0.007186682,-0.026133044,0.025132576,-0.000866801,0.000480955,0.000491739,0.000310471,1000,1000,1000,1000
55578593,-0.022949837,0.02234255,-0.002541088,0.001685293,0.001475279,0.007186918,-0.026009634,0.025018439,-0.000882964,0.000499861,0.000480785,0.000321743,1000,1000,1000,1000
55581092,-0.023001894,0.022392612,-0.002542868,0.001685141,0.001474799,0.007186569,-0.026046164,0.025043165,-0.000897729,0.000505536,0.000456324,0.000323648,1000,1000,1000,1000
55583591,-0.02308012,0.022467805,-0.002545549,0.001684179,0.001474878,0.007187558,-0.026102822,0.025083875,-0.000889587,0.000481784,0.000417375,0.000330767,1000,1000,1000,1000
55586090,-0.023132371,0.022518015,-0.002547323,0.001684875,0.001474137,0.007187903,-0.026145861,0.025125014,-0.000884448,0.000465371,0.000385111,0.000354221,1000,1000,1000,1000
55588589,-0.022948671,0.022337571,-0.002543145,0.001685894,0.00147531,0.007188814,-0.026053889,0.025011795,-0.000896041,0.000479691,0.00035773,0.000380398,1000,1000,1000,1000
55591088,-0.02300081,0.022387628,-0.002544947,0.001686047,0.001474599,0.0071898,-0.026083011,0.025044143,-0.000905459,0.000486049,0.000352747,0.0004049,1000,1000,1000,1000
55593587,-0.023079153,0.022462806,-0.002547666,0.001687126,0.001474243,0.007189506,-0.026144456,0.025073584,-0.00090764,0.000525199,0.000339058,0.000428887,1000,1000,1000,1000
55596086,-0.023131479,0.022513002,-0.002549474,0.001687439,0.001473588,0.007189094,-0.026179021,0.025121232,-0.000900493,0.000547528,0.000314583,0.000414934,1000,1000,1000,1000
55598585,-0.022956677,0.02234116,-0.002545578,0.001687025,0.001473004,0.007189546,-0.026077429,0.02501327,-0.000881117,0.000543005,0.0002709,0.000384684,1000,1000,1000,1000
55601084,-0.023008859,0.022391209,-0.002547339,0.001687209,0.001472774,0.007190077,-0.026103549,0.025034143,-0.00087899,0.000536621,0.000246755,0.000379042,1000,1000,1000,1000
55603583,-0.023087235,0.022466386,-0.002549975,0.001688613,0.001471628,0.00719174,-0.026146322,0.025081925,-0.000878467,0.000551609,0.000198684,0.000407545,1000,1000,1000,1000
55606082,-0.023139566,0.02251659,-0.002551733,0.00168798,0.001471892,0.007192723,-0.026184019,0.025120217,-0.000879212,0.000553699,0.000183763,0.000441887,1000,1000,1000,1000
55608581,-0.022973325,0.022353131,-0.002548086,0.001688776,0.001472611,0.007193669,-0.026074873,0.025029557,-0.00088896,0.000540136,0.000198846,0.000492549,1000,1000,1000,1000
55611080,-0.023025507,0.022403229,-0.002549867,0.001688045,0.001472375,0.007193062,-0.02610505,0.025066266,-0.000892127,0.000525608,0.000226174,0.000497638,1000,1000,1000,1000
55613579,-0.023103891,0.022478506,-0.00255253,0.00168951,0.001472417,0.007194583,-0.026150074,0.025116976,-0.000883121,0.000513153,0.000258045,0.000503766,1000,1000,1000,1000
55616078,-0.02315622,0.022528786,-0.002554294,0.001689187,0.001472901,0.007194807,-0.026177684,0.025162425,-0.000880267,0.000513688,0.000278858,0.000506435,1000,1000,1000,1000
55618577,-0.022998266,0.022373594,-0.002550209,0.001688803,0.001473455,0.007196244,-0.026064569,0.025088033,-0.00087735,0.000485055,0.000325789,0.000513235,1000,1000,1000,1000
55621076,-0.023050422,0.022423798,-0.002551969,0.001689255,0.001473491,0.007197272,-0.026090482,0.025115447,-0.000882634,0.000468858,0.000347677,0.000532699,1000,1000,1000,1000
55623575,-0.023128785,0.022499219,-0.002554617,0.001689358,0.001473184,0.007197825,-0.026150825,0.025163632,-0.000882772,0.0004705,0.000364517,0.000532417,1000,1000,1000,1000
55626074,-0.023181112,0.022549579,-0.002556382,0.001689687,0.001472827,0.007198374,-0.026174918,0.025195992,-0.000881699,0.000460027,0.000360577,0.000537726,1000,1000,1000,1000
55628573,-0.02303124,0.022402348,-0.002552579,0.001690095,0.001473992,0.007198599,-0.026078349,0.025099682,-0.000881592,0.000463203,0.000375258,0.000534084,1000,1000,1000,1000
55631072,-0.023083434,0.022452591,-0.002554347,0.001689489,0.001473065,0.007198595,-0.026112754,0.025142903,-0.000885958,0.00045656,0.000383866,0.00050461,1000,1000,1000,1000
55633571,-0.023161855,0.022528099,-0.002557019,0.001690179,0.001474414,0.007198438,-0.026166059,0.025194302,-0.000895615,0.000453236,0.000400341,0.000452563,1000,1000,1000,1000
55636070,-0.023214227,0.022578537,-0.002558812,0.001689422,0.001473568,0.007198534,-0.026205244,0.025243439,-0.000896867,0.000442603,0.000404339,0.000428995,1000,1000,1000,1000
55638569,-0.023072306,0.022439159,-0.002555308,0.001690046,0.001472224,0.007199381,-0.026124926,0.025181919,-0.000886288,0.000414391,0.000357669,0.000413421,1000,1000,1000,1000
55641068,-0.023124591,0.02248957,-0.002557072,0.001690324,0.001472681,0.007200731,-0.026157876,0.025228096,-0.000877805,0.000420306,0.000325854,0.00042006,1000,1000,1000,1000
55643567,-0.023203153,0.022565324,-0.002559725,0.001690066,0.001471792,0.007202394,-0.026216185,0.025273398,-0.000890768,0.000418447,0.000286146,0.000470882,1000,1000,1000,1000
55646066,-0.02325562,0.022615906,-0.002561505,0.001689319,0.00147245,0.007201697,-0.026250338,0.025307104,-0.000888847,0.000398005,0.000267765,0.000489163,1000,1000,1000,1000
55648565,-0.023121435,0.022484124,-0.00255827,0.001688594,0.001472951,0.007201463,-0.026165448,0.025227731,-0.00090183,0.000346111,0.000272001,0.000477044,1000,1000,1000,1000
55651064,-0.02317379,0.022534616,-0.00256008,0.0016877,0.001472327,0.007201025,-0.02618897,0.025263026,-0.000908245,0.000306919,0.000274845,0.000439289,1000,1000,1000,1000
55653563,-0.023252407,0.022610482,-0.002562808,0.00168788,0.001473293,0.007201012,-0.02622107,0.02531245,-0.000910663,0.000254743,0.000288105,0.000371611,1000,1000,1000,1000
55656062,-0.023304874,0.022661135,-0.002564634,0.001688194,0.001473574,0.007200674,-0.026243871,0.025339665,-0.000914971,0.000255443,0.000308158,0.00033835,1000,1000,1000,1000
55658561,-0.023178075,0.022536648,-0.002561724,0.001687697,0.00147499,0.007201308,-0.026172396,0.025248755,-0.000926209,0.000257992,0.000370294,0.000319125,1000,1000,1000,1000
55661060,-0.023230445,0.022587189,-0.002563567,0.001688538,0.001475226,0.007201538,-0.026196202,0.025290854,-0.000916902,0.00026946,0.000415437,0.000311298,1000,1000,1000,1000
55663559,-0.023309115,0.022663141,-0.002566307,0.001688572,0.001475148,0.007201826,-0.026248993,0.025341343,-0.000909995,0.000299967,0.000456876,0.000306216,1000,1000,1000,1000
55666058,-0.023361636,0.022713853,-0.002568142,0.001688211,0.001475552,0.00720162,-0.026271326,0.025370402,-0.000925004,0.000315837,0.000461345,0.000303848,1000,1000,1000,1000
55668557,-0.023242127,0.022596501,-0.002565489,0.001688757,0.001475188,0.007202577,-0.026223974,0.025305666,-0.000924788,0.000342849,0.000444023,0.000311805,1000,1000,1000,1000
55671056,-0.023294615,0.022647139,-0.002567348,0.001688789,0.001474743,0.007202019,-0.02626184,0.025330083,-0.000933531,0.000360199,0.000426191,0.000311656,1000,1000,1000,1000
55673555,-0.023373481,0.022723202,-0.002570139,0.001688313,0.001475021,0.007202766,-0.026313722,0.025376713,-0.000927185,0.00035918,0.000379857,0.000326969,1000,1000,1000,1000
55676054,-0.023426147,0.022774003,-0.002571998,0.001687715,0.00147545,0.007203078,-0.026351199,0.025424341,-0.000931356,0.000349904,0.000369405,0.000326264,1000,1000,1000,1000
55678553,-0.023313818,0.022663616,-0.002569588,0.001689036,0.001475834,0.007204716,-0.026292004,0.025364485,-0.000926602,0.000351856,0.0003659,0.000366549,1000,1000,1000,1000
55681052,-0.023366444,0.022714375,-0.002571436,0.001689914,0.001476207,0.007204306,-0.0263313,0.02539392,-0.000921664,0.00037941,0.000368014,0.000395136,1000,1000,1000,1000
55683551,-0.023445481,0.022790637,-0.002574189,0.001689103,0.001475923,0.007204276,-0.026359564,0.025446784,-0.000913616,0.0004042,0.000376301,0.000391972,1000,1000,1000,1000
55686050,-0.023498245,0.022841554,-0.002576009,0.001688754,0.001476093,0.007204,-0.026402107,0.025468811,-0.000906303,0.00040115,0.000373713,0.000377808,1000,1000,1000,1000
55688549,-0.023392813,0.0227379,-0.002573744,0.001689068,0.001475728,0.007204547,-0.026338696,0.025406726,-0.000897696,0.000377574,0.000344753,0.000366051,1000,1000,1000,1000
55691048,-0.023445528,0.022788752,-0.002575556,0.001689484,0.001475269,0.00720401,-0.026373919,0.025443202,-0.000914116,0.00037584,0.000327073,0.000347406,1000,1000,1000,1000
55693547,-0.023524739,0.022865154,-0.002578286,0.001690962,0.001476187,0.007204164,-0.026431613,0.025490185,-0.000905847,0.000411377,0.00031487,0.000313072,1000,1000,1000,1000
55696046,-0.023577638,0.022916159,-0.002580094,0.001691621,0.001475906,0.007204341,-0.026465591,0.025512734,-0.000901494,0.000447025,0.000307066,0.000299131,1000,1000,1000,1000
55698545,-0.023478955,0.022819027,-0.002578075,0.001691715,0.001475567,0.00720445,-0.026399828,0.025444558,-0.000919349,0.000486663,0.000286542,0.000271721,1000,1000,1000,1000
55701044,-0.023531783,0.022869939,-0.002579903,0.001691575,0.00147547,0.007204543,-0.026427571,0.025465777,-0.000909484,0.000498161,0.000274709,0.000265477,1000,1000,1000,1000
55703543,-0.023611149,0.022946406,-0.002582637,0.001691931,0.00147683,0.007204782,-0.026480723,0.025511391,-0.000912967,0.000495071,0.000287326,0.00028141,1000,1000,1000,1000
55706042,-0.023664145,0.022997472,-0.002584464,0.001691933,0.001478054,0.007204778,-0.026514672,0.02555275,-0.000913437,0.000486648,0.000327913,0.000279923,1000,1000,1000,1000
55708541,-0.02339766,0.022738248,-0.002579876,0.001691975,0.00147779,0.00720482,-0.026342686,0.025389658,-0.000909422,0.000464115,0.000386674,0.000280049,1000,1000,1000,1000
55711040,-0.023450386,0.022789059,-0.002581691,0.001692597,0.001477772,0.007204303,-0.026382688,0.025419911,-0.000905198,0.000458321,0.000396251,0.000268824,1000,1000,1000,1000
55713539,-0.023529582,0.022865415,-0.002584419,0.001691751,0.001477739,0.007206069,-0.02641332,0.025481945,-0.000913617,0.000447945,0.000419043,0.000273602,1000,1000,1000,1000
55716038,-0.023582451,0.022916425,-0.002586243,0.001691917,0.001477779,0.00720629,-0.026454743,0.025526769,-0.000910098,0.000438758,0.00042597,0.000298247,1000,1000,1000,1000
55718537,-0.023327213,0.022668192,-0.002581253,0.001691417,0.001478942,0.007207602,-0.026307896,0.025362555,-0.000907351,0.00042239,0.000445868,0.000357011,1000,1000,1000,1000
55721036,-0.023379873,0.02271894,-0.002583067,0.001691945,0.001479424,0.007207351,-0.026350623,0.025383886,-0.000906537,0.000415031,0.000475436,0.000374717,1000,1000,1000,1000
55723535,-0.023459001,0.022795165,-0.002585786,0.001691822,0.001479464,0.007207601,-0.026398798,0.025431244,-0.000906442,0.000411391,0.000512584,0.000385037,1000,1000,1000,1000
55726034,-0.023511833,0.022846067,-0.002587603,0.001690725,0.001480101,0.007207383,-0.026431423,0.025469052,-0.000910313,0.000403689,0.000525423,0.000381163,1000,1000,1000,1000
55728533,-0.023267558,0.022608414,-0.002582884,0.00169179,0.001480462,0.007208656,-0.026293889,0.025327649,-0.000882127,0.000407341,0.00054858,0.000380892,1000,1000,1000,1000
55731032,-0.023320179,0.022659106,-0.002584646,0.0016921,0.001480088,0.007208696,-0.026326934,0.025362644,-0.00087891,0.000425343,0.000545549,0.000380032,1000,1000,1000,1000
55733531,-0.023399228,0.022735259,-0.002587296,0.001692428,0.001479836,0.00720848,-0.02637065,0.025404543,-0.000888152,0.000466674,0.000505587,0.000384188,1000,1000,1000,1000
55736030,-0.02345201,0.022786083,-0.002589069,0.001692591,0.001479968,0.007208642,-0.026410295,0.025418945,-0.000884369,0.000476109,0.000491807,0.000368985,1000,1000,1000,1000
55738529,-0.023218324,0.022558633,-0.002584591,0.001694358,0.00148079,0.007207561,-0.026265237,0.025274394,-0.000870115,0.000527396,0.000489143,0.000335788,1000,1000,1000,1000
55741028,-0.023270898,0.022609212,-0.002586317,0.001693662,0.001480795,0.007207397,-0.026307128,0.025301799,-0.000855882,0.000550999,0.000484118,0.000300746,1000,1000,1000,1000
55743527,-0.023349881,0.022685183,-0.002588907,0.001692449,0.001481205,0.007209091,-0.026346888,0.025344446,-0.000870854,0.000532588,0.000480669,0.000285112,1000,1000,1000,1000
55746026,-0.023402616,0.022735905,-0.002590658,0.001692119,0.001480598,0.007210207,-0.026386742,0.025375679,-0.000880547,0.000500156,0.000469235,0.000318488,1000,1000,1000,1000
55748525,-0.0231792,0.02251834,-0.00258648,0.00169232,0.00148205,0.007210615,-0.026259461,0.025227793,-0.000882007,0.000471798,0.000474605,0.00036215,1000,1000,1000,1000
55751024,-0.023231743,0.022568826,-0.002588247,0.00169192,0.001482061,0.007211152,-0.026283344,0.025256265,-0.000885496,0.00044443,0.000483234,0.000393055,1000,1000,1000,1000
55753523,-0.023310667,0.022644678,-0.002590902,0.001691533,0.00148194,0.007212105,-0.026331423,0.025310146,-0.000884233,0.000404737,0.000496911,0.00043482,1000,1000,1000,1000
55756022,-0.023363365,0.022695329,-0.002592668,0.001690685,0.001482162,0.007213276,-0.026364651,0.025339726,-0.000881383,0.000372165,0.000485582,0.000477828,1000,1000,1000,1000
55758521,-0.023149839,0.022487372,-0.002588762,0.001690432,0.001482247,0.007213979,-0.026225135,0.025203843,-0.000877211,0.000332141,0.000467131,0.000523779,1000,1000,1000,1000
55761020,-0.023202326,0.022537801,-0.002590521,0.001690359,0.001481288,0.007214592,-0.026260616,0.025224816,-0.000882003,0.000317638,0.000453689,0.000552081,1000,1000,1000,1000
55763519,-0.023281155,0.022613529,-0.002593192,0.001691277,0.001482375,0.007214859,-0.02629116,0.025258478,-0.000898493,0.000320802,0.000433682,0.000548194,1000,1000,1000,1000
55766018,-0.023333779,0.022664091,-0.002594986,0.001691497,0.001482396,0.007214891,-0.026330296,0.025302039,-0.000895768,0.000350241,0.000433087,0.000542312,1000,1000,1000,1000
55768517,-0.023129849,0.022465462,-0.002591375,0.001692757,0.001483167,0.007215455,-0.026195511,0.025181405,-0.000878358,0.00041549,0.000439041,0.000513868,1000,1000,1000,1000
55771016,-0.023182271,0.02251585,-0.002593135,0.001692613,0.00148292,0.007215623,-0.026226204,0.025205251,-0.000882244,0.000452804,0.000449529,0.00050055,1000,1000,1000,1000
55773515,-0.023261027,0.022591535,-0.002595788,0.001692188,0.001482255,0.007216854,-0.026276875,0.025250299,-0.000886334,0.000480527,0.000430849,0.000484621,1000,1000,1000,1000
55776014,-0.023313621,0.022642056,-0.002597568,0.001691067,0.001482352,0.007216576,-0.026315443,0.025269695,-0.000893142,0.000464609,0.000407901,0.000477754,1000,1000,1000,1000
55778513,-0.023119068,0.022452502,-0.00259423,0.001691657,0.001481432,0.007216544,-0.026186949,0.025163319,-0.00089234,0.000445292,0.000377133,0.000453766,1000,1000,1000,1000
55781012,-0.023171473,0.02250286,-0.002596019,0.001691486,0.001481729,0.007216569,-0.026217489,0.025193173,-0.000896071,0.000443392,0.000354099,0.000426919,1000,1000,1000,1000
55783511,-0.023250187,0.022578495,-0.002598699,0.001692103,0.001483096,0.007216621,-0.026256766,0.025228541,-0.00089109,0.000433976,0.00036484,0.000372728,1000,1000,1000,1000
55786010,-0.023302725,0.022628985,-0.002600497,0.001692246,0.00148426,0.007216807,-0.026280452,0.025260717,-0.00090637,0.000448228,0.000403843,0.000357887,1000,1000,1000,1000
55788509,-0.023117235,0.022448314,-0.002597452,0.001692752,0.001485001,0.007216795,-0.02616887,0.025171386,-0.00090735,0.000475098,0.000479833,0.000334506,1000,1000,1000,1000
55791008,-0.023169596,0.022498673,-0.00259926,0.001693319,0.001485316,0.007217904,-0.026190564,0.025187261,-0.00090119,0.00048444,0.000514792,0.000326988,1000,1000,1000,1000
55793507,-0.023248233,0.022574296,-0.002601979,0.001693387,0.001486947,0.007217393,-0.026233906,0.025227791,-0.000911198,0.000510144,0.000563327,0.000319922,1000,1000,1000,1000
55796006,-0.02330073,0.022624772,-0.002603795,0.001693485,0.001487384,0.007218467,-0.026262043,0.025246534,-0.000905351,0.000509381,0.000598022,0.000322914,1000,1000,1000,1000
55798505,-0.023124069,0.022452665,-0.002600997,0.001693618,0.001486839,0.00721806,-0.026153183,0.025140826,-0.000913844,0.000507006,0.000612853,0.000329906,1000,1000,1000,1000
55801004,-0.0231764,0.022502976,-0.002602824,0.001693222,0.001486774,0.007218129,-0.026177166,0.025168622,-0.000912967,0.000495168,0.000598313,0.000314514,1000,1000,1000,1000
55803503,-0.023255007,0.022578556,-0.00260556,0.001693808,0.001487141,0.007218402,-0.026227195,0.025218057,-0.000911499,0.0004823,0.000566645,0.000317544,1000,1000,1000,1000
55806002,-0.023307489,0.022629017,-0.002607388,0.001692699,0.00148719,0.007219482,-0.026254337,0.025241774,-0.000915666,0.000462427,0.000541385,0.000326334,1000,1000,1000,1000
55808501,-0.023139436,0.022465291,-0.002604813,0.001693729,0.001487359,0.007220478,-0.026150655,0.025145197,-0.000897061,0.000435292,0.00049449,0.000353005,1000,1000,1000,1000
55811000,-0.023191759,0.022515606,-0.002606606,0.001693975,0.001487092,0.00722068,-0.026172487,0.025170568,-0.000895751,0.000436637,0.000461429,0.000385748,1000,1000,1000,1000
55813499,-0.023270357,0.022591187,-0.0026093,0.001694042,0.001487216,0.007220203,-0.026224867,0.025215203,-0.000900285,0.000431566,0.000439164,0.000390698,1000,1000,1000,1000
55815998,-0.023322834,0.022641653,-0.002611093,0.001694055,0.001487339,0.00722039,-0.026250049,0.025251091,-0.000892449,0.000434237,0.000410685,0.000380923,1000,1000,1000,1000
55818497,-0.02313781,0.022461742,-0.002607132,0.001693505,0.001487323,0.007220033,-0.026132381,0.025140818,-0.000909793,0.000427735,0.000396532,0.000360674,1000,1000,1000,1000
55820996,-0.023216266,0.02253725,-0.002609849,0.001694616,0.001487469,0.007219892,-0.026170794,0.025197238,-0.000901117,0.00043376,0.000393246,0.000328971,1000,1000,1000,1000
55823495,-0.023268634,0.022587679,-0.002611644,0.001693896,0.001488243,0.007220126,-0.02619694,0.025232036,-0.000894271,0.000439319,0.000388616,0.000301161,1000,1000,1000,1000
55825994,-0.023347283,0.02266347,-0.002614353,0.00169269,0.001489793,0.00721934,-0.026234554,0.025294129,-0.000911551,0.000402188,0.000423649,0.000262375,1000,1000,1000,1000
55828493,-0.023170285,0.022491487,-0.002610658,0.001692157,0.001489025,0.007220102,-0.026122453,0.025183983,-0.000912404,0.000361635,0.000444352,0.000242316,1000,1000,1000,1000
55830992,-0.023248715,0.022567131,-0.002613397,0.00169366,0.001489408,0.007221444,-0.026164088,0.025244731,-0.000913937,0.000343127,0.000455931,0.000256901,1000,1000,1000,1000
55833491,-0.02330108,0.022617659,-0.002615238,0.001693618,0.001489287,0.007222082,-0.026198771,0.025281662,-0.000926927,0.000353981,0.000446855,0.000291934,1000,1000,1000,1000
55835990,-0.023379754,0.022693571,-0.002618029,0.001693635,0.001489845,0.007222903,-0.026250241,0.025325187,-0.000933822,0.00035567,0.000445939,0.000357082,1000,1000,1000,1000
55838489,-0.023210635,0.022529265,-0.002614598,0.001693221,0.001489536,0.007222861,-0.026154744,0.025221488,-0.000920609,0.000359392,0.000432386,0.000391949,1000,1000,1000,1000
55840988,-0.023289181,0.022604991,-0.002617365,0.001693647,0.00148959,0.007223544,-0.026208963,0.025261132,-0.00092336,0.000360452,0.000410001,0.000416147,1000,1000,1000,1000
55843487,-0.023341632,0.022655539,-0.002619213,0.00169357,0.001489621,0.007222761,-0.026241334,0.025286753,-0.000924929,0.000377332,0.000388516,0.00041763,1000,1000,1000,1000
55845986,-0.023420431,0.022731466,-0.002621993,0.001693813,0.001488852,0.007224442,-0.026291002,0.025330544,-0.000928354,0.000397385,0.000357871,0.000425902,1000,1000,1000,1000
55848485,-0.023258999,0.022574574,-0.002618782,0.001694561,0.001487981,0.007225468,-0.026198126,0.025237212,-0.000924621,0.00041,0.000318591,0.000455256,1000,1000,1000,1000
55850984,-0.023337673,0.022650382,-0.002621551,0.001695275,0.001488378,0.007226244,-0.026251083,0.025300257,-0.000921546,0.000448282,0.000269448,0.000500226,1000,1000,1000,1000
55853483,-0.023390217,0.022701006,-0.002623397,0.001694883,0.001487762,0.007226575,-0.026291978,0.025324069,-0.000924544,0.000460994,0.000249282,0.000515409,1000,1000,1000,1000
55855982,-0.023469165,0.022777051,-0.002626151,0.00169488,0.001487523,0.007226503,-0.026339969,0.025371211,-0.000911273,0.000467914,0.000229727,0.000511708,1000,1000,1000,1000
55858481,-0.02331523,0.022627424,-0.002623133,0.001695533,0.001486854,0.007225675,-0.026264183,0.025282396,-0.000915163,0.00046319,0.000207542,0.000484388,1000,1000,1000,1000
55860980,-0.023394104,0.02270334,-0.002625876,0.001696887,0.001486662,0.007226451,-0.026318066,0.025328038,-0.000913419,0.000494328,0.000171895,0.000442062,1000,1000,1000,1000
55863479,-0.023446772,0.022754028,-0.002627701,0.001696866,0.001486776,0.007226625,-0.026350062,0.025359314,-0.000911713,0.000507919,0.000182382,0.000425255,1000,1000,1000,1000
55865978,-0.023525918,0.022830172,-0.002630429,0.001696521,0.001488595,0.007228164,-0.026413301,0.025402186,-0.000906436,0.000508254,0.000230269,0.000419424,1000,1000,1000,1000
55868477,-0.023379276,0.022687575,-0.002627616,0.001696677,0.001489383,0.0072287,-0.026315503,0.025311623,-0.000914112,0.000494203,0.000292451,0.000427593,1000,1000,1000,1000
55870976,-0.023458291,0.022763567,-0.002630368,0.001696805,0.001489536,0.007229932,-0.026361061,0.025348533,-0.00092054,0.000470806,0.000379744,0.000468005,1000,1000,1000,1000
55873475,-0.023511045,0.022814294,-0.002632204,0.001696151,0.00148945,0.007230327,-0.026392877,0.025378738,-0.000915306,0.00045007,0.000396485,0.000481886,1000,1000,1000,1000
55875974,-0.023590319,0.022890504,-0.002634935,0.001697532,0.001489838,0.007231798,-0.026456241,0.025427446,-0.00090594,0.000425227,0.000418036,0.000516549,1000,1000,1000,1000
55878473,-0.02345074,0.022754742,-0.002632318,0.001698208,0.001490632,0.007231456,-0.026375826,0.025354633,-0.000907267,0.000441999,0.000435891,0.000527006,1000,1000,1000,1000
55880972,-0.023529926,0.022830853,-0.00263503,0.001699229,0.001491419,0.007232463,-0.026414353,0.025384972,-0.00090053,0.000471322,0.000472455,0.000526586,1000,1000,1000,1000
55883471,-0.023582784,0.022881664,-0.002636816,0.001699631,0.001491497,0.007233496,-0.026442192,0.025425088,-0.000886016,0.000506602,0.000485544,0.000535566,1000,1000,1000,1000
55885970,-0.023662185,0.022957971,-0.002639506,0.001699142,0.001492363,0.007233251,-0.026490698,0.025445214,-0.000907066,0.000518619,0.000492128,0.000514692,1000,1000,1000,1000
55888469,-0.023529425,0.022828814,-0.002637086,0.001698386,0.001491634,0.007233307,-0.026404034,0.025373589,-0.000908743,0.000496462,0.000483395,0.000495225,1000,1000,1000,1000
55890968,-0.023608688,0.022904992,-0.002639804,0.001699456,0.001491733,0.007233879,-0.026437264,0.025411177,-0.000903512,0.000469579,0.000448274,0.000475325,1000,1000,1000,1000
55893467,-0.023661599,0.022955848,-0.002641611,0.001699892,0.001491583,0.007232974,-0.026472474,0.025444046,-0.00090281,0.000470201,0.000418542,0.000439808,1000,1000,1000,1000
55895966,-0.023741079,0.023032257,-0.002644332,0.001700502,0.001492869,0.007232997,-0.026514031,0.025494436,-0.000911343,0.000469348,0.000408513,0.000376241,1000,1000,1000,1000
55898465,-0.023614945,0.02290957,-0.002642106,0.001700183,0.001492553,0.007234252,-0.02644719,0.025421884,-0.000906257,0.000464401,0.000407645,0.000353185,1000,1000,1000,1000
55900964,-0.023694362,0.0229859,-0.002644837,0.001700868,0.001493871,0.007235059,-0.02649737,0.025463575,-0.000914465,0.000453023,0.000422996,0.000348636,1000,1000,1000,1000
55903463,-0.02374739,0.02303686,-0.002646677,0.001700937,0.001493984,0.007234358,-0.026530284,0.02549573,-0.000925498,0.00045691,0.00042693,0.000349674,1000,1000,1000,1000
55905962,-0.023827055,0.023113418,-0.002649454,0.001700737,0.001493264,0.007236446,-0.02657917,0.02554258,-0.000925878,0.000451562,0.00041061,0.000367082,1000,1000,1000,1000
55908461,-0.023532568,0.022827512,-0.002644409,0.001700609,0.001492849,0.007237106,-0.026402734,0.025375301,-0.000931852,0.000428117,0.000378405,0.000403647,1000,1000,1000,1000
55910960,-0.023611853,0.022903726,-0.002647216,0.001700282,0.00149303,0.007238886,-0.026454018,0.025433386,-0.000939655,0.000402593,0.000337502,0.000458466,1000,1000,1000,1000
55913459,-0.023664795,0.022954607,-0.002649087,0.001699971,0.001492942,0.007238378,-0.026486637,0.025448281,-0.000931452,0.000386427,0.000337694,0.00048515,1000,1000,1000,1000
55915958,-0.023744337,0.023031035,-0.002651905,0.001701526,0.00149242,0.007239855,-0.026540762,0.025503466,-0.000947204,0.000398794,0.000329829,0.000514803,1000,1000,1000,1000
55918457,-0.023461169,0.022756109,-0.002646429,0.001700816,0.001491176,0.007239313,-0.026357759,0.025327837,-0.000934957,0.000419736,0.000305734,0.000514731,1000,1000,1000,1000
55920956,-0.023540312,0.02283215,-0.00264924,0.001699794,0.001491271,0.007240964,-0.026403757,0.02536488,-0.000938869,0.00041198,0.000281139,0.000508179,1000,1000,1000,1000
55923455,-0.02359315,0.022882909,-0.002651119,0.001700288,0.001490491,0.007241108,-0.026433991,0.025392782,-0.000940761,0.000402809,0.000256763,0.000510409,1000,1000,1000,1000
55925954,-0.023672508,0.022959165,-0.002653931,0.001699313,0.001492288,0.007240818,-0.026470648,0.025444049,-0.000933553,0.000382276,0.000274044,0.000479481,1000,1000,1000,1000
55928453,-0.023400251,0.022694852,-0.002648733,0.00169943,0.001492953,0.007241279,-0.026315067,0.025280289,-0.000936109,0.000372189,0.00032125,0.000460791,1000,1000,1000,1000
55930952,-0.023479264,0.022770736,-0.002651559,0.001700604,0.001492854,0.007240965,-0.026359469,0.02530887,-0.000947864,0.000395029,0.00038583,0.000403224,1000,1000,1000,1000
55933451,-0.023532016,0.022821369,-0.002653467,0.001700288,0.001492364,0.007242035,-0.026391471,0.025323445,-0.000959746,0.000412781,0.00040542,0.000393105,1000,1000,1000,1000
55935950,-0.023611248,0.022897419,-0.002656334,0.001701233,0.001491811,0.007242501,-0.026428303,0.025375452,-0.000951779,0.000459565,0.000407168,0.000393692,1000,1000,1000,1000
55938449,-0.023349581,0.022643339,-0.002651465,0.001700896,0.001490622,0.007241358,-0.026278637,0.025220638,-0.000964005,0.000479539,0.000385263,0.000379065,1000,1000,1000,1000
55940948,-0.0234285,0.022719087,-0.002654387,0.001700688,0.001491943,0.007241687,-0.026333082,0.025277955,-0.00098387,0.000484152,0.000373466,0.00034103,1000,1000,1000,1000
55943447,-0.023481198,0.022769678,-0.002656356,0.001700166,0.001491908,0.007242498,-0.026364615,0.02531339,-0.000985031,0.000480293,0.000381263,0.000335672,1000,1000,1000,1000
55945946,-0.023560368,0.022845693,-0.002659322,0.001698976,0.001492021,0.007243307,-0.026414983,0.025362017,-0.000992278,0.000433208,0.000390384,0.000349089,1000,1000,1000,1000
55948445,-0.023308987,0.022601604,-0.002654794,0.001699075,0.001491598,0.007243297,-0.026254896,0.025203226,-0.000991347,0.000398249,0.000397828,0.000367425,1000,1000,1000,1000
55950944,-0.023387818,0.022677293,-0.002657757,0.001700105,0.001491951,0.007244443,-0.02629853,0.025255702,-0.000984498,0.000399308,0.000409063,0.000383392,1000,1000,1000,1000
55953443,-0.023440437,0.02272783,-0.002659718,0.001700029,0.00149161,0.007244891,-0.026320828,0.025281219,-0.000976388,0.000416734,0.000397495,0.000410634,1000,1000,1000,1000
55955942,-0.023519456,0.022803761,-0.002662663,0.001700916,0.001491739,0.007245188,-0.026357424,0.025338219,-0.000986444,0.000438548,0.000388449,0.000439437,1000,1000,1000,1000
55958441,-0.023277957,0.022569336,-0.00265838,0.001701539,0.001491305,0.007244286,-0.026206616,0.025190884,-0.000978693,0.000471812,0.000386137,0.000427668,1000,1000,1000,1000
55960940,-0.023356661,0.022644982,-0.002661318,0.001701072,0.001491002,0.007245922,-0.026262067,0.025238652,-0.000979779,0.000505551,0.000354375,0.000419065,1000,1000,1000,1000
55963439,-0.023409227,0.022695478,-0.002663268,0.001700347,0.001490937,0.00724624,-0.026302893,0.025257409,-0.000970184,0.000494574,0.00035192,0.000432093,1000,1000,1000,1000
55965938,-0.02348822,0.022771323,-0.002666189,0.001700434,0.001491021,0.007245946,-0.026358224,0.025305472,-0.000977154,0.000457411,0.000342819,0.000421551,1000,1000,1000,1000
55968437,-0.023256451,0.02254626,-0.002662159,0.001700606,0.001490905,0.007245493,-0.026232082,0.025163908,-0.000986917,0.000451101,0.000345355,0.000393476,1000,1000,1000,1000
55970936,-0.023335213,0.022621805,-0.002665123,0.001700064,0.001492037,0.007245279,-0.026275361,0.025198685,-0.000988738,0.000429548,0.000372175,0.000345012,1000,1000,1000,1000
55973435,-0.023387797,0.022672245,-0.0026671,0.001699012,0.001492764,0.007246533,-0.026307765,0.025241649,-0.000988511,0.000408301,0.000405634,0.000334732,1000,1000,1000,1000
55975934,-0.023466805,0.022748029,-0.00267005,0.001700304,0.00149361,0.007247679,-0.026363799,0.025279816,-0.000977917,0.0003921,0.000459238,0.000353224,1000,1000,1000,1000
55978433,-0.02324447,0.022532066,-0.002666265,0.001699236,0.001494066,0.007247659,-0.02623204,0.02513271,-0.000988644,0.000390034,0.000494028,0.000377654,1000,1000,1000,1000
55980932,-0.023323249,0.022607526,-0.002669207,0.001698261,0.001494044,0.007247575,-0.026285747,0.025173202,-0.000972432,0.000344564,0.000529866,0.000381323,1000,1000,1000,1000
55983431,-0.023375854,0.022657905,-0.002671137,0.001697613,0.001493348,0.007247542,-0.026319198,0.025204722,-0.000958253,0.000314355,0.00051933,0.000378539,1000,1000,1000,1000
55985930,-0.023454903,0.022733578,-0.002674036,0.001698115,0.001494718,0.007248108,-0.026379446,0.025243971,-0.000974574,0.000283078,0.000515862,0.000373204,1000,1000,1000,1000
55988429,-0.023241771,0.02252645,-0.00267048,0.001697996,0.001494967,0.007248078,-0.02626095,0.025109868,-0.000984193,0.000288943,0.000525269,0.000366035,1000,1000,1000,1000
55990928,-0.023320638,0.022601852,-0.002673431,0.001698151,0.001495689,0.007247249,-0.026315998,0.025156833,-0.000983426,0.000312397,0.000534626,0.000327288,1000,1000,1000,1000
55993427,-0.0233733,0.022652196,-0.002675407,0.001698782,0.001495874,0.00724747,-0.026345253,0.025185177,-0.000992037,0.000335353,0.000537441,0.00030392,1000,1000,1000,1000
55995926,-0.023452405,0.022727795,-0.002678408,0.001698998,0.001496843,0.007247573,-0.026390146,0.025213573,-0.001009087,0.000375654,0.00054807,0.000279931,1000,1000,1000,1000
55998425,-0.023248209,0.022529261,-0.002675149,0.001698827,0.001496461,0.007247272,-0.026285375,0.025096467,-0.00101515,0.000402821,0.000547722,0.000262126,1000,1000,1000,1000
56000924,-0.02332714,0.022604614,-0.002678196,0.001700617,0.001495893,0.007248141,-0.02633494,0.025137853,-0.001015933,0.000459218,0.000521266,0.000253075,1000,1000,1000,1000
56003423,-0.023379846,0.022654906,-0.002680223,0.001699961,0.001495933,0.007247382,-0.026369227,0.025152972,-0.001010484,0.000489128,0.000493175,0.000248238,1000,1000,1000,1000
56005922,-0.023459028,0.02273044,-0.002683278,0.00170148,0.001494632,0.007248509,-0.026419168,0.025202172,-0.001026235,0.000528695,0.000419296,0.000248704,1000,1000,1000,1000
56008421,-0.023263514,0.022540277,-0.002680262,0.001702605,0.001494238,0.007248753,-0.026296252,0.025088036,-0.001020091,0.000573096,0.000366243,0.000269651,1000,1000,1000,1000
56010920,-0.02334247,0.02261563,-0.002683311,0.001704021,0.001494938,0.007248897,-0.026340231,0.025147336,-0.001012992,0.00064425,0.00030101,0.000287962,1000,1000,1000,1000
56013419,-0.02339519,0.022665951,-0.00268532,0.001704814,0.001494438,0.007248226,-0.026378524,0.025173277,-0.000995882,0.000690345,0.000293762,0.00028548,1000,1000,1000,1000
56015918,-0.023474405,0.022741554,-0.002688297,0.001705018,0.001494529,0.007248205,-0.026430311,0.025227351,-0.000988445,0.000728518,0.000274884,0.000257472,1000,1000,1000,1000
56018417,-0.023287309,0.0225596,-0.00268464,0.001704728,0.001493484,0.00724782,-0.026307527,0.025117636,-0.000980662,0.000710475,0.000259473,0.000249139,1000,1000,1000,1000
56020916,-0.023366276,0.022635017,-0.002687574,0.001704896,0.001493551,0.007248661,-0.026336595,0.025159217,-0.000974813,0.000666042,0.00023068,0.000238473,1000,1000,1000,1000
56023415,-0.023418985,0.022685371,-0.002689518,0.001705074,0.001493695,0.007249753,-0.026372105,0.02519544,-0.000969828,0.000643042,0.000226339,0.000264371,1000,1000,1000,1000
56025914,-0.023498151,0.022761051,-0.002692455,0.001704254,0.001493304,0.007249431,-0.026404636,0.025256231,-0.00098773,0.000577061,0.000239227,0.000298774,1000,1000,1000,1000
56028413,-0.023319159,0.022587087,-0.002689044,0.001703804,0.001493548,0.007249342,-0.02629251,0.025156148,-0.000993093,0.00051671,0.000244291,0.000297226,1000,1000,1000,1000
56030912,-0.023398116,0.022662593,-0.002692022,0.001705204,0.001494454,0.00725008,-0.026345365,0.025181003,-0.000992629,0.000472075,0.000290211,0.000310934,1000,1000,1000,1000
56033411,-0.023450846,0.022712979,-0.002694015,0.001705671,0.001494807,0.007250044,-0.026383424,0.025204301,-0.001000235,0.000472096,0.000325378,0.000323641,1000,1000,1000,1000
56035910,-0.023530077,0.022788649,-0.002697018,0.001705523,0.00149487,0.007251001,-0.026437271,0.025241235,-0.001001469,0.00045825,0.00037555,0.000340658,1000,1000,1000,1000
56038409,-0.023359086,0.022622351,-0.00269387,0.001705496,0.001495845,0.007251834,-0.026341191,0.025143281,-0.001015329,0.000451565,0.000399355,0.000371295,1000,1000,1000,1000
56040908,-0.023438146,0.022697819,-0.002696916,0.001706487,0.00149457,0.007252638,-0.026365116,0.025169011,-0.001015676,0.000441096,0.000407971,0.000418745,1000,1000,1000,1000
56043407,-0.023490915,0.022748198,-0.002698934,0.001706517,0.001494756,0.007252544,-0.026402716,0.025208922,-0.001001579,0.000456107,0.000386859,0.000444291,1000,1000,1000,1000
56045906,-0.023570189,0.022823907,-0.002701947,0.001707915,0.001494947,0.007252172,-0.026446277,0.02526297,-0.001007508,0.000488979,0.00037906,0.000448284,1000,1000,1000,1000
56048405,-0.023406917,0.022665123,-0.002699018,0.001707757,0.001493838,0.007252641,-0.026360223,0.02516997,-0.001007484,0.000510263,0.000356168,0.000428553,1000,1000,1000,1000
56050904,-0.023486037,0.022740714,-0.002702063,0.001708477,0.001493747,0.007253241,-0.026384894,0.025223212,-0.001022342,0.000531913,0.000310655,0.000429793,1000,1000,1000,1000
56053403,-0.023538847,0.022791192,-0.002704111,0.001707974,0.001493162,0.00725326,-0.02642379,0.02525308,-0.001026185,0.000533647,0.000281769,0.000418681,1000,1000,1000,1000
56055902,-0.023618195,0.022867028,-0.002707196,0.001708865,0.001493702,0.00725433,-0.026474502,0.02530317,-0.00103042,0.000533254,0.00025355,0.000416214,1000,1000,1000,1000
56058401,-0.023462446,0.022715589,-0.002704533,0.001709358,0.001493163,0.007255041,-0.026389424,0.025227988,-0.001040725,0.000534854,0.000252714,0.000429116,1000,1000,1000,1000
56060900,-0.023541693,0.022791348,-0.002707673,0.001711556,0.001492281,0.007254742,-0.02644081,0.02527724,-0.00105259,0.000570357,0.000224969,0.000429595,1000,1000,1000,1000
56063399,-0.02359459,0.022841932,-0.002709778,0.001710952,0.0014927,0.00725456,-0.026456563,0.025305903,-0.001053222,0.000588085,0.000210091,0.000410498,1000,1000,1000,1000
56065898,-0.023674019,0.022917945,-0.002712963,0.001711836,0.001492811,0.007255025,-0.026494801,0.025368081,-0.001069742,0.000597341,0.000223009,0.000381912,1000,1000,1000,1000
56068397,-0.023525691,0.02277378,-0.002710569,0.001710918,0.001493505,0.007254612,-0.026416659,0.025279455,-0.001064642,0.000581669,0.000245907,0.000362425,1000,1000,1000,1000
56070896,-0.023604987,0.022849673,-0.002713782,0.001712574,0.001494648,0.00725486,-0.026446994,0.025316052,-0.001077317,0.000554142,0.00029343,0.000342705,1000,1000,1000,1000
56073395,-0.023657914,0.022900352,-0.002715928,0.001712593,0.001494086,0.007253833,-0.026480218,0.025362594,-0.001067829,0.000558507,0.000328306,0.000312614,1000,1000,1000,1000
56075894,-0.02373741,0.022976529,-0.00271912,0.001713423,0.00149435,0.007254725,-0.026516169,0.025420934,-0.001060246,0.000557448,0.000348787,0.000265226,1000,1000,1000,1000
56078393,-0.023596156,0.0228393,-0.002716903,0.001713673,0.001494356,0.007255722,-0.026436325,0.025338611,-0.001050776,0.000556595,0.000357745,0.000277653,1000,1000,1000,1000
56080892,-0.023675548,0.022915397,-0.002720077,0.001715272,0.001493896,0.007256704,-0.026490085,0.025391106,-0.001065327,0.00056703,0.000347786,0.000313629,1000,1000,1000,1000
56083391,-0.023728548,0.022966221,-0.002722208,0.001715224,0.001494341,0.007256887,-0.026508765,0.025432836,-0.001065748,0.000574441,0.000344541,0.000352463,1000,1000,1000,1000
56085890,-0.023808144,0.023042578,-0.00272539,0.001716152,0.001494925,0.007258238,-0.026555071,0.025470845,-0.001055395,0.000582737,0.000373564,0.000401131,1000,1000,1000,1000
56088389,-0.023673801,0.022912087,-0.002723366,0.001716083,0.001494203,0.007258792,-0.026478196,0.025402939,-0.001060061,0.000583126,0.000364919,0.000429922,1000,1000,1000,1000
56090888,-0.0237533,0.022988351,-0.002726556,0.001716923,0.001494488,0.007259135,-0.026520528,0.025439344,-0.001066344,0.000561494,0.000349693,0.00045451,1000,1000,1000,1000
56093387,-0.023806367,0.023039263,-0.002728674,0.001716492,0.001494366,0.007259566,-0.026546083,0.025470898,-0.001052054,0.000553029,0.000339337,0.000467361,1000,1000,1000,1000
56095886,-0.023886079,0.02311575,-0.002731829,0.001715589,0.001494707,0.007259978,-0.026594363,0.025519768,-0.001051007,0.000493462,0.000322469,0.000470269,1000,1000,1000,1000
56098385,-0.023758445,0.022991784,-0.002729958,0.001715315,0.001495012,0.0072597,-0.026521415,0.0254454,-0.001033456,0.000445065,0.000324033,0.000460369,1000,1000,1000,1000
56100884,-0.023838097,0.023068219,-0.002733075,0.001715055,0.00149504,0.007260392,-0.026579259,0.025510766,-0.001044716,0.000369156,0.000339088,0.000430235,1000,1000,1000,1000
56103383,-0.023891287,0.023119273,-0.002735161,0.001714663,0.001494059,0.007261465,-0.026610002,0.025542149,-0.001041259,0.000335059,0.000324247,0.000432369,1000,1000,1000,1000
56105882,-0.023971166,0.023195969,-0.002738302,0.001713868,0.001496027,0.007261652,-0.026641641,0.025587413,-0.001052858,0.000279101,0.000322968,0.000442615,1000,1000,1000,1000
56108381,-0.023674589,0.022908619,-0.002733537,0.001713888,0.001496618,0.007260753,-0.026448483,0.02540499,-0.001047949,0.000245706,0.000353394,0.000423165,1000,1000,1000,1000
56110880,-0.023753989,0.02298489,-0.002736685,0.00171336,0.001497475,0.007261053,-0.0264844,0.025442174,-0.001050559,0.000222295,0.000413966,0.000380613,1000,1000,1000,1000
56113379,-0.023806978,0.023035813,-0.002738795,0.001714125,0.001497768,0.007260164,-0.026503269,0.025480006,-0.001059956,0.00022726,0.000454935,0.00033931,1000,1000,1000,1000
56115878,-0.023886548,0.023112308,-0.002741989,0.001713499,0.001497723,0.007260815,-0.026542777,0.02551562,-0.001068668,0.000251003,0.000491775,0.000282998,1000,1000,1000,1000
56118377,-0.023601282,0.022835962,-0.002736743,0.001713549,0.001497017,0.00726243,-0.026376387,0.025347037,-0.001056938,0.000277102,0.000486954,0.000289701,1000,1000,1000,1000
56120876,-0.023680454,0.022912066,-0.002739943,0.001713693,0.00149719,0.007263272,-0.026404154,0.025387812,-0.001076505,0.000308039,0.000467565,0.000346106,1000,1000,1000,1000
56123375,-0.02373329,0.022962864,-0.0027421,0.001713735,0.001496868,0.007262446,-0.026431158,0.025410203,-0.001080476,0.000339703,0.000457092,0.000353397,1000,1000,1000,1000
56125874,-0.023812633,0.023039145,-0.00274537,0.001712964,0.001496637,0.007262748,-0.026463101,0.025443509,-0.00109927,0.000366174,0.000433092,0.000328797,1000,1000,1000,1000
56128373,-0.023538306,0.022773432,-0.002740488,0.00171266,0.001495993,0.007262862,-0.026286542,0.025270382,-0.001100795,0.000374364,0.000413273,0.000330076,1000,1000,1000,1000
56130872,-0.023617223,0.022849333,-0.002743816,0.001713167,0.001496961,0.007262952,-0.026323324,0.025329407,-0.001117475,0.000379067,0.00038267,0.000307137,1000,1000,1000,1000
56133371,-0.0236699,0.022900023,-0.002746047,0.001712619,0.00149636,0.007262744,-0.026353247,0.02536029,-0.001113807,0.000385761,0.000386054,0.000300174,1000,1000,1000,1000
56135870,-0.023749059,0.022976195,-0.002749371,0.001712793,0.001495631,0.007262492,-0.026418971,0.025421485,-0.001102097,0.000405188,0.00035992,0.000281718,1000,1000,1000,1000
56138369,-0.023485409,0.02272087,-0.002744768,0.001713022,0.001494935,0.00726148,-0.026256051,0.025260391,-0.001092223,0.000420502,0.000335317,0.000257643,1000,1000,1000,1000
56140868,-0.023564255,0.022796728,-0.002748074,0.001712242,0.001494282,0.007262406,-0.026307568,0.025311401,-0.001112146,0.000409713,0.000284152,0.000230651,1000,1000,1000,1000
56143367,-0.023616916,0.022847394,-0.002750297,0.001712629,0.001493749,0.00726272,-0.026351564,0.025353985,-0.001109976,0.00041434,0.000263521,0.000238854,1000,1000,1000,1000
56145866,-0.023696043,0.022923511,-0.002753635,0.001712975,0.001493394,0.007263215,-0.026398757,0.025390189,-0.001115467,0.000437646,0.000246476,0.000271374,1000,1000,1000,1000
56148365,-0.023442777,0.022678206,-0.002749329,0.00171384,0.001492154,0.007262436,-0.026257854,0.025229299,-0.001104177,0.000459748,0.000219029,0.000276435,1000,1000,1000,1000
56150864,-0.023521632,0.022753967,-0.002752636,0.001713049,0.001492273,0.007261762,-0.026311625,0.025277963,-0.001100874,0.000482758,0.000187183,0.000255076,1000,1000,1000,1000
56153363,-0.023574289,0.022804543,-0.002754843,0.001713182,0.001491618,0.007261498,-0.026344623,0.02529742,-0.001105743,0.000478569,0.000176089,0.000238099,1000,1000,1000,1000
56155862,-0.023653356,0.022880495,-0.002758138,0.001712925,0.001491844,0.007261453,-0.026366623,0.025336228,-0.001090732,0.000478444,0.000188258,0.000218854,1000,1000,1000,1000
56158361,-0.023410091,0.022644866,-0.002754064,0.001712851,0.00149113,0.007261727,-0.026228741,0.025207395,-0.00109946,0.000467301,0.000199044,0.000207192,1000,1000,1000,1000
56160860,-0.023488829,0.022720555,-0.002757369,0.00171238,0.001490573,0.007262986,-0.026262511,0.025250483,-0.001104066,0.000427667,0.000189774,0.000247382,1000,1000,1000,1000
56163359,-0.023541389,0.022771088,-0.002759585,0.001711399,0.00149102,0.007262266,-0.026297528,0.02528172,-0.001112143,0.000397423,0.00020851,0.000264821,1000,1000,1000,1000
56165858,-0.023620339,0.022846999,-0.00276291,0.001712729,0.001489595,0.007262308,-0.026335131,0.025323844,-0.00110426,0.000377801,0.000219357,0.000270075,1000,1000,1000,1000
56168357,-0.023386786,0.022620803,-0.002759097,0.001711642,0.001488209,0.007262896,-0.026200203,0.02517896,-0.001095552,0.000381134,0.000198018,0.000278963,1000,1000,1000,1000
56170856,-0.023465458,0.022696421,-0.002762394,0.001711801,0.001488227,0.007262395,-0.026247071,0.025232714,-0.0011029,0.000362552,0.000177,0.000287282,1000,1000,1000,1000
56173355,-0.023517979,0.022746922,-0.002764603,0.001712247,0.001486938,0.007262859,-0.026273126,0.025267661,-0.001105478,0.0003752,0.000158595,0.000284585,1000,1000,1000,1000
56175854,-0.0235969,0.022822801,-0.002767905,0.001713148,0.001485811,0.007262822,-0.026339123,0.025317051,-0.001095904,0.000402954,0.000118678,0.00027912,1000,1000,1000,1000
56178353,-0.023372864,0.022605812,-0.002764334,0.001711725,0.001485594,0.00726322,-0.026215931,0.025186785,-0.001101346,0.000414836,9.77E-05,0.000287273,1000,1000,1000,1000
56180852,-0.023451578,0.022681443,-0.00276766,0.0017114,0.001486349,0.007264369,-0.026259415,0.025232757,-0.001115953,0.000387823,0.000109354,0.000308594,1000,1000,1000,1000
56183351,-0.023504125,0.022731926,-0.002769891,0.001710821,0.001486641,0.007264785,-0.026287515,0.025249612,-0.001114953,0.00037087,0.000149315,0.000345227,1000,1000,1000,1000
56185850,-0.023583068,0.022807758,-0.002773233,0.001711759,0.001486745,0.007266215,-0.026339551,0.025304941,-0.001112915,0.00035373,0.000220746,0.000404493,1000,1000,1000,1000
56188349,-0.023368265,0.022599684,-0.002769925,0.001711873,0.001486948,0.007266193,-0.026222758,0.025170123,-0.001111929,0.000378035,0.000261347,0.000442485,1000,1000,1000,1000
56190848,-0.023447016,0.022675244,-0.002773295,0.00171291,0.001487706,0.007266177,-0.026277252,0.025202982,-0.00113416,0.00042229,0.000332288,0.000449896,1000,1000,1000,1000
56193347,-0.023499599,0.022725688,-0.002775565,0.001712486,0.001487148,0.007266311,-0.026304785,0.025239831,-0.001135739,0.000443607,0.000364459,0.000447969,1000,1000,1000,1000
56195846,-0.023578558,0.022801468,-0.002778994,0.001712618,0.001487548,0.007267516,-0.026333619,0.025278812,-0.001150642,0.00046223,0.000387862,0.000441983,1000,1000,1000,1000
56198345,-0.023372699,0.022602048,-0.002775986,0.001713239,0.001487434,0.007267556,-0.026211593,0.025167402,-0.001146585,0.000476128,0.000404685,0.000449078,1000,1000,1000,1000
56200844,-0.023451395,0.022677608,-0.00277942,0.001713622,0.001486971,0.007268482,-0.026251875,0.025205195,-0.001142866,0.000509077,0.000407906,0.000445843,1000,1000,1000,1000
56203343,-0.023503937,0.022728052,-0.002781707,0.001713817,0.001487402,0.007268193,-0.026289463,0.025238572,-0.001143277,0.000518906,0.000402675,0.00044438,1000,1000,1000,1000
56205842,-0.023582872,0.022803869,-0.002785154,0.001713351,0.001487891,0.007268612,-0.026333209,0.025305735,-0.001155107,0.000510216,0.000417377,0.000409545,1000,1000,1000,1000
56208341,-0.023385717,0.022612944,-0.002782385,0.001714115,0.001487042,0.007269634,-0.026213937,0.025202516,-0.001159026,0.000503159,0.000406067,0.000409738,1000,1000,1000,1000
56210840,-0.023464426,0.02268861,-0.002785889,0.00171416,0.001486764,0.007269966,-0.026258217,0.025240472,-0.001176835,0.000503131,0.000364284,0.000412889,1000,1000,1000,1000
56213339,-0.02351696,0.022739127,-0.002788243,0.001713713,0.001487012,0.007270713,-0.026275398,0.025276206,-0.001176654,0.000484719,0.000353909,0.000425062,1000,1000,1000,1000
56215838,-0.023595879,0.022815028,-0.002791779,0.001713712,0.001486147,0.007271369,-0.026335558,0.025324142,-0.001180624,0.000463965,0.000326861,0.000429718,1000,1000,1000,1000
56218337,-0.023407195,0.022632327,-0.002788468,0.001713454,0.001485625,0.00727186,-0.026226182,0.025215058,-0.00119693,0.000443606,0.000304904,0.000436651,1000,1000,1000,1000
56220836,-0.023485953,0.022708064,-0.002792079,0.001713899,0.001486631,0.007273006,-0.026278593,0.025274981,-0.001209907,0.000425202,0.000286714,0.00046153,1000,1000,1000,1000
56223335,-0.023538543,0.022758644,-0.00279449,0.00171357,0.001486626,0.007272898,-0.026310695,0.025305038,-0.001201777,0.000416011,0.000300533,0.000469449,1000,1000,1000,1000
56225834,-0.023617564,0.022834646,-0.00279809,0.001713247,0.001486828,0.007273984,-0.026369613,0.025362495,-0.001197709,0.000374397,0.000318886,0.000481324,1000,1000,1000,1000
56228333,-0.023437155,0.022659989,-0.002795044,0.001712711,0.001486967,0.007275085,-0.026264057,0.025261205,-0.001208215,0.00035744,0.000333896,0.00048553,1000,1000,1000,1000
56230832,-0.02351604,0.022735858,-0.002798685,0.00171343,0.0014879,0.007276786,-0.02632552,0.025317715,-0.001218919,0.000353837,0.000369454,0.000524984,1000,1000,1000,1000
