timestamp,TimeUS,C1,C2,C3,C4,C5,C6,C7,C8,C9,C10,C11,C12,C13,C14
1706444708.00000000,53228700,1000,1000,1000,1000,0,0,0,0,0,0,0,0,0,0
1706444708.09996009,53328660,1000,1000,1000,1000,0,0,0,0,0,0,0,0,0,0
1706444708.19992018,53428620,1000,1000,1000,1000,0,0,0,0,0,0,0,0,0,0
1706444708.29988003,53528580,1000,1000,1000,1000,0,0,0,0,0,0,0,0,0,0
1706444708.39984012,53628540,1000,1000,1000,1000,0,0,0,0,0,0,0,0,0,0
1706444708.49979997,53728500,1000,1000,1000,1000,0,0,0,0,0,0,0,0,0,0
1706444708.59976006,53828460,1000,1000,1000,1000,0,0,0,0,0,0,0,0,0,0
1706444708.69972014,53928420,1000,1000,1000,1000,0,0,0,0,0,0,0,0,0,0
1706444708.79967999,54028380,1000,1000,1000,1000,0,0,0,0,0,0,0,0,0,0
1706444708.89964008,54128340,1000,1000,1000,1000,0,0,0,0,0,0,0,0,0,0
1706444708.99960017,54228300,1000,1000,1000,1000,0,0,0,0,0,0,0,0,0,0
1706444709.09956002,54328260,1000,1000,1000,1000,0,0,0,0,0,0,0,0,0,0
1706444709.19952011,54428220,1000,1000,1000,1000,0,0,0,0,0,0,0,0,0,0
1706444709.29947996,54528180,1000,1000,1000,1000,0,0,0,0,0,0,0,0,0,0
1706444709.40027308,54628973,1000,1000,1000,1000,0,0,0,0,0,0,0,0,0,0
1706444709.50023317,54728933,1000,1000,1000,1000,0,0,0,0,0,0,0,0,0,0
1706444709.60019302,54828893,1000,1000,1000,1000,0,0,0,0,0,0,0,0,0,0
1706444709.70015311,54928853,1000,1000,1000,1000,0,0,0,0,0,0,0,0,0,0
1706444709.80011296,55028813,1000,1000,1000,1000,0,0,0,0,0,0,0,0,0,0
1706444709.90007305,55128773,1000,1000,1000,1000,0,0,0,0,0,0,0,0,0,0
1706444710.00003314,55228733,1024,1024,1024,1024,0,0,0,0,0,0,0,0,0,0
1706444710.09999299,55328693,1054,1054,1054,1054,0,0,0,0,0,0,0,0,0,0
1706444710.19995308,55428653,1084,1084,1084,1084,0,0,0,0,0,0,0,0,0,0
1706444710.29991317,55528613,1113,1113,1113,1113,0,0,0,0,0,0,0,0,0,0
1706444710.39987302,55628573,1143,1143,1143,1143,0,0,0,0,0,0,0,0,0,0
1706444710.49983311,55728533,1357,1351,1351,1358,0,0,0,0,0,0,0,0,0,0
1706444710.59979320,55828493,1546,1541,1542,1547,0,0,0,0,0,0,0,0,0,0
1706444710.69975305,55928453,1699,1694,1695,1699,0,0,0,0,0,0,0,0,0,0
1706444710.79971313,56028413,1830,1825,1826,1830,0,0,0,0,0,0,0,0,0,0
1706444710.89967299,56128373,1835,1830,1830,1835,0,0,0,0,0,0,0,0,0,0
1706444710.99963307,56228333,1827,1825,1825,1827,0,0,0,0,0,0,0,0,0,0
1706444711.09959316,56328293,1695,1695,1695,1696,0,0,0,0,0,0,0,0,0,0
1706444711.19955301,56428253,1615,1617,1617,1615,0,0,0,0,0,0,0,0,0,0
1706444711.29951310,56528213,1605,1608,1608,1605,0,0,0,0,0,0,0,0,0,0
1706444711.39947319,56628173,1623,1625,1625,1623,0,0,0,0,0,0,0,0,0,0
1706444711.50026608,56728966,1637,1638,1638,1637,0,0,0,0,0,0,0,0,0,0
1706444711.60022616,56828926,1639,1638,1639,1638,0,0,0,0,0,0,0,0,0,0
1706444711.70018601,56928886,1632,1632,1631,1633,0,0,0,0,0,0,0,0,0,0
1706444711.80014610,57028846,1623,1623,1623,1624,0,0,0,0,0,0,0,0,0,0
1706444711.90010619,57128806,1606,1606,1598,1614,0,0,0,0,0,0,0,0,0,0
1706444712.00006604,57228766,1603,1602,1594,1610,0,0,0,0,0,0,0,0,0,0
1706444712.10002613,57328726,1602,1602,1599,1605,0,0,0,0,0,0,0,0,0,0
1706444712.19998598,57428686,1606,1606,1607,1605,0,0,0,0,0,0,0,0,0,0
1706444712.29994607,57528646,1611,1611,1614,1607,0,0,0,0,0,0,0,0,0,0
1706444712.39990616,57628606,1617,1618,1622,1614,0,0,0,0,0,0,0,0,0,0
1706444712.49986601,57728566,1593,1593,1607,1579,0,0,0,0,0,0,0,0,0,0
1706444712.59982610,57828526,1577,1578,1593,1563,0,0,0,0,0,0,0,0,0,0
1706444712.69978619,57928486,1566,1567,1573,1561,0,0,0,0,0,0,0,0,0,0
1706444712.79974604,58028446,1556,1555,1550,1562,0,0,0,0,0,0,0,0,0,0
1706444712.89970613,58128406,1547,1546,1535,1559,0,0,0,0,0,0,0,0,0,0
1706444712.99966598,58228366,1540,1539,1528,1551,0,0,0,0,0,0,0,0,0,0
1706444713.09962606,58328326,1534,1533,1526,1541,0,0,0,0,0,0,0,0,0,0
1706444713.19958615,58428286,1529,1529,1526,1532,0,0,0,0,0,0,0,0,0,0
1706444713.29954600,58528246,1529,1529,1530,1529,0,0,0,0,0,0,0,0,0,0
1706444713.39950609,58628206,1530,1531,1533,1528,0,0,0,0,0,0,0,0,0,0
1706444713.49946618,58728166,1534,1534,1537,1530,0,0,0,0,0,0,0,0,0,0
1706444713.60025907,58828959,1536,1537,1541,1533,0,0,0,0,0,0,0,0,0,0
1706444713.70021915,58928919,1540,1541,1543,1538,0,0,0,0,0,0,0,0,0,0
1706444713.80017900,59028879,1543,1543,1545,1542,0,0,0,0,0,0,0,0,0,0
1706444713.90013909,59128839,1547,1546,1546,1546,0,0,0,0,0,0,0,0,0,0
1706444714.00009918,59228799,1550,1549,1548,1551,0,0,0,0,0,0,0,0,0,0
1706444714.10005903,59328759,1552,1551,1550,1554,0,0,0,0,0,0,0,0,0,0
1706444714.20001912,59428719,1549,1548,1556,1560,0,0,0,0,0,0,0,0,0,0
1706444714.29997897,59528679,1551,1551,1560,1563,0,0,0,0,0,0,0,0,0,0
1706444714.39993906,59628639,1553,1554,1562,1562,0,0,0,0,0,0,0,0,0,0
1706444714.49989915,59728599,1557,1558,1563,1562,0,0,0,0,0,0,0,0,0,0
1706444714.59985900,59828559,1562,1562,1564,1562,0,0,0,0,0,0,0,0,0,0
1706444714.69981909,59928519,1566,1566,1564,1563,0,0,0,0,0,0,0,0,0,0
1706444714.79977918,60028479,1569,1569,1564,1564,0,0,0,0,0,0,0,0,0,0
1706444714.89973903,60128439,1570,1570,1564,1564,0,0,0,0,0,0,0,0,0,0
1706444714.99969912,60228399,1572,1571,1565,1566,0,0,0,0,0,0,0,0,0,0
1706444715.09965897,60328359,1573,1572,1566,1567,0,0,0,0,0,0,0,0,0,0
1706444715.19961905,60428319,1573,1573,1567,1568,0,0,0,0,0,0,0,0,0,0
1706444715.29957914,60528279,1572,1572,1568,1568,0,0,0,0,0,0,0,0,0,0
1706444715.39953899,60628239,1572,1572,1570,1569,0,0,0,0,0,0,0,0,0,0
1706444715.49949908,60728199,1573,1573,1572,1572,0,0,0,0,0,0,0,0,0,0
1706444715.59945917,60828159,1573,1573,1573,1572,0,0,0,0,0,0,0,0,0,0
1706444715.70025206,60928952,1573,1573,1575,1573,0,0,0,0,0,0,0,0,0,0
1706444715.80021214,61028912,1574,1574,1577,1575,0,0,0,0,0,0,0,0,0,0
1706444715.90017200,61128872,1574,1574,1576,1576,0,0,0,0,0,0,0,0,0,0
1706444716.00013208,61228832,1573,1574,1576,1576,0,0,0,0,0,0,0,0,0,0
1706444716.10009217,61328792,1574,1574,1576,1577,0,0,0,0,0,0,0,0,0,0
1706444716.20005202,61428752,1576,1576,1577,1578,0,0,0,0,0,0,0,0,0,0
1706444716.30001211,61528712,1575,1574,1576,1576,0,0,0,0,0,0,0,0,0,0
1706444716.39997196,61628672,1575,1575,1576,1575,0,0,0,0,0,0,0,0,0,0
1706444716.49993205,61728632,1576,1576,1576,1576,0,0,0,0,0,0,0,0,0,0
1706444716.59989214,61828592,1576,1576,1576,1576,0,0,0,0,0,0,0,0,0,0
1706444716.69985199,61928552,1577,1577,1576,1577,0,0,0,0,0,0,0,0,0,0
1706444716.79981208,62028512,1577,1578,1577,1577,0,0,0,0,0,0,0,0,0,0
1706444716.89977217,62128472,1579,1578,1578,1577,0,0,0,0,0,0,0,0,0,0
1706444716.99973202,62228432,1579,1578,1577,1577,0,0,0,0,0,0,0,0,0,0
1706444717.09969211,62328392,1579,1578,1578,1578,0,0,0,0,0,0,0,0,0,0
1706444717.19965219,62428352,1578,1579,1578,1578,0,0,0,0,0,0,0,0,0,0
1706444717.29961205,62528312,1578,1578,1578,1578,0,0,0,0,0,0,0,0,0,0
1706444717.39957213,62628272,1579,1579,1579,1579,0,0,0,0,0,0,0,0,0,0
1706444717.49953198,62728232,1578,1579,1579,1579,0,0,0,0,0,0,0,0,0,0
1706444717.59949207,62828192,1579,1579,1579,1579,0,0,0,0,0,0,0,0,0,0
1706444717.70028520,62928985,1579,1579,1580,1580,0,0,0,0,0,0,0,0,0,0
1706444717.80024505,63028945,1578,1579,1579,1579,0,0,0,0,0,0,0,0,0,0
1706444717.90020514,63128905,1578,1578,1579,1579,0,0,0,0,0,0,0,0,0,0
1706444718.00016499,63228865,1578,1579,1580,1579,0,0,0,0,0,0,0,0,0,0
1706444718.10012507,63328825,1579,1579,1580,1579,0,0,0,0,0,0,0,0,0,0
1706444718.20008516,63428785,1580,1580,1580,1580,0,0,0,0,0,0,0,0,0,0
1706444718.30004501,63528745,1579,1579,1579,1580,0,0,0,0,0,0,0,0,0,0
1706444718.40000510,63628705,1580,1579,1580,1579,0,0,0,0,0,0,0,0,0,0
1706444718.49996519,63728665,1579,1579,1579,1579,0,0,0,0,0,0,0,0,0,0
1706444718.59992504,63828625,1579,1579,1578,1579,0,0,0,0,0,0,0,0,0,0
1706444718.69988513,63928585,1579,1579,1579,1579,0,0,0,0,0,0,0,0,0,0
1706444718.79984498,64028545,1580,1580,1580,1580,0,0,0,0,0,0,0,0,0,0
1706444718.89980507,64128505,1581,1580,1581,1580,0,0,0,0,0,0,0,0,0,0
1706444718.99976516,64228465,1579,1579,1579,1579,0,0,0,0,0,0,0,0,0,0
1706444719.09972501,64328425,1579,1579,1579,1579,0,0,0,0,0,0,0,0,0,0
1706444719.19968510,64428385,1580,1580,1581,1580,0,0,0,0,0,0,0,0,0,0
1706444719.29964519,64528345,1580,1581,1580,1580,0,0,0,0,0,0,0,0,0,0
1706444719.39960504,64628305,1580,1581,1581,1581,0,0,0,0,0,0,0,0,0,0
1706444719.49956512,64728265,1581,1581,1581,1581,0,0,0,0,0,0,0,0,0,0
1706444719.59952497,64828225,1580,1580,1580,1580,0,0,0,0,0,0,0,0,0,0
1706444719.69948506,64928185,1581,1581,1581,1582,0,0,0,0,0,0,0,0,0,0
1706444719.80027819,65028978,1581,1581,1581,1581,0,0,0,0,0,0,0,0,0,0
1706444719.90023804,65128938,1580,1580,1580,1581,0,0,0,0,0,0,0,0,0,0
1706444720.00019813,65228898,1581,1581,1581,1581,0,0,0,0,0,0,0,0,0,0
1706444720.10015798,65328858,1581,1580,1581,1580,0,0,0,0,0,0,0,0,0,0
1706444720.20011806,65428818,1580,1580,1580,1580,0,0,0,0,0,0,0,0,0,0
1706444720.30007815,65528778,1581,1581,1581,1581,0,0,0,0,0,0,0,0,0,0
1706444720.40003800,65628738,1582,1581,1585,1578,0,0,0,0,0,0,0,0,0,0
1706444720.49999809,65728698,1581,1582,1588,1573,0,0,0,0,0,0,0,0,0,0
1706444720.59995818,65828658,1579,1582,1581,1573,0,0,0,0,0,0,0,0,0,0
1706444720.69991803,65928618,1577,1580,1572,1573,0,0,0,0,0,0,0,0,0,0
1706444720.79987812,66028578,1576,1579,1564,1570,0,0,0,0,0,0,0,0,0,0
1706444720.89983797,66128538,1577,1579,1559,1566,0,0,0,0,0,0,0,0,0,0
1706444720.99979806,66228498,1578,1578,1556,1561,0,0,0,0,0,0,0,0,0,0
1706444721.09975815,66328458,1579,1578,1555,1558,0,0,0,0,0,0,0,0,0,0
1706444721.19971800,66428418,1579,1576,1555,1554,0,0,0,0,0,0,0,0,0,0
1706444721.29967809,66528378,1577,1576,1555,1553,0,0,0,0,0,0,0,0,0,0
1706444721.39963818,66628338,1576,1576,1555,1552,0,0,0,0,0,0,0,0,0,0
1706444721.49959803,66728298,1575,1577,1555,1554,0,0,0,0,0,0,0,0,0,0
1706444721.59955812,66828258,1575,1576,1555,1554,0,0,0,0,0,0,0,0,0,0
1706444721.69951797,66928218,1574,1576,1554,1553,0,0,0,0,0,0,0,0,0,0
1706444721.79947805,67028178,1574,1576,1552,1552,0,0,0,0,0,0,0,0,0,0
1706444721.90027118,67128971,1575,1576,1550,1551,0,0,0,0,0,0,0,0,0,0
1706444722.00023103,67228931,1577,1579,1549,1550,0,0,0,0,0,0,0,0,0,0
1706444722.10019112,67328891,1579,1580,1547,1547,0,0,0,0,0,0,0,0,0,0
1706444722.20015097,67428851,1582,1583,1544,1544,0,0,0,0,0,0,0,0,0,0
1706444722.30011106,67528811,1585,1585,1541,1541,0,0,0,0,0,0,0,0,0,0
1706444722.40007114,67628771,1588,1588,1539,1538,0,0,0,0,0,0,0,0,0,0
1706444722.50003099,67728731,1591,1591,1536,1536,0,0,0,0,0,0,0,0,0,0
1706444722.59999108,67828691,1594,1594,1535,1536,0,0,0,0,0,0,0,0,0,0
1706444722.69995117,67928651,1595,1594,1534,1535,0,0,0,0,0,0,0,0,0,0
1706444722.79991102,68028611,1596,1596,1536,1537,0,0,0,0,0,0,0,0,0,0
1706444722.89987111,68128571,1594,1593,1537,1539,0,0,0,0,0,0,0,0,0,0
1706444722.99983096,68228531,1592,1591,1541,1544,0,0,0,0,0,0,0,0,0,0
1706444723.09979105,68328491,1587,1585,1547,1550,0,0,0,0,0,0,0,0,0,0
1706444723.19975114,68428451,1580,1577,1555,1558,0,0,0,0,0,0,0,0,0,0
1706444723.29971099,68528411,1571,1567,1566,1569,0,0,0,0,0,0,0,0,0,0
1706444723.39967108,68628371,1560,1556,1579,1580,0,0,0,0,0,0,0,0,0,0
1706444723.49963117,68728331,1549,1546,1591,1591,0,0,0,0,0,0,0,0,0,0
1706444723.59959102,68828291,1539,1538,1602,1601,0,0,0,0,0,0,0,0,0,0
1706444723.69955111,68928251,1533,1532,1610,1609,0,0,0,0,0,0,0,0,0,0
1706444723.79951119,69028211,1529,1529,1614,1613,0,0,0,0,0,0,0,0,0,0
1706444723.89947104,69128171,1529,1531,1615,1614,0,0,0,0,0,0,0,0,0,0
1706444724.00026417,69228964,1533,1535,1613,1612,0,0,0,0,0,0,0,0,0,0
1706444724.10022402,69328924,1540,1542,1608,1607,0,0,0,0,0,0,0,0,0,0
1706444724.20018411,69428884,1548,1550,1601,1602,0,0,0,0,0,0,0,0,0,0
1706444724.30014420,69528844,1556,1557,1593,1593,0,0,0,0,0,0,0,0,0,0
1706444724.40010405,69628804,1566,1566,1586,1586,0,0,0,0,0,0,0,0,0,0
1706444724.50006413,69728764,1573,1572,1579,1578,0,0,0,0,0,0,0,0,0,0
1706444724.60002398,69828724,1581,1579,1574,1573,0,0,0,0,0,0,0,0,0,0
1706444724.69998407,69928684,1585,1584,1570,1569,0,0,0,0,0,0,0,0,0,0
1706444724.79994416,70028644,1588,1586,1567,1567,0,0,0,0,0,0,0,0,0,0
1706444724.89990401,70128604,1588,1587,1567,1567,0,0,0,0,0,0,0,0,0,0
1706444724.99986410,70228564,1588,1587,1567,1568,0,0,0,0,0,0,0,0,0,0
1706444725.09982419,70328524,1586,1585,1569,1570,0,0,0,0,0,0,0,0,0,0
1706444725.19978404,70428484,1583,1582,1571,1572,0,0,0,0,0,0,0,0,0,0
1706444725.29974413,70528444,1580,1580,1575,1575,0,0,0,0,0,0,0,0,0,0
1706444725.39970398,70628404,1578,1579,1579,1578,0,0,0,0,0,0,0,0,0,0
1706444725.49966407,70728364,1576,1576,1582,1581,0,0,0,0,0,0,0,0,0,0
1706444725.59962416,70828324,1574,1576,1584,1583,0,0,0,0,0,0,0,0,0,0
1706444725.69958401,70928284,1573,1573,1584,1584,0,0,0,0,0,0,0,0,0,0
1706444725.79954410,71028244,1572,1573,1584,1583,0,0,0,0,0,0,0,0,0,0
1706444725.89950418,71128204,1573,1574,1584,1584,0,0,0,0,0,0,0,0,0,0
1706444725.99946404,71228164,1574,1574,1583,1583,0,0,0,0,0,0,0,0,0,0
1706444726.10025716,71328957,1574,1575,1581,1581,0,0,0,0,0,0,0,0,0,0
1706444726.20021701,71428917,1576,1576,1580,1581,0,0,0,0,0,0,0,0,0,0
1706444726.30017710,71528877,1578,1578,1580,1580,0,0,0,0,0,0,0,0,0,0
1706444726.40013719,71628837,1579,1579,1579,1579,0,0,0,0,0,0,0,0,0,0
1706444726.50009704,71728797,1549,1569,1545,1569,0,0,0,0,0,0,0,0,0,0
1706444726.60005713,71828757,1593,1571,1590,1568,0,0,0,0,0,0,0,0,0,0
1706444726.70001698,71928717,1627,1587,1624,1584,0,0,0,0,0,0,0,0,0,0
1706444726.79997706,72028677,1647,1606,1643,1602,0,0,0,0,0,0,0,0,0,0
1706444726.89993715,72128637,1644,1616,1640,1610,0,0,0,0,0,0,0,0,0,0
1706444726.99989700,72228597,1626,1617,1621,1610,0,0,0,0,0,0,0,0,0,0
1706444727.09985709,72328557,1602,1612,1599,1607,0,0,0,0,0,0,0,0,0,0
1706444727.19981718,72428517,1582,1603,1584,1604,0,0,0,0,0,0,0,0,0,0
1706444727.29977703,72528477,1572,1592,1580,1602,0,0,0,0,0,0,0,0,0,0
1706444727.39973712,72628437,1567,1582,1580,1597,0,0,0,0,0,0,0,0,0,0
1706444727.49969697,72728397,1569,1575,1584,1592,0,0,0,0,0,0,0,0,0,0
1706444727.59965706,72828357,1572,1572,1586,1586,0,0,0,0,0,0,0,0,0,0
1706444727.69961715,72928317,1577,1573,1587,1582,0,0,0,0,0,0,0,0,0,0
1706444727.79957700,73028277,1580,1576,1585,1579,0,0,0,0,0,0,0,0,0,0
1706444727.89953709,73128237,1581,1579,1581,1576,0,0,0,0,0,0,0,0,0,0
1706444727.99949718,73228197,1582,1581,1576,1574,0,0,0,0,0,0,0,0,0,0
1706444728.09945703,73328157,1582,1582,1572,1573,0,0,0,0,0,0,0,0,0,0
1706444728.20025015,73428950,1581,1583,1570,1572,0,0,0,0,0,0,0,0,0,0
1706444728.30021000,73528910,1580,1581,1568,1571,0,0,0,0,0,0,0,0,0,0
1706444728.40017009,73628870,1579,1580,1568,1569,0,0,0,0,0,0,0,0,0,0
1706444728.50013018,73728830,1580,1580,1575,1562,0,0,0,0,0,0,0,0,0,0
1706444728.60009003,73828790,1580,1581,1574,1561,0,0,0,0,0,0,0,0,0,0
1706444728.70005012,73928750,1577,1580,1567,1563,0,0,0,0,0,0,0,0,0,0
1706444728.80000997,74028710,1575,1578,1561,1564,0,0,0,0,0,0,0,0,0,0
1706444728.89997005,74128670,1573,1575,1556,1563,0,0,0,0,0,0,0,0,0,0
1706444728.99993014,74228630,1572,1572,1553,1560,0,0,0,0,0,0,0,0,0,0
1706444729.09988999,74328590,1573,1572,1554,1558,0,0,0,0,0,0,0,0,0,0
1706444729.19985008,74428550,1573,1571,1554,1555,0,0,0,0,0,0,0,0,0,0
1706444729.29981017,74528510,1573,1572,1554,1554,0,0,0,0,0,0,0,0,0,0
1706444729.39977002,74628470,1572,1572,1554,1552,0,0,0,0,0,0,0,0,0,0
1706444729.49973011,74728430,1571,1572,1553,1551,0,0,0,0,0,0,0,0,0,0
1706444729.59968996,74828390,1572,1574,1553,1551,0,0,0,0,0,0,0,0,0,0
1706444729.69965005,74928350,1573,1575,1552,1552,0,0,0,0,0,0,0,0,0,0
1706444729.79961014,75028310,1574,1575,1551,1550,0,0,0,0,0,0,0,0,0,0
1706444729.89956999,75128270,1575,1576,1549,1549,0,0,0,0,0,0,0,0,0,0
1706444729.99953008,75228230,1578,1578,1547,1548,0,0,0,0,0,0,0,0,0,0
1706444730.09949017,75328190,1581,1581,1546,1546,0,0,0,0,0,0,0,0,0,0
1706444730.20028305,75428983,1582,1583,1543,1543,0,0,0,0,0,0,0,0,0,0
1706444730.30024314,75528943,1584,1585,1540,1540,0,0,0,0,0,0,0,0,0,0
1706444730.40020299,75628903,1587,1588,1539,1539,0,0,0,0,0,0,0,0,0,0
1706444730.50016308,75728863,1589,1589,1537,1537,0,0,0,0,0,0,0,0,0,0
1706444730.60012317,75828823,1591,1591,1536,1537,0,0,0,0,0,0,0,0,0,0
1706444730.70008302,75928783,1591,1590,1536,1537,0,0,0,0,0,0,0,0,0,0
1706444730.80004311,76028743,1590,1589,1538,1539,0,0,0,0,0,0,0,0,0,0
1706444730.90000319,76128703,1588,1586,1542,1544,0,0,0,0,0,0,0,0,0,0
1706444730.99996305,76228663,1584,1583,1546,1549,0,0,0,0,0,0,0,0,0,0
1706444731.09992313,76328623,1579,1578,1552,1555,0,0,0,0,0,0,0,0,0,0
1706444731.19988298,76428583,1572,1571,1558,1562,0,0,0,0,0,0,0,0,0,0
1706444731.29984307,76528543,1567,1565,1568,1570,0,0,0,0,0,0,0,0,0,0
1706444731.39980316,76628503,1558,1557,1576,1578,0,0,0,0,0,0,0,0,0,0
1706444731.49976301,76728463,1551,1550,1586,1586,0,0,0,0,0,0,0,0,0,0
1706444731.59972310,76828423,1545,1544,1594,1594,0,0,0,0,0,0,0,0,0,0
1706444731.69968319,76928383,1541,1540,1601,1600,0,0,0,0,0,0,0,0,0,0
1706444731.79964304,77028343,1538,1539,1605,1604,0,0,0,0,0,0,0,0,0,0
1706444731.89960313,77128303,1538,1539,1606,1605,0,0,0,0,0,0,0,0,0,0
1706444731.99956298,77228263,1539,1541,1605,1603,0,0,0,0,0,0,0,0,0,0
1706444732.09952307,77328223,1543,1544,1601,1601,0,0,0,0,0,0,0,0,0,0
1706444732.19948316,77428183,1549,1550,1597,1598,0,0,0,0,0,0,0,0,0,0
1706444732.30027604,77528976,1555,1557,1592,1593,0,0,0,0,0,0,0,0,0,0
1706444732.40023613,77628936,1561,1561,1585,1586,0,0,0,0,0,0,0,0,0,0
1706444732.50019598,77728896,1568,1567,1580,1581,0,0,0,0,0,0,0,0,0,0
1706444732.60015607,77828856,1573,1573,1576,1576,0,0,0,0,0,0,0,0,0,0
1706444732.70011616,77928816,1578,1576,1573,1572,0,0,0,0,0,0,0,0,0,0
1706444732.80007601,78028776,1580,1578,1570,1569,0,0,0,0,0,0,0,0,0,0
1706444732.90003610,78128736,1584,1582,1569,1569,0,0,0,0,0,0,0,0,0,0
1706444732.99999619,78228696,1583,1582,1568,1569,0,0,0,0,0,0,0,0,0,0
1706444733.09995604,78328656,1583,1582,1570,1570,0,0,0,0,0,0,0,0,0,0
1706444733.19991612,78428616,1582,1582,1571,1571,0,0,0,0,0,0,0,0,0,0
1706444733.29987597,78528576,1580,1580,1573,1573,0,0,0,0,0,0,0,0,0,0
1706444733.39983606,78628536,1578,1579,1575,1575,0,0,0,0,0,0,0,0,0,0
1706444733.49979615,78728496,1577,1578,1577,1578,0,0,0,0,0,0,0,0,0,0
1706444733.59975600,78828456,1576,1576,1580,1579,0,0,0,0,0,0,0,0,0,0
1706444733.69971609,78928416,1575,1576,1582,1581,0,0,0,0,0,0,0,0,0,0
1706444733.79967618,79028376,1574,1575,1582,1582,0,0,0,0,0,0,0,0,0,0
1706444733.89963603,79128336,1575,1575,1583,1582,0,0,0,0,0,0,0,0,0,0
1706444733.99959612,79228296,1576,1576,1584,1583,0,0,0,0,0,0,0,0,0,0
1706444734.09955597,79328256,1576,1576,1583,1582,0,0,0,0,0,0,0,0,0,0
1706444734.19951606,79428216,1576,1577,1582,1582,0,0,0,0,0,0,0,0,0,0
1706444734.29947615,79528176,1577,1578,1581,1581,0,0,0,0,0,0,0,0,0,0
1706444734.40026903,79628969,1580,1579,1581,1581,0,0,0,0,0,0,0,0,0,0
1706444734.50022912,79728929,1580,1580,1580,1580,0,0,0,0,0,0,0,0,0,0
1706444734.60018897,79828889,1581,1581,1580,1580,0,0,0,0,0,0,0,0,0,0
1706444734.70014906,79928849,1581,1581,1579,1579,0,0,0,0,0,0,0,0,0,0
1706444734.80010915,80028809,1582,1581,1579,1579,0,0,0,0,0,0,0,0,0,0
1706444734.90006900,80128769,1581,1582,1579,1578,0,0,0,0,0,0,0,0,0,0
1706444735.00002909,80228729,1581,1580,1578,1578,0,0,0,0,0,0,0,0,0,0
1706444735.09998918,80328689,1580,1580,1578,1578,0,0,0,0,0,0,0,0,0,0
1706444735.19994903,80428649,1580,1581,1578,1579,0,0,0,0,0,0,0,0,0,0
1706444735.29990911,80528609,1579,1580,1578,1578,0,0,0,0,0,0,0,0,0,0
1706444735.39986897,80628569,1580,1580,1579,1579,0,0,0,0,0,0,0,0,0,0
1706444735.49982905,80728529,1580,1580,1580,1580,0,0,0,0,0,0,0,0,0,0
1706444735.59978914,80828489,1579,1579,1580,1580,0,0,0,0,0,0,0,0,0,0
1706444735.69974899,80928449,1579,1579,1580,1580,0,0,0,0,0,0,0,0,0,0
1706444735.79970908,81028409,1579,1580,1581,1581,0,0,0,0,0,0,0,0,0,0
1706444735.89966917,81128369,1579,1579,1580,1580,0,0,0,0,0,0,0,0,0,0
1706444735.99962902,81228329,1580,1580,1581,1581,0,0,0,0,0,0,0,0,0,0
1706444736.09958911,81328289,1580,1580,1581,1581,0,0,0,0,0,0,0,0,0,0
1706444736.19954896,81428249,1580,1580,1580,1580,0,0,0,0,0,0,0,0,0,0
1706444736.29950905,81528209,1580,1580,1580,1580,0,0,0,0,0,0,0,0,0,0
1706444736.39946914,81628169,1580,1580,1580,1581,0,0,0,0,0,0,0,0,0,0
1706444736.50026202,81728962,1581,1581,1581,1581,0,0,0,0,0,0,0,0,0,0
1706444736.60022211,81828922,1582,1582,1582,1581,0,0,0,0,0,0,0,0,0,0
1706444736.70018196,81928882,1582,1581,1581,1581,0,0,0,0,0,0,0,0,0,0
1706444736.80014205,82028842,1581,1582,1581,1581,0,0,0,0,0,0,0,0,0,0
1706444736.90010214,82128802,1581,1581,1581,1580,0,0,0,0,0,0,0,0,0,0
1706444737.00006199,82228762,1582,1583,1583,1580,0,0,0,0,0,0,0,0,0,0
1706444737.10002208,82328722,1582,1584,1588,1573,0,0,0,0,0,0,0,0,0,0
1706444737.19998217,82428682,1581,1583,1583,1573,0,0,0,0,0,0,0,0,0,0
1706444737.29994202,82528642,1579,1581,1575,1573,0,0,0,0,0,0,0,0,0,0
1706444737.39990211,82628602,1577,1580,1567,1571,0,0,0,0,0,0,0,0,0,0
1706444737.49986219,82728562,1576,1578,1560,1567,0,0,0,0,0,0,0,0,0,0
1706444737.59982204,82828522,1577,1578,1556,1563,0,0,0,0,0,0,0,0,0,0
1706444737.69978213,82928482,1579,1578,1555,1559,0,0,0,0,0,0,0,0,0,0
1706444737.79974198,83028442,1579,1578,1555,1555,0,0,0,0,0,0,0,0,0,0
1706444737.89970207,83128402,1580,1579,1556,1554,0,0,0,0,0,0,0,0,0,0
1706444737.99966216,83228362,1579,1579,1556,1554,0,0,0,0,0,0,0,0,0,0
1706444738.09962201,83328322,1579,1579,1557,1555,0,0,0,0,0,0,0,0,0,0
1706444738.19958210,83428282,1578,1579,1556,1555,0,0,0,0,0,0,0,0,0,0
1706444738.29954219,83528242,1577,1578,1555,1554,0,0,0,0,0,0,0,0,0,0
1706444738.39950204,83628202,1576,1577,1554,1554,0,0,0,0,0,0,0,0,0,0
1706444738.49946213,83728162,1576,1577,1552,1552,0,0,0,0,0,0,0,0,0,0
1706444738.60025501,83828955,1576,1578,1550,1550,0,0,0,0,0,0,0,0,0,0
1706444738.70021510,83928915,1578,1580,1548,1549,0,0,0,0,0,0,0,0,0,0
1706444738.80017519,84028875,1580,1582,1546,1546,0,0,0,0,0,0,0,0,0,0
1706444738.90013504,84128835,1583,1584,1544,1543,0,0,0,0,0,0,0,0,0,0
1706444739.00009513,84228795,1586,1586,1542,1542,0,0,0,0,0,0,0,0,0,0
1706444739.10005498,84328755,1589,1588,1540,1540,0,0,0,0,0,0,0,0,0,0
1706444739.20001507,84428715,1591,1590,1538,1538,0,0,0,0,0,0,0,0,0,0
1706444739.29997516,84528675,1593,1592,1538,1539,0,0,0,0,0,0,0,0,0,0
1706444739.39993501,84628635,1593,1594,1538,1539,0,0,0,0,0,0,0,0,0,0
1706444739.49989510,84728595,1593,1592,1538,1541,0,0,0,0,0,0,0,0,0,0
1706444739.59985518,84828555,1592,1591,1542,1545,0,0,0,0,0,0,0,0,0,0
1706444739.69981503,84928515,1589,1586,1547,1551,0,0,0,0,0,0,0,0,0,0
1706444739.79977512,85028475,1583,1580,1555,1558,0,0,0,0,0,0,0,0,0,0
1706444739.89973497,85128435,1574,1570,1564,1567,0,0,0,0,0,0,0,0,0,0
1706444739.99969506,85228395,1564,1561,1575,1577,0,0,0,0,0,0,0,0,0,0
1706444740.09965515,85328355,1555,1552,1587,1588,0,0,0,0,0,0,0,0,0,0
1706444740.19961500,85428315,1545,1544,1597,1597,0,0,0,0,0,0,0,0,0,0
1706444740.29957509,85528275,1539,1538,1605,1605,0,0,0,0,0,0,0,0,0,0
1706444740.39953518,85628235,1534,1536,1611,1609,0,0,0,0,0,0,0,0,0,0
1706444740.49949503,85728195,1533,1536,1613,1611,0,0,0,0,0,0,0,0,0,0
1706444740.59945512,85828155,1536,1539,1612,1611,0,0,0,0,0,0,0,0,0,0
1706444740.70024800,85928948,1540,1543,1608,1607,0,0,0,0,0,0,0,0,0,0
1706444740.80020809,86028908,1547,1549,1603,1603,0,0,0,0,0,0,0,0,0,0
1706444740.90016818,86128868,1556,1556,1598,1597,0,0,0,0,0,0,0,0,0,0
1706444741.00012803,86228828,1563,1562,1590,1590,0,0,0,0,0,0,0,0,0,0
1706444741.10008812,86328788,1570,1570,1583,1583,0,0,0,0,0,0,0,0,0,0
1706444741.20004797,86428748,1576,1575,1577,1577,0,0,0,0,0,0,0,0,0,0
1706444741.30000806,86528708,1581,1580,1572,1573,0,0,0,0,0,0,0,0,0,0
1706444741.39996815,86628668,1584,1582,1568,1568,0,0,0,0,0,0,0,0,0,0
1706444741.49992800,86728628,1586,1585,1566,1568,0,0,0,0,0,0,0,0,0,0
1706444741.59988809,86828588,1586,1585,1566,1567,0,0,0,0,0,0,0,0,0,0
1706444741.69984818,86928548,1585,1584,1567,1568,0,0,0,0,0,0,0,0,0,0
1706444741.79980803,87028508,1584,1584,1570,1571,0,0,0,0,0,0,0,0,0,0
1706444741.89976811,87128468,1581,1581,1572,1572,0,0,0,0,0,0,0,0,0,0
1706444741.99972796,87228428,1581,1581,1577,1576,0,0,0,0,0,0,0,0,0,0
1706444742.09968805,87328388,1578,1578,1579,1578,0,0,0,0,0,0,0,0,0,0
1706444742.19964814,87428348,1577,1577,1582,1581,0,0,0,0,0,0,0,0,0,0
1706444742.29960799,87528308,1576,1576,1584,1583,0,0,0,0,0,0,0,0,0,0
1706444742.39956808,87628268,1574,1575,1585,1584,0,0,0,0,0,0,0,0,0,0
1706444742.49952817,87728228,1574,1575,1585,1585,0,0,0,0,0,0,0,0,0,0
1706444742.59948802,87828188,1574,1574,1584,1584,0,0,0,0,0,0,0,0,0,0
1706444742.70028114,87928981,1574,1575,1583,1583,0,0,0,0,0,0,0,0,0,0
1706444742.80024099,88028941,1575,1576,1583,1582,0,0,0,0,0,0,0,0,0,0
1706444742.90020108,88128901,1576,1577,1581,1581,0,0,0,0,0,0,0,0,0,0
1706444743.00016117,88228861,1577,1577,1579,1579,0,0,0,0,0,0,0,0,0,0
1706444743.10012102,88328821,1578,1578,1578,1579,0,0,0,0,0,0,0,0,0,0
1706444743.20008111,88428781,1581,1580,1579,1579,0,0,0,0,0,0,0,0,0,0
1706444743.30004096,88528741,1581,1581,1578,1578,0,0,0,0,0,0,0,0,0,0
1706444743.40000105,88628701,1582,1581,1577,1577,0,0,0,0,0,0,0,0,0,0
1706444743.49996114,88728661,1582,1582,1578,1578,0,0,0,0,0,0,0,0,0,0
1706444743.59992099,88828621,1582,1581,1577,1578,0,0,0,0,0,0,0,0,0,0
1706444743.69988108,88928581,1582,1581,1578,1578,0,0,0,0,0,0,0,0,0,0
1706444743.79984117,89028541,1581,1580,1578,1578,0,0,0,0,0,0,0,0,0,0
1706444743.89980102,89128501,1580,1580,1579,1579,0,0,0,0,0,0,0,0,0,0
1706444743.99976110,89228461,1580,1580,1579,1580,0,0,0,0,0,0,0,0,0,0
1706444744.09972119,89328421,1579,1580,1580,1580,0,0,0,0,0,0,0,0,0,0
1706444744.19968104,89428381,1579,1579,1580,1580,0,0,0,0,0,0,0,0,0,0
1706444744.29964113,89528341,1579,1579,1580,1580,0,0,0,0,0,0,0,0,0,0
1706444744.39960098,89628301,1580,1580,1581,1581,0,0,0,0,0,0,0,0,0,0
1706444744.49956107,89728261,1579,1579,1581,1581,0,0,0,0,0,0,0,0,0,0
1706444744.59952116,89828221,1579,1579,1581,1581,0,0,0,0,0,0,0,0,0,0
1706444744.69948101,89928181,1580,1580,1581,1581,0,0,0,0,0,0,0,0,0,0
1706444744.80027413,90028974,1581,1581,1582,1582,0,0,0,0,0,0,0,0,0,0
1706444744.90023398,90128934,1581,1581,1582,1582,0,0,0,0,0,0,0,0,0,0
1706444745.00019407,90228894,1581,1582,1585,1577,0,0,0,0,0,0,0,0,0,0
1706444745.10015416,90328854,1581,1582,1587,1573,0,0,0,0,0,0,0,0,0,0
1706444745.20011401,90428814,1580,1579,1582,1573,0,0,0,0,0,0,0,0,0,0
1706444745.30007410,90528774,1577,1576,1575,1575,0,0,0,0,0,0,0,0,0,0
1706444745.40003419,90628734,1573,1572,1569,1574,0,0,0,0,0,0,0,0,0,0
1706444745.49999404,90728694,1569,1570,1565,1572,0,0,0,0,0,0,0,0,0,0
1706444745.59995413,90828654,1568,1568,1564,1570,0,0,0,0,0,0,0,0,0,0
1706444745.69991398,90928614,1568,1567,1565,1569,0,0,0,0,0,0,0,0,0,0
1706444745.79987407,91028574,1566,1566,1565,1565,0,0,0,0,0,0,0,0,0,0
1706444745.89983416,91128534,1566,1566,1567,1565,0,0,0,0,0,0,0,0,0,0
1706444745.99979401,91228494,1566,1566,1568,1565,0,0,0,0,0,0,0,0,0,0
1706444746.09975410,91328454,1564,1565,1566,1564,0,0,0,0,0,0,0,0,0,0
1706444746.19971418,91428414,1564,1564,1565,1563,0,0,0,0,0,0,0,0,0,0
1706444746.29967403,91528374,1563,1562,1564,1563,0,0,0,0,0,0,0,0,0,0
1706444746.39963412,91628334,1562,1561,1562,1562,0,0,0,0,0,0,0,0,0,0
1706444746.49959397,91728294,1561,1561,1561,1562,0,0,0,0,0,0,0,0,0,0
1706444746.59955406,91828254,1561,1561,1561,1562,0,0,0,0,0,0,0,0,0,0
1706444746.69951415,91928214,1560,1560,1561,1561,0,0,0,0,0,0,0,0,0,0
1706444746.79947400,92028174,1560,1560,1561,1560,0,0,0,0,0,0,0,0,0,0
1706444746.90026712,92128967,1560,1560,1560,1559,0,0,0,0,0,0,0,0,0,0
1706444747.00022697,92228927,1560,1559,1560,1559,0,0,0,0,0,0,0,0,0,0
1706444747.10018706,92328887,1559,1559,1559,1558,0,0,0,0,0,0,0,0,0,0
1706444747.20014715,92428847,1560,1560,1560,1559,0,0,0,0,0,0,0,0,0,0
1706444747.30010700,92528807,1558,1558,1558,1557,0,0,0,0,0,0,0,0,0,0
1706444747.40006709,92628767,1559,1559,1559,1557,0,0,0,0,0,0,0,0,0,0
1706444747.50002718,92728727,1559,1559,1559,1558,0,0,0,0,0,0,0,0,0,0
1706444747.59998703,92828687,1558,1558,1559,1557,0,0,0,0,0,0,0,0,0,0
1706444747.69994712,92928647,1559,1559,1560,1557,0,0,0,0,0,0,0,0,0,0
1706444747.79990697,93028607,1559,1559,1560,1558,0,0,0,0,0,0,0,0,0,0
1706444747.89986706,93128567,1559,1559,1558,1560,0,0,0,0,0,0,0,0,0,0
1706444747.99982715,93228527,1560,1560,1558,1563,0,0,0,0,0,0,0,0,0,0
1706444748.09978700,93328487,1560,1560,1557,1564,0,0,0,0,0,0,0,0,0,0
1706444748.19974709,93428447,1560,1561,1558,1563,0,0,0,0,0,0,0,0,0,0
1706444748.29970717,93528407,1561,1561,1559,1563,0,0,0,0,0,0,0,0,0,0
1706444748.39966702,93628367,1561,1561,1561,1561,0,0,0,0,0,0,0,0,0,0
1706444748.49962711,93728327,1562,1561,1563,1560,0,0,0,0,0,0,0,0,0,0
1706444748.59958696,93828287,1561,1560,1562,1558,0,0,0,0,0,0,0,0,0,0
1706444748.69954705,93928247,1559,1559,1558,1561,0,0,0,0,0,0,0,0,0,0
1706444748.79950714,94028207,1557,1557,1555,1559,0,0,0,0,0,0,0,0,0,0
1706444748.89946699,94128167,1552,1552,1551,1554,0,0,0,0,0,0,0,0,0,0
1706444749.00026011,94228960,1547,1547,1546,1548,0,0,0,0,0,0,0,0,0,0
1706444749.10021996,94328920,1540,1541,1540,1540,0,0,0,0,0,0,0,0,0,0
1706444749.20018005,94428880,1534,1534,1535,1533,0,0,0,0,0,0,0,0,0,0
1706444749.30014014,94528840,1527,1527,1528,1526,0,0,0,0,0,0,0,0,0,0
1706444749.40009999,94628800,1521,1521,1521,1521,0,0,0,0,0,0,0,0,0,0
1706444749.50006008,94728760,1518,1519,1519,1519,0,0,0,0,0,0,0,0,0,0
1706444749.60002017,94828720,1520,1521,1520,1521,0,0,0,0,0,0,0,0,0,0
1706444749.69998002,94928680,1521,1522,1521,1522,0,0,0,0,0,0,0,0,0,0
1706444749.79994011,95028640,1524,1525,1524,1525,0,0,0,0,0,0,0,0,0,0
1706444749.89989996,95128600,1528,1528,1528,1528,0,0,0,0,0,0,0,0,0,0
1706444749.99986005,95228560,1533,1533,1533,1533,0,0,0,0,0,0,0,0,0,0
1706444750.09982014,95328520,1538,1537,1538,1537,0,0,0,0,0,0,0,0,0,0
1706444750.19977999,95428480,1541,1540,1541,1540,0,0,0,0,0,0,0,0,0,0
1706444750.29974008,95528440,1543,1542,1543,1542,0,0,0,0,0,0,0,0,0,0
1706444750.39970016,95628400,1545,1544,1545,1544,0,0,0,0,0,0,0,0,0,0
1706444750.49966002,95728360,1546,1546,1546,1546,0,0,0,0,0,0,0,0,0,0
1706444750.59962010,95828320,1546,1546,1546,1546,0,0,0,0,0,0,0,0,0,0
1706444750.69958019,95928280,1547,1547,1547,1547,0,0,0,0,0,0,0,0,0,0
1706444750.79954004,96028240,1547,1547,1547,1547,0,0,0,0,0,0,0,0,0,0
1706444750.89950013,96128200,1546,1547,1547,1546,0,0,0,0,0,0,0,0,0,0
1706444750.99945998,96228160,1546,1547,1547,1546,0,0,0,0,0,0,0,0,0,0
1706444751.10025311,96328953,1546,1545,1546,1545,0,0,0,0,0,0,0,0,0,0
1706444751.20021319,96428913,1546,1546,1546,1547,0,0,0,0,0,0,0,0,0,0
1706444751.30017304,96528873,1546,1545,1546,1546,0,0,0,0,0,0,0,0,0,0
1706444751.40013313,96628833,1546,1546,1546,1546,0,0,0,0,0,0,0,0,0,0
1706444751.50009298,96728793,1545,1545,1545,1545,0,0,0,0,0,0,0,0,0,0
1706444751.60005307,96828753,1546,1545,1545,1545,0,0,0,0,0,0,0,0,0,0
1706444751.70001316,96928713,1545,1545,1545,1544,0,0,0,0,0,0,0,0,0,0
1706444751.79997301,97028673,1545,1545,1545,1545,0,0,0,0,0,0,0,0,0,0
1706444751.89993310,97128633,1544,1544,1544,1544,0,0,0,0,0,0,0,0,0,0
1706444751.99989319,97228593,1544,1545,1545,1544,0,0,0,0,0,0,0,0,0,0
1706444752.09985304,97328553,1544,1544,1544,1543,0,0,0,0,0,0,0,0,0,0
1706444752.19981313,97428513,1543,1543,1543,1543,0,0,0,0,0,0,0,0,0,0
1706444752.29977298,97528473,1544,1544,1544,1545,0,0,0,0,0,0,0,0,0,0
1706444752.39973307,97628433,1544,1544,1544,1544,0,0,0,0,0,0,0,0,0,0
1706444752.49969316,97728393,1545,1545,1545,1545,0,0,0,0,0,0,0,0,0,0
1706444752.59965301,97828353,1544,1543,1544,1544,0,0,0,0,0,0,0,0,0,0
1706444752.69961309,97928313,1544,1544,1544,1544,0,0,0,0,0,0,0,0,0,0
1706444752.79957318,98028273,1544,1544,1544,1544,0,0,0,0,0,0,0,0,0,0
1706444752.89953303,98128233,1544,1544,1544,1544,0,0,0,0,0,0,0,0,0,0
1706444752.99949312,98228193,1544,1544,1544,1544,0,0,0,0,0,0,0,0,0,0
1706444753.10028601,98328986,1545,1544,1545,1544,0,0,0,0,0,0,0,0,0,0
1706444753.20024610,98428946,1543,1543,1543,1543,0,0,0,0,0,0,0,0,0,0
1706444753.30020618,98528906,1543,1543,1543,1543,0,0,0,0,0,0,0,0,0,0
1706444753.40016603,98628866,1543,1544,1543,1544,0,0,0,0,0,0,0,0,0,0
1706444753.50012612,98728826,1544,1544,1544,1545,0,0,0,0,0,0,0,0,0,0
1706444753.60008597,98828786,1544,1545,1544,1545,0,0,0,0,0,0,0,0,0,0
1706444753.70004606,98928746,1545,1544,1545,1544,0,0,0,0,0,0,0,0,0,0
1706444753.80000615,99028706,1545,1544,1545,1545,0,0,0,0,0,0,0,0,0,0
1706444753.89996600,99128666,1545,1544,1544,1544,0,0,0,0,0,0,0,0,0,0
1706444753.99992609,99228626,1544,1544,1544,1544,0,0,0,0,0,0,0,0,0,0
1706444754.09988618,99328586,1545,1545,1544,1545,0,0,0,0,0,0,0,0,0,0
1706444754.19984603,99428546,1545,1545,1545,1545,0,0,0,0,0,0,0,0,0,0
1706444754.29980612,99528506,1545,1544,1545,1545,0,0,0,0,0,0,0,0,0,0
1706444754.39976597,99628466,1544,1544,1544,1544,0,0,0,0,0,0,0,0,0,0
1706444754.49972606,99728426,1545,1544,1544,1545,0,0,0,0,0,0,0,0,0,0
1706444754.59968615,99828386,1544,1544,1544,1544,0,0,0,0,0,0,0,0,0,0
1706444754.69964600,99928346,1544,1544,1544,1544,0,0,0,0,0,0,0,0,0,0
1706444754.79960608,100028306,1544,1544,1544,1544,0,0,0,0,0,0,0,0,0,0
1706444754.89956617,100128266,1544,1544,1544,1544,0,0,0,0,0,0,0,0,0,0
1706444754.99952602,100228226,1543,1544,1544,1544,0,0,0,0,0,0,0,0,0,0
1706444755.09948611,100328186,1544,1543,1544,1544,0,0,0,0,0,0,0,0,0,0
1706444755.20027900,100428979,1543,1543,1543,1544,0,0,0,0,0,0,0,0,0,0
1706444755.30023909,100528939,1545,1544,1544,1544,0,0,0,0,0,0,0,0,0,0
1706444755.40019917,100628899,1544,1544,1544,1544,0,0,0,0,0,0,0,0,0,0
1706444755.50015903,100728859,1545,1544,1544,1545,0,0,0,0,0,0,0,0,0,0
1706444755.60011911,100828819,1544,1544,1544,1544,0,0,0,0,0,0,0,0,0,0
1706444755.70007896,100928779,1544,1544,1544,1544,0,0,0,0,0,0,0,0,0,0
1706444755.80003905,101028739,1544,1545,1544,1544,0,0,0,0,0,0,0,0,0,0
1706444755.89999914,101128699,1545,1545,1544,1545,0,0,0,0,0,0,0,0,0,0
1706444755.99995899,101228659,1544,1544,1545,1544,0,0,0,0,0,0,0,0,0,0
1706444756.09991908,101328619,1545,1545,1545,1545,0,0,0,0,0,0,0,0,0,0
1706444756.19987917,101428579,1544,1544,1544,1544,0,0,0,0,0,0,0,0,0,0
1706444756.29983902,101528539,1544,1544,1544,1545,0,0,0,0,0,0,0,0,0,0
1706444756.39979911,101628499,1544,1544,1544,1544,0,0,0,0,0,0,0,0,0,0
1706444756.49975896,101728459,1545,1544,1544,1544,0,0,0,0,0,0,0,0,0,0
1706444756.59971905,101828419,1544,1544,1544,1543,0,0,0,0,0,0,0,0,0,0
1706444756.69967914,101928379,1543,1543,1543,1543,0,0,0,0,0,0,0,0,0,0
1706444756.79963899,102028339,1544,1544,1544,1544,0,0,0,0,0,0,0,0,0,0
1706444756.89959908,102128299,1543,1544,1543,1544,0,0,0,0,0,0,0,0,0,0
1706444756.99955916,102228259,1544,1544,1544,1544,0,0,0,0,0,0,0,0,0,0
1706444757.09951901,102328219,1545,1545,1544,1545,0,0,0,0,0,0,0,0,0,0
1706444757.19947910,102428179,1544,1544,1544,1544,0,0,0,0,0,0,0,0,0,0
1706444757.30027199,102528972,1544,1544,1544,1544,0,0,0,0,0,0,0,0,0,0
1706444757.40023208,102628932,1543,1544,1544,1543,0,0,0,0,0,0,0,0,0,0
1706444757.50019217,102728892,1544,1544,1544,1544,0,0,0,0,0,0,0,0,0,0
1706444757.60015202,102828852,1544,1543,1544,1543,0,0,0,0,0,0,0,0,0,0
1706444757.70011210,102928812,1544,1543,1544,1544,0,0,0,0,0,0,0,0,0,0
1706444757.80007219,103028772,1544,1543,1544,1544,0,0,0,0,0,0,0,0,0,0
1706444757.90003204,103128732,1544,1543,1543,1544,0,0,0,0,0,0,0,0,0,0
1706444757.99999213,103228692,1544,1544,1544,1544,0,0,0,0,0,0,0,0,0,0
1706444758.09995198,103328652,1544,1544,1543,1544,0,0,0,0,0,0,0,0,0,0
1706444758.19991207,103428612,1544,1544,1544,1544,0,0,0,0,0,0,0,0,0,0
1706444758.29987216,103528572,1544,1544,1544,1544,0,0,0,0,0,0,0,0,0,0
1706444758.39983201,103628532,1545,1545,1545,1545,0,0,0,0,0,0,0,0,0,0
1706444758.49979210,103728492,1544,1544,1544,1544,0,0,0,0,0,0,0,0,0,0
1706444758.59975219,103828452,1545,1545,1545,1545,0,0,0,0,0,0,0,0,0,0
1706444758.69971204,103928412,1545,1545,1545,1545,0,0,0,0,0,0,0,0,0,0
1706444758.79967213,104028372,1544,1544,1545,1544,0,0,0,0,0,0,0,0,0,0
1706444758.89963198,104128332,1544,1544,1544,1544,0,0,0,0,0,0,0,0,0,0
1706444758.99959207,104228292,1545,1545,1545,1545,0,0,0,0,0,0,0,0,0,0
1706444759.09955215,104328252,1540,1536,1538,1539,0,0,0,0,0,0,0,0,0,0
1706444759.19951200,104428212,1381,1348,1382,1348,0,0,0,0,0,0,0,0,0,0
1706444759.29947209,104528172,1304,1246,1304,1246,0,0,0,0,0,0,0,0,0,0
1706444759.40026498,104628965,1280,1214,1280,1214,0,0,0,0,0,0,0,0,0,0
1706444759.50022507,104728925,1265,1190,1264,1192,0,0,0,0,0,0,0,0,0,0
1706444759.60018516,104828885,1237,1150,1237,1151,0,0,0,0,0,0,0,0,0,0
1706444759.70014501,104928845,1177,1150,1176,1151,0,0,0,0,0,0,0,0,0,0
1706444759.80010509,105028805,1177,1150,1177,1150,0,0,0,0,0,0,0,0,0,0
1706444759.90006518,105128765,1177,1150,1176,1151,0,0,0,0,0,0,0,0,0,0
1706444760.00002503,105228725,1177,1150,1163,1169,0,0,0,0,0,0,0,0,0,0
1706444760.09998512,105328685,1177,1150,1166,1166,0,0,0,0,0,0,0,0,0,0
1706444760.19994497,105428645,1177,1150,1169,1161,0,0,0,0,0,0,0,0,0,0
1706444760.29990506,105528605,1177,1150,1169,1161,0,0,0,0,0,0,0,0,0,0
1706444760.39986515,105628565,1177,1150,1169,1162,0,0,0,0,0,0,0,0,0,0
1706444760.49982500,105728525,1177,1150,1168,1163,0,0,0,0,0,0,0,0,0,0
1706444760.59978509,105828485,1177,1150,1167,1163,0,0,0,0,0,0,0,0,0,0
1706444760.69974518,105928445,1177,1150,1167,1164,0,0,0,0,0,0,0,0,0,0
1706444760.79970503,106028405,1177,1150,1175,1153,0,0,0,0,0,0,0,0,0,0
1706444760.89966512,106128365,1177,1150,1173,1156,0,0,0,0,0,0,0,0,0,0
1706444760.99962497,106228325,1177,1150,1173,1156,0,0,0,0,0,0,0,0,0,0
1706444761.09958506,106328285,1177,1150,1173,1157,0,0,0,0,0,0,0,0,0,0
1706444761.19954515,106428245,1177,1150,1172,1157,0,0,0,0,0,0,0,0,0,0
1706444761.29950500,106528205,1000,1000,1000,1000,0,0,0,0,0,0,0,0,0,0
1706444761.39946508,106628165,1000,1000,1000,1000,0,0,0,0,0,0,0,0,0,0
1706444761.50025797,106728958,1000,1000,1000,1000,0,0,0,0,0,0,0,0,0,0
1706444761.60021806,106828918,1000,1000,1000,1000,0,0,0,0,0,0,0,0,0,0
1706444761.70017815,106928878,1000,1000,1000,1000,0,0,0,0,0,0,0,0,0,0
1706444761.80013800,107028838,1000,1000,1000,1000,0,0,0,0,0,0,0,0,0,0
1706444761.90009809,107128798,1000,1000,1000,1000,0,0,0,0,0,0,0,0,0,0
1706444762.00005817,107228758,1000,1000,1000,1000,0,0,0,0,0,0,0,0,0,0
1706444762.10001802,107328718,1000,1000,1000,1000,0,0,0,0,0,0,0,0,0,0
1706444762.19997811,107428678,1000,1000,1000,1000,0,0,0,0,0,0,0,0,0,0
1706444762.29993796,107528638,1000,1000,1000,1000,0,0,0,0,0,0,0,0,0,0
1706444762.39989805,107628598,1000,1000,1000,1000,0,0,0,0,0,0,0,0,0,0
1706444762.49985814,107728558,1000,1000,1000,1000,0,0,0,0,0,0,0,0,0,0
1706444762.59981799,107828518,1000,1000,1000,1000,0,0,0,0,0,0,0,0,0,0
1706444762.69977808,107928478,1000,1000,1000,1000,0,0,0,0,0,0,0,0,0,0
1706444762.79973817,108028438,1000,1000,1000,1000,0,0,0,0,0,0,0,0,0,0
1706444762.89969802,108128398,1000,1000,1000,1000,0,0,0,0,0,0,0,0,0,0
1706444762.99965811,108228358,1000,1000,1000,1000,0,0,0,0,0,0,0,0,0,0
1706444763.09961820,108328318,1000,1000,1000,1000,0,0,0,0,0,0,0,0,0,0
1706444763.19957805,108428278,1000,1000,1000,1000,0,0,0,0,0,0,0,0,0,0
1706444763.29953814,108528238,1000,1000,1000,1000,0,0,0,0,0,0,0,0,0,0
1706444763.39949799,108628198,1000,1000,1000,1000,0,0,0,0,0,0,0,0,0,0
1706444763.49945807,108728158,1000,1000,1000,1000,0,0,0,0,0,0,0,0,0,0
1706444763.60025096,108828951,1000,1000,1000,1000,0,0,0,0,0,0,0,0,0,0
1706444763.70021105,108928911,1000,1000,1000,1000,0,0,0,0,0,0,0,0,0,0
1706444763.80017114,109028871,1000,1000,1000,1000,0,0,0,0,0,0,0,0,0,0
1706444763.90013099,109128831,1000,1000,1000,1000,0,0,0,0,0,0,0,0,0,0
1706444764.00009108,109228791,1000,1000,1000,1000,0,0,0,0,0,0,0,0,0,0
1706444764.10005116,109328751,1000,1000,1000,1000,0,0,0,0,0,0,0,0,0,0
1706444764.20001101,109428711,1000,1000,1000,1000,0,0,0,0,0,0,0,0,0,0
1706444764.29997110,109528671,1000,1000,1000,1000,0,0,0,0,0,0,0,0,0,0
1706444764.39993119,109628631,1000,1000,1000,1000,0,0,0,0,0,0,0,0,0,0
1706444764.49989104,109728591,1000,1000,1000,1000,0,0,0,0,0,0,0,0,0,0
1706444764.59985113,109828551,1000,1000,1000,1000,0,0,0,0,0,0,0,0,0,0
1706444764.69981098,109928511,1000,1000,1000,1000,0,0,0,0,0,0,0,0,0,0
1706444764.79977107,110028471,1000,1000,1000,1000,0,0,0,0,0,0,0,0,0,0
1706444764.89973116,110128431,1000,1000,1000,1000,0,0,0,0,0,0,0,0,0,0
1706444764.99969101,110228391,1000,1000,1000,1000,0,0,0,0,0,0,0,0,0,0
1706444765.09965110,110328351,1000,1000,1000,1000,0,0,0,0,0,0,0,0,0,0
1706444765.19961119,110428311,1000,1000,1000,1000,0,0,0,0,0,0,0,0,0,0
1706444765.29957104,110528271,1000,1000,1000,1000,0,0,0,0,0,0,0,0,0,0
1706444765.39953113,110628231,1000,1000,1000,1000,0,0,0,0,0,0,0,0,0,0
1706444765.49949098,110728191,1000,1000,1000,1000,0,0,0,0,0,0,0,0,0,0
1706444765.60028410,110828984,1000,1000,1000,1000,0,0,0,0,0,0,0,0,0,0
1706444765.70024419,110928944,1000,1000,1000,1000,0,0,0,0,0,0,0,0,0,0
1706444765.80020404,111028904,1000,1000,1000,1000,0,0,0,0,0,0,0,0,0,0
1706444765.90016413,111128864,1000,1000,1000,1000,0,0,0,0,0,0,0,0,0,0
1706444766.00012398,111228824,1000,1000,1000,1000,0,0,0,0,0,0,0,0,0,0
1706444766.10008407,111328784,1000,1000,1000,1000,0,0,0,0,0,0,0,0,0,0
1706444766.20004416,111428744,1000,1000,1000,1000,0,0,0,0,0,0,0,0,0,0
1706444766.30000401,111528704,1000,1000,1000,1000,0,0,0,0,0,0,0,0,0,0
1706444766.39996409,111628664,1000,1000,1000,1000,0,0,0,0,0,0,0,0,0,0
1706444766.49992418,111728624,1000,1000,1000,1000,0,0,0,0,0,0,0,0,0,0
1706444766.59988403,111828584,1000,1000,1000,1000,0,0,0,0,0,0,0,0,0,0
1706444766.69984412,111928544,1000,1000,1000,1000,0,0,0,0,0,0,0,0,0,0
1706444766.79980397,112028504,1000,1000,1000,1000,0,0,0,0,0,0,0,0,0,0
1706444766.89976406,112128464,1000,1000,1000,1000,0,0,0,0,0,0,0,0,0,0
1706444766.99972415,112228424,1000,1000,1000,1000,0,0,0,0,0,0,0,0,0,0
1706444767.09968400,112328384,1000,1000,1000,1000,0,0,0,0,0,0,0,0,0,0
1706444767.19964409,112428344,1000,1000,1000,1000,0,0,0,0,0,0,0,0,0,0
1706444767.29960418,112528304,1000,1000,1000,1000,0,0,0,0,0,0,0,0,0,0
1706444767.39956403,112628264,1000,1000,1000,1000,0,0,0,0,0,0,0,0,0,0
1706444767.49952412,112728224,1000,1000,1000,1000,0,0,0,0,0,0,0,0,0,0
1706444767.59948397,112828184,1000,1000,1000,1000,0,0,0,0,0,0,0,0,0,0
1706444767.70027709,112928977,1000,1000,1000,1000,0,0,0,0,0,0,0,0,0,0
1706444767.80023718,113028937,1000,1000,1000,1000,0,0,0,0,0,0,0,0,0,0
1706444767.90019703,113128897,1000,1000,1000,1000,0,0,0,0,0,0,0,0,0,0
1706444768.00015712,113228857,1000,1000,1000,1000,0,0,0,0,0,0,0,0,0,0
1706444768.10011697,113328817,1000,1000,1000,1000,0,0,0,0,0,0,0,0,0,0
1706444768.20007706,113428777,1000,1000,1000,1000,0,0,0,0,0,0,0,0,0,0
1706444768.30003715,113528737,1000,1000,1000,1000,0,0,0,0,0,0,0,0,0,0
1706444768.39999700,113628697,1000,1000,1000,1000,0,0,0,0,0,0,0,0,0,0
1706444768.49995708,113728657,1000,1000,1000,1000,0,0,0,0,0,0,0,0,0,0
1706444768.59991717,113828617,1000,1000,1000,1000,0,0,0,0,0,0,0,0,0,0
1706444768.69987702,113928577,1000,1000,1000,1000,0,0,0,0,0,0,0,0,0,0
1706444768.79983711,114028537,1000,1000,1000,1000,0,0,0,0,0,0,0,0,0,0
1706444768.89979696,114128497,1000,1000,1000,1000,0,0,0,0,0,0,0,0,0,0
1706444768.99975705,114228457,1000,1000,1000,1000,0,0,0,0,0,0,0,0,0,0
1706444769.09971714,114328417,1000,1000,1000,1000,0,0,0,0,0,0,0,0,0,0
1706444769.19967699,114428377,1000,1000,1000,1000,0,0,0,0,0,0,0,0,0,0
1706444769.29963708,114528337,1000,1000,1000,1000,0,0,0,0,0,0,0,0,0,0
1706444769.39959717,114628297,1000,1000,1000,1000,0,0,0,0,0,0,0,0,0,0
1706444769.49955702,114728257,1000,1000,1000,1000,0,0,0,0,0,0,0,0,0,0
1706444769.59951711,114828217,1000,1000,1000,1000,0,0,0,0,0,0,0,0,0,0
1706444769.69947720,114928177,1000,1000,1000,1000,0,0,0,0,0,0,0,0,0,0
1706444769.80027008,115028970,1000,1000,1000,1000,0,0,0,0,0,0,0,0,0,0
1706444769.90023017,115128930,1000,1000,1000,1000,0,0,0,0,0,0,0,0,0,0
1706444770.00019002,115228890,1000,1000,1000,1000,0,0,0,0,0,0,0,0,0,0
1706444770.10015011,115328850,1000,1000,1000,1000,0,0,0,0,0,0,0,0,0,0
1706444770.20010996,115428810,1000,1000,1000,1000,0,0,0,0,0,0,0,0,0,0
1706444770.30007005,115528770,1000,1000,1000,1000,0,0,0,0,0,0,0,0,0,0
1706444770.40003014,115628730,1000,1000,1000,1000,0,0,0,0,0,0,0,0,0,0
1706444770.49998999,115728690,1000,1000,1000,1000,0,0,0,0,0,0,0,0,0,0
1706444770.59995008,115828650,1000,1000,1000,1000,0,0,0,0,0,0,0,0,0,0
1706444770.69991016,115928610,1000,1000,1000,1000,0,0,0,0,0,0,0,0,0,0
1706444770.79987001,116028570,1000,1000,1000,1000,0,0,0,0,0,0,0,0,0,0
1706444770.89983010,116128530,1000,1000,1000,1000,0,0,0,0,0,0,0,0,0,0
1706444770.99979019,116228490,1000,1000,1000,1000,0,0,0,0,0,0,0,0,0,0
1706444771.09975004,116328450,1000,1000,1000,1000,0,0,0,0,0,0,0,0,0,0
1706444771.19971013,116428410,1000,1000,1000,1000,0,0,0,0,0,0,0,0,0,0
1706444771.29966998,116528370,1000,1000,1000,1000,0,0,0,0,0,0,0,0,0,0
1706444771.39963007,116628330,1000,1000,1000,1000,0,0,0,0,0,0,0,0,0,0
1706444771.49959016,116728290,1000,1000,1000,1000,0,0,0,0,0,0,0,0,0,0
1706444771.59955001,116828250,1000,1000,1000,1000,0,0,0,0,0,0,0,0,0,0
1706444771.69951010,116928210,1000,1000,1000,1000,0,0,0,0,0,0,0,0,0,0
1706444771.79947019,117028170,1000,1000,1000,1000,0,0,0,0,0,0,0,0,0,0
1706444771.90026307,117128963,1000,1000,1000,1000,0,0,0,0,0,0,0,0,0,0
1706444772.00022316,117228923,1000,1000,1000,1000,0,0,0,0,0,0,0,0,0,0
1706444772.10018301,117328883,1000,1000,1000,1000,0,0,0,0,0,0,0,0,0,0
1706444772.20014310,117428843,1000,1000,1000,1000,0,0,0,0,0,0,0,0,0,0
1706444772.30010319,117528803,1000,1000,1000,1000,0,0,0,0,0,0,0,0,0,0
1706444772.40006304,117628763,1000,1000,1000,1000,0,0,0,0,0,0,0,0,0,0
1706444772.50002313,117728723,1000,1000,1000,1000,0,0,0,0,0,0,0,0,0,0
1706444772.59998298,117828683,1000,1000,1000,1000,0,0,0,0,0,0,0,0,0,0
1706444772.69994307,117928643,1000,1000,1000,1000,0,0,0,0,0,0,0,0,0,0
1706444772.79990315,118028603,1000,1000,1000,1000,0,0,0,0,0,0,0,0,0,0
1706444772.89986300,118128563,1000,1000,1000,1000,0,0,0,0,0,0,0,0,0,0
1706444772.99982309,118228523,1000,1000,1000,1000,0,0,0,0,0,0,0,0,0,0
1706444773.09978318,118328483,1000,1000,1000,1000,0,0,0,0,0,0,0,0,0,0
1706444773.19974303,118428443,1000,1000,1000,1000,0,0,0,0,0,0,0,0,0,0
1706444773.29970312,118528403,1000,1000,1000,1000,0,0,0,0,0,0,0,0,0,0
1706444773.39966297,118628363,1000,1000,1000,1000,0,0,0,0,0,0,0,0,0,0
1706444773.49962306,118728323,1000,1000,1000,1000,0,0,0,0,0,0,0,0,0,0
1706444773.59958315,118828283,1000,1000,1000,1000,0,0,0,0,0,0,0,0,0,0
1706444773.69954300,118928243,1000,1000,1000,1000,0,0,0,0,0,0,0,0,0,0
1706444773.79950309,119028203,1000,1000,1000,1000,0,0,0,0,0,0,0,0,0,0
1706444773.89946318,119128163,1000,1000,1000,1000,0,0,0,0,0,0,0,0,0,0
1706444774.00025606,119228956,1000,1000,1000,1000,0,0,0,0,0,0,0,0,0,0
1706444774.10021615,119328916,1000,1000,1000,1000,0,0,0,0,0,0,0,0,0,0
1706444774.20017600,119428876,1000,1000,1000,1000,0,0,0,0,0,0,0,0,0,0
1706444774.30013609,119528836,1000,1000,1000,1000,0,0,0,0,0,0,0,0,0,0
1706444774.40009618,119628796,1000,1000,1000,1000,0,0,0,0,0,0,0,0,0,0
1706444774.50005603,119728756,1000,1000,1000,1000,0,0,0,0,0,0,0,0,0,0
1706444774.60001612,119828716,1000,1000,1000,1000,0,0,0,0,0,0,0,0,0,0
1706444774.69997597,119928676,1000,1000,1000,1000,0,0,0,0,0,0,0,0,0,0
1706444774.79993606,120028636,1000,1000,1000,1000,0,0,0,0,0,0,0,0,0,0
1706444774.89989614,120128596,1000,1000,1000,1000,0,0,0,0,0,0,0,0,0,0
