TimeUS,M1,M2,M3,M4,TimeUS,C1,C2,C3,C4
53148732,1000,1000,1000,1000,53228700,1000,1000,1000,1000
53151231,1000,1000,1000,1000,53328660,1000,1000,1000,1000
53153730,1000,1000,1000,1000,53428620,1000,1000,1000,1000
53156229,1000,1000,1000,1000,53528580,1000,1000,1000,1000
53158728,1000,1000,1000,1000,53628540,1000,1000,1000,1000
53161227,1000,1000,1000,1000,53728500,1000,1000,1000,1000
53163726,1000,1000,1000,1000,53828460,1000,1000,1000,1000
53166225,1000,1000,1000,1000,53928420,1000,1000,1000,1000
53168724,1000,1000,1000,1000,54028380,1000,1000,1000,1000
53171223,1000,1000,1000,1000,54128340,1000,1000,1000,1000
53173722,1000,1000,1000,1000,54228300,1000,1000,1000,1000
53176221,1000,1000,1000,1000,54328260,1000,1000,1000,1000
53178720,1000,1000,1000,1000,54428220,1000,1000,1000,1000
53181219,1000,1000,1000,1000,54528180,1000,1000,1000,1000
53183718,1000,1000,1000,1000,54628973,1000,1000,1000,1000
53186217,1000,1000,1000,1000,54728933,1000,1000,1000,1000
53188716,1000,1000,1000,1000,54828893,1000,1000,1000,1000
53191215,1000,1000,1000,1000,54928853,1000,1000,1000,1000
53193714,1000,1000,1000,1000,55028813,1000,1000,1000,1000
53196213,1000,1000,1000,1000,55128773,1000,1000,1000,1000
53198712,1000,1000,1000,1000,55228733,1024,1024,1024,1024
53201211,1000,1000,1000,1000,55328693,1054,1054,1054,1054
53203710,1000,1000,1000,1000,55428653,1084,1084,1084,1084
53206209,1000,1000,1000,1000,55528613,1113,1113,1113,1113
53208708,1000,1000,1000,1000,55628573,1143,1143,1143,1143
53211207,1000,1000,1000,1000,55728533,1357,1351,1351,1358
53213706,1000,1000,1000,1000,55828493,1546,1541,1542,1547
53216205,1000,1000,1000,1000,55928453,1699,1694,1695,1699
53218704,1000,1000,1000,1000,56028413,1830,1825,1826,1830
53221203,1000,1000,1000,1000,56128373,1835,1830,1830,1835
53223702,1000,1000,1000,1000,56228333,1827,1825,1825,1827
53226201,1000,1000,1000,1000,56328293,1695,1695,1695,1696
53228700,1000,1000,1000,1000,56428253,1615,1617,1617,1615
53231199,1000,1000,1000,1000,56528213,1605,1608,1608,1605
53233698,1000,1000,1000,1000,56628173,1623,1625,1625,1623
53236197,1000,1000,1000,1000,56728966,1637,1638,1638,1637
53238696,1000,1000,1000,1000,56828926,1639,1638,1639,1638
53241195,1000,1000,1000,1000,56928886,1632,1632,1631,1633
53243694,1000,1000,1000,1000,57028846,1623,1623,1623,1624
53246193,1000,1000,1000,1000,57128806,1606,1606,1598,1614
53248692,1000,1000,1000,1000,57228766,1603,1602,1594,1610
53251191,1000,1000,1000,1000,57328726,1602,1602,1599,1605
53253690,1000,1000,1000,1000,57428686,1606,1606,1607,1605
53256189,1000,1000,1000,1000,57528646,1611,1611,1614,1607
53258688,1000,1000,1000,1000,57628606,1617,1618,1622,1614
53261187,1000,1000,1000,1000,57728566,1593,1593,1607,1579
53263686,1000,1000,1000,1000,57828526,1577,1578,1593,1563
53266185,1000,1000,1000,1000,57928486,1566,1567,1573,1561
53268684,1000,1000,1000,1000,58028446,1556,1555,1550,1562
53271183,1000,1000,1000,1000,58128406,1547,1546,1535,1559
53273682,1000,1000,1000,1000,58228366,1540,1539,1528,1551
53276181,1000,1000,1000,1000,58328326,1534,1533,1526,1541
53278680,1000,1000,1000,1000,58428286,1529,1529,1526,1532
53281179,1000,1000,1000,1000,58528246,1529,1529,1530,1529
53283678,1000,1000,1000,1000,58628206,1530,1531,1533,1528
53286177,1000,1000,1000,1000,58728166,1534,1534,1537,1530
53288676,1000,1000,1000,1000,58828959,1536,1537,1541,1533
53291175,1000,1000,1000,1000,58928919,1540,1541,1543,1538
53293674,1000,1000,1000,1000,59028879,1543,1543,1545,1542
53296173,1000,1000,1000,1000,59128839,1547,1546,1546,1546
53298672,1000,1000,1000,1000,59228799,1550,1549,1548,1551
53301171,1000,1000,1000,1000,59328759,1552,1551,1550,1554
53303670,1000,1000,1000,1000,59428719,1549,1548,1556,1560
53306169,1000,1000,1000,1000,59528679,1551,1551,1560,1563
53308668,1000,1000,1000,1000,59628639,1553,1554,1562,1562
53311167,1000,1000,1000,1000,59728599,1557,1558,1563,1562
53313666,1000,1000,1000,1000,59828559,1562,1562,1564,1562
53316165,1000,1000,1000,1000,59928519,1566,1566,1564,1563
53318664,1000,1000,1000,1000,60028479,1569,1569,1564,1564
53321163,1000,1000,1000,1000,60128439,1570,1570,1564,1564
53323662,1000,1000,1000,1000,60228399,1572,1571,1565,1566
53326161,1000,1000,1000,1000,60328359,1573,1572,1566,1567
53328660,1000,1000,1000,1000,60428319,1573,1573,1567,1568
53331159,1000,1000,1000,1000,60528279,1572,1572,1568,1568
53333658,1000,1000,1000,1000,60628239,1572,1572,1570,1569
53336157,1000,1000,1000,1000,60728199,1573,1573,1572,1572
53338656,1000,1000,1000,1000,60828159,1573,1573,1573,1572
53341155,1000,1000,1000,1000,60928952,1573,1573,1575,1573
53343654,1000,1000,1000,1000,61028912,1574,1574,1577,1575
53346153,1000,1000,1000,1000,61128872,1574,1574,1576,1576
53348652,1000,1000,1000,1000,61228832,1573,1574,1576,1576
53351151,1000,1000,1000,1000,61328792,1574,1574,1576,1577
53353650,1000,1000,1000,1000,61428752,1576,1576,1577,1578
53356149,1000,1000,1000,1000,61528712,1575,1574,1576,1576
53358648,1000,1000,1000,1000,61628672,1575,1575,1576,1575
53361147,1000,1000,1000,1000,61728632,1576,1576,1576,1576
53363646,1000,1000,1000,1000,61828592,1576,1576,1576,1576
53366145,1000,1000,1000,1000,61928552,1577,1577,1576,1577
53368644,1000,1000,1000,1000,62028512,1577,1578,1577,1577
53371143,1000,1000,1000,1000,62128472,1579,1578,1578,1577
53373642,1000,1000,1000,1000,62228432,1579,1578,1577,1577
53376141,1000,1000,1000,1000,62328392,1579,1578,1578,1578
53378640,1000,1000,1000,1000,62428352,1578,1579,1578,1578
53381139,1000,1000,1000,1000,62528312,1578,1578,1578,1578
53383638,1000,1000,1000,1000,62628272,1579,1579,1579,1579
53386137,1000,1000,1000,1000,62728232,1578,1579,1579,1579
53388636,1000,1000,1000,1000,62828192,1579,1579,1579,1579
53391135,1000,1000,1000,1000,62928985,1579,1579,1580,1580
53393634,1000,1000,1000,1000,63028945,1578,1579,1579,1579
53396133,1000,1000,1000,1000,63128905,1578,1578,1579,1579
53398632,1000,1000,1000,1000,63228865,1578,1579,1580,1579
53401131,1000,1000,1000,1000,63328825,1579,1579,1580,1579
53403630,1000,1000,1000,1000,63428785,1580,1580,1580,1580
53406129,1000,1000,1000,1000,63528745,1579,1579,1579,1580
53408628,1000,1000,1000,1000,63628705,1580,1579,1580,1579
53411127,1000,1000,1000,1000,63728665,1579,1579,1579,1579
53413626,1000,1000,1000,1000,63828625,1579,1579,1578,1579
53416125,1000,1000,1000,1000,63928585,1579,1579,1579,1579
53418624,1000,1000,1000,1000,64028545,1580,1580,1580,1580
53421123,1000,1000,1000,1000,64128505,1581,1580,1581,1580
53423622,1000,1000,1000,1000,64228465,1579,1579,1579,1579
53426121,1000,1000,1000,1000,64328425,1579,1579,1579,1579
53428620,1000,1000,1000,1000,64428385,1580,1580,1581,1580
53431119,1000,1000,1000,1000,64528345,1580,1581,1580,1580
53433618,1000,1000,1000,1000,64628305,1580,1581,1581,1581
53436117,1000,1000,1000,1000,64728265,1581,1581,1581,1581
53438616,1000,1000,1000,1000,64828225,1580,1580,1580,1580
53441115,1000,1000,1000,1000,64928185,1581,1581,1581,1582
53443614,1000,1000,1000,1000,65028978,1581,1581,1581,1581
53446113,1000,1000,1000,1000,65128938,1580,1580,1580,1581
53448612,1000,1000,1000,1000,65228898,1581,1581,1581,1581
53451111,1000,1000,1000,1000,65328858,1581,1580,1581,1580
53453610,1000,1000,1000,1000,65428818,1580,1580,1580,1580
53456109,1000,1000,1000,1000,65528778,1581,1581,1581,1581
53458608,1000,1000,1000,1000,65628738,1582,1581,1585,1578
53461107,1000,1000,1000,1000,65728698,1581,1582,1588,1573
53463606,1000,1000,1000,1000,65828658,1579,1582,1581,1573
53466105,1000,1000,1000,1000,65928618,1577,1580,1572,1573
53468604,1000,1000,1000,1000,66028578,1576,1579,1564,1570
53471103,1000,1000,1000,1000,66128538,1577,1579,1559,1566
53473602,1000,1000,1000,1000,66228498,1578,1578,1556,1561
53476101,1000,1000,1000,1000,66328458,1579,1578,1555,1558
53478600,1000,1000,1000,1000,66428418,1579,1576,1555,1554
53481099,1000,1000,1000,1000,66528378,1577,1576,1555,1553
53483598,1000,1000,1000,1000,66628338,1576,1576,1555,1552
53486097,1000,1000,1000,1000,66728298,1575,1577,1555,1554
53488596,1000,1000,1000,1000,66828258,1575,1576,1555,1554
53491095,1000,1000,1000,1000,66928218,1574,1576,1554,1553
53493594,1000,1000,1000,1000,67028178,1574,1576,1552,1552
53496093,1000,1000,1000,1000,67128971,1575,1576,1550,1551
53498592,1000,1000,1000,1000,67228931,1577,1579,1549,1550
53501091,1000,1000,1000,1000,67328891,1579,1580,1547,1547
53503590,1000,1000,1000,1000,67428851,1582,1583,1544,1544
53506089,1000,1000,1000,1000,67528811,1585,1585,1541,1541
53508588,1000,1000,1000,1000,67628771,1588,1588,1539,1538
53511087,1000,1000,1000,1000,67728731,1591,1591,1536,1536
53513586,1000,1000,1000,1000,67828691,1594,1594,1535,1536
53516085,1000,1000,1000,1000,67928651,1595,1594,1534,1535
53518584,1000,1000,1000,1000,68028611,1596,1596,1536,1537
53521083,1000,1000,1000,1000,68128571,1594,1593,1537,1539
53523582,1000,1000,1000,1000,68228531,1592,1591,1541,1544
53526081,1000,1000,1000,1000,68328491,1587,1585,1547,1550
53528580,1000,1000,1000,1000,68428451,1580,1577,1555,1558
53531079,1000,1000,1000,1000,68528411,1571,1567,1566,1569
53533578,1000,1000,1000,1000,68628371,1560,1556,1579,1580
53536077,1000,1000,1000,1000,68728331,1549,1546,1591,1591
53538576,1000,1000,1000,1000,68828291,1539,1538,1602,1601
53541075,1000,1000,1000,1000,68928251,1533,1532,1610,1609
53543574,1000,1000,1000,1000,69028211,1529,1529,1614,1613
53546073,1000,1000,1000,1000,69128171,1529,1531,1615,1614
53548572,1000,1000,1000,1000,69228964,1533,1535,1613,1612
53551071,1000,1000,1000,1000,69328924,1540,1542,1608,1607
53553570,1000,1000,1000,1000,69428884,1548,1550,1601,1602
53556069,1000,1000,1000,1000,69528844,1556,1557,1593,1593
53558568,1000,1000,1000,1000,69628804,1566,1566,1586,1586
53561067,1000,1000,1000,1000,69728764,1573,1572,1579,1578
53563566,1000,1000,1000,1000,69828724,1581,1579,1574,1573
53566065,1000,1000,1000,1000,69928684,1585,1584,1570,1569
53568564,1000,1000,1000,1000,70028644,1588,1586,1567,1567
53571063,1000,1000,1000,1000,70128604,1588,1587,1567,1567
53573562,1000,1000,1000,1000,70228564,1588,1587,1567,1568
53576061,1000,1000,1000,1000,70328524,1586,1585,1569,1570
53578560,1000,1000,1000,1000,70428484,1583,1582,1571,1572
53581059,1000,1000,1000,1000,70528444,1580,1580,1575,1575
53583558,1000,1000,1000,1000,70628404,1578,1579,1579,1578
53586057,1000,1000,1000,1000,70728364,1576,1576,1582,1581
53588556,1000,1000,1000,1000,70828324,1574,1576,1584,1583
53591055,1000,1000,1000,1000,70928284,1573,1573,1584,1584
53593554,1000,1000,1000,1000,71028244,1572,1573,1584,1583
53596053,1000,1000,1000,1000,71128204,1573,1574,1584,1584
53598552,1000,1000,1000,1000,71228164,1574,1574,1583,1583
53601051,1000,1000,1000,1000,71328957,1574,1575,1581,1581
53603550,1000,1000,1000,1000,71428917,1576,1576,1580,1581
53606049,1000,1000,1000,1000,71528877,1578,1578,1580,1580
53608548,1000,1000,1000,1000,71628837,1579,1579,1579,1579
53611047,1000,1000,1000,1000,71728797,1549,1569,1545,1569
53613546,1000,1000,1000,1000,71828757,1593,1571,1590,1568
53616045,1000,1000,1000,1000,71928717,1627,1587,1624,1584
53618544,1000,1000,1000,1000,72028677,1647,1606,1643,1602
53621043,1000,1000,1000,1000,72128637,1644,1616,1640,1610
53623542,1000,1000,1000,1000,72228597,1626,1617,1621,1610
53626041,1000,1000,1000,1000,72328557,1602,1612,1599,1607
53628540,1000,1000,1000,1000,72428517,1582,1603,1584,1604
53631039,1000,1000,1000,1000,72528477,1572,1592,1580,1602
53633538,1000,1000,1000,1000,72628437,1567,1582,1580,1597
53636037,1000,1000,1000,1000,72728397,1569,1575,1584,1592
53638536,1000,1000,1000,1000,72828357,1572,1572,1586,1586
53641035,1000,1000,1000,1000,72928317,1577,1573,1587,1582
53643534,1000,1000,1000,1000,73028277,1580,1576,1585,1579
53646033,1000,1000,1000,1000,73128237,1581,1579,1581,1576
53648532,1000,1000,1000,1000,73228197,1582,1581,1576,1574
53651031,1000,1000,1000,1000,73328157,1582,1582,1572,1573
53653530,1000,1000,1000,1000,73428950,1581,1583,1570,1572
53656029,1000,1000,1000,1000,73528910,1580,1581,1568,1571
53658528,1000,1000,1000,1000,73628870,1579,1580,1568,1569
53661027,1000,1000,1000,1000,73728830,1580,1580,1575,1562
53663526,1000,1000,1000,1000,73828790,1580,1581,1574,1561
53666025,1000,1000,1000,1000,73928750,1577,1580,1567,1563
53668524,1000,1000,1000,1000,74028710,1575,1578,1561,1564
53671023,1000,1000,1000,1000,74128670,1573,1575,1556,1563
53673522,1000,1000,1000,1000,74228630,1572,1572,1553,1560
53676021,1000,1000,1000,1000,74328590,1573,1572,1554,1558
53678520,1000,1000,1000,1000,74428550,1573,1571,1554,1555
53681019,1000,1000,1000,1000,74528510,1573,1572,1554,1554
53683518,1000,1000,1000,1000,74628470,1572,1572,1554,1552
53686017,1000,1000,1000,1000,74728430,1571,1572,1553,1551
53688516,1000,1000,1000,1000,74828390,1572,1574,1553,1551
53691015,1000,1000,1000,1000,74928350,1573,1575,1552,1552
53693514,1000,1000,1000,1000,75028310,1574,1575,1551,1550
53696013,1000,1000,1000,1000,75128270,1575,1576,1549,1549
53698512,1000,1000,1000,1000,75228230,1578,1578,1547,1548
53701011,1000,1000,1000,1000,75328190,1581,1581,1546,1546
53703510,1000,1000,1000,1000,75428983,1582,1583,1543,1543
53706009,1000,1000,1000,1000,75528943,1584,1585,1540,1540
53708508,1000,1000,1000,1000,75628903,1587,1588,1539,1539
53711007,1000,1000,1000,1000,75728863,1589,1589,1537,1537
53713506,1000,1000,1000,1000,75828823,1591,1591,1536,1537
53716005,1000,1000,1000,1000,75928783,1591,1590,1536,1537
53718504,1000,1000,1000,1000,76028743,1590,1589,1538,1539
53721003,1000,1000,1000,1000,76128703,1588,1586,1542,1544
53723502,1000,1000,1000,1000,76228663,1584,1583,1546,1549
53726001,1000,1000,1000,1000,76328623,1579,1578,1552,1555
53728500,1000,1000,1000,1000,76428583,1572,1571,1558,1562
53730999,1000,1000,1000,1000,76528543,1567,1565,1568,1570
53733498,1000,1000,1000,1000,76628503,1558,1557,1576,1578
53735997,1000,1000,1000,1000,76728463,1551,1550,1586,1586
53738496,1000,1000,1000,1000,76828423,1545,1544,1594,1594
53740995,1000,1000,1000,1000,76928383,1541,1540,1601,1600
53743494,1000,1000,1000,1000,77028343,1538,1539,1605,1604
53745993,1000,1000,1000,1000,77128303,1538,1539,1606,1605
53748492,1000,1000,1000,1000,77228263,1539,1541,1605,1603
53750991,1000,1000,1000,1000,77328223,1543,1544,1601,1601
53753490,1000,1000,1000,1000,77428183,1549,1550,1597,1598
53755989,1000,1000,1000,1000,77528976,1555,1557,1592,1593
53758488,1000,1000,1000,1000,77628936,1561,1561,1585,1586
53760987,1000,1000,1000,1000,77728896,1568,1567,1580,1581
53763486,1000,1000,1000,1000,77828856,1573,1573,1576,1576
53765985,1000,1000,1000,1000,77928816,1578,1576,1573,1572
53768484,1000,1000,1000,1000,78028776,1580,1578,1570,1569
53770983,1000,1000,1000,1000,78128736,1584,1582,1569,1569
53773482,1000,1000,1000,1000,78228696,1583,1582,1568,1569
53775981,1000,1000,1000,1000,78328656,1583,1582,1570,1570
53778480,1000,1000,1000,1000,78428616,1582,1582,1571,1571
53780979,1000,1000,1000,1000,78528576,1580,1580,1573,1573
53783478,1000,1000,1000,1000,78628536,1578,1579,1575,1575
53785977,1000,1000,1000,1000,78728496,1577,1578,1577,1578
53788476,1000,1000,1000,1000,78828456,1576,1576,1580,1579
53790975,1000,1000,1000,1000,78928416,1575,1576,1582,1581
53793474,1000,1000,1000,1000,79028376,1574,1575,1582,1582
53795973,1000,1000,1000,1000,79128336,1575,1575,1583,1582
53798472,1000,1000,1000,1000,79228296,1576,1576,1584,1583
53800971,1000,1000,1000,1000,79328256,1576,1576,1583,1582
53803470,1000,1000,1000,1000,79428216,1576,1577,1582,1582
53805969,1000,1000,1000,1000,79528176,1577,1578,1581,1581
53808468,1000,1000,1000,1000,79628969,1580,1579,1581,1581
53810967,1000,1000,1000,1000,79728929,1580,1580,1580,1580
53813466,1000,1000,1000,1000,79828889,1581,1581,1580,1580
53815965,1000,1000,1000,1000,79928849,1581,1581,1579,1579
53818464,1000,1000,1000,1000,80028809,1582,1581,1579,1579
53820963,1000,1000,1000,1000,80128769,1581,1582,1579,1578
53823462,1000,1000,1000,1000,80228729,1581,1580,1578,1578
53825961,1000,1000,1000,1000,80328689,1580,1580,1578,1578
53828460,1000,1000,1000,1000,80428649,1580,1581,1578,1579
53830959,1000,1000,1000,1000,80528609,1579,1580,1578,1578
53833458,1000,1000,1000,1000,80628569,1580,1580,1579,1579
53835957,1000,1000,1000,1000,80728529,1580,1580,1580,1580
53838456,1000,1000,1000,1000,80828489,1579,1579,1580,1580
53840955,1000,1000,1000,1000,80928449,1579,1579,1580,1580
53843454,1000,1000,1000,1000,81028409,1579,1580,1581,1581
53845953,1000,1000,1000,1000,81128369,1579,1579,1580,1580
53848452,1000,1000,1000,1000,81228329,1580,1580,1581,1581
53850951,1000,1000,1000,1000,81328289,1580,1580,1581,1581
53853450,1000,1000,1000,1000,81428249,1580,1580,1580,1580
53855949,1000,1000,1000,1000,81528209,1580,1580,1580,1580
53858448,1000,1000,1000,1000,81628169,1580,1580,1580,1581
53860947,1000,1000,1000,1000,81728962,1581,1581,1581,1581
53863446,1000,1000,1000,1000,81828922,1582,1582,1582,1581
53865945,1000,1000,1000,1000,81928882,1582,1581,1581,1581
53868444,1000,1000,1000,1000,82028842,1581,1582,1581,1581
53870943,1000,1000,1000,1000,82128802,1581,1581,1581,1580
53873442,1000,1000,1000,1000,82228762,1582,1583,1583,1580
53875941,1000,1000,1000,1000,82328722,1582,1584,1588,1573
53878440,1000,1000,1000,1000,82428682,1581,1583,1583,1573
53880939,1000,1000,1000,1000,82528642,1579,1581,1575,1573
53883438,1000,1000,1000,1000,82628602,1577,1580,1567,1571
53885937,1000,1000,1000,1000,82728562,1576,1578,1560,1567
53888436,1000,1000,1000,1000,82828522,1577,1578,1556,1563
53890935,1000,1000,1000,1000,82928482,1579,1578,1555,1559
53893434,1000,1000,1000,1000,83028442,1579,1578,1555,1555
53895933,1000,1000,1000,1000,83128402,1580,1579,1556,1554
53898432,1000,1000,1000,1000,83228362,1579,1579,1556,1554
53900931,1000,1000,1000,1000,83328322,1579,1579,1557,1555
53903430,1000,1000,1000,1000,83428282,1578,1579,1556,1555
53905929,1000,1000,1000,1000,83528242,1577,1578,1555,1554
53908428,1000,1000,1000,1000,83628202,1576,1577,1554,1554
53910927,1000,1000,1000,1000,83728162,1576,1577,1552,1552
53913426,1000,1000,1000,1000,83828955,1576,1578,1550,1550
53915925,1000,1000,1000,1000,83928915,1578,1580,1548,1549
53918424,1000,1000,1000,1000,84028875,1580,1582,1546,1546
53920923,1000,1000,1000,1000,84128835,1583,1584,1544,1543
53923422,1000,1000,1000,1000,84228795,1586,1586,1542,1542
53925921,1000,1000,1000,1000,84328755,1589,1588,1540,1540
53928420,1000,1000,1000,1000,84428715,1591,1590,1538,1538
53930919,1000,1000,1000,1000,84528675,1593,1592,1538,1539
53933418,1000,1000,1000,1000,84628635,1593,1594,1538,1539
53935917,1000,1000,1000,1000,84728595,1593,1592,1538,1541
53938416,1000,1000,1000,1000,84828555,1592,1591,1542,1545
53940915,1000,1000,1000,1000,84928515,1589,1586,1547,1551
53943414,1000,1000,1000,1000,85028475,1583,1580,1555,1558
53945913,1000,1000,1000,1000,85128435,1574,1570,1564,1567
53948412,1000,1000,1000,1000,85228395,1564,1561,1575,1577
53950911,1000,1000,1000,1000,85328355,1555,1552,1587,1588
53953410,1000,1000,1000,1000,85428315,1545,1544,1597,1597
53955909,1000,1000,1000,1000,85528275,1539,1538,1605,1605
53958408,1000,1000,1000,1000,85628235,1534,1536,1611,1609
53960907,1000,1000,1000,1000,85728195,1533,1536,1613,1611
53963406,1000,1000,1000,1000,85828155,1536,1539,1612,1611
53965905,1000,1000,1000,1000,85928948,1540,1543,1608,1607
53968404,1000,1000,1000,1000,86028908,1547,1549,1603,1603
53970903,1000,1000,1000,1000,86128868,1556,1556,1598,1597
53973402,1000,1000,1000,1000,86228828,1563,1562,1590,1590
53975901,1000,1000,1000,1000,86328788,1570,1570,1583,1583
53978400,1000,1000,1000,1000,86428748,1576,1575,1577,1577
53980899,1000,1000,1000,1000,86528708,1581,1580,1572,1573
53983398,1000,1000,1000,1000,86628668,1584,1582,1568,1568
53985897,1000,1000,1000,1000,86728628,1586,1585,1566,1568
53988396,1000,1000,1000,1000,86828588,1586,1585,1566,1567
53990895,1000,1000,1000,1000,86928548,1585,1584,1567,1568
53993394,1000,1000,1000,1000,87028508,1584,1584,1570,1571
53995893,1000,1000,1000,1000,87128468,1581,1581,1572,1572
53998392,1000,1000,1000,1000,87228428,1581,1581,1577,1576
54000891,1000,1000,1000,1000,87328388,1578,1578,1579,1578
54003390,1000,1000,1000,1000,87428348,1577,1577,1582,1581
54005889,1000,1000,1000,1000,87528308,1576,1576,1584,1583
54008388,1000,1000,1000,1000,87628268,1574,1575,1585,1584
54010887,1000,1000,1000,1000,87728228,1574,1575,1585,1585
54013386,1000,1000,1000,1000,87828188,1574,1574,1584,1584
54015885,1000,1000,1000,1000,87928981,1574,1575,1583,1583
54018384,1000,1000,1000,1000,88028941,1575,1576,1583,1582
54020883,1000,1000,1000,1000,88128901,1576,1577,1581,1581
54023382,1000,1000,1000,1000,88228861,1577,1577,1579,1579
54025881,1000,1000,1000,1000,88328821,1578,1578,1578,1579
54028380,1000,1000,1000,1000,88428781,1581,1580,1579,1579
54030879,1000,1000,1000,1000,88528741,1581,1581,1578,1578
54033378,1000,1000,1000,1000,88628701,1582,1581,1577,1577
54035877,1000,1000,1000,1000,88728661,1582,1582,1578,1578
54038376,1000,1000,1000,1000,88828621,1582,1581,1577,1578
54040875,1000,1000,1000,1000,88928581,1582,1581,1578,1578
54043374,1000,1000,1000,1000,89028541,1581,1580,1578,1578
54045873,1000,1000,1000,1000,89128501,1580,1580,1579,1579
54048372,1000,1000,1000,1000,89228461,1580,1580,1579,1580
54050871,1000,1000,1000,1000,89328421,1579,1580,1580,1580
54053370,1000,1000,1000,1000,89428381,1579,1579,1580,1580
54055869,1000,1000,1000,1000,89528341,1579,1579,1580,1580
54058368,1000,1000,1000,1000,89628301,1580,1580,1581,1581
54060867,1000,1000,1000,1000,89728261,1579,1579,1581,1581
54063366,1000,1000,1000,1000,89828221,1579,1579,1581,1581
54065865,1000,1000,1000,1000,89928181,1580,1580,1581,1581
54068364,1000,1000,1000,1000,90028974,1581,1581,1582,1582
54070863,1000,1000,1000,1000,90128934,1581,1581,1582,1582
54073362,1000,1000,1000,1000,90228894,1581,1582,1585,1577
54075861,1000,1000,1000,1000,90328854,1581,1582,1587,1573
54078360,1000,1000,1000,1000,90428814,1580,1579,1582,1573
54080859,1000,1000,1000,1000,90528774,1577,1576,1575,1575
54083358,1000,1000,1000,1000,90628734,1573,1572,1569,1574
54085857,1000,1000,1000,1000,90728694,1569,1570,1565,1572
54088356,1000,1000,1000,1000,90828654,1568,1568,1564,1570
54090855,1000,1000,1000,1000,90928614,1568,1567,1565,1569
54093354,1000,1000,1000,1000,91028574,1566,1566,1565,1565
54095853,1000,1000,1000,1000,91128534,1566,1566,1567,1565
54098352,1000,1000,1000,1000,91228494,1566,1566,1568,1565
54100851,1000,1000,1000,1000,91328454,1564,1565,1566,1564
54103350,1000,1000,1000,1000,91428414,1564,1564,1565,1563
54105849,1000,1000,1000,1000,91528374,1563,1562,1564,1563
54108348,1000,1000,1000,1000,91628334,1562,1561,1562,1562
54110847,1000,1000,1000,1000,91728294,1561,1561,1561,1562
54113346,1000,1000,1000,1000,91828254,1561,1561,1561,1562
54115845,1000,1000,1000,1000,91928214,1560,1560,1561,1561
54118344,1000,1000,1000,1000,92028174,1560,1560,1561,1560
54120843,1000,1000,1000,1000,92128967,1560,1560,1560,1559
54123342,1000,1000,1000,1000,92228927,1560,1559,1560,1559
54125841,1000,1000,1000,1000,92328887,1559,1559,1559,1558
54128340,1000,1000,1000,1000,92428847,1560,1560,1560,1559
54130839,1000,1000,1000,1000,92528807,1558,1558,1558,1557
54133338,1000,1000,1000,1000,92628767,1559,1559,1559,1557
54135837,1000,1000,1000,1000,92728727,1559,1559,1559,1558
54138336,1000,1000,1000,1000,92828687,1558,1558,1559,1557
54140835,1000,1000,1000,1000,92928647,1559,1559,1560,1557
54143334,1000,1000,1000,1000,93028607,1559,1559,1560,1558
54145833,1000,1000,1000,1000,93128567,1559,1559,1558,1560
54148332,1000,1000,1000,1000,93228527,1560,1560,1558,1563
54150831,1000,1000,1000,1000,93328487,1560,1560,1557,1564
54153330,1000,1000,1000,1000,93428447,1560,1561,1558,1563
54155829,1000,1000,1000,1000,93528407,1561,1561,1559,1563
54158328,1000,1000,1000,1000,93628367,1561,1561,1561,1561
54160827,1000,1000,1000,1000,93728327,1562,1561,1563,1560
54163326,1000,1000,1000,1000,93828287,1561,1560,1562,1558
54165825,1000,1000,1000,1000,93928247,1559,1559,1558,1561
54168324,1000,1000,1000,1000,94028207,1557,1557,1555,1559
54170823,1000,1000,1000,1000,94128167,1552,1552,1551,1554
54173322,1000,1000,1000,1000,94228960,1547,1547,1546,1548
54175821,1000,1000,1000,1000,94328920,1540,1541,1540,1540
54178320,1000,1000,1000,1000,94428880,1534,1534,1535,1533
54180819,1000,1000,1000,1000,94528840,1527,1527,1528,1526
54183318,1000,1000,1000,1000,94628800,1521,1521,1521,1521
54185817,1000,1000,1000,1000,94728760,1518,1519,1519,1519
54188316,1000,1000,1000,1000,94828720,1520,1521,1520,1521
54190815,1000,1000,1000,1000,94928680,1521,1522,1521,1522
54193314,1000,1000,1000,1000,95028640,1524,1525,1524,1525
54195813,1000,1000,1000,1000,95128600,1528,1528,1528,1528
54198312,1000,1000,1000,1000,95228560,1533,1533,1533,1533
54200811,1000,1000,1000,1000,95328520,1538,1537,1538,1537
54203310,1000,1000,1000,1000,95428480,1541,1540,1541,1540
54205809,1000,1000,1000,1000,95528440,1543,1542,1543,1542
54208308,1000,1000,1000,1000,95628400,1545,1544,1545,1544
54210807,1000,1000,1000,1000,95728360,1546,1546,1546,1546
54213306,1000,1000,1000,1000,95828320,1546,1546,1546,1546
54215805,1000,1000,1000,1000,95928280,1547,1547,1547,1547
54218304,1000,1000,1000,1000,96028240,1547,1547,1547,1547
54220803,1000,1000,1000,1000,96128200,1546,1547,1547,1546
54223302,1000,1000,1000,1000,96228160,1546,1547,1547,1546
54225801,1000,1000,1000,1000,96328953,1546,1545,1546,1545
54228300,1000,1000,1000,1000,96428913,1546,1546,1546,1547
54230799,1000,1000,1000,1000,96528873,1546,1545,1546,1546
54233298,1000,1000,1000,1000,96628833,1546,1546,1546,1546
54235797,1000,1000,1000,1000,96728793,1545,1545,1545,1545
54238296,1000,1000,1000,1000,96828753,1546,1545,1545,1545
54240795,1000,1000,1000,1000,96928713,1545,1545,1545,1544
54243294,1000,1000,1000,1000,97028673,1545,1545,1545,1545
54245793,1000,1000,1000,1000,97128633,1544,1544,1544,1544
54248292,1000,1000,1000,1000,97228593,1544,1545,1545,1544
54250791,1000,1000,1000,1000,97328553,1544,1544,1544,1543
54253290,1000,1000,1000,1000,97428513,1543,1543,1543,1543
54255789,1000,1000,1000,1000,97528473,1544,1544,1544,1545
54258288,1000,1000,1000,1000,97628433,1544,1544,1544,1544
54260787,1000,1000,1000,1000,97728393,1545,1545,1545,1545
54263286,1000,1000,1000,1000,97828353,1544,1543,1544,1544
54265785,1000,1000,1000,1000,97928313,1544,1544,1544,1544
54268284,1000,1000,1000,1000,98028273,1544,1544,1544,1544
54270783,1000,1000,1000,1000,98128233,1544,1544,1544,1544
54273282,1000,1000,1000,1000,98228193,1544,1544,1544,1544
54275781,1000,1000,1000,1000,98328986,1545,1544,1545,1544
54278280,1000,1000,1000,1000,98428946,1543,1543,1543,1543
54280779,1000,1000,1000,1000,98528906,1543,1543,1543,1543
54283278,1000,1000,1000,1000,98628866,1543,1544,1543,1544
54285777,1000,1000,1000,1000,98728826,1544,1544,1544,1545
54288276,1000,1000,1000,1000,98828786,1544,1545,1544,1545
54290775,1000,1000,1000,1000,98928746,1545,1544,1545,1544
54293274,1000,1000,1000,1000,99028706,1545,1544,1545,1545
54295773,1000,1000,1000,1000,99128666,1545,1544,1544,1544
54298272,1000,1000,1000,1000,99228626,1544,1544,1544,1544
54300771,1000,1000,1000,1000,99328586,1545,1545,1544,1545
54303270,1000,1000,1000,1000,99428546,1545,1545,1545,1545
54305769,1000,1000,1000,1000,99528506,1545,1544,1545,1545
54308268,1000,1000,1000,1000,99628466,1544,1544,1544,1544
54310767,1000,1000,1000,1000,99728426,1545,1544,1544,1545
54313266,1000,1000,1000,1000,99828386,1544,1544,1544,1544
54315765,1000,1000,1000,1000,99928346,1544,1544,1544,1544
54318264,1000,1000,1000,1000,100028306,1544,1544,1544,1544
54320763,1000,1000,1000,1000,100128266,1544,1544,1544,1544
54323262,1000,1000,1000,1000,100228226,1543,1544,1544,1544
54325761,1000,1000,1000,1000,100328186,1544,1543,1544,1544
54328260,1000,1000,1000,1000,100428979,1543,1543,1543,1544
54330759,1000,1000,1000,1000,100528939,1545,1544,1544,1544
54333258,1000,1000,1000,1000,100628899,1544,1544,1544,1544
54335757,1000,1000,1000,1000,100728859,1545,1544,1544,1545
54338256,1000,1000,1000,1000,100828819,1544,1544,1544,1544
54340755,1000,1000,1000,1000,100928779,1544,1544,1544,1544
54343254,1000,1000,1000,1000,101028739,1544,1545,1544,1544
54345753,1000,1000,1000,1000,101128699,1545,1545,1544,1545
54348252,1000,1000,1000,1000,101228659,1544,1544,1545,1544
54350751,1000,1000,1000,1000,101328619,1545,1545,1545,1545
54353250,1000,1000,1000,1000,101428579,1544,1544,1544,1544
54355749,1000,1000,1000,1000,101528539,1544,1544,1544,1545
54358248,1000,1000,1000,1000,101628499,1544,1544,1544,1544
54360747,1000,1000,1000,1000,101728459,1545,1544,1544,1544
54363246,1000,1000,1000,1000,101828419,1544,1544,1544,1543
54365745,1000,1000,1000,1000,101928379,1543,1543,1543,1543
54368244,1000,1000,1000,1000,102028339,1544,1544,1544,1544
54370743,1000,1000,1000,1000,102128299,1543,1544,1543,1544
54373242,1000,1000,1000,1000,102228259,1544,1544,1544,1544
54375741,1000,1000,1000,1000,102328219,1545,1545,1544,1545
54378240,1000,1000,1000,1000,102428179,1544,1544,1544,1544
54380739,1000,1000,1000,1000,102528972,1544,1544,1544,1544
54383238,1000,1000,1000,1000,102628932,1543,1544,1544,1543
54385737,1000,1000,1000,1000,102728892,1544,1544,1544,1544
54388236,1000,1000,1000,1000,102828852,1544,1543,1544,1543
54390735,1000,1000,1000,1000,102928812,1544,1543,1544,1544
54393234,1000,1000,1000,1000,103028772,1544,1543,1544,1544
54395733,1000,1000,1000,1000,103128732,1544,1543,1543,1544
54398232,1000,1000,1000,1000,103228692,1544,1544,1544,1544
54400731,1000,1000,1000,1000,103328652,1544,1544,1543,1544
54403230,1000,1000,1000,1000,103428612,1544,1544,1544,1544
54405729,1000,1000,1000,1000,103528572,1544,1544,1544,1544
54408228,1000,1000,1000,1000,103628532,1545,1545,1545,1545
54410727,1000,1000,1000,1000,103728492,1544,1544,1544,1544
54413226,1000,1000,1000,1000,103828452,1545,1545,1545,1545
54415725,1000,1000,1000,1000,103928412,1545,1545,1545,1545
54418224,1000,1000,1000,1000,104028372,1544,1544,1545,1544
54420723,1000,1000,1000,1000,104128332,1544,1544,1544,1544
54423222,1000,1000,1000,1000,104228292,1545,1545,1545,1545
54425721,1000,1000,1000,1000,104328252,1540,1536,1538,1539
54428220,1000,1000,1000,1000,104428212,1381,1348,1382,1348
54430719,1000,1000,1000,1000,104528172,1304,1246,1304,1246
54433218,1000,1000,1000,1000,104628965,1280,1214,1280,1214
54435717,1000,1000,1000,1000,104728925,1265,1190,1264,1192
54438216,1000,1000,1000,1000,104828885,1237,1150,1237,1151
54440715,1000,1000,1000,1000,104928845,1177,1150,1176,1151
54443214,1000,1000,1000,1000,105028805,1177,1150,1177,1150
54445713,1000,1000,1000,1000,105128765,1177,1150,1176,1151
54448212,1000,1000,1000,1000,105228725,1177,1150,1163,1169
54450711,1000,1000,1000,1000,105328685,1177,1150,1166,1166
54453210,1000,1000,1000,1000,105428645,1177,1150,1169,1161
54455709,1000,1000,1000,1000,105528605,1177,1150,1169,1161
54458208,1000,1000,1000,1000,105628565,1177,1150,1169,1162
54460707,1000,1000,1000,1000,105728525,1177,1150,1168,1163
54463206,1000,1000,1000,1000,105828485,1177,1150,1167,1163
54465705,1000,1000,1000,1000,105928445,1177,1150,1167,1164
54468204,1000,1000,1000,1000,106028405,1177,1150,1175,1153
54470703,1000,1000,1000,1000,106128365,1177,1150,1173,1156
54473202,1000,1000,1000,1000,106228325,1177,1150,1173,1156
54475701,1000,1000,1000,1000,106328285,1177,1150,1173,1157
54478200,1000,1000,1000,1000,106428245,1177,1150,1172,1157
54480699,1000,1000,1000,1000,106528205,1000,1000,1000,1000
54483198,1000,1000,1000,1000,106628165,1000,1000,1000,1000
54485697,1000,1000,1000,1000,106728958,1000,1000,1000,1000
54488196,1000,1000,1000,1000,106828918,1000,1000,1000,1000
54490695,1000,1000,1000,1000,106928878,1000,1000,1000,1000
54493194,1000,1000,1000,1000,107028838,1000,1000,1000,1000
54495693,1000,1000,1000,1000,107128798,1000,1000,1000,1000
54498192,1000,1000,1000,1000,107228758,1000,1000,1000,1000
54500691,1000,1000,1000,1000,107328718,1000,1000,1000,1000
54503190,1000,1000,1000,1000,107428678,1000,1000,1000,1000
54505689,1000,1000,1000,1000,107528638,1000,1000,1000,1000
54508188,1000,1000,1000,1000,107628598,1000,1000,1000,1000
54510687,1000,1000,1000,1000,107728558,1000,1000,1000,1000
54513186,1000,1000,1000,1000,107828518,1000,1000,1000,1000
54515685,1000,1000,1000,1000,107928478,1000,1000,1000,1000
54518184,1000,1000,1000,1000,108028438,1000,1000,1000,1000
54520683,1000,1000,1000,1000,108128398,1000,1000,1000,1000
54523182,1000,1000,1000,1000,108228358,1000,1000,1000,1000
54525681,1000,1000,1000,1000,108328318,1000,1000,1000,1000
54528180,1000,1000,1000,1000,108428278,1000,1000,1000,1000
54530679,1000,1000,1000,1000,108528238,1000,1000,1000,1000
54533178,1000,1000,1000,1000,108628198,1000,1000,1000,1000
54535677,1000,1000,1000,1000,108728158,1000,1000,1000,1000
54538176,1000,1000,1000,1000,108828951,1000,1000,1000,1000
54540675,1000,1000,1000,1000,108928911,1000,1000,1000,1000
54543174,1000,1000,1000,1000,109028871,1000,1000,1000,1000
54545673,1000,1000,1000,1000,109128831,1000,1000,1000,1000
54548172,1000,1000,1000,1000,109228791,1000,1000,1000,1000
54550671,1000,1000,1000,1000,109328751,1000,1000,1000,1000
54553170,1000,1000,1000,1000,109428711,1000,1000,1000,1000
54555669,1000,1000,1000,1000,109528671,1000,1000,1000,1000
54558168,1000,1000,1000,1000,109628631,1000,1000,1000,1000
54560667,1000,1000,1000,1000,109728591,1000,1000,1000,1000
54563166,1000,1000,1000,1000,109828551,1000,1000,1000,1000
54565665,1000,1000,1000,1000,109928511,1000,1000,1000,1000
54568164,1000,1000,1000,1000,110028471,1000,1000,1000,1000
54570663,1000,1000,1000,1000,110128431,1000,1000,1000,1000
54573162,1000,1000,1000,1000,110228391,1000,1000,1000,1000
54575661,1000,1000,1000,1000,110328351,1000,1000,1000,1000
54578160,1000,1000,1000,1000,110428311,1000,1000,1000,1000
54580659,1000,1000,1000,1000,110528271,1000,1000,1000,1000
54583158,1000,1000,1000,1000,110628231,1000,1000,1000,1000
54585657,1000,1000,1000,1000,110728191,1000,1000,1000,1000
54588156,1000,1000,1000,1000,110828984,1000,1000,1000,1000
54590655,1000,1000,1000,1000,110928944,1000,1000,1000,1000
54593154,1000,1000,1000,1000,111028904,1000,1000,1000,1000
54596486,1000,1000,1000,1000,111128864,1000,1000,1000,1000
54598985,1000,1000,1000,1000,111228824,1000,1000,1000,1000
54601484,1000,1000,1000,1000,111328784,1000,1000,1000,1000
54603983,1000,1000,1000,1000,111428744,1000,1000,1000,1000
54606482,1000,1000,1000,1000,111528704,1000,1000,1000,1000
54608981,1000,1000,1000,1000,111628664,1000,1000,1000,1000
54611480,1000,1000,1000,1000,111728624,1000,1000,1000,1000
54613979,1000,1000,1000,1000,111828584,1000,1000,1000,1000
54616478,1000,1000,1000,1000,111928544,1000,1000,1000,1000
54618977,1000,1000,1000,1000,112028504,1000,1000,1000,1000
54621476,1000,1000,1000,1000,112128464,1000,1000,1000,1000
54623975,1000,1000,1000,1000,112228424,1000,1000,1000,1000
54626474,1000,1000,1000,1000,112328384,1000,1000,1000,1000
54628973,1000,1000,1000,1000,112428344,1000,1000,1000,1000
54631472,1000,1000,1000,1000,112528304,1000,1000,1000,1000
54633971,1000,1000,1000,1000,112628264,1000,1000,1000,1000
54636470,1000,1000,1000,1000,112728224,1000,1000,1000,1000
54638969,1000,1000,1000,1000,112828184,1000,1000,1000,1000
54641468,1000,1000,1000,1000,112928977,1000,1000,1000,1000
54643967,1000,1000,1000,1000,113028937,1000,1000,1000,1000
54646466,1000,1000,1000,1000,113128897,1000,1000,1000,1000
54648965,1000,1000,1000,1000,113228857,1000,1000,1000,1000
54651464,1000,1000,1000,1000,113328817,1000,1000,1000,1000
54653963,1000,1000,1000,1000,113428777,1000,1000,1000,1000
54656462,1000,1000,1000,1000,113528737,1000,1000,1000,1000
54658961,1000,1000,1000,1000,113628697,1000,1000,1000,1000
54661460,1000,1000,1000,1000,113728657,1000,1000,1000,1000
54663959,1000,1000,1000,1000,113828617,1000,1000,1000,1000
54666458,1000,1000,1000,1000,113928577,1000,1000,1000,1000
54668957,1000,1000,1000,1000,114028537,1000,1000,1000,1000
54671456,1000,1000,1000,1000,114128497,1000,1000,1000,1000
54673955,1000,1000,1000,1000,114228457,1000,1000,1000,1000
54676454,1000,1000,1000,1000,114328417,1000,1000,1000,1000
54678953,1000,1000,1000,1000,114428377,1000,1000,1000,1000
54681452,1000,1000,1000,1000,114528337,1000,1000,1000,1000
54683951,1000,1000,1000,1000,114628297,1000,1000,1000,1000
54686450,1000,1000,1000,1000,114728257,1000,1000,1000,1000
54688949,1000,1000,1000,1000,114828217,1000,1000,1000,1000
54691448,1000,1000,1000,1000,114928177,1000,1000,1000,1000
54693947,1000,1000,1000,1000,115028970,1000,1000,1000,1000
54696446,1000,1000,1000,1000,115128930,1000,1000,1000,1000
54698945,1000,1000,1000,1000,115228890,1000,1000,1000,1000
54701444,1000,1000,1000,1000,115328850,1000,1000,1000,1000
54703943,1000,1000,1000,1000,115428810,1000,1000,1000,1000
54706442,1000,1000,1000,1000,115528770,1000,1000,1000,1000
54708941,1000,1000,1000,1000,115628730,1000,1000,1000,1000
54711440,1000,1000,1000,1000,115728690,1000,1000,1000,1000
54713939,1000,1000,1000,1000,115828650,1000,1000,1000,1000
54716438,1000,1000,1000,1000,115928610,1000,1000,1000,1000
54718937,1000,1000,1000,1000,116028570,1000,1000,1000,1000
54721436,1000,1000,1000,1000,116128530,1000,1000,1000,1000
54723935,1000,1000,1000,1000,116228490,1000,1000,1000,1000
54726434,1000,1000,1000,1000,116328450,1000,1000,1000,1000
54728933,1000,1000,1000,1000,116428410,1000,1000,1000,1000
54731432,1000,1000,1000,1000,116528370,1000,1000,1000,1000
54733931,1000,1000,1000,1000,116628330,1000,1000,1000,1000
54736430,1000,1000,1000,1000,116728290,1000,1000,1000,1000
54738929,1000,1000,1000,1000,116828250,1000,1000,1000,1000
54741428,1000,1000,1000,1000,116928210,1000,1000,1000,1000
54743927,1000,1000,1000,1000,117028170,1000,1000,1000,1000
54746426,1000,1000,1000,1000,117128963,1000,1000,1000,1000
54748925,1000,1000,1000,1000,117228923,1000,1000,1000,1000
54751424,1000,1000,1000,1000,117328883,1000,1000,1000,1000
54753923,1000,1000,1000,1000,117428843,1000,1000,1000,1000
54756422,1000,1000,1000,1000,117528803,1000,1000,1000,1000
54758921,1000,1000,1000,1000,117628763,1000,1000,1000,1000
54761420,1000,1000,1000,1000,117728723,1000,1000,1000,1000
54763919,1000,1000,1000,1000,117828683,1000,1000,1000,1000
54766418,1000,1000,1000,1000,117928643,1000,1000,1000,1000
54768917,1000,1000,1000,1000,118028603,1000,1000,1000,1000
54771416,1000,1000,1000,1000,118128563,1000,1000,1000,1000
54773915,1000,1000,1000,1000,118228523,1000,1000,1000,1000
54776414,1000,1000,1000,1000,118328483,1000,1000,1000,1000
54778913,1000,1000,1000,1000,118428443,1000,1000,1000,1000
54781412,1000,1000,1000,1000,118528403,1000,1000,1000,1000
54783911,1000,1000,1000,1000,118628363,1000,1000,1000,1000
54786410,1000,1000,1000,1000,118728323,1000,1000,1000,1000
54788909,1000,1000,1000,1000,118828283,1000,1000,1000,1000
54791408,1000,1000,1000,1000,118928243,1000,1000,1000,1000
54793907,1000,1000,1000,1000,119028203,1000,1000,1000,1000
54796406,1000,1000,1000,1000,119128163,1000,1000,1000,1000
54798905,1000,1000,1000,1000,119228956,1000,1000,1000,1000
54801404,1000,1000,1000,1000,119328916,1000,1000,1000,1000
54803903,1000,1000,1000,1000,119428876,1000,1000,1000,1000
54806402,1000,1000,1000,1000,119528836,1000,1000,1000,1000
54808901,1000,1000,1000,1000,119628796,1000,1000,1000,1000
54811400,1000,1000,1000,1000,119728756,1000,1000,1000,1000
54813899,1000,1000,1000,1000,119828716,1000,1000,1000,1000
54816398,1000,1000,1000,1000,119928676,1000,1000,1000,1000
54818897,1000,1000,1000,1000,120028636,1000,1000,1000,1000
54821396,1000,1000,1000,1000,120128596,1000,1000,1000,1000
54823895,1000,1000,1000,1000,,,,,
54826394,1000,1000,1000,1000,,,,,
54828893,1000,1000,1000,1000,,,,,
54831392,1000,1000,1000,1000,,,,,
54833891,1000,1000,1000,1000,,,,,
54836390,1000,1000,1000,1000,,,,,
54838889,1000,1000,1000,1000,,,,,
54841388,1000,1000,1000,1000,,,,,
54843887,1000,1000,1000,1000,,,,,
54846386,1000,1000,1000,1000,,,,,
54848885,1000,1000,1000,1000,,,,,
54851384,1000,1000,1000,1000,,,,,
54853883,1000,1000,1000,1000,,,,,
54856382,1000,1000,1000,1000,,,,,
54858881,1000,1000,1000,1000,,,,,
54861380,1000,1000,1000,1000,,,,,
54863879,1000,1000,1000,1000,,,,,
54866378,1000,1000,1000,1000,,,,,
54868877,1000,1000,1000,1000,,,,,
54871376,1000,1000,1000,1000,,,,,
54873875,1000,1000,1000,1000,,,,,
54876374,1000,1000,1000,1000,,,,,
54878873,1000,1000,1000,1000,,,,,
54881372,1000,1000,1000,1000,,,,,
54883871,1000,1000,1000,1000,,,,,
54886370,1000,1000,1000,1000,,,,,
54888869,1000,1000,1000,1000,,,,,
54891368,1000,1000,1000,1000,,,,,
54893867,1000,1000,1000,1000,,,,,
54896366,1000,1000,1000,1000,,,,,
54898865,1000,1000,1000,1000,,,,,
54901364,1000,1000,1000,1000,,,,,
54903863,1000,1000,1000,1000,,,,,
54906362,1000,1000,1000,1000,,,,,
54908861,1000,1000,1000,1000,,,,,
54911360,1000,1000,1000,1000,,,,,
54913859,1000,1000,1000,1000,,,,,
54916358,1000,1000,1000,1000,,,,,
54918857,1000,1000,1000,1000,,,,,
54921356,1000,1000,1000,1000,,,,,
54923855,1000,1000,1000,1000,,,,,
54926354,1000,1000,1000,1000,,,,,
54928853,1000,1000,1000,1000,,,,,
54931352,1000,1000,1000,1000,,,,,
54933851,1000,1000,1000,1000,,,,,
54936350,1000,1000,1000,1000,,,,,
54938849,1000,1000,1000,1000,,,,,
54941348,1000,1000,1000,1000,,,,,
54943847,1000,1000,1000,1000,,,,,
54946346,1000,1000,1000,1000,,,,,
54948845,1000,1000,1000,1000,,,,,
54951344,1000,1000,1000,1000,,,,,
54953843,1000,1000,1000,1000,,,,,
54956342,1000,1000,1000,1000,,,,,
54958841,1000,1000,1000,1000,,,,,
54961340,1000,1000,1000,1000,,,,,
54963839,1000,1000,1000,1000,,,,,
54966338,1000,1000,1000,1000,,,,,
54968837,1000,1000,1000,1000,,,,,
54971336,1000,1000,1000,1000,,,,,
54973835,1000,1000,1000,1000,,,,,
54976334,1000,1000,1000,1000,,,,,
54978833,1000,1000,1000,1000,,,,,
54981332,1000,1000,1000,1000,,,,,
54983831,1000,1000,1000,1000,,,,,
54986330,1000,1000,1000,1000,,,,,
54988829,1000,1000,1000,1000,,,,,
54991328,1000,1000,1000,1000,,,,,
54993827,1000,1000,1000,1000,,,,,
54996326,1000,1000,1000,1000,,,,,
54998825,1000,1000,1000,1000,,,,,
55001324,1000,1000,1000,1000,,,,,
55003823,1000,1000,1000,1000,,,,,
55006322,1000,1000,1000,1000,,,,,
55008821,1000,1000,1000,1000,,,,,
55011320,1000,1000,1000,1000,,,,,
55013819,1000,1000,1000,1000,,,,,
55016318,1000,1000,1000,1000,,,,,
55018817,1000,1000,1000,1000,,,,,
55021316,1000,1000,1000,1000,,,,,
55023815,1000,1000,1000,1000,,,,,
55026314,1000,1000,1000,1000,,,,,
55028813,1000,1000,1000,1000,,,,,
55031312,1000,1000,1000,1000,,,,,
55033811,1000,1000,1000,1000,,,,,
55036310,1000,1000,1000,1000,,,,,
55038809,1000,1000,1000,1000,,,,,
55041308,1000,1000,1000,1000,,,,,
55043807,1000,1000,1000,1000,,,,,
55046306,1000,1000,1000,1000,,,,,
55048805,1000,1000,1000,1000,,,,,
55051304,1000,1000,1000,1000,,,,,
55053803,1000,1000,1000,1000,,,,,
55056302,1000,1000,1000,1000,,,,,
55058801,1000,1000,1000,1000,,,,,
55061300,1000,1000,1000,1000,,,,,
55063799,1000,1000,1000,1000,,,,,
55066298,1000,1000,1000,1000,,,,,
55068797,1000,1000,1000,1000,,,,,
55071296,1000,1000,1000,1000,,,,,
55073795,1000,1000,1000,1000,,,,,
55076294,1000,1000,1000,1000,,,,,
55078793,1000,1000,1000,1000,,,,,
55081292,1000,1000,1000,1000,,,,,
55083791,1000,1000,1000,1000,,,,,
55086290,1000,1000,1000,1000,,,,,
55088789,1000,1000,1000,1000,,,,,
55091288,1000,1000,1000,1000,,,,,
55093787,1000,1000,1000,1000,,,,,
55096286,1000,1000,1000,1000,,,,,
55098785,1000,1000,1000,1000,,,,,
55101284,1000,1000,1000,1000,,,,,
55103783,1000,1000,1000,1000,,,,,
55106282,1000,1000,1000,1000,,,,,
55108781,1000,1000,1000,1000,,,,,
55111280,1000,1000,1000,1000,,,,,
55113779,1000,1000,1000,1000,,,,,
55116278,1000,1000,1000,1000,,,,,
55118777,1000,1000,1000,1000,,,,,
55121276,1000,1000,1000,1000,,,,,
55123775,1000,1000,1000,1000,,,,,
55126274,1000,1000,1000,1000,,,,,
55128773,1000,1000,1000,1000,,,,,
55131272,1000,1000,1000,1000,,,,,
55133771,1000,1000,1000,1000,,,,,
55136270,1000,1000,1000,1000,,,,,
55138769,1000,1000,1000,1000,,,,,
55141268,1000,1000,1000,1000,,,,,
55143767,1000,1000,1000,1000,,,,,
55146266,1000,1000,1000,1000,,,,,
55148765,1000,1000,1000,1000,,,,,
55151264,1000,1000,1000,1000,,,,,
55153763,1000,1000,1000,1000,,,,,
55156262,1001,1001,1001,1001,,,,,
55158761,1002,1002,1002,1002,,,,,
55161260,1003,1003,1003,1003,,,,,
55163759,1003,1003,1003,1003,,,,,
55166258,1004,1004,1004,1004,,,,,
55168757,1005,1005,1005,1005,,,,,
55171256,1006,1006,1006,1006,,,,,
55173755,1006,1006,1006,1006,,,,,
55176254,1007,1007,1007,1007,,,,,
55178753,1008,1008,1008,1008,,,,,
55181252,1009,1009,1009,1009,,,,,
55183751,1009,1009,1009,1009,,,,,
55186250,1010,1010,1010,1010,,,,,
55188749,1011,1011,1011,1011,,,,,
55191248,1012,1012,1012,1012,,,,,
55193747,1012,1012,1012,1012,,,,,
55196246,1013,1013,1013,1013,,,,,
55198745,1014,1014,1014,1014,,,,,
55201244,1015,1015,1015,1015,,,,,
55203743,1015,1015,1015,1015,,,,,
55206242,1016,1016,1016,1016,,,,,
55208741,1017,1017,1017,1017,,,,,
55211240,1018,1018,1018,1018,,,,,
55213739,1018,1018,1018,1018,,,,,
55216238,1019,1019,1019,1019,,,,,
55218737,1020,1020,1020,1020,,,,,
55221236,1021,1021,1021,1021,,,,,
55223735,1021,1021,1021,1021,,,,,
55226234,1022,1022,1022,1022,,,,,
55228733,1023,1023,1023,1023,,,,,
55231232,1024,1024,1024,1024,,,,,
55233731,1024,1024,1024,1024,,,,,
55236230,1025,1025,1025,1025,,,,,
55238729,1026,1026,1026,1026,,,,,
55241228,1027,1027,1027,1027,,,,,
55243727,1027,1027,1027,1027,,,,,
55246226,1028,1028,1028,1028,,,,,
55248725,1029,1029,1029,1029,,,,,
55251224,1030,1030,1030,1030,,,,,
55253723,1030,1030,1030,1030,,,,,
55256222,1031,1031,1031,1031,,,,,
55258721,1032,1032,1032,1032,,,,,
55261220,1033,1033,1033,1033,,,,,
55263719,1033,1033,1033,1033,,,,,
55266218,1034,1034,1034,1034,,,,,
55268717,1035,1035,1035,1035,,,,,
55271216,1036,1036,1036,1036,,,,,
55273715,1036,1036,1036,1036,,,,,
55276214,1037,1037,1037,1037,,,,,
55278713,1038,1038,1038,1038,,,,,
55281212,1039,1039,1039,1039,,,,,
55283711,1039,1039,1039,1039,,,,,
55286210,1040,1040,1040,1040,,,,,
55288709,1041,1041,1041,1041,,,,,
55291208,1042,1042,1042,1042,,,,,
55293707,1042,1042,1042,1042,,,,,
55296206,1043,1043,1043,1043,,,,,
55298705,1044,1044,1044,1044,,,,,
55301204,1045,1045,1045,1045,,,,,
55303703,1045,1045,1045,1045,,,,,
55306202,1046,1046,1046,1046,,,,,
55308701,1047,1047,1047,1047,,,,,
55311200,1048,1048,1048,1048,,,,,
55313699,1048,1048,1048,1048,,,,,
55316198,1049,1049,1049,1049,,,,,
55318697,1050,1050,1050,1050,,,,,
55321196,1051,1051,1051,1051,,,,,
55323695,1051,1051,1051,1051,,,,,
55326194,1052,1052,1052,1052,,,,,
55328693,1053,1053,1053,1053,,,,,
55331192,1054,1054,1054,1054,,,,,
55333691,1054,1054,1054,1054,,,,,
55336190,1055,1055,1055,1055,,,,,
55338689,1056,1056,1056,1056,,,,,
55341188,1057,1057,1057,1057,,,,,
55343687,1057,1057,1057,1057,,,,,
55346186,1058,1058,1058,1058,,,,,
55348685,1059,1059,1059,1059,,,,,
55351184,1060,1060,1060,1060,,,,,
55353683,1060,1060,1060,1060,,,,,
55356182,1061,1061,1061,1061,,,,,
55358681,1062,1062,1062,1062,,,,,
55361180,1063,1063,1063,1063,,,,,
55363679,1063,1063,1063,1063,,,,,
55366178,1064,1064,1064,1064,,,,,
55368677,1065,1065,1065,1065,,,,,
55371176,1066,1066,1066,1066,,,,,
55373675,1066,1066,1066,1066,,,,,
55376174,1067,1067,1067,1067,,,,,
55378673,1068,1068,1068,1068,,,,,
55381172,1069,1069,1069,1069,,,,,
55383671,1069,1069,1069,1069,,,,,
55386170,1070,1070,1070,1070,,,,,
55388669,1071,1071,1071,1071,,,,,
55391168,1072,1072,1072,1072,,,,,
55393667,1072,1072,1072,1072,,,,,
55396166,1073,1073,1073,1073,,,,,
55398665,1074,1074,1074,1074,,,,,
55401164,1075,1075,1075,1075,,,,,
55403663,1075,1075,1075,1075,,,,,
55406162,1076,1076,1076,1076,,,,,
55408661,1077,1077,1077,1077,,,,,
55411160,1078,1078,1078,1078,,,,,
55413659,1078,1078,1078,1078,,,,,
55416158,1079,1079,1079,1079,,,,,
55418657,1080,1080,1080,1080,,,,,
55421156,1081,1081,1081,1081,,,,,
55423655,1081,1081,1081,1081,,,,,
55426154,1082,1082,1082,1082,,,,,
55428653,1083,1083,1083,1083,,,,,
55431152,1084,1084,1084,1084,,,,,
55433651,1084,1084,1084,1084,,,,,
55436150,1085,1085,1085,1085,,,,,
55438649,1086,1086,1086,1086,,,,,
55441148,1087,1087,1087,1087,,,,,
55443647,1087,1087,1087,1087,,,,,
55446146,1088,1088,1088,1088,,,,,
55448645,1089,1089,1089,1089,,,,,
55451144,1090,1090,1090,1090,,,,,
55453643,1090,1090,1090,1090,,,,,
55456142,1091,1091,1091,1091,,,,,
55458641,1092,1092,1092,1092,,,,,
55461140,1093,1093,1093,1093,,,,,
55463639,1093,1093,1093,1093,,,,,
55466138,1094,1094,1094,1094,,,,,
55468637,1095,1095,1095,1095,,,,,
55471136,1096,1096,1096,1096,,,,,
55473635,1096,1096,1096,1096,,,,,
55476134,1097,1097,1097,1097,,,,,
55478633,1098,1098,1098,1098,,,,,
55481132,1099,1099,1099,1099,,,,,
55483631,1099,1099,1099,1099,,,,,
55486130,1100,1100,1100,1100,,,,,
55488629,1101,1101,1101,1101,,,,,
55491128,1101,1101,1101,1101,,,,,
55493627,1102,1102,1102,1102,,,,,
55496126,1103,1103,1103,1103,,,,,
55498625,1104,1104,1104,1104,,,,,
55501124,1104,1104,1104,1104,,,,,
55503623,1105,1105,1105,1105,,,,,
55506122,1106,1106,1106,1106,,,,,
55508621,1107,1107,1107,1107,,,,,
55511120,1107,1107,1107,1107,,,,,
55513619,1108,1108,1108,1108,,,,,
55516118,1109,1109,1109,1109,,,,,
55518617,1110,1110,1110,1110,,,,,
55521116,1110,1110,1110,1110,,,,,
55523615,1111,1111,1111,1111,,,,,
55526114,1112,1112,1112,1112,,,,,
55528613,1113,1113,1113,1113,,,,,
55531112,1113,1113,1113,1113,,,,,
55533611,1114,1114,1114,1114,,,,,
55536110,1115,1115,1115,1115,,,,,
55538609,1116,1116,1116,1116,,,,,
55541108,1116,1116,1116,1116,,,,,
55543607,1117,1117,1117,1117,,,,,
55546106,1118,1118,1118,1118,,,,,
55548605,1119,1119,1119,1119,,,,,
55551104,1119,1119,1119,1119,,,,,
55553603,1120,1120,1120,1120,,,,,
55556102,1121,1121,1121,1121,,,,,
55558601,1122,1122,1122,1122,,,,,
55561100,1122,1122,1122,1122,,,,,
55563599,1123,1123,1123,1123,,,,,
55566098,1124,1124,1124,1124,,,,,
55568597,1125,1125,1125,1125,,,,,
55571096,1125,1125,1125,1125,,,,,
55573595,1126,1126,1126,1126,,,,,
55576094,1127,1127,1127,1127,,,,,
55578593,1128,1128,1128,1128,,,,,
55581092,1128,1128,1128,1128,,,,,
55583591,1129,1129,1129,1129,,,,,
55586090,1130,1130,1130,1130,,,,,
55588589,1131,1131,1131,1131,,,,,
55591088,1131,1131,1131,1131,,,,,
55593587,1132,1132,1132,1132,,,,,
55596086,1133,1133,1133,1133,,,,,
55598585,1134,1134,1134,1134,,,,,
55601084,1134,1134,1134,1134,,,,,
55603583,1135,1135,1135,1135,,,,,
55606082,1136,1136,1136,1136,,,,,
55608581,1137,1137,1137,1137,,,,,
55611080,1137,1137,1137,1137,,,,,
55613579,1138,1138,1138,1138,,,,,
55616078,1139,1139,1139,1139,,,,,
55618577,1140,1140,1140,1140,,,,,
55621076,1140,1140,1140,1140,,,,,
55623575,1141,1141,1141,1141,,,,,
55626074,1142,1142,1142,1142,,,,,
55628573,1143,1143,1143,1143,,,,,
55631072,1143,1143,1143,1143,,,,,
55633571,1144,1144,1144,1144,,,,,
55636070,1145,1145,1145,1145,,,,,
55638569,1146,1146,1146,1146,,,,,
55641068,1146,1146,1146,1146,,,,,
55643567,1147,1147,1147,1147,,,,,
55646066,1148,1148,1148,1148,,,,,
55648565,1149,1149,1149,1149,,,,,
55651064,1149,1149,1149,1149,,,,,
55653563,1150,1150,1150,1150,,,,,
55656062,1161,1154,1154,1162,,,,,
55658561,1169,1162,1162,1170,,,,,
55661060,1177,1170,1170,1178,,,,,
55663559,1185,1177,1178,1185,,,,,
55666058,1193,1185,1185,1193,,,,,
55668557,1200,1193,1193,1200,,,,,
55671056,1207,1200,1200,1208,,,,,
55673555,1215,1207,1208,1215,,,,,
55676054,1222,1215,1215,1222,,,,,
55678553,1229,1222,1222,1229,,,,,
55681052,1235,1229,1229,1236,,,,,
55683551,1242,1235,1236,1243,,,,,
55686050,1249,1242,1242,1249,,,,,
55688549,1256,1249,1249,1256,,,,,
55691048,1262,1256,1256,1263,,,,,
55693547,1269,1262,1262,1269,,,,,
55696046,1275,1268,1269,1275,,,,,
55698545,1281,1275,1275,1282,,,,,
55701044,1287,1281,1281,1288,,,,,
55703543,1294,1287,1287,1294,,,,,
55706042,1300,1293,1294,1300,,,,,
55708541,1306,1299,1300,1306,,,,,
55711040,1312,1305,1306,1312,,,,,
55713539,1318,1311,1312,1318,,,,,
55716038,1323,1317,1317,1324,,,,,
55718537,1329,1323,1323,1330,,,,,
55721036,1335,1329,1329,1335,,,,,
55723535,1340,1334,1335,1341,,,,,
55726034,1346,1340,1340,1347,,,,,
55728533,1352,1346,1346,1352,,,,,
55731032,1357,1351,1351,1358,,,,,
55733531,1363,1357,1357,1363,,,,,
55736030,1368,1362,1362,1368,,,,,
55738529,1373,1368,1368,1374,,,,,
55741028,1379,1373,1373,1379,,,,,
55743527,1384,1378,1378,1384,,,,,
55746026,1389,1383,1384,1390,,,,,
55748525,1394,1389,1389,1395,,,,,
55751024,1399,1394,1394,1400,,,,,
55753523,1404,1399,1399,1405,,,,,
55756022,1409,1404,1404,1410,,,,,
55758521,1414,1409,1409,1415,,,,,
55761020,1419,1414,1414,1420,,,,,
55763519,1424,1419,1419,1425,,,,,
55766018,1429,1424,1424,1430,,,,,
55768517,1434,1429,1429,1435,,,,,
55771016,1439,1434,1434,1439,,,,,
55773515,1444,1439,1439,1444,,,,,
55776014,1449,1443,1444,1449,,,,,
55778513,1453,1448,1448,1454,,,,,
55781012,1458,1453,1453,1458,,,,,
55783511,1463,1458,1458,1463,,,,,
55786010,1467,1462,1462,1468,,,,,
55788509,1472,1467,1467,1472,,,,,
55791008,1476,1472,1472,1477,,,,,
55793507,1481,1476,1476,1481,,,,,
55796006,1486,1481,1481,1486,,,,,
55798505,1490,1485,1485,1490,,,,,
55801004,1495,1490,1490,1495,,,,,
55803503,1499,1494,1494,1499,,,,,
55806002,1503,1499,1499,1504,,,,,
55808501,1508,1503,1503,1508,,,,,
55811000,1512,1507,1508,1513,,,,,
55813499,1517,1512,1512,1517,,,,,
55815998,1521,1516,1516,1521,,,,,
55818497,1525,1520,1521,1526,,,,,
55820996,1530,1525,1525,1530,,,,,
55823495,1534,1529,1529,1534,,,,,
55825994,1538,1533,1533,1538,,,,,
55828493,1542,1537,1538,1542,,,,,
55830992,1546,1541,1542,1547,,,,,
55833491,1551,1546,1546,1551,,,,,
55835990,1555,1550,1550,1555,,,,,
55838489,1559,1554,1554,1559,,,,,
55840988,1563,1558,1558,1563,,,,,
55843487,1567,1562,1562,1567,,,,,
55845986,1571,1566,1567,1571,,,,,
55848485,1575,1570,1571,1575,,,,,
55850984,1579,1574,1575,1579,,,,,
55853483,1583,1578,1579,1583,,,,,
55855982,1587,1582,1583,1587,,,,,
55858481,1591,1586,1587,1591,,,,,
55860980,1595,1590,1591,1595,,,,,
55863479,1599,1594,1595,1599,,,,,
55865978,1603,1598,1598,1603,,,,,
55868477,1607,1602,1602,1607,,,,,
55870976,1611,1606,1606,1611,,,,,
55873475,1615,1610,1610,1614,,,,,
55875974,1618,1613,1614,1618,,,,,
55878473,1622,1617,1618,1622,,,,,
55880972,1626,1621,1622,1626,,,,,
55883471,1630,1625,1625,1630,,,,,
55885970,1633,1629,1629,1633,,,,,
55888469,1637,1632,1633,1637,,,,,
55890968,1641,1636,1637,1641,,,,,
55893467,1645,1640,1640,1645,,,,,
55895966,1648,1644,1644,1648,,,,,
55898465,1652,1647,1648,1652,,,,,
55900964,1656,1651,1652,1656,,,,,
55903463,1660,1655,1655,1659,,,,,
55905962,1663,1658,1659,1663,,,,,
55908461,1667,1662,1663,1667,,,,,
55910960,1670,1666,1666,1670,,,,,
55913459,1674,1669,1670,1674,,,,,
55915958,1678,1673,1673,1677,,,,,
55918457,1681,1676,1677,1681,,,,,
55920956,1685,1680,1680,1685,,,,,
55923455,1688,1683,1684,1688,,,,,
55925954,1692,1687,1688,1692,,,,,
55928453,1695,1690,1691,1695,,,,,
55930952,1699,1694,1695,1699,,,,,
55933451,1702,1697,1698,1702,,,,,
55935950,1706,1701,1701,1706,,,,,
55938449,1709,1704,1705,1709,,,,,
55940948,1713,1708,1708,1713,,,,,
55943447,1716,1711,1712,1716,,,,,
55945946,1720,1715,1715,1720,,,,,
55948445,1723,1718,1719,1723,,,,,
55950944,1727,1721,1722,1726,,,,,
55953443,1730,1725,1726,1730,,,,,
55955942,1734,1728,1729,1733,,,,,
55958441,1737,1732,1732,1737,,,,,
55960940,1740,1735,1736,1740,,,,,
55963439,1744,1738,1739,1743,,,,,
55965938,1747,1742,1742,1747,,,,,
55968437,1750,1745,1746,1750,,,,,
55970936,1754,1748,1749,1753,,,,,
55973435,1757,1751,1752,1757,,,,,
55975934,1760,1755,1756,1760,,,,,
55978433,1764,1758,1759,1763,,,,,
55980932,1767,1761,1762,1766,,,,,
55983431,1770,1765,1765,1770,,,,,
55985930,1774,1768,1769,1773,,,,,
55988429,1777,1771,1772,1776,,,,,
55990928,1780,1774,1775,1780,,,,,
55993427,1783,1777,1778,1783,,,,,
55995926,1786,1781,1782,1786,,,,,
55998425,1790,1784,1785,1789,,,,,
56000924,1793,1787,1788,1792,,,,,
56003423,1796,1790,1791,1796,,,,,
56005922,1799,1794,1794,1799,,,,,
56008421,1802,1797,1797,1802,,,,,
56010920,1805,1800,1801,1805,,,,,
56013419,1809,1803,1804,1808,,,,,
56015918,1812,1806,1807,1811,,,,,
56018417,1815,1809,1810,1815,,,,,
56020916,1818,1812,1813,1818,,,,,
56023415,1821,1816,1816,1821,,,,,
56025914,1824,1819,1819,1824,,,,,
56028413,1827,1822,1822,1827,,,,,
56030912,1830,1825,1826,1830,,,,,
56033411,1833,1828,1829,1833,,,,,
56035910,1836,1831,1832,1836,,,,,
56038409,1839,1834,1835,1839,,,,,
56040908,1842,1837,1838,1842,,,,,
56043407,1845,1840,1841,1845,,,,,
56045906,1845,1841,1841,1845,,,,,
56048405,1844,1839,1840,1844,,,,,
56050904,1843,1838,1838,1843,,,,,
56053403,1841,1836,1837,1841,,,,,
56055902,1840,1835,1836,1840,,,,,
56058401,1839,1834,1834,1839,,,,,
56060900,1838,1833,1833,1838,,,,,
56063399,1837,1832,1832,1836,,,,,
56065898,1835,1831,1831,1835,,,,,
56068397,1834,1830,1830,1834,,,,,
56070896,1834,1829,1829,1833,,,,,
56073395,1833,1828,1828,1832,,,,,
56075894,1832,1827,1828,1832,,,,,
56078393,1831,1826,1827,1831,,,,,
56080892,1831,1826,1826,1830,,,,,
56083391,1830,1825,1826,1830,,,,,
56085890,1830,1825,1825,1829,,,,,
56088389,1829,1824,1825,1829,,,,,
56090888,1829,1824,1825,1829,,,,,
56093387,1829,1824,1825,1829,,,,,
56095886,1829,1824,1824,1829,,,,,
56098385,1829,1824,1825,1829,,,,,
56100884,1829,1824,1825,1829,,,,,
56103383,1829,1824,1825,1829,,,,,
56105882,1830,1824,1825,1829,,,,,
56108381,1830,1824,1825,1829,,,,,
56110880,1830,1825,1826,1830,,,,,
56113379,1831,1825,1826,1830,,,,,
56115878,1831,1826,1827,1831,,,,,
56118377,1832,1826,1827,1831,,,,,
56120876,1832,1827,1828,1832,,,,,
56123375,1833,1827,1828,1832,,,,,
56125874,1834,1828,1829,1833,,,,,
56128373,1834,1829,1830,1834,,,,,
56130872,1835,1830,1830,1835,,,,,
56133371,1836,1830,1831,1835,,,,,
56135870,1837,1831,1832,1836,,,,,
56138369,1838,1832,1833,1837,,,,,
56140868,1838,1833,1834,1838,,,,,
56143367,1839,1834,1835,1839,,,,,
56145866,1840,1835,1836,1840,,,,,
56148365,1841,1836,1836,1841,,,,,
56150864,1842,1836,1837,1842,,,,,
56153363,1843,1837,1838,1843,,,,,
56155862,1844,1838,1839,1844,,,,,
56158361,1845,1840,1840,1845,,,,,
56160860,1846,1841,1842,1846,,,,,
56163359,1847,1842,1843,1847,,,,,
56165858,1848,1843,1844,1848,,,,,
56168357,1849,1844,1845,1849,,,,,
56170856,1850,1845,1846,1850,,,,,
56173355,1851,1846,1847,1851,,,,,
56175854,1852,1847,1848,1852,,,,,
56178353,1853,1848,1849,1852,,,,,
56180852,1853,1849,1850,1853,,,,,
56183351,1853,1849,1850,1853,,,,,
56185850,1854,1850,1850,1853,,,,,
56188349,1854,1850,1850,1853,,,,,
56190848,1853,1850,1850,1853,,,,,
56193347,1853,1850,1850,1853,,,,,
56195846,1852,1849,1850,1852,,,,,
56198345,1852,1848,1849,1852,,,,,
56200844,1851,1848,1848,1851,,,,,
56203343,1849,1847,1847,1850,,,,,
56205842,1848,1845,1846,1848,,,,,
56208341,1847,1844,1844,1847,,,,,
56210840,1845,1842,1842,1845,,,,,
56213339,1843,1840,1841,1843,,,,,
56215838,1841,1838,1839,1841,,,,,
56218337,1839,1836,1837,1839,,,,,
56220836,1837,1834,1834,1837,,,,,
56223335,1834,1832,1832,1835,,,,,
56225834,1832,1830,1830,1832,,,,,
56228333,1829,1827,1827,1830,,,,,
56230832,1827,1825,1825,1827,,,,,
56233331,1824,1822,1822,1824,,,,,
56235830,1821,1819,1819,1821,,,,,
56238329,1818,1816,1816,1819,,,,,
56240828,1815,1813,1814,1816,,,,,
56243327,1812,1811,1811,1813,,,,,
56245826,1809,1808,1808,1810,,,,,
56248325,1806,1804,1805,1807,,,,,
56250824,1803,1801,1801,1803,,,,,
56253323,1800,1798,1798,1800,,,,,
56255822,1797,1795,1795,1797,,,,,
56258321,1793,1792,1792,1794,,,,,
56260820,1790,1788,1788,1790,,,,,
56263319,1787,1785,1785,1787,,,,,
56265818,1783,1782,1782,1783,,,,,
56268317,1780,1778,1778,1780,,,,,
56270816,1776,1775,1775,1777,,,,,
56273315,1773,1771,1771,1773,,,,,
56275814,1769,1768,1768,1770,,,,,
56278313,1766,1764,1765,1766,,,,,
56280812,1762,1761,1761,1763,,,,,
56283311,1759,1758,1758,1759,,,,,
56285810,1755,1754,1754,1756,,,,,
56288309,1752,1751,1751,1752,,,,,
56290808,1748,1747,1747,1749,,,,,
56293307,1745,1744,1744,1745,,,,,
56295806,1741,1740,1740,1742,,,,,
56298305,1738,1737,1737,1738,,,,,
56300804,1734,1733,1733,1735,,,,,
56303303,1731,1730,1730,1731,,,,,
56305802,1727,1727,1727,1728,,,,,
56308301,1724,1723,1723,1725,,,,,
56310800,1721,1720,1720,1721,,,,,
56313299,1717,1717,1717,1718,,,,,
56315798,1714,1714,1713,1715,,,,,
56318297,1711,1710,1710,1711,,,,,
56320796,1708,1707,1707,1708,,,,,
56323295,1704,1704,1704,1705,,,,,
56325794,1701,1701,1701,1702,,,,,
56328293,1698,1698,1698,1699,,,,,
56330792,1695,1695,1695,1696,,,,,
56333291,1692,1692,1692,1692,,,,,
56335790,1689,1689,1689,1690,,,,,
56338289,1686,1686,1686,1687,,,,,
56340788,1683,1683,1683,1684,,,,,
56343287,1681,1681,1681,1681,,,,,
56345786,1678,1678,1678,1678,,,,,
56348285,1675,1675,1675,1675,,,,,
56350784,1673,1673,1673,1673,,,,,
56353283,1670,1670,1670,1670,,,,,
56355782,1667,1668,1668,1668,,,,,
