timestamp,TimeUS,C1,C2,C3,C4,C5,C6,C7,C8,C9,C10,C11,C12,C13,C14
1706445156.90003991,74928350,1000,1000,1000,1000,0,0,0,0,0,0,0,0,0,0
1706445157.00000000,75028310,1000,1000,1000,1000,0,0,0,0,0,0,0,0,0,0
1706445157.09995985,75128270,1000,1000,1000,1000,0,0,0,0,0,0,0,0,0,0
1706445157.19991994,75228230,1000,1000,1000,1000,0,0,0,0,0,0,0,0,0,0
1706445157.29988003,75328190,1000,1000,1000,1000,0,0,0,0,0,0,0,0,0,0
1706445157.40067291,75428983,1000,1000,1000,1000,0,0,0,0,0,0,0,0,0,0
1706445157.50063300,75528943,1000,1000,1000,1000,0,0,0,0,0,0,0,0,0,0
1706445157.60059285,75628903,1000,1000,1000,1000,0,0,0,0,0,0,0,0,0,0
1706445157.70055294,75728863,1000,1000,1000,1000,0,0,0,0,0,0,0,0,0,0
1706445157.80051303,75828823,1000,1000,1000,1000,0,0,0,0,0,0,0,0,0,0
1706445157.90047288,75928783,1000,1000,1000,1000,0,0,0,0,0,0,0,0,0,0
1706445158.00043297,76028743,1000,1000,1000,1000,0,0,0,0,0,0,0,0,0,0
1706445158.10039306,76128703,1000,1000,1000,1000,0,0,0,0,0,0,0,0,0,0
1706445158.20035291,76228663,1000,1000,1000,1000,0,0,0,0,0,0,0,0,0,0
1706445158.30031300,76328623,1000,1000,1000,1000,0,0,0,0,0,0,0,0,0,0
1706445158.40027285,76428583,1000,1000,1000,1000,0,0,0,0,0,0,0,0,0,0
1706445158.50023293,76528543,1000,1000,1000,1000,0,0,0,0,0,0,0,0,0,0
1706445158.60019302,76628503,1000,1000,1000,1000,0,0,0,0,0,0,0,0,0,0
1706445158.70015287,76728463,1000,1000,1000,1000,0,0,0,0,0,0,0,0,0,0
1706445158.80011296,76828423,1000,1000,1000,1000,0,0,0,0,0,0,0,0,0,0
1706445158.90007305,76928383,1006,1006,1006,1006,0,0,0,0,0,0,0,0,0,0
1706445159.00003290,77028343,1036,1036,1036,1036,0,0,0,0,0,0,0,0,0,0
1706445159.09999299,77128303,1066,1066,1066,1066,0,0,0,0,0,0,0,0,0,0
1706445159.19995284,77228263,1096,1096,1096,1096,0,0,0,0,0,0,0,0,0,0
1706445159.29991293,77328223,1126,1126,1126,1126,0,0,0,0,0,0,0,0,0,0
1706445159.39987302,77428183,1216,1205,1206,1217,0,0,0,0,0,0,0,0,0,0
1706445159.50066590,77528976,1445,1437,1437,1446,0,0,0,0,0,0,0,0,0,0
1706445159.60062599,77628936,1615,1608,1609,1616,0,0,0,0,0,0,0,0,0,0
1706445159.70058584,77728896,1757,1751,1751,1758,0,0,0,0,0,0,0,0,0,0
1706445159.80054593,77828856,1882,1875,1876,1882,0,0,0,0,0,0,0,0,0,0
1706445159.90050602,77928816,1892,1887,1887,1892,0,0,0,0,0,0,0,0,0,0
1706445160.00046587,78028776,1786,1785,1785,1787,0,0,0,0,0,0,0,0,0,0
1706445160.10042596,78128736,1676,1678,1678,1676,0,0,0,0,0,0,0,0,0,0
1706445160.20038605,78228696,1634,1638,1638,1634,0,0,0,0,0,0,0,0,0,0
1706445160.30034590,78328656,1637,1639,1640,1636,0,0,0,0,0,0,0,0,0,0
1706445160.40030599,78428616,1649,1641,1639,1650,0,0,0,0,0,0,0,0,0,0
1706445160.50026584,78528576,1638,1638,1631,1645,0,0,0,0,0,0,0,0,0,0
1706445160.60022593,78628536,1628,1630,1623,1635,0,0,0,0,0,0,0,0,0,0
1706445160.70018601,78728496,1621,1622,1620,1624,0,0,0,0,0,0,0,0,0,0
1706445160.80014586,78828456,1618,1618,1619,1616,0,0,0,0,0,0,0,0,0,0
1706445160.90010595,78928416,1620,1619,1623,1616,0,0,0,0,0,0,0,0,0,0
1706445161.00006604,79028376,1621,1621,1625,1616,0,0,0,0,0,0,0,0,0,0
1706445161.10002589,79128336,1591,1591,1605,1576,0,0,0,0,0,0,0,0,0,0
1706445161.19998598,79228296,1578,1578,1590,1566,0,0,0,0,0,0,0,0,0,0
1706445161.29994583,79328256,1566,1566,1569,1563,0,0,0,0,0,0,0,0,0,0
1706445161.39990592,79428216,1556,1556,1551,1561,0,0,0,0,0,0,0,0,0,0
1706445161.49986601,79528176,1548,1548,1539,1557,0,0,0,0,0,0,0,0,0,0
1706445161.60065889,79628969,1541,1541,1529,1552,0,0,0,0,0,0,0,0,0,0
1706445161.70061898,79728929,1536,1535,1527,1544,0,0,0,0,0,0,0,0,0,0
1706445161.80057883,79828889,1531,1531,1527,1534,0,0,0,0,0,0,0,0,0,0
1706445161.90053892,79928849,1528,1527,1527,1527,0,0,0,0,0,0,0,0,0,0
1706445162.00049901,80028809,1526,1526,1528,1524,0,0,0,0,0,0,0,0,0,0
1706445162.10045886,80128769,1528,1528,1530,1526,0,0,0,0,0,0,0,0,0,0
1706445162.20041895,80228729,1532,1531,1534,1529,0,0,0,0,0,0,0,0,0,0
1706445162.30037904,80328689,1535,1535,1537,1533,0,0,0,0,0,0,0,0,0,0
1706445162.40033889,80428649,1538,1538,1540,1536,0,0,0,0,0,0,0,0,0,0
1706445162.50029898,80528609,1542,1542,1544,1541,0,0,0,0,0,0,0,0,0,0
1706445162.60025883,80628569,1545,1545,1546,1545,0,0,0,0,0,0,0,0,0,0
1706445162.70021892,80728529,1549,1548,1548,1549,0,0,0,0,0,0,0,0,0,0
1706445162.80017900,80828489,1551,1550,1550,1551,0,0,0,0,0,0,0,0,0,0
1706445162.90013885,80928449,1554,1554,1553,1555,0,0,0,0,0,0,0,0,0,0
1706445163.00009894,81028409,1555,1556,1553,1556,0,0,0,0,0,0,0,0,0,0
1706445163.10005903,81128369,1560,1559,1555,1557,0,0,0,0,0,0,0,0,0,0
1706445163.20001888,81228329,1560,1561,1560,1561,0,0,0,0,0,0,0,0,0,0
1706445163.29997897,81328289,1560,1559,1562,1563,0,0,0,0,0,0,0,0,0,0
1706445163.39993882,81428249,1561,1561,1566,1566,0,0,0,0,0,0,0,0,0,0
1706445163.49989891,81528209,1562,1562,1568,1567,0,0,0,0,0,0,0,0,0,0
1706445163.59985900,81628169,1563,1564,1570,1569,0,0,0,0,0,0,0,0,0,0
1706445163.70065188,81728962,1566,1566,1571,1570,0,0,0,0,0,0,0,0,0,0
1706445163.80061197,81828922,1568,1567,1570,1570,0,0,0,0,0,0,0,0,0,0
1706445163.90057182,81928882,1568,1568,1569,1569,0,0,0,0,0,0,0,0,0,0
1706445164.00053191,82028842,1569,1569,1569,1569,0,0,0,0,0,0,0,0,0,0
1706445164.10049200,82128802,1572,1571,1570,1570,0,0,0,0,0,0,0,0,0,0
1706445164.20045185,82228762,1573,1573,1570,1570,0,0,0,0,0,0,0,0,0,0
1706445164.30041194,82328722,1575,1574,1571,1572,0,0,0,0,0,0,0,0,0,0
1706445164.40037203,82428682,1575,1576,1572,1571,0,0,0,0,0,0,0,0,0,0
1706445164.50033188,82528642,1575,1575,1572,1571,0,0,0,0,0,0,0,0,0,0
1706445164.60029197,82628602,1575,1575,1573,1571,0,0,0,0,0,0,0,0,0,0
1706445164.70025206,82728562,1576,1575,1574,1573,0,0,0,0,0,0,0,0,0,0
1706445164.80021191,82828522,1575,1575,1574,1573,0,0,0,0,0,0,0,0,0,0
1706445164.90017200,82928482,1577,1576,1576,1576,0,0,0,0,0,0,0,0,0,0
1706445165.00013185,83028442,1576,1576,1575,1576,0,0,0,0,0,0,0,0,0,0
1706445165.10009193,83128402,1576,1576,1576,1577,0,0,0,0,0,0,0,0,0,0
1706445165.20005202,83228362,1576,1576,1577,1577,0,0,0,0,0,0,0,0,0,0
1706445165.30001187,83328322,1576,1576,1578,1577,0,0,0,0,0,0,0,0,0,0
1706445165.39997196,83428282,1576,1576,1578,1577,0,0,0,0,0,0,0,0,0,0
1706445165.49993205,83528242,1578,1578,1579,1579,0,0,0,0,0,0,0,0,0,0
1706445165.59989190,83628202,1577,1577,1578,1578,0,0,0,0,0,0,0,0,0,0
1706445165.69985199,83728162,1578,1579,1579,1579,0,0,0,0,0,0,0,0,0,0
1706445165.80064487,83828955,1578,1578,1578,1578,0,0,0,0,0,0,0,0,0,0
1706445165.90060496,83928915,1577,1577,1577,1578,0,0,0,0,0,0,0,0,0,0
1706445166.00056505,84028875,1578,1578,1578,1578,0,0,0,0,0,0,0,0,0,0
1706445166.10052490,84128835,1580,1578,1578,1579,0,0,0,0,0,0,0,0,0,0
1706445166.20048499,84228795,1579,1579,1579,1579,0,0,0,0,0,0,0,0,0,0
1706445166.30044484,84328755,1580,1580,1579,1579,0,0,0,0,0,0,0,0,0,0
1706445166.40040493,84428715,1579,1579,1579,1578,0,0,0,0,0,0,0,0,0,0
1706445166.50036502,84528675,1579,1579,1578,1578,0,0,0,0,0,0,0,0,0,0
1706445166.60032487,84628635,1579,1579,1579,1579,0,0,0,0,0,0,0,0,0,0
1706445166.70028496,84728595,1579,1579,1579,1579,0,0,0,0,0,0,0,0,0,0
1706445166.80024505,84828555,1579,1579,1579,1580,0,0,0,0,0,0,0,0,0,0
1706445166.90020490,84928515,1579,1579,1579,1580,0,0,0,0,0,0,0,0,0,0
1706445167.00016499,85028475,1579,1579,1579,1579,0,0,0,0,0,0,0,0,0,0
1706445167.10012484,85128435,1579,1579,1580,1579,0,0,0,0,0,0,0,0,0,0
1706445167.20008492,85228395,1579,1579,1580,1579,0,0,0,0,0,0,0,0,0,0
1706445167.30004501,85328355,1579,1579,1579,1580,0,0,0,0,0,0,0,0,0,0
1706445167.40000486,85428315,1579,1580,1580,1580,0,0,0,0,0,0,0,0,0,0
1706445167.49996495,85528275,1579,1579,1579,1580,0,0,0,0,0,0,0,0,0,0
1706445167.59992504,85628235,1580,1580,1580,1580,0,0,0,0,0,0,0,0,0,0
1706445167.69988489,85728195,1580,1579,1580,1580,0,0,0,0,0,0,0,0,0,0
1706445167.79984498,85828155,1580,1580,1580,1580,0,0,0,0,0,0,0,0,0,0
1706445167.90063787,85928948,1580,1580,1581,1580,0,0,0,0,0,0,0,0,0,0
1706445168.00059795,86028908,1580,1580,1580,1580,0,0,0,0,0,0,0,0,0,0
1706445168.10055804,86128868,1580,1580,1580,1580,0,0,0,0,0,0,0,0,0,0
1706445168.20051789,86228828,1581,1580,1580,1580,0,0,0,0,0,0,0,0,0,0
1706445168.30047798,86328788,1581,1580,1580,1580,0,0,0,0,0,0,0,0,0,0
1706445168.40043783,86428748,1581,1581,1580,1581,0,0,0,0,0,0,0,0,0,0
1706445168.50039792,86528708,1580,1580,1580,1580,0,0,0,0,0,0,0,0,0,0
1706445168.60035801,86628668,1581,1581,1581,1581,0,0,0,0,0,0,0,0,0,0
1706445168.70031786,86728628,1581,1581,1581,1581,0,0,0,0,0,0,0,0,0,0
1706445168.80027795,86828588,1581,1581,1581,1581,0,0,0,0,0,0,0,0,0,0
1706445168.90023804,86928548,1580,1580,1580,1580,0,0,0,0,0,0,0,0,0,0
1706445169.00019789,87028508,1581,1581,1581,1581,0,0,0,0,0,0,0,0,0,0
1706445169.10015798,87128468,1581,1581,1581,1581,0,0,0,0,0,0,0,0,0,0
1706445169.20011783,87228428,1581,1581,1584,1577,0,0,0,0,0,0,0,0,0,0
1706445169.30007792,87328388,1581,1583,1588,1574,0,0,0,0,0,0,0,0,0,0
1706445169.40003800,87428348,1580,1582,1582,1574,0,0,0,0,0,0,0,0,0,0
1706445169.49999785,87528308,1579,1581,1573,1574,0,0,0,0,0,0,0,0,0,0
1706445169.59995794,87628268,1577,1579,1564,1570,0,0,0,0,0,0,0,0,0,0
1706445169.69991803,87728228,1576,1579,1558,1565,0,0,0,0,0,0,0,0,0,0
1706445169.79987788,87828188,1578,1578,1556,1561,0,0,0,0,0,0,0,0,0,0
1706445169.90067101,87928981,1579,1577,1555,1557,0,0,0,0,0,0,0,0,0,0
1706445170.00063086,88028941,1580,1579,1556,1555,0,0,0,0,0,0,0,0,0,0
1706445170.10059094,88128901,1578,1578,1556,1553,0,0,0,0,0,0,0,0,0,0
1706445170.20055103,88228861,1578,1578,1556,1554,0,0,0,0,0,0,0,0,0,0
1706445170.30051088,88328821,1577,1578,1555,1554,0,0,0,0,0,0,0,0,0,0
1706445170.40047097,88428781,1576,1577,1555,1554,0,0,0,0,0,0,0,0,0,0
1706445170.50043082,88528741,1575,1576,1554,1553,0,0,0,0,0,0,0,0,0,0
1706445170.60039091,88628701,1576,1577,1553,1553,0,0,0,0,0,0,0,0,0,0
1706445170.70035100,88728661,1576,1578,1551,1551,0,0,0,0,0,0,0,0,0,0
1706445170.80031085,88828621,1578,1580,1549,1550,0,0,0,0,0,0,0,0,0,0
1706445170.90027094,88928581,1579,1580,1546,1546,0,0,0,0,0,0,0,0,0,0
1706445171.00023103,89028541,1583,1584,1544,1544,0,0,0,0,0,0,0,0,0,0
1706445171.10019088,89128501,1586,1587,1541,1541,0,0,0,0,0,0,0,0,0,0
1706445171.20015097,89228461,1589,1590,1539,1539,0,0,0,0,0,0,0,0,0,0
1706445171.30011106,89328421,1593,1593,1537,1537,0,0,0,0,0,0,0,0,0,0
1706445171.40007091,89428381,1595,1594,1535,1535,0,0,0,0,0,0,0,0,0,0
1706445171.50003099,89528341,1596,1595,1535,1536,0,0,0,0,0,0,0,0,0,0
1706445171.59999084,89628301,1595,1595,1535,1537,0,0,0,0,0,0,0,0,0,0
1706445171.69995093,89728261,1593,1593,1537,1540,0,0,0,0,0,0,0,0,0,0
1706445171.79991102,89828221,1590,1589,1541,1544,0,0,0,0,0,0,0,0,0,0
1706445171.89987087,89928181,1585,1583,1548,1551,0,0,0,0,0,0,0,0,0,0
1706445172.00066400,90028974,1578,1575,1558,1560,0,0,0,0,0,0,0,0,0,0
1706445172.10062385,90128934,1569,1565,1570,1572,0,0,0,0,0,0,0,0,0,0
1706445172.20058393,90228894,1557,1553,1581,1583,0,0,0,0,0,0,0,0,0,0
1706445172.30054402,90328854,1547,1543,1594,1595,0,0,0,0,0,0,0,0,0,0
1706445172.40050387,90428814,1537,1536,1605,1604,0,0,0,0,0,0,0,0,0,0
1706445172.50046396,90528774,1531,1531,1612,1611,0,0,0,0,0,0,0,0,0,0
1706445172.60042405,90628734,1528,1530,1616,1614,0,0,0,0,0,0,0,0,0,0
1706445172.70038390,90728694,1530,1532,1616,1615,0,0,0,0,0,0,0,0,0,0
1706445172.80034399,90828654,1534,1536,1612,1611,0,0,0,0,0,0,0,0,0,0
1706445172.90030384,90928614,1542,1543,1606,1607,0,0,0,0,0,0,0,0,0,0
1706445173.00026393,91028574,1549,1551,1599,1599,0,0,0,0,0,0,0,0,0,0
1706445173.10022402,91128534,1558,1559,1591,1591,0,0,0,0,0,0,0,0,0,0
1706445173.20018387,91228494,1568,1568,1584,1584,0,0,0,0,0,0,0,0,0,0
1706445173.30014396,91328454,1575,1574,1577,1576,0,0,0,0,0,0,0,0,0,0
1706445173.40010405,91428414,1582,1580,1572,1572,0,0,0,0,0,0,0,0,0,0
1706445173.50006390,91528374,1586,1585,1569,1568,0,0,0,0,0,0,0,0,0,0
1706445173.60002398,91628334,1588,1586,1566,1566,0,0,0,0,0,0,0,0,0,0
1706445173.69998384,91728294,1588,1587,1566,1566,0,0,0,0,0,0,0,0,0,0
1706445173.79994392,91828254,1587,1586,1567,1567,0,0,0,0,0,0,0,0,0,0
1706445173.89990401,91928214,1584,1584,1569,1569,0,0,0,0,0,0,0,0,0,0
1706445173.99986386,92028174,1582,1582,1573,1573,0,0,0,0,0,0,0,0,0,0
1706445174.10065699,92128967,1580,1580,1577,1576,0,0,0,0,0,0,0,0,0,0
1706445174.20061684,92228927,1576,1577,1578,1578,0,0,0,0,0,0,0,0,0,0
1706445174.30057693,92328887,1575,1576,1581,1582,0,0,0,0,0,0,0,0,0,0
1706445174.40053701,92428847,1572,1573,1582,1582,0,0,0,0,0,0,0,0,0,0
1706445174.50049686,92528807,1572,1572,1583,1583,0,0,0,0,0,0,0,0,0,0
1706445174.60045695,92628767,1571,1571,1583,1583,0,0,0,0,0,0,0,0,0,0
1706445174.70041704,92728727,1573,1573,1584,1583,0,0,0,0,0,0,0,0,0,0
1706445174.80037689,92828687,1574,1574,1583,1583,0,0,0,0,0,0,0,0,0,0
1706445174.90033698,92928647,1575,1575,1582,1581,0,0,0,0,0,0,0,0,0,0
1706445175.00029683,93028607,1576,1576,1580,1580,0,0,0,0,0,0,0,0,0,0
1706445175.10025692,93128567,1578,1578,1579,1579,0,0,0,0,0,0,0,0,0,0
1706445175.20021701,93228527,1579,1579,1578,1578,0,0,0,0,0,0,0,0,0,0
1706445175.30017686,93328487,1580,1580,1578,1578,0,0,0,0,0,0,0,0,0,0
1706445175.40013695,93428447,1581,1580,1577,1577,0,0,0,0,0,0,0,0,0,0
1706445175.50009704,93528407,1581,1581,1577,1577,0,0,0,0,0,0,0,0,0,0
1706445175.60005689,93628367,1581,1581,1577,1577,0,0,0,0,0,0,0,0,0,0
1706445175.70001698,93728327,1581,1581,1578,1577,0,0,0,0,0,0,0,0,0,0
1706445175.79997683,93828287,1582,1582,1579,1579,0,0,0,0,0,0,0,0,0,0
1706445175.89993691,93928247,1581,1581,1579,1579,0,0,0,0,0,0,0,0,0,0
1706445175.99989700,94028207,1581,1581,1580,1579,0,0,0,0,0,0,0,0,0,0
1706445176.09985685,94128167,1580,1579,1579,1579,0,0,0,0,0,0,0,0,0,0
1706445176.20064998,94228960,1580,1580,1580,1580,0,0,0,0,0,0,0,0,0,0
1706445176.30060983,94328920,1579,1579,1580,1581,0,0,0,0,0,0,0,0,0,0
1706445176.40056992,94428880,1580,1580,1581,1582,0,0,0,0,0,0,0,0,0,0
1706445176.50053000,94528840,1580,1580,1582,1582,0,0,0,0,0,0,0,0,0,0
1706445176.60048985,94628800,1579,1579,1581,1581,0,0,0,0,0,0,0,0,0,0
1706445176.70044994,94728760,1578,1579,1580,1580,0,0,0,0,0,0,0,0,0,0
1706445176.80041003,94828720,1580,1580,1581,1581,0,0,0,0,0,0,0,0,0,0
1706445176.90036988,94928680,1580,1580,1580,1581,0,0,0,0,0,0,0,0,0,0
1706445177.00032997,95028640,1597,1576,1596,1577,0,0,0,0,0,0,0,0,0,0
1706445177.10028982,95128600,1600,1580,1601,1579,0,0,0,0,0,0,0,0,0,0
1706445177.20024991,95228560,1602,1588,1606,1582,0,0,0,0,0,0,0,0,0,0
1706445177.30021000,95328520,1598,1594,1602,1579,0,0,0,0,0,0,0,0,0,0
1706445177.40016985,95428480,1590,1595,1587,1579,0,0,0,0,0,0,0,0,0,0
1706445177.50012994,95528440,1583,1592,1572,1579,0,0,0,0,0,0,0,0,0,0
1706445177.60009003,95628400,1578,1588,1561,1576,0,0,0,0,0,0,0,0,0,0
1706445177.70004988,95728360,1575,1582,1554,1569,0,0,0,0,0,0,0,0,0,0
1706445177.80000997,95828320,1576,1580,1553,1561,0,0,0,0,0,0,0,0,0,0
1706445177.89997005,95928280,1580,1578,1553,1556,0,0,0,0,0,0,0,0,0,0
1706445177.99992990,96028240,1581,1578,1555,1552,0,0,0,0,0,0,0,0,0,0
1706445178.09988999,96128200,1582,1579,1555,1550,0,0,0,0,0,0,0,0,0,0
1706445178.19984984,96228160,1581,1579,1554,1550,0,0,0,0,0,0,0,0,0,0
1706445178.30064297,96328953,1579,1579,1553,1550,0,0,0,0,0,0,0,0,0,0
1706445178.40060306,96428913,1576,1578,1550,1550,0,0,0,0,0,0,0,0,0,0
1706445178.50056291,96528873,1577,1579,1550,1551,0,0,0,0,0,0,0,0,0,0
1706445178.60052299,96628833,1576,1578,1548,1549,0,0,0,0,0,0,0,0,0,0
1706445178.70048285,96728793,1577,1579,1547,1549,0,0,0,0,0,0,0,0,0,0
1706445178.80044293,96828753,1579,1581,1547,1547,0,0,0,0,0,0,0,0,0,0
1706445178.90040302,96928713,1581,1582,1545,1545,0,0,0,0,0,0,0,0,0,0
1706445179.00036287,97028673,1584,1585,1544,1544,0,0,0,0,0,0,0,0,0,0
1706445179.10032296,97128633,1586,1586,1543,1542,0,0,0,0,0,0,0,0,0,0
1706445179.20028305,97228593,1588,1588,1542,1541,0,0,0,0,0,0,0,0,0,0
1706445179.30024290,97328553,1589,1589,1539,1540,0,0,0,0,0,0,0,0,0,0
1706445179.40020299,97428513,1590,1591,1538,1540,0,0,0,0,0,0,0,0,0,0
1706445179.50016284,97528473,1590,1590,1538,1541,0,0,0,0,0,0,0,0,0,0
1706445179.60012293,97628433,1591,1590,1543,1545,0,0,0,0,0,0,0,0,0,0
1706445179.70008302,97728393,1588,1585,1548,1551,0,0,0,0,0,0,0,0,0,0
1706445179.80004287,97828353,1582,1578,1556,1558,0,0,0,0,0,0,0,0,0,0
1706445179.90000296,97928313,1575,1571,1566,1568,0,0,0,0,0,0,0,0,0,0
1706445179.99996305,98028273,1565,1561,1576,1577,0,0,0,0,0,0,0,0,0,0
1706445180.09992290,98128233,1555,1552,1587,1588,0,0,0,0,0,0,0,0,0,0
1706445180.19988298,98228193,1546,1545,1597,1597,0,0,0,0,0,0,0,0,0,0
1706445180.30067587,98328986,1539,1539,1604,1604,0,0,0,0,0,0,0,0,0,0
1706445180.40063596,98428946,1536,1537,1609,1608,0,0,0,0,0,0,0,0,0,0
1706445180.50059605,98528906,1535,1537,1610,1609,0,0,0,0,0,0,0,0,0,0
1706445180.60055590,98628866,1538,1539,1608,1608,0,0,0,0,0,0,0,0,0,0
1706445180.70051599,98728826,1543,1545,1605,1605,0,0,0,0,0,0,0,0,0,0
1706445180.80047584,98828786,1550,1552,1601,1600,0,0,0,0,0,0,0,0,0,0
1706445180.90043592,98928746,1558,1559,1595,1594,0,0,0,0,0,0,0,0,0,0
1706445181.00039601,99028706,1566,1566,1588,1587,0,0,0,0,0,0,0,0,0,0
1706445181.10035586,99128666,1572,1572,1582,1581,0,0,0,0,0,0,0,0,0,0
1706445181.20031595,99228626,1578,1577,1576,1576,0,0,0,0,0,0,0,0,0,0
1706445181.30027604,99328586,1582,1581,1572,1572,0,0,0,0,0,0,0,0,0,0
1706445181.40023589,99428546,1585,1583,1569,1570,0,0,0,0,0,0,0,0,0,0
1706445181.50019598,99528506,1586,1584,1568,1568,0,0,0,0,0,0,0,0,0,0
1706445181.60015583,99628466,1585,1585,1568,1569,0,0,0,0,0,0,0,0,0,0
1706445181.70011592,99728426,1584,1584,1570,1570,0,0,0,0,0,0,0,0,0,0
1706445181.80007601,99828386,1583,1582,1573,1572,0,0,0,0,0,0,0,0,0,0
1706445181.90003586,99928346,1580,1580,1574,1574,0,0,0,0,0,0,0,0,0,0
1706445181.99999595,100028306,1579,1579,1578,1578,0,0,0,0,0,0,0,0,0,0
1706445182.09995604,100128266,1577,1577,1580,1580,0,0,0,0,0,0,0,0,0,0
1706445182.19991589,100228226,1575,1576,1582,1581,0,0,0,0,0,0,0,0,0,0
1706445182.29987597,100328186,1574,1575,1584,1583,0,0,0,0,0,0,0,0,0,0
1706445182.40066886,100428979,1574,1575,1584,1584,0,0,0,0,0,0,0,0,0,0
1706445182.50062895,100528939,1574,1575,1585,1585,0,0,0,0,0,0,0,0,0,0
1706445182.60058904,100628899,1574,1574,1583,1583,0,0,0,0,0,0,0,0,0,0
1706445182.70054889,100728859,1575,1576,1582,1582,0,0,0,0,0,0,0,0,0,0
1706445182.80050898,100828819,1576,1577,1582,1581,0,0,0,0,0,0,0,0,0,0
1706445182.90046883,100928779,1578,1578,1581,1581,0,0,0,0,0,0,0,0,0,0
1706445183.00042892,101028739,1579,1579,1580,1580,0,0,0,0,0,0,0,0,0,0
1706445183.10038900,101128699,1579,1579,1578,1579,0,0,0,0,0,0,0,0,0,0
1706445183.20034885,101228659,1581,1580,1577,1578,0,0,0,0,0,0,0,0,0,0
1706445183.30030894,101328619,1582,1581,1578,1578,0,0,0,0,0,0,0,0,0,0
1706445183.40026903,101428579,1582,1581,1578,1577,0,0,0,0,0,0,0,0,0,0
1706445183.50022888,101528539,1582,1581,1578,1578,0,0,0,0,0,0,0,0,0,0
1706445183.60018897,101628499,1582,1582,1579,1579,0,0,0,0,0,0,0,0,0,0
1706445183.70014882,101728459,1581,1581,1579,1579,0,0,0,0,0,0,0,0,0,0
1706445183.80010891,101828419,1582,1582,1580,1580,0,0,0,0,0,0,0,0,0,0
1706445183.90006900,101928379,1580,1580,1580,1580,0,0,0,0,0,0,0,0,0,0
1706445184.00002885,102028339,1579,1579,1580,1579,0,0,0,0,0,0,0,0,0,0
1706445184.09998894,102128299,1580,1579,1580,1580,0,0,0,0,0,0,0,0,0,0
1706445184.19994903,102228259,1580,1580,1581,1581,0,0,0,0,0,0,0,0,0,0
1706445184.29990888,102328219,1579,1579,1580,1581,0,0,0,0,0,0,0,0,0,0
1706445184.39986897,102428179,1579,1579,1581,1580,0,0,0,0,0,0,0,0,0,0
1706445184.50066185,102528972,1580,1580,1581,1581,0,0,0,0,0,0,0,0,0,0
1706445184.60062194,102628932,1580,1580,1581,1581,0,0,0,0,0,0,0,0,0,0
1706445184.70058203,102728892,1581,1580,1581,1581,0,0,0,0,0,0,0,0,0,0
1706445184.80054188,102828852,1581,1581,1582,1581,0,0,0,0,0,0,0,0,0,0
1706445184.90050197,102928812,1581,1582,1582,1581,0,0,0,0,0,0,0,0,0,0
1706445185.00046206,103028772,1581,1581,1581,1581,0,0,0,0,0,0,0,0,0,0
1706445185.10042191,103128732,1581,1581,1580,1581,0,0,0,0,0,0,0,0,0,0
1706445185.20038199,103228692,1581,1581,1580,1580,0,0,0,0,0,0,0,0,0,0
1706445185.30034184,103328652,1582,1582,1583,1579,0,0,0,0,0,0,0,0,0,0
1706445185.40030193,103428612,1581,1583,1588,1573,0,0,0,0,0,0,0,0,0,0
1706445185.50026202,103528572,1581,1583,1583,1573,0,0,0,0,0,0,0,0,0,0
1706445185.60022187,103628532,1578,1581,1573,1572,0,0,0,0,0,0,0,0,0,0
1706445185.70018196,103728492,1577,1581,1566,1571,0,0,0,0,0,0,0,0,0,0
1706445185.80014205,103828452,1577,1579,1559,1566,0,0,0,0,0,0,0,0,0,0
1706445185.90010190,103928412,1579,1579,1556,1562,0,0,0,0,0,0,0,0,0,0
1706445186.00006199,104028372,1580,1579,1555,1558,0,0,0,0,0,0,0,0,0,0
1706445186.10002184,104128332,1581,1579,1556,1556,0,0,0,0,0,0,0,0,0,0
1706445186.19998193,104228292,1581,1579,1557,1554,0,0,0,0,0,0,0,0,0,0
1706445186.29994202,104328252,1579,1579,1556,1554,0,0,0,0,0,0,0,0,0,0
1706445186.39990187,104428212,1578,1578,1556,1553,0,0,0,0,0,0,0,0,0,0
1706445186.49986196,104528172,1577,1579,1556,1555,0,0,0,0,0,0,0,0,0,0
1706445186.60065484,104628965,1576,1578,1555,1554,0,0,0,0,0,0,0,0,0,0
1706445186.70061493,104728925,1575,1576,1553,1554,0,0,0,0,0,0,0,0,0,0
1706445186.80057502,104828885,1576,1577,1552,1553,0,0,0,0,0,0,0,0,0,0
1706445186.90053487,104928845,1577,1578,1550,1551,0,0,0,0,0,0,0,0,0,0
1706445187.00049496,105028805,1578,1580,1548,1548,0,0,0,0,0,0,0,0,0,0
1706445187.10045505,105128765,1581,1583,1546,1546,0,0,0,0,0,0,0,0,0,0
1706445187.20041490,105228725,1584,1585,1543,1543,0,0,0,0,0,0,0,0,0,0
1706445187.30037498,105328685,1587,1587,1542,1541,0,0,0,0,0,0,0,0,0,0
1706445187.40033484,105428645,1589,1589,1540,1539,0,0,0,0,0,0,0,0,0,0
1706445187.50029492,105528605,1592,1591,1539,1539,0,0,0,0,0,0,0,0,0,0
1706445187.60025501,105628565,1592,1593,1537,1539,0,0,0,0,0,0,0,0,0,0
1706445187.70021486,105728525,1593,1593,1537,1539,0,0,0,0,0,0,0,0,0,0
1706445187.80017495,105828485,1593,1593,1539,1541,0,0,0,0,0,0,0,0,0,0
1706445187.90013504,105928445,1590,1589,1543,1545,0,0,0,0,0,0,0,0,0,0
1706445188.00009489,106028405,1587,1585,1549,1552,0,0,0,0,0,0,0,0,0,0
1706445188.10005498,106128365,1581,1577,1558,1561,0,0,0,0,0,0,0,0,0,0
1706445188.20001483,106228325,1572,1567,1568,1571,0,0,0,0,0,0,0,0,0,0
1706445188.29997492,106328285,1562,1558,1581,1582,0,0,0,0,0,0,0,0,0,0
1706445188.39993501,106428245,1551,1548,1591,1592,0,0,0,0,0,0,0,0,0,0
1706445188.49989486,106528205,1542,1541,1601,1601,0,0,0,0,0,0,0,0,0,0
1706445188.59985495,106628165,1535,1536,1608,1606,0,0,0,0,0,0,0,0,0,0
1706445188.70064783,106728958,1532,1534,1612,1610,0,0,0,0,0,0,0,0,0,0
1706445188.80060792,106828918,1534,1536,1613,1612,0,0,0,0,0,0,0,0,0,0
1706445188.90056801,106928878,1537,1539,1610,1609,0,0,0,0,0,0,0,0,0,0
1706445189.00052786,107028838,1543,1545,1605,1606,0,0,0,0,0,0,0,0,0,0
1706445189.10048795,107128798,1551,1553,1601,1600,0,0,0,0,0,0,0,0,0,0
1706445189.20044804,107228758,1559,1558,1592,1592,0,0,0,0,0,0,0,0,0,0
1706445189.30040789,107328718,1567,1566,1586,1585,0,0,0,0,0,0,0,0,0,0
1706445189.40036798,107428678,1573,1573,1579,1578,0,0,0,0,0,0,0,0,0,0
1706445189.50032783,107528638,1580,1579,1574,1574,0,0,0,0,0,0,0,0,0,0
1706445189.60028791,107628598,1584,1582,1570,1570,0,0,0,0,0,0,0,0,0,0
1706445189.70024800,107728558,1587,1585,1568,1568,0,0,0,0,0,0,0,0,0,0
1706445189.80020785,107828518,1587,1586,1567,1568,0,0,0,0,0,0,0,0,0,0
1706445189.90016794,107928478,1587,1585,1568,1569,0,0,0,0,0,0,0,0,0,0
1706445190.00012803,108028438,1585,1584,1570,1570,0,0,0,0,0,0,0,0,0,0
1706445190.10008788,108128398,1582,1582,1572,1572,0,0,0,0,0,0,0,0,0,0
1706445190.20004797,108228358,1579,1580,1575,1574,0,0,0,0,0,0,0,0,0,0
1706445190.30000806,108328318,1577,1578,1578,1578,0,0,0,0,0,0,0,0,0,0
1706445190.39996791,108428278,1575,1576,1580,1580,0,0,0,0,0,0,0,0,0,0
1706445190.49992800,108528238,1574,1574,1582,1582,0,0,0,0,0,0,0,0,0,0
1706445190.59988785,108628198,1572,1573,1583,1583,0,0,0,0,0,0,0,0,0,0
1706445190.69984794,108728158,1573,1573,1583,1584,0,0,0,0,0,0,0,0,0,0
1706445190.80064082,108828951,1573,1574,1584,1583,0,0,0,0,0,0,0,0,0,0
1706445190.90060091,108928911,1574,1574,1582,1582,0,0,0,0,0,0,0,0,0,0
1706445191.00056100,109028871,1575,1576,1582,1583,0,0,0,0,0,0,0,0,0,0
1706445191.10052085,109128831,1577,1577,1581,1581,0,0,0,0,0,0,0,0,0,0
1706445191.20048094,109228791,1578,1578,1580,1580,0,0,0,0,0,0,0,0,0,0
1706445191.30044103,109328751,1579,1579,1579,1579,0,0,0,0,0,0,0,0,0,0
1706445191.40040088,109428711,1580,1580,1578,1579,0,0,0,0,0,0,0,0,0,0
1706445191.50036097,109528671,1581,1581,1578,1579,0,0,0,0,0,0,0,0,0,0
1706445191.60032105,109628631,1581,1581,1577,1577,0,0,0,0,0,0,0,0,0,0
1706445191.70028090,109728591,1582,1582,1577,1578,0,0,0,0,0,0,0,0,0,0
1706445191.80024099,109828551,1582,1581,1577,1578,0,0,0,0,0,0,0,0,0,0
1706445191.90020084,109928511,1581,1580,1578,1577,0,0,0,0,0,0,0,0,0,0
1706445192.00016093,110028471,1582,1581,1579,1579,0,0,0,0,0,0,0,0,0,0
1706445192.10012102,110128431,1581,1581,1580,1580,0,0,0,0,0,0,0,0,0,0
1706445192.20008087,110228391,1581,1581,1581,1580,0,0,0,0,0,0,0,0,0,0
1706445192.30004096,110328351,1580,1580,1580,1581,0,0,0,0,0,0,0,0,0,0
1706445192.40000105,110428311,1580,1580,1581,1581,0,0,0,0,0,0,0,0,0,0
1706445192.49996090,110528271,1579,1579,1581,1581,0,0,0,0,0,0,0,0,0,0
1706445192.59992099,110628231,1580,1580,1582,1582,0,0,0,0,0,0,0,0,0,0
1706445192.69988084,110728191,1580,1581,1582,1582,0,0,0,0,0,0,0,0,0,0
1706445192.80067396,110828984,1579,1579,1581,1580,0,0,0,0,0,0,0,0,0,0
1706445192.90063405,110928944,1580,1580,1581,1581,0,0,0,0,0,0,0,0,0,0
1706445193.00059390,111028904,1580,1580,1581,1581,0,0,0,0,0,0,0,0,0,0
1706445193.10055399,111128864,1581,1580,1581,1581,0,0,0,0,0,0,0,0,0,0
1706445193.20051384,111228824,1581,1580,1580,1580,0,0,0,0,0,0,0,0,0,0
1706445193.30047393,111328784,1582,1583,1588,1575,0,0,0,0,0,0,0,0,0,0
1706445193.40043402,111428744,1581,1582,1586,1573,0,0,0,0,0,0,0,0,0,0
1706445193.50039387,111528704,1578,1579,1579,1574,0,0,0,0,0,0,0,0,0,0
1706445193.60035396,111628664,1575,1574,1571,1574,0,0,0,0,0,0,0,0,0,0
1706445193.70031404,111728624,1573,1572,1567,1575,0,0,0,0,0,0,0,0,0,0
1706445193.80027390,111828584,1570,1569,1565,1572,0,0,0,0,0,0,0,0,0,0
1706445193.90023398,111928544,1568,1567,1564,1569,0,0,0,0,0,0,0,0,0,0
1706445194.00019383,112028504,1567,1567,1566,1567,0,0,0,0,0,0,0,0,0,0
1706445194.10015392,112128464,1566,1567,1567,1566,0,0,0,0,0,0,0,0,0,0
1706445194.20011401,112228424,1566,1566,1568,1565,0,0,0,0,0,0,0,0,0,0
1706445194.30007386,112328384,1564,1564,1566,1563,0,0,0,0,0,0,0,0,0,0
1706445194.40003395,112428344,1563,1563,1565,1562,0,0,0,0,0,0,0,0,0,0
1706445194.49999404,112528304,1563,1563,1564,1563,0,0,0,0,0,0,0,0,0,0
1706445194.59995389,112628264,1562,1562,1562,1563,0,0,0,0,0,0,0,0,0,0
1706445194.69991398,112728224,1562,1562,1562,1563,0,0,0,0,0,0,0,0,0,0
1706445194.79987383,112828184,1561,1561,1562,1562,0,0,0,0,0,0,0,0,0,0
1706445194.90066695,112928977,1561,1562,1561,1562,0,0,0,0,0,0,0,0,0,0
1706445195.00062704,113028937,1562,1561,1562,1561,0,0,0,0,0,0,0,0,0,0
1706445195.10058689,113128897,1561,1561,1561,1560,0,0,0,0,0,0,0,0,0,0
1706445195.20054698,113228857,1561,1560,1561,1559,0,0,0,0,0,0,0,0,0,0
1706445195.30050683,113328817,1559,1560,1560,1559,0,0,0,0,0,0,0,0,0,0
1706445195.40046692,113428777,1558,1559,1559,1558,0,0,0,0,0,0,0,0,0,0
1706445195.50042701,113528737,1558,1558,1558,1557,0,0,0,0,0,0,0,0,0,0
1706445195.60038686,113628697,1558,1558,1558,1557,0,0,0,0,0,0,0,0,0,0
1706445195.70034695,113728657,1558,1558,1558,1557,0,0,0,0,0,0,0,0,0,0
1706445195.80030704,113828617,1559,1558,1559,1557,0,0,0,0,0,0,0,0,0,0
1706445195.90026689,113928577,1558,1558,1560,1557,0,0,0,0,0,0,0,0,0,0
1706445196.00022697,114028537,1559,1559,1561,1557,0,0,0,0,0,0,0,0,0,0
1706445196.10018682,114128497,1559,1559,1559,1560,0,0,0,0,0,0,0,0,0,0
1706445196.20014691,114228457,1560,1560,1558,1563,0,0,0,0,0,0,0,0,0,0
1706445196.30010700,114328417,1560,1560,1557,1564,0,0,0,0,0,0,0,0,0,0
1706445196.40006685,114428377,1562,1562,1560,1565,0,0,0,0,0,0,0,0,0,0
1706445196.50002694,114528337,1563,1562,1560,1564,0,0,0,0,0,0,0,0,0,0
1706445196.59998703,114628297,1564,1563,1563,1564,0,0,0,0,0,0,0,0,0,0
1706445196.69994688,114728257,1564,1564,1564,1563,0,0,0,0,0,0,0,0,0,0
1706445196.79990697,114828217,1563,1563,1564,1562,0,0,0,0,0,0,0,0,0,0
1706445196.89986706,114928177,1559,1560,1558,1560,0,0,0,0,0,0,0,0,0,0
1706445197.00065994,115028970,1555,1555,1554,1556,0,0,0,0,0,0,0,0,0,0
1706445197.10062003,115128930,1550,1550,1549,1551,0,0,0,0,0,0,0,0,0,0
1706445197.20057988,115228890,1544,1544,1544,1544,0,0,0,0,0,0,0,0,0,0
1706445197.30053997,115328850,1538,1537,1537,1538,0,0,0,0,0,0,0,0,0,0
1706445197.40049982,115428810,1531,1531,1531,1531,0,0,0,0,0,0,0,0,0,0
1706445197.50045991,115528770,1524,1524,1524,1523,0,0,0,0,0,0,0,0,0,0
1706445197.60042000,115628730,1521,1521,1521,1521,0,0,0,0,0,0,0,0,0,0
1706445197.70037985,115728690,1520,1520,1520,1520,0,0,0,0,0,0,0,0,0,0
1706445197.80033994,115828650,1521,1521,1521,1521,0,0,0,0,0,0,0,0,0,0
1706445197.90030003,115928610,1523,1523,1523,1524,0,0,0,0,0,0,0,0,0,0
1706445198.00025988,116028570,1525,1526,1525,1526,0,0,0,0,0,0,0,0,0,0
1706445198.10021996,116128530,1531,1530,1530,1531,0,0,0,0,0,0,0,0,0,0
1706445198.20018005,116228490,1536,1535,1535,1535,0,0,0,0,0,0,0,0,0,0
1706445198.30013990,116328450,1538,1538,1538,1538,0,0,0,0,0,0,0,0,0,0
1706445198.40009999,116428410,1541,1541,1541,1541,0,0,0,0,0,0,0,0,0,0
1706445198.50005984,116528370,1543,1543,1543,1543,0,0,0,0,0,0,0,0,0,0
1706445198.60001993,116628330,1545,1545,1545,1545,0,0,0,0,0,0,0,0,0,0
1706445198.69998002,116728290,1546,1546,1546,1545,0,0,0,0,0,0,0,0,0,0
1706445198.79993987,116828250,1545,1546,1546,1545,0,0,0,0,0,0,0,0,0,0
1706445198.89989996,116928210,1546,1546,1546,1546,0,0,0,0,0,0,0,0,0,0
1706445198.99986005,117028170,1546,1546,1546,1546,0,0,0,0,0,0,0,0,0,0
1706445199.10065293,117128963,1546,1546,1546,1545,0,0,0,0,0,0,0,0,0,0
1706445199.20061302,117228923,1546,1546,1546,1546,0,0,0,0,0,0,0,0,0,0
1706445199.30057287,117328883,1546,1546,1546,1546,0,0,0,0,0,0,0,0,0,0
1706445199.40053296,117428843,1545,1545,1545,1545,0,0,0,0,0,0,0,0,0,0
1706445199.50049305,117528803,1545,1545,1545,1545,0,0,0,0,0,0,0,0,0,0
1706445199.60045290,117628763,1544,1544,1545,1544,0,0,0,0,0,0,0,0,0,0
1706445199.70041299,117728723,1545,1545,1545,1545,0,0,0,0,0,0,0,0,0,0
1706445199.80037284,117828683,1544,1545,1545,1544,0,0,0,0,0,0,0,0,0,0
1706445199.90033293,117928643,1545,1545,1545,1545,0,0,0,0,0,0,0,0,0,0
1706445200.00029302,118028603,1545,1545,1545,1545,0,0,0,0,0,0,0,0,0,0
1706445200.10025287,118128563,1544,1544,1544,1544,0,0,0,0,0,0,0,0,0,0
1706445200.20021296,118228523,1543,1543,1543,1543,0,0,0,0,0,0,0,0,0,0
1706445200.30017304,118328483,1544,1544,1544,1544,0,0,0,0,0,0,0,0,0,0
1706445200.40013289,118428443,1544,1544,1544,1544,0,0,0,0,0,0,0,0,0,0
1706445200.50009298,118528403,1544,1544,1544,1543,0,0,0,0,0,0,0,0,0,0
1706445200.60005283,118628363,1544,1544,1544,1544,0,0,0,0,0,0,0,0,0,0
1706445200.70001292,118728323,1543,1543,1543,1543,0,0,0,0,0,0,0,0,0,0
1706445200.79997301,118828283,1543,1544,1544,1543,0,0,0,0,0,0,0,0,0,0
1706445200.89993286,118928243,1542,1542,1542,1542,0,0,0,0,0,0,0,0,0,0
1706445200.99989295,119028203,1543,1543,1543,1544,0,0,0,0,0,0,0,0,0,0
1706445201.09985304,119128163,1543,1543,1543,1543,0,0,0,0,0,0,0,0,0,0
1706445201.20064592,119228956,1544,1543,1543,1543,0,0,0,0,0,0,0,0,0,0
1706445201.30060601,119328916,1544,1544,1544,1544,0,0,0,0,0,0,0,0,0,0
1706445201.40056586,119428876,1543,1543,1543,1543,0,0,0,0,0,0,0,0,0,0
1706445201.50052595,119528836,1544,1543,1543,1544,0,0,0,0,0,0,0,0,0,0
1706445201.60048604,119628796,1544,1544,1544,1544,0,0,0,0,0,0,0,0,0,0
1706445201.70044589,119728756,1544,1543,1544,1543,0,0,0,0,0,0,0,0,0,0
1706445201.80040598,119828716,1544,1544,1544,1544,0,0,0,0,0,0,0,0,0,0
1706445201.90036583,119928676,1544,1545,1545,1545,0,0,0,0,0,0,0,0,0,0
1706445202.00032592,120028636,1544,1544,1544,1544,0,0,0,0,0,0,0,0,0,0
1706445202.10028601,120128596,1546,1545,1545,1545,0,0,0,0,0,0,0,0,0,0
1706445202.20024586,120228556,1544,1545,1544,1545,0,0,0,0,0,0,0,0,0,0
1706445202.30020595,120328516,1544,1544,1544,1544,0,0,0,0,0,0,0,0,0,0
1706445202.40016603,120428476,1545,1545,1545,1545,0,0,0,0,0,0,0,0,0,0
1706445202.50012589,120528436,1544,1544,1544,1543,0,0,0,0,0,0,0,0,0,0
1706445202.60008597,120628396,1544,1544,1545,1544,0,0,0,0,0,0,0,0,0,0
1706445202.70004582,120728356,1544,1544,1544,1544,0,0,0,0,0,0,0,0,0,0
1706445202.80000591,120828316,1544,1544,1544,1544,0,0,0,0,0,0,0,0,0,0
1706445202.89996600,120928276,1545,1544,1544,1545,0,0,0,0,0,0,0,0,0,0
1706445202.99992585,121028236,1544,1545,1544,1544,0,0,0,0,0,0,0,0,0,0
1706445203.09988594,121128196,1543,1543,1543,1543,0,0,0,0,0,0,0,0,0,0
1706445203.19984603,121228156,1543,1544,1544,1543,0,0,0,0,0,0,0,0,0,0
1706445203.30063891,121328949,1544,1544,1544,1544,0,0,0,0,0,0,0,0,0,0
1706445203.40059900,121428909,1544,1544,1544,1544,0,0,0,0,0,0,0,0,0,0
1706445203.50055885,121528869,1545,1545,1545,1545,0,0,0,0,0,0,0,0,0,0
1706445203.60051894,121628829,1544,1544,1544,1544,0,0,0,0,0,0,0,0,0,0
1706445203.70047903,121728789,1545,1545,1545,1545,0,0,0,0,0,0,0,0,0,0
1706445203.80043888,121828749,1545,1545,1545,1545,0,0,0,0,0,0,0,0,0,0
1706445203.90039897,121928709,1545,1544,1544,1544,0,0,0,0,0,0,0,0,0,0
1706445204.00035906,122028669,1545,1545,1545,1545,0,0,0,0,0,0,0,0,0,0
1706445204.10031891,122128629,1544,1544,1544,1544,0,0,0,0,0,0,0,0,0,0
1706445204.20027900,122228589,1544,1544,1544,1544,0,0,0,0,0,0,0,0,0,0
1706445204.30023885,122328549,1545,1544,1544,1545,0,0,0,0,0,0,0,0,0,0
1706445204.40019894,122428509,1544,1545,1545,1544,0,0,0,0,0,0,0,0,0,0
1706445204.50015903,122528469,1545,1544,1544,1545,0,0,0,0,0,0,0,0,0,0
1706445204.60011888,122628429,1545,1545,1545,1545,0,0,0,0,0,0,0,0,0,0
1706445204.70007896,122728389,1545,1545,1545,1545,0,0,0,0,0,0,0,0,0,0
1706445204.80003905,122828349,1544,1544,1544,1544,0,0,0,0,0,0,0,0,0,0
1706445204.89999890,122928309,1545,1545,1545,1545,0,0,0,0,0,0,0,0,0,0
1706445204.99995899,123028269,1544,1544,1544,1544,0,0,0,0,0,0,0,0,0,0
1706445205.09991884,123128229,1544,1544,1544,1544,0,0,0,0,0,0,0,0,0,0
1706445205.19987893,123228189,1544,1544,1544,1544,0,0,0,0,0,0,0,0,0,0
1706445205.30067205,123328982,1544,1544,1544,1544,0,0,0,0,0,0,0,0,0,0
1706445205.40063190,123428942,1544,1545,1545,1544,0,0,0,0,0,0,0,0,0,0
1706445205.50059199,123528902,1545,1545,1545,1545,0,0,0,0,0,0,0,0,0,0
1706445205.60055184,123628862,1544,1545,1544,1544,0,0,0,0,0,0,0,0,0,0
1706445205.70051193,123728822,1545,1545,1545,1545,0,0,0,0,0,0,0,0,0,0
1706445205.80047202,123828782,1544,1545,1545,1545,0,0,0,0,0,0,0,0,0,0
1706445205.90043187,123928742,1545,1545,1544,1545,0,0,0,0,0,0,0,0,0,0
1706445206.00039196,124028702,1544,1544,1544,1544,0,0,0,0,0,0,0,0,0,0
1706445206.10035205,124128662,1544,1544,1544,1544,0,0,0,0,0,0,0,0,0,0
1706445206.20031190,124228622,1544,1544,1544,1544,0,0,0,0,0,0,0,0,0,0
1706445206.30027199,124328582,1545,1544,1544,1545,0,0,0,0,0,0,0,0,0,0
1706445206.40023184,124428542,1545,1545,1545,1545,0,0,0,0,0,0,0,0,0,0
1706445206.50019193,124528502,1544,1545,1544,1545,0,0,0,0,0,0,0,0,0,0
1706445206.60015202,124628462,1544,1545,1544,1544,0,0,0,0,0,0,0,0,0,0
1706445206.70011187,124728422,1545,1544,1544,1545,0,0,0,0,0,0,0,0,0,0
1706445206.80007195,124828382,1544,1544,1544,1544,0,0,0,0,0,0,0,0,0,0
1706445206.90003204,124928342,1544,1544,1544,1545,0,0,0,0,0,0,0,0,0,0
1706445206.99999189,125028302,1543,1544,1544,1543,0,0,0,0,0,0,0,0,0,0
1706445207.09995198,125128262,1544,1543,1544,1544,0,0,0,0,0,0,0,0,0,0
1706445207.19991183,125228222,1545,1545,1545,1545,0,0,0,0,0,0,0,0,0,0
1706445207.29987192,125328182,1522,1519,1522,1520,0,0,0,0,0,0,0,0,0,0
1706445207.40066504,125428975,1344,1334,1345,1333,0,0,0,0,0,0,0,0,0,0
1706445207.50062490,125528935,1260,1242,1260,1243,0,0,0,0,0,0,0,0,0,0
1706445207.60058498,125628895,1234,1214,1235,1213,0,0,0,0,0,0,0,0,0,0
1706445207.70054483,125728855,1212,1188,1212,1188,0,0,0,0,0,0,0,0,0,0
1706445207.80050492,125828815,1179,1150,1180,1150,0,0,0,0,0,0,0,0,0,0
1706445207.90046501,125928775,1178,1150,1179,1150,0,0,0,0,0,0,0,0,0,0
1706445208.00042486,126028735,1178,1151,1180,1150,0,0,0,0,0,0,0,0,0,0
1706445208.10038495,126128695,1218,1150,1179,1194,0,0,0,0,0,0,0,0,0,0
1706445208.20034504,126228655,1205,1150,1179,1180,0,0,0,0,0,0,0,0,0,0
1706445208.30030489,126328615,1200,1150,1179,1175,0,0,0,0,0,0,0,0,0,0
1706445208.40026498,126428575,1200,1150,1179,1175,0,0,0,0,0,0,0,0,0,0
1706445208.50022483,126528535,1202,1150,1179,1178,0,0,0,0,0,0,0,0,0,0
1706445208.60018492,126628495,1204,1150,1179,1179,0,0,0,0,0,0,0,0,0,0
1706445208.70014501,126728455,1207,1150,1179,1183,0,0,0,0,0,0,0,0,0,0
1706445208.80010486,126828415,1208,1150,1180,1184,0,0,0,0,0,0,0,0,0,0
1706445208.90006495,126928375,1194,1150,1180,1167,0,0,0,0,0,0,0,0,0,0
1706445209.00002503,127028335,1195,1150,1180,1169,0,0,0,0,0,0,0,0,0,0
1706445209.09998488,127128295,1196,1150,1180,1170,0,0,0,0,0,0,0,0,0,0
1706445209.19994497,127228255,1197,1150,1180,1171,0,0,0,0,0,0,0,0,0,0
1706445209.29990482,127328215,1198,1150,1180,1172,0,0,0,0,0,0,0,0,0,0
1706445209.39986491,127428175,1000,1000,1000,1000,0,0,0,0,0,0,0,0,0,0
1706445209.50065804,127528968,1000,1000,1000,1000,0,0,0,0,0,0,0,0,0,0
1706445209.60061789,127628928,1000,1000,1000,1000,0,0,0,0,0,0,0,0,0,0
1706445209.70057797,127728888,1000,1000,1000,1000,0,0,0,0,0,0,0,0,0,0
1706445209.80053782,127828848,1000,1000,1000,1000,0,0,0,0,0,0,0,0,0,0
1706445209.90049791,127928808,1000,1000,1000,1000,0,0,0,0,0,0,0,0,0,0
1706445210.00045800,128028768,1000,1000,1000,1000,0,0,0,0,0,0,0,0,0,0
1706445210.10041785,128128728,1000,1000,1000,1000,0,0,0,0,0,0,0,0,0,0
1706445210.20037794,128228688,1000,1000,1000,1000,0,0,0,0,0,0,0,0,0,0
1706445210.30033803,128328648,1000,1000,1000,1000,0,0,0,0,0,0,0,0,0,0
1706445210.40029788,128428608,1000,1000,1000,1000,0,0,0,0,0,0,0,0,0,0
1706445210.50025797,128528568,1000,1000,1000,1000,0,0,0,0,0,0,0,0,0,0
1706445210.60021806,128628528,1000,1000,1000,1000,0,0,0,0,0,0,0,0,0,0
1706445210.70017791,128728488,1000,1000,1000,1000,0,0,0,0,0,0,0,0,0,0
1706445210.80013800,128828448,1000,1000,1000,1000,0,0,0,0,0,0,0,0,0,0
1706445210.90009785,128928408,1000,1000,1000,1000,0,0,0,0,0,0,0,0,0,0
1706445211.00005794,129028368,1000,1000,1000,1000,0,0,0,0,0,0,0,0,0,0
1706445211.10001802,129128328,1000,1000,1000,1000,0,0,0,0,0,0,0,0,0,0
1706445211.19997787,129228288,1000,1000,1000,1000,0,0,0,0,0,0,0,0,0,0
1706445211.29993796,129328248,1000,1000,1000,1000,0,0,0,0,0,0,0,0,0,0
1706445211.39989805,129428208,1000,1000,1000,1000,0,0,0,0,0,0,0,0,0,0
1706445211.49985790,129528168,1000,1000,1000,1000,0,0,0,0,0,0,0,0,0,0
1706445211.60065103,129628961,1000,1000,1000,1000,0,0,0,0,0,0,0,0,0,0
1706445211.70061088,129728921,1000,1000,1000,1000,0,0,0,0,0,0,0,0,0,0
1706445211.80057096,129828881,1000,1000,1000,1000,0,0,0,0,0,0,0,0,0,0
1706445211.90053105,129928841,1000,1000,1000,1000,0,0,0,0,0,0,0,0,0,0
1706445212.00049090,130028801,1000,1000,1000,1000,0,0,0,0,0,0,0,0,0,0
1706445212.10045099,130128761,1000,1000,1000,1000,0,0,0,0,0,0,0,0,0,0
1706445212.20041084,130228721,1000,1000,1000,1000,0,0,0,0,0,0,0,0,0,0
1706445212.30037093,130328681,1000,1000,1000,1000,0,0,0,0,0,0,0,0,0,0
1706445212.40033102,130428641,1000,1000,1000,1000,0,0,0,0,0,0,0,0,0,0
1706445212.50029087,130528601,1000,1000,1000,1000,0,0,0,0,0,0,0,0,0,0
1706445212.60025096,130628561,1000,1000,1000,1000,0,0,0,0,0,0,0,0,0,0
1706445212.70021105,130728521,1000,1000,1000,1000,0,0,0,0,0,0,0,0,0,0
1706445212.80017090,130828481,1000,1000,1000,1000,0,0,0,0,0,0,0,0,0,0
1706445212.90013099,130928441,1000,1000,1000,1000,0,0,0,0,0,0,0,0,0,0
1706445213.00009084,131028401,1000,1000,1000,1000,0,0,0,0,0,0,0,0,0,0
1706445213.10005093,131128361,1000,1000,1000,1000,0,0,0,0,0,0,0,0,0,0
1706445213.20001101,131228321,1000,1000,1000,1000,0,0,0,0,0,0,0,0,0,0
1706445213.29997087,131328281,1000,1000,1000,1000,0,0,0,0,0,0,0,0,0,0
1706445213.39993095,131428241,1000,1000,1000,1000,0,0,0,0,0,0,0,0,0,0
1706445213.49989104,131528201,1000,1000,1000,1000,0,0,0,0,0,0,0,0,0,0
1706445213.59985089,131628161,1000,1000,1000,1000,0,0,0,0,0,0,0,0,0,0
1706445213.70064402,131728954,1000,1000,1000,1000,0,0,0,0,0,0,0,0,0,0
1706445213.80060387,131828914,1000,1000,1000,1000,0,0,0,0,0,0,0,0,0,0
1706445213.90056396,131928874,1000,1000,1000,1000,0,0,0,0,0,0,0,0,0,0
1706445214.00052404,132028834,1000,1000,1000,1000,0,0,0,0,0,0,0,0,0,0
1706445214.10048389,132128794,1000,1000,1000,1000,0,0,0,0,0,0,0,0,0,0
1706445214.20044398,132228754,1000,1000,1000,1000,0,0,0,0,0,0,0,0,0,0
1706445214.30040383,132328714,1000,1000,1000,1000,0,0,0,0,0,0,0,0,0,0
1706445214.40036392,132428674,1000,1000,1000,1000,0,0,0,0,0,0,0,0,0,0
1706445214.50032401,132528634,1000,1000,1000,1000,0,0,0,0,0,0,0,0,0,0
1706445214.60028386,132628594,1000,1000,1000,1000,0,0,0,0,0,0,0,0,0,0
1706445214.70024395,132728554,1000,1000,1000,1000,0,0,0,0,0,0,0,0,0,0
1706445214.80020404,132828514,1000,1000,1000,1000,0,0,0,0,0,0,0,0,0,0
1706445214.90016389,132928474,1000,1000,1000,1000,0,0,0,0,0,0,0,0,0,0
1706445215.00012398,133028434,1000,1000,1000,1000,0,0,0,0,0,0,0,0,0,0
1706445215.10008383,133128394,1000,1000,1000,1000,0,0,0,0,0,0,0,0,0,0
1706445215.20004392,133228354,1000,1000,1000,1000,0,0,0,0,0,0,0,0,0,0
1706445215.30000401,133328314,1000,1000,1000,1000,0,0,0,0,0,0,0,0,0,0
1706445215.39996386,133428274,1000,1000,1000,1000,0,0,0,0,0,0,0,0,0,0
1706445215.49992394,133528234,1000,1000,1000,1000,0,0,0,0,0,0,0,0,0,0
1706445215.59988403,133628194,1000,1000,1000,1000,0,0,0,0,0,0,0,0,0,0
1706445215.69984388,133728154,1000,1000,1000,1000,0,0,0,0,0,0,0,0,0,0
1706445215.80063701,133828947,1000,1000,1000,1000,0,0,0,0,0,0,0,0,0,0
1706445215.90059686,133928907,1000,1000,1000,1000,0,0,0,0,0,0,0,0,0,0
1706445216.00055695,134028867,1000,1000,1000,1000,0,0,0,0,0,0,0,0,0,0
1706445216.10051703,134128827,1000,1000,1000,1000,0,0,0,0,0,0,0,0,0,0
1706445216.20047688,134228787,1000,1000,1000,1000,0,0,0,0,0,0,0,0,0,0
1706445216.30043697,134328747,1000,1000,1000,1000,0,0,0,0,0,0,0,0,0,0
1706445216.40039682,134428707,1000,1000,1000,1000,0,0,0,0,0,0,0,0,0,0
1706445216.50035691,134528667,1000,1000,1000,1000,0,0,0,0,0,0,0,0,0,0
1706445216.60031700,134628627,1000,1000,1000,1000,0,0,0,0,0,0,0,0,0,0
1706445216.70027685,134728587,1000,1000,1000,1000,0,0,0,0,0,0,0,0,0,0
1706445216.80023694,134828547,1000,1000,1000,1000,0,0,0,0,0,0,0,0,0,0
1706445216.90019703,134928507,1000,1000,1000,1000,0,0,0,0,0,0,0,0,0,0
1706445217.00015688,135028467,1000,1000,1000,1000,0,0,0,0,0,0,0,0,0,0
1706445217.10011697,135128427,1000,1000,1000,1000,0,0,0,0,0,0,0,0,0,0
1706445217.20007706,135228387,1000,1000,1000,1000,0,0,0,0,0,0,0,0,0,0
1706445217.30003691,135328347,1000,1000,1000,1000,0,0,0,0,0,0,0,0,0,0
1706445217.39999700,135428307,1000,1000,1000,1000,0,0,0,0,0,0,0,0,0,0
1706445217.49995685,135528267,1000,1000,1000,1000,0,0,0,0,0,0,0,0,0,0
1706445217.59991693,135628227,1000,1000,1000,1000,0,0,0,0,0,0,0,0,0,0
1706445217.69987702,135728187,1000,1000,1000,1000,0,0,0,0,0,0,0,0,0,0
1706445217.80066991,135828980,1000,1000,1000,1000,0,0,0,0,0,0,0,0,0,0
1706445217.90063000,135928940,1000,1000,1000,1000,0,0,0,0,0,0,0,0,0,0
1706445218.00058985,136028900,1000,1000,1000,1000,0,0,0,0,0,0,0,0,0,0
1706445218.10054994,136128860,1000,1000,1000,1000,0,0,0,0,0,0,0,0,0,0
1706445218.20051003,136228820,1000,1000,1000,1000,0,0,0,0,0,0,0,0,0,0
1706445218.30046988,136328780,1000,1000,1000,1000,0,0,0,0,0,0,0,0,0,0
1706445218.40042996,136428740,1000,1000,1000,1000,0,0,0,0,0,0,0,0,0,0
1706445218.50039005,136528700,1000,1000,1000,1000,0,0,0,0,0,0,0,0,0,0
1706445218.60034990,136628660,1000,1000,1000,1000,0,0,0,0,0,0,0,0,0,0
1706445218.70030999,136728620,1000,1000,1000,1000,0,0,0,0,0,0,0,0,0,0
1706445218.80026984,136828580,1000,1000,1000,1000,0,0,0,0,0,0,0,0,0,0
1706445218.90022993,136928540,1000,1000,1000,1000,0,0,0,0,0,0,0,0,0,0
1706445219.00019002,137028500,1000,1000,1000,1000,0,0,0,0,0,0,0,0,0,0
1706445219.10014987,137128460,1000,1000,1000,1000,0,0,0,0,0,0,0,0,0,0
1706445219.20010996,137228420,1000,1000,1000,1000,0,0,0,0,0,0,0,0,0,0
1706445219.30007005,137328380,1000,1000,1000,1000,0,0,0,0,0,0,0,0,0,0
1706445219.40002990,137428340,1000,1000,1000,1000,0,0,0,0,0,0,0,0,0,0
1706445219.49998999,137528300,1000,1000,1000,1000,0,0,0,0,0,0,0,0,0,0
1706445219.59994984,137628260,1000,1000,1000,1000,0,0,0,0,0,0,0,0,0,0
1706445219.69990993,137728220,1000,1000,1000,1000,0,0,0,0,0,0,0,0,0,0
1706445219.79987001,137828180,1000,1000,1000,1000,0,0,0,0,0,0,0,0,0,0
1706445219.90066290,137928973,1000,1000,1000,1000,0,0,0,0,0,0,0,0,0,0
1706445220.00062299,138028933,1000,1000,1000,1000,0,0,0,0,0,0,0,0,0,0
1706445220.10058284,138128893,1000,1000,1000,1000,0,0,0,0,0,0,0,0,0,0
1706445220.20054293,138228853,1000,1000,1000,1000,0,0,0,0,0,0,0,0,0,0
1706445220.30050302,138328813,1000,1000,1000,1000,0,0,0,0,0,0,0,0,0,0
1706445220.40046287,138428773,1000,1000,1000,1000,0,0,0,0,0,0,0,0,0,0
1706445220.50042295,138528733,1000,1000,1000,1000,0,0,0,0,0,0,0,0,0,0
1706445220.60038304,138628693,1000,1000,1000,1000,0,0,0,0,0,0,0,0,0,0
1706445220.70034289,138728653,1000,1000,1000,1000,0,0,0,0,0,0,0,0,0,0
1706445220.80030298,138828613,1000,1000,1000,1000,0,0,0,0,0,0,0,0,0,0
1706445220.90026283,138928573,1000,1000,1000,1000,0,0,0,0,0,0,0,0,0,0
1706445221.00022292,139028533,1000,1000,1000,1000,0,0,0,0,0,0,0,0,0,0
1706445221.10018301,139128493,1000,1000,1000,1000,0,0,0,0,0,0,0,0,0,0
1706445221.20014286,139228453,1000,1000,1000,1000,0,0,0,0,0,0,0,0,0,0
1706445221.30010295,139328413,1000,1000,1000,1000,0,0,0,0,0,0,0,0,0,0
1706445221.40006304,139428373,1000,1000,1000,1000,0,0,0,0,0,0,0,0,0,0
1706445221.50002289,139528333,1000,1000,1000,1000,0,0,0,0,0,0,0,0,0,0
1706445221.59998298,139628293,1000,1000,1000,1000,0,0,0,0,0,0,0,0,0,0
1706445221.69994283,139728253,1000,1000,1000,1000,0,0,0,0,0,0,0,0,0,0
1706445221.79990292,139828213,1000,1000,1000,1000,0,0,0,0,0,0,0,0,0,0
1706445221.89986300,139928173,1000,1000,1000,1000,0,0,0,0,0,0,0,0,0,0
1706445222.00065589,140028966,1000,1000,1000,1000,0,0,0,0,0,0,0,0,0,0
1706445222.10061598,140128926,1000,1000,1000,1000,0,0,0,0,0,0,0,0,0,0
1706445222.20057583,140228886,1000,1000,1000,1000,0,0,0,0,0,0,0,0,0,0
1706445222.30053592,140328846,1000,1000,1000,1000,0,0,0,0,0,0,0,0,0,0
1706445222.40049601,140428806,1000,1000,1000,1000,0,0,0,0,0,0,0,0,0,0
1706445222.50045586,140528766,1000,1000,1000,1000,0,0,0,0,0,0,0,0,0,0
1706445222.60041595,140628726,1000,1000,1000,1000,0,0,0,0,0,0,0,0,0,0
1706445222.70037603,140728686,1000,1000,1000,1000,0,0,0,0,0,0,0,0,0,0
1706445222.80033588,140828646,1000,1000,1000,1000,0,0,0,0,0,0,0,0,0,0
1706445222.90029597,140928606,1000,1000,1000,1000,0,0,0,0,0,0,0,0,0,0
1706445223.00025582,141028566,1000,1000,1000,1000,0,0,0,0,0,0,0,0,0,0
1706445223.10021591,141128526,1000,1000,1000,1000,0,0,0,0,0,0,0,0,0,0
1706445223.20017600,141228486,1000,1000,1000,1000,0,0,0,0,0,0,0,0,0,0
1706445223.30013585,141328446,1000,1000,1000,1000,0,0,0,0,0,0,0,0,0,0
1706445223.40009594,141428406,1000,1000,1000,1000,0,0,0,0,0,0,0,0,0,0
1706445223.50005603,141528366,1000,1000,1000,1000,0,0,0,0,0,0,0,0,0,0
1706445223.60001588,141628326,1000,1000,1000,1000,0,0,0,0,0,0,0,0,0,0
1706445223.69997597,141728286,1000,1000,1000,1000,0,0,0,0,0,0,0,0,0,0
1706445223.79993606,141828246,1000,1000,1000,1000,0,0,0,0,0,0,0,0,0,0
1706445223.89989591,141928206,1000,1000,1000,1000,0,0,0,0,0,0,0,0,0,0
1706445223.99985600,142028166,1000,1000,1000,1000,0,0,0,0,0,0,0,0,0,0
1706445224.10064888,142128959,1000,1000,1000,1000,0,0,0,0,0,0,0,0,0,0
1706445224.20060897,142228919,1000,1000,1000,1000,0,0,0,0,0,0,0,0,0,0
1706445224.30056906,142328879,1000,1000,1000,1000,0,0,0,0,0,0,0,0,0,0
