timestamp,TimeUS,C1,C2,C3,C4,C5,C6,C7,C8,C9,C10,C11,C12,C13,C14
1706445756.40000010,56828926,1000,1000,1000,1000,0,0,0,0,0,0,0,0,0,0
1706445756.49995995,56928886,1000,1000,1000,1000,0,0,0,0,0,0,0,0,0,0
1706445756.59992003,57028846,1000,1000,1000,1000,0,0,0,0,0,0,0,0,0,0
1706445756.69988012,57128806,1000,1000,1000,1000,0,0,0,0,0,0,0,0,0,0
1706445756.79983997,57228766,1000,1000,1000,1000,0,0,0,0,0,0,0,0,0,0
1706445756.89980006,57328726,1000,1000,1000,1000,0,0,0,0,0,0,0,0,0,0
1706445756.99975991,57428686,1000,1000,1000,1000,0,0,0,0,0,0,0,0,0,0
1706445757.09972000,57528646,1000,1000,1000,1000,0,0,0,0,0,0,0,0,0,0
1706445757.19968009,57628606,1000,1000,1000,1000,0,0,0,0,0,0,0,0,0,0
1706445757.29963994,57728566,1000,1000,1000,1000,0,0,0,0,0,0,0,0,0,0
1706445757.39960003,57828526,1000,1000,1000,1000,0,0,0,0,0,0,0,0,0,0
1706445757.49956012,57928486,1000,1000,1000,1000,0,0,0,0,0,0,0,0,0,0
1706445757.59951997,58028446,1000,1000,1000,1000,0,0,0,0,0,0,0,0,0,0
1706445757.69948006,58128406,1000,1000,1000,1000,0,0,0,0,0,0,0,0,0,0
1706445757.79943991,58228366,1000,1000,1000,1000,0,0,0,0,0,0,0,0,0,0
1706445757.89940000,58328326,1000,1000,1000,1000,0,0,0,0,0,0,0,0,0,0
1706445757.99936008,58428286,1000,1000,1000,1000,0,0,0,0,0,0,0,0,0,0
1706445758.09931993,58528246,1000,1000,1000,1000,0,0,0,0,0,0,0,0,0,0
1706445758.19928002,58628206,1000,1000,1000,1000,0,0,0,0,0,0,0,0,0,0
1706445758.29924011,58728166,1000,1000,1000,1000,0,0,0,0,0,0,0,0,0,0
1706445758.40003300,58828959,1014,1014,1014,1014,0,0,0,0,0,0,0,0,0,0
1706445758.49999309,58928919,1044,1044,1044,1044,0,0,0,0,0,0,0,0,0,0
1706445758.59995294,59028879,1074,1074,1074,1074,0,0,0,0,0,0,0,0,0,0
1706445758.69991302,59128839,1104,1104,1104,1104,0,0,0,0,0,0,0,0,0,0
1706445758.79987311,59228799,1134,1134,1134,1134,0,0,0,0,0,0,0,0,0,0
1706445758.89983296,59328759,1282,1274,1275,1282,0,0,0,0,0,0,0,0,0,0
1706445758.99979305,59428719,1490,1485,1485,1491,0,0,0,0,0,0,0,0,0,0
1706445759.09975290,59528679,1653,1647,1647,1653,0,0,0,0,0,0,0,0,0,0
1706445759.19971299,59628639,1789,1784,1785,1789,0,0,0,0,0,0,0,0,0,0
1706445759.29967308,59728599,1898,1893,1894,1898,0,0,0,0,0,0,0,0,0,0
1706445759.39963293,59828559,1877,1874,1875,1877,0,0,0,0,0,0,0,0,0,0
1706445759.49959302,59928519,1752,1751,1751,1753,0,0,0,0,0,0,0,0,0,0
1706445759.59955311,60028479,1659,1661,1661,1659,0,0,0,0,0,0,0,0,0,0
1706445759.69951296,60128439,1630,1632,1633,1630,0,0,0,0,0,0,0,0,0,0
1706445759.79947305,60228399,1637,1639,1639,1637,0,0,0,0,0,0,0,0,0,0
1706445759.89943290,60328359,1646,1647,1647,1645,0,0,0,0,0,0,0,0,0,0
1706445759.99939299,60428319,1644,1644,1644,1644,0,0,0,0,0,0,0,0,0,0
1706445760.09935308,60528279,1636,1635,1635,1636,0,0,0,0,0,0,0,0,0,0
1706445760.19931293,60628239,1628,1627,1626,1628,0,0,0,0,0,0,0,0,0,0
1706445760.29927301,60728199,1594,1594,1594,1594,0,0,0,0,0,0,0,0,0,0
1706445760.39923310,60828159,1576,1576,1575,1576,0,0,0,0,0,0,0,0,0,0
1706445760.50002599,60928952,1570,1569,1565,1574,0,0,0,0,0,0,0,0,0,0
1706445760.59998608,61028912,1568,1568,1559,1576,0,0,0,0,0,0,0,0,0,0
1706445760.69994593,61128872,1567,1567,1561,1573,0,0,0,0,0,0,0,0,0,0
1706445760.79990602,61228832,1568,1568,1566,1569,0,0,0,0,0,0,0,0,0,0
1706445760.89986610,61328792,1570,1570,1572,1568,0,0,0,0,0,0,0,0,0,0
1706445760.99982595,61428752,1572,1573,1577,1569,0,0,0,0,0,0,0,0,0,0
1706445761.09978604,61528712,1567,1568,1575,1560,0,0,0,0,0,0,0,0,0,0
1706445761.19974589,61628672,1554,1554,1568,1540,0,0,0,0,0,0,0,0,0,0
1706445761.29970598,61728632,1547,1547,1554,1541,0,0,0,0,0,0,0,0,0,0
1706445761.39966607,61828592,1539,1539,1537,1542,0,0,0,0,0,0,0,0,0,0
1706445761.49962592,61928552,1534,1533,1526,1542,0,0,0,0,0,0,0,0,0,0
1706445761.59958601,62028512,1532,1532,1523,1541,0,0,0,0,0,0,0,0,0,0
1706445761.69954610,62128472,1533,1532,1526,1539,0,0,0,0,0,0,0,0,0,0
1706445761.79950595,62228432,1534,1534,1532,1536,0,0,0,0,0,0,0,0,0,0
1706445761.89946604,62328392,1537,1538,1539,1536,0,0,0,0,0,0,0,0,0,0
1706445761.99942613,62428352,1541,1542,1545,1538,0,0,0,0,0,0,0,0,0,0
1706445762.09938598,62528312,1546,1546,1549,1542,0,0,0,0,0,0,0,0,0,0
1706445762.19934607,62628272,1549,1549,1551,1546,0,0,0,0,0,0,0,0,0,0
1706445762.29930592,62728232,1551,1551,1552,1550,0,0,0,0,0,0,0,0,0,0
1706445762.39926600,62828192,1550,1550,1556,1558,0,0,0,0,0,0,0,0,0,0
1706445762.50005913,62928985,1550,1550,1558,1562,0,0,0,0,0,0,0,0,0,0
1706445762.60001898,63028945,1552,1553,1560,1563,0,0,0,0,0,0,0,0,0,0
1706445762.69997907,63128905,1556,1556,1560,1563,0,0,0,0,0,0,0,0,0,0
1706445762.79993892,63228865,1560,1561,1562,1563,0,0,0,0,0,0,0,0,0,0
1706445762.89989901,63328825,1565,1565,1564,1564,0,0,0,0,0,0,0,0,0,0
1706445762.99985909,63428785,1567,1567,1565,1563,0,0,0,0,0,0,0,0,0,0
1706445763.09981894,63528745,1569,1569,1565,1563,0,0,0,0,0,0,0,0,0,0
1706445763.19977903,63628705,1572,1571,1565,1565,0,0,0,0,0,0,0,0,0,0
1706445763.29973912,63728665,1571,1571,1565,1565,0,0,0,0,0,0,0,0,0,0
1706445763.39969897,63828625,1572,1572,1567,1567,0,0,0,0,0,0,0,0,0,0
1706445763.49965906,63928585,1572,1572,1568,1568,0,0,0,0,0,0,0,0,0,0
1706445763.59961891,64028545,1572,1572,1569,1570,0,0,0,0,0,0,0,0,0,0
1706445763.69957900,64128505,1573,1572,1571,1571,0,0,0,0,0,0,0,0,0,0
1706445763.79953909,64228465,1572,1571,1572,1571,0,0,0,0,0,0,0,0,0,0
1706445763.89949894,64328425,1573,1573,1574,1573,0,0,0,0,0,0,0,0,0,0
1706445763.99945903,64428385,1574,1574,1576,1574,0,0,0,0,0,0,0,0,0,0
1706445764.09941912,64528345,1574,1574,1577,1575,0,0,0,0,0,0,0,0,0,0
1706445764.19937897,64628305,1574,1574,1576,1576,0,0,0,0,0,0,0,0,0,0
1706445764.29933906,64728265,1574,1574,1576,1576,0,0,0,0,0,0,0,0,0,0
1706445764.39929891,64828225,1575,1575,1576,1577,0,0,0,0,0,0,0,0,0,0
1706445764.49925900,64928185,1575,1575,1576,1576,0,0,0,0,0,0,0,0,0,0
1706445764.60005212,65028978,1575,1575,1575,1576,0,0,0,0,0,0,0,0,0,0
1706445764.70001197,65128938,1576,1576,1576,1576,0,0,0,0,0,0,0,0,0,0
1706445764.79997206,65228898,1577,1576,1576,1576,0,0,0,0,0,0,0,0,0,0
1706445764.89993191,65328858,1578,1577,1577,1577,0,0,0,0,0,0,0,0,0,0
1706445764.99989200,65428818,1579,1579,1578,1578,0,0,0,0,0,0,0,0,0,0
1706445765.09985209,65528778,1579,1579,1578,1578,0,0,0,0,0,0,0,0,0,0
1706445765.19981194,65628738,1579,1579,1578,1578,0,0,0,0,0,0,0,0,0,0
1706445765.29977202,65728698,1579,1579,1578,1578,0,0,0,0,0,0,0,0,0,0
1706445765.39973211,65828658,1579,1579,1579,1579,0,0,0,0,0,0,0,0,0,0
1706445765.49969196,65928618,1579,1579,1579,1579,0,0,0,0,0,0,0,0,0,0
1706445765.59965205,66028578,1579,1579,1578,1579,0,0,0,0,0,0,0,0,0,0
1706445765.69961190,66128538,1579,1578,1578,1579,0,0,0,0,0,0,0,0,0,0
1706445765.79957199,66228498,1578,1578,1578,1578,0,0,0,0,0,0,0,0,0,0
1706445765.89953208,66328458,1578,1578,1579,1579,0,0,0,0,0,0,0,0,0,0
1706445765.99949193,66428418,1578,1579,1579,1579,0,0,0,0,0,0,0,0,0,0
1706445766.09945202,66528378,1578,1578,1579,1578,0,0,0,0,0,0,0,0,0,0
1706445766.19941211,66628338,1578,1578,1579,1578,0,0,0,0,0,0,0,0,0,0
1706445766.29937196,66728298,1578,1578,1579,1579,0,0,0,0,0,0,0,0,0,0
1706445766.39933205,66828258,1578,1578,1578,1578,0,0,0,0,0,0,0,0,0,0
1706445766.49929190,66928218,1579,1579,1579,1580,0,0,0,0,0,0,0,0,0,0
1706445766.59925199,67028178,1578,1579,1578,1578,0,0,0,0,0,0,0,0,0,0
1706445766.70004511,67128971,1579,1579,1579,1579,0,0,0,0,0,0,0,0,0,0
1706445766.80000496,67228931,1579,1580,1579,1579,0,0,0,0,0,0,0,0,0,0
1706445766.89996505,67328891,1580,1580,1580,1579,0,0,0,0,0,0,0,0,0,0
1706445766.99992490,67428851,1580,1580,1580,1580,0,0,0,0,0,0,0,0,0,0
1706445767.09988499,67528811,1579,1579,1579,1579,0,0,0,0,0,0,0,0,0,0
1706445767.19984508,67628771,1581,1581,1581,1581,0,0,0,0,0,0,0,0,0,0
1706445767.29980493,67728731,1580,1580,1580,1580,0,0,0,0,0,0,0,0,0,0
1706445767.39976501,67828691,1580,1580,1580,1580,0,0,0,0,0,0,0,0,0,0
1706445767.49972510,67928651,1581,1581,1581,1581,0,0,0,0,0,0,0,0,0,0
1706445767.59968495,68028611,1580,1580,1580,1580,0,0,0,0,0,0,0,0,0,0
1706445767.69964504,68128571,1580,1580,1580,1580,0,0,0,0,0,0,0,0,0,0
1706445767.79960489,68228531,1581,1581,1581,1581,0,0,0,0,0,0,0,0,0,0
1706445767.89956498,68328491,1581,1581,1581,1581,0,0,0,0,0,0,0,0,0,0
1706445767.99952507,68428451,1580,1581,1580,1581,0,0,0,0,0,0,0,0,0,0
1706445768.09948492,68528411,1580,1581,1580,1581,0,0,0,0,0,0,0,0,0,0
1706445768.19944501,68628371,1581,1580,1580,1580,0,0,0,0,0,0,0,0,0,0
1706445768.29940510,68728331,1580,1580,1581,1580,0,0,0,0,0,0,0,0,0,0
1706445768.39936495,68828291,1581,1581,1581,1581,0,0,0,0,0,0,0,0,0,0
1706445768.49932504,68928251,1581,1581,1581,1581,0,0,0,0,0,0,0,0,0,0
1706445768.59928513,69028211,1580,1581,1581,1581,0,0,0,0,0,0,0,0,0,0
1706445768.69924498,69128171,1581,1581,1585,1578,0,0,0,0,0,0,0,0,0,0
1706445768.80003810,69228964,1580,1582,1588,1573,0,0,0,0,0,0,0,0,0,0
1706445768.89999795,69328924,1580,1582,1582,1574,0,0,0,0,0,0,0,0,0,0
1706445768.99995804,69428884,1578,1581,1572,1573,0,0,0,0,0,0,0,0,0,0
1706445769.09991813,69528844,1577,1580,1565,1571,0,0,0,0,0,0,0,0,0,0
1706445769.19987798,69628804,1577,1578,1558,1565,0,0,0,0,0,0,0,0,0,0
1706445769.29983807,69728764,1578,1578,1556,1561,0,0,0,0,0,0,0,0,0,0
1706445769.39979792,69828724,1579,1578,1555,1557,0,0,0,0,0,0,0,0,0,0
1706445769.49975801,69928684,1579,1577,1555,1555,0,0,0,0,0,0,0,0,0,0
1706445769.59971809,70028644,1579,1577,1556,1554,0,0,0,0,0,0,0,0,0,0
1706445769.69967794,70128604,1578,1578,1557,1554,0,0,0,0,0,0,0,0,0,0
1706445769.79963803,70228564,1576,1577,1556,1554,0,0,0,0,0,0,0,0,0,0
1706445769.89959812,70328524,1574,1576,1554,1553,0,0,0,0,0,0,0,0,0,0
1706445769.99955797,70428484,1574,1576,1554,1553,0,0,0,0,0,0,0,0,0,0
1706445770.09951806,70528444,1573,1575,1552,1552,0,0,0,0,0,0,0,0,0,0
1706445770.19947791,70628404,1575,1576,1550,1551,0,0,0,0,0,0,0,0,0,0
1706445770.29943800,70728364,1578,1578,1549,1550,0,0,0,0,0,0,0,0,0,0
1706445770.39939809,70828324,1579,1580,1547,1547,0,0,0,0,0,0,0,0,0,0
1706445770.49935794,70928284,1582,1583,1545,1545,0,0,0,0,0,0,0,0,0,0
1706445770.59931803,71028244,1585,1586,1541,1541,0,0,0,0,0,0,0,0,0,0
1706445770.69927812,71128204,1588,1589,1539,1538,0,0,0,0,0,0,0,0,0,0
1706445770.79923797,71228164,1591,1592,1538,1537,0,0,0,0,0,0,0,0,0,0
1706445770.90003109,71328957,1594,1593,1535,1535,0,0,0,0,0,0,0,0,0,0
1706445770.99999094,71428917,1595,1594,1534,1536,0,0,0,0,0,0,0,0,0,0
1706445771.09995103,71528877,1595,1595,1535,1537,0,0,0,0,0,0,0,0,0,0
1706445771.19991112,71628837,1594,1594,1537,1539,0,0,0,0,0,0,0,0,0,0
1706445771.29987097,71728797,1591,1591,1541,1544,0,0,0,0,0,0,0,0,0,0
1706445771.39983106,71828757,1588,1586,1548,1551,0,0,0,0,0,0,0,0,0,0
1706445771.49979091,71928717,1581,1577,1556,1559,0,0,0,0,0,0,0,0,0,0
1706445771.59975100,72028677,1572,1568,1568,1570,0,0,0,0,0,0,0,0,0,0
1706445771.69971108,72128637,1561,1557,1580,1581,0,0,0,0,0,0,0,0,0,0
1706445771.79967093,72228597,1550,1547,1593,1593,0,0,0,0,0,0,0,0,0,0
1706445771.89963102,72328557,1540,1538,1603,1603,0,0,0,0,0,0,0,0,0,0
1706445771.99959111,72428517,1532,1532,1610,1609,0,0,0,0,0,0,0,0,0,0
1706445772.09955096,72528477,1528,1529,1614,1613,0,0,0,0,0,0,0,0,0,0
1706445772.19951105,72628437,1529,1531,1615,1614,0,0,0,0,0,0,0,0,0,0
1706445772.29947090,72728397,1533,1535,1612,1612,0,0,0,0,0,0,0,0,0,0
1706445772.39943099,72828357,1539,1541,1606,1606,0,0,0,0,0,0,0,0,0,0
1706445772.49939108,72928317,1549,1550,1601,1601,0,0,0,0,0,0,0,0,0,0
1706445772.59935093,73028277,1557,1558,1594,1593,0,0,0,0,0,0,0,0,0,0
1706445772.69931102,73128237,1566,1566,1586,1585,0,0,0,0,0,0,0,0,0,0
1706445772.79927111,73228197,1573,1573,1579,1578,0,0,0,0,0,0,0,0,0,0
1706445772.89923096,73328157,1579,1579,1573,1572,0,0,0,0,0,0,0,0,0,0
1706445773.00002408,73428950,1584,1583,1568,1568,0,0,0,0,0,0,0,0,0,0
1706445773.09998393,73528910,1587,1585,1566,1566,0,0,0,0,0,0,0,0,0,0
1706445773.19994402,73628870,1588,1587,1566,1566,0,0,0,0,0,0,0,0,0,0
1706445773.29990411,73728830,1587,1586,1567,1567,0,0,0,0,0,0,0,0,0,0
1706445773.39986396,73828790,1586,1584,1569,1569,0,0,0,0,0,0,0,0,0,0
1706445773.49982405,73928750,1583,1582,1572,1572,0,0,0,0,0,0,0,0,0,0
1706445773.59978390,74028710,1579,1579,1574,1574,0,0,0,0,0,0,0,0,0,0
1706445773.69974399,74128670,1577,1578,1578,1578,0,0,0,0,0,0,0,0,0,0
1706445773.79970407,74228630,1575,1575,1580,1580,0,0,0,0,0,0,0,0,0,0
1706445773.89966393,74328590,1573,1574,1582,1582,0,0,0,0,0,0,0,0,0,0
1706445773.99962401,74428550,1571,1572,1582,1582,0,0,0,0,0,0,0,0,0,0
1706445774.09958410,74528510,1572,1573,1584,1584,0,0,0,0,0,0,0,0,0,0
1706445774.19954395,74628470,1572,1572,1583,1583,0,0,0,0,0,0,0,0,0,0
1706445774.29950404,74728430,1573,1573,1583,1582,0,0,0,0,0,0,0,0,0,0
1706445774.39946389,74828390,1575,1576,1583,1582,0,0,0,0,0,0,0,0,0,0
1706445774.49942398,74928350,1576,1577,1581,1581,0,0,0,0,0,0,0,0,0,0
1706445774.59938407,75028310,1577,1578,1579,1579,0,0,0,0,0,0,0,0,0,0
1706445774.69934392,75128270,1579,1578,1578,1578,0,0,0,0,0,0,0,0,0,0
1706445774.79930401,75228230,1580,1580,1577,1577,0,0,0,0,0,0,0,0,0,0
1706445774.89926410,75328190,1580,1580,1576,1576,0,0,0,0,0,0,0,0,0,0
1706445775.00005698,75428983,1581,1581,1576,1577,0,0,0,0,0,0,0,0,0,0
1706445775.10001707,75528943,1581,1581,1577,1577,0,0,0,0,0,0,0,0,0,0
1706445775.19997692,75628903,1581,1581,1577,1577,0,0,0,0,0,0,0,0,0,0
1706445775.29993701,75728863,1580,1580,1577,1577,0,0,0,0,0,0,0,0,0,0
1706445775.39989710,75828823,1580,1580,1579,1578,0,0,0,0,0,0,0,0,0,0
1706445775.49985695,75928783,1580,1580,1579,1579,0,0,0,0,0,0,0,0,0,0
1706445775.59981704,76028743,1580,1580,1579,1579,0,0,0,0,0,0,0,0,0,0
1706445775.69977713,76128703,1580,1580,1580,1580,0,0,0,0,0,0,0,0,0,0
1706445775.79973698,76228663,1580,1580,1581,1581,0,0,0,0,0,0,0,0,0,0
1706445775.89969707,76328623,1580,1580,1582,1582,0,0,0,0,0,0,0,0,0,0
1706445775.99965692,76428583,1580,1581,1582,1582,0,0,0,0,0,0,0,0,0,0
1706445776.09961700,76528543,1581,1580,1582,1582,0,0,0,0,0,0,0,0,0,0
1706445776.19957709,76628503,1580,1581,1582,1582,0,0,0,0,0,0,0,0,0,0
1706445776.29953694,76728463,1269,1550,1270,1552,0,0,0,0,0,0,0,0,0,0
1706445776.39949703,76828423,1655,1598,1659,1596,0,0,0,0,0,0,0,0,0,0
1706445776.49945712,76928383,1588,1602,1590,1601,0,0,0,0,0,0,0,0,0,0
1706445776.59941697,77028343,1553,1601,1553,1601,0,0,0,0,0,0,0,0,0,0
1706445776.69937706,77128303,1547,1593,1544,1589,0,0,0,0,0,0,0,0,0,0
1706445776.79933691,77228263,1552,1580,1551,1567,0,0,0,0,0,0,0,0,0,0
1706445776.89929700,77328223,1560,1568,1552,1552,0,0,0,0,0,0,0,0,0,0
1706445776.99925709,77428183,1570,1563,1551,1542,0,0,0,0,0,0,0,0,0,0
1706445777.10004997,77528976,1578,1563,1550,1538,0,0,0,0,0,0,0,0,0,0
1706445777.20001006,77628936,1583,1566,1550,1540,0,0,0,0,0,0,0,0,0,0
1706445777.29996991,77728896,1581,1569,1550,1544,0,0,0,0,0,0,0,0,0,0
1706445777.39993000,77828856,1578,1573,1552,1549,0,0,0,0,0,0,0,0,0,0
1706445777.49989009,77928816,1574,1574,1554,1554,0,0,0,0,0,0,0,0,0,0
1706445777.59984994,78028776,1570,1573,1556,1557,0,0,0,0,0,0,0,0,0,0
1706445777.69981003,78128736,1569,1573,1560,1560,0,0,0,0,0,0,0,0,0,0
1706445777.79977012,78228696,1570,1574,1563,1562,0,0,0,0,0,0,0,0,0,0
1706445777.89972997,78328656,1571,1573,1563,1562,0,0,0,0,0,0,0,0,0,0
1706445777.99969006,78428616,1574,1575,1563,1562,0,0,0,0,0,0,0,0,0,0
1706445778.09964991,78528576,1576,1576,1562,1560,0,0,0,0,0,0,0,0,0,0
1706445778.19960999,78628536,1579,1578,1560,1559,0,0,0,0,0,0,0,0,0,0
1706445778.29957008,78728496,1582,1582,1557,1557,0,0,0,0,0,0,0,0,0,0
1706445778.39952993,78828456,1584,1585,1554,1554,0,0,0,0,0,0,0,0,0,0
1706445778.49949002,78928416,1588,1588,1552,1552,0,0,0,0,0,0,0,0,0,0
1706445778.59945011,79028376,1588,1590,1549,1548,0,0,0,0,0,0,0,0,0,0
1706445778.69940996,79128336,1591,1592,1548,1547,0,0,0,0,0,0,0,0,0,0
1706445778.79937005,79228296,1594,1595,1546,1546,0,0,0,0,0,0,0,0,0,0
1706445778.89932990,79328256,1596,1597,1544,1545,0,0,0,0,0,0,0,0,0,0
1706445778.99928999,79428216,1596,1597,1542,1544,0,0,0,0,0,0,0,0,0,0
1706445779.09925008,79528176,1596,1596,1543,1544,0,0,0,0,0,0,0,0,0,0
1706445779.20004296,79628969,1595,1593,1546,1547,0,0,0,0,0,0,0,0,0,0
1706445779.30000305,79728929,1591,1589,1551,1553,0,0,0,0,0,0,0,0,0,0
1706445779.39996290,79828889,1586,1583,1559,1560,0,0,0,0,0,0,0,0,0,0
1706445779.49992299,79928849,1579,1576,1568,1569,0,0,0,0,0,0,0,0,0,0
1706445779.59988308,80028809,1569,1567,1576,1578,0,0,0,0,0,0,0,0,0,0
1706445779.69984293,80128769,1560,1558,1585,1587,0,0,0,0,0,0,0,0,0,0
1706445779.79980302,80228729,1553,1551,1593,1595,0,0,0,0,0,0,0,0,0,0
1706445779.89976311,80328689,1547,1546,1601,1602,0,0,0,0,0,0,0,0,0,0
1706445779.99972296,80428649,1544,1544,1606,1605,0,0,0,0,0,0,0,0,0,0
1706445780.09968305,80528609,1544,1543,1608,1607,0,0,0,0,0,0,0,0,0,0
1706445780.19964290,80628569,1544,1545,1606,1606,0,0,0,0,0,0,0,0,0,0
1706445780.29960299,80728529,1549,1549,1604,1603,0,0,0,0,0,0,0,0,0,0
1706445780.39956307,80828489,1554,1555,1601,1600,0,0,0,0,0,0,0,0,0,0
1706445780.49952292,80928449,1560,1561,1594,1594,0,0,0,0,0,0,0,0,0,0
1706445780.59948301,81028409,1566,1567,1589,1589,0,0,0,0,0,0,0,0,0,0
1706445780.69944310,81128369,1572,1573,1584,1583,0,0,0,0,0,0,0,0,0,0
1706445780.79940295,81228329,1577,1577,1579,1579,0,0,0,0,0,0,0,0,0,0
1706445780.89936304,81328289,1580,1579,1574,1574,0,0,0,0,0,0,0,0,0,0
1706445780.99932289,81428249,1584,1583,1574,1574,0,0,0,0,0,0,0,0,0,0
1706445781.09928298,81528209,1583,1583,1572,1572,0,0,0,0,0,0,0,0,0,0
1706445781.19924307,81628169,1585,1583,1573,1573,0,0,0,0,0,0,0,0,0,0
1706445781.30003595,81728962,1583,1582,1574,1574,0,0,0,0,0,0,0,0,0,0
1706445781.39999604,81828922,1581,1581,1576,1576,0,0,0,0,0,0,0,0,0,0
1706445781.49995589,81928882,1578,1579,1577,1578,0,0,0,0,0,0,0,0,0,0
1706445781.59991598,82028842,1576,1577,1579,1579,0,0,0,0,0,0,0,0,0,0
1706445781.69987607,82128802,1575,1575,1580,1580,0,0,0,0,0,0,0,0,0,0
1706445781.79983592,82228762,1573,1573,1581,1581,0,0,0,0,0,0,0,0,0,0
1706445781.89979601,82328722,1574,1574,1583,1583,0,0,0,0,0,0,0,0,0,0
1706445781.99975610,82428682,1574,1574,1583,1583,0,0,0,0,0,0,0,0,0,0
1706445782.09971595,82528642,1574,1574,1582,1583,0,0,0,0,0,0,0,0,0,0
1706445782.19967604,82628602,1575,1575,1582,1582,0,0,0,0,0,0,0,0,0,0
1706445782.29963613,82728562,1576,1576,1581,1581,0,0,0,0,0,0,0,0,0,0
1706445782.39959598,82828522,1578,1578,1581,1581,0,0,0,0,0,0,0,0,0,0
1706445782.49955606,82928482,1579,1579,1579,1580,0,0,0,0,0,0,0,0,0,0
1706445782.59951591,83028442,1580,1580,1579,1580,0,0,0,0,0,0,0,0,0,0
1706445782.69947600,83128402,1580,1580,1578,1578,0,0,0,0,0,0,0,0,0,0
1706445782.79943609,83228362,1582,1582,1580,1579,0,0,0,0,0,0,0,0,0,0
1706445782.89939594,83328322,1581,1581,1579,1579,0,0,0,0,0,0,0,0,0,0
1706445782.99935603,83428282,1581,1581,1579,1579,0,0,0,0,0,0,0,0,0,0
1706445783.09931612,83528242,1581,1581,1579,1579,0,0,0,0,0,0,0,0,0,0
1706445783.19927597,83628202,1581,1580,1579,1579,0,0,0,0,0,0,0,0,0,0
1706445783.29923606,83728162,1580,1580,1579,1579,0,0,0,0,0,0,0,0,0,0
1706445783.40002894,83828955,1579,1579,1579,1579,0,0,0,0,0,0,0,0,0,0
1706445783.49998903,83928915,1579,1578,1579,1579,0,0,0,0,0,0,0,0,0,0
1706445783.59994912,84028875,1579,1579,1579,1580,0,0,0,0,0,0,0,0,0,0
1706445783.69990897,84128835,1578,1578,1579,1579,0,0,0,0,0,0,0,0,0,0
1706445783.79986906,84228795,1578,1578,1580,1579,0,0,0,0,0,0,0,0,0,0
1706445783.89982891,84328755,1579,1579,1580,1580,0,0,0,0,0,0,0,0,0,0
1706445783.99978900,84428715,1579,1579,1580,1580,0,0,0,0,0,0,0,0,0,0
1706445784.09974909,84528675,1579,1579,1579,1580,0,0,0,0,0,0,0,0,0,0
1706445784.19970894,84628635,1580,1580,1580,1580,0,0,0,0,0,0,0,0,0,0
1706445784.29966903,84728595,1580,1580,1580,1580,0,0,0,0,0,0,0,0,0,0
1706445784.39962912,84828555,1580,1580,1580,1580,0,0,0,0,0,0,0,0,0,0
1706445784.49958897,84928515,1581,1581,1580,1580,0,0,0,0,0,0,0,0,0,0
1706445784.59954906,85028475,1581,1581,1581,1581,0,0,0,0,0,0,0,0,0,0
1706445784.69950891,85128435,1580,1581,1581,1580,0,0,0,0,0,0,0,0,0,0
1706445784.79946899,85228395,1581,1581,1580,1581,0,0,0,0,0,0,0,0,0,0
1706445784.89942908,85328355,1580,1581,1580,1580,0,0,0,0,0,0,0,0,0,0
1706445784.99938893,85428315,1580,1582,1587,1573,0,0,0,0,0,0,0,0,0,0
1706445785.09934902,85528275,1581,1583,1583,1573,0,0,0,0,0,0,0,0,0,0
1706445785.19930911,85628235,1580,1583,1573,1572,0,0,0,0,0,0,0,0,0,0
1706445785.29926896,85728195,1579,1582,1564,1569,0,0,0,0,0,0,0,0,0,0
1706445785.39922905,85828155,1579,1581,1558,1565,0,0,0,0,0,0,0,0,0,0
1706445785.50002193,85928948,1581,1581,1555,1560,0,0,0,0,0,0,0,0,0,0
1706445785.59998202,86028908,1582,1581,1554,1557,0,0,0,0,0,0,0,0,0,0
1706445785.69994211,86128868,1582,1581,1555,1555,0,0,0,0,0,0,0,0,0,0
1706445785.79990196,86228828,1581,1580,1556,1554,0,0,0,0,0,0,0,0,0,0
1706445785.89986205,86328788,1579,1579,1556,1553,0,0,0,0,0,0,0,0,0,0
1706445785.99982190,86428748,1577,1578,1556,1554,0,0,0,0,0,0,0,0,0,0
1706445786.09978199,86528708,1576,1577,1555,1554,0,0,0,0,0,0,0,0,0,0
1706445786.19974208,86628668,1575,1577,1554,1555,0,0,0,0,0,0,0,0,0,0
1706445786.29970193,86728628,1575,1577,1553,1553,0,0,0,0,0,0,0,0,0,0
1706445786.39966202,86828588,1576,1578,1551,1551,0,0,0,0,0,0,0,0,0,0
1706445786.49962211,86928548,1579,1580,1550,1550,0,0,0,0,0,0,0,0,0,0
1706445786.59958196,87028508,1581,1582,1547,1547,0,0,0,0,0,0,0,0,0,0
1706445786.69954205,87128468,1583,1584,1545,1544,0,0,0,0,0,0,0,0,0,0
1706445786.79950190,87228428,1586,1587,1543,1542,0,0,0,0,0,0,0,0,0,0
1706445786.89946198,87328388,1588,1589,1540,1540,0,0,0,0,0,0,0,0,0,0
1706445786.99942207,87428348,1591,1592,1539,1539,0,0,0,0,0,0,0,0,0,0
1706445787.09938192,87528308,1592,1593,1537,1538,0,0,0,0,0,0,0,0,0,0
1706445787.19934201,87628268,1592,1594,1537,1538,0,0,0,0,0,0,0,0,0,0
1706445787.29930210,87728228,1593,1593,1537,1539,0,0,0,0,0,0,0,0,0,0
1706445787.39926195,87828188,1591,1591,1540,1543,0,0,0,0,0,0,0,0,0,0
1706445787.50005507,87928981,1589,1586,1547,1549,0,0,0,0,0,0,0,0,0,0
1706445787.60001493,88028941,1581,1578,1555,1557,0,0,0,0,0,0,0,0,0,0
1706445787.69997501,88128901,1573,1569,1566,1568,0,0,0,0,0,0,0,0,0,0
1706445787.79993510,88228861,1562,1559,1578,1579,0,0,0,0,0,0,0,0,0,0
1706445787.89989495,88328821,1551,1548,1589,1590,0,0,0,0,0,0,0,0,0,0
1706445787.99985504,88428781,1543,1541,1601,1601,0,0,0,0,0,0,0,0,0,0
1706445788.09981489,88528741,1536,1534,1608,1607,0,0,0,0,0,0,0,0,0,0
1706445788.19977498,88628701,1532,1532,1612,1612,0,0,0,0,0,0,0,0,0,0
1706445788.29973507,88728661,1532,1532,1611,1612,0,0,0,0,0,0,0,0,0,0
1706445788.39969492,88828621,1536,1537,1609,1609,0,0,0,0,0,0,0,0,0,0
1706445788.49965501,88928581,1542,1543,1604,1604,0,0,0,0,0,0,0,0,0,0
1706445788.59961510,89028541,1550,1552,1598,1598,0,0,0,0,0,0,0,0,0,0
1706445788.69957495,89128501,1559,1560,1591,1590,0,0,0,0,0,0,0,0,0,0
1706445788.79953504,89228461,1567,1569,1584,1583,0,0,0,0,0,0,0,0,0,0
1706445788.89949512,89328421,1575,1575,1578,1577,0,0,0,0,0,0,0,0,0,0
1706445788.99945498,89428381,1582,1582,1574,1573,0,0,0,0,0,0,0,0,0,0
1706445789.09941506,89528341,1585,1585,1571,1570,0,0,0,0,0,0,0,0,0,0
1706445789.19937491,89628301,1587,1586,1568,1568,0,0,0,0,0,0,0,0,0,0
1706445789.29933500,89728261,1588,1587,1570,1569,0,0,0,0,0,0,0,0,0,0
1706445789.39929509,89828221,1586,1585,1570,1570,0,0,0,0,0,0,0,0,0,0
1706445789.49925494,89928181,1584,1582,1572,1572,0,0,0,0,0,0,0,0,0,0
1706445789.60004807,90028974,1581,1581,1575,1575,0,0,0,0,0,0,0,0,0,0
1706445789.70000792,90128934,1579,1578,1578,1578,0,0,0,0,0,0,0,0,0,0
1706445789.79996800,90228894,1575,1576,1579,1580,0,0,0,0,0,0,0,0,0,0
1706445789.89992809,90328854,1573,1574,1581,1581,0,0,0,0,0,0,0,0,0,0
1706445789.99988794,90428814,1574,1574,1584,1584,0,0,0,0,0,0,0,0,0,0
1706445790.09984803,90528774,1572,1573,1583,1584,0,0,0,0,0,0,0,0,0,0
1706445790.19980812,90628734,1572,1573,1583,1583,0,0,0,0,0,0,0,0,0,0
1706445790.29976797,90728694,1575,1574,1583,1583,0,0,0,0,0,0,0,0,0,0
1706445790.39972806,90828654,1575,1575,1581,1581,0,0,0,0,0,0,0,0,0,0
1706445790.49968791,90928614,1577,1576,1580,1581,0,0,0,0,0,0,0,0,0,0
1706445790.59964800,91028574,1579,1578,1580,1580,0,0,0,0,0,0,0,0,0,0
1706445790.69960809,91128534,1581,1580,1580,1580,0,0,0,0,0,0,0,0,0,0
1706445790.79956794,91228494,1580,1581,1578,1578,0,0,0,0,0,0,0,0,0,0
1706445790.89952803,91328454,1580,1580,1577,1577,0,0,0,0,0,0,0,0,0,0
1706445790.99948812,91428414,1581,1581,1578,1577,0,0,0,0,0,0,0,0,0,0
1706445791.09944797,91528374,1582,1581,1578,1578,0,0,0,0,0,0,0,0,0,0
1706445791.19940805,91628334,1581,1581,1578,1578,0,0,0,0,0,0,0,0,0,0
1706445791.29936790,91728294,1581,1581,1579,1579,0,0,0,0,0,0,0,0,0,0
1706445791.39932799,91828254,1581,1581,1579,1580,0,0,0,0,0,0,0,0,0,0
1706445791.49928808,91928214,1580,1580,1579,1579,0,0,0,0,0,0,0,0,0,0
1706445791.59924793,92028174,1579,1580,1580,1580,0,0,0,0,0,0,0,0,0,0
1706445791.70004106,92128967,1579,1579,1580,1580,0,0,0,0,0,0,0,0,0,0
1706445791.80000091,92228927,1579,1580,1581,1581,0,0,0,0,0,0,0,0,0,0
1706445791.89996099,92328887,1579,1579,1580,1581,0,0,0,0,0,0,0,0,0,0
1706445791.99992108,92428847,1578,1578,1579,1580,0,0,0,0,0,0,0,0,0,0
1706445792.09988093,92528807,1579,1579,1580,1580,0,0,0,0,0,0,0,0,0,0
1706445792.19984102,92628767,1580,1579,1581,1580,0,0,0,0,0,0,0,0,0,0
1706445792.29980111,92728727,1580,1579,1580,1580,0,0,0,0,0,0,0,0,0,0
1706445792.39976096,92828687,1581,1581,1581,1581,0,0,0,0,0,0,0,0,0,0
1706445792.49972105,92928647,1580,1581,1581,1580,0,0,0,0,0,0,0,0,0,0
1706445792.59968090,93028607,1581,1581,1581,1581,0,0,0,0,0,0,0,0,0,0
1706445792.69964099,93128567,1581,1581,1580,1581,0,0,0,0,0,0,0,0,0,0
1706445792.79960108,93228527,1582,1582,1585,1577,0,0,0,0,0,0,0,0,0,0
1706445792.89956093,93328487,1582,1583,1588,1574,0,0,0,0,0,0,0,0,0,0
1706445792.99952102,93428447,1579,1580,1581,1574,0,0,0,0,0,0,0,0,0,0
1706445793.09948111,93528407,1577,1577,1574,1575,0,0,0,0,0,0,0,0,0,0
1706445793.19944096,93628367,1574,1574,1569,1575,0,0,0,0,0,0,0,0,0,0
1706445793.29940104,93728327,1572,1571,1567,1573,0,0,0,0,0,0,0,0,0,0
1706445793.39936090,93828287,1570,1569,1566,1571,0,0,0,0,0,0,0,0,0,0
1706445793.49932098,93928247,1568,1568,1567,1569,0,0,0,0,0,0,0,0,0,0
1706445793.59928107,94028207,1566,1566,1567,1566,0,0,0,0,0,0,0,0,0,0
1706445793.69924092,94128167,1565,1566,1567,1566,0,0,0,0,0,0,0,0,0,0
1706445793.80003405,94228960,1565,1565,1568,1565,0,0,0,0,0,0,0,0,0,0
1706445793.89999390,94328920,1565,1564,1566,1565,0,0,0,0,0,0,0,0,0,0
1706445793.99995399,94428880,1564,1564,1565,1565,0,0,0,0,0,0,0,0,0,0
1706445794.09991407,94528840,1564,1564,1564,1565,0,0,0,0,0,0,0,0,0,0
1706445794.19987392,94628800,1562,1562,1562,1563,0,0,0,0,0,0,0,0,0,0
1706445794.29983401,94728760,1562,1562,1562,1562,0,0,0,0,0,0,0,0,0,0
1706445794.39979410,94828720,1562,1561,1561,1562,0,0,0,0,0,0,0,0,0,0
1706445794.49975395,94928680,1561,1561,1561,1560,0,0,0,0,0,0,0,0,0,0
1706445794.59971404,95028640,1561,1561,1562,1560,0,0,0,0,0,0,0,0,0,0
1706445794.69967389,95128600,1559,1559,1559,1558,0,0,0,0,0,0,0,0,0,0
1706445794.79963398,95228560,1558,1558,1558,1557,0,0,0,0,0,0,0,0,0,0
1706445794.89959407,95328520,1558,1558,1558,1557,0,0,0,0,0,0,0,0,0,0
1706445794.99955392,95428480,1557,1557,1557,1556,0,0,0,0,0,0,0,0,0,0
1706445795.09951401,95528440,1556,1556,1556,1556,0,0,0,0,0,0,0,0,0,0
1706445795.19947410,95628400,1557,1557,1557,1556,0,0,0,0,0,0,0,0,0,0
1706445795.29943395,95728360,1556,1557,1557,1556,0,0,0,0,0,0,0,0,0,0
1706445795.39939404,95828320,1557,1557,1558,1556,0,0,0,0,0,0,0,0,0,0
1706445795.49935412,95928280,1557,1557,1559,1556,0,0,0,0,0,0,0,0,0,0
1706445795.59931397,96028240,1558,1558,1559,1557,0,0,0,0,0,0,0,0,0,0
1706445795.69927406,96128200,1559,1559,1557,1560,0,0,0,0,0,0,0,0,0,0
1706445795.79923391,96228160,1559,1560,1556,1562,0,0,0,0,0,0,0,0,0,0
1706445795.90002704,96328953,1561,1561,1557,1564,0,0,0,0,0,0,0,0,0,0
1706445795.99998713,96428913,1563,1563,1561,1565,0,0,0,0,0,0,0,0,0,0
1706445796.09994698,96528873,1563,1563,1562,1564,0,0,0,0,0,0,0,0,0,0
1706445796.19990706,96628833,1562,1562,1563,1562,0,0,0,0,0,0,0,0,0,0
1706445796.29986691,96728793,1562,1562,1564,1560,0,0,0,0,0,0,0,0,0,0
1706445796.39982700,96828753,1561,1561,1562,1561,0,0,0,0,0,0,0,0,0,0
1706445796.49978709,96928713,1558,1558,1555,1560,0,0,0,0,0,0,0,0,0,0
1706445796.59974694,97028673,1554,1554,1552,1556,0,0,0,0,0,0,0,0,0,0
1706445796.69970703,97128633,1549,1550,1548,1551,0,0,0,0,0,0,0,0,0,0
1706445796.79966712,97228593,1543,1544,1543,1544,0,0,0,0,0,0,0,0,0,0
1706445796.89962697,97328553,1536,1536,1536,1536,0,0,0,0,0,0,0,0,0,0
1706445796.99958706,97428513,1528,1528,1529,1528,0,0,0,0,0,0,0,0,0,0
1706445797.09954691,97528473,1522,1521,1522,1521,0,0,0,0,0,0,0,0,0,0
1706445797.19950700,97628433,1519,1519,1520,1518,0,0,0,0,0,0,0,0,0,0
1706445797.29946709,97728393,1520,1518,1519,1518,0,0,0,0,0,0,0,0,0,0
1706445797.39942694,97828353,1521,1520,1521,1521,0,0,0,0,0,0,0,0,0,0
1706445797.49938703,97928313,1524,1524,1523,1524,0,0,0,0,0,0,0,0,0,0
1706445797.59934711,98028273,1528,1528,1527,1528,0,0,0,0,0,0,0,0,0,0
1706445797.69930696,98128233,1532,1532,1532,1532,0,0,0,0,0,0,0,0,0,0
1706445797.79926705,98228193,1537,1537,1537,1537,0,0,0,0,0,0,0,0,0,0
1706445797.90005994,98328986,1540,1541,1540,1541,0,0,0,0,0,0,0,0,0,0
1706445798.00002003,98428946,1542,1542,1542,1543,0,0,0,0,0,0,0,0,0,0
1706445798.09998012,98528906,1543,1543,1543,1543,0,0,0,0,0,0,0,0,0,0
1706445798.19993997,98628866,1545,1545,1545,1545,0,0,0,0,0,0,0,0,0,0
1706445798.29990005,98728826,1545,1545,1545,1545,0,0,0,0,0,0,0,0,0,0
1706445798.39985991,98828786,1546,1546,1546,1546,0,0,0,0,0,0,0,0,0,0
1706445798.49981999,98928746,1546,1546,1546,1545,0,0,0,0,0,0,0,0,0,0
1706445798.59978008,99028706,1546,1545,1546,1545,0,0,0,0,0,0,0,0,0,0
1706445798.69973993,99128666,1546,1546,1546,1546,0,0,0,0,0,0,0,0,0,0
1706445798.79970002,99228626,1545,1545,1545,1545,0,0,0,0,0,0,0,0,0,0
1706445798.89966011,99328586,1545,1544,1545,1545,0,0,0,0,0,0,0,0,0,0
1706445798.99961996,99428546,1545,1545,1545,1545,0,0,0,0,0,0,0,0,0,0
1706445799.09958005,99528506,1545,1545,1545,1545,0,0,0,0,0,0,0,0,0,0
1706445799.19953990,99628466,1544,1544,1544,1544,0,0,0,0,0,0,0,0,0,0
1706445799.29949999,99728426,1544,1545,1544,1544,0,0,0,0,0,0,0,0,0,0
1706445799.39946008,99828386,1545,1545,1545,1544,0,0,0,0,0,0,0,0,0,0
1706445799.49941993,99928346,1544,1544,1543,1544,0,0,0,0,0,0,0,0,0,0
1706445799.59938002,100028306,1544,1544,1544,1544,0,0,0,0,0,0,0,0,0,0
1706445799.69934011,100128266,1544,1544,1544,1544,0,0,0,0,0,0,0,0,0,0
1706445799.79929996,100228226,1543,1543,1544,1543,0,0,0,0,0,0,0,0,0,0
1706445799.89926004,100328186,1544,1544,1544,1544,0,0,0,0,0,0,0,0,0,0
1706445800.00005293,100428979,1545,1545,1545,1544,0,0,0,0,0,0,0,0,0,0
1706445800.10001302,100528939,1544,1544,1544,1544,0,0,0,0,0,0,0,0,0,0
1706445800.19997311,100628899,1543,1544,1543,1544,0,0,0,0,0,0,0,0,0,0
1706445800.29993296,100728859,1545,1544,1544,1545,0,0,0,0,0,0,0,0,0,0
1706445800.39989305,100828819,1544,1544,1544,1544,0,0,0,0,0,0,0,0,0,0
1706445800.49985290,100928779,1543,1544,1543,1544,0,0,0,0,0,0,0,0,0,0
1706445800.59981298,101028739,1544,1544,1544,1543,0,0,0,0,0,0,0,0,0,0
1706445800.69977307,101128699,1544,1543,1544,1543,0,0,0,0,0,0,0,0,0,0
1706445800.79973292,101228659,1544,1544,1543,1544,0,0,0,0,0,0,0,0,0,0
1706445800.89969301,101328619,1543,1544,1544,1543,0,0,0,0,0,0,0,0,0,0
1706445800.99965310,101428579,1543,1543,1544,1543,0,0,0,0,0,0,0,0,0,0
1706445801.09961295,101528539,1545,1544,1543,1544,0,0,0,0,0,0,0,0,0,0
1706445801.19957304,101628499,1544,1544,1544,1544,0,0,0,0,0,0,0,0,0,0
1706445801.29953289,101728459,1544,1544,1544,1544,0,0,0,0,0,0,0,0,0,0
1706445801.39949298,101828419,1544,1544,1544,1544,0,0,0,0,0,0,0,0,0,0
1706445801.49945307,101928379,1544,1545,1545,1545,0,0,0,0,0,0,0,0,0,0
1706445801.59941292,102028339,1544,1545,1545,1545,0,0,0,0,0,0,0,0,0,0
1706445801.69937301,102128299,1544,1544,1544,1544,0,0,0,0,0,0,0,0,0,0
1706445801.79933310,102228259,1545,1545,1545,1545,0,0,0,0,0,0,0,0,0,0
1706445801.89929295,102328219,1545,1544,1544,1544,0,0,0,0,0,0,0,0,0,0
1706445801.99925303,102428179,1544,1544,1544,1544,0,0,0,0,0,0,0,0,0,0
1706445802.10004592,102528972,1544,1544,1544,1544,0,0,0,0,0,0,0,0,0,0
1706445802.20000601,102628932,1544,1545,1545,1544,0,0,0,0,0,0,0,0,0,0
1706445802.29996610,102728892,1544,1543,1543,1544,0,0,0,0,0,0,0,0,0,0
1706445802.39992595,102828852,1544,1544,1544,1544,0,0,0,0,0,0,0,0,0,0
1706445802.49988604,102928812,1545,1545,1545,1545,0,0,0,0,0,0,0,0,0,0
1706445802.59984612,103028772,1545,1545,1545,1545,0,0,0,0,0,0,0,0,0,0
1706445802.69980597,103128732,1544,1545,1544,1544,0,0,0,0,0,0,0,0,0,0
1706445802.79976606,103228692,1544,1545,1545,1544,0,0,0,0,0,0,0,0,0,0
1706445802.89972591,103328652,1544,1544,1544,1544,0,0,0,0,0,0,0,0,0,0
1706445802.99968600,103428612,1544,1544,1544,1544,0,0,0,0,0,0,0,0,0,0
1706445803.09964609,103528572,1544,1544,1544,1544,0,0,0,0,0,0,0,0,0,0
1706445803.19960594,103628532,1544,1544,1544,1544,0,0,0,0,0,0,0,0,0,0
1706445803.29956603,103728492,1544,1544,1544,1544,0,0,0,0,0,0,0,0,0,0
1706445803.39952612,103828452,1545,1545,1546,1545,0,0,0,0,0,0,0,0,0,0
1706445803.49948597,103928412,1545,1545,1545,1545,0,0,0,0,0,0,0,0,0,0
1706445803.59944606,104028372,1545,1545,1545,1545,0,0,0,0,0,0,0,0,0,0
1706445803.69940591,104128332,1544,1544,1544,1544,0,0,0,0,0,0,0,0,0,0
1706445803.79936600,104228292,1545,1544,1544,1544,0,0,0,0,0,0,0,0,0,0
1706445803.89932609,104328252,1544,1544,1544,1544,0,0,0,0,0,0,0,0,0,0
1706445803.99928594,104428212,1544,1544,1544,1544,0,0,0,0,0,0,0,0,0,0
1706445804.09924603,104528172,1544,1544,1544,1545,0,0,0,0,0,0,0,0,0,0
1706445804.20003891,104628965,1544,1544,1544,1544,0,0,0,0,0,0,0,0,0,0
1706445804.29999900,104728925,1544,1544,1544,1544,0,0,0,0,0,0,0,0,0,0
1706445804.39995909,104828885,1543,1543,1543,1543,0,0,0,0,0,0,0,0,0,0
1706445804.49991894,104928845,1543,1543,1543,1543,0,0,0,0,0,0,0,0,0,0
1706445804.59987903,105028805,1543,1543,1544,1543,0,0,0,0,0,0,0,0,0,0
1706445804.69983912,105128765,1544,1543,1543,1544,0,0,0,0,0,0,0,0,0,0
1706445804.79979897,105228725,1544,1545,1545,1544,0,0,0,0,0,0,0,0,0,0
1706445804.89975905,105328685,1545,1544,1544,1545,0,0,0,0,0,0,0,0,0,0
1706445804.99971890,105428645,1545,1545,1545,1545,0,0,0,0,0,0,0,0,0,0
1706445805.09967899,105528605,1544,1544,1544,1544,0,0,0,0,0,0,0,0,0,0
1706445805.19963908,105628565,1544,1544,1544,1544,0,0,0,0,0,0,0,0,0,0
1706445805.29959893,105728525,1543,1544,1543,1544,0,0,0,0,0,0,0,0,0,0
1706445805.39955902,105828485,1545,1544,1545,1544,0,0,0,0,0,0,0,0,0,0
1706445805.49951911,105928445,1546,1545,1545,1546,0,0,0,0,0,0,0,0,0,0
1706445805.59947896,106028405,1545,1545,1545,1545,0,0,0,0,0,0,0,0,0,0
1706445805.69943905,106128365,1546,1545,1545,1546,0,0,0,0,0,0,0,0,0,0
1706445805.79939890,106228325,1544,1545,1544,1545,0,0,0,0,0,0,0,0,0,0
1706445805.89935899,106328285,1545,1544,1545,1545,0,0,0,0,0,0,0,0,0,0
1706445805.99931908,106428245,1545,1545,1546,1545,0,0,0,0,0,0,0,0,0,0
1706445806.09927893,106528205,1545,1544,1544,1545,0,0,0,0,0,0,0,0,0,0
1706445806.19923902,106628165,1545,1544,1544,1545,0,0,0,0,0,0,0,0,0,0
1706445806.30003190,106728958,1544,1544,1544,1544,0,0,0,0,0,0,0,0,0,0
1706445806.39999199,106828918,1545,1545,1545,1545,0,0,0,0,0,0,0,0,0,0
1706445806.49995208,106928878,1545,1544,1545,1544,0,0,0,0,0,0,0,0,0,0
1706445806.59991193,107028838,1544,1545,1545,1545,0,0,0,0,0,0,0,0,0,0
1706445806.69987202,107128798,1544,1544,1544,1544,0,0,0,0,0,0,0,0,0,0
1706445806.79983211,107228758,1544,1545,1545,1544,0,0,0,0,0,0,0,0,0,0
1706445806.89979196,107328718,1360,1403,1359,1404,0,0,0,0,0,0,0,0,0,0
1706445806.99975204,107428678,1303,1364,1302,1365,0,0,0,0,0,0,0,0,0,0
1706445807.09971189,107528638,1304,1364,1302,1366,0,0,0,0,0,0,0,0,0,0
1706445807.19967198,107628598,1303,1364,1302,1365,0,0,0,0,0,0,0,0,0,0
1706445807.29963207,107728558,1304,1330,1302,1332,0,0,0,0,0,0,0,0,0,0
1706445807.39959192,107828518,1303,1303,1302,1305,0,0,0,0,0,0,0,0,0,0
1706445807.49955201,107928478,1305,1302,1302,1305,0,0,0,0,0,0,0,0,0,0
1706445807.59951210,108028438,1321,1290,1302,1305,0,0,0,0,0,0,0,0,0,0
1706445807.69947195,108128398,1315,1294,1302,1305,0,0,0,0,0,0,0,0,0,0
1706445807.79943204,108228358,1314,1295,1302,1305,0,0,0,0,0,0,0,0,0,0
1706445807.89939213,108328318,1314,1295,1302,1305,0,0,0,0,0,0,0,0,0,0
1706445807.99935198,108428278,1315,1294,1302,1305,0,0,0,0,0,0,0,0,0,0
1706445808.09931207,108528238,1316,1294,1302,1305,0,0,0,0,0,0,0,0,0,0
1706445808.19927192,108628198,1316,1293,1302,1305,0,0,0,0,0,0,0,0,0,0
1706445808.29923201,108728158,1303,1303,1302,1305,0,0,0,0,0,0,0,0,0,0
1706445808.40002489,108828951,1307,1300,1302,1305,0,0,0,0,0,0,0,0,0,0
1706445808.49998498,108928911,1308,1299,1302,1305,0,0,0,0,0,0,0,0,0,0
1706445808.59994507,109028871,1309,1299,1302,1305,0,0,0,0,0,0,0,0,0,0
1706445808.69990492,109128831,1309,1299,1302,1305,0,0,0,0,0,0,0,0,0,0
1706445808.79986501,109228791,1302,1150,1302,1150,0,0,0,0,0,0,0,0,0,0
1706445808.89982510,109328751,1000,1000,1000,1000,0,0,0,0,0,0,0,0,0,0
1706445808.99978495,109428711,1000,1000,1000,1000,0,0,0,0,0,0,0,0,0,0
1706445809.09974504,109528671,1000,1000,1000,1000,0,0,0,0,0,0,0,0,0,0
1706445809.19970512,109628631,1000,1000,1000,1000,0,0,0,0,0,0,0,0,0,0
1706445809.29966497,109728591,1000,1000,1000,1000,0,0,0,0,0,0,0,0,0,0
1706445809.39962506,109828551,1000,1000,1000,1000,0,0,0,0,0,0,0,0,0,0
1706445809.49958491,109928511,1000,1000,1000,1000,0,0,0,0,0,0,0,0,0,0
1706445809.59954500,110028471,1000,1000,1000,1000,0,0,0,0,0,0,0,0,0,0
1706445809.69950509,110128431,1000,1000,1000,1000,0,0,0,0,0,0,0,0,0,0
1706445809.79946494,110228391,1000,1000,1000,1000,0,0,0,0,0,0,0,0,0,0
1706445809.89942503,110328351,1000,1000,1000,1000,0,0,0,0,0,0,0,0,0,0
1706445809.99938512,110428311,1000,1000,1000,1000,0,0,0,0,0,0,0,0,0,0
1706445810.09934497,110528271,1000,1000,1000,1000,0,0,0,0,0,0,0,0,0,0
1706445810.19930506,110628231,1000,1000,1000,1000,0,0,0,0,0,0,0,0,0,0
1706445810.29926491,110728191,1000,1000,1000,1000,0,0,0,0,0,0,0,0,0,0
1706445810.40005803,110828984,1000,1000,1000,1000,0,0,0,0,0,0,0,0,0,0
1706445810.50001812,110928944,1000,1000,1000,1000,0,0,0,0,0,0,0,0,0,0
1706445810.59997797,111028904,1000,1000,1000,1000,0,0,0,0,0,0,0,0,0,0
1706445810.69993806,111128864,1000,1000,1000,1000,0,0,0,0,0,0,0,0,0,0
1706445810.79989791,111228824,1000,1000,1000,1000,0,0,0,0,0,0,0,0,0,0
1706445810.89985800,111328784,1000,1000,1000,1000,0,0,0,0,0,0,0,0,0,0
1706445810.99981809,111428744,1000,1000,1000,1000,0,0,0,0,0,0,0,0,0,0
1706445811.09977794,111528704,1000,1000,1000,1000,0,0,0,0,0,0,0,0,0,0
1706445811.19973803,111628664,1000,1000,1000,1000,0,0,0,0,0,0,0,0,0,0
1706445811.29969811,111728624,1000,1000,1000,1000,0,0,0,0,0,0,0,0,0,0
1706445811.39965796,111828584,1000,1000,1000,1000,0,0,0,0,0,0,0,0,0,0
1706445811.49961805,111928544,1000,1000,1000,1000,0,0,0,0,0,0,0,0,0,0
1706445811.59957790,112028504,1000,1000,1000,1000,0,0,0,0,0,0,0,0,0,0
1706445811.69953799,112128464,1000,1000,1000,1000,0,0,0,0,0,0,0,0,0,0
1706445811.79949808,112228424,1000,1000,1000,1000,0,0,0,0,0,0,0,0,0,0
1706445811.89945793,112328384,1000,1000,1000,1000,0,0,0,0,0,0,0,0,0,0
1706445811.99941802,112428344,1000,1000,1000,1000,0,0,0,0,0,0,0,0,0,0
1706445812.09937811,112528304,1000,1000,1000,1000,0,0,0,0,0,0,0,0,0,0
1706445812.19933796,112628264,1000,1000,1000,1000,0,0,0,0,0,0,0,0,0,0
1706445812.29929805,112728224,1000,1000,1000,1000,0,0,0,0,0,0,0,0,0,0
1706445812.39925790,112828184,1000,1000,1000,1000,0,0,0,0,0,0,0,0,0,0
1706445812.50005102,112928977,1000,1000,1000,1000,0,0,0,0,0,0,0,0,0,0
1706445812.60001111,113028937,1000,1000,1000,1000,0,0,0,0,0,0,0,0,0,0
1706445812.69997096,113128897,1000,1000,1000,1000,0,0,0,0,0,0,0,0,0,0
1706445812.79993105,113228857,1000,1000,1000,1000,0,0,0,0,0,0,0,0,0,0
1706445812.89989090,113328817,1000,1000,1000,1000,0,0,0,0,0,0,0,0,0,0
1706445812.99985099,113428777,1000,1000,1000,1000,0,0,0,0,0,0,0,0,0,0
1706445813.09981108,113528737,1000,1000,1000,1000,0,0,0,0,0,0,0,0,0,0
1706445813.19977093,113628697,1000,1000,1000,1000,0,0,0,0,0,0,0,0,0,0
1706445813.29973102,113728657,1000,1000,1000,1000,0,0,0,0,0,0,0,0,0,0
1706445813.39969110,113828617,1000,1000,1000,1000,0,0,0,0,0,0,0,0,0,0
1706445813.49965096,113928577,1000,1000,1000,1000,0,0,0,0,0,0,0,0,0,0
1706445813.59961104,114028537,1000,1000,1000,1000,0,0,0,0,0,0,0,0,0,0
1706445813.69957089,114128497,1000,1000,1000,1000,0,0,0,0,0,0,0,0,0,0
1706445813.79953098,114228457,1000,1000,1000,1000,0,0,0,0,0,0,0,0,0,0
1706445813.89949107,114328417,1000,1000,1000,1000,0,0,0,0,0,0,0,0,0,0
1706445813.99945092,114428377,1000,1000,1000,1000,0,0,0,0,0,0,0,0,0,0
1706445814.09941101,114528337,1000,1000,1000,1000,0,0,0,0,0,0,0,0,0,0
1706445814.19937110,114628297,1000,1000,1000,1000,0,0,0,0,0,0,0,0,0,0
1706445814.29933095,114728257,1000,1000,1000,1000,0,0,0,0,0,0,0,0,0,0
1706445814.39929104,114828217,1000,1000,1000,1000,0,0,0,0,0,0,0,0,0,0
1706445814.49925113,114928177,1000,1000,1000,1000,0,0,0,0,0,0,0,0,0,0
1706445814.60004401,115028970,1000,1000,1000,1000,0,0,0,0,0,0,0,0,0,0
1706445814.70000410,115128930,1000,1000,1000,1000,0,0,0,0,0,0,0,0,0,0
1706445814.79996395,115228890,1000,1000,1000,1000,0,0,0,0,0,0,0,0,0,0
1706445814.89992404,115328850,1000,1000,1000,1000,0,0,0,0,0,0,0,0,0,0
1706445814.99988389,115428810,1000,1000,1000,1000,0,0,0,0,0,0,0,0,0,0
1706445815.09984398,115528770,1000,1000,1000,1000,0,0,0,0,0,0,0,0,0,0
1706445815.19980407,115628730,1000,1000,1000,1000,0,0,0,0,0,0,0,0,0,0
1706445815.29976392,115728690,1000,1000,1000,1000,0,0,0,0,0,0,0,0,0,0
1706445815.39972401,115828650,1000,1000,1000,1000,0,0,0,0,0,0,0,0,0,0
1706445815.49968410,115928610,1000,1000,1000,1000,0,0,0,0,0,0,0,0,0,0
1706445815.59964395,116028570,1000,1000,1000,1000,0,0,0,0,0,0,0,0,0,0
1706445815.69960403,116128530,1000,1000,1000,1000,0,0,0,0,0,0,0,0,0,0
1706445815.79956412,116228490,1000,1000,1000,1000,0,0,0,0,0,0,0,0,0,0
1706445815.89952397,116328450,1000,1000,1000,1000,0,0,0,0,0,0,0,0,0,0
1706445815.99948406,116428410,1000,1000,1000,1000,0,0,0,0,0,0,0,0,0,0
1706445816.09944391,116528370,1000,1000,1000,1000,0,0,0,0,0,0,0,0,0,0
1706445816.19940400,116628330,1000,1000,1000,1000,0,0,0,0,0,0,0,0,0,0
1706445816.29936409,116728290,1000,1000,1000,1000,0,0,0,0,0,0,0,0,0,0
1706445816.39932394,116828250,1000,1000,1000,1000,0,0,0,0,0,0,0,0,0,0
1706445816.49928403,116928210,1000,1000,1000,1000,0,0,0,0,0,0,0,0,0,0
1706445816.59924412,117028170,1000,1000,1000,1000,0,0,0,0,0,0,0,0,0,0
1706445816.70003700,117128963,1000,1000,1000,1000,0,0,0,0,0,0,0,0,0,0
1706445816.79999709,117228923,1000,1000,1000,1000,0,0,0,0,0,0,0,0,0,0
1706445816.89995694,117328883,1000,1000,1000,1000,0,0,0,0,0,0,0,0,0,0
1706445816.99991703,117428843,1000,1000,1000,1000,0,0,0,0,0,0,0,0,0,0
1706445817.09987712,117528803,1000,1000,1000,1000,0,0,0,0,0,0,0,0,0,0
1706445817.19983697,117628763,1000,1000,1000,1000,0,0,0,0,0,0,0,0,0,0
