TimeUS,M1,M2,M3,M4,TimeUS,C1,C2,C3,C4
85936445,1000,1000,1000,1000,86028908,1000,1000,1000,1000
85938944,1000,1000,1000,1000,86128868,1000,1000,1000,1000
85941443,1000,1000,1000,1000,86228828,1000,1000,1000,1000
85943942,1000,1000,1000,1000,86328788,1000,1000,1000,1000
85946441,1000,1000,1000,1000,86428748,1000,1000,1000,1000
85948940,1000,1000,1000,1000,86528708,1000,1000,1000,1000
85951439,1000,1000,1000,1000,86628668,1000,1000,1000,1000
85953938,1000,1000,1000,1000,86728628,1000,1000,1000,1000
85956437,1000,1000,1000,1000,86828588,1000,1000,1000,1000
85958936,1000,1000,1000,1000,86928548,1000,1000,1000,1000
85961435,1000,1000,1000,1000,87028508,1000,1000,1000,1000
85963934,1000,1000,1000,1000,87128468,1000,1000,1000,1000
85966433,1000,1000,1000,1000,87228428,1000,1000,1000,1000
85968932,1000,1000,1000,1000,87328388,1000,1000,1000,1000
85971431,1000,1000,1000,1000,87428348,1000,1000,1000,1000
85973930,1000,1000,1000,1000,87528308,1000,1000,1000,1000
85976429,1000,1000,1000,1000,87628268,1000,1000,1000,1000
85978928,1000,1000,1000,1000,87728228,1000,1000,1000,1000
85981427,1000,1000,1000,1000,87828188,1000,1000,1000,1000
85983926,1000,1000,1000,1000,87928981,1000,1000,1000,1000
85986425,1000,1000,1000,1000,88028941,1027,1027,1027,1027
85988924,1000,1000,1000,1000,88128901,1057,1057,1057,1057
85991423,1000,1000,1000,1000,88228861,1087,1087,1087,1087
85993922,1000,1000,1000,1000,88328821,1117,1117,1117,1117
85996421,1000,1000,1000,1000,88428781,1147,1147,1147,1147
85998920,1000,1000,1000,1000,88528741,1386,1376,1376,1387
86001419,1000,1000,1000,1000,88628701,1569,1560,1561,1569
86003918,1000,1000,1000,1000,88728661,1718,1710,1710,1718
86006417,1000,1000,1000,1000,88828621,1847,1839,1839,1847
86008916,1000,1000,1000,1000,88928581,1879,1870,1871,1879
86011415,1000,1000,1000,1000,89028541,1822,1819,1819,1822
86013914,1000,1000,1000,1000,89128501,1697,1698,1698,1698
86016413,1000,1000,1000,1000,89228461,1636,1639,1639,1636
86018912,1000,1000,1000,1000,89328421,1630,1633,1634,1629
86021411,1000,1000,1000,1000,89428381,1643,1646,1646,1643
86023910,1000,1000,1000,1000,89528341,1649,1650,1650,1649
86026409,1000,1000,1000,1000,89628301,1645,1644,1644,1645
86028908,1000,1000,1000,1000,89728261,1637,1636,1635,1637
86031407,1000,1000,1000,1000,89828221,1629,1628,1627,1630
86033906,1000,1000,1000,1000,89928181,1626,1623,1623,1625
86036405,1000,1000,1000,1000,90028974,1624,1623,1623,1623
86038904,1000,1000,1000,1000,90128934,1623,1623,1623,1622
86041403,1000,1000,1000,1000,90228894,1622,1622,1622,1622
86043902,1000,1000,1000,1000,90328854,1623,1623,1623,1623
86046401,1000,1000,1000,1000,90428814,1622,1623,1623,1622
86048900,1000,1000,1000,1000,90528774,1623,1623,1623,1624
86051399,1000,1000,1000,1000,90628734,1624,1625,1625,1625
86053898,1000,1000,1000,1000,90728694,1625,1625,1625,1626
86056397,1000,1000,1000,1000,90828654,1626,1626,1626,1627
86058896,1000,1000,1000,1000,90928614,1628,1627,1627,1628
86061395,1000,1000,1000,1000,91028574,1618,1621,1621,1618
86063894,1000,1000,1000,1000,91128534,1596,1596,1596,1596
86066393,1000,1000,1000,1000,91228494,1586,1585,1585,1586
86068892,1000,1000,1000,1000,91328454,1575,1574,1574,1575
86071391,1000,1000,1000,1000,91428414,1567,1567,1567,1567
86073890,1000,1000,1000,1000,91528374,1560,1560,1560,1560
86076389,1000,1000,1000,1000,91628334,1553,1554,1554,1554
86078888,1000,1000,1000,1000,91728294,1548,1548,1548,1548
86081387,1000,1000,1000,1000,91828254,1542,1543,1543,1542
86083886,1000,1000,1000,1000,91928214,1539,1538,1538,1538
86086385,1000,1000,1000,1000,92028174,1533,1533,1533,1533
86088884,1000,1000,1000,1000,92128967,1530,1530,1530,1530
86091383,1000,1000,1000,1000,92228927,1527,1527,1526,1527
86093882,1000,1000,1000,1000,92328887,1524,1523,1523,1524
86096381,1000,1000,1000,1000,92428847,1521,1521,1520,1522
86098880,1000,1000,1000,1000,92528807,1519,1519,1518,1519
86101379,1000,1000,1000,1000,92628767,1516,1516,1516,1516
86103878,1000,1000,1000,1000,92728727,1513,1513,1513,1513
86106377,1000,1000,1000,1000,92828687,1510,1510,1510,1510
86108876,1000,1000,1000,1000,92928647,1507,1508,1507,1508
86111375,1000,1000,1000,1000,93028607,1506,1506,1506,1505
86113874,1000,1000,1000,1000,93128567,1503,1503,1503,1503
86116373,1000,1000,1000,1000,93228527,1500,1501,1500,1501
86118872,1000,1000,1000,1000,93328487,1498,1498,1497,1498
86121371,1000,1000,1000,1000,93428447,1495,1496,1495,1496
86123870,1000,1000,1000,1000,93528407,1493,1493,1493,1493
86126369,1000,1000,1000,1000,93628367,1494,1494,1494,1493
86128868,1000,1000,1000,1000,93728327,1497,1497,1497,1496
86131367,1000,1000,1000,1000,93828287,1498,1498,1499,1498
86133866,1000,1000,1000,1000,93928247,1500,1500,1501,1500
86136365,1000,1000,1000,1000,94028207,1503,1503,1503,1502
86138864,1000,1000,1000,1000,94128167,1504,1504,1505,1504
86141363,1000,1000,1000,1000,94228960,1506,1506,1506,1506
86143862,1000,1000,1000,1000,94328920,1508,1508,1508,1509
86146361,1000,1000,1000,1000,94428880,1510,1510,1510,1510
86148860,1000,1000,1000,1000,94528840,1536,1536,1536,1536
86151359,1000,1000,1000,1000,94628800,1558,1558,1558,1558
86153858,1000,1000,1000,1000,94728760,1569,1568,1567,1570
86156357,1000,1000,1000,1000,94828720,1575,1576,1573,1578
86158856,1000,1000,1000,1000,94928680,1580,1580,1577,1583
86161355,1000,1000,1000,1000,95028640,1583,1583,1580,1585
86163854,1000,1000,1000,1000,95128600,1585,1584,1583,1586
86166353,1000,1000,1000,1000,95228560,1584,1584,1585,1583
86168852,1000,1000,1000,1000,95328520,1583,1583,1585,1581
86171351,1000,1000,1000,1000,95428480,1582,1582,1585,1579
86173850,1000,1000,1000,1000,95528440,1580,1580,1582,1578
86176349,1000,1000,1000,1000,95628400,1579,1579,1580,1578
86178848,1000,1000,1000,1000,95728360,1577,1576,1577,1577
86181347,1000,1000,1000,1000,95828320,1575,1575,1574,1576
86183846,1000,1000,1000,1000,95928280,1573,1573,1571,1575
86186345,1000,1000,1000,1000,96028240,1570,1571,1570,1573
86188844,1000,1000,1000,1000,96128200,1569,1569,1571,1574
86191343,1000,1000,1000,1000,96228160,1567,1568,1571,1572
86193842,1000,1000,1000,1000,96328953,1568,1567,1572,1571
86196341,1000,1000,1000,1000,96428913,1568,1568,1571,1570
86198840,1000,1000,1000,1000,96528873,1568,1568,1570,1569
86201339,1000,1000,1000,1000,96628833,1569,1569,1570,1569
86203838,1000,1000,1000,1000,96728793,1570,1570,1570,1570
86206337,1000,1000,1000,1000,96828753,1570,1571,1569,1569
86208836,1000,1000,1000,1000,96928713,1572,1571,1569,1570
86211335,1000,1000,1000,1000,97028673,1573,1573,1570,1571
86213834,1000,1000,1000,1000,97128633,1573,1573,1571,1571
86216333,1000,1000,1000,1000,97228593,1574,1574,1572,1572
86218832,1000,1000,1000,1000,97328553,1574,1574,1573,1573
86221331,1000,1000,1000,1000,97428513,1574,1574,1573,1572
86223830,1000,1000,1000,1000,97528473,1575,1576,1575,1574
86226329,1000,1000,1000,1000,97628433,1576,1576,1576,1575
86228828,1000,1000,1000,1000,97728393,1575,1576,1576,1575
86231327,1000,1000,1000,1000,97828353,1576,1575,1576,1575
86233826,1000,1000,1000,1000,97928313,1576,1575,1576,1576
86236325,1000,1000,1000,1000,98028273,1576,1576,1576,1577
86238824,1000,1000,1000,1000,98128233,1576,1576,1576,1577
86241323,1000,1000,1000,1000,98228193,1577,1578,1578,1578
86243822,1000,1000,1000,1000,98328986,1577,1578,1578,1578
86246321,1000,1000,1000,1000,98428946,1577,1577,1578,1577
86248820,1000,1000,1000,1000,98528906,1578,1578,1578,1578
86251319,1000,1000,1000,1000,98628866,1578,1578,1578,1578
86253818,1000,1000,1000,1000,98728826,1578,1578,1578,1578
86256317,1000,1000,1000,1000,98828786,1578,1578,1577,1578
86258816,1000,1000,1000,1000,98928746,1579,1578,1578,1578
86261315,1000,1000,1000,1000,99028706,1578,1578,1578,1577
86263814,1000,1000,1000,1000,99128666,1578,1579,1578,1578
86266313,1000,1000,1000,1000,99228626,1579,1579,1579,1579
86268812,1000,1000,1000,1000,99328586,1580,1580,1580,1580
86271311,1000,1000,1000,1000,99428546,1580,1579,1580,1580
86273810,1000,1000,1000,1000,99528506,1580,1579,1579,1580
86276309,1000,1000,1000,1000,99628466,1579,1580,1580,1580
86278808,1000,1000,1000,1000,99728426,1579,1579,1580,1579
86281307,1000,1000,1000,1000,99828386,1579,1579,1579,1579
86283806,1000,1000,1000,1000,99928346,1579,1579,1580,1580
86286305,1000,1000,1000,1000,100028306,1580,1580,1580,1580
86288804,1000,1000,1000,1000,100128266,1580,1580,1580,1580
86291303,1000,1000,1000,1000,100228226,1580,1580,1580,1580
86293802,1000,1000,1000,1000,100328186,1580,1579,1580,1580
86296301,1000,1000,1000,1000,100428979,1580,1580,1580,1580
86298800,1000,1000,1000,1000,100528939,1580,1580,1580,1580
86301299,1000,1000,1000,1000,100628899,1579,1579,1579,1579
86303798,1000,1000,1000,1000,100728859,1580,1580,1581,1580
86306297,1000,1000,1000,1000,100828819,1579,1579,1579,1580
86308796,1000,1000,1000,1000,100928779,1580,1581,1581,1581
86311295,1000,1000,1000,1000,101028739,1580,1580,1580,1580
86313794,1000,1000,1000,1000,101128699,1580,1580,1580,1580
86316293,1000,1000,1000,1000,101228659,1580,1580,1580,1580
86318792,1000,1000,1000,1000,101328619,1580,1580,1580,1580
86321291,1000,1000,1000,1000,101428579,1581,1580,1580,1580
86323790,1000,1000,1000,1000,101528539,1581,1581,1581,1581
86326289,1000,1000,1000,1000,101628499,1581,1581,1581,1581
86328788,1000,1000,1000,1000,101728459,1581,1581,1581,1580
86331287,1000,1000,1000,1000,101828419,1581,1581,1581,1581
86333786,1000,1000,1000,1000,101928379,1582,1582,1582,1582
86336285,1000,1000,1000,1000,102028339,1582,1582,1582,1582
86338784,1000,1000,1000,1000,102128299,1581,1581,1582,1581
86341283,1000,1000,1000,1000,102228259,1581,1582,1587,1576
86343782,1000,1000,1000,1000,102328219,1581,1584,1588,1574
86346281,1000,1000,1000,1000,102428179,1580,1583,1580,1574
86348780,1000,1000,1000,1000,102528972,1578,1581,1571,1573
86351279,1000,1000,1000,1000,102628932,1576,1578,1561,1568
86353778,1000,1000,1000,1000,102728892,1578,1579,1558,1565
86356277,1000,1000,1000,1000,102828852,1579,1579,1556,1561
86358776,1000,1000,1000,1000,102928812,1580,1579,1555,1557
86361275,1000,1000,1000,1000,103028772,1580,1579,1556,1554
86363774,1000,1000,1000,1000,103128732,1580,1579,1556,1553
86366273,1000,1000,1000,1000,103228692,1578,1578,1556,1553
86368772,1000,1000,1000,1000,103328652,1577,1578,1555,1554
86371271,1000,1000,1000,1000,103428612,1577,1578,1555,1555
86373770,1000,1000,1000,1000,103528572,1576,1577,1553,1554
86376269,1000,1000,1000,1000,103628532,1576,1578,1553,1552
86378768,1000,1000,1000,1000,103728492,1577,1578,1551,1551
86381267,1000,1000,1000,1000,103828452,1579,1580,1549,1549
86383766,1000,1000,1000,1000,103928412,1581,1582,1546,1547
86386265,1000,1000,1000,1000,104028372,1584,1585,1544,1544
86388764,1000,1000,1000,1000,104128332,1586,1587,1540,1540
86391263,1000,1000,1000,1000,104228292,1589,1590,1538,1537
86393762,1000,1000,1000,1000,104328252,1592,1592,1536,1536
86396261,1000,1000,1000,1000,104428212,1595,1595,1535,1536
86398760,1000,1000,1000,1000,104528172,1595,1595,1535,1536
86401259,1000,1000,1000,1000,104628965,1595,1594,1536,1538
86403758,1000,1000,1000,1000,104728925,1593,1593,1540,1542
86406257,1000,1000,1000,1000,104828885,1590,1589,1545,1548
86408756,1000,1000,1000,1000,104928845,1584,1581,1552,1556
86411255,1000,1000,1000,1000,105028805,1576,1573,1562,1565
86413754,1000,1000,1000,1000,105128765,1566,1562,1575,1577
86416253,1000,1000,1000,1000,105228725,1554,1551,1586,1587
86418752,1000,1000,1000,1000,105328685,1544,1541,1598,1598
86421251,1000,1000,1000,1000,105428645,1536,1535,1608,1607
86423750,1000,1000,1000,1000,105528605,1531,1531,1614,1612
86426249,1000,1000,1000,1000,105628565,1529,1531,1616,1615
86428748,1000,1000,1000,1000,105728525,1531,1533,1614,1613
86431247,1000,1000,1000,1000,105828485,1536,1538,1609,1609
86433746,1000,1000,1000,1000,105928445,1543,1545,1603,1603
86436245,1000,1000,1000,1000,106028405,1553,1554,1597,1597
86438744,1000,1000,1000,1000,106128365,1562,1562,1589,1588
86441243,1000,1000,1000,1000,106228325,1570,1569,1582,1581
86443742,1000,1000,1000,1000,106328285,1577,1576,1575,1574
86446241,1000,1000,1000,1000,106428245,1581,1581,1570,1569
86448740,1000,1000,1000,1000,106528205,1585,1584,1567,1567
86451239,1000,1000,1000,1000,106628165,1587,1587,1566,1566
86453738,1000,1000,1000,1000,106728958,1587,1586,1566,1566
86456237,1000,1000,1000,1000,106828918,1586,1584,1567,1568
86458736,1000,1000,1000,1000,106928878,1584,1583,1570,1571
86461235,1000,1000,1000,1000,107028838,1581,1581,1574,1573
86463734,1000,1000,1000,1000,107128798,1578,1578,1576,1576
86466233,1000,1000,1000,1000,107228758,1575,1576,1580,1579
86468732,1000,1000,1000,1000,107328718,1573,1573,1581,1580
86471231,1000,1000,1000,1000,107428678,1572,1573,1583,1583
86473730,1000,1000,1000,1000,107528638,1572,1572,1583,1583
86476229,1000,1000,1000,1000,107628598,1272,1572,1283,1583
86478728,1000,1000,1000,1000,107728558,1579,1566,1587,1576
86481227,1000,1000,1000,1000,107828518,1593,1571,1602,1578
86483726,1000,1000,1000,1000,107928478,1603,1581,1609,1586
86486225,1000,1000,1000,1000,108028438,1604,1590,1609,1592
86488724,1000,1000,1000,1000,108128398,1598,1593,1600,1594
86491223,1000,1000,1000,1000,108228358,1589,1593,1589,1593
86493722,1000,1000,1000,1000,108328318,1582,1591,1582,1592
86496221,1000,1000,1000,1000,108428278,1577,1588,1578,1589
86498720,1000,1000,1000,1000,108528238,1576,1583,1577,1585
86501219,1000,1000,1000,1000,108628198,1577,1581,1578,1581
86503718,1000,1000,1000,1000,108728158,1579,1579,1578,1578
86506217,1000,1000,1000,1000,108828951,1582,1579,1580,1577
86508716,1000,1000,1000,1000,108928911,1582,1579,1579,1576
86511215,1000,1000,1000,1000,109028871,1582,1580,1578,1576
86513714,1000,1000,1000,1000,109128831,1581,1581,1577,1577
86516213,1000,1000,1000,1000,109228791,1581,1581,1577,1578
86518712,1000,1000,1000,1000,109328751,1579,1580,1576,1577
86521211,1000,1000,1000,1000,109428711,1579,1580,1576,1577
86523710,1000,1000,1000,1000,109528671,1579,1580,1576,1577
86526209,1000,1000,1000,1000,109628631,1577,1578,1576,1576
86528708,1000,1000,1000,1000,109728591,1579,1578,1577,1578
86531207,1000,1000,1000,1000,109828551,1579,1578,1578,1577
86533706,1000,1000,1000,1000,109928511,1578,1578,1578,1578
86536205,1000,1000,1000,1000,110028471,1578,1578,1578,1578
86538704,1000,1000,1000,1000,110128431,1578,1577,1578,1577
86541203,1000,1000,1000,1000,110228391,1578,1580,1585,1571
86543702,1000,1000,1000,1000,110328351,1577,1580,1582,1569
86546201,1000,1000,1000,1000,110428311,1577,1580,1574,1570
86548700,1000,1000,1000,1000,110528271,1576,1579,1566,1569
86551199,1000,1000,1000,1000,110628231,1576,1578,1559,1565
86553698,1000,1000,1000,1000,110728191,1577,1578,1555,1561
86556197,1000,1000,1000,1000,110828984,1578,1577,1552,1556
86558696,1000,1000,1000,1000,110928944,1579,1577,1552,1553
86561195,1000,1000,1000,1000,111028904,1580,1578,1553,1552
86563694,1000,1000,1000,1000,111128864,1579,1579,1553,1552
86566193,1000,1000,1000,1000,111228824,1579,1579,1555,1551
86568692,1000,1000,1000,1000,111328784,1578,1579,1554,1552
86571191,1000,1000,1000,1000,111428744,1577,1579,1553,1553
86573690,1000,1000,1000,1000,111528704,1577,1578,1552,1553
86576189,1000,1000,1000,1000,111628664,1577,1578,1551,1552
86578688,1000,1000,1000,1000,111728624,1578,1579,1549,1550
86581187,1000,1000,1000,1000,111828584,1579,1580,1548,1548
86583686,1000,1000,1000,1000,111928544,1581,1582,1546,1547
86586185,1000,1000,1000,1000,112028504,1583,1584,1545,1544
86588684,1000,1000,1000,1000,112128464,1586,1586,1543,1543
86591183,1000,1000,1000,1000,112228424,1587,1587,1542,1542
86593682,1000,1000,1000,1000,112328384,1589,1589,1542,1543
86596181,1000,1000,1000,1000,112428344,1590,1591,1542,1543
86598680,1000,1000,1000,1000,112528304,1590,1590,1542,1545
86601179,1000,1000,1000,1000,112628264,1589,1589,1545,1547
86603678,1000,1000,1000,1000,112728224,1587,1585,1549,1551
86606177,1000,1000,1000,1000,112828184,1582,1580,1555,1557
86608676,1000,1000,1000,1000,112928977,1576,1572,1563,1565
86611175,1000,1000,1000,1000,113028937,1568,1565,1573,1575
86613674,1000,1000,1000,1000,113128897,1560,1556,1583,1584
86616173,1000,1000,1000,1000,113228857,1551,1550,1592,1592
86618672,1000,1000,1000,1000,113328817,1544,1544,1600,1599
86621171,1000,1000,1000,1000,113428777,1539,1540,1605,1604
86623670,1000,1000,1000,1000,113528737,1538,1539,1607,1606
86626169,1000,1000,1000,1000,113628697,1539,1541,1607,1607
86628668,1000,1000,1000,1000,113728657,1544,1545,1606,1605
86631167,1000,1000,1000,1000,113828617,1550,1551,1602,1601
86633666,1000,1000,1000,1000,113928577,1556,1557,1597,1596
86636165,1000,1000,1000,1000,114028537,1562,1563,1591,1590
86638664,1000,1000,1000,1000,114128497,1568,1568,1584,1583
86641163,1000,1000,1000,1000,114228457,1574,1573,1579,1579
86643662,1000,1000,1000,1000,114328417,1579,1578,1574,1575
86646161,1000,1000,1000,1000,114428377,1582,1581,1571,1571
86648660,1000,1000,1000,1000,114528337,1584,1582,1569,1569
86651159,1000,1000,1000,1000,114628297,1584,1583,1568,1569
86653658,1000,1000,1000,1000,114728257,1584,1583,1570,1570
86656157,1000,1000,1000,1000,114828217,1582,1582,1571,1571
86658656,1000,1000,1000,1000,114928177,1580,1580,1573,1573
86661155,1000,1000,1000,1000,115028970,1579,1579,1576,1576
86663654,1000,1000,1000,1000,115128930,1577,1578,1578,1578
86666153,1000,1000,1000,1000,115228890,1575,1576,1579,1579
86668652,1000,1000,1000,1000,115328850,1575,1575,1582,1582
86671151,1000,1000,1000,1000,115428810,1573,1573,1581,1581
86673650,1000,1000,1000,1000,115528770,1574,1574,1583,1583
86676149,1000,1000,1000,1000,115628730,1574,1575,1583,1583
86678648,1000,1000,1000,1000,115728690,1575,1576,1583,1583
86681147,1000,1000,1000,1000,115828650,1575,1576,1582,1581
86683646,1000,1000,1000,1000,115928610,1576,1576,1580,1580
86686145,1000,1000,1000,1000,116028570,1578,1577,1580,1579
86688644,1000,1000,1000,1000,116128530,1580,1580,1580,1580
86691143,1000,1000,1000,1000,116228490,1581,1581,1579,1580
86693642,1000,1000,1000,1000,116328450,1581,1581,1578,1579
86696141,1000,1000,1000,1000,116428410,1581,1581,1578,1578
86698640,1000,1000,1000,1000,116528370,1582,1581,1578,1578
86701139,1000,1000,1000,1000,116628330,1581,1581,1578,1578
86703638,1000,1000,1000,1000,116728290,1581,1581,1579,1578
86706137,1000,1000,1000,1000,116828250,1581,1581,1579,1579
86708636,1000,1000,1000,1000,116928210,1580,1580,1579,1579
86711135,1000,1000,1000,1000,117028170,1580,1580,1579,1579
86713634,1000,1000,1000,1000,117128963,1580,1580,1580,1581
86716133,1000,1000,1000,1000,117228923,1581,1581,1581,1581
86718632,1000,1000,1000,1000,117328883,1579,1579,1580,1580
86721131,1000,1000,1000,1000,117428843,1579,1579,1580,1580
86723630,1000,1000,1000,1000,117528803,1579,1579,1581,1580
86726129,1000,1000,1000,1000,117628763,1580,1580,1581,1581
86728628,1000,1000,1000,1000,117728723,1579,1579,1580,1580
86731127,1000,1000,1000,1000,117828683,1580,1580,1581,1581
86733626,1000,1000,1000,1000,117928643,1579,1579,1580,1579
86736125,1000,1000,1000,1000,118028603,1580,1580,1581,1580
86738624,1000,1000,1000,1000,118128563,1582,1581,1581,1581
86741123,1000,1000,1000,1000,118228523,1581,1581,1581,1581
86743622,1000,1000,1000,1000,118328483,1582,1582,1581,1581
86746121,1000,1000,1000,1000,118428443,1582,1582,1582,1581
86748620,1000,1000,1000,1000,118528403,1582,1583,1588,1574
86751119,1000,1000,1000,1000,118628363,1581,1584,1584,1572
86753618,1000,1000,1000,1000,118728323,1580,1583,1576,1573
86756117,1000,1000,1000,1000,118828283,1578,1581,1567,1571
86758616,1000,1000,1000,1000,118928243,1578,1580,1561,1568
86761115,1000,1000,1000,1000,119028203,1578,1578,1556,1562
86763614,1000,1000,1000,1000,119128163,1580,1579,1555,1559
86766113,1000,1000,1000,1000,119228956,1580,1578,1554,1555
86768612,1000,1000,1000,1000,119328916,1580,1579,1555,1554
86771111,1000,1000,1000,1000,119428876,1579,1579,1556,1553
86773610,1000,1000,1000,1000,119528836,1578,1578,1555,1554
86776109,1000,1000,1000,1000,119628796,1576,1578,1555,1553
86778608,1000,1000,1000,1000,119728756,1576,1578,1554,1554
86781107,1000,1000,1000,1000,119828716,1576,1577,1554,1554
86783606,1000,1000,1000,1000,119928676,1576,1577,1552,1553
86786105,1000,1000,1000,1000,120028636,1577,1578,1551,1551
86788604,1000,1000,1000,1000,120128596,1579,1580,1549,1549
86791103,1000,1000,1000,1000,120228556,1581,1582,1547,1547
86793602,1000,1000,1000,1000,120328516,1583,1583,1544,1544
86796101,1000,1000,1000,1000,120428476,1586,1586,1542,1541
86798600,1000,1000,1000,1000,120528436,1589,1588,1540,1540
86801099,1000,1000,1000,1000,120628396,1590,1591,1538,1539
86803598,1000,1000,1000,1000,120728356,1592,1593,1537,1539
86806097,1000,1000,1000,1000,120828316,1594,1594,1538,1539
86808596,1000,1000,1000,1000,120928276,1593,1593,1539,1541
86811095,1000,1000,1000,1000,121028236,1591,1590,1542,1544
86813594,1000,1000,1000,1000,121128196,1588,1585,1548,1551
86816093,1000,1000,1000,1000,121228156,1581,1578,1556,1559
86818592,1000,1000,1000,1000,121328949,1574,1569,1567,1569
86821091,1000,1000,1000,1000,121428909,1564,1561,1579,1581
86823590,1000,1000,1000,1000,121528869,1554,1551,1591,1591
86826089,1000,1000,1000,1000,121628829,1544,1543,1600,1600
86828588,1000,1000,1000,1000,121728789,1538,1538,1608,1607
86831087,1000,1000,1000,1000,121828749,1534,1536,1612,1611
86833586,1000,1000,1000,1000,121928709,1534,1537,1614,1613
86836085,1000,1000,1000,1000,122028669,1538,1540,1612,1611
86838584,1000,1000,1000,1000,122128629,1543,1545,1607,1608
86841083,1000,1000,1000,1000,122228589,1549,1550,1601,1601
86843582,1000,1000,1000,1000,122328549,1557,1557,1594,1594
86846081,1000,1000,1000,1000,122428509,1566,1566,1589,1587
86848580,1000,1000,1000,1000,122528469,1572,1572,1581,1581
86851079,1000,1000,1000,1000,122628429,1578,1577,1575,1575
86853578,1000,1000,1000,1000,122728389,1583,1581,1571,1571
86856077,1000,1000,1000,1000,122828349,1585,1584,1568,1568
86858576,1000,1000,1000,1000,122928309,1587,1585,1566,1567
86861075,1000,1000,1000,1000,123028269,1588,1586,1568,1569
86863574,1000,1000,1000,1000,123128229,1586,1585,1570,1570
86866073,1000,1000,1000,1000,123228189,1584,1583,1572,1572
86868572,1000,1000,1000,1000,123328982,1582,1581,1575,1575
86871071,1000,1000,1000,1000,123428942,1578,1579,1577,1577
86873570,1000,1000,1000,1000,123528902,1576,1576,1580,1579
86876069,1000,1000,1000,1000,123628862,1574,1575,1581,1581
86878568,1000,1000,1000,1000,123728822,1574,1575,1584,1584
86881067,1000,1000,1000,1000,123828782,1573,1573,1584,1584
86883566,1000,1000,1000,1000,123928742,1573,1574,1584,1584
86886065,1000,1000,1000,1000,124028702,1574,1574,1583,1583
86888564,1000,1000,1000,1000,124128662,1574,1575,1583,1582
86891063,1000,1000,1000,1000,124228622,1575,1576,1581,1581
86893562,1000,1000,1000,1000,124328582,1577,1577,1581,1580
86896061,1000,1000,1000,1000,124428542,1578,1578,1579,1578
86898560,1000,1000,1000,1000,124528502,1579,1579,1578,1578
86901059,1000,1000,1000,1000,124628462,1581,1580,1578,1578
86903558,1000,1000,1000,1000,124728422,1581,1581,1577,1577
86906057,1000,1000,1000,1000,124828382,1582,1582,1577,1578
86908556,1000,1000,1000,1000,124928342,1582,1582,1578,1578
86911055,1000,1000,1000,1000,125028302,1582,1581,1578,1578
86913554,1000,1000,1000,1000,125128262,1581,1581,1578,1578
86916053,1000,1000,1000,1000,125228222,1581,1581,1579,1579
86918552,1000,1000,1000,1000,125328182,1580,1580,1579,1579
86921051,1000,1000,1000,1000,125428975,1580,1580,1580,1580
86923550,1000,1000,1000,1000,125528935,1580,1581,1581,1581
86926049,1000,1000,1000,1000,125628895,1581,1581,1582,1582
86928548,1000,1000,1000,1000,125728855,1580,1580,1582,1582
86931047,1000,1000,1000,1000,125828815,1579,1579,1581,1581
86933546,1000,1000,1000,1000,125928775,1580,1580,1582,1582
86936045,1000,1000,1000,1000,126028735,1579,1580,1581,1581
86938544,1000,1000,1000,1000,126128695,1580,1580,1581,1581
86941043,1000,1000,1000,1000,126228655,1581,1581,1582,1581
86943542,1000,1000,1000,1000,126328615,1581,1581,1581,1581
86946041,1000,1000,1000,1000,126428575,1581,1582,1587,1574
86948540,1000,1000,1000,1000,126528535,1580,1581,1585,1572
86951039,1000,1000,1000,1000,126628495,1579,1579,1579,1575
86953538,1000,1000,1000,1000,126728455,1576,1576,1573,1576
86956037,1000,1000,1000,1000,126828415,1573,1572,1568,1575
86958536,1000,1000,1000,1000,126928375,1571,1570,1566,1573
86961035,1000,1000,1000,1000,127028335,1568,1568,1565,1570
86963534,1000,1000,1000,1000,127128295,1567,1567,1566,1567
86966033,1000,1000,1000,1000,127228255,1566,1567,1567,1565
86968532,1000,1000,1000,1000,127328215,1566,1566,1567,1565
86971031,1000,1000,1000,1000,127428175,1566,1566,1568,1565
86973530,1000,1000,1000,1000,127528968,1565,1565,1566,1565
86976029,1000,1000,1000,1000,127628928,1564,1564,1565,1565
86978528,1000,1000,1000,1000,127728888,1563,1563,1564,1564
86981027,1000,1000,1000,1000,127828848,1563,1563,1563,1564
86983526,1000,1000,1000,1000,127928808,1562,1562,1562,1563
86986025,1000,1000,1000,1000,128028768,1562,1562,1562,1562
86988524,1000,1000,1000,1000,128128728,1562,1562,1562,1561
86991023,1000,1000,1000,1000,128228688,1561,1561,1562,1561
86993522,1000,1000,1000,1000,128328648,1561,1560,1561,1560
86996021,1000,1000,1000,1000,128428608,1560,1560,1560,1559
86998520,1000,1000,1000,1000,128528568,1558,1558,1559,1558
87001019,1000,1000,1000,1000,128628528,1559,1559,1559,1558
87003518,1000,1000,1000,1000,128728488,1559,1559,1559,1558
87006017,1000,1000,1000,1000,128828448,1558,1558,1558,1558
87008516,1000,1000,1000,1000,128928408,1559,1558,1559,1557
87011015,1000,1000,1000,1000,129028368,1559,1558,1560,1557
87013514,1000,1000,1000,1000,129128328,1559,1559,1560,1558
87016013,1000,1000,1000,1000,129228288,1559,1559,1558,1559
87018512,1000,1000,1000,1000,129328248,1558,1558,1556,1559
87021011,1000,1000,1000,1000,129428208,1558,1559,1555,1562
87023510,1000,1000,1000,1000,129528168,1556,1556,1552,1560
87026009,1000,1000,1000,1000,129628961,1552,1552,1550,1554
87028508,1000,1000,1000,1000,129728921,1548,1548,1547,1549
87031007,1000,1000,1000,1000,129828881,1542,1542,1542,1541
87033506,1000,1000,1000,1000,129928841,1534,1534,1535,1534
87036005,1000,1000,1000,1000,130028801,1527,1527,1528,1526
87038504,1000,1000,1000,1000,130128761,1521,1522,1522,1521
87041003,1000,1000,1000,1000,130228721,1520,1521,1521,1520
87043502,1000,1000,1000,1000,130328681,1521,1522,1521,1522
87046001,1000,1000,1000,1000,130428641,1523,1523,1522,1524
87048500,1000,1000,1000,1000,130528601,1525,1525,1525,1527
87050999,1000,1000,1000,1000,130628561,1529,1529,1529,1530
87053498,1000,1000,1000,1000,130728521,1534,1534,1534,1535
87055997,1000,1000,1000,1000,130828481,1538,1539,1539,1538
87058496,1000,1000,1000,1000,130928441,1542,1542,1542,1542
87060995,1000,1000,1000,1000,131028401,1543,1543,1544,1542
87063494,1000,1000,1000,1000,131128361,1545,1544,1545,1544
87065993,1000,1000,1000,1000,131228321,1545,1545,1546,1545
87068492,1000,1000,1000,1000,131328281,1546,1545,1546,1546
87070991,1000,1000,1000,1000,131428241,1547,1548,1547,1548
87073490,1000,1000,1000,1000,131528201,1546,1547,1546,1546
87075989,1000,1000,1000,1000,131628161,1547,1547,1547,1547
87078488,1000,1000,1000,1000,131728954,1547,1546,1546,1546
87080987,1000,1000,1000,1000,131828914,1547,1547,1547,1547
87083486,1000,1000,1000,1000,131928874,1546,1546,1546,1546
87085985,1000,1000,1000,1000,132028834,1545,1546,1545,1545
87088484,1000,1000,1000,1000,132128794,1545,1545,1545,1545
87090983,1000,1000,1000,1000,132228754,1544,1544,1544,1544
87093482,1000,1000,1000,1000,132328714,1545,1545,1545,1545
87095981,1000,1000,1000,1000,132428674,1544,1544,1544,1544
87098480,1000,1000,1000,1000,132528634,1544,1544,1543,1545
87100979,1000,1000,1000,1000,132628594,1543,1544,1543,1544
87103478,1000,1000,1000,1000,132728554,1543,1543,1543,1543
87105977,1000,1000,1000,1000,132828514,1544,1544,1544,1544
87108476,1000,1000,1000,1000,132928474,1544,1543,1544,1543
87110975,1000,1000,1000,1000,133028434,1544,1544,1544,1543
87113474,1000,1000,1000,1000,133128394,1544,1544,1545,1544
87115973,1000,1000,1000,1000,133228354,1545,1545,1545,1545
87118472,1000,1000,1000,1000,133328314,1545,1545,1545,1545
87120971,1000,1000,1000,1000,133428274,1543,1544,1544,1544
87123470,1000,1000,1000,1000,133528234,1544,1544,1543,1544
87125969,1000,1000,1000,1000,133628194,1544,1544,1544,1544
87128468,1000,1000,1000,1000,133728154,1543,1543,1543,1543
87130967,1000,1000,1000,1000,133828947,1544,1544,1544,1544
87133466,1000,1000,1000,1000,133928907,1544,1544,1544,1543
87135965,1000,1000,1000,1000,134028867,1544,1544,1544,1544
87138464,1000,1000,1000,1000,134128827,1544,1544,1544,1544
87140963,1000,1000,1000,1000,134228787,1544,1544,1544,1544
87143462,1000,1000,1000,1000,134328747,1544,1543,1543,1544
87145961,1000,1000,1000,1000,134428707,1544,1544,1544,1544
87148460,1000,1000,1000,1000,134528667,1545,1544,1544,1544
87150959,1000,1000,1000,1000,134628627,1544,1544,1544,1544
87153458,1000,1000,1000,1000,134728587,1544,1544,1544,1544
87155957,1000,1000,1000,1000,134828547,1543,1544,1544,1543
87158456,1000,1000,1000,1000,134928507,1544,1543,1543,1544
87160955,1000,1000,1000,1000,135028467,1544,1544,1544,1544
87163454,1000,1000,1000,1000,135128427,1543,1543,1543,1543
87165953,1000,1000,1000,1000,135228387,1544,1544,1544,1544
87168452,1000,1000,1000,1000,135328347,1544,1543,1544,1544
87170951,1000,1000,1000,1000,135428307,1544,1544,1544,1544
87173450,1000,1000,1000,1000,135528267,1544,1543,1544,1544
87175949,1000,1000,1000,1000,135628227,1544,1545,1545,1544
87178448,1000,1000,1000,1000,135728187,1544,1544,1544,1544
87180947,1000,1000,1000,1000,135828980,1544,1545,1545,1544
87183446,1000,1000,1000,1000,135928940,1544,1543,1543,1544
87185945,1000,1000,1000,1000,136028900,1544,1545,1544,1544
87188444,1000,1000,1000,1000,136128860,1544,1544,1543,1544
87190943,1000,1000,1000,1000,136228820,1544,1544,1544,1544
87193442,1000,1000,1000,1000,136328780,1544,1544,1544,1544
87195941,1000,1000,1000,1000,136428740,1544,1545,1545,1544
87198440,1000,1000,1000,1000,136528700,1544,1544,1544,1545
87200939,1000,1000,1000,1000,136628660,1545,1545,1545,1545
87203438,1000,1000,1000,1000,136728620,1545,1545,1545,1545
87205937,1000,1000,1000,1000,136828580,1544,1544,1544,1544
87208436,1000,1000,1000,1000,136928540,1544,1544,1544,1544
87210935,1000,1000,1000,1000,137028500,1544,1544,1544,1544
87213434,1000,1000,1000,1000,137128460,1545,1545,1545,1545
87215933,1000,1000,1000,1000,137228420,1544,1544,1544,1544
87218432,1000,1000,1000,1000,137328380,1545,1545,1544,1545
87220931,1000,1000,1000,1000,137428340,1544,1544,1544,1544
87223430,1000,1000,1000,1000,137528300,1545,1544,1545,1545
87225929,1000,1000,1000,1000,137628260,1544,1544,1544,1544
87228428,1000,1000,1000,1000,137728220,1544,1544,1544,1544
87230927,1000,1000,1000,1000,137828180,1545,1545,1545,1545
87233426,1000,1000,1000,1000,137928973,1544,1544,1544,1544
87235925,1000,1000,1000,1000,138028933,1543,1543,1543,1543
87238424,1000,1000,1000,1000,138128893,1544,1544,1544,1544
87240923,1000,1000,1000,1000,138228853,1544,1544,1545,1544
87243422,1000,1000,1000,1000,138328813,1545,1545,1545,1545
87245921,1000,1000,1000,1000,138428773,1544,1545,1544,1545
87248420,1000,1000,1000,1000,138528733,1544,1544,1544,1544
87250919,1000,1000,1000,1000,138628693,1543,1544,1543,1543
87253418,1000,1000,1000,1000,138728653,1545,1544,1544,1545
87255917,1000,1000,1000,1000,138828613,1545,1545,1545,1545
87258416,1000,1000,1000,1000,138928573,1545,1545,1545,1545
87260915,1000,1000,1000,1000,139028533,1545,1545,1545,1545
87263414,1000,1000,1000,1000,139128493,1545,1545,1545,1545
87265913,1000,1000,1000,1000,139228453,1544,1545,1545,1545
87268412,1000,1000,1000,1000,139328413,1545,1544,1545,1545
87270911,1000,1000,1000,1000,139428373,1544,1544,1544,1544
87273410,1000,1000,1000,1000,139528333,1544,1544,1544,1544
87275909,1000,1000,1000,1000,139628293,1544,1545,1545,1545
87278408,1000,1000,1000,1000,139728253,1544,1544,1544,1544
87280907,1000,1000,1000,1000,139828213,1544,1543,1544,1543
87283406,1000,1000,1000,1000,139928173,1381,1367,1382,1366
87285905,1000,1000,1000,1000,140028966,1283,1257,1285,1254
87288404,1000,1000,1000,1000,140128926,1253,1220,1254,1218
87290903,1000,1000,1000,1000,140228886,1237,1201,1239,1199
87293402,1000,1000,1000,1000,140328846,1202,1154,1203,1154
87295901,1000,1000,1000,1000,140428806,1198,1151,1200,1150
87298400,1000,1000,1000,1000,140528766,1198,1150,1199,1150
87300899,1000,1000,1000,1000,140628726,1200,1150,1199,1153
87303398,1000,1000,1000,1000,140728686,1231,1150,1198,1193
87305897,1000,1000,1000,1000,140828646,1220,1150,1198,1178
87308396,1000,1000,1000,1000,140928606,1218,1150,1198,1176
87310895,1000,1000,1000,1000,141028566,1219,1150,1198,1177
87313394,1000,1000,1000,1000,141128526,1221,1150,1198,1180
87315893,1000,1000,1000,1000,141228486,1223,1150,1198,1182
87318392,1000,1000,1000,1000,141328446,1225,1150,1198,1186
87320891,1000,1000,1000,1000,141428406,1202,1150,1199,1155
87323390,1000,1000,1000,1000,141528366,1212,1150,1199,1169
87325889,1000,1000,1000,1000,141628326,1214,1150,1199,1171
87328388,1000,1000,1000,1000,141728286,1215,1150,1199,1172
87330887,1000,1000,1000,1000,141828246,1215,1150,1199,1173
87333386,1000,1000,1000,1000,141928206,1089,1149,1089,1149
87335885,1000,1000,1000,1000,142028166,1000,1000,1000,1000
87338384,1000,1000,1000,1000,142128959,1000,1000,1000,1000
87340883,1000,1000,1000,1000,142228919,1000,1000,1000,1000
87343382,1000,1000,1000,1000,142328879,1000,1000,1000,1000
87345881,1000,1000,1000,1000,142428839,1000,1000,1000,1000
87348380,1000,1000,1000,1000,142528799,1000,1000,1000,1000
87350879,1000,1000,1000,1000,142628759,1000,1000,1000,1000
87353378,1000,1000,1000,1000,142728719,1000,1000,1000,1000
87355877,1000,1000,1000,1000,142828679,1000,1000,1000,1000
87358376,1000,1000,1000,1000,142928639,1000,1000,1000,1000
87360875,1000,1000,1000,1000,143028599,1000,1000,1000,1000
87363374,1000,1000,1000,1000,143128559,1000,1000,1000,1000
87365873,1000,1000,1000,1000,143228519,1000,1000,1000,1000
87368372,1000,1000,1000,1000,143328479,1000,1000,1000,1000
87370871,1000,1000,1000,1000,143428439,1000,1000,1000,1000
87373370,1000,1000,1000,1000,143528399,1000,1000,1000,1000
87375869,1000,1000,1000,1000,143628359,1000,1000,1000,1000
87378368,1000,1000,1000,1000,143728319,1000,1000,1000,1000
87380867,1000,1000,1000,1000,143828279,1000,1000,1000,1000
87383366,1000,1000,1000,1000,143928239,1000,1000,1000,1000
87385865,1000,1000,1000,1000,144028199,1000,1000,1000,1000
87388364,1000,1000,1000,1000,144128159,1000,1000,1000,1000
87390863,1000,1000,1000,1000,144228952,1000,1000,1000,1000
87393362,1000,1000,1000,1000,144328912,1000,1000,1000,1000
87395861,1000,1000,1000,1000,144428872,1000,1000,1000,1000
87398360,1000,1000,1000,1000,144528832,1000,1000,1000,1000
87400859,1000,1000,1000,1000,144628792,1000,1000,1000,1000
87403358,1000,1000,1000,1000,144728752,1000,1000,1000,1000
87405857,1000,1000,1000,1000,144828712,1000,1000,1000,1000
87408356,1000,1000,1000,1000,144928672,1000,1000,1000,1000
87410855,1000,1000,1000,1000,145028632,1000,1000,1000,1000
87413354,1000,1000,1000,1000,145128592,1000,1000,1000,1000
87415853,1000,1000,1000,1000,145228552,1000,1000,1000,1000
87418352,1000,1000,1000,1000,145328512,1000,1000,1000,1000
87420851,1000,1000,1000,1000,145428472,1000,1000,1000,1000
87423350,1000,1000,1000,1000,145528432,1000,1000,1000,1000
87425849,1000,1000,1000,1000,145628392,1000,1000,1000,1000
87428348,1000,1000,1000,1000,145728352,1000,1000,1000,1000
87430847,1000,1000,1000,1000,145828312,1000,1000,1000,1000
87433346,1000,1000,1000,1000,145928272,1000,1000,1000,1000
87435845,1000,1000,1000,1000,146028232,1000,1000,1000,1000
87438344,1000,1000,1000,1000,146128192,1000,1000,1000,1000
87440843,1000,1000,1000,1000,146228985,1000,1000,1000,1000
87443342,1000,1000,1000,1000,146328945,1000,1000,1000,1000
87445841,1000,1000,1000,1000,146428905,1000,1000,1000,1000
87448340,1000,1000,1000,1000,146528865,1000,1000,1000,1000
87450839,1000,1000,1000,1000,146628825,1000,1000,1000,1000
87453338,1000,1000,1000,1000,146728785,1000,1000,1000,1000
87455837,1000,1000,1000,1000,146828745,1000,1000,1000,1000
87458336,1000,1000,1000,1000,146928705,1000,1000,1000,1000
87460835,1000,1000,1000,1000,147028665,1000,1000,1000,1000
87463334,1000,1000,1000,1000,147128625,1000,1000,1000,1000
87465833,1000,1000,1000,1000,147228585,1000,1000,1000,1000
87468332,1000,1000,1000,1000,147328545,1000,1000,1000,1000
87470831,1000,1000,1000,1000,147428505,1000,1000,1000,1000
87473330,1000,1000,1000,1000,147528465,1000,1000,1000,1000
87475829,1000,1000,1000,1000,147628425,1000,1000,1000,1000
87478328,1000,1000,1000,1000,147728385,1000,1000,1000,1000
87480827,1000,1000,1000,1000,147828345,1000,1000,1000,1000
87483326,1000,1000,1000,1000,147928305,1000,1000,1000,1000
87485825,1000,1000,1000,1000,148028265,1000,1000,1000,1000
87488324,1000,1000,1000,1000,148128225,1000,1000,1000,1000
87490823,1000,1000,1000,1000,148228185,1000,1000,1000,1000
87493322,1000,1000,1000,1000,148328978,1000,1000,1000,1000
87495821,1000,1000,1000,1000,148428938,1000,1000,1000,1000
87498320,1000,1000,1000,1000,148528898,1000,1000,1000,1000
87500819,1000,1000,1000,1000,148628858,1000,1000,1000,1000
87503318,1000,1000,1000,1000,148728818,1000,1000,1000,1000
87505817,1000,1000,1000,1000,148828778,1000,1000,1000,1000
87508316,1000,1000,1000,1000,148928738,1000,1000,1000,1000
87510815,1000,1000,1000,1000,149028698,1000,1000,1000,1000
87513314,1000,1000,1000,1000,149128658,1000,1000,1000,1000
87515813,1000,1000,1000,1000,149228618,1000,1000,1000,1000
87518312,1000,1000,1000,1000,149328578,1000,1000,1000,1000
87520811,1000,1000,1000,1000,149428538,1000,1000,1000,1000
87523310,1000,1000,1000,1000,149528498,1000,1000,1000,1000
87525809,1000,1000,1000,1000,149628458,1000,1000,1000,1000
87528308,1000,1000,1000,1000,149728418,1000,1000,1000,1000
87530807,1000,1000,1000,1000,149828378,1000,1000,1000,1000
87533306,1000,1000,1000,1000,149928338,1000,1000,1000,1000
87535805,1000,1000,1000,1000,,,,,
87538304,1000,1000,1000,1000,,,,,
87540803,1000,1000,1000,1000,,,,,
87543302,1000,1000,1000,1000,,,,,
87545801,1000,1000,1000,1000,,,,,
87548300,1000,1000,1000,1000,,,,,
87550799,1000,1000,1000,1000,,,,,
87553298,1000,1000,1000,1000,,,,,
87555797,1000,1000,1000,1000,,,,,
87558296,1000,1000,1000,1000,,,,,
87560795,1000,1000,1000,1000,,,,,
87563294,1000,1000,1000,1000,,,,,
87565793,1000,1000,1000,1000,,,,,
87568292,1000,1000,1000,1000,,,,,
87570791,1000,1000,1000,1000,,,,,
87573290,1000,1000,1000,1000,,,,,
87575789,1000,1000,1000,1000,,,,,
87578288,1000,1000,1000,1000,,,,,
87580787,1000,1000,1000,1000,,,,,
87583286,1000,1000,1000,1000,,,,,
87585785,1000,1000,1000,1000,,,,,
87588284,1000,1000,1000,1000,,,,,
87590783,1000,1000,1000,1000,,,,,
87593282,1000,1000,1000,1000,,,,,
87595781,1000,1000,1000,1000,,,,,
87598280,1000,1000,1000,1000,,,,,
87600779,1000,1000,1000,1000,,,,,
87603278,1000,1000,1000,1000,,,,,
87605777,1000,1000,1000,1000,,,,,
87608276,1000,1000,1000,1000,,,,,
87610775,1000,1000,1000,1000,,,,,
87613274,1000,1000,1000,1000,,,,,
87615773,1000,1000,1000,1000,,,,,
87618272,1000,1000,1000,1000,,,,,
87620771,1000,1000,1000,1000,,,,,
87623270,1000,1000,1000,1000,,,,,
87625769,1000,1000,1000,1000,,,,,
87628268,1000,1000,1000,1000,,,,,
87630767,1000,1000,1000,1000,,,,,
87633266,1000,1000,1000,1000,,,,,
87635765,1000,1000,1000,1000,,,,,
87638264,1000,1000,1000,1000,,,,,
87640763,1000,1000,1000,1000,,,,,
87643262,1000,1000,1000,1000,,,,,
87645761,1000,1000,1000,1000,,,,,
87648260,1000,1000,1000,1000,,,,,
87650759,1000,1000,1000,1000,,,,,
87653258,1000,1000,1000,1000,,,,,
87655757,1000,1000,1000,1000,,,,,
87658256,1000,1000,1000,1000,,,,,
87660755,1000,1000,1000,1000,,,,,
87663254,1000,1000,1000,1000,,,,,
87665753,1000,1000,1000,1000,,,,,
87668252,1000,1000,1000,1000,,,,,
87670751,1000,1000,1000,1000,,,,,
87673250,1000,1000,1000,1000,,,,,
87675749,1000,1000,1000,1000,,,,,
87678248,1000,1000,1000,1000,,,,,
87680747,1000,1000,1000,1000,,,,,
87683246,1000,1000,1000,1000,,,,,
87685745,1000,1000,1000,1000,,,,,
87688244,1000,1000,1000,1000,,,,,
87690743,1000,1000,1000,1000,,,,,
87693242,1000,1000,1000,1000,,,,,
87695741,1000,1000,1000,1000,,,,,
87698240,1000,1000,1000,1000,,,,,
87700739,1000,1000,1000,1000,,,,,
87703238,1000,1000,1000,1000,,,,,
87705737,1000,1000,1000,1000,,,,,
87708236,1000,1000,1000,1000,,,,,
87710735,1000,1000,1000,1000,,,,,
87713234,1000,1000,1000,1000,,,,,
87715733,1000,1000,1000,1000,,,,,
87718232,1000,1000,1000,1000,,,,,
87720731,1000,1000,1000,1000,,,,,
87723230,1000,1000,1000,1000,,,,,
87725729,1000,1000,1000,1000,,,,,
87728228,1000,1000,1000,1000,,,,,
87730727,1000,1000,1000,1000,,,,,
87733226,1000,1000,1000,1000,,,,,
87735725,1000,1000,1000,1000,,,,,
87738224,1000,1000,1000,1000,,,,,
87740723,1000,1000,1000,1000,,,,,
87743222,1000,1000,1000,1000,,,,,
87745721,1000,1000,1000,1000,,,,,
87748220,1000,1000,1000,1000,,,,,
87750719,1000,1000,1000,1000,,,,,
87753218,1000,1000,1000,1000,,,,,
87755717,1000,1000,1000,1000,,,,,
87758216,1000,1000,1000,1000,,,,,
87760715,1000,1000,1000,1000,,,,,
87763214,1000,1000,1000,1000,,,,,
87765713,1000,1000,1000,1000,,,,,
87768212,1000,1000,1000,1000,,,,,
87770711,1000,1000,1000,1000,,,,,
87773210,1000,1000,1000,1000,,,,,
87775709,1000,1000,1000,1000,,,,,
87778208,1000,1000,1000,1000,,,,,
87780707,1000,1000,1000,1000,,,,,
87783206,1000,1000,1000,1000,,,,,
87785705,1000,1000,1000,1000,,,,,
87788204,1000,1000,1000,1000,,,,,
87790703,1000,1000,1000,1000,,,,,
87793202,1000,1000,1000,1000,,,,,
87795701,1000,1000,1000,1000,,,,,
87798200,1000,1000,1000,1000,,,,,
87800699,1000,1000,1000,1000,,,,,
87803198,1000,1000,1000,1000,,,,,
87805697,1000,1000,1000,1000,,,,,
87808196,1000,1000,1000,1000,,,,,
87810695,1000,1000,1000,1000,,,,,
87813194,1000,1000,1000,1000,,,,,
87815693,1000,1000,1000,1000,,,,,
87818192,1000,1000,1000,1000,,,,,
87820691,1000,1000,1000,1000,,,,,
87823190,1000,1000,1000,1000,,,,,
87825689,1000,1000,1000,1000,,,,,
87828188,1000,1000,1000,1000,,,,,
87830687,1000,1000,1000,1000,,,,,
87833186,1000,1000,1000,1000,,,,,
87835685,1000,1000,1000,1000,,,,,
87838184,1000,1000,1000,1000,,,,,
87840683,1000,1000,1000,1000,,,,,
87843182,1000,1000,1000,1000,,,,,
87845681,1000,1000,1000,1000,,,,,
87848180,1000,1000,1000,1000,,,,,
87850679,1000,1000,1000,1000,,,,,
87853178,1000,1000,1000,1000,,,,,
87855677,1000,1000,1000,1000,,,,,
87858176,1000,1000,1000,1000,,,,,
87860675,1000,1000,1000,1000,,,,,
87863174,1000,1000,1000,1000,,,,,
87865673,1000,1000,1000,1000,,,,,
87868172,1000,1000,1000,1000,,,,,
87870671,1000,1000,1000,1000,,,,,
87873170,1000,1000,1000,1000,,,,,
87875669,1000,1000,1000,1000,,,,,
87878168,1000,1000,1000,1000,,,,,
87880667,1000,1000,1000,1000,,,,,
87883166,1000,1000,1000,1000,,,,,
87885665,1000,1000,1000,1000,,,,,
87888164,1000,1000,1000,1000,,,,,
87890663,1000,1000,1000,1000,,,,,
87893162,1000,1000,1000,1000,,,,,
87895661,1000,1000,1000,1000,,,,,
87898160,1000,1000,1000,1000,,,,,
87900659,1000,1000,1000,1000,,,,,
87903158,1000,1000,1000,1000,,,,,
87905657,1000,1000,1000,1000,,,,,
87908156,1000,1000,1000,1000,,,,,
87910655,1000,1000,1000,1000,,,,,
87913154,1000,1000,1000,1000,,,,,
87916486,1000,1000,1000,1000,,,,,
87918985,1000,1000,1000,1000,,,,,
87921484,1000,1000,1000,1000,,,,,
87923983,1000,1000,1000,1000,,,,,
87926482,1000,1000,1000,1000,,,,,
87928981,1000,1000,1000,1000,,,,,
87931480,1000,1000,1000,1000,,,,,
87933979,1000,1000,1000,1000,,,,,
87936478,1000,1000,1000,1000,,,,,
87938977,1000,1000,1000,1000,,,,,
87941476,1000,1000,1000,1000,,,,,
87943975,1001,1001,1001,1001,,,,,
87946474,1002,1002,1002,1002,,,,,
87948973,1003,1003,1003,1003,,,,,
87951472,1003,1003,1003,1003,,,,,
87953971,1004,1004,1004,1004,,,,,
87956470,1005,1005,1005,1005,,,,,
87958969,1006,1006,1006,1006,,,,,
87961468,1006,1006,1006,1006,,,,,
87963967,1007,1007,1007,1007,,,,,
87966466,1008,1008,1008,1008,,,,,
87968965,1009,1009,1009,1009,,,,,
87971464,1009,1009,1009,1009,,,,,
87973963,1010,1010,1010,1010,,,,,
87976462,1011,1011,1011,1011,,,,,
87978961,1012,1012,1012,1012,,,,,
87981460,1012,1012,1012,1012,,,,,
87983959,1013,1013,1013,1013,,,,,
87986458,1014,1014,1014,1014,,,,,
87988957,1015,1015,1015,1015,,,,,
87991456,1015,1015,1015,1015,,,,,
87993955,1016,1016,1016,1016,,,,,
87996454,1017,1017,1017,1017,,,,,
87998953,1018,1018,1018,1018,,,,,
88001452,1018,1018,1018,1018,,,,,
88003951,1019,1019,1019,1019,,,,,
88006450,1020,1020,1020,1020,,,,,
88008949,1021,1021,1021,1021,,,,,
88011448,1021,1021,1021,1021,,,,,
88013947,1022,1022,1022,1022,,,,,
88016446,1023,1023,1023,1023,,,,,
88018945,1024,1024,1024,1024,,,,,
88021444,1024,1024,1024,1024,,,,,
88023943,1025,1025,1025,1025,,,,,
88026442,1026,1026,1026,1026,,,,,
88028941,1027,1027,1027,1027,,,,,
88031440,1027,1027,1027,1027,,,,,
88033939,1028,1028,1028,1028,,,,,
88036438,1029,1029,1029,1029,,,,,
88038937,1030,1030,1030,1030,,,,,
88041436,1030,1030,1030,1030,,,,,
88043935,1031,1031,1031,1031,,,,,
88046434,1032,1032,1032,1032,,,,,
88048933,1033,1033,1033,1033,,,,,
88051432,1033,1033,1033,1033,,,,,
88053931,1034,1034,1034,1034,,,,,
88056430,1035,1035,1035,1035,,,,,
88058929,1036,1036,1036,1036,,,,,
88061428,1036,1036,1036,1036,,,,,
88063927,1037,1037,1037,1037,,,,,
88066426,1038,1038,1038,1038,,,,,
88068925,1039,1039,1039,1039,,,,,
88071424,1039,1039,1039,1039,,,,,
88073923,1040,1040,1040,1040,,,,,
88076422,1041,1041,1041,1041,,,,,
88078921,1042,1042,1042,1042,,,,,
88081420,1042,1042,1042,1042,,,,,
88083919,1043,1043,1043,1043,,,,,
88086418,1044,1044,1044,1044,,,,,
88088917,1045,1045,1045,1045,,,,,
88091416,1045,1045,1045,1045,,,,,
88093915,1046,1046,1046,1046,,,,,
88096414,1047,1047,1047,1047,,,,,
88098913,1048,1048,1048,1048,,,,,
88101412,1048,1048,1048,1048,,,,,
88103911,1049,1049,1049,1049,,,,,
88106410,1050,1050,1050,1050,,,,,
88108909,1051,1051,1051,1051,,,,,
88111408,1051,1051,1051,1051,,,,,
88113907,1052,1052,1052,1052,,,,,
88116406,1053,1053,1053,1053,,,,,
88118905,1054,1054,1054,1054,,,,,
88121404,1054,1054,1054,1054,,,,,
88123903,1055,1055,1055,1055,,,,,
88126402,1056,1056,1056,1056,,,,,
88128901,1057,1057,1057,1057,,,,,
88131400,1057,1057,1057,1057,,,,,
88133899,1058,1058,1058,1058,,,,,
88136398,1059,1059,1059,1059,,,,,
88138897,1060,1060,1060,1060,,,,,
88141396,1060,1060,1060,1060,,,,,
88143895,1061,1061,1061,1061,,,,,
88146394,1062,1062,1062,1062,,,,,
88148893,1063,1063,1063,1063,,,,,
88151392,1063,1063,1063,1063,,,,,
88153891,1064,1064,1064,1064,,,,,
88156390,1065,1065,1065,1065,,,,,
88158889,1066,1066,1066,1066,,,,,
88161388,1066,1066,1066,1066,,,,,
88163887,1067,1067,1067,1067,,,,,
88166386,1068,1068,1068,1068,,,,,
88168885,1069,1069,1069,1069,,,,,
88171384,1069,1069,1069,1069,,,,,
88173883,1070,1070,1070,1070,,,,,
88176382,1071,1071,1071,1071,,,,,
88178881,1072,1072,1072,1072,,,,,
88181380,1072,1072,1072,1072,,,,,
88183879,1073,1073,1073,1073,,,,,
88186378,1074,1074,1074,1074,,,,,
88188877,1075,1075,1075,1075,,,,,
88191376,1075,1075,1075,1075,,,,,
88193875,1076,1076,1076,1076,,,,,
88196374,1077,1077,1077,1077,,,,,
88198873,1078,1078,1078,1078,,,,,
88201372,1078,1078,1078,1078,,,,,
88203871,1079,1079,1079,1079,,,,,
88206370,1080,1080,1080,1080,,,,,
88208869,1081,1081,1081,1081,,,,,
88211368,1081,1081,1081,1081,,,,,
88213867,1082,1082,1082,1082,,,,,
88216366,1083,1083,1083,1083,,,,,
88218865,1084,1084,1084,1084,,,,,
88221364,1084,1084,1084,1084,,,,,
88223863,1085,1085,1085,1085,,,,,
88226362,1086,1086,1086,1086,,,,,
88228861,1087,1087,1087,1087,,,,,
88231360,1087,1087,1087,1087,,,,,
88233859,1088,1088,1088,1088,,,,,
88236358,1089,1089,1089,1089,,,,,
88238857,1090,1090,1090,1090,,,,,
88241356,1090,1090,1090,1090,,,,,
88243855,1091,1091,1091,1091,,,,,
88246354,1092,1092,1092,1092,,,,,
88248853,1093,1093,1093,1093,,,,,
88251352,1093,1093,1093,1093,,,,,
88253851,1094,1094,1094,1094,,,,,
88256350,1095,1095,1095,1095,,,,,
88258849,1096,1096,1096,1096,,,,,
88261348,1096,1096,1096,1096,,,,,
88263847,1097,1097,1097,1097,,,,,
88266346,1098,1098,1098,1098,,,,,
88268845,1099,1099,1099,1099,,,,,
88271344,1099,1099,1099,1099,,,,,
88273843,1100,1100,1100,1100,,,,,
88276342,1101,1101,1101,1101,,,,,
88278841,1101,1101,1101,1101,,,,,
88281340,1102,1102,1102,1102,,,,,
88283839,1103,1103,1103,1103,,,,,
88286338,1104,1104,1104,1104,,,,,
88288837,1104,1104,1104,1104,,,,,
88291336,1105,1105,1105,1105,,,,,
88293835,1106,1106,1106,1106,,,,,
88296334,1107,1107,1107,1107,,,,,
88298833,1107,1107,1107,1107,,,,,
88301332,1108,1108,1108,1108,,,,,
88303831,1109,1109,1109,1109,,,,,
88306330,1110,1110,1110,1110,,,,,
88308829,1110,1110,1110,1110,,,,,
88311328,1111,1111,1111,1111,,,,,
88313827,1112,1112,1112,1112,,,,,
88316326,1113,1113,1113,1113,,,,,
88318825,1113,1113,1113,1113,,,,,
88321324,1114,1114,1114,1114,,,,,
88323823,1115,1115,1115,1115,,,,,
88326322,1116,1116,1116,1116,,,,,
88328821,1116,1116,1116,1116,,,,,
88331320,1117,1117,1117,1117,,,,,
88333819,1118,1118,1118,1118,,,,,
88336318,1119,1119,1119,1119,,,,,
88338817,1119,1119,1119,1119,,,,,
88341316,1120,1120,1120,1120,,,,,
88343815,1121,1121,1121,1121,,,,,
88346314,1122,1122,1122,1122,,,,,
88348813,1122,1122,1122,1122,,,,,
88351312,1123,1123,1123,1123,,,,,
88353811,1124,1124,1124,1124,,,,,
88356310,1125,1125,1125,1125,,,,,
88358809,1125,1125,1125,1125,,,,,
88361308,1126,1126,1126,1126,,,,,
88363807,1127,1127,1127,1127,,,,,
88366306,1128,1128,1128,1128,,,,,
88368805,1128,1128,1128,1128,,,,,
88371304,1129,1129,1129,1129,,,,,
88373803,1130,1130,1130,1130,,,,,
88376302,1131,1131,1131,1131,,,,,
88378801,1131,1131,1131,1131,,,,,
88381300,1132,1132,1132,1132,,,,,
88383799,1133,1133,1133,1133,,,,,
88386298,1134,1134,1134,1134,,,,,
88388797,1134,1134,1134,1134,,,,,
88391296,1135,1135,1135,1135,,,,,
88393795,1136,1136,1136,1136,,,,,
88396294,1137,1137,1137,1137,,,,,
88398793,1137,1137,1137,1137,,,,,
88401292,1138,1138,1138,1138,,,,,
88403791,1139,1139,1139,1139,,,,,
88406290,1140,1140,1140,1140,,,,,
88408789,1140,1140,1140,1140,,,,,
88411288,1141,1141,1141,1141,,,,,
88413787,1142,1142,1142,1142,,,,,
88416286,1143,1143,1143,1143,,,,,
88418785,1143,1143,1143,1143,,,,,
88421284,1144,1144,1144,1144,,,,,
88423783,1145,1145,1145,1145,,,,,
88426282,1146,1146,1146,1146,,,,,
88428781,1146,1146,1146,1146,,,,,
88431280,1147,1147,1147,1147,,,,,
88433779,1148,1148,1148,1148,,,,,
88436278,1149,1149,1149,1149,,,,,
88438777,1149,1149,1149,1149,,,,,
88441276,1150,1150,1150,1150,,,,,
88443775,1164,1150,1151,1165,,,,,
88446274,1172,1158,1159,1173,,,,,
88448773,1180,1166,1167,1181,,,,,
88451272,1188,1174,1175,1188,,,,,
88453771,1195,1182,1183,1196,,,,,
88456270,1203,1189,1190,1203,,,,,
88458769,1210,1197,1198,1211,,,,,
88461268,1217,1204,1205,1218,,,,,
88463767,1224,1211,1212,1225,,,,,
88466266,1231,1219,1220,1232,,,,,
88468765,1238,1226,1226,1239,,,,,
88471264,1245,1232,1233,1245,,,,,
88473763,1252,1239,1240,1252,,,,,
88476262,1258,1246,1247,1259,,,,,
88478761,1265,1253,1253,1265,,,,,
88481260,1271,1259,1260,1272,,,,,
88483759,1277,1266,1266,1278,,,,,
88486258,1284,1272,1273,1284,,,,,
88488757,1290,1278,1279,1290,,,,,
88491256,1296,1284,1285,1297,,,,,
88493755,1302,1291,1291,1303,,,,,
88496254,1308,1297,1297,1309,,,,,
88498753,1314,1303,1303,1315,,,,,
88501252,1320,1309,1309,1320,,,,,
88503751,1326,1315,1315,1326,,,,,
88506250,1331,1320,1321,1332,,,,,
88508749,1337,1326,1327,1338,,,,,
88511248,1343,1332,1333,1343,,,,,
88513747,1348,1337,1338,1349,,,,,
88516246,1354,1343,1344,1354,,,,,
88518745,1359,1349,1349,1360,,,,,
88521244,1365,1354,1355,1365,,,,,
88523743,1370,1359,1360,1371,,,,,
88526242,1376,1365,1366,1376,,,,,
88528741,1381,1370,1371,1381,,,,,
88531240,1386,1376,1376,1387,,,,,
88533739,1391,1381,1382,1392,,,,,
88536238,1396,1386,1387,1397,,,,,
88538737,1402,1391,1392,1402,,,,,
88541236,1407,1396,1397,1407,,,,,
88543735,1412,1401,1402,1412,,,,,
88546234,1417,1407,1407,1417,,,,,
88548733,1422,1412,1412,1422,,,,,
88551232,1427,1417,1417,1427,,,,,
88553731,1431,1422,1422,1432,,,,,
88556230,1436,1426,1427,1437,,,,,
88558729,1441,1431,1432,1442,,,,,
88561228,1446,1436,1437,1446,,,,,
88563727,1451,1441,1442,1451,,,,,
88566226,1455,1446,1446,1456,,,,,
88568725,1460,1451,1451,1461,,,,,
88571224,1465,1455,1456,1465,,,,,
88573723,1469,1460,1461,1470,,,,,
88576222,1474,1465,1465,1475,,,,,
88578721,1478,1469,1470,1479,,,,,
88581220,1483,1474,1474,1484,,,,,
88583719,1488,1478,1479,1488,,,,,
88586218,1492,1483,1483,1493,,,,,
88588717,1496,1487,1488,1497,,,,,
88591216,1501,1492,1493,1501,,,,,
88593715,1505,1496,1497,1506,,,,,
88596214,1510,1501,1501,1510,,,,,
88598713,1514,1505,1506,1515,,,,,
88601212,1518,1510,1510,1519,,,,,
88603711,1523,1514,1515,1523,,,,,
88606210,1527,1518,1519,1527,,,,,
88608709,1531,1523,1523,1532,,,,,
88611208,1536,1527,1527,1536,,,,,
88613707,1540,1531,1532,1540,,,,,
88616206,1544,1535,1536,1544,,,,,
88618705,1548,1540,1540,1549,,,,,
88621204,1552,1544,1544,1553,,,,,
88623703,1556,1548,1548,1557,,,,,
88626202,1560,1552,1553,1561,,,,,
88628701,1565,1556,1557,1565,,,,,
88631200,1569,1560,1561,1569,,,,,
88633699,1573,1564,1565,1573,,,,,
88636198,1577,1568,1569,1577,,,,,
88638697,1581,1572,1573,1581,,,,,
88641196,1585,1576,1577,1585,,,,,
88643695,1589,1580,1581,1589,,,,,
88646194,1593,1584,1585,1593,,,,,
88648693,1597,1588,1589,1597,,,,,
88651192,1600,1592,1593,1601,,,,,
88653691,1604,1596,1597,1605,,,,,
88656190,1608,1600,1601,1609,,,,,
88658689,1612,1604,1605,1613,,,,,
88661188,1616,1608,1608,1616,,,,,
88663687,1620,1612,1612,1620,,,,,
88666186,1624,1616,1616,1624,,,,,
88668685,1627,1619,1620,1628,,,,,
88671184,1631,1623,1624,1632,,,,,
88673683,1635,1627,1627,1635,,,,,
88676182,1639,1631,1631,1639,,,,,
88678681,1642,1634,1635,1643,,,,,
88681180,1646,1638,1639,1647,,,,,
88683679,1650,1642,1642,1650,,,,,
88686178,1654,1646,1646,1654,,,,,
88688677,1657,1649,1650,1658,,,,,
88691176,1661,1653,1653,1661,,,,,
88693675,1664,1657,1657,1665,,,,,
88696174,1668,1660,1661,1669,,,,,
88698673,1672,1664,1664,1672,,,,,
88701172,1675,1668,1668,1676,,,,,
88703671,1679,1671,1672,1680,,,,,
88706170,1683,1675,1675,1683,,,,,
88708669,1686,1678,1679,1687,,,,,
88711168,1690,1682,1682,1690,,,,,
88713667,1693,1685,1686,1694,,,,,
88716166,1697,1689,1689,1697,,,,,
88718665,1700,1692,1693,1701,,,,,
88721164,1704,1696,1696,1704,,,,,
88723663,1707,1699,1700,1708,,,,,
88726162,1711,1703,1703,1711,,,,,
88728661,1714,1706,1707,1715,,,,,
88731160,1718,1710,1710,1718,,,,,
88733659,1721,1713,1713,1722,,,,,
88736158,1724,1717,1717,1725,,,,,
88738657,1728,1720,1720,1729,,,,,
88741156,1731,1723,1724,1732,,,,,
88743655,1735,1727,1727,1735,,,,,
88746154,1738,1730,1730,1739,,,,,
88748653,1741,1734,1734,1742,,,,,
88751152,1745,1737,1737,1745,,,,,
88753651,1748,1740,1741,1749,,,,,
88756150,1751,1744,1744,1752,,,,,
88758649,1755,1747,1747,1755,,,,,
88761148,1758,1750,1750,1759,,,,,
88763647,1761,1753,1754,1762,,,,,
88766146,1765,1757,1757,1765,,,,,
88768645,1768,1760,1760,1769,,,,,
88771144,1771,1763,1764,1772,,,,,
88773643,1774,1767,1767,1775,,,,,
88776142,1778,1770,1770,1778,,,,,
88778641,1781,1773,1773,1782,,,,,
88781140,1784,1776,1777,1785,,,,,
88783639,1787,1780,1780,1788,,,,,
88786138,1791,1783,1783,1791,,,,,
88788637,1794,1786,1786,1794,,,,,
88791136,1797,1789,1789,1798,,,,,
88793635,1800,1792,1793,1801,,,,,
88796134,1803,1795,1796,1804,,,,,
88798633,1806,1799,1799,1807,,,,,
88801132,1810,1802,1802,1810,,,,,
88803631,1813,1805,1805,1813,,,,,
88806130,1816,1808,1808,1816,,,,,
88808629,1819,1811,1811,1820,,,,,
88811128,1822,1814,1815,1823,,,,,
88813627,1825,1817,1818,1826,,,,,
88816126,1828,1820,1821,1829,,,,,
88818625,1831,1823,1824,1832,,,,,
88821124,1835,1826,1827,1835,,,,,
88823623,1838,1830,1830,1838,,,,,
88826122,1841,1833,1833,1841,,,,,
88828621,1844,1836,1836,1844,,,,,
88831120,1847,1839,1839,1847,,,,,
88833619,1850,1842,1842,1850,,,,,
88836118,1853,1845,1845,1853,,,,,
88838617,1856,1848,1848,1856,,,,,
88841116,1859,1851,1851,1859,,,,,
88843615,1862,1854,1854,1862,,,,,
88846114,1865,1857,1857,1865,,,,,
88848613,1868,1860,1860,1868,,,,,
88851112,1871,1863,1863,1871,,,,,
88853611,1874,1866,1866,1874,,,,,
88856110,1877,1869,1869,1877,,,,,
88858609,1880,1872,1872,1880,,,,,
88861108,1883,1875,1875,1883,,,,,
88863607,1886,1878,1878,1886,,,,,
88866106,1888,1880,1881,1889,,,,,
88868605,1888,1879,1880,1888,,,,,
88871104,1886,1878,1879,1887,,,,,
88873603,1885,1877,1878,1885,,,,,
88876102,1884,1876,1877,1884,,,,,
88878601,1883,1875,1876,1883,,,,,
88881100,1882,1874,1875,1882,,,,,
88883599,1881,1873,1874,1881,,,,,
88886098,1880,1872,1873,1881,,,,,
88888597,1880,1871,1872,1880,,,,,
88891096,1879,1871,1871,1879,,,,,
88893595,1878,1870,1871,1878,,,,,
88896094,1878,1869,1870,1878,,,,,
88898593,1877,1869,1870,1877,,,,,
88901092,1877,1868,1869,1877,,,,,
88903591,1877,1868,1869,1877,,,,,
88906090,1877,1868,1869,1877,,,,,
88908589,1876,1868,1868,1876,,,,,
88911088,1876,1868,1868,1876,,,,,
88913587,1876,1868,1868,1877,,,,,
88916086,1877,1868,1869,1877,,,,,
88918585,1877,1868,1869,1877,,,,,
88921084,1877,1868,1869,1877,,,,,
88923583,1878,1869,1869,1878,,,,,
88926082,1878,1869,1870,1878,,,,,
88928581,1879,1870,1870,1879,,,,,
88931080,1879,1870,1871,1879,,,,,
88933579,1880,1871,1872,1880,,,,,
88936078,1881,1872,1873,1881,,,,,
88938577,1881,1873,1873,1882,,,,,
88941076,1882,1874,1874,1882,,,,,
88943575,1882,1875,1875,1883,,,,,
88946074,1883,1875,1876,1883,,,,,
88948573,1883,1876,1877,1884,,,,,
88951072,1884,1877,1877,1884,,,,,
88953571,1884,1877,1878,1884,,,,,
88956070,1884,1877,1878,1884,,,,,
88958569,1884,1877,1878,1884,,,,,
88961068,1883,1877,1878,1884,,,,,
88963567,1883,1877,1877,1883,,,,,
88966066,1882,1876,1877,1883,,,,,
88968565,1881,1876,1876,1882,,,,,
88971064,1880,1875,1875,1881,,,,,
88973563,1879,1874,1875,1880,,,,,
88976062,1878,1873,1873,1878,,,,,
88978561,1877,1872,1872,1877,,,,,
88981060,1875,1870,1870,1875,,,,,
88983559,1873,1868,1869,1874,,,,,
88986058,1871,1867,1867,1872,,,,,
88988557,1869,1865,1865,1870,,,,,
88991056,1867,1863,1863,1868,,,,,
88993555,1865,1860,1861,1865,,,,,
88996054,1863,1858,1859,1863,,,,,
88998553,1860,1856,1856,1860,,,,,
89001052,1858,1853,1854,1858,,,,,
89003551,1855,1851,1851,1855,,,,,
89006050,1852,1848,1849,1853,,,,,
89008549,1850,1846,1846,1850,,,,,
89011048,1847,1843,1843,1847,,,,,
89013547,1844,1840,1841,1844,,,,,
89016046,1841,1837,1838,1841,,,,,
89018545,1838,1834,1835,1838,,,,,
89021044,1835,1831,1832,1835,,,,,
89023543,1832,1828,1829,1832,,,,,
89026042,1828,1825,1825,1829,,,,,
89028541,1825,1822,1822,1826,,,,,
89031040,1822,1819,1819,1822,,,,,
89033539,1819,1816,1816,1819,,,,,
89036038,1815,1812,1813,1816,,,,,
89038537,1812,1809,1810,1813,,,,,
89041036,1809,1806,1806,1809,,,,,
89043535,1805,1803,1803,1806,,,,,
89046034,1802,1800,1800,1803,,,,,
89048533,1799,1796,1797,1799,,,,,
89051032,1795,1793,1793,1796,,,,,
89053531,1792,1790,1790,1793,,,,,
89056030,1788,1786,1787,1789,,,,,
89058529,1785,1783,1783,1786,,,,,
89061028,1782,1780,1780,1782,,,,,
89063527,1778,1776,1777,1779,,,,,
89066026,1775,1773,1773,1776,,,,,
89068525,1771,1770,1770,1772,,,,,
89071024,1768,1767,1767,1769,,,,,
89073523,1765,1764,1764,1766,,,,,
89076022,1761,1760,1760,1762,,,,,
89078521,1758,1757,1757,1759,,,,,
89081020,1755,1754,1754,1756,,,,,
89083519,1752,1751,1751,1753,,,,,
89086018,1749,1748,1748,1750,,,,,
89088517,1746,1745,1745,1747,,,,,
89091016,1743,1742,1742,1744,,,,,
89093515,1740,1739,1739,1741,,,,,
89096014,1737,1736,1736,1738,,,,,
89098513,1734,1734,1734,1735,,,,,
89101012,1731,1731,1731,1732,,,,,
89103511,1728,1728,1728,1729,,,,,
89106010,1725,1725,1725,1726,,,,,
89108509,1722,1722,1722,1723,,,,,
89111008,1719,1719,1719,1720,,,,,
89113507,1716,1717,1716,1717,,,,,
89116006,1713,1714,1714,1714,,,,,
89118505,1710,1711,1711,1711,,,,,
89121004,1707,1708,1708,1708,,,,,
89123503,1705,1706,1706,1706,,,,,
89126002,1702,1703,1703,1703,,,,,
89128501,1699,1701,1700,1700,,,,,
89131000,1697,1698,1698,1698,,,,,
89133499,1694,1696,1696,1695,,,,,
89135998,1692,1693,1693,1693,,,,,
89138497,1690,1691,1691,1690,,,,,
89140996,1687,1689,1689,1688,,,,,
89143495,1685,1687,1687,1686,,,,,
89145994,1683,1685,1685,1684,,,,,
89148493,1681,1683,1683,1682,,,,,
89150992,1679,1681,1681,1680,,,,,
89153491,1677,1679,1679,1677,,,,,
89155990,1675,1677,1677,1676,,,,,
89158489,1673,1675,1675,1673,,,,,
89160988,1671,1673,1673,1672,,,,,
89163487,1669,1671,1671,1670,,,,,
89165986,1667,1669,1670,1668,,,,,
89168485,1666,1668,1668,1666,,,,,
89170984,1664,1666,1666,1664,,,,,
89173483,1662,1664,1665,1663,,,,,
89175982,1661,1663,1663,1661,,,,,
