TimeUS,M1,M2,M3,M4,TimeUS,C1,C2,C3,C4
56781445,1000,1000,1000,1000,56828926,1000,1000,1000,1000
56783944,1000,1000,1000,1000,56928886,1000,1000,1000,1000
56786443,1000,1000,1000,1000,57028846,1000,1000,1000,1000
56788942,1000,1000,1000,1000,57128806,1000,1000,1000,1000
56791441,1000,1000,1000,1000,57228766,1000,1000,1000,1000
56793940,1000,1000,1000,1000,57328726,1000,1000,1000,1000
56796439,1000,1000,1000,1000,57428686,1000,1000,1000,1000
56798938,1000,1000,1000,1000,57528646,1000,1000,1000,1000
56801437,1000,1000,1000,1000,57628606,1000,1000,1000,1000
56803936,1000,1000,1000,1000,57728566,1000,1000,1000,1000
56806435,1000,1000,1000,1000,57828526,1000,1000,1000,1000
56808934,1000,1000,1000,1000,57928486,1000,1000,1000,1000
56811433,1000,1000,1000,1000,58028446,1000,1000,1000,1000
56813932,1000,1000,1000,1000,58128406,1000,1000,1000,1000
56816431,1000,1000,1000,1000,58228366,1000,1000,1000,1000
56818930,1000,1000,1000,1000,58328326,1000,1000,1000,1000
56821429,1000,1000,1000,1000,58428286,1000,1000,1000,1000
56823928,1000,1000,1000,1000,58528246,1000,1000,1000,1000
56826427,1000,1000,1000,1000,58628206,1000,1000,1000,1000
56828926,1000,1000,1000,1000,58728166,1000,1000,1000,1000
56831425,1000,1000,1000,1000,58828959,1014,1014,1014,1014
56833924,1000,1000,1000,1000,58928919,1044,1044,1044,1044
56836423,1000,1000,1000,1000,59028879,1074,1074,1074,1074
56838922,1000,1000,1000,1000,59128839,1104,1104,1104,1104
56841421,1000,1000,1000,1000,59228799,1134,1134,1134,1134
56843920,1000,1000,1000,1000,59328759,1282,1274,1275,1282
56846419,1000,1000,1000,1000,59428719,1490,1485,1485,1491
56848918,1000,1000,1000,1000,59528679,1653,1647,1647,1653
56851417,1000,1000,1000,1000,59628639,1789,1784,1785,1789
56853916,1000,1000,1000,1000,59728599,1898,1893,1894,1898
56856415,1000,1000,1000,1000,59828559,1877,1874,1875,1877
56858914,1000,1000,1000,1000,59928519,1752,1751,1751,1753
56861413,1000,1000,1000,1000,60028479,1659,1661,1661,1659
56863912,1000,1000,1000,1000,60128439,1630,1632,1633,1630
56866411,1000,1000,1000,1000,60228399,1637,1639,1639,1637
56868910,1000,1000,1000,1000,60328359,1646,1647,1647,1645
56871409,1000,1000,1000,1000,60428319,1644,1644,1644,1644
56873908,1000,1000,1000,1000,60528279,1636,1635,1635,1636
56876407,1000,1000,1000,1000,60628239,1628,1627,1626,1628
56878906,1000,1000,1000,1000,60728199,1594,1594,1594,1594
56881405,1000,1000,1000,1000,60828159,1576,1576,1575,1576
56883904,1000,1000,1000,1000,60928952,1570,1569,1565,1574
56886403,1000,1000,1000,1000,61028912,1568,1568,1559,1576
56888902,1000,1000,1000,1000,61128872,1567,1567,1561,1573
56891401,1000,1000,1000,1000,61228832,1568,1568,1566,1569
56893900,1000,1000,1000,1000,61328792,1570,1570,1572,1568
56896399,1000,1000,1000,1000,61428752,1572,1573,1577,1569
56898898,1000,1000,1000,1000,61528712,1567,1568,1575,1560
56901397,1000,1000,1000,1000,61628672,1554,1554,1568,1540
56903896,1000,1000,1000,1000,61728632,1547,1547,1554,1541
56906395,1000,1000,1000,1000,61828592,1539,1539,1537,1542
56908894,1000,1000,1000,1000,61928552,1534,1533,1526,1542
56911393,1000,1000,1000,1000,62028512,1532,1532,1523,1541
56913892,1000,1000,1000,1000,62128472,1533,1532,1526,1539
56916391,1000,1000,1000,1000,62228432,1534,1534,1532,1536
56918890,1000,1000,1000,1000,62328392,1537,1538,1539,1536
56921389,1000,1000,1000,1000,62428352,1541,1542,1545,1538
56923888,1000,1000,1000,1000,62528312,1546,1546,1549,1542
56926387,1000,1000,1000,1000,62628272,1549,1549,1551,1546
56928886,1000,1000,1000,1000,62728232,1551,1551,1552,1550
56931385,1000,1000,1000,1000,62828192,1550,1550,1556,1558
56933884,1000,1000,1000,1000,62928985,1550,1550,1558,1562
56936383,1000,1000,1000,1000,63028945,1552,1553,1560,1563
56938882,1000,1000,1000,1000,63128905,1556,1556,1560,1563
56941381,1000,1000,1000,1000,63228865,1560,1561,1562,1563
56943880,1000,1000,1000,1000,63328825,1565,1565,1564,1564
56946379,1000,1000,1000,1000,63428785,1567,1567,1565,1563
56948878,1000,1000,1000,1000,63528745,1569,1569,1565,1563
56951377,1000,1000,1000,1000,63628705,1572,1571,1565,1565
56953876,1000,1000,1000,1000,63728665,1571,1571,1565,1565
56956375,1000,1000,1000,1000,63828625,1572,1572,1567,1567
56958874,1000,1000,1000,1000,63928585,1572,1572,1568,1568
56961373,1000,1000,1000,1000,64028545,1572,1572,1569,1570
56963872,1000,1000,1000,1000,64128505,1573,1572,1571,1571
56966371,1000,1000,1000,1000,64228465,1572,1571,1572,1571
56968870,1000,1000,1000,1000,64328425,1573,1573,1574,1573
56971369,1000,1000,1000,1000,64428385,1574,1574,1576,1574
56973868,1000,1000,1000,1000,64528345,1574,1574,1577,1575
56976367,1000,1000,1000,1000,64628305,1574,1574,1576,1576
56978866,1000,1000,1000,1000,64728265,1574,1574,1576,1576
56981365,1000,1000,1000,1000,64828225,1575,1575,1576,1577
56983864,1000,1000,1000,1000,64928185,1575,1575,1576,1576
56986363,1000,1000,1000,1000,65028978,1575,1575,1575,1576
56988862,1000,1000,1000,1000,65128938,1576,1576,1576,1576
56991361,1000,1000,1000,1000,65228898,1577,1576,1576,1576
56993860,1000,1000,1000,1000,65328858,1578,1577,1577,1577
56996359,1000,1000,1000,1000,65428818,1579,1579,1578,1578
56998858,1000,1000,1000,1000,65528778,1579,1579,1578,1578
57001357,1000,1000,1000,1000,65628738,1579,1579,1578,1578
57003856,1000,1000,1000,1000,65728698,1579,1579,1578,1578
57006355,1000,1000,1000,1000,65828658,1579,1579,1579,1579
57008854,1000,1000,1000,1000,65928618,1579,1579,1579,1579
57011353,1000,1000,1000,1000,66028578,1579,1579,1578,1579
57013852,1000,1000,1000,1000,66128538,1579,1578,1578,1579
57016351,1000,1000,1000,1000,66228498,1578,1578,1578,1578
57018850,1000,1000,1000,1000,66328458,1578,1578,1579,1579
57021349,1000,1000,1000,1000,66428418,1578,1579,1579,1579
57023848,1000,1000,1000,1000,66528378,1578,1578,1579,1578
57026347,1000,1000,1000,1000,66628338,1578,1578,1579,1578
57028846,1000,1000,1000,1000,66728298,1578,1578,1579,1579
57031345,1000,1000,1000,1000,66828258,1578,1578,1578,1578
57033844,1000,1000,1000,1000,66928218,1579,1579,1579,1580
57036343,1000,1000,1000,1000,67028178,1578,1579,1578,1578
57038842,1000,1000,1000,1000,67128971,1579,1579,1579,1579
57041341,1000,1000,1000,1000,67228931,1579,1580,1579,1579
57043840,1000,1000,1000,1000,67328891,1580,1580,1580,1579
57046339,1000,1000,1000,1000,67428851,1580,1580,1580,1580
57048838,1000,1000,1000,1000,67528811,1579,1579,1579,1579
57051337,1000,1000,1000,1000,67628771,1581,1581,1581,1581
57053836,1000,1000,1000,1000,67728731,1580,1580,1580,1580
57056335,1000,1000,1000,1000,67828691,1580,1580,1580,1580
57058834,1000,1000,1000,1000,67928651,1581,1581,1581,1581
57061333,1000,1000,1000,1000,68028611,1580,1580,1580,1580
57063832,1000,1000,1000,1000,68128571,1580,1580,1580,1580
57066331,1000,1000,1000,1000,68228531,1581,1581,1581,1581
57068830,1000,1000,1000,1000,68328491,1581,1581,1581,1581
57071329,1000,1000,1000,1000,68428451,1580,1581,1580,1581
57073828,1000,1000,1000,1000,68528411,1580,1581,1580,1581
57076327,1000,1000,1000,1000,68628371,1581,1580,1580,1580
57078826,1000,1000,1000,1000,68728331,1580,1580,1581,1580
57081325,1000,1000,1000,1000,68828291,1581,1581,1581,1581
57083824,1000,1000,1000,1000,68928251,1581,1581,1581,1581
57086323,1000,1000,1000,1000,69028211,1580,1581,1581,1581
57088822,1000,1000,1000,1000,69128171,1581,1581,1585,1578
57091321,1000,1000,1000,1000,69228964,1580,1582,1588,1573
57093820,1000,1000,1000,1000,69328924,1580,1582,1582,1574
57096319,1000,1000,1000,1000,69428884,1578,1581,1572,1573
57098818,1000,1000,1000,1000,69528844,1577,1580,1565,1571
57101317,1000,1000,1000,1000,69628804,1577,1578,1558,1565
57103816,1000,1000,1000,1000,69728764,1578,1578,1556,1561
57106315,1000,1000,1000,1000,69828724,1579,1578,1555,1557
57108814,1000,1000,1000,1000,69928684,1579,1577,1555,1555
57111313,1000,1000,1000,1000,70028644,1579,1577,1556,1554
57113812,1000,1000,1000,1000,70128604,1578,1578,1557,1554
57116311,1000,1000,1000,1000,70228564,1576,1577,1556,1554
57118810,1000,1000,1000,1000,70328524,1574,1576,1554,1553
57121309,1000,1000,1000,1000,70428484,1574,1576,1554,1553
57123808,1000,1000,1000,1000,70528444,1573,1575,1552,1552
57126307,1000,1000,1000,1000,70628404,1575,1576,1550,1551
57128806,1000,1000,1000,1000,70728364,1578,1578,1549,1550
57131305,1000,1000,1000,1000,70828324,1579,1580,1547,1547
57133804,1000,1000,1000,1000,70928284,1582,1583,1545,1545
57136303,1000,1000,1000,1000,71028244,1585,1586,1541,1541
57138802,1000,1000,1000,1000,71128204,1588,1589,1539,1538
57141301,1000,1000,1000,1000,71228164,1591,1592,1538,1537
57143800,1000,1000,1000,1000,71328957,1594,1593,1535,1535
57146299,1000,1000,1000,1000,71428917,1595,1594,1534,1536
57148798,1000,1000,1000,1000,71528877,1595,1595,1535,1537
57151297,1000,1000,1000,1000,71628837,1594,1594,1537,1539
57153796,1000,1000,1000,1000,71728797,1591,1591,1541,1544
57156295,1000,1000,1000,1000,71828757,1588,1586,1548,1551
57158794,1000,1000,1000,1000,71928717,1581,1577,1556,1559
57161293,1000,1000,1000,1000,72028677,1572,1568,1568,1570
57163792,1000,1000,1000,1000,72128637,1561,1557,1580,1581
57166291,1000,1000,1000,1000,72228597,1550,1547,1593,1593
57168790,1000,1000,1000,1000,72328557,1540,1538,1603,1603
57171289,1000,1000,1000,1000,72428517,1532,1532,1610,1609
57173788,1000,1000,1000,1000,72528477,1528,1529,1614,1613
57176287,1000,1000,1000,1000,72628437,1529,1531,1615,1614
57178786,1000,1000,1000,1000,72728397,1533,1535,1612,1612
57181285,1000,1000,1000,1000,72828357,1539,1541,1606,1606
57183784,1000,1000,1000,1000,72928317,1549,1550,1601,1601
57186283,1000,1000,1000,1000,73028277,1557,1558,1594,1593
57188782,1000,1000,1000,1000,73128237,1566,1566,1586,1585
57191281,1000,1000,1000,1000,73228197,1573,1573,1579,1578
57193780,1000,1000,1000,1000,73328157,1579,1579,1573,1572
57196279,1000,1000,1000,1000,73428950,1584,1583,1568,1568
57198778,1000,1000,1000,1000,73528910,1587,1585,1566,1566
57201277,1000,1000,1000,1000,73628870,1588,1587,1566,1566
57203776,1000,1000,1000,1000,73728830,1587,1586,1567,1567
57206275,1000,1000,1000,1000,73828790,1586,1584,1569,1569
57208774,1000,1000,1000,1000,73928750,1583,1582,1572,1572
57211273,1000,1000,1000,1000,74028710,1579,1579,1574,1574
57213772,1000,1000,1000,1000,74128670,1577,1578,1578,1578
57216271,1000,1000,1000,1000,74228630,1575,1575,1580,1580
57218770,1000,1000,1000,1000,74328590,1573,1574,1582,1582
57221269,1000,1000,1000,1000,74428550,1571,1572,1582,1582
57223768,1000,1000,1000,1000,74528510,1572,1573,1584,1584
57226267,1000,1000,1000,1000,74628470,1572,1572,1583,1583
57228766,1000,1000,1000,1000,74728430,1573,1573,1583,1582
57231265,1000,1000,1000,1000,74828390,1575,1576,1583,1582
57233764,1000,1000,1000,1000,74928350,1576,1577,1581,1581
57236263,1000,1000,1000,1000,75028310,1577,1578,1579,1579
57238762,1000,1000,1000,1000,75128270,1579,1578,1578,1578
57241261,1000,1000,1000,1000,75228230,1580,1580,1577,1577
57243760,1000,1000,1000,1000,75328190,1580,1580,1576,1576
57246259,1000,1000,1000,1000,75428983,1581,1581,1576,1577
57248758,1000,1000,1000,1000,75528943,1581,1581,1577,1577
57251257,1000,1000,1000,1000,75628903,1581,1581,1577,1577
57253756,1000,1000,1000,1000,75728863,1580,1580,1577,1577
57256255,1000,1000,1000,1000,75828823,1580,1580,1579,1578
57258754,1000,1000,1000,1000,75928783,1580,1580,1579,1579
57261253,1000,1000,1000,1000,76028743,1580,1580,1579,1579
57263752,1000,1000,1000,1000,76128703,1580,1580,1580,1580
57266251,1000,1000,1000,1000,76228663,1580,1580,1581,1581
57268750,1000,1000,1000,1000,76328623,1580,1580,1582,1582
57271249,1000,1000,1000,1000,76428583,1580,1581,1582,1582
57273748,1000,1000,1000,1000,76528543,1581,1580,1582,1582
57276247,1000,1000,1000,1000,76628503,1580,1581,1582,1582
57278746,1000,1000,1000,1000,76728463,1269,1550,1270,1552
57281245,1000,1000,1000,1000,76828423,1655,1598,1659,1596
57283744,1000,1000,1000,1000,76928383,1588,1602,1590,1601
57286243,1000,1000,1000,1000,77028343,1553,1601,1553,1601
57288742,1000,1000,1000,1000,77128303,1547,1593,1544,1589
57291241,1000,1000,1000,1000,77228263,1552,1580,1551,1567
57293740,1000,1000,1000,1000,77328223,1560,1568,1552,1552
57296239,1000,1000,1000,1000,77428183,1570,1563,1551,1542
57298738,1000,1000,1000,1000,77528976,1578,1563,1550,1538
57301237,1000,1000,1000,1000,77628936,1583,1566,1550,1540
57303736,1000,1000,1000,1000,77728896,1581,1569,1550,1544
57306235,1000,1000,1000,1000,77828856,1578,1573,1552,1549
57308734,1000,1000,1000,1000,77928816,1574,1574,1554,1554
57311233,1000,1000,1000,1000,78028776,1570,1573,1556,1557
57313732,1000,1000,1000,1000,78128736,1569,1573,1560,1560
57316231,1000,1000,1000,1000,78228696,1570,1574,1563,1562
57318730,1000,1000,1000,1000,78328656,1571,1573,1563,1562
57321229,1000,1000,1000,1000,78428616,1574,1575,1563,1562
57323728,1000,1000,1000,1000,78528576,1576,1576,1562,1560
57326227,1000,1000,1000,1000,78628536,1579,1578,1560,1559
57328726,1000,1000,1000,1000,78728496,1582,1582,1557,1557
57331225,1000,1000,1000,1000,78828456,1584,1585,1554,1554
57333724,1000,1000,1000,1000,78928416,1588,1588,1552,1552
57336223,1000,1000,1000,1000,79028376,1588,1590,1549,1548
57338722,1000,1000,1000,1000,79128336,1591,1592,1548,1547
57341221,1000,1000,1000,1000,79228296,1594,1595,1546,1546
57343720,1000,1000,1000,1000,79328256,1596,1597,1544,1545
57346219,1000,1000,1000,1000,79428216,1596,1597,1542,1544
57348718,1000,1000,1000,1000,79528176,1596,1596,1543,1544
57351217,1000,1000,1000,1000,79628969,1595,1593,1546,1547
57353716,1000,1000,1000,1000,79728929,1591,1589,1551,1553
57356215,1000,1000,1000,1000,79828889,1586,1583,1559,1560
57358714,1000,1000,1000,1000,79928849,1579,1576,1568,1569
57361213,1000,1000,1000,1000,80028809,1569,1567,1576,1578
57363712,1000,1000,1000,1000,80128769,1560,1558,1585,1587
57366211,1000,1000,1000,1000,80228729,1553,1551,1593,1595
57368710,1000,1000,1000,1000,80328689,1547,1546,1601,1602
57371209,1000,1000,1000,1000,80428649,1544,1544,1606,1605
57373708,1000,1000,1000,1000,80528609,1544,1543,1608,1607
57376207,1000,1000,1000,1000,80628569,1544,1545,1606,1606
57378706,1000,1000,1000,1000,80728529,1549,1549,1604,1603
57381205,1000,1000,1000,1000,80828489,1554,1555,1601,1600
57383704,1000,1000,1000,1000,80928449,1560,1561,1594,1594
57386203,1000,1000,1000,1000,81028409,1566,1567,1589,1589
57388702,1000,1000,1000,1000,81128369,1572,1573,1584,1583
57391201,1000,1000,1000,1000,81228329,1577,1577,1579,1579
57393700,1000,1000,1000,1000,81328289,1580,1579,1574,1574
57396199,1000,1000,1000,1000,81428249,1584,1583,1574,1574
57398698,1000,1000,1000,1000,81528209,1583,1583,1572,1572
57401197,1000,1000,1000,1000,81628169,1585,1583,1573,1573
57403696,1000,1000,1000,1000,81728962,1583,1582,1574,1574
57406195,1000,1000,1000,1000,81828922,1581,1581,1576,1576
57408694,1000,1000,1000,1000,81928882,1578,1579,1577,1578
57411193,1000,1000,1000,1000,82028842,1576,1577,1579,1579
57413692,1000,1000,1000,1000,82128802,1575,1575,1580,1580
57416191,1000,1000,1000,1000,82228762,1573,1573,1581,1581
57418690,1000,1000,1000,1000,82328722,1574,1574,1583,1583
57421189,1000,1000,1000,1000,82428682,1574,1574,1583,1583
57423688,1000,1000,1000,1000,82528642,1574,1574,1582,1583
57426187,1000,1000,1000,1000,82628602,1575,1575,1582,1582
57428686,1000,1000,1000,1000,82728562,1576,1576,1581,1581
57431185,1000,1000,1000,1000,82828522,1578,1578,1581,1581
57433684,1000,1000,1000,1000,82928482,1579,1579,1579,1580
57436183,1000,1000,1000,1000,83028442,1580,1580,1579,1580
57438682,1000,1000,1000,1000,83128402,1580,1580,1578,1578
57441181,1000,1000,1000,1000,83228362,1582,1582,1580,1579
57443680,1000,1000,1000,1000,83328322,1581,1581,1579,1579
57446179,1000,1000,1000,1000,83428282,1581,1581,1579,1579
57448678,1000,1000,1000,1000,83528242,1581,1581,1579,1579
57451177,1000,1000,1000,1000,83628202,1581,1580,1579,1579
57453676,1000,1000,1000,1000,83728162,1580,1580,1579,1579
57456175,1000,1000,1000,1000,83828955,1579,1579,1579,1579
57458674,1000,1000,1000,1000,83928915,1579,1578,1579,1579
57461173,1000,1000,1000,1000,84028875,1579,1579,1579,1580
57463672,1000,1000,1000,1000,84128835,1578,1578,1579,1579
57466171,1000,1000,1000,1000,84228795,1578,1578,1580,1579
57468670,1000,1000,1000,1000,84328755,1579,1579,1580,1580
57471169,1000,1000,1000,1000,84428715,1579,1579,1580,1580
57473668,1000,1000,1000,1000,84528675,1579,1579,1579,1580
57476167,1000,1000,1000,1000,84628635,1580,1580,1580,1580
57478666,1000,1000,1000,1000,84728595,1580,1580,1580,1580
57481165,1000,1000,1000,1000,84828555,1580,1580,1580,1580
57483664,1000,1000,1000,1000,84928515,1581,1581,1580,1580
57486163,1000,1000,1000,1000,85028475,1581,1581,1581,1581
57488662,1000,1000,1000,1000,85128435,1580,1581,1581,1580
57491161,1000,1000,1000,1000,85228395,1581,1581,1580,1581
57493660,1000,1000,1000,1000,85328355,1580,1581,1580,1580
57496159,1000,1000,1000,1000,85428315,1580,1582,1587,1573
57498658,1000,1000,1000,1000,85528275,1581,1583,1583,1573
57501157,1000,1000,1000,1000,85628235,1580,1583,1573,1572
57503656,1000,1000,1000,1000,85728195,1579,1582,1564,1569
57506155,1000,1000,1000,1000,85828155,1579,1581,1558,1565
57508654,1000,1000,1000,1000,85928948,1581,1581,1555,1560
57511153,1000,1000,1000,1000,86028908,1582,1581,1554,1557
57513652,1000,1000,1000,1000,86128868,1582,1581,1555,1555
57516151,1000,1000,1000,1000,86228828,1581,1580,1556,1554
57518650,1000,1000,1000,1000,86328788,1579,1579,1556,1553
57521149,1000,1000,1000,1000,86428748,1577,1578,1556,1554
57523648,1000,1000,1000,1000,86528708,1576,1577,1555,1554
57526147,1000,1000,1000,1000,86628668,1575,1577,1554,1555
57528646,1000,1000,1000,1000,86728628,1575,1577,1553,1553
57531145,1000,1000,1000,1000,86828588,1576,1578,1551,1551
57533644,1000,1000,1000,1000,86928548,1579,1580,1550,1550
57536143,1000,1000,1000,1000,87028508,1581,1582,1547,1547
57538642,1000,1000,1000,1000,87128468,1583,1584,1545,1544
57541141,1000,1000,1000,1000,87228428,1586,1587,1543,1542
57543640,1000,1000,1000,1000,87328388,1588,1589,1540,1540
57546139,1000,1000,1000,1000,87428348,1591,1592,1539,1539
57548638,1000,1000,1000,1000,87528308,1592,1593,1537,1538
57551137,1000,1000,1000,1000,87628268,1592,1594,1537,1538
57553636,1000,1000,1000,1000,87728228,1593,1593,1537,1539
57556135,1000,1000,1000,1000,87828188,1591,1591,1540,1543
57558634,1000,1000,1000,1000,87928981,1589,1586,1547,1549
57561133,1000,1000,1000,1000,88028941,1581,1578,1555,1557
57563632,1000,1000,1000,1000,88128901,1573,1569,1566,1568
57566131,1000,1000,1000,1000,88228861,1562,1559,1578,1579
57568630,1000,1000,1000,1000,88328821,1551,1548,1589,1590
57571129,1000,1000,1000,1000,88428781,1543,1541,1601,1601
57573628,1000,1000,1000,1000,88528741,1536,1534,1608,1607
57576127,1000,1000,1000,1000,88628701,1532,1532,1612,1612
57578626,1000,1000,1000,1000,88728661,1532,1532,1611,1612
57581125,1000,1000,1000,1000,88828621,1536,1537,1609,1609
57583624,1000,1000,1000,1000,88928581,1542,1543,1604,1604
57586123,1000,1000,1000,1000,89028541,1550,1552,1598,1598
57588622,1000,1000,1000,1000,89128501,1559,1560,1591,1590
57591121,1000,1000,1000,1000,89228461,1567,1569,1584,1583
57593620,1000,1000,1000,1000,89328421,1575,1575,1578,1577
57596119,1000,1000,1000,1000,89428381,1582,1582,1574,1573
57598618,1000,1000,1000,1000,89528341,1585,1585,1571,1570
57601117,1000,1000,1000,1000,89628301,1587,1586,1568,1568
57603616,1000,1000,1000,1000,89728261,1588,1587,1570,1569
57606115,1000,1000,1000,1000,89828221,1586,1585,1570,1570
57608614,1000,1000,1000,1000,89928181,1584,1582,1572,1572
57611113,1000,1000,1000,1000,90028974,1581,1581,1575,1575
57613612,1000,1000,1000,1000,90128934,1579,1578,1578,1578
57616111,1000,1000,1000,1000,90228894,1575,1576,1579,1580
57618610,1000,1000,1000,1000,90328854,1573,1574,1581,1581
57621109,1000,1000,1000,1000,90428814,1574,1574,1584,1584
57623608,1000,1000,1000,1000,90528774,1572,1573,1583,1584
57626107,1000,1000,1000,1000,90628734,1572,1573,1583,1583
57628606,1000,1000,1000,1000,90728694,1575,1574,1583,1583
57631105,1000,1000,1000,1000,90828654,1575,1575,1581,1581
57633604,1000,1000,1000,1000,90928614,1577,1576,1580,1581
57636103,1000,1000,1000,1000,91028574,1579,1578,1580,1580
57638602,1000,1000,1000,1000,91128534,1581,1580,1580,1580
57641101,1000,1000,1000,1000,91228494,1580,1581,1578,1578
57643600,1000,1000,1000,1000,91328454,1580,1580,1577,1577
57646099,1000,1000,1000,1000,91428414,1581,1581,1578,1577
57648598,1000,1000,1000,1000,91528374,1582,1581,1578,1578
57651097,1000,1000,1000,1000,91628334,1581,1581,1578,1578
57653596,1000,1000,1000,1000,91728294,1581,1581,1579,1579
57656095,1000,1000,1000,1000,91828254,1581,1581,1579,1580
57658594,1000,1000,1000,1000,91928214,1580,1580,1579,1579
57661093,1000,1000,1000,1000,92028174,1579,1580,1580,1580
57663592,1000,1000,1000,1000,92128967,1579,1579,1580,1580
57666091,1000,1000,1000,1000,92228927,1579,1580,1581,1581
57668590,1000,1000,1000,1000,92328887,1579,1579,1580,1581
57671089,1000,1000,1000,1000,92428847,1578,1578,1579,1580
57673588,1000,1000,1000,1000,92528807,1579,1579,1580,1580
57676087,1000,1000,1000,1000,92628767,1580,1579,1581,1580
57678586,1000,1000,1000,1000,92728727,1580,1579,1580,1580
57681085,1000,1000,1000,1000,92828687,1581,1581,1581,1581
57683584,1000,1000,1000,1000,92928647,1580,1581,1581,1580
57686083,1000,1000,1000,1000,93028607,1581,1581,1581,1581
57688582,1000,1000,1000,1000,93128567,1581,1581,1580,1581
57691081,1000,1000,1000,1000,93228527,1582,1582,1585,1577
57693580,1000,1000,1000,1000,93328487,1582,1583,1588,1574
57696079,1000,1000,1000,1000,93428447,1579,1580,1581,1574
57698578,1000,1000,1000,1000,93528407,1577,1577,1574,1575
57701077,1000,1000,1000,1000,93628367,1574,1574,1569,1575
57703576,1000,1000,1000,1000,93728327,1572,1571,1567,1573
57706075,1000,1000,1000,1000,93828287,1570,1569,1566,1571
57708574,1000,1000,1000,1000,93928247,1568,1568,1567,1569
57711073,1000,1000,1000,1000,94028207,1566,1566,1567,1566
57713572,1000,1000,1000,1000,94128167,1565,1566,1567,1566
57716071,1000,1000,1000,1000,94228960,1565,1565,1568,1565
57718570,1000,1000,1000,1000,94328920,1565,1564,1566,1565
57721069,1000,1000,1000,1000,94428880,1564,1564,1565,1565
57723568,1000,1000,1000,1000,94528840,1564,1564,1564,1565
57726067,1000,1000,1000,1000,94628800,1562,1562,1562,1563
57728566,1000,1000,1000,1000,94728760,1562,1562,1562,1562
57731065,1000,1000,1000,1000,94828720,1562,1561,1561,1562
57733564,1000,1000,1000,1000,94928680,1561,1561,1561,1560
57736063,1000,1000,1000,1000,95028640,1561,1561,1562,1560
57738562,1000,1000,1000,1000,95128600,1559,1559,1559,1558
57741061,1000,1000,1000,1000,95228560,1558,1558,1558,1557
57743560,1000,1000,1000,1000,95328520,1558,1558,1558,1557
57746059,1000,1000,1000,1000,95428480,1557,1557,1557,1556
57748558,1000,1000,1000,1000,95528440,1556,1556,1556,1556
57751057,1000,1000,1000,1000,95628400,1557,1557,1557,1556
57753556,1000,1000,1000,1000,95728360,1556,1557,1557,1556
57756055,1000,1000,1000,1000,95828320,1557,1557,1558,1556
57758554,1000,1000,1000,1000,95928280,1557,1557,1559,1556
57761053,1000,1000,1000,1000,96028240,1558,1558,1559,1557
57763552,1000,1000,1000,1000,96128200,1559,1559,1557,1560
57766051,1000,1000,1000,1000,96228160,1559,1560,1556,1562
57768550,1000,1000,1000,1000,96328953,1561,1561,1557,1564
57771049,1000,1000,1000,1000,96428913,1563,1563,1561,1565
57773548,1000,1000,1000,1000,96528873,1563,1563,1562,1564
57776047,1000,1000,1000,1000,96628833,1562,1562,1563,1562
57778546,1000,1000,1000,1000,96728793,1562,1562,1564,1560
57781045,1000,1000,1000,1000,96828753,1561,1561,1562,1561
57783544,1000,1000,1000,1000,96928713,1558,1558,1555,1560
57786043,1000,1000,1000,1000,97028673,1554,1554,1552,1556
57788542,1000,1000,1000,1000,97128633,1549,1550,1548,1551
57791041,1000,1000,1000,1000,97228593,1543,1544,1543,1544
57793540,1000,1000,1000,1000,97328553,1536,1536,1536,1536
57796039,1000,1000,1000,1000,97428513,1528,1528,1529,1528
57798538,1000,1000,1000,1000,97528473,1522,1521,1522,1521
57801037,1000,1000,1000,1000,97628433,1519,1519,1520,1518
57803536,1000,1000,1000,1000,97728393,1520,1518,1519,1518
57806035,1000,1000,1000,1000,97828353,1521,1520,1521,1521
57808534,1000,1000,1000,1000,97928313,1524,1524,1523,1524
57811033,1000,1000,1000,1000,98028273,1528,1528,1527,1528
57813532,1000,1000,1000,1000,98128233,1532,1532,1532,1532
57816031,1000,1000,1000,1000,98228193,1537,1537,1537,1537
57818530,1000,1000,1000,1000,98328986,1540,1541,1540,1541
57821029,1000,1000,1000,1000,98428946,1542,1542,1542,1543
57823528,1000,1000,1000,1000,98528906,1543,1543,1543,1543
57826027,1000,1000,1000,1000,98628866,1545,1545,1545,1545
57828526,1000,1000,1000,1000,98728826,1545,1545,1545,1545
57831025,1000,1000,1000,1000,98828786,1546,1546,1546,1546
57833524,1000,1000,1000,1000,98928746,1546,1546,1546,1545
57836023,1000,1000,1000,1000,99028706,1546,1545,1546,1545
57838522,1000,1000,1000,1000,99128666,1546,1546,1546,1546
57841021,1000,1000,1000,1000,99228626,1545,1545,1545,1545
57843520,1000,1000,1000,1000,99328586,1545,1544,1545,1545
57846019,1000,1000,1000,1000,99428546,1545,1545,1545,1545
57848518,1000,1000,1000,1000,99528506,1545,1545,1545,1545
57851017,1000,1000,1000,1000,99628466,1544,1544,1544,1544
57853516,1000,1000,1000,1000,99728426,1544,1545,1544,1544
57856015,1000,1000,1000,1000,99828386,1545,1545,1545,1544
57858514,1000,1000,1000,1000,99928346,1544,1544,1543,1544
57861013,1000,1000,1000,1000,100028306,1544,1544,1544,1544
57863512,1000,1000,1000,1000,100128266,1544,1544,1544,1544
57866011,1000,1000,1000,1000,100228226,1543,1543,1544,1543
57868510,1000,1000,1000,1000,100328186,1544,1544,1544,1544
57871009,1000,1000,1000,1000,100428979,1545,1545,1545,1544
57873508,1000,1000,1000,1000,100528939,1544,1544,1544,1544
57876007,1000,1000,1000,1000,100628899,1543,1544,1543,1544
57878506,1000,1000,1000,1000,100728859,1545,1544,1544,1545
57881005,1000,1000,1000,1000,100828819,1544,1544,1544,1544
57883504,1000,1000,1000,1000,100928779,1543,1544,1543,1544
57886003,1000,1000,1000,1000,101028739,1544,1544,1544,1543
57888502,1000,1000,1000,1000,101128699,1544,1543,1544,1543
57891001,1000,1000,1000,1000,101228659,1544,1544,1543,1544
57893500,1000,1000,1000,1000,101328619,1543,1544,1544,1543
57895999,1000,1000,1000,1000,101428579,1543,1543,1544,1543
57898498,1000,1000,1000,1000,101528539,1545,1544,1543,1544
57900997,1000,1000,1000,1000,101628499,1544,1544,1544,1544
57903496,1000,1000,1000,1000,101728459,1544,1544,1544,1544
57905995,1000,1000,1000,1000,101828419,1544,1544,1544,1544
57908494,1000,1000,1000,1000,101928379,1544,1545,1545,1545
57910993,1000,1000,1000,1000,102028339,1544,1545,1545,1545
57913492,1000,1000,1000,1000,102128299,1544,1544,1544,1544
57915991,1000,1000,1000,1000,102228259,1545,1545,1545,1545
57918490,1000,1000,1000,1000,102328219,1545,1544,1544,1544
57920989,1000,1000,1000,1000,102428179,1544,1544,1544,1544
57923488,1000,1000,1000,1000,102528972,1544,1544,1544,1544
57925987,1000,1000,1000,1000,102628932,1544,1545,1545,1544
57928486,1000,1000,1000,1000,102728892,1544,1543,1543,1544
57930985,1000,1000,1000,1000,102828852,1544,1544,1544,1544
57933484,1000,1000,1000,1000,102928812,1545,1545,1545,1545
57935983,1000,1000,1000,1000,103028772,1545,1545,1545,1545
57938482,1000,1000,1000,1000,103128732,1544,1545,1544,1544
57940981,1000,1000,1000,1000,103228692,1544,1545,1545,1544
57943480,1000,1000,1000,1000,103328652,1544,1544,1544,1544
57945979,1000,1000,1000,1000,103428612,1544,1544,1544,1544
57948478,1000,1000,1000,1000,103528572,1544,1544,1544,1544
57950977,1000,1000,1000,1000,103628532,1544,1544,1544,1544
57953476,1000,1000,1000,1000,103728492,1544,1544,1544,1544
57955975,1000,1000,1000,1000,103828452,1545,1545,1546,1545
57958474,1000,1000,1000,1000,103928412,1545,1545,1545,1545
57960973,1000,1000,1000,1000,104028372,1545,1545,1545,1545
57963472,1000,1000,1000,1000,104128332,1544,1544,1544,1544
57965971,1000,1000,1000,1000,104228292,1545,1544,1544,1544
57968470,1000,1000,1000,1000,104328252,1544,1544,1544,1544
57970969,1000,1000,1000,1000,104428212,1544,1544,1544,1544
57973468,1000,1000,1000,1000,104528172,1544,1544,1544,1545
57975967,1000,1000,1000,1000,104628965,1544,1544,1544,1544
57978466,1000,1000,1000,1000,104728925,1544,1544,1544,1544
57980965,1000,1000,1000,1000,104828885,1543,1543,1543,1543
57983464,1000,1000,1000,1000,104928845,1543,1543,1543,1543
57985963,1000,1000,1000,1000,105028805,1543,1543,1544,1543
57988462,1000,1000,1000,1000,105128765,1544,1543,1543,1544
57990961,1000,1000,1000,1000,105228725,1544,1545,1545,1544
57993460,1000,1000,1000,1000,105328685,1545,1544,1544,1545
57995959,1000,1000,1000,1000,105428645,1545,1545,1545,1545
57998458,1000,1000,1000,1000,105528605,1544,1544,1544,1544
58000957,1000,1000,1000,1000,105628565,1544,1544,1544,1544
58003456,1000,1000,1000,1000,105728525,1543,1544,1543,1544
58005955,1000,1000,1000,1000,105828485,1545,1544,1545,1544
58008454,1000,1000,1000,1000,105928445,1546,1545,1545,1546
58010953,1000,1000,1000,1000,106028405,1545,1545,1545,1545
58013452,1000,1000,1000,1000,106128365,1546,1545,1545,1546
58015951,1000,1000,1000,1000,106228325,1544,1545,1544,1545
58018450,1000,1000,1000,1000,106328285,1545,1544,1545,1545
58020949,1000,1000,1000,1000,106428245,1545,1545,1546,1545
58023448,1000,1000,1000,1000,106528205,1545,1544,1544,1545
58025947,1000,1000,1000,1000,106628165,1545,1544,1544,1545
58028446,1000,1000,1000,1000,106728958,1544,1544,1544,1544
58030945,1000,1000,1000,1000,106828918,1545,1545,1545,1545
58033444,1000,1000,1000,1000,106928878,1545,1544,1545,1544
58035943,1000,1000,1000,1000,107028838,1544,1545,1545,1545
58038442,1000,1000,1000,1000,107128798,1544,1544,1544,1544
58040941,1000,1000,1000,1000,107228758,1544,1545,1545,1544
58043440,1000,1000,1000,1000,107328718,1360,1403,1359,1404
58045939,1000,1000,1000,1000,107428678,1303,1364,1302,1365
58048438,1000,1000,1000,1000,107528638,1304,1364,1302,1366
58050937,1000,1000,1000,1000,107628598,1303,1364,1302,1365
58053436,1000,1000,1000,1000,107728558,1304,1330,1302,1332
58055935,1000,1000,1000,1000,107828518,1303,1303,1302,1305
58058434,1000,1000,1000,1000,107928478,1305,1302,1302,1305
58060933,1000,1000,1000,1000,108028438,1321,1290,1302,1305
58063432,1000,1000,1000,1000,108128398,1315,1294,1302,1305
58065931,1000,1000,1000,1000,108228358,1314,1295,1302,1305
58068430,1000,1000,1000,1000,108328318,1314,1295,1302,1305
58070929,1000,1000,1000,1000,108428278,1315,1294,1302,1305
58073428,1000,1000,1000,1000,108528238,1316,1294,1302,1305
58075927,1000,1000,1000,1000,108628198,1316,1293,1302,1305
58078426,1000,1000,1000,1000,108728158,1303,1303,1302,1305
58080925,1000,1000,1000,1000,108828951,1307,1300,1302,1305
58083424,1000,1000,1000,1000,108928911,1308,1299,1302,1305
58085923,1000,1000,1000,1000,109028871,1309,1299,1302,1305
58088422,1000,1000,1000,1000,109128831,1309,1299,1302,1305
58090921,1000,1000,1000,1000,109228791,1302,1150,1302,1150
58093420,1000,1000,1000,1000,109328751,1000,1000,1000,1000
58095919,1000,1000,1000,1000,109428711,1000,1000,1000,1000
58098418,1000,1000,1000,1000,109528671,1000,1000,1000,1000
58100917,1000,1000,1000,1000,109628631,1000,1000,1000,1000
58103416,1000,1000,1000,1000,109728591,1000,1000,1000,1000
58105915,1000,1000,1000,1000,109828551,1000,1000,1000,1000
58108414,1000,1000,1000,1000,109928511,1000,1000,1000,1000
58110913,1000,1000,1000,1000,110028471,1000,1000,1000,1000
58113412,1000,1000,1000,1000,110128431,1000,1000,1000,1000
58115911,1000,1000,1000,1000,110228391,1000,1000,1000,1000
58118410,1000,1000,1000,1000,110328351,1000,1000,1000,1000
58120909,1000,1000,1000,1000,110428311,1000,1000,1000,1000
58123408,1000,1000,1000,1000,110528271,1000,1000,1000,1000
58125907,1000,1000,1000,1000,110628231,1000,1000,1000,1000
58128406,1000,1000,1000,1000,110728191,1000,1000,1000,1000
58130905,1000,1000,1000,1000,110828984,1000,1000,1000,1000
58133404,1000,1000,1000,1000,110928944,1000,1000,1000,1000
58135903,1000,1000,1000,1000,111028904,1000,1000,1000,1000
58138402,1000,1000,1000,1000,111128864,1000,1000,1000,1000
58140901,1000,1000,1000,1000,111228824,1000,1000,1000,1000
58143400,1000,1000,1000,1000,111328784,1000,1000,1000,1000
58145899,1000,1000,1000,1000,111428744,1000,1000,1000,1000
58148398,1000,1000,1000,1000,111528704,1000,1000,1000,1000
58150897,1000,1000,1000,1000,111628664,1000,1000,1000,1000
58153396,1000,1000,1000,1000,111728624,1000,1000,1000,1000
58155895,1000,1000,1000,1000,111828584,1000,1000,1000,1000
58158394,1000,1000,1000,1000,111928544,1000,1000,1000,1000
58160893,1000,1000,1000,1000,112028504,1000,1000,1000,1000
58163392,1000,1000,1000,1000,112128464,1000,1000,1000,1000
58165891,1000,1000,1000,1000,112228424,1000,1000,1000,1000
58168390,1000,1000,1000,1000,112328384,1000,1000,1000,1000
58170889,1000,1000,1000,1000,112428344,1000,1000,1000,1000
58173388,1000,1000,1000,1000,112528304,1000,1000,1000,1000
58175887,1000,1000,1000,1000,112628264,1000,1000,1000,1000
58178386,1000,1000,1000,1000,112728224,1000,1000,1000,1000
58180885,1000,1000,1000,1000,112828184,1000,1000,1000,1000
58183384,1000,1000,1000,1000,112928977,1000,1000,1000,1000
58185883,1000,1000,1000,1000,113028937,1000,1000,1000,1000
58188382,1000,1000,1000,1000,113128897,1000,1000,1000,1000
58190881,1000,1000,1000,1000,113228857,1000,1000,1000,1000
58193380,1000,1000,1000,1000,113328817,1000,1000,1000,1000
58195879,1000,1000,1000,1000,113428777,1000,1000,1000,1000
58198378,1000,1000,1000,1000,113528737,1000,1000,1000,1000
58200877,1000,1000,1000,1000,113628697,1000,1000,1000,1000
58203376,1000,1000,1000,1000,113728657,1000,1000,1000,1000
58205875,1000,1000,1000,1000,113828617,1000,1000,1000,1000
58208374,1000,1000,1000,1000,113928577,1000,1000,1000,1000
58210873,1000,1000,1000,1000,114028537,1000,1000,1000,1000
58213372,1000,1000,1000,1000,114128497,1000,1000,1000,1000
58215871,1000,1000,1000,1000,114228457,1000,1000,1000,1000
58218370,1000,1000,1000,1000,114328417,1000,1000,1000,1000
58220869,1000,1000,1000,1000,114428377,1000,1000,1000,1000
58223368,1000,1000,1000,1000,114528337,1000,1000,1000,1000
58225867,1000,1000,1000,1000,114628297,1000,1000,1000,1000
58228366,1000,1000,1000,1000,114728257,1000,1000,1000,1000
58230865,1000,1000,1000,1000,114828217,1000,1000,1000,1000
58233364,1000,1000,1000,1000,114928177,1000,1000,1000,1000
58235863,1000,1000,1000,1000,115028970,1000,1000,1000,1000
58238362,1000,1000,1000,1000,115128930,1000,1000,1000,1000
58240861,1000,1000,1000,1000,115228890,1000,1000,1000,1000
58243360,1000,1000,1000,1000,115328850,1000,1000,1000,1000
58245859,1000,1000,1000,1000,115428810,1000,1000,1000,1000
58248358,1000,1000,1000,1000,115528770,1000,1000,1000,1000
58250857,1000,1000,1000,1000,115628730,1000,1000,1000,1000
58253356,1000,1000,1000,1000,115728690,1000,1000,1000,1000
58255855,1000,1000,1000,1000,115828650,1000,1000,1000,1000
58258354,1000,1000,1000,1000,115928610,1000,1000,1000,1000
58260853,1000,1000,1000,1000,116028570,1000,1000,1000,1000
58263352,1000,1000,1000,1000,116128530,1000,1000,1000,1000
58265851,1000,1000,1000,1000,116228490,1000,1000,1000,1000
58268350,1000,1000,1000,1000,116328450,1000,1000,1000,1000
58270849,1000,1000,1000,1000,116428410,1000,1000,1000,1000
58273348,1000,1000,1000,1000,116528370,1000,1000,1000,1000
58275847,1000,1000,1000,1000,116628330,1000,1000,1000,1000
58278346,1000,1000,1000,1000,116728290,1000,1000,1000,1000
58280845,1000,1000,1000,1000,116828250,1000,1000,1000,1000
58283344,1000,1000,1000,1000,116928210,1000,1000,1000,1000
58285843,1000,1000,1000,1000,117028170,1000,1000,1000,1000
58288342,1000,1000,1000,1000,117128963,1000,1000,1000,1000
58290841,1000,1000,1000,1000,117228923,1000,1000,1000,1000
58293340,1000,1000,1000,1000,117328883,1000,1000,1000,1000
58295839,1000,1000,1000,1000,117428843,1000,1000,1000,1000
58298338,1000,1000,1000,1000,117528803,1000,1000,1000,1000
58300837,1000,1000,1000,1000,117628763,1000,1000,1000,1000
58303336,1000,1000,1000,1000,,,,,
58305835,1000,1000,1000,1000,,,,,
58308334,1000,1000,1000,1000,,,,,
58310833,1000,1000,1000,1000,,,,,
58313332,1000,1000,1000,1000,,,,,
58315831,1000,1000,1000,1000,,,,,
58318330,1000,1000,1000,1000,,,,,
58320829,1000,1000,1000,1000,,,,,
58323328,1000,1000,1000,1000,,,,,
58325827,1000,1000,1000,1000,,,,,
58328326,1000,1000,1000,1000,,,,,
58330825,1000,1000,1000,1000,,,,,
58333324,1000,1000,1000,1000,,,,,
58335823,1000,1000,1000,1000,,,,,
58338322,1000,1000,1000,1000,,,,,
58340821,1000,1000,1000,1000,,,,,
58343320,1000,1000,1000,1000,,,,,
58345819,1000,1000,1000,1000,,,,,
58348318,1000,1000,1000,1000,,,,,
58350817,1000,1000,1000,1000,,,,,
58353316,1000,1000,1000,1000,,,,,
58355815,1000,1000,1000,1000,,,,,
58358314,1000,1000,1000,1000,,,,,
58360813,1000,1000,1000,1000,,,,,
58363312,1000,1000,1000,1000,,,,,
58365811,1000,1000,1000,1000,,,,,
58368310,1000,1000,1000,1000,,,,,
58370809,1000,1000,1000,1000,,,,,
58373308,1000,1000,1000,1000,,,,,
58375807,1000,1000,1000,1000,,,,,
58378306,1000,1000,1000,1000,,,,,
58380805,1000,1000,1000,1000,,,,,
58383304,1000,1000,1000,1000,,,,,
58385803,1000,1000,1000,1000,,,,,
58388302,1000,1000,1000,1000,,,,,
58390801,1000,1000,1000,1000,,,,,
58393300,1000,1000,1000,1000,,,,,
58395799,1000,1000,1000,1000,,,,,
58398298,1000,1000,1000,1000,,,,,
58400797,1000,1000,1000,1000,,,,,
58403296,1000,1000,1000,1000,,,,,
58405795,1000,1000,1000,1000,,,,,
58408294,1000,1000,1000,1000,,,,,
58410793,1000,1000,1000,1000,,,,,
58413292,1000,1000,1000,1000,,,,,
58415791,1000,1000,1000,1000,,,,,
58418290,1000,1000,1000,1000,,,,,
58420789,1000,1000,1000,1000,,,,,
58423288,1000,1000,1000,1000,,,,,
58425787,1000,1000,1000,1000,,,,,
58428286,1000,1000,1000,1000,,,,,
58430785,1000,1000,1000,1000,,,,,
58433284,1000,1000,1000,1000,,,,,
58435783,1000,1000,1000,1000,,,,,
58438282,1000,1000,1000,1000,,,,,
58440781,1000,1000,1000,1000,,,,,
58443280,1000,1000,1000,1000,,,,,
58445779,1000,1000,1000,1000,,,,,
58448278,1000,1000,1000,1000,,,,,
58450777,1000,1000,1000,1000,,,,,
58453276,1000,1000,1000,1000,,,,,
58455775,1000,1000,1000,1000,,,,,
58458274,1000,1000,1000,1000,,,,,
58460773,1000,1000,1000,1000,,,,,
58463272,1000,1000,1000,1000,,,,,
58465771,1000,1000,1000,1000,,,,,
58468270,1000,1000,1000,1000,,,,,
58470769,1000,1000,1000,1000,,,,,
58473268,1000,1000,1000,1000,,,,,
58475767,1000,1000,1000,1000,,,,,
58478266,1000,1000,1000,1000,,,,,
58480765,1000,1000,1000,1000,,,,,
58483264,1000,1000,1000,1000,,,,,
58485763,1000,1000,1000,1000,,,,,
58488262,1000,1000,1000,1000,,,,,
58490761,1000,1000,1000,1000,,,,,
58493260,1000,1000,1000,1000,,,,,
58495759,1000,1000,1000,1000,,,,,
58498258,1000,1000,1000,1000,,,,,
58500757,1000,1000,1000,1000,,,,,
58503256,1000,1000,1000,1000,,,,,
58505755,1000,1000,1000,1000,,,,,
58508254,1000,1000,1000,1000,,,,,
58510753,1000,1000,1000,1000,,,,,
58513252,1000,1000,1000,1000,,,,,
58515751,1000,1000,1000,1000,,,,,
58518250,1000,1000,1000,1000,,,,,
58520749,1000,1000,1000,1000,,,,,
58523248,1000,1000,1000,1000,,,,,
58525747,1000,1000,1000,1000,,,,,
58528246,1000,1000,1000,1000,,,,,
58530745,1000,1000,1000,1000,,,,,
58533244,1000,1000,1000,1000,,,,,
58535743,1000,1000,1000,1000,,,,,
58538242,1000,1000,1000,1000,,,,,
58540741,1000,1000,1000,1000,,,,,
58543240,1000,1000,1000,1000,,,,,
58545739,1000,1000,1000,1000,,,,,
58548238,1000,1000,1000,1000,,,,,
58550737,1000,1000,1000,1000,,,,,
58553236,1000,1000,1000,1000,,,,,
58555735,1000,1000,1000,1000,,,,,
58558234,1000,1000,1000,1000,,,,,
58560733,1000,1000,1000,1000,,,,,
58563232,1000,1000,1000,1000,,,,,
58565731,1000,1000,1000,1000,,,,,
58568230,1000,1000,1000,1000,,,,,
58570729,1000,1000,1000,1000,,,,,
58573228,1000,1000,1000,1000,,,,,
58575727,1000,1000,1000,1000,,,,,
58578226,1000,1000,1000,1000,,,,,
58580725,1000,1000,1000,1000,,,,,
58583224,1000,1000,1000,1000,,,,,
58585723,1000,1000,1000,1000,,,,,
58588222,1000,1000,1000,1000,,,,,
58590721,1000,1000,1000,1000,,,,,
58593220,1000,1000,1000,1000,,,,,
58595719,1000,1000,1000,1000,,,,,
58598218,1000,1000,1000,1000,,,,,
58600717,1000,1000,1000,1000,,,,,
58603216,1000,1000,1000,1000,,,,,
58605715,1000,1000,1000,1000,,,,,
58608214,1000,1000,1000,1000,,,,,
58610713,1000,1000,1000,1000,,,,,
58613212,1000,1000,1000,1000,,,,,
58615711,1000,1000,1000,1000,,,,,
58618210,1000,1000,1000,1000,,,,,
58620709,1000,1000,1000,1000,,,,,
58623208,1000,1000,1000,1000,,,,,
58625707,1000,1000,1000,1000,,,,,
58628206,1000,1000,1000,1000,,,,,
58630705,1000,1000,1000,1000,,,,,
58633204,1000,1000,1000,1000,,,,,
58635703,1000,1000,1000,1000,,,,,
58638202,1000,1000,1000,1000,,,,,
58640701,1000,1000,1000,1000,,,,,
58643200,1000,1000,1000,1000,,,,,
58645699,1000,1000,1000,1000,,,,,
58648198,1000,1000,1000,1000,,,,,
58650697,1000,1000,1000,1000,,,,,
58653196,1000,1000,1000,1000,,,,,
58655695,1000,1000,1000,1000,,,,,
58658194,1000,1000,1000,1000,,,,,
58660693,1000,1000,1000,1000,,,,,
58663192,1000,1000,1000,1000,,,,,
58665691,1000,1000,1000,1000,,,,,
58668190,1000,1000,1000,1000,,,,,
58670689,1000,1000,1000,1000,,,,,
58673188,1000,1000,1000,1000,,,,,
58675687,1000,1000,1000,1000,,,,,
58678186,1000,1000,1000,1000,,,,,
58680685,1000,1000,1000,1000,,,,,
58683184,1000,1000,1000,1000,,,,,
58685683,1000,1000,1000,1000,,,,,
58688182,1000,1000,1000,1000,,,,,
58690681,1000,1000,1000,1000,,,,,
58693180,1000,1000,1000,1000,,,,,
58695679,1000,1000,1000,1000,,,,,
58698178,1000,1000,1000,1000,,,,,
58700677,1000,1000,1000,1000,,,,,
58703176,1000,1000,1000,1000,,,,,
58705675,1000,1000,1000,1000,,,,,
58708174,1000,1000,1000,1000,,,,,
58710673,1000,1000,1000,1000,,,,,
58713172,1000,1000,1000,1000,,,,,
58715671,1000,1000,1000,1000,,,,,
58718170,1000,1000,1000,1000,,,,,
58720669,1000,1000,1000,1000,,,,,
58723168,1000,1000,1000,1000,,,,,
58725667,1000,1000,1000,1000,,,,,
58728166,1000,1000,1000,1000,,,,,
58730665,1000,1000,1000,1000,,,,,
58733164,1000,1000,1000,1000,,,,,
58735663,1000,1000,1000,1000,,,,,
58738162,1000,1000,1000,1000,,,,,
58740661,1000,1000,1000,1000,,,,,
58743160,1000,1000,1000,1000,,,,,
58745659,1000,1000,1000,1000,,,,,
58748158,1000,1000,1000,1000,,,,,
58750657,1000,1000,1000,1000,,,,,
58753156,1000,1000,1000,1000,,,,,
58755655,1000,1000,1000,1000,,,,,
58758154,1000,1000,1000,1000,,,,,
58761486,1000,1000,1000,1000,,,,,
58763985,1000,1000,1000,1000,,,,,
58766484,1000,1000,1000,1000,,,,,
58768983,1000,1000,1000,1000,,,,,
58771482,1000,1000,1000,1000,,,,,
58773981,1000,1000,1000,1000,,,,,
58776480,1000,1000,1000,1000,,,,,
58778979,1000,1000,1000,1000,,,,,
58781478,1000,1000,1000,1000,,,,,
58783977,1000,1000,1000,1000,,,,,
58786476,1000,1000,1000,1000,,,,,
58788975,1001,1001,1001,1001,,,,,
58791474,1002,1002,1002,1002,,,,,
58793973,1003,1003,1003,1003,,,,,
58796472,1003,1003,1003,1003,,,,,
58798971,1004,1004,1004,1004,,,,,
58801470,1005,1005,1005,1005,,,,,
58803969,1006,1006,1006,1006,,,,,
58806468,1006,1006,1006,1006,,,,,
58808967,1007,1007,1007,1007,,,,,
58811466,1008,1008,1008,1008,,,,,
58813965,1009,1009,1009,1009,,,,,
58816464,1009,1009,1009,1009,,,,,
58818963,1010,1010,1010,1010,,,,,
58821462,1011,1011,1011,1011,,,,,
58823961,1012,1012,1012,1012,,,,,
58826460,1012,1012,1012,1012,,,,,
58828959,1013,1013,1013,1013,,,,,
58831458,1014,1014,1014,1014,,,,,
58833957,1015,1015,1015,1015,,,,,
58836456,1015,1015,1015,1015,,,,,
58838955,1016,1016,1016,1016,,,,,
58841454,1017,1017,1017,1017,,,,,
58843953,1018,1018,1018,1018,,,,,
58846452,1018,1018,1018,1018,,,,,
58848951,1019,1019,1019,1019,,,,,
58851450,1020,1020,1020,1020,,,,,
58853949,1021,1021,1021,1021,,,,,
58856448,1021,1021,1021,1021,,,,,
58858947,1022,1022,1022,1022,,,,,
58861446,1023,1023,1023,1023,,,,,
58863945,1024,1024,1024,1024,,,,,
58866444,1024,1024,1024,1024,,,,,
58868943,1025,1025,1025,1025,,,,,
58871442,1026,1026,1026,1026,,,,,
58873941,1027,1027,1027,1027,,,,,
58876440,1027,1027,1027,1027,,,,,
58878939,1028,1028,1028,1028,,,,,
58881438,1029,1029,1029,1029,,,,,
58883937,1030,1030,1030,1030,,,,,
58886436,1030,1030,1030,1030,,,,,
58888935,1031,1031,1031,1031,,,,,
58891434,1032,1032,1032,1032,,,,,
58893933,1033,1033,1033,1033,,,,,
58896432,1033,1033,1033,1033,,,,,
58898931,1034,1034,1034,1034,,,,,
58901430,1035,1035,1035,1035,,,,,
58903929,1036,1036,1036,1036,,,,,
58906428,1036,1036,1036,1036,,,,,
58908927,1037,1037,1037,1037,,,,,
58911426,1038,1038,1038,1038,,,,,
58913925,1039,1039,1039,1039,,,,,
58916424,1039,1039,1039,1039,,,,,
58918923,1040,1040,1040,1040,,,,,
58921422,1041,1041,1041,1041,,,,,
58923921,1042,1042,1042,1042,,,,,
58926420,1042,1042,1042,1042,,,,,
58928919,1043,1043,1043,1043,,,,,
58931418,1044,1044,1044,1044,,,,,
58933917,1045,1045,1045,1045,,,,,
58936416,1045,1045,1045,1045,,,,,
58938915,1046,1046,1046,1046,,,,,
58941414,1047,1047,1047,1047,,,,,
58943913,1048,1048,1048,1048,,,,,
58946412,1048,1048,1048,1048,,,,,
58948911,1049,1049,1049,1049,,,,,
58951410,1050,1050,1050,1050,,,,,
58953909,1051,1051,1051,1051,,,,,
58956408,1051,1051,1051,1051,,,,,
58958907,1052,1052,1052,1052,,,,,
58961406,1053,1053,1053,1053,,,,,
58963905,1054,1054,1054,1054,,,,,
58966404,1054,1054,1054,1054,,,,,
58968903,1055,1055,1055,1055,,,,,
58971402,1056,1056,1056,1056,,,,,
58973901,1057,1057,1057,1057,,,,,
58976400,1057,1057,1057,1057,,,,,
58978899,1058,1058,1058,1058,,,,,
58981398,1059,1059,1059,1059,,,,,
58983897,1060,1060,1060,1060,,,,,
58986396,1060,1060,1060,1060,,,,,
58988895,1061,1061,1061,1061,,,,,
58991394,1062,1062,1062,1062,,,,,
58993893,1063,1063,1063,1063,,,,,
58996392,1063,1063,1063,1063,,,,,
58998891,1064,1064,1064,1064,,,,,
59001390,1065,1065,1065,1065,,,,,
59003889,1066,1066,1066,1066,,,,,
59006388,1066,1066,1066,1066,,,,,
59008887,1067,1067,1067,1067,,,,,
59011386,1068,1068,1068,1068,,,,,
59013885,1069,1069,1069,1069,,,,,
59016384,1069,1069,1069,1069,,,,,
59018883,1070,1070,1070,1070,,,,,
59021382,1071,1071,1071,1071,,,,,
59023881,1072,1072,1072,1072,,,,,
59026380,1072,1072,1072,1072,,,,,
59028879,1073,1073,1073,1073,,,,,
59031378,1074,1074,1074,1074,,,,,
59033877,1075,1075,1075,1075,,,,,
59036376,1075,1075,1075,1075,,,,,
59038875,1076,1076,1076,1076,,,,,
59041374,1077,1077,1077,1077,,,,,
59043873,1078,1078,1078,1078,,,,,
59046372,1078,1078,1078,1078,,,,,
59048871,1079,1079,1079,1079,,,,,
59051370,1080,1080,1080,1080,,,,,
59053869,1081,1081,1081,1081,,,,,
59056368,1081,1081,1081,1081,,,,,
59058867,1082,1082,1082,1082,,,,,
59061366,1083,1083,1083,1083,,,,,
59063865,1084,1084,1084,1084,,,,,
59066364,1084,1084,1084,1084,,,,,
59068863,1085,1085,1085,1085,,,,,
59071362,1086,1086,1086,1086,,,,,
59073861,1087,1087,1087,1087,,,,,
59076360,1087,1087,1087,1087,,,,,
59078859,1088,1088,1088,1088,,,,,
59081358,1089,1089,1089,1089,,,,,
59083857,1090,1090,1090,1090,,,,,
59086356,1090,1090,1090,1090,,,,,
59088855,1091,1091,1091,1091,,,,,
59091354,1092,1092,1092,1092,,,,,
59093853,1093,1093,1093,1093,,,,,
59096352,1093,1093,1093,1093,,,,,
59098851,1094,1094,1094,1094,,,,,
59101350,1095,1095,1095,1095,,,,,
59103849,1096,1096,1096,1096,,,,,
59106348,1096,1096,1096,1096,,,,,
59108847,1097,1097,1097,1097,,,,,
59111346,1098,1098,1098,1098,,,,,
59113845,1099,1099,1099,1099,,,,,
59116344,1099,1099,1099,1099,,,,,
59118843,1100,1100,1100,1100,,,,,
59121342,1101,1101,1101,1101,,,,,
59123841,1101,1101,1101,1101,,,,,
59126340,1102,1102,1102,1102,,,,,
59128839,1103,1103,1103,1103,,,,,
59131338,1104,1104,1104,1104,,,,,
59133837,1104,1104,1104,1104,,,,,
59136336,1105,1105,1105,1105,,,,,
59138835,1106,1106,1106,1106,,,,,
59141334,1107,1107,1107,1107,,,,,
59143833,1107,1107,1107,1107,,,,,
59146332,1108,1108,1108,1108,,,,,
59148831,1109,1109,1109,1109,,,,,
59151330,1110,1110,1110,1110,,,,,
59153829,1110,1110,1110,1110,,,,,
59156328,1111,1111,1111,1111,,,,,
59158827,1112,1112,1112,1112,,,,,
59161326,1113,1113,1113,1113,,,,,
59163825,1113,1113,1113,1113,,,,,
59166324,1114,1114,1114,1114,,,,,
59168823,1115,1115,1115,1115,,,,,
59171322,1116,1116,1116,1116,,,,,
59173821,1116,1116,1116,1116,,,,,
59176320,1117,1117,1117,1117,,,,,
59178819,1118,1118,1118,1118,,,,,
59181318,1119,1119,1119,1119,,,,,
59183817,1119,1119,1119,1119,,,,,
59186316,1120,1120,1120,1120,,,,,
59188815,1121,1121,1121,1121,,,,,
59191314,1122,1122,1122,1122,,,,,
59193813,1122,1122,1122,1122,,,,,
59196312,1123,1123,1123,1123,,,,,
59198811,1124,1124,1124,1124,,,,,
59201310,1125,1125,1125,1125,,,,,
59203809,1125,1125,1125,1125,,,,,
59206308,1126,1126,1126,1126,,,,,
59208807,1127,1127,1127,1127,,,,,
59211306,1128,1128,1128,1128,,,,,
59213805,1128,1128,1128,1128,,,,,
59216304,1129,1129,1129,1129,,,,,
59218803,1130,1130,1130,1130,,,,,
59221302,1131,1131,1131,1131,,,,,
59223801,1131,1131,1131,1131,,,,,
59226300,1132,1132,1132,1132,,,,,
59228799,1133,1133,1133,1133,,,,,
59231298,1134,1134,1134,1134,,,,,
59233797,1134,1134,1134,1134,,,,,
59236296,1135,1135,1135,1135,,,,,
59238795,1136,1136,1136,1136,,,,,
59241294,1137,1137,1137,1137,,,,,
59243793,1137,1137,1137,1137,,,,,
59246292,1138,1138,1138,1138,,,,,
59248791,1139,1139,1139,1139,,,,,
59251290,1140,1140,1140,1140,,,,,
59253789,1140,1140,1140,1140,,,,,
59256288,1141,1141,1141,1141,,,,,
59258787,1142,1142,1142,1142,,,,,
59261286,1143,1143,1143,1143,,,,,
59263785,1143,1143,1143,1143,,,,,
59266284,1144,1144,1144,1144,,,,,
59268783,1145,1145,1145,1145,,,,,
59271282,1146,1146,1146,1146,,,,,
59273781,1146,1146,1146,1146,,,,,
59276280,1147,1147,1147,1147,,,,,
59278779,1148,1148,1148,1148,,,,,
59281278,1149,1149,1149,1149,,,,,
59283777,1149,1149,1149,1149,,,,,
59286276,1150,1150,1150,1150,,,,,
59288775,1162,1153,1154,1162,,,,,
59291274,1170,1161,1162,1170,,,,,
59293773,1178,1169,1170,1178,,,,,
59296272,1186,1177,1177,1186,,,,,
59298771,1193,1184,1185,1193,,,,,
59301270,1201,1192,1193,1201,,,,,
59303769,1208,1199,1200,1208,,,,,
59306268,1215,1206,1207,1215,,,,,
59308767,1222,1214,1215,1222,,,,,
59311266,1229,1221,1222,1229,,,,,
59313765,1236,1228,1229,1236,,,,,
59316264,1243,1235,1235,1243,,,,,
59318763,1250,1241,1242,1250,,,,,
59321262,1256,1248,1249,1256,,,,,
59323761,1263,1255,1256,1263,,,,,
59326260,1269,1261,1262,1269,,,,,
59328759,1276,1268,1268,1276,,,,,
59331258,1282,1274,1275,1282,,,,,
59333757,1288,1280,1281,1288,,,,,
59336256,1294,1286,1287,1294,,,,,
59338755,1300,1293,1293,1300,,,,,
59341254,1306,1299,1300,1306,,,,,
59343753,1312,1305,1306,1312,,,,,
59346252,1318,1311,1311,1318,,,,,
59348751,1324,1317,1317,1324,,,,,
59351250,1330,1322,1323,1330,,,,,
59353749,1335,1328,1329,1335,,,,,
59356248,1341,1334,1335,1341,,,,,
59358747,1347,1339,1340,1347,,,,,
59361246,1352,1345,1346,1352,,,,,
59363745,1358,1351,1351,1358,,,,,
59366244,1363,1356,1357,1363,,,,,
59368743,1368,1362,1362,1369,,,,,
59371242,1374,1367,1368,1374,,,,,
59373741,1379,1372,1373,1379,,,,,
59376240,1384,1378,1378,1384,,,,,
59378739,1389,1383,1384,1390,,,,,
59381238,1395,1388,1389,1395,,,,,
59383737,1400,1393,1394,1400,,,,,
59386236,1405,1398,1399,1405,,,,,
59388735,1410,1403,1404,1410,,,,,
59391234,1415,1409,1409,1415,,,,,
59393733,1420,1414,1414,1420,,,,,
59396232,1425,1419,1419,1425,,,,,
59398731,1430,1423,1424,1430,,,,,
59401230,1435,1428,1429,1435,,,,,
59403729,1439,1433,1434,1440,,,,,
59406228,1444,1438,1439,1444,,,,,
59408727,1449,1443,1444,1449,,,,,
59411226,1454,1448,1448,1454,,,,,
59413725,1458,1452,1453,1459,,,,,
59416224,1463,1457,1458,1463,,,,,
59418723,1468,1462,1462,1468,,,,,
59421222,1472,1466,1467,1473,,,,,
59423721,1477,1471,1472,1477,,,,,
59426220,1481,1476,1476,1482,,,,,
59428719,1486,1480,1481,1486,,,,,
59431218,1490,1485,1485,1491,,,,,
59433717,1495,1489,1490,1495,,,,,
59436216,1499,1494,1494,1500,,,,,
59438715,1504,1498,1499,1504,,,,,
59441214,1508,1502,1503,1508,,,,,
59443713,1513,1507,1507,1513,,,,,
59446212,1517,1511,1512,1517,,,,,
59448711,1521,1516,1516,1522,,,,,
59451210,1526,1520,1520,1526,,,,,
59453709,1530,1524,1525,1530,,,,,
59456208,1534,1528,1529,1534,,,,,
59458707,1538,1533,1533,1539,,,,,
59461206,1543,1537,1537,1543,,,,,
59463705,1547,1541,1542,1547,,,,,
59466204,1551,1545,1546,1551,,,,,
59468703,1555,1549,1550,1555,,,,,
59471202,1559,1553,1554,1559,,,,,
59473701,1563,1558,1558,1564,,,,,
59476200,1567,1562,1562,1568,,,,,
59478699,1572,1566,1566,1572,,,,,
59481198,1576,1570,1570,1576,,,,,
59483697,1580,1574,1574,1580,,,,,
59486196,1584,1578,1578,1584,,,,,
59488695,1588,1582,1582,1588,,,,,
59491194,1592,1586,1586,1592,,,,,
59493693,1596,1590,1590,1596,,,,,
59496192,1600,1593,1594,1600,,,,,
59498691,1603,1597,1598,1603,,,,,
59501190,1607,1601,1602,1607,,,,,
59503689,1611,1605,1606,1611,,,,,
59506188,1615,1609,1610,1615,,,,,
59508687,1619,1613,1613,1619,,,,,
59511186,1623,1617,1617,1623,,,,,
59513685,1627,1620,1621,1627,,,,,
59516184,1630,1624,1625,1630,,,,,
59518683,1634,1628,1629,1634,,,,,
59521182,1638,1632,1632,1638,,,,,
59523681,1642,1635,1636,1642,,,,,
59526180,1645,1639,1640,1645,,,,,
59528679,1649,1643,1644,1649,,,,,
59531178,1653,1647,1647,1653,,,,,
59533677,1656,1650,1651,1656,,,,,
59536176,1660,1654,1655,1660,,,,,
59538675,1664,1658,1658,1664,,,,,
59541174,1667,1661,1662,1667,,,,,
59543673,1671,1665,1666,1671,,,,,
59546172,1674,1669,1669,1674,,,,,
59548671,1678,1672,1673,1678,,,,,
59551170,1682,1676,1676,1682,,,,,
59553669,1685,1679,1680,1685,,,,,
59556168,1689,1683,1684,1689,,,,,
59558667,1692,1687,1687,1692,,,,,
59561166,1696,1690,1691,1696,,,,,
59563665,1699,1694,1694,1699,,,,,
59566164,1703,1697,1698,1703,,,,,
59568663,1706,1701,1701,1706,,,,,
59571162,1710,1704,1705,1710,,,,,
59573661,1713,1708,1708,1713,,,,,
59576160,1716,1711,1712,1716,,,,,
59578659,1720,1715,1715,1720,,,,,
59581158,1723,1718,1719,1723,,,,,
59583657,1727,1722,1722,1727,,,,,
59586156,1730,1725,1725,1730,,,,,
59588655,1733,1728,1729,1733,,,,,
59591154,1737,1732,1732,1737,,,,,
59593653,1740,1735,1736,1740,,,,,
59596152,1743,1738,1739,1743,,,,,
59598651,1747,1742,1742,1747,,,,,
59601150,1750,1745,1746,1750,,,,,
59603649,1753,1748,1749,1753,,,,,
59606148,1757,1752,1752,1757,,,,,
59608647,1760,1755,1756,1760,,,,,
59611146,1763,1758,1759,1763,,,,,
59613645,1767,1762,1762,1767,,,,,
59616144,1770,1765,1765,1770,,,,,
59618643,1773,1768,1769,1773,,,,,
59621142,1776,1771,1772,1776,,,,,
59623641,1780,1775,1775,1780,,,,,
59626140,1783,1778,1778,1783,,,,,
59628639,1786,1781,1782,1786,,,,,
59631138,1789,1784,1785,1789,,,,,
59633637,1792,1787,1788,1792,,,,,
59636136,1796,1791,1791,1796,,,,,
59638635,1799,1794,1794,1799,,,,,
59641134,1802,1797,1798,1802,,,,,
59643633,1805,1800,1801,1805,,,,,
59646132,1808,1803,1804,1808,,,,,
59648631,1811,1806,1807,1811,,,,,
59651130,1815,1810,1810,1814,,,,,
59653629,1818,1813,1813,1818,,,,,
59656128,1821,1816,1816,1821,,,,,
59658627,1824,1819,1819,1824,,,,,
59661126,1827,1822,1823,1827,,,,,
59663625,1830,1825,1826,1830,,,,,
59666124,1833,1828,1829,1833,,,,,
59668623,1836,1831,1832,1836,,,,,
59671122,1839,1834,1835,1839,,,,,
59673621,1842,1837,1838,1842,,,,,
59676120,1845,1840,1841,1845,,,,,
59678619,1848,1843,1844,1848,,,,,
59681118,1851,1846,1847,1851,,,,,
59683617,1854,1849,1850,1854,,,,,
59686116,1857,1852,1853,1857,,,,,
59688615,1860,1855,1856,1860,,,,,
59691114,1863,1858,1859,1863,,,,,
59693613,1866,1861,1862,1866,,,,,
59696112,1869,1864,1865,1869,,,,,
59698611,1872,1867,1868,1872,,,,,
59701110,1875,1870,1871,1875,,,,,
59703609,1878,1873,1874,1878,,,,,
59706108,1881,1876,1877,1881,,,,,
59708607,1884,1879,1880,1884,,,,,
59711106,1887,1882,1883,1887,,,,,
59713605,1890,1885,1885,1890,,,,,
59716104,1893,1888,1888,1893,,,,,
59718603,1896,1891,1891,1896,,,,,
59721102,1899,1894,1894,1899,,,,,
59723601,1901,1896,1897,1901,,,,,
59726100,1900,1895,1896,1900,,,,,
59728599,1899,1894,1895,1899,,,,,
59731098,1898,1893,1894,1898,,,,,
59733597,1897,1892,1893,1897,,,,,
59736096,1896,1891,1892,1896,,,,,
59738595,1895,1890,1891,1895,,,,,
59741094,1895,1890,1890,1895,,,,,
59743593,1894,1889,1890,1894,,,,,
59746092,1893,1888,1889,1893,,,,,
59748591,1893,1888,1888,1893,,,,,
59751090,1892,1887,1888,1892,,,,,
59753589,1892,1887,1887,1892,,,,,
59756088,1892,1886,1887,1892,,,,,
59758587,1891,1886,1887,1891,,,,,
59761086,1891,1886,1887,1891,,,,,
59763585,1891,1886,1887,1891,,,,,
59766084,1891,1886,1887,1891,,,,,
59768583,1891,1886,1887,1891,,,,,
59771082,1891,1886,1887,1891,,,,,
59773581,1892,1886,1887,1891,,,,,
59776080,1892,1887,1887,1892,,,,,
59778579,1892,1887,1888,1892,,,,,
59781078,1893,1887,1888,1892,,,,,
59783577,1893,1888,1889,1893,,,,,
59786076,1893,1888,1889,1893,,,,,
59788575,1893,1889,1889,1893,,,,,
59791074,1894,1889,1890,1893,,,,,
59793573,1894,1889,1890,1893,,,,,
59796072,1894,1889,1890,1893,,,,,
59798571,1893,1889,1890,1893,,,,,
59801070,1893,1889,1890,1893,,,,,
59803569,1892,1889,1889,1892,,,,,
59806068,1892,1888,1889,1892,,,,,
59808567,1891,1888,1888,1891,,,,,
59811066,1890,1887,1887,1890,,,,,
59813565,1889,1886,1886,1889,,,,,
59816064,1888,1884,1885,1888,,,,,
59818563,1886,1883,1884,1886,,,,,
59821062,1885,1881,1882,1885,,,,,
59823561,1883,1880,1880,1883,,,,,
59826060,1881,1878,1879,1881,,,,,
59828559,1879,1876,1877,1879,,,,,
59831058,1877,1874,1875,1877,,,,,
59833557,1875,1872,1872,1875,,,,,
59836056,1872,1869,1870,1872,,,,,
59838555,1870,1867,1868,1870,,,,,
59841054,1867,1865,1865,1867,,,,,
59843553,1865,1862,1863,1865,,,,,
59846052,1862,1859,1860,1862,,,,,
59848551,1859,1857,1857,1859,,,,,
59851050,1856,1854,1854,1856,,,,,
59853549,1853,1851,1851,1853,,,,,
59856048,1850,1848,1848,1850,,,,,
59858547,1847,1845,1845,1847,,,,,
59861046,1844,1842,1842,1844,,,,,
59863545,1841,1839,1839,1841,,,,,
59866044,1838,1836,1836,1838,,,,,
59868543,1835,1833,1833,1835,,,,,
59871042,1831,1829,1830,1832,,,,,
59873541,1828,1826,1826,1828,,,,,
59876040,1825,1823,1823,1825,,,,,
59878539,1821,1820,1820,1822,,,,,
59881038,1818,1817,1817,1819,,,,,
59883537,1815,1813,1813,1815,,,,,
59886036,1811,1810,1810,1812,,,,,
59888535,1808,1807,1807,1809,,,,,
59891034,1805,1803,1803,1805,,,,,
59893533,1801,1800,1800,1802,,,,,
59896032,1798,1797,1797,1799,,,,,
59898531,1795,1793,1793,1795,,,,,
59901030,1791,1790,1790,1792,,,,,
59903529,1788,1787,1787,1789,,,,,
59906028,1784,1783,1783,1785,,,,,
59908527,1781,1780,1780,1782,,,,,
59911026,1778,1777,1776,1778,,,,,
59913525,1774,1773,1773,1775,,,,,
59916024,1771,1770,1770,1772,,,,,
59918523,1768,1767,1767,1769,,,,,
59921022,1764,1764,1763,1765,,,,,
59923521,1761,1761,1760,1762,,,,,
59926020,1758,1757,1757,1759,,,,,
59928519,1755,1754,1754,1756,,,,,
59931018,1752,1751,1751,1753,,,,,
59933517,1749,1748,1748,1750,,,,,
59936016,1746,1745,1745,1746,,,,,
59938515,1743,1742,1742,1743,,,,,
59941014,1740,1739,1739,1740,,,,,
59943513,1737,1737,1736,1737,,,,,
59946012,1734,1734,1733,1735,,,,,
59948511,1731,1731,1731,1732,,,,,
59951010,1728,1728,1728,1729,,,,,
59953509,1725,1725,1725,1726,,,,,
59956008,1722,1723,1722,1723,,,,,
59958507,1719,1720,1720,1720,,,,,
59961006,1717,1717,1717,1718,,,,,
59963505,1714,1715,1715,1715,,,,,
59966004,1712,1712,1712,1712,,,,,
59968503,1709,1710,1709,1710,,,,,
59971002,1706,1707,1707,1707,,,,,
59973501,1704,1705,1705,1705,,,,,
59976000,1702,1703,1702,1702,,,,,
59978499,1699,1700,1700,1700,,,,,
59980998,1697,1698,1698,1698,,,,,
59983497,1694,1696,1695,1695,,,,,
59985996,1692,1694,1693,1693,,,,,
59988495,1690,1691,1691,1691,,,,,
59990994,1688,1689,1689,1689,,,,,
59993493,1686,1687,1687,1686,,,,,
59995992,1684,1685,1685,1684,,,,,
59998491,1681,1683,1683,1682,,,,,
60000990,1679,1681,1681,1680,,,,,
60003489,1677,1679,1679,1678,,,,,
60005988,1675,1677,1677,1676,,,,,
60008487,1674,1675,1675,1674,,,,,
60010986,1672,1674,1673,1673,,,,,
60013485,1670,1672,1672,1671,,,,,
60015984,1668,1670,1670,1669,,,,,
60018483,1666,1668,1668,1667,,,,,
60020982,1665,1667,1667,1666,,,,,
60023481,1663,1665,1665,1664,,,,,
60025980,1662,1664,1664,1662,,,,,
60028479,1660,1662,1662,1661,,,,,
60030978,1659,1661,1661,1659,,,,,
60033477,1657,1659,1659,1658,,,,,
60035976,1656,1658,1658,1656,,,,,
60038475,1654,1657,1656,1655,,,,,
60040974,1653,1655,1655,1654,,,,,
60043473,1652,1654,1654,1652,,,,,
60045972,1650,1653,1653,1651,,,,,
60048471,1649,1652,1651,1650,,,,,
60050970,1648,1650,1650,1649,,,,,
60053469,1647,1649,1649,1647,,,,,
60055968,1646,1648,1648,1646,,,,,
60058467,1645,1647,1647,1645,,,,,
60060966,1644,1646,1646,1644,,,,,
60063465,1643,1645,1645,1643,,,,,
60065964,1642,1644,1644,1642,,,,,
60068463,1641,1644,1644,1641,,,,,
60070962,1640,1643,1643,1641,,,,,
60073461,1639,1642,1642,1640,,,,,
60075960,1639,1641,1641,1639,,,,,
60078459,1638,1641,1641,1638,,,,,
60080958,1637,1640,1640,1638,,,,,
60083457,1637,1639,1639,1637,,,,,
60085956,1636,1639,1639,1637,,,,,
60088455,1636,1638,1638,1636,,,,,
60090954,1635,1637,1638,1635,,,,,
60093453,1635,1637,1637,1635,,,,,
60095952,1634,1636,1637,1634,,,,,
60098451,1634,1636,1636,1634,,,,,
