timestamp,TimeUS,C1,C2,C3,C4,C5,C6,C7,C8,C9,C10,C11,C12,C13,C14
1706427950.40000010,86028908,1000,1000,1000,1000,0,0,0,0,0,0,0,0,0,0
1706427950.49996018,86128868,1000,1000,1000,1000,0,0,0,0,0,0,0,0,0,0
1706427950.59992003,86228828,1000,1000,1000,1000,0,0,0,0,0,0,0,0,0,0
1706427950.69988012,86328788,1000,1000,1000,1000,0,0,0,0,0,0,0,0,0,0
1706427950.79983997,86428748,1000,1000,1000,1000,0,0,0,0,0,0,0,0,0,0
1706427950.89980006,86528708,1000,1000,1000,1000,0,0,0,0,0,0,0,0,0,0
1706427950.99976015,86628668,1000,1000,1000,1000,0,0,0,0,0,0,0,0,0,0
1706427951.09972000,86728628,1000,1000,1000,1000,0,0,0,0,0,0,0,0,0,0
1706427951.19968009,86828588,1000,1000,1000,1000,0,0,0,0,0,0,0,0,0,0
1706427951.29964018,86928548,1000,1000,1000,1000,0,0,0,0,0,0,0,0,0,0
1706427951.39960003,87028508,1000,1000,1000,1000,0,0,0,0,0,0,0,0,0,0
1706427951.49956012,87128468,1000,1000,1000,1000,0,0,0,0,0,0,0,0,0,0
1706427951.59951997,87228428,1000,1000,1000,1000,0,0,0,0,0,0,0,0,0,0
1706427951.69948006,87328388,1000,1000,1000,1000,0,0,0,0,0,0,0,0,0,0
1706427951.79944015,87428348,1000,1000,1000,1000,0,0,0,0,0,0,0,0,0,0
1706427951.89940000,87528308,1000,1000,1000,1000,0,0,0,0,0,0,0,0,0,0
1706427951.99936008,87628268,1000,1000,1000,1000,0,0,0,0,0,0,0,0,0,0
1706427952.09932017,87728228,1000,1000,1000,1000,0,0,0,0,0,0,0,0,0,0
1706427952.19928002,87828188,1000,1000,1000,1000,0,0,0,0,0,0,0,0,0,0
1706427952.30007315,87928981,1000,1000,1000,1000,0,0,0,0,0,0,0,0,0,0
1706427952.40003300,88028941,1027,1027,1027,1027,0,0,0,0,0,0,0,0,0,0
1706427952.49999309,88128901,1057,1057,1057,1057,0,0,0,0,0,0,0,0,0,0
1706427952.59995317,88228861,1087,1087,1087,1087,0,0,0,0,0,0,0,0,0,0
1706427952.69991302,88328821,1117,1117,1117,1117,0,0,0,0,0,0,0,0,0,0
1706427952.79987311,88428781,1147,1147,1147,1147,0,0,0,0,0,0,0,0,0,0
1706427952.89983296,88528741,1386,1376,1376,1387,0,0,0,0,0,0,0,0,0,0
1706427952.99979305,88628701,1569,1560,1561,1569,0,0,0,0,0,0,0,0,0,0
1706427953.09975314,88728661,1718,1710,1710,1718,0,0,0,0,0,0,0,0,0,0
1706427953.19971299,88828621,1847,1839,1839,1847,0,0,0,0,0,0,0,0,0,0
1706427953.29967308,88928581,1879,1870,1871,1879,0,0,0,0,0,0,0,0,0,0
1706427953.39963317,89028541,1822,1819,1819,1822,0,0,0,0,0,0,0,0,0,0
1706427953.49959302,89128501,1697,1698,1698,1698,0,0,0,0,0,0,0,0,0,0
1706427953.59955311,89228461,1636,1639,1639,1636,0,0,0,0,0,0,0,0,0,0
1706427953.69951320,89328421,1630,1633,1634,1629,0,0,0,0,0,0,0,0,0,0
1706427953.79947305,89428381,1643,1646,1646,1643,0,0,0,0,0,0,0,0,0,0
1706427953.89943314,89528341,1649,1650,1650,1649,0,0,0,0,0,0,0,0,0,0
1706427953.99939299,89628301,1645,1644,1644,1645,0,0,0,0,0,0,0,0,0,0
1706427954.09935308,89728261,1637,1636,1635,1637,0,0,0,0,0,0,0,0,0,0
1706427954.19931316,89828221,1629,1628,1627,1630,0,0,0,0,0,0,0,0,0,0
1706427954.29927301,89928181,1626,1623,1623,1625,0,0,0,0,0,0,0,0,0,0
1706427954.40006614,90028974,1624,1623,1623,1623,0,0,0,0,0,0,0,0,0,0
1706427954.50002599,90128934,1623,1623,1623,1622,0,0,0,0,0,0,0,0,0,0
1706427954.59998608,90228894,1622,1622,1622,1622,0,0,0,0,0,0,0,0,0,0
1706427954.69994617,90328854,1623,1623,1623,1623,0,0,0,0,0,0,0,0,0,0
1706427954.79990602,90428814,1622,1623,1623,1622,0,0,0,0,0,0,0,0,0,0
1706427954.89986610,90528774,1623,1623,1623,1624,0,0,0,0,0,0,0,0,0,0
1706427954.99982619,90628734,1624,1625,1625,1625,0,0,0,0,0,0,0,0,0,0
1706427955.09978604,90728694,1625,1625,1625,1626,0,0,0,0,0,0,0,0,0,0
1706427955.19974613,90828654,1626,1626,1626,1627,0,0,0,0,0,0,0,0,0,0
1706427955.29970598,90928614,1628,1627,1627,1628,0,0,0,0,0,0,0,0,0,0
1706427955.39966607,91028574,1618,1621,1621,1618,0,0,0,0,0,0,0,0,0,0
1706427955.49962616,91128534,1596,1596,1596,1596,0,0,0,0,0,0,0,0,0,0
1706427955.59958601,91228494,1586,1585,1585,1586,0,0,0,0,0,0,0,0,0,0
1706427955.69954610,91328454,1575,1574,1574,1575,0,0,0,0,0,0,0,0,0,0
1706427955.79950619,91428414,1567,1567,1567,1567,0,0,0,0,0,0,0,0,0,0
1706427955.89946604,91528374,1560,1560,1560,1560,0,0,0,0,0,0,0,0,0,0
1706427955.99942613,91628334,1553,1554,1554,1554,0,0,0,0,0,0,0,0,0,0
1706427956.09938598,91728294,1548,1548,1548,1548,0,0,0,0,0,0,0,0,0,0
1706427956.19934607,91828254,1542,1543,1543,1542,0,0,0,0,0,0,0,0,0,0
1706427956.29930615,91928214,1539,1538,1538,1538,0,0,0,0,0,0,0,0,0,0
1706427956.39926600,92028174,1533,1533,1533,1533,0,0,0,0,0,0,0,0,0,0
1706427956.50005913,92128967,1530,1530,1530,1530,0,0,0,0,0,0,0,0,0,0
1706427956.60001898,92228927,1527,1527,1526,1527,0,0,0,0,0,0,0,0,0,0
1706427956.69997907,92328887,1524,1523,1523,1524,0,0,0,0,0,0,0,0,0,0
1706427956.79993916,92428847,1521,1521,1520,1522,0,0,0,0,0,0,0,0,0,0
1706427956.89989901,92528807,1519,1519,1518,1519,0,0,0,0,0,0,0,0,0,0
1706427956.99985909,92628767,1516,1516,1516,1516,0,0,0,0,0,0,0,0,0,0
1706427957.09981918,92728727,1513,1513,1513,1513,0,0,0,0,0,0,0,0,0,0
1706427957.19977903,92828687,1510,1510,1510,1510,0,0,0,0,0,0,0,0,0,0
1706427957.29973912,92928647,1507,1508,1507,1508,0,0,0,0,0,0,0,0,0,0
1706427957.39969897,93028607,1506,1506,1506,1505,0,0,0,0,0,0,0,0,0,0
1706427957.49965906,93128567,1503,1503,1503,1503,0,0,0,0,0,0,0,0,0,0
1706427957.59961915,93228527,1500,1501,1500,1501,0,0,0,0,0,0,0,0,0,0
1706427957.69957900,93328487,1498,1498,1497,1498,0,0,0,0,0,0,0,0,0,0
1706427957.79953909,93428447,1495,1496,1495,1496,0,0,0,0,0,0,0,0,0,0
1706427957.89949918,93528407,1493,1493,1493,1493,0,0,0,0,0,0,0,0,0,0
1706427957.99945903,93628367,1494,1494,1494,1493,0,0,0,0,0,0,0,0,0,0
1706427958.09941912,93728327,1497,1497,1497,1496,0,0,0,0,0,0,0,0,0,0
1706427958.19937897,93828287,1498,1498,1499,1498,0,0,0,0,0,0,0,0,0,0
1706427958.29933906,93928247,1500,1500,1501,1500,0,0,0,0,0,0,0,0,0,0
1706427958.39929914,94028207,1503,1503,1503,1502,0,0,0,0,0,0,0,0,0,0
1706427958.49925900,94128167,1504,1504,1505,1504,0,0,0,0,0,0,0,0,0,0
1706427958.60005212,94228960,1506,1506,1506,1506,0,0,0,0,0,0,0,0,0,0
1706427958.70001197,94328920,1508,1508,1508,1509,0,0,0,0,0,0,0,0,0,0
1706427958.79997206,94428880,1510,1510,1510,1510,0,0,0,0,0,0,0,0,0,0
1706427958.89993215,94528840,1536,1536,1536,1536,0,0,0,0,0,0,0,0,0,0
1706427958.99989200,94628800,1558,1558,1558,1558,0,0,0,0,0,0,0,0,0,0
1706427959.09985209,94728760,1569,1568,1567,1570,0,0,0,0,0,0,0,0,0,0
1706427959.19981217,94828720,1575,1576,1573,1578,0,0,0,0,0,0,0,0,0,0
1706427959.29977202,94928680,1580,1580,1577,1583,0,0,0,0,0,0,0,0,0,0
1706427959.39973211,95028640,1583,1583,1580,1585,0,0,0,0,0,0,0,0,0,0
1706427959.49969196,95128600,1585,1584,1583,1586,0,0,0,0,0,0,0,0,0,0
1706427959.59965205,95228560,1584,1584,1585,1583,0,0,0,0,0,0,0,0,0,0
1706427959.69961214,95328520,1583,1583,1585,1581,0,0,0,0,0,0,0,0,0,0
1706427959.79957199,95428480,1582,1582,1585,1579,0,0,0,0,0,0,0,0,0,0
1706427959.89953208,95528440,1580,1580,1582,1578,0,0,0,0,0,0,0,0,0,0
1706427959.99949217,95628400,1579,1579,1580,1578,0,0,0,0,0,0,0,0,0,0
1706427960.09945202,95728360,1577,1576,1577,1577,0,0,0,0,0,0,0,0,0,0
1706427960.19941211,95828320,1575,1575,1574,1576,0,0,0,0,0,0,0,0,0,0
1706427960.29937220,95928280,1573,1573,1571,1575,0,0,0,0,0,0,0,0,0,0
1706427960.39933205,96028240,1570,1571,1570,1573,0,0,0,0,0,0,0,0,0,0
1706427960.49929214,96128200,1569,1569,1571,1574,0,0,0,0,0,0,0,0,0,0
1706427960.59925199,96228160,1567,1568,1571,1572,0,0,0,0,0,0,0,0,0,0
1706427960.70004511,96328953,1568,1567,1572,1571,0,0,0,0,0,0,0,0,0,0
1706427960.80000520,96428913,1568,1568,1571,1570,0,0,0,0,0,0,0,0,0,0
1706427960.89996505,96528873,1568,1568,1570,1569,0,0,0,0,0,0,0,0,0,0
1706427960.99992514,96628833,1569,1569,1570,1569,0,0,0,0,0,0,0,0,0,0
1706427961.09988499,96728793,1570,1570,1570,1570,0,0,0,0,0,0,0,0,0,0
1706427961.19984508,96828753,1570,1571,1569,1569,0,0,0,0,0,0,0,0,0,0
1706427961.29980516,96928713,1572,1571,1569,1570,0,0,0,0,0,0,0,0,0,0
1706427961.39976501,97028673,1573,1573,1570,1571,0,0,0,0,0,0,0,0,0,0
1706427961.49972510,97128633,1573,1573,1571,1571,0,0,0,0,0,0,0,0,0,0
1706427961.59968519,97228593,1574,1574,1572,1572,0,0,0,0,0,0,0,0,0,0
1706427961.69964504,97328553,1574,1574,1573,1573,0,0,0,0,0,0,0,0,0,0
1706427961.79960513,97428513,1574,1574,1573,1572,0,0,0,0,0,0,0,0,0,0
1706427961.89956498,97528473,1575,1576,1575,1574,0,0,0,0,0,0,0,0,0,0
1706427961.99952507,97628433,1576,1576,1576,1575,0,0,0,0,0,0,0,0,0,0
1706427962.09948516,97728393,1575,1576,1576,1575,0,0,0,0,0,0,0,0,0,0
1706427962.19944501,97828353,1576,1575,1576,1575,0,0,0,0,0,0,0,0,0,0
1706427962.29940510,97928313,1576,1575,1576,1576,0,0,0,0,0,0,0,0,0,0
1706427962.39936519,98028273,1576,1576,1576,1577,0,0,0,0,0,0,0,0,0,0
1706427962.49932504,98128233,1576,1576,1576,1577,0,0,0,0,0,0,0,0,0,0
1706427962.59928513,98228193,1577,1578,1578,1578,0,0,0,0,0,0,0,0,0,0
1706427962.70007801,98328986,1577,1578,1578,1578,0,0,0,0,0,0,0,0,0,0
1706427962.80003810,98428946,1577,1577,1578,1577,0,0,0,0,0,0,0,0,0,0
1706427962.89999819,98528906,1578,1578,1578,1578,0,0,0,0,0,0,0,0,0,0
1706427962.99995804,98628866,1578,1578,1578,1578,0,0,0,0,0,0,0,0,0,0
1706427963.09991813,98728826,1578,1578,1578,1578,0,0,0,0,0,0,0,0,0,0
1706427963.19987798,98828786,1578,1578,1577,1578,0,0,0,0,0,0,0,0,0,0
1706427963.29983807,98928746,1579,1578,1578,1578,0,0,0,0,0,0,0,0,0,0
1706427963.39979815,99028706,1578,1578,1578,1577,0,0,0,0,0,0,0,0,0,0
1706427963.49975801,99128666,1578,1579,1578,1578,0,0,0,0,0,0,0,0,0,0
1706427963.59971809,99228626,1579,1579,1579,1579,0,0,0,0,0,0,0,0,0,0
1706427963.69967818,99328586,1580,1580,1580,1580,0,0,0,0,0,0,0,0,0,0
1706427963.79963803,99428546,1580,1579,1580,1580,0,0,0,0,0,0,0,0,0,0
1706427963.89959812,99528506,1580,1579,1579,1580,0,0,0,0,0,0,0,0,0,0
1706427963.99955797,99628466,1579,1580,1580,1580,0,0,0,0,0,0,0,0,0,0
1706427964.09951806,99728426,1579,1579,1580,1579,0,0,0,0,0,0,0,0,0,0
1706427964.19947815,99828386,1579,1579,1579,1579,0,0,0,0,0,0,0,0,0,0
1706427964.29943800,99928346,1579,1579,1580,1580,0,0,0,0,0,0,0,0,0,0
1706427964.39939809,100028306,1580,1580,1580,1580,0,0,0,0,0,0,0,0,0,0
1706427964.49935818,100128266,1580,1580,1580,1580,0,0,0,0,0,0,0,0,0,0
1706427964.59931803,100228226,1580,1580,1580,1580,0,0,0,0,0,0,0,0,0,0
1706427964.69927812,100328186,1580,1579,1580,1580,0,0,0,0,0,0,0,0,0,0
1706427964.80007100,100428979,1580,1580,1580,1580,0,0,0,0,0,0,0,0,0,0
1706427964.90003109,100528939,1580,1580,1580,1580,0,0,0,0,0,0,0,0,0,0
1706427964.99999118,100628899,1579,1579,1579,1579,0,0,0,0,0,0,0,0,0,0
1706427965.09995103,100728859,1580,1580,1581,1580,0,0,0,0,0,0,0,0,0,0
1706427965.19991112,100828819,1579,1579,1579,1580,0,0,0,0,0,0,0,0,0,0
1706427965.29987097,100928779,1580,1581,1581,1581,0,0,0,0,0,0,0,0,0,0
1706427965.39983106,101028739,1580,1580,1580,1580,0,0,0,0,0,0,0,0,0,0
1706427965.49979115,101128699,1580,1580,1580,1580,0,0,0,0,0,0,0,0,0,0
1706427965.59975100,101228659,1580,1580,1580,1580,0,0,0,0,0,0,0,0,0,0
1706427965.69971108,101328619,1580,1580,1580,1580,0,0,0,0,0,0,0,0,0,0
1706427965.79967117,101428579,1581,1580,1580,1580,0,0,0,0,0,0,0,0,0,0
1706427965.89963102,101528539,1581,1581,1581,1581,0,0,0,0,0,0,0,0,0,0
1706427965.99959111,101628499,1581,1581,1581,1581,0,0,0,0,0,0,0,0,0,0
1706427966.09955096,101728459,1581,1581,1581,1580,0,0,0,0,0,0,0,0,0,0
1706427966.19951105,101828419,1581,1581,1581,1581,0,0,0,0,0,0,0,0,0,0
1706427966.29947114,101928379,1582,1582,1582,1582,0,0,0,0,0,0,0,0,0,0
1706427966.39943099,102028339,1582,1582,1582,1582,0,0,0,0,0,0,0,0,0,0
1706427966.49939108,102128299,1581,1581,1582,1581,0,0,0,0,0,0,0,0,0,0
1706427966.59935117,102228259,1581,1582,1587,1576,0,0,0,0,0,0,0,0,0,0
1706427966.69931102,102328219,1581,1584,1588,1574,0,0,0,0,0,0,0,0,0,0
1706427966.79927111,102428179,1580,1583,1580,1574,0,0,0,0,0,0,0,0,0,0
1706427966.90006399,102528972,1578,1581,1571,1573,0,0,0,0,0,0,0,0,0,0
1706427967.00002408,102628932,1576,1578,1561,1568,0,0,0,0,0,0,0,0,0,0
1706427967.09998417,102728892,1578,1579,1558,1565,0,0,0,0,0,0,0,0,0,0
1706427967.19994402,102828852,1579,1579,1556,1561,0,0,0,0,0,0,0,0,0,0
1706427967.29990411,102928812,1580,1579,1555,1557,0,0,0,0,0,0,0,0,0,0
1706427967.39986420,103028772,1580,1579,1556,1554,0,0,0,0,0,0,0,0,0,0
1706427967.49982405,103128732,1580,1579,1556,1553,0,0,0,0,0,0,0,0,0,0
1706427967.59978414,103228692,1578,1578,1556,1553,0,0,0,0,0,0,0,0,0,0
1706427967.69974399,103328652,1577,1578,1555,1554,0,0,0,0,0,0,0,0,0,0
1706427967.79970407,103428612,1577,1578,1555,1555,0,0,0,0,0,0,0,0,0,0
1706427967.89966416,103528572,1576,1577,1553,1554,0,0,0,0,0,0,0,0,0,0
1706427967.99962401,103628532,1576,1578,1553,1552,0,0,0,0,0,0,0,0,0,0
1706427968.09958410,103728492,1577,1578,1551,1551,0,0,0,0,0,0,0,0,0,0
1706427968.19954419,103828452,1579,1580,1549,1549,0,0,0,0,0,0,0,0,0,0
1706427968.29950404,103928412,1581,1582,1546,1547,0,0,0,0,0,0,0,0,0,0
1706427968.39946413,104028372,1584,1585,1544,1544,0,0,0,0,0,0,0,0,0,0
1706427968.49942398,104128332,1586,1587,1540,1540,0,0,0,0,0,0,0,0,0,0
1706427968.59938407,104228292,1589,1590,1538,1537,0,0,0,0,0,0,0,0,0,0
1706427968.69934416,104328252,1592,1592,1536,1536,0,0,0,0,0,0,0,0,0,0
1706427968.79930401,104428212,1595,1595,1535,1536,0,0,0,0,0,0,0,0,0,0
1706427968.89926410,104528172,1595,1595,1535,1536,0,0,0,0,0,0,0,0,0,0
1706427969.00005698,104628965,1595,1594,1536,1538,0,0,0,0,0,0,0,0,0,0
1706427969.10001707,104728925,1593,1593,1540,1542,0,0,0,0,0,0,0,0,0,0
1706427969.19997716,104828885,1590,1589,1545,1548,0,0,0,0,0,0,0,0,0,0
1706427969.29993701,104928845,1584,1581,1552,1556,0,0,0,0,0,0,0,0,0,0
1706427969.39989710,105028805,1576,1573,1562,1565,0,0,0,0,0,0,0,0,0,0
1706427969.49985719,105128765,1566,1562,1575,1577,0,0,0,0,0,0,0,0,0,0
1706427969.59981704,105228725,1554,1551,1586,1587,0,0,0,0,0,0,0,0,0,0
1706427969.69977713,105328685,1544,1541,1598,1598,0,0,0,0,0,0,0,0,0,0
1706427969.79973698,105428645,1536,1535,1608,1607,0,0,0,0,0,0,0,0,0,0
1706427969.89969707,105528605,1531,1531,1614,1612,0,0,0,0,0,0,0,0,0,0
1706427969.99965715,105628565,1529,1531,1616,1615,0,0,0,0,0,0,0,0,0,0
1706427970.09961700,105728525,1531,1533,1614,1613,0,0,0,0,0,0,0,0,0,0
1706427970.19957709,105828485,1536,1538,1609,1609,0,0,0,0,0,0,0,0,0,0
1706427970.29953718,105928445,1543,1545,1603,1603,0,0,0,0,0,0,0,0,0,0
1706427970.39949703,106028405,1553,1554,1597,1597,0,0,0,0,0,0,0,0,0,0
1706427970.49945712,106128365,1562,1562,1589,1588,0,0,0,0,0,0,0,0,0,0
1706427970.59941697,106228325,1570,1569,1582,1581,0,0,0,0,0,0,0,0,0,0
1706427970.69937706,106328285,1577,1576,1575,1574,0,0,0,0,0,0,0,0,0,0
1706427970.79933715,106428245,1581,1581,1570,1569,0,0,0,0,0,0,0,0,0,0
1706427970.89929700,106528205,1585,1584,1567,1567,0,0,0,0,0,0,0,0,0,0
1706427970.99925709,106628165,1587,1587,1566,1566,0,0,0,0,0,0,0,0,0,0
1706427971.10004997,106728958,1587,1586,1566,1566,0,0,0,0,0,0,0,0,0,0
1706427971.20001006,106828918,1586,1584,1567,1568,0,0,0,0,0,0,0,0,0,0
1706427971.29997015,106928878,1584,1583,1570,1571,0,0,0,0,0,0,0,0,0,0
1706427971.39993000,107028838,1581,1581,1574,1573,0,0,0,0,0,0,0,0,0,0
1706427971.49989009,107128798,1578,1578,1576,1576,0,0,0,0,0,0,0,0,0,0
1706427971.59985018,107228758,1575,1576,1580,1579,0,0,0,0,0,0,0,0,0,0
1706427971.69981003,107328718,1573,1573,1581,1580,0,0,0,0,0,0,0,0,0,0
1706427971.79977012,107428678,1572,1573,1583,1583,0,0,0,0,0,0,0,0,0,0
1706427971.89972997,107528638,1572,1572,1583,1583,0,0,0,0,0,0,0,0,0,0
1706427971.99969006,107628598,1272,1572,1283,1583,0,0,0,0,0,0,0,0,0,0
1706427972.09965014,107728558,1579,1566,1587,1576,0,0,0,0,0,0,0,0,0,0
1706427972.19960999,107828518,1593,1571,1602,1578,0,0,0,0,0,0,0,0,0,0
1706427972.29957008,107928478,1603,1581,1609,1586,0,0,0,0,0,0,0,0,0,0
1706427972.39953017,108028438,1604,1590,1609,1592,0,0,0,0,0,0,0,0,0,0
1706427972.49949002,108128398,1598,1593,1600,1594,0,0,0,0,0,0,0,0,0,0
1706427972.59945011,108228358,1589,1593,1589,1593,0,0,0,0,0,0,0,0,0,0
1706427972.69941020,108328318,1582,1591,1582,1592,0,0,0,0,0,0,0,0,0,0
1706427972.79937005,108428278,1577,1588,1578,1589,0,0,0,0,0,0,0,0,0,0
1706427972.89933014,108528238,1576,1583,1577,1585,0,0,0,0,0,0,0,0,0,0
1706427972.99928999,108628198,1577,1581,1578,1581,0,0,0,0,0,0,0,0,0,0
1706427973.09925008,108728158,1579,1579,1578,1578,0,0,0,0,0,0,0,0,0,0
1706427973.20004296,108828951,1582,1579,1580,1577,0,0,0,0,0,0,0,0,0,0
1706427973.30000305,108928911,1582,1579,1579,1576,0,0,0,0,0,0,0,0,0,0
1706427973.39996314,109028871,1582,1580,1578,1576,0,0,0,0,0,0,0,0,0,0
1706427973.49992299,109128831,1581,1581,1577,1577,0,0,0,0,0,0,0,0,0,0
1706427973.59988308,109228791,1581,1581,1577,1578,0,0,0,0,0,0,0,0,0,0
1706427973.69984317,109328751,1579,1580,1576,1577,0,0,0,0,0,0,0,0,0,0
1706427973.79980302,109428711,1579,1580,1576,1577,0,0,0,0,0,0,0,0,0,0
1706427973.89976311,109528671,1579,1580,1576,1577,0,0,0,0,0,0,0,0,0,0
1706427973.99972320,109628631,1577,1578,1576,1576,0,0,0,0,0,0,0,0,0,0
1706427974.09968305,109728591,1579,1578,1577,1578,0,0,0,0,0,0,0,0,0,0
1706427974.19964314,109828551,1579,1578,1578,1577,0,0,0,0,0,0,0,0,0,0
1706427974.29960299,109928511,1578,1578,1578,1578,0,0,0,0,0,0,0,0,0,0
1706427974.39956307,110028471,1578,1578,1578,1578,0,0,0,0,0,0,0,0,0,0
1706427974.49952316,110128431,1578,1577,1578,1577,0,0,0,0,0,0,0,0,0,0
1706427974.59948301,110228391,1578,1580,1585,1571,0,0,0,0,0,0,0,0,0,0
1706427974.69944310,110328351,1577,1580,1582,1569,0,0,0,0,0,0,0,0,0,0
1706427974.79940319,110428311,1577,1580,1574,1570,0,0,0,0,0,0,0,0,0,0
1706427974.89936304,110528271,1576,1579,1566,1569,0,0,0,0,0,0,0,0,0,0
1706427974.99932313,110628231,1576,1578,1559,1565,0,0,0,0,0,0,0,0,0,0
1706427975.09928298,110728191,1577,1578,1555,1561,0,0,0,0,0,0,0,0,0,0
1706427975.20007610,110828984,1578,1577,1552,1556,0,0,0,0,0,0,0,0,0,0
1706427975.30003619,110928944,1579,1577,1552,1553,0,0,0,0,0,0,0,0,0,0
1706427975.39999604,111028904,1580,1578,1553,1552,0,0,0,0,0,0,0,0,0,0
1706427975.49995613,111128864,1579,1579,1553,1552,0,0,0,0,0,0,0,0,0,0
1706427975.59991598,111228824,1579,1579,1555,1551,0,0,0,0,0,0,0,0,0,0
1706427975.69987607,111328784,1578,1579,1554,1552,0,0,0,0,0,0,0,0,0,0
1706427975.79983616,111428744,1577,1579,1553,1553,0,0,0,0,0,0,0,0,0,0
1706427975.89979601,111528704,1577,1578,1552,1553,0,0,0,0,0,0,0,0,0,0
1706427975.99975610,111628664,1577,1578,1551,1552,0,0,0,0,0,0,0,0,0,0
1706427976.09971619,111728624,1578,1579,1549,1550,0,0,0,0,0,0,0,0,0,0
1706427976.19967604,111828584,1579,1580,1548,1548,0,0,0,0,0,0,0,0,0,0
1706427976.29963613,111928544,1581,1582,1546,1547,0,0,0,0,0,0,0,0,0,0
1706427976.39959598,112028504,1583,1584,1545,1544,0,0,0,0,0,0,0,0,0,0
1706427976.49955606,112128464,1586,1586,1543,1543,0,0,0,0,0,0,0,0,0,0
1706427976.59951615,112228424,1587,1587,1542,1542,0,0,0,0,0,0,0,0,0,0
1706427976.69947600,112328384,1589,1589,1542,1543,0,0,0,0,0,0,0,0,0,0
1706427976.79943609,112428344,1590,1591,1542,1543,0,0,0,0,0,0,0,0,0,0
1706427976.89939618,112528304,1590,1590,1542,1545,0,0,0,0,0,0,0,0,0,0
1706427976.99935603,112628264,1589,1589,1545,1547,0,0,0,0,0,0,0,0,0,0
1706427977.09931612,112728224,1587,1585,1549,1551,0,0,0,0,0,0,0,0,0,0
1706427977.19927597,112828184,1582,1580,1555,1557,0,0,0,0,0,0,0,0,0,0
1706427977.30006909,112928977,1576,1572,1563,1565,0,0,0,0,0,0,0,0,0,0
1706427977.40002918,113028937,1568,1565,1573,1575,0,0,0,0,0,0,0,0,0,0
1706427977.49998903,113128897,1560,1556,1583,1584,0,0,0,0,0,0,0,0,0,0
1706427977.59994912,113228857,1551,1550,1592,1592,0,0,0,0,0,0,0,0,0,0
1706427977.69990897,113328817,1544,1544,1600,1599,0,0,0,0,0,0,0,0,0,0
1706427977.79986906,113428777,1539,1540,1605,1604,0,0,0,0,0,0,0,0,0,0
1706427977.89982915,113528737,1538,1539,1607,1606,0,0,0,0,0,0,0,0,0,0
1706427977.99978900,113628697,1539,1541,1607,1607,0,0,0,0,0,0,0,0,0,0
1706427978.09974909,113728657,1544,1545,1606,1605,0,0,0,0,0,0,0,0,0,0
1706427978.19970918,113828617,1550,1551,1602,1601,0,0,0,0,0,0,0,0,0,0
1706427978.29966903,113928577,1556,1557,1597,1596,0,0,0,0,0,0,0,0,0,0
1706427978.39962912,114028537,1562,1563,1591,1590,0,0,0,0,0,0,0,0,0,0
1706427978.49958897,114128497,1568,1568,1584,1583,0,0,0,0,0,0,0,0,0,0
1706427978.59954906,114228457,1574,1573,1579,1579,0,0,0,0,0,0,0,0,0,0
1706427978.69950914,114328417,1579,1578,1574,1575,0,0,0,0,0,0,0,0,0,0
1706427978.79946899,114428377,1582,1581,1571,1571,0,0,0,0,0,0,0,0,0,0
1706427978.89942908,114528337,1584,1582,1569,1569,0,0,0,0,0,0,0,0,0,0
1706427978.99938917,114628297,1584,1583,1568,1569,0,0,0,0,0,0,0,0,0,0
1706427979.09934902,114728257,1584,1583,1570,1570,0,0,0,0,0,0,0,0,0,0
1706427979.19930911,114828217,1582,1582,1571,1571,0,0,0,0,0,0,0,0,0,0
1706427979.29926920,114928177,1580,1580,1573,1573,0,0,0,0,0,0,0,0,0,0
1706427979.40006208,115028970,1579,1579,1576,1576,0,0,0,0,0,0,0,0,0,0
1706427979.50002217,115128930,1577,1578,1578,1578,0,0,0,0,0,0,0,0,0,0
1706427979.59998202,115228890,1575,1576,1579,1579,0,0,0,0,0,0,0,0,0,0
1706427979.69994211,115328850,1575,1575,1582,1582,0,0,0,0,0,0,0,0,0,0
1706427979.79990196,115428810,1573,1573,1581,1581,0,0,0,0,0,0,0,0,0,0
1706427979.89986205,115528770,1574,1574,1583,1583,0,0,0,0,0,0,0,0,0,0
1706427979.99982214,115628730,1574,1575,1583,1583,0,0,0,0,0,0,0,0,0,0
1706427980.09978199,115728690,1575,1576,1583,1583,0,0,0,0,0,0,0,0,0,0
1706427980.19974208,115828650,1575,1576,1582,1581,0,0,0,0,0,0,0,0,0,0
1706427980.29970217,115928610,1576,1576,1580,1580,0,0,0,0,0,0,0,0,0,0
1706427980.39966202,116028570,1578,1577,1580,1579,0,0,0,0,0,0,0,0,0,0
1706427980.49962211,116128530,1580,1580,1580,1580,0,0,0,0,0,0,0,0,0,0
1706427980.59958220,116228490,1581,1581,1579,1580,0,0,0,0,0,0,0,0,0,0
1706427980.69954205,116328450,1581,1581,1578,1579,0,0,0,0,0,0,0,0,0,0
1706427980.79950213,116428410,1581,1581,1578,1578,0,0,0,0,0,0,0,0,0,0
1706427980.89946198,116528370,1582,1581,1578,1578,0,0,0,0,0,0,0,0,0,0
1706427980.99942207,116628330,1581,1581,1578,1578,0,0,0,0,0,0,0,0,0,0
1706427981.09938216,116728290,1581,1581,1579,1578,0,0,0,0,0,0,0,0,0,0
1706427981.19934201,116828250,1581,1581,1579,1579,0,0,0,0,0,0,0,0,0,0
1706427981.29930210,116928210,1580,1580,1579,1579,0,0,0,0,0,0,0,0,0,0
1706427981.39926219,117028170,1580,1580,1579,1579,0,0,0,0,0,0,0,0,0,0
1706427981.50005507,117128963,1580,1580,1580,1581,0,0,0,0,0,0,0,0,0,0
1706427981.60001516,117228923,1581,1581,1581,1581,0,0,0,0,0,0,0,0,0,0
1706427981.69997501,117328883,1579,1579,1580,1580,0,0,0,0,0,0,0,0,0,0
1706427981.79993510,117428843,1579,1579,1580,1580,0,0,0,0,0,0,0,0,0,0
1706427981.89989519,117528803,1579,1579,1581,1580,0,0,0,0,0,0,0,0,0,0
1706427981.99985504,117628763,1580,1580,1581,1581,0,0,0,0,0,0,0,0,0,0
1706427982.09981513,117728723,1579,1579,1580,1580,0,0,0,0,0,0,0,0,0,0
1706427982.19977498,117828683,1580,1580,1581,1581,0,0,0,0,0,0,0,0,0,0
1706427982.29973507,117928643,1579,1579,1580,1579,0,0,0,0,0,0,0,0,0,0
1706427982.39969516,118028603,1580,1580,1581,1580,0,0,0,0,0,0,0,0,0,0
1706427982.49965501,118128563,1582,1581,1581,1581,0,0,0,0,0,0,0,0,0,0
1706427982.59961510,118228523,1581,1581,1581,1581,0,0,0,0,0,0,0,0,0,0
1706427982.69957519,118328483,1582,1582,1581,1581,0,0,0,0,0,0,0,0,0,0
1706427982.79953504,118428443,1582,1582,1582,1581,0,0,0,0,0,0,0,0,0,0
1706427982.89949512,118528403,1582,1583,1588,1574,0,0,0,0,0,0,0,0,0,0
1706427982.99945498,118628363,1581,1584,1584,1572,0,0,0,0,0,0,0,0,0,0
1706427983.09941506,118728323,1580,1583,1576,1573,0,0,0,0,0,0,0,0,0,0
1706427983.19937515,118828283,1578,1581,1567,1571,0,0,0,0,0,0,0,0,0,0
1706427983.29933500,118928243,1578,1580,1561,1568,0,0,0,0,0,0,0,0,0,0
1706427983.39929509,119028203,1578,1578,1556,1562,0,0,0,0,0,0,0,0,0,0
1706427983.49925518,119128163,1580,1579,1555,1559,0,0,0,0,0,0,0,0,0,0
1706427983.60004807,119228956,1580,1578,1554,1555,0,0,0,0,0,0,0,0,0,0
1706427983.70000815,119328916,1580,1579,1555,1554,0,0,0,0,0,0,0,0,0,0
1706427983.79996800,119428876,1579,1579,1556,1553,0,0,0,0,0,0,0,0,0,0
1706427983.89992809,119528836,1578,1578,1555,1554,0,0,0,0,0,0,0,0,0,0
1706427983.99988818,119628796,1576,1578,1555,1553,0,0,0,0,0,0,0,0,0,0
1706427984.09984803,119728756,1576,1578,1554,1554,0,0,0,0,0,0,0,0,0,0
1706427984.19980812,119828716,1576,1577,1554,1554,0,0,0,0,0,0,0,0,0,0
1706427984.29976797,119928676,1576,1577,1552,1553,0,0,0,0,0,0,0,0,0,0
1706427984.39972806,120028636,1577,1578,1551,1551,0,0,0,0,0,0,0,0,0,0
1706427984.49968815,120128596,1579,1580,1549,1549,0,0,0,0,0,0,0,0,0,0
1706427984.59964800,120228556,1581,1582,1547,1547,0,0,0,0,0,0,0,0,0,0
1706427984.69960809,120328516,1583,1583,1544,1544,0,0,0,0,0,0,0,0,0,0
1706427984.79956818,120428476,1586,1586,1542,1541,0,0,0,0,0,0,0,0,0,0
1706427984.89952803,120528436,1589,1588,1540,1540,0,0,0,0,0,0,0,0,0,0
1706427984.99948812,120628396,1590,1591,1538,1539,0,0,0,0,0,0,0,0,0,0
1706427985.09944797,120728356,1592,1593,1537,1539,0,0,0,0,0,0,0,0,0,0
1706427985.19940805,120828316,1594,1594,1538,1539,0,0,0,0,0,0,0,0,0,0
1706427985.29936814,120928276,1593,1593,1539,1541,0,0,0,0,0,0,0,0,0,0
1706427985.39932799,121028236,1591,1590,1542,1544,0,0,0,0,0,0,0,0,0,0
1706427985.49928808,121128196,1588,1585,1548,1551,0,0,0,0,0,0,0,0,0,0
1706427985.59924817,121228156,1581,1578,1556,1559,0,0,0,0,0,0,0,0,0,0
1706427985.70004106,121328949,1574,1569,1567,1569,0,0,0,0,0,0,0,0,0,0
1706427985.80000114,121428909,1564,1561,1579,1581,0,0,0,0,0,0,0,0,0,0
1706427985.89996099,121528869,1554,1551,1591,1591,0,0,0,0,0,0,0,0,0,0
1706427985.99992108,121628829,1544,1543,1600,1600,0,0,0,0,0,0,0,0,0,0
1706427986.09988117,121728789,1538,1538,1608,1607,0,0,0,0,0,0,0,0,0,0
1706427986.19984102,121828749,1534,1536,1612,1611,0,0,0,0,0,0,0,0,0,0
1706427986.29980111,121928709,1534,1537,1614,1613,0,0,0,0,0,0,0,0,0,0
1706427986.39976120,122028669,1538,1540,1612,1611,0,0,0,0,0,0,0,0,0,0
1706427986.49972105,122128629,1543,1545,1607,1608,0,0,0,0,0,0,0,0,0,0
1706427986.59968114,122228589,1549,1550,1601,1601,0,0,0,0,0,0,0,0,0,0
1706427986.69964099,122328549,1557,1557,1594,1594,0,0,0,0,0,0,0,0,0,0
1706427986.79960108,122428509,1566,1566,1589,1587,0,0,0,0,0,0,0,0,0,0
1706427986.89956117,122528469,1572,1572,1581,1581,0,0,0,0,0,0,0,0,0,0
1706427986.99952102,122628429,1578,1577,1575,1575,0,0,0,0,0,0,0,0,0,0
1706427987.09948111,122728389,1583,1581,1571,1571,0,0,0,0,0,0,0,0,0,0
1706427987.19944119,122828349,1585,1584,1568,1568,0,0,0,0,0,0,0,0,0,0
1706427987.29940104,122928309,1587,1585,1566,1567,0,0,0,0,0,0,0,0,0,0
1706427987.39936113,123028269,1588,1586,1568,1569,0,0,0,0,0,0,0,0,0,0
1706427987.49932098,123128229,1586,1585,1570,1570,0,0,0,0,0,0,0,0,0,0
1706427987.59928107,123228189,1584,1583,1572,1572,0,0,0,0,0,0,0,0,0,0
1706427987.70007420,123328982,1582,1581,1575,1575,0,0,0,0,0,0,0,0,0,0
1706427987.80003405,123428942,1578,1579,1577,1577,0,0,0,0,0,0,0,0,0,0
1706427987.89999413,123528902,1576,1576,1580,1579,0,0,0,0,0,0,0,0,0,0
1706427987.99995399,123628862,1574,1575,1581,1581,0,0,0,0,0,0,0,0,0,0
1706427988.09991407,123728822,1574,1575,1584,1584,0,0,0,0,0,0,0,0,0,0
1706427988.19987416,123828782,1573,1573,1584,1584,0,0,0,0,0,0,0,0,0,0
1706427988.29983401,123928742,1573,1574,1584,1584,0,0,0,0,0,0,0,0,0,0
1706427988.39979410,124028702,1574,1574,1583,1583,0,0,0,0,0,0,0,0,0,0
1706427988.49975419,124128662,1574,1575,1583,1582,0,0,0,0,0,0,0,0,0,0
1706427988.59971404,124228622,1575,1576,1581,1581,0,0,0,0,0,0,0,0,0,0
1706427988.69967413,124328582,1577,1577,1581,1580,0,0,0,0,0,0,0,0,0,0
1706427988.79963398,124428542,1578,1578,1579,1578,0,0,0,0,0,0,0,0,0,0
1706427988.89959407,124528502,1579,1579,1578,1578,0,0,0,0,0,0,0,0,0,0
1706427988.99955416,124628462,1581,1580,1578,1578,0,0,0,0,0,0,0,0,0,0
1706427989.09951401,124728422,1581,1581,1577,1577,0,0,0,0,0,0,0,0,0,0
1706427989.19947410,124828382,1582,1582,1577,1578,0,0,0,0,0,0,0,0,0,0
1706427989.29943419,124928342,1582,1582,1578,1578,0,0,0,0,0,0,0,0,0,0
1706427989.39939404,125028302,1582,1581,1578,1578,0,0,0,0,0,0,0,0,0,0
1706427989.49935412,125128262,1581,1581,1578,1578,0,0,0,0,0,0,0,0,0,0
1706427989.59931397,125228222,1581,1581,1579,1579,0,0,0,0,0,0,0,0,0,0
1706427989.69927406,125328182,1580,1580,1579,1579,0,0,0,0,0,0,0,0,0,0
1706427989.80006719,125428975,1580,1580,1580,1580,0,0,0,0,0,0,0,0,0,0
1706427989.90002704,125528935,1580,1581,1581,1581,0,0,0,0,0,0,0,0,0,0
1706427989.99998713,125628895,1581,1581,1582,1582,0,0,0,0,0,0,0,0,0,0
1706427990.09994698,125728855,1580,1580,1582,1582,0,0,0,0,0,0,0,0,0,0
1706427990.19990706,125828815,1579,1579,1581,1581,0,0,0,0,0,0,0,0,0,0
1706427990.29986715,125928775,1580,1580,1582,1582,0,0,0,0,0,0,0,0,0,0
1706427990.39982700,126028735,1579,1580,1581,1581,0,0,0,0,0,0,0,0,0,0
1706427990.49978709,126128695,1580,1580,1581,1581,0,0,0,0,0,0,0,0,0,0
1706427990.59974718,126228655,1581,1581,1582,1581,0,0,0,0,0,0,0,0,0,0
1706427990.69970703,126328615,1581,1581,1581,1581,0,0,0,0,0,0,0,0,0,0
1706427990.79966712,126428575,1581,1582,1587,1574,0,0,0,0,0,0,0,0,0,0
1706427990.89962697,126528535,1580,1581,1585,1572,0,0,0,0,0,0,0,0,0,0
1706427990.99958706,126628495,1579,1579,1579,1575,0,0,0,0,0,0,0,0,0,0
1706427991.09954715,126728455,1576,1576,1573,1576,0,0,0,0,0,0,0,0,0,0
1706427991.19950700,126828415,1573,1572,1568,1575,0,0,0,0,0,0,0,0,0,0
1706427991.29946709,126928375,1571,1570,1566,1573,0,0,0,0,0,0,0,0,0,0
1706427991.39942718,127028335,1568,1568,1565,1570,0,0,0,0,0,0,0,0,0,0
1706427991.49938703,127128295,1567,1567,1566,1567,0,0,0,0,0,0,0,0,0,0
1706427991.59934711,127228255,1566,1567,1567,1565,0,0,0,0,0,0,0,0,0,0
1706427991.69930696,127328215,1566,1566,1567,1565,0,0,0,0,0,0,0,0,0,0
1706427991.79926705,127428175,1566,1566,1568,1565,0,0,0,0,0,0,0,0,0,0
1706427991.90006018,127528968,1565,1565,1566,1565,0,0,0,0,0,0,0,0,0,0
1706427992.00002003,127628928,1564,1564,1565,1565,0,0,0,0,0,0,0,0,0,0
1706427992.09998012,127728888,1563,1563,1564,1564,0,0,0,0,0,0,0,0,0,0
1706427992.19993997,127828848,1563,1563,1563,1564,0,0,0,0,0,0,0,0,0,0
1706427992.29990005,127928808,1562,1562,1562,1563,0,0,0,0,0,0,0,0,0,0
1706427992.39986014,128028768,1562,1562,1562,1562,0,0,0,0,0,0,0,0,0,0
1706427992.49981999,128128728,1562,1562,1562,1561,0,0,0,0,0,0,0,0,0,0
1706427992.59978008,128228688,1561,1561,1562,1561,0,0,0,0,0,0,0,0,0,0
1706427992.69974017,128328648,1561,1560,1561,1560,0,0,0,0,0,0,0,0,0,0
1706427992.79970002,128428608,1560,1560,1560,1559,0,0,0,0,0,0,0,0,0,0
1706427992.89966011,128528568,1558,1558,1559,1558,0,0,0,0,0,0,0,0,0,0
1706427992.99962020,128628528,1559,1559,1559,1558,0,0,0,0,0,0,0,0,0,0
1706427993.09958005,128728488,1559,1559,1559,1558,0,0,0,0,0,0,0,0,0,0
1706427993.19954014,128828448,1558,1558,1558,1558,0,0,0,0,0,0,0,0,0,0
1706427993.29949999,128928408,1559,1558,1559,1557,0,0,0,0,0,0,0,0,0,0
1706427993.39946008,129028368,1559,1558,1560,1557,0,0,0,0,0,0,0,0,0,0
1706427993.49942017,129128328,1559,1559,1560,1558,0,0,0,0,0,0,0,0,0,0
1706427993.59938002,129228288,1559,1559,1558,1559,0,0,0,0,0,0,0,0,0,0
1706427993.69934011,129328248,1558,1558,1556,1559,0,0,0,0,0,0,0,0,0,0
1706427993.79930019,129428208,1558,1559,1555,1562,0,0,0,0,0,0,0,0,0,0
1706427993.89926004,129528168,1556,1556,1552,1560,0,0,0,0,0,0,0,0,0,0
1706427994.00005317,129628961,1552,1552,1550,1554,0,0,0,0,0,0,0,0,0,0
1706427994.10001302,129728921,1548,1548,1547,1549,0,0,0,0,0,0,0,0,0,0
1706427994.19997311,129828881,1542,1542,1542,1541,0,0,0,0,0,0,0,0,0,0
1706427994.29993320,129928841,1534,1534,1535,1534,0,0,0,0,0,0,0,0,0,0
1706427994.39989305,130028801,1527,1527,1528,1526,0,0,0,0,0,0,0,0,0,0
1706427994.49985313,130128761,1521,1522,1522,1521,0,0,0,0,0,0,0,0,0,0
1706427994.59981298,130228721,1520,1521,1521,1520,0,0,0,0,0,0,0,0,0,0
1706427994.69977307,130328681,1521,1522,1521,1522,0,0,0,0,0,0,0,0,0,0
1706427994.79973316,130428641,1523,1523,1522,1524,0,0,0,0,0,0,0,0,0,0
1706427994.89969301,130528601,1525,1525,1525,1527,0,0,0,0,0,0,0,0,0,0
1706427994.99965310,130628561,1529,1529,1529,1530,0,0,0,0,0,0,0,0,0,0
1706427995.09961319,130728521,1534,1534,1534,1535,0,0,0,0,0,0,0,0,0,0
1706427995.19957304,130828481,1538,1539,1539,1538,0,0,0,0,0,0,0,0,0,0
1706427995.29953313,130928441,1542,1542,1542,1542,0,0,0,0,0,0,0,0,0,0
1706427995.39949298,131028401,1543,1543,1544,1542,0,0,0,0,0,0,0,0,0,0
1706427995.49945307,131128361,1545,1544,1545,1544,0,0,0,0,0,0,0,0,0,0
1706427995.59941316,131228321,1545,1545,1546,1545,0,0,0,0,0,0,0,0,0,0
1706427995.69937301,131328281,1546,1545,1546,1546,0,0,0,0,0,0,0,0,0,0
1706427995.79933310,131428241,1547,1548,1547,1548,0,0,0,0,0,0,0,0,0,0
1706427995.89929318,131528201,1546,1547,1546,1546,0,0,0,0,0,0,0,0,0,0
1706427995.99925303,131628161,1547,1547,1547,1547,0,0,0,0,0,0,0,0,0,0
1706427996.10004616,131728954,1547,1546,1546,1546,0,0,0,0,0,0,0,0,0,0
1706427996.20000601,131828914,1547,1547,1547,1547,0,0,0,0,0,0,0,0,0,0
1706427996.29996610,131928874,1546,1546,1546,1546,0,0,0,0,0,0,0,0,0,0
1706427996.39992619,132028834,1545,1546,1545,1545,0,0,0,0,0,0,0,0,0,0
1706427996.49988604,132128794,1545,1545,1545,1545,0,0,0,0,0,0,0,0,0,0
1706427996.59984612,132228754,1544,1544,1544,1544,0,0,0,0,0,0,0,0,0,0
1706427996.69980597,132328714,1545,1545,1545,1545,0,0,0,0,0,0,0,0,0,0
1706427996.79976606,132428674,1544,1544,1544,1544,0,0,0,0,0,0,0,0,0,0
1706427996.89972615,132528634,1544,1544,1543,1545,0,0,0,0,0,0,0,0,0,0
1706427996.99968600,132628594,1543,1544,1543,1544,0,0,0,0,0,0,0,0,0,0
1706427997.09964609,132728554,1543,1543,1543,1543,0,0,0,0,0,0,0,0,0,0
1706427997.19960618,132828514,1544,1544,1544,1544,0,0,0,0,0,0,0,0,0,0
1706427997.29956603,132928474,1544,1543,1544,1543,0,0,0,0,0,0,0,0,0,0
1706427997.39952612,133028434,1544,1544,1544,1543,0,0,0,0,0,0,0,0,0,0
1706427997.49948597,133128394,1544,1544,1545,1544,0,0,0,0,0,0,0,0,0,0
1706427997.59944606,133228354,1545,1545,1545,1545,0,0,0,0,0,0,0,0,0,0
1706427997.69940615,133328314,1545,1545,1545,1545,0,0,0,0,0,0,0,0,0,0
1706427997.79936600,133428274,1543,1544,1544,1544,0,0,0,0,0,0,0,0,0,0
1706427997.89932609,133528234,1544,1544,1543,1544,0,0,0,0,0,0,0,0,0,0
1706427997.99928617,133628194,1544,1544,1544,1544,0,0,0,0,0,0,0,0,0,0
1706427998.09924603,133728154,1543,1543,1543,1543,0,0,0,0,0,0,0,0,0,0
1706427998.20003915,133828947,1544,1544,1544,1544,0,0,0,0,0,0,0,0,0,0
1706427998.29999900,133928907,1544,1544,1544,1543,0,0,0,0,0,0,0,0,0,0
1706427998.39995909,134028867,1544,1544,1544,1544,0,0,0,0,0,0,0,0,0,0
1706427998.49991918,134128827,1544,1544,1544,1544,0,0,0,0,0,0,0,0,0,0
1706427998.59987903,134228787,1544,1544,1544,1544,0,0,0,0,0,0,0,0,0,0
1706427998.69983912,134328747,1544,1543,1543,1544,0,0,0,0,0,0,0,0,0,0
1706427998.79979897,134428707,1544,1544,1544,1544,0,0,0,0,0,0,0,0,0,0
1706427998.89975905,134528667,1545,1544,1544,1544,0,0,0,0,0,0,0,0,0,0
1706427998.99971914,134628627,1544,1544,1544,1544,0,0,0,0,0,0,0,0,0,0
1706427999.09967899,134728587,1544,1544,1544,1544,0,0,0,0,0,0,0,0,0,0
1706427999.19963908,134828547,1543,1544,1544,1543,0,0,0,0,0,0,0,0,0,0
1706427999.29959917,134928507,1544,1543,1543,1544,0,0,0,0,0,0,0,0,0,0
1706427999.39955902,135028467,1544,1544,1544,1544,0,0,0,0,0,0,0,0,0,0
1706427999.49951911,135128427,1543,1543,1543,1543,0,0,0,0,0,0,0,0,0,0
1706427999.59947920,135228387,1544,1544,1544,1544,0,0,0,0,0,0,0,0,0,0
1706427999.69943905,135328347,1544,1543,1544,1544,0,0,0,0,0,0,0,0,0,0
1706427999.79939914,135428307,1544,1544,1544,1544,0,0,0,0,0,0,0,0,0,0
1706427999.89935899,135528267,1544,1543,1544,1544,0,0,0,0,0,0,0,0,0,0
1706427999.99931908,135628227,1544,1545,1545,1544,0,0,0,0,0,0,0,0,0,0
1706428000.09927917,135728187,1544,1544,1544,1544,0,0,0,0,0,0,0,0,0,0
1706428000.20007205,135828980,1544,1545,1545,1544,0,0,0,0,0,0,0,0,0,0
1706428000.30003214,135928940,1544,1543,1543,1544,0,0,0,0,0,0,0,0,0,0
1706428000.39999199,136028900,1544,1545,1544,1544,0,0,0,0,0,0,0,0,0,0
1706428000.49995208,136128860,1544,1544,1543,1544,0,0,0,0,0,0,0,0,0,0
1706428000.59991217,136228820,1544,1544,1544,1544,0,0,0,0,0,0,0,0,0,0
1706428000.69987202,136328780,1544,1544,1544,1544,0,0,0,0,0,0,0,0,0,0
1706428000.79983211,136428740,1544,1545,1545,1544,0,0,0,0,0,0,0,0,0,0
1706428000.89979219,136528700,1544,1544,1544,1545,0,0,0,0,0,0,0,0,0,0
1706428000.99975204,136628660,1545,1545,1545,1545,0,0,0,0,0,0,0,0,0,0
1706428001.09971213,136728620,1545,1545,1545,1545,0,0,0,0,0,0,0,0,0,0
1706428001.19967198,136828580,1544,1544,1544,1544,0,0,0,0,0,0,0,0,0,0
1706428001.29963207,136928540,1544,1544,1544,1544,0,0,0,0,0,0,0,0,0,0
1706428001.39959216,137028500,1544,1544,1544,1544,0,0,0,0,0,0,0,0,0,0
1706428001.49955201,137128460,1545,1545,1545,1545,0,0,0,0,0,0,0,0,0,0
1706428001.59951210,137228420,1544,1544,1544,1544,0,0,0,0,0,0,0,0,0,0
1706428001.69947219,137328380,1545,1545,1544,1545,0,0,0,0,0,0,0,0,0,0
1706428001.79943204,137428340,1544,1544,1544,1544,0,0,0,0,0,0,0,0,0,0
1706428001.89939213,137528300,1545,1544,1545,1545,0,0,0,0,0,0,0,0,0,0
1706428001.99935198,137628260,1544,1544,1544,1544,0,0,0,0,0,0,0,0,0,0
1706428002.09931207,137728220,1544,1544,1544,1544,0,0,0,0,0,0,0,0,0,0
1706428002.19927216,137828180,1545,1545,1545,1545,0,0,0,0,0,0,0,0,0,0
1706428002.30006504,137928973,1544,1544,1544,1544,0,0,0,0,0,0,0,0,0,0
1706428002.40002513,138028933,1543,1543,1543,1543,0,0,0,0,0,0,0,0,0,0
1706428002.49998498,138128893,1544,1544,1544,1544,0,0,0,0,0,0,0,0,0,0
1706428002.59994507,138228853,1544,1544,1545,1544,0,0,0,0,0,0,0,0,0,0
1706428002.69990516,138328813,1545,1545,1545,1545,0,0,0,0,0,0,0,0,0,0
1706428002.79986501,138428773,1544,1545,1544,1545,0,0,0,0,0,0,0,0,0,0
1706428002.89982510,138528733,1544,1544,1544,1544,0,0,0,0,0,0,0,0,0,0
1706428002.99978518,138628693,1543,1544,1543,1543,0,0,0,0,0,0,0,0,0,0
1706428003.09974504,138728653,1545,1544,1544,1545,0,0,0,0,0,0,0,0,0,0
1706428003.19970512,138828613,1545,1545,1545,1545,0,0,0,0,0,0,0,0,0,0
1706428003.29966497,138928573,1545,1545,1545,1545,0,0,0,0,0,0,0,0,0,0
1706428003.39962506,139028533,1545,1545,1545,1545,0,0,0,0,0,0,0,0,0,0
1706428003.49958515,139128493,1545,1545,1545,1545,0,0,0,0,0,0,0,0,0,0
1706428003.59954500,139228453,1544,1545,1545,1545,0,0,0,0,0,0,0,0,0,0
1706428003.69950509,139328413,1545,1544,1545,1545,0,0,0,0,0,0,0,0,0,0
1706428003.79946518,139428373,1544,1544,1544,1544,0,0,0,0,0,0,0,0,0,0
1706428003.89942503,139528333,1544,1544,1544,1544,0,0,0,0,0,0,0,0,0,0
1706428003.99938512,139628293,1544,1545,1545,1545,0,0,0,0,0,0,0,0,0,0
1706428004.09934497,139728253,1544,1544,1544,1544,0,0,0,0,0,0,0,0,0,0
1706428004.19930506,139828213,1544,1543,1544,1543,0,0,0,0,0,0,0,0,0,0
1706428004.29926515,139928173,1381,1367,1382,1366,0,0,0,0,0,0,0,0,0,0
1706428004.40005803,140028966,1283,1257,1285,1254,0,0,0,0,0,0,0,0,0,0
1706428004.50001812,140128926,1253,1220,1254,1218,0,0,0,0,0,0,0,0,0,0
1706428004.59997797,140228886,1237,1201,1239,1199,0,0,0,0,0,0,0,0,0,0
1706428004.69993806,140328846,1202,1154,1203,1154,0,0,0,0,0,0,0,0,0,0
1706428004.79989815,140428806,1198,1151,1200,1150,0,0,0,0,0,0,0,0,0,0
1706428004.89985800,140528766,1198,1150,1199,1150,0,0,0,0,0,0,0,0,0,0
1706428004.99981809,140628726,1200,1150,1199,1153,0,0,0,0,0,0,0,0,0,0
1706428005.09977818,140728686,1231,1150,1198,1193,0,0,0,0,0,0,0,0,0,0
1706428005.19973803,140828646,1220,1150,1198,1178,0,0,0,0,0,0,0,0,0,0
1706428005.29969811,140928606,1218,1150,1198,1176,0,0,0,0,0,0,0,0,0,0
1706428005.39965796,141028566,1219,1150,1198,1177,0,0,0,0,0,0,0,0,0,0
1706428005.49961805,141128526,1221,1150,1198,1180,0,0,0,0,0,0,0,0,0,0
1706428005.59957814,141228486,1223,1150,1198,1182,0,0,0,0,0,0,0,0,0,0
1706428005.69953799,141328446,1225,1150,1198,1186,0,0,0,0,0,0,0,0,0,0
1706428005.79949808,141428406,1202,1150,1199,1155,0,0,0,0,0,0,0,0,0,0
1706428005.89945817,141528366,1212,1150,1199,1169,0,0,0,0,0,0,0,0,0,0
1706428005.99941802,141628326,1214,1150,1199,1171,0,0,0,0,0,0,0,0,0,0
1706428006.09937811,141728286,1215,1150,1199,1172,0,0,0,0,0,0,0,0,0,0
1706428006.19933820,141828246,1215,1150,1199,1173,0,0,0,0,0,0,0,0,0,0
1706428006.29929805,141928206,1089,1149,1089,1149,0,0,0,0,0,0,0,0,0,0
1706428006.39925814,142028166,1000,1000,1000,1000,0,0,0,0,0,0,0,0,0,0
1706428006.50005102,142128959,1000,1000,1000,1000,0,0,0,0,0,0,0,0,0,0
1706428006.60001111,142228919,1000,1000,1000,1000,0,0,0,0,0,0,0,0,0,0
1706428006.69997120,142328879,1000,1000,1000,1000,0,0,0,0,0,0,0,0,0,0
1706428006.79993105,142428839,1000,1000,1000,1000,0,0,0,0,0,0,0,0,0,0
1706428006.89989114,142528799,1000,1000,1000,1000,0,0,0,0,0,0,0,0,0,0
1706428006.99985099,142628759,1000,1000,1000,1000,0,0,0,0,0,0,0,0,0,0
1706428007.09981108,142728719,1000,1000,1000,1000,0,0,0,0,0,0,0,0,0,0
1706428007.19977117,142828679,1000,1000,1000,1000,0,0,0,0,0,0,0,0,0,0
1706428007.29973102,142928639,1000,1000,1000,1000,0,0,0,0,0,0,0,0,0,0
1706428007.39969110,143028599,1000,1000,1000,1000,0,0,0,0,0,0,0,0,0,0
1706428007.49965119,143128559,1000,1000,1000,1000,0,0,0,0,0,0,0,0,0,0
1706428007.59961104,143228519,1000,1000,1000,1000,0,0,0,0,0,0,0,0,0,0
1706428007.69957113,143328479,1000,1000,1000,1000,0,0,0,0,0,0,0,0,0,0
1706428007.79953098,143428439,1000,1000,1000,1000,0,0,0,0,0,0,0,0,0,0
1706428007.89949107,143528399,1000,1000,1000,1000,0,0,0,0,0,0,0,0,0,0
1706428007.99945116,143628359,1000,1000,1000,1000,0,0,0,0,0,0,0,0,0,0
1706428008.09941101,143728319,1000,1000,1000,1000,0,0,0,0,0,0,0,0,0,0
1706428008.19937110,143828279,1000,1000,1000,1000,0,0,0,0,0,0,0,0,0,0
1706428008.29933119,143928239,1000,1000,1000,1000,0,0,0,0,0,0,0,0,0,0
1706428008.39929104,144028199,1000,1000,1000,1000,0,0,0,0,0,0,0,0,0,0
1706428008.49925113,144128159,1000,1000,1000,1000,0,0,0,0,0,0,0,0,0,0
1706428008.60004401,144228952,1000,1000,1000,1000,0,0,0,0,0,0,0,0,0,0
1706428008.70000410,144328912,1000,1000,1000,1000,0,0,0,0,0,0,0,0,0,0
1706428008.79996419,144428872,1000,1000,1000,1000,0,0,0,0,0,0,0,0,0,0
1706428008.89992404,144528832,1000,1000,1000,1000,0,0,0,0,0,0,0,0,0,0
1706428008.99988413,144628792,1000,1000,1000,1000,0,0,0,0,0,0,0,0,0,0
1706428009.09984398,144728752,1000,1000,1000,1000,0,0,0,0,0,0,0,0,0,0
1706428009.19980407,144828712,1000,1000,1000,1000,0,0,0,0,0,0,0,0,0,0
1706428009.29976416,144928672,1000,1000,1000,1000,0,0,0,0,0,0,0,0,0,0
1706428009.39972401,145028632,1000,1000,1000,1000,0,0,0,0,0,0,0,0,0,0
1706428009.49968410,145128592,1000,1000,1000,1000,0,0,0,0,0,0,0,0,0,0
1706428009.59964418,145228552,1000,1000,1000,1000,0,0,0,0,0,0,0,0,0,0
1706428009.69960403,145328512,1000,1000,1000,1000,0,0,0,0,0,0,0,0,0,0
1706428009.79956412,145428472,1000,1000,1000,1000,0,0,0,0,0,0,0,0,0,0
1706428009.89952397,145528432,1000,1000,1000,1000,0,0,0,0,0,0,0,0,0,0
1706428009.99948406,145628392,1000,1000,1000,1000,0,0,0,0,0,0,0,0,0,0
1706428010.09944415,145728352,1000,1000,1000,1000,0,0,0,0,0,0,0,0,0,0
1706428010.19940400,145828312,1000,1000,1000,1000,0,0,0,0,0,0,0,0,0,0
1706428010.29936409,145928272,1000,1000,1000,1000,0,0,0,0,0,0,0,0,0,0
1706428010.39932418,146028232,1000,1000,1000,1000,0,0,0,0,0,0,0,0,0,0
1706428010.49928403,146128192,1000,1000,1000,1000,0,0,0,0,0,0,0,0,0,0
1706428010.60007715,146228985,1000,1000,1000,1000,0,0,0,0,0,0,0,0,0,0
1706428010.70003700,146328945,1000,1000,1000,1000,0,0,0,0,0,0,0,0,0,0
1706428010.79999709,146428905,1000,1000,1000,1000,0,0,0,0,0,0,0,0,0,0
1706428010.89995718,146528865,1000,1000,1000,1000,0,0,0,0,0,0,0,0,0,0
1706428010.99991703,146628825,1000,1000,1000,1000,0,0,0,0,0,0,0,0,0,0
1706428011.09987712,146728785,1000,1000,1000,1000,0,0,0,0,0,0,0,0,0,0
1706428011.19983697,146828745,1000,1000,1000,1000,0,0,0,0,0,0,0,0,0,0
1706428011.29979706,146928705,1000,1000,1000,1000,0,0,0,0,0,0,0,0,0,0
1706428011.39975715,147028665,1000,1000,1000,1000,0,0,0,0,0,0,0,0,0,0
1706428011.49971700,147128625,1000,1000,1000,1000,0,0,0,0,0,0,0,0,0,0
1706428011.59967709,147228585,1000,1000,1000,1000,0,0,0,0,0,0,0,0,0,0
1706428011.69963717,147328545,1000,1000,1000,1000,0,0,0,0,0,0,0,0,0,0
1706428011.79959702,147428505,1000,1000,1000,1000,0,0,0,0,0,0,0,0,0,0
1706428011.89955711,147528465,1000,1000,1000,1000,0,0,0,0,0,0,0,0,0,0
1706428011.99951696,147628425,1000,1000,1000,1000,0,0,0,0,0,0,0,0,0,0
1706428012.09947705,147728385,1000,1000,1000,1000,0,0,0,0,0,0,0,0,0,0
1706428012.19943714,147828345,1000,1000,1000,1000,0,0,0,0,0,0,0,0,0,0
1706428012.29939699,147928305,1000,1000,1000,1000,0,0,0,0,0,0,0,0,0,0
1706428012.39935708,148028265,1000,1000,1000,1000,0,0,0,0,0,0,0,0,0,0
1706428012.49931717,148128225,1000,1000,1000,1000,0,0,0,0,0,0,0,0,0,0
1706428012.59927702,148228185,1000,1000,1000,1000,0,0,0,0,0,0,0,0,0,0
1706428012.70007014,148328978,1000,1000,1000,1000,0,0,0,0,0,0,0,0,0,0
1706428012.80002999,148428938,1000,1000,1000,1000,0,0,0,0,0,0,0,0,0,0
1706428012.89999008,148528898,1000,1000,1000,1000,0,0,0,0,0,0,0,0,0,0
1706428012.99995017,148628858,1000,1000,1000,1000,0,0,0,0,0,0,0,0,0,0
1706428013.09991002,148728818,1000,1000,1000,1000,0,0,0,0,0,0,0,0,0,0
1706428013.19987011,148828778,1000,1000,1000,1000,0,0,0,0,0,0,0,0,0,0
1706428013.29983020,148928738,1000,1000,1000,1000,0,0,0,0,0,0,0,0,0,0
1706428013.39979005,149028698,1000,1000,1000,1000,0,0,0,0,0,0,0,0,0,0
1706428013.49975014,149128658,1000,1000,1000,1000,0,0,0,0,0,0,0,0,0,0
1706428013.59970999,149228618,1000,1000,1000,1000,0,0,0,0,0,0,0,0,0,0
1706428013.69967008,149328578,1000,1000,1000,1000,0,0,0,0,0,0,0,0,0,0
1706428013.79963017,149428538,1000,1000,1000,1000,0,0,0,0,0,0,0,0,0,0
1706428013.89959002,149528498,1000,1000,1000,1000,0,0,0,0,0,0,0,0,0,0
1706428013.99955010,149628458,1000,1000,1000,1000,0,0,0,0,0,0,0,0,0,0
1706428014.09951019,149728418,1000,1000,1000,1000,0,0,0,0,0,0,0,0,0,0
1706428014.19947004,149828378,1000,1000,1000,1000,0,0,0,0,0,0,0,0,0,0
1706428014.29943013,149928338,1000,1000,1000,1000,0,0,0,0,0,0,0,0,0,0
