timestamp,TimeUS,C1,C2,C3,C4,C5,C6,C7,C8,C9,C10,C11,C12,C13,C14
1706511500.20000005,45428488,1000,1000,1000,1000,0,0,0,0,0,0,0,0,0,0
1706511500.29996014,45528448,1000,1000,1000,1000,0,0,0,0,0,0,0,0,0,0
1706511500.39991999,45628408,1000,1000,1000,1000,0,0,0,0,0,0,0,0,0,0
1706511500.49988008,45728368,1000,1000,1000,1000,0,0,0,0,0,0,0,0,0,0
1706511500.59983993,45828328,1000,1000,1000,1000,0,0,0,0,0,0,0,0,0,0
1706511500.69980001,45928288,1000,1000,1000,1000,0,0,0,0,0,0,0,0,0,0
1706511500.79976010,46028248,1000,1000,1000,1000,0,0,0,0,0,0,0,0,0,0
1706511500.89971995,46128208,1000,1000,1000,1000,0,0,0,0,0,0,0,0,0,0
1706511500.99968004,46228168,1000,1000,1000,1000,0,0,0,0,0,0,0,0,0,0
1706511501.10047293,46328961,1000,1000,1000,1000,0,0,0,0,0,0,0,0,0,0
1706511501.20043302,46428921,1000,1000,1000,1000,0,0,0,0,0,0,0,0,0,0
1706511501.30039310,46528881,1000,1000,1000,1000,0,0,0,0,0,0,0,0,0,0
1706511501.40035295,46628841,1000,1000,1000,1000,0,0,0,0,0,0,0,0,0,0
1706511501.50031304,46728801,1000,1000,1000,1000,0,0,0,0,0,0,0,0,0,0
1706511501.60027313,46828761,1000,1000,1000,1000,0,0,0,0,0,0,0,0,0,0
1706511501.70023298,46928721,1000,1000,1000,1000,0,0,0,0,0,0,0,0,0,0
1706511501.80019307,47028681,1000,1000,1000,1000,0,0,0,0,0,0,0,0,0,0
1706511501.90015292,47128641,1000,1000,1000,1000,0,0,0,0,0,0,0,0,0,0
1706511502.00011301,47228601,1000,1000,1000,1000,0,0,0,0,0,0,0,0,0,0
1706511502.10007310,47328561,1000,1000,1000,1000,0,0,0,0,0,0,0,0,0,0
1706511502.20003295,47428521,1012,1012,1012,1012,0,0,0,0,0,0,0,0,0,0
1706511502.29999304,47528481,1042,1042,1042,1042,0,0,0,0,0,0,0,0,0,0
1706511502.39995313,47628441,1072,1072,1072,1072,0,0,0,0,0,0,0,0,0,0
1706511502.49991298,47728401,1102,1102,1102,1102,0,0,0,0,0,0,0,0,0,0
1706511502.59987307,47828361,1132,1132,1132,1132,0,0,0,0,0,0,0,0,0,0
1706511502.69983292,47928321,1268,1263,1263,1268,0,0,0,0,0,0,0,0,0,0
1706511502.79979300,48028281,1481,1477,1477,1481,0,0,0,0,0,0,0,0,0,0
1706511502.89975309,48128241,1644,1640,1640,1645,0,0,0,0,0,0,0,0,0,0
1706511502.99971294,48228201,1782,1778,1779,1782,0,0,0,0,0,0,0,0,0,0
1706511503.09967303,48328161,1904,1900,1900,1904,0,0,0,0,0,0,0,0,0,0
1706511503.20046592,48428954,1879,1877,1877,1879,0,0,0,0,0,0,0,0,0,0
1706511503.30042601,48528914,1752,1751,1751,1752,0,0,0,0,0,0,0,0,0,0
1706511503.40038610,48628874,1651,1653,1652,1651,0,0,0,0,0,0,0,0,0,0
1706511503.50034595,48728834,1621,1623,1623,1622,0,0,0,0,0,0,0,0,0,0
1706511503.60030603,48828794,1625,1627,1627,1625,0,0,0,0,0,0,0,0,0,0
1706511503.70026612,48928754,1633,1634,1634,1633,0,0,0,0,0,0,0,0,0,0
1706511503.80022597,49028714,1632,1632,1632,1632,0,0,0,0,0,0,0,0,0,0
1706511503.90018606,49128674,1626,1625,1625,1625,0,0,0,0,0,0,0,0,0,0
1706511504.00014615,49228634,1618,1617,1617,1618,0,0,0,0,0,0,0,0,0,0
1706511504.10010600,49328594,1613,1612,1612,1613,0,0,0,0,0,0,0,0,0,0
1706511504.20006609,49428554,1613,1613,1613,1613,0,0,0,0,0,0,0,0,0,0
1706511504.30002594,49528514,1614,1613,1613,1613,0,0,0,0,0,0,0,0,0,0
1706511504.39998603,49628474,1615,1615,1615,1615,0,0,0,0,0,0,0,0,0,0
1706511504.49994612,49728434,1616,1616,1616,1616,0,0,0,0,0,0,0,0,0,0
1706511504.59990597,49828394,1589,1590,1589,1590,0,0,0,0,0,0,0,0,0,0
1706511504.69986606,49928354,1572,1572,1570,1574,0,0,0,0,0,0,0,0,0,0
1706511504.79982615,50028314,1561,1561,1559,1564,0,0,0,0,0,0,0,0,0,0
1706511504.89978600,50128274,1550,1549,1548,1551,0,0,0,0,0,0,0,0,0,0
1706511504.99974608,50228234,1541,1541,1541,1541,0,0,0,0,0,0,0,0,0,0
1706511505.09970593,50328194,1533,1532,1533,1532,0,0,0,0,0,0,0,0,0,0
1706511505.19966602,50428154,1525,1525,1526,1524,0,0,0,0,0,0,0,0,0,0
1706511505.30045915,50528947,1518,1518,1519,1517,0,0,0,0,0,0,0,0,0,0
1706511505.40041900,50628907,1516,1516,1516,1516,0,0,0,0,0,0,0,0,0,0
1706511505.50037909,50728867,1515,1515,1514,1516,0,0,0,0,0,0,0,0,0,0
1706511505.60033894,50828827,1516,1516,1515,1516,0,0,0,0,0,0,0,0,0,0
1706511505.70029902,50928787,1517,1517,1516,1517,0,0,0,0,0,0,0,0,0,0
1706511505.80025911,51028747,1517,1518,1517,1518,0,0,0,0,0,0,0,0,0,0
1706511505.90021896,51128707,1525,1525,1526,1523,0,0,0,0,0,0,0,0,0,0
1706511506.00017905,51228667,1536,1536,1542,1530,0,0,0,0,0,0,0,0,0,0
1706511506.10013914,51328627,1543,1542,1545,1540,0,0,0,0,0,0,0,0,0,0
1706511506.20009899,51428587,1547,1547,1546,1549,0,0,0,0,0,0,0,0,0,0
1706511506.30005908,51528547,1551,1551,1547,1555,0,0,0,0,0,0,0,0,0,0
1706511506.40001893,51628507,1554,1553,1548,1558,0,0,0,0,0,0,0,0,0,0
1706511506.49997902,51728467,1555,1555,1551,1559,0,0,0,0,0,0,0,0,0,0
1706511506.59993911,51828427,1559,1558,1557,1560,0,0,0,0,0,0,0,0,0,0
1706511506.69989896,51928387,1561,1561,1562,1559,0,0,0,0,0,0,0,0,0,0
1706511506.79985905,52028347,1564,1564,1567,1561,0,0,0,0,0,0,0,0,0,0
1706511506.89981914,52128307,1565,1566,1569,1563,0,0,0,0,0,0,0,0,0,0
1706511506.99977899,52228267,1566,1566,1568,1564,0,0,0,0,0,0,0,0,0,0
1706511507.09973907,52328227,1567,1567,1567,1567,0,0,0,0,0,0,0,0,0,0
1706511507.19969893,52428187,1568,1566,1567,1570,0,0,0,0,0,0,0,0,0,0
1706511507.30049205,52528980,1562,1561,1569,1574,0,0,0,0,0,0,0,0,0,0
1706511507.40045214,52628940,1561,1562,1570,1573,0,0,0,0,0,0,0,0,0,0
1706511507.50041199,52728900,1563,1563,1569,1572,0,0,0,0,0,0,0,0,0,0
1706511507.60037208,52828860,1565,1566,1570,1569,0,0,0,0,0,0,0,0,0,0
1706511507.70033193,52928820,1567,1568,1569,1568,0,0,0,0,0,0,0,0,0,0
1706511507.80029202,53028780,1569,1570,1568,1567,0,0,0,0,0,0,0,0,0,0
1706511507.90025210,53128740,1571,1571,1568,1566,0,0,0,0,0,0,0,0,0,0
1706511508.00021195,53228700,1573,1573,1567,1567,0,0,0,0,0,0,0,0,0,0
1706511508.10017204,53328660,1574,1574,1567,1567,0,0,0,0,0,0,0,0,0,0
1706511508.20013213,53428620,1574,1573,1567,1568,0,0,0,0,0,0,0,0,0,0
1706511508.30009198,53528580,1574,1574,1569,1569,0,0,0,0,0,0,0,0,0,0
1706511508.40005207,53628540,1574,1574,1570,1570,0,0,0,0,0,0,0,0,0,0
1706511508.50001192,53728500,1574,1573,1570,1571,0,0,0,0,0,0,0,0,0,0
1706511508.59997201,53828460,1574,1574,1572,1572,0,0,0,0,0,0,0,0,0,0
1706511508.69993210,53928420,1574,1574,1574,1573,0,0,0,0,0,0,0,0,0,0
1706511508.79989195,54028380,1574,1574,1576,1574,0,0,0,0,0,0,0,0,0,0
1706511508.89985204,54128340,1574,1574,1577,1575,0,0,0,0,0,0,0,0,0,0
1706511508.99981213,54228300,1575,1575,1578,1577,0,0,0,0,0,0,0,0,0,0
1706511509.09977198,54328260,1574,1574,1576,1576,0,0,0,0,0,0,0,0,0,0
1706511509.19973207,54428220,1575,1576,1578,1578,0,0,0,0,0,0,0,0,0,0
1706511509.29969192,54528180,1574,1575,1576,1577,0,0,0,0,0,0,0,0,0,0
1706511509.40048504,54628973,1575,1574,1576,1576,0,0,0,0,0,0,0,0,0,0
1706511509.50044513,54728933,1576,1576,1577,1577,0,0,0,0,0,0,0,0,0,0
1706511509.60040498,54828893,1577,1576,1576,1576,0,0,0,0,0,0,0,0,0,0
1706511509.70036507,54928853,1578,1578,1578,1577,0,0,0,0,0,0,0,0,0,0
1706511509.80032492,55028813,1578,1578,1577,1577,0,0,0,0,0,0,0,0,0,0
1706511509.90028501,55128773,1578,1578,1577,1577,0,0,0,0,0,0,0,0,0,0
1706511510.00024509,55228733,1578,1578,1577,1577,0,0,0,0,0,0,0,0,0,0
1706511510.10020494,55328693,1578,1578,1577,1578,0,0,0,0,0,0,0,0,0,0
1706511510.20016503,55428653,1578,1578,1577,1578,0,0,0,0,0,0,0,0,0,0
1706511510.30012512,55528613,1579,1579,1578,1578,0,0,0,0,0,0,0,0,0,0
1706511510.40008497,55628573,1579,1580,1579,1579,0,0,0,0,0,0,0,0,0,0
1706511510.50004506,55728533,1577,1578,1578,1578,0,0,0,0,0,0,0,0,0,0
1706511510.60000515,55828493,1579,1579,1579,1579,0,0,0,0,0,0,0,0,0,0
1706511510.69996500,55928453,1579,1578,1579,1579,0,0,0,0,0,0,0,0,0,0
1706511510.79992509,56028413,1580,1580,1580,1580,0,0,0,0,0,0,0,0,0,0
1706511510.89988494,56128373,1579,1579,1579,1579,0,0,0,0,0,0,0,0,0,0
1706511510.99984503,56228333,1580,1579,1580,1580,0,0,0,0,0,0,0,0,0,0
1706511511.09980512,56328293,1579,1579,1580,1580,0,0,0,0,0,0,0,0,0,0
1706511511.19976497,56428253,1579,1579,1579,1580,0,0,0,0,0,0,0,0,0,0
1706511511.29972506,56528213,1580,1580,1580,1580,0,0,0,0,0,0,0,0,0,0
1706511511.39968514,56628173,1580,1580,1580,1580,0,0,0,0,0,0,0,0,0,0
1706511511.50047803,56728966,1580,1580,1580,1580,0,0,0,0,0,0,0,0,0,0
1706511511.60043812,56828926,1580,1580,1580,1580,0,0,0,0,0,0,0,0,0,0
1706511511.70039797,56928886,1581,1581,1581,1580,0,0,0,0,0,0,0,0,0,0
1706511511.80035806,57028846,1580,1581,1581,1580,0,0,0,0,0,0,0,0,0,0
1706511511.90031815,57128806,1581,1581,1581,1580,0,0,0,0,0,0,0,0,0,0
1706511512.00027800,57228766,1580,1580,1580,1580,0,0,0,0,0,0,0,0,0,0
1706511512.10023808,57328726,1580,1581,1580,1580,0,0,0,0,0,0,0,0,0,0
1706511512.20019794,57428686,1580,1580,1579,1580,0,0,0,0,0,0,0,0,0,0
1706511512.30015802,57528646,1580,1579,1579,1580,0,0,0,0,0,0,0,0,0,0
1706511512.40011811,57628606,1580,1580,1580,1580,0,0,0,0,0,0,0,0,0,0
1706511512.50007796,57728566,1581,1581,1581,1581,0,0,0,0,0,0,0,0,0,0
1706511512.60003805,57828526,1581,1581,1581,1581,0,0,0,0,0,0,0,0,0,0
1706511512.69999814,57928486,1582,1582,1582,1582,0,0,0,0,0,0,0,0,0,0
1706511512.79995799,58028446,1580,1581,1581,1581,0,0,0,0,0,0,0,0,0,0
1706511512.89991808,58128406,1581,1581,1581,1581,0,0,0,0,0,0,0,0,0,0
1706511512.99987793,58228366,1581,1581,1582,1581,0,0,0,0,0,0,0,0,0,0
1706511513.09983802,58328326,1581,1581,1582,1581,0,0,0,0,0,0,0,0,0,0
1706511513.19979811,58428286,1581,1581,1581,1581,0,0,0,0,0,0,0,0,0,0
1706511513.29975796,58528246,1580,1580,1580,1581,0,0,0,0,0,0,0,0,0,0
1706511513.39971805,58628206,1580,1580,1580,1581,0,0,0,0,0,0,0,0,0,0
1706511513.49967813,58728166,1581,1581,1586,1575,0,0,0,0,0,0,0,0,0,0
1706511513.60047102,58828959,1580,1583,1587,1573,0,0,0,0,0,0,0,0,0,0
1706511513.70043111,58928919,1579,1582,1580,1573,0,0,0,0,0,0,0,0,0,0
1706511513.80039096,59028879,1577,1580,1570,1572,0,0,0,0,0,0,0,0,0,0
1706511513.90035105,59128839,1576,1578,1562,1569,0,0,0,0,0,0,0,0,0,0
1706511514.00031114,59228799,1576,1577,1557,1564,0,0,0,0,0,0,0,0,0,0
1706511514.10027099,59328759,1577,1577,1554,1559,0,0,0,0,0,0,0,0,0,0
1706511514.20023108,59428719,1578,1576,1554,1555,0,0,0,0,0,0,0,0,0,0
1706511514.30019093,59528679,1579,1577,1555,1554,0,0,0,0,0,0,0,0,0,0
1706511514.40015101,59628639,1578,1578,1556,1554,0,0,0,0,0,0,0,0,0,0
1706511514.50011110,59728599,1577,1577,1556,1554,0,0,0,0,0,0,0,0,0,0
1706511514.60007095,59828559,1575,1576,1555,1553,0,0,0,0,0,0,0,0,0,0
1706511514.70003104,59928519,1575,1577,1555,1555,0,0,0,0,0,0,0,0,0,0
1706511514.79999113,60028479,1574,1576,1553,1553,0,0,0,0,0,0,0,0,0,0
1706511514.89995098,60128439,1575,1576,1553,1553,0,0,0,0,0,0,0,0,0,0
1706511514.99991107,60228399,1576,1577,1551,1551,0,0,0,0,0,0,0,0,0,0
1706511515.09987092,60328359,1577,1578,1548,1549,0,0,0,0,0,0,0,0,0,0
1706511515.19983101,60428319,1580,1581,1547,1546,0,0,0,0,0,0,0,0,0,0
1706511515.29979110,60528279,1582,1583,1544,1544,0,0,0,0,0,0,0,0,0,0
1706511515.39975095,60628239,1585,1586,1541,1540,0,0,0,0,0,0,0,0,0,0
1706511515.49971104,60728199,1589,1589,1539,1539,0,0,0,0,0,0,0,0,0,0
1706511515.59967113,60828159,1591,1592,1536,1536,0,0,0,0,0,0,0,0,0,0
1706511515.70046401,60928952,1595,1594,1535,1536,0,0,0,0,0,0,0,0,0,0
1706511515.80042410,61028912,1595,1595,1535,1536,0,0,0,0,0,0,0,0,0,0
1706511515.90038395,61128872,1594,1595,1535,1537,0,0,0,0,0,0,0,0,0,0
1706511516.00034404,61228832,1593,1593,1537,1540,0,0,0,0,0,0,0,0,0,0
1706511516.10030413,61328792,1590,1589,1541,1544,0,0,0,0,0,0,0,0,0,0
1706511516.20026398,61428752,1586,1584,1549,1552,0,0,0,0,0,0,0,0,0,0
1706511516.30022407,61528712,1579,1575,1557,1560,0,0,0,0,0,0,0,0,0,0
1706511516.40018392,61628672,1570,1566,1569,1571,0,0,0,0,0,0,0,0,0,0
1706511516.50014400,61728632,1558,1553,1581,1582,0,0,0,0,0,0,0,0,0,0
1706511516.60010409,61828592,1548,1545,1594,1594,0,0,0,0,0,0,0,0,0,0
1706511516.70006394,61928552,1538,1536,1603,1603,0,0,0,0,0,0,0,0,0,0
1706511516.80002403,62028512,1531,1532,1611,1610,0,0,0,0,0,0,0,0,0,0
1706511516.89998412,62128472,1529,1530,1615,1614,0,0,0,0,0,0,0,0,0,0
1706511516.99994397,62228432,1530,1532,1615,1614,0,0,0,0,0,0,0,0,0,0
1706511517.09990406,62328392,1534,1536,1612,1611,0,0,0,0,0,0,0,0,0,0
1706511517.19986415,62428352,1541,1543,1606,1606,0,0,0,0,0,0,0,0,0,0
1706511517.29982400,62528312,1550,1551,1600,1600,0,0,0,0,0,0,0,0,0,0
1706511517.39978409,62628272,1559,1559,1592,1592,0,0,0,0,0,0,0,0,0,0
1706511517.49974394,62728232,1567,1567,1585,1584,0,0,0,0,0,0,0,0,0,0
1706511517.59970403,62828192,1575,1575,1578,1577,0,0,0,0,0,0,0,0,0,0
1706511517.70049715,62928985,1582,1581,1573,1573,0,0,0,0,0,0,0,0,0,0
1706511517.80045700,63028945,1585,1584,1569,1569,0,0,0,0,0,0,0,0,0,0
1706511517.90041709,63128905,1587,1586,1566,1566,0,0,0,0,0,0,0,0,0,0
1706511518.00037694,63228865,1587,1586,1566,1566,0,0,0,0,0,0,0,0,0,0
1706511518.10033703,63328825,1587,1585,1567,1567,0,0,0,0,0,0,0,0,0,0
1706511518.20029712,63428785,1585,1584,1569,1570,0,0,0,0,0,0,0,0,0,0
1706511518.30025697,63528745,1582,1582,1572,1572,0,0,0,0,0,0,0,0,0,0
1706511518.40021706,63628705,1579,1579,1575,1575,0,0,0,0,0,0,0,0,0,0
1706511518.50017715,63728665,1577,1577,1578,1578,0,0,0,0,0,0,0,0,0,0
1706511518.60013700,63828625,1574,1575,1581,1580,0,0,0,0,0,0,0,0,0,0
1706511518.70009708,63928585,1573,1573,1582,1582,0,0,0,0,0,0,0,0,0,0
1706511518.80005693,64028545,1573,1573,1584,1584,0,0,0,0,0,0,0,0,0,0
1706511518.90001702,64128505,1559,1564,1569,1577,0,0,0,0,0,0,0,0,0,0
1706511518.99997711,64228465,1587,1565,1598,1575,0,0,0,0,0,0,0,0,0,0
1706511519.09993696,64328425,1611,1578,1620,1587,0,0,0,0,0,0,0,0,0,0
1706511519.19989705,64428385,1620,1591,1628,1597,0,0,0,0,0,0,0,0,0,0
1706511519.29985714,64528345,1616,1599,1621,1603,0,0,0,0,0,0,0,0,0,0
1706511519.39981699,64628305,1603,1602,1607,1603,0,0,0,0,0,0,0,0,0,0
1706511519.49977708,64728265,1590,1600,1592,1602,0,0,0,0,0,0,0,0,0,0
1706511519.59973693,64828225,1579,1595,1582,1598,0,0,0,0,0,0,0,0,0,0
1706511519.69969702,64928185,1574,1588,1578,1594,0,0,0,0,0,0,0,0,0,0
1706511519.80049014,65028978,1573,1582,1578,1589,0,0,0,0,0,0,0,0,0,0
1706511519.90044999,65128938,1576,1579,1580,1584,0,0,0,0,0,0,0,0,0,0
1706511520.00041008,65228898,1579,1577,1581,1579,0,0,0,0,0,0,0,0,0,0
1706511520.10036993,65328858,1582,1578,1580,1577,0,0,0,0,0,0,0,0,0,0
1706511520.20033002,65428818,1583,1580,1580,1575,0,0,0,0,0,0,0,0,0,0
1706511520.30029011,65528778,1583,1581,1577,1574,0,0,0,0,0,0,0,0,0,0
1706511520.40024996,65628738,1582,1582,1575,1574,0,0,0,0,0,0,0,0,0,0
1706511520.50021005,65728698,1580,1581,1572,1573,0,0,0,0,0,0,0,0,0,0
1706511520.60017014,65828658,1579,1581,1571,1573,0,0,0,0,0,0,0,0,0,0
1706511520.70012999,65928618,1578,1580,1571,1573,0,0,0,0,0,0,0,0,0,0
1706511520.80009007,66028578,1577,1578,1571,1573,0,0,0,0,0,0,0,0,0,0
1706511520.90004992,66128538,1578,1578,1573,1574,0,0,0,0,0,0,0,0,0,0
1706511521.00001001,66228498,1577,1577,1574,1574,0,0,0,0,0,0,0,0,0,0
1706511521.09997010,66328458,1577,1577,1576,1576,0,0,0,0,0,0,0,0,0,0
1706511521.19992995,66428418,1577,1576,1576,1575,0,0,0,0,0,0,0,0,0,0
1706511521.29989004,66528378,1577,1577,1577,1576,0,0,0,0,0,0,0,0,0,0
1706511521.39985013,66628338,1577,1577,1578,1577,0,0,0,0,0,0,0,0,0,0
1706511521.49980998,66728298,1577,1577,1581,1574,0,0,0,0,0,0,0,0,0,0
1706511521.59977007,66828258,1578,1579,1585,1570,0,0,0,0,0,0,0,0,0,0
1706511521.69972992,66928218,1576,1579,1579,1571,0,0,0,0,0,0,0,0,0,0
1706511521.79969001,67028178,1575,1579,1571,1571,0,0,0,0,0,0,0,0,0,0
1706511521.90048313,67128971,1573,1576,1562,1568,0,0,0,0,0,0,0,0,0,0
1706511522.00044298,67228931,1574,1576,1557,1565,0,0,0,0,0,0,0,0,0,0
1706511522.10040307,67328891,1576,1576,1554,1561,0,0,0,0,0,0,0,0,0,0
1706511522.20036292,67428851,1577,1576,1553,1556,0,0,0,0,0,0,0,0,0,0
1706511522.30032301,67528811,1578,1577,1554,1553,0,0,0,0,0,0,0,0,0,0
1706511522.40028310,67628771,1578,1577,1554,1551,0,0,0,0,0,0,0,0,0,0
1706511522.50024295,67728731,1577,1576,1553,1550,0,0,0,0,0,0,0,0,0,0
1706511522.60020304,67828691,1577,1578,1553,1551,0,0,0,0,0,0,0,0,0,0
1706511522.70016313,67928651,1576,1577,1553,1551,0,0,0,0,0,0,0,0,0,0
1706511522.80012298,68028611,1576,1578,1552,1551,0,0,0,0,0,0,0,0,0,0
1706511522.90008307,68128571,1576,1578,1551,1551,0,0,0,0,0,0,0,0,0,0
1706511523.00004292,68228531,1577,1578,1549,1550,0,0,0,0,0,0,0,0,0,0
1706511523.10000300,68328491,1578,1580,1549,1549,0,0,0,0,0,0,0,0,0,0
1706511523.19996309,68428451,1580,1581,1547,1546,0,0,0,0,0,0,0,0,0,0
1706511523.29992294,68528411,1582,1583,1545,1545,0,0,0,0,0,0,0,0,0,0
1706511523.39988303,68628371,1584,1584,1543,1543,0,0,0,0,0,0,0,0,0,0
1706511523.49984312,68728331,1587,1587,1542,1542,0,0,0,0,0,0,0,0,0,0
1706511523.59980297,68828291,1588,1588,1541,1540,0,0,0,0,0,0,0,0,0,0
1706511523.69976306,68928251,1589,1588,1539,1540,0,0,0,0,0,0,0,0,0,0
1706511523.79972315,69028211,1588,1588,1540,1541,0,0,0,0,0,0,0,0,0,0
1706511523.89968300,69128171,1588,1587,1542,1544,0,0,0,0,0,0,0,0,0,0
1706511524.00047612,69228964,1587,1586,1545,1547,0,0,0,0,0,0,0,0,0,0
1706511524.10043597,69328924,1584,1582,1549,1552,0,0,0,0,0,0,0,0,0,0
1706511524.20039606,69428884,1579,1577,1555,1557,0,0,0,0,0,0,0,0,0,0
1706511524.30035615,69528844,1572,1570,1563,1565,0,0,0,0,0,0,0,0,0,0
1706511524.40031600,69628804,1566,1563,1572,1574,0,0,0,0,0,0,0,0,0,0
1706511524.50027609,69728764,1557,1554,1581,1582,0,0,0,0,0,0,0,0,0,0
1706511524.60023594,69828724,1549,1548,1590,1590,0,0,0,0,0,0,0,0,0,0
1706511524.70019603,69928684,1543,1542,1597,1597,0,0,0,0,0,0,0,0,0,0
1706511524.80015612,70028644,1539,1540,1603,1602,0,0,0,0,0,0,0,0,0,0
1706511524.90011597,70128604,1538,1539,1606,1605,0,0,0,0,0,0,0,0,0,0
1706511525.00007606,70228564,1540,1541,1606,1605,0,0,0,0,0,0,0,0,0,0
1706511525.10003614,70328524,1543,1544,1604,1603,0,0,0,0,0,0,0,0,0,0
1706511525.19999599,70428484,1547,1549,1600,1600,0,0,0,0,0,0,0,0,0,0
1706511525.29995608,70528444,1553,1554,1595,1594,0,0,0,0,0,0,0,0,0,0
1706511525.39991593,70628404,1560,1560,1590,1589,0,0,0,0,0,0,0,0,0,0
1706511525.49987602,70728364,1566,1566,1584,1584,0,0,0,0,0,0,0,0,0,0
1706511525.59983611,70828324,1573,1572,1579,1579,0,0,0,0,0,0,0,0,0,0
1706511525.69979596,70928284,1577,1576,1575,1575,0,0,0,0,0,0,0,0,0,0
1706511525.79975605,71028244,1580,1579,1571,1571,0,0,0,0,0,0,0,0,0,0
1706511525.89971614,71128204,1583,1582,1570,1571,0,0,0,0,0,0,0,0,0,0
1706511525.99967599,71228164,1584,1582,1569,1569,0,0,0,0,0,0,0,0,0,0
1706511526.10046911,71328957,1584,1583,1570,1570,0,0,0,0,0,0,0,0,0,0
1706511526.20042896,71428917,1584,1583,1572,1572,0,0,0,0,0,0,0,0,0,0
1706511526.30038905,71528877,1582,1582,1573,1573,0,0,0,0,0,0,0,0,0,0
1706511526.40034914,71628837,1580,1580,1575,1575,0,0,0,0,0,0,0,0,0,0
1706511526.50030899,71728797,1578,1579,1577,1578,0,0,0,0,0,0,0,0,0,0
1706511526.60026908,71828757,1576,1577,1579,1579,0,0,0,0,0,0,0,0,0,0
1706511526.70022893,71928717,1575,1575,1581,1580,0,0,0,0,0,0,0,0,0,0
1706511526.80018902,72028677,1574,1575,1582,1582,0,0,0,0,0,0,0,0,0,0
1706511526.90014911,72128637,1574,1574,1582,1582,0,0,0,0,0,0,0,0,0,0
1706511527.00010896,72228597,1574,1575,1582,1583,0,0,0,0,0,0,0,0,0,0
1706511527.10006905,72328557,1575,1575,1582,1582,0,0,0,0,0,0,0,0,0,0
1706511527.20002913,72428517,1576,1576,1582,1582,0,0,0,0,0,0,0,0,0,0
1706511527.29998899,72528477,1577,1577,1581,1581,0,0,0,0,0,0,0,0,0,0
1706511527.39994907,72628437,1578,1578,1580,1580,0,0,0,0,0,0,0,0,0,0
1706511527.49990892,72728397,1579,1579,1579,1579,0,0,0,0,0,0,0,0,0,0
1706511527.59986901,72828357,1580,1579,1578,1578,0,0,0,0,0,0,0,0,0,0
1706511527.69982910,72928317,1580,1579,1577,1578,0,0,0,0,0,0,0,0,0,0
1706511527.79978895,73028277,1581,1581,1578,1579,0,0,0,0,0,0,0,0,0,0
1706511527.89974904,73128237,1582,1582,1579,1579,0,0,0,0,0,0,0,0,0,0
1706511527.99970913,73228197,1582,1582,1579,1579,0,0,0,0,0,0,0,0,0,0
1706511528.09966898,73328157,1582,1582,1579,1579,0,0,0,0,0,0,0,0,0,0
1706511528.20046210,73428950,1582,1582,1580,1580,0,0,0,0,0,0,0,0,0,0
1706511528.30042195,73528910,1581,1581,1580,1580,0,0,0,0,0,0,0,0,0,0
1706511528.40038204,73628870,1580,1581,1580,1580,0,0,0,0,0,0,0,0,0,0
1706511528.50034213,73728830,1580,1580,1580,1580,0,0,0,0,0,0,0,0,0,0
1706511528.60030198,73828790,1579,1579,1579,1580,0,0,0,0,0,0,0,0,0,0
1706511528.70026207,73928750,1580,1580,1581,1581,0,0,0,0,0,0,0,0,0,0
1706511528.80022192,74028710,1579,1579,1580,1580,0,0,0,0,0,0,0,0,0,0
1706511528.90018201,74128670,1579,1579,1580,1580,0,0,0,0,0,0,0,0,0,0
1706511529.00014210,74228630,1579,1579,1580,1580,0,0,0,0,0,0,0,0,0,0
1706511529.10010195,74328590,1580,1580,1580,1581,0,0,0,0,0,0,0,0,0,0
1706511529.20006204,74428550,1580,1580,1581,1581,0,0,0,0,0,0,0,0,0,0
1706511529.30002213,74528510,1581,1581,1582,1581,0,0,0,0,0,0,0,0,0,0
1706511529.39998198,74628470,1582,1582,1582,1582,0,0,0,0,0,0,0,0,0,0
1706511529.49994206,74728430,1581,1581,1581,1581,0,0,0,0,0,0,0,0,0,0
1706511529.59990191,74828390,1582,1582,1582,1582,0,0,0,0,0,0,0,0,0,0
1706511529.69986200,74928350,1582,1582,1582,1581,0,0,0,0,0,0,0,0,0,0
1706511529.79982209,75028310,1582,1581,1581,1581,0,0,0,0,0,0,0,0,0,0
1706511529.89978194,75128270,1581,1581,1581,1581,0,0,0,0,0,0,0,0,0,0
1706511529.99974203,75228230,1582,1583,1588,1574,0,0,0,0,0,0,0,0,0,0
1706511530.09970212,75328190,1581,1584,1585,1573,0,0,0,0,0,0,0,0,0,0
1706511530.20049500,75428983,1579,1582,1577,1574,0,0,0,0,0,0,0,0,0,0
1706511530.30045509,75528943,1577,1580,1568,1571,0,0,0,0,0,0,0,0,0,0
1706511530.40041494,75628903,1577,1579,1561,1568,0,0,0,0,0,0,0,0,0,0
1706511530.50037503,75728863,1577,1578,1557,1563,0,0,0,0,0,0,0,0,0,0
1706511530.60033512,75828823,1578,1577,1554,1558,0,0,0,0,0,0,0,0,0,0
1706511530.70029497,75928783,1579,1577,1554,1555,0,0,0,0,0,0,0,0,0,0
1706511530.80025506,76028743,1579,1578,1555,1554,0,0,0,0,0,0,0,0,0,0
1706511530.90021515,76128703,1578,1577,1555,1553,0,0,0,0,0,0,0,0,0,0
1706511531.00017500,76228663,1578,1578,1556,1553,0,0,0,0,0,0,0,0,0,0
1706511531.10013509,76328623,1577,1577,1555,1554,0,0,0,0,0,0,0,0,0,0
1706511531.20009494,76428583,1575,1577,1554,1553,0,0,0,0,0,0,0,0,0,0
1706511531.30005503,76528543,1575,1576,1553,1553,0,0,0,0,0,0,0,0,0,0
1706511531.40001512,76628503,1575,1577,1552,1552,0,0,0,0,0,0,0,0,0,0
1706511531.49997497,76728463,1576,1578,1550,1551,0,0,0,0,0,0,0,0,0,0
1706511531.59993505,76828423,1577,1579,1549,1549,0,0,0,0,0,0,0,0,0,0
1706511531.69989514,76928383,1580,1581,1547,1547,0,0,0,0,0,0,0,0,0,0
1706511531.79985499,77028343,1583,1584,1545,1544,0,0,0,0,0,0,0,0,0,0
1706511531.89981508,77128303,1586,1586,1542,1542,0,0,0,0,0,0,0,0,0,0
1706511531.99977493,77228263,1589,1588,1540,1540,0,0,0,0,0,0,0,0,0,0
1706511532.09973502,77328223,1591,1590,1538,1539,0,0,0,0,0,0,0,0,0,0
1706511532.19969511,77428183,1592,1592,1537,1538,0,0,0,0,0,0,0,0,0,0
1706511532.30048800,77528976,1593,1593,1537,1539,0,0,0,0,0,0,0,0,0,0
1706511532.40044808,77628936,1592,1593,1538,1540,0,0,0,0,0,0,0,0,0,0
1706511532.50040793,77728896,1593,1592,1541,1544,0,0,0,0,0,0,0,0,0,0
1706511532.60036802,77828856,1589,1587,1545,1548,0,0,0,0,0,0,0,0,0,0
1706511532.70032811,77928816,1584,1581,1553,1556,0,0,0,0,0,0,0,0,0,0
1706511532.80028796,78028776,1576,1572,1561,1565,0,0,0,0,0,0,0,0,0,0
1706511532.90024805,78128736,1567,1563,1573,1575,0,0,0,0,0,0,0,0,0,0
1706511533.00020814,78228696,1557,1554,1585,1586,0,0,0,0,0,0,0,0,0,0
1706511533.10016799,78328656,1546,1545,1596,1595,0,0,0,0,0,0,0,0,0,0
1706511533.20012808,78428616,1538,1539,1604,1603,0,0,0,0,0,0,0,0,0,0
1706511533.30008793,78528576,1534,1536,1611,1609,0,0,0,0,0,0,0,0,0,0
1706511533.40004802,78628536,1533,1535,1614,1612,0,0,0,0,0,0,0,0,0,0
1706511533.50000811,78728496,1534,1536,1613,1610,0,0,0,0,0,0,0,0,0,0
1706511533.59996796,78828456,1539,1541,1609,1608,0,0,0,0,0,0,0,0,0,0
1706511533.69992805,78928416,1545,1546,1604,1603,0,0,0,0,0,0,0,0,0,0
1706511533.79988813,79028376,1552,1553,1597,1597,0,0,0,0,0,0,0,0,0,0
1706511533.89984798,79128336,1561,1561,1590,1590,0,0,0,0,0,0,0,0,0,0
1706511533.99980807,79228296,1568,1568,1584,1583,0,0,0,0,0,0,0,0,0,0
1706511534.09976792,79328256,1575,1573,1577,1577,0,0,0,0,0,0,0,0,0,0
1706511534.19972801,79428216,1580,1579,1572,1573,0,0,0,0,0,0,0,0,0,0
1706511534.29968810,79528176,1584,1582,1568,1569,0,0,0,0,0,0,0,0,0,0
1706511534.40048099,79628969,1586,1584,1567,1567,0,0,0,0,0,0,0,0,0,0
1706511534.50044107,79728929,1587,1585,1566,1567,0,0,0,0,0,0,0,0,0,0
1706511534.60040092,79828889,1586,1585,1568,1568,0,0,0,0,0,0,0,0,0,0
1706511534.70036101,79928849,1584,1584,1570,1570,0,0,0,0,0,0,0,0,0,0
1706511534.80032110,80028809,1582,1582,1572,1572,0,0,0,0,0,0,0,0,0,0
1706511534.90028095,80128769,1580,1579,1575,1575,0,0,0,0,0,0,0,0,0,0
1706511535.00024104,80228729,1577,1578,1578,1578,0,0,0,0,0,0,0,0,0,0
1706511535.10020113,80328689,1575,1575,1580,1580,0,0,0,0,0,0,0,0,0,0
1706511535.20016098,80428649,1574,1574,1582,1581,0,0,0,0,0,0,0,0,0,0
1706511535.30012107,80528609,1573,1574,1584,1583,0,0,0,0,0,0,0,0,0,0
1706511535.40008092,80628569,1572,1573,1583,1583,0,0,0,0,0,0,0,0,0,0
1706511535.50004101,80728529,1573,1575,1584,1584,0,0,0,0,0,0,0,0,0,0
1706511535.60000110,80828489,1574,1574,1583,1583,0,0,0,0,0,0,0,0,0,0
1706511535.69996095,80928449,1575,1575,1582,1583,0,0,0,0,0,0,0,0,0,0
1706511535.79992104,81028409,1577,1577,1582,1582,0,0,0,0,0,0,0,0,0,0
1706511535.89988112,81128369,1579,1579,1581,1581,0,0,0,0,0,0,0,0,0,0
1706511535.99984097,81228329,1580,1580,1580,1579,0,0,0,0,0,0,0,0,0,0
1706511536.09980106,81328289,1581,1581,1579,1579,0,0,0,0,0,0,0,0,0,0
1706511536.19976091,81428249,1582,1582,1579,1579,0,0,0,0,0,0,0,0,0,0
1706511536.29972100,81528209,1581,1581,1577,1577,0,0,0,0,0,0,0,0,0,0
1706511536.39968109,81628169,1581,1581,1577,1577,0,0,0,0,0,0,0,0,0,0
1706511536.50047398,81728962,1581,1581,1577,1577,0,0,0,0,0,0,0,0,0,0
1706511536.60043406,81828922,1582,1581,1578,1578,0,0,0,0,0,0,0,0,0,0
1706511536.70039392,81928882,1581,1581,1578,1579,0,0,0,0,0,0,0,0,0,0
1706511536.80035400,82028842,1580,1581,1579,1579,0,0,0,0,0,0,0,0,0,0
1706511536.90031409,82128802,1581,1581,1580,1580,0,0,0,0,0,0,0,0,0,0
1706511537.00027394,82228762,1580,1580,1581,1580,0,0,0,0,0,0,0,0,0,0
1706511537.10023403,82328722,1581,1581,1582,1582,0,0,0,0,0,0,0,0,0,0
1706511537.20019412,82428682,1580,1581,1582,1582,0,0,0,0,0,0,0,0,0,0
1706511537.30015397,82528642,1580,1580,1581,1581,0,0,0,0,0,0,0,0,0,0
1706511537.40011406,82628602,1579,1579,1581,1581,0,0,0,0,0,0,0,0,0,0
1706511537.50007415,82728562,1580,1580,1581,1581,0,0,0,0,0,0,0,0,0,0
1706511537.60003400,82828522,1581,1581,1582,1582,0,0,0,0,0,0,0,0,0,0
1706511537.69999409,82928482,1580,1581,1582,1582,0,0,0,0,0,0,0,0,0,0
1706511537.79995394,83028442,1580,1580,1581,1581,0,0,0,0,0,0,0,0,0,0
1706511537.89991403,83128402,1581,1581,1581,1581,0,0,0,0,0,0,0,0,0,0
1706511537.99987411,83228362,1581,1582,1587,1573,0,0,0,0,0,0,0,0,0,0
1706511538.09983397,83328322,1581,1582,1585,1574,0,0,0,0,0,0,0,0,0,0
1706511538.19979405,83428282,1579,1578,1579,1575,0,0,0,0,0,0,0,0,0,0
1706511538.29975414,83528242,1576,1575,1572,1576,0,0,0,0,0,0,0,0,0,0
1706511538.39971399,83628202,1571,1570,1566,1573,0,0,0,0,0,0,0,0,0,0
1706511538.49967408,83728162,1570,1569,1565,1572,0,0,0,0,0,0,0,0,0,0
1706511538.60046697,83828955,1566,1567,1564,1568,0,0,0,0,0,0,0,0,0,0
1706511538.70042706,83928915,1566,1567,1565,1567,0,0,0,0,0,0,0,0,0,0
1706511538.80038714,84028875,1565,1565,1566,1564,0,0,0,0,0,0,0,0,0,0
1706511538.90034699,84128835,1564,1565,1566,1563,0,0,0,0,0,0,0,0,0,0
1706511539.00030708,84228795,1564,1565,1567,1564,0,0,0,0,0,0,0,0,0,0
1706511539.10026693,84328755,1565,1565,1566,1564,0,0,0,0,0,0,0,0,0,0
1706511539.20022702,84428715,1563,1563,1564,1563,0,0,0,0,0,0,0,0,0,0
1706511539.30018711,84528675,1563,1562,1563,1563,0,0,0,0,0,0,0,0,0,0
1706511539.40014696,84628635,1562,1562,1562,1563,0,0,0,0,0,0,0,0,0,0
1706511539.50010705,84728595,1561,1561,1561,1562,0,0,0,0,0,0,0,0,0,0
1706511539.60006714,84828555,1560,1561,1561,1561,0,0,0,0,0,0,0,0,0,0
1706511539.70002699,84928515,1561,1561,1561,1561,0,0,0,0,0,0,0,0,0,0
1706511539.79998708,85028475,1560,1560,1561,1560,0,0,0,0,0,0,0,0,0,0
1706511539.89994693,85128435,1560,1560,1560,1559,0,0,0,0,0,0,0,0,0,0
1706511539.99990702,85228395,1558,1559,1559,1558,0,0,0,0,0,0,0,0,0,0
1706511540.09986711,85328355,1558,1558,1558,1557,0,0,0,0,0,0,0,0,0,0
1706511540.19982696,85428315,1558,1558,1558,1557,0,0,0,0,0,0,0,0,0,0
1706511540.29978704,85528275,1558,1558,1558,1557,0,0,0,0,0,0,0,0,0,0
1706511540.39974713,85628235,1558,1558,1558,1557,0,0,0,0,0,0,0,0,0,0
1706511540.49970698,85728195,1559,1558,1559,1558,0,0,0,0,0,0,0,0,0,0
1706511540.59966707,85828155,1559,1558,1559,1557,0,0,0,0,0,0,0,0,0,0
1706511540.70045996,85928948,1559,1559,1561,1558,0,0,0,0,0,0,0,0,0,0
1706511540.80042005,86028908,1559,1559,1559,1559,0,0,0,0,0,0,0,0,0,0
1706511540.90038013,86128868,1559,1559,1557,1562,0,0,0,0,0,0,0,0,0,0
1706511541.00033998,86228828,1560,1561,1557,1564,0,0,0,0,0,0,0,0,0,0
1706511541.10030007,86328788,1560,1561,1557,1563,0,0,0,0,0,0,0,0,0,0
1706511541.20025992,86428748,1561,1562,1559,1563,0,0,0,0,0,0,0,0,0,0
1706511541.30022001,86528708,1563,1562,1561,1563,0,0,0,0,0,0,0,0,0,0
1706511541.40018010,86628668,1562,1562,1563,1561,0,0,0,0,0,0,0,0,0,0
1706511541.50013995,86728628,1561,1560,1562,1559,0,0,0,0,0,0,0,0,0,0
1706511541.60010004,86828588,1561,1561,1562,1559,0,0,0,0,0,0,0,0,0,0
1706511541.70006013,86928548,1560,1560,1558,1562,0,0,0,0,0,0,0,0,0,0
1706511541.80001998,87028508,1556,1556,1553,1559,0,0,0,0,0,0,0,0,0,0
1706511541.89998007,87128468,1552,1552,1550,1554,0,0,0,0,0,0,0,0,0,0
1706511541.99993992,87228428,1546,1546,1546,1547,0,0,0,0,0,0,0,0,0,0
1706511542.09990001,87328388,1539,1539,1540,1539,0,0,0,0,0,0,0,0,0,0
1706511542.19986010,87428348,1533,1533,1534,1532,0,0,0,0,0,0,0,0,0,0
1706511542.29981995,87528308,1525,1525,1526,1524,0,0,0,0,0,0,0,0,0,0
1706511542.39978004,87628268,1521,1521,1521,1520,0,0,0,0,0,0,0,0,0,0
1706511542.49974012,87728228,1520,1521,1521,1521,0,0,0,0,0,0,0,0,0,0
1706511542.59969997,87828188,1520,1521,1520,1521,0,0,0,0,0,0,0,0,0,0
1706511542.70049310,87928981,1522,1522,1521,1522,0,0,0,0,0,0,0,0,0,0
1706511542.80045295,88028941,1524,1525,1524,1525,0,0,0,0,0,0,0,0,0,0
1706511542.90041304,88128901,1529,1529,1529,1530,0,0,0,0,0,0,0,0,0,0
1706511543.00037313,88228861,1534,1534,1534,1534,0,0,0,0,0,0,0,0,0,0
1706511543.10033298,88328821,1537,1537,1537,1537,0,0,0,0,0,0,0,0,0,0
1706511543.20029306,88428781,1541,1540,1541,1540,0,0,0,0,0,0,0,0,0,0
1706511543.30025291,88528741,1543,1543,1543,1543,0,0,0,0,0,0,0,0,0,0
1706511543.40021300,88628701,1545,1544,1545,1544,0,0,0,0,0,0,0,0,0,0
1706511543.50017309,88728661,1546,1545,1546,1545,0,0,0,0,0,0,0,0,0,0
1706511543.60013294,88828621,1546,1546,1546,1546,0,0,0,0,0,0,0,0,0,0
1706511543.70009303,88928581,1546,1546,1546,1546,0,0,0,0,0,0,0,0,0,0
1706511543.80005312,89028541,1546,1547,1546,1546,0,0,0,0,0,0,0,0,0,0
1706511543.90001297,89128501,1547,1546,1547,1546,0,0,0,0,0,0,0,0,0,0
1706511543.99997306,89228461,1547,1547,1547,1547,0,0,0,0,0,0,0,0,0,0
1706511544.09993315,89328421,1546,1546,1546,1546,0,0,0,0,0,0,0,0,0,0
1706511544.19989300,89428381,1546,1546,1546,1546,0,0,0,0,0,0,0,0,0,0
1706511544.29985309,89528341,1546,1546,1546,1546,0,0,0,0,0,0,0,0,0,0
1706511544.39981294,89628301,1545,1546,1546,1546,0,0,0,0,0,0,0,0,0,0
1706511544.49977303,89728261,1546,1545,1546,1545,0,0,0,0,0,0,0,0,0,0
1706511544.59973311,89828221,1546,1546,1545,1546,0,0,0,0,0,0,0,0,0,0
1706511544.69969296,89928181,1544,1545,1544,1544,0,0,0,0,0,0,0,0,0,0
1706511544.80048609,90028974,1544,1544,1543,1544,0,0,0,0,0,0,0,0,0,0
1706511544.90044594,90128934,1545,1545,1545,1545,0,0,0,0,0,0,0,0,0,0
1706511545.00040603,90228894,1544,1544,1544,1544,0,0,0,0,0,0,0,0,0,0
1706511545.10036612,90328854,1544,1544,1544,1544,0,0,0,0,0,0,0,0,0,0
1706511545.20032597,90428814,1543,1544,1544,1543,0,0,0,0,0,0,0,0,0,0
1706511545.30028605,90528774,1544,1544,1544,1544,0,0,0,0,0,0,0,0,0,0
1706511545.40024614,90628734,1544,1544,1544,1544,0,0,0,0,0,0,0,0,0,0
1706511545.50020599,90728694,1544,1544,1544,1543,0,0,0,0,0,0,0,0,0,0
1706511545.60016608,90828654,1544,1543,1543,1543,0,0,0,0,0,0,0,0,0,0
1706511545.70012593,90928614,1544,1544,1544,1544,0,0,0,0,0,0,0,0,0,0
1706511545.80008602,91028574,1543,1544,1543,1543,0,0,0,0,0,0,0,0,0,0
1706511545.90004611,91128534,1544,1544,1544,1544,0,0,0,0,0,0,0,0,0,0
1706511546.00000596,91228494,1543,1544,1544,1544,0,0,0,0,0,0,0,0,0,0
1706511546.09996605,91328454,1543,1543,1544,1543,0,0,0,0,0,0,0,0,0,0
1706511546.19992614,91428414,1544,1544,1544,1544,0,0,0,0,0,0,0,0,0,0
1706511546.29988599,91528374,1545,1545,1545,1545,0,0,0,0,0,0,0,0,0,0
1706511546.39984608,91628334,1544,1544,1544,1544,0,0,0,0,0,0,0,0,0,0
1706511546.49980593,91728294,1544,1544,1544,1544,0,0,0,0,0,0,0,0,0,0
1706511546.59976602,91828254,1544,1544,1544,1544,0,0,0,0,0,0,0,0,0,0
1706511546.69972610,91928214,1545,1544,1545,1544,0,0,0,0,0,0,0,0,0,0
1706511546.79968596,92028174,1544,1544,1544,1544,0,0,0,0,0,0,0,0,0,0
1706511546.90047908,92128967,1544,1544,1544,1544,0,0,0,0,0,0,0,0,0,0
1706511547.00043893,92228927,1545,1545,1545,1545,0,0,0,0,0,0,0,0,0,0
1706511547.10039902,92328887,1545,1544,1544,1544,0,0,0,0,0,0,0,0,0,0
1706511547.20035911,92428847,1543,1544,1544,1544,0,0,0,0,0,0,0,0,0,0
1706511547.30031896,92528807,1544,1544,1544,1544,0,0,0,0,0,0,0,0,0,0
1706511547.40027905,92628767,1544,1545,1544,1544,0,0,0,0,0,0,0,0,0,0
1706511547.50023913,92728727,1544,1544,1544,1544,0,0,0,0,0,0,0,0,0,0
1706511547.60019898,92828687,1544,1544,1544,1544,0,0,0,0,0,0,0,0,0,0
1706511547.70015907,92928647,1545,1544,1544,1545,0,0,0,0,0,0,0,0,0,0
1706511547.80011892,93028607,1543,1544,1543,1543,0,0,0,0,0,0,0,0,0,0
1706511547.90007901,93128567,1544,1545,1544,1545,0,0,0,0,0,0,0,0,0,0
1706511548.00003910,93228527,1545,1545,1545,1545,0,0,0,0,0,0,0,0,0,0
1706511548.09999895,93328487,1544,1544,1544,1544,0,0,0,0,0,0,0,0,0,0
1706511548.19995904,93428447,1544,1544,1544,1544,0,0,0,0,0,0,0,0,0,0
1706511548.29991913,93528407,1544,1544,1543,1544,0,0,0,0,0,0,0,0,0,0
1706511548.39987898,93628367,1543,1543,1543,1543,0,0,0,0,0,0,0,0,0,0
1706511548.49983907,93728327,1543,1543,1543,1543,0,0,0,0,0,0,0,0,0,0
1706511548.59979892,93828287,1543,1544,1544,1543,0,0,0,0,0,0,0,0,0,0
1706511548.69975901,93928247,1544,1544,1544,1544,0,0,0,0,0,0,0,0,0,0
1706511548.79971910,94028207,1543,1544,1544,1543,0,0,0,0,0,0,0,0,0,0
1706511548.89967895,94128167,1544,1544,1544,1544,0,0,0,0,0,0,0,0,0,0
1706511549.00047207,94228960,1543,1543,1543,1544,0,0,0,0,0,0,0,0,0,0
1706511549.10043192,94328920,1545,1544,1544,1545,0,0,0,0,0,0,0,0,0,0
1706511549.20039201,94428880,1545,1545,1545,1545,0,0,0,0,0,0,0,0,0,0
1706511549.30035210,94528840,1545,1545,1545,1545,0,0,0,0,0,0,0,0,0,0
1706511549.40031195,94628800,1544,1544,1544,1544,0,0,0,0,0,0,0,0,0,0
1706511549.50027204,94728760,1545,1545,1545,1545,0,0,0,0,0,0,0,0,0,0
1706511549.60023212,94828720,1545,1545,1546,1545,0,0,0,0,0,0,0,0,0,0
1706511549.70019197,94928680,1545,1545,1545,1545,0,0,0,0,0,0,0,0,0,0
1706511549.80015206,95028640,1545,1545,1545,1545,0,0,0,0,0,0,0,0,0,0
1706511549.90011191,95128600,1544,1544,1544,1544,0,0,0,0,0,0,0,0,0,0
1706511550.00007200,95228560,1545,1545,1545,1545,0,0,0,0,0,0,0,0,0,0
1706511550.10003209,95328520,1545,1546,1545,1546,0,0,0,0,0,0,0,0,0,0
1706511550.19999194,95428480,1545,1545,1545,1545,0,0,0,0,0,0,0,0,0,0
1706511550.29995203,95528440,1545,1544,1545,1545,0,0,0,0,0,0,0,0,0,0
1706511550.39991212,95628400,1544,1545,1544,1545,0,0,0,0,0,0,0,0,0,0
1706511550.49987197,95728360,1544,1544,1544,1544,0,0,0,0,0,0,0,0,0,0
1706511550.59983206,95828320,1544,1544,1544,1544,0,0,0,0,0,0,0,0,0,0
1706511550.69979215,95928280,1544,1544,1544,1544,0,0,0,0,0,0,0,0,0,0
1706511550.79975200,96028240,1544,1544,1544,1544,0,0,0,0,0,0,0,0,0,0
1706511550.89971209,96128200,1544,1544,1544,1544,0,0,0,0,0,0,0,0,0,0
1706511550.99967194,96228160,1544,1544,1544,1544,0,0,0,0,0,0,0,0,0,0
1706511551.10046506,96328953,1544,1544,1544,1544,0,0,0,0,0,0,0,0,0,0
1706511551.20042515,96428913,1544,1544,1544,1544,0,0,0,0,0,0,0,0,0,0
1706511551.30038500,96528873,1545,1545,1544,1545,0,0,0,0,0,0,0,0,0,0
1706511551.40034509,96628833,1544,1544,1545,1545,0,0,0,0,0,0,0,0,0,0
1706511551.50030494,96728793,1544,1543,1544,1544,0,0,0,0,0,0,0,0,0,0
1706511551.60026503,96828753,1544,1544,1544,1544,0,0,0,0,0,0,0,0,0,0
1706511551.70022511,96928713,1543,1544,1544,1543,0,0,0,0,0,0,0,0,0,0
1706511551.80018497,97028673,1543,1543,1543,1543,0,0,0,0,0,0,0,0,0,0
1706511551.90014505,97128633,1545,1545,1544,1545,0,0,0,0,0,0,0,0,0,0
1706511552.00010514,97228593,1544,1544,1543,1544,0,0,0,0,0,0,0,0,0,0
1706511552.10006499,97328553,1535,1531,1532,1534,0,0,0,0,0,0,0,0,0,0
1706511552.20002508,97428513,1370,1340,1368,1342,0,0,0,0,0,0,0,0,0,0
1706511552.29998493,97528473,1289,1239,1287,1242,0,0,0,0,0,0,0,0,0,0
1706511552.39994502,97628433,1264,1207,1263,1209,0,0,0,0,0,0,0,0,0,0
1706511552.49990511,97728393,1246,1182,1244,1185,0,0,0,0,0,0,0,0,0,0
1706511552.59986496,97828353,1222,1150,1220,1152,0,0,0,0,0,0,0,0,0,0
1706511552.69982505,97928313,1223,1150,1220,1153,0,0,0,0,0,0,0,0,0,0
1706511552.79978514,98028273,1223,1150,1220,1153,0,0,0,0,0,0,0,0,0,0
1706511552.89974499,98128233,1224,1150,1221,1154,0,0,0,0,0,0,0,0,0,0
1706511552.99970508,98228193,1226,1150,1205,1177,0,0,0,0,0,0,0,0,0,0
1706511553.10049796,98328986,1226,1150,1211,1170,0,0,0,0,0,0,0,0,0,0
1706511553.20045805,98428946,1226,1150,1213,1167,0,0,0,0,0,0,0,0,0,0
1706511553.30041814,98528906,1226,1150,1213,1168,0,0,0,0,0,0,0,0,0,0
1706511553.40037799,98628866,1226,1150,1212,1169,0,0,0,0,0,0,0,0,0,0
1706511553.50033808,98728826,1226,1150,1211,1170,0,0,0,0,0,0,0,0,0,0
1706511553.60029793,98828786,1226,1150,1211,1170,0,0,0,0,0,0,0,0,0,0
1706511553.70025802,98928746,1226,1150,1210,1171,0,0,0,0,0,0,0,0,0,0
1706511553.80021811,99028706,1222,1150,1216,1158,0,0,0,0,0,0,0,0,0,0
1706511553.90017796,99128666,1223,1150,1216,1160,0,0,0,0,0,0,0,0,0,0
1706511554.00013804,99228626,1224,1150,1216,1161,0,0,0,0,0,0,0,0,0,0
1706511554.10009813,99328586,1224,1150,1216,1161,0,0,0,0,0,0,0,0,0,0
1706511554.20005798,99428546,1087,1150,1086,1152,0,0,0,0,0,0,0,0,0,0
1706511554.30001807,99528506,1000,1000,1000,1000,0,0,0,0,0,0,0,0,0,0
1706511554.39997792,99628466,1000,1000,1000,1000,0,0,0,0,0,0,0,0,0,0
1706511554.49993801,99728426,1000,1000,1000,1000,0,0,0,0,0,0,0,0,0,0
1706511554.59989810,99828386,1000,1000,1000,1000,0,0,0,0,0,0,0,0,0,0
1706511554.69985795,99928346,1000,1000,1000,1000,0,0,0,0,0,0,0,0,0,0
1706511554.79981804,100028306,1000,1000,1000,1000,0,0,0,0,0,0,0,0,0,0
1706511554.89977813,100128266,1000,1000,1000,1000,0,0,0,0,0,0,0,0,0,0
1706511554.99973798,100228226,1000,1000,1000,1000,0,0,0,0,0,0,0,0,0,0
1706511555.09969807,100328186,1000,1000,1000,1000,0,0,0,0,0,0,0,0,0,0
1706511555.20049095,100428979,1000,1000,1000,1000,0,0,0,0,0,0,0,0,0,0
1706511555.30045104,100528939,1000,1000,1000,1000,0,0,0,0,0,0,0,0,0,0
1706511555.40041113,100628899,1000,1000,1000,1000,0,0,0,0,0,0,0,0,0,0
1706511555.50037098,100728859,1000,1000,1000,1000,0,0,0,0,0,0,0,0,0,0
1706511555.60033107,100828819,1000,1000,1000,1000,0,0,0,0,0,0,0,0,0,0
1706511555.70029092,100928779,1000,1000,1000,1000,0,0,0,0,0,0,0,0,0,0
1706511555.80025101,101028739,1000,1000,1000,1000,0,0,0,0,0,0,0,0,0,0
1706511555.90021110,101128699,1000,1000,1000,1000,0,0,0,0,0,0,0,0,0,0
1706511556.00017095,101228659,1000,1000,1000,1000,0,0,0,0,0,0,0,0,0,0
1706511556.10013103,101328619,1000,1000,1000,1000,0,0,0,0,0,0,0,0,0,0
1706511556.20009112,101428579,1000,1000,1000,1000,0,0,0,0,0,0,0,0,0,0
1706511556.30005097,101528539,1000,1000,1000,1000,0,0,0,0,0,0,0,0,0,0
1706511556.40001106,101628499,1000,1000,1000,1000,0,0,0,0,0,0,0,0,0,0
1706511556.49997091,101728459,1000,1000,1000,1000,0,0,0,0,0,0,0,0,0,0
1706511556.59993100,101828419,1000,1000,1000,1000,0,0,0,0,0,0,0,0,0,0
1706511556.69989109,101928379,1000,1000,1000,1000,0,0,0,0,0,0,0,0,0,0
1706511556.79985094,102028339,1000,1000,1000,1000,0,0,0,0,0,0,0,0,0,0
1706511556.89981103,102128299,1000,1000,1000,1000,0,0,0,0,0,0,0,0,0,0
1706511556.99977112,102228259,1000,1000,1000,1000,0,0,0,0,0,0,0,0,0,0
1706511557.09973097,102328219,1000,1000,1000,1000,0,0,0,0,0,0,0,0,0,0
1706511557.19969106,102428179,1000,1000,1000,1000,0,0,0,0,0,0,0,0,0,0
1706511557.30048394,102528972,1000,1000,1000,1000,0,0,0,0,0,0,0,0,0,0
1706511557.40044403,102628932,1000,1000,1000,1000,0,0,0,0,0,0,0,0,0,0
1706511557.50040412,102728892,1000,1000,1000,1000,0,0,0,0,0,0,0,0,0,0
1706511557.60036397,102828852,1000,1000,1000,1000,0,0,0,0,0,0,0,0,0,0
1706511557.70032406,102928812,1000,1000,1000,1000,0,0,0,0,0,0,0,0,0,0
1706511557.80028415,103028772,1000,1000,1000,1000,0,0,0,0,0,0,0,0,0,0
1706511557.90024400,103128732,1000,1000,1000,1000,0,0,0,0,0,0,0,0,0,0
1706511558.00020409,103228692,1000,1000,1000,1000,0,0,0,0,0,0,0,0,0,0
1706511558.10016394,103328652,1000,1000,1000,1000,0,0,0,0,0,0,0,0,0,0
1706511558.20012403,103428612,1000,1000,1000,1000,0,0,0,0,0,0,0,0,0,0
1706511558.30008411,103528572,1000,1000,1000,1000,0,0,0,0,0,0,0,0,0,0
1706511558.40004396,103628532,1000,1000,1000,1000,0,0,0,0,0,0,0,0,0,0
1706511558.50000405,103728492,1000,1000,1000,1000,0,0,0,0,0,0,0,0,0,0
1706511558.59996414,103828452,1000,1000,1000,1000,0,0,0,0,0,0,0,0,0,0
1706511558.69992399,103928412,1000,1000,1000,1000,0,0,0,0,0,0,0,0,0,0
1706511558.79988408,104028372,1000,1000,1000,1000,0,0,0,0,0,0,0,0,0,0
1706511558.89984393,104128332,1000,1000,1000,1000,0,0,0,0,0,0,0,0,0,0
1706511558.99980402,104228292,1000,1000,1000,1000,0,0,0,0,0,0,0,0,0,0
1706511559.09976411,104328252,1000,1000,1000,1000,0,0,0,0,0,0,0,0,0,0
1706511559.19972396,104428212,1000,1000,1000,1000,0,0,0,0,0,0,0,0,0,0
1706511559.29968405,104528172,1000,1000,1000,1000,0,0,0,0,0,0,0,0,0,0
1706511559.40047693,104628965,1000,1000,1000,1000,0,0,0,0,0,0,0,0,0,0
1706511559.50043702,104728925,1000,1000,1000,1000,0,0,0,0,0,0,0,0,0,0
1706511559.60039711,104828885,1000,1000,1000,1000,0,0,0,0,0,0,0,0,0,0
1706511559.70035696,104928845,1000,1000,1000,1000,0,0,0,0,0,0,0,0,0,0
1706511559.80031705,105028805,1000,1000,1000,1000,0,0,0,0,0,0,0,0,0,0
1706511559.90027714,105128765,1000,1000,1000,1000,0,0,0,0,0,0,0,0,0,0
1706511560.00023699,105228725,1000,1000,1000,1000,0,0,0,0,0,0,0,0,0,0
1706511560.10019708,105328685,1000,1000,1000,1000,0,0,0,0,0,0,0,0,0,0
1706511560.20015693,105428645,1000,1000,1000,1000,0,0,0,0,0,0,0,0,0,0
1706511560.30011702,105528605,1000,1000,1000,1000,0,0,0,0,0,0,0,0,0,0
1706511560.40007710,105628565,1000,1000,1000,1000,0,0,0,0,0,0,0,0,0,0
1706511560.50003695,105728525,1000,1000,1000,1000,0,0,0,0,0,0,0,0,0,0
1706511560.59999704,105828485,1000,1000,1000,1000,0,0,0,0,0,0,0,0,0,0
1706511560.69995713,105928445,1000,1000,1000,1000,0,0,0,0,0,0,0,0,0,0
1706511560.79991698,106028405,1000,1000,1000,1000,0,0,0,0,0,0,0,0,0,0
1706511560.89987707,106128365,1000,1000,1000,1000,0,0,0,0,0,0,0,0,0,0
1706511560.99983692,106228325,1000,1000,1000,1000,0,0,0,0,0,0,0,0,0,0
1706511561.09979701,106328285,1000,1000,1000,1000,0,0,0,0,0,0,0,0,0,0
1706511561.19975710,106428245,1000,1000,1000,1000,0,0,0,0,0,0,0,0,0,0
1706511561.29971695,106528205,1000,1000,1000,1000,0,0,0,0,0,0,0,0,0,0
1706511561.39967704,106628165,1000,1000,1000,1000,0,0,0,0,0,0,0,0,0,0
1706511561.50046992,106728958,1000,1000,1000,1000,0,0,0,0,0,0,0,0,0,0
1706511561.60043001,106828918,1000,1000,1000,1000,0,0,0,0,0,0,0,0,0,0
1706511561.70039010,106928878,1000,1000,1000,1000,0,0,0,0,0,0,0,0,0,0
1706511561.80034995,107028838,1000,1000,1000,1000,0,0,0,0,0,0,0,0,0,0
1706511561.90031004,107128798,1000,1000,1000,1000,0,0,0,0,0,0,0,0,0,0
1706511562.00027013,107228758,1000,1000,1000,1000,0,0,0,0,0,0,0,0,0,0
1706511562.10022998,107328718,1000,1000,1000,1000,0,0,0,0,0,0,0,0,0,0
1706511562.20019007,107428678,1000,1000,1000,1000,0,0,0,0,0,0,0,0,0,0
1706511562.30014992,107528638,1000,1000,1000,1000,0,0,0,0,0,0,0,0,0,0
1706511562.40011001,107628598,1000,1000,1000,1000,0,0,0,0,0,0,0,0,0,0
1706511562.50007010,107728558,1000,1000,1000,1000,0,0,0,0,0,0,0,0,0,0
1706511562.60002995,107828518,1000,1000,1000,1000,0,0,0,0,0,0,0,0,0,0
1706511562.69999003,107928478,1000,1000,1000,1000,0,0,0,0,0,0,0,0,0,0
1706511562.79995012,108028438,1000,1000,1000,1000,0,0,0,0,0,0,0,0,0,0
1706511562.89990997,108128398,1000,1000,1000,1000,0,0,0,0,0,0,0,0,0,0
1706511562.99987006,108228358,1000,1000,1000,1000,0,0,0,0,0,0,0,0,0,0
1706511563.09983015,108328318,1000,1000,1000,1000,0,0,0,0,0,0,0,0,0,0
1706511563.19979000,108428278,1000,1000,1000,1000,0,0,0,0,0,0,0,0,0,0
1706511563.29975009,108528238,1000,1000,1000,1000,0,0,0,0,0,0,0,0,0,0
1706511563.39970994,108628198,1000,1000,1000,1000,0,0,0,0,0,0,0,0,0,0
1706511563.49967003,108728158,1000,1000,1000,1000,0,0,0,0,0,0,0,0,0,0
1706511563.60046291,108828951,1000,1000,1000,1000,0,0,0,0,0,0,0,0,0,0
1706511563.70042300,108928911,1000,1000,1000,1000,0,0,0,0,0,0,0,0,0,0
1706511563.80038309,109028871,1000,1000,1000,1000,0,0,0,0,0,0,0,0,0,0
1706511563.90034294,109128831,1000,1000,1000,1000,0,0,0,0,0,0,0,0,0,0
1706511564.00030303,109228791,1000,1000,1000,1000,0,0,0,0,0,0,0,0,0,0
1706511564.10026312,109328751,1000,1000,1000,1000,0,0,0,0,0,0,0,0,0,0
1706511564.20022297,109428711,1000,1000,1000,1000,0,0,0,0,0,0,0,0,0,0
1706511564.30018306,109528671,1000,1000,1000,1000,0,0,0,0,0,0,0,0,0,0
1706511564.40014315,109628631,1000,1000,1000,1000,0,0,0,0,0,0,0,0,0,0
1706511564.50010300,109728591,1000,1000,1000,1000,0,0,0,0,0,0,0,0,0,0
1706511564.60006309,109828551,1000,1000,1000,1000,0,0,0,0,0,0,0,0,0,0
1706511564.70002294,109928511,1000,1000,1000,1000,0,0,0,0,0,0,0,0,0,0
1706511564.79998302,110028471,1000,1000,1000,1000,0,0,0,0,0,0,0,0,0,0
1706511564.89994311,110128431,1000,1000,1000,1000,0,0,0,0,0,0,0,0,0,0
1706511564.99990296,110228391,1000,1000,1000,1000,0,0,0,0,0,0,0,0,0,0
1706511565.09986305,110328351,1000,1000,1000,1000,0,0,0,0,0,0,0,0,0,0
1706511565.19982314,110428311,1000,1000,1000,1000,0,0,0,0,0,0,0,0,0,0
1706511565.29978299,110528271,1000,1000,1000,1000,0,0,0,0,0,0,0,0,0,0
1706511565.39974308,110628231,1000,1000,1000,1000,0,0,0,0,0,0,0,0,0,0
1706511565.49970293,110728191,1000,1000,1000,1000,0,0,0,0,0,0,0,0,0,0
1706511565.60049605,110828984,1000,1000,1000,1000,0,0,0,0,0,0,0,0,0,0
1706511565.70045614,110928944,1000,1000,1000,1000,0,0,0,0,0,0,0,0,0,0
1706511565.80041599,111028904,1000,1000,1000,1000,0,0,0,0,0,0,0,0,0,0
1706511565.90037608,111128864,1000,1000,1000,1000,0,0,0,0,0,0,0,0,0,0
1706511566.00033593,111228824,1000,1000,1000,1000,0,0,0,0,0,0,0,0,0,0
1706511566.10029602,111328784,1000,1000,1000,1000,0,0,0,0,0,0,0,0,0,0
1706511566.20025611,111428744,1000,1000,1000,1000,0,0,0,0,0,0,0,0,0,0
1706511566.30021596,111528704,1000,1000,1000,1000,0,0,0,0,0,0,0,0,0,0
1706511566.40017605,111628664,1000,1000,1000,1000,0,0,0,0,0,0,0,0,0,0
1706511566.50013614,111728624,1000,1000,1000,1000,0,0,0,0,0,0,0,0,0,0
1706511566.60009599,111828584,1000,1000,1000,1000,0,0,0,0,0,0,0,0,0,0
1706511566.70005608,111928544,1000,1000,1000,1000,0,0,0,0,0,0,0,0,0,0
1706511566.80001593,112028504,1000,1000,1000,1000,0,0,0,0,0,0,0,0,0,0
1706511566.89997602,112128464,1000,1000,1000,1000,0,0,0,0,0,0,0,0,0,0
1706511566.99993610,112228424,1000,1000,1000,1000,0,0,0,0,0,0,0,0,0,0
1706511567.09989595,112328384,1000,1000,1000,1000,0,0,0,0,0,0,0,0,0,0
1706511567.19985604,112428344,1000,1000,1000,1000,0,0,0,0,0,0,0,0,0,0
1706511567.29981613,112528304,1000,1000,1000,1000,0,0,0,0,0,0,0,0,0,0
1706511567.39977598,112628264,1000,1000,1000,1000,0,0,0,0,0,0,0,0,0,0
1706511567.49973607,112728224,1000,1000,1000,1000,0,0,0,0,0,0,0,0,0,0
1706511567.59969592,112828184,1000,1000,1000,1000,0,0,0,0,0,0,0,0,0,0
1706511567.70048904,112928977,1000,1000,1000,1000,0,0,0,0,0,0,0,0,0,0
1706511567.80044913,113028937,1000,1000,1000,1000,0,0,0,0,0,0,0,0,0,0
1706511567.90040898,113128897,1000,1000,1000,1000,0,0,0,0,0,0,0,0,0,0
1706511568.00036907,113228857,1000,1000,1000,1000,0,0,0,0,0,0,0,0,0,0
1706511568.10032892,113328817,1000,1000,1000,1000,0,0,0,0,0,0,0,0,0,0
1706511568.20028901,113428777,1000,1000,1000,1000,0,0,0,0,0,0,0,0,0,0
1706511568.30024910,113528737,1000,1000,1000,1000,0,0,0,0,0,0,0,0,0,0
1706511568.40020895,113628697,1000,1000,1000,1000,0,0,0,0,0,0,0,0,0,0
1706511568.50016904,113728657,1000,1000,1000,1000,0,0,0,0,0,0,0,0,0,0
1706511568.60012913,113828617,1000,1000,1000,1000,0,0,0,0,0,0,0,0,0,0
1706511568.70008898,113928577,1000,1000,1000,1000,0,0,0,0,0,0,0,0,0,0
1706511568.80004907,114028537,1000,1000,1000,1000,0,0,0,0,0,0,0,0,0,0
1706511568.90000892,114128497,1000,1000,1000,1000,0,0,0,0,0,0,0,0,0,0
1706511568.99996901,114228457,1000,1000,1000,1000,0,0,0,0,0,0,0,0,0,0
1706511569.09992909,114328417,1000,1000,1000,1000,0,0,0,0,0,0,0,0,0,0
1706511569.19988894,114428377,1000,1000,1000,1000,0,0,0,0,0,0,0,0,0,0
