TimeUS,M1,M2,M3,M4,TimeUS,C1,C2,C3,C4
45386005,1000,1000,1000,1000,45428488,1000,1000,1000,1000
45388504,1000,1000,1000,1000,45528448,1000,1000,1000,1000
45391003,1000,1000,1000,1000,45628408,1000,1000,1000,1000
45393502,1000,1000,1000,1000,45728368,1000,1000,1000,1000
45396001,1000,1000,1000,1000,45828328,1000,1000,1000,1000
45398500,1000,1000,1000,1000,45928288,1000,1000,1000,1000
45400999,1000,1000,1000,1000,46028248,1000,1000,1000,1000
45403498,1000,1000,1000,1000,46128208,1000,1000,1000,1000
45405997,1000,1000,1000,1000,46228168,1000,1000,1000,1000
45408496,1000,1000,1000,1000,46328961,1000,1000,1000,1000
45410995,1000,1000,1000,1000,46428921,1000,1000,1000,1000
45413494,1000,1000,1000,1000,46528881,1000,1000,1000,1000
45415993,1000,1000,1000,1000,46628841,1000,1000,1000,1000
45418492,1000,1000,1000,1000,46728801,1000,1000,1000,1000
45420991,1000,1000,1000,1000,46828761,1000,1000,1000,1000
45423490,1000,1000,1000,1000,46928721,1000,1000,1000,1000
45425989,1000,1000,1000,1000,47028681,1000,1000,1000,1000
45428488,1000,1000,1000,1000,47128641,1000,1000,1000,1000
45430987,1000,1000,1000,1000,47228601,1000,1000,1000,1000
45433486,1000,1000,1000,1000,47328561,1000,1000,1000,1000
45435985,1000,1000,1000,1000,47428521,1012,1012,1012,1012
45438484,1000,1000,1000,1000,47528481,1042,1042,1042,1042
45440983,1000,1000,1000,1000,47628441,1072,1072,1072,1072
45443482,1000,1000,1000,1000,47728401,1102,1102,1102,1102
45445981,1000,1000,1000,1000,47828361,1132,1132,1132,1132
45448480,1000,1000,1000,1000,47928321,1268,1263,1263,1268
45450979,1000,1000,1000,1000,48028281,1481,1477,1477,1481
45453478,1000,1000,1000,1000,48128241,1644,1640,1640,1645
45455977,1000,1000,1000,1000,48228201,1782,1778,1779,1782
45458476,1000,1000,1000,1000,48328161,1904,1900,1900,1904
45460975,1000,1000,1000,1000,48428954,1879,1877,1877,1879
45463474,1000,1000,1000,1000,48528914,1752,1751,1751,1752
45465973,1000,1000,1000,1000,48628874,1651,1653,1652,1651
45468472,1000,1000,1000,1000,48728834,1621,1623,1623,1622
45470971,1000,1000,1000,1000,48828794,1625,1627,1627,1625
45473470,1000,1000,1000,1000,48928754,1633,1634,1634,1633
45475969,1000,1000,1000,1000,49028714,1632,1632,1632,1632
45478468,1000,1000,1000,1000,49128674,1626,1625,1625,1625
45480967,1000,1000,1000,1000,49228634,1618,1617,1617,1618
45483466,1000,1000,1000,1000,49328594,1613,1612,1612,1613
45485965,1000,1000,1000,1000,49428554,1613,1613,1613,1613
45488464,1000,1000,1000,1000,49528514,1614,1613,1613,1613
45490963,1000,1000,1000,1000,49628474,1615,1615,1615,1615
45493462,1000,1000,1000,1000,49728434,1616,1616,1616,1616
45495961,1000,1000,1000,1000,49828394,1589,1590,1589,1590
45498460,1000,1000,1000,1000,49928354,1572,1572,1570,1574
45500959,1000,1000,1000,1000,50028314,1561,1561,1559,1564
45503458,1000,1000,1000,1000,50128274,1550,1549,1548,1551
45505957,1000,1000,1000,1000,50228234,1541,1541,1541,1541
45508456,1000,1000,1000,1000,50328194,1533,1532,1533,1532
45510955,1000,1000,1000,1000,50428154,1525,1525,1526,1524
45513454,1000,1000,1000,1000,50528947,1518,1518,1519,1517
45515953,1000,1000,1000,1000,50628907,1516,1516,1516,1516
45518452,1000,1000,1000,1000,50728867,1515,1515,1514,1516
45520951,1000,1000,1000,1000,50828827,1516,1516,1515,1516
45523450,1000,1000,1000,1000,50928787,1517,1517,1516,1517
45525949,1000,1000,1000,1000,51028747,1517,1518,1517,1518
45528448,1000,1000,1000,1000,51128707,1525,1525,1526,1523
45530947,1000,1000,1000,1000,51228667,1536,1536,1542,1530
45533446,1000,1000,1000,1000,51328627,1543,1542,1545,1540
45535945,1000,1000,1000,1000,51428587,1547,1547,1546,1549
45538444,1000,1000,1000,1000,51528547,1551,1551,1547,1555
45540943,1000,1000,1000,1000,51628507,1554,1553,1548,1558
45543442,1000,1000,1000,1000,51728467,1555,1555,1551,1559
45545941,1000,1000,1000,1000,51828427,1559,1558,1557,1560
45548440,1000,1000,1000,1000,51928387,1561,1561,1562,1559
45550939,1000,1000,1000,1000,52028347,1564,1564,1567,1561
45553438,1000,1000,1000,1000,52128307,1565,1566,1569,1563
45555937,1000,1000,1000,1000,52228267,1566,1566,1568,1564
45558436,1000,1000,1000,1000,52328227,1567,1567,1567,1567
45560935,1000,1000,1000,1000,52428187,1568,1566,1567,1570
45563434,1000,1000,1000,1000,52528980,1562,1561,1569,1574
45565933,1000,1000,1000,1000,52628940,1561,1562,1570,1573
45568432,1000,1000,1000,1000,52728900,1563,1563,1569,1572
45570931,1000,1000,1000,1000,52828860,1565,1566,1570,1569
45573430,1000,1000,1000,1000,52928820,1567,1568,1569,1568
45575929,1000,1000,1000,1000,53028780,1569,1570,1568,1567
45578428,1000,1000,1000,1000,53128740,1571,1571,1568,1566
45580927,1000,1000,1000,1000,53228700,1573,1573,1567,1567
45583426,1000,1000,1000,1000,53328660,1574,1574,1567,1567
45585925,1000,1000,1000,1000,53428620,1574,1573,1567,1568
45588424,1000,1000,1000,1000,53528580,1574,1574,1569,1569
45590923,1000,1000,1000,1000,53628540,1574,1574,1570,1570
45593422,1000,1000,1000,1000,53728500,1574,1573,1570,1571
45595921,1000,1000,1000,1000,53828460,1574,1574,1572,1572
45598420,1000,1000,1000,1000,53928420,1574,1574,1574,1573
45600919,1000,1000,1000,1000,54028380,1574,1574,1576,1574
45603418,1000,1000,1000,1000,54128340,1574,1574,1577,1575
45605917,1000,1000,1000,1000,54228300,1575,1575,1578,1577
45608416,1000,1000,1000,1000,54328260,1574,1574,1576,1576
45610915,1000,1000,1000,1000,54428220,1575,1576,1578,1578
45613414,1000,1000,1000,1000,54528180,1574,1575,1576,1577
45615913,1000,1000,1000,1000,54628973,1575,1574,1576,1576
45618412,1000,1000,1000,1000,54728933,1576,1576,1577,1577
45620911,1000,1000,1000,1000,54828893,1577,1576,1576,1576
45623410,1000,1000,1000,1000,54928853,1578,1578,1578,1577
45625909,1000,1000,1000,1000,55028813,1578,1578,1577,1577
45628408,1000,1000,1000,1000,55128773,1578,1578,1577,1577
45630907,1000,1000,1000,1000,55228733,1578,1578,1577,1577
45633406,1000,1000,1000,1000,55328693,1578,1578,1577,1578
45635905,1000,1000,1000,1000,55428653,1578,1578,1577,1578
45638404,1000,1000,1000,1000,55528613,1579,1579,1578,1578
45640903,1000,1000,1000,1000,55628573,1579,1580,1579,1579
45643402,1000,1000,1000,1000,55728533,1577,1578,1578,1578
45645901,1000,1000,1000,1000,55828493,1579,1579,1579,1579
45648400,1000,1000,1000,1000,55928453,1579,1578,1579,1579
45650899,1000,1000,1000,1000,56028413,1580,1580,1580,1580
45653398,1000,1000,1000,1000,56128373,1579,1579,1579,1579
45655897,1000,1000,1000,1000,56228333,1580,1579,1580,1580
45658396,1000,1000,1000,1000,56328293,1579,1579,1580,1580
45660895,1000,1000,1000,1000,56428253,1579,1579,1579,1580
45663394,1000,1000,1000,1000,56528213,1580,1580,1580,1580
45665893,1000,1000,1000,1000,56628173,1580,1580,1580,1580
45668392,1000,1000,1000,1000,56728966,1580,1580,1580,1580
45670891,1000,1000,1000,1000,56828926,1580,1580,1580,1580
45673390,1000,1000,1000,1000,56928886,1581,1581,1581,1580
45675889,1000,1000,1000,1000,57028846,1580,1581,1581,1580
45678388,1000,1000,1000,1000,57128806,1581,1581,1581,1580
45680887,1000,1000,1000,1000,57228766,1580,1580,1580,1580
45683386,1000,1000,1000,1000,57328726,1580,1581,1580,1580
45685885,1000,1000,1000,1000,57428686,1580,1580,1579,1580
45688384,1000,1000,1000,1000,57528646,1580,1579,1579,1580
45690883,1000,1000,1000,1000,57628606,1580,1580,1580,1580
45693382,1000,1000,1000,1000,57728566,1581,1581,1581,1581
45695881,1000,1000,1000,1000,57828526,1581,1581,1581,1581
45698380,1000,1000,1000,1000,57928486,1582,1582,1582,1582
45700879,1000,1000,1000,1000,58028446,1580,1581,1581,1581
45703378,1000,1000,1000,1000,58128406,1581,1581,1581,1581
45705877,1000,1000,1000,1000,58228366,1581,1581,1582,1581
45708376,1000,1000,1000,1000,58328326,1581,1581,1582,1581
45710875,1000,1000,1000,1000,58428286,1581,1581,1581,1581
45713374,1000,1000,1000,1000,58528246,1580,1580,1580,1581
45715873,1000,1000,1000,1000,58628206,1580,1580,1580,1581
45718372,1000,1000,1000,1000,58728166,1581,1581,1586,1575
45720871,1000,1000,1000,1000,58828959,1580,1583,1587,1573
45723370,1000,1000,1000,1000,58928919,1579,1582,1580,1573
45725869,1000,1000,1000,1000,59028879,1577,1580,1570,1572
45728368,1000,1000,1000,1000,59128839,1576,1578,1562,1569
45730867,1000,1000,1000,1000,59228799,1576,1577,1557,1564
45733366,1000,1000,1000,1000,59328759,1577,1577,1554,1559
45735865,1000,1000,1000,1000,59428719,1578,1576,1554,1555
45738364,1000,1000,1000,1000,59528679,1579,1577,1555,1554
45740863,1000,1000,1000,1000,59628639,1578,1578,1556,1554
45743362,1000,1000,1000,1000,59728599,1577,1577,1556,1554
45745861,1000,1000,1000,1000,59828559,1575,1576,1555,1553
45748360,1000,1000,1000,1000,59928519,1575,1577,1555,1555
45750859,1000,1000,1000,1000,60028479,1574,1576,1553,1553
45753358,1000,1000,1000,1000,60128439,1575,1576,1553,1553
45755857,1000,1000,1000,1000,60228399,1576,1577,1551,1551
45758356,1000,1000,1000,1000,60328359,1577,1578,1548,1549
45760855,1000,1000,1000,1000,60428319,1580,1581,1547,1546
45763354,1000,1000,1000,1000,60528279,1582,1583,1544,1544
45765853,1000,1000,1000,1000,60628239,1585,1586,1541,1540
45768352,1000,1000,1000,1000,60728199,1589,1589,1539,1539
45770851,1000,1000,1000,1000,60828159,1591,1592,1536,1536
45773350,1000,1000,1000,1000,60928952,1595,1594,1535,1536
45775849,1000,1000,1000,1000,61028912,1595,1595,1535,1536
45778348,1000,1000,1000,1000,61128872,1594,1595,1535,1537
45780847,1000,1000,1000,1000,61228832,1593,1593,1537,1540
45783346,1000,1000,1000,1000,61328792,1590,1589,1541,1544
45785845,1000,1000,1000,1000,61428752,1586,1584,1549,1552
45788344,1000,1000,1000,1000,61528712,1579,1575,1557,1560
45790843,1000,1000,1000,1000,61628672,1570,1566,1569,1571
45793342,1000,1000,1000,1000,61728632,1558,1553,1581,1582
45795841,1000,1000,1000,1000,61828592,1548,1545,1594,1594
45798340,1000,1000,1000,1000,61928552,1538,1536,1603,1603
45800839,1000,1000,1000,1000,62028512,1531,1532,1611,1610
45803338,1000,1000,1000,1000,62128472,1529,1530,1615,1614
45805837,1000,1000,1000,1000,62228432,1530,1532,1615,1614
45808336,1000,1000,1000,1000,62328392,1534,1536,1612,1611
45810835,1000,1000,1000,1000,62428352,1541,1543,1606,1606
45813334,1000,1000,1000,1000,62528312,1550,1551,1600,1600
45815833,1000,1000,1000,1000,62628272,1559,1559,1592,1592
45818332,1000,1000,1000,1000,62728232,1567,1567,1585,1584
45820831,1000,1000,1000,1000,62828192,1575,1575,1578,1577
45823330,1000,1000,1000,1000,62928985,1582,1581,1573,1573
45825829,1000,1000,1000,1000,63028945,1585,1584,1569,1569
45828328,1000,1000,1000,1000,63128905,1587,1586,1566,1566
45830827,1000,1000,1000,1000,63228865,1587,1586,1566,1566
45833326,1000,1000,1000,1000,63328825,1587,1585,1567,1567
45835825,1000,1000,1000,1000,63428785,1585,1584,1569,1570
45838324,1000,1000,1000,1000,63528745,1582,1582,1572,1572
45840823,1000,1000,1000,1000,63628705,1579,1579,1575,1575
45843322,1000,1000,1000,1000,63728665,1577,1577,1578,1578
45845821,1000,1000,1000,1000,63828625,1574,1575,1581,1580
45848320,1000,1000,1000,1000,63928585,1573,1573,1582,1582
45850819,1000,1000,1000,1000,64028545,1573,1573,1584,1584
45853318,1000,1000,1000,1000,64128505,1559,1564,1569,1577
45855817,1000,1000,1000,1000,64228465,1587,1565,1598,1575
45858316,1000,1000,1000,1000,64328425,1611,1578,1620,1587
45860815,1000,1000,1000,1000,64428385,1620,1591,1628,1597
45863314,1000,1000,1000,1000,64528345,1616,1599,1621,1603
45865813,1000,1000,1000,1000,64628305,1603,1602,1607,1603
45868312,1000,1000,1000,1000,64728265,1590,1600,1592,1602
45870811,1000,1000,1000,1000,64828225,1579,1595,1582,1598
45873310,1000,1000,1000,1000,64928185,1574,1588,1578,1594
45875809,1000,1000,1000,1000,65028978,1573,1582,1578,1589
45878308,1000,1000,1000,1000,65128938,1576,1579,1580,1584
45880807,1000,1000,1000,1000,65228898,1579,1577,1581,1579
45883306,1000,1000,1000,1000,65328858,1582,1578,1580,1577
45885805,1000,1000,1000,1000,65428818,1583,1580,1580,1575
45888304,1000,1000,1000,1000,65528778,1583,1581,1577,1574
45890803,1000,1000,1000,1000,65628738,1582,1582,1575,1574
45893302,1000,1000,1000,1000,65728698,1580,1581,1572,1573
45895801,1000,1000,1000,1000,65828658,1579,1581,1571,1573
45898300,1000,1000,1000,1000,65928618,1578,1580,1571,1573
45900799,1000,1000,1000,1000,66028578,1577,1578,1571,1573
45903298,1000,1000,1000,1000,66128538,1578,1578,1573,1574
45905797,1000,1000,1000,1000,66228498,1577,1577,1574,1574
45908296,1000,1000,1000,1000,66328458,1577,1577,1576,1576
45910795,1000,1000,1000,1000,66428418,1577,1576,1576,1575
45913294,1000,1000,1000,1000,66528378,1577,1577,1577,1576
45915793,1000,1000,1000,1000,66628338,1577,1577,1578,1577
45918292,1000,1000,1000,1000,66728298,1577,1577,1581,1574
45920791,1000,1000,1000,1000,66828258,1578,1579,1585,1570
45923290,1000,1000,1000,1000,66928218,1576,1579,1579,1571
45925789,1000,1000,1000,1000,67028178,1575,1579,1571,1571
45928288,1000,1000,1000,1000,67128971,1573,1576,1562,1568
45930787,1000,1000,1000,1000,67228931,1574,1576,1557,1565
45933286,1000,1000,1000,1000,67328891,1576,1576,1554,1561
45935785,1000,1000,1000,1000,67428851,1577,1576,1553,1556
45938284,1000,1000,1000,1000,67528811,1578,1577,1554,1553
45940783,1000,1000,1000,1000,67628771,1578,1577,1554,1551
45943282,1000,1000,1000,1000,67728731,1577,1576,1553,1550
45945781,1000,1000,1000,1000,67828691,1577,1578,1553,1551
45948280,1000,1000,1000,1000,67928651,1576,1577,1553,1551
45950779,1000,1000,1000,1000,68028611,1576,1578,1552,1551
45953278,1000,1000,1000,1000,68128571,1576,1578,1551,1551
45955777,1000,1000,1000,1000,68228531,1577,1578,1549,1550
45958276,1000,1000,1000,1000,68328491,1578,1580,1549,1549
45960775,1000,1000,1000,1000,68428451,1580,1581,1547,1546
45963274,1000,1000,1000,1000,68528411,1582,1583,1545,1545
45965773,1000,1000,1000,1000,68628371,1584,1584,1543,1543
45968272,1000,1000,1000,1000,68728331,1587,1587,1542,1542
45970771,1000,1000,1000,1000,68828291,1588,1588,1541,1540
45973270,1000,1000,1000,1000,68928251,1589,1588,1539,1540
45975769,1000,1000,1000,1000,69028211,1588,1588,1540,1541
45978268,1000,1000,1000,1000,69128171,1588,1587,1542,1544
45980767,1000,1000,1000,1000,69228964,1587,1586,1545,1547
45983266,1000,1000,1000,1000,69328924,1584,1582,1549,1552
45985765,1000,1000,1000,1000,69428884,1579,1577,1555,1557
45988264,1000,1000,1000,1000,69528844,1572,1570,1563,1565
45990763,1000,1000,1000,1000,69628804,1566,1563,1572,1574
45993262,1000,1000,1000,1000,69728764,1557,1554,1581,1582
45995761,1000,1000,1000,1000,69828724,1549,1548,1590,1590
45998260,1000,1000,1000,1000,69928684,1543,1542,1597,1597
46000759,1000,1000,1000,1000,70028644,1539,1540,1603,1602
46003258,1000,1000,1000,1000,70128604,1538,1539,1606,1605
46005757,1000,1000,1000,1000,70228564,1540,1541,1606,1605
46008256,1000,1000,1000,1000,70328524,1543,1544,1604,1603
46010755,1000,1000,1000,1000,70428484,1547,1549,1600,1600
46013254,1000,1000,1000,1000,70528444,1553,1554,1595,1594
46015753,1000,1000,1000,1000,70628404,1560,1560,1590,1589
46018252,1000,1000,1000,1000,70728364,1566,1566,1584,1584
46020751,1000,1000,1000,1000,70828324,1573,1572,1579,1579
46023250,1000,1000,1000,1000,70928284,1577,1576,1575,1575
46025749,1000,1000,1000,1000,71028244,1580,1579,1571,1571
46028248,1000,1000,1000,1000,71128204,1583,1582,1570,1571
46030747,1000,1000,1000,1000,71228164,1584,1582,1569,1569
46033246,1000,1000,1000,1000,71328957,1584,1583,1570,1570
46035745,1000,1000,1000,1000,71428917,1584,1583,1572,1572
46038244,1000,1000,1000,1000,71528877,1582,1582,1573,1573
46040743,1000,1000,1000,1000,71628837,1580,1580,1575,1575
46043242,1000,1000,1000,1000,71728797,1578,1579,1577,1578
46045741,1000,1000,1000,1000,71828757,1576,1577,1579,1579
46048240,1000,1000,1000,1000,71928717,1575,1575,1581,1580
46050739,1000,1000,1000,1000,72028677,1574,1575,1582,1582
46053238,1000,1000,1000,1000,72128637,1574,1574,1582,1582
46055737,1000,1000,1000,1000,72228597,1574,1575,1582,1583
46058236,1000,1000,1000,1000,72328557,1575,1575,1582,1582
46060735,1000,1000,1000,1000,72428517,1576,1576,1582,1582
46063234,1000,1000,1000,1000,72528477,1577,1577,1581,1581
46065733,1000,1000,1000,1000,72628437,1578,1578,1580,1580
46068232,1000,1000,1000,1000,72728397,1579,1579,1579,1579
46070731,1000,1000,1000,1000,72828357,1580,1579,1578,1578
46073230,1000,1000,1000,1000,72928317,1580,1579,1577,1578
46075729,1000,1000,1000,1000,73028277,1581,1581,1578,1579
46078228,1000,1000,1000,1000,73128237,1582,1582,1579,1579
46080727,1000,1000,1000,1000,73228197,1582,1582,1579,1579
46083226,1000,1000,1000,1000,73328157,1582,1582,1579,1579
46085725,1000,1000,1000,1000,73428950,1582,1582,1580,1580
46088224,1000,1000,1000,1000,73528910,1581,1581,1580,1580
46090723,1000,1000,1000,1000,73628870,1580,1581,1580,1580
46093222,1000,1000,1000,1000,73728830,1580,1580,1580,1580
46095721,1000,1000,1000,1000,73828790,1579,1579,1579,1580
46098220,1000,1000,1000,1000,73928750,1580,1580,1581,1581
46100719,1000,1000,1000,1000,74028710,1579,1579,1580,1580
46103218,1000,1000,1000,1000,74128670,1579,1579,1580,1580
46105717,1000,1000,1000,1000,74228630,1579,1579,1580,1580
46108216,1000,1000,1000,1000,74328590,1580,1580,1580,1581
46110715,1000,1000,1000,1000,74428550,1580,1580,1581,1581
46113214,1000,1000,1000,1000,74528510,1581,1581,1582,1581
46115713,1000,1000,1000,1000,74628470,1582,1582,1582,1582
46118212,1000,1000,1000,1000,74728430,1581,1581,1581,1581
46120711,1000,1000,1000,1000,74828390,1582,1582,1582,1582
46123210,1000,1000,1000,1000,74928350,1582,1582,1582,1581
46125709,1000,1000,1000,1000,75028310,1582,1581,1581,1581
46128208,1000,1000,1000,1000,75128270,1581,1581,1581,1581
46130707,1000,1000,1000,1000,75228230,1582,1583,1588,1574
46133206,1000,1000,1000,1000,75328190,1581,1584,1585,1573
46135705,1000,1000,1000,1000,75428983,1579,1582,1577,1574
46138204,1000,1000,1000,1000,75528943,1577,1580,1568,1571
46140703,1000,1000,1000,1000,75628903,1577,1579,1561,1568
46143202,1000,1000,1000,1000,75728863,1577,1578,1557,1563
46145701,1000,1000,1000,1000,75828823,1578,1577,1554,1558
46148200,1000,1000,1000,1000,75928783,1579,1577,1554,1555
46150699,1000,1000,1000,1000,76028743,1579,1578,1555,1554
46153198,1000,1000,1000,1000,76128703,1578,1577,1555,1553
46155697,1000,1000,1000,1000,76228663,1578,1578,1556,1553
46158196,1000,1000,1000,1000,76328623,1577,1577,1555,1554
46160695,1000,1000,1000,1000,76428583,1575,1577,1554,1553
46163194,1000,1000,1000,1000,76528543,1575,1576,1553,1553
46165693,1000,1000,1000,1000,76628503,1575,1577,1552,1552
46168192,1000,1000,1000,1000,76728463,1576,1578,1550,1551
46170691,1000,1000,1000,1000,76828423,1577,1579,1549,1549
46173190,1000,1000,1000,1000,76928383,1580,1581,1547,1547
46175689,1000,1000,1000,1000,77028343,1583,1584,1545,1544
46178188,1000,1000,1000,1000,77128303,1586,1586,1542,1542
46180687,1000,1000,1000,1000,77228263,1589,1588,1540,1540
46183186,1000,1000,1000,1000,77328223,1591,1590,1538,1539
46185685,1000,1000,1000,1000,77428183,1592,1592,1537,1538
46188184,1000,1000,1000,1000,77528976,1593,1593,1537,1539
46190683,1000,1000,1000,1000,77628936,1592,1593,1538,1540
46193182,1000,1000,1000,1000,77728896,1593,1592,1541,1544
46195681,1000,1000,1000,1000,77828856,1589,1587,1545,1548
46198180,1000,1000,1000,1000,77928816,1584,1581,1553,1556
46200679,1000,1000,1000,1000,78028776,1576,1572,1561,1565
46203178,1000,1000,1000,1000,78128736,1567,1563,1573,1575
46205677,1000,1000,1000,1000,78228696,1557,1554,1585,1586
46208176,1000,1000,1000,1000,78328656,1546,1545,1596,1595
46210675,1000,1000,1000,1000,78428616,1538,1539,1604,1603
46213174,1000,1000,1000,1000,78528576,1534,1536,1611,1609
46215673,1000,1000,1000,1000,78628536,1533,1535,1614,1612
46218172,1000,1000,1000,1000,78728496,1534,1536,1613,1610
46220671,1000,1000,1000,1000,78828456,1539,1541,1609,1608
46223170,1000,1000,1000,1000,78928416,1545,1546,1604,1603
46225669,1000,1000,1000,1000,79028376,1552,1553,1597,1597
46228168,1000,1000,1000,1000,79128336,1561,1561,1590,1590
46230667,1000,1000,1000,1000,79228296,1568,1568,1584,1583
46233166,1000,1000,1000,1000,79328256,1575,1573,1577,1577
46235665,1000,1000,1000,1000,79428216,1580,1579,1572,1573
46238164,1000,1000,1000,1000,79528176,1584,1582,1568,1569
46240663,1000,1000,1000,1000,79628969,1586,1584,1567,1567
46243162,1000,1000,1000,1000,79728929,1587,1585,1566,1567
46245661,1000,1000,1000,1000,79828889,1586,1585,1568,1568
46248160,1000,1000,1000,1000,79928849,1584,1584,1570,1570
46250659,1000,1000,1000,1000,80028809,1582,1582,1572,1572
46253158,1000,1000,1000,1000,80128769,1580,1579,1575,1575
46255657,1000,1000,1000,1000,80228729,1577,1578,1578,1578
46258156,1000,1000,1000,1000,80328689,1575,1575,1580,1580
46260655,1000,1000,1000,1000,80428649,1574,1574,1582,1581
46263154,1000,1000,1000,1000,80528609,1573,1574,1584,1583
46266486,1000,1000,1000,1000,80628569,1572,1573,1583,1583
46268985,1000,1000,1000,1000,80728529,1573,1575,1584,1584
46271484,1000,1000,1000,1000,80828489,1574,1574,1583,1583
46273983,1000,1000,1000,1000,80928449,1575,1575,1582,1583
46276482,1000,1000,1000,1000,81028409,1577,1577,1582,1582
46278981,1000,1000,1000,1000,81128369,1579,1579,1581,1581
46281480,1000,1000,1000,1000,81228329,1580,1580,1580,1579
46283979,1000,1000,1000,1000,81328289,1581,1581,1579,1579
46286478,1000,1000,1000,1000,81428249,1582,1582,1579,1579
46288977,1000,1000,1000,1000,81528209,1581,1581,1577,1577
46291476,1000,1000,1000,1000,81628169,1581,1581,1577,1577
46293975,1000,1000,1000,1000,81728962,1581,1581,1577,1577
46296474,1000,1000,1000,1000,81828922,1582,1581,1578,1578
46298973,1000,1000,1000,1000,81928882,1581,1581,1578,1579
46301472,1000,1000,1000,1000,82028842,1580,1581,1579,1579
46303971,1000,1000,1000,1000,82128802,1581,1581,1580,1580
46306470,1000,1000,1000,1000,82228762,1580,1580,1581,1580
46308969,1000,1000,1000,1000,82328722,1581,1581,1582,1582
46311468,1000,1000,1000,1000,82428682,1580,1581,1582,1582
46313967,1000,1000,1000,1000,82528642,1580,1580,1581,1581
46316466,1000,1000,1000,1000,82628602,1579,1579,1581,1581
46318965,1000,1000,1000,1000,82728562,1580,1580,1581,1581
46321464,1000,1000,1000,1000,82828522,1581,1581,1582,1582
46323963,1000,1000,1000,1000,82928482,1580,1581,1582,1582
46326462,1000,1000,1000,1000,83028442,1580,1580,1581,1581
46328961,1000,1000,1000,1000,83128402,1581,1581,1581,1581
46331460,1000,1000,1000,1000,83228362,1581,1582,1587,1573
46333959,1000,1000,1000,1000,83328322,1581,1582,1585,1574
46336458,1000,1000,1000,1000,83428282,1579,1578,1579,1575
46338957,1000,1000,1000,1000,83528242,1576,1575,1572,1576
46341456,1000,1000,1000,1000,83628202,1571,1570,1566,1573
46343955,1000,1000,1000,1000,83728162,1570,1569,1565,1572
46346454,1000,1000,1000,1000,83828955,1566,1567,1564,1568
46348953,1000,1000,1000,1000,83928915,1566,1567,1565,1567
46351452,1000,1000,1000,1000,84028875,1565,1565,1566,1564
46353951,1000,1000,1000,1000,84128835,1564,1565,1566,1563
46356450,1000,1000,1000,1000,84228795,1564,1565,1567,1564
46358949,1000,1000,1000,1000,84328755,1565,1565,1566,1564
46361448,1000,1000,1000,1000,84428715,1563,1563,1564,1563
46363947,1000,1000,1000,1000,84528675,1563,1562,1563,1563
46366446,1000,1000,1000,1000,84628635,1562,1562,1562,1563
46368945,1000,1000,1000,1000,84728595,1561,1561,1561,1562
46371444,1000,1000,1000,1000,84828555,1560,1561,1561,1561
46373943,1000,1000,1000,1000,84928515,1561,1561,1561,1561
46376442,1000,1000,1000,1000,85028475,1560,1560,1561,1560
46378941,1000,1000,1000,1000,85128435,1560,1560,1560,1559
46381440,1000,1000,1000,1000,85228395,1558,1559,1559,1558
46383939,1000,1000,1000,1000,85328355,1558,1558,1558,1557
46386438,1000,1000,1000,1000,85428315,1558,1558,1558,1557
46388937,1000,1000,1000,1000,85528275,1558,1558,1558,1557
46391436,1000,1000,1000,1000,85628235,1558,1558,1558,1557
46393935,1000,1000,1000,1000,85728195,1559,1558,1559,1558
46396434,1000,1000,1000,1000,85828155,1559,1558,1559,1557
46398933,1000,1000,1000,1000,85928948,1559,1559,1561,1558
46401432,1000,1000,1000,1000,86028908,1559,1559,1559,1559
46403931,1000,1000,1000,1000,86128868,1559,1559,1557,1562
46406430,1000,1000,1000,1000,86228828,1560,1561,1557,1564
46408929,1000,1000,1000,1000,86328788,1560,1561,1557,1563
46411428,1000,1000,1000,1000,86428748,1561,1562,1559,1563
46413927,1000,1000,1000,1000,86528708,1563,1562,1561,1563
46416426,1000,1000,1000,1000,86628668,1562,1562,1563,1561
46418925,1000,1000,1000,1000,86728628,1561,1560,1562,1559
46421424,1000,1000,1000,1000,86828588,1561,1561,1562,1559
46423923,1000,1000,1000,1000,86928548,1560,1560,1558,1562
46426422,1000,1000,1000,1000,87028508,1556,1556,1553,1559
46428921,1000,1000,1000,1000,87128468,1552,1552,1550,1554
46431420,1000,1000,1000,1000,87228428,1546,1546,1546,1547
46433919,1000,1000,1000,1000,87328388,1539,1539,1540,1539
46436418,1000,1000,1000,1000,87428348,1533,1533,1534,1532
46438917,1000,1000,1000,1000,87528308,1525,1525,1526,1524
46441416,1000,1000,1000,1000,87628268,1521,1521,1521,1520
46443915,1000,1000,1000,1000,87728228,1520,1521,1521,1521
46446414,1000,1000,1000,1000,87828188,1520,1521,1520,1521
46448913,1000,1000,1000,1000,87928981,1522,1522,1521,1522
46451412,1000,1000,1000,1000,88028941,1524,1525,1524,1525
46453911,1000,1000,1000,1000,88128901,1529,1529,1529,1530
46456410,1000,1000,1000,1000,88228861,1534,1534,1534,1534
46458909,1000,1000,1000,1000,88328821,1537,1537,1537,1537
46461408,1000,1000,1000,1000,88428781,1541,1540,1541,1540
46463907,1000,1000,1000,1000,88528741,1543,1543,1543,1543
46466406,1000,1000,1000,1000,88628701,1545,1544,1545,1544
46468905,1000,1000,1000,1000,88728661,1546,1545,1546,1545
46471404,1000,1000,1000,1000,88828621,1546,1546,1546,1546
46473903,1000,1000,1000,1000,88928581,1546,1546,1546,1546
46476402,1000,1000,1000,1000,89028541,1546,1547,1546,1546
46478901,1000,1000,1000,1000,89128501,1547,1546,1547,1546
46481400,1000,1000,1000,1000,89228461,1547,1547,1547,1547
46483899,1000,1000,1000,1000,89328421,1546,1546,1546,1546
46486398,1000,1000,1000,1000,89428381,1546,1546,1546,1546
46488897,1000,1000,1000,1000,89528341,1546,1546,1546,1546
46491396,1000,1000,1000,1000,89628301,1545,1546,1546,1546
46493895,1000,1000,1000,1000,89728261,1546,1545,1546,1545
46496394,1000,1000,1000,1000,89828221,1546,1546,1545,1546
46498893,1000,1000,1000,1000,89928181,1544,1545,1544,1544
46501392,1000,1000,1000,1000,90028974,1544,1544,1543,1544
46503891,1000,1000,1000,1000,90128934,1545,1545,1545,1545
46506390,1000,1000,1000,1000,90228894,1544,1544,1544,1544
46508889,1000,1000,1000,1000,90328854,1544,1544,1544,1544
46511388,1000,1000,1000,1000,90428814,1543,1544,1544,1543
46513887,1000,1000,1000,1000,90528774,1544,1544,1544,1544
46516386,1000,1000,1000,1000,90628734,1544,1544,1544,1544
46518885,1000,1000,1000,1000,90728694,1544,1544,1544,1543
46521384,1000,1000,1000,1000,90828654,1544,1543,1543,1543
46523883,1000,1000,1000,1000,90928614,1544,1544,1544,1544
46526382,1000,1000,1000,1000,91028574,1543,1544,1543,1543
46528881,1000,1000,1000,1000,91128534,1544,1544,1544,1544
46531380,1000,1000,1000,1000,91228494,1543,1544,1544,1544
46533879,1000,1000,1000,1000,91328454,1543,1543,1544,1543
46536378,1000,1000,1000,1000,91428414,1544,1544,1544,1544
46538877,1000,1000,1000,1000,91528374,1545,1545,1545,1545
46541376,1000,1000,1000,1000,91628334,1544,1544,1544,1544
46543875,1000,1000,1000,1000,91728294,1544,1544,1544,1544
46546374,1000,1000,1000,1000,91828254,1544,1544,1544,1544
46548873,1000,1000,1000,1000,91928214,1545,1544,1545,1544
46551372,1000,1000,1000,1000,92028174,1544,1544,1544,1544
46553871,1000,1000,1000,1000,92128967,1544,1544,1544,1544
46556370,1000,1000,1000,1000,92228927,1545,1545,1545,1545
46558869,1000,1000,1000,1000,92328887,1545,1544,1544,1544
46561368,1000,1000,1000,1000,92428847,1543,1544,1544,1544
46563867,1000,1000,1000,1000,92528807,1544,1544,1544,1544
46566366,1000,1000,1000,1000,92628767,1544,1545,1544,1544
46568865,1000,1000,1000,1000,92728727,1544,1544,1544,1544
46571364,1000,1000,1000,1000,92828687,1544,1544,1544,1544
46573863,1000,1000,1000,1000,92928647,1545,1544,1544,1545
46576362,1000,1000,1000,1000,93028607,1543,1544,1543,1543
46578861,1000,1000,1000,1000,93128567,1544,1545,1544,1545
46581360,1000,1000,1000,1000,93228527,1545,1545,1545,1545
46583859,1000,1000,1000,1000,93328487,1544,1544,1544,1544
46586358,1000,1000,1000,1000,93428447,1544,1544,1544,1544
46588857,1000,1000,1000,1000,93528407,1544,1544,1543,1544
46591356,1000,1000,1000,1000,93628367,1543,1543,1543,1543
46593855,1000,1000,1000,1000,93728327,1543,1543,1543,1543
46596354,1000,1000,1000,1000,93828287,1543,1544,1544,1543
46598853,1000,1000,1000,1000,93928247,1544,1544,1544,1544
46601352,1000,1000,1000,1000,94028207,1543,1544,1544,1543
46603851,1000,1000,1000,1000,94128167,1544,1544,1544,1544
46606350,1000,1000,1000,1000,94228960,1543,1543,1543,1544
46608849,1000,1000,1000,1000,94328920,1545,1544,1544,1545
46611348,1000,1000,1000,1000,94428880,1545,1545,1545,1545
46613847,1000,1000,1000,1000,94528840,1545,1545,1545,1545
46616346,1000,1000,1000,1000,94628800,1544,1544,1544,1544
46618845,1000,1000,1000,1000,94728760,1545,1545,1545,1545
46621344,1000,1000,1000,1000,94828720,1545,1545,1546,1545
46623843,1000,1000,1000,1000,94928680,1545,1545,1545,1545
46626342,1000,1000,1000,1000,95028640,1545,1545,1545,1545
46628841,1000,1000,1000,1000,95128600,1544,1544,1544,1544
46631340,1000,1000,1000,1000,95228560,1545,1545,1545,1545
46633839,1000,1000,1000,1000,95328520,1545,1546,1545,1546
46636338,1000,1000,1000,1000,95428480,1545,1545,1545,1545
46638837,1000,1000,1000,1000,95528440,1545,1544,1545,1545
46641336,1000,1000,1000,1000,95628400,1544,1545,1544,1545
46643835,1000,1000,1000,1000,95728360,1544,1544,1544,1544
46646334,1000,1000,1000,1000,95828320,1544,1544,1544,1544
46648833,1000,1000,1000,1000,95928280,1544,1544,1544,1544
46651332,1000,1000,1000,1000,96028240,1544,1544,1544,1544
46653831,1000,1000,1000,1000,96128200,1544,1544,1544,1544
46656330,1000,1000,1000,1000,96228160,1544,1544,1544,1544
46658829,1000,1000,1000,1000,96328953,1544,1544,1544,1544
46661328,1000,1000,1000,1000,96428913,1544,1544,1544,1544
46663827,1000,1000,1000,1000,96528873,1545,1545,1544,1545
46666326,1000,1000,1000,1000,96628833,1544,1544,1545,1545
46668825,1000,1000,1000,1000,96728793,1544,1543,1544,1544
46671324,1000,1000,1000,1000,96828753,1544,1544,1544,1544
46673823,1000,1000,1000,1000,96928713,1543,1544,1544,1543
46676322,1000,1000,1000,1000,97028673,1543,1543,1543,1543
46678821,1000,1000,1000,1000,97128633,1545,1545,1544,1545
46681320,1000,1000,1000,1000,97228593,1544,1544,1543,1544
46683819,1000,1000,1000,1000,97328553,1535,1531,1532,1534
46686318,1000,1000,1000,1000,97428513,1370,1340,1368,1342
46688817,1000,1000,1000,1000,97528473,1289,1239,1287,1242
46691316,1000,1000,1000,1000,97628433,1264,1207,1263,1209
46693815,1000,1000,1000,1000,97728393,1246,1182,1244,1185
46696314,1000,1000,1000,1000,97828353,1222,1150,1220,1152
46698813,1000,1000,1000,1000,97928313,1223,1150,1220,1153
46701312,1000,1000,1000,1000,98028273,1223,1150,1220,1153
46703811,1000,1000,1000,1000,98128233,1224,1150,1221,1154
46706310,1000,1000,1000,1000,98228193,1226,1150,1205,1177
46708809,1000,1000,1000,1000,98328986,1226,1150,1211,1170
46711308,1000,1000,1000,1000,98428946,1226,1150,1213,1167
46713807,1000,1000,1000,1000,98528906,1226,1150,1213,1168
46716306,1000,1000,1000,1000,98628866,1226,1150,1212,1169
46718805,1000,1000,1000,1000,98728826,1226,1150,1211,1170
46721304,1000,1000,1000,1000,98828786,1226,1150,1211,1170
46723803,1000,1000,1000,1000,98928746,1226,1150,1210,1171
46726302,1000,1000,1000,1000,99028706,1222,1150,1216,1158
46728801,1000,1000,1000,1000,99128666,1223,1150,1216,1160
46731300,1000,1000,1000,1000,99228626,1224,1150,1216,1161
46733799,1000,1000,1000,1000,99328586,1224,1150,1216,1161
46736298,1000,1000,1000,1000,99428546,1087,1150,1086,1152
46738797,1000,1000,1000,1000,99528506,1000,1000,1000,1000
46741296,1000,1000,1000,1000,99628466,1000,1000,1000,1000
46743795,1000,1000,1000,1000,99728426,1000,1000,1000,1000
46746294,1000,1000,1000,1000,99828386,1000,1000,1000,1000
46748793,1000,1000,1000,1000,99928346,1000,1000,1000,1000
46751292,1000,1000,1000,1000,100028306,1000,1000,1000,1000
46753791,1000,1000,1000,1000,100128266,1000,1000,1000,1000
46756290,1000,1000,1000,1000,100228226,1000,1000,1000,1000
46758789,1000,1000,1000,1000,100328186,1000,1000,1000,1000
46761288,1000,1000,1000,1000,100428979,1000,1000,1000,1000
46763787,1000,1000,1000,1000,100528939,1000,1000,1000,1000
46766286,1000,1000,1000,1000,100628899,1000,1000,1000,1000
46768785,1000,1000,1000,1000,100728859,1000,1000,1000,1000
46771284,1000,1000,1000,1000,100828819,1000,1000,1000,1000
46773783,1000,1000,1000,1000,100928779,1000,1000,1000,1000
46776282,1000,1000,1000,1000,101028739,1000,1000,1000,1000
46778781,1000,1000,1000,1000,101128699,1000,1000,1000,1000
46781280,1000,1000,1000,1000,101228659,1000,1000,1000,1000
46783779,1000,1000,1000,1000,101328619,1000,1000,1000,1000
46786278,1000,1000,1000,1000,101428579,1000,1000,1000,1000
46788777,1000,1000,1000,1000,101528539,1000,1000,1000,1000
46791276,1000,1000,1000,1000,101628499,1000,1000,1000,1000
46793775,1000,1000,1000,1000,101728459,1000,1000,1000,1000
46796274,1000,1000,1000,1000,101828419,1000,1000,1000,1000
46798773,1000,1000,1000,1000,101928379,1000,1000,1000,1000
46801272,1000,1000,1000,1000,102028339,1000,1000,1000,1000
46803771,1000,1000,1000,1000,102128299,1000,1000,1000,1000
46806270,1000,1000,1000,1000,102228259,1000,1000,1000,1000
46808769,1000,1000,1000,1000,102328219,1000,1000,1000,1000
46811268,1000,1000,1000,1000,102428179,1000,1000,1000,1000
46813767,1000,1000,1000,1000,102528972,1000,1000,1000,1000
46816266,1000,1000,1000,1000,102628932,1000,1000,1000,1000
46818765,1000,1000,1000,1000,102728892,1000,1000,1000,1000
46821264,1000,1000,1000,1000,102828852,1000,1000,1000,1000
46823763,1000,1000,1000,1000,102928812,1000,1000,1000,1000
46826262,1000,1000,1000,1000,103028772,1000,1000,1000,1000
46828761,1000,1000,1000,1000,103128732,1000,1000,1000,1000
46831260,1000,1000,1000,1000,103228692,1000,1000,1000,1000
46833759,1000,1000,1000,1000,103328652,1000,1000,1000,1000
46836258,1000,1000,1000,1000,103428612,1000,1000,1000,1000
46838757,1000,1000,1000,1000,103528572,1000,1000,1000,1000
46841256,1000,1000,1000,1000,103628532,1000,1000,1000,1000
46843755,1000,1000,1000,1000,103728492,1000,1000,1000,1000
46846254,1000,1000,1000,1000,103828452,1000,1000,1000,1000
46848753,1000,1000,1000,1000,103928412,1000,1000,1000,1000
46851252,1000,1000,1000,1000,104028372,1000,1000,1000,1000
46853751,1000,1000,1000,1000,104128332,1000,1000,1000,1000
46856250,1000,1000,1000,1000,104228292,1000,1000,1000,1000
46858749,1000,1000,1000,1000,104328252,1000,1000,1000,1000
46861248,1000,1000,1000,1000,104428212,1000,1000,1000,1000
46863747,1000,1000,1000,1000,104528172,1000,1000,1000,1000
46866246,1000,1000,1000,1000,104628965,1000,1000,1000,1000
46868745,1000,1000,1000,1000,104728925,1000,1000,1000,1000
46871244,1000,1000,1000,1000,104828885,1000,1000,1000,1000
46873743,1000,1000,1000,1000,104928845,1000,1000,1000,1000
46876242,1000,1000,1000,1000,105028805,1000,1000,1000,1000
46878741,1000,1000,1000,1000,105128765,1000,1000,1000,1000
46881240,1000,1000,1000,1000,105228725,1000,1000,1000,1000
46883739,1000,1000,1000,1000,105328685,1000,1000,1000,1000
46886238,1000,1000,1000,1000,105428645,1000,1000,1000,1000
46888737,1000,1000,1000,1000,105528605,1000,1000,1000,1000
46891236,1000,1000,1000,1000,105628565,1000,1000,1000,1000
46893735,1000,1000,1000,1000,105728525,1000,1000,1000,1000
46896234,1000,1000,1000,1000,105828485,1000,1000,1000,1000
46898733,1000,1000,1000,1000,105928445,1000,1000,1000,1000
46901232,1000,1000,1000,1000,106028405,1000,1000,1000,1000
46903731,1000,1000,1000,1000,106128365,1000,1000,1000,1000
46906230,1000,1000,1000,1000,106228325,1000,1000,1000,1000
46908729,1000,1000,1000,1000,106328285,1000,1000,1000,1000
46911228,1000,1000,1000,1000,106428245,1000,1000,1000,1000
46913727,1000,1000,1000,1000,106528205,1000,1000,1000,1000
46916226,1000,1000,1000,1000,106628165,1000,1000,1000,1000
46918725,1000,1000,1000,1000,106728958,1000,1000,1000,1000
46921224,1000,1000,1000,1000,106828918,1000,1000,1000,1000
46923723,1000,1000,1000,1000,106928878,1000,1000,1000,1000
46926222,1000,1000,1000,1000,107028838,1000,1000,1000,1000
46928721,1000,1000,1000,1000,107128798,1000,1000,1000,1000
46931220,1000,1000,1000,1000,107228758,1000,1000,1000,1000
46933719,1000,1000,1000,1000,107328718,1000,1000,1000,1000
46936218,1000,1000,1000,1000,107428678,1000,1000,1000,1000
46938717,1000,1000,1000,1000,107528638,1000,1000,1000,1000
46941216,1000,1000,1000,1000,107628598,1000,1000,1000,1000
46943715,1000,1000,1000,1000,107728558,1000,1000,1000,1000
46946214,1000,1000,1000,1000,107828518,1000,1000,1000,1000
46948713,1000,1000,1000,1000,107928478,1000,1000,1000,1000
46951212,1000,1000,1000,1000,108028438,1000,1000,1000,1000
46953711,1000,1000,1000,1000,108128398,1000,1000,1000,1000
46956210,1000,1000,1000,1000,108228358,1000,1000,1000,1000
46958709,1000,1000,1000,1000,108328318,1000,1000,1000,1000
46961208,1000,1000,1000,1000,108428278,1000,1000,1000,1000
46963707,1000,1000,1000,1000,108528238,1000,1000,1000,1000
46966206,1000,1000,1000,1000,108628198,1000,1000,1000,1000
46968705,1000,1000,1000,1000,108728158,1000,1000,1000,1000
46971204,1000,1000,1000,1000,108828951,1000,1000,1000,1000
46973703,1000,1000,1000,1000,108928911,1000,1000,1000,1000
46976202,1000,1000,1000,1000,109028871,1000,1000,1000,1000
46978701,1000,1000,1000,1000,109128831,1000,1000,1000,1000
46981200,1000,1000,1000,1000,109228791,1000,1000,1000,1000
46983699,1000,1000,1000,1000,109328751,1000,1000,1000,1000
46986198,1000,1000,1000,1000,109428711,1000,1000,1000,1000
46988697,1000,1000,1000,1000,109528671,1000,1000,1000,1000
46991196,1000,1000,1000,1000,109628631,1000,1000,1000,1000
46993695,1000,1000,1000,1000,109728591,1000,1000,1000,1000
46996194,1000,1000,1000,1000,109828551,1000,1000,1000,1000
46998693,1000,1000,1000,1000,109928511,1000,1000,1000,1000
47001192,1000,1000,1000,1000,110028471,1000,1000,1000,1000
47003691,1000,1000,1000,1000,110128431,1000,1000,1000,1000
47006190,1000,1000,1000,1000,110228391,1000,1000,1000,1000
47008689,1000,1000,1000,1000,110328351,1000,1000,1000,1000
47011188,1000,1000,1000,1000,110428311,1000,1000,1000,1000
47013687,1000,1000,1000,1000,110528271,1000,1000,1000,1000
47016186,1000,1000,1000,1000,110628231,1000,1000,1000,1000
47018685,1000,1000,1000,1000,110728191,1000,1000,1000,1000
47021184,1000,1000,1000,1000,110828984,1000,1000,1000,1000
47023683,1000,1000,1000,1000,110928944,1000,1000,1000,1000
47026182,1000,1000,1000,1000,111028904,1000,1000,1000,1000
47028681,1000,1000,1000,1000,111128864,1000,1000,1000,1000
47031180,1000,1000,1000,1000,111228824,1000,1000,1000,1000
47033679,1000,1000,1000,1000,111328784,1000,1000,1000,1000
47036178,1000,1000,1000,1000,111428744,1000,1000,1000,1000
47038677,1000,1000,1000,1000,111528704,1000,1000,1000,1000
47041176,1000,1000,1000,1000,111628664,1000,1000,1000,1000
47043675,1000,1000,1000,1000,111728624,1000,1000,1000,1000
47046174,1000,1000,1000,1000,111828584,1000,1000,1000,1000
47048673,1000,1000,1000,1000,111928544,1000,1000,1000,1000
47051172,1000,1000,1000,1000,112028504,1000,1000,1000,1000
47053671,1000,1000,1000,1000,112128464,1000,1000,1000,1000
47056170,1000,1000,1000,1000,112228424,1000,1000,1000,1000
47058669,1000,1000,1000,1000,112328384,1000,1000,1000,1000
47061168,1000,1000,1000,1000,112428344,1000,1000,1000,1000
47063667,1000,1000,1000,1000,112528304,1000,1000,1000,1000
47066166,1000,1000,1000,1000,112628264,1000,1000,1000,1000
47068665,1000,1000,1000,1000,112728224,1000,1000,1000,1000
47071164,1000,1000,1000,1000,112828184,1000,1000,1000,1000
47073663,1000,1000,1000,1000,112928977,1000,1000,1000,1000
47076162,1000,1000,1000,1000,113028937,1000,1000,1000,1000
47078661,1000,1000,1000,1000,113128897,1000,1000,1000,1000
47081160,1000,1000,1000,1000,113228857,1000,1000,1000,1000
47083659,1000,1000,1000,1000,113328817,1000,1000,1000,1000
47086158,1000,1000,1000,1000,113428777,1000,1000,1000,1000
47088657,1000,1000,1000,1000,113528737,1000,1000,1000,1000
47091156,1000,1000,1000,1000,113628697,1000,1000,1000,1000
47093655,1000,1000,1000,1000,113728657,1000,1000,1000,1000
47096154,1000,1000,1000,1000,113828617,1000,1000,1000,1000
47098653,1000,1000,1000,1000,113928577,1000,1000,1000,1000
47101152,1000,1000,1000,1000,114028537,1000,1000,1000,1000
47103651,1000,1000,1000,1000,114128497,1000,1000,1000,1000
47106150,1000,1000,1000,1000,114228457,1000,1000,1000,1000
47108649,1000,1000,1000,1000,114328417,1000,1000,1000,1000
47111148,1000,1000,1000,1000,114428377,1000,1000,1000,1000
47113647,1000,1000,1000,1000,,,,,
47116146,1000,1000,1000,1000,,,,,
47118645,1000,1000,1000,1000,,,,,
47121144,1000,1000,1000,1000,,,,,
47123643,1000,1000,1000,1000,,,,,
47126142,1000,1000,1000,1000,,,,,
47128641,1000,1000,1000,1000,,,,,
47131140,1000,1000,1000,1000,,,,,
47133639,1000,1000,1000,1000,,,,,
47136138,1000,1000,1000,1000,,,,,
47138637,1000,1000,1000,1000,,,,,
47141136,1000,1000,1000,1000,,,,,
47143635,1000,1000,1000,1000,,,,,
47146134,1000,1000,1000,1000,,,,,
47148633,1000,1000,1000,1000,,,,,
47151132,1000,1000,1000,1000,,,,,
47153631,1000,1000,1000,1000,,,,,
47156130,1000,1000,1000,1000,,,,,
47158629,1000,1000,1000,1000,,,,,
47161128,1000,1000,1000,1000,,,,,
47163627,1000,1000,1000,1000,,,,,
47166126,1000,1000,1000,1000,,,,,
47168625,1000,1000,1000,1000,,,,,
47171124,1000,1000,1000,1000,,,,,
47173623,1000,1000,1000,1000,,,,,
47176122,1000,1000,1000,1000,,,,,
47178621,1000,1000,1000,1000,,,,,
47181120,1000,1000,1000,1000,,,,,
47183619,1000,1000,1000,1000,,,,,
47186118,1000,1000,1000,1000,,,,,
47188617,1000,1000,1000,1000,,,,,
47191116,1000,1000,1000,1000,,,,,
47193615,1000,1000,1000,1000,,,,,
47196114,1000,1000,1000,1000,,,,,
47198613,1000,1000,1000,1000,,,,,
47201112,1000,1000,1000,1000,,,,,
47203611,1000,1000,1000,1000,,,,,
47206110,1000,1000,1000,1000,,,,,
47208609,1000,1000,1000,1000,,,,,
47211108,1000,1000,1000,1000,,,,,
47213607,1000,1000,1000,1000,,,,,
47216106,1000,1000,1000,1000,,,,,
47218605,1000,1000,1000,1000,,,,,
47221104,1000,1000,1000,1000,,,,,
47223603,1000,1000,1000,1000,,,,,
47226102,1000,1000,1000,1000,,,,,
47228601,1000,1000,1000,1000,,,,,
47231100,1000,1000,1000,1000,,,,,
47233599,1000,1000,1000,1000,,,,,
47236098,1000,1000,1000,1000,,,,,
47238597,1000,1000,1000,1000,,,,,
47241096,1000,1000,1000,1000,,,,,
47243595,1000,1000,1000,1000,,,,,
47246094,1000,1000,1000,1000,,,,,
47248593,1000,1000,1000,1000,,,,,
47251092,1000,1000,1000,1000,,,,,
47253591,1000,1000,1000,1000,,,,,
47256090,1000,1000,1000,1000,,,,,
47258589,1000,1000,1000,1000,,,,,
47261088,1000,1000,1000,1000,,,,,
47263587,1000,1000,1000,1000,,,,,
47266086,1000,1000,1000,1000,,,,,
47268585,1000,1000,1000,1000,,,,,
47271084,1000,1000,1000,1000,,,,,
47273583,1000,1000,1000,1000,,,,,
47276082,1000,1000,1000,1000,,,,,
47278581,1000,1000,1000,1000,,,,,
47281080,1000,1000,1000,1000,,,,,
47283579,1000,1000,1000,1000,,,,,
47286078,1000,1000,1000,1000,,,,,
47288577,1000,1000,1000,1000,,,,,
47291076,1000,1000,1000,1000,,,,,
47293575,1000,1000,1000,1000,,,,,
47296074,1000,1000,1000,1000,,,,,
47298573,1000,1000,1000,1000,,,,,
47301072,1000,1000,1000,1000,,,,,
47303571,1000,1000,1000,1000,,,,,
47306070,1000,1000,1000,1000,,,,,
47308569,1000,1000,1000,1000,,,,,
47311068,1000,1000,1000,1000,,,,,
47313567,1000,1000,1000,1000,,,,,
47316066,1000,1000,1000,1000,,,,,
47318565,1000,1000,1000,1000,,,,,
47321064,1000,1000,1000,1000,,,,,
47323563,1000,1000,1000,1000,,,,,
47326062,1000,1000,1000,1000,,,,,
47328561,1000,1000,1000,1000,,,,,
47331060,1000,1000,1000,1000,,,,,
47333559,1000,1000,1000,1000,,,,,
47336058,1000,1000,1000,1000,,,,,
47338557,1000,1000,1000,1000,,,,,
47341056,1000,1000,1000,1000,,,,,
47343555,1000,1000,1000,1000,,,,,
47346054,1000,1000,1000,1000,,,,,
47348553,1000,1000,1000,1000,,,,,
47351052,1000,1000,1000,1000,,,,,
47353551,1000,1000,1000,1000,,,,,
47356050,1000,1000,1000,1000,,,,,
47358549,1000,1000,1000,1000,,,,,
47361048,1000,1000,1000,1000,,,,,
47363547,1000,1000,1000,1000,,,,,
47366046,1000,1000,1000,1000,,,,,
47368545,1000,1000,1000,1000,,,,,
47371044,1000,1000,1000,1000,,,,,
47373543,1000,1000,1000,1000,,,,,
47376042,1000,1000,1000,1000,,,,,
47378541,1000,1000,1000,1000,,,,,
47381040,1000,1000,1000,1000,,,,,
47383539,1000,1000,1000,1000,,,,,
47386038,1000,1000,1000,1000,,,,,
47388537,1000,1000,1000,1000,,,,,
47391036,1000,1000,1000,1000,,,,,
47393535,1001,1001,1001,1001,,,,,
47396034,1002,1002,1002,1002,,,,,
47398533,1003,1003,1003,1003,,,,,
47401032,1003,1003,1003,1003,,,,,
47403531,1004,1004,1004,1004,,,,,
47406030,1005,1005,1005,1005,,,,,
47408529,1006,1006,1006,1006,,,,,
47411028,1006,1006,1006,1006,,,,,
47413527,1007,1007,1007,1007,,,,,
47416026,1008,1008,1008,1008,,,,,
47418525,1009,1009,1009,1009,,,,,
47421024,1009,1009,1009,1009,,,,,
47423523,1010,1010,1010,1010,,,,,
47426022,1011,1011,1011,1011,,,,,
47428521,1012,1012,1012,1012,,,,,
47431020,1012,1012,1012,1012,,,,,
47433519,1013,1013,1013,1013,,,,,
47436018,1014,1014,1014,1014,,,,,
47438517,1015,1015,1015,1015,,,,,
47441016,1015,1015,1015,1015,,,,,
47443515,1016,1016,1016,1016,,,,,
47446014,1017,1017,1017,1017,,,,,
47448513,1018,1018,1018,1018,,,,,
47451012,1018,1018,1018,1018,,,,,
47453511,1019,1019,1019,1019,,,,,
47456010,1020,1020,1020,1020,,,,,
47458509,1021,1021,1021,1021,,,,,
47461008,1021,1021,1021,1021,,,,,
47463507,1022,1022,1022,1022,,,,,
47466006,1023,1023,1023,1023,,,,,
47468505,1024,1024,1024,1024,,,,,
47471004,1024,1024,1024,1024,,,,,
47473503,1025,1025,1025,1025,,,,,
47476002,1026,1026,1026,1026,,,,,
47478501,1027,1027,1027,1027,,,,,
47481000,1027,1027,1027,1027,,,,,
47483499,1028,1028,1028,1028,,,,,
47485998,1029,1029,1029,1029,,,,,
47488497,1030,1030,1030,1030,,,,,
47490996,1030,1030,1030,1030,,,,,
47493495,1031,1031,1031,1031,,,,,
47495994,1032,1032,1032,1032,,,,,
47498493,1033,1033,1033,1033,,,,,
47500992,1033,1033,1033,1033,,,,,
47503491,1034,1034,1034,1034,,,,,
47505990,1035,1035,1035,1035,,,,,
47508489,1036,1036,1036,1036,,,,,
47510988,1036,1036,1036,1036,,,,,
47513487,1037,1037,1037,1037,,,,,
47515986,1038,1038,1038,1038,,,,,
47518485,1039,1039,1039,1039,,,,,
47520984,1039,1039,1039,1039,,,,,
47523483,1040,1040,1040,1040,,,,,
47525982,1041,1041,1041,1041,,,,,
47528481,1042,1042,1042,1042,,,,,
47530980,1042,1042,1042,1042,,,,,
47533479,1043,1043,1043,1043,,,,,
47535978,1044,1044,1044,1044,,,,,
47538477,1045,1045,1045,1045,,,,,
47540976,1045,1045,1045,1045,,,,,
47543475,1046,1046,1046,1046,,,,,
47545974,1047,1047,1047,1047,,,,,
47548473,1048,1048,1048,1048,,,,,
47550972,1048,1048,1048,1048,,,,,
47553471,1049,1049,1049,1049,,,,,
47555970,1050,1050,1050,1050,,,,,
47558469,1051,1051,1051,1051,,,,,
47560968,1051,1051,1051,1051,,,,,
47563467,1052,1052,1052,1052,,,,,
47565966,1053,1053,1053,1053,,,,,
47568465,1054,1054,1054,1054,,,,,
47570964,1054,1054,1054,1054,,,,,
47573463,1055,1055,1055,1055,,,,,
47575962,1056,1056,1056,1056,,,,,
47578461,1057,1057,1057,1057,,,,,
47580960,1057,1057,1057,1057,,,,,
47583459,1058,1058,1058,1058,,,,,
47585958,1059,1059,1059,1059,,,,,
47588457,1060,1060,1060,1060,,,,,
47590956,1060,1060,1060,1060,,,,,
47593455,1061,1061,1061,1061,,,,,
47595954,1062,1062,1062,1062,,,,,
47598453,1063,1063,1063,1063,,,,,
47600952,1063,1063,1063,1063,,,,,
47603451,1064,1064,1064,1064,,,,,
47605950,1065,1065,1065,1065,,,,,
47608449,1066,1066,1066,1066,,,,,
47610948,1066,1066,1066,1066,,,,,
47613447,1067,1067,1067,1067,,,,,
47615946,1068,1068,1068,1068,,,,,
47618445,1069,1069,1069,1069,,,,,
47620944,1069,1069,1069,1069,,,,,
47623443,1070,1070,1070,1070,,,,,
47625942,1071,1071,1071,1071,,,,,
47628441,1072,1072,1072,1072,,,,,
47630940,1072,1072,1072,1072,,,,,
47633439,1073,1073,1073,1073,,,,,
47635938,1074,1074,1074,1074,,,,,
47638437,1075,1075,1075,1075,,,,,
47640936,1075,1075,1075,1075,,,,,
47643435,1076,1076,1076,1076,,,,,
47645934,1077,1077,1077,1077,,,,,
47648433,1078,1078,1078,1078,,,,,
47650932,1078,1078,1078,1078,,,,,
47653431,1079,1079,1079,1079,,,,,
47655930,1080,1080,1080,1080,,,,,
47658429,1081,1081,1081,1081,,,,,
47660928,1081,1081,1081,1081,,,,,
47663427,1082,1082,1082,1082,,,,,
47665926,1083,1083,1083,1083,,,,,
47668425,1084,1084,1084,1084,,,,,
47670924,1084,1084,1084,1084,,,,,
47673423,1085,1085,1085,1085,,,,,
47675922,1086,1086,1086,1086,,,,,
47678421,1087,1087,1087,1087,,,,,
47680920,1087,1087,1087,1087,,,,,
47683419,1088,1088,1088,1088,,,,,
47685918,1089,1089,1089,1089,,,,,
47688417,1090,1090,1090,1090,,,,,
47690916,1090,1090,1090,1090,,,,,
47693415,1091,1091,1091,1091,,,,,
47695914,1092,1092,1092,1092,,,,,
47698413,1093,1093,1093,1093,,,,,
47700912,1093,1093,1093,1093,,,,,
47703411,1094,1094,1094,1094,,,,,
47705910,1095,1095,1095,1095,,,,,
47708409,1096,1096,1096,1096,,,,,
47710908,1096,1096,1096,1096,,,,,
47713407,1097,1097,1097,1097,,,,,
47715906,1098,1098,1098,1098,,,,,
47718405,1099,1099,1099,1099,,,,,
47720904,1099,1099,1099,1099,,,,,
47723403,1100,1100,1100,1100,,,,,
47725902,1101,1101,1101,1101,,,,,
47728401,1101,1101,1101,1101,,,,,
47730900,1102,1102,1102,1102,,,,,
47733399,1103,1103,1103,1103,,,,,
47735898,1104,1104,1104,1104,,,,,
47738397,1104,1104,1104,1104,,,,,
47740896,1105,1105,1105,1105,,,,,
47743395,1106,1106,1106,1106,,,,,
47745894,1107,1107,1107,1107,,,,,
47748393,1107,1107,1107,1107,,,,,
47750892,1108,1108,1108,1108,,,,,
47753391,1109,1109,1109,1109,,,,,
47755890,1110,1110,1110,1110,,,,,
47758389,1110,1110,1110,1110,,,,,
47760888,1111,1111,1111,1111,,,,,
47763387,1112,1112,1112,1112,,,,,
47765886,1113,1113,1113,1113,,,,,
47768385,1113,1113,1113,1113,,,,,
47770884,1114,1114,1114,1114,,,,,
47773383,1115,1115,1115,1115,,,,,
47775882,1116,1116,1116,1116,,,,,
47778381,1116,1116,1116,1116,,,,,
47780880,1117,1117,1117,1117,,,,,
47783379,1118,1118,1118,1118,,,,,
47785878,1119,1119,1119,1119,,,,,
47788377,1119,1119,1119,1119,,,,,
47790876,1120,1120,1120,1120,,,,,
47793375,1121,1121,1121,1121,,,,,
47795874,1122,1122,1122,1122,,,,,
47798373,1122,1122,1122,1122,,,,,
47800872,1123,1123,1123,1123,,,,,
47803371,1124,1124,1124,1124,,,,,
47805870,1125,1125,1125,1125,,,,,
47808369,1125,1125,1125,1125,,,,,
47810868,1126,1126,1126,1126,,,,,
47813367,1127,1127,1127,1127,,,,,
47815866,1128,1128,1128,1128,,,,,
47818365,1128,1128,1128,1128,,,,,
47820864,1129,1129,1129,1129,,,,,
47823363,1130,1130,1130,1130,,,,,
47825862,1131,1131,1131,1131,,,,,
47828361,1131,1131,1131,1131,,,,,
47830860,1132,1132,1132,1132,,,,,
47833359,1133,1133,1133,1133,,,,,
47835858,1134,1134,1134,1134,,,,,
47838357,1134,1134,1134,1134,,,,,
47840856,1135,1135,1135,1135,,,,,
47843355,1136,1136,1136,1136,,,,,
47845854,1137,1137,1137,1137,,,,,
47848353,1137,1137,1137,1137,,,,,
47850852,1138,1138,1138,1138,,,,,
47853351,1139,1139,1139,1139,,,,,
47855850,1140,1140,1140,1140,,,,,
47858349,1140,1140,1140,1140,,,,,
47860848,1141,1141,1141,1141,,,,,
47863347,1142,1142,1142,1142,,,,,
47865846,1143,1143,1143,1143,,,,,
47868345,1143,1143,1143,1143,,,,,
47870844,1144,1144,1144,1144,,,,,
47873343,1145,1145,1145,1145,,,,,
47875842,1146,1146,1146,1146,,,,,
47878341,1146,1146,1146,1146,,,,,
47880840,1147,1147,1147,1147,,,,,
47883339,1148,1148,1148,1148,,,,,
47885838,1149,1149,1149,1149,,,,,
47888337,1149,1149,1149,1149,,,,,
47890836,1150,1150,1150,1150,,,,,
47893335,1161,1154,1155,1161,,,,,
47895834,1169,1162,1163,1169,,,,,
47898333,1177,1170,1171,1177,,,,,
47900832,1184,1178,1179,1185,,,,,
47903331,1192,1186,1186,1192,,,,,
47905830,1199,1193,1194,1200,,,,,
47908329,1207,1201,1201,1207,,,,,
47910828,1214,1208,1208,1214,,,,,
47913327,1221,1215,1216,1221,,,,,
47915826,1228,1222,1223,1228,,,,,
47918325,1235,1229,1230,1235,,,,,
47920824,1242,1236,1236,1242,,,,,
47923323,1248,1243,1243,1249,,,,,
47925822,1255,1250,1250,1255,,,,,
47928321,1262,1256,1256,1262,,,,,
47930820,1268,1263,1263,1268,,,,,
47933319,1274,1269,1269,1275,,,,,
47935818,1281,1275,1276,1281,,,,,
47938317,1287,1282,1282,1287,,,,,
47940816,1293,1288,1288,1293,,,,,
47943315,1299,1294,1294,1299,,,,,
47945814,1305,1300,1300,1305,,,,,
47948313,1311,1306,1306,1311,,,,,
47950812,1317,1312,1312,1317,,,,,
47953311,1323,1318,1318,1323,,,,,
47955810,1329,1324,1324,1329,,,,,
47958309,1334,1329,1330,1335,,,,,
47960808,1340,1335,1335,1340,,,,,
47963307,1345,1341,1341,1346,,,,,
47965806,1351,1346,1347,1351,,,,,
47968305,1357,1352,1352,1357,,,,,
47970804,1362,1357,1358,1362,,,,,
47973303,1367,1363,1363,1368,,,,,
47975802,1373,1368,1368,1373,,,,,
47978301,1378,1373,1374,1378,,,,,
47980800,1383,1379,1379,1384,,,,,
47983299,1389,1384,1384,1389,,,,,
47985798,1394,1389,1390,1394,,,,,
47988297,1399,1394,1395,1399,,,,,
47990796,1404,1399,1400,1404,,,,,
47993295,1409,1405,1405,1409,,,,,
47995794,1414,1410,1410,1414,,,,,
47998293,1419,1415,1415,1419,,,,,
48000792,1424,1420,1420,1424,,,,,
48003291,1429,1425,1425,1429,,,,,
48005790,1434,1429,1430,1434,,,,,
48008289,1439,1434,1435,1439,,,,,
48010788,1443,1439,1439,1443,,,,,
48013287,1448,1444,1444,1448,,,,,
48015786,1453,1449,1449,1453,,,,,
48018285,1458,1453,1454,1458,,,,,
48020784,1462,1458,1458,1462,,,,,
48023283,1467,1463,1463,1467,,,,,
48025782,1472,1467,1468,1472,,,,,
48028281,1476,1472,1472,1476,,,,,
48030780,1481,1477,1477,1481,,,,,
48033279,1485,1481,1481,1485,,,,,
48035778,1490,1486,1486,1490,,,,,
48038277,1494,1490,1490,1494,,,,,
48040776,1499,1495,1495,1499,,,,,
48043275,1503,1499,1499,1503,,,,,
48045774,1507,1503,1504,1508,,,,,
48048273,1512,1508,1508,1512,,,,,
48050772,1516,1512,1512,1516,,,,,
48053271,1521,1516,1517,1521,,,,,
48055770,1525,1521,1521,1525,,,,,
48058269,1529,1525,1525,1529,,,,,
48060768,1533,1529,1530,1534,,,,,
48063267,1538,1534,1534,1538,,,,,
48065766,1542,1538,1538,1542,,,,,
48068265,1546,1542,1542,1546,,,,,
48070764,1550,1546,1546,1550,,,,,
48073263,1554,1550,1551,1554,,,,,
48075762,1558,1554,1555,1559,,,,,
48078261,1562,1559,1559,1563,,,,,
48080760,1567,1563,1563,1567,,,,,
48083259,1571,1567,1567,1571,,,,,
48085758,1575,1571,1571,1575,,,,,
48088257,1579,1575,1575,1579,,,,,
48090756,1583,1579,1579,1583,,,,,
48093255,1587,1583,1583,1587,,,,,
48095754,1591,1587,1587,1591,,,,,
48098253,1595,1591,1591,1595,,,,,
48100752,1598,1595,1595,1599,,,,,
48103251,1602,1599,1599,1603,,,,,
48105750,1606,1602,1603,1607,,,,,
48108249,1610,1606,1606,1610,,,,,
48110748,1614,1610,1610,1614,,,,,
48113247,1618,1614,1614,1618,,,,,
48115746,1622,1618,1618,1622,,,,,
48118245,1625,1622,1622,1626,,,,,
48120744,1629,1625,1625,1630,,,,,
48123243,1633,1629,1629,1633,,,,,
48125742,1637,1633,1633,1637,,,,,
48128241,1641,1637,1637,1641,,,,,
48130740,1644,1640,1640,1645,,,,,
48133239,1648,1644,1644,1648,,,,,
48135738,1652,1648,1648,1652,,,,,
48138237,1655,1651,1652,1656,,,,,
48140736,1659,1655,1655,1659,,,,,
48143235,1663,1659,1659,1663,,,,,
48145734,1666,1662,1663,1667,,,,,
48148233,1670,1666,1666,1670,,,,,
48150732,1674,1670,1670,1674,,,,,
48153231,1677,1673,1673,1677,,,,,
48155730,1681,1677,1677,1681,,,,,
48158229,1684,1680,1681,1685,,,,,
48160728,1688,1684,1684,1688,,,,,
48163227,1691,1687,1688,1692,,,,,
48165726,1695,1691,1691,1695,,,,,
48168225,1698,1694,1695,1699,,,,,
48170724,1702,1698,1698,1702,,,,,
48173223,1705,1701,1702,1706,,,,,
48175722,1709,1705,1705,1709,,,,,
48178221,1712,1708,1709,1712,,,,,
48180720,1716,1712,1712,1716,,,,,
48183219,1719,1715,1716,1719,,,,,
48185718,1723,1719,1719,1723,,,,,
48188217,1726,1722,1722,1726,,,,,
48190716,1730,1725,1726,1730,,,,,
48193215,1733,1729,1729,1733,,,,,
48195714,1736,1732,1733,1736,,,,,
48198213,1740,1736,1736,1740,,,,,
48200712,1743,1739,1739,1743,,,,,
48203211,1746,1742,1743,1746,,,,,
48205710,1750,1746,1746,1750,,,,,
48208209,1753,1749,1749,1753,,,,,
48210708,1756,1752,1753,1756,,,,,
48213207,1760,1756,1756,1760,,,,,
48215706,1763,1759,1759,1763,,,,,
48218205,1766,1762,1763,1766,,,,,
48220704,1769,1765,1766,1769,,,,,
48223203,1773,1769,1769,1773,,,,,
48225702,1776,1772,1772,1776,,,,,
48228201,1779,1775,1776,1779,,,,,
48230700,1782,1778,1779,1782,,,,,
48233199,1786,1782,1782,1786,,,,,
48235698,1789,1785,1785,1789,,,,,
48238197,1792,1788,1788,1792,,,,,
48240696,1795,1791,1792,1795,,,,,
48243195,1798,1794,1795,1798,,,,,
48245694,1801,1798,1798,1801,,,,,
48248193,1805,1801,1801,1805,,,,,
48250692,1808,1804,1804,1808,,,,,
48253191,1811,1807,1807,1811,,,,,
48255690,1814,1810,1810,1814,,,,,
48258189,1817,1813,1814,1817,,,,,
48260688,1820,1816,1817,1820,,,,,
48263187,1823,1820,1820,1823,,,,,
48265686,1826,1823,1823,1826,,,,,
48268185,1829,1826,1826,1830,,,,,
48270684,1833,1829,1829,1833,,,,,
48273183,1836,1832,1832,1836,,,,,
48275682,1839,1835,1835,1839,,,,,
48278181,1842,1838,1838,1842,,,,,
48280680,1845,1841,1841,1845,,,,,
48283179,1848,1844,1844,1848,,,,,
48285678,1851,1847,1847,1851,,,,,
48288177,1854,1850,1850,1854,,,,,
48290676,1857,1853,1853,1857,,,,,
48293175,1860,1856,1856,1860,,,,,
48295674,1863,1859,1859,1863,,,,,
48298173,1866,1862,1862,1866,,,,,
48300672,1869,1865,1865,1869,,,,,
48303171,1872,1868,1868,1872,,,,,
48305670,1875,1871,1871,1875,,,,,
48308169,1878,1874,1874,1878,,,,,
48310668,1881,1877,1877,1881,,,,,
48313167,1883,1880,1880,1884,,,,,
48315666,1886,1883,1883,1886,,,,,
48318165,1889,1886,1886,1889,,,,,
48320664,1892,1889,1889,1892,,,,,
48323163,1895,1891,1892,1895,,,,,
48325662,1898,1894,1895,1898,,,,,
48328161,1901,1897,1898,1901,,,,,
48330660,1904,1900,1900,1904,,,,,
48333159,1904,1901,1901,1904,,,,,
48335658,1903,1900,1900,1903,,,,,
48338157,1903,1899,1899,1903,,,,,
48340656,1902,1898,1898,1902,,,,,
48343155,1901,1897,1897,1901,,,,,
48345654,1900,1896,1897,1900,,,,,
48348986,1899,1895,1896,1899,,,,,
48351485,1898,1895,1895,1899,,,,,
48353984,1898,1894,1894,1898,,,,,
48356483,1897,1893,1894,1897,,,,,
48358982,1897,1893,1893,1897,,,,,
48361481,1896,1892,1893,1896,,,,,
48363980,1896,1892,1892,1896,,,,,
48366479,1895,1892,1892,1895,,,,,
48368978,1895,1891,1892,1895,,,,,
48371477,1895,1891,1891,1895,,,,,
48373976,1895,1891,1891,1895,,,,,
48376475,1895,1891,1891,1895,,,,,
48378974,1895,1891,1891,1895,,,,,
48381473,1895,1891,1892,1895,,,,,
48383972,1895,1892,1892,1895,,,,,
48386471,1895,1892,1892,1895,,,,,
48388970,1895,1892,1892,1896,,,,,
48391469,1896,1892,1892,1896,,,,,
48393968,1896,1892,1893,1896,,,,,
48396467,1895,1892,1893,1895,,,,,
48398966,1895,1892,1893,1895,,,,,
48401465,1895,1892,1892,1895,,,,,
48403964,1894,1892,1892,1894,,,,,
48406463,1894,1891,1891,1894,,,,,
48408962,1893,1890,1891,1893,,,,,
48411461,1892,1889,1890,1892,,,,,
48413960,1891,1888,1889,1891,,,,,
48416459,1890,1887,1888,1890,,,,,
48418958,1889,1886,1886,1889,,,,,
48421457,1887,1884,1885,1887,,,,,
48423956,1885,1883,1883,1885,,,,,
48426455,1884,1881,1881,1883,,,,,
48428954,1882,1879,1879,1881,,,,,
48431453,1879,1877,1877,1879,,,,,
48433952,1877,1875,1875,1877,,,,,
48436451,1875,1872,1873,1875,,,,,
48438950,1872,1870,1870,1872,,,,,
48441449,1870,1867,1868,1870,,,,,
48443948,1867,1865,1865,1867,,,,,
48446447,1864,1862,1862,1864,,,,,
48448946,1861,1859,1860,1861,,,,,
48451445,1859,1856,1857,1858,,,,,
48453944,1856,1853,1854,1855,,,,,
48456443,1853,1850,1851,1852,,,,,
48458942,1850,1847,1848,1849,,,,,
48461441,1846,1844,1845,1846,,,,,
48463940,1843,1841,1841,1843,,,,,
48466439,1840,1838,1838,1840,,,,,
48468938,1837,1835,1835,1837,,,,,
48471437,1833,1831,1832,1833,,,,,
48473936,1830,1828,1828,1830,,,,,
48476435,1827,1825,1825,1827,,,,,
48478934,1823,1822,1822,1823,,,,,
48481433,1820,1818,1818,1820,,,,,
48483932,1816,1815,1815,1817,,,,,
48486431,1813,1811,1812,1813,,,,,
48488930,1810,1808,1808,1810,,,,,
48491429,1806,1804,1805,1806,,,,,
48493928,1802,1801,1801,1802,,,,,
48496427,1799,1797,1798,1799,,,,,
48498926,1795,1794,1794,1795,,,,,
48501425,1792,1790,1791,1792,,,,,
48503924,1789,1787,1787,1788,,,,,
48506423,1785,1784,1784,1785,,,,,
48508922,1782,1780,1781,1782,,,,,
48511421,1778,1777,1777,1778,,,,,
48513920,1775,1774,1774,1775,,,,,
48516419,1772,1770,1771,1771,,,,,
48518918,1768,1767,1767,1768,,,,,
48521417,1765,1764,1764,1765,,,,,
48523916,1762,1761,1761,1761,,,,,
48526415,1758,1757,1758,1758,,,,,
48528914,1755,1754,1755,1755,,,,,
48531413,1752,1751,1751,1752,,,,,
48533912,1749,1748,1748,1748,,,,,
48536411,1746,1745,1745,1745,,,,,
48538910,1742,1741,1742,1742,,,,,
48541409,1739,1738,1739,1739,,,,,
48543908,1736,1735,1736,1736,,,,,
48546407,1733,1732,1733,1733,,,,,
48548906,1730,1729,1730,1730,,,,,
48551405,1727,1726,1727,1727,,,,,
48553904,1724,1724,1724,1724,,,,,
48556403,1721,1721,1721,1721,,,,,
48558902,1718,1718,1719,1718,,,,,
48561401,1715,1715,1716,1715,,,,,
