TimeUS,M1,M2,M3,M4,TimeUS,C1,C2,C3,C4
47218605,1000,1000,1000,1000,47228601,1000,1000,1000,1000
47221104,1000,1000,1000,1000,47328561,1000,1000,1000,1000
47223603,1000,1000,1000,1000,47428521,1000,1000,1000,1000
47226102,1000,1000,1000,1000,47528481,1000,1000,1000,1000
47228601,1000,1000,1000,1000,47628441,1000,1000,1000,1000
47231100,1000,1000,1000,1000,47728401,1000,1000,1000,1000
47233599,1000,1000,1000,1000,47828361,1000,1000,1000,1000
47236098,1000,1000,1000,1000,47928321,1000,1000,1000,1000
47238597,1000,1000,1000,1000,48028281,1000,1000,1000,1000
47241096,1000,1000,1000,1000,48128241,1000,1000,1000,1000
47243595,1000,1000,1000,1000,48228201,1000,1000,1000,1000
47246094,1000,1000,1000,1000,48328161,1000,1000,1000,1000
47248593,1000,1000,1000,1000,48428954,1000,1000,1000,1000
47251092,1000,1000,1000,1000,48528914,1000,1000,1000,1000
47253591,1000,1000,1000,1000,48628874,1000,1000,1000,1000
47256090,1000,1000,1000,1000,48728834,1000,1000,1000,1000
47258589,1000,1000,1000,1000,48828794,1000,1000,1000,1000
47261088,1000,1000,1000,1000,48928754,1000,1000,1000,1000
47263587,1000,1000,1000,1000,49028714,1000,1000,1000,1000
47266086,1000,1000,1000,1000,49128674,1000,1000,1000,1000
47268585,1000,1000,1000,1000,49228634,1003,1003,1003,1003
47271084,1000,1000,1000,1000,49328594,1033,1033,1033,1033
47273583,1000,1000,1000,1000,49428554,1063,1063,1063,1063
47276082,1000,1000,1000,1000,49528514,1093,1093,1093,1093
47278581,1000,1000,1000,1000,49628474,1122,1122,1122,1122
47281080,1000,1000,1000,1000,49728434,1177,1170,1170,1177
47283579,1000,1000,1000,1000,49828394,1419,1415,1415,1419
47286078,1000,1000,1000,1000,49928354,1594,1591,1590,1595
47288577,1000,1000,1000,1000,50028314,1739,1736,1736,1740
47291076,1000,1000,1000,1000,50128274,1865,1861,1861,1865
47293575,1000,1000,1000,1000,50228234,1860,1856,1856,1861
47296074,1000,1000,1000,1000,50328194,1786,1785,1785,1786
47298573,1000,1000,1000,1000,50428154,1664,1664,1665,1664
47301072,1000,1000,1000,1000,50528947,1611,1612,1613,1611
47303571,1000,1000,1000,1000,50628907,1613,1614,1614,1612
47306070,1000,1000,1000,1000,50728867,1628,1630,1629,1628
47308569,1000,1000,1000,1000,50828827,1635,1636,1636,1635
47311068,1000,1000,1000,1000,50928787,1631,1631,1631,1631
47313567,1000,1000,1000,1000,51028747,1626,1625,1625,1626
47316066,1000,1000,1000,1000,51128707,1612,1611,1610,1613
47318565,1000,1000,1000,1000,51228667,1600,1600,1591,1608
47321064,1000,1000,1000,1000,51328627,1598,1597,1590,1604
47323563,1000,1000,1000,1000,51428587,1600,1600,1598,1602
47326062,1000,1000,1000,1000,51528547,1604,1604,1605,1602
47328561,1000,1000,1000,1000,51628507,1609,1609,1612,1605
47331060,1000,1000,1000,1000,51728467,1611,1611,1615,1607
47333559,1000,1000,1000,1000,51828427,1582,1583,1599,1566
47336058,1000,1000,1000,1000,51928387,1571,1571,1583,1559
47338557,1000,1000,1000,1000,52028347,1560,1559,1561,1559
47341056,1000,1000,1000,1000,52128307,1551,1550,1542,1560
47343555,1000,1000,1000,1000,52228267,1543,1542,1531,1555
47346054,1000,1000,1000,1000,52328227,1535,1535,1525,1545
47348553,1000,1000,1000,1000,52428187,1529,1529,1524,1535
47351052,1000,1000,1000,1000,52528980,1528,1528,1527,1529
47353551,1000,1000,1000,1000,52628940,1529,1529,1531,1528
47356050,1000,1000,1000,1000,52728900,1532,1532,1536,1529
47358549,1000,1000,1000,1000,52828860,1536,1536,1541,1532
47361048,1000,1000,1000,1000,52928820,1538,1539,1542,1535
47363547,1000,1000,1000,1000,53028780,1542,1543,1544,1540
47366046,1000,1000,1000,1000,53128740,1546,1546,1546,1545
47368545,1000,1000,1000,1000,53228700,1549,1549,1548,1549
47371044,1000,1000,1000,1000,53328660,1551,1551,1549,1553
47373543,1000,1000,1000,1000,53428620,1549,1548,1555,1559
47376042,1000,1000,1000,1000,53528580,1549,1550,1561,1564
47378541,1000,1000,1000,1000,53628540,1552,1553,1562,1563
47381040,1000,1000,1000,1000,53728500,1557,1557,1563,1563
47383539,1000,1000,1000,1000,53828460,1561,1561,1563,1562
47386038,1000,1000,1000,1000,53928420,1564,1565,1563,1562
47388537,1000,1000,1000,1000,54028380,1568,1568,1563,1562
47391036,1000,1000,1000,1000,54128340,1570,1569,1563,1563
47393535,1000,1000,1000,1000,54228300,1572,1571,1564,1564
47396034,1000,1000,1000,1000,54328260,1573,1572,1565,1565
47398533,1000,1000,1000,1000,54428220,1574,1573,1567,1567
47401032,1000,1000,1000,1000,54528180,1573,1574,1569,1569
47403531,1000,1000,1000,1000,54628973,1572,1573,1570,1570
47406030,1000,1000,1000,1000,54728933,1574,1575,1573,1573
47408529,1000,1000,1000,1000,54828893,1574,1575,1575,1574
47411028,1000,1000,1000,1000,54928853,1574,1574,1576,1575
47413527,1000,1000,1000,1000,55028813,1574,1574,1577,1575
47416026,1000,1000,1000,1000,55128773,1575,1574,1578,1577
47418525,1000,1000,1000,1000,55228733,1575,1575,1578,1577
47421024,1000,1000,1000,1000,55328693,1575,1575,1578,1578
47423523,1000,1000,1000,1000,55428653,1575,1576,1578,1578
47426022,1000,1000,1000,1000,55528613,1576,1576,1578,1578
47428521,1000,1000,1000,1000,55628573,1577,1577,1578,1578
47431020,1000,1000,1000,1000,55728533,1578,1578,1577,1578
47433519,1000,1000,1000,1000,55828493,1577,1577,1577,1577
47436018,1000,1000,1000,1000,55928453,1577,1578,1577,1577
47438517,1000,1000,1000,1000,56028413,1577,1577,1577,1576
47441016,1000,1000,1000,1000,56128373,1577,1577,1576,1576
47443515,1000,1000,1000,1000,56228333,1578,1578,1577,1577
47446014,1000,1000,1000,1000,56328293,1578,1578,1577,1577
47448513,1000,1000,1000,1000,56428253,1579,1578,1578,1577
47451012,1000,1000,1000,1000,56528213,1578,1578,1578,1578
47453511,1000,1000,1000,1000,56628173,1578,1579,1578,1579
47456010,1000,1000,1000,1000,56728966,1578,1578,1578,1578
47458509,1000,1000,1000,1000,56828926,1579,1579,1579,1579
47461008,1000,1000,1000,1000,56928886,1579,1579,1580,1579
47463507,1000,1000,1000,1000,57028846,1578,1578,1579,1579
47466006,1000,1000,1000,1000,57128806,1579,1579,1580,1580
47468505,1000,1000,1000,1000,57228766,1580,1580,1580,1580
47471004,1000,1000,1000,1000,57328726,1579,1580,1580,1580
47473503,1000,1000,1000,1000,57428686,1580,1579,1580,1580
47476002,1000,1000,1000,1000,57528646,1580,1579,1580,1580
47478501,1000,1000,1000,1000,57628606,1579,1579,1579,1579
47481000,1000,1000,1000,1000,57728566,1579,1579,1579,1579
47483499,1000,1000,1000,1000,57828526,1580,1580,1580,1580
47485998,1000,1000,1000,1000,57928486,1580,1580,1579,1580
47488497,1000,1000,1000,1000,58028446,1580,1581,1580,1580
47490996,1000,1000,1000,1000,58128406,1580,1580,1580,1579
47493495,1000,1000,1000,1000,58228366,1580,1580,1581,1580
47495994,1000,1000,1000,1000,58328326,1580,1580,1580,1580
47498493,1000,1000,1000,1000,58428286,1581,1580,1580,1581
47500992,1000,1000,1000,1000,58528246,1579,1579,1579,1579
47503491,1000,1000,1000,1000,58628206,1579,1579,1579,1579
47505990,1000,1000,1000,1000,58728166,1580,1580,1580,1580
47508489,1000,1000,1000,1000,58828959,1581,1581,1581,1581
47510988,1000,1000,1000,1000,58928919,1580,1580,1579,1580
47513487,1000,1000,1000,1000,59028879,1579,1579,1580,1579
47515986,1000,1000,1000,1000,59128839,1580,1580,1580,1580
47518485,1000,1000,1000,1000,59228799,1580,1580,1581,1580
47520984,1000,1000,1000,1000,59328759,1580,1580,1580,1580
47523483,1000,1000,1000,1000,59428719,1580,1580,1580,1580
47525982,1000,1000,1000,1000,59528679,1580,1580,1580,1580
47528481,1000,1000,1000,1000,59628639,1581,1581,1583,1579
47530980,1000,1000,1000,1000,59728599,1581,1581,1588,1573
47533479,1000,1000,1000,1000,59828559,1579,1582,1583,1573
47535978,1000,1000,1000,1000,59928519,1577,1581,1574,1573
47538477,1000,1000,1000,1000,60028479,1577,1580,1566,1571
47540976,1000,1000,1000,1000,60128439,1577,1579,1560,1567
47543475,1000,1000,1000,1000,60228399,1577,1577,1556,1562
47545974,1000,1000,1000,1000,60328359,1579,1577,1555,1558
47548473,1000,1000,1000,1000,60428319,1579,1577,1556,1555
47550972,1000,1000,1000,1000,60528279,1578,1577,1555,1554
47553471,1000,1000,1000,1000,60628239,1577,1577,1556,1553
47555970,1000,1000,1000,1000,60728199,1577,1577,1556,1554
47558469,1000,1000,1000,1000,60828159,1575,1577,1556,1555
47560968,1000,1000,1000,1000,60928952,1575,1576,1554,1554
47563467,1000,1000,1000,1000,61028912,1575,1576,1553,1554
47565966,1000,1000,1000,1000,61128872,1575,1577,1551,1552
47568465,1000,1000,1000,1000,61228832,1577,1578,1549,1549
47570964,1000,1000,1000,1000,61328792,1579,1580,1548,1548
47573463,1000,1000,1000,1000,61428752,1582,1583,1546,1545
47575962,1000,1000,1000,1000,61528712,1585,1586,1543,1542
47578461,1000,1000,1000,1000,61628672,1587,1588,1540,1539
47580960,1000,1000,1000,1000,61728632,1590,1590,1536,1537
47583459,1000,1000,1000,1000,61828592,1594,1594,1535,1536
47585958,1000,1000,1000,1000,61928552,1595,1595,1534,1535
47588457,1000,1000,1000,1000,62028512,1596,1595,1535,1536
47590956,1000,1000,1000,1000,62128472,1595,1595,1537,1539
47593455,1000,1000,1000,1000,62228432,1592,1591,1540,1542
47595954,1000,1000,1000,1000,62328392,1589,1587,1546,1549
47598453,1000,1000,1000,1000,62428352,1582,1579,1554,1556
47600952,1000,1000,1000,1000,62528312,1573,1570,1564,1567
47603451,1000,1000,1000,1000,62628272,1562,1559,1575,1577
47605950,1000,1000,1000,1000,62728232,1551,1548,1587,1589
47608449,1000,1000,1000,1000,62828192,1541,1540,1599,1599
47610948,1000,1000,1000,1000,62928985,1534,1533,1608,1607
47613447,1000,1000,1000,1000,63028945,1529,1530,1614,1612
47615946,1000,1000,1000,1000,63128905,1529,1531,1615,1614
47618445,1000,1000,1000,1000,63228865,1532,1534,1613,1613
47620944,1000,1000,1000,1000,63328825,1538,1540,1609,1609
47623443,1000,1000,1000,1000,63428785,1545,1547,1602,1602
47625942,1000,1000,1000,1000,63528745,1553,1554,1594,1594
47628441,1000,1000,1000,1000,63628705,1562,1563,1587,1586
47630940,1000,1000,1000,1000,63728665,1572,1571,1581,1580
47633439,1000,1000,1000,1000,63828625,1576,1575,1573,1572
47635938,1000,1000,1000,1000,63928585,1582,1581,1569,1569
47638437,1000,1000,1000,1000,64028545,1586,1584,1567,1566
47640936,1000,1000,1000,1000,64128505,1588,1586,1566,1566
47643435,1000,1000,1000,1000,64228465,1586,1585,1565,1566
47645934,1000,1000,1000,1000,64328425,1586,1584,1568,1568
47648433,1000,1000,1000,1000,64428385,1584,1583,1571,1571
47650932,1000,1000,1000,1000,64528345,1580,1580,1574,1574
47653431,1000,1000,1000,1000,64628305,1577,1577,1576,1577
47655930,1000,1000,1000,1000,64728265,1575,1576,1579,1579
47658429,1000,1000,1000,1000,64828225,1574,1574,1582,1582
47660928,1000,1000,1000,1000,64928185,1571,1573,1583,1582
47663427,1000,1000,1000,1000,65028978,1572,1573,1584,1584
47665926,1000,1000,1000,1000,65128938,1572,1573,1583,1583
47668425,1000,1000,1000,1000,65228898,1574,1574,1583,1584
47670924,1000,1000,1000,1000,65328858,1576,1576,1583,1583
47673423,1000,1000,1000,1000,65428818,1576,1576,1581,1581
47675922,1000,1000,1000,1000,65528778,1578,1578,1581,1580
47678421,1000,1000,1000,1000,65628738,1579,1579,1579,1579
47680920,1000,1000,1000,1000,65728698,1580,1580,1578,1578
47683419,1000,1000,1000,1000,65828658,1581,1581,1577,1577
47685918,1000,1000,1000,1000,65928618,1582,1581,1577,1577
47688417,1000,1000,1000,1000,66028578,1582,1582,1578,1578
47690916,1000,1000,1000,1000,66128538,1581,1581,1578,1578
47693415,1000,1000,1000,1000,66228498,1581,1581,1578,1578
47695914,1000,1000,1000,1000,66328458,1581,1582,1579,1579
47698413,1000,1000,1000,1000,66428418,1581,1581,1580,1580
47700912,1000,1000,1000,1000,66528378,1581,1581,1581,1581
47703411,1000,1000,1000,1000,66628338,1580,1580,1581,1581
47705910,1000,1000,1000,1000,66728298,1579,1580,1580,1581
47708409,1000,1000,1000,1000,66828258,1578,1579,1580,1580
47710908,1000,1000,1000,1000,66928218,1580,1580,1581,1581
47713407,1000,1000,1000,1000,67028178,1579,1579,1581,1581
47715906,1000,1000,1000,1000,67128971,1579,1579,1581,1580
47718405,1000,1000,1000,1000,67228931,1579,1579,1580,1580
47720904,1000,1000,1000,1000,67328891,1580,1580,1581,1580
47723403,1000,1000,1000,1000,67428851,1581,1581,1581,1581
47725902,1000,1000,1000,1000,67528811,1581,1582,1581,1581
47728401,1000,1000,1000,1000,67628771,1581,1581,1580,1580
47730900,1000,1000,1000,1000,67728731,1580,1583,1586,1573
47733399,1000,1000,1000,1000,67828691,1580,1584,1584,1571
47735898,1000,1000,1000,1000,67928651,1711,1608,1707,1595
47738397,1000,1000,1000,1000,68028611,1602,1607,1592,1593
47740896,1000,1000,1000,1000,68128571,1555,1611,1534,1597
47743395,1000,1000,1000,1000,68228531,1549,1606,1515,1585
47745894,1000,1000,1000,1000,68328491,1562,1594,1516,1561
47748393,1000,1000,1000,1000,68428451,1573,1578,1521,1534
47750892,1000,1000,1000,1000,68528411,1575,1563,1528,1519
47753391,1000,1000,1000,1000,68628371,1573,1555,1540,1520
47755890,1000,1000,1000,1000,68728331,1567,1552,1552,1532
47758389,1000,1000,1000,1000,68828291,1560,1552,1561,1545
47760888,1000,1000,1000,1000,68928251,1555,1553,1563,1556
47763387,1000,1000,1000,1000,69028211,1554,1556,1563,1562
47765886,1000,1000,1000,1000,69128171,1555,1560,1560,1563
47768385,1000,1000,1000,1000,69228964,1561,1565,1558,1561
47770884,1000,1000,1000,1000,69328924,1569,1572,1556,1558
47773383,1000,1000,1000,1000,69428884,1578,1578,1554,1553
47775882,1000,1000,1000,1000,69528844,1584,1583,1551,1550
47778381,1000,1000,1000,1000,69628804,1589,1589,1549,1546
47780880,1000,1000,1000,1000,69728764,1594,1593,1547,1545
47783379,1000,1000,1000,1000,69828724,1596,1595,1545,1544
47785878,1000,1000,1000,1000,69928684,1597,1597,1545,1544
47788377,1000,1000,1000,1000,70028644,1597,1597,1544,1545
47790876,1000,1000,1000,1000,70128604,1597,1597,1546,1548
47793375,1000,1000,1000,1000,70228564,1594,1595,1548,1550
47795874,1000,1000,1000,1000,70328524,1591,1590,1551,1553
47798373,1000,1000,1000,1000,70428484,1588,1587,1559,1561
47800872,1000,1000,1000,1000,70528444,1581,1579,1565,1566
47803371,1000,1000,1000,1000,70628404,1575,1573,1573,1575
47805870,1000,1000,1000,1000,70728364,1567,1565,1580,1582
47808369,1000,1000,1000,1000,70828324,1559,1558,1588,1589
47810868,1000,1000,1000,1000,70928284,1552,1552,1594,1595
47813367,1000,1000,1000,1000,71028244,1549,1548,1599,1600
47815866,1000,1000,1000,1000,71128204,1546,1545,1602,1603
47818365,1000,1000,1000,1000,71228164,1547,1547,1604,1604
47820864,1000,1000,1000,1000,71328957,1550,1550,1603,1603
47823363,1000,1000,1000,1000,71428917,1553,1554,1600,1600
47825862,1000,1000,1000,1000,71528877,1556,1558,1595,1595
47828361,1000,1000,1000,1000,71628837,1563,1563,1592,1591
47830860,1000,1000,1000,1000,71728797,1568,1568,1587,1586
47833359,1000,1000,1000,1000,71828757,1574,1574,1585,1583
47835858,1000,1000,1000,1000,71928717,1577,1577,1580,1579
47838357,1000,1000,1000,1000,72028677,1580,1580,1577,1577
47840856,1000,1000,1000,1000,72128637,1582,1582,1576,1576
47843355,1000,1000,1000,1000,72228597,1583,1582,1576,1575
47845854,1000,1000,1000,1000,72328557,1581,1581,1574,1574
47848353,1000,1000,1000,1000,72428517,1581,1580,1576,1576
47850852,1000,1000,1000,1000,72528477,1579,1578,1576,1576
47853351,1000,1000,1000,1000,72628437,1578,1577,1578,1578
47855850,1000,1000,1000,1000,72728397,1576,1576,1580,1580
47858349,1000,1000,1000,1000,72828357,1576,1575,1581,1581
47860848,1000,1000,1000,1000,72928317,1575,1575,1581,1582
47863347,1000,1000,1000,1000,73028277,1573,1574,1581,1581
47865846,1000,1000,1000,1000,73128237,1574,1575,1581,1582
47868345,1000,1000,1000,1000,73228197,1575,1575,1581,1581
47870844,1000,1000,1000,1000,73328157,1576,1576,1581,1581
47873343,1000,1000,1000,1000,73428950,1577,1576,1580,1580
47875842,1000,1000,1000,1000,73528910,1578,1578,1580,1580
47878341,1000,1000,1000,1000,73628870,1579,1578,1579,1579
47880840,1000,1000,1000,1000,73728830,1578,1578,1578,1578
47883339,1000,1000,1000,1000,73828790,1578,1579,1578,1578
47885838,1000,1000,1000,1000,73928750,1579,1579,1578,1578
47888337,1000,1000,1000,1000,74028710,1580,1580,1578,1578
47890836,1000,1000,1000,1000,74128670,1579,1580,1578,1578
47893335,1000,1000,1000,1000,74228630,1580,1580,1579,1579
47895834,1000,1000,1000,1000,74328590,1580,1580,1580,1580
47898333,1000,1000,1000,1000,74428550,1580,1580,1579,1580
47900832,1000,1000,1000,1000,74528510,1580,1580,1580,1580
47903331,1000,1000,1000,1000,74628470,1578,1578,1579,1579
47905830,1000,1000,1000,1000,74728430,1579,1579,1580,1580
47908329,1000,1000,1000,1000,74828390,1579,1579,1580,1580
47910828,1000,1000,1000,1000,74928350,1579,1579,1579,1580
47913327,1000,1000,1000,1000,75028310,1579,1579,1580,1580
47915826,1000,1000,1000,1000,75128270,1580,1580,1581,1581
47918325,1000,1000,1000,1000,75228230,1580,1580,1581,1581
47920824,1000,1000,1000,1000,75328190,1581,1581,1581,1581
47923323,1000,1000,1000,1000,75428983,1582,1582,1582,1582
47925822,1000,1000,1000,1000,75528943,1582,1582,1581,1582
47928321,1000,1000,1000,1000,75628903,1580,1580,1579,1580
47930820,1000,1000,1000,1000,75728863,1580,1580,1579,1580
47933319,1000,1000,1000,1000,75828823,1580,1580,1580,1579
47935818,1000,1000,1000,1000,75928783,1580,1581,1581,1580
47938317,1000,1000,1000,1000,76028743,1580,1580,1580,1579
47940816,1000,1000,1000,1000,76128703,1582,1581,1581,1581
47943315,1000,1000,1000,1000,76228663,1580,1583,1588,1574
47945814,1000,1000,1000,1000,76328623,1579,1583,1583,1571
47948313,1000,1000,1000,1000,76428583,1579,1583,1574,1571
47950812,1000,1000,1000,1000,76528543,1580,1582,1565,1569
47953311,1000,1000,1000,1000,76628503,1580,1581,1558,1565
47955810,1000,1000,1000,1000,76728463,1582,1582,1555,1561
47958309,1000,1000,1000,1000,76828423,1582,1582,1555,1557
47960808,1000,1000,1000,1000,76928383,1582,1580,1555,1554
47963307,1000,1000,1000,1000,77028343,1581,1579,1555,1552
47965806,1000,1000,1000,1000,77128303,1580,1580,1557,1554
47968305,1000,1000,1000,1000,77228263,1577,1579,1556,1554
47970804,1000,1000,1000,1000,77328223,1576,1578,1555,1554
47973303,1000,1000,1000,1000,77428183,1576,1578,1555,1555
47975802,1000,1000,1000,1000,77528976,1576,1577,1553,1554
47978301,1000,1000,1000,1000,77628936,1576,1578,1550,1552
47980800,1000,1000,1000,1000,77728896,1580,1580,1550,1550
47983299,1000,1000,1000,1000,77828856,1581,1582,1547,1547
47985798,1000,1000,1000,1000,77928816,1583,1583,1543,1544
47988297,1000,1000,1000,1000,78028776,1585,1586,1541,1541
47990796,1000,1000,1000,1000,78128736,1588,1588,1539,1538
47993295,1000,1000,1000,1000,78228696,1590,1591,1538,1537
47995794,1000,1000,1000,1000,78328656,1591,1591,1535,1536
47998293,1000,1000,1000,1000,78428616,1592,1593,1536,1537
48000792,1000,1000,1000,1000,78528576,1593,1593,1537,1540
48003291,1000,1000,1000,1000,78628536,1590,1590,1540,1542
48005790,1000,1000,1000,1000,78728496,1587,1586,1547,1549
48008289,1000,1000,1000,1000,78828456,1581,1578,1556,1557
48010788,1000,1000,1000,1000,78928416,1572,1568,1566,1568
48013287,1000,1000,1000,1000,79028376,1562,1558,1578,1580
48015786,1000,1000,1000,1000,79128336,1550,1547,1590,1591
48018285,1000,1000,1000,1000,79228296,1542,1539,1601,1601
48020784,1000,1000,1000,1000,79328256,1534,1532,1607,1608
48023283,1000,1000,1000,1000,79428216,1531,1530,1611,1612
48025782,1000,1000,1000,1000,79528176,1532,1532,1612,1613
48028281,1000,1000,1000,1000,79628969,1536,1537,1609,1610
48030780,1000,1000,1000,1000,79728929,1544,1545,1605,1605
48033279,1000,1000,1000,1000,79828889,1552,1553,1598,1598
48035778,1000,1000,1000,1000,79928849,1560,1562,1591,1590
48038277,1000,1000,1000,1000,80028809,1568,1570,1584,1582
48040776,1000,1000,1000,1000,80128769,1576,1577,1578,1576
48043275,1000,1000,1000,1000,80228729,1582,1582,1574,1572
48045774,1000,1000,1000,1000,80328689,1587,1586,1571,1570
48048273,1000,1000,1000,1000,80428649,1588,1587,1569,1569
48050772,1000,1000,1000,1000,80528609,1587,1587,1569,1569
48053271,1000,1000,1000,1000,80628569,1586,1586,1571,1571
48055770,1000,1000,1000,1000,80728529,1583,1583,1573,1574
48058269,1000,1000,1000,1000,80828489,1580,1579,1575,1575
48060768,1000,1000,1000,1000,80928449,1578,1577,1578,1578
48063267,1000,1000,1000,1000,81028409,1577,1577,1582,1582
48065766,1000,1000,1000,1000,81128369,1573,1573,1581,1582
48068265,1000,1000,1000,1000,81228329,1574,1574,1584,1584
48070764,1000,1000,1000,1000,81328289,1573,1573,1583,1584
48073263,1000,1000,1000,1000,81428249,1573,1574,1583,1583
48075762,1000,1000,1000,1000,81528209,1574,1575,1583,1583
48078261,1000,1000,1000,1000,81628169,1575,1576,1581,1582
48080760,1000,1000,1000,1000,81728962,1577,1577,1580,1580
48083259,1000,1000,1000,1000,81828922,1578,1578,1579,1579
48085758,1000,1000,1000,1000,81928882,1580,1579,1578,1579
48088257,1000,1000,1000,1000,82028842,1580,1580,1578,1577
48090756,1000,1000,1000,1000,82128802,1581,1581,1578,1578
48093255,1000,1000,1000,1000,82228762,1581,1581,1577,1577
48095754,1000,1000,1000,1000,82328722,1581,1581,1578,1578
48098253,1000,1000,1000,1000,82428682,1581,1581,1578,1578
48100752,1000,1000,1000,1000,82528642,1581,1580,1578,1579
48103251,1000,1000,1000,1000,82628602,1580,1580,1579,1579
48105750,1000,1000,1000,1000,82728562,1580,1579,1580,1580
48108249,1000,1000,1000,1000,82828522,1579,1579,1580,1580
48110748,1000,1000,1000,1000,82928482,1580,1580,1581,1581
48113247,1000,1000,1000,1000,83028442,1580,1580,1581,1581
48115746,1000,1000,1000,1000,83128402,1580,1580,1581,1581
48118245,1000,1000,1000,1000,83228362,1579,1579,1580,1581
48120744,1000,1000,1000,1000,83328322,1579,1579,1580,1581
48123243,1000,1000,1000,1000,83428282,1579,1579,1580,1580
48125742,1000,1000,1000,1000,83528242,1580,1580,1580,1580
48128241,1000,1000,1000,1000,83628202,1579,1580,1580,1579
48130740,1000,1000,1000,1000,83728162,1579,1580,1579,1579
48133239,1000,1000,1000,1000,83828955,1582,1581,1581,1581
48135738,1000,1000,1000,1000,83928915,1582,1582,1582,1581
48138237,1000,1000,1000,1000,84028875,1581,1582,1582,1579
48140736,1000,1000,1000,1000,84128835,1581,1582,1588,1573
48143235,1000,1000,1000,1000,84228795,1580,1581,1583,1574
48145734,1000,1000,1000,1000,84328755,1578,1578,1575,1576
48148233,1000,1000,1000,1000,84428715,1574,1574,1568,1575
48150732,1000,1000,1000,1000,84528675,1572,1571,1566,1573
48153231,1000,1000,1000,1000,84628635,1570,1569,1566,1572
48155730,1000,1000,1000,1000,84728595,1568,1567,1567,1569
48158229,1000,1000,1000,1000,84828555,1567,1567,1569,1567
48160728,1000,1000,1000,1000,84928515,1567,1567,1569,1567
48163227,1000,1000,1000,1000,85028475,1565,1565,1568,1566
48165726,1000,1000,1000,1000,85128435,1564,1564,1566,1565
48168225,1000,1000,1000,1000,85228395,1563,1564,1564,1564
48170724,1000,1000,1000,1000,85328355,1562,1563,1563,1563
48173223,1000,1000,1000,1000,85428315,1562,1562,1562,1562
48175722,1000,1000,1000,1000,85528275,1562,1562,1562,1562
48178221,1000,1000,1000,1000,85628235,1562,1561,1562,1561
48180720,1000,1000,1000,1000,85728195,1562,1561,1561,1561
48183219,1000,1000,1000,1000,85828155,1560,1561,1560,1559
48185718,1000,1000,1000,1000,85928948,1560,1560,1560,1559
48188217,1000,1000,1000,1000,86028908,1558,1558,1558,1557
48190716,1000,1000,1000,1000,86128868,1558,1557,1558,1557
48193215,1000,1000,1000,1000,86228828,1557,1556,1556,1556
48195714,1000,1000,1000,1000,86328788,1555,1555,1555,1555
48198213,1000,1000,1000,1000,86428748,1555,1554,1555,1554
48200712,1000,1000,1000,1000,86528708,1555,1555,1556,1554
48203211,1000,1000,1000,1000,86628668,1556,1557,1558,1555
48205710,1000,1000,1000,1000,86728628,1557,1557,1559,1556
48208209,1000,1000,1000,1000,86828588,1558,1559,1560,1558
48210708,1000,1000,1000,1000,86928548,1559,1559,1557,1560
48213207,1000,1000,1000,1000,87028508,1559,1559,1555,1562
48215706,1000,1000,1000,1000,87128468,1561,1560,1557,1563
48218205,1000,1000,1000,1000,87228428,1562,1562,1560,1564
48220704,1000,1000,1000,1000,87328388,1563,1563,1562,1564
48223203,1000,1000,1000,1000,87428348,1563,1563,1564,1563
48225702,1000,1000,1000,1000,87528308,1562,1562,1564,1561
48228201,1000,1000,1000,1000,87628268,1562,1563,1565,1561
48230700,1000,1000,1000,1000,87728228,1562,1562,1561,1563
48233199,1000,1000,1000,1000,87828188,1559,1559,1555,1562
48235698,1000,1000,1000,1000,87928981,1553,1553,1550,1556
48238197,1000,1000,1000,1000,88028941,1548,1549,1547,1549
48240696,1000,1000,1000,1000,88128901,1541,1541,1541,1541
48243195,1000,1000,1000,1000,88228861,1534,1534,1535,1533
48245694,1000,1000,1000,1000,88328821,1526,1525,1527,1525
48248193,1000,1000,1000,1000,88428781,1521,1520,1522,1519
48250692,1000,1000,1000,1000,88528741,1519,1518,1519,1518
48253191,1000,1000,1000,1000,88628701,1520,1519,1519,1519
48255690,1000,1000,1000,1000,88728661,1522,1521,1522,1522
48258189,1000,1000,1000,1000,88828621,1525,1524,1524,1525
48260688,1000,1000,1000,1000,88928581,1529,1529,1529,1530
48263187,1000,1000,1000,1000,89028541,1534,1534,1534,1534
48265686,1000,1000,1000,1000,89128501,1538,1539,1538,1539
48268185,1000,1000,1000,1000,89228461,1541,1542,1541,1542
48270684,1000,1000,1000,1000,89328421,1543,1543,1543,1543
48273183,1000,1000,1000,1000,89428381,1545,1545,1545,1545
48275682,1000,1000,1000,1000,89528341,1546,1546,1546,1546
48278181,1000,1000,1000,1000,89628301,1545,1546,1546,1546
48280680,1000,1000,1000,1000,89728261,1546,1546,1546,1545
48283179,1000,1000,1000,1000,89828221,1545,1546,1546,1546
48285678,1000,1000,1000,1000,89928181,1546,1546,1546,1546
48288177,1000,1000,1000,1000,90028974,1545,1546,1546,1545
48290676,1000,1000,1000,1000,90128934,1546,1545,1545,1545
48293175,1000,1000,1000,1000,90228894,1546,1545,1545,1546
48295674,1000,1000,1000,1000,90328854,1545,1545,1545,1545
48298173,1000,1000,1000,1000,90428814,1545,1545,1545,1545
48300672,1000,1000,1000,1000,90528774,1545,1546,1546,1545
48303171,1000,1000,1000,1000,90628734,1545,1545,1545,1544
48305670,1000,1000,1000,1000,90728694,1545,1544,1544,1544
48308169,1000,1000,1000,1000,90828654,1544,1544,1544,1544
48310668,1000,1000,1000,1000,90928614,1544,1544,1544,1544
48313167,1000,1000,1000,1000,91028574,1544,1544,1544,1544
48315666,1000,1000,1000,1000,91128534,1545,1545,1545,1545
48318165,1000,1000,1000,1000,91228494,1544,1544,1544,1543
48320664,1000,1000,1000,1000,91328454,1544,1544,1545,1544
48323163,1000,1000,1000,1000,91428414,1544,1544,1544,1544
48325662,1000,1000,1000,1000,91528374,1544,1543,1543,1544
48328161,1000,1000,1000,1000,91628334,1543,1544,1543,1544
48330660,1000,1000,1000,1000,91728294,1544,1544,1544,1544
48333159,1000,1000,1000,1000,91828254,1544,1544,1544,1544
48335658,1000,1000,1000,1000,91928214,1545,1544,1545,1544
48338157,1000,1000,1000,1000,92028174,1544,1544,1544,1544
48340656,1000,1000,1000,1000,92128967,1545,1544,1544,1544
48343155,1000,1000,1000,1000,92228927,1544,1545,1544,1545
48345654,1000,1000,1000,1000,92328887,1543,1544,1544,1544
48348986,1000,1000,1000,1000,92428847,1543,1544,1544,1544
48351485,1000,1000,1000,1000,92528807,1545,1545,1545,1545
48353984,1000,1000,1000,1000,92628767,1544,1545,1545,1544
48356483,1000,1000,1000,1000,92728727,1543,1543,1543,1543
48358982,1000,1000,1000,1000,92828687,1544,1544,1544,1544
48361481,1000,1000,1000,1000,92928647,1546,1545,1545,1546
48363980,1000,1000,1000,1000,93028607,1544,1544,1544,1544
48366479,1000,1000,1000,1000,93128567,1545,1545,1545,1544
48368978,1000,1000,1000,1000,93228527,1543,1544,1544,1544
48371477,1000,1000,1000,1000,93328487,1544,1544,1544,1544
48373976,1000,1000,1000,1000,93428447,1544,1544,1544,1544
48376475,1000,1000,1000,1000,93528407,1544,1543,1543,1544
48378974,1000,1000,1000,1000,93628367,1544,1544,1544,1544
48381473,1000,1000,1000,1000,93728327,1544,1545,1544,1545
48383972,1000,1000,1000,1000,93828287,1545,1545,1545,1545
48386471,1000,1000,1000,1000,93928247,1545,1545,1545,1545
48388970,1000,1000,1000,1000,94028207,1545,1545,1544,1545
48391469,1000,1000,1000,1000,94128167,1545,1545,1544,1545
48393968,1000,1000,1000,1000,94228960,1545,1545,1544,1545
48396467,1000,1000,1000,1000,94328920,1544,1544,1544,1544
48398966,1000,1000,1000,1000,94428880,1545,1545,1545,1545
48401465,1000,1000,1000,1000,94528840,1545,1545,1545,1545
48403964,1000,1000,1000,1000,94628800,1545,1545,1545,1545
48406463,1000,1000,1000,1000,94728760,1545,1545,1545,1545
48408962,1000,1000,1000,1000,94828720,1544,1544,1544,1544
48411461,1000,1000,1000,1000,94928680,1544,1543,1544,1543
48413960,1000,1000,1000,1000,95028640,1544,1544,1544,1544
48416459,1000,1000,1000,1000,95128600,1543,1543,1543,1543
48418958,1000,1000,1000,1000,95228560,1544,1544,1544,1544
48421457,1000,1000,1000,1000,95328520,1544,1543,1544,1544
48423956,1000,1000,1000,1000,95428480,1544,1544,1545,1544
48426455,1000,1000,1000,1000,95528440,1545,1544,1544,1544
48428954,1000,1000,1000,1000,95628400,1545,1545,1545,1545
48431453,1000,1000,1000,1000,95728360,1545,1544,1545,1545
48433952,1000,1000,1000,1000,95828320,1545,1545,1544,1545
48436451,1000,1000,1000,1000,95928280,1545,1545,1545,1545
48438950,1000,1000,1000,1000,96028240,1546,1546,1546,1546
48441449,1000,1000,1000,1000,96128200,1544,1544,1543,1544
48443948,1000,1000,1000,1000,96228160,1545,1545,1545,1545
48446447,1000,1000,1000,1000,96328953,1545,1544,1544,1545
48448946,1000,1000,1000,1000,96428913,1544,1544,1544,1544
48451445,1000,1000,1000,1000,96528873,1544,1543,1544,1543
48453944,1000,1000,1000,1000,96628833,1543,1543,1544,1543
48456443,1000,1000,1000,1000,96728793,1545,1544,1545,1545
48458942,1000,1000,1000,1000,96828753,1544,1545,1545,1545
48461441,1000,1000,1000,1000,96928713,1545,1545,1545,1545
48463940,1000,1000,1000,1000,97028673,1545,1545,1545,1545
48466439,1000,1000,1000,1000,97128633,1545,1546,1545,1545
48468938,1000,1000,1000,1000,97228593,1544,1545,1545,1545
48471437,1000,1000,1000,1000,97328553,1545,1545,1545,1545
48473936,1000,1000,1000,1000,97428513,1545,1545,1545,1545
48476435,1000,1000,1000,1000,97528473,1545,1544,1545,1545
48478934,1000,1000,1000,1000,97628433,1544,1544,1544,1544
48481433,1000,1000,1000,1000,97728393,1544,1544,1544,1544
48483932,1000,1000,1000,1000,97828353,1545,1544,1544,1544
48486431,1000,1000,1000,1000,97928313,1545,1545,1545,1544
48488930,1000,1000,1000,1000,98028273,1544,1545,1545,1544
48491429,1000,1000,1000,1000,98128233,1545,1545,1545,1545
48493928,1000,1000,1000,1000,98228193,1348,1407,1346,1408
48496427,1000,1000,1000,1000,98328986,1342,1404,1341,1405
48498926,1000,1000,1000,1000,98428946,1341,1404,1341,1405
48501425,1000,1000,1000,1000,98528906,1342,1389,1341,1390
48503924,1000,1000,1000,1000,98628866,1341,1330,1341,1330
48506423,1000,1000,1000,1000,98728826,1342,1302,1341,1303
48508922,1000,1000,1000,1000,98828786,1342,1302,1341,1303
48511421,1000,1000,1000,1000,98928746,1356,1291,1341,1303
48513920,1000,1000,1000,1000,99028706,1351,1295,1341,1303
48516419,1000,1000,1000,1000,99128666,1350,1296,1341,1303
48518918,1000,1000,1000,1000,99228626,1349,1296,1341,1303
48521417,1000,1000,1000,1000,99328586,1350,1295,1341,1303
48523916,1000,1000,1000,1000,99428546,1351,1295,1341,1303
48526415,1000,1000,1000,1000,99528506,1351,1295,1341,1303
48528914,1000,1000,1000,1000,99628466,1342,1302,1341,1303
48531413,1000,1000,1000,1000,99728426,1345,1300,1341,1303
48533912,1000,1000,1000,1000,99828386,1345,1299,1341,1303
48536411,1000,1000,1000,1000,99928346,1346,1299,1341,1303
48538910,1000,1000,1000,1000,100028306,1346,1299,1341,1303
48541409,1000,1000,1000,1000,100128266,1341,1150,1341,1150
48543908,1000,1000,1000,1000,100228226,1000,1000,1000,1000
48546407,1000,1000,1000,1000,100328186,1000,1000,1000,1000
48548906,1000,1000,1000,1000,100428979,1000,1000,1000,1000
48551405,1000,1000,1000,1000,100528939,1000,1000,1000,1000
48553904,1000,1000,1000,1000,100628899,1000,1000,1000,1000
48556403,1000,1000,1000,1000,100728859,1000,1000,1000,1000
48558902,1000,1000,1000,1000,100828819,1000,1000,1000,1000
48561401,1000,1000,1000,1000,100928779,1000,1000,1000,1000
48563900,1000,1000,1000,1000,101028739,1000,1000,1000,1000
48566399,1000,1000,1000,1000,101128699,1000,1000,1000,1000
48568898,1000,1000,1000,1000,101228659,1000,1000,1000,1000
48571397,1000,1000,1000,1000,101328619,1000,1000,1000,1000
48573896,1000,1000,1000,1000,101428579,1000,1000,1000,1000
48576395,1000,1000,1000,1000,101528539,1000,1000,1000,1000
48578894,1000,1000,1000,1000,101628499,1000,1000,1000,1000
48581393,1000,1000,1000,1000,101728459,1000,1000,1000,1000
48583892,1000,1000,1000,1000,101828419,1000,1000,1000,1000
48586391,1000,1000,1000,1000,101928379,1000,1000,1000,1000
48588890,1000,1000,1000,1000,102028339,1000,1000,1000,1000
48591389,1000,1000,1000,1000,102128299,1000,1000,1000,1000
48593888,1000,1000,1000,1000,102228259,1000,1000,1000,1000
48596387,1000,1000,1000,1000,102328219,1000,1000,1000,1000
48598886,1000,1000,1000,1000,102428179,1000,1000,1000,1000
48601385,1000,1000,1000,1000,102528972,1000,1000,1000,1000
48603884,1000,1000,1000,1000,102628932,1000,1000,1000,1000
48606383,1000,1000,1000,1000,102728892,1000,1000,1000,1000
48608882,1000,1000,1000,1000,102828852,1000,1000,1000,1000
48611381,1000,1000,1000,1000,102928812,1000,1000,1000,1000
48613880,1000,1000,1000,1000,103028772,1000,1000,1000,1000
48616379,1000,1000,1000,1000,103128732,1000,1000,1000,1000
48618878,1000,1000,1000,1000,103228692,1000,1000,1000,1000
48621377,1000,1000,1000,1000,103328652,1000,1000,1000,1000
48623876,1000,1000,1000,1000,103428612,1000,1000,1000,1000
48626375,1000,1000,1000,1000,103528572,1000,1000,1000,1000
48628874,1000,1000,1000,1000,103628532,1000,1000,1000,1000
48631373,1000,1000,1000,1000,103728492,1000,1000,1000,1000
48633872,1000,1000,1000,1000,103828452,1000,1000,1000,1000
48636371,1000,1000,1000,1000,103928412,1000,1000,1000,1000
48638870,1000,1000,1000,1000,104028372,1000,1000,1000,1000
48641369,1000,1000,1000,1000,104128332,1000,1000,1000,1000
48643868,1000,1000,1000,1000,104228292,1000,1000,1000,1000
48646367,1000,1000,1000,1000,104328252,1000,1000,1000,1000
48648866,1000,1000,1000,1000,104428212,1000,1000,1000,1000
48651365,1000,1000,1000,1000,104528172,1000,1000,1000,1000
48653864,1000,1000,1000,1000,104628965,1000,1000,1000,1000
48656363,1000,1000,1000,1000,104728925,1000,1000,1000,1000
48658862,1000,1000,1000,1000,104828885,1000,1000,1000,1000
48661361,1000,1000,1000,1000,104928845,1000,1000,1000,1000
48663860,1000,1000,1000,1000,105028805,1000,1000,1000,1000
48666359,1000,1000,1000,1000,105128765,1000,1000,1000,1000
48668858,1000,1000,1000,1000,105228725,1000,1000,1000,1000
48671357,1000,1000,1000,1000,105328685,1000,1000,1000,1000
48673856,1000,1000,1000,1000,105428645,1000,1000,1000,1000
48676355,1000,1000,1000,1000,105528605,1000,1000,1000,1000
48678854,1000,1000,1000,1000,105628565,1000,1000,1000,1000
48681353,1000,1000,1000,1000,105728525,1000,1000,1000,1000
48683852,1000,1000,1000,1000,105828485,1000,1000,1000,1000
48686351,1000,1000,1000,1000,105928445,1000,1000,1000,1000
48688850,1000,1000,1000,1000,106028405,1000,1000,1000,1000
48691349,1000,1000,1000,1000,106128365,1000,1000,1000,1000
48693848,1000,1000,1000,1000,106228325,1000,1000,1000,1000
48696347,1000,1000,1000,1000,106328285,1000,1000,1000,1000
48698846,1000,1000,1000,1000,106428245,1000,1000,1000,1000
48701345,1000,1000,1000,1000,106528205,1000,1000,1000,1000
48703844,1000,1000,1000,1000,106628165,1000,1000,1000,1000
48706343,1000,1000,1000,1000,106728958,1000,1000,1000,1000
48708842,1000,1000,1000,1000,106828918,1000,1000,1000,1000
48711341,1000,1000,1000,1000,106928878,1000,1000,1000,1000
48713840,1000,1000,1000,1000,107028838,1000,1000,1000,1000
48716339,1000,1000,1000,1000,107128798,1000,1000,1000,1000
48718838,1000,1000,1000,1000,107228758,1000,1000,1000,1000
48721337,1000,1000,1000,1000,107328718,1000,1000,1000,1000
48723836,1000,1000,1000,1000,107428678,1000,1000,1000,1000
48726335,1000,1000,1000,1000,107528638,1000,1000,1000,1000
48728834,1000,1000,1000,1000,107628598,1000,1000,1000,1000
48731333,1000,1000,1000,1000,107728558,1000,1000,1000,1000
48733832,1000,1000,1000,1000,107828518,1000,1000,1000,1000
48736331,1000,1000,1000,1000,107928478,1000,1000,1000,1000
48738830,1000,1000,1000,1000,108028438,1000,1000,1000,1000
48741329,1000,1000,1000,1000,108128398,1000,1000,1000,1000
48743828,1000,1000,1000,1000,108228358,1000,1000,1000,1000
48746327,1000,1000,1000,1000,108328318,1000,1000,1000,1000
48748826,1000,1000,1000,1000,108428278,1000,1000,1000,1000
48751325,1000,1000,1000,1000,108528238,1000,1000,1000,1000
48753824,1000,1000,1000,1000,108628198,1000,1000,1000,1000
48756323,1000,1000,1000,1000,108728158,1000,1000,1000,1000
48758822,1000,1000,1000,1000,108828951,1000,1000,1000,1000
48761321,1000,1000,1000,1000,108928911,1000,1000,1000,1000
48763820,1000,1000,1000,1000,109028871,1000,1000,1000,1000
48766319,1000,1000,1000,1000,109128831,1000,1000,1000,1000
48768818,1000,1000,1000,1000,109228791,1000,1000,1000,1000
48771317,1000,1000,1000,1000,109328751,1000,1000,1000,1000
48773816,1000,1000,1000,1000,109428711,1000,1000,1000,1000
48776315,1000,1000,1000,1000,109528671,1000,1000,1000,1000
48778814,1000,1000,1000,1000,109628631,1000,1000,1000,1000
48781313,1000,1000,1000,1000,109728591,1000,1000,1000,1000
48783812,1000,1000,1000,1000,109828551,1000,1000,1000,1000
48786311,1000,1000,1000,1000,109928511,1000,1000,1000,1000
48788810,1000,1000,1000,1000,110028471,1000,1000,1000,1000
48791309,1000,1000,1000,1000,110128431,1000,1000,1000,1000
48793808,1000,1000,1000,1000,110228391,1000,1000,1000,1000
48796307,1000,1000,1000,1000,110328351,1000,1000,1000,1000
48798806,1000,1000,1000,1000,110428311,1000,1000,1000,1000
48801305,1000,1000,1000,1000,110528271,1000,1000,1000,1000
48803804,1000,1000,1000,1000,110628231,1000,1000,1000,1000
48806303,1000,1000,1000,1000,110728191,1000,1000,1000,1000
48808802,1000,1000,1000,1000,110828984,1000,1000,1000,1000
48811301,1000,1000,1000,1000,110928944,1000,1000,1000,1000
48813800,1000,1000,1000,1000,111028904,1000,1000,1000,1000
48816299,1000,1000,1000,1000,111128864,1000,1000,1000,1000
48818798,1000,1000,1000,1000,111228824,1000,1000,1000,1000
48821297,1000,1000,1000,1000,111328784,1000,1000,1000,1000
48823796,1000,1000,1000,1000,111428744,1000,1000,1000,1000
48826295,1000,1000,1000,1000,111528704,1000,1000,1000,1000
48828794,1000,1000,1000,1000,111628664,1000,1000,1000,1000
48831293,1000,1000,1000,1000,111728624,1000,1000,1000,1000
48833792,1000,1000,1000,1000,111828584,1000,1000,1000,1000
48836291,1000,1000,1000,1000,111928544,1000,1000,1000,1000
48838790,1000,1000,1000,1000,112028504,1000,1000,1000,1000
48841289,1000,1000,1000,1000,112128464,1000,1000,1000,1000
48843788,1000,1000,1000,1000,112228424,1000,1000,1000,1000
48846287,1000,1000,1000,1000,112328384,1000,1000,1000,1000
48848786,1000,1000,1000,1000,112428344,1000,1000,1000,1000
48851285,1000,1000,1000,1000,112528304,1000,1000,1000,1000
48853784,1000,1000,1000,1000,112628264,1000,1000,1000,1000
48856283,1000,1000,1000,1000,112728224,1000,1000,1000,1000
48858782,1000,1000,1000,1000,112828184,1000,1000,1000,1000
48861281,1000,1000,1000,1000,112928977,1000,1000,1000,1000
48863780,1000,1000,1000,1000,113028937,1000,1000,1000,1000
48866279,1000,1000,1000,1000,113128897,1000,1000,1000,1000
48868778,1000,1000,1000,1000,113228857,1000,1000,1000,1000
48871277,1000,1000,1000,1000,113328817,1000,1000,1000,1000
48873776,1000,1000,1000,1000,113428777,1000,1000,1000,1000
48876275,1000,1000,1000,1000,113528737,1000,1000,1000,1000
48878774,1000,1000,1000,1000,113628697,1000,1000,1000,1000
48881273,1000,1000,1000,1000,113728657,1000,1000,1000,1000
48883772,1000,1000,1000,1000,113828617,1000,1000,1000,1000
48886271,1000,1000,1000,1000,113928577,1000,1000,1000,1000
48888770,1000,1000,1000,1000,114028537,1000,1000,1000,1000
48891269,1000,1000,1000,1000,114128497,1000,1000,1000,1000
48893768,1000,1000,1000,1000,114228457,1000,1000,1000,1000
48896267,1000,1000,1000,1000,114328417,1000,1000,1000,1000
48898766,1000,1000,1000,1000,114428377,1000,1000,1000,1000
48901265,1000,1000,1000,1000,114528337,1000,1000,1000,1000
48903764,1000,1000,1000,1000,114628297,1000,1000,1000,1000
48906263,1000,1000,1000,1000,114728257,1000,1000,1000,1000
48908762,1000,1000,1000,1000,114828217,1000,1000,1000,1000
48911261,1000,1000,1000,1000,114928177,1000,1000,1000,1000
48913760,1000,1000,1000,1000,115028970,1000,1000,1000,1000
48916259,1000,1000,1000,1000,,,,,
48918758,1000,1000,1000,1000,,,,,
48921257,1000,1000,1000,1000,,,,,
48923756,1000,1000,1000,1000,,,,,
48926255,1000,1000,1000,1000,,,,,
48928754,1000,1000,1000,1000,,,,,
48931253,1000,1000,1000,1000,,,,,
48933752,1000,1000,1000,1000,,,,,
48936251,1000,1000,1000,1000,,,,,
48938750,1000,1000,1000,1000,,,,,
48941249,1000,1000,1000,1000,,,,,
48943748,1000,1000,1000,1000,,,,,
48946247,1000,1000,1000,1000,,,,,
48948746,1000,1000,1000,1000,,,,,
48951245,1000,1000,1000,1000,,,,,
48953744,1000,1000,1000,1000,,,,,
48956243,1000,1000,1000,1000,,,,,
48958742,1000,1000,1000,1000,,,,,
48961241,1000,1000,1000,1000,,,,,
48963740,1000,1000,1000,1000,,,,,
48966239,1000,1000,1000,1000,,,,,
48968738,1000,1000,1000,1000,,,,,
48971237,1000,1000,1000,1000,,,,,
48973736,1000,1000,1000,1000,,,,,
48976235,1000,1000,1000,1000,,,,,
48978734,1000,1000,1000,1000,,,,,
48981233,1000,1000,1000,1000,,,,,
48983732,1000,1000,1000,1000,,,,,
48986231,1000,1000,1000,1000,,,,,
48988730,1000,1000,1000,1000,,,,,
48991229,1000,1000,1000,1000,,,,,
48993728,1000,1000,1000,1000,,,,,
48996227,1000,1000,1000,1000,,,,,
48998726,1000,1000,1000,1000,,,,,
49001225,1000,1000,1000,1000,,,,,
49003724,1000,1000,1000,1000,,,,,
49006223,1000,1000,1000,1000,,,,,
49008722,1000,1000,1000,1000,,,,,
49011221,1000,1000,1000,1000,,,,,
49013720,1000,1000,1000,1000,,,,,
49016219,1000,1000,1000,1000,,,,,
49018718,1000,1000,1000,1000,,,,,
49021217,1000,1000,1000,1000,,,,,
49023716,1000,1000,1000,1000,,,,,
49026215,1000,1000,1000,1000,,,,,
49028714,1000,1000,1000,1000,,,,,
49031213,1000,1000,1000,1000,,,,,
49033712,1000,1000,1000,1000,,,,,
49036211,1000,1000,1000,1000,,,,,
49038710,1000,1000,1000,1000,,,,,
49041209,1000,1000,1000,1000,,,,,
49043708,1000,1000,1000,1000,,,,,
49046207,1000,1000,1000,1000,,,,,
49048706,1000,1000,1000,1000,,,,,
49051205,1000,1000,1000,1000,,,,,
49053704,1000,1000,1000,1000,,,,,
49056203,1000,1000,1000,1000,,,,,
49058702,1000,1000,1000,1000,,,,,
49061201,1000,1000,1000,1000,,,,,
49063700,1000,1000,1000,1000,,,,,
49066199,1000,1000,1000,1000,,,,,
49068698,1000,1000,1000,1000,,,,,
49071197,1000,1000,1000,1000,,,,,
49073696,1000,1000,1000,1000,,,,,
49076195,1000,1000,1000,1000,,,,,
49078694,1000,1000,1000,1000,,,,,
49081193,1000,1000,1000,1000,,,,,
49083692,1000,1000,1000,1000,,,,,
49086191,1000,1000,1000,1000,,,,,
49088690,1000,1000,1000,1000,,,,,
49091189,1000,1000,1000,1000,,,,,
49093688,1000,1000,1000,1000,,,,,
49096187,1000,1000,1000,1000,,,,,
49098686,1000,1000,1000,1000,,,,,
49101185,1000,1000,1000,1000,,,,,
49103684,1000,1000,1000,1000,,,,,
49106183,1000,1000,1000,1000,,,,,
49108682,1000,1000,1000,1000,,,,,
49111181,1000,1000,1000,1000,,,,,
49113680,1000,1000,1000,1000,,,,,
49116179,1000,1000,1000,1000,,,,,
49118678,1000,1000,1000,1000,,,,,
49121177,1000,1000,1000,1000,,,,,
49123676,1000,1000,1000,1000,,,,,
49126175,1000,1000,1000,1000,,,,,
49128674,1000,1000,1000,1000,,,,,
49131173,1000,1000,1000,1000,,,,,
49133672,1000,1000,1000,1000,,,,,
49136171,1000,1000,1000,1000,,,,,
49138670,1000,1000,1000,1000,,,,,
49141169,1000,1000,1000,1000,,,,,
49143668,1000,1000,1000,1000,,,,,
49146167,1000,1000,1000,1000,,,,,
49148666,1000,1000,1000,1000,,,,,
49151165,1000,1000,1000,1000,,,,,
49153664,1000,1000,1000,1000,,,,,
49156163,1000,1000,1000,1000,,,,,
49158662,1000,1000,1000,1000,,,,,
49161161,1000,1000,1000,1000,,,,,
49163660,1000,1000,1000,1000,,,,,
49166159,1000,1000,1000,1000,,,,,
49168658,1000,1000,1000,1000,,,,,
49171157,1000,1000,1000,1000,,,,,
49173656,1000,1000,1000,1000,,,,,
49176155,1000,1000,1000,1000,,,,,
49178654,1000,1000,1000,1000,,,,,
49181153,1000,1000,1000,1000,,,,,
49183652,1000,1000,1000,1000,,,,,
49186151,1000,1000,1000,1000,,,,,
49188650,1000,1000,1000,1000,,,,,
49191149,1000,1000,1000,1000,,,,,
49193648,1000,1000,1000,1000,,,,,
49196147,1000,1000,1000,1000,,,,,
49198646,1000,1000,1000,1000,,,,,
49201145,1000,1000,1000,1000,,,,,
49203644,1000,1000,1000,1000,,,,,
49206143,1000,1000,1000,1000,,,,,
49208642,1000,1000,1000,1000,,,,,
49211141,1000,1000,1000,1000,,,,,
49213640,1000,1000,1000,1000,,,,,
49216139,1000,1000,1000,1000,,,,,
49218638,1000,1000,1000,1000,,,,,
49221137,1000,1000,1000,1000,,,,,
49223636,1000,1000,1000,1000,,,,,
49226135,1001,1001,1001,1001,,,,,
49228634,1002,1002,1002,1002,,,,,
49231133,1003,1003,1003,1003,,,,,
49233632,1003,1003,1003,1003,,,,,
49236131,1004,1004,1004,1004,,,,,
49238630,1005,1005,1005,1005,,,,,
49241129,1006,1006,1006,1006,,,,,
49243628,1006,1006,1006,1006,,,,,
49246127,1007,1007,1007,1007,,,,,
49248626,1008,1008,1008,1008,,,,,
49251125,1009,1009,1009,1009,,,,,
49253624,1009,1009,1009,1009,,,,,
49256123,1010,1010,1010,1010,,,,,
49258622,1011,1011,1011,1011,,,,,
49261121,1012,1012,1012,1012,,,,,
49263620,1012,1012,1012,1012,,,,,
49266119,1013,1013,1013,1013,,,,,
49268618,1014,1014,1014,1014,,,,,
49271117,1015,1015,1015,1015,,,,,
49273616,1015,1015,1015,1015,,,,,
49276115,1016,1016,1016,1016,,,,,
49278614,1017,1017,1017,1017,,,,,
49281113,1018,1018,1018,1018,,,,,
49283612,1018,1018,1018,1018,,,,,
49286111,1019,1019,1019,1019,,,,,
49288610,1020,1020,1020,1020,,,,,
49291109,1021,1021,1021,1021,,,,,
49293608,1021,1021,1021,1021,,,,,
49296107,1022,1022,1022,1022,,,,,
49298606,1023,1023,1023,1023,,,,,
49301105,1024,1024,1024,1024,,,,,
49303604,1024,1024,1024,1024,,,,,
49306103,1025,1025,1025,1025,,,,,
49308602,1026,1026,1026,1026,,,,,
49311101,1027,1027,1027,1027,,,,,
49313600,1027,1027,1027,1027,,,,,
49316099,1028,1028,1028,1028,,,,,
49318598,1029,1029,1029,1029,,,,,
49321097,1030,1030,1030,1030,,,,,
49323596,1030,1030,1030,1030,,,,,
49326095,1031,1031,1031,1031,,,,,
49328594,1032,1032,1032,1032,,,,,
49331093,1033,1033,1033,1033,,,,,
49333592,1033,1033,1033,1033,,,,,
49336091,1034,1034,1034,1034,,,,,
49338590,1035,1035,1035,1035,,,,,
49341089,1036,1036,1036,1036,,,,,
49343588,1036,1036,1036,1036,,,,,
49346087,1037,1037,1037,1037,,,,,
49348586,1038,1038,1038,1038,,,,,
49351085,1039,1039,1039,1039,,,,,
49353584,1039,1039,1039,1039,,,,,
49356083,1040,1040,1040,1040,,,,,
49358582,1041,1041,1041,1041,,,,,
49361081,1042,1042,1042,1042,,,,,
49363580,1042,1042,1042,1042,,,,,
49366079,1043,1043,1043,1043,,,,,
49368578,1044,1044,1044,1044,,,,,
49371077,1045,1045,1045,1045,,,,,
49373576,1045,1045,1045,1045,,,,,
49376075,1046,1046,1046,1046,,,,,
49378574,1047,1047,1047,1047,,,,,
49381073,1048,1048,1048,1048,,,,,
49383572,1048,1048,1048,1048,,,,,
49386071,1049,1049,1049,1049,,,,,
49388570,1050,1050,1050,1050,,,,,
49391069,1051,1051,1051,1051,,,,,
49393568,1051,1051,1051,1051,,,,,
49396067,1052,1052,1052,1052,,,,,
49398566,1053,1053,1053,1053,,,,,
49401065,1054,1054,1054,1054,,,,,
49403564,1054,1054,1054,1054,,,,,
49406063,1055,1055,1055,1055,,,,,
49408562,1056,1056,1056,1056,,,,,
49411061,1057,1057,1057,1057,,,,,
49413560,1057,1057,1057,1057,,,,,
49416059,1058,1058,1058,1058,,,,,
49418558,1059,1059,1059,1059,,,,,
49421057,1060,1060,1060,1060,,,,,
49423556,1060,1060,1060,1060,,,,,
49426055,1061,1061,1061,1061,,,,,
49428554,1062,1062,1062,1062,,,,,
49431053,1063,1063,1063,1063,,,,,
49433552,1063,1063,1063,1063,,,,,
49436051,1064,1064,1064,1064,,,,,
49438550,1065,1065,1065,1065,,,,,
49441049,1066,1066,1066,1066,,,,,
49443548,1066,1066,1066,1066,,,,,
49446047,1067,1067,1067,1067,,,,,
49448546,1068,1068,1068,1068,,,,,
49451045,1069,1069,1069,1069,,,,,
49453544,1069,1069,1069,1069,,,,,
49456043,1070,1070,1070,1070,,,,,
49458542,1071,1071,1071,1071,,,,,
49461041,1072,1072,1072,1072,,,,,
49463540,1072,1072,1072,1072,,,,,
49466039,1073,1073,1073,1073,,,,,
49468538,1074,1074,1074,1074,,,,,
49471037,1075,1075,1075,1075,,,,,
49473536,1075,1075,1075,1075,,,,,
49476035,1076,1076,1076,1076,,,,,
49478534,1077,1077,1077,1077,,,,,
49481033,1078,1078,1078,1078,,,,,
49483532,1078,1078,1078,1078,,,,,
49486031,1079,1079,1079,1079,,,,,
49488530,1080,1080,1080,1080,,,,,
49491029,1081,1081,1081,1081,,,,,
49493528,1081,1081,1081,1081,,,,,
49496027,1082,1082,1082,1082,,,,,
49498526,1083,1083,1083,1083,,,,,
49501025,1084,1084,1084,1084,,,,,
49503524,1084,1084,1084,1084,,,,,
49506023,1085,1085,1085,1085,,,,,
49508522,1086,1086,1086,1086,,,,,
49511021,1087,1087,1087,1087,,,,,
49513520,1087,1087,1087,1087,,,,,
49516019,1088,1088,1088,1088,,,,,
49518518,1089,1089,1089,1089,,,,,
49521017,1090,1090,1090,1090,,,,,
49523516,1090,1090,1090,1090,,,,,
49526015,1091,1091,1091,1091,,,,,
49528514,1092,1092,1092,1092,,,,,
49531013,1093,1093,1093,1093,,,,,
49533512,1093,1093,1093,1093,,,,,
49536011,1094,1094,1094,1094,,,,,
49538510,1095,1095,1095,1095,,,,,
49541009,1096,1096,1096,1096,,,,,
49543508,1096,1096,1096,1096,,,,,
49546007,1097,1097,1097,1097,,,,,
49548506,1098,1098,1098,1098,,,,,
49551005,1099,1099,1099,1099,,,,,
49553504,1099,1099,1099,1099,,,,,
49556003,1100,1100,1100,1100,,,,,
49558502,1101,1101,1101,1101,,,,,
49561001,1101,1101,1101,1101,,,,,
49563500,1102,1102,1102,1102,,,,,
49565999,1103,1103,1103,1103,,,,,
49568498,1104,1104,1104,1104,,,,,
49570997,1104,1104,1104,1104,,,,,
49573496,1105,1105,1105,1105,,,,,
49575995,1106,1106,1106,1106,,,,,
49578494,1107,1107,1107,1107,,,,,
49580993,1107,1107,1107,1107,,,,,
49583492,1108,1108,1108,1108,,,,,
49585991,1109,1109,1109,1109,,,,,
49588490,1110,1110,1110,1110,,,,,
49590989,1110,1110,1110,1110,,,,,
49593488,1111,1111,1111,1111,,,,,
49595987,1112,1112,1112,1112,,,,,
49598486,1113,1113,1113,1113,,,,,
49600985,1113,1113,1113,1113,,,,,
49603484,1114,1114,1114,1114,,,,,
49605983,1115,1115,1115,1115,,,,,
49608482,1116,1116,1116,1116,,,,,
49610981,1116,1116,1116,1116,,,,,
49613480,1117,1117,1117,1117,,,,,
49615979,1118,1118,1118,1118,,,,,
49618478,1119,1119,1119,1119,,,,,
49620977,1119,1119,1119,1119,,,,,
49623476,1120,1120,1120,1120,,,,,
49625975,1121,1121,1121,1121,,,,,
49628474,1122,1122,1122,1122,,,,,
49630973,1122,1122,1122,1122,,,,,
49633472,1123,1123,1123,1123,,,,,
49635971,1124,1124,1124,1124,,,,,
49638470,1125,1125,1125,1125,,,,,
49640969,1125,1125,1125,1125,,,,,
49643468,1126,1126,1126,1126,,,,,
49645967,1127,1127,1127,1127,,,,,
49648466,1128,1128,1128,1128,,,,,
49650965,1128,1128,1128,1128,,,,,
49653464,1129,1129,1129,1129,,,,,
49655963,1130,1130,1130,1130,,,,,
49658462,1131,1131,1131,1131,,,,,
49660961,1131,1131,1131,1131,,,,,
49663460,1132,1132,1132,1132,,,,,
49665959,1133,1133,1133,1133,,,,,
49668458,1134,1134,1134,1134,,,,,
49670957,1134,1134,1134,1134,,,,,
49673456,1135,1135,1135,1135,,,,,
49675955,1136,1136,1136,1136,,,,,
49678454,1137,1137,1137,1137,,,,,
49680953,1137,1137,1137,1137,,,,,
49683452,1138,1138,1138,1138,,,,,
49685951,1139,1139,1139,1139,,,,,
49688450,1140,1140,1140,1140,,,,,
49690949,1140,1140,1140,1140,,,,,
49693448,1141,1141,1141,1141,,,,,
49695947,1142,1142,1142,1142,,,,,
49698446,1143,1143,1143,1143,,,,,
49700945,1143,1143,1143,1143,,,,,
49703444,1144,1144,1144,1144,,,,,
49705943,1145,1145,1145,1145,,,,,
49708442,1146,1146,1146,1146,,,,,
49710941,1146,1146,1146,1146,,,,,
49713440,1147,1147,1147,1147,,,,,
49715939,1148,1148,1148,1148,,,,,
49718438,1149,1149,1149,1149,,,,,
49720937,1149,1149,1149,1149,,,,,
49723436,1150,1150,1150,1150,,,,,
49725935,1161,1154,1154,1162,,,,,
49728434,1169,1162,1162,1170,,,,,
49730933,1177,1170,1170,1177,,,,,
49733432,1184,1178,1178,1185,,,,,
49735931,1192,1186,1186,1193,,,,,
49738430,1200,1193,1193,1200,,,,,
49740929,1207,1201,1201,1207,,,,,
49743428,1214,1208,1208,1215,,,,,
49745927,1221,1215,1215,1222,,,,,
49748426,1228,1222,1222,1229,,,,,
49750925,1235,1229,1229,1235,,,,,
49753424,1242,1236,1236,1242,,,,,
49755923,1248,1243,1243,1249,,,,,
49758422,1255,1250,1250,1256,,,,,
49760921,1262,1256,1256,1262,,,,,
49763420,1268,1263,1263,1269,,,,,
49765919,1274,1269,1269,1275,,,,,
49768418,1281,1275,1275,1281,,,,,
49770917,1287,1282,1282,1287,,,,,
49773416,1293,1288,1288,1293,,,,,
49775915,1299,1294,1294,1300,,,,,
49778414,1305,1300,1300,1306,,,,,
49780913,1311,1306,1306,1311,,,,,
49783412,1317,1312,1312,1317,,,,,
49785911,1323,1318,1318,1323,,,,,
49788410,1329,1324,1324,1329,,,,,
49790909,1334,1329,1329,1335,,,,,
49793408,1340,1335,1335,1340,,,,,
49795907,1346,1341,1341,1346,,,,,
49798406,1351,1346,1346,1351,,,,,
49800905,1357,1352,1352,1357,,,,,
49803404,1362,1357,1357,1362,,,,,
49805903,1367,1363,1363,1368,,,,,
49808402,1373,1368,1368,1373,,,,,
49810901,1378,1373,1374,1378,,,,,
49813400,1383,1379,1379,1384,,,,,
49815899,1389,1384,1384,1389,,,,,
49818398,1394,1389,1389,1394,,,,,
49820897,1399,1394,1394,1399,,,,,
49823396,1404,1400,1400,1404,,,,,
49825895,1409,1405,1405,1409,,,,,
49828394,1414,1410,1410,1414,,,,,
49830893,1419,1415,1415,1419,,,,,
49833392,1424,1420,1420,1424,,,,,
49835891,1429,1425,1425,1429,,,,,
49838390,1434,1429,1429,1434,,,,,
49840889,1439,1434,1434,1439,,,,,
49843388,1443,1439,1439,1444,,,,,
49845887,1448,1444,1444,1449,,,,,
49848386,1453,1449,1449,1453,,,,,
49850885,1458,1453,1453,1458,,,,,
49853384,1462,1458,1458,1463,,,,,
49855883,1467,1463,1463,1467,,,,,
49858382,1472,1467,1467,1472,,,,,
49860881,1476,1472,1472,1477,,,,,
49863380,1481,1477,1477,1481,,,,,
49865879,1485,1481,1481,1486,,,,,
49868378,1490,1486,1486,1490,,,,,
49870877,1494,1490,1490,1495,,,,,
49873376,1499,1495,1495,1499,,,,,
49875875,1503,1499,1499,1504,,,,,
49878374,1507,1503,1503,1508,,,,,
49880873,1512,1508,1508,1512,,,,,
49883372,1516,1512,1512,1517,,,,,
49885871,1520,1516,1516,1521,,,,,
49888370,1525,1521,1521,1525,,,,,
49890869,1529,1525,1525,1530,,,,,
49893368,1533,1529,1529,1534,,,,,
49895867,1538,1534,1533,1538,,,,,
49898366,1542,1538,1538,1542,,,,,
49900865,1546,1542,1542,1546,,,,,
49903364,1550,1546,1546,1551,,,,,
49905863,1554,1550,1550,1555,,,,,
49908362,1558,1554,1554,1559,,,,,
49910861,1562,1559,1558,1563,,,,,
49913360,1566,1563,1562,1567,,,,,
49915859,1571,1567,1566,1571,,,,,
49918358,1575,1571,1571,1575,,,,,
49920857,1579,1575,1575,1579,,,,,
49923356,1583,1579,1579,1583,,,,,
49925855,1587,1583,1582,1587,,,,,
49928354,1591,1587,1586,1591,,,,,
49930853,1594,1591,1590,1595,,,,,
49933352,1598,1595,1594,1599,,,,,
49935851,1602,1599,1598,1603,,,,,
49938350,1606,1603,1602,1607,,,,,
49940849,1610,1606,1606,1611,,,,,
49943348,1614,1610,1610,1615,,,,,
49945847,1618,1614,1614,1619,,,,,
49948346,1622,1618,1617,1622,,,,,
49950845,1625,1622,1621,1626,,,,,
49953344,1629,1626,1625,1630,,,,,
49955843,1633,1629,1629,1634,,,,,
49958342,1637,1633,1633,1637,,,,,
49960841,1640,1637,1636,1641,,,,,
49963340,1644,1641,1640,1645,,,,,
49965839,1648,1644,1644,1649,,,,,
49968338,1652,1648,1648,1652,,,,,
49970837,1655,1652,1651,1656,,,,,
49973336,1659,1655,1655,1660,,,,,
49975835,1662,1659,1659,1663,,,,,
49978334,1666,1663,1662,1667,,,,,
49980833,1670,1666,1666,1671,,,,,
49983332,1673,1670,1669,1674,,,,,
49985831,1677,1673,1673,1678,,,,,
49988330,1680,1677,1677,1681,,,,,
49990829,1684,1681,1680,1685,,,,,
49993328,1688,1684,1684,1688,,,,,
49995827,1691,1688,1687,1692,,,,,
49998326,1695,1691,1691,1695,,,,,
50000825,1698,1695,1694,1699,,,,,
50003324,1702,1698,1698,1702,,,,,
50005823,1705,1702,1701,1706,,,,,
50008322,1709,1705,1705,1709,,,,,
50010821,1712,1709,1708,1713,,,,,
50013320,1716,1712,1712,1716,,,,,
50015819,1719,1716,1715,1720,,,,,
50018318,1722,1719,1719,1723,,,,,
50020817,1726,1722,1722,1727,,,,,
50023316,1729,1726,1725,1730,,,,,
50025815,1733,1729,1729,1733,,,,,
50028314,1736,1733,1732,1737,,,,,
50030813,1739,1736,1736,1740,,,,,
50033312,1743,1739,1739,1743,,,,,
50035811,1746,1743,1742,1747,,,,,
50038310,1749,1746,1746,1750,,,,,
50040809,1753,1749,1749,1753,,,,,
50043308,1756,1753,1752,1757,,,,,
50045807,1759,1756,1756,1760,,,,,
50048306,1763,1759,1759,1763,,,,,
50050805,1766,1762,1762,1766,,,,,
50053304,1769,1766,1765,1770,,,,,
50055803,1772,1769,1769,1773,,,,,
50058302,1776,1772,1772,1776,,,,,
50060801,1779,1775,1775,1780,,,,,
50063300,1782,1779,1778,1783,,,,,
50065799,1785,1782,1782,1786,,,,,
50068298,1789,1785,1785,1789,,,,,
50070797,1792,1788,1788,1792,,,,,
50073296,1795,1791,1791,1796,,,,,
50075795,1798,1794,1794,1799,,,,,
50078294,1801,1798,1797,1802,,,,,
50080793,1805,1801,1801,1805,,,,,
50083292,1808,1804,1804,1808,,,,,
50085791,1811,1807,1807,1811,,,,,
50088290,1814,1810,1810,1815,,,,,
50090789,1817,1813,1813,1818,,,,,
50093288,1820,1816,1816,1821,,,,,
50095787,1823,1819,1819,1824,,,,,
50098286,1827,1822,1822,1827,,,,,
50100785,1830,1826,1826,1830,,,,,
50103284,1833,1829,1829,1833,,,,,
50105783,1836,1832,1832,1836,,,,,
50108282,1839,1835,1835,1839,,,,,
50110781,1842,1838,1838,1842,,,,,
50113280,1845,1841,1841,1845,,,,,
50115779,1848,1844,1844,1848,,,,,
50118278,1851,1847,1847,1851,,,,,
50120777,1854,1850,1850,1854,,,,,
50123276,1857,1853,1853,1857,,,,,
50125775,1860,1856,1856,1860,,,,,
50128274,1863,1859,1859,1863,,,,,
50130773,1865,1861,1861,1865,,,,,
50133272,1864,1859,1860,1864,,,,,
50135771,1863,1858,1858,1863,,,,,
50138270,1861,1857,1857,1862,,,,,
50140769,1860,1856,1856,1860,,,,,
50143268,1859,1854,1854,1859,,,,,
50145767,1858,1853,1853,1858,,,,,
50148266,1857,1852,1852,1857,,,,,
50150765,1856,1851,1851,1856,,,,,
50153264,1855,1850,1850,1855,,,,,
50155763,1854,1849,1849,1854,,,,,
50158262,1853,1848,1848,1853,,,,,
50160761,1852,1847,1847,1852,,,,,
50163260,1851,1847,1847,1852,,,,,
50165759,1851,1846,1846,1851,,,,,
50168258,1850,1846,1846,1851,,,,,
50170757,1850,1845,1845,1850,,,,,
50173256,1850,1845,1845,1850,,,,,
50175755,1849,1845,1845,1850,,,,,
50178254,1849,1845,1845,1850,,,,,
50180753,1849,1845,1845,1850,,,,,
50183252,1850,1845,1845,1850,,,,,
50185751,1850,1845,1845,1850,,,,,
50188250,1850,1845,1845,1850,,,,,
50190749,1850,1846,1846,1850,,,,,
50193248,1851,1846,1846,1851,,,,,
50195747,1851,1846,1846,1851,,,,,
50198246,1851,1847,1847,1852,,,,,
50200745,1852,1847,1847,1852,,,,,
50203244,1852,1848,1848,1853,,,,,
50205743,1853,1848,1848,1853,,,,,
50208242,1854,1849,1849,1854,,,,,
50210741,1854,1850,1850,1855,,,,,
50213240,1855,1850,1850,1855,,,,,
50215739,1856,1851,1851,1856,,,,,
50218238,1856,1852,1852,1857,,,,,
50220737,1857,1853,1853,1858,,,,,
50223236,1858,1853,1854,1858,,,,,
50225735,1859,1854,1854,1859,,,,,
50228234,1860,1855,1855,1860,,,,,
50230733,1860,1856,1856,1861,,,,,
50233232,1861,1857,1857,1861,,,,,
50235731,1862,1858,1858,1862,,,,,
50238230,1862,1859,1859,1862,,,,,
50240729,1863,1859,1859,1863,,,,,
50243228,1863,1860,1860,1863,,,,,
50245727,1863,1860,1860,1863,,,,,
50248226,1863,1860,1860,1863,,,,,
50250725,1862,1860,1860,1863,,,,,
50253224,1862,1859,1859,1862,,,,,
50255723,1861,1859,1859,1862,,,,,
50258222,1861,1858,1858,1861,,,,,
50260721,1860,1857,1857,1860,,,,,
50263220,1858,1856,1856,1859,,,,,
50265719,1857,1855,1855,1858,,,,,
50268218,1856,1853,1853,1856,,,,,
50270717,1854,1852,1852,1855,,,,,
50273216,1852,1850,1850,1853,,,,,
50275715,1850,1848,1848,1851,,,,,
50278214,1848,1846,1846,1849,,,,,
50280713,1846,1844,1844,1846,,,,,
50283212,1844,1841,1841,1844,,,,,
50285711,1841,1839,1839,1842,,,,,
50288210,1839,1837,1836,1839,,,,,
50290709,1836,1834,1834,1836,,,,,
50293208,1833,1831,1831,1834,,,,,
50295707,1831,1829,1829,1831,,,,,
50298206,1828,1826,1826,1828,,,,,
50300705,1825,1823,1823,1825,,,,,
50303204,1822,1820,1820,1822,,,,,
50305703,1819,1817,1817,1819,,,,,
50308202,1815,1814,1814,1816,,,,,
50310701,1812,1811,1811,1813,,,,,
50313200,1809,1808,1808,1809,,,,,
50315699,1806,1804,1804,1806,,,,,
50318198,1802,1801,1801,1803,,,,,
50320697,1799,1798,1798,1800,,,,,
50323196,1796,1795,1795,1796,,,,,
50325695,1792,1791,1791,1793,,,,,
50328194,1789,1788,1788,1789,,,,,
50330693,1786,1785,1785,1786,,,,,
50333192,1782,1781,1781,1783,,,,,
50335691,1779,1778,1778,1779,,,,,
50338190,1775,1774,1774,1776,,,,,
50340689,1772,1771,1771,1772,,,,,
50343188,1768,1768,1768,1769,,,,,
50345687,1765,1764,1764,1765,,,,,
50348186,1761,1761,1761,1762,,,,,
50350685,1758,1758,1758,1758,,,,,
50353184,1755,1754,1754,1755,,,,,
50355683,1751,1751,1751,1752,,,,,
50358182,1748,1748,1748,1748,,,,,
50360681,1745,1744,1744,1745,,,,,
50363180,1741,1741,1741,1742,,,,,
50365679,1738,1738,1738,1738,,,,,
50368178,1735,1735,1735,1735,,,,,
50370677,1732,1731,1731,1732,,,,,
50373176,1728,1728,1728,1729,,,,,
50375675,1725,1725,1725,1726,,,,,
50378174,1722,1722,1722,1722,,,,,
50380673,1719,1719,1719,1719,,,,,
50383172,1716,1716,1716,1716,,,,,
50385671,1713,1713,1713,1713,,,,,
50388170,1710,1710,1710,1710,,,,,
50390669,1707,1707,1707,1707,,,,,
50393168,1704,1704,1704,1704,,,,,
50395667,1701,1701,1701,1701,,,,,
50398166,1698,1698,1699,1698,,,,,
50400665,1695,1695,1696,1696,,,,,
50403164,1693,1693,1693,1693,,,,,
50405663,1690,1690,1690,1690,,,,,
50408162,1687,1687,1687,1687,,,,,
50410661,1684,1684,1685,1684,,,,,
50413160,1682,1682,1682,1682,,,,,
