TimeUS,M1,M2,M3,M4,TimeUS,C1,C2,C3,C4
50150765,1000,1000,1000,1000,50228234,1000,1000,1000,1000
50153264,1000,1000,1000,1000,50328194,1000,1000,1000,1000
50155763,1000,1000,1000,1000,50428154,1000,1000,1000,1000
50158262,1000,1000,1000,1000,50528947,1000,1000,1000,1000
50160761,1000,1000,1000,1000,50628907,1000,1000,1000,1000
50163260,1000,1000,1000,1000,50728867,1000,1000,1000,1000
50165759,1000,1000,1000,1000,50828827,1000,1000,1000,1000
50168258,1000,1000,1000,1000,50928787,1000,1000,1000,1000
50170757,1000,1000,1000,1000,51028747,1000,1000,1000,1000
50173256,1000,1000,1000,1000,51128707,1000,1000,1000,1000
50175755,1000,1000,1000,1000,51228667,1000,1000,1000,1000
50178254,1000,1000,1000,1000,51328627,1000,1000,1000,1000
50180753,1000,1000,1000,1000,51428587,1000,1000,1000,1000
50183252,1000,1000,1000,1000,51528547,1000,1000,1000,1000
50185751,1000,1000,1000,1000,51628507,1000,1000,1000,1000
50188250,1000,1000,1000,1000,51728467,1000,1000,1000,1000
50190749,1000,1000,1000,1000,51828427,1000,1000,1000,1000
50193248,1000,1000,1000,1000,51928387,1000,1000,1000,1000
50195747,1000,1000,1000,1000,52028347,1000,1000,1000,1000
50198246,1000,1000,1000,1000,52128307,1000,1000,1000,1000
50200745,1000,1000,1000,1000,52228267,1023,1023,1023,1023
50203244,1000,1000,1000,1000,52328227,1053,1053,1053,1053
50205743,1000,1000,1000,1000,52428187,1083,1083,1083,1083
50208242,1000,1000,1000,1000,52528980,1113,1113,1113,1113
50210741,1000,1000,1000,1000,52628940,1143,1143,1143,1143
50213240,1000,1000,1000,1000,52728900,1352,1346,1346,1352
50215739,1000,1000,1000,1000,52828860,1542,1537,1538,1542
50218238,1000,1000,1000,1000,52928820,1695,1691,1691,1695
50220737,1000,1000,1000,1000,53028780,1827,1822,1823,1827
50223236,1000,1000,1000,1000,53128740,1869,1863,1864,1868
50225735,1000,1000,1000,1000,53228700,1834,1831,1831,1834
50228234,1000,1000,1000,1000,53328660,1700,1700,1700,1701
50230733,1000,1000,1000,1000,53428620,1623,1625,1625,1624
50233232,1000,1000,1000,1000,53528580,1610,1612,1612,1610
50235731,1000,1000,1000,1000,53628540,1624,1626,1626,1624
50238230,1000,1000,1000,1000,53728500,1633,1633,1633,1633
50240729,1000,1000,1000,1000,53828460,1622,1622,1617,1626
50243228,1000,1000,1000,1000,53928420,1613,1613,1607,1619
50245727,1000,1000,1000,1000,54028380,1607,1607,1604,1610
50248226,1000,1000,1000,1000,54128340,1607,1608,1607,1607
50250725,1000,1000,1000,1000,54228300,1612,1611,1614,1609
50253224,1000,1000,1000,1000,54328260,1614,1614,1618,1610
50255723,1000,1000,1000,1000,54428220,1618,1618,1622,1614
50258222,1000,1000,1000,1000,54528180,1620,1620,1623,1617
50260721,1000,1000,1000,1000,54628973,1592,1592,1600,1585
50263220,1000,1000,1000,1000,54728933,1577,1576,1584,1569
50265719,1000,1000,1000,1000,54828893,1564,1564,1566,1563
50268218,1000,1000,1000,1000,54928853,1554,1553,1548,1560
50270717,1000,1000,1000,1000,55028813,1546,1546,1535,1556
50273216,1000,1000,1000,1000,55128773,1538,1539,1530,1547
50275715,1000,1000,1000,1000,55228733,1533,1533,1528,1538
50278214,1000,1000,1000,1000,55328693,1528,1528,1527,1529
50280713,1000,1000,1000,1000,55428653,1528,1528,1529,1527
50283212,1000,1000,1000,1000,55528613,1530,1529,1532,1526
50285711,1000,1000,1000,1000,55628573,1533,1533,1536,1529
50288210,1000,1000,1000,1000,55728533,1536,1536,1539,1533
50290709,1000,1000,1000,1000,55828493,1540,1539,1541,1537
50293208,1000,1000,1000,1000,55928453,1542,1543,1544,1542
50295707,1000,1000,1000,1000,56028413,1546,1546,1546,1546
50298206,1000,1000,1000,1000,56128373,1548,1548,1548,1549
50300705,1000,1000,1000,1000,56228333,1550,1550,1549,1552
50303204,1000,1000,1000,1000,56328293,1552,1552,1554,1557
50305703,1000,1000,1000,1000,56428253,1553,1553,1559,1561
50308202,1000,1000,1000,1000,56528213,1554,1554,1561,1562
50310701,1000,1000,1000,1000,56628173,1557,1558,1563,1563
50313200,1000,1000,1000,1000,56728966,1559,1560,1564,1563
50315699,1000,1000,1000,1000,56828926,1564,1564,1565,1564
50318198,1000,1000,1000,1000,56928886,1565,1566,1565,1565
50320697,1000,1000,1000,1000,57028846,1568,1568,1565,1566
50323196,1000,1000,1000,1000,57128806,1570,1570,1566,1566
50325695,1000,1000,1000,1000,57228766,1571,1571,1567,1567
50328194,1000,1000,1000,1000,57328726,1573,1573,1568,1569
50330693,1000,1000,1000,1000,57428686,1573,1573,1569,1569
50333192,1000,1000,1000,1000,57528646,1573,1573,1570,1570
50335691,1000,1000,1000,1000,57628606,1573,1573,1570,1570
50338190,1000,1000,1000,1000,57728566,1575,1574,1573,1573
50340689,1000,1000,1000,1000,57828526,1575,1575,1576,1574
50343188,1000,1000,1000,1000,57928486,1575,1575,1577,1575
50345687,1000,1000,1000,1000,58028446,1575,1575,1577,1575
50348186,1000,1000,1000,1000,58128406,1575,1575,1576,1576
50350685,1000,1000,1000,1000,58228366,1574,1575,1576,1576
50353184,1000,1000,1000,1000,58328326,1576,1576,1578,1578
50355683,1000,1000,1000,1000,58428286,1576,1576,1577,1577
50358182,1000,1000,1000,1000,58528246,1577,1576,1577,1578
50360681,1000,1000,1000,1000,58628206,1577,1577,1577,1577
50363180,1000,1000,1000,1000,58728166,1577,1577,1577,1577
50365679,1000,1000,1000,1000,58828959,1578,1578,1578,1577
50368178,1000,1000,1000,1000,58928919,1578,1578,1577,1577
50370677,1000,1000,1000,1000,59028879,1577,1577,1576,1576
50373176,1000,1000,1000,1000,59128839,1578,1578,1577,1577
50375675,1000,1000,1000,1000,59228799,1578,1577,1577,1577
50378174,1000,1000,1000,1000,59328759,1578,1578,1577,1577
50380673,1000,1000,1000,1000,59428719,1579,1579,1579,1578
50383172,1000,1000,1000,1000,59528679,1579,1579,1579,1579
50385671,1000,1000,1000,1000,59628639,1579,1579,1579,1579
50388170,1000,1000,1000,1000,59728599,1579,1579,1579,1579
50390669,1000,1000,1000,1000,59828559,1579,1579,1579,1579
50393168,1000,1000,1000,1000,59928519,1580,1580,1580,1580
50395667,1000,1000,1000,1000,60028479,1580,1580,1580,1580
50398166,1000,1000,1000,1000,60128439,1579,1579,1580,1580
50400665,1000,1000,1000,1000,60228399,1580,1580,1580,1580
50403164,1000,1000,1000,1000,60328359,1580,1579,1580,1580
50405663,1000,1000,1000,1000,60428319,1581,1580,1580,1581
50408162,1000,1000,1000,1000,60528279,1579,1580,1580,1580
50410661,1000,1000,1000,1000,60628239,1580,1580,1580,1580
50413160,1000,1000,1000,1000,60728199,1581,1580,1580,1580
50415659,1000,1000,1000,1000,60828159,1580,1580,1580,1580
50418158,1000,1000,1000,1000,60928952,1580,1580,1579,1580
50420657,1000,1000,1000,1000,61028912,1580,1580,1580,1580
50423156,1000,1000,1000,1000,61128872,1580,1580,1580,1580
50425655,1000,1000,1000,1000,61228832,1580,1580,1580,1580
50428154,1000,1000,1000,1000,61328792,1581,1581,1581,1581
50431486,1000,1000,1000,1000,61428752,1581,1581,1582,1581
50433985,1000,1000,1000,1000,61528712,1581,1581,1581,1581
50436484,1000,1000,1000,1000,61628672,1580,1581,1581,1581
50438983,1000,1000,1000,1000,61728632,1581,1581,1581,1581
50441482,1000,1000,1000,1000,61828592,1581,1581,1581,1581
50443981,1000,1000,1000,1000,61928552,1581,1580,1580,1580
50446480,1000,1000,1000,1000,62028512,1580,1579,1580,1580
50448979,1000,1000,1000,1000,62128472,1580,1580,1580,1580
50451478,1000,1000,1000,1000,62228432,1580,1580,1580,1580
50453977,1000,1000,1000,1000,62328392,1580,1580,1580,1580
50456476,1000,1000,1000,1000,62428352,1580,1580,1580,1580
50458975,1000,1000,1000,1000,62528312,1580,1580,1582,1578
50461474,1000,1000,1000,1000,62628272,1581,1582,1588,1573
50463973,1000,1000,1000,1000,62728232,1579,1582,1583,1573
50466472,1000,1000,1000,1000,62828192,1578,1581,1575,1573
50468971,1000,1000,1000,1000,62928985,1576,1579,1565,1570
50471470,1000,1000,1000,1000,63028945,1578,1579,1560,1568
50473969,1000,1000,1000,1000,63128905,1578,1579,1557,1563
50476468,1000,1000,1000,1000,63228865,1579,1578,1556,1558
50478967,1000,1000,1000,1000,63328825,1580,1578,1556,1556
50481466,1000,1000,1000,1000,63428785,1579,1577,1556,1554
50483965,1000,1000,1000,1000,63528745,1578,1578,1556,1554
50486464,1000,1000,1000,1000,63628705,1577,1578,1556,1554
50488963,1000,1000,1000,1000,63728665,1576,1577,1556,1555
50491462,1000,1000,1000,1000,63828625,1575,1577,1555,1554
50493961,1000,1000,1000,1000,63928585,1575,1576,1553,1553
50496460,1000,1000,1000,1000,64028545,1576,1578,1552,1553
50498959,1000,1000,1000,1000,64128505,1577,1579,1550,1550
50501458,1000,1000,1000,1000,64228465,1579,1581,1548,1548
50503957,1000,1000,1000,1000,64328425,1581,1582,1545,1544
50506456,1000,1000,1000,1000,64428385,1584,1585,1542,1541
50508955,1000,1000,1000,1000,64528345,1587,1587,1539,1538
50511454,1000,1000,1000,1000,64628305,1591,1591,1537,1537
50513953,1000,1000,1000,1000,64728265,1593,1593,1535,1536
50516452,1000,1000,1000,1000,64828225,1595,1595,1535,1535
50518951,1000,1000,1000,1000,64928185,1594,1594,1535,1536
50521450,1000,1000,1000,1000,65028978,1594,1594,1537,1539
50523949,1000,1000,1000,1000,65128938,1592,1591,1540,1543
50526448,1000,1000,1000,1000,65228898,1586,1585,1545,1548
50528947,1000,1000,1000,1000,65328858,1582,1578,1554,1557
50531446,1000,1000,1000,1000,65428818,1573,1569,1564,1566
50533945,1000,1000,1000,1000,65528778,1563,1558,1576,1578
50536444,1000,1000,1000,1000,65628738,1551,1548,1589,1589
50538943,1000,1000,1000,1000,65728698,1541,1539,1600,1600
50541442,1000,1000,1000,1000,65828658,1533,1533,1609,1608
50543941,1000,1000,1000,1000,65928618,1529,1530,1614,1613
50546440,1000,1000,1000,1000,66028578,1528,1530,1615,1614
50548939,1000,1000,1000,1000,66128538,1533,1535,1613,1613
50551438,1000,1000,1000,1000,66228498,1539,1541,1609,1609
50553937,1000,1000,1000,1000,66328458,1546,1547,1602,1602
50556436,1000,1000,1000,1000,66428418,1555,1556,1595,1595
50558935,1000,1000,1000,1000,66528378,1563,1563,1587,1586
50561434,1000,1000,1000,1000,66628338,1572,1572,1581,1579
50563933,1000,1000,1000,1000,66728298,1579,1578,1575,1574
50566432,1000,1000,1000,1000,66828258,1584,1582,1570,1569
50568931,1000,1000,1000,1000,66928218,1587,1585,1567,1567
50571430,1000,1000,1000,1000,67028178,1589,1587,1567,1567
50573929,1000,1000,1000,1000,67128971,1588,1587,1567,1567
50576428,1000,1000,1000,1000,67228931,1585,1584,1567,1568
50578927,1000,1000,1000,1000,67328891,1583,1583,1571,1572
50581426,1000,1000,1000,1000,67428851,1581,1581,1575,1575
50583925,1000,1000,1000,1000,67528811,1577,1578,1577,1577
50586424,1000,1000,1000,1000,67628771,1574,1575,1580,1579
50588923,1000,1000,1000,1000,67728731,1573,1574,1582,1582
50591422,1000,1000,1000,1000,67828691,1573,1573,1583,1583
50593921,1000,1000,1000,1000,67928651,1571,1571,1582,1582
50596420,1000,1000,1000,1000,68028611,1571,1572,1582,1582
50598919,1000,1000,1000,1000,68128571,1573,1574,1583,1583
50601418,1000,1000,1000,1000,68228531,1356,1356,1456,1582
50603917,1000,1000,1000,1000,68328491,1478,1473,1598,1594
50606416,1000,1000,1000,1000,68428451,1989,1980,2082,1552
50608915,1000,1000,1000,1000,68528411,2072,2068,2082,1742
50611414,1000,1000,1000,1000,68628371,1914,1904,1808,1691
50613913,1000,1000,1000,1000,68728331,1764,1753,1520,1674
50616412,1000,1000,1000,1000,68828291,1694,1681,1445,1698
50618911,1000,1000,1000,1000,68928251,1640,1633,1501,1688
50621410,1000,1000,1000,1000,69028211,1570,1570,1560,1634
50623909,1000,1000,1000,1000,69128171,1502,1507,1599,1581
50626408,1000,1000,1000,1000,69228964,1473,1481,1621,1555
50628907,1000,1000,1000,1000,69328924,1479,1492,1622,1555
50631406,1000,1000,1000,1000,69428884,1496,1512,1610,1562
50633905,1000,1000,1000,1000,69528844,1514,1531,1591,1570
50636404,1000,1000,1000,1000,69628804,1531,1544,1573,1573
50638903,1000,1000,1000,1000,69728764,1547,1552,1558,1569
50641402,1000,1000,1000,1000,69828724,1565,1562,1550,1563
50643901,1000,1000,1000,1000,69928684,1580,1572,1546,1554
50646400,1000,1000,1000,1000,70028644,1594,1584,1548,1548
50648899,1000,1000,1000,1000,70128604,1603,1594,1553,1549
50651398,1000,1000,1000,1000,70228564,1605,1599,1560,1553
50653897,1000,1000,1000,1000,70328524,1603,1600,1568,1562
50656396,1000,1000,1000,1000,70428484,1598,1597,1575,1571
50658895,1000,1000,1000,1000,70528444,1593,1594,1584,1581
50661394,1000,1000,1000,1000,70628404,1586,1592,1595,1582
50663893,1000,1000,1000,1000,70728364,1580,1588,1595,1587
50666392,1000,1000,1000,1000,70828324,1577,1583,1589,1590
50668891,1000,1000,1000,1000,70928284,1575,1580,1582,1588
50671390,1000,1000,1000,1000,71028244,1576,1578,1576,1583
50673889,1000,1000,1000,1000,71128204,1579,1579,1571,1577
50676388,1000,1000,1000,1000,71228164,1583,1581,1569,1570
50678887,1000,1000,1000,1000,71328957,1586,1583,1567,1565
50681386,1000,1000,1000,1000,71428917,1587,1585,1564,1561
50683885,1000,1000,1000,1000,71528877,1588,1587,1563,1559
50686384,1000,1000,1000,1000,71628837,1586,1587,1560,1558
50688883,1000,1000,1000,1000,71728797,1585,1586,1558,1557
50691382,1000,1000,1000,1000,71828757,1583,1585,1556,1556
50693881,1000,1000,1000,1000,71928717,1583,1584,1554,1555
50696380,1000,1000,1000,1000,72028677,1583,1584,1553,1553
50698879,1000,1000,1000,1000,72128637,1583,1584,1552,1552
50701378,1000,1000,1000,1000,72228597,1583,1584,1550,1550
50703877,1000,1000,1000,1000,72328557,1583,1584,1547,1547
50706376,1000,1000,1000,1000,72428517,1586,1588,1547,1546
50708875,1000,1000,1000,1000,72528477,1589,1591,1544,1544
50711374,1000,1000,1000,1000,72628437,1592,1594,1540,1541
50713873,1000,1000,1000,1000,72728397,1596,1597,1540,1541
50716372,1000,1000,1000,1000,72828357,1598,1597,1540,1541
50718871,1000,1000,1000,1000,72928317,1598,1596,1543,1545
50721370,1000,1000,1000,1000,73028277,1594,1591,1547,1549
50723869,1000,1000,1000,1000,73128237,1588,1583,1555,1556
50726368,1000,1000,1000,1000,73228197,1580,1576,1565,1567
50728867,1000,1000,1000,1000,73328157,1569,1566,1576,1578
50731366,1000,1000,1000,1000,73428950,1559,1556,1586,1588
50733865,1000,1000,1000,1000,73528910,1549,1548,1597,1597
50736364,1000,1000,1000,1000,73628870,1542,1542,1604,1605
50738863,1000,1000,1000,1000,73728830,1539,1539,1607,1608
50741362,1000,1000,1000,1000,73828790,1540,1541,1609,1609
50743861,1000,1000,1000,1000,73928750,1543,1544,1608,1607
50746360,1000,1000,1000,1000,74028710,1548,1549,1605,1604
50748859,1000,1000,1000,1000,74128670,1554,1555,1602,1600
50751358,1000,1000,1000,1000,74228630,1559,1560,1596,1595
50753857,1000,1000,1000,1000,74328590,1566,1566,1590,1590
50756356,1000,1000,1000,1000,74428550,1572,1573,1585,1585
50758855,1000,1000,1000,1000,74528510,1578,1577,1579,1579
50761354,1000,1000,1000,1000,74628470,1582,1581,1575,1575
50763853,1000,1000,1000,1000,74728430,1585,1583,1573,1572
50766352,1000,1000,1000,1000,74828390,1585,1584,1572,1571
50768851,1000,1000,1000,1000,74928350,1586,1584,1573,1572
50771350,1000,1000,1000,1000,75028310,1584,1584,1575,1574
50773849,1000,1000,1000,1000,75128270,1581,1581,1576,1576
50776348,1000,1000,1000,1000,75228230,1578,1579,1577,1577
50778847,1000,1000,1000,1000,75328190,1577,1578,1580,1580
50781346,1000,1000,1000,1000,75428983,1575,1575,1581,1581
50783845,1000,1000,1000,1000,75528943,1574,1575,1582,1583
50786344,1000,1000,1000,1000,75628903,1573,1574,1583,1583
50788843,1000,1000,1000,1000,75728863,1573,1574,1582,1583
50791342,1000,1000,1000,1000,75828823,1574,1575,1583,1583
50793841,1000,1000,1000,1000,75928783,1576,1575,1582,1582
50796340,1000,1000,1000,1000,76028743,1578,1578,1582,1581
50798839,1000,1000,1000,1000,76128703,1579,1579,1581,1581
50801338,1000,1000,1000,1000,76228663,1578,1579,1579,1579
50803837,1000,1000,1000,1000,76328623,1580,1580,1579,1579
50806336,1000,1000,1000,1000,76428583,1581,1580,1579,1579
50808835,1000,1000,1000,1000,76528543,1581,1581,1579,1578
50811334,1000,1000,1000,1000,76628503,1580,1581,1578,1578
50813833,1000,1000,1000,1000,76728463,1580,1580,1578,1578
50816332,1000,1000,1000,1000,76828423,1581,1580,1579,1579
50818831,1000,1000,1000,1000,76928383,1580,1580,1580,1579
50821330,1000,1000,1000,1000,77028343,1580,1580,1581,1580
50823829,1000,1000,1000,1000,77128303,1580,1580,1580,1581
50826328,1000,1000,1000,1000,77228263,1580,1580,1581,1581
50828827,1000,1000,1000,1000,77328223,1580,1581,1582,1582
50831326,1000,1000,1000,1000,77428183,1579,1580,1582,1581
50833825,1000,1000,1000,1000,77528976,1580,1581,1582,1582
50836324,1000,1000,1000,1000,77628936,1580,1580,1581,1580
50838823,1000,1000,1000,1000,77728896,1581,1580,1581,1581
50841322,1000,1000,1000,1000,77828856,1581,1580,1580,1581
50843821,1000,1000,1000,1000,77928816,1581,1582,1581,1581
50846320,1000,1000,1000,1000,78028776,1580,1580,1580,1580
50848819,1000,1000,1000,1000,78128736,1580,1580,1579,1580
50851318,1000,1000,1000,1000,78228696,1579,1579,1579,1579
50853817,1000,1000,1000,1000,78328656,1579,1580,1579,1579
50856316,1000,1000,1000,1000,78428616,1581,1581,1581,1580
50858815,1000,1000,1000,1000,78528576,1580,1580,1580,1579
50861314,1000,1000,1000,1000,78628536,1579,1582,1586,1572
50863813,1000,1000,1000,1000,78728496,1580,1583,1583,1572
50866312,1000,1000,1000,1000,78828456,1579,1582,1573,1571
50868811,1000,1000,1000,1000,78928416,1580,1582,1565,1570
50871310,1000,1000,1000,1000,79028376,1578,1580,1558,1565
50873809,1000,1000,1000,1000,79128336,1580,1580,1556,1561
50876308,1000,1000,1000,1000,79228296,1582,1580,1555,1557
50878807,1000,1000,1000,1000,79328256,1582,1580,1556,1556
50881306,1000,1000,1000,1000,79428216,1581,1580,1557,1555
50883805,1000,1000,1000,1000,79528176,1579,1579,1557,1554
50886304,1000,1000,1000,1000,79628969,1577,1578,1557,1555
50888803,1000,1000,1000,1000,79728929,1577,1578,1557,1556
50891302,1000,1000,1000,1000,79828889,1575,1577,1555,1555
50893801,1000,1000,1000,1000,79928849,1576,1578,1554,1555
50896300,1000,1000,1000,1000,80028809,1576,1577,1552,1552
50898799,1000,1000,1000,1000,80128769,1578,1579,1550,1551
50901298,1000,1000,1000,1000,80228729,1580,1581,1547,1548
50903797,1000,1000,1000,1000,80328689,1583,1583,1546,1545
50906296,1000,1000,1000,1000,80428649,1585,1585,1543,1542
50908795,1000,1000,1000,1000,80528609,1588,1589,1541,1541
50911294,1000,1000,1000,1000,80628569,1592,1591,1540,1540
50913793,1000,1000,1000,1000,80728529,1592,1593,1537,1539
50916292,1000,1000,1000,1000,80828489,1593,1595,1536,1537
50918791,1000,1000,1000,1000,80928449,1594,1594,1537,1538
50921290,1000,1000,1000,1000,81028409,1592,1592,1539,1541
50923789,1000,1000,1000,1000,81128369,1589,1586,1544,1546
50926288,1000,1000,1000,1000,81228329,1583,1580,1552,1554
50928787,1000,1000,1000,1000,81328289,1576,1571,1563,1564
50931286,1000,1000,1000,1000,81428249,1564,1560,1574,1575
50933785,1000,1000,1000,1000,81528209,1553,1550,1586,1587
50936284,1000,1000,1000,1000,81628169,1542,1540,1596,1596
50938783,1000,1000,1000,1000,81728962,1536,1535,1604,1605
50941282,1000,1000,1000,1000,81828922,1533,1534,1611,1610
50943781,1000,1000,1000,1000,81928882,1531,1533,1610,1610
50946280,1000,1000,1000,1000,82028842,1537,1539,1609,1610
50948779,1000,1000,1000,1000,82128802,1543,1545,1605,1606
50951278,1000,1000,1000,1000,82228762,1549,1551,1599,1598
50953777,1000,1000,1000,1000,82328722,1558,1559,1593,1592
50956276,1000,1000,1000,1000,82428682,1567,1567,1587,1586
50958775,1000,1000,1000,1000,82528642,1575,1574,1581,1580
50961274,1000,1000,1000,1000,82628602,1580,1579,1575,1575
50963773,1000,1000,1000,1000,82728562,1584,1583,1573,1572
50966272,1000,1000,1000,1000,82828522,1585,1584,1570,1569
50968771,1000,1000,1000,1000,82928482,1586,1585,1570,1570
50971270,1000,1000,1000,1000,83028442,1585,1584,1572,1571
50973769,1000,1000,1000,1000,83128402,1583,1582,1573,1573
50976268,1000,1000,1000,1000,83228362,1581,1581,1576,1576
50978767,1000,1000,1000,1000,83328322,1578,1578,1578,1578
50981266,1000,1000,1000,1000,83428282,1576,1576,1580,1580
50983765,1000,1000,1000,1000,83528242,1574,1575,1582,1582
50986264,1000,1000,1000,1000,83628202,1573,1574,1582,1583
50988763,1000,1000,1000,1000,83728162,1572,1572,1581,1582
50991262,1000,1000,1000,1000,83828955,1572,1572,1581,1581
50993761,1000,1000,1000,1000,83928915,1573,1574,1581,1581
50996260,1000,1000,1000,1000,84028875,1575,1575,1581,1580
50998759,1000,1000,1000,1000,84128835,1576,1576,1580,1579
51001258,1000,1000,1000,1000,84228795,1578,1578,1579,1579
51003757,1000,1000,1000,1000,84328755,1580,1579,1579,1578
51006256,1000,1000,1000,1000,84428715,1580,1580,1578,1578
51008755,1000,1000,1000,1000,84528675,1580,1580,1577,1577
51011254,1000,1000,1000,1000,84628635,1580,1580,1578,1577
51013753,1000,1000,1000,1000,84728595,1581,1580,1578,1578
51016252,1000,1000,1000,1000,84828555,1580,1580,1578,1578
51018751,1000,1000,1000,1000,84928515,1580,1581,1578,1579
51021250,1000,1000,1000,1000,85028475,1578,1579,1578,1578
51023749,1000,1000,1000,1000,85128435,1578,1579,1578,1579
51026248,1000,1000,1000,1000,85228395,1579,1579,1579,1580
51028747,1000,1000,1000,1000,85328355,1580,1580,1581,1581
51031246,1000,1000,1000,1000,85428315,1579,1579,1580,1580
51033745,1000,1000,1000,1000,85528275,1579,1580,1581,1580
51036244,1000,1000,1000,1000,85628235,1580,1581,1582,1581
51038743,1000,1000,1000,1000,85728195,1580,1580,1581,1581
51041242,1000,1000,1000,1000,85828155,1580,1580,1581,1581
51043741,1000,1000,1000,1000,85928948,1581,1581,1581,1581
51046240,1000,1000,1000,1000,86028908,1579,1580,1579,1579
51048739,1000,1000,1000,1000,86128868,1580,1580,1580,1580
51051238,1000,1000,1000,1000,86228828,1579,1579,1579,1579
51053737,1000,1000,1000,1000,86328788,1580,1580,1580,1579
51056236,1000,1000,1000,1000,86428748,1581,1582,1585,1576
51058735,1000,1000,1000,1000,86528708,1581,1582,1588,1572
51061234,1000,1000,1000,1000,86628668,1579,1580,1582,1574
51063733,1000,1000,1000,1000,86728628,1576,1576,1574,1576
51066232,1000,1000,1000,1000,86828588,1572,1572,1567,1574
51068731,1000,1000,1000,1000,86928548,1569,1569,1565,1572
51071230,1000,1000,1000,1000,87028508,1570,1569,1567,1571
51073729,1000,1000,1000,1000,87128468,1568,1567,1567,1569
51076228,1000,1000,1000,1000,87228428,1567,1567,1568,1567
51078727,1000,1000,1000,1000,87328388,1565,1566,1568,1565
51081226,1000,1000,1000,1000,87428348,1565,1565,1567,1565
51083725,1000,1000,1000,1000,87528308,1564,1564,1565,1564
51086224,1000,1000,1000,1000,87628268,1564,1564,1564,1564
51088723,1000,1000,1000,1000,87728228,1564,1563,1563,1564
51091222,1000,1000,1000,1000,87828188,1562,1563,1562,1563
51093721,1000,1000,1000,1000,87928981,1562,1562,1562,1562
51096220,1000,1000,1000,1000,88028941,1561,1561,1561,1560
51098719,1000,1000,1000,1000,88128901,1561,1561,1561,1561
51101218,1000,1000,1000,1000,88228861,1561,1561,1561,1560
51103717,1000,1000,1000,1000,88328821,1560,1560,1560,1559
51106216,1000,1000,1000,1000,88428781,1558,1558,1559,1557
51108715,1000,1000,1000,1000,88528741,1556,1556,1556,1556
51111214,1000,1000,1000,1000,88628701,1556,1557,1557,1556
51113713,1000,1000,1000,1000,88728661,1556,1556,1557,1556
51116212,1000,1000,1000,1000,88828621,1556,1556,1557,1555
51118711,1000,1000,1000,1000,88928581,1557,1557,1558,1556
51121210,1000,1000,1000,1000,89028541,1556,1557,1557,1556
51123709,1000,1000,1000,1000,89128501,1558,1558,1559,1556
51126208,1000,1000,1000,1000,89228461,1558,1558,1558,1557
51128707,1000,1000,1000,1000,89328421,1559,1559,1557,1561
51131206,1000,1000,1000,1000,89428381,1560,1559,1556,1562
51133705,1000,1000,1000,1000,89528341,1558,1558,1555,1561
51136204,1000,1000,1000,1000,89628301,1561,1562,1559,1563
51138703,1000,1000,1000,1000,89728261,1560,1560,1558,1562
51141202,1000,1000,1000,1000,89828221,1556,1556,1556,1558
51143701,1000,1000,1000,1000,89928181,1550,1550,1551,1551
51146200,1000,1000,1000,1000,90028974,1543,1543,1545,1544
51148699,1000,1000,1000,1000,90128934,1537,1536,1539,1538
51151198,1000,1000,1000,1000,90228894,1530,1530,1532,1531
51153697,1000,1000,1000,1000,90328854,1523,1523,1524,1524
51156196,1000,1000,1000,1000,90428814,1520,1520,1521,1521
51158695,1000,1000,1000,1000,90528774,1521,1522,1521,1521
51161194,1000,1000,1000,1000,90628734,1523,1523,1522,1522
51163693,1000,1000,1000,1000,90728694,1526,1526,1524,1524
51166192,1000,1000,1000,1000,90828654,1530,1530,1527,1528
51168691,1000,1000,1000,1000,90928614,1535,1535,1532,1533
51171190,1000,1000,1000,1000,91028574,1539,1539,1537,1537
51173689,1000,1000,1000,1000,91128534,1541,1541,1540,1540
51176188,1000,1000,1000,1000,91228494,1542,1542,1542,1542
51178687,1000,1000,1000,1000,91328454,1544,1544,1544,1545
51181186,1000,1000,1000,1000,91428414,1544,1544,1545,1545
51183685,1000,1000,1000,1000,91528374,1545,1545,1546,1546
51186184,1000,1000,1000,1000,91628334,1545,1544,1546,1546
51188683,1000,1000,1000,1000,91728294,1545,1545,1547,1546
51191182,1000,1000,1000,1000,91828254,1545,1545,1546,1547
51193681,1000,1000,1000,1000,91928214,1545,1544,1546,1546
51196180,1000,1000,1000,1000,92028174,1546,1546,1547,1546
51198679,1000,1000,1000,1000,92128967,1545,1545,1546,1545
51201178,1000,1000,1000,1000,92228927,1544,1545,1545,1545
51203677,1000,1000,1000,1000,92328887,1544,1544,1544,1544
51206176,1000,1000,1000,1000,92428847,1545,1544,1544,1544
51208675,1000,1000,1000,1000,92528807,1545,1545,1544,1544
51211174,1000,1000,1000,1000,92628767,1545,1545,1545,1544
51213673,1000,1000,1000,1000,92728727,1544,1543,1544,1543
51216172,1000,1000,1000,1000,92828687,1544,1544,1544,1543
51218671,1000,1000,1000,1000,92928647,1544,1544,1544,1544
51221170,1000,1000,1000,1000,93028607,1544,1544,1544,1543
51223669,1000,1000,1000,1000,93128567,1544,1544,1544,1544
51226168,1000,1000,1000,1000,93228527,1543,1543,1543,1543
51228667,1000,1000,1000,1000,93328487,1544,1544,1544,1544
51231166,1000,1000,1000,1000,93428447,1544,1544,1544,1544
51233665,1000,1000,1000,1000,93528407,1544,1544,1544,1544
51236164,1000,1000,1000,1000,93628367,1543,1543,1543,1543
51238663,1000,1000,1000,1000,93728327,1544,1544,1544,1544
51241162,1000,1000,1000,1000,93828287,1543,1543,1544,1543
51243661,1000,1000,1000,1000,93928247,1544,1544,1544,1544
51246160,1000,1000,1000,1000,94028207,1545,1544,1544,1545
51248659,1000,1000,1000,1000,94128167,1545,1545,1545,1545
51251158,1000,1000,1000,1000,94228960,1544,1544,1545,1544
51253657,1000,1000,1000,1000,94328920,1544,1544,1544,1544
51256156,1000,1000,1000,1000,94428880,1544,1545,1544,1545
51258655,1000,1000,1000,1000,94528840,1545,1544,1544,1545
51261154,1000,1000,1000,1000,94628800,1544,1544,1544,1544
51263653,1000,1000,1000,1000,94728760,1543,1543,1543,1543
51266152,1000,1000,1000,1000,94828720,1543,1544,1544,1543
51268651,1000,1000,1000,1000,94928680,1545,1544,1545,1544
51271150,1000,1000,1000,1000,95028640,1544,1544,1544,1544
51273649,1000,1000,1000,1000,95128600,1544,1544,1544,1544
51276148,1000,1000,1000,1000,95228560,1543,1544,1544,1544
51278647,1000,1000,1000,1000,95328520,1544,1543,1544,1544
51281146,1000,1000,1000,1000,95428480,1543,1543,1543,1543
51283645,1000,1000,1000,1000,95528440,1543,1543,1543,1543
51286144,1000,1000,1000,1000,95628400,1544,1544,1544,1543
51288643,1000,1000,1000,1000,95728360,1544,1544,1544,1544
51291142,1000,1000,1000,1000,95828320,1544,1543,1543,1544
51293641,1000,1000,1000,1000,95928280,1543,1543,1543,1543
51296140,1000,1000,1000,1000,96028240,1544,1544,1544,1544
51298639,1000,1000,1000,1000,96128200,1545,1545,1545,1545
51301138,1000,1000,1000,1000,96228160,1544,1545,1545,1544
51303637,1000,1000,1000,1000,96328953,1545,1545,1545,1545
51306136,1000,1000,1000,1000,96428913,1545,1545,1545,1545
51308635,1000,1000,1000,1000,96528873,1545,1545,1545,1545
51311134,1000,1000,1000,1000,96628833,1545,1545,1545,1545
51313633,1000,1000,1000,1000,96728793,1545,1545,1545,1545
51316132,1000,1000,1000,1000,96828753,1545,1545,1545,1545
51318631,1000,1000,1000,1000,96928713,1545,1545,1544,1545
51321130,1000,1000,1000,1000,97028673,1545,1544,1545,1544
51323629,1000,1000,1000,1000,97128633,1545,1544,1545,1545
51326128,1000,1000,1000,1000,97228593,1545,1545,1545,1545
51328627,1000,1000,1000,1000,97328553,1545,1545,1545,1545
51331126,1000,1000,1000,1000,97428513,1544,1544,1544,1544
51333625,1000,1000,1000,1000,97528473,1545,1544,1545,1545
51336124,1000,1000,1000,1000,97628433,1544,1544,1544,1544
51338623,1000,1000,1000,1000,97728393,1545,1545,1545,1545
51341122,1000,1000,1000,1000,97828353,1545,1546,1545,1545
51343621,1000,1000,1000,1000,97928313,1544,1544,1544,1545
51346120,1000,1000,1000,1000,98028273,1543,1543,1544,1543
51348619,1000,1000,1000,1000,98128233,1545,1544,1544,1545
51351118,1000,1000,1000,1000,98228193,1543,1543,1544,1543
51353617,1000,1000,1000,1000,98328986,1544,1544,1544,1544
51356116,1000,1000,1000,1000,98428946,1544,1544,1544,1544
51358615,1000,1000,1000,1000,98528906,1543,1544,1543,1544
51361114,1000,1000,1000,1000,98628866,1543,1543,1543,1543
51363613,1000,1000,1000,1000,98728826,1544,1544,1544,1544
51366112,1000,1000,1000,1000,98828786,1545,1545,1544,1545
51368611,1000,1000,1000,1000,98928746,1545,1544,1544,1545
51371110,1000,1000,1000,1000,99028706,1544,1544,1544,1544
51373609,1000,1000,1000,1000,99128666,1544,1544,1544,1544
51376108,1000,1000,1000,1000,99228626,1544,1544,1545,1544
51378607,1000,1000,1000,1000,99328586,1544,1543,1544,1544
51381106,1000,1000,1000,1000,99428546,1544,1544,1544,1544
51383605,1000,1000,1000,1000,99528506,1544,1544,1544,1544
51386104,1000,1000,1000,1000,99628466,1544,1544,1544,1544
51388603,1000,1000,1000,1000,99728426,1544,1544,1544,1545
51391102,1000,1000,1000,1000,99828386,1544,1544,1544,1544
51393601,1000,1000,1000,1000,99928346,1544,1544,1544,1544
51396100,1000,1000,1000,1000,100028306,1544,1544,1544,1544
51398599,1000,1000,1000,1000,100128266,1365,1361,1363,1401
51401098,1000,1000,1000,1000,100228226,1289,1282,1284,1346
51403597,1000,1000,1000,1000,100328186,1289,1282,1285,1347
51406096,1000,1000,1000,1000,100428979,1287,1282,1284,1346
51408595,1000,1000,1000,1000,100528939,1289,1282,1284,1347
51411094,1000,1000,1000,1000,100628899,1289,1282,1285,1346
51413593,1000,1000,1000,1000,100728859,1291,1282,1285,1348
51416092,1000,1000,1000,1000,100828819,1314,1282,1283,1365
51418591,1000,1000,1000,1000,100928779,1308,1282,1285,1360
51421090,1000,1000,1000,1000,101028739,1307,1282,1285,1359
51423589,1000,1000,1000,1000,101128699,1308,1282,1284,1360
51426088,1000,1000,1000,1000,101228659,1309,1282,1285,1361
51428587,1000,1000,1000,1000,101328619,1312,1282,1285,1363
51431086,1000,1000,1000,1000,101428579,1313,1282,1285,1363
51433585,1000,1000,1000,1000,101528539,1295,1282,1284,1351
51436084,1000,1000,1000,1000,101628499,1300,1282,1284,1355
51438583,1000,1000,1000,1000,101728459,1302,1282,1284,1356
51441082,1000,1000,1000,1000,101828419,1302,1282,1284,1356
51443581,1000,1000,1000,1000,101928379,1303,1282,1284,1357
51446080,1000,1000,1000,1000,102028339,1282,1282,1282,1150
51448579,1000,1000,1000,1000,102128299,1000,1000,1000,1000
51451078,1000,1000,1000,1000,102228259,1000,1000,1000,1000
51453577,1000,1000,1000,1000,102328219,1000,1000,1000,1000
51456076,1000,1000,1000,1000,102428179,1000,1000,1000,1000
51458575,1000,1000,1000,1000,102528972,1000,1000,1000,1000
51461074,1000,1000,1000,1000,102628932,1000,1000,1000,1000
51463573,1000,1000,1000,1000,102728892,1000,1000,1000,1000
51466072,1000,1000,1000,1000,102828852,1000,1000,1000,1000
51468571,1000,1000,1000,1000,102928812,1000,1000,1000,1000
51471070,1000,1000,1000,1000,103028772,1000,1000,1000,1000
51473569,1000,1000,1000,1000,103128732,1000,1000,1000,1000
51476068,1000,1000,1000,1000,103228692,1000,1000,1000,1000
51478567,1000,1000,1000,1000,103328652,1000,1000,1000,1000
51481066,1000,1000,1000,1000,103428612,1000,1000,1000,1000
51483565,1000,1000,1000,1000,103528572,1000,1000,1000,1000
51486064,1000,1000,1000,1000,103628532,1000,1000,1000,1000
51488563,1000,1000,1000,1000,103728492,1000,1000,1000,1000
51491062,1000,1000,1000,1000,103828452,1000,1000,1000,1000
51493561,1000,1000,1000,1000,103928412,1000,1000,1000,1000
51496060,1000,1000,1000,1000,104028372,1000,1000,1000,1000
51498559,1000,1000,1000,1000,104128332,1000,1000,1000,1000
51501058,1000,1000,1000,1000,104228292,1000,1000,1000,1000
51503557,1000,1000,1000,1000,104328252,1000,1000,1000,1000
51506056,1000,1000,1000,1000,104428212,1000,1000,1000,1000
51508555,1000,1000,1000,1000,104528172,1000,1000,1000,1000
51511054,1000,1000,1000,1000,104628965,1000,1000,1000,1000
51513553,1000,1000,1000,1000,104728925,1000,1000,1000,1000
51516052,1000,1000,1000,1000,104828885,1000,1000,1000,1000
51518551,1000,1000,1000,1000,104928845,1000,1000,1000,1000
51521050,1000,1000,1000,1000,105028805,1000,1000,1000,1000
51523549,1000,1000,1000,1000,105128765,1000,1000,1000,1000
51526048,1000,1000,1000,1000,105228725,1000,1000,1000,1000
51528547,1000,1000,1000,1000,105328685,1000,1000,1000,1000
51531046,1000,1000,1000,1000,105428645,1000,1000,1000,1000
51533545,1000,1000,1000,1000,105528605,1000,1000,1000,1000
51536044,1000,1000,1000,1000,105628565,1000,1000,1000,1000
51538543,1000,1000,1000,1000,105728525,1000,1000,1000,1000
51541042,1000,1000,1000,1000,105828485,1000,1000,1000,1000
51543541,1000,1000,1000,1000,105928445,1000,1000,1000,1000
51546040,1000,1000,1000,1000,106028405,1000,1000,1000,1000
51548539,1000,1000,1000,1000,106128365,1000,1000,1000,1000
51551038,1000,1000,1000,1000,106228325,1000,1000,1000,1000
51553537,1000,1000,1000,1000,106328285,1000,1000,1000,1000
51556036,1000,1000,1000,1000,106428245,1000,1000,1000,1000
51558535,1000,1000,1000,1000,106528205,1000,1000,1000,1000
51561034,1000,1000,1000,1000,106628165,1000,1000,1000,1000
51563533,1000,1000,1000,1000,106728958,1000,1000,1000,1000
51566032,1000,1000,1000,1000,106828918,1000,1000,1000,1000
51568531,1000,1000,1000,1000,106928878,1000,1000,1000,1000
51571030,1000,1000,1000,1000,107028838,1000,1000,1000,1000
51573529,1000,1000,1000,1000,107128798,1000,1000,1000,1000
51576028,1000,1000,1000,1000,107228758,1000,1000,1000,1000
51578527,1000,1000,1000,1000,107328718,1000,1000,1000,1000
51581026,1000,1000,1000,1000,107428678,1000,1000,1000,1000
51583525,1000,1000,1000,1000,107528638,1000,1000,1000,1000
51586024,1000,1000,1000,1000,107628598,1000,1000,1000,1000
51588523,1000,1000,1000,1000,107728558,1000,1000,1000,1000
51591022,1000,1000,1000,1000,107828518,1000,1000,1000,1000
51593521,1000,1000,1000,1000,107928478,1000,1000,1000,1000
51596020,1000,1000,1000,1000,108028438,1000,1000,1000,1000
51598519,1000,1000,1000,1000,108128398,1000,1000,1000,1000
51601018,1000,1000,1000,1000,108228358,1000,1000,1000,1000
51603517,1000,1000,1000,1000,108328318,1000,1000,1000,1000
51606016,1000,1000,1000,1000,108428278,1000,1000,1000,1000
51608515,1000,1000,1000,1000,108528238,1000,1000,1000,1000
51611014,1000,1000,1000,1000,108628198,1000,1000,1000,1000
51613513,1000,1000,1000,1000,108728158,1000,1000,1000,1000
51616012,1000,1000,1000,1000,108828951,1000,1000,1000,1000
51618511,1000,1000,1000,1000,108928911,1000,1000,1000,1000
51621010,1000,1000,1000,1000,109028871,1000,1000,1000,1000
51623509,1000,1000,1000,1000,109128831,1000,1000,1000,1000
51626008,1000,1000,1000,1000,109228791,1000,1000,1000,1000
51628507,1000,1000,1000,1000,109328751,1000,1000,1000,1000
51631006,1000,1000,1000,1000,109428711,1000,1000,1000,1000
51633505,1000,1000,1000,1000,109528671,1000,1000,1000,1000
51636004,1000,1000,1000,1000,109628631,1000,1000,1000,1000
51638503,1000,1000,1000,1000,109728591,1000,1000,1000,1000
51641002,1000,1000,1000,1000,109828551,1000,1000,1000,1000
51643501,1000,1000,1000,1000,109928511,1000,1000,1000,1000
51646000,1000,1000,1000,1000,110028471,1000,1000,1000,1000
51648499,1000,1000,1000,1000,110128431,1000,1000,1000,1000
51650998,1000,1000,1000,1000,110228391,1000,1000,1000,1000
51653497,1000,1000,1000,1000,110328351,1000,1000,1000,1000
51655996,1000,1000,1000,1000,110428311,1000,1000,1000,1000
51658495,1000,1000,1000,1000,110528271,1000,1000,1000,1000
51660994,1000,1000,1000,1000,110628231,1000,1000,1000,1000
51663493,1000,1000,1000,1000,110728191,1000,1000,1000,1000
51665992,1000,1000,1000,1000,110828984,1000,1000,1000,1000
51668491,1000,1000,1000,1000,110928944,1000,1000,1000,1000
51670990,1000,1000,1000,1000,111028904,1000,1000,1000,1000
51673489,1000,1000,1000,1000,111128864,1000,1000,1000,1000
51675988,1000,1000,1000,1000,111228824,1000,1000,1000,1000
51678487,1000,1000,1000,1000,111328784,1000,1000,1000,1000
51680986,1000,1000,1000,1000,111428744,1000,1000,1000,1000
51683485,1000,1000,1000,1000,111528704,1000,1000,1000,1000
51685984,1000,1000,1000,1000,111628664,1000,1000,1000,1000
51688483,1000,1000,1000,1000,111728624,1000,1000,1000,1000
51690982,1000,1000,1000,1000,111828584,1000,1000,1000,1000
51693481,1000,1000,1000,1000,111928544,1000,1000,1000,1000
51695980,1000,1000,1000,1000,112028504,1000,1000,1000,1000
51698479,1000,1000,1000,1000,112128464,1000,1000,1000,1000
51700978,1000,1000,1000,1000,112228424,1000,1000,1000,1000
51703477,1000,1000,1000,1000,112328384,1000,1000,1000,1000
51705976,1000,1000,1000,1000,112428344,1000,1000,1000,1000
51708475,1000,1000,1000,1000,112528304,1000,1000,1000,1000
51710974,1000,1000,1000,1000,112628264,1000,1000,1000,1000
51713473,1000,1000,1000,1000,112728224,1000,1000,1000,1000
51715972,1000,1000,1000,1000,112828184,1000,1000,1000,1000
51718471,1000,1000,1000,1000,112928977,1000,1000,1000,1000
51720970,1000,1000,1000,1000,113028937,1000,1000,1000,1000
51723469,1000,1000,1000,1000,113128897,1000,1000,1000,1000
51725968,1000,1000,1000,1000,113228857,1000,1000,1000,1000
51728467,1000,1000,1000,1000,113328817,1000,1000,1000,1000
51730966,1000,1000,1000,1000,113428777,1000,1000,1000,1000
51733465,1000,1000,1000,1000,113528737,1000,1000,1000,1000
51735964,1000,1000,1000,1000,113628697,1000,1000,1000,1000
51738463,1000,1000,1000,1000,113728657,1000,1000,1000,1000
51740962,1000,1000,1000,1000,113828617,1000,1000,1000,1000
51743461,1000,1000,1000,1000,113928577,1000,1000,1000,1000
51745960,1000,1000,1000,1000,114028537,1000,1000,1000,1000
51748459,1000,1000,1000,1000,114128497,1000,1000,1000,1000
51750958,1000,1000,1000,1000,114228457,1000,1000,1000,1000
51753457,1000,1000,1000,1000,114328417,1000,1000,1000,1000
51755956,1000,1000,1000,1000,114428377,1000,1000,1000,1000
51758455,1000,1000,1000,1000,114528337,1000,1000,1000,1000
51760954,1000,1000,1000,1000,,,,,
51763453,1000,1000,1000,1000,,,,,
51765952,1000,1000,1000,1000,,,,,
51768451,1000,1000,1000,1000,,,,,
51770950,1000,1000,1000,1000,,,,,
51773449,1000,1000,1000,1000,,,,,
51775948,1000,1000,1000,1000,,,,,
51778447,1000,1000,1000,1000,,,,,
51780946,1000,1000,1000,1000,,,,,
51783445,1000,1000,1000,1000,,,,,
51785944,1000,1000,1000,1000,,,,,
51788443,1000,1000,1000,1000,,,,,
51790942,1000,1000,1000,1000,,,,,
51793441,1000,1000,1000,1000,,,,,
51795940,1000,1000,1000,1000,,,,,
51798439,1000,1000,1000,1000,,,,,
51800938,1000,1000,1000,1000,,,,,
51803437,1000,1000,1000,1000,,,,,
51805936,1000,1000,1000,1000,,,,,
51808435,1000,1000,1000,1000,,,,,
51810934,1000,1000,1000,1000,,,,,
51813433,1000,1000,1000,1000,,,,,
51815932,1000,1000,1000,1000,,,,,
51818431,1000,1000,1000,1000,,,,,
51820930,1000,1000,1000,1000,,,,,
51823429,1000,1000,1000,1000,,,,,
51825928,1000,1000,1000,1000,,,,,
51828427,1000,1000,1000,1000,,,,,
51830926,1000,1000,1000,1000,,,,,
51833425,1000,1000,1000,1000,,,,,
51835924,1000,1000,1000,1000,,,,,
51838423,1000,1000,1000,1000,,,,,
51840922,1000,1000,1000,1000,,,,,
51843421,1000,1000,1000,1000,,,,,
51845920,1000,1000,1000,1000,,,,,
51848419,1000,1000,1000,1000,,,,,
51850918,1000,1000,1000,1000,,,,,
51853417,1000,1000,1000,1000,,,,,
51855916,1000,1000,1000,1000,,,,,
51858415,1000,1000,1000,1000,,,,,
51860914,1000,1000,1000,1000,,,,,
51863413,1000,1000,1000,1000,,,,,
51865912,1000,1000,1000,1000,,,,,
51868411,1000,1000,1000,1000,,,,,
51870910,1000,1000,1000,1000,,,,,
51873409,1000,1000,1000,1000,,,,,
51875908,1000,1000,1000,1000,,,,,
51878407,1000,1000,1000,1000,,,,,
51880906,1000,1000,1000,1000,,,,,
51883405,1000,1000,1000,1000,,,,,
51885904,1000,1000,1000,1000,,,,,
51888403,1000,1000,1000,1000,,,,,
51890902,1000,1000,1000,1000,,,,,
51893401,1000,1000,1000,1000,,,,,
51895900,1000,1000,1000,1000,,,,,
51898399,1000,1000,1000,1000,,,,,
51900898,1000,1000,1000,1000,,,,,
51903397,1000,1000,1000,1000,,,,,
51905896,1000,1000,1000,1000,,,,,
51908395,1000,1000,1000,1000,,,,,
51910894,1000,1000,1000,1000,,,,,
51913393,1000,1000,1000,1000,,,,,
51915892,1000,1000,1000,1000,,,,,
51918391,1000,1000,1000,1000,,,,,
51920890,1000,1000,1000,1000,,,,,
51923389,1000,1000,1000,1000,,,,,
51925888,1000,1000,1000,1000,,,,,
51928387,1000,1000,1000,1000,,,,,
51930886,1000,1000,1000,1000,,,,,
51933385,1000,1000,1000,1000,,,,,
51935884,1000,1000,1000,1000,,,,,
51938383,1000,1000,1000,1000,,,,,
51940882,1000,1000,1000,1000,,,,,
51943381,1000,1000,1000,1000,,,,,
51945880,1000,1000,1000,1000,,,,,
51948379,1000,1000,1000,1000,,,,,
51950878,1000,1000,1000,1000,,,,,
51953377,1000,1000,1000,1000,,,,,
51955876,1000,1000,1000,1000,,,,,
51958375,1000,1000,1000,1000,,,,,
51960874,1000,1000,1000,1000,,,,,
51963373,1000,1000,1000,1000,,,,,
51965872,1000,1000,1000,1000,,,,,
51968371,1000,1000,1000,1000,,,,,
51970870,1000,1000,1000,1000,,,,,
51973369,1000,1000,1000,1000,,,,,
51975868,1000,1000,1000,1000,,,,,
51978367,1000,1000,1000,1000,,,,,
51980866,1000,1000,1000,1000,,,,,
51983365,1000,1000,1000,1000,,,,,
51985864,1000,1000,1000,1000,,,,,
51988363,1000,1000,1000,1000,,,,,
51990862,1000,1000,1000,1000,,,,,
51993361,1000,1000,1000,1000,,,,,
51995860,1000,1000,1000,1000,,,,,
51998359,1000,1000,1000,1000,,,,,
52000858,1000,1000,1000,1000,,,,,
52003357,1000,1000,1000,1000,,,,,
52005856,1000,1000,1000,1000,,,,,
52008355,1000,1000,1000,1000,,,,,
52010854,1000,1000,1000,1000,,,,,
52013353,1000,1000,1000,1000,,,,,
52015852,1000,1000,1000,1000,,,,,
52018351,1000,1000,1000,1000,,,,,
52020850,1000,1000,1000,1000,,,,,
52023349,1000,1000,1000,1000,,,,,
52025848,1000,1000,1000,1000,,,,,
52028347,1000,1000,1000,1000,,,,,
52030846,1000,1000,1000,1000,,,,,
52033345,1000,1000,1000,1000,,,,,
52035844,1000,1000,1000,1000,,,,,
52038343,1000,1000,1000,1000,,,,,
52040842,1000,1000,1000,1000,,,,,
52043341,1000,1000,1000,1000,,,,,
52045840,1000,1000,1000,1000,,,,,
52048339,1000,1000,1000,1000,,,,,
52050838,1000,1000,1000,1000,,,,,
52053337,1000,1000,1000,1000,,,,,
52055836,1000,1000,1000,1000,,,,,
52058335,1000,1000,1000,1000,,,,,
52060834,1000,1000,1000,1000,,,,,
52063333,1000,1000,1000,1000,,,,,
52065832,1000,1000,1000,1000,,,,,
52068331,1000,1000,1000,1000,,,,,
52070830,1000,1000,1000,1000,,,,,
52073329,1000,1000,1000,1000,,,,,
52075828,1000,1000,1000,1000,,,,,
52078327,1000,1000,1000,1000,,,,,
52080826,1000,1000,1000,1000,,,,,
52083325,1000,1000,1000,1000,,,,,
52085824,1000,1000,1000,1000,,,,,
52088323,1000,1000,1000,1000,,,,,
52090822,1000,1000,1000,1000,,,,,
52093321,1000,1000,1000,1000,,,,,
52095820,1000,1000,1000,1000,,,,,
52098319,1000,1000,1000,1000,,,,,
52100818,1000,1000,1000,1000,,,,,
52103317,1000,1000,1000,1000,,,,,
52105816,1000,1000,1000,1000,,,,,
52108315,1000,1000,1000,1000,,,,,
52110814,1000,1000,1000,1000,,,,,
52113313,1000,1000,1000,1000,,,,,
52115812,1000,1000,1000,1000,,,,,
52118311,1000,1000,1000,1000,,,,,
52120810,1000,1000,1000,1000,,,,,
52123309,1000,1000,1000,1000,,,,,
52125808,1000,1000,1000,1000,,,,,
52128307,1000,1000,1000,1000,,,,,
52130806,1000,1000,1000,1000,,,,,
52133305,1000,1000,1000,1000,,,,,
52135804,1000,1000,1000,1000,,,,,
52138303,1000,1000,1000,1000,,,,,
52140802,1000,1000,1000,1000,,,,,
52143301,1000,1000,1000,1000,,,,,
52145800,1000,1000,1000,1000,,,,,
52148299,1000,1000,1000,1000,,,,,
52150798,1000,1000,1000,1000,,,,,
52153297,1000,1000,1000,1000,,,,,
52155796,1000,1000,1000,1000,,,,,
52158295,1001,1001,1001,1001,,,,,
52160794,1002,1002,1002,1002,,,,,
52163293,1003,1003,1003,1003,,,,,
52165792,1003,1003,1003,1003,,,,,
52168291,1004,1004,1004,1004,,,,,
52170790,1005,1005,1005,1005,,,,,
52173289,1006,1006,1006,1006,,,,,
52175788,1006,1006,1006,1006,,,,,
52178287,1007,1007,1007,1007,,,,,
52180786,1008,1008,1008,1008,,,,,
52183285,1009,1009,1009,1009,,,,,
52185784,1009,1009,1009,1009,,,,,
52188283,1010,1010,1010,1010,,,,,
52190782,1011,1011,1011,1011,,,,,
52193281,1012,1012,1012,1012,,,,,
52195780,1012,1012,1012,1012,,,,,
52198279,1013,1013,1013,1013,,,,,
52200778,1014,1014,1014,1014,,,,,
52203277,1015,1015,1015,1015,,,,,
52205776,1015,1015,1015,1015,,,,,
52208275,1016,1016,1016,1016,,,,,
52210774,1017,1017,1017,1017,,,,,
52213273,1018,1018,1018,1018,,,,,
52215772,1018,1018,1018,1018,,,,,
52218271,1019,1019,1019,1019,,,,,
52220770,1020,1020,1020,1020,,,,,
52223269,1021,1021,1021,1021,,,,,
52225768,1021,1021,1021,1021,,,,,
52228267,1022,1022,1022,1022,,,,,
52230766,1023,1023,1023,1023,,,,,
52233265,1024,1024,1024,1024,,,,,
52235764,1024,1024,1024,1024,,,,,
52238263,1025,1025,1025,1025,,,,,
52240762,1026,1026,1026,1026,,,,,
52243261,1027,1027,1027,1027,,,,,
52245760,1027,1027,1027,1027,,,,,
52248259,1028,1028,1028,1028,,,,,
52250758,1029,1029,1029,1029,,,,,
52253257,1030,1030,1030,1030,,,,,
52255756,1030,1030,1030,1030,,,,,
52258255,1031,1031,1031,1031,,,,,
52260754,1032,1032,1032,1032,,,,,
52263253,1033,1033,1033,1033,,,,,
52265752,1033,1033,1033,1033,,,,,
52268251,1034,1034,1034,1034,,,,,
52270750,1035,1035,1035,1035,,,,,
52273249,1036,1036,1036,1036,,,,,
52275748,1036,1036,1036,1036,,,,,
52278247,1037,1037,1037,1037,,,,,
52280746,1038,1038,1038,1038,,,,,
52283245,1039,1039,1039,1039,,,,,
52285744,1039,1039,1039,1039,,,,,
52288243,1040,1040,1040,1040,,,,,
52290742,1041,1041,1041,1041,,,,,
52293241,1042,1042,1042,1042,,,,,
52295740,1042,1042,1042,1042,,,,,
52298239,1043,1043,1043,1043,,,,,
52300738,1044,1044,1044,1044,,,,,
52303237,1045,1045,1045,1045,,,,,
52305736,1045,1045,1045,1045,,,,,
52308235,1046,1046,1046,1046,,,,,
52310734,1047,1047,1047,1047,,,,,
52313233,1048,1048,1048,1048,,,,,
52315732,1048,1048,1048,1048,,,,,
52318231,1049,1049,1049,1049,,,,,
52320730,1050,1050,1050,1050,,,,,
52323229,1051,1051,1051,1051,,,,,
52325728,1051,1051,1051,1051,,,,,
52328227,1052,1052,1052,1052,,,,,
52330726,1053,1053,1053,1053,,,,,
52333225,1054,1054,1054,1054,,,,,
52335724,1054,1054,1054,1054,,,,,
52338223,1055,1055,1055,1055,,,,,
52340722,1056,1056,1056,1056,,,,,
52343221,1057,1057,1057,1057,,,,,
52345720,1057,1057,1057,1057,,,,,
52348219,1058,1058,1058,1058,,,,,
52350718,1059,1059,1059,1059,,,,,
52353217,1060,1060,1060,1060,,,,,
52355716,1060,1060,1060,1060,,,,,
52358215,1061,1061,1061,1061,,,,,
52360714,1062,1062,1062,1062,,,,,
52363213,1063,1063,1063,1063,,,,,
52365712,1063,1063,1063,1063,,,,,
52368211,1064,1064,1064,1064,,,,,
52370710,1065,1065,1065,1065,,,,,
52373209,1066,1066,1066,1066,,,,,
52375708,1066,1066,1066,1066,,,,,
52378207,1067,1067,1067,1067,,,,,
52380706,1068,1068,1068,1068,,,,,
52383205,1069,1069,1069,1069,,,,,
52385704,1069,1069,1069,1069,,,,,
52388203,1070,1070,1070,1070,,,,,
52390702,1071,1071,1071,1071,,,,,
52393201,1072,1072,1072,1072,,,,,
52395700,1072,1072,1072,1072,,,,,
52398199,1073,1073,1073,1073,,,,,
52400698,1074,1074,1074,1074,,,,,
52403197,1075,1075,1075,1075,,,,,
52405696,1075,1075,1075,1075,,,,,
52408195,1076,1076,1076,1076,,,,,
52410694,1077,1077,1077,1077,,,,,
52413193,1078,1078,1078,1078,,,,,
52415692,1078,1078,1078,1078,,,,,
52418191,1079,1079,1079,1079,,,,,
52420690,1080,1080,1080,1080,,,,,
52423189,1081,1081,1081,1081,,,,,
52425688,1081,1081,1081,1081,,,,,
52428187,1082,1082,1082,1082,,,,,
52430686,1083,1083,1083,1083,,,,,
52433185,1084,1084,1084,1084,,,,,
52435684,1084,1084,1084,1084,,,,,
52438183,1085,1085,1085,1085,,,,,
52440682,1086,1086,1086,1086,,,,,
52443181,1087,1087,1087,1087,,,,,
52445680,1087,1087,1087,1087,,,,,
52448179,1088,1088,1088,1088,,,,,
52450678,1089,1089,1089,1089,,,,,
52453177,1090,1090,1090,1090,,,,,
52455676,1090,1090,1090,1090,,,,,
52458175,1091,1091,1091,1091,,,,,
52460674,1092,1092,1092,1092,,,,,
52463173,1093,1093,1093,1093,,,,,
52465672,1093,1093,1093,1093,,,,,
52468171,1094,1094,1094,1094,,,,,
52470670,1095,1095,1095,1095,,,,,
52473169,1096,1096,1096,1096,,,,,
52475668,1096,1096,1096,1096,,,,,
52478167,1097,1097,1097,1097,,,,,
52480666,1098,1098,1098,1098,,,,,
52483165,1099,1099,1099,1099,,,,,
52485664,1099,1099,1099,1099,,,,,
52488163,1100,1100,1100,1100,,,,,
52490662,1101,1101,1101,1101,,,,,
52493161,1101,1101,1101,1101,,,,,
52495660,1102,1102,1102,1102,,,,,
52498159,1103,1103,1103,1103,,,,,
52500658,1104,1104,1104,1104,,,,,
52503157,1104,1104,1104,1104,,,,,
52505656,1105,1105,1105,1105,,,,,
52508155,1106,1106,1106,1106,,,,,
52510654,1107,1107,1107,1107,,,,,
52513986,1107,1107,1107,1107,,,,,
52516485,1108,1108,1108,1108,,,,,
52518984,1109,1109,1109,1109,,,,,
52521483,1110,1110,1110,1110,,,,,
52523982,1110,1110,1110,1110,,,,,
52526481,1111,1111,1111,1111,,,,,
52528980,1112,1112,1112,1112,,,,,
52531479,1113,1113,1113,1113,,,,,
52533978,1113,1113,1113,1113,,,,,
52536477,1114,1114,1114,1114,,,,,
52538976,1115,1115,1115,1115,,,,,
52541475,1116,1116,1116,1116,,,,,
52543974,1116,1116,1116,1116,,,,,
52546473,1117,1117,1117,1117,,,,,
52548972,1118,1118,1118,1118,,,,,
52551471,1119,1119,1119,1119,,,,,
52553970,1119,1119,1119,1119,,,,,
52556469,1120,1120,1120,1120,,,,,
52558968,1121,1121,1121,1121,,,,,
52561467,1122,1122,1122,1122,,,,,
52563966,1122,1122,1122,1122,,,,,
52566465,1123,1123,1123,1123,,,,,
52568964,1124,1124,1124,1124,,,,,
52571463,1125,1125,1125,1125,,,,,
52573962,1125,1125,1125,1125,,,,,
52576461,1126,1126,1126,1126,,,,,
52578960,1127,1127,1127,1127,,,,,
52581459,1128,1128,1128,1128,,,,,
52583958,1128,1128,1128,1128,,,,,
52586457,1129,1129,1129,1129,,,,,
52588956,1130,1130,1130,1130,,,,,
52591455,1131,1131,1131,1131,,,,,
52593954,1131,1131,1131,1131,,,,,
52596453,1132,1132,1132,1132,,,,,
52598952,1133,1133,1133,1133,,,,,
52601451,1134,1134,1134,1134,,,,,
52603950,1134,1134,1134,1134,,,,,
52606449,1135,1135,1135,1135,,,,,
52608948,1136,1136,1136,1136,,,,,
52611447,1137,1137,1137,1137,,,,,
52613946,1137,1137,1137,1137,,,,,
52616445,1138,1138,1138,1138,,,,,
52618944,1139,1139,1139,1139,,,,,
52621443,1140,1140,1140,1140,,,,,
52623942,1140,1140,1140,1140,,,,,
52626441,1141,1141,1141,1141,,,,,
52628940,1142,1142,1142,1142,,,,,
52631439,1143,1143,1143,1143,,,,,
52633938,1143,1143,1143,1143,,,,,
52636437,1144,1144,1144,1144,,,,,
52638936,1145,1145,1145,1145,,,,,
52641435,1146,1146,1146,1146,,,,,
52643934,1146,1146,1146,1146,,,,,
52646433,1147,1147,1147,1147,,,,,
52648932,1148,1148,1148,1148,,,,,
52651431,1149,1149,1149,1149,,,,,
52653930,1149,1149,1149,1149,,,,,
52656429,1150,1150,1150,1150,,,,,
52658928,1161,1154,1154,1162,,,,,
52661427,1169,1162,1162,1170,,,,,
52663926,1177,1170,1170,1177,,,,,
52666425,1185,1177,1178,1185,,,,,
52668924,1193,1185,1186,1193,,,,,
52671423,1200,1193,1193,1200,,,,,
52673922,1207,1200,1201,1207,,,,,
52676421,1215,1207,1208,1215,,,,,
52678920,1222,1215,1215,1222,,,,,
52681419,1229,1222,1222,1229,,,,,
52683918,1235,1229,1229,1236,,,,,
52686417,1242,1235,1236,1243,,,,,
52688916,1249,1242,1243,1249,,,,,
52691415,1256,1249,1249,1256,,,,,
52693914,1262,1255,1256,1262,,,,,
52696413,1269,1262,1263,1269,,,,,
52698912,1275,1268,1269,1275,,,,,
52701411,1281,1275,1275,1281,,,,,
52703910,1287,1281,1282,1288,,,,,
52706409,1294,1287,1288,1294,,,,,
52708908,1300,1293,1294,1300,,,,,
52711407,1306,1299,1300,1306,,,,,
52713906,1312,1305,1306,1312,,,,,
52716405,1318,1311,1312,1318,,,,,
52718904,1323,1317,1318,1324,,,,,
52721403,1329,1323,1323,1329,,,,,
52723902,1335,1329,1329,1335,,,,,
52726401,1341,1334,1335,1341,,,,,
52728900,1346,1340,1340,1346,,,,,
52731399,1352,1346,1346,1352,,,,,
52733898,1357,1351,1352,1357,,,,,
52736397,1363,1357,1357,1363,,,,,
52738896,1368,1362,1363,1368,,,,,
52741395,1373,1367,1368,1374,,,,,
52743894,1379,1373,1373,1379,,,,,
52746393,1384,1378,1379,1384,,,,,
52748892,1389,1383,1384,1389,,,,,
52751391,1394,1389,1389,1394,,,,,
52753890,1399,1394,1394,1400,,,,,
52756389,1405,1399,1399,1405,,,,,
52758888,1410,1404,1404,1410,,,,,
52761387,1415,1409,1409,1415,,,,,
52763886,1420,1414,1414,1420,,,,,
52766385,1425,1419,1419,1425,,,,,
52768884,1429,1424,1424,1429,,,,,
52771383,1434,1429,1429,1434,,,,,
52773882,1439,1434,1434,1439,,,,,
52776381,1444,1439,1439,1444,,,,,
52778880,1449,1443,1444,1449,,,,,
52781379,1453,1448,1449,1454,,,,,
52783878,1458,1453,1453,1458,,,,,
52786377,1463,1458,1458,1463,,,,,
52788876,1467,1462,1463,1468,,,,,
52791375,1472,1467,1467,1472,,,,,
52793874,1477,1472,1472,1477,,,,,
52796373,1481,1476,1476,1481,,,,,
52798872,1486,1481,1481,1486,,,,,
52801371,1490,1485,1486,1490,,,,,
52803870,1495,1490,1490,1495,,,,,
52806369,1499,1494,1494,1499,,,,,
52808868,1503,1499,1499,1504,,,,,
52811367,1508,1503,1503,1508,,,,,
52813866,1512,1507,1508,1512,,,,,
52816365,1517,1512,1512,1517,,,,,
52818864,1521,1516,1516,1521,,,,,
52821363,1525,1520,1521,1525,,,,,
52823862,1529,1525,1525,1530,,,,,
52826361,1534,1529,1529,1534,,,,,
52828860,1538,1533,1534,1538,,,,,
52831359,1542,1537,1538,1542,,,,,
52833858,1546,1542,1542,1546,,,,,
52836357,1550,1546,1546,1551,,,,,
52838856,1555,1550,1550,1555,,,,,
52841355,1559,1554,1554,1559,,,,,
52843854,1563,1558,1559,1563,,,,,
52846353,1567,1562,1563,1567,,,,,
52848852,1571,1566,1567,1571,,,,,
52851351,1575,1570,1571,1575,,,,,
52853850,1579,1574,1575,1579,,,,,
52856349,1583,1578,1579,1583,,,,,
52858848,1587,1582,1583,1587,,,,,
52861347,1591,1586,1587,1591,,,,,
52863846,1595,1590,1591,1595,,,,,
52866345,1599,1594,1595,1599,,,,,
52868844,1603,1598,1599,1603,,,,,
52871343,1607,1602,1602,1607,,,,,
52873842,1611,1606,1606,1611,,,,,
52876341,1614,1610,1610,1614,,,,,
52878840,1618,1614,1614,1618,,,,,
52881339,1622,1617,1618,1622,,,,,
52883838,1626,1621,1622,1626,,,,,
52886337,1630,1625,1626,1630,,,,,
52888836,1633,1629,1629,1633,,,,,
52891335,1637,1633,1633,1637,,,,,
52893834,1641,1636,1637,1641,,,,,
52896333,1645,1640,1641,1645,,,,,
52898832,1648,1644,1644,1648,,,,,
52901331,1652,1647,1648,1652,,,,,
52903830,1656,1651,1652,1656,,,,,
52906329,1659,1655,1655,1659,,,,,
52908828,1663,1659,1659,1663,,,,,
52911327,1667,1662,1663,1667,,,,,
52913826,1670,1666,1666,1670,,,,,
52916325,1674,1669,1670,1674,,,,,
52918824,1677,1673,1673,1677,,,,,
52921323,1681,1677,1677,1681,,,,,
52923822,1684,1680,1680,1685,,,,,
52926321,1688,1684,1684,1688,,,,,
52928820,1692,1687,1688,1692,,,,,
52931319,1695,1691,1691,1695,,,,,
52933818,1699,1694,1695,1699,,,,,
52936317,1702,1698,1698,1702,,,,,
52938816,1706,1701,1702,1706,,,,,
52941315,1709,1705,1705,1709,,,,,
52943814,1712,1708,1708,1713,,,,,
52946313,1716,1712,1712,1716,,,,,
52948812,1719,1715,1715,1720,,,,,
52951311,1723,1719,1719,1723,,,,,
52953810,1726,1722,1722,1726,,,,,
52956309,1730,1725,1726,1730,,,,,
52958808,1733,1729,1729,1733,,,,,
52961307,1736,1732,1732,1737,,,,,
52963806,1740,1735,1736,1740,,,,,
52966305,1743,1739,1739,1743,,,,,
52968804,1747,1742,1742,1747,,,,,
52971303,1750,1745,1746,1750,,,,,
52973802,1753,1749,1749,1753,,,,,
52976301,1757,1752,1752,1757,,,,,
52978800,1760,1755,1756,1760,,,,,
52981299,1763,1759,1759,1763,,,,,
52983798,1766,1762,1762,1766,,,,,
52986297,1770,1765,1765,1770,,,,,
52988796,1773,1768,1769,1773,,,,,
52991295,1776,1772,1772,1776,,,,,
52993794,1780,1775,1775,1779,,,,,
52996293,1783,1778,1778,1783,,,,,
52998792,1786,1781,1782,1786,,,,,
53001291,1789,1784,1785,1789,,,,,
53003790,1792,1788,1788,1792,,,,,
53006289,1796,1791,1791,1795,,,,,
53008788,1799,1794,1794,1799,,,,,
53011287,1802,1797,1798,1802,,,,,
53013786,1805,1800,1801,1805,,,,,
53016285,1808,1803,1804,1808,,,,,
53018784,1811,1806,1807,1811,,,,,
53021283,1815,1810,1810,1814,,,,,
53023782,1818,1813,1813,1817,,,,,
53026281,1821,1816,1816,1821,,,,,
53028780,1824,1819,1820,1824,,,,,
53031279,1827,1822,1823,1827,,,,,
53033778,1830,1825,1826,1830,,,,,
53036277,1833,1828,1829,1833,,,,,
53038776,1836,1831,1832,1836,,,,,
53041275,1839,1834,1835,1839,,,,,
53043774,1842,1837,1838,1842,,,,,
53046273,1845,1840,1841,1845,,,,,
53048772,1848,1844,1844,1848,,,,,
53051271,1851,1847,1847,1851,,,,,
53053770,1854,1850,1850,1854,,,,,
53056269,1857,1853,1853,1857,,,,,
53058768,1860,1856,1856,1860,,,,,
53061267,1863,1859,1859,1863,,,,,
53063766,1866,1862,1862,1866,,,,,
53066265,1869,1864,1865,1869,,,,,
53068764,1872,1867,1868,1872,,,,,
53071263,1875,1870,1871,1875,,,,,
53073762,1878,1873,1874,1878,,,,,
53076261,1881,1876,1877,1881,,,,,
53078760,1881,1877,1877,1881,,,,,
53081259,1880,1875,1876,1880,,,,,
53083758,1879,1874,1875,1879,,,,,
53086257,1878,1873,1874,1878,,,,,
53088756,1877,1872,1872,1877,,,,,
53091255,1876,1871,1871,1876,,,,,
53093754,1875,1870,1870,1875,,,,,
53096253,1874,1869,1869,1874,,,,,
53098752,1873,1868,1868,1873,,,,,
53101251,1872,1867,1868,1872,,,,,
53103750,1871,1866,1867,1871,,,,,
53106249,1871,1865,1866,1870,,,,,
53108748,1870,1865,1866,1870,,,,,
53111247,1870,1864,1865,1869,,,,,
53113746,1869,1864,1865,1869,,,,,
53116245,1869,1864,1864,1868,,,,,
53118744,1869,1863,1864,1868,,,,,
53121243,1869,1863,1864,1868,,,,,
53123742,1869,1863,1864,1868,,,,,
53126241,1869,1863,1864,1868,,,,,
53128740,1869,1863,1864,1868,,,,,
53131239,1869,1863,1864,1868,,,,,
53133738,1869,1864,1865,1868,,,,,
53136237,1869,1864,1865,1869,,,,,
53138736,1870,1864,1865,1869,,,,,
53141235,1870,1864,1866,1869,,,,,
53143734,1870,1865,1866,1870,,,,,
53146233,1871,1865,1866,1870,,,,,
53148732,1871,1866,1867,1871,,,,,
53151231,1872,1866,1868,1871,,,,,
53153730,1872,1867,1868,1872,,,,,
53156229,1873,1868,1869,1872,,,,,
53158728,1873,1868,1870,1873,,,,,
53161227,1874,1869,1870,1873,,,,,
53163726,1874,1870,1871,1874,,,,,
53166225,1875,1870,1871,1874,,,,,
53168724,1875,1871,1872,1874,,,,,
53171223,1875,1871,1872,1874,,,,,
53173722,1875,1871,1872,1874,,,,,
53176221,1875,1871,1872,1874,,,,,
53178720,1874,1871,1871,1874,,,,,
53181219,1874,1870,1871,1873,,,,,
53183718,1873,1870,1870,1873,,,,,
53186217,1872,1869,1870,1872,,,,,
53188716,1871,1868,1869,1871,,,,,
53191215,1870,1867,1867,1870,,,,,
53193714,1868,1866,1866,1868,,,,,
53196213,1867,1864,1864,1867,,,,,
53198712,1865,1863,1863,1865,,,,,
53201211,1863,1861,1861,1863,,,,,
53203710,1861,1859,1859,1861,,,,,
53206209,1859,1857,1857,1859,,,,,
53208708,1857,1855,1855,1857,,,,,
53211207,1855,1852,1853,1855,,,,,
53213706,1853,1850,1850,1853,,,,,
53216205,1850,1848,1848,1850,,,,,
53218704,1848,1845,1845,1848,,,,,
53221203,1845,1843,1843,1845,,,,,
53223702,1842,1840,1840,1842,,,,,
53226201,1839,1837,1837,1840,,,,,
53228700,1837,1834,1834,1837,,,,,
53231199,1834,1831,1831,1834,,,,,
53233698,1830,1828,1829,1831,,,,,
53236197,1827,1825,1825,1828,,,,,
53238696,1824,1822,1822,1824,,,,,
53241195,1821,1819,1819,1821,,,,,
53243694,1818,1816,1816,1818,,,,,
53246193,1814,1813,1813,1815,,,,,
53248692,1811,1809,1809,1811,,,,,
53251191,1808,1806,1806,1808,,,,,
53253690,1804,1803,1803,1804,,,,,
53256189,1801,1799,1799,1801,,,,,
53258688,1797,1796,1796,1798,,,,,
53261187,1794,1792,1792,1794,,,,,
53263686,1790,1789,1789,1791,,,,,
53266185,1787,1785,1786,1787,,,,,
53268684,1783,1782,1782,1784,,,,,
53271183,1780,1779,1779,1780,,,,,
53273682,1776,1775,1775,1777,,,,,
53276181,1773,1772,1772,1773,,,,,
53278680,1769,1768,1768,1770,,,,,
53281179,1766,1765,1765,1766,,,,,
53283678,1762,1761,1761,1763,,,,,
53286177,1759,1758,1758,1759,,,,,
53288676,1755,1755,1755,1756,,,,,
53291175,1752,1751,1751,1752,,,,,
53293674,1748,1748,1748,1749,,,,,
53296173,1745,1745,1744,1745,,,,,
53298672,1742,1741,1741,1742,,,,,
53301171,1738,1738,1738,1739,,,,,
53303670,1735,1735,1734,1735,,,,,
53306169,1731,1731,1731,1732,,,,,
53308668,1728,1728,1728,1729,,,,,
53311167,1725,1725,1725,1725,,,,,
53313666,1722,1722,1722,1722,,,,,
53316165,1718,1718,1718,1719,,,,,
53318664,1715,1715,1715,1716,,,,,
53321163,1712,1712,1712,1713,,,,,
53323662,1709,1709,1709,1710,,,,,
53326161,1706,1706,1706,1707,,,,,
53328660,1703,1703,1703,1704,,,,,
53331159,1700,1700,1700,1701,,,,,
53333658,1697,1698,1697,1698,,,,,
53336157,1694,1695,1695,1695,,,,,
53338656,1692,1692,1692,1692,,,,,
53341155,1689,1689,1689,1689,,,,,
53343654,1686,1687,1687,1687,,,,,
53346153,1683,1684,1684,1684,,,,,
53348652,1681,1682,1682,1681,,,,,
53351151,1678,1679,1679,1679,,,,,
53353650,1676,1677,1677,1676,,,,,
53356149,1674,1675,1674,1674,,,,,
53358648,1671,1672,1672,1672,,,,,
53361147,1669,1670,1670,1669,,,,,
53363646,1667,1668,1668,1667,,,,,
53366145,1664,1665,1665,1665,,,,,
53368644,1662,1663,1663,1663,,,,,
53371143,1660,1661,1661,1661,,,,,
53373642,1658,1659,1659,1659,,,,,
53376141,1656,1657,1657,1656,,,,,
53378640,1654,1655,1655,1654,,,,,
53381139,1652,1653,1653,1652,,,,,
53383638,1650,1651,1651,1651,,,,,
53386137,1648,1650,1649,1649,,,,,
53388636,1646,1648,1648,1647,,,,,
53391135,1645,1646,1646,1645,,,,,
53393634,1643,1644,1644,1643,,,,,
53396133,1641,1643,1643,1642,,,,,
53398632,1640,1641,1641,1640,,,,,
53401131,1638,1639,1639,1638,,,,,
53403630,1637,1638,1638,1637,,,,,
53406129,1635,1636,1636,1635,,,,,
53408628,1634,1635,1635,1634,,,,,
