timestamp,TimeUS,C1,C2,C3,C4,C5,C6,C7,C8,C9,C10,C11,C12,C13,C14
1706594377.79999995,114028537,1000,1000,1000,1000,0,0,0,0,0,0,0,0,0,0
1706594377.89995980,114128497,1000,1000,1000,1000,0,0,0,0,0,0,0,0,0,0
1706594377.99991989,114228457,1000,1000,1000,1000,0,0,0,0,0,0,0,0,0,0
1706594378.09987998,114328417,1000,1000,1000,1000,0,0,0,0,0,0,0,0,0,0
1706594378.19983983,114428377,1000,1000,1000,1000,0,0,0,0,0,0,0,0,0,0
1706594378.29979992,114528337,1000,1000,1000,1000,0,0,0,0,0,0,0,0,0,0
1706594378.39976001,114628297,1000,1000,1000,1000,0,0,0,0,0,0,0,0,0,0
1706594378.49971986,114728257,1000,1000,1000,1000,0,0,0,0,0,0,0,0,0,0
1706594378.59967995,114828217,1000,1000,1000,1000,0,0,0,0,0,0,0,0,0,0
1706594378.69964004,114928177,1000,1000,1000,1000,0,0,0,0,0,0,0,0,0,0
1706594378.80043292,115028970,1000,1000,1000,1000,0,0,0,0,0,0,0,0,0,0
1706594378.90039301,115128930,1000,1000,1000,1000,0,0,0,0,0,0,0,0,0,0
1706594379.00035286,115228890,1000,1000,1000,1000,0,0,0,0,0,0,0,0,0,0
1706594379.10031295,115328850,1000,1000,1000,1000,0,0,0,0,0,0,0,0,0,0
1706594379.20027280,115428810,1000,1000,1000,1000,0,0,0,0,0,0,0,0,0,0
1706594379.30023289,115528770,1000,1000,1000,1000,0,0,0,0,0,0,0,0,0,0
1706594379.40019298,115628730,1000,1000,1000,1000,0,0,0,0,0,0,0,0,0,0
1706594379.50015283,115728690,1000,1000,1000,1000,0,0,0,0,0,0,0,0,0,0
1706594379.60011292,115828650,1000,1000,1000,1000,0,0,0,0,0,0,0,0,0,0
1706594379.70007300,115928610,1000,1000,1000,1000,0,0,0,0,0,0,0,0,0,0
1706594379.80003285,116028570,1001,1001,1001,1001,0,0,0,0,0,0,0,0,0,0
1706594379.89999294,116128530,1031,1031,1031,1031,0,0,0,0,0,0,0,0,0,0
1706594379.99995303,116228490,1061,1061,1061,1061,0,0,0,0,0,0,0,0,0,0
1706594380.09991288,116328450,1091,1091,1091,1091,0,0,0,0,0,0,0,0,0,0
1706594380.19987297,116428410,1121,1121,1121,1121,0,0,0,0,0,0,0,0,0,0
1706594380.29983282,116528370,1165,1150,1151,1166,0,0,0,0,0,0,0,0,0,0
1706594380.39979291,116628330,1413,1400,1401,1414,0,0,0,0,0,0,0,0,0,0
1706594380.49975300,116728290,1590,1579,1579,1591,0,0,0,0,0,0,0,0,0,0
1706594380.59971285,116828250,1736,1725,1726,1736,0,0,0,0,0,0,0,0,0,0
1706594380.69967294,116928210,1863,1852,1853,1863,0,0,0,0,0,0,0,0,0,0
1706594380.79963303,117028170,1925,1918,1919,1926,0,0,0,0,0,0,0,0,0,0
1706594380.90042591,117128963,1816,1812,1811,1819,0,0,0,0,0,0,0,0,0,0
1706594381.00038600,117228923,1689,1690,1688,1692,0,0,0,0,0,0,0,0,0,0
1706594381.10034585,117328883,1628,1631,1631,1630,0,0,0,0,0,0,0,0,0,0
1706594381.20030594,117428843,1618,1622,1622,1619,0,0,0,0,0,0,0,0,0,0
1706594381.30026603,117528803,1622,1626,1626,1622,0,0,0,0,0,0,0,0,0,0
1706594381.40022588,117628763,1623,1625,1625,1622,0,0,0,0,0,0,0,0,0,0
1706594381.50018597,117728723,1618,1617,1618,1617,0,0,0,0,0,0,0,0,0,0
1706594381.60014582,117828683,1612,1611,1611,1612,0,0,0,0,0,0,0,0,0,0
1706594381.70010591,117928643,1609,1606,1606,1609,0,0,0,0,0,0,0,0,0,0
1706594381.80006599,118028603,1610,1608,1608,1610,0,0,0,0,0,0,0,0,0,0
1706594381.90002584,118128563,1612,1611,1611,1611,0,0,0,0,0,0,0,0,0,0
1706594381.99998593,118228523,1614,1614,1614,1612,0,0,0,0,0,0,0,0,0,0
1706594382.09994602,118328483,1603,1603,1605,1600,0,0,0,0,0,0,0,0,0,0
1706594382.19990587,118428443,1578,1580,1587,1571,0,0,0,0,0,0,0,0,0,0
1706594382.29986596,118528403,1567,1567,1572,1562,0,0,0,0,0,0,0,0,0,0
1706594382.39982581,118628363,1556,1556,1556,1556,0,0,0,0,0,0,0,0,0,0
1706594382.49978590,118728323,1549,1547,1542,1555,0,0,0,0,0,0,0,0,0,0
1706594382.59974599,118828283,1542,1541,1532,1550,0,0,0,0,0,0,0,0,0,0
1706594382.69970584,118928243,1536,1535,1528,1542,0,0,0,0,0,0,0,0,0,0
1706594382.79966593,119028203,1530,1530,1526,1534,0,0,0,0,0,0,0,0,0,0
1706594382.89962602,119128163,1528,1527,1526,1528,0,0,0,0,0,0,0,0,0,0
1706594383.00041890,119228956,1527,1528,1529,1526,0,0,0,0,0,0,0,0,0,0
1706594383.10037899,119328916,1530,1530,1532,1527,0,0,0,0,0,0,0,0,0,0
1706594383.20033884,119428876,1533,1534,1537,1530,0,0,0,0,0,0,0,0,0,0
1706594383.30029893,119528836,1536,1536,1539,1534,0,0,0,0,0,0,0,0,0,0
1706594383.40025902,119628796,1540,1540,1543,1539,0,0,0,0,0,0,0,0,0,0
1706594383.50021887,119728756,1543,1543,1544,1543,0,0,0,0,0,0,0,0,0,0
1706594383.60017896,119828716,1546,1546,1546,1546,0,0,0,0,0,0,0,0,0,0
1706594383.70013881,119928676,1549,1549,1549,1550,0,0,0,0,0,0,0,0,0,0
1706594383.80009890,120028636,1552,1552,1552,1553,0,0,0,0,0,0,0,0,0,0
1706594383.90005898,120128596,1554,1554,1553,1555,0,0,0,0,0,0,0,0,0,0
1706594384.00001884,120228556,1557,1558,1555,1557,0,0,0,0,0,0,0,0,0,0
1706594384.09997892,120328516,1560,1560,1557,1559,0,0,0,0,0,0,0,0,0,0
1706594384.19993901,120428476,1561,1561,1561,1562,0,0,0,0,0,0,0,0,0,0
1706594384.29989886,120528436,1561,1560,1564,1563,0,0,0,0,0,0,0,0,0,0
1706594384.39985895,120628396,1561,1561,1566,1565,0,0,0,0,0,0,0,0,0,0
1706594384.49981880,120728356,1563,1563,1568,1568,0,0,0,0,0,0,0,0,0,0
1706594384.59977889,120828316,1563,1564,1568,1568,0,0,0,0,0,0,0,0,0,0
1706594384.69973898,120928276,1564,1565,1568,1568,0,0,0,0,0,0,0,0,0,0
1706594384.79969883,121028236,1567,1567,1569,1569,0,0,0,0,0,0,0,0,0,0
1706594384.89965892,121128196,1568,1569,1569,1569,0,0,0,0,0,0,0,0,0,0
1706594384.99961901,121228156,1570,1571,1570,1570,0,0,0,0,0,0,0,0,0,0
1706594385.10041189,121328949,1572,1572,1570,1571,0,0,0,0,0,0,0,0,0,0
1706594385.20037198,121428909,1573,1573,1570,1570,0,0,0,0,0,0,0,0,0,0
1706594385.30033183,121528869,1573,1573,1570,1570,0,0,0,0,0,0,0,0,0,0
1706594385.40029192,121628829,1576,1576,1573,1572,0,0,0,0,0,0,0,0,0,0
1706594385.50025201,121728789,1576,1575,1573,1572,0,0,0,0,0,0,0,0,0,0
1706594385.60021186,121828749,1576,1576,1574,1573,0,0,0,0,0,0,0,0,0,0
1706594385.70017195,121928709,1576,1575,1574,1573,0,0,0,0,0,0,0,0,0,0
1706594385.80013204,122028669,1576,1577,1575,1575,0,0,0,0,0,0,0,0,0,0
1706594385.90009189,122128629,1577,1577,1576,1577,0,0,0,0,0,0,0,0,0,0
1706594386.00005198,122228589,1576,1577,1577,1577,0,0,0,0,0,0,0,0,0,0
1706594386.10001183,122328549,1576,1576,1576,1577,0,0,0,0,0,0,0,0,0,0
1706594386.19997191,122428509,1577,1577,1577,1578,0,0,0,0,0,0,0,0,0,0
1706594386.29993200,122528469,1577,1576,1577,1577,0,0,0,0,0,0,0,0,0,0
1706594386.39989185,122628429,1577,1577,1578,1578,0,0,0,0,0,0,0,0,0,0
1706594386.49985194,122728389,1577,1577,1578,1578,0,0,0,0,0,0,0,0,0,0
1706594386.59981203,122828349,1577,1577,1578,1578,0,0,0,0,0,0,0,0,0,0
1706594386.69977188,122928309,1576,1577,1577,1577,0,0,0,0,0,0,0,0,0,0
1706594386.79973197,123028269,1577,1578,1577,1578,0,0,0,0,0,0,0,0,0,0
1706594386.89969182,123128229,1577,1577,1577,1577,0,0,0,0,0,0,0,0,0,0
1706594386.99965191,123228189,1578,1577,1577,1577,0,0,0,0,0,0,0,0,0,0
1706594387.10044503,123328982,1578,1578,1578,1578,0,0,0,0,0,0,0,0,0,0
1706594387.20040488,123428942,1578,1578,1577,1578,0,0,0,0,0,0,0,0,0,0
1706594387.30036497,123528902,1579,1578,1578,1578,0,0,0,0,0,0,0,0,0,0
1706594387.40032482,123628862,1579,1579,1579,1578,0,0,0,0,0,0,0,0,0,0
1706594387.50028491,123728822,1578,1579,1578,1579,0,0,0,0,0,0,0,0,0,0
1706594387.60024500,123828782,1579,1579,1579,1579,0,0,0,0,0,0,0,0,0,0
1706594387.70020485,123928742,1578,1579,1579,1579,0,0,0,0,0,0,0,0,0,0
1706594387.80016494,124028702,1579,1579,1579,1579,0,0,0,0,0,0,0,0,0,0
1706594387.90012503,124128662,1579,1579,1579,1579,0,0,0,0,0,0,0,0,0,0
1706594388.00008488,124228622,1579,1578,1579,1578,0,0,0,0,0,0,0,0,0,0
1706594388.10004497,124328582,1578,1578,1578,1578,0,0,0,0,0,0,0,0,0,0
1706594388.20000482,124428542,1579,1579,1579,1579,0,0,0,0,0,0,0,0,0,0
1706594388.29996490,124528502,1579,1579,1579,1580,0,0,0,0,0,0,0,0,0,0
1706594388.39992499,124628462,1579,1580,1580,1579,0,0,0,0,0,0,0,0,0,0
1706594388.49988484,124728422,1580,1580,1580,1580,0,0,0,0,0,0,0,0,0,0
1706594388.59984493,124828382,1579,1580,1579,1580,0,0,0,0,0,0,0,0,0,0
1706594388.69980502,124928342,1580,1579,1579,1580,0,0,0,0,0,0,0,0,0,0
1706594388.79976487,125028302,1581,1580,1580,1580,0,0,0,0,0,0,0,0,0,0
1706594388.89972496,125128262,1581,1581,1581,1581,0,0,0,0,0,0,0,0,0,0
1706594388.99968481,125228222,1581,1581,1581,1581,0,0,0,0,0,0,0,0,0,0
1706594389.09964490,125328182,1580,1581,1580,1581,0,0,0,0,0,0,0,0,0,0
1706594389.20043802,125428975,1580,1580,1580,1580,0,0,0,0,0,0,0,0,0,0
1706594389.30039787,125528935,1580,1581,1581,1581,0,0,0,0,0,0,0,0,0,0
1706594389.40035796,125628895,1581,1581,1581,1581,0,0,0,0,0,0,0,0,0,0
1706594389.50031781,125728855,1580,1580,1580,1581,0,0,0,0,0,0,0,0,0,0
1706594389.60027790,125828815,1580,1580,1580,1580,0,0,0,0,0,0,0,0,0,0
1706594389.70023799,125928775,1580,1580,1580,1580,0,0,0,0,0,0,0,0,0,0
1706594389.80019784,126028735,1580,1580,1580,1580,0,0,0,0,0,0,0,0,0,0
1706594389.90015793,126128695,1580,1580,1580,1580,0,0,0,0,0,0,0,0,0,0
1706594390.00011802,126228655,1580,1581,1581,1581,0,0,0,0,0,0,0,0,0,0
1706594390.10007787,126328615,1581,1581,1581,1581,0,0,0,0,0,0,0,0,0,0
1706594390.20003796,126428575,1581,1582,1586,1575,0,0,0,0,0,0,0,0,0,0
1706594390.29999781,126528535,1581,1583,1588,1573,0,0,0,0,0,0,0,0,0,0
1706594390.39995790,126628495,1579,1582,1580,1574,0,0,0,0,0,0,0,0,0,0
1706594390.49991798,126728455,1578,1581,1571,1573,0,0,0,0,0,0,0,0,0,0
1706594390.59987783,126828415,1577,1579,1563,1569,0,0,0,0,0,0,0,0,0,0
1706594390.69983792,126928375,1577,1579,1557,1564,0,0,0,0,0,0,0,0,0,0
1706594390.79979801,127028335,1579,1580,1556,1560,0,0,0,0,0,0,0,0,0,0
1706594390.89975786,127128295,1581,1579,1555,1556,0,0,0,0,0,0,0,0,0,0
1706594390.99971795,127228255,1580,1578,1555,1553,0,0,0,0,0,0,0,0,0,0
1706594391.09967780,127328215,1580,1579,1556,1553,0,0,0,0,0,0,0,0,0,0
1706594391.19963789,127428175,1579,1579,1556,1554,0,0,0,0,0,0,0,0,0,0
1706594391.30043101,127528968,1578,1578,1555,1554,0,0,0,0,0,0,0,0,0,0
1706594391.40039086,127628928,1577,1579,1555,1554,0,0,0,0,0,0,0,0,0,0
1706594391.50035095,127728888,1575,1577,1552,1552,0,0,0,0,0,0,0,0,0,0
1706594391.60031080,127828848,1576,1578,1552,1552,0,0,0,0,0,0,0,0,0,0
1706594391.70027089,127928808,1576,1578,1549,1549,0,0,0,0,0,0,0,0,0,0
1706594391.80023098,128028768,1579,1580,1547,1548,0,0,0,0,0,0,0,0,0,0
1706594391.90019083,128128728,1582,1582,1546,1546,0,0,0,0,0,0,0,0,0,0
1706594392.00015092,128228688,1584,1585,1543,1542,0,0,0,0,0,0,0,0,0,0
1706594392.10011101,128328648,1588,1588,1541,1540,0,0,0,0,0,0,0,0,0,0
1706594392.20007086,128428608,1591,1591,1538,1538,0,0,0,0,0,0,0,0,0,0
1706594392.30003095,128528568,1594,1594,1536,1537,0,0,0,0,0,0,0,0,0,0
1706594392.39999104,128628528,1596,1596,1535,1537,0,0,0,0,0,0,0,0,0,0
1706594392.49995089,128728488,1596,1596,1536,1537,0,0,0,0,0,0,0,0,0,0
1706594392.59991097,128828448,1595,1595,1537,1539,0,0,0,0,0,0,0,0,0,0
1706594392.69987082,128928408,1593,1593,1541,1543,0,0,0,0,0,0,0,0,0,0
1706594392.79983091,129028368,1590,1588,1546,1549,0,0,0,0,0,0,0,0,0,0
1706594392.89979100,129128328,1584,1580,1554,1558,0,0,0,0,0,0,0,0,0,0
1706594392.99975085,129228288,1575,1571,1566,1568,0,0,0,0,0,0,0,0,0,0
1706594393.09971094,129328248,1564,1559,1577,1579,0,0,0,0,0,0,0,0,0,0
1706594393.19967103,129428208,1551,1548,1589,1590,0,0,0,0,0,0,0,0,0,0
1706594393.29963088,129528168,1541,1539,1601,1601,0,0,0,0,0,0,0,0,0,0
1706594393.40042400,129628961,1533,1533,1609,1609,0,0,0,0,0,0,0,0,0,0
1706594393.50038385,129728921,1529,1530,1615,1614,0,0,0,0,0,0,0,0,0,0
1706594393.60034394,129828881,1529,1532,1617,1616,0,0,0,0,0,0,0,0,0,0
1706594393.70030403,129928841,1532,1535,1614,1613,0,0,0,0,0,0,0,0,0,0
1706594393.80026388,130028801,1538,1541,1609,1609,0,0,0,0,0,0,0,0,0,0
1706594393.90022397,130128761,1546,1547,1602,1602,0,0,0,0,0,0,0,0,0,0
1706594394.00018382,130228721,1556,1556,1595,1595,0,0,0,0,0,0,0,0,0,0
1706594394.10014391,130328681,1565,1565,1588,1587,0,0,0,0,0,0,0,0,0,0
1706594394.20010400,130428641,1573,1572,1581,1580,0,0,0,0,0,0,0,0,0,0
1706594394.30006385,130528601,1579,1578,1574,1573,0,0,0,0,0,0,0,0,0,0
1706594394.40002394,130628561,1584,1583,1570,1569,0,0,0,0,0,0,0,0,0,0
1706594394.49998403,130728521,1587,1585,1567,1567,0,0,0,0,0,0,0,0,0,0
1706594394.59994388,130828481,1587,1586,1565,1565,0,0,0,0,0,0,0,0,0,0
1706594394.69990396,130928441,1587,1586,1566,1566,0,0,0,0,0,0,0,0,0,0
1706594394.79986382,131028401,1587,1586,1569,1569,0,0,0,0,0,0,0,0,0,0
1706594394.89982390,131128361,1583,1582,1571,1571,0,0,0,0,0,0,0,0,0,0
1706594394.99978399,131228321,1582,1582,1576,1576,0,0,0,0,0,0,0,0,0,0
1706594395.09974384,131328281,1578,1578,1577,1577,0,0,0,0,0,0,0,0,0,0
1706594395.19970393,131428241,1575,1575,1580,1579,0,0,0,0,0,0,0,0,0,0
1706594395.29966402,131528201,1573,1574,1582,1582,0,0,0,0,0,0,0,0,0,0
1706594395.39962387,131628161,1571,1572,1582,1583,0,0,0,0,0,0,0,0,0,0
1706594395.50041699,131728954,1573,1574,1585,1585,0,0,0,0,0,0,0,0,0,0
1706594395.60037684,131828914,1572,1572,1583,1583,0,0,0,0,0,0,0,0,0,0
1706594395.70033693,131928874,1572,1572,1582,1582,0,0,0,0,0,0,0,0,0,0
1706594395.80029702,132028834,1573,1574,1581,1581,0,0,0,0,0,0,0,0,0,0
1706594395.90025687,132128794,1576,1576,1581,1581,0,0,0,0,0,0,0,0,0,0
1706594396.00021696,132228754,1576,1576,1579,1579,0,0,0,0,0,0,0,0,0,0
1706594396.10017681,132328714,1578,1578,1578,1578,0,0,0,0,0,0,0,0,0,0
1706594396.20013690,132428674,1580,1580,1577,1577,0,0,0,0,0,0,0,0,0,0
1706594396.30009699,132528634,1580,1579,1576,1576,0,0,0,0,0,0,0,0,0,0
1706594396.40005684,132628594,1581,1581,1577,1576,0,0,0,0,0,0,0,0,0,0
1706594396.50001693,132728554,1581,1580,1576,1576,0,0,0,0,0,0,0,0,0,0
1706594396.59997702,132828514,1581,1581,1577,1577,0,0,0,0,0,0,0,0,0,0
1706594396.69993687,132928474,1581,1580,1577,1578,0,0,0,0,0,0,0,0,0,0
1706594396.79989696,133028434,1581,1581,1579,1578,0,0,0,0,0,0,0,0,0,0
1706594396.89985681,133128394,1579,1579,1578,1578,0,0,0,0,0,0,0,0,0,0
1706594396.99981689,133228354,1580,1580,1580,1580,0,0,0,0,0,0,0,0,0,0
1706594397.09977698,133328314,1579,1579,1580,1580,0,0,0,0,0,0,0,0,0,0
1706594397.19973683,133428274,1579,1580,1581,1581,0,0,0,0,0,0,0,0,0,0
1706594397.29969692,133528234,1579,1579,1581,1581,0,0,0,0,0,0,0,0,0,0
1706594397.39965701,133628194,1580,1580,1581,1582,0,0,0,0,0,0,0,0,0,0
1706594397.49961686,133728154,1384,1384,1466,1579,0,0,0,0,0,0,0,0,0,0
1706594397.60040998,133828947,1488,1486,1592,1590,0,0,0,0,0,0,0,0,0,0
1706594397.70036983,133928907,1545,1538,1650,1558,0,0,0,0,0,0,0,0,0,0
1706594397.80032992,134028867,1916,1911,1944,1688,0,0,0,0,0,0,0,0,0,0
1706594397.90029001,134128827,1884,1876,1851,1708,0,0,0,0,0,0,0,0,0,0
1706594398.00024986,134228787,1761,1753,1632,1666,0,0,0,0,0,0,0,0,0,0
1706594398.10020995,134328747,1680,1676,1493,1661,0,0,0,0,0,0,0,0,0,0
1706594398.20016980,134428707,1634,1641,1480,1645,0,0,0,0,0,0,0,0,0,0
1706594398.30012989,134528667,1601,1617,1509,1608,0,0,0,0,0,0,0,0,0,0
1706594398.40008998,134628627,1571,1587,1538,1560,0,0,0,0,0,0,0,0,0,0
1706594398.50004983,134728587,1549,1559,1559,1528,0,0,0,0,0,0,0,0,0,0
1706594398.60000992,134828547,1539,1544,1575,1521,0,0,0,0,0,0,0,0,0,0
1706594398.69997001,134928507,1538,1537,1580,1532,0,0,0,0,0,0,0,0,0,0
1706594398.79992986,135028467,1540,1535,1577,1547,0,0,0,0,0,0,0,0,0,0
1706594398.89988995,135128427,1540,1535,1567,1559,0,0,0,0,0,0,0,0,0,0
1706594398.99985003,135228387,1540,1538,1557,1563,0,0,0,0,0,0,0,0,0,0
1706594399.09980989,135328347,1544,1544,1550,1562,0,0,0,0,0,0,0,0,0,0
1706594399.19976997,135428307,1549,1550,1545,1557,0,0,0,0,0,0,0,0,0,0
1706594399.29972982,135528267,1556,1558,1544,1551,0,0,0,0,0,0,0,0,0,0
1706594399.39968991,135628227,1564,1566,1543,1544,0,0,0,0,0,0,0,0,0,0
1706594399.49965000,135728187,1572,1573,1542,1539,0,0,0,0,0,0,0,0,0,0
1706594399.60044289,135828980,1580,1580,1543,1537,0,0,0,0,0,0,0,0,0,0
1706594399.70040298,135928940,1584,1584,1541,1537,0,0,0,0,0,0,0,0,0,0
1706594399.80036283,136028900,1587,1587,1540,1537,0,0,0,0,0,0,0,0,0,0
1706594399.90032291,136128860,1589,1589,1539,1538,0,0,0,0,0,0,0,0,0,0
1706594400.00028300,136228820,1590,1590,1539,1540,0,0,0,0,0,0,0,0,0,0
1706594400.10024285,136328780,1590,1590,1540,1542,0,0,0,0,0,0,0,0,0,0
1706594400.20020294,136428740,1589,1591,1542,1543,0,0,0,0,0,0,0,0,0,0
1706594400.30016303,136528700,1589,1590,1542,1544,0,0,0,0,0,0,0,0,0,0
1706594400.40012288,136628660,1589,1590,1545,1547,0,0,0,0,0,0,0,0,0,0
1706594400.50008297,136728620,1587,1588,1549,1550,0,0,0,0,0,0,0,0,0,0
1706594400.60004282,136828580,1585,1584,1553,1554,0,0,0,0,0,0,0,0,0,0
1706594400.70000291,136928540,1581,1579,1559,1560,0,0,0,0,0,0,0,0,0,0
1706594400.79996300,137028500,1575,1573,1565,1566,0,0,0,0,0,0,0,0,0,0
1706594400.89992285,137128460,1570,1567,1573,1575,0,0,0,0,0,0,0,0,0,0
1706594400.99988294,137228420,1563,1561,1581,1583,0,0,0,0,0,0,0,0,0,0
1706594401.09984303,137328380,1556,1555,1589,1590,0,0,0,0,0,0,0,0,0,0
1706594401.19980288,137428340,1550,1549,1595,1595,0,0,0,0,0,0,0,0,0,0
1706594401.29976296,137528300,1547,1546,1600,1599,0,0,0,0,0,0,0,0,0,0
1706594401.39972281,137628260,1545,1546,1602,1602,0,0,0,0,0,0,0,0,0,0
1706594401.49968290,137728220,1545,1546,1602,1602,0,0,0,0,0,0,0,0,0,0
1706594401.59964299,137828180,1548,1550,1602,1601,0,0,0,0,0,0,0,0,0,0
1706594401.70043588,137928973,1553,1554,1600,1599,0,0,0,0,0,0,0,0,0,0
1706594401.80039597,138028933,1557,1558,1595,1594,0,0,0,0,0,0,0,0,0,0
1706594401.90035582,138128893,1563,1564,1591,1590,0,0,0,0,0,0,0,0,0,0
1706594402.00031590,138228853,1568,1568,1586,1586,0,0,0,0,0,0,0,0,0,0
1706594402.10027599,138328813,1572,1572,1581,1581,0,0,0,0,0,0,0,0,0,0
1706594402.20023584,138428773,1577,1577,1577,1577,0,0,0,0,0,0,0,0,0,0
1706594402.30019593,138528733,1580,1579,1574,1574,0,0,0,0,0,0,0,0,0,0
1706594402.40015602,138628693,1582,1581,1573,1573,0,0,0,0,0,0,0,0,0,0
1706594402.50011587,138728653,1584,1582,1573,1573,0,0,0,0,0,0,0,0,0,0
1706594402.60007596,138828613,1583,1582,1572,1572,0,0,0,0,0,0,0,0,0,0
1706594402.70003581,138928573,1583,1583,1575,1575,0,0,0,0,0,0,0,0,0,0
1706594402.79999590,139028533,1581,1581,1576,1576,0,0,0,0,0,0,0,0,0,0
1706594402.89995599,139128493,1579,1580,1577,1577,0,0,0,0,0,0,0,0,0,0
1706594402.99991584,139228453,1578,1578,1579,1579,0,0,0,0,0,0,0,0,0,0
1706594403.09987593,139328413,1577,1578,1581,1581,0,0,0,0,0,0,0,0,0,0
1706594403.19983602,139428373,1576,1577,1583,1582,0,0,0,0,0,0,0,0,0,0
1706594403.29979587,139528333,1576,1576,1583,1583,0,0,0,0,0,0,0,0,0,0
1706594403.39975595,139628293,1576,1575,1583,1583,0,0,0,0,0,0,0,0,0,0
1706594403.49971581,139728253,1576,1576,1583,1583,0,0,0,0,0,0,0,0,0,0
1706594403.59967589,139828213,1575,1575,1582,1581,0,0,0,0,0,0,0,0,0,0
1706594403.69963598,139928173,1576,1576,1581,1582,0,0,0,0,0,0,0,0,0,0
1706594403.80042887,140028966,1577,1577,1580,1581,0,0,0,0,0,0,0,0,0,0
1706594403.90038896,140128926,1578,1578,1580,1580,0,0,0,0,0,0,0,0,0,0
1706594404.00034881,140228886,1580,1579,1580,1580,0,0,0,0,0,0,0,0,0,0
1706594404.10030890,140328846,1579,1580,1579,1579,0,0,0,0,0,0,0,0,0,0
1706594404.20026898,140428806,1581,1581,1580,1580,0,0,0,0,0,0,0,0,0,0
1706594404.30022883,140528766,1581,1581,1579,1579,0,0,0,0,0,0,0,0,0,0
1706594404.40018892,140628726,1581,1581,1578,1579,0,0,0,0,0,0,0,0,0,0
1706594404.50014901,140728686,1581,1581,1579,1579,0,0,0,0,0,0,0,0,0,0
1706594404.60010886,140828646,1580,1580,1578,1578,0,0,0,0,0,0,0,0,0,0
1706594404.70006895,140928606,1581,1580,1579,1579,0,0,0,0,0,0,0,0,0,0
1706594404.80002880,141028566,1580,1580,1580,1579,0,0,0,0,0,0,0,0,0,0
1706594404.89998889,141128526,1579,1579,1580,1579,0,0,0,0,0,0,0,0,0,0
1706594404.99994898,141228486,1579,1580,1580,1580,0,0,0,0,0,0,0,0,0,0
1706594405.09990883,141328446,1580,1580,1580,1581,0,0,0,0,0,0,0,0,0,0
1706594405.19986892,141428406,1579,1579,1581,1580,0,0,0,0,0,0,0,0,0,0
1706594405.29982901,141528366,1580,1580,1581,1581,0,0,0,0,0,0,0,0,0,0
1706594405.39978886,141628326,1579,1579,1580,1581,0,0,0,0,0,0,0,0,0,0
1706594405.49974895,141728286,1580,1579,1580,1580,0,0,0,0,0,0,0,0,0,0
1706594405.59970903,141828246,1580,1579,1580,1580,0,0,0,0,0,0,0,0,0,0
1706594405.69966888,141928206,1580,1579,1580,1580,0,0,0,0,0,0,0,0,0,0
1706594405.79962897,142028166,1579,1579,1580,1580,0,0,0,0,0,0,0,0,0,0
1706594405.90042186,142128959,1580,1581,1580,1580,0,0,0,0,0,0,0,0,0,0
1706594406.00038195,142228919,1582,1581,1581,1581,0,0,0,0,0,0,0,0,0,0
1706594406.10034204,142328879,1581,1581,1581,1581,0,0,0,0,0,0,0,0,0,0
1706594406.20030189,142428839,1582,1582,1582,1581,0,0,0,0,0,0,0,0,0,0
1706594406.30026197,142528799,1581,1583,1588,1573,0,0,0,0,0,0,0,0,0,0
1706594406.40022182,142628759,1580,1584,1583,1572,0,0,0,0,0,0,0,0,0,0
1706594406.50018191,142728719,1579,1583,1575,1572,0,0,0,0,0,0,0,0,0,0
1706594406.60014200,142828679,1578,1581,1566,1570,0,0,0,0,0,0,0,0,0,0
1706594406.70010185,142928639,1579,1580,1559,1567,0,0,0,0,0,0,0,0,0,0
1706594406.80006194,143028599,1581,1581,1557,1563,0,0,0,0,0,0,0,0,0,0
1706594406.90002203,143128559,1580,1579,1554,1557,0,0,0,0,0,0,0,0,0,0
1706594406.99998188,143228519,1581,1580,1554,1555,0,0,0,0,0,0,0,0,0,0
1706594407.09994197,143328479,1582,1580,1556,1554,0,0,0,0,0,0,0,0,0,0
1706594407.19990182,143428439,1580,1580,1556,1553,0,0,0,0,0,0,0,0,0,0
1706594407.29986191,143528399,1579,1580,1556,1554,0,0,0,0,0,0,0,0,0,0
1706594407.39982200,143628359,1578,1579,1556,1555,0,0,0,0,0,0,0,0,0,0
1706594407.49978185,143728319,1576,1578,1554,1554,0,0,0,0,0,0,0,0,0,0
1706594407.59974194,143828279,1576,1578,1553,1554,0,0,0,0,0,0,0,0,0,0
1706594407.69970202,143928239,1576,1577,1551,1552,0,0,0,0,0,0,0,0,0,0
1706594407.79966187,144028199,1577,1579,1550,1550,0,0,0,0,0,0,0,0,0,0
1706594407.89962196,144128159,1579,1580,1549,1549,0,0,0,0,0,0,0,0,0,0
1706594408.00041485,144228952,1581,1582,1546,1546,0,0,0,0,0,0,0,0,0,0
1706594408.10037494,144328912,1584,1585,1544,1544,0,0,0,0,0,0,0,0,0,0
1706594408.20033503,144428872,1586,1587,1542,1542,0,0,0,0,0,0,0,0,0,0
1706594408.30029488,144528832,1590,1589,1540,1541,0,0,0,0,0,0,0,0,0,0
1706594408.40025496,144628792,1591,1591,1539,1539,0,0,0,0,0,0,0,0,0,0
1706594408.50021482,144728752,1592,1593,1538,1539,0,0,0,0,0,0,0,0,0,0
1706594408.60017490,144828712,1593,1594,1538,1540,0,0,0,0,0,0,0,0,0,0
1706594408.70013499,144928672,1593,1593,1541,1543,0,0,0,0,0,0,0,0,0,0
1706594408.80009484,145028632,1591,1590,1546,1548,0,0,0,0,0,0,0,0,0,0
1706594408.90005493,145128592,1586,1583,1552,1554,0,0,0,0,0,0,0,0,0,0
1706594409.00001502,145228552,1579,1575,1561,1564,0,0,0,0,0,0,0,0,0,0
1706594409.09997487,145328512,1570,1565,1572,1574,0,0,0,0,0,0,0,0,0,0
1706594409.19993496,145428472,1559,1556,1584,1585,0,0,0,0,0,0,0,0,0,0
1706594409.29989481,145528432,1549,1547,1595,1595,0,0,0,0,0,0,0,0,0,0
1706594409.39985490,145628392,1541,1541,1603,1603,0,0,0,0,0,0,0,0,0,0
1706594409.49981499,145728352,1536,1537,1610,1609,0,0,0,0,0,0,0,0,0,0
1706594409.59977484,145828312,1534,1536,1612,1611,0,0,0,0,0,0,0,0,0,0
1706594409.69973493,145928272,1536,1538,1612,1612,0,0,0,0,0,0,0,0,0,0
1706594409.79969501,146028232,1541,1543,1610,1610,0,0,0,0,0,0,0,0,0,0
1706594409.89965487,146128192,1547,1548,1605,1604,0,0,0,0,0,0,0,0,0,0
1706594410.00044799,146228985,1554,1555,1598,1597,0,0,0,0,0,0,0,0,0,0
1706594410.10040784,146328945,1562,1562,1591,1590,0,0,0,0,0,0,0,0,0,0
1706594410.20036793,146428905,1570,1569,1584,1584,0,0,0,0,0,0,0,0,0,0
1706594410.30032802,146528865,1577,1576,1579,1579,0,0,0,0,0,0,0,0,0,0
1706594410.40028787,146628825,1581,1580,1573,1573,0,0,0,0,0,0,0,0,0,0
1706594410.50024796,146728785,1584,1583,1569,1569,0,0,0,0,0,0,0,0,0,0
1706594410.60020781,146828745,1586,1585,1568,1568,0,0,0,0,0,0,0,0,0,0
1706594410.70016789,146928705,1586,1585,1567,1568,0,0,0,0,0,0,0,0,0,0
1706594410.80012798,147028665,1586,1585,1569,1569,0,0,0,0,0,0,0,0,0,0
1706594410.90008783,147128625,1584,1584,1571,1571,0,0,0,0,0,0,0,0,0,0
1706594411.00004792,147228585,1582,1583,1575,1574,0,0,0,0,0,0,0,0,0,0
1706594411.10000801,147328545,1579,1579,1577,1576,0,0,0,0,0,0,0,0,0,0
1706594411.19996786,147428505,1577,1577,1579,1579,0,0,0,0,0,0,0,0,0,0
1706594411.29992795,147528465,1574,1574,1580,1580,0,0,0,0,0,0,0,0,0,0
1706594411.39988780,147628425,1573,1574,1582,1582,0,0,0,0,0,0,0,0,0,0
1706594411.49984789,147728385,1573,1574,1583,1583,0,0,0,0,0,0,0,0,0,0
1706594411.59980798,147828345,1574,1574,1584,1584,0,0,0,0,0,0,0,0,0,0
1706594411.69976783,147928305,1573,1574,1583,1583,0,0,0,0,0,0,0,0,0,0
1706594411.79972792,148028265,1574,1575,1582,1582,0,0,0,0,0,0,0,0,0,0
1706594411.89968801,148128225,1576,1576,1582,1581,0,0,0,0,0,0,0,0,0,0
1706594411.99964786,148228185,1576,1577,1580,1580,0,0,0,0,0,0,0,0,0,0
1706594412.10044098,148328978,1578,1578,1579,1579,0,0,0,0,0,0,0,0,0,0
1706594412.20040083,148428938,1580,1579,1579,1579,0,0,0,0,0,0,0,0,0,0
1706594412.30036092,148528898,1581,1579,1578,1578,0,0,0,0,0,0,0,0,0,0
1706594412.40032101,148628858,1580,1579,1576,1576,0,0,0,0,0,0,0,0,0,0
1706594412.50028086,148728818,1581,1581,1577,1577,0,0,0,0,0,0,0,0,0,0
1706594412.60024095,148828778,1581,1581,1578,1577,0,0,0,0,0,0,0,0,0,0
1706594412.70020103,148928738,1581,1581,1577,1578,0,0,0,0,0,0,0,0,0,0
1706594412.80016088,149028698,1581,1581,1579,1578,0,0,0,0,0,0,0,0,0,0
1706594412.90012097,149128658,1581,1581,1580,1580,0,0,0,0,0,0,0,0,0,0
1706594413.00008082,149228618,1580,1580,1580,1580,0,0,0,0,0,0,0,0,0,0
1706594413.10004091,149328578,1580,1580,1580,1580,0,0,0,0,0,0,0,0,0,0
1706594413.20000100,149428538,1580,1580,1581,1581,0,0,0,0,0,0,0,0,0,0
1706594413.29996085,149528498,1580,1580,1581,1582,0,0,0,0,0,0,0,0,0,0
1706594413.39992094,149628458,1580,1580,1581,1581,0,0,0,0,0,0,0,0,0,0
1706594413.49988103,149728418,1580,1580,1582,1582,0,0,0,0,0,0,0,0,0,0
1706594413.59984088,149828378,1578,1578,1580,1580,0,0,0,0,0,0,0,0,0,0
1706594413.69980097,149928338,1580,1580,1582,1582,0,0,0,0,0,0,0,0,0,0
1706594413.79976082,150028298,1580,1580,1580,1581,0,0,0,0,0,0,0,0,0,0
1706594413.89972091,150128258,1580,1580,1581,1580,0,0,0,0,0,0,0,0,0,0
1706594413.99968100,150228218,1581,1580,1581,1580,0,0,0,0,0,0,0,0,0,0
1706594414.09964085,150328178,1581,1581,1583,1576,0,0,0,0,0,0,0,0,0,0
1706594414.20043397,150428971,1580,1581,1586,1571,0,0,0,0,0,0,0,0,0,0
1706594414.30039382,150528931,1578,1579,1580,1573,0,0,0,0,0,0,0,0,0,0
1706594414.40035391,150628891,1575,1574,1572,1573,0,0,0,0,0,0,0,0,0,0
1706594414.50031400,150728851,1572,1571,1567,1574,0,0,0,0,0,0,0,0,0,0
1706594414.60027385,150828811,1571,1570,1566,1573,0,0,0,0,0,0,0,0,0,0
1706594414.70023394,150928771,1568,1568,1565,1570,0,0,0,0,0,0,0,0,0,0
1706594414.80019403,151028731,1566,1566,1565,1567,0,0,0,0,0,0,0,0,0,0
1706594414.90015388,151128691,1566,1566,1566,1566,0,0,0,0,0,0,0,0,0,0
1706594415.00011396,151228651,1566,1566,1567,1565,0,0,0,0,0,0,0,0,0,0
1706594415.10007381,151328611,1566,1566,1567,1565,0,0,0,0,0,0,0,0,0,0
1706594415.20003390,151428571,1565,1566,1567,1565,0,0,0,0,0,0,0,0,0,0
1706594415.29999399,151528531,1565,1564,1566,1565,0,0,0,0,0,0,0,0,0,0
1706594415.39995384,151628491,1563,1563,1564,1564,0,0,0,0,0,0,0,0,0,0
1706594415.49991393,151728451,1563,1562,1563,1563,0,0,0,0,0,0,0,0,0,0
1706594415.59987402,151828411,1561,1562,1562,1562,0,0,0,0,0,0,0,0,0,0
1706594415.69983387,151928371,1562,1562,1562,1562,0,0,0,0,0,0,0,0,0,0
1706594415.79979396,152028331,1562,1562,1562,1562,0,0,0,0,0,0,0,0,0,0
1706594415.89975381,152128291,1562,1561,1562,1562,0,0,0,0,0,0,0,0,0,0
1706594415.99971390,152228251,1561,1561,1561,1560,0,0,0,0,0,0,0,0,0,0
1706594416.09967399,152328211,1560,1560,1560,1559,0,0,0,0,0,0,0,0,0,0
1706594416.19963384,152428171,1559,1559,1559,1558,0,0,0,0,0,0,0,0,0,0
1706594416.30042696,152528964,1558,1558,1558,1558,0,0,0,0,0,0,0,0,0,0
1706594416.40038681,152628924,1556,1558,1537,1576,0,0,0,0,0,0,0,0,0,0
1706594416.50034690,152728884,1555,1555,1565,1543,0,0,0,0,0,0,0,0,0,0
1706594416.60030699,152828844,1552,1551,1566,1537,0,0,0,0,0,0,0,0,0,0
1706594416.70026684,152928804,1548,1547,1554,1542,0,0,0,0,0,0,0,0,0,0
1706594416.80022693,153028764,1542,1542,1541,1544,0,0,0,0,0,0,0,0,0,0
1706594416.90018702,153128724,1536,1537,1530,1544,0,0,0,0,0,0,0,0,0,0
1706594417.00014687,153228684,1530,1530,1523,1538,0,0,0,0,0,0,0,0,0,0
1706594417.10010695,153328644,1524,1525,1518,1531,0,0,0,0,0,0,0,0,0,0
1706594417.20006680,153428604,1522,1522,1519,1524,0,0,0,0,0,0,0,0,0,0
1706594417.30002689,153528564,1522,1522,1521,1522,0,0,0,0,0,0,0,0,0,0
1706594417.39998698,153628524,1524,1523,1524,1522,0,0,0,0,0,0,0,0,0,0
1706594417.49994683,153728484,1526,1525,1526,1524,0,0,0,0,0,0,0,0,0,0
1706594417.59990692,153828444,1530,1529,1530,1529,0,0,0,0,0,0,0,0,0,0
1706594417.69986701,153928404,1533,1533,1533,1533,0,0,0,0,0,0,0,0,0,0
1706594417.79982686,154028364,1539,1539,1539,1539,0,0,0,0,0,0,0,0,0,0
1706594417.89978695,154128324,1541,1541,1540,1542,0,0,0,0,0,0,0,0,0,0
1706594417.99974680,154228284,1543,1543,1543,1544,0,0,0,0,0,0,0,0,0,0
1706594418.09970689,154328244,1545,1545,1544,1546,0,0,0,0,0,0,0,0,0,0
1706594418.19966698,154428204,1545,1546,1545,1546,0,0,0,0,0,0,0,0,0,0
1706594418.29962683,154528164,1546,1546,1546,1547,0,0,0,0,0,0,0,0,0,0
1706594418.40041995,154628957,1546,1546,1547,1547,0,0,0,0,0,0,0,0,0,0
1706594418.50037980,154728917,1546,1546,1546,1546,0,0,0,0,0,0,0,0,0,0
1706594418.60033989,154828877,1547,1547,1547,1547,0,0,0,0,0,0,0,0,0,0
1706594418.70029998,154928837,1546,1546,1546,1546,0,0,0,0,0,0,0,0,0,0
1706594418.80025983,155028797,1545,1546,1546,1545,0,0,0,0,0,0,0,0,0,0
1706594418.90021992,155128757,1546,1546,1546,1547,0,0,0,0,0,0,0,0,0,0
1706594419.00018001,155228717,1545,1545,1545,1545,0,0,0,0,0,0,0,0,0,0
1706594419.10013986,155328677,1544,1545,1544,1545,0,0,0,0,0,0,0,0,0,0
1706594419.20009995,155428637,1544,1545,1545,1544,0,0,0,0,0,0,0,0,0,0
1706594419.30006003,155528597,1545,1545,1545,1545,0,0,0,0,0,0,0,0,0,0
1706594419.40001988,155628557,1544,1544,1544,1544,0,0,0,0,0,0,0,0,0,0
1706594419.49997997,155728517,1545,1544,1545,1545,0,0,0,0,0,0,0,0,0,0
1706594419.59993982,155828477,1544,1544,1544,1544,0,0,0,0,0,0,0,0,0,0
1706594419.69989991,155928437,1544,1544,1545,1544,0,0,0,0,0,0,0,0,0,0
1706594419.79986000,156028397,1543,1544,1544,1543,0,0,0,0,0,0,0,0,0,0
1706594419.89981985,156128357,1543,1543,1543,1543,0,0,0,0,0,0,0,0,0,0
1706594419.99977994,156228317,1544,1544,1544,1543,0,0,0,0,0,0,0,0,0,0
1706594420.09974003,156328277,1543,1543,1543,1544,0,0,0,0,0,0,0,0,0,0
1706594420.19969988,156428237,1544,1544,1544,1544,0,0,0,0,0,0,0,0,0,0
1706594420.29965997,156528197,1543,1543,1543,1543,0,0,0,0,0,0,0,0,0,0
1706594420.39961982,156628157,1544,1544,1544,1543,0,0,0,0,0,0,0,0,0,0
1706594420.50041294,156728950,1543,1543,1543,1544,0,0,0,0,0,0,0,0,0,0
1706594420.60037303,156828910,1543,1544,1544,1544,0,0,0,0,0,0,0,0,0,0
1706594420.70033288,156928870,1543,1543,1544,1544,0,0,0,0,0,0,0,0,0,0
1706594420.80029297,157028830,1544,1544,1544,1543,0,0,0,0,0,0,0,0,0,0
1706594420.90025282,157128790,1545,1544,1544,1544,0,0,0,0,0,0,0,0,0,0
1706594421.00021291,157228750,1544,1544,1545,1544,0,0,0,0,0,0,0,0,0,0
1706594421.10017300,157328710,1544,1544,1544,1544,0,0,0,0,0,0,0,0,0,0
1706594421.20013285,157428670,1543,1543,1543,1543,0,0,0,0,0,0,0,0,0,0
1706594421.30009294,157528630,1545,1544,1544,1544,0,0,0,0,0,0,0,0,0,0
1706594421.40005302,157628590,1544,1544,1544,1544,0,0,0,0,0,0,0,0,0,0
1706594421.50001287,157728550,1544,1544,1544,1545,0,0,0,0,0,0,0,0,0,0
1706594421.59997296,157828510,1545,1545,1545,1545,0,0,0,0,0,0,0,0,0,0
1706594421.69993281,157928470,1544,1543,1543,1543,0,0,0,0,0,0,0,0,0,0
1706594421.79989290,158028430,1545,1545,1545,1545,0,0,0,0,0,0,0,0,0,0
1706594421.89985299,158128390,1544,1544,1544,1544,0,0,0,0,0,0,0,0,0,0
1706594421.99981284,158228350,1543,1544,1544,1543,0,0,0,0,0,0,0,0,0,0
1706594422.09977293,158328310,1544,1543,1543,1544,0,0,0,0,0,0,0,0,0,0
1706594422.19973302,158428270,1544,1544,1544,1544,0,0,0,0,0,0,0,0,0,0
1706594422.29969287,158528230,1544,1544,1543,1544,0,0,0,0,0,0,0,0,0,0
1706594422.39965296,158628190,1544,1544,1544,1544,0,0,0,0,0,0,0,0,0,0
1706594422.50044584,158728983,1544,1544,1543,1544,0,0,0,0,0,0,0,0,0,0
1706594422.60040593,158828943,1544,1544,1544,1544,0,0,0,0,0,0,0,0,0,0
1706594422.70036602,158928903,1544,1543,1544,1544,0,0,0,0,0,0,0,0,0,0
1706594422.80032587,159028863,1545,1545,1545,1545,0,0,0,0,0,0,0,0,0,0
1706594422.90028596,159128823,1544,1544,1544,1544,0,0,0,0,0,0,0,0,0,0
1706594423.00024581,159228783,1543,1544,1544,1543,0,0,0,0,0,0,0,0,0,0
1706594423.10020590,159328743,1544,1544,1544,1545,0,0,0,0,0,0,0,0,0,0
1706594423.20016599,159428703,1544,1544,1544,1544,0,0,0,0,0,0,0,0,0,0
1706594423.30012584,159528663,1544,1544,1544,1544,0,0,0,0,0,0,0,0,0,0
1706594423.40008593,159628623,1544,1544,1544,1544,0,0,0,0,0,0,0,0,0,0
1706594423.50004601,159728583,1544,1544,1543,1544,0,0,0,0,0,0,0,0,0,0
1706594423.60000587,159828543,1544,1544,1544,1543,0,0,0,0,0,0,0,0,0,0
1706594423.69996595,159928503,1544,1544,1544,1544,0,0,0,0,0,0,0,0,0,0
1706594423.79992580,160028463,1544,1544,1544,1544,0,0,0,0,0,0,0,0,0,0
1706594423.89988589,160128423,1544,1544,1544,1544,0,0,0,0,0,0,0,0,0,0
1706594423.99984598,160228383,1544,1544,1544,1544,0,0,0,0,0,0,0,0,0,0
1706594424.09980583,160328343,1545,1544,1544,1545,0,0,0,0,0,0,0,0,0,0
1706594424.19976592,160428303,1545,1546,1545,1545,0,0,0,0,0,0,0,0,0,0
1706594424.29972601,160528263,1546,1546,1546,1546,0,0,0,0,0,0,0,0,0,0
1706594424.39968586,160628223,1544,1544,1544,1544,0,0,0,0,0,0,0,0,0,0
1706594424.49964595,160728183,1545,1545,1545,1544,0,0,0,0,0,0,0,0,0,0
1706594424.60043883,160828976,1544,1544,1544,1544,0,0,0,0,0,0,0,0,0,0
1706594424.70039892,160928936,1545,1545,1544,1545,0,0,0,0,0,0,0,0,0,0
1706594424.80035901,161028896,1544,1545,1545,1545,0,0,0,0,0,0,0,0,0,0
1706594424.90031886,161128856,1544,1544,1544,1544,0,0,0,0,0,0,0,0,0,0
1706594425.00027895,161228816,1545,1545,1545,1545,0,0,0,0,0,0,0,0,0,0
1706594425.10023880,161328776,1545,1544,1545,1545,0,0,0,0,0,0,0,0,0,0
1706594425.20019889,161428736,1544,1544,1544,1544,0,0,0,0,0,0,0,0,0,0
1706594425.30015898,161528696,1545,1545,1545,1545,0,0,0,0,0,0,0,0,0,0
1706594425.40011883,161628656,1544,1544,1544,1544,0,0,0,0,0,0,0,0,0,0
1706594425.50007892,161728616,1545,1544,1544,1545,0,0,0,0,0,0,0,0,0,0
1706594425.60003901,161828576,1545,1545,1545,1545,0,0,0,0,0,0,0,0,0,0
1706594425.69999886,161928536,1544,1544,1544,1544,0,0,0,0,0,0,0,0,0,0
1706594425.79995894,162028496,1545,1545,1545,1544,0,0,0,0,0,0,0,0,0,0
1706594425.89991903,162128456,1545,1544,1544,1545,0,0,0,0,0,0,0,0,0,0
1706594425.99987888,162228416,1544,1544,1544,1544,0,0,0,0,0,0,0,0,0,0
1706594426.09983897,162328376,1544,1544,1544,1545,0,0,0,0,0,0,0,0,0,0
1706594426.19979882,162428336,1544,1545,1545,1545,0,0,0,0,0,0,0,0,0,0
1706594426.29975891,162528296,1545,1545,1545,1545,0,0,0,0,0,0,0,0,0,0
1706594426.39971900,162628256,1545,1545,1545,1545,0,0,0,0,0,0,0,0,0,0
1706594426.49967885,162728216,1545,1544,1545,1545,0,0,0,0,0,0,0,0,0,0
1706594426.59963894,162828176,1545,1545,1545,1545,0,0,0,0,0,0,0,0,0,0
1706594426.70043182,162928969,1544,1544,1544,1544,0,0,0,0,0,0,0,0,0,0
1706594426.80039191,163028929,1544,1545,1545,1544,0,0,0,0,0,0,0,0,0,0
1706594426.90035200,163128889,1424,1426,1425,1423,0,0,0,0,0,0,0,0,0,0
1706594427.00031185,163228849,1280,1286,1285,1278,0,0,0,0,0,0,0,0,0,0
1706594427.10027194,163328809,1226,1231,1230,1223,0,0,0,0,0,0,0,0,0,0
1706594427.20023203,163428769,1205,1211,1211,1202,0,0,0,0,0,0,0,0,0,0
1706594427.30019188,163528729,1170,1175,1174,1166,0,0,0,0,0,0,0,0,0,0
1706594427.40015197,163628689,1154,1161,1161,1150,0,0,0,0,0,0,0,0,0,0
1706594427.50011182,163728649,1153,1160,1160,1150,0,0,0,0,0,0,0,0,0,0
1706594427.60007191,163828609,1153,1158,1158,1150,0,0,0,0,0,0,0,0,0,0
1706594427.70003200,163928569,1196,1145,1144,1194,0,0,0,0,0,0,0,0,0,0
1706594427.79999185,164028529,1176,1144,1144,1173,0,0,0,0,0,0,0,0,0,0
1706594427.89995193,164128489,1172,1144,1144,1169,0,0,0,0,0,0,0,0,0,0
1706594427.99991202,164228449,1173,1144,1144,1170,0,0,0,0,0,0,0,0,0,0
1706594428.09987187,164328409,1176,1144,1144,1174,0,0,0,0,0,0,0,0,0,0
1706594428.19983196,164428369,1178,1144,1144,1176,0,0,0,0,0,0,0,0,0,0
1706594428.29979181,164528329,1182,1144,1144,1181,0,0,0,0,0,0,0,0,0,0
1706594428.39975190,164628289,1163,1144,1144,1161,0,0,0,0,0,0,0,0,0,0
1706594428.49971199,164728249,1164,1144,1144,1161,0,0,0,0,0,0,0,0,0,0
1706594428.59967184,164828209,1166,1144,1145,1163,0,0,0,0,0,0,0,0,0,0
1706594428.69963193,164928169,1167,1144,1145,1164,0,0,0,0,0,0,0,0,0,0
1706594428.80042481,165028962,1168,1144,1145,1165,0,0,0,0,0,0,0,0,0,0
1706594428.90038490,165128922,1144,1144,1144,1150,0,0,0,0,0,0,0,0,0,0
1706594429.00034499,165228882,1000,1000,1000,1000,0,0,0,0,0,0,0,0,0,0
1706594429.10030484,165328842,1000,1000,1000,1000,0,0,0,0,0,0,0,0,0,0
1706594429.20026493,165428802,1000,1000,1000,1000,0,0,0,0,0,0,0,0,0,0
1706594429.30022502,165528762,1000,1000,1000,1000,0,0,0,0,0,0,0,0,0,0
1706594429.40018487,165628722,1000,1000,1000,1000,0,0,0,0,0,0,0,0,0,0
1706594429.50014496,165728682,1000,1000,1000,1000,0,0,0,0,0,0,0,0,0,0
1706594429.60010481,165828642,1000,1000,1000,1000,0,0,0,0,0,0,0,0,0,0
1706594429.70006490,165928602,1000,1000,1000,1000,0,0,0,0,0,0,0,0,0,0
1706594429.80002499,166028562,1000,1000,1000,1000,0,0,0,0,0,0,0,0,0,0
1706594429.89998484,166128522,1000,1000,1000,1000,0,0,0,0,0,0,0,0,0,0
1706594429.99994493,166228482,1000,1000,1000,1000,0,0,0,0,0,0,0,0,0,0
1706594430.09990501,166328442,1000,1000,1000,1000,0,0,0,0,0,0,0,0,0,0
1706594430.13988900,166368426,1000,1000,1000,1000,0,0,0,0,0,0,0,0,0,0
1706594430.23984885,166468386,1000,1000,1000,1000,0,0,0,0,0,0,0,0,0,0
1706594430.33980894,166568346,1000,1000,1000,1000,0,0,0,0,0,0,0,0,0,0
1706594430.43976903,166668306,1000,1000,1000,1000,0,0,0,0,0,0,0,0,0,0
1706594430.53972888,166768266,1000,1000,1000,1000,0,0,0,0,0,0,0,0,0,0
1706594430.63968897,166868226,1000,1000,1000,1000,0,0,0,0,0,0,0,0,0,0
1706594430.73964882,166968186,1000,1000,1000,1000,0,0,0,0,0,0,0,0,0,0
1706594430.84044194,167068979,1000,1000,1000,1000,0,0,0,0,0,0,0,0,0,0
1706594430.94040203,167168939,1000,1000,1000,1000,0,0,0,0,0,0,0,0,0,0
1706594431.04036188,167268899,1000,1000,1000,1000,0,0,0,0,0,0,0,0,0,0
1706594431.14032197,167368859,1000,1000,1000,1000,0,0,0,0,0,0,0,0,0,0
1706594431.24028182,167468819,1000,1000,1000,1000,0,0,0,0,0,0,0,0,0,0
1706594431.34024191,167568779,1000,1000,1000,1000,0,0,0,0,0,0,0,0,0,0
1706594431.44020200,167668739,1000,1000,1000,1000,0,0,0,0,0,0,0,0,0,0
1706594431.54016185,167768699,1000,1000,1000,1000,0,0,0,0,0,0,0,0,0,0
1706594431.64012194,167868659,1000,1000,1000,1000,0,0,0,0,0,0,0,0,0,0
1706594431.74008203,167968619,1000,1000,1000,1000,0,0,0,0,0,0,0,0,0,0
1706594431.84004188,168068579,1000,1000,1000,1000,0,0,0,0,0,0,0,0,0,0
1706594431.94000196,168168539,1000,1000,1000,1000,0,0,0,0,0,0,0,0,0,0
1706594432.03996181,168268499,1000,1000,1000,1000,0,0,0,0,0,0,0,0,0,0
1706594432.13992190,168368459,1000,1000,1000,1000,0,0,0,0,0,0,0,0,0,0
1706594432.23988199,168468419,1000,1000,1000,1000,0,0,0,0,0,0,0,0,0,0
1706594432.33984184,168568379,1000,1000,1000,1000,0,0,0,0,0,0,0,0,0,0
1706594432.43980193,168668339,1000,1000,1000,1000,0,0,0,0,0,0,0,0,0,0
1706594432.53976202,168768299,1000,1000,1000,1000,0,0,0,0,0,0,0,0,0,0
1706594432.63972187,168868259,1000,1000,1000,1000,0,0,0,0,0,0,0,0,0,0
1706594432.73968196,168968219,1000,1000,1000,1000,0,0,0,0,0,0,0,0,0,0
1706594432.83964181,169068179,1000,1000,1000,1000,0,0,0,0,0,0,0,0,0,0
1706594432.94043493,169168972,1000,1000,1000,1000,0,0,0,0,0,0,0,0,0,0
1706594433.04039502,169268932,1000,1000,1000,1000,0,0,0,0,0,0,0,0,0,0
1706594433.14035487,169368892,1000,1000,1000,1000,0,0,0,0,0,0,0,0,0,0
1706594433.24031496,169468852,1000,1000,1000,1000,0,0,0,0,0,0,0,0,0,0
1706594433.34027481,169568812,1000,1000,1000,1000,0,0,0,0,0,0,0,0,0,0
1706594433.44023490,169668772,1000,1000,1000,1000,0,0,0,0,0,0,0,0,0,0
1706594433.54019499,169768732,1000,1000,1000,1000,0,0,0,0,0,0,0,0,0,0
1706594433.64015484,169868692,1000,1000,1000,1000,0,0,0,0,0,0,0,0,0,0
1706594433.74011493,169968652,1000,1000,1000,1000,0,0,0,0,0,0,0,0,0,0
1706594433.84007502,170068612,1000,1000,1000,1000,0,0,0,0,0,0,0,0,0,0
1706594433.94003487,170168572,1000,1000,1000,1000,0,0,0,0,0,0,0,0,0,0
1706594434.03999496,170268532,1000,1000,1000,1000,0,0,0,0,0,0,0,0,0,0
1706594434.13995481,170368492,1000,1000,1000,1000,0,0,0,0,0,0,0,0,0,0
1706594434.23991489,170468452,1000,1000,1000,1000,0,0,0,0,0,0,0,0,0,0
1706594434.33987498,170568412,1000,1000,1000,1000,0,0,0,0,0,0,0,0,0,0
1706594434.43983483,170668372,1000,1000,1000,1000,0,0,0,0,0,0,0,0,0,0
1706594434.53979492,170768332,1000,1000,1000,1000,0,0,0,0,0,0,0,0,0,0
1706594434.63975501,170868292,1000,1000,1000,1000,0,0,0,0,0,0,0,0,0,0
1706594434.73971486,170968252,1000,1000,1000,1000,0,0,0,0,0,0,0,0,0,0
1706594434.83967495,171068212,1000,1000,1000,1000,0,0,0,0,0,0,0,0,0,0
1706594434.93963480,171168172,1000,1000,1000,1000,0,0,0,0,0,0,0,0,0,0
1706594435.04042792,171268965,1000,1000,1000,1000,0,0,0,0,0,0,0,0,0,0
1706594435.14038801,171368925,1000,1000,1000,1000,0,0,0,0,0,0,0,0,0,0
1706594435.24034786,171468885,1000,1000,1000,1000,0,0,0,0,0,0,0,0,0,0
1706594435.34030795,171568845,1000,1000,1000,1000,0,0,0,0,0,0,0,0,0,0
1706594435.44026780,171668805,1000,1000,1000,1000,0,0,0,0,0,0,0,0,0,0
1706594435.54022789,171768765,1000,1000,1000,1000,0,0,0,0,0,0,0,0,0,0
1706594435.64018798,171868725,1000,1000,1000,1000,0,0,0,0,0,0,0,0,0,0
1706594435.74014783,171968685,1000,1000,1000,1000,0,0,0,0,0,0,0,0,0,0
1706594435.84010792,172068645,1000,1000,1000,1000,0,0,0,0,0,0,0,0,0,0
1706594435.94006801,172168605,1000,1000,1000,1000,0,0,0,0,0,0,0,0,0,0
1706594436.04002786,172268565,1000,1000,1000,1000,0,0,0,0,0,0,0,0,0,0
1706594436.13998795,172368525,1000,1000,1000,1000,0,0,0,0,0,0,0,0,0,0
1706594436.23994803,172468485,1000,1000,1000,1000,0,0,0,0,0,0,0,0,0,0
1706594436.33990788,172568445,1000,1000,1000,1000,0,0,0,0,0,0,0,0,0,0
1706594436.43986797,172668405,1000,1000,1000,1000,0,0,0,0,0,0,0,0,0,0
1706594436.53982782,172768365,1000,1000,1000,1000,0,0,0,0,0,0,0,0,0,0
1706594436.63978791,172868325,1000,1000,1000,1000,0,0,0,0,0,0,0,0,0,0
1706594436.73974800,172968285,1000,1000,1000,1000,0,0,0,0,0,0,0,0,0,0
1706594436.83970785,173068245,1000,1000,1000,1000,0,0,0,0,0,0,0,0,0,0
1706594436.93966794,173168205,1000,1000,1000,1000,0,0,0,0,0,0,0,0,0,0
1706594437.03962803,173268165,1000,1000,1000,1000,0,0,0,0,0,0,0,0,0,0
1706594437.14042091,173368958,1000,1000,1000,1000,0,0,0,0,0,0,0,0,0,0
1706594437.24038100,173468918,1000,1000,1000,1000,0,0,0,0,0,0,0,0,0,0
1706594437.34034085,173568878,1000,1000,1000,1000,0,0,0,0,0,0,0,0,0,0
1706594437.44030094,173668838,1000,1000,1000,1000,0,0,0,0,0,0,0,0,0,0
1706594437.54026103,173768798,1000,1000,1000,1000,0,0,0,0,0,0,0,0,0,0
1706594437.64022088,173868758,1000,1000,1000,1000,0,0,0,0,0,0,0,0,0,0
1706594437.74018097,173968718,1000,1000,1000,1000,0,0,0,0,0,0,0,0,0,0
1706594437.84014082,174068678,1000,1000,1000,1000,0,0,0,0,0,0,0,0,0,0
1706594437.94010091,174168638,1000,1000,1000,1000,0,0,0,0,0,0,0,0,0,0
1706594438.04006100,174268598,1000,1000,1000,1000,0,0,0,0,0,0,0,0,0,0
1706594438.14002085,174368558,1000,1000,1000,1000,0,0,0,0,0,0,0,0,0,0
1706594438.23998094,174468518,1000,1000,1000,1000,0,0,0,0,0,0,0,0,0,0
1706594438.33994102,174568478,1000,1000,1000,1000,0,0,0,0,0,0,0,0,0,0
1706594438.43990088,174668438,1000,1000,1000,1000,0,0,0,0,0,0,0,0,0,0
1706594438.53986096,174768398,1000,1000,1000,1000,0,0,0,0,0,0,0,0,0,0
1706594438.63982081,174868358,1000,1000,1000,1000,0,0,0,0,0,0,0,0,0,0
1706594438.73978090,174968318,1000,1000,1000,1000,0,0,0,0,0,0,0,0,0,0
1706594438.83974099,175068278,1000,1000,1000,1000,0,0,0,0,0,0,0,0,0,0
1706594438.93970084,175168238,1000,1000,1000,1000,0,0,0,0,0,0,0,0,0,0
1706594439.03966093,175268198,1000,1000,1000,1000,0,0,0,0,0,0,0,0,0,0
1706594439.13962102,175368158,1000,1000,1000,1000,0,0,0,0,0,0,0,0,0,0
1706594439.24041390,175468951,1000,1000,1000,1000,0,0,0,0,0,0,0,0,0,0
1706594439.34037399,175568911,1000,1000,1000,1000,0,0,0,0,0,0,0,0,0,0
1706594439.44033384,175668871,1000,1000,1000,1000,0,0,0,0,0,0,0,0,0,0
1706594439.54029393,175768831,1000,1000,1000,1000,0,0,0,0,0,0,0,0,0,0
1706594439.64025402,175868791,1000,1000,1000,1000,0,0,0,0,0,0,0,0,0,0
1706594439.74021387,175968751,1000,1000,1000,1000,0,0,0,0,0,0,0,0,0,0
1706594439.84017396,176068711,1000,1000,1000,1000,0,0,0,0,0,0,0,0,0,0
1706594439.94013381,176168671,1000,1000,1000,1000,0,0,0,0,0,0,0,0,0,0
1706594440.04009390,176268631,1000,1000,1000,1000,0,0,0,0,0,0,0,0,0,0
1706594440.14005399,176368591,1000,1000,1000,1000,0,0,0,0,0,0,0,0,0,0
1706594440.24001384,176468551,1000,1000,1000,1000,0,0,0,0,0,0,0,0,0,0
1706594440.33997393,176568511,1000,1000,1000,1000,0,0,0,0,0,0,0,0,0,0
1706594440.43993402,176668471,1000,1000,1000,1000,0,0,0,0,0,0,0,0,0,0
1706594440.53989387,176768431,1000,1000,1000,1000,0,0,0,0,0,0,0,0,0,0
1706594440.63985395,176868391,1000,1000,1000,1000,0,0,0,0,0,0,0,0,0,0
1706594440.73981380,176968351,1000,1000,1000,1000,0,0,0,0,0,0,0,0,0,0
1706594440.83977389,177068311,1000,1000,1000,1000,0,0,0,0,0,0,0,0,0,0
1706594440.93973398,177168271,1000,1000,1000,1000,0,0,0,0,0,0,0,0,0,0
1706594441.03969383,177268231,1000,1000,1000,1000,0,0,0,0,0,0,0,0,0,0
1706594441.13965392,177368191,1000,1000,1000,1000,0,0,0,0,0,0,0,0,0,0
1706594441.24044681,177468984,1000,1000,1000,1000,0,0,0,0,0,0,0,0,0,0
1706594441.34040689,177568944,1000,1000,1000,1000,0,0,0,0,0,0,0,0,0,0
1706594441.44036698,177668904,1000,1000,1000,1000,0,0,0,0,0,0,0,0,0,0
1706594441.54032683,177768864,1000,1000,1000,1000,0,0,0,0,0,0,0,0,0,0
1706594441.64028692,177868824,1000,1000,1000,1000,0,0,0,0,0,0,0,0,0,0
1706594441.74024701,177968784,1000,1000,1000,1000,0,0,0,0,0,0,0,0,0,0
1706594441.84020686,178068744,1000,1000,1000,1000,0,0,0,0,0,0,0,0,0,0
1706594441.94016695,178168704,1000,1000,1000,1000,0,0,0,0,0,0,0,0,0,0
1706594442.04012680,178268664,1000,1000,1000,1000,0,0,0,0,0,0,0,0,0,0
1706594442.14008689,178368624,1000,1000,1000,1000,0,0,0,0,0,0,0,0,0,0
1706594442.24004698,178468584,1000,1000,1000,1000,0,0,0,0,0,0,0,0,0,0
1706594442.34000683,178568544,1000,1000,1000,1000,0,0,0,0,0,0,0,0,0,0
1706594442.43996692,178668504,1000,1000,1000,1000,0,0,0,0,0,0,0,0,0,0
1706594442.53992701,178768464,1000,1000,1000,1000,0,0,0,0,0,0,0,0,0,0
1706594442.63988686,178868424,1000,1000,1000,1000,0,0,0,0,0,0,0,0,0,0
1706594442.73984694,178968384,1000,1000,1000,1000,0,0,0,0,0,0,0,0,0,0
1706594442.83980703,179068344,1000,1000,1000,1000,0,0,0,0,0,0,0,0,0,0
1706594442.93976688,179168304,1000,1000,1000,1000,0,0,0,0,0,0,0,0,0,0
1706594443.03972697,179268264,1000,1000,1000,1000,0,0,0,0,0,0,0,0,0,0
1706594443.13968682,179368224,1000,1000,1000,1000,0,0,0,0,0,0,0,0,0,0
1706594443.23964691,179468184,1000,1000,1000,1000,0,0,0,0,0,0,0,0,0,0
1706594443.34044003,179568977,1000,1000,1000,1000,0,0,0,0,0,0,0,0,0,0
1706594443.44039989,179668937,1000,1000,1000,1000,0,0,0,0,0,0,0,0,0,0
1706594443.54035997,179768897,1000,1000,1000,1000,0,0,0,0,0,0,0,0,0,0
1706594443.64031982,179868857,1000,1000,1000,1000,0,0,0,0,0,0,0,0,0,0
1706594443.74027991,179968817,1000,1000,1000,1000,0,0,0,0,0,0,0,0,0,0
1706594443.84024000,180068777,1000,1000,1000,1000,0,0,0,0,0,0,0,0,0,0
