timestamp,TimeUS,C1,C2,C3,C4,C5,C6,C7,C8,C9,C10,C11,C12,C13,C14
1706596075.59999990,50228234,1000,1000,1000,1000,0,0,0,0,0,0,0,0,0,0
1706596075.69995975,50328194,1000,1000,1000,1000,0,0,0,0,0,0,0,0,0,0
1706596075.79991984,50428154,1000,1000,1000,1000,0,0,0,0,0,0,0,0,0,0
1706596075.90071297,50528947,1000,1000,1000,1000,0,0,0,0,0,0,0,0,0,0
1706596076.00067282,50628907,1000,1000,1000,1000,0,0,0,0,0,0,0,0,0,0
1706596076.10063291,50728867,1000,1000,1000,1000,0,0,0,0,0,0,0,0,0,0
1706596076.20059276,50828827,1000,1000,1000,1000,0,0,0,0,0,0,0,0,0,0
1706596076.30055285,50928787,1000,1000,1000,1000,0,0,0,0,0,0,0,0,0,0
1706596076.40051293,51028747,1000,1000,1000,1000,0,0,0,0,0,0,0,0,0,0
1706596076.50047278,51128707,1000,1000,1000,1000,0,0,0,0,0,0,0,0,0,0
1706596076.60043287,51228667,1000,1000,1000,1000,0,0,0,0,0,0,0,0,0,0
1706596076.70039296,51328627,1000,1000,1000,1000,0,0,0,0,0,0,0,0,0,0
1706596076.80035281,51428587,1000,1000,1000,1000,0,0,0,0,0,0,0,0,0,0
1706596076.90031290,51528547,1000,1000,1000,1000,0,0,0,0,0,0,0,0,0,0
1706596077.00027275,51628507,1000,1000,1000,1000,0,0,0,0,0,0,0,0,0,0
1706596077.10023284,51728467,1000,1000,1000,1000,0,0,0,0,0,0,0,0,0,0
1706596077.20019293,51828427,1000,1000,1000,1000,0,0,0,0,0,0,0,0,0,0
1706596077.30015278,51928387,1000,1000,1000,1000,0,0,0,0,0,0,0,0,0,0
1706596077.40011287,52028347,1000,1000,1000,1000,0,0,0,0,0,0,0,0,0,0
1706596077.50007296,52128307,1000,1000,1000,1000,0,0,0,0,0,0,0,0,0,0
1706596077.60003281,52228267,1023,1023,1023,1023,0,0,0,0,0,0,0,0,0,0
1706596077.69999290,52328227,1053,1053,1053,1053,0,0,0,0,0,0,0,0,0,0
1706596077.79995275,52428187,1083,1083,1083,1083,0,0,0,0,0,0,0,0,0,0
1706596077.90074587,52528980,1113,1113,1113,1113,0,0,0,0,0,0,0,0,0,0
1706596078.00070596,52628940,1143,1143,1143,1143,0,0,0,0,0,0,0,0,0,0
1706596078.10066581,52728900,1352,1346,1346,1352,0,0,0,0,0,0,0,0,0,0
1706596078.20062590,52828860,1542,1537,1538,1542,0,0,0,0,0,0,0,0,0,0
1706596078.30058575,52928820,1695,1691,1691,1695,0,0,0,0,0,0,0,0,0,0
1706596078.40054584,53028780,1827,1822,1823,1827,0,0,0,0,0,0,0,0,0,0
1706596078.50050592,53128740,1869,1863,1864,1868,0,0,0,0,0,0,0,0,0,0
1706596078.60046577,53228700,1834,1831,1831,1834,0,0,0,0,0,0,0,0,0,0
1706596078.70042586,53328660,1700,1700,1700,1701,0,0,0,0,0,0,0,0,0,0
1706596078.80038595,53428620,1623,1625,1625,1624,0,0,0,0,0,0,0,0,0,0
1706596078.90034580,53528580,1610,1612,1612,1610,0,0,0,0,0,0,0,0,0,0
1706596079.00030589,53628540,1624,1626,1626,1624,0,0,0,0,0,0,0,0,0,0
1706596079.10026574,53728500,1633,1633,1633,1633,0,0,0,0,0,0,0,0,0,0
1706596079.20022583,53828460,1622,1622,1617,1626,0,0,0,0,0,0,0,0,0,0
1706596079.30018592,53928420,1613,1613,1607,1619,0,0,0,0,0,0,0,0,0,0
1706596079.40014577,54028380,1607,1607,1604,1610,0,0,0,0,0,0,0,0,0,0
1706596079.50010586,54128340,1607,1608,1607,1607,0,0,0,0,0,0,0,0,0,0
1706596079.60006595,54228300,1612,1611,1614,1609,0,0,0,0,0,0,0,0,0,0
1706596079.70002580,54328260,1614,1614,1618,1610,0,0,0,0,0,0,0,0,0,0
1706596079.79998589,54428220,1618,1618,1622,1614,0,0,0,0,0,0,0,0,0,0
1706596079.89994574,54528180,1620,1620,1623,1617,0,0,0,0,0,0,0,0,0,0
1706596080.00073886,54628973,1592,1592,1600,1585,0,0,0,0,0,0,0,0,0,0
1706596080.10069895,54728933,1577,1576,1584,1569,0,0,0,0,0,0,0,0,0,0
1706596080.20065880,54828893,1564,1564,1566,1563,0,0,0,0,0,0,0,0,0,0
1706596080.30061889,54928853,1554,1553,1548,1560,0,0,0,0,0,0,0,0,0,0
1706596080.40057874,55028813,1546,1546,1535,1556,0,0,0,0,0,0,0,0,0,0
1706596080.50053883,55128773,1538,1539,1530,1547,0,0,0,0,0,0,0,0,0,0
1706596080.60049891,55228733,1533,1533,1528,1538,0,0,0,0,0,0,0,0,0,0
1706596080.70045877,55328693,1528,1528,1527,1529,0,0,0,0,0,0,0,0,0,0
1706596080.80041885,55428653,1528,1528,1529,1527,0,0,0,0,0,0,0,0,0,0
1706596080.90037894,55528613,1530,1529,1532,1526,0,0,0,0,0,0,0,0,0,0
1706596081.00033879,55628573,1533,1533,1536,1529,0,0,0,0,0,0,0,0,0,0
1706596081.10029888,55728533,1536,1536,1539,1533,0,0,0,0,0,0,0,0,0,0
1706596081.20025897,55828493,1540,1539,1541,1537,0,0,0,0,0,0,0,0,0,0
1706596081.30021882,55928453,1542,1543,1544,1542,0,0,0,0,0,0,0,0,0,0
1706596081.40017891,56028413,1546,1546,1546,1546,0,0,0,0,0,0,0,0,0,0
1706596081.50013876,56128373,1548,1548,1548,1549,0,0,0,0,0,0,0,0,0,0
1706596081.60009885,56228333,1550,1550,1549,1552,0,0,0,0,0,0,0,0,0,0
1706596081.70005894,56328293,1552,1552,1554,1557,0,0,0,0,0,0,0,0,0,0
1706596081.80001879,56428253,1553,1553,1559,1561,0,0,0,0,0,0,0,0,0,0
1706596081.89997888,56528213,1554,1554,1561,1562,0,0,0,0,0,0,0,0,0,0
1706596081.99993896,56628173,1557,1558,1563,1563,0,0,0,0,0,0,0,0,0,0
1706596082.10073185,56728966,1559,1560,1564,1563,0,0,0,0,0,0,0,0,0,0
1706596082.20069194,56828926,1564,1564,1565,1564,0,0,0,0,0,0,0,0,0,0
1706596082.30065179,56928886,1565,1566,1565,1565,0,0,0,0,0,0,0,0,0,0
1706596082.40061188,57028846,1568,1568,1565,1566,0,0,0,0,0,0,0,0,0,0
1706596082.50057197,57128806,1570,1570,1566,1566,0,0,0,0,0,0,0,0,0,0
1706596082.60053182,57228766,1571,1571,1567,1567,0,0,0,0,0,0,0,0,0,0
1706596082.70049191,57328726,1573,1573,1568,1569,0,0,0,0,0,0,0,0,0,0
1706596082.80045176,57428686,1573,1573,1569,1569,0,0,0,0,0,0,0,0,0,0
1706596082.90041184,57528646,1573,1573,1570,1570,0,0,0,0,0,0,0,0,0,0
1706596083.00037193,57628606,1573,1573,1570,1570,0,0,0,0,0,0,0,0,0,0
1706596083.10033178,57728566,1575,1574,1573,1573,0,0,0,0,0,0,0,0,0,0
1706596083.20029187,57828526,1575,1575,1576,1574,0,0,0,0,0,0,0,0,0,0
1706596083.30025196,57928486,1575,1575,1577,1575,0,0,0,0,0,0,0,0,0,0
1706596083.40021181,58028446,1575,1575,1577,1575,0,0,0,0,0,0,0,0,0,0
1706596083.50017190,58128406,1575,1575,1576,1576,0,0,0,0,0,0,0,0,0,0
1706596083.60013175,58228366,1574,1575,1576,1576,0,0,0,0,0,0,0,0,0,0
1706596083.70009184,58328326,1576,1576,1578,1578,0,0,0,0,0,0,0,0,0,0
1706596083.80005193,58428286,1576,1576,1577,1577,0,0,0,0,0,0,0,0,0,0
1706596083.90001178,58528246,1577,1576,1577,1578,0,0,0,0,0,0,0,0,0,0
1706596083.99997187,58628206,1577,1577,1577,1577,0,0,0,0,0,0,0,0,0,0
1706596084.09993196,58728166,1577,1577,1577,1577,0,0,0,0,0,0,0,0,0,0
1706596084.20072484,58828959,1578,1578,1578,1577,0,0,0,0,0,0,0,0,0,0
1706596084.30068493,58928919,1578,1578,1577,1577,0,0,0,0,0,0,0,0,0,0
1706596084.40064478,59028879,1577,1577,1576,1576,0,0,0,0,0,0,0,0,0,0
1706596084.50060487,59128839,1578,1578,1577,1577,0,0,0,0,0,0,0,0,0,0
1706596084.60056496,59228799,1578,1577,1577,1577,0,0,0,0,0,0,0,0,0,0
1706596084.70052481,59328759,1578,1578,1577,1577,0,0,0,0,0,0,0,0,0,0
1706596084.80048490,59428719,1579,1579,1579,1578,0,0,0,0,0,0,0,0,0,0
1706596084.90044475,59528679,1579,1579,1579,1579,0,0,0,0,0,0,0,0,0,0
1706596085.00040483,59628639,1579,1579,1579,1579,0,0,0,0,0,0,0,0,0,0
1706596085.10036492,59728599,1579,1579,1579,1579,0,0,0,0,0,0,0,0,0,0
1706596085.20032477,59828559,1579,1579,1579,1579,0,0,0,0,0,0,0,0,0,0
1706596085.30028486,59928519,1580,1580,1580,1580,0,0,0,0,0,0,0,0,0,0
1706596085.40024495,60028479,1580,1580,1580,1580,0,0,0,0,0,0,0,0,0,0
1706596085.50020480,60128439,1579,1579,1580,1580,0,0,0,0,0,0,0,0,0,0
1706596085.60016489,60228399,1580,1580,1580,1580,0,0,0,0,0,0,0,0,0,0
1706596085.70012474,60328359,1580,1579,1580,1580,0,0,0,0,0,0,0,0,0,0
1706596085.80008483,60428319,1581,1580,1580,1581,0,0,0,0,0,0,0,0,0,0
1706596085.90004492,60528279,1579,1580,1580,1580,0,0,0,0,0,0,0,0,0,0
1706596086.00000477,60628239,1580,1580,1580,1580,0,0,0,0,0,0,0,0,0,0
1706596086.09996486,60728199,1581,1580,1580,1580,0,0,0,0,0,0,0,0,0,0
1706596086.19992495,60828159,1580,1580,1580,1580,0,0,0,0,0,0,0,0,0,0
1706596086.30071783,60928952,1580,1580,1579,1580,0,0,0,0,0,0,0,0,0,0
1706596086.40067792,61028912,1580,1580,1580,1580,0,0,0,0,0,0,0,0,0,0
1706596086.50063777,61128872,1580,1580,1580,1580,0,0,0,0,0,0,0,0,0,0
1706596086.60059786,61228832,1580,1580,1580,1580,0,0,0,0,0,0,0,0,0,0
1706596086.70055795,61328792,1581,1581,1581,1581,0,0,0,0,0,0,0,0,0,0
1706596086.80051780,61428752,1581,1581,1582,1581,0,0,0,0,0,0,0,0,0,0
1706596086.90047789,61528712,1581,1581,1581,1581,0,0,0,0,0,0,0,0,0,0
1706596087.00043774,61628672,1580,1581,1581,1581,0,0,0,0,0,0,0,0,0,0
1706596087.10039783,61728632,1581,1581,1581,1581,0,0,0,0,0,0,0,0,0,0
1706596087.20035791,61828592,1581,1581,1581,1581,0,0,0,0,0,0,0,0,0,0
1706596087.30031776,61928552,1581,1580,1580,1580,0,0,0,0,0,0,0,0,0,0
1706596087.40027785,62028512,1580,1579,1580,1580,0,0,0,0,0,0,0,0,0,0
1706596087.50023794,62128472,1580,1580,1580,1580,0,0,0,0,0,0,0,0,0,0
1706596087.60019779,62228432,1580,1580,1580,1580,0,0,0,0,0,0,0,0,0,0
1706596087.70015788,62328392,1580,1580,1580,1580,0,0,0,0,0,0,0,0,0,0
1706596087.80011797,62428352,1580,1580,1580,1580,0,0,0,0,0,0,0,0,0,0
1706596087.90007782,62528312,1580,1580,1582,1578,0,0,0,0,0,0,0,0,0,0
1706596088.00003791,62628272,1581,1582,1588,1573,0,0,0,0,0,0,0,0,0,0
1706596088.09999776,62728232,1579,1582,1583,1573,0,0,0,0,0,0,0,0,0,0
1706596088.19995785,62828192,1578,1581,1575,1573,0,0,0,0,0,0,0,0,0,0
1706596088.30075097,62928985,1576,1579,1565,1570,0,0,0,0,0,0,0,0,0,0
1706596088.40071082,63028945,1578,1579,1560,1568,0,0,0,0,0,0,0,0,0,0
1706596088.50067091,63128905,1578,1579,1557,1563,0,0,0,0,0,0,0,0,0,0
1706596088.60063076,63228865,1579,1578,1556,1558,0,0,0,0,0,0,0,0,0,0
1706596088.70059085,63328825,1580,1578,1556,1556,0,0,0,0,0,0,0,0,0,0
1706596088.80055094,63428785,1579,1577,1556,1554,0,0,0,0,0,0,0,0,0,0
1706596088.90051079,63528745,1578,1578,1556,1554,0,0,0,0,0,0,0,0,0,0
1706596089.00047088,63628705,1577,1578,1556,1554,0,0,0,0,0,0,0,0,0,0
1706596089.10043097,63728665,1576,1577,1556,1555,0,0,0,0,0,0,0,0,0,0
1706596089.20039082,63828625,1575,1577,1555,1554,0,0,0,0,0,0,0,0,0,0
1706596089.30035090,63928585,1575,1576,1553,1553,0,0,0,0,0,0,0,0,0,0
1706596089.40031075,64028545,1576,1578,1552,1553,0,0,0,0,0,0,0,0,0,0
1706596089.50027084,64128505,1577,1579,1550,1550,0,0,0,0,0,0,0,0,0,0
1706596089.60023093,64228465,1579,1581,1548,1548,0,0,0,0,0,0,0,0,0,0
1706596089.70019078,64328425,1581,1582,1545,1544,0,0,0,0,0,0,0,0,0,0
1706596089.80015087,64428385,1584,1585,1542,1541,0,0,0,0,0,0,0,0,0,0
1706596089.90011096,64528345,1587,1587,1539,1538,0,0,0,0,0,0,0,0,0,0
1706596090.00007081,64628305,1591,1591,1537,1537,0,0,0,0,0,0,0,0,0,0
1706596090.10003090,64728265,1593,1593,1535,1536,0,0,0,0,0,0,0,0,0,0
1706596090.19999075,64828225,1595,1595,1535,1535,0,0,0,0,0,0,0,0,0,0
1706596090.29995084,64928185,1594,1594,1535,1536,0,0,0,0,0,0,0,0,0,0
1706596090.40074396,65028978,1594,1594,1537,1539,0,0,0,0,0,0,0,0,0,0
1706596090.50070381,65128938,1592,1591,1540,1543,0,0,0,0,0,0,0,0,0,0
1706596090.60066390,65228898,1586,1585,1545,1548,0,0,0,0,0,0,0,0,0,0
1706596090.70062375,65328858,1582,1578,1554,1557,0,0,0,0,0,0,0,0,0,0
1706596090.80058384,65428818,1573,1569,1564,1566,0,0,0,0,0,0,0,0,0,0
1706596090.90054393,65528778,1563,1558,1576,1578,0,0,0,0,0,0,0,0,0,0
1706596091.00050378,65628738,1551,1548,1589,1589,0,0,0,0,0,0,0,0,0,0
1706596091.10046387,65728698,1541,1539,1600,1600,0,0,0,0,0,0,0,0,0,0
1706596091.20042396,65828658,1533,1533,1609,1608,0,0,0,0,0,0,0,0,0,0
1706596091.30038381,65928618,1529,1530,1614,1613,0,0,0,0,0,0,0,0,0,0
1706596091.40034389,66028578,1528,1530,1615,1614,0,0,0,0,0,0,0,0,0,0
1706596091.50030375,66128538,1533,1535,1613,1613,0,0,0,0,0,0,0,0,0,0
1706596091.60026383,66228498,1539,1541,1609,1609,0,0,0,0,0,0,0,0,0,0
1706596091.70022392,66328458,1546,1547,1602,1602,0,0,0,0,0,0,0,0,0,0
1706596091.80018377,66428418,1555,1556,1595,1595,0,0,0,0,0,0,0,0,0,0
1706596091.90014386,66528378,1563,1563,1587,1586,0,0,0,0,0,0,0,0,0,0
1706596092.00010395,66628338,1572,1572,1581,1579,0,0,0,0,0,0,0,0,0,0
1706596092.10006380,66728298,1579,1578,1575,1574,0,0,0,0,0,0,0,0,0,0
1706596092.20002389,66828258,1584,1582,1570,1569,0,0,0,0,0,0,0,0,0,0
1706596092.29998374,66928218,1587,1585,1567,1567,0,0,0,0,0,0,0,0,0,0
1706596092.39994383,67028178,1589,1587,1567,1567,0,0,0,0,0,0,0,0,0,0
1706596092.50073695,67128971,1588,1587,1567,1567,0,0,0,0,0,0,0,0,0,0
1706596092.60069680,67228931,1585,1584,1567,1568,0,0,0,0,0,0,0,0,0,0
1706596092.70065689,67328891,1583,1583,1571,1572,0,0,0,0,0,0,0,0,0,0
1706596092.80061674,67428851,1581,1581,1575,1575,0,0,0,0,0,0,0,0,0,0
1706596092.90057683,67528811,1577,1578,1577,1577,0,0,0,0,0,0,0,0,0,0
1706596093.00053692,67628771,1574,1575,1580,1579,0,0,0,0,0,0,0,0,0,0
1706596093.10049677,67728731,1573,1574,1582,1582,0,0,0,0,0,0,0,0,0,0
1706596093.20045686,67828691,1573,1573,1583,1583,0,0,0,0,0,0,0,0,0,0
1706596093.30041695,67928651,1571,1571,1582,1582,0,0,0,0,0,0,0,0,0,0
1706596093.40037680,68028611,1571,1572,1582,1582,0,0,0,0,0,0,0,0,0,0
1706596093.50033689,68128571,1573,1574,1583,1583,0,0,0,0,0,0,0,0,0,0
1706596093.60029674,68228531,1356,1356,1456,1582,0,0,0,0,0,0,0,0,0,0
1706596093.70025682,68328491,1478,1473,1598,1594,0,0,0,0,0,0,0,0,0,0
1706596093.80021691,68428451,1989,1980,2082,1552,0,0,0,0,0,0,0,0,0,0
1706596093.90017676,68528411,2072,2068,2082,1742,0,0,0,0,0,0,0,0,0,0
1706596094.00013685,68628371,1914,1904,1808,1691,0,0,0,0,0,0,0,0,0,0
1706596094.10009694,68728331,1764,1753,1520,1674,0,0,0,0,0,0,0,0,0,0
1706596094.20005679,68828291,1694,1681,1445,1698,0,0,0,0,0,0,0,0,0,0
1706596094.30001688,68928251,1640,1633,1501,1688,0,0,0,0,0,0,0,0,0,0
1706596094.39997697,69028211,1570,1570,1560,1634,0,0,0,0,0,0,0,0,0,0
1706596094.49993682,69128171,1502,1507,1599,1581,0,0,0,0,0,0,0,0,0,0
1706596094.60072994,69228964,1473,1481,1621,1555,0,0,0,0,0,0,0,0,0,0
1706596094.70068979,69328924,1479,1492,1622,1555,0,0,0,0,0,0,0,0,0,0
1706596094.80064988,69428884,1496,1512,1610,1562,0,0,0,0,0,0,0,0,0,0
1706596094.90060997,69528844,1514,1531,1591,1570,0,0,0,0,0,0,0,0,0,0
1706596095.00056982,69628804,1531,1544,1573,1573,0,0,0,0,0,0,0,0,0,0
1706596095.10052991,69728764,1547,1552,1558,1569,0,0,0,0,0,0,0,0,0,0
1706596095.20048976,69828724,1565,1562,1550,1563,0,0,0,0,0,0,0,0,0,0
1706596095.30044985,69928684,1580,1572,1546,1554,0,0,0,0,0,0,0,0,0,0
1706596095.40040994,70028644,1594,1584,1548,1548,0,0,0,0,0,0,0,0,0,0
1706596095.50036979,70128604,1603,1594,1553,1549,0,0,0,0,0,0,0,0,0,0
1706596095.60032988,70228564,1605,1599,1560,1553,0,0,0,0,0,0,0,0,0,0
1706596095.70028996,70328524,1603,1600,1568,1562,0,0,0,0,0,0,0,0,0,0
1706596095.80024981,70428484,1598,1597,1575,1571,0,0,0,0,0,0,0,0,0,0
1706596095.90020990,70528444,1593,1594,1584,1581,0,0,0,0,0,0,0,0,0,0
1706596096.00016975,70628404,1586,1592,1595,1582,0,0,0,0,0,0,0,0,0,0
1706596096.10012984,70728364,1580,1588,1595,1587,0,0,0,0,0,0,0,0,0,0
1706596096.20008993,70828324,1577,1583,1589,1590,0,0,0,0,0,0,0,0,0,0
1706596096.30004978,70928284,1575,1580,1582,1588,0,0,0,0,0,0,0,0,0,0
1706596096.40000987,71028244,1576,1578,1576,1583,0,0,0,0,0,0,0,0,0,0
1706596096.49996996,71128204,1579,1579,1571,1577,0,0,0,0,0,0,0,0,0,0
1706596096.59992981,71228164,1583,1581,1569,1570,0,0,0,0,0,0,0,0,0,0
1706596096.70072293,71328957,1586,1583,1567,1565,0,0,0,0,0,0,0,0,0,0
1706596096.80068278,71428917,1587,1585,1564,1561,0,0,0,0,0,0,0,0,0,0
1706596096.90064287,71528877,1588,1587,1563,1559,0,0,0,0,0,0,0,0,0,0
1706596097.00060296,71628837,1586,1587,1560,1558,0,0,0,0,0,0,0,0,0,0
1706596097.10056281,71728797,1585,1586,1558,1557,0,0,0,0,0,0,0,0,0,0
1706596097.20052290,71828757,1583,1585,1556,1556,0,0,0,0,0,0,0,0,0,0
1706596097.30048275,71928717,1583,1584,1554,1555,0,0,0,0,0,0,0,0,0,0
1706596097.40044284,72028677,1583,1584,1553,1553,0,0,0,0,0,0,0,0,0,0
1706596097.50040293,72128637,1583,1584,1552,1552,0,0,0,0,0,0,0,0,0,0
1706596097.60036278,72228597,1583,1584,1550,1550,0,0,0,0,0,0,0,0,0,0
1706596097.70032287,72328557,1583,1584,1547,1547,0,0,0,0,0,0,0,0,0,0
1706596097.80028296,72428517,1586,1588,1547,1546,0,0,0,0,0,0,0,0,0,0
1706596097.90024281,72528477,1589,1591,1544,1544,0,0,0,0,0,0,0,0,0,0
1706596098.00020289,72628437,1592,1594,1540,1541,0,0,0,0,0,0,0,0,0,0
1706596098.10016274,72728397,1596,1597,1540,1541,0,0,0,0,0,0,0,0,0,0
1706596098.20012283,72828357,1598,1597,1540,1541,0,0,0,0,0,0,0,0,0,0
1706596098.30008292,72928317,1598,1596,1543,1545,0,0,0,0,0,0,0,0,0,0
1706596098.40004277,73028277,1594,1591,1547,1549,0,0,0,0,0,0,0,0,0,0
1706596098.50000286,73128237,1588,1583,1555,1556,0,0,0,0,0,0,0,0,0,0
1706596098.59996295,73228197,1580,1576,1565,1567,0,0,0,0,0,0,0,0,0,0
1706596098.69992280,73328157,1569,1566,1576,1578,0,0,0,0,0,0,0,0,0,0
1706596098.80071592,73428950,1559,1556,1586,1588,0,0,0,0,0,0,0,0,0,0
1706596098.90067577,73528910,1549,1548,1597,1597,0,0,0,0,0,0,0,0,0,0
1706596099.00063586,73628870,1542,1542,1604,1605,0,0,0,0,0,0,0,0,0,0
1706596099.10059595,73728830,1539,1539,1607,1608,0,0,0,0,0,0,0,0,0,0
1706596099.20055580,73828790,1540,1541,1609,1609,0,0,0,0,0,0,0,0,0,0
1706596099.30051589,73928750,1543,1544,1608,1607,0,0,0,0,0,0,0,0,0,0
1706596099.40047574,74028710,1548,1549,1605,1604,0,0,0,0,0,0,0,0,0,0
1706596099.50043583,74128670,1554,1555,1602,1600,0,0,0,0,0,0,0,0,0,0
1706596099.60039592,74228630,1559,1560,1596,1595,0,0,0,0,0,0,0,0,0,0
1706596099.70035577,74328590,1566,1566,1590,1590,0,0,0,0,0,0,0,0,0,0
1706596099.80031586,74428550,1572,1573,1585,1585,0,0,0,0,0,0,0,0,0,0
1706596099.90027595,74528510,1578,1577,1579,1579,0,0,0,0,0,0,0,0,0,0
1706596100.00023580,74628470,1582,1581,1575,1575,0,0,0,0,0,0,0,0,0,0
1706596100.10019588,74728430,1585,1583,1573,1572,0,0,0,0,0,0,0,0,0,0
1706596100.20015574,74828390,1585,1584,1572,1571,0,0,0,0,0,0,0,0,0,0
1706596100.30011582,74928350,1586,1584,1573,1572,0,0,0,0,0,0,0,0,0,0
1706596100.40007591,75028310,1584,1584,1575,1574,0,0,0,0,0,0,0,0,0,0
1706596100.50003576,75128270,1581,1581,1576,1576,0,0,0,0,0,0,0,0,0,0
1706596100.59999585,75228230,1578,1579,1577,1577,0,0,0,0,0,0,0,0,0,0
1706596100.69995594,75328190,1577,1578,1580,1580,0,0,0,0,0,0,0,0,0,0
1706596100.80074883,75428983,1575,1575,1581,1581,0,0,0,0,0,0,0,0,0,0
1706596100.90070891,75528943,1574,1575,1582,1583,0,0,0,0,0,0,0,0,0,0
1706596101.00066876,75628903,1573,1574,1583,1583,0,0,0,0,0,0,0,0,0,0
1706596101.10062885,75728863,1573,1574,1582,1583,0,0,0,0,0,0,0,0,0,0
1706596101.20058894,75828823,1574,1575,1583,1583,0,0,0,0,0,0,0,0,0,0
1706596101.30054879,75928783,1576,1575,1582,1582,0,0,0,0,0,0,0,0,0,0
1706596101.40050888,76028743,1578,1578,1582,1581,0,0,0,0,0,0,0,0,0,0
1706596101.50046897,76128703,1579,1579,1581,1581,0,0,0,0,0,0,0,0,0,0
1706596101.60042882,76228663,1578,1579,1579,1579,0,0,0,0,0,0,0,0,0,0
1706596101.70038891,76328623,1580,1580,1579,1579,0,0,0,0,0,0,0,0,0,0
1706596101.80034876,76428583,1581,1580,1579,1579,0,0,0,0,0,0,0,0,0,0
1706596101.90030885,76528543,1581,1581,1579,1578,0,0,0,0,0,0,0,0,0,0
1706596102.00026894,76628503,1580,1581,1578,1578,0,0,0,0,0,0,0,0,0,0
1706596102.10022879,76728463,1580,1580,1578,1578,0,0,0,0,0,0,0,0,0,0
1706596102.20018888,76828423,1581,1580,1579,1579,0,0,0,0,0,0,0,0,0,0
1706596102.30014896,76928383,1580,1580,1580,1579,0,0,0,0,0,0,0,0,0,0
1706596102.40010881,77028343,1580,1580,1581,1580,0,0,0,0,0,0,0,0,0,0
1706596102.50006890,77128303,1580,1580,1580,1581,0,0,0,0,0,0,0,0,0,0
1706596102.60002875,77228263,1580,1580,1581,1581,0,0,0,0,0,0,0,0,0,0
1706596102.69998884,77328223,1580,1581,1582,1582,0,0,0,0,0,0,0,0,0,0
1706596102.79994893,77428183,1579,1580,1582,1581,0,0,0,0,0,0,0,0,0,0
1706596102.90074182,77528976,1580,1581,1582,1582,0,0,0,0,0,0,0,0,0,0
1706596103.00070190,77628936,1580,1580,1581,1580,0,0,0,0,0,0,0,0,0,0
1706596103.10066175,77728896,1581,1580,1581,1581,0,0,0,0,0,0,0,0,0,0
1706596103.20062184,77828856,1581,1580,1580,1581,0,0,0,0,0,0,0,0,0,0
1706596103.30058193,77928816,1581,1582,1581,1581,0,0,0,0,0,0,0,0,0,0
1706596103.40054178,78028776,1580,1580,1580,1580,0,0,0,0,0,0,0,0,0,0
1706596103.50050187,78128736,1580,1580,1579,1580,0,0,0,0,0,0,0,0,0,0
1706596103.60046196,78228696,1579,1579,1579,1579,0,0,0,0,0,0,0,0,0,0
1706596103.70042181,78328656,1579,1580,1579,1579,0,0,0,0,0,0,0,0,0,0
1706596103.80038190,78428616,1581,1581,1581,1580,0,0,0,0,0,0,0,0,0,0
1706596103.90034175,78528576,1580,1580,1580,1579,0,0,0,0,0,0,0,0,0,0
1706596104.00030184,78628536,1579,1582,1586,1572,0,0,0,0,0,0,0,0,0,0
1706596104.10026193,78728496,1580,1583,1583,1572,0,0,0,0,0,0,0,0,0,0
1706596104.20022178,78828456,1579,1582,1573,1571,0,0,0,0,0,0,0,0,0,0
1706596104.30018187,78928416,1580,1582,1565,1570,0,0,0,0,0,0,0,0,0,0
1706596104.40014195,79028376,1578,1580,1558,1565,0,0,0,0,0,0,0,0,0,0
1706596104.50010180,79128336,1580,1580,1556,1561,0,0,0,0,0,0,0,0,0,0
1706596104.60006189,79228296,1582,1580,1555,1557,0,0,0,0,0,0,0,0,0,0
1706596104.70002174,79328256,1582,1580,1556,1556,0,0,0,0,0,0,0,0,0,0
1706596104.79998183,79428216,1581,1580,1557,1555,0,0,0,0,0,0,0,0,0,0
1706596104.89994192,79528176,1579,1579,1557,1554,0,0,0,0,0,0,0,0,0,0
1706596105.00073481,79628969,1577,1578,1557,1555,0,0,0,0,0,0,0,0,0,0
1706596105.10069489,79728929,1577,1578,1557,1556,0,0,0,0,0,0,0,0,0,0
1706596105.20065475,79828889,1575,1577,1555,1555,0,0,0,0,0,0,0,0,0,0
1706596105.30061483,79928849,1576,1578,1554,1555,0,0,0,0,0,0,0,0,0,0
1706596105.40057492,80028809,1576,1577,1552,1552,0,0,0,0,0,0,0,0,0,0
1706596105.50053477,80128769,1578,1579,1550,1551,0,0,0,0,0,0,0,0,0,0
1706596105.60049486,80228729,1580,1581,1547,1548,0,0,0,0,0,0,0,0,0,0
1706596105.70045495,80328689,1583,1583,1546,1545,0,0,0,0,0,0,0,0,0,0
1706596105.80041480,80428649,1585,1585,1543,1542,0,0,0,0,0,0,0,0,0,0
1706596105.90037489,80528609,1588,1589,1541,1541,0,0,0,0,0,0,0,0,0,0
1706596106.00033474,80628569,1592,1591,1540,1540,0,0,0,0,0,0,0,0,0,0
1706596106.10029483,80728529,1592,1593,1537,1539,0,0,0,0,0,0,0,0,0,0
1706596106.20025492,80828489,1593,1595,1536,1537,0,0,0,0,0,0,0,0,0,0
1706596106.30021477,80928449,1594,1594,1537,1538,0,0,0,0,0,0,0,0,0,0
1706596106.40017486,81028409,1592,1592,1539,1541,0,0,0,0,0,0,0,0,0,0
1706596106.50013494,81128369,1589,1586,1544,1546,0,0,0,0,0,0,0,0,0,0
1706596106.60009480,81228329,1583,1580,1552,1554,0,0,0,0,0,0,0,0,0,0
1706596106.70005488,81328289,1576,1571,1563,1564,0,0,0,0,0,0,0,0,0,0
1706596106.80001473,81428249,1564,1560,1574,1575,0,0,0,0,0,0,0,0,0,0
1706596106.89997482,81528209,1553,1550,1586,1587,0,0,0,0,0,0,0,0,0,0
1706596106.99993491,81628169,1542,1540,1596,1596,0,0,0,0,0,0,0,0,0,0
1706596107.10072780,81728962,1536,1535,1604,1605,0,0,0,0,0,0,0,0,0,0
1706596107.20068789,81828922,1533,1534,1611,1610,0,0,0,0,0,0,0,0,0,0
1706596107.30064774,81928882,1531,1533,1610,1610,0,0,0,0,0,0,0,0,0,0
1706596107.40060782,82028842,1537,1539,1609,1610,0,0,0,0,0,0,0,0,0,0
1706596107.50056791,82128802,1543,1545,1605,1606,0,0,0,0,0,0,0,0,0,0
1706596107.60052776,82228762,1549,1551,1599,1598,0,0,0,0,0,0,0,0,0,0
1706596107.70048785,82328722,1558,1559,1593,1592,0,0,0,0,0,0,0,0,0,0
1706596107.80044794,82428682,1567,1567,1587,1586,0,0,0,0,0,0,0,0,0,0
1706596107.90040779,82528642,1575,1574,1581,1580,0,0,0,0,0,0,0,0,0,0
1706596108.00036788,82628602,1580,1579,1575,1575,0,0,0,0,0,0,0,0,0,0
1706596108.10032797,82728562,1584,1583,1573,1572,0,0,0,0,0,0,0,0,0,0
1706596108.20028782,82828522,1585,1584,1570,1569,0,0,0,0,0,0,0,0,0,0
1706596108.30024791,82928482,1586,1585,1570,1570,0,0,0,0,0,0,0,0,0,0
1706596108.40020776,83028442,1585,1584,1572,1571,0,0,0,0,0,0,0,0,0,0
1706596108.50016785,83128402,1583,1582,1573,1573,0,0,0,0,0,0,0,0,0,0
1706596108.60012794,83228362,1581,1581,1576,1576,0,0,0,0,0,0,0,0,0,0
1706596108.70008779,83328322,1578,1578,1578,1578,0,0,0,0,0,0,0,0,0,0
1706596108.80004787,83428282,1576,1576,1580,1580,0,0,0,0,0,0,0,0,0,0
1706596108.90000796,83528242,1574,1575,1582,1582,0,0,0,0,0,0,0,0,0,0
1706596108.99996781,83628202,1573,1574,1582,1583,0,0,0,0,0,0,0,0,0,0
1706596109.09992790,83728162,1572,1572,1581,1582,0,0,0,0,0,0,0,0,0,0
1706596109.20072079,83828955,1572,1572,1581,1581,0,0,0,0,0,0,0,0,0,0
1706596109.30068088,83928915,1573,1574,1581,1581,0,0,0,0,0,0,0,0,0,0
1706596109.40064096,84028875,1575,1575,1581,1580,0,0,0,0,0,0,0,0,0,0
1706596109.50060081,84128835,1576,1576,1580,1579,0,0,0,0,0,0,0,0,0,0
1706596109.60056090,84228795,1578,1578,1579,1579,0,0,0,0,0,0,0,0,0,0
1706596109.70052075,84328755,1580,1579,1579,1578,0,0,0,0,0,0,0,0,0,0
1706596109.80048084,84428715,1580,1580,1578,1578,0,0,0,0,0,0,0,0,0,0
1706596109.90044093,84528675,1580,1580,1577,1577,0,0,0,0,0,0,0,0,0,0
1706596110.00040078,84628635,1580,1580,1578,1577,0,0,0,0,0,0,0,0,0,0
1706596110.10036087,84728595,1581,1580,1578,1578,0,0,0,0,0,0,0,0,0,0
1706596110.20032096,84828555,1580,1580,1578,1578,0,0,0,0,0,0,0,0,0,0
1706596110.30028081,84928515,1580,1581,1578,1579,0,0,0,0,0,0,0,0,0,0
1706596110.40024090,85028475,1578,1579,1578,1578,0,0,0,0,0,0,0,0,0,0
1706596110.50020075,85128435,1578,1579,1578,1579,0,0,0,0,0,0,0,0,0,0
1706596110.60016084,85228395,1579,1579,1579,1580,0,0,0,0,0,0,0,0,0,0
1706596110.70012093,85328355,1580,1580,1581,1581,0,0,0,0,0,0,0,0,0,0
1706596110.80008078,85428315,1579,1579,1580,1580,0,0,0,0,0,0,0,0,0,0
1706596110.90004086,85528275,1579,1580,1581,1580,0,0,0,0,0,0,0,0,0,0
1706596111.00000095,85628235,1580,1581,1582,1581,0,0,0,0,0,0,0,0,0,0
1706596111.09996080,85728195,1580,1580,1581,1581,0,0,0,0,0,0,0,0,0,0
1706596111.19992089,85828155,1580,1580,1581,1581,0,0,0,0,0,0,0,0,0,0
1706596111.30071378,85928948,1581,1581,1581,1581,0,0,0,0,0,0,0,0,0,0
1706596111.40067387,86028908,1579,1580,1579,1579,0,0,0,0,0,0,0,0,0,0
1706596111.50063396,86128868,1580,1580,1580,1580,0,0,0,0,0,0,0,0,0,0
1706596111.60059381,86228828,1579,1579,1579,1579,0,0,0,0,0,0,0,0,0,0
1706596111.70055389,86328788,1580,1580,1580,1579,0,0,0,0,0,0,0,0,0,0
1706596111.80051374,86428748,1581,1582,1585,1576,0,0,0,0,0,0,0,0,0,0
1706596111.90047383,86528708,1581,1582,1588,1572,0,0,0,0,0,0,0,0,0,0
1706596112.00043392,86628668,1579,1580,1582,1574,0,0,0,0,0,0,0,0,0,0
1706596112.10039377,86728628,1576,1576,1574,1576,0,0,0,0,0,0,0,0,0,0
1706596112.20035386,86828588,1572,1572,1567,1574,0,0,0,0,0,0,0,0,0,0
1706596112.30031395,86928548,1569,1569,1565,1572,0,0,0,0,0,0,0,0,0,0
1706596112.40027380,87028508,1570,1569,1567,1571,0,0,0,0,0,0,0,0,0,0
1706596112.50023389,87128468,1568,1567,1567,1569,0,0,0,0,0,0,0,0,0,0
1706596112.60019374,87228428,1567,1567,1568,1567,0,0,0,0,0,0,0,0,0,0
1706596112.70015383,87328388,1565,1566,1568,1565,0,0,0,0,0,0,0,0,0,0
1706596112.80011392,87428348,1565,1565,1567,1565,0,0,0,0,0,0,0,0,0,0
1706596112.90007377,87528308,1564,1564,1565,1564,0,0,0,0,0,0,0,0,0,0
1706596113.00003386,87628268,1564,1564,1564,1564,0,0,0,0,0,0,0,0,0,0
1706596113.09999394,87728228,1564,1563,1563,1564,0,0,0,0,0,0,0,0,0,0
1706596113.19995379,87828188,1562,1563,1562,1563,0,0,0,0,0,0,0,0,0,0
1706596113.30074692,87928981,1562,1562,1562,1562,0,0,0,0,0,0,0,0,0,0
1706596113.40070677,88028941,1561,1561,1561,1560,0,0,0,0,0,0,0,0,0,0
1706596113.50066686,88128901,1561,1561,1561,1561,0,0,0,0,0,0,0,0,0,0
1706596113.60062695,88228861,1561,1561,1561,1560,0,0,0,0,0,0,0,0,0,0
1706596113.70058680,88328821,1560,1560,1560,1559,0,0,0,0,0,0,0,0,0,0
1706596113.80054688,88428781,1558,1558,1559,1557,0,0,0,0,0,0,0,0,0,0
1706596113.90050673,88528741,1556,1556,1556,1556,0,0,0,0,0,0,0,0,0,0
1706596114.00046682,88628701,1556,1557,1557,1556,0,0,0,0,0,0,0,0,0,0
1706596114.10042691,88728661,1556,1556,1557,1556,0,0,0,0,0,0,0,0,0,0
1706596114.20038676,88828621,1556,1556,1557,1555,0,0,0,0,0,0,0,0,0,0
1706596114.30034685,88928581,1557,1557,1558,1556,0,0,0,0,0,0,0,0,0,0
1706596114.40030694,89028541,1556,1557,1557,1556,0,0,0,0,0,0,0,0,0,0
1706596114.50026679,89128501,1558,1558,1559,1556,0,0,0,0,0,0,0,0,0,0
1706596114.60022688,89228461,1558,1558,1558,1557,0,0,0,0,0,0,0,0,0,0
1706596114.70018697,89328421,1559,1559,1557,1561,0,0,0,0,0,0,0,0,0,0
1706596114.80014682,89428381,1560,1559,1556,1562,0,0,0,0,0,0,0,0,0,0
1706596114.90010691,89528341,1558,1558,1555,1561,0,0,0,0,0,0,0,0,0,0
1706596115.00006676,89628301,1561,1562,1559,1563,0,0,0,0,0,0,0,0,0,0
1706596115.10002685,89728261,1560,1560,1558,1562,0,0,0,0,0,0,0,0,0,0
1706596115.19998693,89828221,1556,1556,1556,1558,0,0,0,0,0,0,0,0,0,0
1706596115.29994678,89928181,1550,1550,1551,1551,0,0,0,0,0,0,0,0,0,0
1706596115.40073991,90028974,1543,1543,1545,1544,0,0,0,0,0,0,0,0,0,0
1706596115.50069976,90128934,1537,1536,1539,1538,0,0,0,0,0,0,0,0,0,0
1706596115.60065985,90228894,1530,1530,1532,1531,0,0,0,0,0,0,0,0,0,0
1706596115.70061994,90328854,1523,1523,1524,1524,0,0,0,0,0,0,0,0,0,0
1706596115.80057979,90428814,1520,1520,1521,1521,0,0,0,0,0,0,0,0,0,0
1706596115.90053988,90528774,1521,1522,1521,1521,0,0,0,0,0,0,0,0,0,0
1706596116.00049996,90628734,1523,1523,1522,1522,0,0,0,0,0,0,0,0,0,0
1706596116.10045981,90728694,1526,1526,1524,1524,0,0,0,0,0,0,0,0,0,0
1706596116.20041990,90828654,1530,1530,1527,1528,0,0,0,0,0,0,0,0,0,0
1706596116.30037975,90928614,1535,1535,1532,1533,0,0,0,0,0,0,0,0,0,0
1706596116.40033984,91028574,1539,1539,1537,1537,0,0,0,0,0,0,0,0,0,0
1706596116.50029993,91128534,1541,1541,1540,1540,0,0,0,0,0,0,0,0,0,0
1706596116.60025978,91228494,1542,1542,1542,1542,0,0,0,0,0,0,0,0,0,0
1706596116.70021987,91328454,1544,1544,1544,1545,0,0,0,0,0,0,0,0,0,0
1706596116.80017996,91428414,1544,1544,1545,1545,0,0,0,0,0,0,0,0,0,0
1706596116.90013981,91528374,1545,1545,1546,1546,0,0,0,0,0,0,0,0,0,0
1706596117.00009990,91628334,1545,1544,1546,1546,0,0,0,0,0,0,0,0,0,0
1706596117.10005975,91728294,1545,1545,1547,1546,0,0,0,0,0,0,0,0,0,0
1706596117.20001984,91828254,1545,1545,1546,1547,0,0,0,0,0,0,0,0,0,0
1706596117.29997993,91928214,1545,1544,1546,1546,0,0,0,0,0,0,0,0,0,0
1706596117.39993978,92028174,1546,1546,1547,1546,0,0,0,0,0,0,0,0,0,0
1706596117.50073290,92128967,1545,1545,1546,1545,0,0,0,0,0,0,0,0,0,0
1706596117.60069275,92228927,1544,1545,1545,1545,0,0,0,0,0,0,0,0,0,0
1706596117.70065284,92328887,1544,1544,1544,1544,0,0,0,0,0,0,0,0,0,0
1706596117.80061293,92428847,1545,1544,1544,1544,0,0,0,0,0,0,0,0,0,0
1706596117.90057278,92528807,1545,1545,1544,1544,0,0,0,0,0,0,0,0,0,0
1706596118.00053287,92628767,1545,1545,1545,1544,0,0,0,0,0,0,0,0,0,0
1706596118.10049295,92728727,1544,1543,1544,1543,0,0,0,0,0,0,0,0,0,0
1706596118.20045280,92828687,1544,1544,1544,1543,0,0,0,0,0,0,0,0,0,0
1706596118.30041289,92928647,1544,1544,1544,1544,0,0,0,0,0,0,0,0,0,0
1706596118.40037274,93028607,1544,1544,1544,1543,0,0,0,0,0,0,0,0,0,0
1706596118.50033283,93128567,1544,1544,1544,1544,0,0,0,0,0,0,0,0,0,0
1706596118.60029292,93228527,1543,1543,1543,1543,0,0,0,0,0,0,0,0,0,0
1706596118.70025277,93328487,1544,1544,1544,1544,0,0,0,0,0,0,0,0,0,0
1706596118.80021286,93428447,1544,1544,1544,1544,0,0,0,0,0,0,0,0,0,0
1706596118.90017295,93528407,1544,1544,1544,1544,0,0,0,0,0,0,0,0,0,0
1706596119.00013280,93628367,1543,1543,1543,1543,0,0,0,0,0,0,0,0,0,0
1706596119.10009289,93728327,1544,1544,1544,1544,0,0,0,0,0,0,0,0,0,0
1706596119.20005274,93828287,1543,1543,1544,1543,0,0,0,0,0,0,0,0,0,0
1706596119.30001283,93928247,1544,1544,1544,1544,0,0,0,0,0,0,0,0,0,0
1706596119.39997292,94028207,1545,1544,1544,1545,0,0,0,0,0,0,0,0,0,0
1706596119.49993277,94128167,1545,1545,1545,1545,0,0,0,0,0,0,0,0,0,0
1706596119.60072589,94228960,1544,1544,1545,1544,0,0,0,0,0,0,0,0,0,0
1706596119.70068574,94328920,1544,1544,1544,1544,0,0,0,0,0,0,0,0,0,0
1706596119.80064583,94428880,1544,1545,1544,1545,0,0,0,0,0,0,0,0,0,0
1706596119.90060592,94528840,1545,1544,1544,1545,0,0,0,0,0,0,0,0,0,0
1706596120.00056577,94628800,1544,1544,1544,1544,0,0,0,0,0,0,0,0,0,0
1706596120.10052586,94728760,1543,1543,1543,1543,0,0,0,0,0,0,0,0,0,0
1706596120.20048594,94828720,1543,1544,1544,1543,0,0,0,0,0,0,0,0,0,0
1706596120.30044580,94928680,1545,1544,1545,1544,0,0,0,0,0,0,0,0,0,0
1706596120.40040588,95028640,1544,1544,1544,1544,0,0,0,0,0,0,0,0,0,0
1706596120.50036573,95128600,1544,1544,1544,1544,0,0,0,0,0,0,0,0,0,0
1706596120.60032582,95228560,1543,1544,1544,1544,0,0,0,0,0,0,0,0,0,0
1706596120.70028591,95328520,1544,1543,1544,1544,0,0,0,0,0,0,0,0,0,0
1706596120.80024576,95428480,1543,1543,1543,1543,0,0,0,0,0,0,0,0,0,0
1706596120.90020585,95528440,1543,1543,1543,1543,0,0,0,0,0,0,0,0,0,0
1706596121.00016594,95628400,1544,1544,1544,1543,0,0,0,0,0,0,0,0,0,0
1706596121.10012579,95728360,1544,1544,1544,1544,0,0,0,0,0,0,0,0,0,0
1706596121.20008588,95828320,1544,1543,1543,1544,0,0,0,0,0,0,0,0,0,0
1706596121.30004597,95928280,1543,1543,1543,1543,0,0,0,0,0,0,0,0,0,0
1706596121.40000582,96028240,1544,1544,1544,1544,0,0,0,0,0,0,0,0,0,0
1706596121.49996591,96128200,1545,1545,1545,1545,0,0,0,0,0,0,0,0,0,0
1706596121.59992576,96228160,1544,1545,1545,1544,0,0,0,0,0,0,0,0,0,0
1706596121.70071888,96328953,1545,1545,1545,1545,0,0,0,0,0,0,0,0,0,0
1706596121.80067897,96428913,1545,1545,1545,1545,0,0,0,0,0,0,0,0,0,0
1706596121.90063882,96528873,1545,1545,1545,1545,0,0,0,0,0,0,0,0,0,0
1706596122.00059891,96628833,1545,1545,1545,1545,0,0,0,0,0,0,0,0,0,0
1706596122.10055876,96728793,1545,1545,1545,1545,0,0,0,0,0,0,0,0,0,0
1706596122.20051885,96828753,1545,1545,1545,1545,0,0,0,0,0,0,0,0,0,0
1706596122.30047894,96928713,1545,1545,1544,1545,0,0,0,0,0,0,0,0,0,0
1706596122.40043879,97028673,1545,1544,1545,1544,0,0,0,0,0,0,0,0,0,0
1706596122.50039887,97128633,1545,1544,1545,1545,0,0,0,0,0,0,0,0,0,0
1706596122.60035896,97228593,1545,1545,1545,1545,0,0,0,0,0,0,0,0,0,0
1706596122.70031881,97328553,1545,1545,1545,1545,0,0,0,0,0,0,0,0,0,0
1706596122.80027890,97428513,1544,1544,1544,1544,0,0,0,0,0,0,0,0,0,0
1706596122.90023875,97528473,1545,1544,1545,1545,0,0,0,0,0,0,0,0,0,0
1706596123.00019884,97628433,1544,1544,1544,1544,0,0,0,0,0,0,0,0,0,0
1706596123.10015893,97728393,1545,1545,1545,1545,0,0,0,0,0,0,0,0,0,0
1706596123.20011878,97828353,1545,1546,1545,1545,0,0,0,0,0,0,0,0,0,0
1706596123.30007887,97928313,1544,1544,1544,1545,0,0,0,0,0,0,0,0,0,0
1706596123.40003896,98028273,1543,1543,1544,1543,0,0,0,0,0,0,0,0,0,0
1706596123.49999881,98128233,1545,1544,1544,1545,0,0,0,0,0,0,0,0,0,0
1706596123.59995890,98228193,1543,1543,1544,1543,0,0,0,0,0,0,0,0,0,0
1706596123.70075178,98328986,1544,1544,1544,1544,0,0,0,0,0,0,0,0,0,0
1706596123.80071187,98428946,1544,1544,1544,1544,0,0,0,0,0,0,0,0,0,0
1706596123.90067196,98528906,1543,1544,1543,1544,0,0,0,0,0,0,0,0,0,0
1706596124.00063181,98628866,1543,1543,1543,1543,0,0,0,0,0,0,0,0,0,0
1706596124.10059190,98728826,1544,1544,1544,1544,0,0,0,0,0,0,0,0,0,0
1706596124.20055175,98828786,1545,1545,1544,1545,0,0,0,0,0,0,0,0,0,0
1706596124.30051184,98928746,1545,1544,1544,1545,0,0,0,0,0,0,0,0,0,0
1706596124.40047193,99028706,1544,1544,1544,1544,0,0,0,0,0,0,0,0,0,0
1706596124.50043178,99128666,1544,1544,1544,1544,0,0,0,0,0,0,0,0,0,0
1706596124.60039186,99228626,1544,1544,1545,1544,0,0,0,0,0,0,0,0,0,0
1706596124.70035195,99328586,1544,1543,1544,1544,0,0,0,0,0,0,0,0,0,0
1706596124.80031180,99428546,1544,1544,1544,1544,0,0,0,0,0,0,0,0,0,0
1706596124.90027189,99528506,1544,1544,1544,1544,0,0,0,0,0,0,0,0,0,0
1706596125.00023174,99628466,1544,1544,1544,1544,0,0,0,0,0,0,0,0,0,0
1706596125.10019183,99728426,1544,1544,1544,1545,0,0,0,0,0,0,0,0,0,0
1706596125.20015192,99828386,1544,1544,1544,1544,0,0,0,0,0,0,0,0,0,0
1706596125.30011177,99928346,1544,1544,1544,1544,0,0,0,0,0,0,0,0,0,0
1706596125.40007186,100028306,1544,1544,1544,1544,0,0,0,0,0,0,0,0,0,0
1706596125.50003195,100128266,1365,1361,1363,1401,0,0,0,0,0,0,0,0,0,0
1706596125.59999180,100228226,1289,1282,1284,1346,0,0,0,0,0,0,0,0,0,0
1706596125.69995189,100328186,1289,1282,1285,1347,0,0,0,0,0,0,0,0,0,0
1706596125.80074477,100428979,1287,1282,1284,1346,0,0,0,0,0,0,0,0,0,0
1706596125.90070486,100528939,1289,1282,1284,1347,0,0,0,0,0,0,0,0,0,0
1706596126.00066495,100628899,1289,1282,1285,1346,0,0,0,0,0,0,0,0,0,0
1706596126.10062480,100728859,1291,1282,1285,1348,0,0,0,0,0,0,0,0,0,0
1706596126.20058489,100828819,1314,1282,1283,1365,0,0,0,0,0,0,0,0,0,0
1706596126.30054474,100928779,1308,1282,1285,1360,0,0,0,0,0,0,0,0,0,0
1706596126.40050483,101028739,1307,1282,1285,1359,0,0,0,0,0,0,0,0,0,0
1706596126.50046492,101128699,1308,1282,1284,1360,0,0,0,0,0,0,0,0,0,0
1706596126.60042477,101228659,1309,1282,1285,1361,0,0,0,0,0,0,0,0,0,0
1706596126.70038486,101328619,1312,1282,1285,1363,0,0,0,0,0,0,0,0,0,0
1706596126.80034494,101428579,1313,1282,1285,1363,0,0,0,0,0,0,0,0,0,0
1706596126.90030479,101528539,1295,1282,1284,1351,0,0,0,0,0,0,0,0,0,0
1706596127.00026488,101628499,1300,1282,1284,1355,0,0,0,0,0,0,0,0,0,0
1706596127.10022473,101728459,1302,1282,1284,1356,0,0,0,0,0,0,0,0,0,0
1706596127.20018482,101828419,1302,1282,1284,1356,0,0,0,0,0,0,0,0,0,0
1706596127.30014491,101928379,1303,1282,1284,1357,0,0,0,0,0,0,0,0,0,0
1706596127.40010476,102028339,1282,1282,1282,1150,0,0,0,0,0,0,0,0,0,0
1706596127.50006485,102128299,1000,1000,1000,1000,0,0,0,0,0,0,0,0,0,0
1706596127.60002494,102228259,1000,1000,1000,1000,0,0,0,0,0,0,0,0,0,0
1706596127.69998479,102328219,1000,1000,1000,1000,0,0,0,0,0,0,0,0,0,0
1706596127.79994488,102428179,1000,1000,1000,1000,0,0,0,0,0,0,0,0,0,0
1706596127.90073776,102528972,1000,1000,1000,1000,0,0,0,0,0,0,0,0,0,0
1706596128.00069785,102628932,1000,1000,1000,1000,0,0,0,0,0,0,0,0,0,0
1706596128.10065794,102728892,1000,1000,1000,1000,0,0,0,0,0,0,0,0,0,0
1706596128.20061779,102828852,1000,1000,1000,1000,0,0,0,0,0,0,0,0,0,0
1706596128.30057788,102928812,1000,1000,1000,1000,0,0,0,0,0,0,0,0,0,0
1706596128.40053797,103028772,1000,1000,1000,1000,0,0,0,0,0,0,0,0,0,0
1706596128.50049782,103128732,1000,1000,1000,1000,0,0,0,0,0,0,0,0,0,0
1706596128.60045791,103228692,1000,1000,1000,1000,0,0,0,0,0,0,0,0,0,0
1706596128.70041776,103328652,1000,1000,1000,1000,0,0,0,0,0,0,0,0,0,0
1706596128.80037785,103428612,1000,1000,1000,1000,0,0,0,0,0,0,0,0,0,0
1706596128.90033793,103528572,1000,1000,1000,1000,0,0,0,0,0,0,0,0,0,0
1706596129.00029778,103628532,1000,1000,1000,1000,0,0,0,0,0,0,0,0,0,0
1706596129.10025787,103728492,1000,1000,1000,1000,0,0,0,0,0,0,0,0,0,0
1706596129.20021796,103828452,1000,1000,1000,1000,0,0,0,0,0,0,0,0,0,0
1706596129.30017781,103928412,1000,1000,1000,1000,0,0,0,0,0,0,0,0,0,0
1706596129.40013790,104028372,1000,1000,1000,1000,0,0,0,0,0,0,0,0,0,0
1706596129.50009775,104128332,1000,1000,1000,1000,0,0,0,0,0,0,0,0,0,0
1706596129.60005784,104228292,1000,1000,1000,1000,0,0,0,0,0,0,0,0,0,0
1706596129.70001793,104328252,1000,1000,1000,1000,0,0,0,0,0,0,0,0,0,0
1706596129.79997778,104428212,1000,1000,1000,1000,0,0,0,0,0,0,0,0,0,0
1706596129.89993787,104528172,1000,1000,1000,1000,0,0,0,0,0,0,0,0,0,0
1706596130.00073075,104628965,1000,1000,1000,1000,0,0,0,0,0,0,0,0,0,0
1706596130.10069084,104728925,1000,1000,1000,1000,0,0,0,0,0,0,0,0,0,0
1706596130.20065093,104828885,1000,1000,1000,1000,0,0,0,0,0,0,0,0,0,0
1706596130.30061078,104928845,1000,1000,1000,1000,0,0,0,0,0,0,0,0,0,0
1706596130.40057087,105028805,1000,1000,1000,1000,0,0,0,0,0,0,0,0,0,0
1706596130.50053096,105128765,1000,1000,1000,1000,0,0,0,0,0,0,0,0,0,0
1706596130.60049081,105228725,1000,1000,1000,1000,0,0,0,0,0,0,0,0,0,0
1706596130.70045090,105328685,1000,1000,1000,1000,0,0,0,0,0,0,0,0,0,0
1706596130.80041075,105428645,1000,1000,1000,1000,0,0,0,0,0,0,0,0,0,0
1706596130.90037084,105528605,1000,1000,1000,1000,0,0,0,0,0,0,0,0,0,0
1706596131.00033092,105628565,1000,1000,1000,1000,0,0,0,0,0,0,0,0,0,0
1706596131.10029078,105728525,1000,1000,1000,1000,0,0,0,0,0,0,0,0,0,0
1706596131.20025086,105828485,1000,1000,1000,1000,0,0,0,0,0,0,0,0,0,0
1706596131.30021095,105928445,1000,1000,1000,1000,0,0,0,0,0,0,0,0,0,0
1706596131.40017080,106028405,1000,1000,1000,1000,0,0,0,0,0,0,0,0,0,0
1706596131.50013089,106128365,1000,1000,1000,1000,0,0,0,0,0,0,0,0,0,0
1706596131.60009074,106228325,1000,1000,1000,1000,0,0,0,0,0,0,0,0,0,0
1706596131.70005083,106328285,1000,1000,1000,1000,0,0,0,0,0,0,0,0,0,0
1706596131.80001092,106428245,1000,1000,1000,1000,0,0,0,0,0,0,0,0,0,0
1706596131.89997077,106528205,1000,1000,1000,1000,0,0,0,0,0,0,0,0,0,0
1706596131.99993086,106628165,1000,1000,1000,1000,0,0,0,0,0,0,0,0,0,0
1706596132.10072374,106728958,1000,1000,1000,1000,0,0,0,0,0,0,0,0,0,0
1706596132.20068383,106828918,1000,1000,1000,1000,0,0,0,0,0,0,0,0,0,0
1706596132.30064392,106928878,1000,1000,1000,1000,0,0,0,0,0,0,0,0,0,0
1706596132.40060377,107028838,1000,1000,1000,1000,0,0,0,0,0,0,0,0,0,0
1706596132.50056386,107128798,1000,1000,1000,1000,0,0,0,0,0,0,0,0,0,0
1706596132.60052395,107228758,1000,1000,1000,1000,0,0,0,0,0,0,0,0,0,0
1706596132.70048380,107328718,1000,1000,1000,1000,0,0,0,0,0,0,0,0,0,0
1706596132.80044389,107428678,1000,1000,1000,1000,0,0,0,0,0,0,0,0,0,0
1706596132.90040374,107528638,1000,1000,1000,1000,0,0,0,0,0,0,0,0,0,0
1706596133.00036383,107628598,1000,1000,1000,1000,0,0,0,0,0,0,0,0,0,0
1706596133.10032392,107728558,1000,1000,1000,1000,0,0,0,0,0,0,0,0,0,0
1706596133.20028377,107828518,1000,1000,1000,1000,0,0,0,0,0,0,0,0,0,0
1706596133.30024385,107928478,1000,1000,1000,1000,0,0,0,0,0,0,0,0,0,0
1706596133.40020394,108028438,1000,1000,1000,1000,0,0,0,0,0,0,0,0,0,0
1706596133.50016379,108128398,1000,1000,1000,1000,0,0,0,0,0,0,0,0,0,0
1706596133.60012388,108228358,1000,1000,1000,1000,0,0,0,0,0,0,0,0,0,0
1706596133.70008397,108328318,1000,1000,1000,1000,0,0,0,0,0,0,0,0,0,0
1706596133.80004382,108428278,1000,1000,1000,1000,0,0,0,0,0,0,0,0,0,0
1706596133.90000391,108528238,1000,1000,1000,1000,0,0,0,0,0,0,0,0,0,0
1706596133.99996376,108628198,1000,1000,1000,1000,0,0,0,0,0,0,0,0,0,0
1706596134.09992385,108728158,1000,1000,1000,1000,0,0,0,0,0,0,0,0,0,0
1706596134.20071673,108828951,1000,1000,1000,1000,0,0,0,0,0,0,0,0,0,0
1706596134.30067682,108928911,1000,1000,1000,1000,0,0,0,0,0,0,0,0,0,0
1706596134.40063691,109028871,1000,1000,1000,1000,0,0,0,0,0,0,0,0,0,0
1706596134.50059676,109128831,1000,1000,1000,1000,0,0,0,0,0,0,0,0,0,0
1706596134.60055685,109228791,1000,1000,1000,1000,0,0,0,0,0,0,0,0,0,0
1706596134.70051694,109328751,1000,1000,1000,1000,0,0,0,0,0,0,0,0,0,0
1706596134.80047679,109428711,1000,1000,1000,1000,0,0,0,0,0,0,0,0,0,0
1706596134.90043688,109528671,1000,1000,1000,1000,0,0,0,0,0,0,0,0,0,0
1706596135.00039697,109628631,1000,1000,1000,1000,0,0,0,0,0,0,0,0,0,0
1706596135.10035682,109728591,1000,1000,1000,1000,0,0,0,0,0,0,0,0,0,0
1706596135.20031691,109828551,1000,1000,1000,1000,0,0,0,0,0,0,0,0,0,0
1706596135.30027676,109928511,1000,1000,1000,1000,0,0,0,0,0,0,0,0,0,0
1706596135.40023685,110028471,1000,1000,1000,1000,0,0,0,0,0,0,0,0,0,0
1706596135.50019693,110128431,1000,1000,1000,1000,0,0,0,0,0,0,0,0,0,0
1706596135.60015678,110228391,1000,1000,1000,1000,0,0,0,0,0,0,0,0,0,0
1706596135.70011687,110328351,1000,1000,1000,1000,0,0,0,0,0,0,0,0,0,0
1706596135.80007696,110428311,1000,1000,1000,1000,0,0,0,0,0,0,0,0,0,0
1706596135.90003681,110528271,1000,1000,1000,1000,0,0,0,0,0,0,0,0,0,0
1706596135.99999690,110628231,1000,1000,1000,1000,0,0,0,0,0,0,0,0,0,0
1706596136.09995675,110728191,1000,1000,1000,1000,0,0,0,0,0,0,0,0,0,0
1706596136.20074987,110828984,1000,1000,1000,1000,0,0,0,0,0,0,0,0,0,0
1706596136.30070996,110928944,1000,1000,1000,1000,0,0,0,0,0,0,0,0,0,0
1706596136.40066981,111028904,1000,1000,1000,1000,0,0,0,0,0,0,0,0,0,0
1706596136.50062990,111128864,1000,1000,1000,1000,0,0,0,0,0,0,0,0,0,0
1706596136.60058975,111228824,1000,1000,1000,1000,0,0,0,0,0,0,0,0,0,0
1706596136.70054984,111328784,1000,1000,1000,1000,0,0,0,0,0,0,0,0,0,0
1706596136.80050993,111428744,1000,1000,1000,1000,0,0,0,0,0,0,0,0,0,0
1706596136.90046978,111528704,1000,1000,1000,1000,0,0,0,0,0,0,0,0,0,0
1706596137.00042987,111628664,1000,1000,1000,1000,0,0,0,0,0,0,0,0,0,0
1706596137.10038996,111728624,1000,1000,1000,1000,0,0,0,0,0,0,0,0,0,0
1706596137.20034981,111828584,1000,1000,1000,1000,0,0,0,0,0,0,0,0,0,0
1706596137.30030990,111928544,1000,1000,1000,1000,0,0,0,0,0,0,0,0,0,0
1706596137.40026975,112028504,1000,1000,1000,1000,0,0,0,0,0,0,0,0,0,0
1706596137.50022984,112128464,1000,1000,1000,1000,0,0,0,0,0,0,0,0,0,0
1706596137.60018992,112228424,1000,1000,1000,1000,0,0,0,0,0,0,0,0,0,0
1706596137.70014977,112328384,1000,1000,1000,1000,0,0,0,0,0,0,0,0,0,0
1706596137.80010986,112428344,1000,1000,1000,1000,0,0,0,0,0,0,0,0,0,0
1706596137.90006995,112528304,1000,1000,1000,1000,0,0,0,0,0,0,0,0,0,0
1706596138.00002980,112628264,1000,1000,1000,1000,0,0,0,0,0,0,0,0,0,0
1706596138.09998989,112728224,1000,1000,1000,1000,0,0,0,0,0,0,0,0,0,0
1706596138.19994974,112828184,1000,1000,1000,1000,0,0,0,0,0,0,0,0,0,0
1706596138.30074286,112928977,1000,1000,1000,1000,0,0,0,0,0,0,0,0,0,0
1706596138.40070295,113028937,1000,1000,1000,1000,0,0,0,0,0,0,0,0,0,0
1706596138.50066280,113128897,1000,1000,1000,1000,0,0,0,0,0,0,0,0,0,0
1706596138.60062289,113228857,1000,1000,1000,1000,0,0,0,0,0,0,0,0,0,0
1706596138.70058274,113328817,1000,1000,1000,1000,0,0,0,0,0,0,0,0,0,0
1706596138.80054283,113428777,1000,1000,1000,1000,0,0,0,0,0,0,0,0,0,0
1706596138.90050292,113528737,1000,1000,1000,1000,0,0,0,0,0,0,0,0,0,0
1706596139.00046277,113628697,1000,1000,1000,1000,0,0,0,0,0,0,0,0,0,0
1706596139.10042286,113728657,1000,1000,1000,1000,0,0,0,0,0,0,0,0,0,0
1706596139.20038295,113828617,1000,1000,1000,1000,0,0,0,0,0,0,0,0,0,0
1706596139.30034280,113928577,1000,1000,1000,1000,0,0,0,0,0,0,0,0,0,0
1706596139.40030289,114028537,1000,1000,1000,1000,0,0,0,0,0,0,0,0,0,0
1706596139.50026274,114128497,1000,1000,1000,1000,0,0,0,0,0,0,0,0,0,0
1706596139.60022283,114228457,1000,1000,1000,1000,0,0,0,0,0,0,0,0,0,0
1706596139.70018291,114328417,1000,1000,1000,1000,0,0,0,0,0,0,0,0,0,0
1706596139.80014277,114428377,1000,1000,1000,1000,0,0,0,0,0,0,0,0,0,0
1706596139.90010285,114528337,1000,1000,1000,1000,0,0,0,0,0,0,0,0,0,0
