timestamp,TimeUS,C1,C2,C3,C4,C5,C6,C7,C8,C9,C10,C11,C12,C13,C14
1706595466.79999995,47428521,1000,1000,1000,1000,0,0,0,0,0,0,0,0,0,0
1706595466.89996004,47528481,1000,1000,1000,1000,0,0,0,0,0,0,0,0,0,0
1706595466.99992013,47628441,1000,1000,1000,1000,0,0,0,0,0,0,0,0,0,0
1706595467.09987998,47728401,1000,1000,1000,1000,0,0,0,0,0,0,0,0,0,0
1706595467.19984007,47828361,1000,1000,1000,1000,0,0,0,0,0,0,0,0,0,0
1706595467.29979992,47928321,1000,1000,1000,1000,0,0,0,0,0,0,0,0,0,0
1706595467.39976001,48028281,1000,1000,1000,1000,0,0,0,0,0,0,0,0,0,0
1706595467.49972010,48128241,1000,1000,1000,1000,0,0,0,0,0,0,0,0,0,0
1706595467.59967995,48228201,1000,1000,1000,1000,0,0,0,0,0,0,0,0,0,0
1706595467.69964004,48328161,1000,1000,1000,1000,0,0,0,0,0,0,0,0,0,0
1706595467.80043292,48428954,1000,1000,1000,1000,0,0,0,0,0,0,0,0,0,0
1706595467.90039301,48528914,1000,1000,1000,1000,0,0,0,0,0,0,0,0,0,0
1706595468.00035310,48628874,1000,1000,1000,1000,0,0,0,0,0,0,0,0,0,0
1706595468.10031295,48728834,1000,1000,1000,1000,0,0,0,0,0,0,0,0,0,0
1706595468.20027304,48828794,1000,1000,1000,1000,0,0,0,0,0,0,0,0,0,0
1706595468.30023313,48928754,1000,1000,1000,1000,0,0,0,0,0,0,0,0,0,0
1706595468.40019298,49028714,1000,1000,1000,1000,0,0,0,0,0,0,0,0,0,0
1706595468.50015306,49128674,1000,1000,1000,1000,0,0,0,0,0,0,0,0,0,0
1706595468.60011315,49228634,1000,1000,1000,1000,0,0,0,0,0,0,0,0,0,0
1706595468.70007300,49328594,1000,1000,1000,1000,0,0,0,0,0,0,0,0,0,0
1706595468.80003309,49428554,1023,1023,1023,1023,0,0,0,0,0,0,0,0,0,0
1706595468.89999294,49528514,1053,1053,1053,1053,0,0,0,0,0,0,0,0,0,0
1706595468.99995303,49628474,1083,1083,1083,1083,0,0,0,0,0,0,0,0,0,0
1706595469.09991312,49728434,1113,1113,1113,1113,0,0,0,0,0,0,0,0,0,0
1706595469.19987297,49828394,1143,1143,1143,1143,0,0,0,0,0,0,0,0,0,0
1706595469.29983306,49928354,1351,1346,1346,1352,0,0,0,0,0,0,0,0,0,0
1706595469.39979315,50028314,1542,1538,1538,1542,0,0,0,0,0,0,0,0,0,0
1706595469.49975300,50128274,1695,1691,1691,1695,0,0,0,0,0,0,0,0,0,0
1706595469.59971309,50228234,1826,1823,1823,1827,0,0,0,0,0,0,0,0,0,0
1706595469.69967294,50328194,1900,1896,1897,1901,0,0,0,0,0,0,0,0,0,0
1706595469.79963303,50428154,1845,1844,1843,1845,0,0,0,0,0,0,0,0,0,0
1706595469.90042615,50528947,1712,1712,1712,1712,0,0,0,0,0,0,0,0,0,0
1706595470.00038600,50628907,1636,1637,1638,1636,0,0,0,0,0,0,0,0,0,0
1706595470.10034609,50728867,1621,1623,1623,1621,0,0,0,0,0,0,0,0,0,0
1706595470.20030594,50828827,1629,1631,1631,1629,0,0,0,0,0,0,0,0,0,0
1706595470.30026603,50928787,1627,1627,1623,1632,0,0,0,0,0,0,0,0,0,0
1706595470.40022612,51028747,1621,1622,1616,1628,0,0,0,0,0,0,0,0,0,0
1706595470.50018597,51128707,1615,1616,1612,1619,0,0,0,0,0,0,0,0,0,0
1706595470.60014606,51228667,1613,1613,1613,1612,0,0,0,0,0,0,0,0,0,0
1706595470.70010614,51328627,1612,1611,1615,1608,0,0,0,0,0,0,0,0,0,0
1706595470.80006599,51428587,1612,1611,1616,1607,0,0,0,0,0,0,0,0,0,0
1706595470.90002608,51528547,1614,1613,1617,1610,0,0,0,0,0,0,0,0,0,0
1706595470.99998593,51628507,1617,1616,1619,1614,0,0,0,0,0,0,0,0,0,0
1706595471.09994602,51728467,1590,1590,1597,1583,0,0,0,0,0,0,0,0,0,0
1706595471.19990611,51828427,1573,1574,1580,1567,0,0,0,0,0,0,0,0,0,0
1706595471.29986596,51928387,1563,1563,1564,1562,0,0,0,0,0,0,0,0,0,0
1706595471.39982605,52028347,1553,1553,1549,1558,0,0,0,0,0,0,0,0,0,0
1706595471.49978614,52128307,1545,1545,1535,1555,0,0,0,0,0,0,0,0,0,0
1706595471.59974599,52228267,1538,1538,1529,1547,0,0,0,0,0,0,0,0,0,0
1706595471.69970608,52328227,1533,1532,1527,1537,0,0,0,0,0,0,0,0,0,0
1706595471.79966593,52428187,1527,1526,1525,1528,0,0,0,0,0,0,0,0,0,0
1706595471.90045905,52528980,1526,1526,1527,1525,0,0,0,0,0,0,0,0,0,0
1706595472.00041914,52628940,1527,1528,1530,1525,0,0,0,0,0,0,0,0,0,0
1706595472.10037899,52728900,1530,1531,1534,1527,0,0,0,0,0,0,0,0,0,0
1706595472.20033908,52828860,1534,1534,1537,1531,0,0,0,0,0,0,0,0,0,0
1706595472.30029893,52928820,1538,1538,1540,1536,0,0,0,0,0,0,0,0,0,0
1706595472.40025902,53028780,1541,1541,1543,1540,0,0,0,0,0,0,0,0,0,0
1706595472.50021911,53128740,1544,1544,1544,1544,0,0,0,0,0,0,0,0,0,0
1706595472.60017896,53228700,1548,1548,1548,1549,0,0,0,0,0,0,0,0,0,0
1706595472.70013905,53328660,1551,1551,1550,1552,0,0,0,0,0,0,0,0,0,0
1706595472.80009913,53428620,1554,1552,1552,1555,0,0,0,0,0,0,0,0,0,0
1706595472.90005898,53528580,1552,1551,1558,1561,0,0,0,0,0,0,0,0,0,0
1706595473.00001907,53628540,1554,1554,1561,1563,0,0,0,0,0,0,0,0,0,0
1706595473.09997892,53728500,1557,1557,1563,1563,0,0,0,0,0,0,0,0,0,0
1706595473.19993901,53828460,1560,1561,1565,1564,0,0,0,0,0,0,0,0,0,0
1706595473.29989910,53928420,1563,1564,1566,1564,0,0,0,0,0,0,0,0,0,0
1706595473.39985895,54028380,1566,1567,1565,1565,0,0,0,0,0,0,0,0,0,0
1706595473.49981904,54128340,1569,1568,1566,1565,0,0,0,0,0,0,0,0,0,0
1706595473.59977913,54228300,1571,1570,1566,1566,0,0,0,0,0,0,0,0,0,0
1706595473.69973898,54328260,1572,1571,1566,1567,0,0,0,0,0,0,0,0,0,0
1706595473.79969907,54428220,1572,1572,1567,1567,0,0,0,0,0,0,0,0,0,0
1706595473.89965892,54528180,1573,1572,1568,1569,0,0,0,0,0,0,0,0,0,0
1706595474.00045204,54628973,1572,1573,1569,1569,0,0,0,0,0,0,0,0,0,0
1706595474.10041213,54728933,1574,1574,1572,1571,0,0,0,0,0,0,0,0,0,0
1706595474.20037198,54828893,1573,1574,1573,1572,0,0,0,0,0,0,0,0,0,0
1706595474.30033207,54928853,1574,1574,1574,1573,0,0,0,0,0,0,0,0,0,0
1706595474.40029192,55028813,1574,1574,1575,1574,0,0,0,0,0,0,0,0,0,0
1706595474.50025201,55128773,1574,1574,1576,1575,0,0,0,0,0,0,0,0,0,0
1706595474.60021210,55228733,1575,1575,1576,1576,0,0,0,0,0,0,0,0,0,0
1706595474.70017195,55328693,1575,1575,1576,1576,0,0,0,0,0,0,0,0,0,0
1706595474.80013204,55428653,1575,1576,1577,1577,0,0,0,0,0,0,0,0,0,0
1706595474.90009212,55528613,1575,1575,1577,1576,0,0,0,0,0,0,0,0,0,0
1706595475.00005198,55628573,1577,1577,1578,1578,0,0,0,0,0,0,0,0,0,0
1706595475.10001206,55728533,1577,1577,1577,1577,0,0,0,0,0,0,0,0,0,0
1706595475.19997215,55828493,1576,1576,1576,1576,0,0,0,0,0,0,0,0,0,0
1706595475.29993200,55928453,1577,1577,1576,1577,0,0,0,0,0,0,0,0,0,0
1706595475.39989209,56028413,1577,1577,1577,1577,0,0,0,0,0,0,0,0,0,0
1706595475.49985194,56128373,1578,1577,1576,1577,0,0,0,0,0,0,0,0,0,0
1706595475.59981203,56228333,1579,1578,1578,1578,0,0,0,0,0,0,0,0,0,0
1706595475.69977212,56328293,1577,1577,1577,1576,0,0,0,0,0,0,0,0,0,0
1706595475.79973197,56428253,1578,1578,1577,1577,0,0,0,0,0,0,0,0,0,0
1706595475.89969206,56528213,1578,1578,1578,1577,0,0,0,0,0,0,0,0,0,0
1706595475.99965215,56628173,1578,1578,1578,1577,0,0,0,0,0,0,0,0,0,0
1706595476.10044503,56728966,1578,1578,1577,1578,0,0,0,0,0,0,0,0,0,0
1706595476.20040512,56828926,1578,1579,1578,1579,0,0,0,0,0,0,0,0,0,0
1706595476.30036497,56928886,1579,1579,1579,1579,0,0,0,0,0,0,0,0,0,0
1706595476.40032506,57028846,1579,1579,1579,1579,0,0,0,0,0,0,0,0,0,0
1706595476.50028515,57128806,1579,1579,1580,1580,0,0,0,0,0,0,0,0,0,0
1706595476.60024500,57228766,1579,1579,1579,1579,0,0,0,0,0,0,0,0,0,0
1706595476.70020509,57328726,1579,1579,1579,1579,0,0,0,0,0,0,0,0,0,0
1706595476.80016494,57428686,1578,1579,1579,1578,0,0,0,0,0,0,0,0,0,0
1706595476.90012503,57528646,1579,1579,1579,1579,0,0,0,0,0,0,0,0,0,0
1706595477.00008512,57628606,1580,1579,1580,1580,0,0,0,0,0,0,0,0,0,0
1706595477.10004497,57728566,1579,1579,1579,1579,0,0,0,0,0,0,0,0,0,0
1706595477.20000505,57828526,1579,1579,1579,1579,0,0,0,0,0,0,0,0,0,0
1706595477.29996514,57928486,1579,1580,1579,1580,0,0,0,0,0,0,0,0,0,0
1706595477.39992499,58028446,1579,1579,1579,1579,0,0,0,0,0,0,0,0,0,0
1706595477.49988508,58128406,1579,1579,1579,1579,0,0,0,0,0,0,0,0,0,0
1706595477.59984493,58228366,1580,1580,1580,1579,0,0,0,0,0,0,0,0,0,0
1706595477.69980502,58328326,1579,1580,1580,1580,0,0,0,0,0,0,0,0,0,0
1706595477.79976511,58428286,1579,1580,1580,1580,0,0,0,0,0,0,0,0,0,0
1706595477.89972496,58528246,1579,1579,1579,1579,0,0,0,0,0,0,0,0,0,0
1706595477.99968505,58628206,1579,1579,1579,1579,0,0,0,0,0,0,0,0,0,0
1706595478.09964514,58728166,1579,1580,1580,1579,0,0,0,0,0,0,0,0,0,0
1706595478.20043802,58828959,1580,1580,1580,1580,0,0,0,0,0,0,0,0,0,0
1706595478.30039811,58928919,1580,1579,1580,1579,0,0,0,0,0,0,0,0,0,0
1706595478.40035796,59028879,1580,1580,1580,1580,0,0,0,0,0,0,0,0,0,0
1706595478.50031805,59128839,1580,1580,1580,1580,0,0,0,0,0,0,0,0,0,0
1706595478.60027814,59228799,1580,1580,1580,1580,0,0,0,0,0,0,0,0,0,0
1706595478.70023799,59328759,1580,1580,1580,1580,0,0,0,0,0,0,0,0,0,0
1706595478.80019808,59428719,1581,1581,1581,1581,0,0,0,0,0,0,0,0,0,0
1706595478.90015793,59528679,1581,1581,1582,1582,0,0,0,0,0,0,0,0,0,0
1706595479.00011802,59628639,1582,1582,1583,1582,0,0,0,0,0,0,0,0,0,0
1706595479.10007811,59728599,1582,1583,1590,1575,0,0,0,0,0,0,0,0,0,0
1706595479.20003796,59828559,1581,1583,1586,1574,0,0,0,0,0,0,0,0,0,0
1706595479.29999804,59928519,1580,1583,1578,1575,0,0,0,0,0,0,0,0,0,0
1706595479.39995813,60028479,1578,1581,1568,1572,0,0,0,0,0,0,0,0,0,0
1706595479.49991798,60128439,1577,1579,1561,1568,0,0,0,0,0,0,0,0,0,0
1706595479.59987807,60228399,1578,1578,1557,1563,0,0,0,0,0,0,0,0,0,0
1706595479.69983792,60328359,1579,1578,1555,1559,0,0,0,0,0,0,0,0,0,0
1706595479.79979801,60428319,1578,1577,1554,1555,0,0,0,0,0,0,0,0,0,0
1706595479.89975810,60528279,1579,1578,1556,1555,0,0,0,0,0,0,0,0,0,0
1706595479.99971795,60628239,1579,1578,1557,1554,0,0,0,0,0,0,0,0,0,0
1706595480.09967804,60728199,1577,1578,1557,1554,0,0,0,0,0,0,0,0,0,0
1706595480.19963813,60828159,1576,1577,1556,1554,0,0,0,0,0,0,0,0,0,0
1706595480.30043101,60928952,1574,1576,1554,1554,0,0,0,0,0,0,0,0,0,0
1706595480.40039110,61028912,1574,1576,1553,1554,0,0,0,0,0,0,0,0,0,0
1706595480.50035095,61128872,1575,1576,1551,1552,0,0,0,0,0,0,0,0,0,0
1706595480.60031104,61228832,1576,1577,1550,1550,0,0,0,0,0,0,0,0,0,0
1706595480.70027113,61328792,1578,1578,1547,1547,0,0,0,0,0,0,0,0,0,0
1706595480.80023098,61428752,1581,1582,1546,1545,0,0,0,0,0,0,0,0,0,0
1706595480.90019107,61528712,1583,1584,1542,1541,0,0,0,0,0,0,0,0,0,0
1706595481.00015092,61628672,1586,1587,1540,1539,0,0,0,0,0,0,0,0,0,0
1706595481.10011101,61728632,1590,1590,1537,1537,0,0,0,0,0,0,0,0,0,0
1706595481.20007110,61828592,1592,1593,1534,1535,0,0,0,0,0,0,0,0,0,0
1706595481.30003095,61928552,1594,1594,1534,1534,0,0,0,0,0,0,0,0,0,0
1706595481.39999104,62028512,1595,1595,1534,1535,0,0,0,0,0,0,0,0,0,0
1706595481.49995112,62128472,1595,1594,1536,1538,0,0,0,0,0,0,0,0,0,0
1706595481.59991097,62228432,1593,1593,1539,1541,0,0,0,0,0,0,0,0,0,0
1706595481.69987106,62328392,1589,1588,1544,1547,0,0,0,0,0,0,0,0,0,0
1706595481.79983115,62428352,1583,1581,1551,1555,0,0,0,0,0,0,0,0,0,0
1706595481.89979100,62528312,1576,1572,1562,1565,0,0,0,0,0,0,0,0,0,0
1706595481.99975109,62628272,1566,1562,1574,1576,0,0,0,0,0,0,0,0,0,0
1706595482.09971094,62728232,1553,1550,1586,1587,0,0,0,0,0,0,0,0,0,0
1706595482.19967103,62828192,1542,1540,1597,1597,0,0,0,0,0,0,0,0,0,0
1706595482.30046415,62928985,1535,1533,1607,1606,0,0,0,0,0,0,0,0,0,0
1706595482.40042400,63028945,1530,1530,1614,1612,0,0,0,0,0,0,0,0,0,0
1706595482.50038409,63128905,1528,1530,1616,1615,0,0,0,0,0,0,0,0,0,0
1706595482.60034394,63228865,1531,1533,1615,1614,0,0,0,0,0,0,0,0,0,0
1706595482.70030403,63328825,1536,1539,1610,1610,0,0,0,0,0,0,0,0,0,0
1706595482.80026412,63428785,1544,1546,1604,1604,0,0,0,0,0,0,0,0,0,0
1706595482.90022397,63528745,1553,1554,1596,1597,0,0,0,0,0,0,0,0,0,0
1706595483.00018406,63628705,1562,1562,1589,1588,0,0,0,0,0,0,0,0,0,0
1706595483.10014415,63728665,1570,1570,1582,1581,0,0,0,0,0,0,0,0,0,0
1706595483.20010400,63828625,1578,1577,1576,1575,0,0,0,0,0,0,0,0,0,0
1706595483.30006409,63928585,1583,1582,1571,1570,0,0,0,0,0,0,0,0,0,0
1706595483.40002394,64028545,1587,1585,1567,1567,0,0,0,0,0,0,0,0,0,0
1706595483.49998403,64128505,1589,1587,1567,1567,0,0,0,0,0,0,0,0,0,0
1706595483.59994411,64228465,1588,1587,1567,1567,0,0,0,0,0,0,0,0,0,0
1706595483.69990396,64328425,1586,1585,1567,1568,0,0,0,0,0,0,0,0,0,0
1706595483.79986405,64428385,1583,1583,1569,1570,0,0,0,0,0,0,0,0,0,0
1706595483.89982414,64528345,1581,1581,1573,1573,0,0,0,0,0,0,0,0,0,0
1706595483.99978399,64628305,1579,1579,1577,1577,0,0,0,0,0,0,0,0,0,0
1706595484.09974408,64728265,1576,1576,1580,1579,0,0,0,0,0,0,0,0,0,0
1706595484.19970393,64828225,1574,1575,1582,1581,0,0,0,0,0,0,0,0,0,0
1706595484.29966402,64928185,1573,1574,1583,1583,0,0,0,0,0,0,0,0,0,0
1706595484.40045714,65028978,1277,1279,1316,1562,0,0,0,0,0,0,0,0,0,0
1706595484.50041699,65128938,1420,1420,1522,1586,0,0,0,0,0,0,0,0,0,0
1706595484.60037708,65228898,1523,1519,1635,1599,0,0,0,0,0,0,0,0,0,0
1706595484.70033693,65328858,1547,1538,1650,1539,0,0,0,0,0,0,0,0,0,0
1706595484.80029702,65428818,1992,1988,1998,1740,0,0,0,0,0,0,0,0,0,0
1706595484.90025711,65528778,1862,1855,1778,1681,0,0,0,0,0,0,0,0,0,0
1706595485.00021696,65628738,1739,1733,1541,1662,0,0,0,0,0,0,0,0,0,0
1706595485.10017705,65728698,1675,1671,1455,1672,0,0,0,0,0,0,0,0,0,0
1706595485.20013714,65828658,1634,1636,1484,1659,0,0,0,0,0,0,0,0,0,0
1706595485.30009699,65928618,1585,1593,1528,1607,0,0,0,0,0,0,0,0,0,0
1706595485.40005708,66028578,1542,1548,1567,1557,0,0,0,0,0,0,0,0,0,0
1706595485.50001693,66128538,1515,1518,1594,1538,0,0,0,0,0,0,0,0,0,0
1706595485.59997702,66228498,1510,1512,1612,1548,0,0,0,0,0,0,0,0,0,0
1706595485.69993711,66328458,1514,1518,1614,1567,0,0,0,0,0,0,0,0,0,0
1706595485.79989696,66428418,1521,1527,1605,1580,0,0,0,0,0,0,0,0,0,0
1706595485.89985704,66528378,1529,1535,1589,1586,0,0,0,0,0,0,0,0,0,0
1706595485.99981713,66628338,1537,1542,1573,1584,0,0,0,0,0,0,0,0,0,0
1706595486.09977698,66728298,1549,1550,1563,1578,0,0,0,0,0,0,0,0,0,0
1706595486.19973707,66828258,1561,1560,1557,1569,0,0,0,0,0,0,0,0,0,0
1706595486.29969692,66928218,1574,1570,1556,1561,0,0,0,0,0,0,0,0,0,0
1706595486.39965701,67028178,1584,1579,1558,1556,0,0,0,0,0,0,0,0,0,0
1706595486.50045013,67128971,1593,1588,1562,1557,0,0,0,0,0,0,0,0,0,0
1706595486.60040998,67228931,1598,1594,1567,1561,0,0,0,0,0,0,0,0,0,0
1706595486.70037007,67328891,1599,1596,1571,1566,0,0,0,0,0,0,0,0,0,0
1706595486.80032992,67428851,1596,1595,1574,1571,0,0,0,0,0,0,0,0,0,0
1706595486.90029001,67528811,1594,1594,1579,1578,0,0,0,0,0,0,0,0,0,0
1706595487.00025010,67628771,1590,1590,1582,1583,0,0,0,0,0,0,0,0,0,0
1706595487.10020995,67728731,1584,1587,1590,1581,0,0,0,0,0,0,0,0,0,0
1706595487.20017004,67828691,1581,1586,1593,1581,0,0,0,0,0,0,0,0,0,0
1706595487.30013013,67928651,1578,1584,1587,1582,0,0,0,0,0,0,0,0,0,0
1706595487.40008998,68028611,1576,1580,1579,1581,0,0,0,0,0,0,0,0,0,0
1706595487.50005007,68128571,1577,1579,1573,1579,0,0,0,0,0,0,0,0,0,0
1706595487.60000992,68228531,1579,1579,1567,1573,0,0,0,0,0,0,0,0,0,0
1706595487.69997001,68328491,1581,1580,1564,1567,0,0,0,0,0,0,0,0,0,0
1706595487.79993010,68428451,1583,1581,1561,1562,0,0,0,0,0,0,0,0,0,0
1706595487.89988995,68528411,1584,1582,1560,1559,0,0,0,0,0,0,0,0,0,0
1706595487.99985003,68628371,1583,1582,1558,1556,0,0,0,0,0,0,0,0,0,0
1706595488.09981012,68728331,1582,1582,1557,1555,0,0,0,0,0,0,0,0,0,0
1706595488.19976997,68828291,1581,1582,1556,1554,0,0,0,0,0,0,0,0,0,0
1706595488.29973006,68928251,1581,1582,1555,1554,0,0,0,0,0,0,0,0,0,0
1706595488.39969015,69028211,1580,1582,1554,1554,0,0,0,0,0,0,0,0,0,0
1706595488.49965000,69128171,1580,1582,1552,1553,0,0,0,0,0,0,0,0,0,0
1706595488.60044312,69228964,1580,1581,1550,1552,0,0,0,0,0,0,0,0,0,0
1706595488.70040298,69328924,1581,1582,1550,1550,0,0,0,0,0,0,0,0,0,0
1706595488.80036306,69428884,1583,1584,1548,1549,0,0,0,0,0,0,0,0,0,0
1706595488.90032315,69528844,1584,1584,1547,1546,0,0,0,0,0,0,0,0,0,0
1706595489.00028300,69628804,1586,1587,1545,1544,0,0,0,0,0,0,0,0,0,0
1706595489.10024309,69728764,1588,1589,1543,1543,0,0,0,0,0,0,0,0,0,0
1706595489.20020294,69828724,1590,1592,1540,1541,0,0,0,0,0,0,0,0,0,0
1706595489.30016303,69928684,1593,1593,1538,1540,0,0,0,0,0,0,0,0,0,0
1706595489.40012312,70028644,1593,1593,1537,1539,0,0,0,0,0,0,0,0,0,0
1706595489.50008297,70128604,1594,1591,1542,1543,0,0,0,0,0,0,0,0,0,0
1706595489.60004306,70228564,1591,1588,1547,1549,0,0,0,0,0,0,0,0,0,0
1706595489.70000315,70328524,1585,1582,1555,1557,0,0,0,0,0,0,0,0,0,0
1706595489.79996300,70428484,1577,1573,1564,1566,0,0,0,0,0,0,0,0,0,0
1706595489.89992309,70528444,1567,1563,1574,1577,0,0,0,0,0,0,0,0,0,0
1706595489.99988294,70628404,1557,1554,1586,1587,0,0,0,0,0,0,0,0,0,0
1706595490.09984303,70728364,1548,1547,1596,1596,0,0,0,0,0,0,0,0,0,0
1706595490.19980311,70828324,1542,1542,1605,1604,0,0,0,0,0,0,0,0,0,0
1706595490.29976296,70928284,1538,1538,1609,1609,0,0,0,0,0,0,0,0,0,0
1706595490.39972305,71028244,1538,1539,1611,1611,0,0,0,0,0,0,0,0,0,0
1706595490.49968314,71128204,1540,1541,1609,1608,0,0,0,0,0,0,0,0,0,0
1706595490.59964299,71228164,1545,1547,1607,1606,0,0,0,0,0,0,0,0,0,0
1706595490.70043612,71328957,1552,1554,1603,1602,0,0,0,0,0,0,0,0,0,0
1706595490.80039597,71428917,1559,1561,1597,1596,0,0,0,0,0,0,0,0,0,0
1706595490.90035605,71528877,1566,1566,1589,1589,0,0,0,0,0,0,0,0,0,0
1706595491.00031614,71628837,1573,1573,1583,1583,0,0,0,0,0,0,0,0,0,0
1706595491.10027599,71728797,1579,1578,1578,1579,0,0,0,0,0,0,0,0,0,0
1706595491.20023608,71828757,1583,1582,1574,1574,0,0,0,0,0,0,0,0,0,0
1706595491.30019593,71928717,1586,1585,1572,1572,0,0,0,0,0,0,0,0,0,0
1706595491.40015602,72028677,1586,1585,1570,1570,0,0,0,0,0,0,0,0,0,0
1706595491.50011611,72128637,1586,1585,1571,1571,0,0,0,0,0,0,0,0,0,0
1706595491.60007596,72228597,1585,1585,1573,1573,0,0,0,0,0,0,0,0,0,0
1706595491.70003605,72328557,1583,1582,1574,1574,0,0,0,0,0,0,0,0,0,0
1706595491.79999614,72428517,1580,1579,1576,1576,0,0,0,0,0,0,0,0,0,0
1706595491.89995599,72528477,1577,1577,1578,1578,0,0,0,0,0,0,0,0,0,0
1706595491.99991608,72628437,1575,1576,1580,1580,0,0,0,0,0,0,0,0,0,0
1706595492.09987593,72728397,1574,1574,1582,1582,0,0,0,0,0,0,0,0,0,0
1706595492.19983602,72828357,1573,1574,1583,1583,0,0,0,0,0,0,0,0,0,0
1706595492.29979610,72928317,1571,1572,1582,1582,0,0,0,0,0,0,0,0,0,0
1706595492.39975595,73028277,1574,1574,1583,1583,0,0,0,0,0,0,0,0,0,0
1706595492.49971604,73128237,1574,1573,1581,1581,0,0,0,0,0,0,0,0,0,0
1706595492.59967613,73228197,1576,1576,1582,1582,0,0,0,0,0,0,0,0,0,0
1706595492.69963598,73328157,1578,1578,1581,1581,0,0,0,0,0,0,0,0,0,0
1706595492.80042911,73428950,1579,1578,1580,1580,0,0,0,0,0,0,0,0,0,0
1706595492.90038896,73528910,1579,1579,1579,1579,0,0,0,0,0,0,0,0,0,0
1706595493.00034904,73628870,1579,1579,1577,1578,0,0,0,0,0,0,0,0,0,0
1706595493.10030913,73728830,1580,1580,1578,1577,0,0,0,0,0,0,0,0,0,0
1706595493.20026898,73828790,1581,1580,1577,1577,0,0,0,0,0,0,0,0,0,0
1706595493.30022907,73928750,1581,1581,1578,1578,0,0,0,0,0,0,0,0,0,0
1706595493.40018892,74028710,1581,1581,1578,1579,0,0,0,0,0,0,0,0,0,0
1706595493.50014901,74128670,1581,1581,1579,1579,0,0,0,0,0,0,0,0,0,0
1706595493.60010910,74228630,1581,1581,1580,1580,0,0,0,0,0,0,0,0,0,0
1706595493.70006895,74328590,1580,1580,1580,1580,0,0,0,0,0,0,0,0,0,0
1706595493.80002904,74428550,1580,1580,1580,1580,0,0,0,0,0,0,0,0,0,0
1706595493.89998913,74528510,1579,1579,1580,1580,0,0,0,0,0,0,0,0,0,0
1706595493.99994898,74628470,1579,1579,1580,1580,0,0,0,0,0,0,0,0,0,0
1706595494.09990907,74728430,1579,1579,1581,1581,0,0,0,0,0,0,0,0,0,0
1706595494.19986892,74828390,1580,1580,1581,1581,0,0,0,0,0,0,0,0,0,0
1706595494.29982901,74928350,1580,1581,1582,1582,0,0,0,0,0,0,0,0,0,0
1706595494.39978909,75028310,1580,1580,1581,1582,0,0,0,0,0,0,0,0,0,0
1706595494.49974895,75128270,1580,1580,1581,1581,0,0,0,0,0,0,0,0,0,0
1706595494.59970903,75228230,1581,1581,1581,1581,0,0,0,0,0,0,0,0,0,0
1706595494.69966912,75328190,1580,1580,1580,1580,0,0,0,0,0,0,0,0,0,0
1706595494.80046201,75428983,1580,1580,1580,1580,0,0,0,0,0,0,0,0,0,0
1706595494.90042210,75528943,1581,1581,1581,1581,0,0,0,0,0,0,0,0,0,0
1706595495.00038195,75628903,1581,1581,1580,1580,0,0,0,0,0,0,0,0,0,0
1706595495.10034204,75728863,1582,1582,1581,1581,0,0,0,0,0,0,0,0,0,0
1706595495.20030212,75828823,1582,1584,1588,1575,0,0,0,0,0,0,0,0,0,0
1706595495.30026197,75928783,1581,1584,1585,1573,0,0,0,0,0,0,0,0,0,0
1706595495.40022206,76028743,1581,1584,1578,1573,0,0,0,0,0,0,0,0,0,0
1706595495.50018215,76128703,1579,1581,1567,1571,0,0,0,0,0,0,0,0,0,0
1706595495.60014200,76228663,1579,1581,1561,1568,0,0,0,0,0,0,0,0,0,0
1706595495.70010209,76328623,1579,1579,1556,1563,0,0,0,0,0,0,0,0,0,0
1706595495.80006194,76428583,1581,1579,1555,1559,0,0,0,0,0,0,0,0,0,0
1706595495.90002203,76528543,1581,1579,1555,1555,0,0,0,0,0,0,0,0,0,0
1706595495.99998212,76628503,1580,1579,1555,1554,0,0,0,0,0,0,0,0,0,0
1706595496.09994197,76728463,1579,1579,1557,1554,0,0,0,0,0,0,0,0,0,0
1706595496.19990206,76828423,1578,1578,1557,1554,0,0,0,0,0,0,0,0,0,0
1706595496.29986215,76928383,1576,1577,1555,1554,0,0,0,0,0,0,0,0,0,0
1706595496.39982200,77028343,1575,1577,1554,1554,0,0,0,0,0,0,0,0,0,0
1706595496.49978209,77128303,1574,1576,1553,1554,0,0,0,0,0,0,0,0,0,0
1706595496.59974194,77228263,1575,1577,1552,1552,0,0,0,0,0,0,0,0,0,0
1706595496.69970202,77328223,1577,1578,1551,1551,0,0,0,0,0,0,0,0,0,0
1706595496.79966211,77428183,1578,1579,1549,1548,0,0,0,0,0,0,0,0,0,0
1706595496.90045500,77528976,1581,1582,1547,1547,0,0,0,0,0,0,0,0,0,0
1706595497.00041509,77628936,1584,1585,1545,1545,0,0,0,0,0,0,0,0,0,0
1706595497.10037494,77728896,1586,1586,1542,1541,0,0,0,0,0,0,0,0,0,0
1706595497.20033503,77828856,1589,1589,1541,1541,0,0,0,0,0,0,0,0,0,0
1706595497.30029511,77928816,1591,1591,1539,1539,0,0,0,0,0,0,0,0,0,0
1706595497.40025496,78028776,1592,1593,1538,1539,0,0,0,0,0,0,0,0,0,0
1706595497.50021505,78128736,1593,1594,1537,1539,0,0,0,0,0,0,0,0,0,0
1706595497.60017514,78228696,1593,1593,1538,1541,0,0,0,0,0,0,0,0,0,0
1706595497.70013499,78328656,1592,1590,1542,1545,0,0,0,0,0,0,0,0,0,0
1706595497.80009508,78428616,1588,1585,1548,1550,0,0,0,0,0,0,0,0,0,0
1706595497.90005493,78528576,1582,1578,1557,1560,0,0,0,0,0,0,0,0,0,0
1706595498.00001502,78628536,1572,1568,1566,1569,0,0,0,0,0,0,0,0,0,0
1706595498.09997511,78728496,1561,1558,1578,1580,0,0,0,0,0,0,0,0,0,0
1706595498.19993496,78828456,1551,1549,1590,1591,0,0,0,0,0,0,0,0,0,0
1706595498.29989505,78928416,1542,1541,1600,1600,0,0,0,0,0,0,0,0,0,0
1706595498.39985514,79028376,1535,1536,1607,1607,0,0,0,0,0,0,0,0,0,0
1706595498.49981499,79128336,1533,1534,1611,1611,0,0,0,0,0,0,0,0,0,0
1706595498.59977508,79228296,1533,1535,1611,1611,0,0,0,0,0,0,0,0,0,0
1706595498.69973493,79328256,1538,1540,1609,1609,0,0,0,0,0,0,0,0,0,0
1706595498.79969501,79428216,1544,1546,1605,1605,0,0,0,0,0,0,0,0,0,0
1706595498.89965510,79528176,1552,1552,1599,1599,0,0,0,0,0,0,0,0,0,0
1706595499.00044799,79628969,1559,1560,1593,1591,0,0,0,0,0,0,0,0,0,0
1706595499.10040808,79728929,1568,1568,1586,1585,0,0,0,0,0,0,0,0,0,0
1706595499.20036793,79828889,1575,1575,1580,1579,0,0,0,0,0,0,0,0,0,0
1706595499.30032802,79928849,1580,1579,1574,1574,0,0,0,0,0,0,0,0,0,0
1706595499.40028811,80028809,1583,1582,1570,1570,0,0,0,0,0,0,0,0,0,0
1706595499.50024796,80128769,1586,1584,1568,1569,0,0,0,0,0,0,0,0,0,0
1706595499.60020804,80228729,1586,1584,1568,1568,0,0,0,0,0,0,0,0,0,0
1706595499.70016813,80328689,1585,1584,1570,1569,0,0,0,0,0,0,0,0,0,0
1706595499.80012798,80428649,1583,1582,1571,1571,0,0,0,0,0,0,0,0,0,0
1706595499.90008807,80528609,1580,1580,1573,1573,0,0,0,0,0,0,0,0,0,0
1706595500.00004792,80628569,1579,1579,1577,1576,0,0,0,0,0,0,0,0,0,0
1706595500.10000801,80728529,1577,1577,1580,1579,0,0,0,0,0,0,0,0,0,0
1706595500.19996810,80828489,1574,1575,1581,1581,0,0,0,0,0,0,0,0,0,0
1706595500.29992795,80928449,1573,1574,1582,1582,0,0,0,0,0,0,0,0,0,0
1706595500.39988804,81028409,1572,1573,1582,1582,0,0,0,0,0,0,0,0,0,0
1706595500.49984813,81128369,1574,1574,1583,1583,0,0,0,0,0,0,0,0,0,0
1706595500.59980798,81228329,1574,1574,1583,1582,0,0,0,0,0,0,0,0,0,0
1706595500.69976807,81328289,1574,1575,1582,1582,0,0,0,0,0,0,0,0,0,0
1706595500.79972792,81428249,1576,1576,1581,1580,0,0,0,0,0,0,0,0,0,0
1706595500.89968801,81528209,1578,1578,1581,1580,0,0,0,0,0,0,0,0,0,0
1706595500.99964809,81628169,1579,1579,1579,1580,0,0,0,0,0,0,0,0,0,0
1706595501.10044098,81728962,1580,1579,1578,1578,0,0,0,0,0,0,0,0,0,0
1706595501.20040107,81828922,1581,1580,1578,1578,0,0,0,0,0,0,0,0,0,0
1706595501.30036092,81928882,1581,1581,1577,1577,0,0,0,0,0,0,0,0,0,0
1706595501.40032101,82028842,1581,1581,1578,1578,0,0,0,0,0,0,0,0,0,0
1706595501.50028110,82128802,1580,1580,1577,1577,0,0,0,0,0,0,0,0,0,0
1706595501.60024095,82228762,1581,1581,1579,1579,0,0,0,0,0,0,0,0,0,0
1706595501.70020103,82328722,1581,1581,1579,1580,0,0,0,0,0,0,0,0,0,0
1706595501.80016112,82428682,1580,1580,1579,1579,0,0,0,0,0,0,0,0,0,0
1706595501.90012097,82528642,1580,1580,1580,1580,0,0,0,0,0,0,0,0,0,0
1706595502.00008106,82628602,1581,1581,1581,1581,0,0,0,0,0,0,0,0,0,0
1706595502.10004115,82728562,1579,1580,1581,1581,0,0,0,0,0,0,0,0,0,0
1706595502.20000100,82828522,1579,1580,1581,1581,0,0,0,0,0,0,0,0,0,0
1706595502.29996109,82928482,1579,1579,1581,1581,0,0,0,0,0,0,0,0,0,0
1706595502.39992094,83028442,1579,1579,1580,1581,0,0,0,0,0,0,0,0,0,0
1706595502.49988103,83128402,1580,1580,1581,1581,0,0,0,0,0,0,0,0,0,0
1706595502.59984112,83228362,1580,1580,1581,1580,0,0,0,0,0,0,0,0,0,0
1706595502.69980097,83328322,1581,1581,1581,1581,0,0,0,0,0,0,0,0,0,0
1706595502.79976106,83428282,1581,1581,1581,1581,0,0,0,0,0,0,0,0,0,0
1706595502.89972115,83528242,1581,1581,1581,1581,0,0,0,0,0,0,0,0,0,0
1706595502.99968100,83628202,1581,1581,1580,1580,0,0,0,0,0,0,0,0,0,0
1706595503.09964108,83728162,1581,1582,1586,1573,0,0,0,0,0,0,0,0,0,0
1706595503.20043397,83828955,1581,1582,1586,1573,0,0,0,0,0,0,0,0,0,0
1706595503.30039406,83928915,1578,1578,1578,1574,0,0,0,0,0,0,0,0,0,0
1706595503.40035415,84028875,1575,1574,1571,1575,0,0,0,0,0,0,0,0,0,0
1706595503.50031400,84128835,1572,1571,1566,1574,0,0,0,0,0,0,0,0,0,0
1706595503.60027409,84228795,1569,1568,1565,1571,0,0,0,0,0,0,0,0,0,0
1706595503.70023394,84328755,1568,1568,1565,1569,0,0,0,0,0,0,0,0,0,0
1706595503.80019403,84428715,1565,1566,1566,1566,0,0,0,0,0,0,0,0,0,0
1706595503.90015411,84528675,1565,1565,1566,1565,0,0,0,0,0,0,0,0,0,0
1706595504.00011396,84628635,1564,1564,1567,1564,0,0,0,0,0,0,0,0,0,0
1706595504.10007405,84728595,1564,1564,1566,1563,0,0,0,0,0,0,0,0,0,0
1706595504.20003414,84828555,1565,1564,1566,1564,0,0,0,0,0,0,0,0,0,0
1706595504.29999399,84928515,1563,1563,1564,1564,0,0,0,0,0,0,0,0,0,0
1706595504.39995408,85028475,1562,1562,1563,1563,0,0,0,0,0,0,0,0,0,0
1706595504.49991393,85128435,1562,1562,1562,1563,0,0,0,0,0,0,0,0,0,0
1706595504.59987402,85228395,1561,1561,1561,1561,0,0,0,0,0,0,0,0,0,0
1706595504.69983411,85328355,1562,1562,1562,1562,0,0,0,0,0,0,0,0,0,0
1706595504.79979396,85428315,1560,1560,1561,1560,0,0,0,0,0,0,0,0,0,0
1706595504.89975405,85528275,1560,1559,1559,1559,0,0,0,0,0,0,0,0,0,0
1706595504.99971414,85628235,1559,1559,1559,1558,0,0,0,0,0,0,0,0,0,0
1706595505.09967399,85728195,1557,1557,1557,1556,0,0,0,0,0,0,0,0,0,0
1706595505.19963408,85828155,1556,1556,1556,1555,0,0,0,0,0,0,0,0,0,0
1706595505.30042696,85928948,1555,1556,1556,1555,0,0,0,0,0,0,0,0,0,0
1706595505.40038705,86028908,1555,1555,1556,1554,0,0,0,0,0,0,0,0,0,0
1706595505.50034714,86128868,1556,1556,1556,1555,0,0,0,0,0,0,0,0,0,0
1706595505.60030699,86228828,1556,1556,1557,1555,0,0,0,0,0,0,0,0,0,0
1706595505.70026708,86328788,1557,1557,1557,1556,0,0,0,0,0,0,0,0,0,0
1706595505.80022693,86428748,1558,1558,1560,1556,0,0,0,0,0,0,0,0,0,0
1706595505.90018702,86528708,1559,1559,1558,1559,0,0,0,0,0,0,0,0,0,0
1706595506.00014710,86628668,1559,1559,1557,1561,0,0,0,0,0,0,0,0,0,0
1706595506.10010695,86728628,1560,1560,1557,1563,0,0,0,0,0,0,0,0,0,0
1706595506.20006704,86828588,1562,1561,1559,1564,0,0,0,0,0,0,0,0,0,0
1706595506.30002713,86928548,1562,1562,1560,1564,0,0,0,0,0,0,0,0,0,0
1706595506.39998698,87028508,1562,1562,1562,1562,0,0,0,0,0,0,0,0,0,0
1706595506.49994707,87128468,1562,1562,1561,1563,0,0,0,0,0,0,0,0,0,0
1706595506.59990692,87228428,1558,1559,1558,1559,0,0,0,0,0,0,0,0,0,0
1706595506.69986701,87328388,1554,1554,1554,1554,0,0,0,0,0,0,0,0,0,0
1706595506.79982710,87428348,1548,1548,1549,1549,0,0,0,0,0,0,0,0,0,0
1706595506.89978695,87528308,1542,1542,1542,1542,0,0,0,0,0,0,0,0,0,0
1706595506.99974704,87628268,1535,1535,1535,1535,0,0,0,0,0,0,0,0,0,0
1706595507.09970713,87728228,1527,1526,1527,1527,0,0,0,0,0,0,0,0,0,0
1706595507.19966698,87828188,1523,1523,1523,1523,0,0,0,0,0,0,0,0,0,0
1706595507.30046010,87928981,1519,1519,1519,1519,0,0,0,0,0,0,0,0,0,0
1706595507.40041995,88028941,1521,1521,1521,1521,0,0,0,0,0,0,0,0,0,0
1706595507.50038004,88128901,1522,1522,1522,1522,0,0,0,0,0,0,0,0,0,0
1706595507.60034013,88228861,1525,1526,1525,1525,0,0,0,0,0,0,0,0,0,0
1706595507.70029998,88328821,1529,1530,1528,1529,0,0,0,0,0,0,0,0,0,0
1706595507.80026007,88428781,1536,1536,1535,1535,0,0,0,0,0,0,0,0,0,0
1706595507.90021992,88528741,1539,1538,1538,1538,0,0,0,0,0,0,0,0,0,0
1706595508.00018001,88628701,1541,1541,1541,1541,0,0,0,0,0,0,0,0,0,0
1706595508.10014009,88728661,1543,1543,1542,1543,0,0,0,0,0,0,0,0,0,0
1706595508.20009995,88828621,1543,1544,1544,1543,0,0,0,0,0,0,0,0,0,0
1706595508.30006003,88928581,1545,1544,1545,1544,0,0,0,0,0,0,0,0,0,0
1706595508.40002012,89028541,1545,1545,1545,1545,0,0,0,0,0,0,0,0,0,0
1706595508.49997997,89128501,1545,1545,1546,1545,0,0,0,0,0,0,0,0,0,0
1706595508.59994006,89228461,1545,1546,1546,1546,0,0,0,0,0,0,0,0,0,0
1706595508.69990015,89328421,1545,1545,1546,1546,0,0,0,0,0,0,0,0,0,0
1706595508.79986000,89428381,1545,1545,1546,1546,0,0,0,0,0,0,0,0,0,0
1706595508.89982009,89528341,1545,1545,1545,1545,0,0,0,0,0,0,0,0,0,0
1706595508.99977994,89628301,1545,1545,1545,1545,0,0,0,0,0,0,0,0,0,0
1706595509.09974003,89728261,1545,1545,1545,1545,0,0,0,0,0,0,0,0,0,0
1706595509.19970012,89828221,1545,1545,1546,1544,0,0,0,0,0,0,0,0,0,0
1706595509.29965997,89928181,1545,1545,1545,1545,0,0,0,0,0,0,0,0,0,0
1706595509.40045309,90028974,1545,1545,1545,1545,0,0,0,0,0,0,0,0,0,0
1706595509.50041294,90128934,1544,1544,1544,1544,0,0,0,0,0,0,0,0,0,0
1706595509.60037303,90228894,1544,1545,1545,1544,0,0,0,0,0,0,0,0,0,0
1706595509.70033312,90328854,1545,1544,1545,1544,0,0,0,0,0,0,0,0,0,0
1706595509.80029297,90428814,1544,1544,1543,1544,0,0,0,0,0,0,0,0,0,0
1706595509.90025306,90528774,1544,1543,1543,1544,0,0,0,0,0,0,0,0,0,0
1706595510.00021315,90628734,1542,1543,1542,1543,0,0,0,0,0,0,0,0,0,0
1706595510.10017300,90728694,1543,1543,1543,1543,0,0,0,0,0,0,0,0,0,0
1706595510.20013309,90828654,1543,1543,1543,1543,0,0,0,0,0,0,0,0,0,0
1706595510.30009294,90928614,1543,1543,1543,1543,0,0,0,0,0,0,0,0,0,0
1706595510.40005302,91028574,1544,1543,1543,1543,0,0,0,0,0,0,0,0,0,0
1706595510.50001311,91128534,1543,1543,1543,1543,0,0,0,0,0,0,0,0,0,0
1706595510.59997296,91228494,1544,1544,1544,1544,0,0,0,0,0,0,0,0,0,0
1706595510.69993305,91328454,1544,1544,1544,1544,0,0,0,0,0,0,0,0,0,0
1706595510.79989314,91428414,1543,1544,1544,1543,0,0,0,0,0,0,0,0,0,0
1706595510.89985299,91528374,1544,1544,1544,1544,0,0,0,0,0,0,0,0,0,0
1706595510.99981308,91628334,1545,1544,1544,1544,0,0,0,0,0,0,0,0,0,0
1706595511.09977293,91728294,1544,1544,1544,1544,0,0,0,0,0,0,0,0,0,0
1706595511.19973302,91828254,1544,1544,1544,1544,0,0,0,0,0,0,0,0,0,0
1706595511.29969311,91928214,1544,1544,1544,1544,0,0,0,0,0,0,0,0,0,0
1706595511.39965296,92028174,1544,1544,1544,1544,0,0,0,0,0,0,0,0,0,0
1706595511.50044608,92128967,1544,1544,1544,1544,0,0,0,0,0,0,0,0,0,0
1706595511.60040593,92228927,1544,1544,1544,1544,0,0,0,0,0,0,0,0,0,0
1706595511.70036602,92328887,1544,1543,1544,1544,0,0,0,0,0,0,0,0,0,0
1706595511.80032611,92428847,1544,1544,1544,1544,0,0,0,0,0,0,0,0,0,0
1706595511.90028596,92528807,1544,1544,1544,1544,0,0,0,0,0,0,0,0,0,0
1706595512.00024605,92628767,1543,1543,1543,1543,0,0,0,0,0,0,0,0,0,0
1706595512.10020614,92728727,1543,1543,1543,1544,0,0,0,0,0,0,0,0,0,0
1706595512.20016599,92828687,1544,1544,1544,1543,0,0,0,0,0,0,0,0,0,0
1706595512.30012608,92928647,1544,1545,1544,1544,0,0,0,0,0,0,0,0,0,0
1706595512.40008593,93028607,1544,1545,1545,1544,0,0,0,0,0,0,0,0,0,0
1706595512.50004601,93128567,1544,1544,1544,1544,0,0,0,0,0,0,0,0,0,0
1706595512.60000610,93228527,1544,1544,1544,1544,0,0,0,0,0,0,0,0,0,0
1706595512.69996595,93328487,1544,1544,1544,1544,0,0,0,0,0,0,0,0,0,0
1706595512.79992604,93428447,1544,1544,1544,1544,0,0,0,0,0,0,0,0,0,0
1706595512.89988613,93528407,1544,1544,1544,1544,0,0,0,0,0,0,0,0,0,0
1706595512.99984598,93628367,1543,1544,1544,1543,0,0,0,0,0,0,0,0,0,0
1706595513.09980607,93728327,1544,1544,1543,1544,0,0,0,0,0,0,0,0,0,0
1706595513.19976592,93828287,1544,1544,1544,1544,0,0,0,0,0,0,0,0,0,0
1706595513.29972601,93928247,1544,1544,1543,1544,0,0,0,0,0,0,0,0,0,0
1706595513.39968610,94028207,1544,1544,1544,1544,0,0,0,0,0,0,0,0,0,0
1706595513.49964595,94128167,1544,1543,1544,1544,0,0,0,0,0,0,0,0,0,0
1706595513.60043907,94228960,1545,1545,1545,1545,0,0,0,0,0,0,0,0,0,0
1706595513.70039892,94328920,1544,1544,1544,1545,0,0,0,0,0,0,0,0,0,0
1706595513.80035901,94428880,1545,1545,1545,1545,0,0,0,0,0,0,0,0,0,0
1706595513.90031910,94528840,1544,1544,1544,1544,0,0,0,0,0,0,0,0,0,0
1706595514.00027895,94628800,1544,1544,1545,1544,0,0,0,0,0,0,0,0,0,0
1706595514.10023904,94728760,1544,1544,1544,1544,0,0,0,0,0,0,0,0,0,0
1706595514.20019913,94828720,1544,1545,1544,1544,0,0,0,0,0,0,0,0,0,0
1706595514.30015898,94928680,1544,1544,1544,1544,0,0,0,0,0,0,0,0,0,0
1706595514.40011907,95028640,1544,1544,1544,1544,0,0,0,0,0,0,0,0,0,0
1706595514.50007892,95128600,1545,1544,1544,1545,0,0,0,0,0,0,0,0,0,0
1706595514.60003901,95228560,1544,1544,1544,1544,0,0,0,0,0,0,0,0,0,0
1706595514.69999909,95328520,1545,1545,1545,1545,0,0,0,0,0,0,0,0,0,0
1706595514.79995894,95428480,1544,1544,1544,1544,0,0,0,0,0,0,0,0,0,0
1706595514.89991903,95528440,1546,1545,1545,1546,0,0,0,0,0,0,0,0,0,0
1706595514.99987912,95628400,1545,1545,1545,1545,0,0,0,0,0,0,0,0,0,0
1706595515.09983897,95728360,1545,1545,1545,1545,0,0,0,0,0,0,0,0,0,0
1706595515.19979906,95828320,1544,1545,1545,1544,0,0,0,0,0,0,0,0,0,0
1706595515.29975915,95928280,1544,1545,1545,1544,0,0,0,0,0,0,0,0,0,0
1706595515.39971900,96028240,1544,1544,1544,1544,0,0,0,0,0,0,0,0,0,0
1706595515.49967909,96128200,1544,1544,1544,1544,0,0,0,0,0,0,0,0,0,0
1706595515.59963894,96228160,1544,1544,1544,1544,0,0,0,0,0,0,0,0,0,0
1706595515.70043206,96328953,1545,1544,1544,1545,0,0,0,0,0,0,0,0,0,0
1706595515.80039215,96428913,1544,1544,1544,1544,0,0,0,0,0,0,0,0,0,0
1706595515.90035200,96528873,1543,1543,1543,1543,0,0,0,0,0,0,0,0,0,0
1706595516.00031209,96628833,1543,1543,1543,1543,0,0,0,0,0,0,0,0,0,0
1706595516.10027194,96728793,1544,1544,1543,1544,0,0,0,0,0,0,0,0,0,0
1706595516.20023203,96828753,1544,1544,1544,1544,0,0,0,0,0,0,0,0,0,0
1706595516.30019212,96928713,1544,1544,1544,1544,0,0,0,0,0,0,0,0,0,0
1706595516.40015197,97028673,1544,1544,1545,1544,0,0,0,0,0,0,0,0,0,0
1706595516.50011206,97128633,1544,1543,1544,1545,0,0,0,0,0,0,0,0,0,0
1706595516.60007215,97228593,1544,1544,1544,1544,0,0,0,0,0,0,0,0,0,0
1706595516.70003200,97328553,1545,1544,1545,1544,0,0,0,0,0,0,0,0,0,0
1706595516.79999208,97428513,1545,1545,1545,1544,0,0,0,0,0,0,0,0,0,0
1706595516.89995193,97528473,1535,1534,1535,1535,0,0,0,0,0,0,0,0,0,0
1706595516.99991202,97628433,1329,1325,1330,1343,0,0,0,0,0,0,0,0,0,0
1706595517.09987211,97728393,1213,1208,1215,1241,0,0,0,0,0,0,0,0,0,0
1706595517.19983196,97828353,1201,1198,1203,1231,0,0,0,0,0,0,0,0,0,0
1706595517.29979205,97928313,1202,1198,1203,1232,0,0,0,0,0,0,0,0,0,0
1706595517.39975214,98028273,1201,1198,1202,1232,0,0,0,0,0,0,0,0,0,0
1706595517.49971199,98128233,1202,1198,1203,1232,0,0,0,0,0,0,0,0,0,0
1706595517.59967208,98228193,1228,1198,1200,1257,0,0,0,0,0,0,0,0,0,0
1706595517.70046496,98328986,1226,1198,1201,1254,0,0,0,0,0,0,0,0,0,0
1706595517.80042505,98428946,1220,1198,1202,1248,0,0,0,0,0,0,0,0,0,0
1706595517.90038514,98528906,1220,1198,1203,1248,0,0,0,0,0,0,0,0,0,0
1706595518.00034499,98628866,1222,1198,1203,1249,0,0,0,0,0,0,0,0,0,0
1706595518.10030508,98728826,1223,1198,1203,1251,0,0,0,0,0,0,0,0,0,0
1706595518.20026493,98828786,1225,1198,1203,1252,0,0,0,0,0,0,0,0,0,0
1706595518.30022502,98928746,1228,1198,1204,1254,0,0,0,0,0,0,0,0,0,0
1706595518.40018511,99028706,1211,1198,1201,1242,0,0,0,0,0,0,0,0,0,0
1706595518.50014496,99128666,1215,1198,1201,1244,0,0,0,0,0,0,0,0,0,0
1706595518.60010505,99228626,1216,1198,1202,1245,0,0,0,0,0,0,0,0,0,0
1706595518.70006514,99328586,1216,1198,1202,1246,0,0,0,0,0,0,0,0,0,0
1706595518.80002499,99428546,1217,1198,1202,1246,0,0,0,0,0,0,0,0,0,0
1706595518.89998507,99528506,1000,1000,1000,1000,0,0,0,0,0,0,0,0,0,0
1706595518.99994493,99628466,1000,1000,1000,1000,0,0,0,0,0,0,0,0,0,0
1706595519.09990501,99728426,1000,1000,1000,1000,0,0,0,0,0,0,0,0,0,0
1706595519.19986510,99828386,1000,1000,1000,1000,0,0,0,0,0,0,0,0,0,0
1706595519.29982495,99928346,1000,1000,1000,1000,0,0,0,0,0,0,0,0,0,0
1706595519.39978504,100028306,1000,1000,1000,1000,0,0,0,0,0,0,0,0,0,0
1706595519.49974513,100128266,1000,1000,1000,1000,0,0,0,0,0,0,0,0,0,0
1706595519.59970498,100228226,1000,1000,1000,1000,0,0,0,0,0,0,0,0,0,0
1706595519.69966507,100328186,1000,1000,1000,1000,0,0,0,0,0,0,0,0,0,0
1706595519.80045795,100428979,1000,1000,1000,1000,0,0,0,0,0,0,0,0,0,0
1706595519.90041804,100528939,1000,1000,1000,1000,0,0,0,0,0,0,0,0,0,0
1706595520.00037813,100628899,1000,1000,1000,1000,0,0,0,0,0,0,0,0,0,0
1706595520.10033798,100728859,1000,1000,1000,1000,0,0,0,0,0,0,0,0,0,0
1706595520.20029807,100828819,1000,1000,1000,1000,0,0,0,0,0,0,0,0,0,0
1706595520.30025792,100928779,1000,1000,1000,1000,0,0,0,0,0,0,0,0,0,0
1706595520.40021801,101028739,1000,1000,1000,1000,0,0,0,0,0,0,0,0,0,0
1706595520.50017810,101128699,1000,1000,1000,1000,0,0,0,0,0,0,0,0,0,0
1706595520.60013795,101228659,1000,1000,1000,1000,0,0,0,0,0,0,0,0,0,0
1706595520.70009804,101328619,1000,1000,1000,1000,0,0,0,0,0,0,0,0,0,0
1706595520.80005813,101428579,1000,1000,1000,1000,0,0,0,0,0,0,0,0,0,0
1706595520.90001798,101528539,1000,1000,1000,1000,0,0,0,0,0,0,0,0,0,0
1706595520.99997807,101628499,1000,1000,1000,1000,0,0,0,0,0,0,0,0,0,0
1706595521.09993792,101728459,1000,1000,1000,1000,0,0,0,0,0,0,0,0,0,0
1706595521.19989800,101828419,1000,1000,1000,1000,0,0,0,0,0,0,0,0,0,0
1706595521.29985809,101928379,1000,1000,1000,1000,0,0,0,0,0,0,0,0,0,0
1706595521.39981794,102028339,1000,1000,1000,1000,0,0,0,0,0,0,0,0,0,0
1706595521.49977803,102128299,1000,1000,1000,1000,0,0,0,0,0,0,0,0,0,0
1706595521.59973812,102228259,1000,1000,1000,1000,0,0,0,0,0,0,0,0,0,0
1706595521.69969797,102328219,1000,1000,1000,1000,0,0,0,0,0,0,0,0,0,0
1706595521.79965806,102428179,1000,1000,1000,1000,0,0,0,0,0,0,0,0,0,0
1706595521.90045094,102528972,1000,1000,1000,1000,0,0,0,0,0,0,0,0,0,0
1706595522.00041103,102628932,1000,1000,1000,1000,0,0,0,0,0,0,0,0,0,0
1706595522.10037112,102728892,1000,1000,1000,1000,0,0,0,0,0,0,0,0,0,0
1706595522.20033097,102828852,1000,1000,1000,1000,0,0,0,0,0,0,0,0,0,0
1706595522.30029106,102928812,1000,1000,1000,1000,0,0,0,0,0,0,0,0,0,0
1706595522.40025115,103028772,1000,1000,1000,1000,0,0,0,0,0,0,0,0,0,0
1706595522.50021100,103128732,1000,1000,1000,1000,0,0,0,0,0,0,0,0,0,0
1706595522.60017109,103228692,1000,1000,1000,1000,0,0,0,0,0,0,0,0,0,0
1706595522.70013094,103328652,1000,1000,1000,1000,0,0,0,0,0,0,0,0,0,0
1706595522.80009103,103428612,1000,1000,1000,1000,0,0,0,0,0,0,0,0,0,0
1706595522.90005112,103528572,1000,1000,1000,1000,0,0,0,0,0,0,0,0,0,0
1706595523.00001097,103628532,1000,1000,1000,1000,0,0,0,0,0,0,0,0,0,0
1706595523.09997106,103728492,1000,1000,1000,1000,0,0,0,0,0,0,0,0,0,0
1706595523.19993114,103828452,1000,1000,1000,1000,0,0,0,0,0,0,0,0,0,0
1706595523.29989100,103928412,1000,1000,1000,1000,0,0,0,0,0,0,0,0,0,0
1706595523.39985108,104028372,1000,1000,1000,1000,0,0,0,0,0,0,0,0,0,0
1706595523.49981093,104128332,1000,1000,1000,1000,0,0,0,0,0,0,0,0,0,0
1706595523.59977102,104228292,1000,1000,1000,1000,0,0,0,0,0,0,0,0,0,0
1706595523.69973111,104328252,1000,1000,1000,1000,0,0,0,0,0,0,0,0,0,0
1706595523.79969096,104428212,1000,1000,1000,1000,0,0,0,0,0,0,0,0,0,0
1706595523.89965105,104528172,1000,1000,1000,1000,0,0,0,0,0,0,0,0,0,0
1706595524.00044394,104628965,1000,1000,1000,1000,0,0,0,0,0,0,0,0,0,0
1706595524.10040402,104728925,1000,1000,1000,1000,0,0,0,0,0,0,0,0,0,0
1706595524.20036411,104828885,1000,1000,1000,1000,0,0,0,0,0,0,0,0,0,0
1706595524.30032396,104928845,1000,1000,1000,1000,0,0,0,0,0,0,0,0,0,0
1706595524.40028405,105028805,1000,1000,1000,1000,0,0,0,0,0,0,0,0,0,0
1706595524.50024414,105128765,1000,1000,1000,1000,0,0,0,0,0,0,0,0,0,0
1706595524.60020399,105228725,1000,1000,1000,1000,0,0,0,0,0,0,0,0,0,0
1706595524.70016408,105328685,1000,1000,1000,1000,0,0,0,0,0,0,0,0,0,0
1706595524.80012393,105428645,1000,1000,1000,1000,0,0,0,0,0,0,0,0,0,0
1706595524.90008402,105528605,1000,1000,1000,1000,0,0,0,0,0,0,0,0,0,0
1706595525.00004411,105628565,1000,1000,1000,1000,0,0,0,0,0,0,0,0,0,0
1706595525.10000396,105728525,1000,1000,1000,1000,0,0,0,0,0,0,0,0,0,0
1706595525.19996405,105828485,1000,1000,1000,1000,0,0,0,0,0,0,0,0,0,0
1706595525.29992414,105928445,1000,1000,1000,1000,0,0,0,0,0,0,0,0,0,0
1706595525.39988399,106028405,1000,1000,1000,1000,0,0,0,0,0,0,0,0,0,0
1706595525.49984407,106128365,1000,1000,1000,1000,0,0,0,0,0,0,0,0,0,0
1706595525.59980392,106228325,1000,1000,1000,1000,0,0,0,0,0,0,0,0,0,0
1706595525.69976401,106328285,1000,1000,1000,1000,0,0,0,0,0,0,0,0,0,0
1706595525.79972410,106428245,1000,1000,1000,1000,0,0,0,0,0,0,0,0,0,0
1706595525.89968395,106528205,1000,1000,1000,1000,0,0,0,0,0,0,0,0,0,0
1706595525.99964404,106628165,1000,1000,1000,1000,0,0,0,0,0,0,0,0,0,0
1706595526.10043693,106728958,1000,1000,1000,1000,0,0,0,0,0,0,0,0,0,0
1706595526.20039701,106828918,1000,1000,1000,1000,0,0,0,0,0,0,0,0,0,0
1706595526.30035710,106928878,1000,1000,1000,1000,0,0,0,0,0,0,0,0,0,0
1706595526.40031695,107028838,1000,1000,1000,1000,0,0,0,0,0,0,0,0,0,0
1706595526.50027704,107128798,1000,1000,1000,1000,0,0,0,0,0,0,0,0,0,0
1706595526.60023713,107228758,1000,1000,1000,1000,0,0,0,0,0,0,0,0,0,0
1706595526.70019698,107328718,1000,1000,1000,1000,0,0,0,0,0,0,0,0,0,0
1706595526.80015707,107428678,1000,1000,1000,1000,0,0,0,0,0,0,0,0,0,0
1706595526.90011692,107528638,1000,1000,1000,1000,0,0,0,0,0,0,0,0,0,0
1706595527.00007701,107628598,1000,1000,1000,1000,0,0,0,0,0,0,0,0,0,0
1706595527.10003710,107728558,1000,1000,1000,1000,0,0,0,0,0,0,0,0,0,0
1706595527.19999695,107828518,1000,1000,1000,1000,0,0,0,0,0,0,0,0,0,0
1706595527.29995704,107928478,1000,1000,1000,1000,0,0,0,0,0,0,0,0,0,0
1706595527.39991713,108028438,1000,1000,1000,1000,0,0,0,0,0,0,0,0,0,0
1706595527.49987698,108128398,1000,1000,1000,1000,0,0,0,0,0,0,0,0,0,0
1706595527.59983706,108228358,1000,1000,1000,1000,0,0,0,0,0,0,0,0,0,0
1706595527.69979715,108328318,1000,1000,1000,1000,0,0,0,0,0,0,0,0,0,0
1706595527.79975700,108428278,1000,1000,1000,1000,0,0,0,0,0,0,0,0,0,0
1706595527.89971709,108528238,1000,1000,1000,1000,0,0,0,0,0,0,0,0,0,0
1706595527.99967694,108628198,1000,1000,1000,1000,0,0,0,0,0,0,0,0,0,0
1706595528.09963703,108728158,1000,1000,1000,1000,0,0,0,0,0,0,0,0,0,0
1706595528.20042992,108828951,1000,1000,1000,1000,0,0,0,0,0,0,0,0,0,0
1706595528.30039001,108928911,1000,1000,1000,1000,0,0,0,0,0,0,0,0,0,0
1706595528.40035009,109028871,1000,1000,1000,1000,0,0,0,0,0,0,0,0,0,0
1706595528.50030994,109128831,1000,1000,1000,1000,0,0,0,0,0,0,0,0,0,0
1706595528.60027003,109228791,1000,1000,1000,1000,0,0,0,0,0,0,0,0,0,0
1706595528.70023012,109328751,1000,1000,1000,1000,0,0,0,0,0,0,0,0,0,0
1706595528.80018997,109428711,1000,1000,1000,1000,0,0,0,0,0,0,0,0,0,0
1706595528.90015006,109528671,1000,1000,1000,1000,0,0,0,0,0,0,0,0,0,0
1706595529.00011015,109628631,1000,1000,1000,1000,0,0,0,0,0,0,0,0,0,0
1706595529.10007000,109728591,1000,1000,1000,1000,0,0,0,0,0,0,0,0,0,0
1706595529.20003009,109828551,1000,1000,1000,1000,0,0,0,0,0,0,0,0,0,0
1706595529.29998994,109928511,1000,1000,1000,1000,0,0,0,0,0,0,0,0,0,0
1706595529.39995003,110028471,1000,1000,1000,1000,0,0,0,0,0,0,0,0,0,0
1706595529.49991012,110128431,1000,1000,1000,1000,0,0,0,0,0,0,0,0,0,0
1706595529.59986997,110228391,1000,1000,1000,1000,0,0,0,0,0,0,0,0,0,0
1706595529.69983006,110328351,1000,1000,1000,1000,0,0,0,0,0,0,0,0,0,0
1706595529.79979014,110428311,1000,1000,1000,1000,0,0,0,0,0,0,0,0,0,0
1706595529.89974999,110528271,1000,1000,1000,1000,0,0,0,0,0,0,0,0,0,0
1706595529.99971008,110628231,1000,1000,1000,1000,0,0,0,0,0,0,0,0,0,0
1706595530.09966993,110728191,1000,1000,1000,1000,0,0,0,0,0,0,0,0,0,0
1706595530.20046306,110828984,1000,1000,1000,1000,0,0,0,0,0,0,0,0,0,0
1706595530.30042315,110928944,1000,1000,1000,1000,0,0,0,0,0,0,0,0,0,0
1706595530.40038300,111028904,1000,1000,1000,1000,0,0,0,0,0,0,0,0,0,0
1706595530.50034308,111128864,1000,1000,1000,1000,0,0,0,0,0,0,0,0,0,0
1706595530.60030293,111228824,1000,1000,1000,1000,0,0,0,0,0,0,0,0,0,0
1706595530.70026302,111328784,1000,1000,1000,1000,0,0,0,0,0,0,0,0,0,0
1706595530.80022311,111428744,1000,1000,1000,1000,0,0,0,0,0,0,0,0,0,0
1706595530.90018296,111528704,1000,1000,1000,1000,0,0,0,0,0,0,0,0,0,0
1706595531.00014305,111628664,1000,1000,1000,1000,0,0,0,0,0,0,0,0,0,0
1706595531.10010314,111728624,1000,1000,1000,1000,0,0,0,0,0,0,0,0,0,0
1706595531.20006299,111828584,1000,1000,1000,1000,0,0,0,0,0,0,0,0,0,0
1706595531.30002308,111928544,1000,1000,1000,1000,0,0,0,0,0,0,0,0,0,0
1706595531.39998293,112028504,1000,1000,1000,1000,0,0,0,0,0,0,0,0,0,0
1706595531.49994302,112128464,1000,1000,1000,1000,0,0,0,0,0,0,0,0,0,0
1706595531.59990311,112228424,1000,1000,1000,1000,0,0,0,0,0,0,0,0,0,0
1706595531.69986296,112328384,1000,1000,1000,1000,0,0,0,0,0,0,0,0,0,0
1706595531.79982305,112428344,1000,1000,1000,1000,0,0,0,0,0,0,0,0,0,0
1706595531.89978313,112528304,1000,1000,1000,1000,0,0,0,0,0,0,0,0,0,0
1706595531.99974298,112628264,1000,1000,1000,1000,0,0,0,0,0,0,0,0,0,0
1706595532.09970307,112728224,1000,1000,1000,1000,0,0,0,0,0,0,0,0,0,0
1706595532.19966292,112828184,1000,1000,1000,1000,0,0,0,0,0,0,0,0,0,0
1706595532.30045605,112928977,1000,1000,1000,1000,0,0,0,0,0,0,0,0,0,0
1706595532.40041614,113028937,1000,1000,1000,1000,0,0,0,0,0,0,0,0,0,0
1706595532.50037599,113128897,1000,1000,1000,1000,0,0,0,0,0,0,0,0,0,0
1706595532.60033607,113228857,1000,1000,1000,1000,0,0,0,0,0,0,0,0,0,0
1706595532.70029593,113328817,1000,1000,1000,1000,0,0,0,0,0,0,0,0,0,0
1706595532.80025601,113428777,1000,1000,1000,1000,0,0,0,0,0,0,0,0,0,0
1706595532.90021610,113528737,1000,1000,1000,1000,0,0,0,0,0,0,0,0,0,0
1706595533.00017595,113628697,1000,1000,1000,1000,0,0,0,0,0,0,0,0,0,0
1706595533.10013604,113728657,1000,1000,1000,1000,0,0,0,0,0,0,0,0,0,0
1706595533.20009613,113828617,1000,1000,1000,1000,0,0,0,0,0,0,0,0,0,0
1706595533.30005598,113928577,1000,1000,1000,1000,0,0,0,0,0,0,0,0,0,0
1706595533.40001607,114028537,1000,1000,1000,1000,0,0,0,0,0,0,0,0,0,0
1706595533.49997592,114128497,1000,1000,1000,1000,0,0,0,0,0,0,0,0,0,0
1706595533.59993601,114228457,1000,1000,1000,1000,0,0,0,0,0,0,0,0,0,0
1706595533.69989610,114328417,1000,1000,1000,1000,0,0,0,0,0,0,0,0,0,0
1706595533.79985595,114428377,1000,1000,1000,1000,0,0,0,0,0,0,0,0,0,0
