timestamp,TimeUS,C1,C2,C3,C4,C5,C6,C7,C8,C9,C10,C11,C12,C13,C14
1706594953.79999995,131828914,1000,1000,1000,1000,0,0,0,0,0,0,0,0,0,0
1706594953.89996004,131928874,1000,1000,1000,1000,0,0,0,0,0,0,0,0,0,0
1706594953.99992013,132028834,1000,1000,1000,1000,0,0,0,0,0,0,0,0,0,0
1706594954.09987998,132128794,1000,1000,1000,1000,0,0,0,0,0,0,0,0,0,0
1706594954.19984007,132228754,1000,1000,1000,1000,0,0,0,0,0,0,0,0,0,0
1706594954.29979992,132328714,1000,1000,1000,1000,0,0,0,0,0,0,0,0,0,0
1706594954.39976001,132428674,1000,1000,1000,1000,0,0,0,0,0,0,0,0,0,0
1706594954.49972010,132528634,1000,1000,1000,1000,0,0,0,0,0,0,0,0,0,0
1706594954.59967995,132628594,1000,1000,1000,1000,0,0,0,0,0,0,0,0,0,0
1706594954.69964004,132728554,1000,1000,1000,1000,0,0,0,0,0,0,0,0,0,0
1706594954.79960012,132828514,1000,1000,1000,1000,0,0,0,0,0,0,0,0,0,0
1706594954.89955997,132928474,1000,1000,1000,1000,0,0,0,0,0,0,0,0,0,0
1706594954.99952006,133028434,1000,1000,1000,1000,0,0,0,0,0,0,0,0,0,0
1706594955.09947991,133128394,1000,1000,1000,1000,0,0,0,0,0,0,0,0,0,0
1706594955.19944000,133228354,1000,1000,1000,1000,0,0,0,0,0,0,0,0,0,0
1706594955.29940009,133328314,1000,1000,1000,1000,0,0,0,0,0,0,0,0,0,0
1706594955.39935994,133428274,1000,1000,1000,1000,0,0,0,0,0,0,0,0,0,0
1706594955.49932003,133528234,1000,1000,1000,1000,0,0,0,0,0,0,0,0,0,0
1706594955.59928012,133628194,1000,1000,1000,1000,0,0,0,0,0,0,0,0,0,0
1706594955.69923997,133728154,1000,1000,1000,1000,0,0,0,0,0,0,0,0,0,0
1706594955.80003309,133828947,1013,1013,1013,1013,0,0,0,0,0,0,0,0,0,0
1706594955.89999294,133928907,1043,1043,1043,1043,0,0,0,0,0,0,0,0,0,0
1706594955.99995303,134028867,1073,1073,1073,1073,0,0,0,0,0,0,0,0,0,0
1706594956.09991312,134128827,1103,1103,1103,1103,0,0,0,0,0,0,0,0,0,0
1706594956.19987297,134228787,1133,1133,1133,1133,0,0,0,0,0,0,0,0,0,0
1706594956.29983306,134328747,1281,1262,1263,1282,0,0,0,0,0,0,0,0,0,0
1706594956.39979291,134428707,1490,1476,1477,1490,0,0,0,0,0,0,0,0,0,0
1706594956.49975300,134528667,1652,1639,1640,1653,0,0,0,0,0,0,0,0,0,0
1706594956.59971309,134628627,1789,1777,1778,1790,0,0,0,0,0,0,0,0,0,0
1706594956.69967294,134728587,1911,1899,1899,1912,0,0,0,0,0,0,0,0,0,0
1706594956.79963303,134828547,1897,1890,1891,1898,0,0,0,0,0,0,0,0,0,0
1706594956.89959311,134928507,1763,1761,1761,1764,0,0,0,0,0,0,0,0,0,0
1706594956.99955297,135028467,1658,1662,1658,1663,0,0,0,0,0,0,0,0,0,0
1706594957.09951305,135128427,1623,1629,1626,1627,0,0,0,0,0,0,0,0,0,0
1706594957.19947314,135228387,1624,1629,1629,1625,0,0,0,0,0,0,0,0,0,0
1706594957.29943299,135328347,1629,1632,1633,1628,0,0,0,0,0,0,0,0,0,0
1706594957.39939308,135428307,1628,1629,1630,1626,0,0,0,0,0,0,0,0,0,0
1706594957.49935293,135528267,1623,1621,1623,1621,0,0,0,0,0,0,0,0,0,0
1706594957.59931302,135628227,1618,1616,1617,1617,0,0,0,0,0,0,0,0,0,0
1706594957.69927311,135728187,1614,1611,1612,1613,0,0,0,0,0,0,0,0,0,0
1706594957.80006599,135828980,1613,1612,1612,1612,0,0,0,0,0,0,0,0,0,0
1706594957.90002608,135928940,1614,1613,1613,1613,0,0,0,0,0,0,0,0,0,0
1706594957.99998593,136028900,1601,1602,1603,1598,0,0,0,0,0,0,0,0,0,0
1706594958.09994602,136128860,1577,1578,1585,1569,0,0,0,0,0,0,0,0,0,0
1706594958.19990611,136228820,1565,1567,1571,1562,0,0,0,0,0,0,0,0,0,0
1706594958.29986596,136328780,1555,1556,1555,1556,0,0,0,0,0,0,0,0,0,0
1706594958.39982605,136428740,1547,1547,1542,1553,0,0,0,0,0,0,0,0,0,0
1706594958.49978614,136528700,1541,1539,1531,1550,0,0,0,0,0,0,0,0,0,0
1706594958.59974599,136628660,1535,1534,1527,1542,0,0,0,0,0,0,0,0,0,0
1706594958.69970608,136728620,1530,1528,1524,1533,0,0,0,0,0,0,0,0,0,0
1706594958.79966593,136828580,1526,1526,1525,1526,0,0,0,0,0,0,0,0,0,0
1706594958.89962602,136928540,1527,1527,1528,1525,0,0,0,0,0,0,0,0,0,0
1706594958.99958611,137028500,1528,1529,1532,1525,0,0,0,0,0,0,0,0,0,0
1706594959.09954596,137128460,1532,1532,1535,1529,0,0,0,0,0,0,0,0,0,0
1706594959.19950604,137228420,1535,1535,1538,1533,0,0,0,0,0,0,0,0,0,0
1706594959.29946613,137328380,1538,1538,1540,1537,0,0,0,0,0,0,0,0,0,0
1706594959.39942598,137428340,1542,1542,1543,1542,0,0,0,0,0,0,0,0,0,0
1706594959.49938607,137528300,1546,1545,1546,1546,0,0,0,0,0,0,0,0,0,0
1706594959.59934592,137628260,1548,1548,1548,1549,0,0,0,0,0,0,0,0,0,0
1706594959.69930601,137728220,1551,1551,1551,1552,0,0,0,0,0,0,0,0,0,0
1706594959.79926610,137828180,1552,1553,1552,1554,0,0,0,0,0,0,0,0,0,0
1706594959.90005898,137928973,1556,1556,1555,1557,0,0,0,0,0,0,0,0,0,0
1706594960.00001907,138028933,1562,1562,1553,1555,0,0,0,0,0,0,0,0,0,0
1706594960.09997892,138128893,1563,1562,1556,1558,0,0,0,0,0,0,0,0,0,0
1706594960.19993901,138228853,1562,1561,1561,1562,0,0,0,0,0,0,0,0,0,0
1706594960.29989910,138328813,1561,1560,1565,1565,0,0,0,0,0,0,0,0,0,0
1706594960.39985895,138428773,1561,1562,1568,1568,0,0,0,0,0,0,0,0,0,0
1706594960.49981904,138528733,1562,1563,1571,1570,0,0,0,0,0,0,0,0,0,0
1706594960.59977913,138628693,1564,1564,1572,1571,0,0,0,0,0,0,0,0,0,0
1706594960.69973898,138728653,1565,1565,1571,1572,0,0,0,0,0,0,0,0,0,0
1706594960.79969907,138828613,1567,1567,1571,1572,0,0,0,0,0,0,0,0,0,0
1706594960.89965892,138928573,1568,1569,1571,1572,0,0,0,0,0,0,0,0,0,0
1706594960.99961901,139028533,1570,1570,1570,1570,0,0,0,0,0,0,0,0,0,0
1706594961.09957910,139128493,1571,1571,1569,1570,0,0,0,0,0,0,0,0,0,0
1706594961.19953895,139228453,1573,1573,1570,1570,0,0,0,0,0,0,0,0,0,0
1706594961.29949903,139328413,1575,1575,1571,1570,0,0,0,0,0,0,0,0,0,0
1706594961.39945912,139428373,1576,1576,1572,1570,0,0,0,0,0,0,0,0,0,0
1706594961.49941897,139528333,1577,1576,1573,1571,0,0,0,0,0,0,0,0,0,0
1706594961.59937906,139628293,1576,1576,1573,1571,0,0,0,0,0,0,0,0,0,0
1706594961.69933891,139728253,1576,1576,1573,1573,0,0,0,0,0,0,0,0,0,0
1706594961.79929900,139828213,1576,1576,1573,1573,0,0,0,0,0,0,0,0,0,0
1706594961.89925909,139928173,1575,1575,1574,1575,0,0,0,0,0,0,0,0,0,0
1706594962.00005198,140028966,1576,1576,1575,1575,0,0,0,0,0,0,0,0,0,0
1706594962.10001206,140128926,1576,1576,1576,1576,0,0,0,0,0,0,0,0,0,0
1706594962.19997191,140228886,1576,1576,1577,1577,0,0,0,0,0,0,0,0,0,0
1706594962.29993200,140328846,1576,1576,1578,1578,0,0,0,0,0,0,0,0,0,0
1706594962.39989209,140428806,1576,1577,1578,1578,0,0,0,0,0,0,0,0,0,0
1706594962.49985194,140528766,1576,1577,1578,1578,0,0,0,0,0,0,0,0,0,0
1706594962.59981203,140628726,1576,1578,1579,1578,0,0,0,0,0,0,0,0,0,0
1706594962.69977212,140728686,1578,1577,1579,1578,0,0,0,0,0,0,0,0,0,0
1706594962.79973197,140828646,1578,1578,1579,1579,0,0,0,0,0,0,0,0,0,0
1706594962.89969206,140928606,1578,1578,1578,1578,0,0,0,0,0,0,0,0,0,0
1706594962.99965191,141028566,1578,1578,1578,1578,0,0,0,0,0,0,0,0,0,0
1706594963.09961200,141128526,1577,1577,1576,1577,0,0,0,0,0,0,0,0,0,0
1706594963.19957209,141228486,1578,1578,1578,1578,0,0,0,0,0,0,0,0,0,0
1706594963.29953194,141328446,1579,1579,1578,1579,0,0,0,0,0,0,0,0,0,0
1706594963.39949203,141428406,1578,1578,1578,1577,0,0,0,0,0,0,0,0,0,0
1706594963.49945211,141528366,1579,1579,1579,1578,0,0,0,0,0,0,0,0,0,0
1706594963.59941196,141628326,1579,1579,1579,1579,0,0,0,0,0,0,0,0,0,0
1706594963.69937205,141728286,1579,1578,1578,1579,0,0,0,0,0,0,0,0,0,0
1706594963.79933214,141828246,1579,1579,1579,1580,0,0,0,0,0,0,0,0,0,0
1706594963.89929199,141928206,1579,1578,1579,1579,0,0,0,0,0,0,0,0,0,0
1706594963.99925208,142028166,1579,1580,1580,1580,0,0,0,0,0,0,0,0,0,0
1706594964.10004497,142128959,1579,1579,1580,1579,0,0,0,0,0,0,0,0,0,0
1706594964.20000505,142228919,1579,1579,1580,1579,0,0,0,0,0,0,0,0,0,0
1706594964.29996514,142328879,1579,1579,1580,1580,0,0,0,0,0,0,0,0,0,0
1706594964.39992499,142428839,1579,1579,1580,1579,0,0,0,0,0,0,0,0,0,0
1706594964.49988508,142528799,1579,1579,1579,1579,0,0,0,0,0,0,0,0,0,0
1706594964.59984493,142628759,1580,1580,1580,1580,0,0,0,0,0,0,0,0,0,0
1706594964.69980502,142728719,1579,1579,1579,1580,0,0,0,0,0,0,0,0,0,0
1706594964.79976511,142828679,1580,1580,1580,1580,0,0,0,0,0,0,0,0,0,0
1706594964.89972496,142928639,1580,1579,1580,1580,0,0,0,0,0,0,0,0,0,0
1706594964.99968505,143028599,1581,1580,1581,1580,0,0,0,0,0,0,0,0,0,0
1706594965.09964514,143128559,1580,1581,1580,1580,0,0,0,0,0,0,0,0,0,0
1706594965.19960499,143228519,1580,1580,1580,1580,0,0,0,0,0,0,0,0,0,0
1706594965.29956508,143328479,1581,1581,1580,1581,0,0,0,0,0,0,0,0,0,0
1706594965.39952493,143428439,1581,1581,1581,1581,0,0,0,0,0,0,0,0,0,0
1706594965.49948502,143528399,1581,1581,1581,1581,0,0,0,0,0,0,0,0,0,0
1706594965.59944510,143628359,1581,1580,1580,1581,0,0,0,0,0,0,0,0,0,0
1706594965.69940495,143728319,1580,1580,1580,1581,0,0,0,0,0,0,0,0,0,0
1706594965.79936504,143828279,1581,1581,1581,1581,0,0,0,0,0,0,0,0,0,0
1706594965.89932513,143928239,1582,1582,1582,1582,0,0,0,0,0,0,0,0,0,0
1706594965.99928498,144028199,1580,1581,1581,1580,0,0,0,0,0,0,0,0,0,0
1706594966.09924507,144128159,1580,1580,1582,1579,0,0,0,0,0,0,0,0,0,0
1706594966.20003796,144228952,1581,1583,1589,1573,0,0,0,0,0,0,0,0,0,0
1706594966.29999804,144328912,1579,1582,1583,1573,0,0,0,0,0,0,0,0,0,0
1706594966.39995813,144428872,1579,1582,1574,1573,0,0,0,0,0,0,0,0,0,0
1706594966.49991798,144528832,1578,1580,1566,1571,0,0,0,0,0,0,0,0,0,0
1706594966.59987807,144628792,1578,1580,1559,1567,0,0,0,0,0,0,0,0,0,0
1706594966.69983792,144728752,1579,1579,1556,1562,0,0,0,0,0,0,0,0,0,0
1706594966.79979801,144828712,1581,1579,1555,1558,0,0,0,0,0,0,0,0,0,0
1706594966.89975810,144928672,1581,1579,1555,1555,0,0,0,0,0,0,0,0,0,0
1706594966.99971795,145028632,1581,1580,1556,1553,0,0,0,0,0,0,0,0,0,0
1706594967.09967804,145128592,1578,1578,1554,1552,0,0,0,0,0,0,0,0,0,0
1706594967.19963813,145228552,1578,1578,1555,1552,0,0,0,0,0,0,0,0,0,0
1706594967.29959798,145328512,1576,1577,1553,1552,0,0,0,0,0,0,0,0,0,0
1706594967.39955807,145428472,1575,1577,1552,1552,0,0,0,0,0,0,0,0,0,0
1706594967.49951792,145528432,1575,1577,1551,1551,0,0,0,0,0,0,0,0,0,0
1706594967.59947801,145628392,1577,1578,1550,1551,0,0,0,0,0,0,0,0,0,0
1706594967.69943810,145728352,1579,1580,1549,1549,0,0,0,0,0,0,0,0,0,0
1706594967.79939795,145828312,1581,1582,1547,1546,0,0,0,0,0,0,0,0,0,0
1706594967.89935803,145928272,1583,1584,1544,1543,0,0,0,0,0,0,0,0,0,0
1706594967.99931812,146028232,1586,1587,1541,1540,0,0,0,0,0,0,0,0,0,0
1706594968.09927797,146128192,1588,1589,1538,1538,0,0,0,0,0,0,0,0,0,0
1706594968.20007110,146228985,1592,1593,1537,1537,0,0,0,0,0,0,0,0,0,0
1706594968.30003095,146328945,1595,1594,1536,1536,0,0,0,0,0,0,0,0,0,0
1706594968.39999104,146428905,1595,1595,1534,1536,0,0,0,0,0,0,0,0,0,0
1706594968.49995112,146528865,1594,1594,1535,1537,0,0,0,0,0,0,0,0,0,0
1706594968.59991097,146628825,1594,1593,1538,1541,0,0,0,0,0,0,0,0,0,0
1706594968.69987106,146728785,1590,1588,1543,1547,0,0,0,0,0,0,0,0,0,0
1706594968.79983091,146828745,1584,1582,1551,1554,0,0,0,0,0,0,0,0,0,0
1706594968.89979100,146928705,1577,1573,1562,1564,0,0,0,0,0,0,0,0,0,0
1706594968.99975109,147028665,1567,1563,1574,1576,0,0,0,0,0,0,0,0,0,0
1706594969.09971094,147128625,1555,1551,1586,1588,0,0,0,0,0,0,0,0,0,0
1706594969.19967103,147228585,1544,1542,1598,1598,0,0,0,0,0,0,0,0,0,0
1706594969.29963112,147328545,1535,1535,1608,1607,0,0,0,0,0,0,0,0,0,0
1706594969.39959097,147428505,1530,1530,1614,1613,0,0,0,0,0,0,0,0,0,0
1706594969.49955106,147528465,1529,1530,1616,1615,0,0,0,0,0,0,0,0,0,0
1706594969.59951091,147628425,1531,1534,1615,1614,0,0,0,0,0,0,0,0,0,0
1706594969.69947100,147728385,1536,1538,1610,1610,0,0,0,0,0,0,0,0,0,0
1706594969.79943109,147828345,1543,1545,1603,1604,0,0,0,0,0,0,0,0,0,0
1706594969.89939094,147928305,1552,1553,1597,1596,0,0,0,0,0,0,0,0,0,0
1706594969.99935102,148028265,1561,1562,1589,1588,0,0,0,0,0,0,0,0,0,0
1706594970.09931111,148128225,1570,1570,1582,1581,0,0,0,0,0,0,0,0,0,0
1706594970.19927096,148228185,1576,1576,1575,1574,0,0,0,0,0,0,0,0,0,0
1706594970.30006409,148328978,1583,1582,1571,1570,0,0,0,0,0,0,0,0,0,0
1706594970.40002394,148428938,1586,1585,1567,1567,0,0,0,0,0,0,0,0,0,0
1706594970.49998403,148528898,1587,1585,1565,1565,0,0,0,0,0,0,0,0,0,0
1706594970.59994411,148628858,1587,1586,1565,1566,0,0,0,0,0,0,0,0,0,0
1706594970.69990396,148728818,1586,1585,1567,1567,0,0,0,0,0,0,0,0,0,0
1706594970.79986405,148828778,1584,1583,1570,1570,0,0,0,0,0,0,0,0,0,0
1706594970.89982414,148928738,1581,1580,1573,1573,0,0,0,0,0,0,0,0,0,0
1706594970.99978399,149028698,1578,1578,1576,1576,0,0,0,0,0,0,0,0,0,0
1706594971.09974408,149128658,1575,1575,1578,1578,0,0,0,0,0,0,0,0,0,0
1706594971.19970393,149228618,1573,1574,1581,1581,0,0,0,0,0,0,0,0,0,0
1706594971.29966402,149328578,1571,1572,1582,1582,0,0,0,0,0,0,0,0,0,0
1706594971.39962411,149428538,1571,1572,1583,1583,0,0,0,0,0,0,0,0,0,0
1706594971.49958396,149528498,1571,1571,1582,1583,0,0,0,0,0,0,0,0,0,0
1706594971.59954405,149628458,1573,1573,1583,1583,0,0,0,0,0,0,0,0,0,0
1706594971.69950414,149728418,1387,1387,1477,1580,0,0,0,0,0,0,0,0,0,0
1706594971.79946399,149828378,1490,1487,1598,1589,0,0,0,0,0,0,0,0,0,0
1706594971.89942408,149928338,1545,1538,1650,1557,0,0,0,0,0,0,0,0,0,0
1706594971.99938393,150028298,1705,1694,1758,1606,0,0,0,0,0,0,0,0,0,0
1706594972.09934402,150128258,1739,1725,1758,1663,0,0,0,0,0,0,0,0,0,0
1706594972.19930410,150228218,1758,1746,1739,1700,0,0,0,0,0,0,0,0,0,0
1706594972.29926395,150328178,1752,1746,1684,1716,0,0,0,0,0,0,0,0,0,0
1706594972.40005708,150428971,1684,1690,1587,1666,0,0,0,0,0,0,0,0,0,0
1706594972.50001693,150528931,1644,1663,1546,1636,0,0,0,0,0,0,0,0,0,0
1706594972.59997702,150628891,1619,1648,1539,1602,0,0,0,0,0,0,0,0,0,0
1706594972.69993711,150728851,1605,1634,1544,1565,0,0,0,0,0,0,0,0,0,0
1706594972.79989696,150828811,1597,1617,1553,1540,0,0,0,0,0,0,0,0,0,0
1706594972.89985704,150928771,1593,1597,1562,1535,0,0,0,0,0,0,0,0,0,0
1706594972.99981713,151028731,1591,1579,1571,1545,0,0,0,0,0,0,0,0,0,0
1706594973.09977698,151128691,1587,1564,1574,1558,0,0,0,0,0,0,0,0,0,0
1706594973.19973707,151228651,1580,1555,1573,1570,0,0,0,0,0,0,0,0,0,0
1706594973.29969692,151328611,1568,1550,1570,1575,0,0,0,0,0,0,0,0,0,0
1706594973.39965701,151428571,1557,1549,1568,1577,0,0,0,0,0,0,0,0,0,0
1706594973.49961710,151528531,1548,1550,1568,1578,0,0,0,0,0,0,0,0,0,0
1706594973.59957695,151628491,1542,1550,1572,1576,0,0,0,0,0,0,0,0,0,0
1706594973.69953704,151728451,1540,1551,1576,1576,0,0,0,0,0,0,0,0,0,0
1706594973.79949713,151828411,1543,1551,1580,1577,0,0,0,0,0,0,0,0,0,0
1706594973.89945698,151928371,1549,1553,1583,1578,0,0,0,0,0,0,0,0,0,0
1706594973.99941707,152028331,1555,1555,1584,1579,0,0,0,0,0,0,0,0,0,0
1706594974.09937692,152128291,1560,1561,1588,1571,0,0,0,0,0,0,0,0,0,0
1706594974.19933701,152228251,1566,1567,1583,1567,0,0,0,0,0,0,0,0,0,0
1706594974.29929709,152328211,1572,1571,1571,1566,0,0,0,0,0,0,0,0,0,0
1706594974.39925694,152428171,1575,1575,1559,1563,0,0,0,0,0,0,0,0,0,0
1706594974.50005007,152528964,1577,1577,1549,1557,0,0,0,0,0,0,0,0,0,0
1706594974.60000992,152628924,1580,1581,1544,1553,0,0,0,0,0,0,0,0,0,0
1706594974.69997001,152728884,1582,1583,1542,1548,0,0,0,0,0,0,0,0,0,0
1706594974.79993010,152828844,1584,1584,1542,1545,0,0,0,0,0,0,0,0,0,0
1706594974.89988995,152928804,1585,1585,1545,1544,0,0,0,0,0,0,0,0,0,0
1706594974.99985003,153028764,1586,1585,1547,1545,0,0,0,0,0,0,0,0,0,0
1706594975.09981012,153128724,1585,1584,1549,1546,0,0,0,0,0,0,0,0,0,0
1706594975.19976997,153228684,1583,1584,1550,1547,0,0,0,0,0,0,0,0,0,0
1706594975.29973006,153328644,1583,1583,1551,1550,0,0,0,0,0,0,0,0,0,0
1706594975.39968991,153428604,1581,1582,1551,1551,0,0,0,0,0,0,0,0,0,0
1706594975.49965000,153528564,1580,1581,1551,1551,0,0,0,0,0,0,0,0,0,0
1706594975.59961009,153628524,1579,1580,1551,1551,0,0,0,0,0,0,0,0,0,0
1706594975.69956994,153728484,1578,1579,1550,1551,0,0,0,0,0,0,0,0,0,0
1706594975.79953003,153828444,1579,1581,1551,1552,0,0,0,0,0,0,0,0,0,0
1706594975.89949012,153928404,1579,1581,1549,1550,0,0,0,0,0,0,0,0,0,0
1706594975.99944997,154028364,1580,1583,1548,1548,0,0,0,0,0,0,0,0,0,0
1706594976.09941006,154128324,1583,1585,1547,1547,0,0,0,0,0,0,0,0,0,0
1706594976.19936991,154228284,1585,1586,1547,1547,0,0,0,0,0,0,0,0,0,0
1706594976.29933000,154328244,1588,1587,1547,1548,0,0,0,0,0,0,0,0,0,0
1706594976.39929008,154428204,1588,1586,1548,1550,0,0,0,0,0,0,0,0,0,0
1706594976.49924994,154528164,1588,1584,1552,1555,0,0,0,0,0,0,0,0,0,0
1706594976.60004306,154628957,1585,1582,1557,1560,0,0,0,0,0,0,0,0,0,0
1706594976.70000291,154728917,1580,1577,1563,1566,0,0,0,0,0,0,0,0,0,0
1706594976.79996300,154828877,1574,1572,1570,1572,0,0,0,0,0,0,0,0,0,0
1706594976.89992309,154928837,1567,1566,1578,1580,0,0,0,0,0,0,0,0,0,0
1706594976.99988294,155028797,1560,1559,1587,1587,0,0,0,0,0,0,0,0,0,0
1706594977.09984303,155128757,1554,1553,1595,1594,0,0,0,0,0,0,0,0,0,0
1706594977.19980311,155228717,1549,1550,1601,1600,0,0,0,0,0,0,0,0,0,0
1706594977.29976296,155328677,1547,1548,1606,1604,0,0,0,0,0,0,0,0,0,0
1706594977.39972305,155428637,1546,1548,1608,1605,0,0,0,0,0,0,0,0,0,0
1706594977.49968314,155528597,1547,1548,1607,1605,0,0,0,0,0,0,0,0,0,0
1706594977.59964299,155628557,1551,1552,1605,1604,0,0,0,0,0,0,0,0,0,0
1706594977.69960308,155728517,1554,1554,1600,1598,0,0,0,0,0,0,0,0,0,0
1706594977.79956293,155828477,1558,1559,1593,1593,0,0,0,0,0,0,0,0,0,0
1706594977.89952302,155928437,1564,1565,1588,1588,0,0,0,0,0,0,0,0,0,0
1706594977.99948311,156028397,1570,1570,1582,1583,0,0,0,0,0,0,0,0,0,0
1706594978.09944296,156128357,1574,1574,1576,1577,0,0,0,0,0,0,0,0,0,0
1706594978.19940305,156228317,1579,1578,1572,1573,0,0,0,0,0,0,0,0,0,0
1706594978.29936314,156328277,1582,1581,1569,1571,0,0,0,0,0,0,0,0,0,0
1706594978.39932299,156428237,1584,1583,1568,1568,0,0,0,0,0,0,0,0,0,0
1706594978.49928308,156528197,1585,1584,1568,1568,0,0,0,0,0,0,0,0,0,0
1706594978.59924293,156628157,1586,1585,1569,1569,0,0,0,0,0,0,0,0,0,0
1706594978.70003605,156728950,1585,1584,1571,1571,0,0,0,0,0,0,0,0,0,0
1706594978.79999614,156828910,1583,1583,1573,1573,0,0,0,0,0,0,0,0,0,0
1706594978.89995599,156928870,1581,1581,1575,1575,0,0,0,0,0,0,0,0,0,0
1706594978.99991608,157028830,1580,1580,1578,1578,0,0,0,0,0,0,0,0,0,0
1706594979.09987593,157128790,1578,1578,1580,1579,0,0,0,0,0,0,0,0,0,0
1706594979.19983602,157228750,1576,1576,1582,1581,0,0,0,0,0,0,0,0,0,0
1706594979.29979610,157328710,1575,1575,1583,1582,0,0,0,0,0,0,0,0,0,0
1706594979.39975595,157428670,1574,1575,1584,1584,0,0,0,0,0,0,0,0,0,0
1706594979.49971604,157528630,1574,1575,1584,1584,0,0,0,0,0,0,0,0,0,0
1706594979.59967613,157628590,1574,1575,1584,1583,0,0,0,0,0,0,0,0,0,0
1706594979.69963598,157728550,1575,1574,1582,1583,0,0,0,0,0,0,0,0,0,0
1706594979.79959607,157828510,1576,1576,1582,1582,0,0,0,0,0,0,0,0,0,0
1706594979.89955592,157928470,1577,1577,1582,1582,0,0,0,0,0,0,0,0,0,0
1706594979.99951601,158028430,1577,1578,1580,1580,0,0,0,0,0,0,0,0,0,0
1706594980.09947610,158128390,1579,1579,1579,1579,0,0,0,0,0,0,0,0,0,0
1706594980.19943595,158228350,1580,1580,1578,1579,0,0,0,0,0,0,0,0,0,0
1706594980.29939604,158328310,1581,1581,1578,1578,0,0,0,0,0,0,0,0,0,0
1706594980.39935613,158428270,1581,1581,1578,1577,0,0,0,0,0,0,0,0,0,0
1706594980.49931598,158528230,1581,1581,1577,1578,0,0,0,0,0,0,0,0,0,0
1706594980.59927607,158628190,1581,1581,1577,1578,0,0,0,0,0,0,0,0,0,0
1706594980.70006895,158728983,1581,1581,1578,1578,0,0,0,0,0,0,0,0,0,0
1706594980.80002904,158828943,1581,1581,1578,1578,0,0,0,0,0,0,0,0,0,0
1706594980.89998913,158928903,1582,1581,1579,1579,0,0,0,0,0,0,0,0,0,0
1706594980.99994898,159028863,1581,1581,1580,1580,0,0,0,0,0,0,0,0,0,0
1706594981.09990907,159128823,1580,1580,1580,1580,0,0,0,0,0,0,0,0,0,0
1706594981.19986892,159228783,1580,1581,1581,1581,0,0,0,0,0,0,0,0,0,0
1706594981.29982901,159328743,1579,1580,1581,1581,0,0,0,0,0,0,0,0,0,0
1706594981.39978909,159428703,1581,1581,1583,1583,0,0,0,0,0,0,0,0,0,0
1706594981.49974895,159528663,1581,1581,1583,1583,0,0,0,0,0,0,0,0,0,0
1706594981.59970903,159628623,1580,1580,1582,1581,0,0,0,0,0,0,0,0,0,0
1706594981.69966912,159728583,1580,1580,1581,1581,0,0,0,0,0,0,0,0,0,0
1706594981.79962897,159828543,1581,1581,1582,1582,0,0,0,0,0,0,0,0,0,0
1706594981.89958906,159928503,1581,1581,1581,1581,0,0,0,0,0,0,0,0,0,0
1706594981.99954891,160028463,1581,1582,1586,1576,0,0,0,0,0,0,0,0,0,0
1706594982.09950900,160128423,1581,1582,1587,1572,0,0,0,0,0,0,0,0,0,0
1706594982.19946909,160228383,1579,1581,1579,1572,0,0,0,0,0,0,0,0,0,0
1706594982.29942894,160328343,1578,1579,1571,1571,0,0,0,0,0,0,0,0,0,0
1706594982.39938903,160428303,1576,1578,1563,1568,0,0,0,0,0,0,0,0,0,0
1706594982.49934912,160528263,1576,1578,1558,1564,0,0,0,0,0,0,0,0,0,0
1706594982.59930897,160628223,1577,1578,1554,1560,0,0,0,0,0,0,0,0,0,0
1706594982.69926906,160728183,1579,1578,1553,1557,0,0,0,0,0,0,0,0,0,0
1706594982.80006194,160828976,1580,1579,1554,1554,0,0,0,0,0,0,0,0,0,0
1706594982.90002203,160928936,1579,1578,1554,1552,0,0,0,0,0,0,0,0,0,0
1706594982.99998212,161028896,1578,1579,1555,1552,0,0,0,0,0,0,0,0,0,0
1706594983.09994197,161128856,1578,1578,1555,1553,0,0,0,0,0,0,0,0,0,0
1706594983.19990206,161228816,1577,1578,1554,1553,0,0,0,0,0,0,0,0,0,0
1706594983.29986191,161328776,1576,1577,1553,1553,0,0,0,0,0,0,0,0,0,0
1706594983.39982200,161428736,1576,1578,1553,1553,0,0,0,0,0,0,0,0,0,0
1706594983.49978209,161528696,1576,1578,1551,1551,0,0,0,0,0,0,0,0,0,0
1706594983.59974194,161628656,1578,1579,1551,1550,0,0,0,0,0,0,0,0,0,0
1706594983.69970202,161728616,1579,1580,1549,1548,0,0,0,0,0,0,0,0,0,0
1706594983.79966211,161828576,1581,1582,1547,1546,0,0,0,0,0,0,0,0,0,0
1706594983.89962196,161928536,1585,1585,1546,1545,0,0,0,0,0,0,0,0,0,0
1706594983.99958205,162028496,1587,1587,1543,1543,0,0,0,0,0,0,0,0,0,0
1706594984.09954214,162128456,1589,1589,1541,1541,0,0,0,0,0,0,0,0,0,0
1706594984.19950199,162228416,1591,1591,1540,1541,0,0,0,0,0,0,0,0,0,0
1706594984.29946208,162328376,1591,1592,1539,1540,0,0,0,0,0,0,0,0,0,0
1706594984.39942193,162428336,1592,1593,1539,1541,0,0,0,0,0,0,0,0,0,0
1706594984.49938202,162528296,1591,1591,1540,1542,0,0,0,0,0,0,0,0,0,0
1706594984.59934211,162628256,1590,1589,1543,1546,0,0,0,0,0,0,0,0,0,0
1706594984.69930196,162728216,1588,1585,1550,1553,0,0,0,0,0,0,0,0,0,0
1706594984.79926205,162828176,1581,1578,1557,1560,0,0,0,0,0,0,0,0,0,0
1706594984.90005493,162928969,1574,1570,1567,1570,0,0,0,0,0,0,0,0,0,0
1706594985.00001502,163028929,1564,1561,1578,1580,0,0,0,0,0,0,0,0,0,0
1706594985.09997511,163128889,1554,1552,1588,1589,0,0,0,0,0,0,0,0,0,0
1706594985.19993496,163228849,1546,1545,1599,1598,0,0,0,0,0,0,0,0,0,0
1706594985.29989505,163328809,1540,1540,1607,1605,0,0,0,0,0,0,0,0,0,0
1706594985.39985514,163428769,1536,1537,1612,1610,0,0,0,0,0,0,0,0,0,0
1706594985.49981499,163528729,1535,1537,1614,1612,0,0,0,0,0,0,0,0,0,0
1706594985.59977508,163628689,1537,1539,1613,1611,0,0,0,0,0,0,0,0,0,0
1706594985.69973493,163728649,1542,1543,1610,1609,0,0,0,0,0,0,0,0,0,0
1706594985.79969501,163828609,1546,1548,1603,1603,0,0,0,0,0,0,0,0,0,0
1706594985.89965510,163928569,1554,1554,1597,1597,0,0,0,0,0,0,0,0,0,0
1706594985.99961495,164028529,1561,1561,1590,1590,0,0,0,0,0,0,0,0,0,0
1706594986.09957504,164128489,1567,1567,1582,1582,0,0,0,0,0,0,0,0,0,0
1706594986.19953513,164228449,1574,1573,1576,1576,0,0,0,0,0,0,0,0,0,0
1706594986.29949498,164328409,1579,1577,1570,1571,0,0,0,0,0,0,0,0,0,0
1706594986.39945507,164428369,1583,1582,1566,1567,0,0,0,0,0,0,0,0,0,0
1706594986.49941492,164528329,1585,1584,1564,1565,0,0,0,0,0,0,0,0,0,0
1706594986.59937501,164628289,1587,1587,1565,1566,0,0,0,0,0,0,0,0,0,0
1706594986.69933510,164728249,1588,1587,1566,1567,0,0,0,0,0,0,0,0,0,0
1706594986.79929495,164828209,1587,1586,1568,1568,0,0,0,0,0,0,0,0,0,0
1706594986.89925504,164928169,1584,1584,1571,1571,0,0,0,0,0,0,0,0,0,0
1706594987.00004792,165028962,1582,1582,1573,1574,0,0,0,0,0,0,0,0,0,0
1706594987.10000801,165128922,1580,1580,1577,1577,0,0,0,0,0,0,0,0,0,0
1706594987.19996810,165228882,1577,1577,1579,1578,0,0,0,0,0,0,0,0,0,0
1706594987.29992795,165328842,1576,1576,1582,1581,0,0,0,0,0,0,0,0,0,0
1706594987.39988804,165428802,1575,1575,1585,1584,0,0,0,0,0,0,0,0,0,0
1706594987.49984813,165528762,1574,1574,1585,1585,0,0,0,0,0,0,0,0,0,0
1706594987.59980798,165628722,1573,1574,1585,1585,0,0,0,0,0,0,0,0,0,0
1706594987.69976807,165728682,1573,1573,1584,1584,0,0,0,0,0,0,0,0,0,0
1706594987.79972792,165828642,1574,1574,1583,1584,0,0,0,0,0,0,0,0,0,0
1706594987.89968801,165928602,1575,1575,1583,1582,0,0,0,0,0,0,0,0,0,0
1706594987.99964809,166028562,1577,1577,1582,1582,0,0,0,0,0,0,0,0,0,0
1706594988.09960794,166128522,1578,1578,1581,1581,0,0,0,0,0,0,0,0,0,0
1706594988.19956803,166228482,1578,1578,1579,1579,0,0,0,0,0,0,0,0,0,0
1706594988.29952812,166328442,1580,1580,1578,1579,0,0,0,0,0,0,0,0,0,0
1706594988.33951211,166368426,1581,1581,1578,1579,0,0,0,0,0,0,0,0,0,0
1706594988.43947196,166468386,1582,1581,1578,1577,0,0,0,0,0,0,0,0,0,0
1706594988.53943205,166568346,1582,1582,1577,1577,0,0,0,0,0,0,0,0,0,0
1706594988.63939214,166668306,1581,1581,1577,1576,0,0,0,0,0,0,0,0,0,0
1706594988.73935199,166768266,1582,1581,1577,1577,0,0,0,0,0,0,0,0,0,0
1706594988.83931208,166868226,1582,1581,1577,1578,0,0,0,0,0,0,0,0,0,0
1706594988.93927193,166968186,1581,1581,1578,1578,0,0,0,0,0,0,0,0,0,0
1706594989.04006505,167068979,1581,1581,1579,1578,0,0,0,0,0,0,0,0,0,0
1706594989.14002514,167168939,1580,1580,1580,1579,0,0,0,0,0,0,0,0,0,0
1706594989.23998499,167268899,1580,1580,1580,1580,0,0,0,0,0,0,0,0,0,0
1706594989.33994508,167368859,1580,1580,1581,1581,0,0,0,0,0,0,0,0,0,0
1706594989.43990493,167468819,1580,1580,1581,1581,0,0,0,0,0,0,0,0,0,0
1706594989.53986502,167568779,1580,1580,1582,1581,0,0,0,0,0,0,0,0,0,0
1706594989.63982511,167668739,1580,1580,1583,1582,0,0,0,0,0,0,0,0,0,0
1706594989.73978496,167768699,1580,1581,1583,1582,0,0,0,0,0,0,0,0,0,0
1706594989.83974504,167868659,1580,1581,1582,1582,0,0,0,0,0,0,0,0,0,0
1706594989.93970513,167968619,1580,1581,1583,1580,0,0,0,0,0,0,0,0,0,0
1706594990.03966498,168068579,1581,1581,1588,1573,0,0,0,0,0,0,0,0,0,0
1706594990.13962507,168168539,1579,1579,1583,1573,0,0,0,0,0,0,0,0,0,0
1706594990.23958492,168268499,1576,1576,1576,1574,0,0,0,0,0,0,0,0,0,0
1706594990.33954501,168368459,1573,1572,1569,1573,0,0,0,0,0,0,0,0,0,0
1706594990.43950510,168468419,1571,1570,1565,1573,0,0,0,0,0,0,0,0,0,0
1706594990.53946495,168568379,1568,1568,1563,1570,0,0,0,0,0,0,0,0,0,0
1706594990.63942504,168668339,1567,1567,1563,1567,0,0,0,0,0,0,0,0,0,0
1706594990.73938513,168768299,1567,1566,1565,1566,0,0,0,0,0,0,0,0,0,0
1706594990.83934498,168868259,1566,1566,1566,1565,0,0,0,0,0,0,0,0,0,0
1706594990.93930507,168968219,1566,1566,1567,1564,0,0,0,0,0,0,0,0,0,0
1706594991.03926492,169068179,1566,1565,1567,1564,0,0,0,0,0,0,0,0,0,0
1706594991.14005804,169168972,1565,1565,1567,1564,0,0,0,0,0,0,0,0,0,0
1706594991.24001813,169268932,1564,1563,1565,1563,0,0,0,0,0,0,0,0,0,0
1706594991.33997798,169368892,1563,1564,1564,1565,0,0,0,0,0,0,0,0,0,0
1706594991.43993807,169468852,1562,1562,1563,1563,0,0,0,0,0,0,0,0,0,0
1706594991.53989792,169568812,1562,1561,1562,1562,0,0,0,0,0,0,0,0,0,0
1706594991.63985801,169668772,1561,1561,1561,1562,0,0,0,0,0,0,0,0,0,0
1706594991.73981810,169768732,1560,1560,1561,1561,0,0,0,0,0,0,0,0,0,0
1706594991.83977795,169868692,1561,1561,1561,1561,0,0,0,0,0,0,0,0,0,0
1706594991.93973804,169968652,1560,1560,1560,1560,0,0,0,0,0,0,0,0,0,0
1706594992.03969812,170068612,1559,1559,1559,1558,0,0,0,0,0,0,0,0,0,0
1706594992.13965797,170168572,1559,1559,1559,1558,0,0,0,0,0,0,0,0,0,0
1706594992.23961806,170268532,1558,1558,1558,1557,0,0,0,0,0,0,0,0,0,0
1706594992.33957791,170368492,1559,1558,1559,1558,0,0,0,0,0,0,0,0,0,0
1706594992.43953800,170468452,1558,1558,1559,1557,0,0,0,0,0,0,0,0,0,0
1706594992.53949809,170568412,1557,1557,1558,1555,0,0,0,0,0,0,0,0,0,0
1706594992.63945794,170668372,1557,1557,1559,1555,0,0,0,0,0,0,0,0,0,0
1706594992.73941803,170768332,1556,1555,1557,1555,0,0,0,0,0,0,0,0,0,0
1706594992.83937812,170868292,1554,1553,1552,1555,0,0,0,0,0,0,0,0,0,0
1706594992.93933797,170968252,1550,1550,1547,1553,0,0,0,0,0,0,0,0,0,0
1706594993.03929806,171068212,1545,1545,1541,1548,0,0,0,0,0,0,0,0,0,0
1706594993.13925791,171168172,1540,1540,1537,1541,0,0,0,0,0,0,0,0,0,0
1706594993.24005103,171268965,1533,1534,1531,1533,0,0,0,0,0,0,0,0,0,0
1706594993.34001112,171368925,1526,1527,1525,1525,0,0,0,0,0,0,0,0,0,0
1706594993.43997097,171468885,1523,1523,1521,1521,0,0,0,0,0,0,0,0,0,0
1706594993.53993106,171568845,1522,1522,1521,1521,0,0,0,0,0,0,0,0,0,0
1706594993.63989091,171668805,1522,1522,1521,1523,0,0,0,0,0,0,0,0,0,0
1706594993.73985100,171768765,1523,1523,1523,1524,0,0,0,0,0,0,0,0,0,0
1706594993.83981109,171868725,1526,1525,1527,1528,0,0,0,0,0,0,0,0,0,0
1706594993.93977094,171968685,1529,1529,1531,1532,0,0,0,0,0,0,0,0,0,0
1706594994.03973103,172068645,1534,1534,1537,1537,0,0,0,0,0,0,0,0,0,0
1706594994.13969111,172168605,1537,1537,1539,1540,0,0,0,0,0,0,0,0,0,0
1706594994.23965096,172268565,1539,1540,1542,1542,0,0,0,0,0,0,0,0,0,0
1706594994.33961105,172368525,1541,1541,1543,1543,0,0,0,0,0,0,0,0,0,0
1706594994.43957114,172468485,1543,1544,1545,1544,0,0,0,0,0,0,0,0,0,0
1706594994.53953099,172568445,1544,1545,1545,1545,0,0,0,0,0,0,0,0,0,0
1706594994.63949108,172668405,1546,1546,1546,1545,0,0,0,0,0,0,0,0,0,0
1706594994.73945093,172768365,1547,1547,1546,1546,0,0,0,0,0,0,0,0,0,0
1706594994.83941102,172868325,1547,1548,1546,1547,0,0,0,0,0,0,0,0,0,0
1706594994.93937111,172968285,1547,1546,1545,1545,0,0,0,0,0,0,0,0,0,0
1706594995.03933096,173068245,1547,1546,1545,1545,0,0,0,0,0,0,0,0,0,0
1706594995.13929105,173168205,1547,1547,1546,1546,0,0,0,0,0,0,0,0,0,0
1706594995.23925114,173268165,1546,1546,1545,1545,0,0,0,0,0,0,0,0,0,0
1706594995.34004402,173368958,1546,1546,1545,1545,0,0,0,0,0,0,0,0,0,0
1706594995.44000411,173468918,1546,1546,1545,1545,0,0,0,0,0,0,0,0,0,0
1706594995.53996396,173568878,1546,1546,1545,1545,0,0,0,0,0,0,0,0,0,0
1706594995.63992405,173668838,1544,1545,1545,1544,0,0,0,0,0,0,0,0,0,0
1706594995.73988414,173768798,1544,1545,1545,1545,0,0,0,0,0,0,0,0,0,0
1706594995.83984399,173868758,1545,1544,1545,1546,0,0,0,0,0,0,0,0,0,0
1706594995.93980408,173968718,1545,1545,1546,1546,0,0,0,0,0,0,0,0,0,0
1706594996.03976393,174068678,1544,1544,1545,1544,0,0,0,0,0,0,0,0,0,0
1706594996.13972402,174168638,1543,1544,1544,1544,0,0,0,0,0,0,0,0,0,0
1706594996.23968410,174268598,1544,1545,1545,1545,0,0,0,0,0,0,0,0,0,0
1706594996.33964396,174368558,1544,1544,1545,1544,0,0,0,0,0,0,0,0,0,0
1706594996.43960404,174468518,1544,1544,1545,1545,0,0,0,0,0,0,0,0,0,0
1706594996.53956413,174568478,1543,1544,1544,1544,0,0,0,0,0,0,0,0,0,0
1706594996.63952398,174668438,1544,1544,1543,1544,0,0,0,0,0,0,0,0,0,0
1706594996.73948407,174768398,1544,1544,1543,1544,0,0,0,0,0,0,0,0,0,0
1706594996.83944392,174868358,1544,1544,1543,1544,0,0,0,0,0,0,0,0,0,0
1706594996.93940401,174968318,1545,1545,1544,1544,0,0,0,0,0,0,0,0,0,0
1706594997.03936410,175068278,1544,1544,1544,1544,0,0,0,0,0,0,0,0,0,0
1706594997.13932395,175168238,1544,1545,1544,1544,0,0,0,0,0,0,0,0,0,0
1706594997.23928404,175268198,1544,1544,1544,1543,0,0,0,0,0,0,0,0,0,0
1706594997.33924413,175368158,1544,1544,1544,1544,0,0,0,0,0,0,0,0,0,0
1706594997.44003701,175468951,1544,1544,1544,1544,0,0,0,0,0,0,0,0,0,0
1706594997.53999710,175568911,1545,1545,1545,1545,0,0,0,0,0,0,0,0,0,0
1706594997.63995695,175668871,1544,1544,1544,1544,0,0,0,0,0,0,0,0,0,0
1706594997.73991704,175768831,1545,1544,1545,1544,0,0,0,0,0,0,0,0,0,0
1706594997.83987713,175868791,1544,1544,1544,1544,0,0,0,0,0,0,0,0,0,0
1706594997.93983698,175968751,1544,1544,1544,1544,0,0,0,0,0,0,0,0,0,0
1706594998.03979707,176068711,1543,1544,1544,1544,0,0,0,0,0,0,0,0,0,0
1706594998.13975692,176168671,1543,1544,1544,1544,0,0,0,0,0,0,0,0,0,0
1706594998.23971701,176268631,1544,1544,1544,1544,0,0,0,0,0,0,0,0,0,0
1706594998.33967710,176368591,1544,1544,1544,1544,0,0,0,0,0,0,0,0,0,0
1706594998.43963695,176468551,1545,1544,1545,1544,0,0,0,0,0,0,0,0,0,0
1706594998.53959703,176568511,1545,1544,1545,1545,0,0,0,0,0,0,0,0,0,0
1706594998.63955712,176668471,1544,1544,1544,1544,0,0,0,0,0,0,0,0,0,0
1706594998.73951697,176768431,1545,1545,1545,1544,0,0,0,0,0,0,0,0,0,0
1706594998.83947706,176868391,1544,1544,1544,1544,0,0,0,0,0,0,0,0,0,0
1706594998.93943691,176968351,1544,1544,1544,1544,0,0,0,0,0,0,0,0,0,0
1706594999.03939700,177068311,1544,1544,1545,1544,0,0,0,0,0,0,0,0,0,0
1706594999.13935709,177168271,1544,1545,1544,1545,0,0,0,0,0,0,0,0,0,0
1706594999.23931694,177268231,1544,1544,1544,1544,0,0,0,0,0,0,0,0,0,0
1706594999.33927703,177368191,1544,1544,1544,1544,0,0,0,0,0,0,0,0,0,0
1706594999.44006991,177468984,1545,1545,1545,1545,0,0,0,0,0,0,0,0,0,0
1706594999.54003000,177568944,1545,1545,1545,1545,0,0,0,0,0,0,0,0,0,0
1706594999.63999009,177668904,1544,1545,1545,1545,0,0,0,0,0,0,0,0,0,0
1706594999.73994994,177768864,1545,1545,1545,1545,0,0,0,0,0,0,0,0,0,0
1706594999.83991003,177868824,1544,1544,1544,1545,0,0,0,0,0,0,0,0,0,0
1706594999.93987012,177968784,1545,1544,1545,1545,0,0,0,0,0,0,0,0,0,0
1706595000.03982997,178068744,1544,1543,1544,1544,0,0,0,0,0,0,0,0,0,0
1706595000.13979006,178168704,1544,1543,1544,1543,0,0,0,0,0,0,0,0,0,0
1706595000.23974991,178268664,1544,1544,1543,1543,0,0,0,0,0,0,0,0,0,0
1706595000.33971000,178368624,1544,1544,1544,1544,0,0,0,0,0,0,0,0,0,0
1706595000.43967009,178468584,1544,1544,1544,1544,0,0,0,0,0,0,0,0,0,0
1706595000.53962994,178568544,1544,1545,1545,1545,0,0,0,0,0,0,0,0,0,0
1706595000.63959002,178668504,1545,1545,1545,1545,0,0,0,0,0,0,0,0,0,0
1706595000.73955011,178768464,1545,1545,1545,1545,0,0,0,0,0,0,0,0,0,0
1706595000.83950996,178868424,1544,1544,1545,1545,0,0,0,0,0,0,0,0,0,0
1706595000.93947005,178968384,1545,1544,1545,1545,0,0,0,0,0,0,0,0,0,0
1706595001.03943014,179068344,1545,1545,1544,1545,0,0,0,0,0,0,0,0,0,0
1706595001.13938999,179168304,1545,1545,1545,1545,0,0,0,0,0,0,0,0,0,0
1706595001.23935008,179268264,1544,1544,1544,1544,0,0,0,0,0,0,0,0,0,0
1706595001.33930993,179368224,1544,1544,1544,1544,0,0,0,0,0,0,0,0,0,0
1706595001.43927002,179468184,1544,1544,1544,1544,0,0,0,0,0,0,0,0,0,0
1706595001.54006314,179568977,1544,1544,1544,1544,0,0,0,0,0,0,0,0,0,0
1706595001.64002299,179668937,1544,1544,1544,1544,0,0,0,0,0,0,0,0,0,0
1706595001.73998308,179768897,1544,1544,1543,1544,0,0,0,0,0,0,0,0,0,0
1706595001.83994293,179868857,1543,1543,1543,1543,0,0,0,0,0,0,0,0,0,0
1706595001.93990302,179968817,1543,1543,1543,1543,0,0,0,0,0,0,0,0,0,0
1706595002.03986311,180068777,1544,1544,1544,1544,0,0,0,0,0,0,0,0,0,0
1706595002.13982296,180168737,1544,1544,1544,1544,0,0,0,0,0,0,0,0,0,0
1706595002.23978305,180268697,1544,1544,1544,1544,0,0,0,0,0,0,0,0,0,0
1706595002.33974314,180368657,1544,1544,1544,1544,0,0,0,0,0,0,0,0,0,0
1706595002.43970299,180468617,1545,1545,1545,1545,0,0,0,0,0,0,0,0,0,0
1706595002.53966308,180568577,1544,1545,1545,1545,0,0,0,0,0,0,0,0,0,0
1706595002.63962293,180668537,1545,1545,1545,1545,0,0,0,0,0,0,0,0,0,0
1706595002.73958302,180768497,1545,1545,1545,1544,0,0,0,0,0,0,0,0,0,0
1706595002.83954310,180868457,1544,1544,1545,1544,0,0,0,0,0,0,0,0,0,0
1706595002.93950295,180968417,1545,1545,1545,1545,0,0,0,0,0,0,0,0,0,0
1706595003.03946304,181068377,1545,1544,1545,1545,0,0,0,0,0,0,0,0,0,0
1706595003.13942313,181168337,1429,1430,1430,1395,0,0,0,0,0,0,0,0,0,0
1706595003.23938298,181268297,1337,1339,1339,1264,0,0,0,0,0,0,0,0,0,0
1706595003.33934307,181368257,1307,1308,1309,1217,0,0,0,0,0,0,0,0,0,0
1706595003.43930292,181468217,1294,1296,1296,1196,0,0,0,0,0,0,0,0,0,0
1706595003.53926301,181568177,1269,1271,1272,1155,0,0,0,0,0,0,0,0,0,0
1706595003.64005613,181668970,1231,1233,1233,1150,0,0,0,0,0,0,0,0,0,0
1706595003.74001598,181768930,1152,1154,1154,1150,0,0,0,0,0,0,0,0,0,0
1706595003.83997607,181868890,1083,1084,1084,1150,0,0,0,0,0,0,0,0,0,0
1706595003.93993592,181968850,1082,1084,1084,1150,0,0,0,0,0,0,0,0,0,0
1706595004.03989601,182068810,1082,1084,1084,1150,0,0,0,0,0,0,0,0,0,0
1706595004.13985610,182168770,1093,1079,1079,1150,0,0,0,0,0,0,0,0,0,0
1706595004.23981595,182268730,1093,1079,1079,1150,0,0,0,0,0,0,0,0,0,0
1706595004.33977604,182368690,1089,1081,1080,1150,0,0,0,0,0,0,0,0,0,0
1706595004.43973613,182468650,1088,1082,1080,1150,0,0,0,0,0,0,0,0,0,0
1706595004.53969598,182568610,1088,1082,1080,1150,0,0,0,0,0,0,0,0,0,0
1706595004.63965607,182668570,1089,1082,1080,1150,0,0,0,0,0,0,0,0,0,0
1706595004.73961592,182768530,1089,1082,1079,1150,0,0,0,0,0,0,0,0,0,0
1706595004.83957601,182868490,1089,1082,1079,1150,0,0,0,0,0,0,0,0,0,0
1706595004.93953609,182968450,1083,1085,1082,1150,0,0,0,0,0,0,0,0,0,0
1706595005.03949594,183068410,1085,1084,1081,1150,0,0,0,0,0,0,0,0,0,0
1706595005.13945603,183168370,1085,1084,1081,1150,0,0,0,0,0,0,0,0,0,0
1706595005.23941612,183268330,1085,1084,1081,1150,0,0,0,0,0,0,0,0,0,0
1706595005.33937597,183368290,1086,1084,1081,1150,0,0,0,0,0,0,0,0,0,0
1706595005.43933606,183468250,1000,1000,1000,1000,0,0,0,0,0,0,0,0,0,0
1706595005.53929591,183568210,1000,1000,1000,1000,0,0,0,0,0,0,0,0,0,0
1706595005.63925600,183668170,1000,1000,1000,1000,0,0,0,0,0,0,0,0,0,0
1706595005.74004912,183768963,1000,1000,1000,1000,0,0,0,0,0,0,0,0,0,0
1706595005.84000897,183868923,1000,1000,1000,1000,0,0,0,0,0,0,0,0,0,0
1706595005.93996906,183968883,1000,1000,1000,1000,0,0,0,0,0,0,0,0,0,0
1706595006.03992891,184068843,1000,1000,1000,1000,0,0,0,0,0,0,0,0,0,0
1706595006.13988900,184168803,1000,1000,1000,1000,0,0,0,0,0,0,0,0,0,0
1706595006.23984909,184268763,1000,1000,1000,1000,0,0,0,0,0,0,0,0,0,0
1706595006.33980894,184368723,1000,1000,1000,1000,0,0,0,0,0,0,0,0,0,0
1706595006.43976903,184468683,1000,1000,1000,1000,0,0,0,0,0,0,0,0,0,0
1706595006.53972912,184568643,1000,1000,1000,1000,0,0,0,0,0,0,0,0,0,0
1706595006.63968897,184668603,1000,1000,1000,1000,0,0,0,0,0,0,0,0,0,0
1706595006.73964906,184768563,1000,1000,1000,1000,0,0,0,0,0,0,0,0,0,0
1706595006.83960891,184868523,1000,1000,1000,1000,0,0,0,0,0,0,0,0,0,0
1706595006.93956900,184968483,1000,1000,1000,1000,0,0,0,0,0,0,0,0,0,0
1706595007.03952909,185068443,1000,1000,1000,1000,0,0,0,0,0,0,0,0,0,0
1706595007.13948894,185168403,1000,1000,1000,1000,0,0,0,0,0,0,0,0,0,0
1706595007.23944902,185268363,1000,1000,1000,1000,0,0,0,0,0,0,0,0,0,0
1706595007.33940911,185368323,1000,1000,1000,1000,0,0,0,0,0,0,0,0,0,0
1706595007.43936896,185468283,1000,1000,1000,1000,0,0,0,0,0,0,0,0,0,0
1706595007.53932905,185568243,1000,1000,1000,1000,0,0,0,0,0,0,0,0,0,0
1706595007.63928914,185668203,1000,1000,1000,1000,0,0,0,0,0,0,0,0,0,0
1706595007.73924899,185768163,1000,1000,1000,1000,0,0,0,0,0,0,0,0,0,0
1706595007.84004211,185868956,1000,1000,1000,1000,0,0,0,0,0,0,0,0,0,0
1706595007.94000196,185968916,1000,1000,1000,1000,0,0,0,0,0,0,0,0,0,0
1706595008.03996205,186068876,1000,1000,1000,1000,0,0,0,0,0,0,0,0,0,0
1706595008.13992214,186168836,1000,1000,1000,1000,0,0,0,0,0,0,0,0,0,0
1706595008.23988199,186268796,1000,1000,1000,1000,0,0,0,0,0,0,0,0,0,0
1706595008.33984208,186368756,1000,1000,1000,1000,0,0,0,0,0,0,0,0,0,0
1706595008.43980193,186468716,1000,1000,1000,1000,0,0,0,0,0,0,0,0,0,0
1706595008.53976202,186568676,1000,1000,1000,1000,0,0,0,0,0,0,0,0,0,0
1706595008.63972211,186668636,1000,1000,1000,1000,0,0,0,0,0,0,0,0,0,0
1706595008.73968196,186768596,1000,1000,1000,1000,0,0,0,0,0,0,0,0,0,0
1706595008.83964205,186868556,1000,1000,1000,1000,0,0,0,0,0,0,0,0,0,0
1706595008.93960214,186968516,1000,1000,1000,1000,0,0,0,0,0,0,0,0,0,0
1706595009.03956199,187068476,1000,1000,1000,1000,0,0,0,0,0,0,0,0,0,0
1706595009.13952208,187168436,1000,1000,1000,1000,0,0,0,0,0,0,0,0,0,0
1706595009.23948193,187268396,1000,1000,1000,1000,0,0,0,0,0,0,0,0,0,0
1706595009.33944201,187368356,1000,1000,1000,1000,0,0,0,0,0,0,0,0,0,0
1706595009.43940210,187468316,1000,1000,1000,1000,0,0,0,0,0,0,0,0,0,0
1706595009.53936195,187568276,1000,1000,1000,1000,0,0,0,0,0,0,0,0,0,0
1706595009.63932204,187668236,1000,1000,1000,1000,0,0,0,0,0,0,0,0,0,0
1706595009.73928213,187768196,1000,1000,1000,1000,0,0,0,0,0,0,0,0,0,0
1706595009.83924198,187868156,1000,1000,1000,1000,0,0,0,0,0,0,0,0,0,0
1706595009.94003510,187968949,1000,1000,1000,1000,0,0,0,0,0,0,0,0,0,0
1706595010.03999496,188068909,1000,1000,1000,1000,0,0,0,0,0,0,0,0,0,0
1706595010.13995504,188168869,1000,1000,1000,1000,0,0,0,0,0,0,0,0,0,0
1706595010.23991513,188268829,1000,1000,1000,1000,0,0,0,0,0,0,0,0,0,0
1706595010.33987498,188368789,1000,1000,1000,1000,0,0,0,0,0,0,0,0,0,0
1706595010.43983507,188468749,1000,1000,1000,1000,0,0,0,0,0,0,0,0,0,0
1706595010.53979492,188568709,1000,1000,1000,1000,0,0,0,0,0,0,0,0,0,0
1706595010.63975501,188668669,1000,1000,1000,1000,0,0,0,0,0,0,0,0,0,0
1706595010.73971510,188768629,1000,1000,1000,1000,0,0,0,0,0,0,0,0,0,0
1706595010.83967495,188868589,1000,1000,1000,1000,0,0,0,0,0,0,0,0,0,0
1706595010.93963504,188968549,1000,1000,1000,1000,0,0,0,0,0,0,0,0,0,0
1706595011.03959513,189068509,1000,1000,1000,1000,0,0,0,0,0,0,0,0,0,0
1706595011.13955498,189168469,1000,1000,1000,1000,0,0,0,0,0,0,0,0,0,0
1706595011.23951507,189268429,1000,1000,1000,1000,0,0,0,0,0,0,0,0,0,0
1706595011.33947492,189368389,1000,1000,1000,1000,0,0,0,0,0,0,0,0,0,0
1706595011.43943501,189468349,1000,1000,1000,1000,0,0,0,0,0,0,0,0,0,0
1706595011.53939509,189568309,1000,1000,1000,1000,0,0,0,0,0,0,0,0,0,0
1706595011.63935494,189668269,1000,1000,1000,1000,0,0,0,0,0,0,0,0,0,0
1706595011.73931503,189768229,1000,1000,1000,1000,0,0,0,0,0,0,0,0,0,0
1706595011.83927512,189868189,1000,1000,1000,1000,0,0,0,0,0,0,0,0,0,0
1706595011.94006801,189968982,1000,1000,1000,1000,0,0,0,0,0,0,0,0,0,0
1706595012.04002810,190068942,1000,1000,1000,1000,0,0,0,0,0,0,0,0,0,0
1706595012.13998795,190168902,1000,1000,1000,1000,0,0,0,0,0,0,0,0,0,0
1706595012.23994803,190268862,1000,1000,1000,1000,0,0,0,0,0,0,0,0,0,0
1706595012.33990812,190368822,1000,1000,1000,1000,0,0,0,0,0,0,0,0,0,0
1706595012.43986797,190468782,1000,1000,1000,1000,0,0,0,0,0,0,0,0,0,0
1706595012.53982806,190568742,1000,1000,1000,1000,0,0,0,0,0,0,0,0,0,0
1706595012.63978791,190668702,1000,1000,1000,1000,0,0,0,0,0,0,0,0,0,0
1706595012.73974800,190768662,1000,1000,1000,1000,0,0,0,0,0,0,0,0,0,0
1706595012.83970809,190868622,1000,1000,1000,1000,0,0,0,0,0,0,0,0,0,0
1706595012.93966794,190968582,1000,1000,1000,1000,0,0,0,0,0,0,0,0,0,0
1706595013.03962803,191068542,1000,1000,1000,1000,0,0,0,0,0,0,0,0,0,0
1706595013.13958812,191168502,1000,1000,1000,1000,0,0,0,0,0,0,0,0,0,0
1706595013.23954797,191268462,1000,1000,1000,1000,0,0,0,0,0,0,0,0,0,0
1706595013.33950806,191368422,1000,1000,1000,1000,0,0,0,0,0,0,0,0,0,0
1706595013.43946791,191468382,1000,1000,1000,1000,0,0,0,0,0,0,0,0,0,0
1706595013.53942800,191568342,1000,1000,1000,1000,0,0,0,0,0,0,0,0,0,0
1706595013.63938808,191668302,1000,1000,1000,1000,0,0,0,0,0,0,0,0,0,0
1706595013.73934793,191768262,1000,1000,1000,1000,0,0,0,0,0,0,0,0,0,0
1706595013.83930802,191868222,1000,1000,1000,1000,0,0,0,0,0,0,0,0,0,0
1706595013.93926811,191968182,1000,1000,1000,1000,0,0,0,0,0,0,0,0,0,0
1706595014.04006100,192068975,1000,1000,1000,1000,0,0,0,0,0,0,0,0,0,0
1706595014.14002109,192168935,1000,1000,1000,1000,0,0,0,0,0,0,0,0,0,0
1706595014.23998094,192268895,1000,1000,1000,1000,0,0,0,0,0,0,0,0,0,0
1706595014.33994102,192368855,1000,1000,1000,1000,0,0,0,0,0,0,0,0,0,0
1706595014.43990111,192468815,1000,1000,1000,1000,0,0,0,0,0,0,0,0,0,0
1706595014.53986096,192568775,1000,1000,1000,1000,0,0,0,0,0,0,0,0,0,0
1706595014.63982105,192668735,1000,1000,1000,1000,0,0,0,0,0,0,0,0,0,0
1706595014.73978114,192768695,1000,1000,1000,1000,0,0,0,0,0,0,0,0,0,0
1706595014.83974099,192868655,1000,1000,1000,1000,0,0,0,0,0,0,0,0,0,0
1706595014.93970108,192968615,1000,1000,1000,1000,0,0,0,0,0,0,0,0,0,0
1706595015.03966093,193068575,1000,1000,1000,1000,0,0,0,0,0,0,0,0,0,0
1706595015.13962102,193168535,1000,1000,1000,1000,0,0,0,0,0,0,0,0,0,0
1706595015.23958111,193268495,1000,1000,1000,1000,0,0,0,0,0,0,0,0,0,0
1706595015.33954096,193368455,1000,1000,1000,1000,0,0,0,0,0,0,0,0,0,0
1706595015.43950105,193468415,1000,1000,1000,1000,0,0,0,0,0,0,0,0,0,0
1706595015.53946114,193568375,1000,1000,1000,1000,0,0,0,0,0,0,0,0,0,0
1706595015.63942099,193668335,1000,1000,1000,1000,0,0,0,0,0,0,0,0,0,0
1706595015.73938107,193768295,1000,1000,1000,1000,0,0,0,0,0,0,0,0,0,0
1706595015.83934093,193868255,1000,1000,1000,1000,0,0,0,0,0,0,0,0,0,0
1706595015.93930101,193968215,1000,1000,1000,1000,0,0,0,0,0,0,0,0,0,0
1706595016.03926110,194068175,1000,1000,1000,1000,0,0,0,0,0,0,0,0,0,0
1706595016.14005399,194168968,1000,1000,1000,1000,0,0,0,0,0,0,0,0,0,0
1706595016.24001408,194268928,1000,1000,1000,1000,0,0,0,0,0,0,0,0,0,0
1706595016.33997393,194368888,1000,1000,1000,1000,0,0,0,0,0,0,0,0,0,0
1706595016.43993402,194468848,1000,1000,1000,1000,0,0,0,0,0,0,0,0,0,0
1706595016.53989410,194568808,1000,1000,1000,1000,0,0,0,0,0,0,0,0,0,0
1706595016.63985395,194668768,1000,1000,1000,1000,0,0,0,0,0,0,0,0,0,0
1706595016.73981404,194768728,1000,1000,1000,1000,0,0,0,0,0,0,0,0,0,0
1706595016.83977413,194868688,1000,1000,1000,1000,0,0,0,0,0,0,0,0,0,0
1706595016.93973398,194968648,1000,1000,1000,1000,0,0,0,0,0,0,0,0,0,0
1706595017.03969407,195068608,1000,1000,1000,1000,0,0,0,0,0,0,0,0,0,0
1706595017.13965392,195168568,1000,1000,1000,1000,0,0,0,0,0,0,0,0,0,0
1706595017.23961401,195268528,1000,1000,1000,1000,0,0,0,0,0,0,0,0,0,0
1706595017.33957410,195368488,1000,1000,1000,1000,0,0,0,0,0,0,0,0,0,0
1706595017.43953395,195468448,1000,1000,1000,1000,0,0,0,0,0,0,0,0,0,0
1706595017.53949404,195568408,1000,1000,1000,1000,0,0,0,0,0,0,0,0,0,0
1706595017.63945413,195668368,1000,1000,1000,1000,0,0,0,0,0,0,0,0,0,0
1706595017.73941398,195768328,1000,1000,1000,1000,0,0,0,0,0,0,0,0,0,0
1706595017.83937407,195868288,1000,1000,1000,1000,0,0,0,0,0,0,0,0,0,0
1706595017.93933392,195968248,1000,1000,1000,1000,0,0,0,0,0,0,0,0,0,0
1706595018.03929400,196068208,1000,1000,1000,1000,0,0,0,0,0,0,0,0,0,0
1706595018.13925409,196168168,1000,1000,1000,1000,0,0,0,0,0,0,0,0,0,0
1706595018.24004698,196268961,1000,1000,1000,1000,0,0,0,0,0,0,0,0,0,0
1706595018.34000707,196368921,1000,1000,1000,1000,0,0,0,0,0,0,0,0,0,0
1706595018.43996692,196468881,1000,1000,1000,1000,0,0,0,0,0,0,0,0,0,0
1706595018.53992701,196568841,1000,1000,1000,1000,0,0,0,0,0,0,0,0,0,0
1706595018.63988709,196668801,1000,1000,1000,1000,0,0,0,0,0,0,0,0,0,0
1706595018.73984694,196768761,1000,1000,1000,1000,0,0,0,0,0,0,0,0,0,0
1706595018.83980703,196868721,1000,1000,1000,1000,0,0,0,0,0,0,0,0,0,0
1706595018.93976712,196968681,1000,1000,1000,1000,0,0,0,0,0,0,0,0,0,0
1706595019.03972697,197068641,1000,1000,1000,1000,0,0,0,0,0,0,0,0,0,0
1706595019.13968706,197168601,1000,1000,1000,1000,0,0,0,0,0,0,0,0,0,0
1706595019.23964691,197268561,1000,1000,1000,1000,0,0,0,0,0,0,0,0,0,0
1706595019.33960700,197368521,1000,1000,1000,1000,0,0,0,0,0,0,0,0,0,0
1706595019.43956709,197468481,1000,1000,1000,1000,0,0,0,0,0,0,0,0,0,0
1706595019.53952694,197568441,1000,1000,1000,1000,0,0,0,0,0,0,0,0,0,0
1706595019.63948703,197668401,1000,1000,1000,1000,0,0,0,0,0,0,0,0,0,0
1706595019.73944712,197768361,1000,1000,1000,1000,0,0,0,0,0,0,0,0,0,0
1706595019.83940697,197868321,1000,1000,1000,1000,0,0,0,0,0,0,0,0,0,0
1706595019.93936706,197968281,1000,1000,1000,1000,0,0,0,0,0,0,0,0,0,0
1706595020.03932691,198068241,1000,1000,1000,1000,0,0,0,0,0,0,0,0,0,0
1706595020.13928699,198168201,1000,1000,1000,1000,0,0,0,0,0,0,0,0,0,0
1706595020.23924708,198268161,1000,1000,1000,1000,0,0,0,0,0,0,0,0,0,0
1706595020.34003997,198368954,1000,1000,1000,1000,0,0,0,0,0,0,0,0,0,0
