TimeUS,M1,M2,M3,M4,TimeUS,C1,C2,C3,C4
131783932,1000,1000,1000,1000,131828914,1000,1000,1000,1000
131786431,1000,1000,1000,1000,131928874,1000,1000,1000,1000
131788930,1000,1000,1000,1000,132028834,1000,1000,1000,1000
131791429,1000,1000,1000,1000,132128794,1000,1000,1000,1000
131793928,1000,1000,1000,1000,132228754,1000,1000,1000,1000
131796427,1000,1000,1000,1000,132328714,1000,1000,1000,1000
131798926,1000,1000,1000,1000,132428674,1000,1000,1000,1000
131801425,1000,1000,1000,1000,132528634,1000,1000,1000,1000
131803924,1000,1000,1000,1000,132628594,1000,1000,1000,1000
131806423,1000,1000,1000,1000,132728554,1000,1000,1000,1000
131808922,1000,1000,1000,1000,132828514,1000,1000,1000,1000
131811421,1000,1000,1000,1000,132928474,1000,1000,1000,1000
131813920,1000,1000,1000,1000,133028434,1000,1000,1000,1000
131816419,1000,1000,1000,1000,133128394,1000,1000,1000,1000
131818918,1000,1000,1000,1000,133228354,1000,1000,1000,1000
131821417,1000,1000,1000,1000,133328314,1000,1000,1000,1000
131823916,1000,1000,1000,1000,133428274,1000,1000,1000,1000
131826415,1000,1000,1000,1000,133528234,1000,1000,1000,1000
131828914,1000,1000,1000,1000,133628194,1000,1000,1000,1000
131831413,1000,1000,1000,1000,133728154,1000,1000,1000,1000
131833912,1000,1000,1000,1000,133828947,1013,1013,1013,1013
131836411,1000,1000,1000,1000,133928907,1043,1043,1043,1043
131838910,1000,1000,1000,1000,134028867,1073,1073,1073,1073
131841409,1000,1000,1000,1000,134128827,1103,1103,1103,1103
131843908,1000,1000,1000,1000,134228787,1133,1133,1133,1133
131846407,1000,1000,1000,1000,134328747,1281,1262,1263,1282
131848906,1000,1000,1000,1000,134428707,1490,1476,1477,1490
131851405,1000,1000,1000,1000,134528667,1652,1639,1640,1653
131853904,1000,1000,1000,1000,134628627,1789,1777,1778,1790
131856403,1000,1000,1000,1000,134728587,1911,1899,1899,1912
131858902,1000,1000,1000,1000,134828547,1897,1890,1891,1898
131861401,1000,1000,1000,1000,134928507,1763,1761,1761,1764
131863900,1000,1000,1000,1000,135028467,1658,1662,1658,1663
131866399,1000,1000,1000,1000,135128427,1623,1629,1626,1627
131868898,1000,1000,1000,1000,135228387,1624,1629,1629,1625
131871397,1000,1000,1000,1000,135328347,1629,1632,1633,1628
131873896,1000,1000,1000,1000,135428307,1628,1629,1630,1626
131876395,1000,1000,1000,1000,135528267,1623,1621,1623,1621
131878894,1000,1000,1000,1000,135628227,1618,1616,1617,1617
131881393,1000,1000,1000,1000,135728187,1614,1611,1612,1613
131883892,1000,1000,1000,1000,135828980,1613,1612,1612,1612
131886391,1000,1000,1000,1000,135928940,1614,1613,1613,1613
131888890,1000,1000,1000,1000,136028900,1601,1602,1603,1598
131891389,1000,1000,1000,1000,136128860,1577,1578,1585,1569
131893888,1000,1000,1000,1000,136228820,1565,1567,1571,1562
131896387,1000,1000,1000,1000,136328780,1555,1556,1555,1556
131898886,1000,1000,1000,1000,136428740,1547,1547,1542,1553
131901385,1000,1000,1000,1000,136528700,1541,1539,1531,1550
131903884,1000,1000,1000,1000,136628660,1535,1534,1527,1542
131906383,1000,1000,1000,1000,136728620,1530,1528,1524,1533
131908882,1000,1000,1000,1000,136828580,1526,1526,1525,1526
131911381,1000,1000,1000,1000,136928540,1527,1527,1528,1525
131913880,1000,1000,1000,1000,137028500,1528,1529,1532,1525
131916379,1000,1000,1000,1000,137128460,1532,1532,1535,1529
131918878,1000,1000,1000,1000,137228420,1535,1535,1538,1533
131921377,1000,1000,1000,1000,137328380,1538,1538,1540,1537
131923876,1000,1000,1000,1000,137428340,1542,1542,1543,1542
131926375,1000,1000,1000,1000,137528300,1546,1545,1546,1546
131928874,1000,1000,1000,1000,137628260,1548,1548,1548,1549
131931373,1000,1000,1000,1000,137728220,1551,1551,1551,1552
131933872,1000,1000,1000,1000,137828180,1552,1553,1552,1554
131936371,1000,1000,1000,1000,137928973,1556,1556,1555,1557
131938870,1000,1000,1000,1000,138028933,1562,1562,1553,1555
131941369,1000,1000,1000,1000,138128893,1563,1562,1556,1558
131943868,1000,1000,1000,1000,138228853,1562,1561,1561,1562
131946367,1000,1000,1000,1000,138328813,1561,1560,1565,1565
131948866,1000,1000,1000,1000,138428773,1561,1562,1568,1568
131951365,1000,1000,1000,1000,138528733,1562,1563,1571,1570
131953864,1000,1000,1000,1000,138628693,1564,1564,1572,1571
131956363,1000,1000,1000,1000,138728653,1565,1565,1571,1572
131958862,1000,1000,1000,1000,138828613,1567,1567,1571,1572
131961361,1000,1000,1000,1000,138928573,1568,1569,1571,1572
131963860,1000,1000,1000,1000,139028533,1570,1570,1570,1570
131966359,1000,1000,1000,1000,139128493,1571,1571,1569,1570
131968858,1000,1000,1000,1000,139228453,1573,1573,1570,1570
131971357,1000,1000,1000,1000,139328413,1575,1575,1571,1570
131973856,1000,1000,1000,1000,139428373,1576,1576,1572,1570
131976355,1000,1000,1000,1000,139528333,1577,1576,1573,1571
131978854,1000,1000,1000,1000,139628293,1576,1576,1573,1571
131981353,1000,1000,1000,1000,139728253,1576,1576,1573,1573
131983852,1000,1000,1000,1000,139828213,1576,1576,1573,1573
131986351,1000,1000,1000,1000,139928173,1575,1575,1574,1575
131988850,1000,1000,1000,1000,140028966,1576,1576,1575,1575
131991349,1000,1000,1000,1000,140128926,1576,1576,1576,1576
131993848,1000,1000,1000,1000,140228886,1576,1576,1577,1577
131996347,1000,1000,1000,1000,140328846,1576,1576,1578,1578
131998846,1000,1000,1000,1000,140428806,1576,1577,1578,1578
132001345,1000,1000,1000,1000,140528766,1576,1577,1578,1578
132003844,1000,1000,1000,1000,140628726,1576,1578,1579,1578
132006343,1000,1000,1000,1000,140728686,1578,1577,1579,1578
132008842,1000,1000,1000,1000,140828646,1578,1578,1579,1579
132011341,1000,1000,1000,1000,140928606,1578,1578,1578,1578
132013840,1000,1000,1000,1000,141028566,1578,1578,1578,1578
132016339,1000,1000,1000,1000,141128526,1577,1577,1576,1577
132018838,1000,1000,1000,1000,141228486,1578,1578,1578,1578
132021337,1000,1000,1000,1000,141328446,1579,1579,1578,1579
132023836,1000,1000,1000,1000,141428406,1578,1578,1578,1577
132026335,1000,1000,1000,1000,141528366,1579,1579,1579,1578
132028834,1000,1000,1000,1000,141628326,1579,1579,1579,1579
132031333,1000,1000,1000,1000,141728286,1579,1578,1578,1579
132033832,1000,1000,1000,1000,141828246,1579,1579,1579,1580
132036331,1000,1000,1000,1000,141928206,1579,1578,1579,1579
132038830,1000,1000,1000,1000,142028166,1579,1580,1580,1580
132041329,1000,1000,1000,1000,142128959,1579,1579,1580,1579
132043828,1000,1000,1000,1000,142228919,1579,1579,1580,1579
132046327,1000,1000,1000,1000,142328879,1579,1579,1580,1580
132048826,1000,1000,1000,1000,142428839,1579,1579,1580,1579
132051325,1000,1000,1000,1000,142528799,1579,1579,1579,1579
132053824,1000,1000,1000,1000,142628759,1580,1580,1580,1580
132056323,1000,1000,1000,1000,142728719,1579,1579,1579,1580
132058822,1000,1000,1000,1000,142828679,1580,1580,1580,1580
132061321,1000,1000,1000,1000,142928639,1580,1579,1580,1580
132063820,1000,1000,1000,1000,143028599,1581,1580,1581,1580
132066319,1000,1000,1000,1000,143128559,1580,1581,1580,1580
132068818,1000,1000,1000,1000,143228519,1580,1580,1580,1580
132071317,1000,1000,1000,1000,143328479,1581,1581,1580,1581
132073816,1000,1000,1000,1000,143428439,1581,1581,1581,1581
132076315,1000,1000,1000,1000,143528399,1581,1581,1581,1581
132078814,1000,1000,1000,1000,143628359,1581,1580,1580,1581
132081313,1000,1000,1000,1000,143728319,1580,1580,1580,1581
132083812,1000,1000,1000,1000,143828279,1581,1581,1581,1581
132086311,1000,1000,1000,1000,143928239,1582,1582,1582,1582
132088810,1000,1000,1000,1000,144028199,1580,1581,1581,1580
132091309,1000,1000,1000,1000,144128159,1580,1580,1582,1579
132093808,1000,1000,1000,1000,144228952,1581,1583,1589,1573
132096307,1000,1000,1000,1000,144328912,1579,1582,1583,1573
132098806,1000,1000,1000,1000,144428872,1579,1582,1574,1573
132101305,1000,1000,1000,1000,144528832,1578,1580,1566,1571
132103804,1000,1000,1000,1000,144628792,1578,1580,1559,1567
132106303,1000,1000,1000,1000,144728752,1579,1579,1556,1562
132108802,1000,1000,1000,1000,144828712,1581,1579,1555,1558
132111301,1000,1000,1000,1000,144928672,1581,1579,1555,1555
132113800,1000,1000,1000,1000,145028632,1581,1580,1556,1553
132116299,1000,1000,1000,1000,145128592,1578,1578,1554,1552
132118798,1000,1000,1000,1000,145228552,1578,1578,1555,1552
132121297,1000,1000,1000,1000,145328512,1576,1577,1553,1552
132123796,1000,1000,1000,1000,145428472,1575,1577,1552,1552
132126295,1000,1000,1000,1000,145528432,1575,1577,1551,1551
132128794,1000,1000,1000,1000,145628392,1577,1578,1550,1551
132131293,1000,1000,1000,1000,145728352,1579,1580,1549,1549
132133792,1000,1000,1000,1000,145828312,1581,1582,1547,1546
132136291,1000,1000,1000,1000,145928272,1583,1584,1544,1543
132138790,1000,1000,1000,1000,146028232,1586,1587,1541,1540
132141289,1000,1000,1000,1000,146128192,1588,1589,1538,1538
132143788,1000,1000,1000,1000,146228985,1592,1593,1537,1537
132146287,1000,1000,1000,1000,146328945,1595,1594,1536,1536
132148786,1000,1000,1000,1000,146428905,1595,1595,1534,1536
132151285,1000,1000,1000,1000,146528865,1594,1594,1535,1537
132153784,1000,1000,1000,1000,146628825,1594,1593,1538,1541
132156283,1000,1000,1000,1000,146728785,1590,1588,1543,1547
132158782,1000,1000,1000,1000,146828745,1584,1582,1551,1554
132161281,1000,1000,1000,1000,146928705,1577,1573,1562,1564
132163780,1000,1000,1000,1000,147028665,1567,1563,1574,1576
132166279,1000,1000,1000,1000,147128625,1555,1551,1586,1588
132168778,1000,1000,1000,1000,147228585,1544,1542,1598,1598
132171277,1000,1000,1000,1000,147328545,1535,1535,1608,1607
132173776,1000,1000,1000,1000,147428505,1530,1530,1614,1613
132176275,1000,1000,1000,1000,147528465,1529,1530,1616,1615
132178774,1000,1000,1000,1000,147628425,1531,1534,1615,1614
132181273,1000,1000,1000,1000,147728385,1536,1538,1610,1610
132183772,1000,1000,1000,1000,147828345,1543,1545,1603,1604
132186271,1000,1000,1000,1000,147928305,1552,1553,1597,1596
132188770,1000,1000,1000,1000,148028265,1561,1562,1589,1588
132191269,1000,1000,1000,1000,148128225,1570,1570,1582,1581
132193768,1000,1000,1000,1000,148228185,1576,1576,1575,1574
132196267,1000,1000,1000,1000,148328978,1583,1582,1571,1570
132198766,1000,1000,1000,1000,148428938,1586,1585,1567,1567
132201265,1000,1000,1000,1000,148528898,1587,1585,1565,1565
132203764,1000,1000,1000,1000,148628858,1587,1586,1565,1566
132206263,1000,1000,1000,1000,148728818,1586,1585,1567,1567
132208762,1000,1000,1000,1000,148828778,1584,1583,1570,1570
132211261,1000,1000,1000,1000,148928738,1581,1580,1573,1573
132213760,1000,1000,1000,1000,149028698,1578,1578,1576,1576
132216259,1000,1000,1000,1000,149128658,1575,1575,1578,1578
132218758,1000,1000,1000,1000,149228618,1573,1574,1581,1581
132221257,1000,1000,1000,1000,149328578,1571,1572,1582,1582
132223756,1000,1000,1000,1000,149428538,1571,1572,1583,1583
132226255,1000,1000,1000,1000,149528498,1571,1571,1582,1583
132228754,1000,1000,1000,1000,149628458,1573,1573,1583,1583
132231253,1000,1000,1000,1000,149728418,1387,1387,1477,1580
132233752,1000,1000,1000,1000,149828378,1490,1487,1598,1589
132236251,1000,1000,1000,1000,149928338,1545,1538,1650,1557
132238750,1000,1000,1000,1000,150028298,1705,1694,1758,1606
132241249,1000,1000,1000,1000,150128258,1739,1725,1758,1663
132243748,1000,1000,1000,1000,150228218,1758,1746,1739,1700
132246247,1000,1000,1000,1000,150328178,1752,1746,1684,1716
132248746,1000,1000,1000,1000,150428971,1684,1690,1587,1666
132251245,1000,1000,1000,1000,150528931,1644,1663,1546,1636
132253744,1000,1000,1000,1000,150628891,1619,1648,1539,1602
132256243,1000,1000,1000,1000,150728851,1605,1634,1544,1565
132258742,1000,1000,1000,1000,150828811,1597,1617,1553,1540
132261241,1000,1000,1000,1000,150928771,1593,1597,1562,1535
132263740,1000,1000,1000,1000,151028731,1591,1579,1571,1545
132266239,1000,1000,1000,1000,151128691,1587,1564,1574,1558
132268738,1000,1000,1000,1000,151228651,1580,1555,1573,1570
132271237,1000,1000,1000,1000,151328611,1568,1550,1570,1575
132273736,1000,1000,1000,1000,151428571,1557,1549,1568,1577
132276235,1000,1000,1000,1000,151528531,1548,1550,1568,1578
132278734,1000,1000,1000,1000,151628491,1542,1550,1572,1576
132281233,1000,1000,1000,1000,151728451,1540,1551,1576,1576
132283732,1000,1000,1000,1000,151828411,1543,1551,1580,1577
132286231,1000,1000,1000,1000,151928371,1549,1553,1583,1578
132288730,1000,1000,1000,1000,152028331,1555,1555,1584,1579
132291229,1000,1000,1000,1000,152128291,1560,1561,1588,1571
132293728,1000,1000,1000,1000,152228251,1566,1567,1583,1567
132296227,1000,1000,1000,1000,152328211,1572,1571,1571,1566
132298726,1000,1000,1000,1000,152428171,1575,1575,1559,1563
132301225,1000,1000,1000,1000,152528964,1577,1577,1549,1557
132303724,1000,1000,1000,1000,152628924,1580,1581,1544,1553
132306223,1000,1000,1000,1000,152728884,1582,1583,1542,1548
132308722,1000,1000,1000,1000,152828844,1584,1584,1542,1545
132311221,1000,1000,1000,1000,152928804,1585,1585,1545,1544
132313720,1000,1000,1000,1000,153028764,1586,1585,1547,1545
132316219,1000,1000,1000,1000,153128724,1585,1584,1549,1546
132318718,1000,1000,1000,1000,153228684,1583,1584,1550,1547
132321217,1000,1000,1000,1000,153328644,1583,1583,1551,1550
132323716,1000,1000,1000,1000,153428604,1581,1582,1551,1551
132326215,1000,1000,1000,1000,153528564,1580,1581,1551,1551
132328714,1000,1000,1000,1000,153628524,1579,1580,1551,1551
132331213,1000,1000,1000,1000,153728484,1578,1579,1550,1551
132333712,1000,1000,1000,1000,153828444,1579,1581,1551,1552
132336211,1000,1000,1000,1000,153928404,1579,1581,1549,1550
132338710,1000,1000,1000,1000,154028364,1580,1583,1548,1548
132341209,1000,1000,1000,1000,154128324,1583,1585,1547,1547
132343708,1000,1000,1000,1000,154228284,1585,1586,1547,1547
132346207,1000,1000,1000,1000,154328244,1588,1587,1547,1548
132348706,1000,1000,1000,1000,154428204,1588,1586,1548,1550
132351205,1000,1000,1000,1000,154528164,1588,1584,1552,1555
132353704,1000,1000,1000,1000,154628957,1585,1582,1557,1560
132356203,1000,1000,1000,1000,154728917,1580,1577,1563,1566
132358702,1000,1000,1000,1000,154828877,1574,1572,1570,1572
132361201,1000,1000,1000,1000,154928837,1567,1566,1578,1580
132363700,1000,1000,1000,1000,155028797,1560,1559,1587,1587
132366199,1000,1000,1000,1000,155128757,1554,1553,1595,1594
132368698,1000,1000,1000,1000,155228717,1549,1550,1601,1600
132371197,1000,1000,1000,1000,155328677,1547,1548,1606,1604
132373696,1000,1000,1000,1000,155428637,1546,1548,1608,1605
132376195,1000,1000,1000,1000,155528597,1547,1548,1607,1605
132378694,1000,1000,1000,1000,155628557,1551,1552,1605,1604
132381193,1000,1000,1000,1000,155728517,1554,1554,1600,1598
132383692,1000,1000,1000,1000,155828477,1558,1559,1593,1593
132386191,1000,1000,1000,1000,155928437,1564,1565,1588,1588
132388690,1000,1000,1000,1000,156028397,1570,1570,1582,1583
132391189,1000,1000,1000,1000,156128357,1574,1574,1576,1577
132393688,1000,1000,1000,1000,156228317,1579,1578,1572,1573
132396187,1000,1000,1000,1000,156328277,1582,1581,1569,1571
132398686,1000,1000,1000,1000,156428237,1584,1583,1568,1568
132401185,1000,1000,1000,1000,156528197,1585,1584,1568,1568
132403684,1000,1000,1000,1000,156628157,1586,1585,1569,1569
132406183,1000,1000,1000,1000,156728950,1585,1584,1571,1571
132408682,1000,1000,1000,1000,156828910,1583,1583,1573,1573
132411181,1000,1000,1000,1000,156928870,1581,1581,1575,1575
132413680,1000,1000,1000,1000,157028830,1580,1580,1578,1578
132416179,1000,1000,1000,1000,157128790,1578,1578,1580,1579
132418678,1000,1000,1000,1000,157228750,1576,1576,1582,1581
132421177,1000,1000,1000,1000,157328710,1575,1575,1583,1582
132423676,1000,1000,1000,1000,157428670,1574,1575,1584,1584
132426175,1000,1000,1000,1000,157528630,1574,1575,1584,1584
132428674,1000,1000,1000,1000,157628590,1574,1575,1584,1583
132431173,1000,1000,1000,1000,157728550,1575,1574,1582,1583
132433672,1000,1000,1000,1000,157828510,1576,1576,1582,1582
132436171,1000,1000,1000,1000,157928470,1577,1577,1582,1582
132438670,1000,1000,1000,1000,158028430,1577,1578,1580,1580
132441169,1000,1000,1000,1000,158128390,1579,1579,1579,1579
132443668,1000,1000,1000,1000,158228350,1580,1580,1578,1579
132446167,1000,1000,1000,1000,158328310,1581,1581,1578,1578
132448666,1000,1000,1000,1000,158428270,1581,1581,1578,1577
132451165,1000,1000,1000,1000,158528230,1581,1581,1577,1578
132453664,1000,1000,1000,1000,158628190,1581,1581,1577,1578
132456163,1000,1000,1000,1000,158728983,1581,1581,1578,1578
132458662,1000,1000,1000,1000,158828943,1581,1581,1578,1578
132461161,1000,1000,1000,1000,158928903,1582,1581,1579,1579
132463660,1000,1000,1000,1000,159028863,1581,1581,1580,1580
132466159,1000,1000,1000,1000,159128823,1580,1580,1580,1580
132468658,1000,1000,1000,1000,159228783,1580,1581,1581,1581
132471157,1000,1000,1000,1000,159328743,1579,1580,1581,1581
132473656,1000,1000,1000,1000,159428703,1581,1581,1583,1583
132476155,1000,1000,1000,1000,159528663,1581,1581,1583,1583
132478654,1000,1000,1000,1000,159628623,1580,1580,1582,1581
132481153,1000,1000,1000,1000,159728583,1580,1580,1581,1581
132483652,1000,1000,1000,1000,159828543,1581,1581,1582,1582
132486151,1000,1000,1000,1000,159928503,1581,1581,1581,1581
132488650,1000,1000,1000,1000,160028463,1581,1582,1586,1576
132491149,1000,1000,1000,1000,160128423,1581,1582,1587,1572
132493648,1000,1000,1000,1000,160228383,1579,1581,1579,1572
132496147,1000,1000,1000,1000,160328343,1578,1579,1571,1571
132498646,1000,1000,1000,1000,160428303,1576,1578,1563,1568
132501145,1000,1000,1000,1000,160528263,1576,1578,1558,1564
132503644,1000,1000,1000,1000,160628223,1577,1578,1554,1560
132506143,1000,1000,1000,1000,160728183,1579,1578,1553,1557
132508642,1000,1000,1000,1000,160828976,1580,1579,1554,1554
132511141,1000,1000,1000,1000,160928936,1579,1578,1554,1552
132513640,1000,1000,1000,1000,161028896,1578,1579,1555,1552
132516139,1000,1000,1000,1000,161128856,1578,1578,1555,1553
132518638,1000,1000,1000,1000,161228816,1577,1578,1554,1553
132521137,1000,1000,1000,1000,161328776,1576,1577,1553,1553
132523636,1000,1000,1000,1000,161428736,1576,1578,1553,1553
132526135,1000,1000,1000,1000,161528696,1576,1578,1551,1551
132528634,1000,1000,1000,1000,161628656,1578,1579,1551,1550
132531133,1000,1000,1000,1000,161728616,1579,1580,1549,1548
132533632,1000,1000,1000,1000,161828576,1581,1582,1547,1546
132536131,1000,1000,1000,1000,161928536,1585,1585,1546,1545
132538630,1000,1000,1000,1000,162028496,1587,1587,1543,1543
132541129,1000,1000,1000,1000,162128456,1589,1589,1541,1541
132543628,1000,1000,1000,1000,162228416,1591,1591,1540,1541
132546127,1000,1000,1000,1000,162328376,1591,1592,1539,1540
132548626,1000,1000,1000,1000,162428336,1592,1593,1539,1541
132551125,1000,1000,1000,1000,162528296,1591,1591,1540,1542
132553624,1000,1000,1000,1000,162628256,1590,1589,1543,1546
132556123,1000,1000,1000,1000,162728216,1588,1585,1550,1553
132558622,1000,1000,1000,1000,162828176,1581,1578,1557,1560
132561121,1000,1000,1000,1000,162928969,1574,1570,1567,1570
132563620,1000,1000,1000,1000,163028929,1564,1561,1578,1580
132566119,1000,1000,1000,1000,163128889,1554,1552,1588,1589
132568618,1000,1000,1000,1000,163228849,1546,1545,1599,1598
132571117,1000,1000,1000,1000,163328809,1540,1540,1607,1605
132573616,1000,1000,1000,1000,163428769,1536,1537,1612,1610
132576115,1000,1000,1000,1000,163528729,1535,1537,1614,1612
132578614,1000,1000,1000,1000,163628689,1537,1539,1613,1611
132581113,1000,1000,1000,1000,163728649,1542,1543,1610,1609
132583612,1000,1000,1000,1000,163828609,1546,1548,1603,1603
132586111,1000,1000,1000,1000,163928569,1554,1554,1597,1597
132588610,1000,1000,1000,1000,164028529,1561,1561,1590,1590
132591109,1000,1000,1000,1000,164128489,1567,1567,1582,1582
132593608,1000,1000,1000,1000,164228449,1574,1573,1576,1576
132596107,1000,1000,1000,1000,164328409,1579,1577,1570,1571
132598606,1000,1000,1000,1000,164428369,1583,1582,1566,1567
132601105,1000,1000,1000,1000,164528329,1585,1584,1564,1565
132603604,1000,1000,1000,1000,164628289,1587,1587,1565,1566
132606103,1000,1000,1000,1000,164728249,1588,1587,1566,1567
132608602,1000,1000,1000,1000,164828209,1587,1586,1568,1568
132611101,1000,1000,1000,1000,164928169,1584,1584,1571,1571
132613600,1000,1000,1000,1000,165028962,1582,1582,1573,1574
132616099,1000,1000,1000,1000,165128922,1580,1580,1577,1577
132618598,1000,1000,1000,1000,165228882,1577,1577,1579,1578
132621097,1000,1000,1000,1000,165328842,1576,1576,1582,1581
132623596,1000,1000,1000,1000,165428802,1575,1575,1585,1584
132626095,1000,1000,1000,1000,165528762,1574,1574,1585,1585
132628594,1000,1000,1000,1000,165628722,1573,1574,1585,1585
132631093,1000,1000,1000,1000,165728682,1573,1573,1584,1584
132633592,1000,1000,1000,1000,165828642,1574,1574,1583,1584
132636091,1000,1000,1000,1000,165928602,1575,1575,1583,1582
132638590,1000,1000,1000,1000,166028562,1577,1577,1582,1582
132641089,1000,1000,1000,1000,166128522,1578,1578,1581,1581
132643588,1000,1000,1000,1000,166228482,1578,1578,1579,1579
132646087,1000,1000,1000,1000,166328442,1580,1580,1578,1579
132648586,1000,1000,1000,1000,166368426,1581,1581,1578,1579
132651085,1000,1000,1000,1000,166468386,1582,1581,1578,1577
132653584,1000,1000,1000,1000,166568346,1582,1582,1577,1577
132656083,1000,1000,1000,1000,166668306,1581,1581,1577,1576
132658582,1000,1000,1000,1000,166768266,1582,1581,1577,1577
132661081,1000,1000,1000,1000,166868226,1582,1581,1577,1578
132663580,1000,1000,1000,1000,166968186,1581,1581,1578,1578
132666079,1000,1000,1000,1000,167068979,1581,1581,1579,1578
132668578,1000,1000,1000,1000,167168939,1580,1580,1580,1579
132671077,1000,1000,1000,1000,167268899,1580,1580,1580,1580
132673576,1000,1000,1000,1000,167368859,1580,1580,1581,1581
132676075,1000,1000,1000,1000,167468819,1580,1580,1581,1581
132678574,1000,1000,1000,1000,167568779,1580,1580,1582,1581
132681073,1000,1000,1000,1000,167668739,1580,1580,1583,1582
132683572,1000,1000,1000,1000,167768699,1580,1581,1583,1582
132686071,1000,1000,1000,1000,167868659,1580,1581,1582,1582
132688570,1000,1000,1000,1000,167968619,1580,1581,1583,1580
132691069,1000,1000,1000,1000,168068579,1581,1581,1588,1573
132693568,1000,1000,1000,1000,168168539,1579,1579,1583,1573
132696067,1000,1000,1000,1000,168268499,1576,1576,1576,1574
132698566,1000,1000,1000,1000,168368459,1573,1572,1569,1573
132701065,1000,1000,1000,1000,168468419,1571,1570,1565,1573
132703564,1000,1000,1000,1000,168568379,1568,1568,1563,1570
132706063,1000,1000,1000,1000,168668339,1567,1567,1563,1567
132708562,1000,1000,1000,1000,168768299,1567,1566,1565,1566
132711061,1000,1000,1000,1000,168868259,1566,1566,1566,1565
132713560,1000,1000,1000,1000,168968219,1566,1566,1567,1564
132716059,1000,1000,1000,1000,169068179,1566,1565,1567,1564
132718558,1000,1000,1000,1000,169168972,1565,1565,1567,1564
132721057,1000,1000,1000,1000,169268932,1564,1563,1565,1563
132723556,1000,1000,1000,1000,169368892,1563,1564,1564,1565
132726055,1000,1000,1000,1000,169468852,1562,1562,1563,1563
132728554,1000,1000,1000,1000,169568812,1562,1561,1562,1562
132731053,1000,1000,1000,1000,169668772,1561,1561,1561,1562
132733552,1000,1000,1000,1000,169768732,1560,1560,1561,1561
132736051,1000,1000,1000,1000,169868692,1561,1561,1561,1561
132738550,1000,1000,1000,1000,169968652,1560,1560,1560,1560
132741049,1000,1000,1000,1000,170068612,1559,1559,1559,1558
132743548,1000,1000,1000,1000,170168572,1559,1559,1559,1558
132746047,1000,1000,1000,1000,170268532,1558,1558,1558,1557
132748546,1000,1000,1000,1000,170368492,1559,1558,1559,1558
132751045,1000,1000,1000,1000,170468452,1558,1558,1559,1557
132753544,1000,1000,1000,1000,170568412,1557,1557,1558,1555
132756043,1000,1000,1000,1000,170668372,1557,1557,1559,1555
132758542,1000,1000,1000,1000,170768332,1556,1555,1557,1555
132761041,1000,1000,1000,1000,170868292,1554,1553,1552,1555
132763540,1000,1000,1000,1000,170968252,1550,1550,1547,1553
132766039,1000,1000,1000,1000,171068212,1545,1545,1541,1548
132768538,1000,1000,1000,1000,171168172,1540,1540,1537,1541
132771037,1000,1000,1000,1000,171268965,1533,1534,1531,1533
132773536,1000,1000,1000,1000,171368925,1526,1527,1525,1525
132776035,1000,1000,1000,1000,171468885,1523,1523,1521,1521
132778534,1000,1000,1000,1000,171568845,1522,1522,1521,1521
132781033,1000,1000,1000,1000,171668805,1522,1522,1521,1523
132783532,1000,1000,1000,1000,171768765,1523,1523,1523,1524
132786031,1000,1000,1000,1000,171868725,1526,1525,1527,1528
132788530,1000,1000,1000,1000,171968685,1529,1529,1531,1532
132791029,1000,1000,1000,1000,172068645,1534,1534,1537,1537
132793528,1000,1000,1000,1000,172168605,1537,1537,1539,1540
132796027,1000,1000,1000,1000,172268565,1539,1540,1542,1542
132798526,1000,1000,1000,1000,172368525,1541,1541,1543,1543
132801025,1000,1000,1000,1000,172468485,1543,1544,1545,1544
132803524,1000,1000,1000,1000,172568445,1544,1545,1545,1545
132806023,1000,1000,1000,1000,172668405,1546,1546,1546,1545
132808522,1000,1000,1000,1000,172768365,1547,1547,1546,1546
132811021,1000,1000,1000,1000,172868325,1547,1548,1546,1547
132813520,1000,1000,1000,1000,172968285,1547,1546,1545,1545
132816019,1000,1000,1000,1000,173068245,1547,1546,1545,1545
132818518,1000,1000,1000,1000,173168205,1547,1547,1546,1546
132821017,1000,1000,1000,1000,173268165,1546,1546,1545,1545
132823516,1000,1000,1000,1000,173368958,1546,1546,1545,1545
132826015,1000,1000,1000,1000,173468918,1546,1546,1545,1545
132828514,1000,1000,1000,1000,173568878,1546,1546,1545,1545
132831013,1000,1000,1000,1000,173668838,1544,1545,1545,1544
132833512,1000,1000,1000,1000,173768798,1544,1545,1545,1545
132836011,1000,1000,1000,1000,173868758,1545,1544,1545,1546
132838510,1000,1000,1000,1000,173968718,1545,1545,1546,1546
132841009,1000,1000,1000,1000,174068678,1544,1544,1545,1544
132843508,1000,1000,1000,1000,174168638,1543,1544,1544,1544
132846007,1000,1000,1000,1000,174268598,1544,1545,1545,1545
132848506,1000,1000,1000,1000,174368558,1544,1544,1545,1544
132851005,1000,1000,1000,1000,174468518,1544,1544,1545,1545
132853504,1000,1000,1000,1000,174568478,1543,1544,1544,1544
132856003,1000,1000,1000,1000,174668438,1544,1544,1543,1544
132858502,1000,1000,1000,1000,174768398,1544,1544,1543,1544
132861001,1000,1000,1000,1000,174868358,1544,1544,1543,1544
132863500,1000,1000,1000,1000,174968318,1545,1545,1544,1544
132865999,1000,1000,1000,1000,175068278,1544,1544,1544,1544
132868498,1000,1000,1000,1000,175168238,1544,1545,1544,1544
132870997,1000,1000,1000,1000,175268198,1544,1544,1544,1543
132873496,1000,1000,1000,1000,175368158,1544,1544,1544,1544
132875995,1000,1000,1000,1000,175468951,1544,1544,1544,1544
132878494,1000,1000,1000,1000,175568911,1545,1545,1545,1545
132880993,1000,1000,1000,1000,175668871,1544,1544,1544,1544
132883492,1000,1000,1000,1000,175768831,1545,1544,1545,1544
132885991,1000,1000,1000,1000,175868791,1544,1544,1544,1544
132888490,1000,1000,1000,1000,175968751,1544,1544,1544,1544
132890989,1000,1000,1000,1000,176068711,1543,1544,1544,1544
132893488,1000,1000,1000,1000,176168671,1543,1544,1544,1544
132895987,1000,1000,1000,1000,176268631,1544,1544,1544,1544
132898486,1000,1000,1000,1000,176368591,1544,1544,1544,1544
132900985,1000,1000,1000,1000,176468551,1545,1544,1545,1544
132903484,1000,1000,1000,1000,176568511,1545,1544,1545,1545
132905983,1000,1000,1000,1000,176668471,1544,1544,1544,1544
132908482,1000,1000,1000,1000,176768431,1545,1545,1545,1544
132910981,1000,1000,1000,1000,176868391,1544,1544,1544,1544
132913480,1000,1000,1000,1000,176968351,1544,1544,1544,1544
132915979,1000,1000,1000,1000,177068311,1544,1544,1545,1544
132918478,1000,1000,1000,1000,177168271,1544,1545,1544,1545
132920977,1000,1000,1000,1000,177268231,1544,1544,1544,1544
132923476,1000,1000,1000,1000,177368191,1544,1544,1544,1544
132925975,1000,1000,1000,1000,177468984,1545,1545,1545,1545
132928474,1000,1000,1000,1000,177568944,1545,1545,1545,1545
132930973,1000,1000,1000,1000,177668904,1544,1545,1545,1545
132933472,1000,1000,1000,1000,177768864,1545,1545,1545,1545
132935971,1000,1000,1000,1000,177868824,1544,1544,1544,1545
132938470,1000,1000,1000,1000,177968784,1545,1544,1545,1545
132940969,1000,1000,1000,1000,178068744,1544,1543,1544,1544
132943468,1000,1000,1000,1000,178168704,1544,1543,1544,1543
132945967,1000,1000,1000,1000,178268664,1544,1544,1543,1543
132948466,1000,1000,1000,1000,178368624,1544,1544,1544,1544
132950965,1000,1000,1000,1000,178468584,1544,1544,1544,1544
132953464,1000,1000,1000,1000,178568544,1544,1545,1545,1545
132955963,1000,1000,1000,1000,178668504,1545,1545,1545,1545
132958462,1000,1000,1000,1000,178768464,1545,1545,1545,1545
132960961,1000,1000,1000,1000,178868424,1544,1544,1545,1545
132963460,1000,1000,1000,1000,178968384,1545,1544,1545,1545
132965959,1000,1000,1000,1000,179068344,1545,1545,1544,1545
132968458,1000,1000,1000,1000,179168304,1545,1545,1545,1545
132970957,1000,1000,1000,1000,179268264,1544,1544,1544,1544
132973456,1000,1000,1000,1000,179368224,1544,1544,1544,1544
132975955,1000,1000,1000,1000,179468184,1544,1544,1544,1544
132978454,1000,1000,1000,1000,179568977,1544,1544,1544,1544
132980953,1000,1000,1000,1000,179668937,1544,1544,1544,1544
132983452,1000,1000,1000,1000,179768897,1544,1544,1543,1544
132985951,1000,1000,1000,1000,179868857,1543,1543,1543,1543
132988450,1000,1000,1000,1000,179968817,1543,1543,1543,1543
132990949,1000,1000,1000,1000,180068777,1544,1544,1544,1544
132993448,1000,1000,1000,1000,180168737,1544,1544,1544,1544
132995947,1000,1000,1000,1000,180268697,1544,1544,1544,1544
132998446,1000,1000,1000,1000,180368657,1544,1544,1544,1544
133000945,1000,1000,1000,1000,180468617,1545,1545,1545,1545
133003444,1000,1000,1000,1000,180568577,1544,1545,1545,1545
133005943,1000,1000,1000,1000,180668537,1545,1545,1545,1545
133008442,1000,1000,1000,1000,180768497,1545,1545,1545,1544
133010941,1000,1000,1000,1000,180868457,1544,1544,1545,1544
133013440,1000,1000,1000,1000,180968417,1545,1545,1545,1545
133015939,1000,1000,1000,1000,181068377,1545,1544,1545,1545
133018438,1000,1000,1000,1000,181168337,1429,1430,1430,1395
133020937,1000,1000,1000,1000,181268297,1337,1339,1339,1264
133023436,1000,1000,1000,1000,181368257,1307,1308,1309,1217
133025935,1000,1000,1000,1000,181468217,1294,1296,1296,1196
133028434,1000,1000,1000,1000,181568177,1269,1271,1272,1155
133030933,1000,1000,1000,1000,181668970,1231,1233,1233,1150
133033432,1000,1000,1000,1000,181768930,1152,1154,1154,1150
133035931,1000,1000,1000,1000,181868890,1083,1084,1084,1150
133038430,1000,1000,1000,1000,181968850,1082,1084,1084,1150
133040929,1000,1000,1000,1000,182068810,1082,1084,1084,1150
133043428,1000,1000,1000,1000,182168770,1093,1079,1079,1150
133045927,1000,1000,1000,1000,182268730,1093,1079,1079,1150
133048426,1000,1000,1000,1000,182368690,1089,1081,1080,1150
133050925,1000,1000,1000,1000,182468650,1088,1082,1080,1150
133053424,1000,1000,1000,1000,182568610,1088,1082,1080,1150
133055923,1000,1000,1000,1000,182668570,1089,1082,1080,1150
133058422,1000,1000,1000,1000,182768530,1089,1082,1079,1150
133060921,1000,1000,1000,1000,182868490,1089,1082,1079,1150
133063420,1000,1000,1000,1000,182968450,1083,1085,1082,1150
133065919,1000,1000,1000,1000,183068410,1085,1084,1081,1150
133068418,1000,1000,1000,1000,183168370,1085,1084,1081,1150
133070917,1000,1000,1000,1000,183268330,1085,1084,1081,1150
133073416,1000,1000,1000,1000,183368290,1086,1084,1081,1150
133075915,1000,1000,1000,1000,183468250,1000,1000,1000,1000
133078414,1000,1000,1000,1000,183568210,1000,1000,1000,1000
133080913,1000,1000,1000,1000,183668170,1000,1000,1000,1000
133083412,1000,1000,1000,1000,183768963,1000,1000,1000,1000
133085911,1000,1000,1000,1000,183868923,1000,1000,1000,1000
133088410,1000,1000,1000,1000,183968883,1000,1000,1000,1000
133090909,1000,1000,1000,1000,184068843,1000,1000,1000,1000
133093408,1000,1000,1000,1000,184168803,1000,1000,1000,1000
133095907,1000,1000,1000,1000,184268763,1000,1000,1000,1000
133098406,1000,1000,1000,1000,184368723,1000,1000,1000,1000
133100905,1000,1000,1000,1000,184468683,1000,1000,1000,1000
133103404,1000,1000,1000,1000,184568643,1000,1000,1000,1000
133105903,1000,1000,1000,1000,184668603,1000,1000,1000,1000
133108402,1000,1000,1000,1000,184768563,1000,1000,1000,1000
133110901,1000,1000,1000,1000,184868523,1000,1000,1000,1000
133113400,1000,1000,1000,1000,184968483,1000,1000,1000,1000
133115899,1000,1000,1000,1000,185068443,1000,1000,1000,1000
133118398,1000,1000,1000,1000,185168403,1000,1000,1000,1000
133120897,1000,1000,1000,1000,185268363,1000,1000,1000,1000
133123396,1000,1000,1000,1000,185368323,1000,1000,1000,1000
133125895,1000,1000,1000,1000,185468283,1000,1000,1000,1000
133128394,1000,1000,1000,1000,185568243,1000,1000,1000,1000
133130893,1000,1000,1000,1000,185668203,1000,1000,1000,1000
133133392,1000,1000,1000,1000,185768163,1000,1000,1000,1000
133135891,1000,1000,1000,1000,185868956,1000,1000,1000,1000
133138390,1000,1000,1000,1000,185968916,1000,1000,1000,1000
133140889,1000,1000,1000,1000,186068876,1000,1000,1000,1000
133143388,1000,1000,1000,1000,186168836,1000,1000,1000,1000
133145887,1000,1000,1000,1000,186268796,1000,1000,1000,1000
133148386,1000,1000,1000,1000,186368756,1000,1000,1000,1000
133150885,1000,1000,1000,1000,186468716,1000,1000,1000,1000
133153384,1000,1000,1000,1000,186568676,1000,1000,1000,1000
133155883,1000,1000,1000,1000,186668636,1000,1000,1000,1000
133158382,1000,1000,1000,1000,186768596,1000,1000,1000,1000
133160881,1000,1000,1000,1000,186868556,1000,1000,1000,1000
133163380,1000,1000,1000,1000,186968516,1000,1000,1000,1000
133165879,1000,1000,1000,1000,187068476,1000,1000,1000,1000
133168378,1000,1000,1000,1000,187168436,1000,1000,1000,1000
133170877,1000,1000,1000,1000,187268396,1000,1000,1000,1000
133173376,1000,1000,1000,1000,187368356,1000,1000,1000,1000
133175875,1000,1000,1000,1000,187468316,1000,1000,1000,1000
133178374,1000,1000,1000,1000,187568276,1000,1000,1000,1000
133180873,1000,1000,1000,1000,187668236,1000,1000,1000,1000
133183372,1000,1000,1000,1000,187768196,1000,1000,1000,1000
133185871,1000,1000,1000,1000,187868156,1000,1000,1000,1000
133188370,1000,1000,1000,1000,187968949,1000,1000,1000,1000
133190869,1000,1000,1000,1000,188068909,1000,1000,1000,1000
133193368,1000,1000,1000,1000,188168869,1000,1000,1000,1000
133195867,1000,1000,1000,1000,188268829,1000,1000,1000,1000
133198366,1000,1000,1000,1000,188368789,1000,1000,1000,1000
133200865,1000,1000,1000,1000,188468749,1000,1000,1000,1000
133203364,1000,1000,1000,1000,188568709,1000,1000,1000,1000
133205863,1000,1000,1000,1000,188668669,1000,1000,1000,1000
133208362,1000,1000,1000,1000,188768629,1000,1000,1000,1000
133210861,1000,1000,1000,1000,188868589,1000,1000,1000,1000
133213360,1000,1000,1000,1000,188968549,1000,1000,1000,1000
133215859,1000,1000,1000,1000,189068509,1000,1000,1000,1000
133218358,1000,1000,1000,1000,189168469,1000,1000,1000,1000
133220857,1000,1000,1000,1000,189268429,1000,1000,1000,1000
133223356,1000,1000,1000,1000,189368389,1000,1000,1000,1000
133225855,1000,1000,1000,1000,189468349,1000,1000,1000,1000
133228354,1000,1000,1000,1000,189568309,1000,1000,1000,1000
133230853,1000,1000,1000,1000,189668269,1000,1000,1000,1000
133233352,1000,1000,1000,1000,189768229,1000,1000,1000,1000
133235851,1000,1000,1000,1000,189868189,1000,1000,1000,1000
133238350,1000,1000,1000,1000,189968982,1000,1000,1000,1000
133240849,1000,1000,1000,1000,190068942,1000,1000,1000,1000
133243348,1000,1000,1000,1000,190168902,1000,1000,1000,1000
133245847,1000,1000,1000,1000,190268862,1000,1000,1000,1000
133248346,1000,1000,1000,1000,190368822,1000,1000,1000,1000
133250845,1000,1000,1000,1000,190468782,1000,1000,1000,1000
133253344,1000,1000,1000,1000,190568742,1000,1000,1000,1000
133255843,1000,1000,1000,1000,190668702,1000,1000,1000,1000
133258342,1000,1000,1000,1000,190768662,1000,1000,1000,1000
133260841,1000,1000,1000,1000,190868622,1000,1000,1000,1000
133263340,1000,1000,1000,1000,190968582,1000,1000,1000,1000
133265839,1000,1000,1000,1000,191068542,1000,1000,1000,1000
133268338,1000,1000,1000,1000,191168502,1000,1000,1000,1000
133270837,1000,1000,1000,1000,191268462,1000,1000,1000,1000
133273336,1000,1000,1000,1000,191368422,1000,1000,1000,1000
133275835,1000,1000,1000,1000,191468382,1000,1000,1000,1000
133278334,1000,1000,1000,1000,191568342,1000,1000,1000,1000
133280833,1000,1000,1000,1000,191668302,1000,1000,1000,1000
133283332,1000,1000,1000,1000,191768262,1000,1000,1000,1000
133285831,1000,1000,1000,1000,191868222,1000,1000,1000,1000
133288330,1000,1000,1000,1000,191968182,1000,1000,1000,1000
133290829,1000,1000,1000,1000,192068975,1000,1000,1000,1000
133293328,1000,1000,1000,1000,192168935,1000,1000,1000,1000
133295827,1000,1000,1000,1000,192268895,1000,1000,1000,1000
133298326,1000,1000,1000,1000,192368855,1000,1000,1000,1000
133300825,1000,1000,1000,1000,192468815,1000,1000,1000,1000
133303324,1000,1000,1000,1000,192568775,1000,1000,1000,1000
133305823,1000,1000,1000,1000,192668735,1000,1000,1000,1000
133308322,1000,1000,1000,1000,192768695,1000,1000,1000,1000
133310821,1000,1000,1000,1000,192868655,1000,1000,1000,1000
133313320,1000,1000,1000,1000,192968615,1000,1000,1000,1000
133315819,1000,1000,1000,1000,193068575,1000,1000,1000,1000
133318318,1000,1000,1000,1000,193168535,1000,1000,1000,1000
133320817,1000,1000,1000,1000,193268495,1000,1000,1000,1000
133323316,1000,1000,1000,1000,193368455,1000,1000,1000,1000
133325815,1000,1000,1000,1000,193468415,1000,1000,1000,1000
133328314,1000,1000,1000,1000,193568375,1000,1000,1000,1000
133330813,1000,1000,1000,1000,193668335,1000,1000,1000,1000
133333312,1000,1000,1000,1000,193768295,1000,1000,1000,1000
133335811,1000,1000,1000,1000,193868255,1000,1000,1000,1000
133338310,1000,1000,1000,1000,193968215,1000,1000,1000,1000
133340809,1000,1000,1000,1000,194068175,1000,1000,1000,1000
133343308,1000,1000,1000,1000,194168968,1000,1000,1000,1000
133345807,1000,1000,1000,1000,194268928,1000,1000,1000,1000
133348306,1000,1000,1000,1000,194368888,1000,1000,1000,1000
133350805,1000,1000,1000,1000,194468848,1000,1000,1000,1000
133353304,1000,1000,1000,1000,194568808,1000,1000,1000,1000
133355803,1000,1000,1000,1000,194668768,1000,1000,1000,1000
133358302,1000,1000,1000,1000,194768728,1000,1000,1000,1000
133360801,1000,1000,1000,1000,194868688,1000,1000,1000,1000
133363300,1000,1000,1000,1000,194968648,1000,1000,1000,1000
133365799,1000,1000,1000,1000,195068608,1000,1000,1000,1000
133368298,1000,1000,1000,1000,195168568,1000,1000,1000,1000
133370797,1000,1000,1000,1000,195268528,1000,1000,1000,1000
133373296,1000,1000,1000,1000,195368488,1000,1000,1000,1000
133375795,1000,1000,1000,1000,195468448,1000,1000,1000,1000
133378294,1000,1000,1000,1000,195568408,1000,1000,1000,1000
133380793,1000,1000,1000,1000,195668368,1000,1000,1000,1000
133383292,1000,1000,1000,1000,195768328,1000,1000,1000,1000
133385791,1000,1000,1000,1000,195868288,1000,1000,1000,1000
133388290,1000,1000,1000,1000,195968248,1000,1000,1000,1000
133390789,1000,1000,1000,1000,196068208,1000,1000,1000,1000
133393288,1000,1000,1000,1000,196168168,1000,1000,1000,1000
133395787,1000,1000,1000,1000,196268961,1000,1000,1000,1000
133398286,1000,1000,1000,1000,196368921,1000,1000,1000,1000
133400785,1000,1000,1000,1000,196468881,1000,1000,1000,1000
133403284,1000,1000,1000,1000,196568841,1000,1000,1000,1000
133405783,1000,1000,1000,1000,196668801,1000,1000,1000,1000
133408282,1000,1000,1000,1000,196768761,1000,1000,1000,1000
133410781,1000,1000,1000,1000,196868721,1000,1000,1000,1000
133413280,1000,1000,1000,1000,196968681,1000,1000,1000,1000
133415779,1000,1000,1000,1000,197068641,1000,1000,1000,1000
133418278,1000,1000,1000,1000,197168601,1000,1000,1000,1000
133420777,1000,1000,1000,1000,197268561,1000,1000,1000,1000
133423276,1000,1000,1000,1000,197368521,1000,1000,1000,1000
133425775,1000,1000,1000,1000,197468481,1000,1000,1000,1000
133428274,1000,1000,1000,1000,197568441,1000,1000,1000,1000
133430773,1000,1000,1000,1000,197668401,1000,1000,1000,1000
133433272,1000,1000,1000,1000,197768361,1000,1000,1000,1000
133435771,1000,1000,1000,1000,197868321,1000,1000,1000,1000
133438270,1000,1000,1000,1000,197968281,1000,1000,1000,1000
133440769,1000,1000,1000,1000,198068241,1000,1000,1000,1000
133443268,1000,1000,1000,1000,198168201,1000,1000,1000,1000
133445767,1000,1000,1000,1000,198268161,1000,1000,1000,1000
133448266,1000,1000,1000,1000,198368954,1000,1000,1000,1000
133450765,1000,1000,1000,1000,,,,,
133453264,1000,1000,1000,1000,,,,,
133455763,1000,1000,1000,1000,,,,,
133458262,1000,1000,1000,1000,,,,,
133460761,1000,1000,1000,1000,,,,,
133463260,1000,1000,1000,1000,,,,,
133465759,1000,1000,1000,1000,,,,,
133468258,1000,1000,1000,1000,,,,,
133470757,1000,1000,1000,1000,,,,,
133473256,1000,1000,1000,1000,,,,,
133475755,1000,1000,1000,1000,,,,,
133478254,1000,1000,1000,1000,,,,,
133480753,1000,1000,1000,1000,,,,,
133483252,1000,1000,1000,1000,,,,,
133485751,1000,1000,1000,1000,,,,,
133488250,1000,1000,1000,1000,,,,,
133490749,1000,1000,1000,1000,,,,,
133493248,1000,1000,1000,1000,,,,,
133495747,1000,1000,1000,1000,,,,,
133498246,1000,1000,1000,1000,,,,,
133500745,1000,1000,1000,1000,,,,,
133503244,1000,1000,1000,1000,,,,,
133505743,1000,1000,1000,1000,,,,,
133508242,1000,1000,1000,1000,,,,,
133510741,1000,1000,1000,1000,,,,,
133513240,1000,1000,1000,1000,,,,,
133515739,1000,1000,1000,1000,,,,,
133518238,1000,1000,1000,1000,,,,,
133520737,1000,1000,1000,1000,,,,,
133523236,1000,1000,1000,1000,,,,,
133525735,1000,1000,1000,1000,,,,,
133528234,1000,1000,1000,1000,,,,,
133530733,1000,1000,1000,1000,,,,,
133533232,1000,1000,1000,1000,,,,,
133535731,1000,1000,1000,1000,,,,,
133538230,1000,1000,1000,1000,,,,,
133540729,1000,1000,1000,1000,,,,,
133543228,1000,1000,1000,1000,,,,,
133545727,1000,1000,1000,1000,,,,,
133548226,1000,1000,1000,1000,,,,,
133550725,1000,1000,1000,1000,,,,,
133553224,1000,1000,1000,1000,,,,,
133555723,1000,1000,1000,1000,,,,,
133558222,1000,1000,1000,1000,,,,,
133560721,1000,1000,1000,1000,,,,,
133563220,1000,1000,1000,1000,,,,,
133565719,1000,1000,1000,1000,,,,,
133568218,1000,1000,1000,1000,,,,,
133570717,1000,1000,1000,1000,,,,,
133573216,1000,1000,1000,1000,,,,,
133575715,1000,1000,1000,1000,,,,,
133578214,1000,1000,1000,1000,,,,,
133580713,1000,1000,1000,1000,,,,,
133583212,1000,1000,1000,1000,,,,,
133585711,1000,1000,1000,1000,,,,,
133588210,1000,1000,1000,1000,,,,,
133590709,1000,1000,1000,1000,,,,,
133593208,1000,1000,1000,1000,,,,,
133595707,1000,1000,1000,1000,,,,,
133598206,1000,1000,1000,1000,,,,,
133600705,1000,1000,1000,1000,,,,,
133603204,1000,1000,1000,1000,,,,,
133605703,1000,1000,1000,1000,,,,,
133608202,1000,1000,1000,1000,,,,,
133610701,1000,1000,1000,1000,,,,,
133613200,1000,1000,1000,1000,,,,,
133615699,1000,1000,1000,1000,,,,,
133618198,1000,1000,1000,1000,,,,,
133620697,1000,1000,1000,1000,,,,,
133623196,1000,1000,1000,1000,,,,,
133625695,1000,1000,1000,1000,,,,,
133628194,1000,1000,1000,1000,,,,,
133630693,1000,1000,1000,1000,,,,,
133633192,1000,1000,1000,1000,,,,,
133635691,1000,1000,1000,1000,,,,,
133638190,1000,1000,1000,1000,,,,,
133640689,1000,1000,1000,1000,,,,,
133643188,1000,1000,1000,1000,,,,,
133645687,1000,1000,1000,1000,,,,,
133648186,1000,1000,1000,1000,,,,,
133650685,1000,1000,1000,1000,,,,,
133653184,1000,1000,1000,1000,,,,,
133655683,1000,1000,1000,1000,,,,,
133658182,1000,1000,1000,1000,,,,,
133660681,1000,1000,1000,1000,,,,,
133663180,1000,1000,1000,1000,,,,,
133665679,1000,1000,1000,1000,,,,,
133668178,1000,1000,1000,1000,,,,,
133670677,1000,1000,1000,1000,,,,,
133673176,1000,1000,1000,1000,,,,,
133675675,1000,1000,1000,1000,,,,,
133678174,1000,1000,1000,1000,,,,,
133680673,1000,1000,1000,1000,,,,,
133683172,1000,1000,1000,1000,,,,,
133685671,1000,1000,1000,1000,,,,,
133688170,1000,1000,1000,1000,,,,,
133690669,1000,1000,1000,1000,,,,,
133693168,1000,1000,1000,1000,,,,,
133695667,1000,1000,1000,1000,,,,,
133698166,1000,1000,1000,1000,,,,,
133700665,1000,1000,1000,1000,,,,,
133703164,1000,1000,1000,1000,,,,,
133705663,1000,1000,1000,1000,,,,,
133708162,1000,1000,1000,1000,,,,,
133710661,1000,1000,1000,1000,,,,,
133713160,1000,1000,1000,1000,,,,,
133715659,1000,1000,1000,1000,,,,,
133718158,1000,1000,1000,1000,,,,,
133720657,1000,1000,1000,1000,,,,,
133723156,1000,1000,1000,1000,,,,,
133725655,1000,1000,1000,1000,,,,,
133728154,1000,1000,1000,1000,,,,,
133731486,1000,1000,1000,1000,,,,,
133733985,1000,1000,1000,1000,,,,,
133736484,1000,1000,1000,1000,,,,,
133738983,1000,1000,1000,1000,,,,,
133741482,1000,1000,1000,1000,,,,,
133743981,1000,1000,1000,1000,,,,,
133746480,1000,1000,1000,1000,,,,,
133748979,1000,1000,1000,1000,,,,,
133751478,1000,1000,1000,1000,,,,,
133753977,1000,1000,1000,1000,,,,,
133756476,1000,1000,1000,1000,,,,,
133758975,1000,1000,1000,1000,,,,,
133761474,1000,1000,1000,1000,,,,,
133763973,1000,1000,1000,1000,,,,,
133766472,1000,1000,1000,1000,,,,,
133768971,1000,1000,1000,1000,,,,,
133771470,1000,1000,1000,1000,,,,,
133773969,1000,1000,1000,1000,,,,,
133776468,1000,1000,1000,1000,,,,,
133778967,1000,1000,1000,1000,,,,,
133781466,1000,1000,1000,1000,,,,,
133783965,1000,1000,1000,1000,,,,,
133786464,1000,1000,1000,1000,,,,,
133788963,1000,1000,1000,1000,,,,,
133791462,1001,1001,1001,1001,,,,,
133793961,1002,1002,1002,1002,,,,,
133796460,1003,1003,1003,1003,,,,,
133798959,1003,1003,1003,1003,,,,,
133801458,1004,1004,1004,1004,,,,,
133803957,1005,1005,1005,1005,,,,,
133806456,1006,1006,1006,1006,,,,,
133808955,1006,1006,1006,1006,,,,,
133811454,1007,1007,1007,1007,,,,,
133813953,1008,1008,1008,1008,,,,,
133816452,1009,1009,1009,1009,,,,,
133818951,1009,1009,1009,1009,,,,,
133821450,1010,1010,1010,1010,,,,,
133823949,1011,1011,1011,1011,,,,,
133826448,1012,1012,1012,1012,,,,,
133828947,1012,1012,1012,1012,,,,,
133831446,1013,1013,1013,1013,,,,,
133833945,1014,1014,1014,1014,,,,,
133836444,1015,1015,1015,1015,,,,,
133838943,1015,1015,1015,1015,,,,,
133841442,1016,1016,1016,1016,,,,,
133843941,1017,1017,1017,1017,,,,,
133846440,1018,1018,1018,1018,,,,,
133848939,1018,1018,1018,1018,,,,,
133851438,1019,1019,1019,1019,,,,,
133853937,1020,1020,1020,1020,,,,,
133856436,1021,1021,1021,1021,,,,,
133858935,1021,1021,1021,1021,,,,,
133861434,1022,1022,1022,1022,,,,,
133863933,1023,1023,1023,1023,,,,,
133866432,1024,1024,1024,1024,,,,,
133868931,1024,1024,1024,1024,,,,,
133871430,1025,1025,1025,1025,,,,,
133873929,1026,1026,1026,1026,,,,,
133876428,1027,1027,1027,1027,,,,,
133878927,1027,1027,1027,1027,,,,,
133881426,1028,1028,1028,1028,,,,,
133883925,1029,1029,1029,1029,,,,,
133886424,1030,1030,1030,1030,,,,,
133888923,1030,1030,1030,1030,,,,,
133891422,1031,1031,1031,1031,,,,,
133893921,1032,1032,1032,1032,,,,,
133896420,1033,1033,1033,1033,,,,,
133898919,1033,1033,1033,1033,,,,,
133901418,1034,1034,1034,1034,,,,,
133903917,1035,1035,1035,1035,,,,,
133906416,1036,1036,1036,1036,,,,,
133908915,1036,1036,1036,1036,,,,,
133911414,1037,1037,1037,1037,,,,,
133913913,1038,1038,1038,1038,,,,,
133916412,1039,1039,1039,1039,,,,,
133918911,1039,1039,1039,1039,,,,,
133921410,1040,1040,1040,1040,,,,,
133923909,1041,1041,1041,1041,,,,,
133926408,1042,1042,1042,1042,,,,,
133928907,1042,1042,1042,1042,,,,,
133931406,1043,1043,1043,1043,,,,,
133933905,1044,1044,1044,1044,,,,,
133936404,1045,1045,1045,1045,,,,,
133938903,1045,1045,1045,1045,,,,,
133941402,1046,1046,1046,1046,,,,,
133943901,1047,1047,1047,1047,,,,,
133946400,1048,1048,1048,1048,,,,,
133948899,1048,1048,1048,1048,,,,,
133951398,1049,1049,1049,1049,,,,,
133953897,1050,1050,1050,1050,,,,,
133956396,1051,1051,1051,1051,,,,,
133958895,1051,1051,1051,1051,,,,,
133961394,1052,1052,1052,1052,,,,,
133963893,1053,1053,1053,1053,,,,,
133966392,1054,1054,1054,1054,,,,,
133968891,1054,1054,1054,1054,,,,,
133971390,1055,1055,1055,1055,,,,,
133973889,1056,1056,1056,1056,,,,,
133976388,1057,1057,1057,1057,,,,,
133978887,1057,1057,1057,1057,,,,,
133981386,1058,1058,1058,1058,,,,,
133983885,1059,1059,1059,1059,,,,,
133986384,1060,1060,1060,1060,,,,,
133988883,1060,1060,1060,1060,,,,,
133991382,1061,1061,1061,1061,,,,,
133993881,1062,1062,1062,1062,,,,,
133996380,1063,1063,1063,1063,,,,,
133998879,1063,1063,1063,1063,,,,,
134001378,1064,1064,1064,1064,,,,,
134003877,1065,1065,1065,1065,,,,,
134006376,1066,1066,1066,1066,,,,,
134008875,1066,1066,1066,1066,,,,,
134011374,1067,1067,1067,1067,,,,,
134013873,1068,1068,1068,1068,,,,,
134016372,1069,1069,1069,1069,,,,,
134018871,1069,1069,1069,1069,,,,,
134021370,1070,1070,1070,1070,,,,,
134023869,1071,1071,1071,1071,,,,,
134026368,1072,1072,1072,1072,,,,,
134028867,1072,1072,1072,1072,,,,,
134031366,1073,1073,1073,1073,,,,,
134033865,1074,1074,1074,1074,,,,,
134036364,1075,1075,1075,1075,,,,,
134038863,1075,1075,1075,1075,,,,,
134041362,1076,1076,1076,1076,,,,,
134043861,1077,1077,1077,1077,,,,,
134046360,1078,1078,1078,1078,,,,,
134048859,1078,1078,1078,1078,,,,,
134051358,1079,1079,1079,1079,,,,,
134053857,1080,1080,1080,1080,,,,,
134056356,1081,1081,1081,1081,,,,,
134058855,1081,1081,1081,1081,,,,,
134061354,1082,1082,1082,1082,,,,,
134063853,1083,1083,1083,1083,,,,,
134066352,1084,1084,1084,1084,,,,,
134068851,1084,1084,1084,1084,,,,,
134071350,1085,1085,1085,1085,,,,,
134073849,1086,1086,1086,1086,,,,,
134076348,1087,1087,1087,1087,,,,,
134078847,1087,1087,1087,1087,,,,,
134081346,1088,1088,1088,1088,,,,,
134083845,1089,1089,1089,1089,,,,,
134086344,1090,1090,1090,1090,,,,,
134088843,1090,1090,1090,1090,,,,,
134091342,1091,1091,1091,1091,,,,,
134093841,1092,1092,1092,1092,,,,,
134096340,1093,1093,1093,1093,,,,,
134098839,1093,1093,1093,1093,,,,,
134101338,1094,1094,1094,1094,,,,,
134103837,1095,1095,1095,1095,,,,,
134106336,1096,1096,1096,1096,,,,,
134108835,1096,1096,1096,1096,,,,,
134111334,1097,1097,1097,1097,,,,,
134113833,1098,1098,1098,1098,,,,,
134116332,1099,1099,1099,1099,,,,,
134118831,1099,1099,1099,1099,,,,,
134121330,1100,1100,1100,1100,,,,,
134123829,1101,1101,1101,1101,,,,,
134126328,1101,1101,1101,1101,,,,,
134128827,1102,1102,1102,1102,,,,,
134131326,1103,1103,1103,1103,,,,,
134133825,1104,1104,1104,1104,,,,,
134136324,1104,1104,1104,1104,,,,,
134138823,1105,1105,1105,1105,,,,,
134141322,1106,1106,1106,1106,,,,,
134143821,1107,1107,1107,1107,,,,,
134146320,1107,1107,1107,1107,,,,,
134148819,1108,1108,1108,1108,,,,,
134151318,1109,1109,1109,1109,,,,,
134153817,1110,1110,1110,1110,,,,,
134156316,1110,1110,1110,1110,,,,,
134158815,1111,1111,1111,1111,,,,,
134161314,1112,1112,1112,1112,,,,,
134163813,1113,1113,1113,1113,,,,,
134166312,1113,1113,1113,1113,,,,,
134168811,1114,1114,1114,1114,,,,,
134171310,1115,1115,1115,1115,,,,,
134173809,1116,1116,1116,1116,,,,,
134176308,1116,1116,1116,1116,,,,,
134178807,1117,1117,1117,1117,,,,,
134181306,1118,1118,1118,1118,,,,,
134183805,1119,1119,1119,1119,,,,,
134186304,1119,1119,1119,1119,,,,,
134188803,1120,1120,1120,1120,,,,,
134191302,1121,1121,1121,1121,,,,,
134193801,1122,1122,1122,1122,,,,,
134196300,1122,1122,1122,1122,,,,,
134198799,1123,1123,1123,1123,,,,,
134201298,1124,1124,1124,1124,,,,,
134203797,1125,1125,1125,1125,,,,,
134206296,1125,1125,1125,1125,,,,,
134208795,1126,1126,1126,1126,,,,,
134211294,1127,1127,1127,1127,,,,,
134213793,1128,1128,1128,1128,,,,,
134216292,1128,1128,1128,1128,,,,,
134218791,1129,1129,1129,1129,,,,,
134221290,1130,1130,1130,1130,,,,,
134223789,1131,1131,1131,1131,,,,,
134226288,1131,1131,1131,1131,,,,,
134228787,1132,1132,1132,1132,,,,,
134231286,1133,1133,1133,1133,,,,,
134233785,1134,1134,1134,1134,,,,,
134236284,1134,1134,1134,1134,,,,,
134238783,1135,1135,1135,1135,,,,,
134241282,1136,1136,1136,1136,,,,,
134243781,1137,1137,1137,1137,,,,,
134246280,1137,1137,1137,1137,,,,,
134248779,1138,1138,1138,1138,,,,,
134251278,1139,1139,1139,1139,,,,,
134253777,1140,1140,1140,1140,,,,,
134256276,1140,1140,1140,1140,,,,,
134258775,1141,1141,1141,1141,,,,,
134261274,1142,1142,1142,1142,,,,,
134263773,1143,1143,1143,1143,,,,,
134266272,1143,1143,1143,1143,,,,,
134268771,1144,1144,1144,1144,,,,,
134271270,1145,1145,1145,1145,,,,,
134273769,1146,1146,1146,1146,,,,,
134276268,1146,1146,1146,1146,,,,,
134278767,1147,1147,1147,1147,,,,,
134281266,1148,1148,1148,1148,,,,,
134283765,1149,1149,1149,1149,,,,,
134286264,1149,1149,1149,1149,,,,,
134288763,1150,1150,1150,1150,,,,,
134291262,1165,1150,1150,1166,,,,,
134293761,1176,1154,1155,1177,,,,,
134296260,1184,1162,1163,1185,,,,,
134298759,1191,1170,1171,1193,,,,,
134301258,1199,1178,1179,1200,,,,,
134303757,1206,1185,1187,1207,,,,,
134306256,1213,1193,1194,1215,,,,,
134308755,1221,1200,1201,1222,,,,,
134311254,1228,1207,1209,1229,,,,,
134313753,1235,1215,1216,1236,,,,,
134316252,1241,1222,1223,1243,,,,,
134318751,1248,1229,1230,1249,,,,,
134321250,1255,1235,1237,1256,,,,,
134323749,1261,1242,1243,1262,,,,,
134326248,1268,1249,1250,1269,,,,,
134328747,1274,1255,1257,1275,,,,,
134331246,1281,1262,1263,1282,,,,,
134333745,1287,1268,1269,1288,,,,,
134336244,1293,1275,1276,1294,,,,,
134338743,1299,1281,1282,1300,,,,,
134341242,1305,1287,1288,1306,,,,,
134343741,1311,1293,1294,1312,,,,,
134346240,1317,1299,1300,1318,,,,,
134348739,1323,1305,1306,1324,,,,,
134351238,1328,1311,1312,1329,,,,,
134353737,1334,1317,1318,1335,,,,,
134356236,1340,1323,1324,1341,,,,,
134358735,1345,1329,1330,1346,,,,,
134361234,1351,1334,1335,1352,,,,,
134363733,1356,1340,1341,1357,,,,,
134366232,1362,1346,1347,1363,,,,,
134368731,1367,1351,1352,1368,,,,,
134371230,1373,1357,1358,1374,,,,,
134373729,1378,1362,1363,1379,,,,,
134376228,1383,1368,1368,1384,,,,,
134378727,1388,1373,1374,1389,,,,,
134381226,1394,1378,1379,1395,,,,,
134383725,1399,1383,1384,1400,,,,,
134386224,1404,1389,1390,1405,,,,,
134388723,1409,1394,1395,1410,,,,,
134391222,1414,1399,1400,1415,,,,,
134393721,1419,1404,1405,1420,,,,,
134396220,1424,1409,1410,1425,,,,,
134398719,1429,1414,1415,1430,,,,,
134401218,1434,1419,1420,1435,,,,,
134403717,1439,1424,1425,1439,,,,,
134406216,1443,1429,1430,1444,,,,,
134408715,1448,1434,1435,1449,,,,,
134411214,1453,1438,1439,1454,,,,,
134413713,1458,1443,1444,1458,,,,,
134416212,1462,1448,1449,1463,,,,,
134418711,1467,1453,1454,1468,,,,,
134421210,1472,1457,1458,1472,,,,,
134423709,1476,1462,1463,1477,,,,,
134426208,1481,1467,1468,1481,,,,,
134428707,1485,1471,1472,1486,,,,,
134431206,1490,1476,1477,1490,,,,,
134433705,1494,1480,1481,1495,,,,,
134436204,1499,1485,1486,1499,,,,,
134438703,1503,1489,1490,1504,,,,,
134441202,1508,1494,1495,1508,,,,,
134443701,1512,1498,1499,1513,,,,,
134446200,1516,1503,1504,1517,,,,,
134448699,1521,1507,1508,1521,,,,,
134451198,1525,1511,1512,1526,,,,,
134453697,1529,1516,1517,1530,,,,,
134456196,1533,1520,1521,1534,,,,,
134458695,1538,1524,1525,1538,,,,,
134461194,1542,1529,1529,1543,,,,,
134463693,1546,1533,1534,1547,,,,,
134466192,1550,1537,1538,1551,,,,,
134468691,1554,1541,1542,1555,,,,,
134471190,1559,1545,1546,1559,,,,,
134473689,1563,1550,1550,1563,,,,,
134476188,1567,1554,1554,1568,,,,,
134478687,1571,1558,1558,1572,,,,,
134481186,1575,1562,1563,1576,,,,,
134483685,1579,1566,1567,1580,,,,,
134486184,1583,1570,1571,1584,,,,,
134488683,1587,1574,1575,1588,,,,,
134491182,1591,1578,1579,1592,,,,,
134493681,1595,1582,1583,1596,,,,,
134496180,1599,1586,1587,1600,,,,,
134498679,1603,1590,1590,1603,,,,,
134501178,1607,1594,1594,1607,,,,,
134503677,1611,1598,1598,1611,,,,,
134506176,1614,1601,1602,1615,,,,,
134508675,1618,1605,1606,1619,,,,,
134511174,1622,1609,1610,1623,,,,,
134513673,1626,1613,1614,1627,,,,,
134516172,1630,1617,1617,1630,,,,,
134518671,1634,1621,1621,1634,,,,,
134521170,1637,1624,1625,1638,,,,,
134523669,1641,1628,1629,1642,,,,,
134526168,1645,1632,1633,1646,,,,,
134528667,1648,1636,1636,1649,,,,,
134531166,1652,1639,1640,1653,,,,,
134533665,1656,1643,1644,1657,,,,,
134536164,1660,1647,1647,1660,,,,,
134538663,1663,1650,1651,1664,,,,,
134541162,1667,1654,1655,1668,,,,,
134543661,1670,1658,1658,1671,,,,,
134546160,1674,1661,1662,1675,,,,,
134548659,1678,1665,1666,1679,,,,,
134551158,1681,1669,1669,1682,,,,,
134553657,1685,1672,1673,1686,,,,,
134556156,1688,1676,1676,1689,,,,,
134558655,1692,1679,1680,1693,,,,,
134561154,1695,1683,1683,1696,,,,,
134563653,1699,1686,1687,1700,,,,,
134566152,1703,1690,1690,1703,,,,,
134568651,1706,1693,1694,1707,,,,,
134571150,1709,1697,1697,1710,,,,,
134573649,1713,1700,1701,1714,,,,,
134576148,1716,1704,1704,1717,,,,,
134578647,1720,1707,1708,1721,,,,,
134581146,1723,1711,1711,1724,,,,,
134583645,1727,1714,1715,1727,,,,,
134586144,1730,1718,1718,1731,,,,,
134588643,1733,1721,1722,1734,,,,,
134591142,1737,1725,1725,1738,,,,,
134593641,1740,1728,1728,1741,,,,,
134596140,1743,1731,1732,1744,,,,,
134598639,1747,1735,1735,1748,,,,,
134601138,1750,1738,1738,1751,,,,,
134603637,1753,1741,1742,1754,,,,,
134606136,1757,1745,1745,1758,,,,,
134608635,1760,1748,1748,1761,,,,,
134611134,1763,1751,1752,1764,,,,,
134613633,1767,1755,1755,1768,,,,,
134616132,1770,1758,1758,1771,,,,,
134618631,1773,1761,1762,1774,,,,,
134621130,1776,1764,1765,1777,,,,,
134623629,1780,1768,1768,1781,,,,,
134626128,1783,1771,1771,1784,,,,,
134628627,1786,1774,1774,1787,,,,,
134631126,1789,1777,1778,1790,,,,,
134633625,1793,1781,1781,1793,,,,,
134636124,1796,1784,1784,1797,,,,,
134638623,1799,1787,1787,1800,,,,,
134641122,1802,1790,1790,1803,,,,,
134643621,1805,1793,1794,1806,,,,,
134646120,1808,1796,1797,1809,,,,,
134648619,1812,1800,1800,1813,,,,,
134651118,1815,1803,1803,1816,,,,,
134653617,1818,1806,1806,1819,,,,,
134656116,1821,1809,1809,1822,,,,,
134658615,1824,1812,1812,1825,,,,,
134661114,1827,1815,1815,1828,,,,,
134663613,1830,1818,1818,1831,,,,,
134666112,1833,1821,1822,1834,,,,,
134668611,1836,1825,1825,1837,,,,,
134671110,1839,1828,1828,1841,,,,,
134673609,1842,1831,1831,1844,,,,,
134676108,1845,1834,1834,1847,,,,,
134678607,1848,1837,1837,1850,,,,,
134681106,1852,1840,1840,1853,,,,,
134683605,1855,1843,1843,1856,,,,,
134686104,1858,1846,1846,1859,,,,,
134688603,1861,1849,1849,1862,,,,,
134691102,1864,1852,1852,1865,,,,,
134693601,1867,1855,1855,1868,,,,,
134696100,1870,1858,1858,1871,,,,,
134698599,1873,1861,1861,1874,,,,,
134701098,1876,1864,1864,1877,,,,,
134703597,1879,1867,1867,1880,,,,,
134706096,1881,1870,1870,1883,,,,,
134708595,1884,1873,1872,1886,,,,,
134711094,1887,1875,1875,1889,,,,,
134713593,1890,1878,1878,1892,,,,,
134716092,1893,1881,1881,1895,,,,,
134718591,1896,1884,1884,1897,,,,,
134721090,1899,1887,1887,1900,,,,,
134723589,1902,1890,1890,1903,,,,,
134726088,1905,1893,1893,1906,,,,,
134728587,1908,1896,1896,1909,,,,,
134731086,1911,1899,1899,1912,,,,,
134733585,1914,1901,1902,1915,,,,,
134736084,1916,1904,1904,1918,,,,,
134738583,1919,1907,1907,1920,,,,,
134741082,1922,1910,1910,1923,,,,,
134743581,1925,1913,1913,1926,,,,,
134746080,1928,1916,1916,1929,,,,,
134748579,1931,1919,1919,1932,,,,,
134751078,1930,1918,1919,1931,,,,,
134753577,1930,1918,1918,1931,,,,,
134756076,1929,1917,1917,1930,,,,,
134758575,1928,1916,1916,1929,,,,,
134761074,1927,1916,1916,1929,,,,,
134763573,1927,1915,1915,1928,,,,,
134766072,1926,1914,1915,1927,,,,,
134768571,1926,1914,1914,1927,,,,,
134771070,1925,1914,1914,1927,,,,,
134773569,1925,1913,1913,1926,,,,,
134776068,1925,1913,1913,1926,,,,,
134778567,1924,1913,1913,1925,,,,,
134781066,1924,1913,1913,1925,,,,,
134783565,1923,1913,1913,1924,,,,,
134786064,1923,1913,1913,1924,,,,,
134788563,1922,1913,1913,1923,,,,,
134791062,1922,1912,1912,1923,,,,,
134793561,1921,1912,1912,1922,,,,,
134796060,1920,1911,1912,1921,,,,,
134798559,1919,1911,1911,1920,,,,,
134801058,1918,1910,1910,1919,,,,,
134803557,1917,1909,1910,1918,,,,,
134806056,1916,1908,1909,1917,,,,,
134808555,1915,1907,1908,1915,,,,,
134811054,1913,1906,1906,1914,,,,,
134813553,1912,1904,1905,1912,,,,,
134816052,1910,1903,1903,1911,,,,,
134818551,1908,1901,1902,1909,,,,,
134821050,1906,1899,1900,1907,,,,,
134823549,1904,1897,1898,1905,,,,,
134826048,1902,1895,1896,1902,,,,,
134828547,1899,1893,1893,1900,,,,,
134831046,1897,1890,1891,1898,,,,,
134833545,1894,1888,1889,1895,,,,,
134836044,1892,1886,1886,1893,,,,,
134838543,1889,1883,1884,1890,,,,,
134841042,1886,1880,1881,1887,,,,,
134843541,1884,1878,1878,1884,,,,,
134846040,1881,1875,1875,1881,,,,,
134848539,1878,1872,1873,1878,,,,,
134851038,1875,1869,1870,1875,,,,,
134853537,1872,1866,1867,1872,,,,,
134856036,1869,1863,1864,1869,,,,,
134858535,1865,1860,1861,1866,,,,,
134861034,1862,1857,1857,1863,,,,,
134863533,1859,1854,1854,1859,,,,,
134866032,1856,1850,1851,1856,,,,,
134868531,1852,1847,1848,1853,,,,,
134871030,1849,1844,1845,1849,,,,,
