TimeUS,M1,M2,M3,M4,TimeUS,C1,C2,C3,C4
114023539,1000,1000,1000,1000,114028537,1000,1000,1000,1000
114026038,1000,1000,1000,1000,114128497,1000,1000,1000,1000
114028537,1000,1000,1000,1000,114228457,1000,1000,1000,1000
114031036,1000,1000,1000,1000,114328417,1000,1000,1000,1000
114033535,1000,1000,1000,1000,114428377,1000,1000,1000,1000
114036034,1000,1000,1000,1000,114528337,1000,1000,1000,1000
114038533,1000,1000,1000,1000,114628297,1000,1000,1000,1000
114041032,1000,1000,1000,1000,114728257,1000,1000,1000,1000
114043531,1000,1000,1000,1000,114828217,1000,1000,1000,1000
114046030,1000,1000,1000,1000,114928177,1000,1000,1000,1000
114048529,1000,1000,1000,1000,115028970,1000,1000,1000,1000
114051028,1000,1000,1000,1000,115128930,1000,1000,1000,1000
114053527,1000,1000,1000,1000,115228890,1000,1000,1000,1000
114056026,1000,1000,1000,1000,115328850,1000,1000,1000,1000
114058525,1000,1000,1000,1000,115428810,1000,1000,1000,1000
114061024,1000,1000,1000,1000,115528770,1000,1000,1000,1000
114063523,1000,1000,1000,1000,115628730,1000,1000,1000,1000
114066022,1000,1000,1000,1000,115728690,1000,1000,1000,1000
114068521,1000,1000,1000,1000,115828650,1000,1000,1000,1000
114071020,1000,1000,1000,1000,115928610,1000,1000,1000,1000
114073519,1000,1000,1000,1000,116028570,1001,1001,1001,1001
114076018,1000,1000,1000,1000,116128530,1031,1031,1031,1031
114078517,1000,1000,1000,1000,116228490,1061,1061,1061,1061
114081016,1000,1000,1000,1000,116328450,1091,1091,1091,1091
114083515,1000,1000,1000,1000,116428410,1121,1121,1121,1121
114086014,1000,1000,1000,1000,116528370,1165,1150,1151,1166
114088513,1000,1000,1000,1000,116628330,1413,1400,1401,1414
114091012,1000,1000,1000,1000,116728290,1590,1579,1579,1591
114093511,1000,1000,1000,1000,116828250,1736,1725,1726,1736
114096010,1000,1000,1000,1000,116928210,1863,1852,1853,1863
114098509,1000,1000,1000,1000,117028170,1925,1918,1919,1926
114101008,1000,1000,1000,1000,117128963,1816,1812,1811,1819
114103507,1000,1000,1000,1000,117228923,1689,1690,1688,1692
114106006,1000,1000,1000,1000,117328883,1628,1631,1631,1630
114108505,1000,1000,1000,1000,117428843,1618,1622,1622,1619
114111004,1000,1000,1000,1000,117528803,1622,1626,1626,1622
114113503,1000,1000,1000,1000,117628763,1623,1625,1625,1622
114116002,1000,1000,1000,1000,117728723,1618,1617,1618,1617
114118501,1000,1000,1000,1000,117828683,1612,1611,1611,1612
114121000,1000,1000,1000,1000,117928643,1609,1606,1606,1609
114123499,1000,1000,1000,1000,118028603,1610,1608,1608,1610
114125998,1000,1000,1000,1000,118128563,1612,1611,1611,1611
114128497,1000,1000,1000,1000,118228523,1614,1614,1614,1612
114130996,1000,1000,1000,1000,118328483,1603,1603,1605,1600
114133495,1000,1000,1000,1000,118428443,1578,1580,1587,1571
114135994,1000,1000,1000,1000,118528403,1567,1567,1572,1562
114138493,1000,1000,1000,1000,118628363,1556,1556,1556,1556
114140992,1000,1000,1000,1000,118728323,1549,1547,1542,1555
114143491,1000,1000,1000,1000,118828283,1542,1541,1532,1550
114145990,1000,1000,1000,1000,118928243,1536,1535,1528,1542
114148489,1000,1000,1000,1000,119028203,1530,1530,1526,1534
114150988,1000,1000,1000,1000,119128163,1528,1527,1526,1528
114153487,1000,1000,1000,1000,119228956,1527,1528,1529,1526
114155986,1000,1000,1000,1000,119328916,1530,1530,1532,1527
114158485,1000,1000,1000,1000,119428876,1533,1534,1537,1530
114160984,1000,1000,1000,1000,119528836,1536,1536,1539,1534
114163483,1000,1000,1000,1000,119628796,1540,1540,1543,1539
114165982,1000,1000,1000,1000,119728756,1543,1543,1544,1543
114168481,1000,1000,1000,1000,119828716,1546,1546,1546,1546
114170980,1000,1000,1000,1000,119928676,1549,1549,1549,1550
114173479,1000,1000,1000,1000,120028636,1552,1552,1552,1553
114175978,1000,1000,1000,1000,120128596,1554,1554,1553,1555
114178477,1000,1000,1000,1000,120228556,1557,1558,1555,1557
114180976,1000,1000,1000,1000,120328516,1560,1560,1557,1559
114183475,1000,1000,1000,1000,120428476,1561,1561,1561,1562
114185974,1000,1000,1000,1000,120528436,1561,1560,1564,1563
114188473,1000,1000,1000,1000,120628396,1561,1561,1566,1565
114190972,1000,1000,1000,1000,120728356,1563,1563,1568,1568
114193471,1000,1000,1000,1000,120828316,1563,1564,1568,1568
114195970,1000,1000,1000,1000,120928276,1564,1565,1568,1568
114198469,1000,1000,1000,1000,121028236,1567,1567,1569,1569
114200968,1000,1000,1000,1000,121128196,1568,1569,1569,1569
114203467,1000,1000,1000,1000,121228156,1570,1571,1570,1570
114205966,1000,1000,1000,1000,121328949,1572,1572,1570,1571
114208465,1000,1000,1000,1000,121428909,1573,1573,1570,1570
114210964,1000,1000,1000,1000,121528869,1573,1573,1570,1570
114213463,1000,1000,1000,1000,121628829,1576,1576,1573,1572
114215962,1000,1000,1000,1000,121728789,1576,1575,1573,1572
114218461,1000,1000,1000,1000,121828749,1576,1576,1574,1573
114220960,1000,1000,1000,1000,121928709,1576,1575,1574,1573
114223459,1000,1000,1000,1000,122028669,1576,1577,1575,1575
114225958,1000,1000,1000,1000,122128629,1577,1577,1576,1577
114228457,1000,1000,1000,1000,122228589,1576,1577,1577,1577
114230956,1000,1000,1000,1000,122328549,1576,1576,1576,1577
114233455,1000,1000,1000,1000,122428509,1577,1577,1577,1578
114235954,1000,1000,1000,1000,122528469,1577,1576,1577,1577
114238453,1000,1000,1000,1000,122628429,1577,1577,1578,1578
114240952,1000,1000,1000,1000,122728389,1577,1577,1578,1578
114243451,1000,1000,1000,1000,122828349,1577,1577,1578,1578
114245950,1000,1000,1000,1000,122928309,1576,1577,1577,1577
114248449,1000,1000,1000,1000,123028269,1577,1578,1577,1578
114250948,1000,1000,1000,1000,123128229,1577,1577,1577,1577
114253447,1000,1000,1000,1000,123228189,1578,1577,1577,1577
114255946,1000,1000,1000,1000,123328982,1578,1578,1578,1578
114258445,1000,1000,1000,1000,123428942,1578,1578,1577,1578
114260944,1000,1000,1000,1000,123528902,1579,1578,1578,1578
114263443,1000,1000,1000,1000,123628862,1579,1579,1579,1578
114265942,1000,1000,1000,1000,123728822,1578,1579,1578,1579
114268441,1000,1000,1000,1000,123828782,1579,1579,1579,1579
114270940,1000,1000,1000,1000,123928742,1578,1579,1579,1579
114273439,1000,1000,1000,1000,124028702,1579,1579,1579,1579
114275938,1000,1000,1000,1000,124128662,1579,1579,1579,1579
114278437,1000,1000,1000,1000,124228622,1579,1578,1579,1578
114280936,1000,1000,1000,1000,124328582,1578,1578,1578,1578
114283435,1000,1000,1000,1000,124428542,1579,1579,1579,1579
114285934,1000,1000,1000,1000,124528502,1579,1579,1579,1580
114288433,1000,1000,1000,1000,124628462,1579,1580,1580,1579
114290932,1000,1000,1000,1000,124728422,1580,1580,1580,1580
114293431,1000,1000,1000,1000,124828382,1579,1580,1579,1580
114295930,1000,1000,1000,1000,124928342,1580,1579,1579,1580
114298429,1000,1000,1000,1000,125028302,1581,1580,1580,1580
114300928,1000,1000,1000,1000,125128262,1581,1581,1581,1581
114303427,1000,1000,1000,1000,125228222,1581,1581,1581,1581
114305926,1000,1000,1000,1000,125328182,1580,1581,1580,1581
114308425,1000,1000,1000,1000,125428975,1580,1580,1580,1580
114310924,1000,1000,1000,1000,125528935,1580,1581,1581,1581
114313423,1000,1000,1000,1000,125628895,1581,1581,1581,1581
114315922,1000,1000,1000,1000,125728855,1580,1580,1580,1581
114318421,1000,1000,1000,1000,125828815,1580,1580,1580,1580
114320920,1000,1000,1000,1000,125928775,1580,1580,1580,1580
114323419,1000,1000,1000,1000,126028735,1580,1580,1580,1580
114325918,1000,1000,1000,1000,126128695,1580,1580,1580,1580
114328417,1000,1000,1000,1000,126228655,1580,1581,1581,1581
114330916,1000,1000,1000,1000,126328615,1581,1581,1581,1581
114333415,1000,1000,1000,1000,126428575,1581,1582,1586,1575
114335914,1000,1000,1000,1000,126528535,1581,1583,1588,1573
114338413,1000,1000,1000,1000,126628495,1579,1582,1580,1574
114340912,1000,1000,1000,1000,126728455,1578,1581,1571,1573
114343411,1000,1000,1000,1000,126828415,1577,1579,1563,1569
114345910,1000,1000,1000,1000,126928375,1577,1579,1557,1564
114348409,1000,1000,1000,1000,127028335,1579,1580,1556,1560
114350908,1000,1000,1000,1000,127128295,1581,1579,1555,1556
114353407,1000,1000,1000,1000,127228255,1580,1578,1555,1553
114355906,1000,1000,1000,1000,127328215,1580,1579,1556,1553
114358405,1000,1000,1000,1000,127428175,1579,1579,1556,1554
114360904,1000,1000,1000,1000,127528968,1578,1578,1555,1554
114363403,1000,1000,1000,1000,127628928,1577,1579,1555,1554
114365902,1000,1000,1000,1000,127728888,1575,1577,1552,1552
114368401,1000,1000,1000,1000,127828848,1576,1578,1552,1552
114370900,1000,1000,1000,1000,127928808,1576,1578,1549,1549
114373399,1000,1000,1000,1000,128028768,1579,1580,1547,1548
114375898,1000,1000,1000,1000,128128728,1582,1582,1546,1546
114378397,1000,1000,1000,1000,128228688,1584,1585,1543,1542
114380896,1000,1000,1000,1000,128328648,1588,1588,1541,1540
114383395,1000,1000,1000,1000,128428608,1591,1591,1538,1538
114385894,1000,1000,1000,1000,128528568,1594,1594,1536,1537
114388393,1000,1000,1000,1000,128628528,1596,1596,1535,1537
114390892,1000,1000,1000,1000,128728488,1596,1596,1536,1537
114393391,1000,1000,1000,1000,128828448,1595,1595,1537,1539
114395890,1000,1000,1000,1000,128928408,1593,1593,1541,1543
114398389,1000,1000,1000,1000,129028368,1590,1588,1546,1549
114400888,1000,1000,1000,1000,129128328,1584,1580,1554,1558
114403387,1000,1000,1000,1000,129228288,1575,1571,1566,1568
114405886,1000,1000,1000,1000,129328248,1564,1559,1577,1579
114408385,1000,1000,1000,1000,129428208,1551,1548,1589,1590
114410884,1000,1000,1000,1000,129528168,1541,1539,1601,1601
114413383,1000,1000,1000,1000,129628961,1533,1533,1609,1609
114415882,1000,1000,1000,1000,129728921,1529,1530,1615,1614
114418381,1000,1000,1000,1000,129828881,1529,1532,1617,1616
114420880,1000,1000,1000,1000,129928841,1532,1535,1614,1613
114423379,1000,1000,1000,1000,130028801,1538,1541,1609,1609
114425878,1000,1000,1000,1000,130128761,1546,1547,1602,1602
114428377,1000,1000,1000,1000,130228721,1556,1556,1595,1595
114430876,1000,1000,1000,1000,130328681,1565,1565,1588,1587
114433375,1000,1000,1000,1000,130428641,1573,1572,1581,1580
114435874,1000,1000,1000,1000,130528601,1579,1578,1574,1573
114438373,1000,1000,1000,1000,130628561,1584,1583,1570,1569
114440872,1000,1000,1000,1000,130728521,1587,1585,1567,1567
114443371,1000,1000,1000,1000,130828481,1587,1586,1565,1565
114445870,1000,1000,1000,1000,130928441,1587,1586,1566,1566
114448369,1000,1000,1000,1000,131028401,1587,1586,1569,1569
114450868,1000,1000,1000,1000,131128361,1583,1582,1571,1571
114453367,1000,1000,1000,1000,131228321,1582,1582,1576,1576
114455866,1000,1000,1000,1000,131328281,1578,1578,1577,1577
114458365,1000,1000,1000,1000,131428241,1575,1575,1580,1579
114460864,1000,1000,1000,1000,131528201,1573,1574,1582,1582
114463363,1000,1000,1000,1000,131628161,1571,1572,1582,1583
114465862,1000,1000,1000,1000,131728954,1573,1574,1585,1585
114468361,1000,1000,1000,1000,131828914,1572,1572,1583,1583
114470860,1000,1000,1000,1000,131928874,1572,1572,1582,1582
114473359,1000,1000,1000,1000,132028834,1573,1574,1581,1581
114475858,1000,1000,1000,1000,132128794,1576,1576,1581,1581
114478357,1000,1000,1000,1000,132228754,1576,1576,1579,1579
114480856,1000,1000,1000,1000,132328714,1578,1578,1578,1578
114483355,1000,1000,1000,1000,132428674,1580,1580,1577,1577
114485854,1000,1000,1000,1000,132528634,1580,1579,1576,1576
114488353,1000,1000,1000,1000,132628594,1581,1581,1577,1576
114490852,1000,1000,1000,1000,132728554,1581,1580,1576,1576
114493351,1000,1000,1000,1000,132828514,1581,1581,1577,1577
114495850,1000,1000,1000,1000,132928474,1581,1580,1577,1578
114498349,1000,1000,1000,1000,133028434,1581,1581,1579,1578
114500848,1000,1000,1000,1000,133128394,1579,1579,1578,1578
114503347,1000,1000,1000,1000,133228354,1580,1580,1580,1580
114505846,1000,1000,1000,1000,133328314,1579,1579,1580,1580
114508345,1000,1000,1000,1000,133428274,1579,1580,1581,1581
114510844,1000,1000,1000,1000,133528234,1579,1579,1581,1581
114513343,1000,1000,1000,1000,133628194,1580,1580,1581,1582
114515842,1000,1000,1000,1000,133728154,1384,1384,1466,1579
114518341,1000,1000,1000,1000,133828947,1488,1486,1592,1590
114520840,1000,1000,1000,1000,133928907,1545,1538,1650,1558
114523339,1000,1000,1000,1000,134028867,1916,1911,1944,1688
114525838,1000,1000,1000,1000,134128827,1884,1876,1851,1708
114528337,1000,1000,1000,1000,134228787,1761,1753,1632,1666
114530836,1000,1000,1000,1000,134328747,1680,1676,1493,1661
114533335,1000,1000,1000,1000,134428707,1634,1641,1480,1645
114535834,1000,1000,1000,1000,134528667,1601,1617,1509,1608
114538333,1000,1000,1000,1000,134628627,1571,1587,1538,1560
114540832,1000,1000,1000,1000,134728587,1549,1559,1559,1528
114543331,1000,1000,1000,1000,134828547,1539,1544,1575,1521
114545830,1000,1000,1000,1000,134928507,1538,1537,1580,1532
114548329,1000,1000,1000,1000,135028467,1540,1535,1577,1547
114550828,1000,1000,1000,1000,135128427,1540,1535,1567,1559
114553327,1000,1000,1000,1000,135228387,1540,1538,1557,1563
114555826,1000,1000,1000,1000,135328347,1544,1544,1550,1562
114558325,1000,1000,1000,1000,135428307,1549,1550,1545,1557
114560824,1000,1000,1000,1000,135528267,1556,1558,1544,1551
114563323,1000,1000,1000,1000,135628227,1564,1566,1543,1544
114565822,1000,1000,1000,1000,135728187,1572,1573,1542,1539
114568321,1000,1000,1000,1000,135828980,1580,1580,1543,1537
114570820,1000,1000,1000,1000,135928940,1584,1584,1541,1537
114573319,1000,1000,1000,1000,136028900,1587,1587,1540,1537
114575818,1000,1000,1000,1000,136128860,1589,1589,1539,1538
114578317,1000,1000,1000,1000,136228820,1590,1590,1539,1540
114580816,1000,1000,1000,1000,136328780,1590,1590,1540,1542
114583315,1000,1000,1000,1000,136428740,1589,1591,1542,1543
114585814,1000,1000,1000,1000,136528700,1589,1590,1542,1544
114588313,1000,1000,1000,1000,136628660,1589,1590,1545,1547
114590812,1000,1000,1000,1000,136728620,1587,1588,1549,1550
114593311,1000,1000,1000,1000,136828580,1585,1584,1553,1554
114595810,1000,1000,1000,1000,136928540,1581,1579,1559,1560
114598309,1000,1000,1000,1000,137028500,1575,1573,1565,1566
114600808,1000,1000,1000,1000,137128460,1570,1567,1573,1575
114603307,1000,1000,1000,1000,137228420,1563,1561,1581,1583
114605806,1000,1000,1000,1000,137328380,1556,1555,1589,1590
114608305,1000,1000,1000,1000,137428340,1550,1549,1595,1595
114610804,1000,1000,1000,1000,137528300,1547,1546,1600,1599
114613303,1000,1000,1000,1000,137628260,1545,1546,1602,1602
114615802,1000,1000,1000,1000,137728220,1545,1546,1602,1602
114618301,1000,1000,1000,1000,137828180,1548,1550,1602,1601
114620800,1000,1000,1000,1000,137928973,1553,1554,1600,1599
114623299,1000,1000,1000,1000,138028933,1557,1558,1595,1594
114625798,1000,1000,1000,1000,138128893,1563,1564,1591,1590
114628297,1000,1000,1000,1000,138228853,1568,1568,1586,1586
114630796,1000,1000,1000,1000,138328813,1572,1572,1581,1581
114633295,1000,1000,1000,1000,138428773,1577,1577,1577,1577
114635794,1000,1000,1000,1000,138528733,1580,1579,1574,1574
114638293,1000,1000,1000,1000,138628693,1582,1581,1573,1573
114640792,1000,1000,1000,1000,138728653,1584,1582,1573,1573
114643291,1000,1000,1000,1000,138828613,1583,1582,1572,1572
114645790,1000,1000,1000,1000,138928573,1583,1583,1575,1575
114648289,1000,1000,1000,1000,139028533,1581,1581,1576,1576
114650788,1000,1000,1000,1000,139128493,1579,1580,1577,1577
114653287,1000,1000,1000,1000,139228453,1578,1578,1579,1579
114655786,1000,1000,1000,1000,139328413,1577,1578,1581,1581
114658285,1000,1000,1000,1000,139428373,1576,1577,1583,1582
114660784,1000,1000,1000,1000,139528333,1576,1576,1583,1583
114663283,1000,1000,1000,1000,139628293,1576,1575,1583,1583
114665782,1000,1000,1000,1000,139728253,1576,1576,1583,1583
114668281,1000,1000,1000,1000,139828213,1575,1575,1582,1581
114670780,1000,1000,1000,1000,139928173,1576,1576,1581,1582
114673279,1000,1000,1000,1000,140028966,1577,1577,1580,1581
114675778,1000,1000,1000,1000,140128926,1578,1578,1580,1580
114678277,1000,1000,1000,1000,140228886,1580,1579,1580,1580
114680776,1000,1000,1000,1000,140328846,1579,1580,1579,1579
114683275,1000,1000,1000,1000,140428806,1581,1581,1580,1580
114685774,1000,1000,1000,1000,140528766,1581,1581,1579,1579
114688273,1000,1000,1000,1000,140628726,1581,1581,1578,1579
114690772,1000,1000,1000,1000,140728686,1581,1581,1579,1579
114693271,1000,1000,1000,1000,140828646,1580,1580,1578,1578
114695770,1000,1000,1000,1000,140928606,1581,1580,1579,1579
114698269,1000,1000,1000,1000,141028566,1580,1580,1580,1579
114700768,1000,1000,1000,1000,141128526,1579,1579,1580,1579
114703267,1000,1000,1000,1000,141228486,1579,1580,1580,1580
114705766,1000,1000,1000,1000,141328446,1580,1580,1580,1581
114708265,1000,1000,1000,1000,141428406,1579,1579,1581,1580
114710764,1000,1000,1000,1000,141528366,1580,1580,1581,1581
114713263,1000,1000,1000,1000,141628326,1579,1579,1580,1581
114715762,1000,1000,1000,1000,141728286,1580,1579,1580,1580
114718261,1000,1000,1000,1000,141828246,1580,1579,1580,1580
114720760,1000,1000,1000,1000,141928206,1580,1579,1580,1580
114723259,1000,1000,1000,1000,142028166,1579,1579,1580,1580
114725758,1000,1000,1000,1000,142128959,1580,1581,1580,1580
114728257,1000,1000,1000,1000,142228919,1582,1581,1581,1581
114730756,1000,1000,1000,1000,142328879,1581,1581,1581,1581
114733255,1000,1000,1000,1000,142428839,1582,1582,1582,1581
114735754,1000,1000,1000,1000,142528799,1581,1583,1588,1573
114738253,1000,1000,1000,1000,142628759,1580,1584,1583,1572
114740752,1000,1000,1000,1000,142728719,1579,1583,1575,1572
114743251,1000,1000,1000,1000,142828679,1578,1581,1566,1570
114745750,1000,1000,1000,1000,142928639,1579,1580,1559,1567
114748249,1000,1000,1000,1000,143028599,1581,1581,1557,1563
114750748,1000,1000,1000,1000,143128559,1580,1579,1554,1557
114753247,1000,1000,1000,1000,143228519,1581,1580,1554,1555
114755746,1000,1000,1000,1000,143328479,1582,1580,1556,1554
114758245,1000,1000,1000,1000,143428439,1580,1580,1556,1553
114760744,1000,1000,1000,1000,143528399,1579,1580,1556,1554
114763243,1000,1000,1000,1000,143628359,1578,1579,1556,1555
114765742,1000,1000,1000,1000,143728319,1576,1578,1554,1554
114768241,1000,1000,1000,1000,143828279,1576,1578,1553,1554
114770740,1000,1000,1000,1000,143928239,1576,1577,1551,1552
114773239,1000,1000,1000,1000,144028199,1577,1579,1550,1550
114775738,1000,1000,1000,1000,144128159,1579,1580,1549,1549
114778237,1000,1000,1000,1000,144228952,1581,1582,1546,1546
114780736,1000,1000,1000,1000,144328912,1584,1585,1544,1544
114783235,1000,1000,1000,1000,144428872,1586,1587,1542,1542
114785734,1000,1000,1000,1000,144528832,1590,1589,1540,1541
114788233,1000,1000,1000,1000,144628792,1591,1591,1539,1539
114790732,1000,1000,1000,1000,144728752,1592,1593,1538,1539
114793231,1000,1000,1000,1000,144828712,1593,1594,1538,1540
114795730,1000,1000,1000,1000,144928672,1593,1593,1541,1543
114798229,1000,1000,1000,1000,145028632,1591,1590,1546,1548
114800728,1000,1000,1000,1000,145128592,1586,1583,1552,1554
114803227,1000,1000,1000,1000,145228552,1579,1575,1561,1564
114805726,1000,1000,1000,1000,145328512,1570,1565,1572,1574
114808225,1000,1000,1000,1000,145428472,1559,1556,1584,1585
114810724,1000,1000,1000,1000,145528432,1549,1547,1595,1595
114813223,1000,1000,1000,1000,145628392,1541,1541,1603,1603
114815722,1000,1000,1000,1000,145728352,1536,1537,1610,1609
114818221,1000,1000,1000,1000,145828312,1534,1536,1612,1611
114820720,1000,1000,1000,1000,145928272,1536,1538,1612,1612
114823219,1000,1000,1000,1000,146028232,1541,1543,1610,1610
114825718,1000,1000,1000,1000,146128192,1547,1548,1605,1604
114828217,1000,1000,1000,1000,146228985,1554,1555,1598,1597
114830716,1000,1000,1000,1000,146328945,1562,1562,1591,1590
114833215,1000,1000,1000,1000,146428905,1570,1569,1584,1584
114835714,1000,1000,1000,1000,146528865,1577,1576,1579,1579
114838213,1000,1000,1000,1000,146628825,1581,1580,1573,1573
114840712,1000,1000,1000,1000,146728785,1584,1583,1569,1569
114843211,1000,1000,1000,1000,146828745,1586,1585,1568,1568
114845710,1000,1000,1000,1000,146928705,1586,1585,1567,1568
114848209,1000,1000,1000,1000,147028665,1586,1585,1569,1569
114850708,1000,1000,1000,1000,147128625,1584,1584,1571,1571
114853207,1000,1000,1000,1000,147228585,1582,1583,1575,1574
114855706,1000,1000,1000,1000,147328545,1579,1579,1577,1576
114858205,1000,1000,1000,1000,147428505,1577,1577,1579,1579
114860704,1000,1000,1000,1000,147528465,1574,1574,1580,1580
114863203,1000,1000,1000,1000,147628425,1573,1574,1582,1582
114865702,1000,1000,1000,1000,147728385,1573,1574,1583,1583
114868201,1000,1000,1000,1000,147828345,1574,1574,1584,1584
114870700,1000,1000,1000,1000,147928305,1573,1574,1583,1583
114873199,1000,1000,1000,1000,148028265,1574,1575,1582,1582
114875698,1000,1000,1000,1000,148128225,1576,1576,1582,1581
114878197,1000,1000,1000,1000,148228185,1576,1577,1580,1580
114880696,1000,1000,1000,1000,148328978,1578,1578,1579,1579
114883195,1000,1000,1000,1000,148428938,1580,1579,1579,1579
114885694,1000,1000,1000,1000,148528898,1581,1579,1578,1578
114888193,1000,1000,1000,1000,148628858,1580,1579,1576,1576
114890692,1000,1000,1000,1000,148728818,1581,1581,1577,1577
114893191,1000,1000,1000,1000,148828778,1581,1581,1578,1577
114895690,1000,1000,1000,1000,148928738,1581,1581,1577,1578
114898189,1000,1000,1000,1000,149028698,1581,1581,1579,1578
114900688,1000,1000,1000,1000,149128658,1581,1581,1580,1580
114903187,1000,1000,1000,1000,149228618,1580,1580,1580,1580
114905686,1000,1000,1000,1000,149328578,1580,1580,1580,1580
114908185,1000,1000,1000,1000,149428538,1580,1580,1581,1581
114910684,1000,1000,1000,1000,149528498,1580,1580,1581,1582
114913183,1000,1000,1000,1000,149628458,1580,1580,1581,1581
114915682,1000,1000,1000,1000,149728418,1580,1580,1582,1582
114918181,1000,1000,1000,1000,149828378,1578,1578,1580,1580
114920680,1000,1000,1000,1000,149928338,1580,1580,1582,1582
114923179,1000,1000,1000,1000,150028298,1580,1580,1580,1581
114925678,1000,1000,1000,1000,150128258,1580,1580,1581,1580
114928177,1000,1000,1000,1000,150228218,1581,1580,1581,1580
114930676,1000,1000,1000,1000,150328178,1581,1581,1583,1576
114933175,1000,1000,1000,1000,150428971,1580,1581,1586,1571
114935674,1000,1000,1000,1000,150528931,1578,1579,1580,1573
114938173,1000,1000,1000,1000,150628891,1575,1574,1572,1573
114940672,1000,1000,1000,1000,150728851,1572,1571,1567,1574
114943171,1000,1000,1000,1000,150828811,1571,1570,1566,1573
114945670,1000,1000,1000,1000,150928771,1568,1568,1565,1570
114948169,1000,1000,1000,1000,151028731,1566,1566,1565,1567
114950668,1000,1000,1000,1000,151128691,1566,1566,1566,1566
114953167,1000,1000,1000,1000,151228651,1566,1566,1567,1565
114955666,1000,1000,1000,1000,151328611,1566,1566,1567,1565
114958165,1000,1000,1000,1000,151428571,1565,1566,1567,1565
114960664,1000,1000,1000,1000,151528531,1565,1564,1566,1565
114963163,1000,1000,1000,1000,151628491,1563,1563,1564,1564
114965662,1000,1000,1000,1000,151728451,1563,1562,1563,1563
114968161,1000,1000,1000,1000,151828411,1561,1562,1562,1562
114970660,1000,1000,1000,1000,151928371,1562,1562,1562,1562
114973159,1000,1000,1000,1000,152028331,1562,1562,1562,1562
114975658,1000,1000,1000,1000,152128291,1562,1561,1562,1562
114978157,1000,1000,1000,1000,152228251,1561,1561,1561,1560
114980656,1000,1000,1000,1000,152328211,1560,1560,1560,1559
114983155,1000,1000,1000,1000,152428171,1559,1559,1559,1558
114985654,1000,1000,1000,1000,152528964,1558,1558,1558,1558
114988986,1000,1000,1000,1000,152628924,1556,1558,1537,1576
114991485,1000,1000,1000,1000,152728884,1555,1555,1565,1543
114993984,1000,1000,1000,1000,152828844,1552,1551,1566,1537
114996483,1000,1000,1000,1000,152928804,1548,1547,1554,1542
114998982,1000,1000,1000,1000,153028764,1542,1542,1541,1544
115001481,1000,1000,1000,1000,153128724,1536,1537,1530,1544
115003980,1000,1000,1000,1000,153228684,1530,1530,1523,1538
115006479,1000,1000,1000,1000,153328644,1524,1525,1518,1531
115008978,1000,1000,1000,1000,153428604,1522,1522,1519,1524
115011477,1000,1000,1000,1000,153528564,1522,1522,1521,1522
115013976,1000,1000,1000,1000,153628524,1524,1523,1524,1522
115016475,1000,1000,1000,1000,153728484,1526,1525,1526,1524
115018974,1000,1000,1000,1000,153828444,1530,1529,1530,1529
115021473,1000,1000,1000,1000,153928404,1533,1533,1533,1533
115023972,1000,1000,1000,1000,154028364,1539,1539,1539,1539
115026471,1000,1000,1000,1000,154128324,1541,1541,1540,1542
115028970,1000,1000,1000,1000,154228284,1543,1543,1543,1544
115031469,1000,1000,1000,1000,154328244,1545,1545,1544,1546
115033968,1000,1000,1000,1000,154428204,1545,1546,1545,1546
115036467,1000,1000,1000,1000,154528164,1546,1546,1546,1547
115038966,1000,1000,1000,1000,154628957,1546,1546,1547,1547
115041465,1000,1000,1000,1000,154728917,1546,1546,1546,1546
115043964,1000,1000,1000,1000,154828877,1547,1547,1547,1547
115046463,1000,1000,1000,1000,154928837,1546,1546,1546,1546
115048962,1000,1000,1000,1000,155028797,1545,1546,1546,1545
115051461,1000,1000,1000,1000,155128757,1546,1546,1546,1547
115053960,1000,1000,1000,1000,155228717,1545,1545,1545,1545
115056459,1000,1000,1000,1000,155328677,1544,1545,1544,1545
115058958,1000,1000,1000,1000,155428637,1544,1545,1545,1544
115061457,1000,1000,1000,1000,155528597,1545,1545,1545,1545
115063956,1000,1000,1000,1000,155628557,1544,1544,1544,1544
115066455,1000,1000,1000,1000,155728517,1545,1544,1545,1545
115068954,1000,1000,1000,1000,155828477,1544,1544,1544,1544
115071453,1000,1000,1000,1000,155928437,1544,1544,1545,1544
115073952,1000,1000,1000,1000,156028397,1543,1544,1544,1543
115076451,1000,1000,1000,1000,156128357,1543,1543,1543,1543
115078950,1000,1000,1000,1000,156228317,1544,1544,1544,1543
115081449,1000,1000,1000,1000,156328277,1543,1543,1543,1544
115083948,1000,1000,1000,1000,156428237,1544,1544,1544,1544
115086447,1000,1000,1000,1000,156528197,1543,1543,1543,1543
115088946,1000,1000,1000,1000,156628157,1544,1544,1544,1543
115091445,1000,1000,1000,1000,156728950,1543,1543,1543,1544
115093944,1000,1000,1000,1000,156828910,1543,1544,1544,1544
115096443,1000,1000,1000,1000,156928870,1543,1543,1544,1544
115098942,1000,1000,1000,1000,157028830,1544,1544,1544,1543
115101441,1000,1000,1000,1000,157128790,1545,1544,1544,1544
115103940,1000,1000,1000,1000,157228750,1544,1544,1545,1544
115106439,1000,1000,1000,1000,157328710,1544,1544,1544,1544
115108938,1000,1000,1000,1000,157428670,1543,1543,1543,1543
115111437,1000,1000,1000,1000,157528630,1545,1544,1544,1544
115113936,1000,1000,1000,1000,157628590,1544,1544,1544,1544
115116435,1000,1000,1000,1000,157728550,1544,1544,1544,1545
115118934,1000,1000,1000,1000,157828510,1545,1545,1545,1545
115121433,1000,1000,1000,1000,157928470,1544,1543,1543,1543
115123932,1000,1000,1000,1000,158028430,1545,1545,1545,1545
115126431,1000,1000,1000,1000,158128390,1544,1544,1544,1544
115128930,1000,1000,1000,1000,158228350,1543,1544,1544,1543
115131429,1000,1000,1000,1000,158328310,1544,1543,1543,1544
115133928,1000,1000,1000,1000,158428270,1544,1544,1544,1544
115136427,1000,1000,1000,1000,158528230,1544,1544,1543,1544
115138926,1000,1000,1000,1000,158628190,1544,1544,1544,1544
115141425,1000,1000,1000,1000,158728983,1544,1544,1543,1544
115143924,1000,1000,1000,1000,158828943,1544,1544,1544,1544
115146423,1000,1000,1000,1000,158928903,1544,1543,1544,1544
115148922,1000,1000,1000,1000,159028863,1545,1545,1545,1545
115151421,1000,1000,1000,1000,159128823,1544,1544,1544,1544
115153920,1000,1000,1000,1000,159228783,1543,1544,1544,1543
115156419,1000,1000,1000,1000,159328743,1544,1544,1544,1545
115158918,1000,1000,1000,1000,159428703,1544,1544,1544,1544
115161417,1000,1000,1000,1000,159528663,1544,1544,1544,1544
115163916,1000,1000,1000,1000,159628623,1544,1544,1544,1544
115166415,1000,1000,1000,1000,159728583,1544,1544,1543,1544
115168914,1000,1000,1000,1000,159828543,1544,1544,1544,1543
115171413,1000,1000,1000,1000,159928503,1544,1544,1544,1544
115173912,1000,1000,1000,1000,160028463,1544,1544,1544,1544
115176411,1000,1000,1000,1000,160128423,1544,1544,1544,1544
115178910,1000,1000,1000,1000,160228383,1544,1544,1544,1544
115181409,1000,1000,1000,1000,160328343,1545,1544,1544,1545
115183908,1000,1000,1000,1000,160428303,1545,1546,1545,1545
115186407,1000,1000,1000,1000,160528263,1546,1546,1546,1546
115188906,1000,1000,1000,1000,160628223,1544,1544,1544,1544
115191405,1000,1000,1000,1000,160728183,1545,1545,1545,1544
115193904,1000,1000,1000,1000,160828976,1544,1544,1544,1544
115196403,1000,1000,1000,1000,160928936,1545,1545,1544,1545
115198902,1000,1000,1000,1000,161028896,1544,1545,1545,1545
115201401,1000,1000,1000,1000,161128856,1544,1544,1544,1544
115203900,1000,1000,1000,1000,161228816,1545,1545,1545,1545
115206399,1000,1000,1000,1000,161328776,1545,1544,1545,1545
115208898,1000,1000,1000,1000,161428736,1544,1544,1544,1544
115211397,1000,1000,1000,1000,161528696,1545,1545,1545,1545
115213896,1000,1000,1000,1000,161628656,1544,1544,1544,1544
115216395,1000,1000,1000,1000,161728616,1545,1544,1544,1545
115218894,1000,1000,1000,1000,161828576,1545,1545,1545,1545
115221393,1000,1000,1000,1000,161928536,1544,1544,1544,1544
115223892,1000,1000,1000,1000,162028496,1545,1545,1545,1544
115226391,1000,1000,1000,1000,162128456,1545,1544,1544,1545
115228890,1000,1000,1000,1000,162228416,1544,1544,1544,1544
115231389,1000,1000,1000,1000,162328376,1544,1544,1544,1545
115233888,1000,1000,1000,1000,162428336,1544,1545,1545,1545
115236387,1000,1000,1000,1000,162528296,1545,1545,1545,1545
115238886,1000,1000,1000,1000,162628256,1545,1545,1545,1545
115241385,1000,1000,1000,1000,162728216,1545,1544,1545,1545
115243884,1000,1000,1000,1000,162828176,1545,1545,1545,1545
115246383,1000,1000,1000,1000,162928969,1544,1544,1544,1544
115248882,1000,1000,1000,1000,163028929,1544,1545,1545,1544
115251381,1000,1000,1000,1000,163128889,1424,1426,1425,1423
115253880,1000,1000,1000,1000,163228849,1280,1286,1285,1278
115256379,1000,1000,1000,1000,163328809,1226,1231,1230,1223
115258878,1000,1000,1000,1000,163428769,1205,1211,1211,1202
115261377,1000,1000,1000,1000,163528729,1170,1175,1174,1166
115263876,1000,1000,1000,1000,163628689,1154,1161,1161,1150
115266375,1000,1000,1000,1000,163728649,1153,1160,1160,1150
115268874,1000,1000,1000,1000,163828609,1153,1158,1158,1150
115271373,1000,1000,1000,1000,163928569,1196,1145,1144,1194
115273872,1000,1000,1000,1000,164028529,1176,1144,1144,1173
115276371,1000,1000,1000,1000,164128489,1172,1144,1144,1169
115278870,1000,1000,1000,1000,164228449,1173,1144,1144,1170
115281369,1000,1000,1000,1000,164328409,1176,1144,1144,1174
115283868,1000,1000,1000,1000,164428369,1178,1144,1144,1176
115286367,1000,1000,1000,1000,164528329,1182,1144,1144,1181
115288866,1000,1000,1000,1000,164628289,1163,1144,1144,1161
115291365,1000,1000,1000,1000,164728249,1164,1144,1144,1161
115293864,1000,1000,1000,1000,164828209,1166,1144,1145,1163
115296363,1000,1000,1000,1000,164928169,1167,1144,1145,1164
115298862,1000,1000,1000,1000,165028962,1168,1144,1145,1165
115301361,1000,1000,1000,1000,165128922,1144,1144,1144,1150
115303860,1000,1000,1000,1000,165228882,1000,1000,1000,1000
115306359,1000,1000,1000,1000,165328842,1000,1000,1000,1000
115308858,1000,1000,1000,1000,165428802,1000,1000,1000,1000
115311357,1000,1000,1000,1000,165528762,1000,1000,1000,1000
115313856,1000,1000,1000,1000,165628722,1000,1000,1000,1000
115316355,1000,1000,1000,1000,165728682,1000,1000,1000,1000
115318854,1000,1000,1000,1000,165828642,1000,1000,1000,1000
115321353,1000,1000,1000,1000,165928602,1000,1000,1000,1000
115323852,1000,1000,1000,1000,166028562,1000,1000,1000,1000
115326351,1000,1000,1000,1000,166128522,1000,1000,1000,1000
115328850,1000,1000,1000,1000,166228482,1000,1000,1000,1000
115331349,1000,1000,1000,1000,166328442,1000,1000,1000,1000
115333848,1000,1000,1000,1000,166368426,1000,1000,1000,1000
115336347,1000,1000,1000,1000,166468386,1000,1000,1000,1000
115338846,1000,1000,1000,1000,166568346,1000,1000,1000,1000
115341345,1000,1000,1000,1000,166668306,1000,1000,1000,1000
115343844,1000,1000,1000,1000,166768266,1000,1000,1000,1000
115346343,1000,1000,1000,1000,166868226,1000,1000,1000,1000
115348842,1000,1000,1000,1000,166968186,1000,1000,1000,1000
115351341,1000,1000,1000,1000,167068979,1000,1000,1000,1000
115353840,1000,1000,1000,1000,167168939,1000,1000,1000,1000
115356339,1000,1000,1000,1000,167268899,1000,1000,1000,1000
115358838,1000,1000,1000,1000,167368859,1000,1000,1000,1000
115361337,1000,1000,1000,1000,167468819,1000,1000,1000,1000
115363836,1000,1000,1000,1000,167568779,1000,1000,1000,1000
115366335,1000,1000,1000,1000,167668739,1000,1000,1000,1000
115368834,1000,1000,1000,1000,167768699,1000,1000,1000,1000
115371333,1000,1000,1000,1000,167868659,1000,1000,1000,1000
115373832,1000,1000,1000,1000,167968619,1000,1000,1000,1000
115376331,1000,1000,1000,1000,168068579,1000,1000,1000,1000
115378830,1000,1000,1000,1000,168168539,1000,1000,1000,1000
115381329,1000,1000,1000,1000,168268499,1000,1000,1000,1000
115383828,1000,1000,1000,1000,168368459,1000,1000,1000,1000
115386327,1000,1000,1000,1000,168468419,1000,1000,1000,1000
115388826,1000,1000,1000,1000,168568379,1000,1000,1000,1000
115391325,1000,1000,1000,1000,168668339,1000,1000,1000,1000
115393824,1000,1000,1000,1000,168768299,1000,1000,1000,1000
115396323,1000,1000,1000,1000,168868259,1000,1000,1000,1000
115398822,1000,1000,1000,1000,168968219,1000,1000,1000,1000
115401321,1000,1000,1000,1000,169068179,1000,1000,1000,1000
115403820,1000,1000,1000,1000,169168972,1000,1000,1000,1000
115406319,1000,1000,1000,1000,169268932,1000,1000,1000,1000
115408818,1000,1000,1000,1000,169368892,1000,1000,1000,1000
115411317,1000,1000,1000,1000,169468852,1000,1000,1000,1000
115413816,1000,1000,1000,1000,169568812,1000,1000,1000,1000
115416315,1000,1000,1000,1000,169668772,1000,1000,1000,1000
115418814,1000,1000,1000,1000,169768732,1000,1000,1000,1000
115421313,1000,1000,1000,1000,169868692,1000,1000,1000,1000
115423812,1000,1000,1000,1000,169968652,1000,1000,1000,1000
115426311,1000,1000,1000,1000,170068612,1000,1000,1000,1000
115428810,1000,1000,1000,1000,170168572,1000,1000,1000,1000
115431309,1000,1000,1000,1000,170268532,1000,1000,1000,1000
115433808,1000,1000,1000,1000,170368492,1000,1000,1000,1000
115436307,1000,1000,1000,1000,170468452,1000,1000,1000,1000
115438806,1000,1000,1000,1000,170568412,1000,1000,1000,1000
115441305,1000,1000,1000,1000,170668372,1000,1000,1000,1000
115443804,1000,1000,1000,1000,170768332,1000,1000,1000,1000
115446303,1000,1000,1000,1000,170868292,1000,1000,1000,1000
115448802,1000,1000,1000,1000,170968252,1000,1000,1000,1000
115451301,1000,1000,1000,1000,171068212,1000,1000,1000,1000
115453800,1000,1000,1000,1000,171168172,1000,1000,1000,1000
115456299,1000,1000,1000,1000,171268965,1000,1000,1000,1000
115458798,1000,1000,1000,1000,171368925,1000,1000,1000,1000
115461297,1000,1000,1000,1000,171468885,1000,1000,1000,1000
115463796,1000,1000,1000,1000,171568845,1000,1000,1000,1000
115466295,1000,1000,1000,1000,171668805,1000,1000,1000,1000
115468794,1000,1000,1000,1000,171768765,1000,1000,1000,1000
115471293,1000,1000,1000,1000,171868725,1000,1000,1000,1000
115473792,1000,1000,1000,1000,171968685,1000,1000,1000,1000
115476291,1000,1000,1000,1000,172068645,1000,1000,1000,1000
115478790,1000,1000,1000,1000,172168605,1000,1000,1000,1000
115481289,1000,1000,1000,1000,172268565,1000,1000,1000,1000
115483788,1000,1000,1000,1000,172368525,1000,1000,1000,1000
115486287,1000,1000,1000,1000,172468485,1000,1000,1000,1000
115488786,1000,1000,1000,1000,172568445,1000,1000,1000,1000
115491285,1000,1000,1000,1000,172668405,1000,1000,1000,1000
115493784,1000,1000,1000,1000,172768365,1000,1000,1000,1000
115496283,1000,1000,1000,1000,172868325,1000,1000,1000,1000
115498782,1000,1000,1000,1000,172968285,1000,1000,1000,1000
115501281,1000,1000,1000,1000,173068245,1000,1000,1000,1000
115503780,1000,1000,1000,1000,173168205,1000,1000,1000,1000
115506279,1000,1000,1000,1000,173268165,1000,1000,1000,1000
115508778,1000,1000,1000,1000,173368958,1000,1000,1000,1000
115511277,1000,1000,1000,1000,173468918,1000,1000,1000,1000
115513776,1000,1000,1000,1000,173568878,1000,1000,1000,1000
115516275,1000,1000,1000,1000,173668838,1000,1000,1000,1000
115518774,1000,1000,1000,1000,173768798,1000,1000,1000,1000
115521273,1000,1000,1000,1000,173868758,1000,1000,1000,1000
115523772,1000,1000,1000,1000,173968718,1000,1000,1000,1000
115526271,1000,1000,1000,1000,174068678,1000,1000,1000,1000
115528770,1000,1000,1000,1000,174168638,1000,1000,1000,1000
115531269,1000,1000,1000,1000,174268598,1000,1000,1000,1000
115533768,1000,1000,1000,1000,174368558,1000,1000,1000,1000
115536267,1000,1000,1000,1000,174468518,1000,1000,1000,1000
115538766,1000,1000,1000,1000,174568478,1000,1000,1000,1000
115541265,1000,1000,1000,1000,174668438,1000,1000,1000,1000
115543764,1000,1000,1000,1000,174768398,1000,1000,1000,1000
115546263,1000,1000,1000,1000,174868358,1000,1000,1000,1000
115548762,1000,1000,1000,1000,174968318,1000,1000,1000,1000
115551261,1000,1000,1000,1000,175068278,1000,1000,1000,1000
115553760,1000,1000,1000,1000,175168238,1000,1000,1000,1000
115556259,1000,1000,1000,1000,175268198,1000,1000,1000,1000
115558758,1000,1000,1000,1000,175368158,1000,1000,1000,1000
115561257,1000,1000,1000,1000,175468951,1000,1000,1000,1000
115563756,1000,1000,1000,1000,175568911,1000,1000,1000,1000
115566255,1000,1000,1000,1000,175668871,1000,1000,1000,1000
115568754,1000,1000,1000,1000,175768831,1000,1000,1000,1000
115571253,1000,1000,1000,1000,175868791,1000,1000,1000,1000
115573752,1000,1000,1000,1000,175968751,1000,1000,1000,1000
115576251,1000,1000,1000,1000,176068711,1000,1000,1000,1000
115578750,1000,1000,1000,1000,176168671,1000,1000,1000,1000
115581249,1000,1000,1000,1000,176268631,1000,1000,1000,1000
115583748,1000,1000,1000,1000,176368591,1000,1000,1000,1000
115586247,1000,1000,1000,1000,176468551,1000,1000,1000,1000
115588746,1000,1000,1000,1000,176568511,1000,1000,1000,1000
115591245,1000,1000,1000,1000,176668471,1000,1000,1000,1000
115593744,1000,1000,1000,1000,176768431,1000,1000,1000,1000
115596243,1000,1000,1000,1000,176868391,1000,1000,1000,1000
115598742,1000,1000,1000,1000,176968351,1000,1000,1000,1000
115601241,1000,1000,1000,1000,177068311,1000,1000,1000,1000
115603740,1000,1000,1000,1000,177168271,1000,1000,1000,1000
115606239,1000,1000,1000,1000,177268231,1000,1000,1000,1000
115608738,1000,1000,1000,1000,177368191,1000,1000,1000,1000
115611237,1000,1000,1000,1000,177468984,1000,1000,1000,1000
115613736,1000,1000,1000,1000,177568944,1000,1000,1000,1000
115616235,1000,1000,1000,1000,177668904,1000,1000,1000,1000
115618734,1000,1000,1000,1000,177768864,1000,1000,1000,1000
115621233,1000,1000,1000,1000,177868824,1000,1000,1000,1000
115623732,1000,1000,1000,1000,177968784,1000,1000,1000,1000
115626231,1000,1000,1000,1000,178068744,1000,1000,1000,1000
115628730,1000,1000,1000,1000,178168704,1000,1000,1000,1000
115631229,1000,1000,1000,1000,178268664,1000,1000,1000,1000
115633728,1000,1000,1000,1000,178368624,1000,1000,1000,1000
115636227,1000,1000,1000,1000,178468584,1000,1000,1000,1000
115638726,1000,1000,1000,1000,178568544,1000,1000,1000,1000
115641225,1000,1000,1000,1000,178668504,1000,1000,1000,1000
115643724,1000,1000,1000,1000,178768464,1000,1000,1000,1000
115646223,1000,1000,1000,1000,178868424,1000,1000,1000,1000
115648722,1000,1000,1000,1000,178968384,1000,1000,1000,1000
115651221,1000,1000,1000,1000,179068344,1000,1000,1000,1000
115653720,1000,1000,1000,1000,179168304,1000,1000,1000,1000
115656219,1000,1000,1000,1000,179268264,1000,1000,1000,1000
115658718,1000,1000,1000,1000,179368224,1000,1000,1000,1000
115661217,1000,1000,1000,1000,179468184,1000,1000,1000,1000
115663716,1000,1000,1000,1000,179568977,1000,1000,1000,1000
115666215,1000,1000,1000,1000,179668937,1000,1000,1000,1000
115668714,1000,1000,1000,1000,179768897,1000,1000,1000,1000
115671213,1000,1000,1000,1000,179868857,1000,1000,1000,1000
115673712,1000,1000,1000,1000,179968817,1000,1000,1000,1000
115676211,1000,1000,1000,1000,180068777,1000,1000,1000,1000
115678710,1000,1000,1000,1000,,,,,
115681209,1000,1000,1000,1000,,,,,
115683708,1000,1000,1000,1000,,,,,
115686207,1000,1000,1000,1000,,,,,
115688706,1000,1000,1000,1000,,,,,
115691205,1000,1000,1000,1000,,,,,
115693704,1000,1000,1000,1000,,,,,
115696203,1000,1000,1000,1000,,,,,
115698702,1000,1000,1000,1000,,,,,
115701201,1000,1000,1000,1000,,,,,
115703700,1000,1000,1000,1000,,,,,
115706199,1000,1000,1000,1000,,,,,
115708698,1000,1000,1000,1000,,,,,
115711197,1000,1000,1000,1000,,,,,
115713696,1000,1000,1000,1000,,,,,
115716195,1000,1000,1000,1000,,,,,
115718694,1000,1000,1000,1000,,,,,
115721193,1000,1000,1000,1000,,,,,
115723692,1000,1000,1000,1000,,,,,
115726191,1000,1000,1000,1000,,,,,
115728690,1000,1000,1000,1000,,,,,
115731189,1000,1000,1000,1000,,,,,
115733688,1000,1000,1000,1000,,,,,
115736187,1000,1000,1000,1000,,,,,
115738686,1000,1000,1000,1000,,,,,
115741185,1000,1000,1000,1000,,,,,
115743684,1000,1000,1000,1000,,,,,
115746183,1000,1000,1000,1000,,,,,
115748682,1000,1000,1000,1000,,,,,
115751181,1000,1000,1000,1000,,,,,
115753680,1000,1000,1000,1000,,,,,
115756179,1000,1000,1000,1000,,,,,
115758678,1000,1000,1000,1000,,,,,
115761177,1000,1000,1000,1000,,,,,
115763676,1000,1000,1000,1000,,,,,
115766175,1000,1000,1000,1000,,,,,
115768674,1000,1000,1000,1000,,,,,
115771173,1000,1000,1000,1000,,,,,
115773672,1000,1000,1000,1000,,,,,
115776171,1000,1000,1000,1000,,,,,
115778670,1000,1000,1000,1000,,,,,
115781169,1000,1000,1000,1000,,,,,
115783668,1000,1000,1000,1000,,,,,
115786167,1000,1000,1000,1000,,,,,
115788666,1000,1000,1000,1000,,,,,
115791165,1000,1000,1000,1000,,,,,
115793664,1000,1000,1000,1000,,,,,
115796163,1000,1000,1000,1000,,,,,
115798662,1000,1000,1000,1000,,,,,
115801161,1000,1000,1000,1000,,,,,
115803660,1000,1000,1000,1000,,,,,
115806159,1000,1000,1000,1000,,,,,
115808658,1000,1000,1000,1000,,,,,
115811157,1000,1000,1000,1000,,,,,
115813656,1000,1000,1000,1000,,,,,
115816155,1000,1000,1000,1000,,,,,
115818654,1000,1000,1000,1000,,,,,
115821153,1000,1000,1000,1000,,,,,
115823652,1000,1000,1000,1000,,,,,
115826151,1000,1000,1000,1000,,,,,
115828650,1000,1000,1000,1000,,,,,
115831149,1000,1000,1000,1000,,,,,
115833648,1000,1000,1000,1000,,,,,
115836147,1000,1000,1000,1000,,,,,
115838646,1000,1000,1000,1000,,,,,
115841145,1000,1000,1000,1000,,,,,
115843644,1000,1000,1000,1000,,,,,
115846143,1000,1000,1000,1000,,,,,
115848642,1000,1000,1000,1000,,,,,
115851141,1000,1000,1000,1000,,,,,
115853640,1000,1000,1000,1000,,,,,
115856139,1000,1000,1000,1000,,,,,
115858638,1000,1000,1000,1000,,,,,
115861137,1000,1000,1000,1000,,,,,
115863636,1000,1000,1000,1000,,,,,
115866135,1000,1000,1000,1000,,,,,
115868634,1000,1000,1000,1000,,,,,
115871133,1000,1000,1000,1000,,,,,
115873632,1000,1000,1000,1000,,,,,
115876131,1000,1000,1000,1000,,,,,
115878630,1000,1000,1000,1000,,,,,
115881129,1000,1000,1000,1000,,,,,
115883628,1000,1000,1000,1000,,,,,
115886127,1000,1000,1000,1000,,,,,
115888626,1000,1000,1000,1000,,,,,
115891125,1000,1000,1000,1000,,,,,
115893624,1000,1000,1000,1000,,,,,
115896123,1000,1000,1000,1000,,,,,
115898622,1000,1000,1000,1000,,,,,
115901121,1000,1000,1000,1000,,,,,
115903620,1000,1000,1000,1000,,,,,
115906119,1000,1000,1000,1000,,,,,
115908618,1000,1000,1000,1000,,,,,
115911117,1000,1000,1000,1000,,,,,
115913616,1000,1000,1000,1000,,,,,
115916115,1000,1000,1000,1000,,,,,
115918614,1000,1000,1000,1000,,,,,
115921113,1000,1000,1000,1000,,,,,
115923612,1000,1000,1000,1000,,,,,
115926111,1000,1000,1000,1000,,,,,
115928610,1000,1000,1000,1000,,,,,
115931109,1000,1000,1000,1000,,,,,
115933608,1000,1000,1000,1000,,,,,
115936107,1000,1000,1000,1000,,,,,
115938606,1000,1000,1000,1000,,,,,
115941105,1000,1000,1000,1000,,,,,
115943604,1000,1000,1000,1000,,,,,
115946103,1000,1000,1000,1000,,,,,
115948602,1000,1000,1000,1000,,,,,
115951101,1000,1000,1000,1000,,,,,
115953600,1000,1000,1000,1000,,,,,
115956099,1000,1000,1000,1000,,,,,
115958598,1000,1000,1000,1000,,,,,
115961097,1000,1000,1000,1000,,,,,
115963596,1000,1000,1000,1000,,,,,
115966095,1000,1000,1000,1000,,,,,
115968594,1000,1000,1000,1000,,,,,
115971093,1000,1000,1000,1000,,,,,
115973592,1000,1000,1000,1000,,,,,
115976091,1000,1000,1000,1000,,,,,
115978590,1000,1000,1000,1000,,,,,
115981089,1000,1000,1000,1000,,,,,
115983588,1000,1000,1000,1000,,,,,
115986087,1000,1000,1000,1000,,,,,
115988586,1000,1000,1000,1000,,,,,
115991085,1000,1000,1000,1000,,,,,
115993584,1000,1000,1000,1000,,,,,
115996083,1000,1000,1000,1000,,,,,
115998582,1000,1000,1000,1000,,,,,
116001081,1000,1000,1000,1000,,,,,
116003580,1000,1000,1000,1000,,,,,
116006079,1000,1000,1000,1000,,,,,
116008578,1000,1000,1000,1000,,,,,
116011077,1000,1000,1000,1000,,,,,
116013576,1000,1000,1000,1000,,,,,
116016075,1000,1000,1000,1000,,,,,
116018574,1000,1000,1000,1000,,,,,
116021073,1000,1000,1000,1000,,,,,
116023572,1000,1000,1000,1000,,,,,
116026071,1000,1000,1000,1000,,,,,
116028570,1000,1000,1000,1000,,,,,
116031069,1001,1001,1001,1001,,,,,
116033568,1002,1002,1002,1002,,,,,
116036067,1003,1003,1003,1003,,,,,
116038566,1003,1003,1003,1003,,,,,
116041065,1004,1004,1004,1004,,,,,
116043564,1005,1005,1005,1005,,,,,
116046063,1006,1006,1006,1006,,,,,
116048562,1006,1006,1006,1006,,,,,
116051061,1007,1007,1007,1007,,,,,
116053560,1008,1008,1008,1008,,,,,
116056059,1009,1009,1009,1009,,,,,
116058558,1009,1009,1009,1009,,,,,
116061057,1010,1010,1010,1010,,,,,
116063556,1011,1011,1011,1011,,,,,
116066055,1012,1012,1012,1012,,,,,
116068554,1012,1012,1012,1012,,,,,
116071053,1013,1013,1013,1013,,,,,
116073552,1014,1014,1014,1014,,,,,
116076051,1015,1015,1015,1015,,,,,
116078550,1015,1015,1015,1015,,,,,
116081049,1016,1016,1016,1016,,,,,
116083548,1017,1017,1017,1017,,,,,
116086047,1018,1018,1018,1018,,,,,
116088546,1018,1018,1018,1018,,,,,
116091045,1019,1019,1019,1019,,,,,
116093544,1020,1020,1020,1020,,,,,
116096043,1021,1021,1021,1021,,,,,
116098542,1021,1021,1021,1021,,,,,
116101041,1022,1022,1022,1022,,,,,
116103540,1023,1023,1023,1023,,,,,
116106039,1024,1024,1024,1024,,,,,
116108538,1024,1024,1024,1024,,,,,
116111037,1025,1025,1025,1025,,,,,
116113536,1026,1026,1026,1026,,,,,
116116035,1027,1027,1027,1027,,,,,
116118534,1027,1027,1027,1027,,,,,
116121033,1028,1028,1028,1028,,,,,
116123532,1029,1029,1029,1029,,,,,
116126031,1030,1030,1030,1030,,,,,
116128530,1030,1030,1030,1030,,,,,
116131029,1031,1031,1031,1031,,,,,
116133528,1032,1032,1032,1032,,,,,
116136027,1033,1033,1033,1033,,,,,
116138526,1033,1033,1033,1033,,,,,
116141025,1034,1034,1034,1034,,,,,
116143524,1035,1035,1035,1035,,,,,
116146023,1036,1036,1036,1036,,,,,
116148522,1036,1036,1036,1036,,,,,
116151021,1037,1037,1037,1037,,,,,
116153520,1038,1038,1038,1038,,,,,
116156019,1039,1039,1039,1039,,,,,
116158518,1039,1039,1039,1039,,,,,
116161017,1040,1040,1040,1040,,,,,
116163516,1041,1041,1041,1041,,,,,
116166015,1042,1042,1042,1042,,,,,
116168514,1042,1042,1042,1042,,,,,
116171013,1043,1043,1043,1043,,,,,
116173512,1044,1044,1044,1044,,,,,
116176011,1045,1045,1045,1045,,,,,
116178510,1045,1045,1045,1045,,,,,
116181009,1046,1046,1046,1046,,,,,
116183508,1047,1047,1047,1047,,,,,
116186007,1048,1048,1048,1048,,,,,
116188506,1048,1048,1048,1048,,,,,
116191005,1049,1049,1049,1049,,,,,
116193504,1050,1050,1050,1050,,,,,
116196003,1051,1051,1051,1051,,,,,
116198502,1051,1051,1051,1051,,,,,
116201001,1052,1052,1052,1052,,,,,
116203500,1053,1053,1053,1053,,,,,
116205999,1054,1054,1054,1054,,,,,
116208498,1054,1054,1054,1054,,,,,
116210997,1055,1055,1055,1055,,,,,
116213496,1056,1056,1056,1056,,,,,
116215995,1057,1057,1057,1057,,,,,
116218494,1057,1057,1057,1057,,,,,
116220993,1058,1058,1058,1058,,,,,
116223492,1059,1059,1059,1059,,,,,
116225991,1060,1060,1060,1060,,,,,
116228490,1060,1060,1060,1060,,,,,
116230989,1061,1061,1061,1061,,,,,
116233488,1062,1062,1062,1062,,,,,
116235987,1063,1063,1063,1063,,,,,
116238486,1063,1063,1063,1063,,,,,
116240985,1064,1064,1064,1064,,,,,
116243484,1065,1065,1065,1065,,,,,
116245983,1066,1066,1066,1066,,,,,
116248482,1066,1066,1066,1066,,,,,
116250981,1067,1067,1067,1067,,,,,
116253480,1068,1068,1068,1068,,,,,
116255979,1069,1069,1069,1069,,,,,
116258478,1069,1069,1069,1069,,,,,
116260977,1070,1070,1070,1070,,,,,
116263476,1071,1071,1071,1071,,,,,
116265975,1072,1072,1072,1072,,,,,
116268474,1072,1072,1072,1072,,,,,
116270973,1073,1073,1073,1073,,,,,
116273472,1074,1074,1074,1074,,,,,
116275971,1075,1075,1075,1075,,,,,
116278470,1075,1075,1075,1075,,,,,
116280969,1076,1076,1076,1076,,,,,
116283468,1077,1077,1077,1077,,,,,
116285967,1078,1078,1078,1078,,,,,
116288466,1078,1078,1078,1078,,,,,
116290965,1079,1079,1079,1079,,,,,
116293464,1080,1080,1080,1080,,,,,
116295963,1081,1081,1081,1081,,,,,
116298462,1081,1081,1081,1081,,,,,
116300961,1082,1082,1082,1082,,,,,
116303460,1083,1083,1083,1083,,,,,
116305959,1084,1084,1084,1084,,,,,
116308458,1084,1084,1084,1084,,,,,
116310957,1085,1085,1085,1085,,,,,
116313456,1086,1086,1086,1086,,,,,
116315955,1087,1087,1087,1087,,,,,
116318454,1087,1087,1087,1087,,,,,
116320953,1088,1088,1088,1088,,,,,
116323452,1089,1089,1089,1089,,,,,
116325951,1090,1090,1090,1090,,,,,
116328450,1090,1090,1090,1090,,,,,
116330949,1091,1091,1091,1091,,,,,
116333448,1092,1092,1092,1092,,,,,
116335947,1093,1093,1093,1093,,,,,
116338446,1093,1093,1093,1093,,,,,
116340945,1094,1094,1094,1094,,,,,
116343444,1095,1095,1095,1095,,,,,
116345943,1096,1096,1096,1096,,,,,
116348442,1096,1096,1096,1096,,,,,
116350941,1097,1097,1097,1097,,,,,
116353440,1098,1098,1098,1098,,,,,
116355939,1099,1099,1099,1099,,,,,
116358438,1099,1099,1099,1099,,,,,
116360937,1100,1100,1100,1100,,,,,
116363436,1101,1101,1101,1101,,,,,
116365935,1101,1101,1101,1101,,,,,
116368434,1102,1102,1102,1102,,,,,
116370933,1103,1103,1103,1103,,,,,
116373432,1104,1104,1104,1104,,,,,
116375931,1104,1104,1104,1104,,,,,
116378430,1105,1105,1105,1105,,,,,
116380929,1106,1106,1106,1106,,,,,
116383428,1107,1107,1107,1107,,,,,
116385927,1107,1107,1107,1107,,,,,
116388426,1108,1108,1108,1108,,,,,
116390925,1109,1109,1109,1109,,,,,
116393424,1110,1110,1110,1110,,,,,
116395923,1110,1110,1110,1110,,,,,
116398422,1111,1111,1111,1111,,,,,
116400921,1112,1112,1112,1112,,,,,
116403420,1113,1113,1113,1113,,,,,
116405919,1113,1113,1113,1113,,,,,
116408418,1114,1114,1114,1114,,,,,
116410917,1115,1115,1115,1115,,,,,
116413416,1116,1116,1116,1116,,,,,
116415915,1116,1116,1116,1116,,,,,
116418414,1117,1117,1117,1117,,,,,
116420913,1118,1118,1118,1118,,,,,
116423412,1119,1119,1119,1119,,,,,
116425911,1119,1119,1119,1119,,,,,
116428410,1120,1120,1120,1120,,,,,
116430909,1121,1121,1121,1121,,,,,
116433408,1122,1122,1122,1122,,,,,
116435907,1122,1122,1122,1122,,,,,
116438406,1123,1123,1123,1123,,,,,
116440905,1124,1124,1124,1124,,,,,
116443404,1125,1125,1125,1125,,,,,
116445903,1125,1125,1125,1125,,,,,
116448402,1126,1126,1126,1126,,,,,
116450901,1127,1127,1127,1127,,,,,
116453400,1128,1128,1128,1128,,,,,
116455899,1128,1128,1128,1128,,,,,
116458398,1129,1129,1129,1129,,,,,
116460897,1130,1130,1130,1130,,,,,
116463396,1131,1131,1131,1131,,,,,
116465895,1131,1131,1131,1131,,,,,
116468394,1132,1132,1132,1132,,,,,
116470893,1133,1133,1133,1133,,,,,
116473392,1134,1134,1134,1134,,,,,
116475891,1134,1134,1134,1134,,,,,
116478390,1135,1135,1135,1135,,,,,
116480889,1136,1136,1136,1136,,,,,
116483388,1137,1137,1137,1137,,,,,
116485887,1137,1137,1137,1137,,,,,
116488386,1138,1138,1138,1138,,,,,
116490885,1139,1139,1139,1139,,,,,
116493384,1140,1140,1140,1140,,,,,
116495883,1140,1140,1140,1140,,,,,
116498382,1141,1141,1141,1141,,,,,
116500881,1142,1142,1142,1142,,,,,
116503380,1143,1143,1143,1143,,,,,
116505879,1143,1143,1143,1143,,,,,
116508378,1144,1144,1144,1144,,,,,
116510877,1145,1145,1145,1145,,,,,
116513376,1146,1146,1146,1146,,,,,
116515875,1146,1146,1146,1146,,,,,
116518374,1147,1147,1147,1147,,,,,
116520873,1148,1148,1148,1148,,,,,
116523372,1149,1149,1149,1149,,,,,
116525871,1149,1149,1149,1149,,,,,
116528370,1150,1150,1150,1150,,,,,
116530869,1165,1150,1151,1166,,,,,
116533368,1175,1155,1157,1176,,,,,
116535867,1183,1163,1165,1184,,,,,
116538366,1190,1171,1173,1191,,,,,
116540865,1198,1179,1180,1199,,,,,
116543364,1205,1187,1188,1206,,,,,
116545863,1212,1194,1195,1213,,,,,
116548362,1219,1201,1203,1220,,,,,
116550861,1226,1209,1210,1227,,,,,
116553360,1233,1216,1217,1234,,,,,
116555859,1240,1223,1224,1241,,,,,
116558358,1247,1230,1231,1248,,,,,
116560857,1254,1237,1238,1255,,,,,
116563356,1260,1244,1245,1261,,,,,
116565855,1267,1250,1251,1268,,,,,
116568354,1273,1257,1258,1274,,,,,
116570853,1279,1263,1264,1280,,,,,
116573352,1285,1270,1271,1286,,,,,
116575851,1292,1276,1277,1293,,,,,
116578350,1298,1282,1283,1299,,,,,
116580849,1304,1288,1290,1305,,,,,
116583348,1310,1295,1296,1311,,,,,
116585847,1316,1301,1302,1317,,,,,
116588346,1321,1307,1308,1322,,,,,
116590845,1327,1313,1314,1328,,,,,
116593344,1333,1318,1319,1334,,,,,
116595843,1339,1324,1325,1340,,,,,
116598342,1344,1330,1331,1345,,,,,
116600841,1350,1336,1337,1351,,,,,
116603340,1355,1341,1342,1356,,,,,
116605839,1361,1347,1348,1362,,,,,
116608338,1366,1352,1353,1367,,,,,
116610837,1372,1358,1359,1372,,,,,
116613336,1377,1363,1364,1378,,,,,
116615835,1382,1369,1370,1383,,,,,
116618334,1387,1374,1375,1388,,,,,
116620833,1393,1379,1380,1393,,,,,
116623332,1398,1384,1385,1399,,,,,
116625831,1403,1390,1391,1404,,,,,
116628330,1408,1395,1396,1409,,,,,
116630829,1413,1400,1401,1414,,,,,
116633328,1418,1405,1406,1419,,,,,
116635827,1423,1410,1411,1424,,,,,
116638326,1428,1415,1416,1429,,,,,
116640825,1433,1420,1421,1434,,,,,
116643324,1438,1425,1426,1438,,,,,
116645823,1442,1430,1431,1443,,,,,
116648322,1447,1435,1435,1448,,,,,
116650821,1452,1439,1440,1453,,,,,
116653320,1457,1444,1445,1457,,,,,
116655819,1461,1449,1450,1462,,,,,
116658318,1466,1454,1455,1467,,,,,
116660817,1471,1458,1459,1471,,,,,
116663316,1475,1463,1464,1476,,,,,
116665815,1480,1468,1468,1481,,,,,
116668314,1484,1472,1473,1485,,,,,
116670813,1489,1477,1478,1490,,,,,
116673312,1493,1481,1482,1494,,,,,
116675811,1498,1486,1487,1499,,,,,
116678310,1502,1490,1491,1503,,,,,
116680809,1507,1495,1496,1507,,,,,
116683308,1511,1499,1500,1512,,,,,
116685807,1515,1504,1504,1516,,,,,
116688306,1520,1508,1509,1521,,,,,
116690805,1524,1512,1513,1525,,,,,
116693304,1528,1517,1517,1529,,,,,
116695803,1533,1521,1522,1533,,,,,
116698302,1537,1525,1526,1538,,,,,
116700801,1541,1529,1530,1542,,,,,
116703300,1545,1534,1534,1546,,,,,
116705799,1550,1538,1539,1550,,,,,
116708298,1554,1542,1543,1554,,,,,
116710797,1558,1546,1547,1559,,,,,
116713296,1562,1550,1551,1563,,,,,
116715795,1566,1554,1555,1567,,,,,
116718294,1570,1559,1559,1571,,,,,
116720793,1574,1563,1563,1575,,,,,
116723292,1578,1567,1567,1579,,,,,
116725791,1582,1571,1571,1583,,,,,
116728290,1586,1575,1575,1587,,,,,
116730789,1590,1579,1579,1591,,,,,
116733288,1594,1583,1583,1595,,,,,
116735787,1598,1587,1587,1599,,,,,
116738286,1602,1591,1591,1603,,,,,
116740785,1606,1594,1595,1606,,,,,
116743284,1610,1598,1599,1610,,,,,
116745783,1614,1602,1603,1614,,,,,
116748282,1617,1606,1607,1618,,,,,
116750781,1621,1610,1611,1622,,,,,
116753280,1625,1614,1615,1626,,,,,
116755779,1629,1618,1618,1629,,,,,
116758278,1633,1622,1622,1633,,,,,
116760777,1636,1625,1626,1637,,,,,
116763276,1640,1629,1630,1641,,,,,
116765775,1644,1633,1634,1644,,,,,
116768274,1648,1637,1637,1648,,,,,
116770773,1651,1640,1641,1652,,,,,
116773272,1655,1644,1645,1656,,,,,
116775771,1659,1648,1648,1659,,,,,
116778270,1662,1651,1652,1663,,,,,
116780769,1666,1655,1656,1667,,,,,
116783268,1670,1659,1659,1670,,,,,
116785767,1673,1662,1663,1674,,,,,
116788266,1677,1666,1667,1677,,,,,
116790765,1680,1669,1670,1681,,,,,
116793264,1684,1673,1674,1685,,,,,
116795763,1688,1677,1677,1688,,,,,
116798262,1691,1680,1681,1692,,,,,
116800761,1695,1684,1685,1695,,,,,
116803260,1698,1687,1688,1699,,,,,
116805759,1702,1691,1692,1702,,,,,
116808258,1705,1694,1695,1706,,,,,
116810757,1709,1698,1699,1709,,,,,
116813256,1712,1701,1702,1713,,,,,
116815755,1716,1705,1706,1716,,,,,
116818254,1719,1708,1709,1719,,,,,
116820753,1722,1712,1712,1723,,,,,
116823252,1726,1715,1716,1726,,,,,
116825751,1729,1718,1719,1730,,,,,
116828250,1733,1722,1723,1733,,,,,
116830749,1736,1725,1726,1736,,,,,
116833248,1739,1729,1729,1740,,,,,
116835747,1743,1732,1733,1743,,,,,
116838246,1746,1735,1736,1747,,,,,
116840745,1749,1739,1740,1750,,,,,
116843244,1753,1742,1743,1753,,,,,
116845743,1756,1745,1746,1757,,,,,
116848242,1759,1749,1749,1760,,,,,
116850741,1763,1752,1753,1763,,,,,
116853240,1766,1755,1756,1766,,,,,
116855739,1769,1759,1759,1770,,,,,
116858238,1773,1762,1763,1773,,,,,
116860737,1776,1765,1766,1776,,,,,
116863236,1779,1768,1769,1780,,,,,
116865735,1782,1772,1772,1783,,,,,
116868234,1785,1775,1775,1786,,,,,
116870733,1789,1778,1779,1789,,,,,
116873232,1792,1781,1782,1792,,,,,
116875731,1795,1784,1785,1796,,,,,
116878230,1798,1788,1788,1799,,,,,
116880729,1801,1791,1791,1802,,,,,
116883228,1805,1794,1795,1805,,,,,
116885727,1808,1797,1798,1808,,,,,
116888226,1811,1800,1801,1811,,,,,
116890725,1814,1803,1804,1815,,,,,
116893224,1817,1807,1807,1818,,,,,
116895723,1820,1810,1810,1821,,,,,
116898222,1823,1813,1814,1824,,,,,
116900721,1826,1816,1817,1827,,,,,
116903220,1830,1819,1820,1830,,,,,
116905719,1833,1822,1823,1833,,,,,
116908218,1836,1825,1826,1836,,,,,
116910717,1839,1828,1829,1839,,,,,
116913216,1842,1831,1832,1842,,,,,
116915715,1845,1834,1835,1845,,,,,
116918214,1848,1837,1838,1848,,,,,
116920713,1851,1840,1841,1851,,,,,
116923212,1854,1843,1844,1854,,,,,
116925711,1857,1846,1847,1857,,,,,
116928210,1860,1849,1850,1860,,,,,
116930709,1863,1852,1853,1863,,,,,
116933208,1866,1855,1856,1866,,,,,
116935707,1869,1858,1859,1869,,,,,
116938206,1872,1861,1862,1872,,,,,
116940705,1875,1864,1865,1875,,,,,
116943204,1878,1867,1868,1878,,,,,
116945703,1881,1870,1871,1881,,,,,
116948202,1884,1873,1874,1884,,,,,
116950701,1887,1876,1877,1887,,,,,
116953200,1890,1879,1880,1890,,,,,
116955699,1893,1882,1883,1893,,,,,
116958198,1895,1885,1886,1896,,,,,
116960697,1898,1888,1889,1899,,,,,
116963196,1901,1891,1892,1901,,,,,
116965695,1904,1894,1895,1904,,,,,
116968194,1907,1897,1897,1907,,,,,
116970693,1910,1899,1900,1910,,,,,
116973192,1913,1902,1903,1913,,,,,
116975691,1916,1905,1906,1916,,,,,
116978190,1919,1908,1909,1919,,,,,
116980689,1921,1911,1912,1922,,,,,
116983188,1924,1914,1915,1924,,,,,
116985687,1927,1916,1917,1927,,,,,
116988186,1930,1919,1920,1930,,,,,
116990685,1933,1922,1923,1933,,,,,
116993184,1936,1925,1926,1936,,,,,
116995683,1937,1928,1929,1937,,,,,
116998182,1936,1928,1929,1936,,,,,
117000681,1935,1927,1928,1935,,,,,
117003180,1934,1927,1927,1934,,,,,
117005679,1933,1926,1926,1933,,,,,
117008178,1932,1925,1925,1932,,,,,
117010677,1931,1924,1924,1932,,,,,
117013176,1930,1923,1924,1931,,,,,
117015675,1930,1922,1923,1930,,,,,
117018174,1929,1922,1922,1930,,,,,
117020673,1928,1921,1921,1929,,,,,
117023172,1928,1920,1921,1928,,,,,
117025671,1927,1920,1920,1927,,,,,
117028170,1926,1919,1919,1927,,,,,
117030669,1925,1918,1919,1926,,,,,
117033168,1924,1917,1918,1925,,,,,
117035667,1923,1917,1917,1924,,,,,
117038166,1922,1915,1916,1923,,,,,
117040665,1921,1914,1915,1922,,,,,
117043164,1919,1913,1913,1920,,,,,
117045663,1918,1912,1912,1919,,,,,
117048162,1916,1910,1910,1917,,,,,
117050661,1914,1909,1908,1916,,,,,
117053160,1913,1907,1907,1914,,,,,
117055659,1911,1905,1905,1912,,,,,
117058158,1909,1903,1902,1910,,,,,
117060657,1906,1901,1900,1908,,,,,
117063156,1904,1898,1898,1905,,,,,
117065655,1901,1896,1896,1903,,,,,
117068154,1899,1893,1893,1900,,,,,
117071486,1896,1891,1890,1898,,,,,
117073985,1894,1888,1888,1895,,,,,
117076484,1891,1885,1885,1892,,,,,
117078983,1888,1883,1882,1890,,,,,
117081482,1885,1880,1879,1887,,,,,
117083981,1882,1877,1876,1884,,,,,
117086480,1879,1873,1873,1881,,,,,
117088979,1875,1870,1870,1877,,,,,
117091478,1872,1867,1866,1874,,,,,
117093977,1869,1864,1863,1871,,,,,
117096476,1866,1861,1860,1868,,,,,
117098975,1862,1857,1856,1864,,,,,
117101474,1859,1854,1853,1861,,,,,
117103973,1855,1851,1850,1857,,,,,
117106472,1852,1847,1846,1854,,,,,
117108971,1848,1844,1843,1850,,,,,
117111470,1845,1840,1839,1847,,,,,
117113969,1841,1837,1836,1843,,,,,
117116468,1838,1833,1832,1840,,,,,
117118967,1834,1830,1829,1836,,,,,
117121466,1830,1826,1825,1833,,,,,
