TimeUS,M1,M2,M3,M4,TimeUS,C1,C2,C3,C4
47351052,1000,1000,1000,1000,47428521,1000,1000,1000,1000
47353551,1000,1000,1000,1000,47528481,1000,1000,1000,1000
47356050,1000,1000,1000,1000,47628441,1000,1000,1000,1000
47358549,1000,1000,1000,1000,47728401,1000,1000,1000,1000
47361048,1000,1000,1000,1000,47828361,1000,1000,1000,1000
47363547,1000,1000,1000,1000,47928321,1000,1000,1000,1000
47366046,1000,1000,1000,1000,48028281,1000,1000,1000,1000
47368545,1000,1000,1000,1000,48128241,1000,1000,1000,1000
47371044,1000,1000,1000,1000,48228201,1000,1000,1000,1000
47373543,1000,1000,1000,1000,48328161,1000,1000,1000,1000
47376042,1000,1000,1000,1000,48428954,1000,1000,1000,1000
47378541,1000,1000,1000,1000,48528914,1000,1000,1000,1000
47381040,1000,1000,1000,1000,48628874,1000,1000,1000,1000
47383539,1000,1000,1000,1000,48728834,1000,1000,1000,1000
47386038,1000,1000,1000,1000,48828794,1000,1000,1000,1000
47388537,1000,1000,1000,1000,48928754,1000,1000,1000,1000
47391036,1000,1000,1000,1000,49028714,1000,1000,1000,1000
47393535,1000,1000,1000,1000,49128674,1000,1000,1000,1000
47396034,1000,1000,1000,1000,49228634,1000,1000,1000,1000
47398533,1000,1000,1000,1000,49328594,1000,1000,1000,1000
47401032,1000,1000,1000,1000,49428554,1023,1023,1023,1023
47403531,1000,1000,1000,1000,49528514,1053,1053,1053,1053
47406030,1000,1000,1000,1000,49628474,1083,1083,1083,1083
47408529,1000,1000,1000,1000,49728434,1113,1113,1113,1113
47411028,1000,1000,1000,1000,49828394,1143,1143,1143,1143
47413527,1000,1000,1000,1000,49928354,1351,1346,1346,1352
47416026,1000,1000,1000,1000,50028314,1542,1538,1538,1542
47418525,1000,1000,1000,1000,50128274,1695,1691,1691,1695
47421024,1000,1000,1000,1000,50228234,1826,1823,1823,1827
47423523,1000,1000,1000,1000,50328194,1900,1896,1897,1901
47426022,1000,1000,1000,1000,50428154,1845,1844,1843,1845
47428521,1000,1000,1000,1000,50528947,1712,1712,1712,1712
47431020,1000,1000,1000,1000,50628907,1636,1637,1638,1636
47433519,1000,1000,1000,1000,50728867,1621,1623,1623,1621
47436018,1000,1000,1000,1000,50828827,1629,1631,1631,1629
47438517,1000,1000,1000,1000,50928787,1627,1627,1623,1632
47441016,1000,1000,1000,1000,51028747,1621,1622,1616,1628
47443515,1000,1000,1000,1000,51128707,1615,1616,1612,1619
47446014,1000,1000,1000,1000,51228667,1613,1613,1613,1612
47448513,1000,1000,1000,1000,51328627,1612,1611,1615,1608
47451012,1000,1000,1000,1000,51428587,1612,1611,1616,1607
47453511,1000,1000,1000,1000,51528547,1614,1613,1617,1610
47456010,1000,1000,1000,1000,51628507,1617,1616,1619,1614
47458509,1000,1000,1000,1000,51728467,1590,1590,1597,1583
47461008,1000,1000,1000,1000,51828427,1573,1574,1580,1567
47463507,1000,1000,1000,1000,51928387,1563,1563,1564,1562
47466006,1000,1000,1000,1000,52028347,1553,1553,1549,1558
47468505,1000,1000,1000,1000,52128307,1545,1545,1535,1555
47471004,1000,1000,1000,1000,52228267,1538,1538,1529,1547
47473503,1000,1000,1000,1000,52328227,1533,1532,1527,1537
47476002,1000,1000,1000,1000,52428187,1527,1526,1525,1528
47478501,1000,1000,1000,1000,52528980,1526,1526,1527,1525
47481000,1000,1000,1000,1000,52628940,1527,1528,1530,1525
47483499,1000,1000,1000,1000,52728900,1530,1531,1534,1527
47485998,1000,1000,1000,1000,52828860,1534,1534,1537,1531
47488497,1000,1000,1000,1000,52928820,1538,1538,1540,1536
47490996,1000,1000,1000,1000,53028780,1541,1541,1543,1540
47493495,1000,1000,1000,1000,53128740,1544,1544,1544,1544
47495994,1000,1000,1000,1000,53228700,1548,1548,1548,1549
47498493,1000,1000,1000,1000,53328660,1551,1551,1550,1552
47500992,1000,1000,1000,1000,53428620,1554,1552,1552,1555
47503491,1000,1000,1000,1000,53528580,1552,1551,1558,1561
47505990,1000,1000,1000,1000,53628540,1554,1554,1561,1563
47508489,1000,1000,1000,1000,53728500,1557,1557,1563,1563
47510988,1000,1000,1000,1000,53828460,1560,1561,1565,1564
47513487,1000,1000,1000,1000,53928420,1563,1564,1566,1564
47515986,1000,1000,1000,1000,54028380,1566,1567,1565,1565
47518485,1000,1000,1000,1000,54128340,1569,1568,1566,1565
47520984,1000,1000,1000,1000,54228300,1571,1570,1566,1566
47523483,1000,1000,1000,1000,54328260,1572,1571,1566,1567
47525982,1000,1000,1000,1000,54428220,1572,1572,1567,1567
47528481,1000,1000,1000,1000,54528180,1573,1572,1568,1569
47530980,1000,1000,1000,1000,54628973,1572,1573,1569,1569
47533479,1000,1000,1000,1000,54728933,1574,1574,1572,1571
47535978,1000,1000,1000,1000,54828893,1573,1574,1573,1572
47538477,1000,1000,1000,1000,54928853,1574,1574,1574,1573
47540976,1000,1000,1000,1000,55028813,1574,1574,1575,1574
47543475,1000,1000,1000,1000,55128773,1574,1574,1576,1575
47545974,1000,1000,1000,1000,55228733,1575,1575,1576,1576
47548473,1000,1000,1000,1000,55328693,1575,1575,1576,1576
47550972,1000,1000,1000,1000,55428653,1575,1576,1577,1577
47553471,1000,1000,1000,1000,55528613,1575,1575,1577,1576
47555970,1000,1000,1000,1000,55628573,1577,1577,1578,1578
47558469,1000,1000,1000,1000,55728533,1577,1577,1577,1577
47560968,1000,1000,1000,1000,55828493,1576,1576,1576,1576
47563467,1000,1000,1000,1000,55928453,1577,1577,1576,1577
47565966,1000,1000,1000,1000,56028413,1577,1577,1577,1577
47568465,1000,1000,1000,1000,56128373,1578,1577,1576,1577
47570964,1000,1000,1000,1000,56228333,1579,1578,1578,1578
47573463,1000,1000,1000,1000,56328293,1577,1577,1577,1576
47575962,1000,1000,1000,1000,56428253,1578,1578,1577,1577
47578461,1000,1000,1000,1000,56528213,1578,1578,1578,1577
47580960,1000,1000,1000,1000,56628173,1578,1578,1578,1577
47583459,1000,1000,1000,1000,56728966,1578,1578,1577,1578
47585958,1000,1000,1000,1000,56828926,1578,1579,1578,1579
47588457,1000,1000,1000,1000,56928886,1579,1579,1579,1579
47590956,1000,1000,1000,1000,57028846,1579,1579,1579,1579
47593455,1000,1000,1000,1000,57128806,1579,1579,1580,1580
47595954,1000,1000,1000,1000,57228766,1579,1579,1579,1579
47598453,1000,1000,1000,1000,57328726,1579,1579,1579,1579
47600952,1000,1000,1000,1000,57428686,1578,1579,1579,1578
47603451,1000,1000,1000,1000,57528646,1579,1579,1579,1579
47605950,1000,1000,1000,1000,57628606,1580,1579,1580,1580
47608449,1000,1000,1000,1000,57728566,1579,1579,1579,1579
47610948,1000,1000,1000,1000,57828526,1579,1579,1579,1579
47613447,1000,1000,1000,1000,57928486,1579,1580,1579,1580
47615946,1000,1000,1000,1000,58028446,1579,1579,1579,1579
47618445,1000,1000,1000,1000,58128406,1579,1579,1579,1579
47620944,1000,1000,1000,1000,58228366,1580,1580,1580,1579
47623443,1000,1000,1000,1000,58328326,1579,1580,1580,1580
47625942,1000,1000,1000,1000,58428286,1579,1580,1580,1580
47628441,1000,1000,1000,1000,58528246,1579,1579,1579,1579
47630940,1000,1000,1000,1000,58628206,1579,1579,1579,1579
47633439,1000,1000,1000,1000,58728166,1579,1580,1580,1579
47635938,1000,1000,1000,1000,58828959,1580,1580,1580,1580
47638437,1000,1000,1000,1000,58928919,1580,1579,1580,1579
47640936,1000,1000,1000,1000,59028879,1580,1580,1580,1580
47643435,1000,1000,1000,1000,59128839,1580,1580,1580,1580
47645934,1000,1000,1000,1000,59228799,1580,1580,1580,1580
47648433,1000,1000,1000,1000,59328759,1580,1580,1580,1580
47650932,1000,1000,1000,1000,59428719,1581,1581,1581,1581
47653431,1000,1000,1000,1000,59528679,1581,1581,1582,1582
47655930,1000,1000,1000,1000,59628639,1582,1582,1583,1582
47658429,1000,1000,1000,1000,59728599,1582,1583,1590,1575
47660928,1000,1000,1000,1000,59828559,1581,1583,1586,1574
47663427,1000,1000,1000,1000,59928519,1580,1583,1578,1575
47665926,1000,1000,1000,1000,60028479,1578,1581,1568,1572
47668425,1000,1000,1000,1000,60128439,1577,1579,1561,1568
47670924,1000,1000,1000,1000,60228399,1578,1578,1557,1563
47673423,1000,1000,1000,1000,60328359,1579,1578,1555,1559
47675922,1000,1000,1000,1000,60428319,1578,1577,1554,1555
47678421,1000,1000,1000,1000,60528279,1579,1578,1556,1555
47680920,1000,1000,1000,1000,60628239,1579,1578,1557,1554
47683419,1000,1000,1000,1000,60728199,1577,1578,1557,1554
47685918,1000,1000,1000,1000,60828159,1576,1577,1556,1554
47688417,1000,1000,1000,1000,60928952,1574,1576,1554,1554
47690916,1000,1000,1000,1000,61028912,1574,1576,1553,1554
47693415,1000,1000,1000,1000,61128872,1575,1576,1551,1552
47695914,1000,1000,1000,1000,61228832,1576,1577,1550,1550
47698413,1000,1000,1000,1000,61328792,1578,1578,1547,1547
47700912,1000,1000,1000,1000,61428752,1581,1582,1546,1545
47703411,1000,1000,1000,1000,61528712,1583,1584,1542,1541
47705910,1000,1000,1000,1000,61628672,1586,1587,1540,1539
47708409,1000,1000,1000,1000,61728632,1590,1590,1537,1537
47710908,1000,1000,1000,1000,61828592,1592,1593,1534,1535
47713407,1000,1000,1000,1000,61928552,1594,1594,1534,1534
47715906,1000,1000,1000,1000,62028512,1595,1595,1534,1535
47718405,1000,1000,1000,1000,62128472,1595,1594,1536,1538
47720904,1000,1000,1000,1000,62228432,1593,1593,1539,1541
47723403,1000,1000,1000,1000,62328392,1589,1588,1544,1547
47725902,1000,1000,1000,1000,62428352,1583,1581,1551,1555
47728401,1000,1000,1000,1000,62528312,1576,1572,1562,1565
47730900,1000,1000,1000,1000,62628272,1566,1562,1574,1576
47733399,1000,1000,1000,1000,62728232,1553,1550,1586,1587
47735898,1000,1000,1000,1000,62828192,1542,1540,1597,1597
47738397,1000,1000,1000,1000,62928985,1535,1533,1607,1606
47740896,1000,1000,1000,1000,63028945,1530,1530,1614,1612
47743395,1000,1000,1000,1000,63128905,1528,1530,1616,1615
47745894,1000,1000,1000,1000,63228865,1531,1533,1615,1614
47748393,1000,1000,1000,1000,63328825,1536,1539,1610,1610
47750892,1000,1000,1000,1000,63428785,1544,1546,1604,1604
47753391,1000,1000,1000,1000,63528745,1553,1554,1596,1597
47755890,1000,1000,1000,1000,63628705,1562,1562,1589,1588
47758389,1000,1000,1000,1000,63728665,1570,1570,1582,1581
47760888,1000,1000,1000,1000,63828625,1578,1577,1576,1575
47763387,1000,1000,1000,1000,63928585,1583,1582,1571,1570
47765886,1000,1000,1000,1000,64028545,1587,1585,1567,1567
47768385,1000,1000,1000,1000,64128505,1589,1587,1567,1567
47770884,1000,1000,1000,1000,64228465,1588,1587,1567,1567
47773383,1000,1000,1000,1000,64328425,1586,1585,1567,1568
47775882,1000,1000,1000,1000,64428385,1583,1583,1569,1570
47778381,1000,1000,1000,1000,64528345,1581,1581,1573,1573
47780880,1000,1000,1000,1000,64628305,1579,1579,1577,1577
47783379,1000,1000,1000,1000,64728265,1576,1576,1580,1579
47785878,1000,1000,1000,1000,64828225,1574,1575,1582,1581
47788377,1000,1000,1000,1000,64928185,1573,1574,1583,1583
47790876,1000,1000,1000,1000,65028978,1277,1279,1316,1562
47793375,1000,1000,1000,1000,65128938,1420,1420,1522,1586
47795874,1000,1000,1000,1000,65228898,1523,1519,1635,1599
47798373,1000,1000,1000,1000,65328858,1547,1538,1650,1539
47800872,1000,1000,1000,1000,65428818,1992,1988,1998,1740
47803371,1000,1000,1000,1000,65528778,1862,1855,1778,1681
47805870,1000,1000,1000,1000,65628738,1739,1733,1541,1662
47808369,1000,1000,1000,1000,65728698,1675,1671,1455,1672
47810868,1000,1000,1000,1000,65828658,1634,1636,1484,1659
47813367,1000,1000,1000,1000,65928618,1585,1593,1528,1607
47815866,1000,1000,1000,1000,66028578,1542,1548,1567,1557
47818365,1000,1000,1000,1000,66128538,1515,1518,1594,1538
47820864,1000,1000,1000,1000,66228498,1510,1512,1612,1548
47823363,1000,1000,1000,1000,66328458,1514,1518,1614,1567
47825862,1000,1000,1000,1000,66428418,1521,1527,1605,1580
47828361,1000,1000,1000,1000,66528378,1529,1535,1589,1586
47830860,1000,1000,1000,1000,66628338,1537,1542,1573,1584
47833359,1000,1000,1000,1000,66728298,1549,1550,1563,1578
47835858,1000,1000,1000,1000,66828258,1561,1560,1557,1569
47838357,1000,1000,1000,1000,66928218,1574,1570,1556,1561
47840856,1000,1000,1000,1000,67028178,1584,1579,1558,1556
47843355,1000,1000,1000,1000,67128971,1593,1588,1562,1557
47845854,1000,1000,1000,1000,67228931,1598,1594,1567,1561
47848353,1000,1000,1000,1000,67328891,1599,1596,1571,1566
47850852,1000,1000,1000,1000,67428851,1596,1595,1574,1571
47853351,1000,1000,1000,1000,67528811,1594,1594,1579,1578
47855850,1000,1000,1000,1000,67628771,1590,1590,1582,1583
47858349,1000,1000,1000,1000,67728731,1584,1587,1590,1581
47860848,1000,1000,1000,1000,67828691,1581,1586,1593,1581
47863347,1000,1000,1000,1000,67928651,1578,1584,1587,1582
47865846,1000,1000,1000,1000,68028611,1576,1580,1579,1581
47868345,1000,1000,1000,1000,68128571,1577,1579,1573,1579
47870844,1000,1000,1000,1000,68228531,1579,1579,1567,1573
47873343,1000,1000,1000,1000,68328491,1581,1580,1564,1567
47875842,1000,1000,1000,1000,68428451,1583,1581,1561,1562
47878341,1000,1000,1000,1000,68528411,1584,1582,1560,1559
47880840,1000,1000,1000,1000,68628371,1583,1582,1558,1556
47883339,1000,1000,1000,1000,68728331,1582,1582,1557,1555
47885838,1000,1000,1000,1000,68828291,1581,1582,1556,1554
47888337,1000,1000,1000,1000,68928251,1581,1582,1555,1554
47890836,1000,1000,1000,1000,69028211,1580,1582,1554,1554
47893335,1000,1000,1000,1000,69128171,1580,1582,1552,1553
47895834,1000,1000,1000,1000,69228964,1580,1581,1550,1552
47898333,1000,1000,1000,1000,69328924,1581,1582,1550,1550
47900832,1000,1000,1000,1000,69428884,1583,1584,1548,1549
47903331,1000,1000,1000,1000,69528844,1584,1584,1547,1546
47905830,1000,1000,1000,1000,69628804,1586,1587,1545,1544
47908329,1000,1000,1000,1000,69728764,1588,1589,1543,1543
47910828,1000,1000,1000,1000,69828724,1590,1592,1540,1541
47913327,1000,1000,1000,1000,69928684,1593,1593,1538,1540
47915826,1000,1000,1000,1000,70028644,1593,1593,1537,1539
47918325,1000,1000,1000,1000,70128604,1594,1591,1542,1543
47920824,1000,1000,1000,1000,70228564,1591,1588,1547,1549
47923323,1000,1000,1000,1000,70328524,1585,1582,1555,1557
47925822,1000,1000,1000,1000,70428484,1577,1573,1564,1566
47928321,1000,1000,1000,1000,70528444,1567,1563,1574,1577
47930820,1000,1000,1000,1000,70628404,1557,1554,1586,1587
47933319,1000,1000,1000,1000,70728364,1548,1547,1596,1596
47935818,1000,1000,1000,1000,70828324,1542,1542,1605,1604
47938317,1000,1000,1000,1000,70928284,1538,1538,1609,1609
47940816,1000,1000,1000,1000,71028244,1538,1539,1611,1611
47943315,1000,1000,1000,1000,71128204,1540,1541,1609,1608
47945814,1000,1000,1000,1000,71228164,1545,1547,1607,1606
47948313,1000,1000,1000,1000,71328957,1552,1554,1603,1602
47950812,1000,1000,1000,1000,71428917,1559,1561,1597,1596
47953311,1000,1000,1000,1000,71528877,1566,1566,1589,1589
47955810,1000,1000,1000,1000,71628837,1573,1573,1583,1583
47958309,1000,1000,1000,1000,71728797,1579,1578,1578,1579
47960808,1000,1000,1000,1000,71828757,1583,1582,1574,1574
47963307,1000,1000,1000,1000,71928717,1586,1585,1572,1572
47965806,1000,1000,1000,1000,72028677,1586,1585,1570,1570
47968305,1000,1000,1000,1000,72128637,1586,1585,1571,1571
47970804,1000,1000,1000,1000,72228597,1585,1585,1573,1573
47973303,1000,1000,1000,1000,72328557,1583,1582,1574,1574
47975802,1000,1000,1000,1000,72428517,1580,1579,1576,1576
47978301,1000,1000,1000,1000,72528477,1577,1577,1578,1578
47980800,1000,1000,1000,1000,72628437,1575,1576,1580,1580
47983299,1000,1000,1000,1000,72728397,1574,1574,1582,1582
47985798,1000,1000,1000,1000,72828357,1573,1574,1583,1583
47988297,1000,1000,1000,1000,72928317,1571,1572,1582,1582
47990796,1000,1000,1000,1000,73028277,1574,1574,1583,1583
47993295,1000,1000,1000,1000,73128237,1574,1573,1581,1581
47995794,1000,1000,1000,1000,73228197,1576,1576,1582,1582
47998293,1000,1000,1000,1000,73328157,1578,1578,1581,1581
48000792,1000,1000,1000,1000,73428950,1579,1578,1580,1580
48003291,1000,1000,1000,1000,73528910,1579,1579,1579,1579
48005790,1000,1000,1000,1000,73628870,1579,1579,1577,1578
48008289,1000,1000,1000,1000,73728830,1580,1580,1578,1577
48010788,1000,1000,1000,1000,73828790,1581,1580,1577,1577
48013287,1000,1000,1000,1000,73928750,1581,1581,1578,1578
48015786,1000,1000,1000,1000,74028710,1581,1581,1578,1579
48018285,1000,1000,1000,1000,74128670,1581,1581,1579,1579
48020784,1000,1000,1000,1000,74228630,1581,1581,1580,1580
48023283,1000,1000,1000,1000,74328590,1580,1580,1580,1580
48025782,1000,1000,1000,1000,74428550,1580,1580,1580,1580
48028281,1000,1000,1000,1000,74528510,1579,1579,1580,1580
48030780,1000,1000,1000,1000,74628470,1579,1579,1580,1580
48033279,1000,1000,1000,1000,74728430,1579,1579,1581,1581
48035778,1000,1000,1000,1000,74828390,1580,1580,1581,1581
48038277,1000,1000,1000,1000,74928350,1580,1581,1582,1582
48040776,1000,1000,1000,1000,75028310,1580,1580,1581,1582
48043275,1000,1000,1000,1000,75128270,1580,1580,1581,1581
48045774,1000,1000,1000,1000,75228230,1581,1581,1581,1581
48048273,1000,1000,1000,1000,75328190,1580,1580,1580,1580
48050772,1000,1000,1000,1000,75428983,1580,1580,1580,1580
48053271,1000,1000,1000,1000,75528943,1581,1581,1581,1581
48055770,1000,1000,1000,1000,75628903,1581,1581,1580,1580
48058269,1000,1000,1000,1000,75728863,1582,1582,1581,1581
48060768,1000,1000,1000,1000,75828823,1582,1584,1588,1575
48063267,1000,1000,1000,1000,75928783,1581,1584,1585,1573
48065766,1000,1000,1000,1000,76028743,1581,1584,1578,1573
48068265,1000,1000,1000,1000,76128703,1579,1581,1567,1571
48070764,1000,1000,1000,1000,76228663,1579,1581,1561,1568
48073263,1000,1000,1000,1000,76328623,1579,1579,1556,1563
48075762,1000,1000,1000,1000,76428583,1581,1579,1555,1559
48078261,1000,1000,1000,1000,76528543,1581,1579,1555,1555
48080760,1000,1000,1000,1000,76628503,1580,1579,1555,1554
48083259,1000,1000,1000,1000,76728463,1579,1579,1557,1554
48085758,1000,1000,1000,1000,76828423,1578,1578,1557,1554
48088257,1000,1000,1000,1000,76928383,1576,1577,1555,1554
48090756,1000,1000,1000,1000,77028343,1575,1577,1554,1554
48093255,1000,1000,1000,1000,77128303,1574,1576,1553,1554
48095754,1000,1000,1000,1000,77228263,1575,1577,1552,1552
48098253,1000,1000,1000,1000,77328223,1577,1578,1551,1551
48100752,1000,1000,1000,1000,77428183,1578,1579,1549,1548
48103251,1000,1000,1000,1000,77528976,1581,1582,1547,1547
48105750,1000,1000,1000,1000,77628936,1584,1585,1545,1545
48108249,1000,1000,1000,1000,77728896,1586,1586,1542,1541
48110748,1000,1000,1000,1000,77828856,1589,1589,1541,1541
48113247,1000,1000,1000,1000,77928816,1591,1591,1539,1539
48115746,1000,1000,1000,1000,78028776,1592,1593,1538,1539
48118245,1000,1000,1000,1000,78128736,1593,1594,1537,1539
48120744,1000,1000,1000,1000,78228696,1593,1593,1538,1541
48123243,1000,1000,1000,1000,78328656,1592,1590,1542,1545
48125742,1000,1000,1000,1000,78428616,1588,1585,1548,1550
48128241,1000,1000,1000,1000,78528576,1582,1578,1557,1560
48130740,1000,1000,1000,1000,78628536,1572,1568,1566,1569
48133239,1000,1000,1000,1000,78728496,1561,1558,1578,1580
48135738,1000,1000,1000,1000,78828456,1551,1549,1590,1591
48138237,1000,1000,1000,1000,78928416,1542,1541,1600,1600
48140736,1000,1000,1000,1000,79028376,1535,1536,1607,1607
48143235,1000,1000,1000,1000,79128336,1533,1534,1611,1611
48145734,1000,1000,1000,1000,79228296,1533,1535,1611,1611
48148233,1000,1000,1000,1000,79328256,1538,1540,1609,1609
48150732,1000,1000,1000,1000,79428216,1544,1546,1605,1605
48153231,1000,1000,1000,1000,79528176,1552,1552,1599,1599
48155730,1000,1000,1000,1000,79628969,1559,1560,1593,1591
48158229,1000,1000,1000,1000,79728929,1568,1568,1586,1585
48160728,1000,1000,1000,1000,79828889,1575,1575,1580,1579
48163227,1000,1000,1000,1000,79928849,1580,1579,1574,1574
48165726,1000,1000,1000,1000,80028809,1583,1582,1570,1570
48168225,1000,1000,1000,1000,80128769,1586,1584,1568,1569
48170724,1000,1000,1000,1000,80228729,1586,1584,1568,1568
48173223,1000,1000,1000,1000,80328689,1585,1584,1570,1569
48175722,1000,1000,1000,1000,80428649,1583,1582,1571,1571
48178221,1000,1000,1000,1000,80528609,1580,1580,1573,1573
48180720,1000,1000,1000,1000,80628569,1579,1579,1577,1576
48183219,1000,1000,1000,1000,80728529,1577,1577,1580,1579
48185718,1000,1000,1000,1000,80828489,1574,1575,1581,1581
48188217,1000,1000,1000,1000,80928449,1573,1574,1582,1582
48190716,1000,1000,1000,1000,81028409,1572,1573,1582,1582
48193215,1000,1000,1000,1000,81128369,1574,1574,1583,1583
48195714,1000,1000,1000,1000,81228329,1574,1574,1583,1582
48198213,1000,1000,1000,1000,81328289,1574,1575,1582,1582
48200712,1000,1000,1000,1000,81428249,1576,1576,1581,1580
48203211,1000,1000,1000,1000,81528209,1578,1578,1581,1580
48205710,1000,1000,1000,1000,81628169,1579,1579,1579,1580
48208209,1000,1000,1000,1000,81728962,1580,1579,1578,1578
48210708,1000,1000,1000,1000,81828922,1581,1580,1578,1578
48213207,1000,1000,1000,1000,81928882,1581,1581,1577,1577
48215706,1000,1000,1000,1000,82028842,1581,1581,1578,1578
48218205,1000,1000,1000,1000,82128802,1580,1580,1577,1577
48220704,1000,1000,1000,1000,82228762,1581,1581,1579,1579
48223203,1000,1000,1000,1000,82328722,1581,1581,1579,1580
48225702,1000,1000,1000,1000,82428682,1580,1580,1579,1579
48228201,1000,1000,1000,1000,82528642,1580,1580,1580,1580
48230700,1000,1000,1000,1000,82628602,1581,1581,1581,1581
48233199,1000,1000,1000,1000,82728562,1579,1580,1581,1581
48235698,1000,1000,1000,1000,82828522,1579,1580,1581,1581
48238197,1000,1000,1000,1000,82928482,1579,1579,1581,1581
48240696,1000,1000,1000,1000,83028442,1579,1579,1580,1581
48243195,1000,1000,1000,1000,83128402,1580,1580,1581,1581
48245694,1000,1000,1000,1000,83228362,1580,1580,1581,1580
48248193,1000,1000,1000,1000,83328322,1581,1581,1581,1581
48250692,1000,1000,1000,1000,83428282,1581,1581,1581,1581
48253191,1000,1000,1000,1000,83528242,1581,1581,1581,1581
48255690,1000,1000,1000,1000,83628202,1581,1581,1580,1580
48258189,1000,1000,1000,1000,83728162,1581,1582,1586,1573
48260688,1000,1000,1000,1000,83828955,1581,1582,1586,1573
48263187,1000,1000,1000,1000,83928915,1578,1578,1578,1574
48265686,1000,1000,1000,1000,84028875,1575,1574,1571,1575
48268185,1000,1000,1000,1000,84128835,1572,1571,1566,1574
48270684,1000,1000,1000,1000,84228795,1569,1568,1565,1571
48273183,1000,1000,1000,1000,84328755,1568,1568,1565,1569
48275682,1000,1000,1000,1000,84428715,1565,1566,1566,1566
48278181,1000,1000,1000,1000,84528675,1565,1565,1566,1565
48280680,1000,1000,1000,1000,84628635,1564,1564,1567,1564
48283179,1000,1000,1000,1000,84728595,1564,1564,1566,1563
48285678,1000,1000,1000,1000,84828555,1565,1564,1566,1564
48288177,1000,1000,1000,1000,84928515,1563,1563,1564,1564
48290676,1000,1000,1000,1000,85028475,1562,1562,1563,1563
48293175,1000,1000,1000,1000,85128435,1562,1562,1562,1563
48295674,1000,1000,1000,1000,85228395,1561,1561,1561,1561
48298173,1000,1000,1000,1000,85328355,1562,1562,1562,1562
48300672,1000,1000,1000,1000,85428315,1560,1560,1561,1560
48303171,1000,1000,1000,1000,85528275,1560,1559,1559,1559
48305670,1000,1000,1000,1000,85628235,1559,1559,1559,1558
48308169,1000,1000,1000,1000,85728195,1557,1557,1557,1556
48310668,1000,1000,1000,1000,85828155,1556,1556,1556,1555
48313167,1000,1000,1000,1000,85928948,1555,1556,1556,1555
48315666,1000,1000,1000,1000,86028908,1555,1555,1556,1554
48318165,1000,1000,1000,1000,86128868,1556,1556,1556,1555
48320664,1000,1000,1000,1000,86228828,1556,1556,1557,1555
48323163,1000,1000,1000,1000,86328788,1557,1557,1557,1556
48325662,1000,1000,1000,1000,86428748,1558,1558,1560,1556
48328161,1000,1000,1000,1000,86528708,1559,1559,1558,1559
48330660,1000,1000,1000,1000,86628668,1559,1559,1557,1561
48333159,1000,1000,1000,1000,86728628,1560,1560,1557,1563
48335658,1000,1000,1000,1000,86828588,1562,1561,1559,1564
48338157,1000,1000,1000,1000,86928548,1562,1562,1560,1564
48340656,1000,1000,1000,1000,87028508,1562,1562,1562,1562
48343155,1000,1000,1000,1000,87128468,1562,1562,1561,1563
48345654,1000,1000,1000,1000,87228428,1558,1559,1558,1559
48348986,1000,1000,1000,1000,87328388,1554,1554,1554,1554
48351485,1000,1000,1000,1000,87428348,1548,1548,1549,1549
48353984,1000,1000,1000,1000,87528308,1542,1542,1542,1542
48356483,1000,1000,1000,1000,87628268,1535,1535,1535,1535
48358982,1000,1000,1000,1000,87728228,1527,1526,1527,1527
48361481,1000,1000,1000,1000,87828188,1523,1523,1523,1523
48363980,1000,1000,1000,1000,87928981,1519,1519,1519,1519
48366479,1000,1000,1000,1000,88028941,1521,1521,1521,1521
48368978,1000,1000,1000,1000,88128901,1522,1522,1522,1522
48371477,1000,1000,1000,1000,88228861,1525,1526,1525,1525
48373976,1000,1000,1000,1000,88328821,1529,1530,1528,1529
48376475,1000,1000,1000,1000,88428781,1536,1536,1535,1535
48378974,1000,1000,1000,1000,88528741,1539,1538,1538,1538
48381473,1000,1000,1000,1000,88628701,1541,1541,1541,1541
48383972,1000,1000,1000,1000,88728661,1543,1543,1542,1543
48386471,1000,1000,1000,1000,88828621,1543,1544,1544,1543
48388970,1000,1000,1000,1000,88928581,1545,1544,1545,1544
48391469,1000,1000,1000,1000,89028541,1545,1545,1545,1545
48393968,1000,1000,1000,1000,89128501,1545,1545,1546,1545
48396467,1000,1000,1000,1000,89228461,1545,1546,1546,1546
48398966,1000,1000,1000,1000,89328421,1545,1545,1546,1546
48401465,1000,1000,1000,1000,89428381,1545,1545,1546,1546
48403964,1000,1000,1000,1000,89528341,1545,1545,1545,1545
48406463,1000,1000,1000,1000,89628301,1545,1545,1545,1545
48408962,1000,1000,1000,1000,89728261,1545,1545,1545,1545
48411461,1000,1000,1000,1000,89828221,1545,1545,1546,1544
48413960,1000,1000,1000,1000,89928181,1545,1545,1545,1545
48416459,1000,1000,1000,1000,90028974,1545,1545,1545,1545
48418958,1000,1000,1000,1000,90128934,1544,1544,1544,1544
48421457,1000,1000,1000,1000,90228894,1544,1545,1545,1544
48423956,1000,1000,1000,1000,90328854,1545,1544,1545,1544
48426455,1000,1000,1000,1000,90428814,1544,1544,1543,1544
48428954,1000,1000,1000,1000,90528774,1544,1543,1543,1544
48431453,1000,1000,1000,1000,90628734,1542,1543,1542,1543
48433952,1000,1000,1000,1000,90728694,1543,1543,1543,1543
48436451,1000,1000,1000,1000,90828654,1543,1543,1543,1543
48438950,1000,1000,1000,1000,90928614,1543,1543,1543,1543
48441449,1000,1000,1000,1000,91028574,1544,1543,1543,1543
48443948,1000,1000,1000,1000,91128534,1543,1543,1543,1543
48446447,1000,1000,1000,1000,91228494,1544,1544,1544,1544
48448946,1000,1000,1000,1000,91328454,1544,1544,1544,1544
48451445,1000,1000,1000,1000,91428414,1543,1544,1544,1543
48453944,1000,1000,1000,1000,91528374,1544,1544,1544,1544
48456443,1000,1000,1000,1000,91628334,1545,1544,1544,1544
48458942,1000,1000,1000,1000,91728294,1544,1544,1544,1544
48461441,1000,1000,1000,1000,91828254,1544,1544,1544,1544
48463940,1000,1000,1000,1000,91928214,1544,1544,1544,1544
48466439,1000,1000,1000,1000,92028174,1544,1544,1544,1544
48468938,1000,1000,1000,1000,92128967,1544,1544,1544,1544
48471437,1000,1000,1000,1000,92228927,1544,1544,1544,1544
48473936,1000,1000,1000,1000,92328887,1544,1543,1544,1544
48476435,1000,1000,1000,1000,92428847,1544,1544,1544,1544
48478934,1000,1000,1000,1000,92528807,1544,1544,1544,1544
48481433,1000,1000,1000,1000,92628767,1543,1543,1543,1543
48483932,1000,1000,1000,1000,92728727,1543,1543,1543,1544
48486431,1000,1000,1000,1000,92828687,1544,1544,1544,1543
48488930,1000,1000,1000,1000,92928647,1544,1545,1544,1544
48491429,1000,1000,1000,1000,93028607,1544,1545,1545,1544
48493928,1000,1000,1000,1000,93128567,1544,1544,1544,1544
48496427,1000,1000,1000,1000,93228527,1544,1544,1544,1544
48498926,1000,1000,1000,1000,93328487,1544,1544,1544,1544
48501425,1000,1000,1000,1000,93428447,1544,1544,1544,1544
48503924,1000,1000,1000,1000,93528407,1544,1544,1544,1544
48506423,1000,1000,1000,1000,93628367,1543,1544,1544,1543
48508922,1000,1000,1000,1000,93728327,1544,1544,1543,1544
48511421,1000,1000,1000,1000,93828287,1544,1544,1544,1544
48513920,1000,1000,1000,1000,93928247,1544,1544,1543,1544
48516419,1000,1000,1000,1000,94028207,1544,1544,1544,1544
48518918,1000,1000,1000,1000,94128167,1544,1543,1544,1544
48521417,1000,1000,1000,1000,94228960,1545,1545,1545,1545
48523916,1000,1000,1000,1000,94328920,1544,1544,1544,1545
48526415,1000,1000,1000,1000,94428880,1545,1545,1545,1545
48528914,1000,1000,1000,1000,94528840,1544,1544,1544,1544
48531413,1000,1000,1000,1000,94628800,1544,1544,1545,1544
48533912,1000,1000,1000,1000,94728760,1544,1544,1544,1544
48536411,1000,1000,1000,1000,94828720,1544,1545,1544,1544
48538910,1000,1000,1000,1000,94928680,1544,1544,1544,1544
48541409,1000,1000,1000,1000,95028640,1544,1544,1544,1544
48543908,1000,1000,1000,1000,95128600,1545,1544,1544,1545
48546407,1000,1000,1000,1000,95228560,1544,1544,1544,1544
48548906,1000,1000,1000,1000,95328520,1545,1545,1545,1545
48551405,1000,1000,1000,1000,95428480,1544,1544,1544,1544
48553904,1000,1000,1000,1000,95528440,1546,1545,1545,1546
48556403,1000,1000,1000,1000,95628400,1545,1545,1545,1545
48558902,1000,1000,1000,1000,95728360,1545,1545,1545,1545
48561401,1000,1000,1000,1000,95828320,1544,1545,1545,1544
48563900,1000,1000,1000,1000,95928280,1544,1545,1545,1544
48566399,1000,1000,1000,1000,96028240,1544,1544,1544,1544
48568898,1000,1000,1000,1000,96128200,1544,1544,1544,1544
48571397,1000,1000,1000,1000,96228160,1544,1544,1544,1544
48573896,1000,1000,1000,1000,96328953,1545,1544,1544,1545
48576395,1000,1000,1000,1000,96428913,1544,1544,1544,1544
48578894,1000,1000,1000,1000,96528873,1543,1543,1543,1543
48581393,1000,1000,1000,1000,96628833,1543,1543,1543,1543
48583892,1000,1000,1000,1000,96728793,1544,1544,1543,1544
48586391,1000,1000,1000,1000,96828753,1544,1544,1544,1544
48588890,1000,1000,1000,1000,96928713,1544,1544,1544,1544
48591389,1000,1000,1000,1000,97028673,1544,1544,1545,1544
48593888,1000,1000,1000,1000,97128633,1544,1543,1544,1545
48596387,1000,1000,1000,1000,97228593,1544,1544,1544,1544
48598886,1000,1000,1000,1000,97328553,1545,1544,1545,1544
48601385,1000,1000,1000,1000,97428513,1545,1545,1545,1544
48603884,1000,1000,1000,1000,97528473,1535,1534,1535,1535
48606383,1000,1000,1000,1000,97628433,1329,1325,1330,1343
48608882,1000,1000,1000,1000,97728393,1213,1208,1215,1241
48611381,1000,1000,1000,1000,97828353,1201,1198,1203,1231
48613880,1000,1000,1000,1000,97928313,1202,1198,1203,1232
48616379,1000,1000,1000,1000,98028273,1201,1198,1202,1232
48618878,1000,1000,1000,1000,98128233,1202,1198,1203,1232
48621377,1000,1000,1000,1000,98228193,1228,1198,1200,1257
48623876,1000,1000,1000,1000,98328986,1226,1198,1201,1254
48626375,1000,1000,1000,1000,98428946,1220,1198,1202,1248
48628874,1000,1000,1000,1000,98528906,1220,1198,1203,1248
48631373,1000,1000,1000,1000,98628866,1222,1198,1203,1249
48633872,1000,1000,1000,1000,98728826,1223,1198,1203,1251
48636371,1000,1000,1000,1000,98828786,1225,1198,1203,1252
48638870,1000,1000,1000,1000,98928746,1228,1198,1204,1254
48641369,1000,1000,1000,1000,99028706,1211,1198,1201,1242
48643868,1000,1000,1000,1000,99128666,1215,1198,1201,1244
48646367,1000,1000,1000,1000,99228626,1216,1198,1202,1245
48648866,1000,1000,1000,1000,99328586,1216,1198,1202,1246
48651365,1000,1000,1000,1000,99428546,1217,1198,1202,1246
48653864,1000,1000,1000,1000,99528506,1000,1000,1000,1000
48656363,1000,1000,1000,1000,99628466,1000,1000,1000,1000
48658862,1000,1000,1000,1000,99728426,1000,1000,1000,1000
48661361,1000,1000,1000,1000,99828386,1000,1000,1000,1000
48663860,1000,1000,1000,1000,99928346,1000,1000,1000,1000
48666359,1000,1000,1000,1000,100028306,1000,1000,1000,1000
48668858,1000,1000,1000,1000,100128266,1000,1000,1000,1000
48671357,1000,1000,1000,1000,100228226,1000,1000,1000,1000
48673856,1000,1000,1000,1000,100328186,1000,1000,1000,1000
48676355,1000,1000,1000,1000,100428979,1000,1000,1000,1000
48678854,1000,1000,1000,1000,100528939,1000,1000,1000,1000
48681353,1000,1000,1000,1000,100628899,1000,1000,1000,1000
48683852,1000,1000,1000,1000,100728859,1000,1000,1000,1000
48686351,1000,1000,1000,1000,100828819,1000,1000,1000,1000
48688850,1000,1000,1000,1000,100928779,1000,1000,1000,1000
48691349,1000,1000,1000,1000,101028739,1000,1000,1000,1000
48693848,1000,1000,1000,1000,101128699,1000,1000,1000,1000
48696347,1000,1000,1000,1000,101228659,1000,1000,1000,1000
48698846,1000,1000,1000,1000,101328619,1000,1000,1000,1000
48701345,1000,1000,1000,1000,101428579,1000,1000,1000,1000
48703844,1000,1000,1000,1000,101528539,1000,1000,1000,1000
48706343,1000,1000,1000,1000,101628499,1000,1000,1000,1000
48708842,1000,1000,1000,1000,101728459,1000,1000,1000,1000
48711341,1000,1000,1000,1000,101828419,1000,1000,1000,1000
48713840,1000,1000,1000,1000,101928379,1000,1000,1000,1000
48716339,1000,1000,1000,1000,102028339,1000,1000,1000,1000
48718838,1000,1000,1000,1000,102128299,1000,1000,1000,1000
48721337,1000,1000,1000,1000,102228259,1000,1000,1000,1000
48723836,1000,1000,1000,1000,102328219,1000,1000,1000,1000
48726335,1000,1000,1000,1000,102428179,1000,1000,1000,1000
48728834,1000,1000,1000,1000,102528972,1000,1000,1000,1000
48731333,1000,1000,1000,1000,102628932,1000,1000,1000,1000
48733832,1000,1000,1000,1000,102728892,1000,1000,1000,1000
48736331,1000,1000,1000,1000,102828852,1000,1000,1000,1000
48738830,1000,1000,1000,1000,102928812,1000,1000,1000,1000
48741329,1000,1000,1000,1000,103028772,1000,1000,1000,1000
48743828,1000,1000,1000,1000,103128732,1000,1000,1000,1000
48746327,1000,1000,1000,1000,103228692,1000,1000,1000,1000
48748826,1000,1000,1000,1000,103328652,1000,1000,1000,1000
48751325,1000,1000,1000,1000,103428612,1000,1000,1000,1000
48753824,1000,1000,1000,1000,103528572,1000,1000,1000,1000
48756323,1000,1000,1000,1000,103628532,1000,1000,1000,1000
48758822,1000,1000,1000,1000,103728492,1000,1000,1000,1000
48761321,1000,1000,1000,1000,103828452,1000,1000,1000,1000
48763820,1000,1000,1000,1000,103928412,1000,1000,1000,1000
48766319,1000,1000,1000,1000,104028372,1000,1000,1000,1000
48768818,1000,1000,1000,1000,104128332,1000,1000,1000,1000
48771317,1000,1000,1000,1000,104228292,1000,1000,1000,1000
48773816,1000,1000,1000,1000,104328252,1000,1000,1000,1000
48776315,1000,1000,1000,1000,104428212,1000,1000,1000,1000
48778814,1000,1000,1000,1000,104528172,1000,1000,1000,1000
48781313,1000,1000,1000,1000,104628965,1000,1000,1000,1000
48783812,1000,1000,1000,1000,104728925,1000,1000,1000,1000
48786311,1000,1000,1000,1000,104828885,1000,1000,1000,1000
48788810,1000,1000,1000,1000,104928845,1000,1000,1000,1000
48791309,1000,1000,1000,1000,105028805,1000,1000,1000,1000
48793808,1000,1000,1000,1000,105128765,1000,1000,1000,1000
48796307,1000,1000,1000,1000,105228725,1000,1000,1000,1000
48798806,1000,1000,1000,1000,105328685,1000,1000,1000,1000
48801305,1000,1000,1000,1000,105428645,1000,1000,1000,1000
48803804,1000,1000,1000,1000,105528605,1000,1000,1000,1000
48806303,1000,1000,1000,1000,105628565,1000,1000,1000,1000
48808802,1000,1000,1000,1000,105728525,1000,1000,1000,1000
48811301,1000,1000,1000,1000,105828485,1000,1000,1000,1000
48813800,1000,1000,1000,1000,105928445,1000,1000,1000,1000
48816299,1000,1000,1000,1000,106028405,1000,1000,1000,1000
48818798,1000,1000,1000,1000,106128365,1000,1000,1000,1000
48821297,1000,1000,1000,1000,106228325,1000,1000,1000,1000
48823796,1000,1000,1000,1000,106328285,1000,1000,1000,1000
48826295,1000,1000,1000,1000,106428245,1000,1000,1000,1000
48828794,1000,1000,1000,1000,106528205,1000,1000,1000,1000
48831293,1000,1000,1000,1000,106628165,1000,1000,1000,1000
48833792,1000,1000,1000,1000,106728958,1000,1000,1000,1000
48836291,1000,1000,1000,1000,106828918,1000,1000,1000,1000
48838790,1000,1000,1000,1000,106928878,1000,1000,1000,1000
48841289,1000,1000,1000,1000,107028838,1000,1000,1000,1000
48843788,1000,1000,1000,1000,107128798,1000,1000,1000,1000
48846287,1000,1000,1000,1000,107228758,1000,1000,1000,1000
48848786,1000,1000,1000,1000,107328718,1000,1000,1000,1000
48851285,1000,1000,1000,1000,107428678,1000,1000,1000,1000
48853784,1000,1000,1000,1000,107528638,1000,1000,1000,1000
48856283,1000,1000,1000,1000,107628598,1000,1000,1000,1000
48858782,1000,1000,1000,1000,107728558,1000,1000,1000,1000
48861281,1000,1000,1000,1000,107828518,1000,1000,1000,1000
48863780,1000,1000,1000,1000,107928478,1000,1000,1000,1000
48866279,1000,1000,1000,1000,108028438,1000,1000,1000,1000
48868778,1000,1000,1000,1000,108128398,1000,1000,1000,1000
48871277,1000,1000,1000,1000,108228358,1000,1000,1000,1000
48873776,1000,1000,1000,1000,108328318,1000,1000,1000,1000
48876275,1000,1000,1000,1000,108428278,1000,1000,1000,1000
48878774,1000,1000,1000,1000,108528238,1000,1000,1000,1000
48881273,1000,1000,1000,1000,108628198,1000,1000,1000,1000
48883772,1000,1000,1000,1000,108728158,1000,1000,1000,1000
48886271,1000,1000,1000,1000,108828951,1000,1000,1000,1000
48888770,1000,1000,1000,1000,108928911,1000,1000,1000,1000
48891269,1000,1000,1000,1000,109028871,1000,1000,1000,1000
48893768,1000,1000,1000,1000,109128831,1000,1000,1000,1000
48896267,1000,1000,1000,1000,109228791,1000,1000,1000,1000
48898766,1000,1000,1000,1000,109328751,1000,1000,1000,1000
48901265,1000,1000,1000,1000,109428711,1000,1000,1000,1000
48903764,1000,1000,1000,1000,109528671,1000,1000,1000,1000
48906263,1000,1000,1000,1000,109628631,1000,1000,1000,1000
48908762,1000,1000,1000,1000,109728591,1000,1000,1000,1000
48911261,1000,1000,1000,1000,109828551,1000,1000,1000,1000
48913760,1000,1000,1000,1000,109928511,1000,1000,1000,1000
48916259,1000,1000,1000,1000,110028471,1000,1000,1000,1000
48918758,1000,1000,1000,1000,110128431,1000,1000,1000,1000
48921257,1000,1000,1000,1000,110228391,1000,1000,1000,1000
48923756,1000,1000,1000,1000,110328351,1000,1000,1000,1000
48926255,1000,1000,1000,1000,110428311,1000,1000,1000,1000
48928754,1000,1000,1000,1000,110528271,1000,1000,1000,1000
48931253,1000,1000,1000,1000,110628231,1000,1000,1000,1000
48933752,1000,1000,1000,1000,110728191,1000,1000,1000,1000
48936251,1000,1000,1000,1000,110828984,1000,1000,1000,1000
48938750,1000,1000,1000,1000,110928944,1000,1000,1000,1000
48941249,1000,1000,1000,1000,111028904,1000,1000,1000,1000
48943748,1000,1000,1000,1000,111128864,1000,1000,1000,1000
48946247,1000,1000,1000,1000,111228824,1000,1000,1000,1000
48948746,1000,1000,1000,1000,111328784,1000,1000,1000,1000
48951245,1000,1000,1000,1000,111428744,1000,1000,1000,1000
48953744,1000,1000,1000,1000,111528704,1000,1000,1000,1000
48956243,1000,1000,1000,1000,111628664,1000,1000,1000,1000
48958742,1000,1000,1000,1000,111728624,1000,1000,1000,1000
48961241,1000,1000,1000,1000,111828584,1000,1000,1000,1000
48963740,1000,1000,1000,1000,111928544,1000,1000,1000,1000
48966239,1000,1000,1000,1000,112028504,1000,1000,1000,1000
48968738,1000,1000,1000,1000,112128464,1000,1000,1000,1000
48971237,1000,1000,1000,1000,112228424,1000,1000,1000,1000
48973736,1000,1000,1000,1000,112328384,1000,1000,1000,1000
48976235,1000,1000,1000,1000,112428344,1000,1000,1000,1000
48978734,1000,1000,1000,1000,112528304,1000,1000,1000,1000
48981233,1000,1000,1000,1000,112628264,1000,1000,1000,1000
48983732,1000,1000,1000,1000,112728224,1000,1000,1000,1000
48986231,1000,1000,1000,1000,112828184,1000,1000,1000,1000
48988730,1000,1000,1000,1000,112928977,1000,1000,1000,1000
48991229,1000,1000,1000,1000,113028937,1000,1000,1000,1000
48993728,1000,1000,1000,1000,113128897,1000,1000,1000,1000
48996227,1000,1000,1000,1000,113228857,1000,1000,1000,1000
48998726,1000,1000,1000,1000,113328817,1000,1000,1000,1000
49001225,1000,1000,1000,1000,113428777,1000,1000,1000,1000
49003724,1000,1000,1000,1000,113528737,1000,1000,1000,1000
49006223,1000,1000,1000,1000,113628697,1000,1000,1000,1000
49008722,1000,1000,1000,1000,113728657,1000,1000,1000,1000
49011221,1000,1000,1000,1000,113828617,1000,1000,1000,1000
49013720,1000,1000,1000,1000,113928577,1000,1000,1000,1000
49016219,1000,1000,1000,1000,114028537,1000,1000,1000,1000
49018718,1000,1000,1000,1000,114128497,1000,1000,1000,1000
49021217,1000,1000,1000,1000,114228457,1000,1000,1000,1000
49023716,1000,1000,1000,1000,114328417,1000,1000,1000,1000
49026215,1000,1000,1000,1000,114428377,1000,1000,1000,1000
49028714,1000,1000,1000,1000,,,,,
49031213,1000,1000,1000,1000,,,,,
49033712,1000,1000,1000,1000,,,,,
49036211,1000,1000,1000,1000,,,,,
49038710,1000,1000,1000,1000,,,,,
49041209,1000,1000,1000,1000,,,,,
49043708,1000,1000,1000,1000,,,,,
49046207,1000,1000,1000,1000,,,,,
49048706,1000,1000,1000,1000,,,,,
49051205,1000,1000,1000,1000,,,,,
49053704,1000,1000,1000,1000,,,,,
49056203,1000,1000,1000,1000,,,,,
49058702,1000,1000,1000,1000,,,,,
49061201,1000,1000,1000,1000,,,,,
49063700,1000,1000,1000,1000,,,,,
49066199,1000,1000,1000,1000,,,,,
49068698,1000,1000,1000,1000,,,,,
49071197,1000,1000,1000,1000,,,,,
49073696,1000,1000,1000,1000,,,,,
49076195,1000,1000,1000,1000,,,,,
49078694,1000,1000,1000,1000,,,,,
49081193,1000,1000,1000,1000,,,,,
49083692,1000,1000,1000,1000,,,,,
49086191,1000,1000,1000,1000,,,,,
49088690,1000,1000,1000,1000,,,,,
49091189,1000,1000,1000,1000,,,,,
49093688,1000,1000,1000,1000,,,,,
49096187,1000,1000,1000,1000,,,,,
49098686,1000,1000,1000,1000,,,,,
49101185,1000,1000,1000,1000,,,,,
49103684,1000,1000,1000,1000,,,,,
49106183,1000,1000,1000,1000,,,,,
49108682,1000,1000,1000,1000,,,,,
49111181,1000,1000,1000,1000,,,,,
49113680,1000,1000,1000,1000,,,,,
49116179,1000,1000,1000,1000,,,,,
49118678,1000,1000,1000,1000,,,,,
49121177,1000,1000,1000,1000,,,,,
49123676,1000,1000,1000,1000,,,,,
49126175,1000,1000,1000,1000,,,,,
49128674,1000,1000,1000,1000,,,,,
49131173,1000,1000,1000,1000,,,,,
49133672,1000,1000,1000,1000,,,,,
49136171,1000,1000,1000,1000,,,,,
49138670,1000,1000,1000,1000,,,,,
49141169,1000,1000,1000,1000,,,,,
49143668,1000,1000,1000,1000,,,,,
49146167,1000,1000,1000,1000,,,,,
49148666,1000,1000,1000,1000,,,,,
49151165,1000,1000,1000,1000,,,,,
49153664,1000,1000,1000,1000,,,,,
49156163,1000,1000,1000,1000,,,,,
49158662,1000,1000,1000,1000,,,,,
49161161,1000,1000,1000,1000,,,,,
49163660,1000,1000,1000,1000,,,,,
49166159,1000,1000,1000,1000,,,,,
49168658,1000,1000,1000,1000,,,,,
49171157,1000,1000,1000,1000,,,,,
49173656,1000,1000,1000,1000,,,,,
49176155,1000,1000,1000,1000,,,,,
49178654,1000,1000,1000,1000,,,,,
49181153,1000,1000,1000,1000,,,,,
49183652,1000,1000,1000,1000,,,,,
49186151,1000,1000,1000,1000,,,,,
49188650,1000,1000,1000,1000,,,,,
49191149,1000,1000,1000,1000,,,,,
49193648,1000,1000,1000,1000,,,,,
49196147,1000,1000,1000,1000,,,,,
49198646,1000,1000,1000,1000,,,,,
49201145,1000,1000,1000,1000,,,,,
49203644,1000,1000,1000,1000,,,,,
49206143,1000,1000,1000,1000,,,,,
49208642,1000,1000,1000,1000,,,,,
49211141,1000,1000,1000,1000,,,,,
49213640,1000,1000,1000,1000,,,,,
49216139,1000,1000,1000,1000,,,,,
49218638,1000,1000,1000,1000,,,,,
49221137,1000,1000,1000,1000,,,,,
49223636,1000,1000,1000,1000,,,,,
49226135,1000,1000,1000,1000,,,,,
49228634,1000,1000,1000,1000,,,,,
49231133,1000,1000,1000,1000,,,,,
49233632,1000,1000,1000,1000,,,,,
49236131,1000,1000,1000,1000,,,,,
49238630,1000,1000,1000,1000,,,,,
49241129,1000,1000,1000,1000,,,,,
49243628,1000,1000,1000,1000,,,,,
49246127,1000,1000,1000,1000,,,,,
49248626,1000,1000,1000,1000,,,,,
49251125,1000,1000,1000,1000,,,,,
49253624,1000,1000,1000,1000,,,,,
49256123,1000,1000,1000,1000,,,,,
49258622,1000,1000,1000,1000,,,,,
49261121,1000,1000,1000,1000,,,,,
49263620,1000,1000,1000,1000,,,,,
49266119,1000,1000,1000,1000,,,,,
49268618,1000,1000,1000,1000,,,,,
49271117,1000,1000,1000,1000,,,,,
49273616,1000,1000,1000,1000,,,,,
49276115,1000,1000,1000,1000,,,,,
49278614,1000,1000,1000,1000,,,,,
49281113,1000,1000,1000,1000,,,,,
49283612,1000,1000,1000,1000,,,,,
49286111,1000,1000,1000,1000,,,,,
49288610,1000,1000,1000,1000,,,,,
49291109,1000,1000,1000,1000,,,,,
49293608,1000,1000,1000,1000,,,,,
49296107,1000,1000,1000,1000,,,,,
49298606,1000,1000,1000,1000,,,,,
49301105,1000,1000,1000,1000,,,,,
49303604,1000,1000,1000,1000,,,,,
49306103,1000,1000,1000,1000,,,,,
49308602,1000,1000,1000,1000,,,,,
49311101,1000,1000,1000,1000,,,,,
49313600,1000,1000,1000,1000,,,,,
49316099,1000,1000,1000,1000,,,,,
49318598,1000,1000,1000,1000,,,,,
49321097,1000,1000,1000,1000,,,,,
49323596,1000,1000,1000,1000,,,,,
49326095,1000,1000,1000,1000,,,,,
49328594,1000,1000,1000,1000,,,,,
49331093,1000,1000,1000,1000,,,,,
49333592,1000,1000,1000,1000,,,,,
49336091,1000,1000,1000,1000,,,,,
49338590,1000,1000,1000,1000,,,,,
49341089,1000,1000,1000,1000,,,,,
49343588,1000,1000,1000,1000,,,,,
49346087,1000,1000,1000,1000,,,,,
49348586,1000,1000,1000,1000,,,,,
49351085,1000,1000,1000,1000,,,,,
49353584,1000,1000,1000,1000,,,,,
49356083,1000,1000,1000,1000,,,,,
49358582,1001,1001,1001,1001,,,,,
49361081,1002,1002,1002,1002,,,,,
49363580,1003,1003,1003,1003,,,,,
49366079,1003,1003,1003,1003,,,,,
49368578,1004,1004,1004,1004,,,,,
49371077,1005,1005,1005,1005,,,,,
49373576,1006,1006,1006,1006,,,,,
49376075,1006,1006,1006,1006,,,,,
49378574,1007,1007,1007,1007,,,,,
49381073,1008,1008,1008,1008,,,,,
49383572,1009,1009,1009,1009,,,,,
49386071,1009,1009,1009,1009,,,,,
49388570,1010,1010,1010,1010,,,,,
49391069,1011,1011,1011,1011,,,,,
49393568,1012,1012,1012,1012,,,,,
49396067,1012,1012,1012,1012,,,,,
49398566,1013,1013,1013,1013,,,,,
49401065,1014,1014,1014,1014,,,,,
49403564,1015,1015,1015,1015,,,,,
49406063,1015,1015,1015,1015,,,,,
49408562,1016,1016,1016,1016,,,,,
49411061,1017,1017,1017,1017,,,,,
49413560,1018,1018,1018,1018,,,,,
49416059,1018,1018,1018,1018,,,,,
49418558,1019,1019,1019,1019,,,,,
49421057,1020,1020,1020,1020,,,,,
49423556,1021,1021,1021,1021,,,,,
49426055,1021,1021,1021,1021,,,,,
49428554,1022,1022,1022,1022,,,,,
49431053,1023,1023,1023,1023,,,,,
49433552,1024,1024,1024,1024,,,,,
49436051,1024,1024,1024,1024,,,,,
49438550,1025,1025,1025,1025,,,,,
49441049,1026,1026,1026,1026,,,,,
49443548,1027,1027,1027,1027,,,,,
49446047,1027,1027,1027,1027,,,,,
49448546,1028,1028,1028,1028,,,,,
49451045,1029,1029,1029,1029,,,,,
49453544,1030,1030,1030,1030,,,,,
49456043,1030,1030,1030,1030,,,,,
49458542,1031,1031,1031,1031,,,,,
49461041,1032,1032,1032,1032,,,,,
49463540,1033,1033,1033,1033,,,,,
49466039,1033,1033,1033,1033,,,,,
49468538,1034,1034,1034,1034,,,,,
49471037,1035,1035,1035,1035,,,,,
49473536,1036,1036,1036,1036,,,,,
49476035,1036,1036,1036,1036,,,,,
49478534,1037,1037,1037,1037,,,,,
49481033,1038,1038,1038,1038,,,,,
49483532,1039,1039,1039,1039,,,,,
49486031,1039,1039,1039,1039,,,,,
49488530,1040,1040,1040,1040,,,,,
49491029,1041,1041,1041,1041,,,,,
49493528,1042,1042,1042,1042,,,,,
49496027,1042,1042,1042,1042,,,,,
49498526,1043,1043,1043,1043,,,,,
49501025,1044,1044,1044,1044,,,,,
49503524,1045,1045,1045,1045,,,,,
49506023,1045,1045,1045,1045,,,,,
49508522,1046,1046,1046,1046,,,,,
49511021,1047,1047,1047,1047,,,,,
49513520,1048,1048,1048,1048,,,,,
49516019,1048,1048,1048,1048,,,,,
49518518,1049,1049,1049,1049,,,,,
49521017,1050,1050,1050,1050,,,,,
49523516,1051,1051,1051,1051,,,,,
49526015,1051,1051,1051,1051,,,,,
49528514,1052,1052,1052,1052,,,,,
49531013,1053,1053,1053,1053,,,,,
49533512,1054,1054,1054,1054,,,,,
49536011,1054,1054,1054,1054,,,,,
49538510,1055,1055,1055,1055,,,,,
49541009,1056,1056,1056,1056,,,,,
49543508,1057,1057,1057,1057,,,,,
49546007,1057,1057,1057,1057,,,,,
49548506,1058,1058,1058,1058,,,,,
49551005,1059,1059,1059,1059,,,,,
49553504,1060,1060,1060,1060,,,,,
49556003,1060,1060,1060,1060,,,,,
49558502,1061,1061,1061,1061,,,,,
49561001,1062,1062,1062,1062,,,,,
49563500,1063,1063,1063,1063,,,,,
49565999,1063,1063,1063,1063,,,,,
49568498,1064,1064,1064,1064,,,,,
49570997,1065,1065,1065,1065,,,,,
49573496,1066,1066,1066,1066,,,,,
49575995,1066,1066,1066,1066,,,,,
49578494,1067,1067,1067,1067,,,,,
49580993,1068,1068,1068,1068,,,,,
49583492,1069,1069,1069,1069,,,,,
49585991,1069,1069,1069,1069,,,,,
49588490,1070,1070,1070,1070,,,,,
49590989,1071,1071,1071,1071,,,,,
49593488,1072,1072,1072,1072,,,,,
49595987,1072,1072,1072,1072,,,,,
49598486,1073,1073,1073,1073,,,,,
49600985,1074,1074,1074,1074,,,,,
49603484,1075,1075,1075,1075,,,,,
49605983,1075,1075,1075,1075,,,,,
49608482,1076,1076,1076,1076,,,,,
49610981,1077,1077,1077,1077,,,,,
49613480,1078,1078,1078,1078,,,,,
49615979,1078,1078,1078,1078,,,,,
49618478,1079,1079,1079,1079,,,,,
49620977,1080,1080,1080,1080,,,,,
49623476,1081,1081,1081,1081,,,,,
49625975,1081,1081,1081,1081,,,,,
49628474,1082,1082,1082,1082,,,,,
49630973,1083,1083,1083,1083,,,,,
49633472,1084,1084,1084,1084,,,,,
49635971,1084,1084,1084,1084,,,,,
49638470,1085,1085,1085,1085,,,,,
49640969,1086,1086,1086,1086,,,,,
49643468,1087,1087,1087,1087,,,,,
49645967,1087,1087,1087,1087,,,,,
49648466,1088,1088,1088,1088,,,,,
49650965,1089,1089,1089,1089,,,,,
49653464,1090,1090,1090,1090,,,,,
49655963,1090,1090,1090,1090,,,,,
49658462,1091,1091,1091,1091,,,,,
49660961,1092,1092,1092,1092,,,,,
49663460,1093,1093,1093,1093,,,,,
49665959,1093,1093,1093,1093,,,,,
49668458,1094,1094,1094,1094,,,,,
49670957,1095,1095,1095,1095,,,,,
49673456,1096,1096,1096,1096,,,,,
49675955,1096,1096,1096,1096,,,,,
49678454,1097,1097,1097,1097,,,,,
49680953,1098,1098,1098,1098,,,,,
49683452,1099,1099,1099,1099,,,,,
49685951,1099,1099,1099,1099,,,,,
49688450,1100,1100,1100,1100,,,,,
49690949,1101,1101,1101,1101,,,,,
49693448,1101,1101,1101,1101,,,,,
49695947,1102,1102,1102,1102,,,,,
49698446,1103,1103,1103,1103,,,,,
49700945,1104,1104,1104,1104,,,,,
49703444,1104,1104,1104,1104,,,,,
49705943,1105,1105,1105,1105,,,,,
49708442,1106,1106,1106,1106,,,,,
49710941,1107,1107,1107,1107,,,,,
49713440,1107,1107,1107,1107,,,,,
49715939,1108,1108,1108,1108,,,,,
49718438,1109,1109,1109,1109,,,,,
49720937,1110,1110,1110,1110,,,,,
49723436,1110,1110,1110,1110,,,,,
49725935,1111,1111,1111,1111,,,,,
49728434,1112,1112,1112,1112,,,,,
49730933,1113,1113,1113,1113,,,,,
49733432,1113,1113,1113,1113,,,,,
49735931,1114,1114,1114,1114,,,,,
49738430,1115,1115,1115,1115,,,,,
49740929,1116,1116,1116,1116,,,,,
49743428,1116,1116,1116,1116,,,,,
49745927,1117,1117,1117,1117,,,,,
49748426,1118,1118,1118,1118,,,,,
49750925,1119,1119,1119,1119,,,,,
49753424,1119,1119,1119,1119,,,,,
49755923,1120,1120,1120,1120,,,,,
49758422,1121,1121,1121,1121,,,,,
49760921,1122,1122,1122,1122,,,,,
49763420,1122,1122,1122,1122,,,,,
49765919,1123,1123,1123,1123,,,,,
49768418,1124,1124,1124,1124,,,,,
49770917,1125,1125,1125,1125,,,,,
49773416,1125,1125,1125,1125,,,,,
49775915,1126,1126,1126,1126,,,,,
49778414,1127,1127,1127,1127,,,,,
49780913,1128,1128,1128,1128,,,,,
49783412,1128,1128,1128,1128,,,,,
49785911,1129,1129,1129,1129,,,,,
49788410,1130,1130,1130,1130,,,,,
49790909,1131,1131,1131,1131,,,,,
49793408,1131,1131,1131,1131,,,,,
49795907,1132,1132,1132,1132,,,,,
49798406,1133,1133,1133,1133,,,,,
49800905,1134,1134,1134,1134,,,,,
49803404,1134,1134,1134,1134,,,,,
49805903,1135,1135,1135,1135,,,,,
49808402,1136,1136,1136,1136,,,,,
49810901,1137,1137,1137,1137,,,,,
49813400,1137,1137,1137,1137,,,,,
49815899,1138,1138,1138,1138,,,,,
49818398,1139,1139,1139,1139,,,,,
49820897,1140,1140,1140,1140,,,,,
49823396,1140,1140,1140,1140,,,,,
49825895,1141,1141,1141,1141,,,,,
49828394,1142,1142,1142,1142,,,,,
49830893,1143,1143,1143,1143,,,,,
49833392,1143,1143,1143,1143,,,,,
49835891,1144,1144,1144,1144,,,,,
49838390,1145,1145,1145,1145,,,,,
49840889,1146,1146,1146,1146,,,,,
49843388,1146,1146,1146,1146,,,,,
49845887,1147,1147,1147,1147,,,,,
49848386,1148,1148,1148,1148,,,,,
49850885,1149,1149,1149,1149,,,,,
49853384,1149,1149,1149,1149,,,,,
49855883,1150,1150,1150,1150,,,,,
49858382,1161,1154,1154,1161,,,,,
49860881,1169,1162,1163,1169,,,,,
49863380,1177,1170,1170,1177,,,,,
49865879,1185,1178,1178,1185,,,,,
49868378,1192,1185,1186,1192,,,,,
49870877,1200,1193,1193,1200,,,,,
49873376,1207,1200,1201,1207,,,,,
49875875,1214,1208,1208,1214,,,,,
49878374,1221,1215,1215,1222,,,,,
49880873,1228,1222,1222,1228,,,,,
49883372,1235,1229,1229,1235,,,,,
49885871,1242,1236,1236,1242,,,,,
49888370,1249,1243,1243,1249,,,,,
49890869,1255,1249,1250,1256,,,,,
49893368,1262,1256,1256,1262,,,,,
49895867,1268,1262,1263,1269,,,,,
49898366,1275,1269,1269,1275,,,,,
49900865,1281,1275,1275,1281,,,,,
49903364,1287,1281,1282,1287,,,,,
49905863,1293,1288,1288,1294,,,,,
49908362,1299,1294,1294,1300,,,,,
49910861,1305,1300,1300,1306,,,,,
49913360,1311,1306,1306,1312,,,,,
49915859,1317,1312,1312,1317,,,,,
49918358,1323,1317,1318,1323,,,,,
49920857,1329,1323,1324,1329,,,,,
49923356,1335,1329,1329,1335,,,,,
49925855,1340,1335,1335,1340,,,,,
49928354,1346,1340,1341,1346,,,,,
49930853,1351,1346,1346,1352,,,,,
49933352,1357,1351,1352,1357,,,,,
49935851,1362,1357,1357,1363,,,,,
49938350,1368,1362,1363,1368,,,,,
49940849,1373,1368,1368,1373,,,,,
49943348,1378,1373,1373,1379,,,,,
49945847,1384,1378,1379,1384,,,,,
49948346,1389,1384,1384,1389,,,,,
49950845,1394,1389,1389,1394,,,,,
49953344,1399,1394,1394,1399,,,,,
49955843,1404,1399,1400,1404,,,,,
49958342,1409,1404,1405,1409,,,,,
49960841,1414,1409,1410,1415,,,,,
49963340,1419,1414,1415,1419,,,,,
49965839,1424,1419,1420,1424,,,,,
49968338,1429,1424,1425,1429,,,,,
49970837,1434,1429,1429,1434,,,,,
49973336,1439,1434,1434,1439,,,,,
49975835,1444,1439,1439,1444,,,,,
49978334,1448,1444,1444,1449,,,,,
49980833,1453,1448,1449,1453,,,,,
49983332,1458,1453,1453,1458,,,,,
49985831,1463,1458,1458,1463,,,,,
49988330,1467,1462,1463,1467,,,,,
49990829,1472,1467,1467,1472,,,,,
49993328,1476,1472,1472,1477,,,,,
49995827,1481,1476,1476,1481,,,,,
49998326,1485,1481,1481,1486,,,,,
50000825,1490,1485,1486,1490,,,,,
50003324,1494,1490,1490,1495,,,,,
50005823,1499,1494,1495,1499,,,,,
50008322,1503,1499,1499,1504,,,,,
50010821,1508,1503,1503,1508,,,,,
50013320,1512,1508,1508,1512,,,,,
50015819,1516,1512,1512,1517,,,,,
50018318,1521,1516,1516,1521,,,,,
50020817,1525,1521,1521,1525,,,,,
50023316,1529,1525,1525,1530,,,,,
50025815,1533,1529,1529,1534,,,,,
50028314,1538,1533,1534,1538,,,,,
50030813,1542,1538,1538,1542,,,,,
50033312,1546,1542,1542,1546,,,,,
50035811,1550,1546,1546,1551,,,,,
50038310,1554,1550,1550,1555,,,,,
50040809,1558,1554,1554,1559,,,,,
50043308,1563,1558,1559,1563,,,,,
50045807,1567,1563,1563,1567,,,,,
50048306,1571,1567,1567,1571,,,,,
50050805,1575,1571,1571,1575,,,,,
50053304,1579,1575,1575,1579,,,,,
50055803,1583,1579,1579,1583,,,,,
50058302,1587,1583,1583,1587,,,,,
50060801,1591,1587,1587,1591,,,,,
50063300,1595,1591,1591,1595,,,,,
50065799,1599,1594,1595,1599,,,,,
50068298,1602,1598,1599,1603,,,,,
50070797,1606,1602,1602,1607,,,,,
50073296,1610,1606,1606,1611,,,,,
50075795,1614,1610,1610,1614,,,,,
50078294,1618,1614,1614,1618,,,,,
50080793,1622,1618,1618,1622,,,,,
50083292,1626,1622,1622,1626,,,,,
50085791,1629,1625,1625,1630,,,,,
50088290,1633,1629,1629,1633,,,,,
50090789,1637,1633,1633,1637,,,,,
50093288,1641,1637,1637,1641,,,,,
50095787,1644,1640,1640,1645,,,,,
50098286,1648,1644,1644,1648,,,,,
50100785,1652,1648,1648,1652,,,,,
50103284,1655,1651,1652,1656,,,,,
50105783,1659,1655,1655,1659,,,,,
50108282,1663,1659,1659,1663,,,,,
50110781,1666,1662,1662,1667,,,,,
50113280,1670,1666,1666,1670,,,,,
50115779,1674,1670,1670,1674,,,,,
50118278,1677,1673,1673,1677,,,,,
50120777,1681,1677,1677,1681,,,,,
50123276,1684,1680,1680,1685,,,,,
50125775,1688,1684,1684,1688,,,,,
50128274,1691,1687,1688,1692,,,,,
50130773,1695,1691,1691,1695,,,,,
50133272,1698,1694,1695,1699,,,,,
50135771,1702,1698,1698,1702,,,,,
50138270,1705,1701,1702,1706,,,,,
50140769,1709,1705,1705,1709,,,,,
50143268,1712,1708,1708,1713,,,,,
50145767,1716,1712,1712,1716,,,,,
50148266,1719,1715,1715,1720,,,,,
50150765,1723,1719,1719,1723,,,,,
50153264,1726,1722,1722,1726,,,,,
50155763,1729,1725,1726,1730,,,,,
50158262,1733,1729,1729,1733,,,,,
50160761,1736,1732,1732,1737,,,,,
50163260,1740,1736,1736,1740,,,,,
50165759,1743,1739,1739,1743,,,,,
50168258,1746,1742,1742,1747,,,,,
50170757,1750,1746,1746,1750,,,,,
50173256,1753,1749,1749,1753,,,,,
50175755,1756,1752,1752,1757,,,,,
50178254,1759,1756,1756,1760,,,,,
50180753,1763,1759,1759,1763,,,,,
50183252,1766,1762,1762,1766,,,,,
50185751,1769,1766,1766,1770,,,,,
50188250,1772,1769,1769,1773,,,,,
50190749,1776,1772,1772,1776,,,,,
50193248,1779,1775,1775,1779,,,,,
50195747,1782,1779,1779,1783,,,,,
50198246,1785,1782,1782,1786,,,,,
50200745,1789,1785,1785,1789,,,,,
50203244,1792,1788,1788,1792,,,,,
50205743,1795,1791,1791,1795,,,,,
50208242,1798,1795,1795,1799,,,,,
50210741,1801,1798,1798,1802,,,,,
50213240,1804,1801,1801,1805,,,,,
50215739,1808,1804,1804,1808,,,,,
50218238,1811,1807,1807,1811,,,,,
50220737,1814,1810,1810,1814,,,,,
50223236,1817,1813,1813,1817,,,,,
50225735,1820,1817,1816,1821,,,,,
50228234,1823,1820,1820,1824,,,,,
50230733,1826,1823,1823,1827,,,,,
50233232,1829,1826,1826,1830,,,,,
50235731,1832,1829,1829,1833,,,,,
50238230,1835,1832,1832,1836,,,,,
50240729,1839,1835,1835,1839,,,,,
50243228,1842,1838,1838,1842,,,,,
50245727,1845,1841,1841,1845,,,,,
50248226,1848,1844,1844,1848,,,,,
50250725,1851,1847,1847,1851,,,,,
50253224,1854,1850,1850,1854,,,,,
50255723,1857,1853,1853,1857,,,,,
50258222,1860,1856,1856,1860,,,,,
50260721,1863,1859,1859,1863,,,,,
50263220,1866,1862,1862,1866,,,,,
50265719,1869,1865,1865,1869,,,,,
50268218,1872,1868,1868,1872,,,,,
50270717,1875,1871,1871,1875,,,,,
50273216,1878,1874,1874,1878,,,,,
50275715,1881,1877,1877,1881,,,,,
50278214,1883,1880,1880,1884,,,,,
50280713,1886,1883,1883,1887,,,,,
50283212,1889,1886,1886,1890,,,,,
50285711,1892,1889,1889,1893,,,,,
50288210,1895,1892,1891,1896,,,,,
50290709,1898,1894,1894,1898,,,,,
50293208,1901,1897,1897,1901,,,,,
50295707,1904,1900,1900,1904,,,,,
50298206,1907,1903,1903,1907,,,,,
50300705,1909,1905,1905,1909,,,,,
50303204,1908,1904,1904,1908,,,,,
50305703,1907,1903,1903,1907,,,,,
50308202,1906,1902,1902,1906,,,,,
50310701,1905,1902,1902,1906,,,,,
50313200,1904,1901,1901,1905,,,,,
50315699,1904,1900,1900,1904,,,,,
50318198,1903,1899,1899,1903,,,,,
50320697,1902,1899,1899,1903,,,,,
50323196,1902,1898,1898,1902,,,,,
50325695,1901,1897,1897,1901,,,,,
50328194,1901,1897,1897,1901,,,,,
50330693,1900,1896,1897,1901,,,,,
50333192,1900,1896,1896,1900,,,,,
50335691,1900,1896,1896,1900,,,,,
50338190,1900,1896,1896,1900,,,,,
50340689,1900,1896,1896,1900,,,,,
50343188,1900,1896,1896,1900,,,,,
50345687,1900,1896,1896,1900,,,,,
50348186,1900,1896,1896,1900,,,,,
50350685,1900,1896,1896,1900,,,,,
50353184,1900,1896,1896,1900,,,,,
50355683,1900,1896,1897,1900,,,,,
50358182,1900,1897,1897,1900,,,,,
50360681,1900,1897,1897,1900,,,,,
50363180,1900,1897,1897,1900,,,,,
50365679,1899,1896,1897,1899,,,,,
50368178,1899,1896,1896,1899,,,,,
50370677,1898,1896,1896,1898,,,,,
50373176,1898,1895,1895,1898,,,,,
50375675,1897,1894,1894,1897,,,,,
50378174,1895,1893,1893,1896,,,,,
50380673,1894,1892,1892,1895,,,,,
50383172,1893,1891,1891,1893,,,,,
50385671,1891,1889,1889,1892,,,,,
50388170,1890,1888,1887,1890,,,,,
50390669,1888,1886,1886,1888,,,,,
50393168,1886,1884,1884,1886,,,,,
50395667,1884,1882,1882,1884,,,,,
50398166,1881,1880,1880,1882,,,,,
50400665,1879,1877,1877,1880,,,,,
50403164,1877,1875,1875,1877,,,,,
50405663,1874,1873,1872,1875,,,,,
50408162,1872,1870,1870,1872,,,,,
50410661,1869,1867,1867,1869,,,,,
50413160,1866,1865,1865,1867,,,,,
50415659,1863,1862,1862,1864,,,,,
50418158,1860,1859,1859,1861,,,,,
50420657,1857,1856,1856,1858,,,,,
50423156,1854,1853,1853,1855,,,,,
50425655,1851,1850,1850,1852,,,,,
50428154,1848,1847,1847,1849,,,,,
50431486,1845,1844,1843,1845,,,,,
50433985,1842,1841,1840,1842,,,,,
50436484,1838,1837,1837,1839,,,,,
50438983,1835,1834,1834,1836,,,,,
50441482,1832,1831,1830,1832,,,,,
50443981,1828,1827,1827,1829,,,,,
50446480,1825,1824,1824,1826,,,,,
50448979,1821,1820,1820,1822,,,,,
50451478,1818,1817,1817,1819,,,,,
50453977,1815,1814,1813,1815,,,,,
50456476,1811,1810,1810,1812,,,,,
50458975,1808,1807,1806,1808,,,,,
50461474,1804,1803,1803,1805,,,,,
50463973,1800,1800,1799,1801,,,,,
50466472,1797,1796,1796,1798,,,,,
50468971,1793,1793,1792,1794,,,,,
50471470,1790,1789,1789,1790,,,,,
50473969,1786,1786,1785,1787,,,,,
50476468,1783,1782,1782,1783,,,,,
50478967,1779,1779,1778,1780,,,,,
50481466,1776,1775,1775,1776,,,,,
50483965,1772,1772,1771,1773,,,,,
50486464,1769,1768,1768,1769,,,,,
50488963,1765,1765,1765,1766,,,,,
50491462,1762,1762,1761,1763,,,,,
50493961,1758,1758,1758,1759,,,,,
50496460,1755,1755,1755,1756,,,,,
50498959,1752,1752,1751,1753,,,,,
50501458,1749,1748,1748,1749,,,,,
50503957,1745,1745,1745,1746,,,,,
50506456,1742,1742,1742,1743,,,,,
50508955,1739,1739,1739,1740,,,,,
50511454,1736,1736,1735,1736,,,,,
50513953,1733,1733,1732,1733,,,,,
50516452,1730,1730,1729,1730,,,,,
50518951,1726,1727,1726,1727,,,,,
50521450,1723,1724,1723,1724,,,,,
50523949,1721,1721,1721,1721,,,,,
50526448,1718,1718,1718,1718,,,,,
50528947,1715,1715,1715,1715,,,,,
50531446,1712,1712,1712,1712,,,,,
50533945,1709,1709,1709,1710,,,,,
50536444,1706,1707,1706,1707,,,,,
50538943,1704,1704,1704,1704,,,,,
50541442,1701,1701,1701,1701,,,,,
50543941,1698,1699,1698,1699,,,,,
50546440,1696,1696,1696,1696,,,,,
50548939,1693,1693,1693,1693,,,,,
50551438,1690,1691,1691,1691,,,,,
50553937,1688,1689,1689,1688,,,,,
50556436,1686,1686,1686,1686,,,,,
50558935,1683,1684,1684,1684,,,,,
50561434,1681,1681,1682,1681,,,,,
