TimeUS,M1,M2,M3,M4,TimeUS,C1,C2,C3,C4
80203739,1000,1000,1000,1000,80228729,1000,1000,1000,1000
80206238,1000,1000,1000,1000,80328689,1000,1000,1000,1000
80208737,1000,1000,1000,1000,80428649,1000,1000,1000,1000
80211236,1000,1000,1000,1000,80528609,1000,1000,1000,1000
80213735,1000,1000,1000,1000,80628569,1000,1000,1000,1000
80216234,1000,1000,1000,1000,80728529,1000,1000,1000,1000
80218733,1000,1000,1000,1000,80828489,1000,1000,1000,1000
80221232,1000,1000,1000,1000,80928449,1000,1000,1000,1000
80223731,1000,1000,1000,1000,81028409,1000,1000,1000,1000
80226230,1000,1000,1000,1000,81128369,1000,1000,1000,1000
80228729,1000,1000,1000,1000,81228329,1000,1000,1000,1000
80231228,1000,1000,1000,1000,81328289,1000,1000,1000,1000
80233727,1000,1000,1000,1000,81428249,1000,1000,1000,1000
80236226,1000,1000,1000,1000,81528209,1000,1000,1000,1000
80238725,1000,1000,1000,1000,81628169,1000,1000,1000,1000
80241224,1000,1000,1000,1000,81728962,1000,1000,1000,1000
80243723,1000,1000,1000,1000,81828922,1000,1000,1000,1000
80246222,1000,1000,1000,1000,81928882,1000,1000,1000,1000
80248721,1000,1000,1000,1000,82028842,1000,1000,1000,1000
80251220,1000,1000,1000,1000,82128802,1000,1000,1000,1000
80253719,1000,1000,1000,1000,82228762,1007,1007,1007,1007
80256218,1000,1000,1000,1000,82328722,1037,1037,1037,1037
80258717,1000,1000,1000,1000,82428682,1067,1067,1067,1067
80261216,1000,1000,1000,1000,82528642,1097,1097,1097,1097
80263715,1000,1000,1000,1000,82628602,1127,1127,1127,1127
80266214,1000,1000,1000,1000,82728562,1224,1212,1213,1224
80268713,1000,1000,1000,1000,82828522,1450,1442,1442,1450
80271212,1000,1000,1000,1000,82928482,1619,1612,1613,1620
80273711,1000,1000,1000,1000,83028442,1761,1754,1755,1761
80276210,1000,1000,1000,1000,83128402,1885,1878,1878,1886
80278709,1000,1000,1000,1000,83228362,1888,1884,1884,1888
80281208,1000,1000,1000,1000,83328322,1775,1773,1773,1775
80283707,1000,1000,1000,1000,83428282,1660,1662,1662,1660
80286206,1000,1000,1000,1000,83528242,1616,1619,1619,1616
80288705,1000,1000,1000,1000,83628202,1618,1621,1621,1618
80291204,1000,1000,1000,1000,83728162,1628,1630,1629,1628
80293703,1000,1000,1000,1000,83828955,1630,1630,1630,1629
80296202,1000,1000,1000,1000,83928915,1624,1623,1623,1624
80298701,1000,1000,1000,1000,84028875,1618,1616,1616,1617
80301200,1000,1000,1000,1000,84128835,1613,1612,1611,1613
80303699,1000,1000,1000,1000,84228795,1612,1611,1610,1612
80306198,1000,1000,1000,1000,84328755,1612,1612,1611,1612
80308697,1000,1000,1000,1000,84428715,1614,1614,1614,1614
80311196,1000,1000,1000,1000,84528675,1615,1616,1616,1615
80313695,1000,1000,1000,1000,84628635,1617,1617,1617,1617
80316194,1000,1000,1000,1000,84728595,1609,1610,1610,1609
80318693,1000,1000,1000,1000,84828555,1581,1582,1581,1582
80321192,1000,1000,1000,1000,84928515,1569,1568,1567,1570
80323691,1000,1000,1000,1000,85028475,1557,1557,1556,1558
80326190,1000,1000,1000,1000,85128435,1548,1547,1547,1548
80328689,1000,1000,1000,1000,85228395,1539,1538,1538,1538
80331188,1000,1000,1000,1000,85328355,1529,1529,1529,1529
80333687,1000,1000,1000,1000,85428315,1520,1520,1520,1520
80336186,1000,1000,1000,1000,85528275,1515,1515,1515,1515
80338685,1000,1000,1000,1000,85628235,1512,1513,1512,1513
80341184,1000,1000,1000,1000,85728195,1512,1512,1512,1513
80343683,1000,1000,1000,1000,85828155,1513,1514,1513,1514
80346182,1000,1000,1000,1000,85928948,1513,1513,1513,1513
80348681,1000,1000,1000,1000,86028908,1513,1513,1513,1514
80351180,1000,1000,1000,1000,86128868,1514,1514,1514,1515
80353679,1000,1000,1000,1000,86228828,1517,1516,1517,1517
80356178,1000,1000,1000,1000,86328788,1536,1535,1541,1530
80358677,1000,1000,1000,1000,86428748,1545,1545,1549,1540
80361176,1000,1000,1000,1000,86528708,1551,1551,1551,1551
80363675,1000,1000,1000,1000,86628668,1555,1556,1553,1559
80366174,1000,1000,1000,1000,86728628,1558,1558,1553,1563
80368673,1000,1000,1000,1000,86828588,1559,1560,1555,1564
80371172,1000,1000,1000,1000,86928548,1561,1561,1558,1564
80373671,1000,1000,1000,1000,87028508,1564,1564,1565,1564
80376170,1000,1000,1000,1000,87128468,1567,1567,1570,1565
80378669,1000,1000,1000,1000,87228428,1568,1568,1571,1565
80381168,1000,1000,1000,1000,87328388,1569,1569,1572,1567
80383667,1000,1000,1000,1000,87428348,1570,1570,1571,1569
80386166,1000,1000,1000,1000,87528308,1568,1568,1567,1569
80388665,1000,1000,1000,1000,87628268,1568,1567,1568,1571
80391164,1000,1000,1000,1000,87728228,1564,1564,1570,1574
80393663,1000,1000,1000,1000,87828188,1564,1565,1570,1573
80396162,1000,1000,1000,1000,87928981,1565,1566,1570,1571
80398661,1000,1000,1000,1000,88028941,1566,1567,1569,1569
80401160,1000,1000,1000,1000,88128901,1568,1568,1568,1567
80403659,1000,1000,1000,1000,88228861,1570,1570,1568,1567
80406158,1000,1000,1000,1000,88328821,1571,1571,1568,1568
80408657,1000,1000,1000,1000,88428781,1572,1572,1567,1568
80411156,1000,1000,1000,1000,88528741,1573,1573,1568,1568
80413655,1000,1000,1000,1000,88628701,1573,1572,1568,1569
80416154,1000,1000,1000,1000,88728661,1574,1573,1570,1570
80418653,1000,1000,1000,1000,88828621,1574,1573,1571,1571
80421152,1000,1000,1000,1000,88928581,1574,1574,1573,1573
80423651,1000,1000,1000,1000,89028541,1573,1574,1574,1573
80426150,1000,1000,1000,1000,89128501,1573,1574,1575,1574
80428649,1000,1000,1000,1000,89228461,1573,1574,1576,1575
80431148,1000,1000,1000,1000,89328421,1574,1574,1576,1575
80433647,1000,1000,1000,1000,89428381,1574,1574,1576,1575
80436146,1000,1000,1000,1000,89528341,1575,1575,1576,1576
80438645,1000,1000,1000,1000,89628301,1575,1574,1576,1576
80441144,1000,1000,1000,1000,89728261,1576,1576,1577,1577
80443643,1000,1000,1000,1000,89828221,1576,1577,1577,1577
80446142,1000,1000,1000,1000,89928181,1576,1577,1576,1577
80448641,1000,1000,1000,1000,90028974,1577,1577,1577,1576
80451140,1000,1000,1000,1000,90128934,1578,1577,1577,1577
80453639,1000,1000,1000,1000,90228894,1578,1578,1577,1577
80456138,1000,1000,1000,1000,90328854,1577,1578,1577,1577
80458637,1000,1000,1000,1000,90428814,1578,1578,1577,1577
80461136,1000,1000,1000,1000,90528774,1579,1578,1578,1578
80463635,1000,1000,1000,1000,90628734,1577,1578,1577,1577
80466134,1000,1000,1000,1000,90728694,1578,1579,1578,1579
80468633,1000,1000,1000,1000,90828654,1578,1578,1578,1578
80471132,1000,1000,1000,1000,90928614,1578,1578,1579,1578
80473631,1000,1000,1000,1000,91028574,1579,1579,1579,1579
80476130,1000,1000,1000,1000,91128534,1579,1579,1579,1579
80478629,1000,1000,1000,1000,91228494,1579,1579,1580,1579
80481128,1000,1000,1000,1000,91328454,1580,1579,1580,1580
80483627,1000,1000,1000,1000,91428414,1580,1580,1580,1580
80486126,1000,1000,1000,1000,91528374,1579,1580,1580,1580
80488625,1000,1000,1000,1000,91628334,1578,1578,1578,1579
80491124,1000,1000,1000,1000,91728294,1579,1579,1579,1579
80493623,1000,1000,1000,1000,91828254,1579,1579,1579,1579
80496122,1000,1000,1000,1000,91928214,1580,1579,1579,1580
80498621,1000,1000,1000,1000,92028174,1579,1579,1579,1579
80501120,1000,1000,1000,1000,92128967,1580,1579,1579,1579
80503619,1000,1000,1000,1000,92228927,1581,1581,1581,1580
80506118,1000,1000,1000,1000,92328887,1581,1581,1581,1581
80508617,1000,1000,1000,1000,92428847,1579,1580,1579,1579
80511116,1000,1000,1000,1000,92528807,1580,1579,1579,1580
80513615,1000,1000,1000,1000,92628767,1581,1580,1581,1580
80516114,1000,1000,1000,1000,92728727,1582,1581,1582,1581
80518613,1000,1000,1000,1000,92828687,1582,1582,1582,1582
80521112,1000,1000,1000,1000,92928647,1582,1582,1582,1582
80523611,1000,1000,1000,1000,93028607,1582,1582,1582,1582
80526110,1000,1000,1000,1000,93128567,1581,1581,1581,1582
80528609,1000,1000,1000,1000,93228527,1581,1581,1581,1581
80531108,1000,1000,1000,1000,93328487,1580,1580,1580,1581
80533607,1000,1000,1000,1000,93428447,1581,1581,1581,1581
80536106,1000,1000,1000,1000,93528407,1581,1581,1581,1582
80538605,1000,1000,1000,1000,93628367,1581,1581,1581,1581
80541104,1000,1000,1000,1000,93728327,1580,1580,1580,1580
80543603,1000,1000,1000,1000,93828287,1580,1580,1580,1580
80546102,1000,1000,1000,1000,93928247,1581,1582,1587,1575
80548601,1000,1000,1000,1000,94028207,1579,1581,1585,1572
80551100,1000,1000,1000,1000,94128167,1579,1582,1578,1574
80553599,1000,1000,1000,1000,94228960,1577,1579,1568,1571
80556098,1000,1000,1000,1000,94328920,1577,1579,1561,1569
80558597,1000,1000,1000,1000,94428880,1578,1579,1557,1564
80561096,1000,1000,1000,1000,94528840,1579,1578,1555,1559
80563595,1000,1000,1000,1000,94628800,1580,1579,1556,1556
80566094,1000,1000,1000,1000,94728760,1580,1579,1556,1554
80568593,1000,1000,1000,1000,94828720,1579,1578,1556,1553
80571092,1000,1000,1000,1000,94928680,1578,1578,1556,1553
80573591,1000,1000,1000,1000,95028640,1577,1578,1556,1554
80576090,1000,1000,1000,1000,95128600,1575,1577,1554,1554
80578589,1000,1000,1000,1000,95228560,1575,1577,1553,1554
80581088,1000,1000,1000,1000,95328520,1575,1576,1551,1551
80583587,1000,1000,1000,1000,95428480,1576,1578,1550,1550
80586086,1000,1000,1000,1000,95528440,1578,1579,1547,1547
80588585,1000,1000,1000,1000,95628400,1580,1581,1545,1544
80591084,1000,1000,1000,1000,95728360,1583,1584,1543,1542
80593583,1000,1000,1000,1000,95828320,1586,1587,1540,1540
80596082,1000,1000,1000,1000,95928280,1590,1591,1538,1538
80598581,1000,1000,1000,1000,96028240,1593,1593,1536,1536
80601080,1000,1000,1000,1000,96128200,1595,1595,1535,1536
80603579,1000,1000,1000,1000,96228160,1595,1595,1535,1536
80606078,1000,1000,1000,1000,96328953,1594,1594,1536,1538
80608577,1000,1000,1000,1000,96428913,1593,1592,1539,1543
80611076,1000,1000,1000,1000,96528873,1589,1587,1544,1547
80613575,1000,1000,1000,1000,96628833,1583,1580,1552,1555
80616074,1000,1000,1000,1000,96728793,1575,1571,1563,1565
80618573,1000,1000,1000,1000,96828753,1565,1561,1575,1577
80621072,1000,1000,1000,1000,96928713,1553,1550,1588,1588
80623571,1000,1000,1000,1000,97028673,1542,1540,1598,1599
80626070,1000,1000,1000,1000,97128633,1534,1534,1607,1607
80628569,1000,1000,1000,1000,97228593,1529,1530,1613,1612
80631068,1000,1000,1000,1000,97328553,1528,1531,1615,1614
80633567,1000,1000,1000,1000,97428513,1531,1533,1613,1612
80636066,1000,1000,1000,1000,97528473,1538,1539,1609,1609
80638565,1000,1000,1000,1000,97628433,1545,1547,1603,1604
80641064,1000,1000,1000,1000,97728393,1555,1555,1596,1596
80643563,1000,1000,1000,1000,97828353,1563,1563,1588,1588
80646062,1000,1000,1000,1000,97928313,1572,1572,1582,1582
80648561,1000,1000,1000,1000,98028273,1579,1578,1576,1575
80651060,1000,1000,1000,1000,98128233,1583,1582,1571,1570
80653559,1000,1000,1000,1000,98228193,1586,1585,1567,1568
80656058,1000,1000,1000,1000,98328986,1588,1587,1566,1567
80658557,1000,1000,1000,1000,98428946,1588,1586,1567,1567
80661056,1000,1000,1000,1000,98528906,1585,1585,1568,1568
80663555,1000,1000,1000,1000,98628866,1583,1582,1570,1571
80666054,1000,1000,1000,1000,98728826,1580,1580,1573,1573
80668553,1000,1000,1000,1000,98828786,1578,1578,1577,1576
80671052,1000,1000,1000,1000,98928746,1575,1575,1579,1579
80673551,1000,1000,1000,1000,99028706,1573,1574,1581,1581
80676050,1000,1000,1000,1000,99128666,1573,1573,1583,1583
80678549,1000,1000,1000,1000,99228626,1572,1573,1584,1584
80681048,1000,1000,1000,1000,99328586,1572,1573,1584,1583
80683547,1000,1000,1000,1000,99428546,1573,1574,1583,1583
80686046,1000,1000,1000,1000,99528506,1574,1574,1581,1582
80688545,1000,1000,1000,1000,99628466,1576,1576,1581,1581
80691044,1000,1000,1000,1000,99728426,1577,1576,1579,1579
80693543,1000,1000,1000,1000,99828386,1579,1578,1579,1579
80696042,1000,1000,1000,1000,99928346,1579,1579,1577,1577
80698541,1000,1000,1000,1000,100028306,1581,1581,1578,1577
80701040,1000,1000,1000,1000,100128266,1581,1581,1577,1577
80703539,1000,1000,1000,1000,100228226,1581,1581,1576,1576
80706038,1000,1000,1000,1000,100328186,1581,1580,1577,1577
80708537,1000,1000,1000,1000,100428979,1581,1581,1578,1578
80711036,1000,1000,1000,1000,100528939,1581,1581,1578,1579
80713535,1000,1000,1000,1000,100628899,1580,1579,1578,1579
80716034,1000,1000,1000,1000,100728859,1579,1579,1579,1580
80718533,1000,1000,1000,1000,100828819,1504,1552,1589,1591
80721032,1000,1000,1000,1000,100928779,1547,1542,1595,1597
80723531,1000,1000,1000,1000,101028739,1579,1546,1597,1598
80726030,1000,1000,1000,1000,101128699,1597,1560,1595,1596
80728529,1000,1000,1000,1000,101228659,1606,1578,1592,1593
80731028,1000,1000,1000,1000,101328619,1607,1593,1587,1587
80733527,1000,1000,1000,1000,101428579,1604,1605,1581,1581
80736026,1000,1000,1000,1000,101528539,1601,1611,1578,1577
80738525,1000,1000,1000,1000,101628499,1598,1612,1577,1575
80741024,1000,1000,1000,1000,101728459,1597,1608,1577,1575
80743523,1000,1000,1000,1000,101828419,1596,1602,1578,1575
80746022,1000,1000,1000,1000,101928379,1596,1601,1584,1570
80748521,1000,1000,1000,1000,102028339,1596,1598,1579,1566
80751020,1000,1000,1000,1000,102128299,1594,1593,1571,1567
80753519,1000,1000,1000,1000,102228259,1588,1586,1563,1566
80756018,1000,1000,1000,1000,102328219,1581,1581,1558,1566
80758517,1000,1000,1000,1000,102428179,1576,1577,1557,1564
80761016,1000,1000,1000,1000,102528972,1572,1574,1558,1562
80763515,1000,1000,1000,1000,102628932,1569,1572,1559,1560
80766014,1000,1000,1000,1000,102728892,1569,1571,1561,1560
80768513,1000,1000,1000,1000,102828852,1568,1571,1560,1558
80771012,1000,1000,1000,1000,102928812,1569,1569,1558,1556
80773511,1000,1000,1000,1000,103028772,1569,1570,1556,1555
80776010,1000,1000,1000,1000,103128732,1570,1571,1553,1553
80778509,1000,1000,1000,1000,103228692,1572,1573,1551,1551
80781008,1000,1000,1000,1000,103328652,1574,1574,1548,1548
80783507,1000,1000,1000,1000,103428612,1576,1577,1545,1545
80786006,1000,1000,1000,1000,103528572,1579,1580,1542,1542
80788505,1000,1000,1000,1000,103628532,1583,1584,1542,1541
80791004,1000,1000,1000,1000,103728492,1585,1585,1538,1538
80793503,1000,1000,1000,1000,103828452,1587,1588,1536,1536
80796002,1000,1000,1000,1000,103928412,1588,1588,1534,1534
80798501,1000,1000,1000,1000,104028372,1591,1591,1535,1536
80801000,1000,1000,1000,1000,104128332,1592,1591,1536,1537
80803499,1000,1000,1000,1000,104228292,1591,1590,1538,1539
80805998,1000,1000,1000,1000,104328252,1589,1587,1540,1543
80808497,1000,1000,1000,1000,104428212,1586,1585,1545,1547
80810996,1000,1000,1000,1000,104528172,1581,1580,1550,1553
80813495,1000,1000,1000,1000,104628965,1576,1575,1558,1561
80815994,1000,1000,1000,1000,104728925,1568,1565,1566,1569
80818493,1000,1000,1000,1000,104828885,1559,1557,1576,1578
80820992,1000,1000,1000,1000,104928845,1551,1548,1587,1588
80823491,1000,1000,1000,1000,105028805,1542,1540,1595,1595
80825990,1000,1000,1000,1000,105128765,1535,1534,1601,1601
80828489,1000,1000,1000,1000,105228725,1532,1533,1606,1605
80830988,1000,1000,1000,1000,105328685,1532,1534,1608,1607
80833487,1000,1000,1000,1000,105428645,1536,1538,1608,1606
80835986,1000,1000,1000,1000,105528605,1541,1543,1603,1603
80838485,1000,1000,1000,1000,105628565,1547,1548,1597,1597
80840984,1000,1000,1000,1000,105728525,1555,1555,1591,1592
80843483,1000,1000,1000,1000,105828485,1563,1563,1586,1586
80845982,1000,1000,1000,1000,105928445,1570,1569,1580,1579
80848481,1000,1000,1000,1000,106028405,1576,1575,1575,1574
80850980,1000,1000,1000,1000,106128365,1581,1579,1571,1570
80853479,1000,1000,1000,1000,106228325,1584,1583,1569,1569
80855978,1000,1000,1000,1000,106328285,1586,1584,1568,1568
80858477,1000,1000,1000,1000,106428245,1586,1584,1568,1568
80860976,1000,1000,1000,1000,106528205,1585,1584,1570,1570
80863475,1000,1000,1000,1000,106628165,1583,1582,1572,1572
80865974,1000,1000,1000,1000,106728958,1581,1580,1574,1574
80868473,1000,1000,1000,1000,106828918,1578,1579,1576,1577
80870972,1000,1000,1000,1000,106928878,1576,1577,1578,1579
80873471,1000,1000,1000,1000,107028838,1575,1576,1581,1580
80875970,1000,1000,1000,1000,107128798,1574,1575,1582,1582
80878469,1000,1000,1000,1000,107228758,1573,1574,1582,1582
80880968,1000,1000,1000,1000,107328718,1573,1574,1583,1582
80883467,1000,1000,1000,1000,107428678,1574,1574,1582,1582
80885966,1000,1000,1000,1000,107528638,1575,1575,1582,1582
80888465,1000,1000,1000,1000,107628598,1577,1577,1581,1581
80890964,1000,1000,1000,1000,107728558,1579,1578,1581,1581
80893463,1000,1000,1000,1000,107828518,1579,1579,1580,1580
80895962,1000,1000,1000,1000,107928478,1581,1581,1580,1580
80898461,1000,1000,1000,1000,108028438,1581,1581,1579,1579
80900960,1000,1000,1000,1000,108128398,1582,1582,1579,1579
80903459,1000,1000,1000,1000,108228358,1582,1581,1577,1578
80905958,1000,1000,1000,1000,108328318,1582,1582,1578,1579
80908457,1000,1000,1000,1000,108428278,1582,1581,1578,1578
80910956,1000,1000,1000,1000,108528238,1581,1581,1578,1578
80913455,1000,1000,1000,1000,108628198,1580,1580,1579,1578
80915954,1000,1000,1000,1000,108728158,1580,1580,1579,1579
80918453,1000,1000,1000,1000,108828951,1580,1581,1580,1580
80920952,1000,1000,1000,1000,108928911,1581,1581,1582,1582
80923451,1000,1000,1000,1000,109028871,1581,1581,1582,1582
80925950,1000,1000,1000,1000,109128831,1580,1580,1581,1581
80928449,1000,1000,1000,1000,109228791,1580,1580,1582,1581
80930948,1000,1000,1000,1000,109328751,1580,1580,1581,1581
80933447,1000,1000,1000,1000,109428711,1580,1580,1581,1581
80935946,1000,1000,1000,1000,109528671,1580,1581,1581,1581
80938445,1000,1000,1000,1000,109628631,1581,1581,1582,1581
80940944,1000,1000,1000,1000,109728591,1581,1581,1581,1581
80943443,1000,1000,1000,1000,109828551,1582,1581,1581,1581
80945942,1000,1000,1000,1000,109928511,1582,1582,1582,1582
80948441,1000,1000,1000,1000,110028471,1582,1582,1581,1581
80950940,1000,1000,1000,1000,110128431,1582,1581,1580,1580
80953439,1000,1000,1000,1000,110228391,1582,1582,1581,1581
80955938,1000,1000,1000,1000,110328351,1581,1582,1586,1574
80958437,1000,1000,1000,1000,110428311,1581,1583,1586,1573
80960936,1000,1000,1000,1000,110528271,1579,1581,1576,1572
80963435,1000,1000,1000,1000,110628231,1578,1581,1569,1572
80965934,1000,1000,1000,1000,110728191,1577,1579,1561,1568
80968433,1000,1000,1000,1000,110828984,1578,1579,1557,1564
80970932,1000,1000,1000,1000,110928944,1578,1578,1555,1559
80973431,1000,1000,1000,1000,111028904,1580,1579,1556,1556
80975930,1000,1000,1000,1000,111128864,1580,1578,1556,1554
80978429,1000,1000,1000,1000,111228824,1579,1579,1556,1554
80980928,1000,1000,1000,1000,111328784,1579,1578,1556,1554
80983427,1000,1000,1000,1000,111428744,1577,1577,1555,1554
80985926,1000,1000,1000,1000,111528704,1575,1577,1554,1554
80988425,1000,1000,1000,1000,111628664,1576,1577,1553,1554
80990924,1000,1000,1000,1000,111728624,1576,1578,1553,1553
80993423,1000,1000,1000,1000,111828584,1576,1578,1551,1551
80995922,1000,1000,1000,1000,111928544,1578,1579,1549,1549
80998421,1000,1000,1000,1000,112028504,1580,1581,1547,1547
81000920,1000,1000,1000,1000,112128464,1582,1583,1545,1545
81003419,1000,1000,1000,1000,112228424,1585,1586,1543,1542
81005918,1000,1000,1000,1000,112328384,1588,1588,1541,1541
81008417,1000,1000,1000,1000,112428344,1589,1590,1538,1539
81010916,1000,1000,1000,1000,112528304,1590,1590,1537,1538
81013415,1000,1000,1000,1000,112628264,1592,1593,1538,1540
81015914,1000,1000,1000,1000,112728224,1592,1592,1539,1541
81018413,1000,1000,1000,1000,112828184,1591,1590,1542,1544
81020912,1000,1000,1000,1000,112928977,1589,1586,1547,1549
81023411,1000,1000,1000,1000,113028937,1583,1580,1553,1556
81025910,1000,1000,1000,1000,113128897,1577,1573,1563,1566
81028409,1000,1000,1000,1000,113228857,1567,1563,1573,1575
81030908,1000,1000,1000,1000,113328817,1558,1555,1585,1586
81033407,1000,1000,1000,1000,113428777,1548,1547,1595,1595
81035906,1000,1000,1000,1000,113528737,1542,1541,1604,1604
81038405,1000,1000,1000,1000,113628697,1536,1537,1609,1608
81040904,1000,1000,1000,1000,113728657,1533,1536,1610,1609
81043403,1000,1000,1000,1000,113828617,1535,1538,1610,1610
81045902,1000,1000,1000,1000,113928577,1540,1542,1608,1607
81048401,1000,1000,1000,1000,114028537,1546,1548,1603,1602
81050900,1000,1000,1000,1000,114128497,1554,1554,1597,1596
81053399,1000,1000,1000,1000,114228457,1561,1561,1590,1589
81055898,1000,1000,1000,1000,114328417,1569,1567,1584,1583
81058397,1000,1000,1000,1000,114428377,1576,1574,1579,1578
81060896,1000,1000,1000,1000,114528337,1580,1578,1573,1573
81063395,1000,1000,1000,1000,114628297,1584,1582,1570,1570
81065894,1000,1000,1000,1000,114728257,1586,1584,1568,1569
81068393,1000,1000,1000,1000,114828217,1586,1585,1568,1568
81070892,1000,1000,1000,1000,114928177,1586,1585,1569,1570
81073391,1000,1000,1000,1000,115028970,1585,1584,1572,1571
81075890,1000,1000,1000,1000,115128930,1583,1582,1574,1574
81078389,1000,1000,1000,1000,115228890,1579,1579,1576,1576
81080888,1000,1000,1000,1000,115328850,1578,1578,1579,1579
81083387,1000,1000,1000,1000,115428810,1575,1576,1580,1580
81085886,1000,1000,1000,1000,115528770,1574,1575,1582,1582
81088385,1000,1000,1000,1000,115628730,1573,1574,1583,1583
81090884,1000,1000,1000,1000,115728690,1573,1574,1584,1583
81093383,1000,1000,1000,1000,115828650,1573,1574,1583,1583
81095882,1000,1000,1000,1000,115928610,1574,1575,1582,1582
81098381,1000,1000,1000,1000,116028570,1575,1575,1581,1581
81100880,1000,1000,1000,1000,116128530,1576,1577,1580,1580
81103379,1000,1000,1000,1000,116228490,1578,1577,1579,1579
81105878,1000,1000,1000,1000,116328450,1579,1579,1579,1579
81108377,1000,1000,1000,1000,116428410,1580,1580,1578,1578
81110876,1000,1000,1000,1000,116528370,1581,1581,1577,1578
81113375,1000,1000,1000,1000,116628330,1581,1581,1577,1577
81115874,1000,1000,1000,1000,116728290,1581,1581,1577,1577
81118373,1000,1000,1000,1000,116828250,1582,1582,1578,1578
81120872,1000,1000,1000,1000,116928210,1580,1580,1577,1577
81123371,1000,1000,1000,1000,117028170,1581,1581,1579,1578
81125870,1000,1000,1000,1000,117128963,1581,1580,1580,1580
81128369,1000,1000,1000,1000,117228923,1580,1580,1579,1579
81130868,1000,1000,1000,1000,117328883,1581,1581,1582,1582
81133367,1000,1000,1000,1000,117428843,1579,1580,1580,1580
81135866,1000,1000,1000,1000,117528803,1579,1579,1580,1581
81138365,1000,1000,1000,1000,117628763,1579,1579,1581,1580
81140864,1000,1000,1000,1000,117728723,1579,1579,1580,1580
81143363,1000,1000,1000,1000,117828683,1580,1580,1581,1580
81145862,1000,1000,1000,1000,117928643,1580,1580,1580,1581
81148361,1000,1000,1000,1000,118028603,1581,1580,1581,1581
81150860,1000,1000,1000,1000,118128563,1581,1581,1581,1581
81153359,1000,1000,1000,1000,118228523,1581,1581,1581,1581
81155858,1000,1000,1000,1000,118328483,1581,1582,1588,1573
81158357,1000,1000,1000,1000,118428443,1581,1581,1585,1573
81160856,1000,1000,1000,1000,118528403,1579,1578,1578,1575
81163355,1000,1000,1000,1000,118628363,1576,1576,1572,1576
81165854,1000,1000,1000,1000,118728323,1572,1571,1566,1574
81168353,1000,1000,1000,1000,118828283,1569,1569,1565,1571
81170852,1000,1000,1000,1000,118928243,1568,1568,1565,1569
81173351,1000,1000,1000,1000,119028203,1566,1567,1566,1566
81175850,1000,1000,1000,1000,119128163,1565,1566,1566,1565
81178349,1000,1000,1000,1000,119228956,1565,1566,1567,1565
81180848,1000,1000,1000,1000,119328916,1565,1565,1567,1565
81183347,1000,1000,1000,1000,119428876,1563,1563,1565,1563
81185846,1000,1000,1000,1000,119528836,1563,1563,1564,1564
81188345,1000,1000,1000,1000,119628796,1563,1562,1564,1564
81190844,1000,1000,1000,1000,119728756,1562,1562,1563,1563
81193343,1000,1000,1000,1000,119828716,1562,1562,1562,1562
81195842,1000,1000,1000,1000,119928676,1562,1561,1561,1562
81198341,1000,1000,1000,1000,120028636,1561,1561,1561,1561
81200840,1000,1000,1000,1000,120128596,1561,1561,1561,1560
81203339,1000,1000,1000,1000,120228556,1559,1559,1559,1558
81205838,1000,1000,1000,1000,120328516,1558,1558,1558,1557
81208337,1000,1000,1000,1000,120428476,1557,1557,1557,1556
81210836,1000,1000,1000,1000,120528436,1558,1557,1557,1557
81213335,1000,1000,1000,1000,120628396,1557,1557,1557,1556
81215834,1000,1000,1000,1000,120728356,1557,1557,1557,1556
81218333,1000,1000,1000,1000,120828316,1558,1558,1559,1557
81220832,1000,1000,1000,1000,120928276,1558,1558,1560,1557
81223331,1000,1000,1000,1000,121028236,1559,1558,1560,1557
81225830,1000,1000,1000,1000,121128196,1559,1558,1559,1560
81228329,1000,1000,1000,1000,121228156,1560,1560,1558,1562
81230828,1000,1000,1000,1000,121328949,1560,1560,1557,1564
81233327,1000,1000,1000,1000,121428909,1562,1561,1559,1565
81235826,1000,1000,1000,1000,121528869,1562,1562,1560,1565
81238325,1000,1000,1000,1000,121628829,1563,1563,1562,1563
81240824,1000,1000,1000,1000,121728789,1563,1563,1564,1561
81243323,1000,1000,1000,1000,121828749,1562,1562,1564,1559
81245822,1000,1000,1000,1000,121928709,1561,1561,1559,1561
81248321,1000,1000,1000,1000,122028669,1557,1557,1555,1559
81250820,1000,1000,1000,1000,122128629,1554,1554,1551,1555
81253319,1000,1000,1000,1000,122228589,1548,1548,1546,1547
81255818,1000,1000,1000,1000,122328549,1541,1541,1540,1540
81258317,1000,1000,1000,1000,122428509,1534,1534,1533,1533
81260816,1000,1000,1000,1000,122528469,1527,1527,1526,1525
81263315,1000,1000,1000,1000,122628429,1522,1522,1521,1521
81265814,1000,1000,1000,1000,122728389,1520,1520,1520,1520
81268313,1000,1000,1000,1000,122828349,1519,1520,1520,1520
81270812,1000,1000,1000,1000,122928309,1520,1521,1522,1522
81273311,1000,1000,1000,1000,123028269,1523,1523,1525,1525
81275810,1000,1000,1000,1000,123128229,1527,1527,1529,1529
81278309,1000,1000,1000,1000,123228189,1532,1533,1534,1535
81280808,1000,1000,1000,1000,123328982,1537,1537,1539,1539
81283307,1000,1000,1000,1000,123428942,1540,1539,1541,1541
81285806,1000,1000,1000,1000,123528902,1542,1541,1543,1543
81288305,1000,1000,1000,1000,123628862,1544,1544,1544,1544
81290804,1000,1000,1000,1000,123728822,1545,1545,1545,1544
81293303,1000,1000,1000,1000,123828782,1546,1547,1546,1546
81295802,1000,1000,1000,1000,123928742,1546,1546,1546,1545
81298301,1000,1000,1000,1000,124028702,1547,1547,1546,1546
81300800,1000,1000,1000,1000,124128662,1546,1546,1545,1545
81303299,1000,1000,1000,1000,124228622,1546,1546,1545,1545
81305798,1000,1000,1000,1000,124328582,1546,1546,1546,1545
81308297,1000,1000,1000,1000,124428542,1546,1546,1545,1545
81310796,1000,1000,1000,1000,124528502,1545,1545,1544,1544
81313295,1000,1000,1000,1000,124628462,1545,1546,1545,1545
81315794,1000,1000,1000,1000,124728422,1545,1544,1544,1545
81318293,1000,1000,1000,1000,124828382,1544,1544,1545,1544
81320792,1000,1000,1000,1000,124928342,1543,1543,1544,1544
81323291,1000,1000,1000,1000,125028302,1544,1544,1545,1545
81325790,1000,1000,1000,1000,125128262,1544,1543,1544,1544
81328289,1000,1000,1000,1000,125228222,1544,1545,1545,1545
81330788,1000,1000,1000,1000,125328182,1544,1544,1544,1545
81333287,1000,1000,1000,1000,125428975,1543,1544,1544,1544
81335786,1000,1000,1000,1000,125528935,1544,1544,1545,1544
81338285,1000,1000,1000,1000,125628895,1544,1544,1545,1544
81340784,1000,1000,1000,1000,125728855,1544,1544,1544,1544
81343283,1000,1000,1000,1000,125828815,1544,1544,1544,1544
81345782,1000,1000,1000,1000,125928775,1544,1544,1544,1544
81348281,1000,1000,1000,1000,126028735,1544,1544,1544,1544
81350780,1000,1000,1000,1000,126128695,1545,1544,1544,1544
81353279,1000,1000,1000,1000,126228655,1544,1544,1544,1544
81355778,1000,1000,1000,1000,126328615,1545,1545,1545,1544
81358277,1000,1000,1000,1000,126428575,1544,1544,1544,1544
81360776,1000,1000,1000,1000,126528535,1545,1545,1544,1545
81363275,1000,1000,1000,1000,126628495,1545,1545,1545,1545
81365774,1000,1000,1000,1000,126728455,1544,1545,1545,1544
81368273,1000,1000,1000,1000,126828415,1544,1544,1545,1544
81370772,1000,1000,1000,1000,126928375,1544,1544,1544,1544
81373271,1000,1000,1000,1000,127028335,1544,1544,1544,1544
81375770,1000,1000,1000,1000,127128295,1545,1544,1544,1544
81378269,1000,1000,1000,1000,127228255,1544,1544,1544,1543
81380768,1000,1000,1000,1000,127328215,1544,1544,1544,1544
81383267,1000,1000,1000,1000,127428175,1544,1544,1544,1544
81385766,1000,1000,1000,1000,127528968,1544,1543,1543,1544
81388265,1000,1000,1000,1000,127628928,1544,1544,1544,1544
81390764,1000,1000,1000,1000,127728888,1544,1544,1544,1544
81393263,1000,1000,1000,1000,127828848,1544,1544,1544,1544
81395762,1000,1000,1000,1000,127928808,1544,1544,1544,1544
81398261,1000,1000,1000,1000,128028768,1544,1544,1544,1544
81400760,1000,1000,1000,1000,128128728,1544,1544,1544,1544
81403259,1000,1000,1000,1000,128228688,1543,1544,1543,1544
81405758,1000,1000,1000,1000,128328648,1544,1544,1544,1544
81408257,1000,1000,1000,1000,128428608,1544,1544,1544,1544
81410756,1000,1000,1000,1000,128528568,1544,1544,1544,1544
81413255,1000,1000,1000,1000,128628528,1543,1544,1544,1543
81415754,1000,1000,1000,1000,128728488,1544,1544,1543,1544
81418253,1000,1000,1000,1000,128828448,1544,1544,1544,1544
81420752,1000,1000,1000,1000,128928408,1544,1544,1544,1544
81423251,1000,1000,1000,1000,129028368,1544,1544,1545,1544
81425750,1000,1000,1000,1000,129128328,1545,1544,1545,1545
81428249,1000,1000,1000,1000,129228288,1543,1544,1544,1543
81430748,1000,1000,1000,1000,129328248,1544,1544,1544,1544
81433247,1000,1000,1000,1000,129428208,1544,1544,1544,1544
81435746,1000,1000,1000,1000,129528168,1545,1544,1544,1544
81438245,1000,1000,1000,1000,129628961,1544,1544,1544,1544
81440744,1000,1000,1000,1000,129728921,1544,1544,1544,1545
81443243,1000,1000,1000,1000,129828881,1544,1544,1544,1544
81445742,1000,1000,1000,1000,129928841,1544,1544,1544,1544
81448241,1000,1000,1000,1000,130028801,1544,1544,1545,1544
81450740,1000,1000,1000,1000,130128761,1544,1544,1544,1544
81453239,1000,1000,1000,1000,130228721,1544,1544,1544,1544
81455738,1000,1000,1000,1000,130328681,1544,1543,1543,1544
81458237,1000,1000,1000,1000,130428641,1543,1543,1543,1543
81460736,1000,1000,1000,1000,130528601,1543,1543,1542,1543
81463235,1000,1000,1000,1000,130628561,1544,1544,1544,1544
81465734,1000,1000,1000,1000,130728521,1544,1544,1544,1544
81468233,1000,1000,1000,1000,130828481,1544,1544,1545,1544
81470732,1000,1000,1000,1000,130928441,1545,1545,1545,1545
81473231,1000,1000,1000,1000,131028401,1544,1544,1545,1544
81475730,1000,1000,1000,1000,131128361,1543,1543,1543,1543
81478229,1000,1000,1000,1000,131228321,1543,1544,1544,1544
81480728,1000,1000,1000,1000,131328281,1543,1543,1543,1543
81483227,1000,1000,1000,1000,131428241,1544,1544,1544,1544
81485726,1000,1000,1000,1000,131528201,1544,1544,1544,1544
81488225,1000,1000,1000,1000,131628161,1545,1545,1545,1544
81490724,1000,1000,1000,1000,131728954,1545,1544,1545,1545
81493223,1000,1000,1000,1000,131828914,1545,1544,1545,1545
81495722,1000,1000,1000,1000,131928874,1545,1544,1544,1545
81498221,1000,1000,1000,1000,132028834,1545,1545,1545,1545
81500720,1000,1000,1000,1000,132128794,1545,1545,1545,1544
81503219,1000,1000,1000,1000,132228754,1544,1545,1544,1544
81505718,1000,1000,1000,1000,132328714,1545,1545,1545,1546
81508217,1000,1000,1000,1000,132428674,1441,1422,1423,1421
81510716,1000,1000,1000,1000,132528634,1327,1276,1277,1276
81513215,1000,1000,1000,1000,132628594,1285,1220,1221,1219
81515714,1000,1000,1000,1000,132728554,1272,1199,1200,1200
81518213,1000,1000,1000,1000,132828514,1248,1165,1167,1165
81520712,1000,1000,1000,1000,132928474,1239,1150,1152,1150
81523211,1000,1000,1000,1000,133028434,1239,1151,1153,1150
81525710,1000,1000,1000,1000,133128394,1239,1150,1152,1150
81528209,1000,1000,1000,1000,133228354,1269,1150,1151,1196
81530708,1000,1000,1000,1000,133328314,1259,1150,1152,1182
81533207,1000,1000,1000,1000,133428274,1256,1150,1152,1176
81535706,1000,1000,1000,1000,133528234,1257,1150,1152,1178
81538205,1000,1000,1000,1000,133628194,1258,1150,1153,1180
81540704,1000,1000,1000,1000,133728154,1260,1150,1153,1183
81543203,1000,1000,1000,1000,133828947,1262,1150,1153,1185
81545702,1000,1000,1000,1000,133928907,1263,1150,1153,1188
81548201,1000,1000,1000,1000,134028867,1250,1150,1152,1169
81550700,1000,1000,1000,1000,134128827,1252,1150,1152,1171
81553199,1000,1000,1000,1000,134228787,1253,1150,1153,1173
81555698,1000,1000,1000,1000,134328747,1253,1150,1153,1174
81558197,1000,1000,1000,1000,134428707,1237,1150,1153,1172
81560696,1000,1000,1000,1000,134528667,1000,1000,1000,1000
81563195,1000,1000,1000,1000,134628627,1000,1000,1000,1000
81565694,1000,1000,1000,1000,134728587,1000,1000,1000,1000
81568193,1000,1000,1000,1000,134828547,1000,1000,1000,1000
81570692,1000,1000,1000,1000,134928507,1000,1000,1000,1000
81573191,1000,1000,1000,1000,135028467,1000,1000,1000,1000
81575690,1000,1000,1000,1000,135128427,1000,1000,1000,1000
81578189,1000,1000,1000,1000,135228387,1000,1000,1000,1000
81580688,1000,1000,1000,1000,135328347,1000,1000,1000,1000
81583187,1000,1000,1000,1000,135428307,1000,1000,1000,1000
81585686,1000,1000,1000,1000,135528267,1000,1000,1000,1000
81588185,1000,1000,1000,1000,135628227,1000,1000,1000,1000
81590684,1000,1000,1000,1000,135728187,1000,1000,1000,1000
81593183,1000,1000,1000,1000,135828980,1000,1000,1000,1000
81595682,1000,1000,1000,1000,135928940,1000,1000,1000,1000
81598181,1000,1000,1000,1000,136028900,1000,1000,1000,1000
81600680,1000,1000,1000,1000,136128860,1000,1000,1000,1000
81603179,1000,1000,1000,1000,136228820,1000,1000,1000,1000
81605678,1000,1000,1000,1000,136328780,1000,1000,1000,1000
81608177,1000,1000,1000,1000,136428740,1000,1000,1000,1000
81610676,1000,1000,1000,1000,136528700,1000,1000,1000,1000
81613175,1000,1000,1000,1000,136628660,1000,1000,1000,1000
81615674,1000,1000,1000,1000,136728620,1000,1000,1000,1000
81618173,1000,1000,1000,1000,136828580,1000,1000,1000,1000
81620672,1000,1000,1000,1000,136928540,1000,1000,1000,1000
81623171,1000,1000,1000,1000,137028500,1000,1000,1000,1000
81625670,1000,1000,1000,1000,137128460,1000,1000,1000,1000
81628169,1000,1000,1000,1000,137228420,1000,1000,1000,1000
81630668,1000,1000,1000,1000,137328380,1000,1000,1000,1000
81633167,1000,1000,1000,1000,137428340,1000,1000,1000,1000
81635666,1000,1000,1000,1000,137528300,1000,1000,1000,1000
81638165,1000,1000,1000,1000,137628260,1000,1000,1000,1000
81640664,1000,1000,1000,1000,137728220,1000,1000,1000,1000
81643163,1000,1000,1000,1000,137828180,1000,1000,1000,1000
81645662,1000,1000,1000,1000,137928973,1000,1000,1000,1000
81648161,1000,1000,1000,1000,138028933,1000,1000,1000,1000
81650660,1000,1000,1000,1000,138128893,1000,1000,1000,1000
81653159,1000,1000,1000,1000,138228853,1000,1000,1000,1000
81655658,1000,1000,1000,1000,138328813,1000,1000,1000,1000
81658157,1000,1000,1000,1000,138428773,1000,1000,1000,1000
81660656,1000,1000,1000,1000,138528733,1000,1000,1000,1000
81663155,1000,1000,1000,1000,138628693,1000,1000,1000,1000
81665654,1000,1000,1000,1000,138728653,1000,1000,1000,1000
81668986,1000,1000,1000,1000,138828613,1000,1000,1000,1000
81671485,1000,1000,1000,1000,138928573,1000,1000,1000,1000
81673984,1000,1000,1000,1000,139028533,1000,1000,1000,1000
81676483,1000,1000,1000,1000,139128493,1000,1000,1000,1000
81678982,1000,1000,1000,1000,139228453,1000,1000,1000,1000
81681481,1000,1000,1000,1000,139328413,1000,1000,1000,1000
81683980,1000,1000,1000,1000,139428373,1000,1000,1000,1000
81686479,1000,1000,1000,1000,139528333,1000,1000,1000,1000
81688978,1000,1000,1000,1000,139628293,1000,1000,1000,1000
81691477,1000,1000,1000,1000,139728253,1000,1000,1000,1000
81693976,1000,1000,1000,1000,139828213,1000,1000,1000,1000
81696475,1000,1000,1000,1000,139928173,1000,1000,1000,1000
81698974,1000,1000,1000,1000,140028966,1000,1000,1000,1000
81701473,1000,1000,1000,1000,140128926,1000,1000,1000,1000
81703972,1000,1000,1000,1000,140228886,1000,1000,1000,1000
81706471,1000,1000,1000,1000,140328846,1000,1000,1000,1000
81708970,1000,1000,1000,1000,140428806,1000,1000,1000,1000
81711469,1000,1000,1000,1000,140528766,1000,1000,1000,1000
81713968,1000,1000,1000,1000,140628726,1000,1000,1000,1000
81716467,1000,1000,1000,1000,140728686,1000,1000,1000,1000
81718966,1000,1000,1000,1000,140828646,1000,1000,1000,1000
81721465,1000,1000,1000,1000,140928606,1000,1000,1000,1000
81723964,1000,1000,1000,1000,141028566,1000,1000,1000,1000
81726463,1000,1000,1000,1000,141128526,1000,1000,1000,1000
81728962,1000,1000,1000,1000,141228486,1000,1000,1000,1000
81731461,1000,1000,1000,1000,141328446,1000,1000,1000,1000
81733960,1000,1000,1000,1000,141428406,1000,1000,1000,1000
81736459,1000,1000,1000,1000,141528366,1000,1000,1000,1000
81738958,1000,1000,1000,1000,141628326,1000,1000,1000,1000
81741457,1000,1000,1000,1000,141728286,1000,1000,1000,1000
81743956,1000,1000,1000,1000,141828246,1000,1000,1000,1000
81746455,1000,1000,1000,1000,141928206,1000,1000,1000,1000
81748954,1000,1000,1000,1000,142028166,1000,1000,1000,1000
81751453,1000,1000,1000,1000,142128959,1000,1000,1000,1000
81753952,1000,1000,1000,1000,142228919,1000,1000,1000,1000
81756451,1000,1000,1000,1000,142328879,1000,1000,1000,1000
81758950,1000,1000,1000,1000,142428839,1000,1000,1000,1000
81761449,1000,1000,1000,1000,142528799,1000,1000,1000,1000
81763948,1000,1000,1000,1000,142628759,1000,1000,1000,1000
81766447,1000,1000,1000,1000,142728719,1000,1000,1000,1000
81768946,1000,1000,1000,1000,142828679,1000,1000,1000,1000
81771445,1000,1000,1000,1000,142928639,1000,1000,1000,1000
81773944,1000,1000,1000,1000,143028599,1000,1000,1000,1000
81776443,1000,1000,1000,1000,143128559,1000,1000,1000,1000
81778942,1000,1000,1000,1000,143228519,1000,1000,1000,1000
81781441,1000,1000,1000,1000,143328479,1000,1000,1000,1000
81783940,1000,1000,1000,1000,143428439,1000,1000,1000,1000
81786439,1000,1000,1000,1000,143528399,1000,1000,1000,1000
81788938,1000,1000,1000,1000,143628359,1000,1000,1000,1000
81791437,1000,1000,1000,1000,143728319,1000,1000,1000,1000
81793936,1000,1000,1000,1000,143828279,1000,1000,1000,1000
81796435,1000,1000,1000,1000,143928239,1000,1000,1000,1000
81798934,1000,1000,1000,1000,144028199,1000,1000,1000,1000
81801433,1000,1000,1000,1000,144128159,1000,1000,1000,1000
81803932,1000,1000,1000,1000,144228952,1000,1000,1000,1000
81806431,1000,1000,1000,1000,144328912,1000,1000,1000,1000
81808930,1000,1000,1000,1000,144428872,1000,1000,1000,1000
81811429,1000,1000,1000,1000,144528832,1000,1000,1000,1000
81813928,1000,1000,1000,1000,144628792,1000,1000,1000,1000
81816427,1000,1000,1000,1000,144728752,1000,1000,1000,1000
81818926,1000,1000,1000,1000,144828712,1000,1000,1000,1000
81821425,1000,1000,1000,1000,144928672,1000,1000,1000,1000
81823924,1000,1000,1000,1000,145028632,1000,1000,1000,1000
81826423,1000,1000,1000,1000,145128592,1000,1000,1000,1000
81828922,1000,1000,1000,1000,145228552,1000,1000,1000,1000
81831421,1000,1000,1000,1000,145328512,1000,1000,1000,1000
81833920,1000,1000,1000,1000,145428472,1000,1000,1000,1000
81836419,1000,1000,1000,1000,145528432,1000,1000,1000,1000
81838918,1000,1000,1000,1000,145628392,1000,1000,1000,1000
81841417,1000,1000,1000,1000,145728352,1000,1000,1000,1000
81843916,1000,1000,1000,1000,145828312,1000,1000,1000,1000
81846415,1000,1000,1000,1000,145928272,1000,1000,1000,1000
81848914,1000,1000,1000,1000,146028232,1000,1000,1000,1000
81851413,1000,1000,1000,1000,146128192,1000,1000,1000,1000
81853912,1000,1000,1000,1000,146228985,1000,1000,1000,1000
81856411,1000,1000,1000,1000,146328945,1000,1000,1000,1000
81858910,1000,1000,1000,1000,146428905,1000,1000,1000,1000
81861409,1000,1000,1000,1000,146528865,1000,1000,1000,1000
81863908,1000,1000,1000,1000,146628825,1000,1000,1000,1000
81866407,1000,1000,1000,1000,146728785,1000,1000,1000,1000
81868906,1000,1000,1000,1000,146828745,1000,1000,1000,1000
81871405,1000,1000,1000,1000,146928705,1000,1000,1000,1000
81873904,1000,1000,1000,1000,147028665,1000,1000,1000,1000
81876403,1000,1000,1000,1000,147128625,1000,1000,1000,1000
81878902,1000,1000,1000,1000,147228585,1000,1000,1000,1000
81881401,1000,1000,1000,1000,147328545,1000,1000,1000,1000
81883900,1000,1000,1000,1000,147428505,1000,1000,1000,1000
81886399,1000,1000,1000,1000,147528465,1000,1000,1000,1000
81888898,1000,1000,1000,1000,147628425,1000,1000,1000,1000
81891397,1000,1000,1000,1000,147728385,1000,1000,1000,1000
81893896,1000,1000,1000,1000,147828345,1000,1000,1000,1000
81896395,1000,1000,1000,1000,147928305,1000,1000,1000,1000
81898894,1000,1000,1000,1000,148028265,1000,1000,1000,1000
81901393,1000,1000,1000,1000,148128225,1000,1000,1000,1000
81903892,1000,1000,1000,1000,148228185,1000,1000,1000,1000
81906391,1000,1000,1000,1000,148328978,1000,1000,1000,1000
81908890,1000,1000,1000,1000,148428938,1000,1000,1000,1000
81911389,1000,1000,1000,1000,148528898,1000,1000,1000,1000
81913888,1000,1000,1000,1000,148628858,1000,1000,1000,1000
81916387,1000,1000,1000,1000,148728818,1000,1000,1000,1000
81918886,1000,1000,1000,1000,148828778,1000,1000,1000,1000
81921385,1000,1000,1000,1000,148928738,1000,1000,1000,1000
81923884,1000,1000,1000,1000,149028698,1000,1000,1000,1000
81926383,1000,1000,1000,1000,149128658,1000,1000,1000,1000
81928882,1000,1000,1000,1000,149228618,1000,1000,1000,1000
81931381,1000,1000,1000,1000,149328578,1000,1000,1000,1000
81933880,1000,1000,1000,1000,149428538,1000,1000,1000,1000
81936379,1000,1000,1000,1000,,,,,
81938878,1000,1000,1000,1000,,,,,
81941377,1000,1000,1000,1000,,,,,
81943876,1000,1000,1000,1000,,,,,
81946375,1000,1000,1000,1000,,,,,
81948874,1000,1000,1000,1000,,,,,
81951373,1000,1000,1000,1000,,,,,
81953872,1000,1000,1000,1000,,,,,
81956371,1000,1000,1000,1000,,,,,
81958870,1000,1000,1000,1000,,,,,
81961369,1000,1000,1000,1000,,,,,
81963868,1000,1000,1000,1000,,,,,
81966367,1000,1000,1000,1000,,,,,
81968866,1000,1000,1000,1000,,,,,
81971365,1000,1000,1000,1000,,,,,
81973864,1000,1000,1000,1000,,,,,
81976363,1000,1000,1000,1000,,,,,
81978862,1000,1000,1000,1000,,,,,
81981361,1000,1000,1000,1000,,,,,
81983860,1000,1000,1000,1000,,,,,
81986359,1000,1000,1000,1000,,,,,
81988858,1000,1000,1000,1000,,,,,
81991357,1000,1000,1000,1000,,,,,
81993856,1000,1000,1000,1000,,,,,
81996355,1000,1000,1000,1000,,,,,
81998854,1000,1000,1000,1000,,,,,
82001353,1000,1000,1000,1000,,,,,
82003852,1000,1000,1000,1000,,,,,
82006351,1000,1000,1000,1000,,,,,
82008850,1000,1000,1000,1000,,,,,
82011349,1000,1000,1000,1000,,,,,
82013848,1000,1000,1000,1000,,,,,
82016347,1000,1000,1000,1000,,,,,
82018846,1000,1000,1000,1000,,,,,
82021345,1000,1000,1000,1000,,,,,
82023844,1000,1000,1000,1000,,,,,
82026343,1000,1000,1000,1000,,,,,
82028842,1000,1000,1000,1000,,,,,
82031341,1000,1000,1000,1000,,,,,
82033840,1000,1000,1000,1000,,,,,
82036339,1000,1000,1000,1000,,,,,
82038838,1000,1000,1000,1000,,,,,
82041337,1000,1000,1000,1000,,,,,
82043836,1000,1000,1000,1000,,,,,
82046335,1000,1000,1000,1000,,,,,
82048834,1000,1000,1000,1000,,,,,
82051333,1000,1000,1000,1000,,,,,
82053832,1000,1000,1000,1000,,,,,
82056331,1000,1000,1000,1000,,,,,
82058830,1000,1000,1000,1000,,,,,
82061329,1000,1000,1000,1000,,,,,
82063828,1000,1000,1000,1000,,,,,
82066327,1000,1000,1000,1000,,,,,
82068826,1000,1000,1000,1000,,,,,
82071325,1000,1000,1000,1000,,,,,
82073824,1000,1000,1000,1000,,,,,
82076323,1000,1000,1000,1000,,,,,
82078822,1000,1000,1000,1000,,,,,
82081321,1000,1000,1000,1000,,,,,
82083820,1000,1000,1000,1000,,,,,
82086319,1000,1000,1000,1000,,,,,
82088818,1000,1000,1000,1000,,,,,
82091317,1000,1000,1000,1000,,,,,
82093816,1000,1000,1000,1000,,,,,
82096315,1000,1000,1000,1000,,,,,
82098814,1000,1000,1000,1000,,,,,
82101313,1000,1000,1000,1000,,,,,
82103812,1000,1000,1000,1000,,,,,
82106311,1000,1000,1000,1000,,,,,
82108810,1000,1000,1000,1000,,,,,
82111309,1000,1000,1000,1000,,,,,
82113808,1000,1000,1000,1000,,,,,
82116307,1000,1000,1000,1000,,,,,
82118806,1000,1000,1000,1000,,,,,
82121305,1000,1000,1000,1000,,,,,
82123804,1000,1000,1000,1000,,,,,
82126303,1000,1000,1000,1000,,,,,
82128802,1000,1000,1000,1000,,,,,
82131301,1000,1000,1000,1000,,,,,
82133800,1000,1000,1000,1000,,,,,
82136299,1000,1000,1000,1000,,,,,
82138798,1000,1000,1000,1000,,,,,
82141297,1000,1000,1000,1000,,,,,
82143796,1000,1000,1000,1000,,,,,
82146295,1000,1000,1000,1000,,,,,
82148794,1000,1000,1000,1000,,,,,
82151293,1000,1000,1000,1000,,,,,
82153792,1000,1000,1000,1000,,,,,
82156291,1000,1000,1000,1000,,,,,
82158790,1000,1000,1000,1000,,,,,
82161289,1000,1000,1000,1000,,,,,
82163788,1000,1000,1000,1000,,,,,
82166287,1000,1000,1000,1000,,,,,
82168786,1000,1000,1000,1000,,,,,
82171285,1000,1000,1000,1000,,,,,
82173784,1000,1000,1000,1000,,,,,
82176283,1000,1000,1000,1000,,,,,
82178782,1000,1000,1000,1000,,,,,
82181281,1000,1000,1000,1000,,,,,
82183780,1000,1000,1000,1000,,,,,
82186279,1000,1000,1000,1000,,,,,
82188778,1000,1000,1000,1000,,,,,
82191277,1000,1000,1000,1000,,,,,
82193776,1000,1000,1000,1000,,,,,
82196275,1000,1000,1000,1000,,,,,
82198774,1000,1000,1000,1000,,,,,
82201273,1000,1000,1000,1000,,,,,
82203772,1000,1000,1000,1000,,,,,
82206271,1000,1000,1000,1000,,,,,
82208770,1000,1000,1000,1000,,,,,
82211269,1001,1001,1001,1001,,,,,
82213768,1002,1002,1002,1002,,,,,
82216267,1003,1003,1003,1003,,,,,
82218766,1003,1003,1003,1003,,,,,
82221265,1004,1004,1004,1004,,,,,
82223764,1005,1005,1005,1005,,,,,
82226263,1006,1006,1006,1006,,,,,
82228762,1006,1006,1006,1006,,,,,
82231261,1007,1007,1007,1007,,,,,
82233760,1008,1008,1008,1008,,,,,
82236259,1009,1009,1009,1009,,,,,
82238758,1009,1009,1009,1009,,,,,
82241257,1010,1010,1010,1010,,,,,
82243756,1011,1011,1011,1011,,,,,
82246255,1012,1012,1012,1012,,,,,
82248754,1012,1012,1012,1012,,,,,
82251253,1013,1013,1013,1013,,,,,
82253752,1014,1014,1014,1014,,,,,
82256251,1015,1015,1015,1015,,,,,
82258750,1015,1015,1015,1015,,,,,
82261249,1016,1016,1016,1016,,,,,
82263748,1017,1017,1017,1017,,,,,
82266247,1018,1018,1018,1018,,,,,
82268746,1018,1018,1018,1018,,,,,
82271245,1019,1019,1019,1019,,,,,
82273744,1020,1020,1020,1020,,,,,
82276243,1021,1021,1021,1021,,,,,
82278742,1021,1021,1021,1021,,,,,
82281241,1022,1022,1022,1022,,,,,
82283740,1023,1023,1023,1023,,,,,
82286239,1024,1024,1024,1024,,,,,
82288738,1024,1024,1024,1024,,,,,
82291237,1025,1025,1025,1025,,,,,
82293736,1026,1026,1026,1026,,,,,
82296235,1027,1027,1027,1027,,,,,
82298734,1027,1027,1027,1027,,,,,
82301233,1028,1028,1028,1028,,,,,
82303732,1029,1029,1029,1029,,,,,
82306231,1030,1030,1030,1030,,,,,
82308730,1030,1030,1030,1030,,,,,
82311229,1031,1031,1031,1031,,,,,
82313728,1032,1032,1032,1032,,,,,
82316227,1033,1033,1033,1033,,,,,
82318726,1033,1033,1033,1033,,,,,
82321225,1034,1034,1034,1034,,,,,
82323724,1035,1035,1035,1035,,,,,
82326223,1036,1036,1036,1036,,,,,
82328722,1036,1036,1036,1036,,,,,
82331221,1037,1037,1037,1037,,,,,
82333720,1038,1038,1038,1038,,,,,
82336219,1039,1039,1039,1039,,,,,
82338718,1039,1039,1039,1039,,,,,
82341217,1040,1040,1040,1040,,,,,
82343716,1041,1041,1041,1041,,,,,
82346215,1042,1042,1042,1042,,,,,
82348714,1042,1042,1042,1042,,,,,
82351213,1043,1043,1043,1043,,,,,
82353712,1044,1044,1044,1044,,,,,
82356211,1045,1045,1045,1045,,,,,
82358710,1045,1045,1045,1045,,,,,
82361209,1046,1046,1046,1046,,,,,
82363708,1047,1047,1047,1047,,,,,
82366207,1048,1048,1048,1048,,,,,
82368706,1048,1048,1048,1048,,,,,
82371205,1049,1049,1049,1049,,,,,
82373704,1050,1050,1050,1050,,,,,
82376203,1051,1051,1051,1051,,,,,
82378702,1051,1051,1051,1051,,,,,
82381201,1052,1052,1052,1052,,,,,
82383700,1053,1053,1053,1053,,,,,
82386199,1054,1054,1054,1054,,,,,
82388698,1054,1054,1054,1054,,,,,
82391197,1055,1055,1055,1055,,,,,
82393696,1056,1056,1056,1056,,,,,
82396195,1057,1057,1057,1057,,,,,
82398694,1057,1057,1057,1057,,,,,
82401193,1058,1058,1058,1058,,,,,
82403692,1059,1059,1059,1059,,,,,
82406191,1060,1060,1060,1060,,,,,
82408690,1060,1060,1060,1060,,,,,
82411189,1061,1061,1061,1061,,,,,
82413688,1062,1062,1062,1062,,,,,
82416187,1063,1063,1063,1063,,,,,
82418686,1063,1063,1063,1063,,,,,
82421185,1064,1064,1064,1064,,,,,
82423684,1065,1065,1065,1065,,,,,
82426183,1066,1066,1066,1066,,,,,
82428682,1066,1066,1066,1066,,,,,
82431181,1067,1067,1067,1067,,,,,
82433680,1068,1068,1068,1068,,,,,
82436179,1069,1069,1069,1069,,,,,
82438678,1069,1069,1069,1069,,,,,
82441177,1070,1070,1070,1070,,,,,
82443676,1071,1071,1071,1071,,,,,
82446175,1072,1072,1072,1072,,,,,
82448674,1072,1072,1072,1072,,,,,
82451173,1073,1073,1073,1073,,,,,
82453672,1074,1074,1074,1074,,,,,
82456171,1075,1075,1075,1075,,,,,
82458670,1075,1075,1075,1075,,,,,
82461169,1076,1076,1076,1076,,,,,
82463668,1077,1077,1077,1077,,,,,
82466167,1078,1078,1078,1078,,,,,
82468666,1078,1078,1078,1078,,,,,
82471165,1079,1079,1079,1079,,,,,
82473664,1080,1080,1080,1080,,,,,
82476163,1081,1081,1081,1081,,,,,
82478662,1081,1081,1081,1081,,,,,
82481161,1082,1082,1082,1082,,,,,
82483660,1083,1083,1083,1083,,,,,
82486159,1084,1084,1084,1084,,,,,
82488658,1084,1084,1084,1084,,,,,
82491157,1085,1085,1085,1085,,,,,
82493656,1086,1086,1086,1086,,,,,
82496155,1087,1087,1087,1087,,,,,
82498654,1087,1087,1087,1087,,,,,
82501153,1088,1088,1088,1088,,,,,
82503652,1089,1089,1089,1089,,,,,
82506151,1090,1090,1090,1090,,,,,
82508650,1090,1090,1090,1090,,,,,
82511149,1091,1091,1091,1091,,,,,
82513648,1092,1092,1092,1092,,,,,
82516147,1093,1093,1093,1093,,,,,
82518646,1093,1093,1093,1093,,,,,
82521145,1094,1094,1094,1094,,,,,
82523644,1095,1095,1095,1095,,,,,
82526143,1096,1096,1096,1096,,,,,
82528642,1096,1096,1096,1096,,,,,
82531141,1097,1097,1097,1097,,,,,
82533640,1098,1098,1098,1098,,,,,
82536139,1099,1099,1099,1099,,,,,
82538638,1099,1099,1099,1099,,,,,
82541137,1100,1100,1100,1100,,,,,
82543636,1101,1101,1101,1101,,,,,
82546135,1101,1101,1101,1101,,,,,
82548634,1102,1102,1102,1102,,,,,
82551133,1103,1103,1103,1103,,,,,
82553632,1104,1104,1104,1104,,,,,
82556131,1104,1104,1104,1104,,,,,
82558630,1105,1105,1105,1105,,,,,
82561129,1106,1106,1106,1106,,,,,
82563628,1107,1107,1107,1107,,,,,
82566127,1107,1107,1107,1107,,,,,
82568626,1108,1108,1108,1108,,,,,
82571125,1109,1109,1109,1109,,,,,
82573624,1110,1110,1110,1110,,,,,
82576123,1110,1110,1110,1110,,,,,
82578622,1111,1111,1111,1111,,,,,
82581121,1112,1112,1112,1112,,,,,
82583620,1113,1113,1113,1113,,,,,
82586119,1113,1113,1113,1113,,,,,
82588618,1114,1114,1114,1114,,,,,
82591117,1115,1115,1115,1115,,,,,
82593616,1116,1116,1116,1116,,,,,
82596115,1116,1116,1116,1116,,,,,
82598614,1117,1117,1117,1117,,,,,
82601113,1118,1118,1118,1118,,,,,
82603612,1119,1119,1119,1119,,,,,
82606111,1119,1119,1119,1119,,,,,
82608610,1120,1120,1120,1120,,,,,
82611109,1121,1121,1121,1121,,,,,
82613608,1122,1122,1122,1122,,,,,
82616107,1122,1122,1122,1122,,,,,
82618606,1123,1123,1123,1123,,,,,
82621105,1124,1124,1124,1124,,,,,
82623604,1125,1125,1125,1125,,,,,
82626103,1125,1125,1125,1125,,,,,
82628602,1126,1126,1126,1126,,,,,
82631101,1127,1127,1127,1127,,,,,
82633600,1128,1128,1128,1128,,,,,
82636099,1128,1128,1128,1128,,,,,
82638598,1129,1129,1129,1129,,,,,
82641097,1130,1130,1130,1130,,,,,
82643596,1131,1131,1131,1131,,,,,
82646095,1131,1131,1131,1131,,,,,
82648594,1132,1132,1132,1132,,,,,
82651093,1133,1133,1133,1133,,,,,
82653592,1134,1134,1134,1134,,,,,
82656091,1134,1134,1134,1134,,,,,
82658590,1135,1135,1135,1135,,,,,
82661089,1136,1136,1136,1136,,,,,
82663588,1137,1137,1137,1137,,,,,
82666087,1137,1137,1137,1137,,,,,
82668586,1138,1138,1138,1138,,,,,
82671085,1139,1139,1139,1139,,,,,
82673584,1140,1140,1140,1140,,,,,
82676083,1140,1140,1140,1140,,,,,
82678582,1141,1141,1141,1141,,,,,
82681081,1142,1142,1142,1142,,,,,
82683580,1143,1143,1143,1143,,,,,
82686079,1143,1143,1143,1143,,,,,
82688578,1144,1144,1144,1144,,,,,
82691077,1145,1145,1145,1145,,,,,
82693576,1146,1146,1146,1146,,,,,
82696075,1146,1146,1146,1146,,,,,
82698574,1147,1147,1147,1147,,,,,
82701073,1148,1148,1148,1148,,,,,
82703572,1149,1149,1149,1149,,,,,
82706071,1149,1149,1149,1149,,,,,
82708570,1150,1150,1150,1150,,,,,
82711069,1164,1151,1152,1164,,,,,
82713568,1172,1159,1160,1172,,,,,
82716067,1179,1167,1168,1180,,,,,
82718566,1187,1175,1176,1188,,,,,
82721065,1195,1183,1183,1195,,,,,
82723564,1202,1190,1191,1203,,,,,
82726063,1209,1198,1198,1210,,,,,
82728562,1217,1205,1206,1217,,,,,
82731061,1224,1212,1213,1224,,,,,
82733560,1231,1219,1220,1231,,,,,
82736059,1237,1226,1227,1238,,,,,
82738558,1244,1233,1234,1245,,,,,
82741057,1251,1240,1241,1251,,,,,
82743556,1258,1247,1247,1258,,,,,
82746055,1264,1253,1254,1265,,,,,
82748554,1270,1260,1260,1271,,,,,
82751053,1277,1266,1267,1277,,,,,
82753552,1283,1273,1273,1284,,,,,
82756051,1289,1279,1280,1290,,,,,
82758550,1295,1285,1286,1296,,,,,
82761049,1301,1291,1292,1302,,,,,
82763548,1307,1297,1298,1308,,,,,
82766047,1313,1303,1304,1314,,,,,
82768546,1319,1309,1310,1320,,,,,
82771045,1325,1315,1316,1325,,,,,
82773544,1331,1321,1322,1331,,,,,
82776043,1336,1327,1328,1337,,,,,
82778542,1342,1333,1333,1342,,,,,
82781041,1348,1338,1339,1348,,,,,
82783540,1353,1344,1344,1354,,,,,
82786039,1359,1349,1350,1359,,,,,
82788538,1364,1355,1356,1364,,,,,
82791037,1369,1360,1361,1370,,,,,
82793536,1375,1366,1366,1375,,,,,
82796035,1380,1371,1372,1380,,,,,
82798534,1385,1376,1377,1386,,,,,
82801033,1391,1382,1382,1391,,,,,
82803532,1396,1387,1388,1396,,,,,
82806031,1401,1392,1393,1401,,,,,
82808530,1406,1397,1398,1406,,,,,
82811029,1411,1402,1403,1411,,,,,
82813528,1416,1407,1408,1416,,,,,
82816027,1421,1412,1413,1421,,,,,
82818526,1426,1417,1418,1426,,,,,
82821025,1431,1422,1423,1431,,,,,
82823524,1436,1427,1428,1436,,,,,
82826023,1440,1432,1433,1441,,,,,
82828522,1445,1437,1438,1445,,,,,
82831021,1450,1442,1442,1450,,,,,
82833520,1455,1447,1447,1455,,,,,
82836019,1459,1451,1452,1460,,,,,
82838518,1464,1456,1457,1464,,,,,
82841017,1469,1461,1461,1469,,,,,
82843516,1473,1465,1466,1474,,,,,
82846015,1478,1470,1471,1478,,,,,
82848514,1482,1475,1475,1483,,,,,
82851013,1487,1479,1480,1487,,,,,
82853512,1491,1484,1484,1492,,,,,
82856011,1496,1488,1489,1496,,,,,
82858510,1500,1493,1493,1501,,,,,
82861009,1505,1497,1498,1505,,,,,
82863508,1509,1502,1502,1510,,,,,
82866007,1514,1506,1506,1514,,,,,
82868506,1518,1510,1511,1518,,,,,
82871005,1522,1515,1515,1523,,,,,
82873504,1526,1519,1519,1527,,,,,
82876003,1531,1523,1524,1531,,,,,
82878502,1535,1528,1528,1535,,,,,
82881001,1539,1532,1532,1540,,,,,
82883500,1543,1536,1536,1544,,,,,
82885999,1548,1540,1540,1548,,,,,
82888498,1552,1544,1545,1552,,,,,
82890997,1556,1549,1549,1556,,,,,
82893496,1560,1553,1553,1560,,,,,
82895995,1564,1557,1557,1565,,,,,
82898494,1568,1561,1561,1569,,,,,
82900993,1572,1565,1565,1573,,,,,
82903492,1576,1569,1569,1577,,,,,
82905991,1580,1573,1573,1581,,,,,
82908490,1584,1577,1577,1585,,,,,
82910989,1588,1581,1581,1589,,,,,
82913488,1592,1585,1585,1593,,,,,
82915987,1596,1589,1589,1597,,,,,
82918486,1600,1593,1593,1601,,,,,
82920985,1604,1597,1597,1604,,,,,
82923484,1608,1601,1601,1608,,,,,
82925983,1612,1605,1605,1612,,,,,
82928482,1615,1609,1609,1616,,,,,
82930981,1619,1612,1613,1620,,,,,
82933480,1623,1616,1616,1624,,,,,
82935979,1627,1620,1620,1627,,,,,
82938478,1631,1624,1624,1631,,,,,
82940977,1634,1628,1628,1635,,,,,
82943476,1638,1631,1632,1639,,,,,
82945975,1642,1635,1635,1642,,,,,
82948474,1646,1639,1639,1646,,,,,
82950973,1649,1643,1643,1650,,,,,
82953472,1653,1646,1647,1653,,,,,
82955971,1657,1650,1650,1657,,,,,
82958470,1660,1654,1654,1661,,,,,
82960969,1664,1657,1658,1664,,,,,
82963468,1668,1661,1661,1668,,,,,
82965967,1671,1664,1665,1672,,,,,
82968466,1675,1668,1668,1675,,,,,
82970965,1679,1672,1672,1679,,,,,
82973464,1682,1675,1676,1682,,,,,
82975963,1686,1679,1679,1686,,,,,
82978462,1689,1682,1683,1689,,,,,
82980961,1693,1686,1686,1693,,,,,
82983460,1696,1689,1690,1696,,,,,
82985959,1700,1693,1693,1700,,,,,
82988458,1703,1696,1697,1703,,,,,
82990957,1707,1700,1701,1707,,,,,
82993456,1710,1703,1704,1710,,,,,
82995955,1714,1707,1707,1714,,,,,
82998454,1717,1710,1711,1717,,,,,
83000953,1721,1714,1714,1721,,,,,
83003452,1724,1717,1718,1724,,,,,
83005951,1727,1721,1721,1727,,,,,
83008450,1731,1724,1725,1731,,,,,
83010949,1734,1727,1728,1734,,,,,
83013448,1738,1731,1731,1738,,,,,
83015947,1741,1734,1735,1741,,,,,
83018446,1744,1737,1738,1744,,,,,
83020945,1748,1741,1741,1748,,,,,
83023444,1751,1744,1745,1751,,,,,
83025943,1754,1747,1748,1754,,,,,
83028442,1758,1751,1751,1758,,,,,
83030941,1761,1754,1755,1761,,,,,
83033440,1764,1757,1758,1764,,,,,
83035939,1768,1761,1761,1768,,,,,
83038438,1771,1764,1764,1771,,,,,
83040937,1774,1767,1768,1774,,,,,
83043436,1777,1770,1771,1777,,,,,
83045935,1781,1774,1774,1781,,,,,
83048434,1784,1777,1777,1784,,,,,
83050933,1787,1780,1780,1787,,,,,
83053432,1790,1783,1784,1790,,,,,
83055931,1793,1786,1787,1794,,,,,
83058430,1797,1790,1790,1797,,,,,
83060929,1800,1793,1793,1800,,,,,
83063428,1803,1796,1796,1803,,,,,
83065927,1806,1799,1799,1806,,,,,
83068426,1809,1802,1802,1810,,,,,
83070925,1812,1805,1806,1813,,,,,
83073424,1815,1809,1809,1816,,,,,
83075923,1819,1812,1812,1819,,,,,
83078422,1822,1815,1815,1822,,,,,
83080921,1825,1818,1818,1825,,,,,
83083420,1828,1821,1821,1828,,,,,
83085919,1831,1824,1824,1832,,,,,
83088418,1834,1827,1827,1835,,,,,
83090917,1837,1830,1830,1838,,,,,
83093416,1840,1833,1833,1841,,,,,
83095915,1843,1836,1836,1844,,,,,
83098414,1846,1839,1839,1847,,,,,
83100913,1849,1843,1842,1850,,,,,
83103412,1852,1846,1845,1853,,,,,
83105911,1855,1849,1848,1856,,,,,
83108410,1858,1852,1851,1859,,,,,
83110909,1861,1855,1854,1862,,,,,
83113408,1864,1858,1857,1865,,,,,
83115907,1867,1861,1860,1868,,,,,
83118406,1870,1864,1863,1871,,,,,
83120905,1873,1866,1866,1874,,,,,
83123404,1876,1869,1869,1877,,,,,
83125903,1879,1872,1872,1880,,,,,
83128402,1882,1875,1875,1883,,,,,
83130901,1885,1878,1878,1886,,,,,
83133400,1888,1881,1881,1889,,,,,
83135899,1891,1884,1884,1892,,,,,
83138398,1894,1887,1887,1894,,,,,
83140897,1897,1890,1890,1897,,,,,
83143396,1899,1893,1893,1900,,,,,
83145895,1901,1894,1894,1902,,,,,
83148394,1900,1893,1893,1901,,,,,
83150893,1899,1892,1892,1900,,,,,
83153392,1898,1891,1891,1899,,,,,
83155891,1897,1890,1890,1898,,,,,
83158390,1896,1890,1890,1897,,,,,
83160889,1895,1889,1889,1896,,,,,
83163388,1895,1888,1888,1895,,,,,
83165887,1894,1887,1887,1894,,,,,
83168386,1893,1886,1886,1894,,,,,
83170885,1893,1886,1886,1893,,,,,
83173384,1892,1885,1885,1893,,,,,
83175883,1892,1885,1885,1892,,,,,
83178382,1891,1884,1884,1892,,,,,
83180881,1891,1884,1884,1891,,,,,
83183380,1891,1884,1884,1891,,,,,
83185879,1890,1884,1884,1891,,,,,
83188378,1890,1883,1884,1891,,,,,
83190877,1890,1883,1884,1891,,,,,
83193376,1890,1883,1884,1891,,,,,
83195875,1891,1884,1884,1891,,,,,
83198374,1891,1884,1884,1891,,,,,
83200873,1891,1884,1884,1891,,,,,
83203372,1891,1884,1885,1892,,,,,
83205871,1891,1885,1885,1892,,,,,
83208370,1891,1885,1886,1892,,,,,
83210869,1892,1886,1886,1892,,,,,
83213368,1892,1886,1886,1892,,,,,
83215867,1891,1886,1886,1892,,,,,
83218366,1891,1886,1886,1892,,,,,
83220865,1891,1886,1886,1891,,,,,
83223364,1890,1886,1886,1891,,,,,
83225863,1890,1885,1886,1890,,,,,
83228362,1889,1884,1885,1889,,,,,
83230861,1888,1884,1884,1888,,,,,
83233360,1887,1883,1883,1887,,,,,
83235859,1886,1881,1882,1886,,,,,
83238358,1884,1880,1880,1885,,,,,
83240857,1883,1878,1879,1883,,,,,
83243356,1881,1877,1877,1881,,,,,
83245855,1879,1875,1875,1879,,,,,
83248354,1877,1873,1873,1877,,,,,
83250853,1875,1871,1871,1875,,,,,
83253352,1873,1868,1869,1873,,,,,
83255851,1870,1866,1867,1870,,,,,
83258350,1868,1864,1864,1868,,,,,
83260849,1865,1861,1862,1866,,,,,
83263348,1863,1859,1859,1863,,,,,
83265847,1860,1856,1857,1860,,,,,
83268346,1858,1854,1854,1858,,,,,
83270845,1855,1851,1851,1855,,,,,
83273344,1852,1848,1849,1852,,,,,
83275843,1849,1845,1846,1849,,,,,
83278342,1846,1842,1843,1846,,,,,
83280841,1843,1839,1840,1843,,,,,
83283340,1840,1836,1837,1840,,,,,
83285839,1836,1833,1834,1836,,,,,
83288338,1833,1830,1830,1833,,,,,
83290837,1830,1827,1827,1830,,,,,
83293336,1827,1823,1824,1827,,,,,
83295835,1823,1820,1821,1823,,,,,
83298334,1820,1817,1817,1820,,,,,
83300833,1817,1813,1814,1817,,,,,
83303332,1813,1810,1811,1813,,,,,
83305831,1810,1807,1807,1810,,,,,
83308330,1806,1803,1804,1806,,,,,
83310829,1803,1800,1801,1803,,,,,
83313328,1799,1797,1797,1799,,,,,
83315827,1796,1793,1794,1796,,,,,
83318326,1792,1790,1790,1793,,,,,
83320825,1789,1786,1787,1789,,,,,
83323324,1785,1783,1783,1786,,,,,
83325823,1782,1780,1780,1782,,,,,
83328322,1778,1776,1777,1779,,,,,
83330821,1775,1773,1773,1775,,,,,
83333320,1772,1769,1770,1772,,,,,
83335819,1768,1766,1767,1768,,,,,
83338318,1765,1763,1763,1765,,,,,
83340817,1761,1759,1760,1761,,,,,
83343316,1758,1756,1757,1758,,,,,
83345815,1755,1753,1753,1755,,,,,
83348314,1751,1749,1750,1751,,,,,
