timestamp,TimeUS,C1,C2,C3,C4,C5,C6,C7,C8,C9,C10,C11,C12,C13,C14
1708759341.00000000,80228729,1000,1000,1000,1000,0,0,0,0,0,0,0,0,0,0
1708759341.09996009,80328689,1000,1000,1000,1000,0,0,0,0,0,0,0,0,0,0
1708759341.19991994,80428649,1000,1000,1000,1000,0,0,0,0,0,0,0,0,0,0
1708759341.29988003,80528609,1000,1000,1000,1000,0,0,0,0,0,0,0,0,0,0
1708759341.39983988,80628569,1000,1000,1000,1000,0,0,0,0,0,0,0,0,0,0
1708759341.49979997,80728529,1000,1000,1000,1000,0,0,0,0,0,0,0,0,0,0
1708759341.59976006,80828489,1000,1000,1000,1000,0,0,0,0,0,0,0,0,0,0
1708759341.69971991,80928449,1000,1000,1000,1000,0,0,0,0,0,0,0,0,0,0
1708759341.79967999,81028409,1000,1000,1000,1000,0,0,0,0,0,0,0,0,0,0
1708759341.89964008,81128369,1000,1000,1000,1000,0,0,0,0,0,0,0,0,0,0
1708759341.99959993,81228329,1000,1000,1000,1000,0,0,0,0,0,0,0,0,0,0
1708759342.09956002,81328289,1000,1000,1000,1000,0,0,0,0,0,0,0,0,0,0
1708759342.19951987,81428249,1000,1000,1000,1000,0,0,0,0,0,0,0,0,0,0
1708759342.29947996,81528209,1000,1000,1000,1000,0,0,0,0,0,0,0,0,0,0
1708759342.39944005,81628169,1000,1000,1000,1000,0,0,0,0,0,0,0,0,0,0
1708759342.50023293,81728962,1000,1000,1000,1000,0,0,0,0,0,0,0,0,0,0
1708759342.60019302,81828922,1000,1000,1000,1000,0,0,0,0,0,0,0,0,0,0
1708759342.70015287,81928882,1000,1000,1000,1000,0,0,0,0,0,0,0,0,0,0
1708759342.80011296,82028842,1000,1000,1000,1000,0,0,0,0,0,0,0,0,0,0
1708759342.90007305,82128802,1000,1000,1000,1000,0,0,0,0,0,0,0,0,0,0
1708759343.00003290,82228762,1007,1007,1007,1007,0,0,0,0,0,0,0,0,0,0
1708759343.09999299,82328722,1037,1037,1037,1037,0,0,0,0,0,0,0,0,0,0
1708759343.19995308,82428682,1067,1067,1067,1067,0,0,0,0,0,0,0,0,0,0
1708759343.29991293,82528642,1097,1097,1097,1097,0,0,0,0,0,0,0,0,0,0
1708759343.39987302,82628602,1127,1127,1127,1127,0,0,0,0,0,0,0,0,0,0
1708759343.49983311,82728562,1224,1212,1213,1224,0,0,0,0,0,0,0,0,0,0
1708759343.59979296,82828522,1450,1442,1442,1450,0,0,0,0,0,0,0,0,0,0
1708759343.69975305,82928482,1619,1612,1613,1620,0,0,0,0,0,0,0,0,0,0
1708759343.79971290,83028442,1761,1754,1755,1761,0,0,0,0,0,0,0,0,0,0
1708759343.89967299,83128402,1885,1878,1878,1886,0,0,0,0,0,0,0,0,0,0
1708759343.99963307,83228362,1888,1884,1884,1888,0,0,0,0,0,0,0,0,0,0
1708759344.09959292,83328322,1775,1773,1773,1775,0,0,0,0,0,0,0,0,0,0
1708759344.19955301,83428282,1660,1662,1662,1660,0,0,0,0,0,0,0,0,0,0
1708759344.29951310,83528242,1616,1619,1619,1616,0,0,0,0,0,0,0,0,0,0
1708759344.39947295,83628202,1618,1621,1621,1618,0,0,0,0,0,0,0,0,0,0
1708759344.49943304,83728162,1628,1630,1629,1628,0,0,0,0,0,0,0,0,0,0
1708759344.60022593,83828955,1630,1630,1630,1629,0,0,0,0,0,0,0,0,0,0
1708759344.70018601,83928915,1624,1623,1623,1624,0,0,0,0,0,0,0,0,0,0
1708759344.80014610,84028875,1618,1616,1616,1617,0,0,0,0,0,0,0,0,0,0
1708759344.90010595,84128835,1613,1612,1611,1613,0,0,0,0,0,0,0,0,0,0
1708759345.00006604,84228795,1612,1611,1610,1612,0,0,0,0,0,0,0,0,0,0
1708759345.10002589,84328755,1612,1612,1611,1612,0,0,0,0,0,0,0,0,0,0
1708759345.19998598,84428715,1614,1614,1614,1614,0,0,0,0,0,0,0,0,0,0
1708759345.29994607,84528675,1615,1616,1616,1615,0,0,0,0,0,0,0,0,0,0
1708759345.39990592,84628635,1617,1617,1617,1617,0,0,0,0,0,0,0,0,0,0
1708759345.49986601,84728595,1609,1610,1610,1609,0,0,0,0,0,0,0,0,0,0
1708759345.59982610,84828555,1581,1582,1581,1582,0,0,0,0,0,0,0,0,0,0
1708759345.69978595,84928515,1569,1568,1567,1570,0,0,0,0,0,0,0,0,0,0
1708759345.79974604,85028475,1557,1557,1556,1558,0,0,0,0,0,0,0,0,0,0
1708759345.89970589,85128435,1548,1547,1547,1548,0,0,0,0,0,0,0,0,0,0
1708759345.99966598,85228395,1539,1538,1538,1538,0,0,0,0,0,0,0,0,0,0
1708759346.09962606,85328355,1529,1529,1529,1529,0,0,0,0,0,0,0,0,0,0
1708759346.19958591,85428315,1520,1520,1520,1520,0,0,0,0,0,0,0,0,0,0
1708759346.29954600,85528275,1515,1515,1515,1515,0,0,0,0,0,0,0,0,0,0
1708759346.39950609,85628235,1512,1513,1512,1513,0,0,0,0,0,0,0,0,0,0
1708759346.49946594,85728195,1512,1512,1512,1513,0,0,0,0,0,0,0,0,0,0
1708759346.59942603,85828155,1513,1514,1513,1514,0,0,0,0,0,0,0,0,0,0
1708759346.70021892,85928948,1513,1513,1513,1513,0,0,0,0,0,0,0,0,0,0
1708759346.80017900,86028908,1513,1513,1513,1514,0,0,0,0,0,0,0,0,0,0
1708759346.90013909,86128868,1514,1514,1514,1515,0,0,0,0,0,0,0,0,0,0
1708759347.00009894,86228828,1517,1516,1517,1517,0,0,0,0,0,0,0,0,0,0
1708759347.10005903,86328788,1536,1535,1541,1530,0,0,0,0,0,0,0,0,0,0
1708759347.20001888,86428748,1545,1545,1549,1540,0,0,0,0,0,0,0,0,0,0
1708759347.29997897,86528708,1551,1551,1551,1551,0,0,0,0,0,0,0,0,0,0
1708759347.39993906,86628668,1555,1556,1553,1559,0,0,0,0,0,0,0,0,0,0
1708759347.49989891,86728628,1558,1558,1553,1563,0,0,0,0,0,0,0,0,0,0
1708759347.59985900,86828588,1559,1560,1555,1564,0,0,0,0,0,0,0,0,0,0
1708759347.69981909,86928548,1561,1561,1558,1564,0,0,0,0,0,0,0,0,0,0
1708759347.79977894,87028508,1564,1564,1565,1564,0,0,0,0,0,0,0,0,0,0
1708759347.89973903,87128468,1567,1567,1570,1565,0,0,0,0,0,0,0,0,0,0
1708759347.99969888,87228428,1568,1568,1571,1565,0,0,0,0,0,0,0,0,0,0
1708759348.09965897,87328388,1569,1569,1572,1567,0,0,0,0,0,0,0,0,0,0
1708759348.19961905,87428348,1570,1570,1571,1569,0,0,0,0,0,0,0,0,0,0
1708759348.29957891,87528308,1568,1568,1567,1569,0,0,0,0,0,0,0,0,0,0
1708759348.39953899,87628268,1568,1567,1568,1571,0,0,0,0,0,0,0,0,0,0
1708759348.49949908,87728228,1564,1564,1570,1574,0,0,0,0,0,0,0,0,0,0
1708759348.59945893,87828188,1564,1565,1570,1573,0,0,0,0,0,0,0,0,0,0
1708759348.70025206,87928981,1565,1566,1570,1571,0,0,0,0,0,0,0,0,0,0
1708759348.80021191,88028941,1566,1567,1569,1569,0,0,0,0,0,0,0,0,0,0
1708759348.90017200,88128901,1568,1568,1568,1567,0,0,0,0,0,0,0,0,0,0
1708759349.00013208,88228861,1570,1570,1568,1567,0,0,0,0,0,0,0,0,0,0
1708759349.10009193,88328821,1571,1571,1568,1568,0,0,0,0,0,0,0,0,0,0
1708759349.20005202,88428781,1572,1572,1567,1568,0,0,0,0,0,0,0,0,0,0
1708759349.30001187,88528741,1573,1573,1568,1568,0,0,0,0,0,0,0,0,0,0
1708759349.39997196,88628701,1573,1572,1568,1569,0,0,0,0,0,0,0,0,0,0
1708759349.49993205,88728661,1574,1573,1570,1570,0,0,0,0,0,0,0,0,0,0
1708759349.59989190,88828621,1574,1573,1571,1571,0,0,0,0,0,0,0,0,0,0
1708759349.69985199,88928581,1574,1574,1573,1573,0,0,0,0,0,0,0,0,0,0
1708759349.79981208,89028541,1573,1574,1574,1573,0,0,0,0,0,0,0,0,0,0
1708759349.89977193,89128501,1573,1574,1575,1574,0,0,0,0,0,0,0,0,0,0
1708759349.99973202,89228461,1573,1574,1576,1575,0,0,0,0,0,0,0,0,0,0
1708759350.09969211,89328421,1574,1574,1576,1575,0,0,0,0,0,0,0,0,0,0
1708759350.19965196,89428381,1574,1574,1576,1575,0,0,0,0,0,0,0,0,0,0
1708759350.29961205,89528341,1575,1575,1576,1576,0,0,0,0,0,0,0,0,0,0
1708759350.39957190,89628301,1575,1574,1576,1576,0,0,0,0,0,0,0,0,0,0
1708759350.49953198,89728261,1576,1576,1577,1577,0,0,0,0,0,0,0,0,0,0
1708759350.59949207,89828221,1576,1577,1577,1577,0,0,0,0,0,0,0,0,0,0
1708759350.69945192,89928181,1576,1577,1576,1577,0,0,0,0,0,0,0,0,0,0
1708759350.80024505,90028974,1577,1577,1577,1576,0,0,0,0,0,0,0,0,0,0
1708759350.90020490,90128934,1578,1577,1577,1577,0,0,0,0,0,0,0,0,0,0
1708759351.00016499,90228894,1578,1578,1577,1577,0,0,0,0,0,0,0,0,0,0
1708759351.10012507,90328854,1577,1578,1577,1577,0,0,0,0,0,0,0,0,0,0
1708759351.20008492,90428814,1578,1578,1577,1577,0,0,0,0,0,0,0,0,0,0
1708759351.30004501,90528774,1579,1578,1578,1578,0,0,0,0,0,0,0,0,0,0
1708759351.40000510,90628734,1577,1578,1577,1577,0,0,0,0,0,0,0,0,0,0
1708759351.49996495,90728694,1578,1579,1578,1579,0,0,0,0,0,0,0,0,0,0
1708759351.59992504,90828654,1578,1578,1578,1578,0,0,0,0,0,0,0,0,0,0
1708759351.69988489,90928614,1578,1578,1579,1578,0,0,0,0,0,0,0,0,0,0
1708759351.79984498,91028574,1579,1579,1579,1579,0,0,0,0,0,0,0,0,0,0
1708759351.89980507,91128534,1579,1579,1579,1579,0,0,0,0,0,0,0,0,0,0
1708759351.99976492,91228494,1579,1579,1580,1579,0,0,0,0,0,0,0,0,0,0
1708759352.09972501,91328454,1580,1579,1580,1580,0,0,0,0,0,0,0,0,0,0
1708759352.19968510,91428414,1580,1580,1580,1580,0,0,0,0,0,0,0,0,0,0
1708759352.29964495,91528374,1579,1580,1580,1580,0,0,0,0,0,0,0,0,0,0
1708759352.39960504,91628334,1578,1578,1578,1579,0,0,0,0,0,0,0,0,0,0
1708759352.49956489,91728294,1579,1579,1579,1579,0,0,0,0,0,0,0,0,0,0
1708759352.59952497,91828254,1579,1579,1579,1579,0,0,0,0,0,0,0,0,0,0
1708759352.69948506,91928214,1580,1579,1579,1580,0,0,0,0,0,0,0,0,0,0
1708759352.79944491,92028174,1579,1579,1579,1579,0,0,0,0,0,0,0,0,0,0
1708759352.90023804,92128967,1580,1579,1579,1579,0,0,0,0,0,0,0,0,0,0
1708759353.00019789,92228927,1581,1581,1581,1580,0,0,0,0,0,0,0,0,0,0
1708759353.10015798,92328887,1581,1581,1581,1581,0,0,0,0,0,0,0,0,0,0
1708759353.20011806,92428847,1579,1580,1579,1579,0,0,0,0,0,0,0,0,0,0
1708759353.30007792,92528807,1580,1579,1579,1580,0,0,0,0,0,0,0,0,0,0
1708759353.40003800,92628767,1581,1580,1581,1580,0,0,0,0,0,0,0,0,0,0
1708759353.49999809,92728727,1582,1581,1582,1581,0,0,0,0,0,0,0,0,0,0
1708759353.59995794,92828687,1582,1582,1582,1582,0,0,0,0,0,0,0,0,0,0
1708759353.69991803,92928647,1582,1582,1582,1582,0,0,0,0,0,0,0,0,0,0
1708759353.79987788,93028607,1582,1582,1582,1582,0,0,0,0,0,0,0,0,0,0
1708759353.89983797,93128567,1581,1581,1581,1582,0,0,0,0,0,0,0,0,0,0
1708759353.99979806,93228527,1581,1581,1581,1581,0,0,0,0,0,0,0,0,0,0
1708759354.09975791,93328487,1580,1580,1580,1581,0,0,0,0,0,0,0,0,0,0
1708759354.19971800,93428447,1581,1581,1581,1581,0,0,0,0,0,0,0,0,0,0
1708759354.29967809,93528407,1581,1581,1581,1582,0,0,0,0,0,0,0,0,0,0
1708759354.39963794,93628367,1581,1581,1581,1581,0,0,0,0,0,0,0,0,0,0
1708759354.49959803,93728327,1580,1580,1580,1580,0,0,0,0,0,0,0,0,0,0
1708759354.59955788,93828287,1580,1580,1580,1580,0,0,0,0,0,0,0,0,0,0
1708759354.69951797,93928247,1581,1582,1587,1575,0,0,0,0,0,0,0,0,0,0
1708759354.79947805,94028207,1579,1581,1585,1572,0,0,0,0,0,0,0,0,0,0
1708759354.89943790,94128167,1579,1582,1578,1574,0,0,0,0,0,0,0,0,0,0
1708759355.00023103,94228960,1577,1579,1568,1571,0,0,0,0,0,0,0,0,0,0
1708759355.10019088,94328920,1577,1579,1561,1569,0,0,0,0,0,0,0,0,0,0
1708759355.20015097,94428880,1578,1579,1557,1564,0,0,0,0,0,0,0,0,0,0
1708759355.30011106,94528840,1579,1578,1555,1559,0,0,0,0,0,0,0,0,0,0
1708759355.40007091,94628800,1580,1579,1556,1556,0,0,0,0,0,0,0,0,0,0
1708759355.50003099,94728760,1580,1579,1556,1554,0,0,0,0,0,0,0,0,0,0
1708759355.59999108,94828720,1579,1578,1556,1553,0,0,0,0,0,0,0,0,0,0
1708759355.69995093,94928680,1578,1578,1556,1553,0,0,0,0,0,0,0,0,0,0
1708759355.79991102,95028640,1577,1578,1556,1554,0,0,0,0,0,0,0,0,0,0
1708759355.89987087,95128600,1575,1577,1554,1554,0,0,0,0,0,0,0,0,0,0
1708759355.99983096,95228560,1575,1577,1553,1554,0,0,0,0,0,0,0,0,0,0
1708759356.09979105,95328520,1575,1576,1551,1551,0,0,0,0,0,0,0,0,0,0
1708759356.19975090,95428480,1576,1578,1550,1550,0,0,0,0,0,0,0,0,0,0
1708759356.29971099,95528440,1578,1579,1547,1547,0,0,0,0,0,0,0,0,0,0
1708759356.39967108,95628400,1580,1581,1545,1544,0,0,0,0,0,0,0,0,0,0
1708759356.49963093,95728360,1583,1584,1543,1542,0,0,0,0,0,0,0,0,0,0
1708759356.59959102,95828320,1586,1587,1540,1540,0,0,0,0,0,0,0,0,0,0
1708759356.69955111,95928280,1590,1591,1538,1538,0,0,0,0,0,0,0,0,0,0
1708759356.79951096,96028240,1593,1593,1536,1536,0,0,0,0,0,0,0,0,0,0
1708759356.89947104,96128200,1595,1595,1535,1536,0,0,0,0,0,0,0,0,0,0
1708759356.99943089,96228160,1595,1595,1535,1536,0,0,0,0,0,0,0,0,0,0
1708759357.10022402,96328953,1594,1594,1536,1538,0,0,0,0,0,0,0,0,0,0
1708759357.20018411,96428913,1593,1592,1539,1543,0,0,0,0,0,0,0,0,0,0
1708759357.30014396,96528873,1589,1587,1544,1547,0,0,0,0,0,0,0,0,0,0
1708759357.40010405,96628833,1583,1580,1552,1555,0,0,0,0,0,0,0,0,0,0
1708759357.50006390,96728793,1575,1571,1563,1565,0,0,0,0,0,0,0,0,0,0
1708759357.60002398,96828753,1565,1561,1575,1577,0,0,0,0,0,0,0,0,0,0
1708759357.69998407,96928713,1553,1550,1588,1588,0,0,0,0,0,0,0,0,0,0
1708759357.79994392,97028673,1542,1540,1598,1599,0,0,0,0,0,0,0,0,0,0
1708759357.89990401,97128633,1534,1534,1607,1607,0,0,0,0,0,0,0,0,0,0
1708759357.99986410,97228593,1529,1530,1613,1612,0,0,0,0,0,0,0,0,0,0
1708759358.09982395,97328553,1528,1531,1615,1614,0,0,0,0,0,0,0,0,0,0
1708759358.19978404,97428513,1531,1533,1613,1612,0,0,0,0,0,0,0,0,0,0
1708759358.29974389,97528473,1538,1539,1609,1609,0,0,0,0,0,0,0,0,0,0
1708759358.39970398,97628433,1545,1547,1603,1604,0,0,0,0,0,0,0,0,0,0
1708759358.49966407,97728393,1555,1555,1596,1596,0,0,0,0,0,0,0,0,0,0
1708759358.59962392,97828353,1563,1563,1588,1588,0,0,0,0,0,0,0,0,0,0
1708759358.69958401,97928313,1572,1572,1582,1582,0,0,0,0,0,0,0,0,0,0
1708759358.79954410,98028273,1579,1578,1576,1575,0,0,0,0,0,0,0,0,0,0
1708759358.89950395,98128233,1583,1582,1571,1570,0,0,0,0,0,0,0,0,0,0
1708759358.99946404,98228193,1586,1585,1567,1568,0,0,0,0,0,0,0,0,0,0
1708759359.10025692,98328986,1588,1587,1566,1567,0,0,0,0,0,0,0,0,0,0
1708759359.20021701,98428946,1588,1586,1567,1567,0,0,0,0,0,0,0,0,0,0
1708759359.30017710,98528906,1585,1585,1568,1568,0,0,0,0,0,0,0,0,0,0
1708759359.40013695,98628866,1583,1582,1570,1571,0,0,0,0,0,0,0,0,0,0
1708759359.50009704,98728826,1580,1580,1573,1573,0,0,0,0,0,0,0,0,0,0
1708759359.60005689,98828786,1578,1578,1577,1576,0,0,0,0,0,0,0,0,0,0
1708759359.70001698,98928746,1575,1575,1579,1579,0,0,0,0,0,0,0,0,0,0
1708759359.79997706,99028706,1573,1574,1581,1581,0,0,0,0,0,0,0,0,0,0
1708759359.89993691,99128666,1573,1573,1583,1583,0,0,0,0,0,0,0,0,0,0
1708759359.99989700,99228626,1572,1573,1584,1584,0,0,0,0,0,0,0,0,0,0
1708759360.09985709,99328586,1572,1573,1584,1583,0,0,0,0,0,0,0,0,0,0
1708759360.19981694,99428546,1573,1574,1583,1583,0,0,0,0,0,0,0,0,0,0
1708759360.29977703,99528506,1574,1574,1581,1582,0,0,0,0,0,0,0,0,0,0
1708759360.39973688,99628466,1576,1576,1581,1581,0,0,0,0,0,0,0,0,0,0
1708759360.49969697,99728426,1577,1576,1579,1579,0,0,0,0,0,0,0,0,0,0
1708759360.59965706,99828386,1579,1578,1579,1579,0,0,0,0,0,0,0,0,0,0
1708759360.69961691,99928346,1579,1579,1577,1577,0,0,0,0,0,0,0,0,0,0
1708759360.79957700,100028306,1581,1581,1578,1577,0,0,0,0,0,0,0,0,0,0
1708759360.89953709,100128266,1581,1581,1577,1577,0,0,0,0,0,0,0,0,0,0
1708759360.99949694,100228226,1581,1581,1576,1576,0,0,0,0,0,0,0,0,0,0
1708759361.09945703,100328186,1581,1580,1577,1577,0,0,0,0,0,0,0,0,0,0
1708759361.20024991,100428979,1581,1581,1578,1578,0,0,0,0,0,0,0,0,0,0
1708759361.30021000,100528939,1581,1581,1578,1579,0,0,0,0,0,0,0,0,0,0
1708759361.40017009,100628899,1580,1579,1578,1579,0,0,0,0,0,0,0,0,0,0
1708759361.50012994,100728859,1579,1579,1579,1580,0,0,0,0,0,0,0,0,0,0
1708759361.60009003,100828819,1504,1552,1589,1591,0,0,0,0,0,0,0,0,0,0
1708759361.70004988,100928779,1547,1542,1595,1597,0,0,0,0,0,0,0,0,0,0
1708759361.80000997,101028739,1579,1546,1597,1598,0,0,0,0,0,0,0,0,0,0
1708759361.89997005,101128699,1597,1560,1595,1596,0,0,0,0,0,0,0,0,0,0
1708759361.99992990,101228659,1606,1578,1592,1593,0,0,0,0,0,0,0,0,0,0
1708759362.09988999,101328619,1607,1593,1587,1587,0,0,0,0,0,0,0,0,0,0
1708759362.19985008,101428579,1604,1605,1581,1581,0,0,0,0,0,0,0,0,0,0
1708759362.29980993,101528539,1601,1611,1578,1577,0,0,0,0,0,0,0,0,0,0
1708759362.39977002,101628499,1598,1612,1577,1575,0,0,0,0,0,0,0,0,0,0
1708759362.49972987,101728459,1597,1608,1577,1575,0,0,0,0,0,0,0,0,0,0
1708759362.59968996,101828419,1596,1602,1578,1575,0,0,0,0,0,0,0,0,0,0
1708759362.69965005,101928379,1596,1601,1584,1570,0,0,0,0,0,0,0,0,0,0
1708759362.79960990,102028339,1596,1598,1579,1566,0,0,0,0,0,0,0,0,0,0
1708759362.89956999,102128299,1594,1593,1571,1567,0,0,0,0,0,0,0,0,0,0
1708759362.99953008,102228259,1588,1586,1563,1566,0,0,0,0,0,0,0,0,0,0
1708759363.09948993,102328219,1581,1581,1558,1566,0,0,0,0,0,0,0,0,0,0
1708759363.19945002,102428179,1576,1577,1557,1564,0,0,0,0,0,0,0,0,0,0
1708759363.30024290,102528972,1572,1574,1558,1562,0,0,0,0,0,0,0,0,0,0
1708759363.40020299,102628932,1569,1572,1559,1560,0,0,0,0,0,0,0,0,0,0
1708759363.50016308,102728892,1569,1571,1561,1560,0,0,0,0,0,0,0,0,0,0
1708759363.60012293,102828852,1568,1571,1560,1558,0,0,0,0,0,0,0,0,0,0
1708759363.70008302,102928812,1569,1569,1558,1556,0,0,0,0,0,0,0,0,0,0
1708759363.80004311,103028772,1569,1570,1556,1555,0,0,0,0,0,0,0,0,0,0
1708759363.90000296,103128732,1570,1571,1553,1553,0,0,0,0,0,0,0,0,0,0
1708759363.99996305,103228692,1572,1573,1551,1551,0,0,0,0,0,0,0,0,0,0
1708759364.09992290,103328652,1574,1574,1548,1548,0,0,0,0,0,0,0,0,0,0
1708759364.19988298,103428612,1576,1577,1545,1545,0,0,0,0,0,0,0,0,0,0
1708759364.29984307,103528572,1579,1580,1542,1542,0,0,0,0,0,0,0,0,0,0
1708759364.39980292,103628532,1583,1584,1542,1541,0,0,0,0,0,0,0,0,0,0
1708759364.49976301,103728492,1585,1585,1538,1538,0,0,0,0,0,0,0,0,0,0
1708759364.59972310,103828452,1587,1588,1536,1536,0,0,0,0,0,0,0,0,0,0
1708759364.69968295,103928412,1588,1588,1534,1534,0,0,0,0,0,0,0,0,0,0
1708759364.79964304,104028372,1591,1591,1535,1536,0,0,0,0,0,0,0,0,0,0
1708759364.89960289,104128332,1592,1591,1536,1537,0,0,0,0,0,0,0,0,0,0
1708759364.99956298,104228292,1591,1590,1538,1539,0,0,0,0,0,0,0,0,0,0
1708759365.09952307,104328252,1589,1587,1540,1543,0,0,0,0,0,0,0,0,0,0
1708759365.19948292,104428212,1586,1585,1545,1547,0,0,0,0,0,0,0,0,0,0
1708759365.29944301,104528172,1581,1580,1550,1553,0,0,0,0,0,0,0,0,0,0
1708759365.40023589,104628965,1576,1575,1558,1561,0,0,0,0,0,0,0,0,0,0
1708759365.50019598,104728925,1568,1565,1566,1569,0,0,0,0,0,0,0,0,0,0
1708759365.60015607,104828885,1559,1557,1576,1578,0,0,0,0,0,0,0,0,0,0
1708759365.70011592,104928845,1551,1548,1587,1588,0,0,0,0,0,0,0,0,0,0
1708759365.80007601,105028805,1542,1540,1595,1595,0,0,0,0,0,0,0,0,0,0
1708759365.90003610,105128765,1535,1534,1601,1601,0,0,0,0,0,0,0,0,0,0
1708759365.99999595,105228725,1532,1533,1606,1605,0,0,0,0,0,0,0,0,0,0
1708759366.09995604,105328685,1532,1534,1608,1607,0,0,0,0,0,0,0,0,0,0
1708759366.19991589,105428645,1536,1538,1608,1606,0,0,0,0,0,0,0,0,0,0
1708759366.29987597,105528605,1541,1543,1603,1603,0,0,0,0,0,0,0,0,0,0
1708759366.39983606,105628565,1547,1548,1597,1597,0,0,0,0,0,0,0,0,0,0
1708759366.49979591,105728525,1555,1555,1591,1592,0,0,0,0,0,0,0,0,0,0
1708759366.59975600,105828485,1563,1563,1586,1586,0,0,0,0,0,0,0,0,0,0
1708759366.69971609,105928445,1570,1569,1580,1579,0,0,0,0,0,0,0,0,0,0
1708759366.79967594,106028405,1576,1575,1575,1574,0,0,0,0,0,0,0,0,0,0
1708759366.89963603,106128365,1581,1579,1571,1570,0,0,0,0,0,0,0,0,0,0
1708759366.99959588,106228325,1584,1583,1569,1569,0,0,0,0,0,0,0,0,0,0
1708759367.09955597,106328285,1586,1584,1568,1568,0,0,0,0,0,0,0,0,0,0
1708759367.19951606,106428245,1586,1584,1568,1568,0,0,0,0,0,0,0,0,0,0
1708759367.29947591,106528205,1585,1584,1570,1570,0,0,0,0,0,0,0,0,0,0
1708759367.39943600,106628165,1583,1582,1572,1572,0,0,0,0,0,0,0,0,0,0
1708759367.50022888,106728958,1581,1580,1574,1574,0,0,0,0,0,0,0,0,0,0
1708759367.60018897,106828918,1578,1579,1576,1577,0,0,0,0,0,0,0,0,0,0
1708759367.70014906,106928878,1576,1577,1578,1579,0,0,0,0,0,0,0,0,0,0
1708759367.80010891,107028838,1575,1576,1581,1580,0,0,0,0,0,0,0,0,0,0
1708759367.90006900,107128798,1574,1575,1582,1582,0,0,0,0,0,0,0,0,0,0
1708759368.00002909,107228758,1573,1574,1582,1582,0,0,0,0,0,0,0,0,0,0
1708759368.09998894,107328718,1573,1574,1583,1582,0,0,0,0,0,0,0,0,0,0
1708759368.19994903,107428678,1574,1574,1582,1582,0,0,0,0,0,0,0,0,0,0
1708759368.29990888,107528638,1575,1575,1582,1582,0,0,0,0,0,0,0,0,0,0
1708759368.39986897,107628598,1577,1577,1581,1581,0,0,0,0,0,0,0,0,0,0
1708759368.49982905,107728558,1579,1578,1581,1581,0,0,0,0,0,0,0,0,0,0
1708759368.59978890,107828518,1579,1579,1580,1580,0,0,0,0,0,0,0,0,0,0
1708759368.69974899,107928478,1581,1581,1580,1580,0,0,0,0,0,0,0,0,0,0
1708759368.79970908,108028438,1581,1581,1579,1579,0,0,0,0,0,0,0,0,0,0
1708759368.89966893,108128398,1582,1582,1579,1579,0,0,0,0,0,0,0,0,0,0
1708759368.99962902,108228358,1582,1581,1577,1578,0,0,0,0,0,0,0,0,0,0
1708759369.09958911,108328318,1582,1582,1578,1579,0,0,0,0,0,0,0,0,0,0
1708759369.19954896,108428278,1582,1581,1578,1578,0,0,0,0,0,0,0,0,0,0
1708759369.29950905,108528238,1581,1581,1578,1578,0,0,0,0,0,0,0,0,0,0
1708759369.39946890,108628198,1580,1580,1579,1578,0,0,0,0,0,0,0,0,0,0
1708759369.49942899,108728158,1580,1580,1579,1579,0,0,0,0,0,0,0,0,0,0
1708759369.60022187,108828951,1580,1581,1580,1580,0,0,0,0,0,0,0,0,0,0
1708759369.70018196,108928911,1581,1581,1582,1582,0,0,0,0,0,0,0,0,0,0
1708759369.80014205,109028871,1581,1581,1582,1582,0,0,0,0,0,0,0,0,0,0
1708759369.90010190,109128831,1580,1580,1581,1581,0,0,0,0,0,0,0,0,0,0
1708759370.00006199,109228791,1580,1580,1582,1581,0,0,0,0,0,0,0,0,0,0
1708759370.10002208,109328751,1580,1580,1581,1581,0,0,0,0,0,0,0,0,0,0
1708759370.19998193,109428711,1580,1580,1581,1581,0,0,0,0,0,0,0,0,0,0
1708759370.29994202,109528671,1580,1581,1581,1581,0,0,0,0,0,0,0,0,0,0
1708759370.39990211,109628631,1581,1581,1582,1581,0,0,0,0,0,0,0,0,0,0
1708759370.49986196,109728591,1581,1581,1581,1581,0,0,0,0,0,0,0,0,0,0
1708759370.59982204,109828551,1582,1581,1581,1581,0,0,0,0,0,0,0,0,0,0
1708759370.69978189,109928511,1582,1582,1582,1582,0,0,0,0,0,0,0,0,0,0
1708759370.79974198,110028471,1582,1582,1581,1581,0,0,0,0,0,0,0,0,0,0
1708759370.89970207,110128431,1582,1581,1580,1580,0,0,0,0,0,0,0,0,0,0
1708759370.99966192,110228391,1582,1582,1581,1581,0,0,0,0,0,0,0,0,0,0
1708759371.09962201,110328351,1581,1582,1586,1574,0,0,0,0,0,0,0,0,0,0
1708759371.19958210,110428311,1581,1583,1586,1573,0,0,0,0,0,0,0,0,0,0
1708759371.29954195,110528271,1579,1581,1576,1572,0,0,0,0,0,0,0,0,0,0
1708759371.39950204,110628231,1578,1581,1569,1572,0,0,0,0,0,0,0,0,0,0
1708759371.49946189,110728191,1577,1579,1561,1568,0,0,0,0,0,0,0,0,0,0
1708759371.60025501,110828984,1578,1579,1557,1564,0,0,0,0,0,0,0,0,0,0
1708759371.70021510,110928944,1578,1578,1555,1559,0,0,0,0,0,0,0,0,0,0
1708759371.80017495,111028904,1580,1579,1556,1556,0,0,0,0,0,0,0,0,0,0
1708759371.90013504,111128864,1580,1578,1556,1554,0,0,0,0,0,0,0,0,0,0
1708759372.00009489,111228824,1579,1579,1556,1554,0,0,0,0,0,0,0,0,0,0
1708759372.10005498,111328784,1579,1578,1556,1554,0,0,0,0,0,0,0,0,0,0
1708759372.20001507,111428744,1577,1577,1555,1554,0,0,0,0,0,0,0,0,0,0
1708759372.29997492,111528704,1575,1577,1554,1554,0,0,0,0,0,0,0,0,0,0
1708759372.39993501,111628664,1576,1577,1553,1554,0,0,0,0,0,0,0,0,0,0
1708759372.49989510,111728624,1576,1578,1553,1553,0,0,0,0,0,0,0,0,0,0
1708759372.59985495,111828584,1576,1578,1551,1551,0,0,0,0,0,0,0,0,0,0
1708759372.69981503,111928544,1578,1579,1549,1549,0,0,0,0,0,0,0,0,0,0
1708759372.79977489,112028504,1580,1581,1547,1547,0,0,0,0,0,0,0,0,0,0
1708759372.89973497,112128464,1582,1583,1545,1545,0,0,0,0,0,0,0,0,0,0
1708759372.99969506,112228424,1585,1586,1543,1542,0,0,0,0,0,0,0,0,0,0
1708759373.09965491,112328384,1588,1588,1541,1541,0,0,0,0,0,0,0,0,0,0
1708759373.19961500,112428344,1589,1590,1538,1539,0,0,0,0,0,0,0,0,0,0
1708759373.29957509,112528304,1590,1590,1537,1538,0,0,0,0,0,0,0,0,0,0
1708759373.39953494,112628264,1592,1593,1538,1540,0,0,0,0,0,0,0,0,0,0
1708759373.49949503,112728224,1592,1592,1539,1541,0,0,0,0,0,0,0,0,0,0
1708759373.59945488,112828184,1591,1590,1542,1544,0,0,0,0,0,0,0,0,0,0
1708759373.70024800,112928977,1589,1586,1547,1549,0,0,0,0,0,0,0,0,0,0
1708759373.80020809,113028937,1583,1580,1553,1556,0,0,0,0,0,0,0,0,0,0
1708759373.90016794,113128897,1577,1573,1563,1566,0,0,0,0,0,0,0,0,0,0
1708759374.00012803,113228857,1567,1563,1573,1575,0,0,0,0,0,0,0,0,0,0
1708759374.10008788,113328817,1558,1555,1585,1586,0,0,0,0,0,0,0,0,0,0
1708759374.20004797,113428777,1548,1547,1595,1595,0,0,0,0,0,0,0,0,0,0
1708759374.30000806,113528737,1542,1541,1604,1604,0,0,0,0,0,0,0,0,0,0
1708759374.39996791,113628697,1536,1537,1609,1608,0,0,0,0,0,0,0,0,0,0
1708759374.49992800,113728657,1533,1536,1610,1609,0,0,0,0,0,0,0,0,0,0
1708759374.59988809,113828617,1535,1538,1610,1610,0,0,0,0,0,0,0,0,0,0
1708759374.69984794,113928577,1540,1542,1608,1607,0,0,0,0,0,0,0,0,0,0
1708759374.79980803,114028537,1546,1548,1603,1602,0,0,0,0,0,0,0,0,0,0
1708759374.89976788,114128497,1554,1554,1597,1596,0,0,0,0,0,0,0,0,0,0
1708759374.99972796,114228457,1561,1561,1590,1589,0,0,0,0,0,0,0,0,0,0
1708759375.09968805,114328417,1569,1567,1584,1583,0,0,0,0,0,0,0,0,0,0
1708759375.19964790,114428377,1576,1574,1579,1578,0,0,0,0,0,0,0,0,0,0
1708759375.29960799,114528337,1580,1578,1573,1573,0,0,0,0,0,0,0,0,0,0
1708759375.39956808,114628297,1584,1582,1570,1570,0,0,0,0,0,0,0,0,0,0
1708759375.49952793,114728257,1586,1584,1568,1569,0,0,0,0,0,0,0,0,0,0
1708759375.59948802,114828217,1586,1585,1568,1568,0,0,0,0,0,0,0,0,0,0
1708759375.69944811,114928177,1586,1585,1569,1570,0,0,0,0,0,0,0,0,0,0
1708759375.80024099,115028970,1585,1584,1572,1571,0,0,0,0,0,0,0,0,0,0
1708759375.90020108,115128930,1583,1582,1574,1574,0,0,0,0,0,0,0,0,0,0
1708759376.00016093,115228890,1579,1579,1576,1576,0,0,0,0,0,0,0,0,0,0
1708759376.10012102,115328850,1578,1578,1579,1579,0,0,0,0,0,0,0,0,0,0
1708759376.20008087,115428810,1575,1576,1580,1580,0,0,0,0,0,0,0,0,0,0
1708759376.30004096,115528770,1574,1575,1582,1582,0,0,0,0,0,0,0,0,0,0
1708759376.40000105,115628730,1573,1574,1583,1583,0,0,0,0,0,0,0,0,0,0
1708759376.49996090,115728690,1573,1574,1584,1583,0,0,0,0,0,0,0,0,0,0
1708759376.59992099,115828650,1573,1574,1583,1583,0,0,0,0,0,0,0,0,0,0
1708759376.69988108,115928610,1574,1575,1582,1582,0,0,0,0,0,0,0,0,0,0
1708759376.79984093,116028570,1575,1575,1581,1581,0,0,0,0,0,0,0,0,0,0
1708759376.89980102,116128530,1576,1577,1580,1580,0,0,0,0,0,0,0,0,0,0
1708759376.99976110,116228490,1578,1577,1579,1579,0,0,0,0,0,0,0,0,0,0
1708759377.09972095,116328450,1579,1579,1579,1579,0,0,0,0,0,0,0,0,0,0
1708759377.19968104,116428410,1580,1580,1578,1578,0,0,0,0,0,0,0,0,0,0
1708759377.29964089,116528370,1581,1581,1577,1578,0,0,0,0,0,0,0,0,0,0
1708759377.39960098,116628330,1581,1581,1577,1577,0,0,0,0,0,0,0,0,0,0
1708759377.49956107,116728290,1581,1581,1577,1577,0,0,0,0,0,0,0,0,0,0
1708759377.59952092,116828250,1582,1582,1578,1578,0,0,0,0,0,0,0,0,0,0
1708759377.69948101,116928210,1580,1580,1577,1577,0,0,0,0,0,0,0,0,0,0
1708759377.79944110,117028170,1581,1581,1579,1578,0,0,0,0,0,0,0,0,0,0
1708759377.90023398,117128963,1581,1580,1580,1580,0,0,0,0,0,0,0,0,0,0
1708759378.00019407,117228923,1580,1580,1579,1579,0,0,0,0,0,0,0,0,0,0
1708759378.10015392,117328883,1581,1581,1582,1582,0,0,0,0,0,0,0,0,0,0
1708759378.20011401,117428843,1579,1580,1580,1580,0,0,0,0,0,0,0,0,0,0
1708759378.30007410,117528803,1579,1579,1580,1581,0,0,0,0,0,0,0,0,0,0
1708759378.40003395,117628763,1579,1579,1581,1580,0,0,0,0,0,0,0,0,0,0
1708759378.49999404,117728723,1579,1579,1580,1580,0,0,0,0,0,0,0,0,0,0
1708759378.59995389,117828683,1580,1580,1581,1580,0,0,0,0,0,0,0,0,0,0
1708759378.69991398,117928643,1580,1580,1580,1581,0,0,0,0,0,0,0,0,0,0
1708759378.79987407,118028603,1581,1580,1581,1581,0,0,0,0,0,0,0,0,0,0
1708759378.89983392,118128563,1581,1581,1581,1581,0,0,0,0,0,0,0,0,0,0
1708759378.99979401,118228523,1581,1581,1581,1581,0,0,0,0,0,0,0,0,0,0
1708759379.09975410,118328483,1581,1582,1588,1573,0,0,0,0,0,0,0,0,0,0
1708759379.19971395,118428443,1581,1581,1585,1573,0,0,0,0,0,0,0,0,0,0
1708759379.29967403,118528403,1579,1578,1578,1575,0,0,0,0,0,0,0,0,0,0
1708759379.39963388,118628363,1576,1576,1572,1576,0,0,0,0,0,0,0,0,0,0
1708759379.49959397,118728323,1572,1571,1566,1574,0,0,0,0,0,0,0,0,0,0
1708759379.59955406,118828283,1569,1569,1565,1571,0,0,0,0,0,0,0,0,0,0
1708759379.69951391,118928243,1568,1568,1565,1569,0,0,0,0,0,0,0,0,0,0
1708759379.79947400,119028203,1566,1567,1566,1566,0,0,0,0,0,0,0,0,0,0
1708759379.89943409,119128163,1565,1566,1566,1565,0,0,0,0,0,0,0,0,0,0
1708759380.00022697,119228956,1565,1566,1567,1565,0,0,0,0,0,0,0,0,0,0
1708759380.10018706,119328916,1565,1565,1567,1565,0,0,0,0,0,0,0,0,0,0
1708759380.20014691,119428876,1563,1563,1565,1563,0,0,0,0,0,0,0,0,0,0
1708759380.30010700,119528836,1563,1563,1564,1564,0,0,0,0,0,0,0,0,0,0
1708759380.40006709,119628796,1563,1562,1564,1564,0,0,0,0,0,0,0,0,0,0
1708759380.50002694,119728756,1562,1562,1563,1563,0,0,0,0,0,0,0,0,0,0
1708759380.59998703,119828716,1562,1562,1562,1562,0,0,0,0,0,0,0,0,0,0
1708759380.69994688,119928676,1562,1561,1561,1562,0,0,0,0,0,0,0,0,0,0
1708759380.79990697,120028636,1561,1561,1561,1561,0,0,0,0,0,0,0,0,0,0
1708759380.89986706,120128596,1561,1561,1561,1560,0,0,0,0,0,0,0,0,0,0
1708759380.99982691,120228556,1559,1559,1559,1558,0,0,0,0,0,0,0,0,0,0
1708759381.09978700,120328516,1558,1558,1558,1557,0,0,0,0,0,0,0,0,0,0
1708759381.19974709,120428476,1557,1557,1557,1556,0,0,0,0,0,0,0,0,0,0
1708759381.29970694,120528436,1558,1557,1557,1557,0,0,0,0,0,0,0,0,0,0
1708759381.39966702,120628396,1557,1557,1557,1556,0,0,0,0,0,0,0,0,0,0
1708759381.49962687,120728356,1557,1557,1557,1556,0,0,0,0,0,0,0,0,0,0
1708759381.59958696,120828316,1558,1558,1559,1557,0,0,0,0,0,0,0,0,0,0
1708759381.69954705,120928276,1558,1558,1560,1557,0,0,0,0,0,0,0,0,0,0
1708759381.79950690,121028236,1559,1558,1560,1557,0,0,0,0,0,0,0,0,0,0
1708759381.89946699,121128196,1559,1558,1559,1560,0,0,0,0,0,0,0,0,0,0
1708759381.99942708,121228156,1560,1560,1558,1562,0,0,0,0,0,0,0,0,0,0
1708759382.10021996,121328949,1560,1560,1557,1564,0,0,0,0,0,0,0,0,0,0
1708759382.20018005,121428909,1562,1561,1559,1565,0,0,0,0,0,0,0,0,0,0
1708759382.30013990,121528869,1562,1562,1560,1565,0,0,0,0,0,0,0,0,0,0
1708759382.40009999,121628829,1563,1563,1562,1563,0,0,0,0,0,0,0,0,0,0
1708759382.50006008,121728789,1563,1563,1564,1561,0,0,0,0,0,0,0,0,0,0
1708759382.60001993,121828749,1562,1562,1564,1559,0,0,0,0,0,0,0,0,0,0
1708759382.69998002,121928709,1561,1561,1559,1561,0,0,0,0,0,0,0,0,0,0
1708759382.79994011,122028669,1557,1557,1555,1559,0,0,0,0,0,0,0,0,0,0
1708759382.89989996,122128629,1554,1554,1551,1555,0,0,0,0,0,0,0,0,0,0
1708759382.99986005,122228589,1548,1548,1546,1547,0,0,0,0,0,0,0,0,0,0
1708759383.09981990,122328549,1541,1541,1540,1540,0,0,0,0,0,0,0,0,0,0
1708759383.19977999,122428509,1534,1534,1533,1533,0,0,0,0,0,0,0,0,0,0
1708759383.29974008,122528469,1527,1527,1526,1525,0,0,0,0,0,0,0,0,0,0
1708759383.39969993,122628429,1522,1522,1521,1521,0,0,0,0,0,0,0,0,0,0
1708759383.49966002,122728389,1520,1520,1520,1520,0,0,0,0,0,0,0,0,0,0
1708759383.59962010,122828349,1519,1520,1520,1520,0,0,0,0,0,0,0,0,0,0
1708759383.69957995,122928309,1520,1521,1522,1522,0,0,0,0,0,0,0,0,0,0
1708759383.79954004,123028269,1523,1523,1525,1525,0,0,0,0,0,0,0,0,0,0
1708759383.89949989,123128229,1527,1527,1529,1529,0,0,0,0,0,0,0,0,0,0
1708759383.99945998,123228189,1532,1533,1534,1535,0,0,0,0,0,0,0,0,0,0
1708759384.10025311,123328982,1537,1537,1539,1539,0,0,0,0,0,0,0,0,0,0
1708759384.20021296,123428942,1540,1539,1541,1541,0,0,0,0,0,0,0,0,0,0
1708759384.30017304,123528902,1542,1541,1543,1543,0,0,0,0,0,0,0,0,0,0
1708759384.40013289,123628862,1544,1544,1544,1544,0,0,0,0,0,0,0,0,0,0
1708759384.50009298,123728822,1545,1545,1545,1544,0,0,0,0,0,0,0,0,0,0
1708759384.60005307,123828782,1546,1547,1546,1546,0,0,0,0,0,0,0,0,0,0
1708759384.70001292,123928742,1546,1546,1546,1545,0,0,0,0,0,0,0,0,0,0
1708759384.79997301,124028702,1547,1547,1546,1546,0,0,0,0,0,0,0,0,0,0
1708759384.89993310,124128662,1546,1546,1545,1545,0,0,0,0,0,0,0,0,0,0
1708759384.99989295,124228622,1546,1546,1545,1545,0,0,0,0,0,0,0,0,0,0
1708759385.09985304,124328582,1546,1546,1546,1545,0,0,0,0,0,0,0,0,0,0
1708759385.19981289,124428542,1546,1546,1545,1545,0,0,0,0,0,0,0,0,0,0
1708759385.29977298,124528502,1545,1545,1544,1544,0,0,0,0,0,0,0,0,0,0
1708759385.39973307,124628462,1545,1546,1545,1545,0,0,0,0,0,0,0,0,0,0
1708759385.49969292,124728422,1545,1544,1544,1545,0,0,0,0,0,0,0,0,0,0
1708759385.59965301,124828382,1544,1544,1545,1544,0,0,0,0,0,0,0,0,0,0
1708759385.69961309,124928342,1543,1543,1544,1544,0,0,0,0,0,0,0,0,0,0
1708759385.79957294,125028302,1544,1544,1545,1545,0,0,0,0,0,0,0,0,0,0
1708759385.89953303,125128262,1544,1543,1544,1544,0,0,0,0,0,0,0,0,0,0
1708759385.99949288,125228222,1544,1545,1545,1545,0,0,0,0,0,0,0,0,0,0
1708759386.09945297,125328182,1544,1544,1544,1545,0,0,0,0,0,0,0,0,0,0
1708759386.20024610,125428975,1543,1544,1544,1544,0,0,0,0,0,0,0,0,0,0
1708759386.30020595,125528935,1544,1544,1545,1544,0,0,0,0,0,0,0,0,0,0
1708759386.40016603,125628895,1544,1544,1545,1544,0,0,0,0,0,0,0,0,0,0
1708759386.50012589,125728855,1544,1544,1544,1544,0,0,0,0,0,0,0,0,0,0
1708759386.60008597,125828815,1544,1544,1544,1544,0,0,0,0,0,0,0,0,0,0
1708759386.70004606,125928775,1544,1544,1544,1544,0,0,0,0,0,0,0,0,0,0
1708759386.80000591,126028735,1544,1544,1544,1544,0,0,0,0,0,0,0,0,0,0
1708759386.89996600,126128695,1545,1544,1544,1544,0,0,0,0,0,0,0,0,0,0
1708759386.99992609,126228655,1544,1544,1544,1544,0,0,0,0,0,0,0,0,0,0
1708759387.09988594,126328615,1545,1545,1545,1544,0,0,0,0,0,0,0,0,0,0
1708759387.19984603,126428575,1544,1544,1544,1544,0,0,0,0,0,0,0,0,0,0
1708759387.29980588,126528535,1545,1545,1544,1545,0,0,0,0,0,0,0,0,0,0
1708759387.39976597,126628495,1545,1545,1545,1545,0,0,0,0,0,0,0,0,0,0
1708759387.49972606,126728455,1544,1545,1545,1544,0,0,0,0,0,0,0,0,0,0
1708759387.59968591,126828415,1544,1544,1545,1544,0,0,0,0,0,0,0,0,0,0
1708759387.69964600,126928375,1544,1544,1544,1544,0,0,0,0,0,0,0,0,0,0
1708759387.79960608,127028335,1544,1544,1544,1544,0,0,0,0,0,0,0,0,0,0
1708759387.89956594,127128295,1545,1544,1544,1544,0,0,0,0,0,0,0,0,0,0
1708759387.99952602,127228255,1544,1544,1544,1543,0,0,0,0,0,0,0,0,0,0
1708759388.09948587,127328215,1544,1544,1544,1544,0,0,0,0,0,0,0,0,0,0
1708759388.19944596,127428175,1544,1544,1544,1544,0,0,0,0,0,0,0,0,0,0
1708759388.30023909,127528968,1544,1543,1543,1544,0,0,0,0,0,0,0,0,0,0
1708759388.40019894,127628928,1544,1544,1544,1544,0,0,0,0,0,0,0,0,0,0
1708759388.50015903,127728888,1544,1544,1544,1544,0,0,0,0,0,0,0,0,0,0
1708759388.60011888,127828848,1544,1544,1544,1544,0,0,0,0,0,0,0,0,0,0
1708759388.70007896,127928808,1544,1544,1544,1544,0,0,0,0,0,0,0,0,0,0
1708759388.80003905,128028768,1544,1544,1544,1544,0,0,0,0,0,0,0,0,0,0
1708759388.89999890,128128728,1544,1544,1544,1544,0,0,0,0,0,0,0,0,0,0
1708759388.99995899,128228688,1543,1544,1543,1544,0,0,0,0,0,0,0,0,0,0
1708759389.09991908,128328648,1544,1544,1544,1544,0,0,0,0,0,0,0,0,0,0
1708759389.19987893,128428608,1544,1544,1544,1544,0,0,0,0,0,0,0,0,0,0
1708759389.29983902,128528568,1544,1544,1544,1544,0,0,0,0,0,0,0,0,0,0
1708759389.39979911,128628528,1543,1544,1544,1543,0,0,0,0,0,0,0,0,0,0
1708759389.49975896,128728488,1544,1544,1543,1544,0,0,0,0,0,0,0,0,0,0
1708759389.59971905,128828448,1544,1544,1544,1544,0,0,0,0,0,0,0,0,0,0
1708759389.69967890,128928408,1544,1544,1544,1544,0,0,0,0,0,0,0,0,0,0
1708759389.79963899,129028368,1544,1544,1545,1544,0,0,0,0,0,0,0,0,0,0
1708759389.89959908,129128328,1545,1544,1545,1545,0,0,0,0,0,0,0,0,0,0
1708759389.99955893,129228288,1543,1544,1544,1543,0,0,0,0,0,0,0,0,0,0
1708759390.09951901,129328248,1544,1544,1544,1544,0,0,0,0,0,0,0,0,0,0
1708759390.19947910,129428208,1544,1544,1544,1544,0,0,0,0,0,0,0,0,0,0
1708759390.29943895,129528168,1545,1544,1544,1544,0,0,0,0,0,0,0,0,0,0
1708759390.40023208,129628961,1544,1544,1544,1544,0,0,0,0,0,0,0,0,0,0
1708759390.50019193,129728921,1544,1544,1544,1545,0,0,0,0,0,0,0,0,0,0
1708759390.60015202,129828881,1544,1544,1544,1544,0,0,0,0,0,0,0,0,0,0
1708759390.70011210,129928841,1544,1544,1544,1544,0,0,0,0,0,0,0,0,0,0
1708759390.80007195,130028801,1544,1544,1545,1544,0,0,0,0,0,0,0,0,0,0
1708759390.90003204,130128761,1544,1544,1544,1544,0,0,0,0,0,0,0,0,0,0
1708759390.99999189,130228721,1544,1544,1544,1544,0,0,0,0,0,0,0,0,0,0
1708759391.09995198,130328681,1544,1543,1543,1544,0,0,0,0,0,0,0,0,0,0
1708759391.19991207,130428641,1543,1543,1543,1543,0,0,0,0,0,0,0,0,0,0
1708759391.29987192,130528601,1543,1543,1542,1543,0,0,0,0,0,0,0,0,0,0
1708759391.39983201,130628561,1544,1544,1544,1544,0,0,0,0,0,0,0,0,0,0
1708759391.49979210,130728521,1544,1544,1544,1544,0,0,0,0,0,0,0,0,0,0
1708759391.59975195,130828481,1544,1544,1545,1544,0,0,0,0,0,0,0,0,0,0
1708759391.69971204,130928441,1545,1545,1545,1545,0,0,0,0,0,0,0,0,0,0
1708759391.79967189,131028401,1544,1544,1545,1544,0,0,0,0,0,0,0,0,0,0
1708759391.89963198,131128361,1543,1543,1543,1543,0,0,0,0,0,0,0,0,0,0
1708759391.99959207,131228321,1543,1544,1544,1544,0,0,0,0,0,0,0,0,0,0
1708759392.09955192,131328281,1543,1543,1543,1543,0,0,0,0,0,0,0,0,0,0
1708759392.19951200,131428241,1544,1544,1544,1544,0,0,0,0,0,0,0,0,0,0
1708759392.29947209,131528201,1544,1544,1544,1544,0,0,0,0,0,0,0,0,0,0
1708759392.39943194,131628161,1545,1545,1545,1544,0,0,0,0,0,0,0,0,0,0
1708759392.50022507,131728954,1545,1544,1545,1545,0,0,0,0,0,0,0,0,0,0
1708759392.60018492,131828914,1545,1544,1545,1545,0,0,0,0,0,0,0,0,0,0
1708759392.70014501,131928874,1545,1544,1544,1545,0,0,0,0,0,0,0,0,0,0
1708759392.80010509,132028834,1545,1545,1545,1545,0,0,0,0,0,0,0,0,0,0
1708759392.90006495,132128794,1545,1545,1545,1544,0,0,0,0,0,0,0,0,0,0
1708759393.00002503,132228754,1544,1545,1544,1544,0,0,0,0,0,0,0,0,0,0
1708759393.09998488,132328714,1545,1545,1545,1546,0,0,0,0,0,0,0,0,0,0
1708759393.19994497,132428674,1441,1422,1423,1421,0,0,0,0,0,0,0,0,0,0
1708759393.29990506,132528634,1327,1276,1277,1276,0,0,0,0,0,0,0,0,0,0
1708759393.39986491,132628594,1285,1220,1221,1219,0,0,0,0,0,0,0,0,0,0
1708759393.49982500,132728554,1272,1199,1200,1200,0,0,0,0,0,0,0,0,0,0
1708759393.59978509,132828514,1248,1165,1167,1165,0,0,0,0,0,0,0,0,0,0
1708759393.69974494,132928474,1239,1150,1152,1150,0,0,0,0,0,0,0,0,0,0
1708759393.79970503,133028434,1239,1151,1153,1150,0,0,0,0,0,0,0,0,0,0
1708759393.89966488,133128394,1239,1150,1152,1150,0,0,0,0,0,0,0,0,0,0
1708759393.99962497,133228354,1269,1150,1151,1196,0,0,0,0,0,0,0,0,0,0
1708759394.09958506,133328314,1259,1150,1152,1182,0,0,0,0,0,0,0,0,0,0
1708759394.19954491,133428274,1256,1150,1152,1176,0,0,0,0,0,0,0,0,0,0
1708759394.29950500,133528234,1257,1150,1152,1178,0,0,0,0,0,0,0,0,0,0
1708759394.39946508,133628194,1258,1150,1153,1180,0,0,0,0,0,0,0,0,0,0
1708759394.49942493,133728154,1260,1150,1153,1183,0,0,0,0,0,0,0,0,0,0
1708759394.60021806,133828947,1262,1150,1153,1185,0,0,0,0,0,0,0,0,0,0
1708759394.70017791,133928907,1263,1150,1153,1188,0,0,0,0,0,0,0,0,0,0
1708759394.80013800,134028867,1250,1150,1152,1169,0,0,0,0,0,0,0,0,0,0
1708759394.90009809,134128827,1252,1150,1152,1171,0,0,0,0,0,0,0,0,0,0
1708759395.00005794,134228787,1253,1150,1153,1173,0,0,0,0,0,0,0,0,0,0
1708759395.10001802,134328747,1253,1150,1153,1174,0,0,0,0,0,0,0,0,0,0
1708759395.19997787,134428707,1237,1150,1153,1172,0,0,0,0,0,0,0,0,0,0
1708759395.29993796,134528667,1000,1000,1000,1000,0,0,0,0,0,0,0,0,0,0
1708759395.39989805,134628627,1000,1000,1000,1000,0,0,0,0,0,0,0,0,0,0
1708759395.49985790,134728587,1000,1000,1000,1000,0,0,0,0,0,0,0,0,0,0
1708759395.59981799,134828547,1000,1000,1000,1000,0,0,0,0,0,0,0,0,0,0
1708759395.69977808,134928507,1000,1000,1000,1000,0,0,0,0,0,0,0,0,0,0
1708759395.79973793,135028467,1000,1000,1000,1000,0,0,0,0,0,0,0,0,0,0
1708759395.89969802,135128427,1000,1000,1000,1000,0,0,0,0,0,0,0,0,0,0
1708759395.99965811,135228387,1000,1000,1000,1000,0,0,0,0,0,0,0,0,0,0
1708759396.09961796,135328347,1000,1000,1000,1000,0,0,0,0,0,0,0,0,0,0
1708759396.19957805,135428307,1000,1000,1000,1000,0,0,0,0,0,0,0,0,0,0
1708759396.29953790,135528267,1000,1000,1000,1000,0,0,0,0,0,0,0,0,0,0
1708759396.39949799,135628227,1000,1000,1000,1000,0,0,0,0,0,0,0,0,0,0
1708759396.49945807,135728187,1000,1000,1000,1000,0,0,0,0,0,0,0,0,0,0
1708759396.60025096,135828980,1000,1000,1000,1000,0,0,0,0,0,0,0,0,0,0
1708759396.70021105,135928940,1000,1000,1000,1000,0,0,0,0,0,0,0,0,0,0
1708759396.80017090,136028900,1000,1000,1000,1000,0,0,0,0,0,0,0,0,0,0
1708759396.90013099,136128860,1000,1000,1000,1000,0,0,0,0,0,0,0,0,0,0
1708759397.00009108,136228820,1000,1000,1000,1000,0,0,0,0,0,0,0,0,0,0
1708759397.10005093,136328780,1000,1000,1000,1000,0,0,0,0,0,0,0,0,0,0
1708759397.20001101,136428740,1000,1000,1000,1000,0,0,0,0,0,0,0,0,0,0
1708759397.29997110,136528700,1000,1000,1000,1000,0,0,0,0,0,0,0,0,0,0
1708759397.39993095,136628660,1000,1000,1000,1000,0,0,0,0,0,0,0,0,0,0
1708759397.49989104,136728620,1000,1000,1000,1000,0,0,0,0,0,0,0,0,0,0
1708759397.59985089,136828580,1000,1000,1000,1000,0,0,0,0,0,0,0,0,0,0
1708759397.69981098,136928540,1000,1000,1000,1000,0,0,0,0,0,0,0,0,0,0
1708759397.79977107,137028500,1000,1000,1000,1000,0,0,0,0,0,0,0,0,0,0
1708759397.89973092,137128460,1000,1000,1000,1000,0,0,0,0,0,0,0,0,0,0
1708759397.99969101,137228420,1000,1000,1000,1000,0,0,0,0,0,0,0,0,0,0
1708759398.09965110,137328380,1000,1000,1000,1000,0,0,0,0,0,0,0,0,0,0
1708759398.19961095,137428340,1000,1000,1000,1000,0,0,0,0,0,0,0,0,0,0
1708759398.29957104,137528300,1000,1000,1000,1000,0,0,0,0,0,0,0,0,0,0
1708759398.39953089,137628260,1000,1000,1000,1000,0,0,0,0,0,0,0,0,0,0
1708759398.49949098,137728220,1000,1000,1000,1000,0,0,0,0,0,0,0,0,0,0
1708759398.59945107,137828180,1000,1000,1000,1000,0,0,0,0,0,0,0,0,0,0
1708759398.70024395,137928973,1000,1000,1000,1000,0,0,0,0,0,0,0,0,0,0
1708759398.80020404,138028933,1000,1000,1000,1000,0,0,0,0,0,0,0,0,0,0
1708759398.90016389,138128893,1000,1000,1000,1000,0,0,0,0,0,0,0,0,0,0
1708759399.00012398,138228853,1000,1000,1000,1000,0,0,0,0,0,0,0,0,0,0
1708759399.10008407,138328813,1000,1000,1000,1000,0,0,0,0,0,0,0,0,0,0
1708759399.20004392,138428773,1000,1000,1000,1000,0,0,0,0,0,0,0,0,0,0
1708759399.30000401,138528733,1000,1000,1000,1000,0,0,0,0,0,0,0,0,0,0
1708759399.39996409,138628693,1000,1000,1000,1000,0,0,0,0,0,0,0,0,0,0
1708759399.49992394,138728653,1000,1000,1000,1000,0,0,0,0,0,0,0,0,0,0
1708759399.59988403,138828613,1000,1000,1000,1000,0,0,0,0,0,0,0,0,0,0
1708759399.69984388,138928573,1000,1000,1000,1000,0,0,0,0,0,0,0,0,0,0
1708759399.79980397,139028533,1000,1000,1000,1000,0,0,0,0,0,0,0,0,0,0
1708759399.89976406,139128493,1000,1000,1000,1000,0,0,0,0,0,0,0,0,0,0
1708759399.99972391,139228453,1000,1000,1000,1000,0,0,0,0,0,0,0,0,0,0
1708759400.09968400,139328413,1000,1000,1000,1000,0,0,0,0,0,0,0,0,0,0
1708759400.19964409,139428373,1000,1000,1000,1000,0,0,0,0,0,0,0,0,0,0
1708759400.29960394,139528333,1000,1000,1000,1000,0,0,0,0,0,0,0,0,0,0
1708759400.39956403,139628293,1000,1000,1000,1000,0,0,0,0,0,0,0,0,0,0
1708759400.49952388,139728253,1000,1000,1000,1000,0,0,0,0,0,0,0,0,0,0
1708759400.59948397,139828213,1000,1000,1000,1000,0,0,0,0,0,0,0,0,0,0
1708759400.69944406,139928173,1000,1000,1000,1000,0,0,0,0,0,0,0,0,0,0
1708759400.80023694,140028966,1000,1000,1000,1000,0,0,0,0,0,0,0,0,0,0
1708759400.90019703,140128926,1000,1000,1000,1000,0,0,0,0,0,0,0,0,0,0
1708759401.00015688,140228886,1000,1000,1000,1000,0,0,0,0,0,0,0,0,0,0
1708759401.10011697,140328846,1000,1000,1000,1000,0,0,0,0,0,0,0,0,0,0
1708759401.20007706,140428806,1000,1000,1000,1000,0,0,0,0,0,0,0,0,0,0
1708759401.30003691,140528766,1000,1000,1000,1000,0,0,0,0,0,0,0,0,0,0
1708759401.39999700,140628726,1000,1000,1000,1000,0,0,0,0,0,0,0,0,0,0
1708759401.49995708,140728686,1000,1000,1000,1000,0,0,0,0,0,0,0,0,0,0
1708759401.59991693,140828646,1000,1000,1000,1000,0,0,0,0,0,0,0,0,0,0
1708759401.69987702,140928606,1000,1000,1000,1000,0,0,0,0,0,0,0,0,0,0
1708759401.79983687,141028566,1000,1000,1000,1000,0,0,0,0,0,0,0,0,0,0
1708759401.89979696,141128526,1000,1000,1000,1000,0,0,0,0,0,0,0,0,0,0
1708759401.99975705,141228486,1000,1000,1000,1000,0,0,0,0,0,0,0,0,0,0
1708759402.09971690,141328446,1000,1000,1000,1000,0,0,0,0,0,0,0,0,0,0
1708759402.19967699,141428406,1000,1000,1000,1000,0,0,0,0,0,0,0,0,0,0
1708759402.29963708,141528366,1000,1000,1000,1000,0,0,0,0,0,0,0,0,0,0
1708759402.39959693,141628326,1000,1000,1000,1000,0,0,0,0,0,0,0,0,0,0
1708759402.49955702,141728286,1000,1000,1000,1000,0,0,0,0,0,0,0,0,0,0
1708759402.59951711,141828246,1000,1000,1000,1000,0,0,0,0,0,0,0,0,0,0
1708759402.69947696,141928206,1000,1000,1000,1000,0,0,0,0,0,0,0,0,0,0
1708759402.79943705,142028166,1000,1000,1000,1000,0,0,0,0,0,0,0,0,0,0
1708759402.90022993,142128959,1000,1000,1000,1000,0,0,0,0,0,0,0,0,0,0
1708759403.00019002,142228919,1000,1000,1000,1000,0,0,0,0,0,0,0,0,0,0
1708759403.10015011,142328879,1000,1000,1000,1000,0,0,0,0,0,0,0,0,0,0
1708759403.20010996,142428839,1000,1000,1000,1000,0,0,0,0,0,0,0,0,0,0
1708759403.30007005,142528799,1000,1000,1000,1000,0,0,0,0,0,0,0,0,0,0
1708759403.40002990,142628759,1000,1000,1000,1000,0,0,0,0,0,0,0,0,0,0
1708759403.49998999,142728719,1000,1000,1000,1000,0,0,0,0,0,0,0,0,0,0
1708759403.59995008,142828679,1000,1000,1000,1000,0,0,0,0,0,0,0,0,0,0
1708759403.69990993,142928639,1000,1000,1000,1000,0,0,0,0,0,0,0,0,0,0
1708759403.79987001,143028599,1000,1000,1000,1000,0,0,0,0,0,0,0,0,0,0
1708759403.89983010,143128559,1000,1000,1000,1000,0,0,0,0,0,0,0,0,0,0
1708759403.99978995,143228519,1000,1000,1000,1000,0,0,0,0,0,0,0,0,0,0
1708759404.09975004,143328479,1000,1000,1000,1000,0,0,0,0,0,0,0,0,0,0
1708759404.19970989,143428439,1000,1000,1000,1000,0,0,0,0,0,0,0,0,0,0
1708759404.29966998,143528399,1000,1000,1000,1000,0,0,0,0,0,0,0,0,0,0
1708759404.39963007,143628359,1000,1000,1000,1000,0,0,0,0,0,0,0,0,0,0
1708759404.49958992,143728319,1000,1000,1000,1000,0,0,0,0,0,0,0,0,0,0
1708759404.59955001,143828279,1000,1000,1000,1000,0,0,0,0,0,0,0,0,0,0
1708759404.69951010,143928239,1000,1000,1000,1000,0,0,0,0,0,0,0,0,0,0
1708759404.79946995,144028199,1000,1000,1000,1000,0,0,0,0,0,0,0,0,0,0
1708759404.89943004,144128159,1000,1000,1000,1000,0,0,0,0,0,0,0,0,0,0
1708759405.00022292,144228952,1000,1000,1000,1000,0,0,0,0,0,0,0,0,0,0
1708759405.10018301,144328912,1000,1000,1000,1000,0,0,0,0,0,0,0,0,0,0
1708759405.20014310,144428872,1000,1000,1000,1000,0,0,0,0,0,0,0,0,0,0
1708759405.30010295,144528832,1000,1000,1000,1000,0,0,0,0,0,0,0,0,0,0
1708759405.40006304,144628792,1000,1000,1000,1000,0,0,0,0,0,0,0,0,0,0
1708759405.50002289,144728752,1000,1000,1000,1000,0,0,0,0,0,0,0,0,0,0
1708759405.59998298,144828712,1000,1000,1000,1000,0,0,0,0,0,0,0,0,0,0
1708759405.69994307,144928672,1000,1000,1000,1000,0,0,0,0,0,0,0,0,0,0
1708759405.79990292,145028632,1000,1000,1000,1000,0,0,0,0,0,0,0,0,0,0
1708759405.89986300,145128592,1000,1000,1000,1000,0,0,0,0,0,0,0,0,0,0
1708759405.99982309,145228552,1000,1000,1000,1000,0,0,0,0,0,0,0,0,0,0
1708759406.09978294,145328512,1000,1000,1000,1000,0,0,0,0,0,0,0,0,0,0
1708759406.19974303,145428472,1000,1000,1000,1000,0,0,0,0,0,0,0,0,0,0
1708759406.29970288,145528432,1000,1000,1000,1000,0,0,0,0,0,0,0,0,0,0
1708759406.39966297,145628392,1000,1000,1000,1000,0,0,0,0,0,0,0,0,0,0
1708759406.49962306,145728352,1000,1000,1000,1000,0,0,0,0,0,0,0,0,0,0
1708759406.59958291,145828312,1000,1000,1000,1000,0,0,0,0,0,0,0,0,0,0
1708759406.69954300,145928272,1000,1000,1000,1000,0,0,0,0,0,0,0,0,0,0
1708759406.79950309,146028232,1000,1000,1000,1000,0,0,0,0,0,0,0,0,0,0
1708759406.89946294,146128192,1000,1000,1000,1000,0,0,0,0,0,0,0,0,0,0
1708759407.00025606,146228985,1000,1000,1000,1000,0,0,0,0,0,0,0,0,0,0
1708759407.10021591,146328945,1000,1000,1000,1000,0,0,0,0,0,0,0,0,0,0
1708759407.20017600,146428905,1000,1000,1000,1000,0,0,0,0,0,0,0,0,0,0
1708759407.30013609,146528865,1000,1000,1000,1000,0,0,0,0,0,0,0,0,0,0
1708759407.40009594,146628825,1000,1000,1000,1000,0,0,0,0,0,0,0,0,0,0
1708759407.50005603,146728785,1000,1000,1000,1000,0,0,0,0,0,0,0,0,0,0
1708759407.60001588,146828745,1000,1000,1000,1000,0,0,0,0,0,0,0,0,0,0
1708759407.69997597,146928705,1000,1000,1000,1000,0,0,0,0,0,0,0,0,0,0
1708759407.79993606,147028665,1000,1000,1000,1000,0,0,0,0,0,0,0,0,0,0
1708759407.89989591,147128625,1000,1000,1000,1000,0,0,0,0,0,0,0,0,0,0
1708759407.99985600,147228585,1000,1000,1000,1000,0,0,0,0,0,0,0,0,0,0
1708759408.09981608,147328545,1000,1000,1000,1000,0,0,0,0,0,0,0,0,0,0
1708759408.19977593,147428505,1000,1000,1000,1000,0,0,0,0,0,0,0,0,0,0
1708759408.29973602,147528465,1000,1000,1000,1000,0,0,0,0,0,0,0,0,0,0
1708759408.39969587,147628425,1000,1000,1000,1000,0,0,0,0,0,0,0,0,0,0
1708759408.49965596,147728385,1000,1000,1000,1000,0,0,0,0,0,0,0,0,0,0
1708759408.59961605,147828345,1000,1000,1000,1000,0,0,0,0,0,0,0,0,0,0
1708759408.69957590,147928305,1000,1000,1000,1000,0,0,0,0,0,0,0,0,0,0
1708759408.79953599,148028265,1000,1000,1000,1000,0,0,0,0,0,0,0,0,0,0
1708759408.89949608,148128225,1000,1000,1000,1000,0,0,0,0,0,0,0,0,0,0
1708759408.99945593,148228185,1000,1000,1000,1000,0,0,0,0,0,0,0,0,0,0
1708759409.10024905,148328978,1000,1000,1000,1000,0,0,0,0,0,0,0,0,0,0
1708759409.20020890,148428938,1000,1000,1000,1000,0,0,0,0,0,0,0,0,0,0
1708759409.30016899,148528898,1000,1000,1000,1000,0,0,0,0,0,0,0,0,0,0
1708759409.40012908,148628858,1000,1000,1000,1000,0,0,0,0,0,0,0,0,0,0
1708759409.50008893,148728818,1000,1000,1000,1000,0,0,0,0,0,0,0,0,0,0
1708759409.60004902,148828778,1000,1000,1000,1000,0,0,0,0,0,0,0,0,0,0
1708759409.70000911,148928738,1000,1000,1000,1000,0,0,0,0,0,0,0,0,0,0
1708759409.79996896,149028698,1000,1000,1000,1000,0,0,0,0,0,0,0,0,0,0
1708759409.89992905,149128658,1000,1000,1000,1000,0,0,0,0,0,0,0,0,0,0
1708759409.99988890,149228618,1000,1000,1000,1000,0,0,0,0,0,0,0,0,0,0
1708759410.09984899,149328578,1000,1000,1000,1000,0,0,0,0,0,0,0,0,0,0
1708759410.19980907,149428538,1000,1000,1000,1000,0,0,0,0,0,0,0,0,0,0
