TimeUS,M1,M2,M3,M4,TimeUS,C1,C2,C3,C4
50716372,1000,1000,1000,1000,50728867,1000,1000,1000,1000
50718871,1000,1000,1000,1000,50828827,1000,1000,1000,1000
50721370,1000,1000,1000,1000,50928787,1000,1000,1000,1000
50723869,1000,1000,1000,1000,51028747,1000,1000,1000,1000
50726368,1000,1000,1000,1000,51128707,1000,1000,1000,1000
50728867,1000,1000,1000,1000,51228667,1000,1000,1000,1000
50731366,1000,1000,1000,1000,51328627,1000,1000,1000,1000
50733865,1000,1000,1000,1000,51428587,1000,1000,1000,1000
50736364,1000,1000,1000,1000,51528547,1000,1000,1000,1000
50738863,1000,1000,1000,1000,51628507,1000,1000,1000,1000
50741362,1000,1000,1000,1000,51728467,1000,1000,1000,1000
50743861,1000,1000,1000,1000,51828427,1000,1000,1000,1000
50746360,1000,1000,1000,1000,51928387,1000,1000,1000,1000
50748859,1000,1000,1000,1000,52028347,1000,1000,1000,1000
50751358,1000,1000,1000,1000,52128307,1000,1000,1000,1000
50753857,1000,1000,1000,1000,52228267,1000,1000,1000,1000
50756356,1000,1000,1000,1000,52328227,1000,1000,1000,1000
50758855,1000,1000,1000,1000,52428187,1000,1000,1000,1000
50761354,1000,1000,1000,1000,52528980,1000,1000,1000,1000
50763853,1000,1000,1000,1000,52628940,1000,1000,1000,1000
50766352,1000,1000,1000,1000,52728900,1003,1003,1003,1003
50768851,1000,1000,1000,1000,52828860,1033,1033,1033,1033
50771350,1000,1000,1000,1000,52928820,1063,1063,1063,1063
50773849,1000,1000,1000,1000,53028780,1093,1093,1093,1093
50776348,1000,1000,1000,1000,53128740,1123,1123,1123,1123
50778847,1000,1000,1000,1000,53228700,1185,1177,1178,1185
50781346,1000,1000,1000,1000,53328660,1425,1419,1419,1425
50783845,1000,1000,1000,1000,53428620,1599,1594,1595,1599
50786344,1000,1000,1000,1000,53528580,1743,1739,1739,1744
50788843,1000,1000,1000,1000,53628540,1869,1865,1865,1869
50791342,1000,1000,1000,1000,53728500,1904,1900,1901,1904
50793841,1000,1000,1000,1000,53828460,1800,1799,1800,1800
50796340,1000,1000,1000,1000,53928420,1684,1685,1685,1684
50798839,1000,1000,1000,1000,54028380,1634,1636,1636,1634
50801338,1000,1000,1000,1000,54128340,1632,1634,1634,1632
50803837,1000,1000,1000,1000,54228300,1639,1641,1640,1640
50806336,1000,1000,1000,1000,54328260,1640,1639,1639,1639
50808835,1000,1000,1000,1000,54428220,1633,1633,1633,1633
50811334,1000,1000,1000,1000,54528180,1624,1623,1623,1624
50813833,1000,1000,1000,1000,54628973,1617,1616,1617,1617
50816332,1000,1000,1000,1000,54728933,1608,1611,1610,1608
50818831,1000,1000,1000,1000,54828893,1578,1579,1579,1578
50821330,1000,1000,1000,1000,54928853,1566,1566,1566,1566
50823829,1000,1000,1000,1000,55028813,1555,1556,1555,1556
50826328,1000,1000,1000,1000,55128773,1553,1553,1547,1559
50828827,1000,1000,1000,1000,55228733,1549,1549,1543,1555
50831326,1000,1000,1000,1000,55328693,1550,1549,1546,1553
50833825,1000,1000,1000,1000,55428653,1550,1549,1549,1550
50836324,1000,1000,1000,1000,55528613,1550,1550,1552,1548
50838823,1000,1000,1000,1000,55628573,1553,1553,1556,1549
50841322,1000,1000,1000,1000,55728533,1556,1556,1560,1552
50843821,1000,1000,1000,1000,55828493,1542,1543,1553,1532
50846320,1000,1000,1000,1000,55928453,1539,1539,1546,1532
50848819,1000,1000,1000,1000,56028413,1538,1538,1538,1539
50851318,1000,1000,1000,1000,56128373,1537,1537,1532,1543
50853817,1000,1000,1000,1000,56228333,1539,1539,1532,1546
50856316,1000,1000,1000,1000,56328293,1540,1539,1533,1546
50858815,1000,1000,1000,1000,56428253,1541,1541,1538,1544
50861314,1000,1000,1000,1000,56528213,1545,1545,1545,1545
50863813,1000,1000,1000,1000,56628173,1548,1549,1551,1546
50866312,1000,1000,1000,1000,56728966,1551,1552,1555,1548
50868811,1000,1000,1000,1000,56828926,1555,1556,1558,1552
50871310,1000,1000,1000,1000,56928886,1557,1557,1558,1556
50873809,1000,1000,1000,1000,57028846,1559,1556,1558,1560
50876308,1000,1000,1000,1000,57128806,1554,1553,1563,1567
50878807,1000,1000,1000,1000,57228766,1555,1556,1564,1568
50881306,1000,1000,1000,1000,57328726,1558,1558,1564,1567
50883805,1000,1000,1000,1000,57428686,1562,1563,1566,1566
50886304,1000,1000,1000,1000,57528646,1565,1565,1565,1565
50888803,1000,1000,1000,1000,57628606,1568,1568,1565,1564
50891302,1000,1000,1000,1000,57728566,1570,1570,1565,1565
50893801,1000,1000,1000,1000,57828526,1572,1571,1565,1565
50896300,1000,1000,1000,1000,57928486,1573,1573,1566,1566
50898799,1000,1000,1000,1000,58028446,1573,1573,1567,1567
50901298,1000,1000,1000,1000,58128406,1575,1574,1569,1569
50903797,1000,1000,1000,1000,58228366,1573,1573,1569,1569
50906296,1000,1000,1000,1000,58328326,1573,1573,1570,1571
50908795,1000,1000,1000,1000,58428286,1573,1574,1572,1572
50911294,1000,1000,1000,1000,58528246,1573,1573,1574,1573
50913793,1000,1000,1000,1000,58628206,1574,1575,1577,1575
50916292,1000,1000,1000,1000,58728166,1575,1575,1578,1576
50918791,1000,1000,1000,1000,58828959,1574,1575,1578,1577
50921290,1000,1000,1000,1000,58928919,1574,1574,1577,1576
50923789,1000,1000,1000,1000,59028879,1575,1576,1578,1578
50926288,1000,1000,1000,1000,59128839,1576,1576,1577,1578
50928787,1000,1000,1000,1000,59228799,1577,1577,1577,1578
50931286,1000,1000,1000,1000,59328759,1576,1576,1576,1577
50933785,1000,1000,1000,1000,59428719,1578,1577,1577,1577
50936284,1000,1000,1000,1000,59528679,1578,1578,1577,1577
50938783,1000,1000,1000,1000,59628639,1578,1578,1577,1576
50941282,1000,1000,1000,1000,59728599,1578,1578,1577,1577
50943781,1000,1000,1000,1000,59828559,1578,1578,1577,1578
50946280,1000,1000,1000,1000,59928519,1578,1577,1577,1577
50948779,1000,1000,1000,1000,60028479,1578,1578,1577,1577
50951278,1000,1000,1000,1000,60128439,1578,1578,1577,1577
50953777,1000,1000,1000,1000,60228399,1578,1578,1578,1578
50956276,1000,1000,1000,1000,60328359,1577,1578,1578,1578
50958775,1000,1000,1000,1000,60428319,1579,1579,1579,1579
50961274,1000,1000,1000,1000,60528279,1579,1579,1579,1580
50963773,1000,1000,1000,1000,60628239,1579,1579,1580,1579
50966272,1000,1000,1000,1000,60728199,1579,1579,1580,1580
50968771,1000,1000,1000,1000,60828159,1579,1579,1580,1580
50971270,1000,1000,1000,1000,60928952,1580,1579,1581,1580
50973769,1000,1000,1000,1000,61028912,1579,1579,1579,1579
50976268,1000,1000,1000,1000,61128872,1579,1579,1579,1580
50978767,1000,1000,1000,1000,61228832,1579,1580,1580,1579
50981266,1000,1000,1000,1000,61328792,1580,1580,1580,1580
50983765,1000,1000,1000,1000,61428752,1580,1580,1579,1579
50986264,1000,1000,1000,1000,61528712,1581,1580,1580,1580
50988763,1000,1000,1000,1000,61628672,1581,1580,1580,1580
50991262,1000,1000,1000,1000,61728632,1580,1579,1579,1580
50993761,1000,1000,1000,1000,61828592,1580,1580,1580,1580
50996260,1000,1000,1000,1000,61928552,1579,1580,1580,1580
50998759,1000,1000,1000,1000,62028512,1580,1580,1580,1580
51001258,1000,1000,1000,1000,62128472,1580,1580,1580,1579
51003757,1000,1000,1000,1000,62228432,1580,1579,1580,1579
51006256,1000,1000,1000,1000,62328392,1581,1581,1581,1580
51008755,1000,1000,1000,1000,62428352,1580,1580,1580,1580
51011254,1000,1000,1000,1000,62528312,1579,1580,1579,1580
51013753,1000,1000,1000,1000,62628272,1580,1579,1579,1580
51016252,1000,1000,1000,1000,62728232,1581,1580,1581,1581
51018751,1000,1000,1000,1000,62828192,1579,1579,1580,1580
51021250,1000,1000,1000,1000,62928985,1580,1580,1580,1581
51023749,1000,1000,1000,1000,63028945,1581,1582,1582,1581
51026248,1000,1000,1000,1000,63128905,1581,1581,1581,1581
51028747,1000,1000,1000,1000,63228865,1580,1580,1580,1580
51031246,1000,1000,1000,1000,63328825,1580,1581,1581,1580
51033745,1000,1000,1000,1000,63428785,1582,1582,1589,1574
51036244,1000,1000,1000,1000,63528745,1580,1582,1584,1572
51038743,1000,1000,1000,1000,63628705,1577,1580,1575,1572
51041242,1000,1000,1000,1000,63728665,1576,1580,1567,1571
51043741,1000,1000,1000,1000,63828625,1577,1579,1560,1568
51046240,1000,1000,1000,1000,63928585,1577,1577,1556,1562
51048739,1000,1000,1000,1000,64028545,1579,1577,1555,1558
51051238,1000,1000,1000,1000,64128505,1579,1576,1555,1555
51053737,1000,1000,1000,1000,64228465,1579,1577,1556,1554
51056236,1000,1000,1000,1000,64328425,1577,1577,1555,1553
51058735,1000,1000,1000,1000,64428385,1577,1578,1557,1554
51061234,1000,1000,1000,1000,64528345,1575,1577,1556,1554
51063733,1000,1000,1000,1000,64628305,1574,1576,1554,1554
51066232,1000,1000,1000,1000,64728265,1575,1576,1553,1554
51068731,1000,1000,1000,1000,64828225,1575,1577,1552,1553
51071230,1000,1000,1000,1000,64928185,1576,1577,1550,1550
51073729,1000,1000,1000,1000,65028978,1579,1579,1549,1548
51076228,1000,1000,1000,1000,65128938,1581,1581,1546,1546
51078727,1000,1000,1000,1000,65228898,1583,1584,1543,1542
51081226,1000,1000,1000,1000,65328858,1586,1587,1540,1539
51083725,1000,1000,1000,1000,65428818,1589,1590,1537,1537
51086224,1000,1000,1000,1000,65528778,1592,1592,1535,1535
51088723,1000,1000,1000,1000,65628738,1594,1594,1534,1535
51091222,1000,1000,1000,1000,65728698,1595,1595,1535,1536
51093721,1000,1000,1000,1000,65828658,1595,1594,1536,1538
51096220,1000,1000,1000,1000,65928618,1593,1592,1539,1541
51098719,1000,1000,1000,1000,66028578,1589,1587,1543,1546
51101218,1000,1000,1000,1000,66128538,1584,1581,1552,1555
51103717,1000,1000,1000,1000,66228498,1575,1571,1561,1564
51106216,1000,1000,1000,1000,66328458,1564,1561,1573,1575
51108715,1000,1000,1000,1000,66428418,1554,1550,1586,1587
51111214,1000,1000,1000,1000,66528378,1543,1541,1597,1598
51113713,1000,1000,1000,1000,66628338,1535,1534,1607,1606
51116212,1000,1000,1000,1000,66728298,1530,1530,1613,1612
51118711,1000,1000,1000,1000,66828258,1528,1530,1616,1614
51121210,1000,1000,1000,1000,66928218,1531,1533,1614,1614
51123709,1000,1000,1000,1000,67028178,1537,1539,1610,1610
51126208,1000,1000,1000,1000,67128971,1544,1546,1604,1604
51128707,1000,1000,1000,1000,67228931,1553,1554,1597,1597
51131206,1000,1000,1000,1000,67328891,1562,1562,1588,1588
51133705,1000,1000,1000,1000,67428851,1570,1569,1581,1580
51136204,1000,1000,1000,1000,67528811,1577,1576,1575,1574
51138703,1000,1000,1000,1000,67628771,1583,1582,1571,1570
51141202,1000,1000,1000,1000,67728731,1587,1585,1568,1568
51143701,1000,1000,1000,1000,67828691,1587,1586,1566,1566
51146200,1000,1000,1000,1000,67928651,1587,1585,1566,1566
51148699,1000,1000,1000,1000,68028611,1586,1585,1568,1568
51151198,1000,1000,1000,1000,68128571,1584,1583,1570,1571
51153697,1000,1000,1000,1000,68228531,1580,1580,1573,1573
51156196,1000,1000,1000,1000,68328491,1577,1577,1575,1575
51158695,1000,1000,1000,1000,68428451,1575,1575,1579,1579
51161194,1000,1000,1000,1000,68528411,1573,1574,1581,1581
51163693,1000,1000,1000,1000,68628371,1573,1573,1584,1583
51166192,1000,1000,1000,1000,68728331,1572,1572,1583,1584
51168691,1000,1000,1000,1000,68828291,1573,1573,1584,1584
51171190,1000,1000,1000,1000,68928251,1573,1573,1583,1583
51173689,1000,1000,1000,1000,69028211,1575,1575,1583,1583
51176188,1000,1000,1000,1000,69128171,1576,1576,1581,1582
51178687,1000,1000,1000,1000,69228964,1578,1578,1581,1581
51181186,1000,1000,1000,1000,69328924,1579,1579,1579,1579
51183685,1000,1000,1000,1000,69428884,1580,1580,1578,1578
51186184,1000,1000,1000,1000,69528844,1581,1581,1577,1577
51188683,1000,1000,1000,1000,69628804,1581,1581,1577,1577
51191182,1000,1000,1000,1000,69728764,1581,1581,1577,1577
51193681,1000,1000,1000,1000,69828724,1581,1581,1576,1577
51196180,1000,1000,1000,1000,69928684,1581,1581,1577,1577
51198679,1000,1000,1000,1000,70028644,1582,1581,1578,1579
51201178,1000,1000,1000,1000,70128604,1581,1580,1579,1578
51203677,1000,1000,1000,1000,70228564,1580,1579,1579,1579
51206176,1000,1000,1000,1000,70328524,1514,1559,1587,1588
51208675,1000,1000,1000,1000,70428484,1550,1550,1592,1594
51211174,1000,1000,1000,1000,70528444,1575,1551,1593,1594
51213673,1000,1000,1000,1000,70628404,1592,1561,1592,1592
51216172,1000,1000,1000,1000,70728364,1599,1576,1589,1589
51218671,1000,1000,1000,1000,70828324,1600,1588,1584,1584
51221170,1000,1000,1000,1000,70928284,1598,1598,1580,1581
51223669,1000,1000,1000,1000,71028244,1595,1603,1578,1577
51226168,1000,1000,1000,1000,71128204,1594,1605,1577,1576
51228667,1000,1000,1000,1000,71228164,1593,1602,1577,1575
51231166,1000,1000,1000,1000,71328957,1593,1599,1578,1576
51233665,1000,1000,1000,1000,71428917,1592,1596,1582,1571
51236164,1000,1000,1000,1000,71528877,1593,1595,1582,1568
51238663,1000,1000,1000,1000,71628837,1590,1590,1573,1567
51241162,1000,1000,1000,1000,71728797,1586,1586,1565,1568
51243661,1000,1000,1000,1000,71828757,1581,1581,1560,1567
51246160,1000,1000,1000,1000,71928717,1577,1577,1558,1565
51248659,1000,1000,1000,1000,72028677,1574,1575,1558,1563
51251158,1000,1000,1000,1000,72128637,1572,1573,1559,1561
51253657,1000,1000,1000,1000,72228597,1571,1573,1559,1558
51256156,1000,1000,1000,1000,72328557,1571,1572,1559,1557
51258655,1000,1000,1000,1000,72428517,1571,1572,1558,1556
51261154,1000,1000,1000,1000,72528477,1571,1572,1556,1554
51263653,1000,1000,1000,1000,72628437,1572,1573,1554,1553
51266152,1000,1000,1000,1000,72728397,1573,1574,1552,1551
51268651,1000,1000,1000,1000,72828357,1575,1575,1549,1549
51271150,1000,1000,1000,1000,72928317,1576,1577,1546,1547
51273649,1000,1000,1000,1000,73028277,1579,1580,1544,1545
51276148,1000,1000,1000,1000,73128237,1581,1582,1541,1541
51278647,1000,1000,1000,1000,73228197,1584,1585,1539,1539
51281146,1000,1000,1000,1000,73328157,1586,1587,1537,1536
51283645,1000,1000,1000,1000,73428950,1588,1588,1535,1535
51286144,1000,1000,1000,1000,73528910,1590,1590,1535,1535
51288643,1000,1000,1000,1000,73628870,1590,1590,1535,1535
51291142,1000,1000,1000,1000,73728830,1590,1589,1536,1538
51293641,1000,1000,1000,1000,73828790,1588,1588,1539,1541
51296140,1000,1000,1000,1000,73928750,1587,1585,1543,1547
51298639,1000,1000,1000,1000,74028710,1582,1581,1548,1551
51301138,1000,1000,1000,1000,74128670,1577,1575,1556,1559
51303637,1000,1000,1000,1000,74228630,1570,1568,1565,1568
51306136,1000,1000,1000,1000,74328590,1561,1558,1575,1577
51308635,1000,1000,1000,1000,74428550,1552,1549,1585,1586
51311134,1000,1000,1000,1000,74528510,1544,1541,1594,1595
51313633,1000,1000,1000,1000,74628470,1538,1537,1602,1602
51316132,1000,1000,1000,1000,74728430,1534,1534,1607,1606
51318631,1000,1000,1000,1000,74828390,1532,1534,1608,1607
51321130,1000,1000,1000,1000,74928350,1533,1536,1607,1606
51323629,1000,1000,1000,1000,75028310,1539,1541,1603,1603
51326128,1000,1000,1000,1000,75128270,1546,1548,1598,1599
51328627,1000,1000,1000,1000,75228230,1554,1555,1593,1593
51331126,1000,1000,1000,1000,75328190,1562,1562,1587,1586
51333625,1000,1000,1000,1000,75428983,1569,1569,1581,1580
51336124,1000,1000,1000,1000,75528943,1576,1574,1576,1575
51338623,1000,1000,1000,1000,75628903,1581,1579,1572,1572
51341122,1000,1000,1000,1000,75728863,1585,1583,1570,1570
51343621,1000,1000,1000,1000,75828823,1586,1584,1569,1568
51346120,1000,1000,1000,1000,75928783,1586,1584,1568,1569
51348619,1000,1000,1000,1000,76028743,1586,1585,1570,1571
51351118,1000,1000,1000,1000,76128703,1584,1583,1572,1572
51353617,1000,1000,1000,1000,76228663,1582,1582,1576,1575
51356116,1000,1000,1000,1000,76328623,1579,1580,1577,1576
51358615,1000,1000,1000,1000,76428583,1578,1579,1581,1580
51361114,1000,1000,1000,1000,76528543,1577,1577,1582,1582
51363613,1000,1000,1000,1000,76628503,1574,1575,1582,1582
51366112,1000,1000,1000,1000,76728463,1574,1574,1582,1583
51368611,1000,1000,1000,1000,76828423,1573,1574,1582,1582
51371110,1000,1000,1000,1000,76928383,1574,1575,1582,1582
51373609,1000,1000,1000,1000,77028343,1575,1575,1582,1581
51376108,1000,1000,1000,1000,77128303,1576,1576,1581,1581
51378607,1000,1000,1000,1000,77228263,1577,1577,1580,1580
51381106,1000,1000,1000,1000,77328223,1578,1578,1579,1579
51383605,1000,1000,1000,1000,77428183,1580,1580,1579,1579
51386104,1000,1000,1000,1000,77528976,1580,1579,1578,1577
51388603,1000,1000,1000,1000,77628936,1581,1581,1578,1578
51391102,1000,1000,1000,1000,77728896,1581,1581,1577,1578
51393601,1000,1000,1000,1000,77828856,1582,1582,1578,1578
51396100,1000,1000,1000,1000,77928816,1582,1582,1579,1578
51398599,1000,1000,1000,1000,78028776,1582,1582,1580,1579
51401098,1000,1000,1000,1000,78128736,1581,1580,1579,1579
51403597,1000,1000,1000,1000,78228696,1582,1581,1580,1580
51406096,1000,1000,1000,1000,78328656,1581,1581,1581,1581
51408595,1000,1000,1000,1000,78428616,1580,1580,1581,1580
51411094,1000,1000,1000,1000,78528576,1580,1580,1581,1581
51413593,1000,1000,1000,1000,78628536,1579,1580,1581,1581
51416092,1000,1000,1000,1000,78728496,1581,1580,1582,1582
51418591,1000,1000,1000,1000,78828456,1580,1580,1582,1582
51421090,1000,1000,1000,1000,78928416,1580,1580,1580,1581
51423589,1000,1000,1000,1000,79028376,1581,1581,1581,1582
51426088,1000,1000,1000,1000,79128336,1581,1580,1581,1581
51428587,1000,1000,1000,1000,79228296,1581,1580,1581,1580
51431086,1000,1000,1000,1000,79328256,1581,1581,1581,1581
51433585,1000,1000,1000,1000,79428216,1581,1582,1581,1581
51436084,1000,1000,1000,1000,79528176,1581,1582,1581,1580
51438583,1000,1000,1000,1000,79628969,1581,1582,1581,1581
51441082,1000,1000,1000,1000,79728929,1582,1582,1581,1581
51443581,1000,1000,1000,1000,79828889,1582,1582,1587,1574
51446080,1000,1000,1000,1000,79928849,1582,1583,1586,1573
51448579,1000,1000,1000,1000,80028809,1580,1581,1577,1573
51451078,1000,1000,1000,1000,80128769,1578,1580,1568,1572
51453577,1000,1000,1000,1000,80228729,1577,1579,1561,1569
51456076,1000,1000,1000,1000,80328689,1577,1579,1557,1563
51458575,1000,1000,1000,1000,80428649,1578,1578,1555,1559
51461074,1000,1000,1000,1000,80528609,1580,1578,1556,1556
51463573,1000,1000,1000,1000,80628569,1579,1578,1556,1554
51466072,1000,1000,1000,1000,80728529,1578,1578,1556,1554
51468571,1000,1000,1000,1000,80828489,1577,1578,1556,1553
51471070,1000,1000,1000,1000,80928449,1576,1577,1555,1554
51473569,1000,1000,1000,1000,81028409,1574,1576,1553,1553
51476068,1000,1000,1000,1000,81128369,1574,1576,1552,1553
51478567,1000,1000,1000,1000,81228329,1575,1576,1552,1552
51481066,1000,1000,1000,1000,81328289,1577,1578,1552,1552
51483565,1000,1000,1000,1000,81428249,1577,1579,1549,1549
51486064,1000,1000,1000,1000,81528209,1579,1581,1547,1547
51488563,1000,1000,1000,1000,81628169,1582,1583,1545,1545
51491062,1000,1000,1000,1000,81728962,1584,1585,1542,1542
51493561,1000,1000,1000,1000,81828922,1587,1588,1541,1540
51496060,1000,1000,1000,1000,81928882,1590,1590,1539,1539
51498559,1000,1000,1000,1000,82028842,1592,1592,1539,1538
51501058,1000,1000,1000,1000,82128802,1592,1593,1537,1539
51503557,1000,1000,1000,1000,82228762,1592,1592,1537,1539
51506056,1000,1000,1000,1000,82328722,1592,1592,1540,1543
51508555,1000,1000,1000,1000,82428682,1590,1588,1545,1547
51511054,1000,1000,1000,1000,82528642,1585,1581,1551,1554
51513553,1000,1000,1000,1000,82628602,1578,1574,1561,1563
51516052,1000,1000,1000,1000,82728562,1569,1564,1571,1573
51518551,1000,1000,1000,1000,82828522,1558,1554,1581,1583
51521050,1000,1000,1000,1000,82928482,1548,1545,1592,1593
51523549,1000,1000,1000,1000,83028442,1539,1538,1601,1600
51526048,1000,1000,1000,1000,83128402,1534,1535,1608,1607
51528547,1000,1000,1000,1000,83228362,1532,1534,1612,1611
51531046,1000,1000,1000,1000,83328322,1534,1536,1612,1611
51533545,1000,1000,1000,1000,83428282,1538,1540,1609,1609
51536044,1000,1000,1000,1000,83528242,1544,1546,1604,1604
51538543,1000,1000,1000,1000,83628202,1552,1553,1598,1598
51541042,1000,1000,1000,1000,83728162,1560,1560,1592,1591
51543541,1000,1000,1000,1000,83828955,1568,1568,1585,1584
51546040,1000,1000,1000,1000,83928915,1576,1575,1580,1579
51548539,1000,1000,1000,1000,84028875,1581,1579,1573,1573
51551038,1000,1000,1000,1000,84128835,1584,1582,1569,1570
51553537,1000,1000,1000,1000,84228795,1587,1585,1568,1569
51556036,1000,1000,1000,1000,84328755,1587,1585,1567,1568
51558535,1000,1000,1000,1000,84428715,1586,1585,1569,1569
51561034,1000,1000,1000,1000,84528675,1585,1585,1572,1571
51563533,1000,1000,1000,1000,84628635,1584,1583,1575,1574
51566032,1000,1000,1000,1000,84728595,1580,1580,1576,1576
51568531,1000,1000,1000,1000,84828555,1578,1578,1579,1579
51571030,1000,1000,1000,1000,84928515,1575,1576,1580,1581
51573529,1000,1000,1000,1000,85028475,1575,1576,1584,1584
51576028,1000,1000,1000,1000,85128435,1573,1574,1583,1583
51578527,1000,1000,1000,1000,85228395,1573,1573,1583,1583
51581026,1000,1000,1000,1000,85328355,1573,1574,1583,1584
51583525,1000,1000,1000,1000,85428315,1574,1575,1583,1583
51586024,1000,1000,1000,1000,85528275,1576,1576,1582,1582
51588523,1000,1000,1000,1000,85628235,1578,1577,1582,1581
51591022,1000,1000,1000,1000,85728195,1578,1578,1580,1580
51593521,1000,1000,1000,1000,85828155,1579,1579,1578,1579
51596020,1000,1000,1000,1000,85928948,1580,1580,1578,1578
51598519,1000,1000,1000,1000,86028908,1581,1580,1577,1577
51601018,1000,1000,1000,1000,86128868,1581,1581,1576,1577
51603517,1000,1000,1000,1000,86228828,1581,1581,1577,1577
51606016,1000,1000,1000,1000,86328788,1581,1581,1578,1578
51608515,1000,1000,1000,1000,86428748,1581,1581,1578,1578
51611014,1000,1000,1000,1000,86528708,1582,1582,1580,1579
51613513,1000,1000,1000,1000,86628668,1581,1581,1580,1579
51616012,1000,1000,1000,1000,86728628,1580,1580,1579,1580
51618511,1000,1000,1000,1000,86828588,1580,1580,1581,1580
51621010,1000,1000,1000,1000,86928548,1579,1579,1580,1580
51623509,1000,1000,1000,1000,87028508,1580,1581,1583,1582
51626008,1000,1000,1000,1000,87128468,1580,1580,1582,1582
51628507,1000,1000,1000,1000,87228428,1580,1580,1582,1582
51631006,1000,1000,1000,1000,87328388,1580,1581,1582,1582
51633505,1000,1000,1000,1000,87428348,1581,1581,1581,1582
51636004,1000,1000,1000,1000,87528308,1581,1581,1581,1581
51638503,1000,1000,1000,1000,87628268,1581,1581,1581,1581
51641002,1000,1000,1000,1000,87728228,1581,1581,1580,1581
51643501,1000,1000,1000,1000,87828188,1582,1582,1587,1574
51646000,1000,1000,1000,1000,87928981,1581,1581,1586,1573
51648499,1000,1000,1000,1000,88028941,1579,1578,1579,1574
51650998,1000,1000,1000,1000,88128901,1575,1575,1571,1575
51653497,1000,1000,1000,1000,88228861,1572,1571,1566,1573
51655996,1000,1000,1000,1000,88328821,1569,1570,1564,1572
51658495,1000,1000,1000,1000,88428781,1567,1568,1564,1568
51660994,1000,1000,1000,1000,88528741,1566,1567,1565,1566
51663493,1000,1000,1000,1000,88628701,1565,1565,1566,1565
51665992,1000,1000,1000,1000,88728661,1565,1565,1567,1565
51668491,1000,1000,1000,1000,88828621,1564,1564,1566,1563
51670990,1000,1000,1000,1000,88928581,1564,1564,1566,1564
51673489,1000,1000,1000,1000,89028541,1564,1564,1566,1565
51675988,1000,1000,1000,1000,89128501,1563,1562,1564,1564
51678487,1000,1000,1000,1000,89228461,1562,1562,1563,1563
51680986,1000,1000,1000,1000,89328421,1562,1562,1562,1563
51683485,1000,1000,1000,1000,89428381,1561,1562,1562,1562
51685984,1000,1000,1000,1000,89528341,1561,1561,1561,1561
51688483,1000,1000,1000,1000,89628301,1561,1561,1561,1560
51690982,1000,1000,1000,1000,89728261,1559,1560,1560,1558
51693481,1000,1000,1000,1000,89828221,1558,1558,1558,1557
51695980,1000,1000,1000,1000,89928181,1558,1557,1558,1557
51698479,1000,1000,1000,1000,90028974,1558,1557,1557,1556
51700978,1000,1000,1000,1000,90128934,1557,1556,1557,1556
51703477,1000,1000,1000,1000,90228894,1557,1557,1557,1557
51705976,1000,1000,1000,1000,90328854,1557,1557,1558,1556
51708475,1000,1000,1000,1000,90428814,1557,1557,1558,1556
51710974,1000,1000,1000,1000,90528774,1557,1558,1559,1557
51713473,1000,1000,1000,1000,90628734,1558,1558,1559,1558
51715972,1000,1000,1000,1000,90728694,1560,1559,1558,1562
51718471,1000,1000,1000,1000,90828654,1560,1559,1557,1563
51720970,1000,1000,1000,1000,90928614,1561,1561,1558,1565
51723469,1000,1000,1000,1000,91028574,1562,1562,1560,1564
51725968,1000,1000,1000,1000,91128534,1563,1563,1561,1563
51728467,1000,1000,1000,1000,91228494,1562,1562,1562,1560
51730966,1000,1000,1000,1000,91328454,1561,1561,1562,1558
51733465,1000,1000,1000,1000,91428414,1561,1561,1561,1559
51735964,1000,1000,1000,1000,91528374,1559,1559,1556,1561
51738463,1000,1000,1000,1000,91628334,1556,1556,1553,1558
51740962,1000,1000,1000,1000,91728294,1552,1552,1549,1553
51743461,1000,1000,1000,1000,91828254,1545,1545,1544,1545
51745960,1000,1000,1000,1000,91928214,1539,1540,1539,1538
51748459,1000,1000,1000,1000,92028174,1531,1532,1532,1530
51750958,1000,1000,1000,1000,92128967,1524,1524,1524,1523
51753457,1000,1000,1000,1000,92228927,1521,1521,1521,1520
51755956,1000,1000,1000,1000,92328887,1519,1520,1520,1520
51758455,1000,1000,1000,1000,92428847,1520,1521,1521,1521
51760954,1000,1000,1000,1000,92528807,1522,1522,1523,1524
51763453,1000,1000,1000,1000,92628767,1526,1526,1527,1528
51765952,1000,1000,1000,1000,92728727,1531,1530,1532,1532
51768451,1000,1000,1000,1000,92828687,1535,1535,1537,1537
51770950,1000,1000,1000,1000,92928647,1538,1538,1540,1539
51773449,1000,1000,1000,1000,93028607,1542,1541,1542,1542
51775948,1000,1000,1000,1000,93128567,1543,1543,1544,1543
51778447,1000,1000,1000,1000,93228527,1545,1545,1545,1545
51780946,1000,1000,1000,1000,93328487,1546,1545,1545,1545
51783445,1000,1000,1000,1000,93428447,1547,1546,1546,1546
51785944,1000,1000,1000,1000,93528407,1547,1547,1546,1545
51788443,1000,1000,1000,1000,93628367,1546,1546,1545,1545
51790942,1000,1000,1000,1000,93728327,1547,1547,1546,1546
51793441,1000,1000,1000,1000,93828287,1546,1547,1546,1546
51795940,1000,1000,1000,1000,93928247,1547,1547,1546,1546
51798439,1000,1000,1000,1000,94028207,1546,1546,1546,1546
51800938,1000,1000,1000,1000,94128167,1546,1545,1545,1545
51803437,1000,1000,1000,1000,94228960,1545,1545,1545,1545
51805936,1000,1000,1000,1000,94328920,1545,1544,1545,1545
51808435,1000,1000,1000,1000,94428880,1544,1545,1545,1545
51810934,1000,1000,1000,1000,94528840,1545,1544,1545,1545
51813433,1000,1000,1000,1000,94628800,1544,1544,1545,1544
51815932,1000,1000,1000,1000,94728760,1544,1544,1544,1544
51818431,1000,1000,1000,1000,94828720,1544,1545,1545,1545
51820930,1000,1000,1000,1000,94928680,1544,1544,1544,1544
51823429,1000,1000,1000,1000,95028640,1544,1544,1544,1544
51825928,1000,1000,1000,1000,95128600,1544,1544,1544,1544
51828427,1000,1000,1000,1000,95228560,1544,1544,1544,1544
51830926,1000,1000,1000,1000,95328520,1545,1545,1545,1544
51833425,1000,1000,1000,1000,95428480,1544,1545,1545,1544
51835924,1000,1000,1000,1000,95528440,1545,1545,1545,1544
51838423,1000,1000,1000,1000,95628400,1544,1544,1544,1544
51840922,1000,1000,1000,1000,95728360,1544,1544,1544,1544
51843421,1000,1000,1000,1000,95828320,1544,1544,1544,1544
51845920,1000,1000,1000,1000,95928280,1545,1544,1544,1545
51848419,1000,1000,1000,1000,96028240,1544,1545,1545,1544
51850918,1000,1000,1000,1000,96128200,1545,1544,1544,1544
51853417,1000,1000,1000,1000,96228160,1544,1544,1545,1544
51855916,1000,1000,1000,1000,96328953,1544,1544,1544,1544
51858415,1000,1000,1000,1000,96428913,1544,1544,1544,1544
51860914,1000,1000,1000,1000,96528873,1544,1545,1544,1544
51863413,1000,1000,1000,1000,96628833,1543,1544,1544,1544
51865912,1000,1000,1000,1000,96728793,1544,1543,1544,1544
51868411,1000,1000,1000,1000,96828753,1544,1544,1544,1544
51870910,1000,1000,1000,1000,96928713,1544,1544,1544,1545
51873409,1000,1000,1000,1000,97028673,1544,1544,1544,1544
51875908,1000,1000,1000,1000,97128633,1545,1544,1544,1545
51878407,1000,1000,1000,1000,97228593,1545,1546,1545,1545
51880906,1000,1000,1000,1000,97328553,1544,1545,1545,1544
51883405,1000,1000,1000,1000,97428513,1545,1545,1545,1545
51885904,1000,1000,1000,1000,97528473,1545,1545,1545,1545
51888403,1000,1000,1000,1000,97628433,1545,1545,1545,1545
51890902,1000,1000,1000,1000,97728393,1544,1544,1544,1544
51893401,1000,1000,1000,1000,97828353,1544,1544,1544,1544
51895900,1000,1000,1000,1000,97928313,1544,1544,1544,1544
51898399,1000,1000,1000,1000,98028273,1544,1545,1545,1544
51900898,1000,1000,1000,1000,98128233,1544,1544,1544,1545
51903397,1000,1000,1000,1000,98228193,1545,1545,1545,1545
51905896,1000,1000,1000,1000,98328986,1545,1544,1545,1545
51908395,1000,1000,1000,1000,98428946,1545,1545,1545,1545
51910894,1000,1000,1000,1000,98528906,1545,1544,1545,1544
51913393,1000,1000,1000,1000,98628866,1544,1545,1545,1544
51915892,1000,1000,1000,1000,98728826,1544,1545,1545,1545
51918391,1000,1000,1000,1000,98828786,1545,1546,1545,1545
51920890,1000,1000,1000,1000,98928746,1545,1545,1545,1546
51923389,1000,1000,1000,1000,99028706,1544,1544,1544,1544
51925888,1000,1000,1000,1000,99128666,1544,1543,1543,1543
51928387,1000,1000,1000,1000,99228626,1544,1544,1545,1544
51930886,1000,1000,1000,1000,99328586,1544,1544,1544,1544
51933385,1000,1000,1000,1000,99428546,1544,1544,1544,1544
51935884,1000,1000,1000,1000,99528506,1544,1544,1544,1545
51938383,1000,1000,1000,1000,99628466,1544,1544,1544,1544
51940882,1000,1000,1000,1000,99728426,1545,1545,1545,1545
51943381,1000,1000,1000,1000,99828386,1544,1545,1545,1545
51945880,1000,1000,1000,1000,99928346,1544,1544,1544,1544
51948379,1000,1000,1000,1000,100028306,1543,1544,1544,1543
51950878,1000,1000,1000,1000,100128266,1544,1544,1544,1544
51953377,1000,1000,1000,1000,100228226,1545,1545,1545,1545
51955876,1000,1000,1000,1000,100328186,1544,1544,1544,1544
51958375,1000,1000,1000,1000,100428979,1545,1544,1544,1545
51960874,1000,1000,1000,1000,100528939,1544,1543,1543,1544
51963373,1000,1000,1000,1000,100628899,1543,1544,1543,1543
51965872,1000,1000,1000,1000,100728859,1543,1544,1543,1543
51968371,1000,1000,1000,1000,100828819,1544,1545,1545,1544
51970870,1000,1000,1000,1000,100928779,1544,1544,1544,1544
51973369,1000,1000,1000,1000,101028739,1544,1544,1544,1544
51975868,1000,1000,1000,1000,101128699,1545,1545,1545,1546
51978367,1000,1000,1000,1000,101228659,1545,1545,1545,1545
51980866,1000,1000,1000,1000,101328619,1545,1544,1545,1545
51983365,1000,1000,1000,1000,101428579,1544,1545,1545,1544
51985864,1000,1000,1000,1000,101528539,1545,1545,1545,1545
51988363,1000,1000,1000,1000,101628499,1545,1545,1545,1544
51990862,1000,1000,1000,1000,101728459,1543,1543,1543,1543
51993361,1000,1000,1000,1000,101828419,1543,1544,1544,1544
51995860,1000,1000,1000,1000,101928379,1529,1524,1526,1525
51998359,1000,1000,1000,1000,102028339,1367,1336,1336,1336
52000858,1000,1000,1000,1000,102128299,1292,1240,1240,1242
52003357,1000,1000,1000,1000,102228259,1269,1210,1211,1211
52005856,1000,1000,1000,1000,102328219,1251,1185,1186,1186
52008355,1000,1000,1000,1000,102428179,1226,1150,1151,1150
52010854,1000,1000,1000,1000,102528972,1227,1150,1151,1151
52013353,1000,1000,1000,1000,102628932,1226,1150,1152,1150
52015852,1000,1000,1000,1000,102728892,1247,1150,1150,1182
52018351,1000,1000,1000,1000,102828852,1244,1150,1151,1177
52020850,1000,1000,1000,1000,102928812,1241,1150,1151,1172
52023349,1000,1000,1000,1000,103028772,1240,1150,1151,1171
52025848,1000,1000,1000,1000,103128732,1242,1150,1152,1173
52028347,1000,1000,1000,1000,103228692,1243,1150,1152,1175
52030846,1000,1000,1000,1000,103328652,1245,1150,1152,1177
52033345,1000,1000,1000,1000,103428612,1246,1150,1152,1178
52035844,1000,1000,1000,1000,103528572,1234,1150,1152,1163
52038343,1000,1000,1000,1000,103628532,1237,1150,1152,1166
52040842,1000,1000,1000,1000,103728492,1238,1150,1152,1167
52043341,1000,1000,1000,1000,103828452,1238,1150,1152,1168
52045840,1000,1000,1000,1000,103928412,1238,1150,1152,1169
52048339,1000,1000,1000,1000,104028372,1000,1000,1000,1000
52050838,1000,1000,1000,1000,104128332,1000,1000,1000,1000
52053337,1000,1000,1000,1000,104228292,1000,1000,1000,1000
52055836,1000,1000,1000,1000,104328252,1000,1000,1000,1000
52058335,1000,1000,1000,1000,104428212,1000,1000,1000,1000
52060834,1000,1000,1000,1000,104528172,1000,1000,1000,1000
52063333,1000,1000,1000,1000,104628965,1000,1000,1000,1000
52065832,1000,1000,1000,1000,104728925,1000,1000,1000,1000
52068331,1000,1000,1000,1000,104828885,1000,1000,1000,1000
52070830,1000,1000,1000,1000,104928845,1000,1000,1000,1000
52073329,1000,1000,1000,1000,105028805,1000,1000,1000,1000
52075828,1000,1000,1000,1000,105128765,1000,1000,1000,1000
52078327,1000,1000,1000,1000,105228725,1000,1000,1000,1000
52080826,1000,1000,1000,1000,105328685,1000,1000,1000,1000
52083325,1000,1000,1000,1000,105428645,1000,1000,1000,1000
52085824,1000,1000,1000,1000,105528605,1000,1000,1000,1000
52088323,1000,1000,1000,1000,105628565,1000,1000,1000,1000
52090822,1000,1000,1000,1000,105728525,1000,1000,1000,1000
52093321,1000,1000,1000,1000,105828485,1000,1000,1000,1000
52095820,1000,1000,1000,1000,105928445,1000,1000,1000,1000
52098319,1000,1000,1000,1000,106028405,1000,1000,1000,1000
52100818,1000,1000,1000,1000,106128365,1000,1000,1000,1000
52103317,1000,1000,1000,1000,106228325,1000,1000,1000,1000
52105816,1000,1000,1000,1000,106328285,1000,1000,1000,1000
52108315,1000,1000,1000,1000,106428245,1000,1000,1000,1000
52110814,1000,1000,1000,1000,106528205,1000,1000,1000,1000
52113313,1000,1000,1000,1000,106628165,1000,1000,1000,1000
52115812,1000,1000,1000,1000,106728958,1000,1000,1000,1000
52118311,1000,1000,1000,1000,106828918,1000,1000,1000,1000
52120810,1000,1000,1000,1000,106928878,1000,1000,1000,1000
52123309,1000,1000,1000,1000,107028838,1000,1000,1000,1000
52125808,1000,1000,1000,1000,107128798,1000,1000,1000,1000
52128307,1000,1000,1000,1000,107228758,1000,1000,1000,1000
52130806,1000,1000,1000,1000,107328718,1000,1000,1000,1000
52133305,1000,1000,1000,1000,107428678,1000,1000,1000,1000
52135804,1000,1000,1000,1000,107528638,1000,1000,1000,1000
52138303,1000,1000,1000,1000,107628598,1000,1000,1000,1000
52140802,1000,1000,1000,1000,107728558,1000,1000,1000,1000
52143301,1000,1000,1000,1000,107828518,1000,1000,1000,1000
52145800,1000,1000,1000,1000,107928478,1000,1000,1000,1000
52148299,1000,1000,1000,1000,108028438,1000,1000,1000,1000
52150798,1000,1000,1000,1000,108128398,1000,1000,1000,1000
52153297,1000,1000,1000,1000,108228358,1000,1000,1000,1000
52155796,1000,1000,1000,1000,108328318,1000,1000,1000,1000
52158295,1000,1000,1000,1000,108428278,1000,1000,1000,1000
52160794,1000,1000,1000,1000,108528238,1000,1000,1000,1000
52163293,1000,1000,1000,1000,108628198,1000,1000,1000,1000
52165792,1000,1000,1000,1000,108728158,1000,1000,1000,1000
52168291,1000,1000,1000,1000,108828951,1000,1000,1000,1000
52170790,1000,1000,1000,1000,108928911,1000,1000,1000,1000
52173289,1000,1000,1000,1000,109028871,1000,1000,1000,1000
52175788,1000,1000,1000,1000,109128831,1000,1000,1000,1000
52178287,1000,1000,1000,1000,109228791,1000,1000,1000,1000
52180786,1000,1000,1000,1000,109328751,1000,1000,1000,1000
52183285,1000,1000,1000,1000,109428711,1000,1000,1000,1000
52185784,1000,1000,1000,1000,109528671,1000,1000,1000,1000
52188283,1000,1000,1000,1000,109628631,1000,1000,1000,1000
52190782,1000,1000,1000,1000,109728591,1000,1000,1000,1000
52193281,1000,1000,1000,1000,109828551,1000,1000,1000,1000
52195780,1000,1000,1000,1000,109928511,1000,1000,1000,1000
52198279,1000,1000,1000,1000,110028471,1000,1000,1000,1000
52200778,1000,1000,1000,1000,110128431,1000,1000,1000,1000
52203277,1000,1000,1000,1000,110228391,1000,1000,1000,1000
52205776,1000,1000,1000,1000,110328351,1000,1000,1000,1000
52208275,1000,1000,1000,1000,110428311,1000,1000,1000,1000
52210774,1000,1000,1000,1000,110528271,1000,1000,1000,1000
52213273,1000,1000,1000,1000,110628231,1000,1000,1000,1000
52215772,1000,1000,1000,1000,110728191,1000,1000,1000,1000
52218271,1000,1000,1000,1000,110828984,1000,1000,1000,1000
52220770,1000,1000,1000,1000,110928944,1000,1000,1000,1000
52223269,1000,1000,1000,1000,111028904,1000,1000,1000,1000
52225768,1000,1000,1000,1000,111128864,1000,1000,1000,1000
52228267,1000,1000,1000,1000,111228824,1000,1000,1000,1000
52230766,1000,1000,1000,1000,111328784,1000,1000,1000,1000
52233265,1000,1000,1000,1000,111428744,1000,1000,1000,1000
52235764,1000,1000,1000,1000,,,,,
52238263,1000,1000,1000,1000,,,,,
52240762,1000,1000,1000,1000,,,,,
52243261,1000,1000,1000,1000,,,,,
52245760,1000,1000,1000,1000,,,,,
52248259,1000,1000,1000,1000,,,,,
52250758,1000,1000,1000,1000,,,,,
52253257,1000,1000,1000,1000,,,,,
52255756,1000,1000,1000,1000,,,,,
52258255,1000,1000,1000,1000,,,,,
52260754,1000,1000,1000,1000,,,,,
52263253,1000,1000,1000,1000,,,,,
52265752,1000,1000,1000,1000,,,,,
52268251,1000,1000,1000,1000,,,,,
52270750,1000,1000,1000,1000,,,,,
52273249,1000,1000,1000,1000,,,,,
52275748,1000,1000,1000,1000,,,,,
52278247,1000,1000,1000,1000,,,,,
52280746,1000,1000,1000,1000,,,,,
52283245,1000,1000,1000,1000,,,,,
52285744,1000,1000,1000,1000,,,,,
52288243,1000,1000,1000,1000,,,,,
52290742,1000,1000,1000,1000,,,,,
52293241,1000,1000,1000,1000,,,,,
52295740,1000,1000,1000,1000,,,,,
52298239,1000,1000,1000,1000,,,,,
52300738,1000,1000,1000,1000,,,,,
52303237,1000,1000,1000,1000,,,,,
52305736,1000,1000,1000,1000,,,,,
52308235,1000,1000,1000,1000,,,,,
52310734,1000,1000,1000,1000,,,,,
52313233,1000,1000,1000,1000,,,,,
52315732,1000,1000,1000,1000,,,,,
52318231,1000,1000,1000,1000,,,,,
52320730,1000,1000,1000,1000,,,,,
52323229,1000,1000,1000,1000,,,,,
52325728,1000,1000,1000,1000,,,,,
52328227,1000,1000,1000,1000,,,,,
52330726,1000,1000,1000,1000,,,,,
52333225,1000,1000,1000,1000,,,,,
52335724,1000,1000,1000,1000,,,,,
52338223,1000,1000,1000,1000,,,,,
52340722,1000,1000,1000,1000,,,,,
52343221,1000,1000,1000,1000,,,,,
52345720,1000,1000,1000,1000,,,,,
52348219,1000,1000,1000,1000,,,,,
52350718,1000,1000,1000,1000,,,,,
52353217,1000,1000,1000,1000,,,,,
52355716,1000,1000,1000,1000,,,,,
52358215,1000,1000,1000,1000,,,,,
52360714,1000,1000,1000,1000,,,,,
52363213,1000,1000,1000,1000,,,,,
52365712,1000,1000,1000,1000,,,,,
52368211,1000,1000,1000,1000,,,,,
52370710,1000,1000,1000,1000,,,,,
52373209,1000,1000,1000,1000,,,,,
52375708,1000,1000,1000,1000,,,,,
52378207,1000,1000,1000,1000,,,,,
52380706,1000,1000,1000,1000,,,,,
52383205,1000,1000,1000,1000,,,,,
52385704,1000,1000,1000,1000,,,,,
52388203,1000,1000,1000,1000,,,,,
52390702,1000,1000,1000,1000,,,,,
52393201,1000,1000,1000,1000,,,,,
52395700,1000,1000,1000,1000,,,,,
52398199,1000,1000,1000,1000,,,,,
52400698,1000,1000,1000,1000,,,,,
52403197,1000,1000,1000,1000,,,,,
52405696,1000,1000,1000,1000,,,,,
52408195,1000,1000,1000,1000,,,,,
52410694,1000,1000,1000,1000,,,,,
52413193,1000,1000,1000,1000,,,,,
52415692,1000,1000,1000,1000,,,,,
52418191,1000,1000,1000,1000,,,,,
52420690,1000,1000,1000,1000,,,,,
52423189,1000,1000,1000,1000,,,,,
52425688,1000,1000,1000,1000,,,,,
52428187,1000,1000,1000,1000,,,,,
52430686,1000,1000,1000,1000,,,,,
52433185,1000,1000,1000,1000,,,,,
52435684,1000,1000,1000,1000,,,,,
52438183,1000,1000,1000,1000,,,,,
52440682,1000,1000,1000,1000,,,,,
52443181,1000,1000,1000,1000,,,,,
52445680,1000,1000,1000,1000,,,,,
52448179,1000,1000,1000,1000,,,,,
52450678,1000,1000,1000,1000,,,,,
52453177,1000,1000,1000,1000,,,,,
52455676,1000,1000,1000,1000,,,,,
52458175,1000,1000,1000,1000,,,,,
52460674,1000,1000,1000,1000,,,,,
52463173,1000,1000,1000,1000,,,,,
52465672,1000,1000,1000,1000,,,,,
52468171,1000,1000,1000,1000,,,,,
52470670,1000,1000,1000,1000,,,,,
52473169,1000,1000,1000,1000,,,,,
52475668,1000,1000,1000,1000,,,,,
52478167,1000,1000,1000,1000,,,,,
52480666,1000,1000,1000,1000,,,,,
52483165,1000,1000,1000,1000,,,,,
52485664,1000,1000,1000,1000,,,,,
52488163,1000,1000,1000,1000,,,,,
52490662,1000,1000,1000,1000,,,,,
52493161,1000,1000,1000,1000,,,,,
52495660,1000,1000,1000,1000,,,,,
52498159,1000,1000,1000,1000,,,,,
52500658,1000,1000,1000,1000,,,,,
52503157,1000,1000,1000,1000,,,,,
52505656,1000,1000,1000,1000,,,,,
52508155,1000,1000,1000,1000,,,,,
52510654,1000,1000,1000,1000,,,,,
52513986,1000,1000,1000,1000,,,,,
52516485,1000,1000,1000,1000,,,,,
52518984,1000,1000,1000,1000,,,,,
52521483,1000,1000,1000,1000,,,,,
52523982,1000,1000,1000,1000,,,,,
52526481,1000,1000,1000,1000,,,,,
52528980,1000,1000,1000,1000,,,,,
52531479,1000,1000,1000,1000,,,,,
52533978,1000,1000,1000,1000,,,,,
52536477,1000,1000,1000,1000,,,,,
52538976,1000,1000,1000,1000,,,,,
52541475,1000,1000,1000,1000,,,,,
52543974,1000,1000,1000,1000,,,,,
52546473,1000,1000,1000,1000,,,,,
52548972,1000,1000,1000,1000,,,,,
52551471,1000,1000,1000,1000,,,,,
52553970,1000,1000,1000,1000,,,,,
52556469,1000,1000,1000,1000,,,,,
52558968,1000,1000,1000,1000,,,,,
52561467,1000,1000,1000,1000,,,,,
52563966,1000,1000,1000,1000,,,,,
52566465,1000,1000,1000,1000,,,,,
52568964,1000,1000,1000,1000,,,,,
52571463,1000,1000,1000,1000,,,,,
52573962,1000,1000,1000,1000,,,,,
52576461,1000,1000,1000,1000,,,,,
52578960,1000,1000,1000,1000,,,,,
52581459,1000,1000,1000,1000,,,,,
52583958,1000,1000,1000,1000,,,,,
52586457,1000,1000,1000,1000,,,,,
52588956,1000,1000,1000,1000,,,,,
52591455,1000,1000,1000,1000,,,,,
52593954,1000,1000,1000,1000,,,,,
52596453,1000,1000,1000,1000,,,,,
52598952,1000,1000,1000,1000,,,,,
52601451,1000,1000,1000,1000,,,,,
52603950,1000,1000,1000,1000,,,,,
52606449,1000,1000,1000,1000,,,,,
52608948,1000,1000,1000,1000,,,,,
52611447,1000,1000,1000,1000,,,,,
52613946,1000,1000,1000,1000,,,,,
52616445,1000,1000,1000,1000,,,,,
52618944,1000,1000,1000,1000,,,,,
52621443,1000,1000,1000,1000,,,,,
52623942,1000,1000,1000,1000,,,,,
52626441,1000,1000,1000,1000,,,,,
52628940,1000,1000,1000,1000,,,,,
52631439,1000,1000,1000,1000,,,,,
52633938,1000,1000,1000,1000,,,,,
52636437,1000,1000,1000,1000,,,,,
52638936,1000,1000,1000,1000,,,,,
52641435,1000,1000,1000,1000,,,,,
52643934,1000,1000,1000,1000,,,,,
52646433,1000,1000,1000,1000,,,,,
52648932,1000,1000,1000,1000,,,,,
52651431,1000,1000,1000,1000,,,,,
52653930,1000,1000,1000,1000,,,,,
52656429,1000,1000,1000,1000,,,,,
52658928,1000,1000,1000,1000,,,,,
52661427,1000,1000,1000,1000,,,,,
52663926,1000,1000,1000,1000,,,,,
52666425,1000,1000,1000,1000,,,,,
52668924,1000,1000,1000,1000,,,,,
52671423,1000,1000,1000,1000,,,,,
52673922,1000,1000,1000,1000,,,,,
52676421,1000,1000,1000,1000,,,,,
52678920,1000,1000,1000,1000,,,,,
52681419,1000,1000,1000,1000,,,,,
52683918,1000,1000,1000,1000,,,,,
52686417,1000,1000,1000,1000,,,,,
52688916,1000,1000,1000,1000,,,,,
52691415,1000,1000,1000,1000,,,,,
52693914,1000,1000,1000,1000,,,,,
52696413,1000,1000,1000,1000,,,,,
52698912,1000,1000,1000,1000,,,,,
52701411,1000,1000,1000,1000,,,,,
52703910,1000,1000,1000,1000,,,,,
52706409,1000,1000,1000,1000,,,,,
52708908,1000,1000,1000,1000,,,,,
52711407,1000,1000,1000,1000,,,,,
52713906,1000,1000,1000,1000,,,,,
52716405,1000,1000,1000,1000,,,,,
52718904,1000,1000,1000,1000,,,,,
52721403,1000,1000,1000,1000,,,,,
52723902,1001,1001,1001,1001,,,,,
52726401,1002,1002,1002,1002,,,,,
52728900,1003,1003,1003,1003,,,,,
52731399,1003,1003,1003,1003,,,,,
52733898,1004,1004,1004,1004,,,,,
52736397,1005,1005,1005,1005,,,,,
52738896,1006,1006,1006,1006,,,,,
52741395,1006,1006,1006,1006,,,,,
52743894,1007,1007,1007,1007,,,,,
52746393,1008,1008,1008,1008,,,,,
52748892,1009,1009,1009,1009,,,,,
52751391,1009,1009,1009,1009,,,,,
52753890,1010,1010,1010,1010,,,,,
52756389,1011,1011,1011,1011,,,,,
52758888,1012,1012,1012,1012,,,,,
52761387,1012,1012,1012,1012,,,,,
52763886,1013,1013,1013,1013,,,,,
52766385,1014,1014,1014,1014,,,,,
52768884,1015,1015,1015,1015,,,,,
52771383,1015,1015,1015,1015,,,,,
52773882,1016,1016,1016,1016,,,,,
52776381,1017,1017,1017,1017,,,,,
52778880,1018,1018,1018,1018,,,,,
52781379,1018,1018,1018,1018,,,,,
52783878,1019,1019,1019,1019,,,,,
52786377,1020,1020,1020,1020,,,,,
52788876,1021,1021,1021,1021,,,,,
52791375,1021,1021,1021,1021,,,,,
52793874,1022,1022,1022,1022,,,,,
52796373,1023,1023,1023,1023,,,,,
52798872,1024,1024,1024,1024,,,,,
52801371,1024,1024,1024,1024,,,,,
52803870,1025,1025,1025,1025,,,,,
52806369,1026,1026,1026,1026,,,,,
52808868,1027,1027,1027,1027,,,,,
52811367,1027,1027,1027,1027,,,,,
52813866,1028,1028,1028,1028,,,,,
52816365,1029,1029,1029,1029,,,,,
52818864,1030,1030,1030,1030,,,,,
52821363,1030,1030,1030,1030,,,,,
52823862,1031,1031,1031,1031,,,,,
52826361,1032,1032,1032,1032,,,,,
52828860,1033,1033,1033,1033,,,,,
52831359,1033,1033,1033,1033,,,,,
52833858,1034,1034,1034,1034,,,,,
52836357,1035,1035,1035,1035,,,,,
52838856,1036,1036,1036,1036,,,,,
52841355,1036,1036,1036,1036,,,,,
52843854,1037,1037,1037,1037,,,,,
52846353,1038,1038,1038,1038,,,,,
52848852,1039,1039,1039,1039,,,,,
52851351,1039,1039,1039,1039,,,,,
52853850,1040,1040,1040,1040,,,,,
52856349,1041,1041,1041,1041,,,,,
52858848,1042,1042,1042,1042,,,,,
52861347,1042,1042,1042,1042,,,,,
52863846,1043,1043,1043,1043,,,,,
52866345,1044,1044,1044,1044,,,,,
52868844,1045,1045,1045,1045,,,,,
52871343,1045,1045,1045,1045,,,,,
52873842,1046,1046,1046,1046,,,,,
52876341,1047,1047,1047,1047,,,,,
52878840,1048,1048,1048,1048,,,,,
52881339,1048,1048,1048,1048,,,,,
52883838,1049,1049,1049,1049,,,,,
52886337,1050,1050,1050,1050,,,,,
52888836,1051,1051,1051,1051,,,,,
52891335,1051,1051,1051,1051,,,,,
52893834,1052,1052,1052,1052,,,,,
52896333,1053,1053,1053,1053,,,,,
52898832,1054,1054,1054,1054,,,,,
52901331,1054,1054,1054,1054,,,,,
52903830,1055,1055,1055,1055,,,,,
52906329,1056,1056,1056,1056,,,,,
52908828,1057,1057,1057,1057,,,,,
52911327,1057,1057,1057,1057,,,,,
52913826,1058,1058,1058,1058,,,,,
52916325,1059,1059,1059,1059,,,,,
52918824,1060,1060,1060,1060,,,,,
52921323,1060,1060,1060,1060,,,,,
52923822,1061,1061,1061,1061,,,,,
52926321,1062,1062,1062,1062,,,,,
52928820,1063,1063,1063,1063,,,,,
52931319,1063,1063,1063,1063,,,,,
52933818,1064,1064,1064,1064,,,,,
52936317,1065,1065,1065,1065,,,,,
52938816,1066,1066,1066,1066,,,,,
52941315,1066,1066,1066,1066,,,,,
52943814,1067,1067,1067,1067,,,,,
52946313,1068,1068,1068,1068,,,,,
52948812,1069,1069,1069,1069,,,,,
52951311,1069,1069,1069,1069,,,,,
52953810,1070,1070,1070,1070,,,,,
52956309,1071,1071,1071,1071,,,,,
52958808,1072,1072,1072,1072,,,,,
52961307,1072,1072,1072,1072,,,,,
52963806,1073,1073,1073,1073,,,,,
52966305,1074,1074,1074,1074,,,,,
52968804,1075,1075,1075,1075,,,,,
52971303,1075,1075,1075,1075,,,,,
52973802,1076,1076,1076,1076,,,,,
52976301,1077,1077,1077,1077,,,,,
52978800,1078,1078,1078,1078,,,,,
52981299,1078,1078,1078,1078,,,,,
52983798,1079,1079,1079,1079,,,,,
52986297,1080,1080,1080,1080,,,,,
52988796,1081,1081,1081,1081,,,,,
52991295,1081,1081,1081,1081,,,,,
52993794,1082,1082,1082,1082,,,,,
52996293,1083,1083,1083,1083,,,,,
52998792,1084,1084,1084,1084,,,,,
53001291,1084,1084,1084,1084,,,,,
53003790,1085,1085,1085,1085,,,,,
53006289,1086,1086,1086,1086,,,,,
53008788,1087,1087,1087,1087,,,,,
53011287,1087,1087,1087,1087,,,,,
53013786,1088,1088,1088,1088,,,,,
53016285,1089,1089,1089,1089,,,,,
53018784,1090,1090,1090,1090,,,,,
53021283,1090,1090,1090,1090,,,,,
53023782,1091,1091,1091,1091,,,,,
53026281,1092,1092,1092,1092,,,,,
53028780,1093,1093,1093,1093,,,,,
53031279,1093,1093,1093,1093,,,,,
53033778,1094,1094,1094,1094,,,,,
53036277,1095,1095,1095,1095,,,,,
53038776,1096,1096,1096,1096,,,,,
53041275,1096,1096,1096,1096,,,,,
53043774,1097,1097,1097,1097,,,,,
53046273,1098,1098,1098,1098,,,,,
53048772,1099,1099,1099,1099,,,,,
53051271,1099,1099,1099,1099,,,,,
53053770,1100,1100,1100,1100,,,,,
53056269,1101,1101,1101,1101,,,,,
53058768,1101,1101,1101,1101,,,,,
53061267,1102,1102,1102,1102,,,,,
53063766,1103,1103,1103,1103,,,,,
53066265,1104,1104,1104,1104,,,,,
53068764,1104,1104,1104,1104,,,,,
53071263,1105,1105,1105,1105,,,,,
53073762,1106,1106,1106,1106,,,,,
53076261,1107,1107,1107,1107,,,,,
53078760,1107,1107,1107,1107,,,,,
53081259,1108,1108,1108,1108,,,,,
53083758,1109,1109,1109,1109,,,,,
53086257,1110,1110,1110,1110,,,,,
53088756,1110,1110,1110,1110,,,,,
53091255,1111,1111,1111,1111,,,,,
53093754,1112,1112,1112,1112,,,,,
53096253,1113,1113,1113,1113,,,,,
53098752,1113,1113,1113,1113,,,,,
53101251,1114,1114,1114,1114,,,,,
53103750,1115,1115,1115,1115,,,,,
53106249,1116,1116,1116,1116,,,,,
53108748,1116,1116,1116,1116,,,,,
53111247,1117,1117,1117,1117,,,,,
53113746,1118,1118,1118,1118,,,,,
53116245,1119,1119,1119,1119,,,,,
53118744,1119,1119,1119,1119,,,,,
53121243,1120,1120,1120,1120,,,,,
53123742,1121,1121,1121,1121,,,,,
53126241,1122,1122,1122,1122,,,,,
53128740,1122,1122,1122,1122,,,,,
53131239,1123,1123,1123,1123,,,,,
53133738,1124,1124,1124,1124,,,,,
53136237,1125,1125,1125,1125,,,,,
53138736,1125,1125,1125,1125,,,,,
53141235,1126,1126,1126,1126,,,,,
53143734,1127,1127,1127,1127,,,,,
53146233,1128,1128,1128,1128,,,,,
53148732,1128,1128,1128,1128,,,,,
53151231,1129,1129,1129,1129,,,,,
53153730,1130,1130,1130,1130,,,,,
53156229,1131,1131,1131,1131,,,,,
53158728,1131,1131,1131,1131,,,,,
53161227,1132,1132,1132,1132,,,,,
53163726,1133,1133,1133,1133,,,,,
53166225,1134,1134,1134,1134,,,,,
53168724,1134,1134,1134,1134,,,,,
53171223,1135,1135,1135,1135,,,,,
53173722,1136,1136,1136,1136,,,,,
53176221,1137,1137,1137,1137,,,,,
53178720,1137,1137,1137,1137,,,,,
53181219,1138,1138,1138,1138,,,,,
53183718,1139,1139,1139,1139,,,,,
53186217,1140,1140,1140,1140,,,,,
53188716,1140,1140,1140,1140,,,,,
53191215,1141,1141,1141,1141,,,,,
53193714,1142,1142,1142,1142,,,,,
53196213,1143,1143,1143,1143,,,,,
53198712,1143,1143,1143,1143,,,,,
53201211,1144,1144,1144,1144,,,,,
53203710,1145,1145,1145,1145,,,,,
53206209,1146,1146,1146,1146,,,,,
53208708,1146,1146,1146,1146,,,,,
53211207,1147,1147,1147,1147,,,,,
53213706,1148,1148,1148,1148,,,,,
53216205,1149,1149,1149,1149,,,,,
53218704,1149,1149,1149,1149,,,,,
53221203,1150,1150,1150,1150,,,,,
53223702,1161,1154,1154,1162,,,,,
53226201,1169,1162,1162,1170,,,,,
53228700,1177,1170,1170,1178,,,,,
53231199,1185,1177,1178,1185,,,,,
53233698,1192,1185,1186,1193,,,,,
53236197,1200,1193,1193,1200,,,,,
53238696,1207,1200,1201,1208,,,,,
53241195,1214,1207,1208,1215,,,,,
53243694,1222,1215,1215,1222,,,,,
53246193,1229,1222,1222,1229,,,,,
53248692,1235,1229,1229,1236,,,,,
53251191,1242,1235,1236,1243,,,,,
53253690,1249,1242,1243,1249,,,,,
53256189,1256,1249,1249,1256,,,,,
53258688,1262,1255,1256,1262,,,,,
53261187,1269,1262,1262,1269,,,,,
53263686,1275,1268,1269,1275,,,,,
53266185,1281,1275,1275,1282,,,,,
53268684,1287,1281,1281,1288,,,,,
53271183,1294,1287,1288,1294,,,,,
53273682,1300,1293,1294,1300,,,,,
53276181,1306,1299,1300,1306,,,,,
53278680,1312,1305,1306,1312,,,,,
53281179,1317,1311,1312,1318,,,,,
53283678,1323,1317,1318,1324,,,,,
53286177,1329,1323,1323,1329,,,,,
53288676,1335,1329,1329,1335,,,,,
53291175,1340,1334,1335,1341,,,,,
53293674,1346,1340,1340,1346,,,,,
53296173,1352,1346,1346,1352,,,,,
53298672,1357,1351,1352,1357,,,,,
53301171,1363,1357,1357,1363,,,,,
53303670,1368,1362,1362,1368,,,,,
53306169,1373,1367,1368,1374,,,,,
53308668,1379,1373,1373,1379,,,,,
53311167,1384,1378,1378,1384,,,,,
53313666,1389,1383,1384,1390,,,,,
53316165,1394,1389,1389,1395,,,,,
53318664,1399,1394,1394,1400,,,,,
53321163,1405,1399,1399,1405,,,,,
53323662,1410,1404,1404,1410,,,,,
53326161,1415,1409,1409,1415,,,,,
53328660,1420,1414,1414,1420,,,,,
53331159,1425,1419,1419,1425,,,,,
53333658,1429,1424,1424,1430,,,,,
53336157,1434,1429,1429,1435,,,,,
53338656,1439,1434,1434,1439,,,,,
53341155,1444,1439,1439,1444,,,,,
53343654,1449,1443,1444,1449,,,,,
53346153,1453,1448,1448,1454,,,,,
53348652,1458,1453,1453,1458,,,,,
53351151,1463,1458,1458,1463,,,,,
53353650,1467,1462,1462,1468,,,,,
53356149,1472,1467,1467,1472,,,,,
53358648,1476,1472,1472,1477,,,,,
53361147,1481,1476,1476,1481,,,,,
53363646,1486,1481,1481,1486,,,,,
53366145,1490,1485,1485,1490,,,,,
53368644,1495,1490,1490,1495,,,,,
53371143,1499,1494,1494,1499,,,,,
53373642,1503,1499,1499,1504,,,,,
53376141,1508,1503,1503,1508,,,,,
53378640,1512,1507,1508,1513,,,,,
53381139,1516,1512,1512,1517,,,,,
53383638,1521,1516,1516,1521,,,,,
53386137,1525,1520,1521,1525,,,,,
53388636,1529,1525,1525,1530,,,,,
53391135,1534,1529,1529,1534,,,,,
53393634,1538,1533,1533,1538,,,,,
53396133,1542,1537,1538,1542,,,,,
53398632,1546,1542,1542,1547,,,,,
53401131,1550,1546,1546,1551,,,,,
53403630,1555,1550,1550,1555,,,,,
53406129,1559,1554,1554,1559,,,,,
53408628,1563,1558,1558,1563,,,,,
53411127,1567,1562,1563,1567,,,,,
53413626,1571,1566,1567,1571,,,,,
53416125,1575,1570,1571,1575,,,,,
53418624,1579,1574,1575,1579,,,,,
53421123,1583,1578,1579,1583,,,,,
53423622,1587,1582,1583,1587,,,,,
53426121,1591,1586,1587,1591,,,,,
53428620,1595,1590,1591,1595,,,,,
53431119,1599,1594,1595,1599,,,,,
53433618,1603,1598,1598,1603,,,,,
53436117,1607,1602,1602,1607,,,,,
53438616,1610,1606,1606,1611,,,,,
53441115,1614,1610,1610,1615,,,,,
53443614,1618,1614,1614,1618,,,,,
53446113,1622,1617,1618,1622,,,,,
53448612,1626,1621,1622,1626,,,,,
53451111,1630,1625,1625,1630,,,,,
53453610,1633,1629,1629,1634,,,,,
53456109,1637,1633,1633,1637,,,,,
53458608,1641,1636,1637,1641,,,,,
53461107,1645,1640,1640,1645,,,,,
53463606,1648,1644,1644,1648,,,,,
53466105,1652,1647,1648,1652,,,,,
53468604,1656,1651,1651,1656,,,,,
53471103,1659,1655,1655,1659,,,,,
53473602,1663,1658,1659,1663,,,,,
53476101,1667,1662,1662,1667,,,,,
53478600,1670,1666,1666,1670,,,,,
53481099,1674,1669,1670,1674,,,,,
53483598,1677,1673,1673,1678,,,,,
53486097,1681,1676,1677,1681,,,,,
53488596,1685,1680,1680,1685,,,,,
53491095,1688,1684,1684,1688,,,,,
53493594,1692,1687,1687,1692,,,,,
53496093,1695,1691,1691,1695,,,,,
53498592,1699,1694,1694,1699,,,,,
53501091,1702,1698,1698,1702,,,,,
53503590,1706,1701,1701,1706,,,,,
53506089,1709,1705,1705,1709,,,,,
53508588,1713,1708,1708,1713,,,,,
53511087,1716,1712,1712,1716,,,,,
53513586,1719,1715,1715,1720,,,,,
53516085,1723,1718,1719,1723,,,,,
53518584,1726,1722,1722,1727,,,,,
53521083,1730,1725,1725,1730,,,,,
53523582,1733,1729,1729,1733,,,,,
53526081,1736,1732,1732,1737,,,,,
53528580,1740,1735,1735,1740,,,,,
53531079,1743,1739,1739,1744,,,,,
53533578,1747,1742,1742,1747,,,,,
53536077,1750,1745,1745,1750,,,,,
53538576,1753,1749,1749,1754,,,,,
53541075,1757,1752,1752,1757,,,,,
53543574,1760,1755,1755,1760,,,,,
53546073,1763,1759,1759,1764,,,,,
53548572,1766,1762,1762,1767,,,,,
53551071,1770,1765,1765,1770,,,,,
53553570,1773,1768,1768,1773,,,,,
53556069,1776,1772,1772,1777,,,,,
53558568,1779,1775,1775,1780,,,,,
53561067,1783,1778,1778,1783,,,,,
53563566,1786,1781,1781,1786,,,,,
53566065,1789,1785,1785,1789,,,,,
53568564,1792,1788,1788,1793,,,,,
53571063,1795,1791,1791,1796,,,,,
53573562,1799,1794,1794,1799,,,,,
53576061,1802,1797,1797,1802,,,,,
53578560,1805,1800,1801,1805,,,,,
53581059,1808,1804,1804,1808,,,,,
53583558,1811,1807,1807,1811,,,,,
53586057,1814,1810,1810,1815,,,,,
53588556,1817,1813,1813,1818,,,,,
53591055,1820,1816,1816,1821,,,,,
53593554,1824,1819,1819,1824,,,,,
53596053,1827,1822,1823,1827,,,,,
53598552,1830,1825,1826,1830,,,,,
53601051,1833,1828,1829,1833,,,,,
53603550,1836,1832,1832,1836,,,,,
53606049,1839,1835,1835,1839,,,,,
53608548,1842,1838,1838,1842,,,,,
53611047,1845,1841,1841,1845,,,,,
53613546,1848,1844,1844,1848,,,,,
53616045,1851,1847,1847,1851,,,,,
53618544,1854,1850,1850,1854,,,,,
53621043,1857,1853,1853,1857,,,,,
53623542,1860,1856,1856,1860,,,,,
53626041,1863,1859,1859,1863,,,,,
53628540,1866,1862,1862,1866,,,,,
53631039,1869,1865,1865,1869,,,,,
53633538,1872,1868,1868,1872,,,,,
53636037,1875,1871,1871,1875,,,,,
53638536,1878,1873,1874,1878,,,,,
53641035,1881,1876,1877,1881,,,,,
53643534,1884,1879,1880,1884,,,,,
53646033,1887,1882,1883,1887,,,,,
53648532,1890,1885,1886,1890,,,,,
53651031,1893,1888,1888,1893,,,,,
53653530,1896,1891,1891,1896,,,,,
53656029,1898,1894,1894,1899,,,,,
53658528,1901,1897,1897,1901,,,,,
53661027,1904,1900,1900,1904,,,,,
53663526,1907,1903,1903,1907,,,,,
53666025,1910,1905,1906,1910,,,,,
53668524,1913,1908,1909,1913,,,,,
53671023,1913,1909,1909,1914,,,,,
53673522,1913,1908,1908,1913,,,,,
53676021,1912,1907,1908,1912,,,,,
53678520,1911,1906,1907,1911,,,,,
53681019,1910,1906,1906,1910,,,,,
53683518,1910,1905,1905,1910,,,,,
53686017,1909,1904,1905,1909,,,,,
53688516,1908,1904,1904,1908,,,,,
53691015,1908,1903,1903,1908,,,,,
53693514,1907,1903,1903,1907,,,,,
53696013,1907,1902,1903,1907,,,,,
53698512,1906,1902,1902,1907,,,,,
53701011,1906,1902,1902,1906,,,,,
53703510,1906,1901,1902,1906,,,,,
53706009,1906,1901,1901,1906,,,,,
53708508,1906,1901,1901,1906,,,,,
53711007,1905,1901,1901,1906,,,,,
53713506,1905,1901,1901,1906,,,,,
53716005,1905,1901,1901,1906,,,,,
53718504,1905,1901,1902,1906,,,,,
53721003,1905,1901,1902,1905,,,,,
53723502,1905,1901,1901,1905,,,,,
53726001,1905,1901,1901,1905,,,,,
53728500,1904,1901,1901,1904,,,,,
53730999,1904,1900,1901,1904,,,,,
53733498,1903,1900,1900,1903,,,,,
53735997,1902,1899,1899,1903,,,,,
53738496,1901,1898,1899,1902,,,,,
53740995,1900,1898,1898,1901,,,,,
53743494,1899,1896,1896,1899,,,,,
53745993,1898,1895,1895,1898,,,,,
53748492,1896,1894,1894,1897,,,,,
53750991,1895,1892,1892,1895,,,,,
53753490,1893,1890,1890,1893,,,,,
53755989,1891,1888,1889,1891,,,,,
53758488,1889,1886,1886,1889,,,,,
53760987,1887,1884,1884,1887,,,,,
53763486,1884,1882,1882,1885,,,,,
53765985,1882,1880,1880,1882,,,,,
53768484,1880,1877,1877,1880,,,,,
53770983,1877,1875,1875,1877,,,,,
53773482,1874,1872,1872,1875,,,,,
53775981,1872,1869,1870,1872,,,,,
53778480,1869,1867,1867,1869,,,,,
53780979,1866,1864,1864,1866,,,,,
53783478,1863,1861,1861,1863,,,,,
53785977,1860,1858,1858,1860,,,,,
53788476,1857,1855,1855,1857,,,,,
53790975,1854,1852,1852,1854,,,,,
53793474,1851,1849,1849,1851,,,,,
53795973,1847,1845,1846,1847,,,,,
53798472,1844,1842,1843,1844,,,,,
53800971,1841,1839,1840,1841,,,,,
53803470,1837,1836,1836,1837,,,,,
53805969,1834,1832,1833,1834,,,,,
53808468,1831,1829,1830,1831,,,,,
53810967,1827,1826,1826,1827,,,,,
53813466,1824,1822,1823,1824,,,,,
53815965,1821,1819,1820,1820,,,,,
53818464,1817,1816,1816,1817,,,,,
53820963,1814,1812,1813,1814,,,,,
53823462,1810,1809,1810,1810,,,,,
53825961,1807,1806,1806,1807,,,,,
53828460,1804,1802,1803,1803,,,,,
53830959,1800,1799,1800,1800,,,,,
53833458,1797,1796,1796,1797,,,,,
53835957,1793,1792,1793,1793,,,,,
53838456,1790,1789,1790,1790,,,,,
53840955,1787,1786,1786,1786,,,,,
53843454,1783,1782,1783,1783,,,,,
53845953,1780,1779,1780,1780,,,,,
53848452,1777,1776,1776,1776,,,,,
53850951,1773,1772,1773,1773,,,,,
53853450,1770,1769,1770,1770,,,,,
53855949,1767,1766,1766,1766,,,,,
53858448,1763,1762,1763,1763,,,,,
53860947,1760,1759,1760,1760,,,,,
53863446,1757,1756,1756,1757,,,,,
53865945,1753,1753,1753,1753,,,,,
53868444,1750,1750,1750,1750,,,,,
53870943,1747,1747,1747,1747,,,,,
53873442,1744,1744,1744,1744,,,,,
53875941,1741,1741,1741,1741,,,,,
53878440,1738,1738,1738,1738,,,,,
53880939,1735,1735,1735,1735,,,,,
53883438,1732,1732,1732,1732,,,,,
53885937,1729,1729,1729,1729,,,,,
53888436,1726,1726,1727,1726,,,,,
53890935,1723,1723,1724,1724,,,,,
53893434,1721,1721,1721,1721,,,,,
53895933,1718,1718,1718,1718,,,,,
53898432,1715,1715,1716,1715,,,,,
53900931,1712,1713,1713,1713,,,,,
53903430,1710,1710,1710,1710,,,,,
53905929,1707,1708,1708,1707,,,,,
53908428,1705,1705,1705,1705,,,,,
53910927,1702,1703,1703,1702,,,,,
53913426,1700,1700,1700,1700,,,,,
53915925,1697,1698,1698,1697,,,,,
53918424,1695,1696,1696,1695,,,,,
53920923,1693,1693,1694,1693,,,,,
53923422,1690,1691,1691,1691,,,,,
53925921,1688,1689,1689,1688,,,,,
53928420,1686,1687,1687,1686,,,,,
53930919,1684,1685,1685,1684,,,,,
53933418,1682,1683,1683,1682,,,,,
53935917,1680,1681,1681,1680,,,,,
53938416,1678,1679,1679,1678,,,,,
53940915,1676,1677,1677,1676,,,,,
53943414,1674,1675,1675,1674,,,,,
53945913,1672,1673,1674,1672,,,,,
53948412,1670,1672,1672,1671,,,,,
53950911,1669,1670,1670,1669,,,,,
53953410,1667,1668,1668,1667,,,,,
53955909,1665,1667,1667,1665,,,,,
53958408,1664,1665,1665,1664,,,,,
53960907,1662,1663,1664,1662,,,,,
53963406,1660,1662,1662,1661,,,,,
53965905,1659,1660,1661,1659,,,,,
53968404,1657,1659,1659,1658,,,,,
53970903,1656,1658,1658,1656,,,,,
53973402,1655,1656,1657,1655,,,,,
53975901,1653,1655,1655,1654,,,,,
53978400,1652,1654,1654,1652,,,,,
53980899,1651,1653,1653,1651,,,,,
53983398,1650,1651,1652,1650,,,,,
53985897,1649,1650,1651,1649,,,,,
53988396,1648,1649,1649,1648,,,,,
53990895,1646,1648,1648,1647,,,,,
53993394,1645,1647,1647,1645,,,,,
53995893,1644,1646,1646,1644,,,,,
53998392,1643,1645,1645,1643,,,,,
54000891,1642,1644,1644,1643,,,,,
54003390,1641,1643,1644,1642,,,,,
54005889,1641,1642,1643,1641,,,,,
54008388,1640,1642,1642,1640,,,,,
54010887,1639,1641,1641,1639,,,,,
54013386,1638,1640,1640,1638,,,,,
54015885,1637,1639,1639,1637,,,,,
54018384,1637,1639,1639,1637,,,,,
54020883,1636,1638,1638,1636,,,,,
54023382,1635,1637,1638,1635,,,,,
54025881,1635,1637,1637,1635,,,,,
54028380,1634,1636,1637,1634,,,,,
54030879,1634,1636,1636,1634,,,,,
54033378,1633,1636,1636,1634,,,,,
54035877,1633,1635,1635,1633,,,,,
54038376,1633,1635,1635,1633,,,,,
54040875,1633,1635,1635,1633,,,,,
