timestamp,TimeUS,C1,C2,C3,C4,C5,C6,C7,C8,C9,C10,C11,C12,C13,C14
1682162340.59999990,76428583,1000,1000,1000,1000,0,0,0,0,0,0,0,0,0,0
1682162340.69995999,76528543,1000,1000,1000,1000,0,0,0,0,0,0,0,0,0,0
1682162340.79992008,76628503,1000,1000,1000,1000,0,0,0,0,0,0,0,0,0,0
1682162340.89987993,76728463,1000,1000,1000,1000,0,0,0,0,0,0,0,0,0,0
1682162340.99984002,76828423,1000,1000,1000,1000,0,0,0,0,0,0,0,0,0,0
1682162341.09980011,76928383,1000,1000,1000,1000,0,0,0,0,0,0,0,0,0,0
1682162341.19975996,77028343,1000,1000,1000,1000,0,0,0,0,0,0,0,0,0,0
1682162341.29972005,77128303,1000,1000,1000,1000,0,0,0,0,0,0,0,0,0,0
1682162341.39967990,77228263,1000,1000,1000,1000,0,0,0,0,0,0,0,0,0,0
1682162341.49963999,77328223,1000,1000,1000,1000,0,0,0,0,0,0,0,0,0,0
1682162341.59960008,77428183,1000,1000,1000,1000,0,0,0,0,0,0,0,0,0,0
1682162341.70039296,77528976,1000,1000,1000,1000,0,0,0,0,0,0,0,0,0,0
1682162341.80035305,77628936,1000,1000,1000,1000,0,0,0,0,0,0,0,0,0,0
1682162341.90031290,77728896,1000,1000,1000,1000,0,0,0,0,0,0,0,0,0,0
1682162342.00027299,77828856,1000,1000,1000,1000,0,0,0,0,0,0,0,0,0,0
1682162342.10023308,77928816,1000,1000,1000,1000,0,0,0,0,0,0,0,0,0,0
1682162342.20019293,78028776,1000,1000,1000,1000,0,0,0,0,0,0,0,0,0,0
1682162342.30015302,78128736,1000,1000,1000,1000,0,0,0,0,0,0,0,0,0,0
1682162342.40011311,78228696,1000,1000,1000,1000,0,0,0,0,0,0,0,0,0,0
1682162342.50007296,78328656,1000,1000,1000,1000,0,0,0,0,0,0,0,0,0,0
1682162342.60003304,78428616,1016,1016,1016,1016,0,0,0,0,0,0,0,0,0,0
1682162342.69999290,78528576,1046,1046,1046,1046,0,0,0,0,0,0,0,0,0,0
1682162342.79995298,78628536,1076,1076,1076,1076,0,0,0,0,0,0,0,0,0,0
1682162342.89991307,78728496,1106,1106,1106,1106,0,0,0,0,0,0,0,0,0,0
1682162342.99987292,78828456,1136,1136,1136,1136,0,0,0,0,0,0,0,0,0,0
1682162343.09983301,78928416,1301,1292,1292,1302,0,0,0,0,0,0,0,0,0,0
1682162343.19979310,79028376,1505,1497,1498,1505,0,0,0,0,0,0,0,0,0,0
1682162343.29975295,79128336,1664,1657,1658,1664,0,0,0,0,0,0,0,0,0,0
1682162343.39971304,79228296,1800,1793,1793,1800,0,0,0,0,0,0,0,0,0,0
1682162343.49967289,79328256,1896,1890,1890,1897,0,0,0,0,0,0,0,0,0,0
1682162343.59963298,79428216,1867,1863,1863,1867,0,0,0,0,0,0,0,0,0,0
1682162343.69959307,79528176,1736,1736,1736,1737,0,0,0,0,0,0,0,0,0,0
1682162343.80038595,79628969,1644,1646,1646,1644,0,0,0,0,0,0,0,0,0,0
1682162343.90034604,79728929,1619,1622,1622,1620,0,0,0,0,0,0,0,0,0,0
1682162344.00030589,79828889,1627,1630,1630,1628,0,0,0,0,0,0,0,0,0,0
1682162344.10026598,79928849,1627,1628,1623,1633,0,0,0,0,0,0,0,0,0,0
1682162344.20022607,80028809,1624,1627,1620,1630,0,0,0,0,0,0,0,0,0,0
1682162344.30018592,80128769,1618,1620,1617,1621,0,0,0,0,0,0,0,0,0,0
1682162344.40014601,80228729,1615,1615,1616,1614,0,0,0,0,0,0,0,0,0,0
1682162344.50010610,80328689,1613,1612,1616,1610,0,0,0,0,0,0,0,0,0,0
1682162344.60006595,80428649,1614,1613,1617,1610,0,0,0,0,0,0,0,0,0,0
1682162344.70002604,80528609,1616,1615,1618,1612,0,0,0,0,0,0,0,0,0,0
1682162344.79998589,80628569,1618,1617,1619,1616,0,0,0,0,0,0,0,0,0,0
1682162344.89994597,80728529,1599,1599,1603,1594,0,0,0,0,0,0,0,0,0,0
1682162344.99990606,80828489,1578,1580,1586,1572,0,0,0,0,0,0,0,0,0,0
1682162345.09986591,80928449,1566,1567,1569,1564,0,0,0,0,0,0,0,0,0,0
1682162345.19982600,81028409,1556,1556,1554,1558,0,0,0,0,0,0,0,0,0,0
1682162345.29978609,81128369,1548,1548,1539,1557,0,0,0,0,0,0,0,0,0,0
1682162345.39974594,81228329,1540,1539,1530,1549,0,0,0,0,0,0,0,0,0,0
1682162345.49970603,81328289,1535,1534,1528,1541,0,0,0,0,0,0,0,0,0,0
1682162345.59966588,81428249,1529,1529,1526,1531,0,0,0,0,0,0,0,0,0,0
1682162345.69962597,81528209,1527,1527,1527,1527,0,0,0,0,0,0,0,0,0,0
1682162345.79958606,81628169,1527,1527,1529,1524,0,0,0,0,0,0,0,0,0,0
1682162345.90037894,81728962,1529,1530,1532,1526,0,0,0,0,0,0,0,0,0,0
1682162346.00033903,81828922,1533,1533,1536,1530,0,0,0,0,0,0,0,0,0,0
1682162346.10029888,81928882,1538,1538,1540,1535,0,0,0,0,0,0,0,0,0,0
1682162346.20025897,82028842,1541,1540,1543,1539,0,0,0,0,0,0,0,0,0,0
1682162346.30021906,82128802,1544,1544,1545,1544,0,0,0,0,0,0,0,0,0,0
1682162346.40017891,82228762,1547,1547,1547,1548,0,0,0,0,0,0,0,0,0,0
1682162346.50013900,82328722,1549,1549,1549,1551,0,0,0,0,0,0,0,0,0,0
1682162346.60009909,82428682,1551,1552,1550,1553,0,0,0,0,0,0,0,0,0,0
1682162346.70005894,82528642,1555,1556,1553,1556,0,0,0,0,0,0,0,0,0,0
1682162346.80001903,82628602,1559,1559,1554,1556,0,0,0,0,0,0,0,0,0,0
1682162346.89997911,82728562,1560,1559,1558,1559,0,0,0,0,0,0,0,0,0,0
1682162346.99993896,82828522,1559,1559,1562,1562,0,0,0,0,0,0,0,0,0,0
1682162347.09989905,82928482,1559,1559,1564,1564,0,0,0,0,0,0,0,0,0,0
1682162347.19985890,83028442,1560,1561,1567,1566,0,0,0,0,0,0,0,0,0,0
1682162347.29981899,83128402,1563,1563,1569,1568,0,0,0,0,0,0,0,0,0,0
1682162347.39977908,83228362,1564,1565,1570,1569,0,0,0,0,0,0,0,0,0,0
1682162347.49973893,83328322,1567,1567,1571,1570,0,0,0,0,0,0,0,0,0,0
1682162347.59969902,83428282,1569,1569,1570,1570,0,0,0,0,0,0,0,0,0,0
1682162347.69965911,83528242,1571,1570,1570,1571,0,0,0,0,0,0,0,0,0,0
1682162347.79961896,83628202,1572,1572,1570,1571,0,0,0,0,0,0,0,0,0,0
1682162347.89957905,83728162,1573,1573,1570,1571,0,0,0,0,0,0,0,0,0,0
1682162348.00037193,83828955,1574,1574,1571,1571,0,0,0,0,0,0,0,0,0,0
1682162348.10033202,83928915,1575,1575,1571,1571,0,0,0,0,0,0,0,0,0,0
1682162348.20029211,84028875,1576,1577,1574,1572,0,0,0,0,0,0,0,0,0,0
1682162348.30025196,84128835,1577,1578,1575,1574,0,0,0,0,0,0,0,0,0,0
1682162348.40021205,84228795,1578,1578,1576,1574,0,0,0,0,0,0,0,0,0,0
1682162348.50017190,84328755,1577,1576,1575,1575,0,0,0,0,0,0,0,0,0,0
1682162348.60013199,84428715,1576,1576,1575,1575,0,0,0,0,0,0,0,0,0,0
1682162348.70009208,84528675,1576,1576,1576,1576,0,0,0,0,0,0,0,0,0,0
1682162348.80005193,84628635,1576,1576,1577,1577,0,0,0,0,0,0,0,0,0,0
1682162348.90001202,84728595,1576,1577,1577,1577,0,0,0,0,0,0,0,0,0,0
1682162348.99997211,84828555,1576,1576,1577,1577,0,0,0,0,0,0,0,0,0,0
1682162349.09993196,84928515,1575,1575,1577,1577,0,0,0,0,0,0,0,0,0,0
1682162349.19989204,85028475,1576,1576,1577,1577,0,0,0,0,0,0,0,0,0,0
1682162349.29985189,85128435,1576,1576,1577,1577,0,0,0,0,0,0,0,0,0,0
1682162349.39981198,85228395,1576,1576,1577,1577,0,0,0,0,0,0,0,0,0,0
1682162349.49977207,85328355,1577,1577,1578,1578,0,0,0,0,0,0,0,0,0,0
1682162349.59973192,85428315,1576,1577,1577,1577,0,0,0,0,0,0,0,0,0,0
1682162349.69969201,85528275,1578,1578,1578,1578,0,0,0,0,0,0,0,0,0,0
1682162349.79965210,85628235,1578,1578,1578,1577,0,0,0,0,0,0,0,0,0,0
1682162349.89961195,85728195,1578,1578,1578,1578,0,0,0,0,0,0,0,0,0,0
1682162349.99957204,85828155,1578,1578,1578,1578,0,0,0,0,0,0,0,0,0,0
1682162350.10036492,85928948,1579,1579,1578,1579,0,0,0,0,0,0,0,0,0,0
1682162350.20032501,86028908,1579,1579,1579,1579,0,0,0,0,0,0,0,0,0,0
1682162350.30028510,86128868,1580,1580,1580,1580,0,0,0,0,0,0,0,0,0,0
1682162350.40024495,86228828,1580,1579,1580,1579,0,0,0,0,0,0,0,0,0,0
1682162350.50020504,86328788,1578,1578,1578,1578,0,0,0,0,0,0,0,0,0,0
1682162350.60016489,86428748,1579,1579,1579,1579,0,0,0,0,0,0,0,0,0,0
1682162350.70012498,86528708,1579,1579,1579,1579,0,0,0,0,0,0,0,0,0,0
1682162350.80008507,86628668,1579,1579,1579,1579,0,0,0,0,0,0,0,0,0,0
1682162350.90004492,86728628,1580,1580,1580,1580,0,0,0,0,0,0,0,0,0,0
1682162351.00000501,86828588,1579,1579,1579,1580,0,0,0,0,0,0,0,0,0,0
1682162351.09996510,86928548,1579,1580,1580,1580,0,0,0,0,0,0,0,0,0,0
1682162351.19992495,87028508,1579,1579,1580,1579,0,0,0,0,0,0,0,0,0,0
1682162351.29988503,87128468,1580,1579,1580,1580,0,0,0,0,0,0,0,0,0,0
1682162351.39984488,87228428,1580,1580,1580,1580,0,0,0,0,0,0,0,0,0,0
1682162351.49980497,87328388,1580,1581,1580,1581,0,0,0,0,0,0,0,0,0,0
1682162351.59976506,87428348,1581,1581,1581,1581,0,0,0,0,0,0,0,0,0,0
1682162351.69972491,87528308,1580,1580,1580,1580,0,0,0,0,0,0,0,0,0,0
1682162351.79968500,87628268,1581,1581,1580,1581,0,0,0,0,0,0,0,0,0,0
1682162351.89964509,87728228,1580,1580,1580,1580,0,0,0,0,0,0,0,0,0,0
1682162351.99960494,87828188,1580,1580,1580,1580,0,0,0,0,0,0,0,0,0,0
1682162352.10039806,87928981,1579,1580,1579,1580,0,0,0,0,0,0,0,0,0,0
1682162352.20035791,88028941,1580,1580,1580,1580,0,0,0,0,0,0,0,0,0,0
1682162352.30031800,88128901,1580,1579,1580,1579,0,0,0,0,0,0,0,0,0,0
1682162352.40027809,88228861,1581,1581,1581,1580,0,0,0,0,0,0,0,0,0,0
1682162352.50023794,88328821,1580,1580,1581,1580,0,0,0,0,0,0,0,0,0,0
1682162352.60019803,88428781,1580,1580,1580,1580,0,0,0,0,0,0,0,0,0,0
1682162352.70015788,88528741,1580,1580,1580,1581,0,0,0,0,0,0,0,0,0,0
1682162352.80011797,88628701,1581,1580,1580,1581,0,0,0,0,0,0,0,0,0,0
1682162352.90007806,88728661,1581,1582,1585,1578,0,0,0,0,0,0,0,0,0,0
1682162353.00003791,88828621,1581,1582,1588,1573,0,0,0,0,0,0,0,0,0,0
1682162353.09999800,88928581,1580,1583,1582,1574,0,0,0,0,0,0,0,0,0,0
1682162353.19995809,89028541,1578,1580,1572,1573,0,0,0,0,0,0,0,0,0,0
1682162353.29991794,89128501,1578,1580,1565,1571,0,0,0,0,0,0,0,0,0,0
1682162353.39987803,89228461,1577,1579,1559,1566,0,0,0,0,0,0,0,0,0,0
1682162353.49983811,89328421,1578,1578,1556,1561,0,0,0,0,0,0,0,0,0,0
1682162353.59979796,89428381,1580,1578,1556,1557,0,0,0,0,0,0,0,0,0,0
1682162353.69975805,89528341,1580,1578,1556,1555,0,0,0,0,0,0,0,0,0,0
1682162353.79971790,89628301,1580,1579,1557,1555,0,0,0,0,0,0,0,0,0,0
1682162353.89967799,89728261,1579,1579,1557,1555,0,0,0,0,0,0,0,0,0,0
1682162353.99963808,89828221,1576,1577,1555,1553,0,0,0,0,0,0,0,0,0,0
1682162354.09959793,89928181,1576,1578,1555,1554,0,0,0,0,0,0,0,0,0,0
1682162354.20039105,90028974,1575,1577,1554,1554,0,0,0,0,0,0,0,0,0,0
1682162354.30035090,90128934,1576,1577,1553,1554,0,0,0,0,0,0,0,0,0,0
1682162354.40031099,90228894,1576,1577,1550,1551,0,0,0,0,0,0,0,0,0,0
1682162354.50027108,90328854,1578,1579,1549,1549,0,0,0,0,0,0,0,0,0,0
1682162354.60023093,90428814,1580,1581,1547,1546,0,0,0,0,0,0,0,0,0,0
1682162354.70019102,90528774,1582,1583,1544,1543,0,0,0,0,0,0,0,0,0,0
1682162354.80015111,90628734,1585,1586,1541,1540,0,0,0,0,0,0,0,0,0,0
1682162354.90011096,90728694,1589,1589,1538,1538,0,0,0,0,0,0,0,0,0,0
1682162355.00007105,90828654,1591,1592,1536,1536,0,0,0,0,0,0,0,0,0,0
1682162355.10003090,90928614,1593,1593,1534,1534,0,0,0,0,0,0,0,0,0,0
1682162355.19999099,91028574,1595,1595,1534,1535,0,0,0,0,0,0,0,0,0,0
1682162355.29995108,91128534,1596,1595,1536,1538,0,0,0,0,0,0,0,0,0,0
1682162355.39991093,91228494,1594,1594,1538,1540,0,0,0,0,0,0,0,0,0,0
1682162355.49987102,91328454,1590,1589,1542,1545,0,0,0,0,0,0,0,0,0,0
1682162355.59983110,91428414,1585,1584,1549,1552,0,0,0,0,0,0,0,0,0,0
1682162355.69979095,91528374,1577,1574,1558,1561,0,0,0,0,0,0,0,0,0,0
1682162355.79975104,91628334,1568,1565,1570,1572,0,0,0,0,0,0,0,0,0,0
1682162355.89971089,91728294,1558,1554,1582,1584,0,0,0,0,0,0,0,0,0,0
1682162355.99967098,91828254,1547,1544,1595,1595,0,0,0,0,0,0,0,0,0,0
1682162356.09963107,91928214,1537,1536,1604,1604,0,0,0,0,0,0,0,0,0,0
1682162356.19959092,92028174,1532,1531,1612,1611,0,0,0,0,0,0,0,0,0,0
1682162356.30038404,92128967,1530,1530,1616,1615,0,0,0,0,0,0,0,0,0,0
1682162356.40034389,92228927,1531,1533,1616,1615,0,0,0,0,0,0,0,0,0,0
1682162356.50030398,92328887,1534,1537,1612,1611,0,0,0,0,0,0,0,0,0,0
1682162356.60026407,92428847,1541,1543,1605,1606,0,0,0,0,0,0,0,0,0,0
1682162356.70022392,92528807,1549,1550,1598,1598,0,0,0,0,0,0,0,0,0,0
1682162356.80018401,92628767,1558,1558,1590,1590,0,0,0,0,0,0,0,0,0,0
1682162356.90014410,92728727,1566,1567,1583,1582,0,0,0,0,0,0,0,0,0,0
1682162357.00010395,92828687,1574,1574,1576,1576,0,0,0,0,0,0,0,0,0,0
1682162357.10006404,92928647,1581,1580,1572,1571,0,0,0,0,0,0,0,0,0,0
1682162357.20002389,93028607,1585,1584,1568,1568,0,0,0,0,0,0,0,0,0,0
1682162357.29998398,93128567,1587,1586,1566,1566,0,0,0,0,0,0,0,0,0,0
1682162357.39994407,93228527,1587,1586,1565,1565,0,0,0,0,0,0,0,0,0,0
1682162357.49990392,93328487,1587,1586,1567,1567,0,0,0,0,0,0,0,0,0,0
1682162357.59986401,93428447,1584,1584,1569,1569,0,0,0,0,0,0,0,0,0,0
1682162357.69982409,93528407,1582,1581,1572,1572,0,0,0,0,0,0,0,0,0,0
1682162357.79978395,93628367,1578,1578,1575,1575,0,0,0,0,0,0,0,0,0,0
1682162357.89974403,93728327,1576,1576,1578,1578,0,0,0,0,0,0,0,0,0,0
1682162357.99970388,93828287,1442,1533,1445,1542,0,0,0,0,0,0,0,0,0,0
1682162358.09966397,93928247,1582,1565,1592,1574,0,0,0,0,0,0,0,0,0,0
1682162358.19962406,94028207,1589,1502,1600,1514,0,0,0,0,0,0,0,0,0,0
1682162358.29958391,94128167,1593,1520,1600,1531,0,0,0,0,0,0,0,0,0,0
1682162358.40037704,94228960,1600,1531,1597,1540,0,0,0,0,0,0,0,0,0,0
1682162358.50033689,94328920,1600,1541,1593,1550,0,0,0,0,0,0,0,0,0,0
1682162358.60029697,94428880,1600,1558,1594,1563,0,0,0,0,0,0,0,0,0,0
1682162358.70025706,94528840,1599,1581,1600,1578,0,0,0,0,0,0,0,0,0,0
1682162358.80021691,94628800,1592,1601,1600,1582,0,0,0,0,0,0,0,0,0,0
1682162358.90017700,94728760,1600,1647,1599,1589,0,0,0,0,0,0,0,0,0,0
1682162359.00013709,94828720,1600,1666,1594,1593,0,0,0,0,0,0,0,0,0,0
1682162359.10009694,94928680,1591,1645,1600,1613,0,0,0,0,0,0,0,0,0,0
1682162359.20005703,95028640,1558,1571,1600,1627,0,0,0,0,0,0,0,0,0,0
1682162359.30001688,95128600,1517,1504,1600,1631,0,0,0,0,0,0,0,0,0,0
1682162359.39997697,95228560,1489,1470,1600,1630,0,0,0,0,0,0,0,0,0,0
1682162359.49993706,95328520,1475,1463,1600,1623,0,0,0,0,0,0,0,0,0,0
1682162359.59989691,95428480,1474,1470,1600,1614,0,0,0,0,0,0,0,0,0,0
1682162359.69985700,95528440,1481,1484,1600,1606,0,0,0,0,0,0,0,0,0,0
1682162359.79981709,95628400,1494,1499,1600,1601,0,0,0,0,0,0,0,0,0,0
1682162359.89977694,95728360,1510,1516,1600,1598,0,0,0,0,0,0,0,0,0,0
1682162359.99973702,95828320,1530,1528,1600,1597,0,0,0,0,0,0,0,0,0,0
1682162360.09969711,95928280,1547,1544,1600,1597,0,0,0,0,0,0,0,0,0,0
1682162360.19965696,96028240,1564,1562,1600,1598,0,0,0,0,0,0,0,0,0,0
1682162360.29961705,96128200,1583,1583,1600,1599,0,0,0,0,0,0,0,0,0,0
1682162360.39957690,96228160,1600,1599,1597,1595,0,0,0,0,0,0,0,0,0,0
1682162360.50037003,96328953,1600,1597,1580,1576,0,0,0,0,0,0,0,0,0,0
1682162360.60033011,96428913,1600,1597,1567,1564,0,0,0,0,0,0,0,0,0,0
1682162360.70028996,96528873,1600,1598,1558,1557,0,0,0,0,0,0,0,0,0,0
1682162360.80025005,96628833,1600,1599,1554,1554,0,0,0,0,0,0,0,0,0,0
1682162360.90020990,96728793,1600,1600,1553,1554,0,0,0,0,0,0,0,0,0,0
1682162361.00016999,96828753,1600,1605,1545,1550,0,0,0,0,0,0,0,0,0,0
1682162361.10013008,96928713,1600,1608,1518,1517,0,0,0,0,0,0,0,0,0,0
1682162361.20008993,97028673,1600,1606,1496,1491,0,0,0,0,0,0,0,0,0,0
1682162361.30005002,97128633,1600,1602,1487,1485,0,0,0,0,0,0,0,0,0,0
1682162361.40001011,97228593,1600,1599,1491,1492,0,0,0,0,0,0,0,0,0,0
1682162361.49996996,97328553,1600,1597,1504,1506,0,0,0,0,0,0,0,0,0,0
1682162361.59993005,97428513,1600,1597,1521,1524,0,0,0,0,0,0,0,0,0,0
1682162361.69988990,97528473,1600,1597,1541,1543,0,0,0,0,0,0,0,0,0,0
1682162361.79984999,97628433,1600,1597,1562,1562,0,0,0,0,0,0,0,0,0,0
1682162361.89981008,97728393,1600,1598,1584,1584,0,0,0,0,0,0,0,0,0,0
1682162361.99976993,97828353,1593,1590,1600,1597,0,0,0,0,0,0,0,0,0,0
1682162362.09973001,97928313,1574,1569,1600,1594,0,0,0,0,0,0,0,0,0,0
1682162362.19969010,98028273,1560,1557,1600,1594,0,0,0,0,0,0,0,0,0,0
1682162362.29964995,98128233,1551,1551,1600,1595,0,0,0,0,0,0,0,0,0,0
1682162362.39961004,98228193,1543,1554,1600,1592,0,0,0,0,0,0,0,0,0,0
1682162362.50040293,98328986,1545,1562,1600,1594,0,0,0,0,0,0,0,0,0,0
1682162362.60036302,98428946,1552,1568,1600,1597,0,0,0,0,0,0,0,0,0,0
1682162362.70032310,98528906,1563,1573,1600,1601,0,0,0,0,0,0,0,0,0,0
1682162362.80028296,98628866,1575,1577,1600,1604,0,0,0,0,0,0,0,0,0,0
1682162362.90024304,98728826,1586,1583,1600,1607,0,0,0,0,0,0,0,0,0,0
1682162363.00020289,98828786,1595,1589,1600,1606,0,0,0,0,0,0,0,0,0,0
1682162363.10016298,98928746,1600,1590,1596,1599,0,0,0,0,0,0,0,0,0,0
1682162363.20012307,99028706,1600,1591,1591,1591,0,0,0,0,0,0,0,0,0,0
1682162363.30008292,99128666,1600,1594,1586,1586,0,0,0,0,0,0,0,0,0,0
1682162363.40004301,99228626,1600,1598,1583,1582,0,0,0,0,0,0,0,0,0,0
1682162363.50000310,99328586,1600,1601,1581,1581,0,0,0,0,0,0,0,0,0,0
1682162363.59996295,99428546,1600,1603,1581,1582,0,0,0,0,0,0,0,0,0,0
1682162363.69992304,99528506,1600,1602,1581,1584,0,0,0,0,0,0,0,0,0,0
1682162363.79988289,99628466,1600,1601,1584,1585,0,0,0,0,0,0,0,0,0,0
1682162363.89984298,99728426,1600,1601,1587,1589,0,0,0,0,0,0,0,0,0,0
1682162363.99980307,99828386,1600,1600,1591,1593,0,0,0,0,0,0,0,0,0,0
1682162364.09976292,99928346,1600,1599,1595,1596,0,0,0,0,0,0,0,0,0,0
1682162364.19972301,100028306,1600,1599,1599,1600,0,0,0,0,0,0,0,0,0,0
1682162364.29968309,100128266,1597,1595,1600,1600,0,0,0,0,0,0,0,0,0,0
1682162364.39964294,100228226,1594,1592,1600,1599,0,0,0,0,0,0,0,0,0,0
1682162364.49960303,100328186,1593,1591,1600,1599,0,0,0,0,0,0,0,0,0,0
1682162364.60039592,100428979,1591,1592,1600,1600,0,0,0,0,0,0,0,0,0,0
1682162364.70035601,100528939,1592,1592,1600,1600,0,0,0,0,0,0,0,0,0,0
1682162364.80031610,100628899,1592,1594,1600,1600,0,0,0,0,0,0,0,0,0,0
1682162364.90027595,100728859,1594,1595,1600,1601,0,0,0,0,0,0,0,0,0,0
1682162365.00023603,100828819,1595,1597,1600,1601,0,0,0,0,0,0,0,0,0,0
1682162365.10019588,100928779,1597,1598,1600,1601,0,0,0,0,0,0,0,0,0,0
1682162365.20015597,101028739,1599,1599,1600,1600,0,0,0,0,0,0,0,0,0,0
1682162365.30011606,101128699,1600,1598,1598,1598,0,0,0,0,0,0,0,0,0,0
1682162365.40007591,101228659,1600,1599,1597,1597,0,0,0,0,0,0,0,0,0,0
1682162365.50003600,101328619,1600,1599,1597,1596,0,0,0,0,0,0,0,0,0,0
1682162365.59999609,101428579,1600,1600,1596,1596,0,0,0,0,0,0,0,0,0,0
1682162365.69995594,101528539,1600,1600,1596,1596,0,0,0,0,0,0,0,0,0,0
1682162365.79991603,101628499,1600,1600,1597,1596,0,0,0,0,0,0,0,0,0,0
1682162365.89987588,101728459,1600,1600,1597,1597,0,0,0,0,0,0,0,0,0,0
1682162365.99983597,101828419,1600,1601,1598,1598,0,0,0,0,0,0,0,0,0,0
1682162366.09979606,101928379,1599,1605,1600,1600,0,0,0,0,0,0,0,0,0,0
1682162366.19975591,102028339,1596,1609,1600,1600,0,0,0,0,0,0,0,0,0,0
1682162366.29971600,102128299,1596,1605,1600,1599,0,0,0,0,0,0,0,0,0,0
1682162366.39967608,102228259,1589,1588,1590,1587,0,0,0,0,0,0,0,0,0,0
1682162366.49963593,102328219,1577,1570,1578,1575,0,0,0,0,0,0,0,0,0,0
1682162366.59959602,102428179,1565,1557,1567,1565,0,0,0,0,0,0,0,0,0,0
1682162366.70038891,102528972,1556,1550,1558,1558,0,0,0,0,0,0,0,0,0,0
1682162366.80034900,102628932,1547,1547,1551,1553,0,0,0,0,0,0,0,0,0,0
1682162366.90030909,102728892,1544,1545,1546,1549,0,0,0,0,0,0,0,0,0,0
1682162367.00026894,102828852,1541,1543,1542,1545,0,0,0,0,0,0,0,0,0,0
1682162367.10022902,102928812,1541,1543,1541,1543,0,0,0,0,0,0,0,0,0,0
1682162367.20018911,103028772,1541,1543,1541,1542,0,0,0,0,0,0,0,0,0,0
1682162367.30014896,103128732,1544,1544,1541,1542,0,0,0,0,0,0,0,0,0,0
1682162367.40010905,103228692,1546,1546,1543,1543,0,0,0,0,0,0,0,0,0,0
1682162367.50006890,103328652,1549,1548,1545,1545,0,0,0,0,0,0,0,0,0,0
1682162367.60002899,103428612,1556,1556,1544,1538,0,0,0,0,0,0,0,0,0,0
1682162367.69998908,103528572,1583,1587,1520,1508,0,0,0,0,0,0,0,0,0,0
1682162367.79994893,103628532,1600,1603,1463,1444,0,0,0,0,0,0,0,0,0,0
1682162367.89990902,103728492,1600,1600,1423,1420,0,0,0,0,0,0,0,0,0,0
1682162367.99986911,103828452,1600,1597,1418,1432,0,0,0,0,0,0,0,0,0,0
1682162368.09982896,103928412,1600,1594,1431,1453,0,0,0,0,0,0,0,0,0,0
1682162368.19978905,104028372,1600,1594,1454,1473,0,0,0,0,0,0,0,0,0,0
1682162368.29974890,104128332,1600,1595,1481,1492,0,0,0,0,0,0,0,0,0,0
1682162368.39970899,104228292,1600,1598,1510,1512,0,0,0,0,0,0,0,0,0,0
1682162368.49966908,104328252,1600,1600,1537,1532,0,0,0,0,0,0,0,0,0,0
1682162368.59962893,104428212,1600,1602,1564,1554,0,0,0,0,0,0,0,0,0,0
1682162368.69958901,104528172,1600,1603,1588,1577,0,0,0,0,0,0,0,0,0,0
1682162368.80038190,104628965,1586,1586,1600,1587,0,0,0,0,0,0,0,0,0,0
1682162368.90034199,104728925,1567,1566,1600,1590,0,0,0,0,0,0,0,0,0,0
1682162369.00030208,104828885,1541,1535,1600,1598,0,0,0,0,0,0,0,0,0,0
1682162369.10026193,104928845,1484,1469,1600,1605,0,0,0,0,0,0,0,0,0,0
1682162369.20022202,105028805,1436,1428,1600,1610,0,0,0,0,0,0,0,0,0,0
1682162369.30018210,105128765,1414,1421,1600,1604,0,0,0,0,0,0,0,0,0,0
1682162369.40014195,105228725,1412,1430,1600,1586,0,0,0,0,0,0,0,0,0,0
1682162369.50010204,105328685,1434,1464,1600,1587,0,0,0,0,0,0,0,0,0,0
1682162369.60006189,105428645,1471,1501,1600,1597,0,0,0,0,0,0,0,0,0,0
1682162369.70002198,105528605,1512,1532,1600,1605,0,0,0,0,0,0,0,0,0,0
1682162369.79998207,105628565,1553,1556,1600,1608,0,0,0,0,0,0,0,0,0,0
1682162369.89994192,105728525,1590,1578,1600,1607,0,0,0,0,0,0,0,0,0,0
1682162369.99990201,105828485,1600,1573,1574,1571,0,0,0,0,0,0,0,0,0,0
1682162370.09986210,105928445,1600,1574,1538,1529,0,0,0,0,0,0,0,0,0,0
1682162370.19982195,106028405,1600,1587,1507,1499,0,0,0,0,0,0,0,0,0,0
1682162370.29978204,106128365,1600,1599,1483,1479,0,0,0,0,0,0,0,0,0,0
1682162370.39974189,106228325,1600,1607,1468,1471,0,0,0,0,0,0,0,0,0,0
1682162370.49970198,106328285,1600,1608,1464,1471,0,0,0,0,0,0,0,0,0,0
1682162370.59966207,106428245,1600,1606,1468,1477,0,0,0,0,0,0,0,0,0,0
1682162370.69962192,106528205,1600,1603,1478,1484,0,0,0,0,0,0,0,0,0,0
1682162370.79958200,106628165,1600,1600,1490,1493,0,0,0,0,0,0,0,0,0,0
1682162370.90037489,106728958,1600,1598,1506,1505,0,0,0,0,0,0,0,0,0,0
1682162371.00033498,106828918,1600,1598,1523,1522,0,0,0,0,0,0,0,0,0,0
1682162371.10029507,106928878,1600,1598,1542,1541,0,0,0,0,0,0,0,0,0,0
1682162371.20025492,107028838,1600,1599,1563,1563,0,0,0,0,0,0,0,0,0,0
1682162371.30021501,107128798,1600,1600,1587,1589,0,0,0,0,0,0,0,0,0,0
1682162371.40017509,107228758,1588,1585,1600,1598,0,0,0,0,0,0,0,0,0,0
1682162371.50013494,107328718,1566,1561,1600,1598,0,0,0,0,0,0,0,0,0,0
1682162371.60009503,107428678,1546,1543,1600,1600,0,0,0,0,0,0,0,0,0,0
1682162371.70005488,107528638,1530,1529,1600,1602,0,0,0,0,0,0,0,0,0,0
1682162371.80001497,107628598,1519,1521,1600,1603,0,0,0,0,0,0,0,0,0,0
1682162371.89997506,107728558,1515,1519,1600,1603,0,0,0,0,0,0,0,0,0,0
1682162371.99993491,107828518,1517,1521,1600,1602,0,0,0,0,0,0,0,0,0,0
1682162372.09989500,107928478,1523,1527,1600,1601,0,0,0,0,0,0,0,0,0,0
1682162372.19985509,108028438,1532,1534,1600,1599,0,0,0,0,0,0,0,0,0,0
1682162372.29981494,108128398,1543,1543,1600,1599,0,0,0,0,0,0,0,0,0,0
1682162372.39977503,108228358,1555,1554,1600,1598,0,0,0,0,0,0,0,0,0,0
1682162372.49973512,108328318,1567,1567,1600,1598,0,0,0,0,0,0,0,0,0,0
1682162372.59969497,108428278,1572,1566,1600,1580,0,0,0,0,0,0,0,0,0,0
1682162372.69965506,108528238,1579,1576,1600,1581,0,0,0,0,0,0,0,0,0,0
1682162372.79961491,108628198,1593,1593,1600,1598,0,0,0,0,0,0,0,0,0,0
1682162372.89957500,108728158,1600,1600,1592,1607,0,0,0,0,0,0,0,0,0,0
1682162373.00036788,108828951,1600,1599,1581,1606,0,0,0,0,0,0,0,0,0,0
1682162373.10032797,108928911,1600,1599,1577,1598,0,0,0,0,0,0,0,0,0,0
1682162373.20028806,109028871,1600,1600,1581,1585,0,0,0,0,0,0,0,0,0,0
1682162373.30024791,109128831,1600,1599,1583,1575,0,0,0,0,0,0,0,0,0,0
1682162373.40020800,109228791,1600,1600,1584,1575,0,0,0,0,0,0,0,0,0,0
1682162373.50016809,109328751,1600,1599,1586,1578,0,0,0,0,0,0,0,0,0,0
1682162373.60012794,109428711,1600,1599,1589,1585,0,0,0,0,0,0,0,0,0,0
1682162373.70008802,109528671,1600,1600,1593,1591,0,0,0,0,0,0,0,0,0,0
1682162373.80004811,109628631,1600,1600,1598,1598,0,0,0,0,0,0,0,0,0,0
1682162373.90000796,109728591,1597,1598,1600,1600,0,0,0,0,0,0,0,0,0,0
1682162373.99996805,109828551,1593,1593,1600,1600,0,0,0,0,0,0,0,0,0,0
1682162374.09992790,109928511,1590,1591,1600,1600,0,0,0,0,0,0,0,0,0,0
1682162374.19988799,110028471,1589,1590,1600,1600,0,0,0,0,0,0,0,0,0,0
1682162374.29984808,110128431,1588,1590,1600,1600,0,0,0,0,0,0,0,0,0,0
1682162374.39980793,110228391,1589,1590,1600,1600,0,0,0,0,0,0,0,0,0,0
1682162374.49976802,110328351,1590,1592,1600,1600,0,0,0,0,0,0,0,0,0,0
1682162374.59972811,110428311,1593,1593,1600,1600,0,0,0,0,0,0,0,0,0,0
1682162374.69968796,110528271,1595,1596,1600,1600,0,0,0,0,0,0,0,0,0,0
1682162374.79964805,110628231,1598,1597,1600,1600,0,0,0,0,0,0,0,0,0,0
1682162374.89960790,110728191,1600,1599,1599,1599,0,0,0,0,0,0,0,0,0,0
1682162375.00040102,110828984,1600,1597,1593,1601,0,0,0,0,0,0,0,0,0,0
1682162375.10036111,110928944,1600,1599,1596,1599,0,0,0,0,0,0,0,0,0,0
1682162375.20032096,111028904,1590,1589,1587,1584,0,0,0,0,0,0,0,0,0,0
1682162375.30028105,111128864,1583,1582,1579,1576,0,0,0,0,0,0,0,0,0,0
1682162375.40024090,111228824,1577,1577,1572,1570,0,0,0,0,0,0,0,0,0,0
1682162375.50020099,111328784,1571,1572,1566,1566,0,0,0,0,0,0,0,0,0,0
1682162375.60016108,111428744,1567,1569,1562,1563,0,0,0,0,0,0,0,0,0,0
1682162375.70012093,111528704,1565,1567,1561,1563,0,0,0,0,0,0,0,0,0,0
1682162375.80008101,111628664,1563,1564,1560,1561,0,0,0,0,0,0,0,0,0,0
1682162375.90004110,111728624,1563,1564,1561,1562,0,0,0,0,0,0,0,0,0,0
1682162376.00000095,111828584,1564,1564,1563,1563,0,0,0,0,0,0,0,0,0,0
1682162376.09996104,111928544,1565,1565,1565,1565,0,0,0,0,0,0,0,0,0,0
1682162376.19992089,112028504,1567,1567,1568,1567,0,0,0,0,0,0,0,0,0,0
1682162376.29988098,112128464,1569,1570,1571,1570,0,0,0,0,0,0,0,0,0,0
1682162376.39984107,112228424,1572,1571,1573,1572,0,0,0,0,0,0,0,0,0,0
1682162376.49980092,112328384,1574,1573,1575,1575,0,0,0,0,0,0,0,0,0,0
1682162376.59976101,112428344,1575,1575,1577,1576,0,0,0,0,0,0,0,0,0,0
1682162376.69972110,112528304,1577,1576,1578,1577,0,0,0,0,0,0,0,0,0,0
1682162376.79968095,112628264,1579,1579,1580,1580,0,0,0,0,0,0,0,0,0,0
1682162376.89964104,112728224,1579,1579,1580,1579,0,0,0,0,0,0,0,0,0,0
1682162376.99960089,112828184,1580,1580,1581,1580,0,0,0,0,0,0,0,0,0,0
1682162377.10039401,112928977,1581,1581,1582,1582,0,0,0,0,0,0,0,0,0,0
1682162377.20035410,113028937,1582,1582,1582,1582,0,0,0,0,0,0,0,0,0,0
1682162377.30031395,113128897,1583,1582,1582,1583,0,0,0,0,0,0,0,0,0,0
1682162377.40027404,113228857,1583,1582,1582,1582,0,0,0,0,0,0,0,0,0,0
1682162377.50023389,113328817,1584,1583,1583,1583,0,0,0,0,0,0,0,0,0,0
1682162377.60019398,113428777,1583,1583,1583,1583,0,0,0,0,0,0,0,0,0,0
1682162377.70015407,113528737,1583,1583,1583,1582,0,0,0,0,0,0,0,0,0,0
1682162377.80011392,113628697,1584,1584,1588,1575,0,0,0,0,0,0,0,0,0,0
1682162377.90007401,113728657,1584,1585,1586,1575,0,0,0,0,0,0,0,0,0,0
1682162378.00003409,113828617,1582,1583,1580,1575,0,0,0,0,0,0,0,0,0,0
1682162378.09999394,113928577,1579,1581,1572,1574,0,0,0,0,0,0,0,0,0,0
1682162378.19995403,114028537,1576,1578,1566,1571,0,0,0,0,0,0,0,0,0,0
1682162378.29991388,114128497,1575,1576,1562,1567,0,0,0,0,0,0,0,0,0,0
1682162378.39987397,114228457,1575,1575,1560,1564,0,0,0,0,0,0,0,0,0,0
1682162378.49983406,114328417,1575,1574,1559,1561,0,0,0,0,0,0,0,0,0,0
1682162378.59979391,114428377,1575,1575,1558,1559,0,0,0,0,0,0,0,0,0,0
1682162378.69975400,114528337,1576,1576,1558,1557,0,0,0,0,0,0,0,0,0,0
1682162378.79971409,114628297,1576,1576,1557,1556,0,0,0,0,0,0,0,0,0,0
1682162378.89967394,114728257,1575,1576,1557,1555,0,0,0,0,0,0,0,0,0,0
1682162378.99963403,114828217,1575,1575,1556,1554,0,0,0,0,0,0,0,0,0,0
1682162379.09959412,114928177,1575,1575,1555,1554,0,0,0,0,0,0,0,0,0,0
1682162379.20038700,115028970,1574,1575,1553,1552,0,0,0,0,0,0,0,0,0,0
1682162379.30034709,115128930,1575,1576,1552,1553,0,0,0,0,0,0,0,0,0,0
1682162379.40030694,115228890,1575,1576,1550,1551,0,0,0,0,0,0,0,0,0,0
1682162379.50026703,115328850,1577,1578,1550,1550,0,0,0,0,0,0,0,0,0,0
1682162379.60022688,115428810,1578,1580,1548,1547,0,0,0,0,0,0,0,0,0,0
1682162379.70018697,115528770,1581,1582,1547,1547,0,0,0,0,0,0,0,0,0,0
1682162379.80014706,115628730,1583,1584,1545,1544,0,0,0,0,0,0,0,0,0,0
1682162379.90010691,115728690,1585,1585,1543,1542,0,0,0,0,0,0,0,0,0,0
1682162380.00006700,115828650,1588,1589,1542,1541,0,0,0,0,0,0,0,0,0,0
1682162380.10002708,115928610,1590,1589,1541,1541,0,0,0,0,0,0,0,0,0,0
1682162380.19998693,116028570,1591,1591,1540,1541,0,0,0,0,0,0,0,0,0,0
1682162380.29994702,116128530,1592,1592,1540,1542,0,0,0,0,0,0,0,0,0,0
1682162380.39990711,116228490,1592,1592,1541,1544,0,0,0,0,0,0,0,0,0,0
1682162380.49986696,116328450,1591,1590,1544,1547,0,0,0,0,0,0,0,0,0,0
1682162380.59982705,116428410,1588,1586,1549,1551,0,0,0,0,0,0,0,0,0,0
1682162380.69978690,116528370,1583,1579,1555,1559,0,0,0,0,0,0,0,0,0,0
1682162380.79974699,116628330,1576,1571,1563,1566,0,0,0,0,0,0,0,0,0,0
1682162380.89970708,116728290,1567,1563,1573,1575,0,0,0,0,0,0,0,0,0,0
1682162380.99966693,116828250,1559,1556,1583,1584,0,0,0,0,0,0,0,0,0,0
1682162381.09962702,116928210,1550,1548,1592,1593,0,0,0,0,0,0,0,0,0,0
1682162381.19958711,117028170,1542,1542,1600,1599,0,0,0,0,0,0,0,0,0,0
1682162381.30037999,117128963,1531,1532,1600,1597,0,0,0,0,0,0,0,0,0,0
1682162381.40034008,117228923,1526,1529,1600,1598,0,0,0,0,0,0,0,0,0,0
1682162381.50029993,117328883,1527,1530,1600,1598,0,0,0,0,0,0,0,0,0,0
1682162381.60026002,117428843,1532,1537,1600,1599,0,0,0,0,0,0,0,0,0,0
1682162381.70022011,117528803,1541,1546,1600,1600,0,0,0,0,0,0,0,0,0,0
1682162381.80017996,117628763,1552,1555,1600,1599,0,0,0,0,0,0,0,0,0,0
1682162381.90014005,117728723,1564,1565,1600,1599,0,0,0,0,0,0,0,0,0,0
1682162382.00009990,117828683,1577,1576,1600,1599,0,0,0,0,0,0,0,0,0,0
1682162382.10005999,117928643,1589,1588,1600,1599,0,0,0,0,0,0,0,0,0,0
1682162382.20002007,118028603,1595,1591,1595,1593,0,0,0,0,0,0,0,0,0,0
1682162382.29997993,118128563,1594,1587,1584,1583,0,0,0,0,0,0,0,0,0,0
1682162382.39994001,118228523,1591,1586,1576,1577,0,0,0,0,0,0,0,0,0,0
1682162382.49990010,118328483,1588,1585,1569,1572,0,0,0,0,0,0,0,0,0,0
1682162382.59985995,118428443,1583,1583,1564,1566,0,0,0,0,0,0,0,0,0,0
1682162382.69982004,118528403,1580,1581,1562,1564,0,0,0,0,0,0,0,0,0,0
1682162382.79977989,118628363,1577,1579,1562,1564,0,0,0,0,0,0,0,0,0,0
1682162382.89973998,118728323,1576,1578,1564,1565,0,0,0,0,0,0,0,0,0,0
1682162382.99970007,118828283,1574,1575,1567,1567,0,0,0,0,0,0,0,0,0,0
1682162383.09965992,118928243,1573,1573,1569,1569,0,0,0,0,0,0,0,0,0,0
1682162383.19962001,119028203,1573,1573,1573,1573,0,0,0,0,0,0,0,0,0,0
1682162383.29958010,119128163,1571,1571,1575,1574,0,0,0,0,0,0,0,0,0,0
1682162383.40037298,119228956,1571,1572,1578,1577,0,0,0,0,0,0,0,0,0,0
1682162383.50033307,119328916,1571,1571,1580,1579,0,0,0,0,0,0,0,0,0,0
1682162383.60029292,119428876,1572,1572,1581,1580,0,0,0,0,0,0,0,0,0,0
1682162383.70025301,119528836,1572,1573,1582,1582,0,0,0,0,0,0,0,0,0,0
1682162383.80021310,119628796,1573,1574,1582,1582,0,0,0,0,0,0,0,0,0,0
1682162383.90017295,119728756,1575,1576,1582,1582,0,0,0,0,0,0,0,0,0,0
1682162384.00013304,119828716,1576,1577,1582,1581,0,0,0,0,0,0,0,0,0,0
1682162384.10009289,119928676,1578,1578,1581,1581,0,0,0,0,0,0,0,0,0,0
1682162384.20005298,120028636,1580,1579,1581,1580,0,0,0,0,0,0,0,0,0,0
1682162384.30001307,120128596,1581,1581,1580,1581,0,0,0,0,0,0,0,0,0,0
1682162384.39997292,120228556,1582,1581,1579,1580,0,0,0,0,0,0,0,0,0,0
1682162384.49993300,120328516,1582,1582,1579,1579,0,0,0,0,0,0,0,0,0,0
1682162384.59989309,120428476,1583,1583,1579,1579,0,0,0,0,0,0,0,0,0,0
1682162384.69985294,120528436,1583,1583,1579,1579,0,0,0,0,0,0,0,0,0,0
1682162384.79981303,120628396,1584,1583,1580,1580,0,0,0,0,0,0,0,0,0,0
1682162384.89977288,120728356,1584,1583,1580,1580,0,0,0,0,0,0,0,0,0,0
1682162384.99973297,120828316,1583,1583,1580,1580,0,0,0,0,0,0,0,0,0,0
1682162385.09969306,120928276,1583,1582,1580,1580,0,0,0,0,0,0,0,0,0,0
1682162385.19965291,121028236,1582,1581,1580,1580,0,0,0,0,0,0,0,0,0,0
1682162385.29961300,121128196,1581,1581,1580,1581,0,0,0,0,0,0,0,0,0,0
1682162385.39957309,121228156,1580,1581,1581,1581,0,0,0,0,0,0,0,0,0,0
1682162385.50036597,121328949,1581,1581,1582,1582,0,0,0,0,0,0,0,0,0,0
1682162385.60032606,121428909,1580,1581,1581,1582,0,0,0,0,0,0,0,0,0,0
1682162385.70028591,121528869,1580,1581,1582,1582,0,0,0,0,0,0,0,0,0,0
1682162385.80024600,121628829,1580,1580,1582,1582,0,0,0,0,0,0,0,0,0,0
1682162385.90020609,121728789,1581,1581,1586,1576,0,0,0,0,0,0,0,0,0,0
1682162386.00016594,121828749,1581,1581,1587,1573,0,0,0,0,0,0,0,0,0,0
1682162386.10012603,121928709,1581,1580,1583,1575,0,0,0,0,0,0,0,0,0,0
1682162386.20008612,122028669,1577,1576,1576,1576,0,0,0,0,0,0,0,0,0,0
1682162386.30004597,122128629,1572,1571,1570,1575,0,0,0,0,0,0,0,0,0,0
1682162386.40000606,122228589,1568,1568,1567,1574,0,0,0,0,0,0,0,0,0,0
1682162386.49996591,122328549,1566,1566,1565,1572,0,0,0,0,0,0,0,0,0,0
1682162386.59992599,122428509,1564,1565,1566,1569,0,0,0,0,0,0,0,0,0,0
1682162386.69988608,122528469,1563,1564,1565,1566,0,0,0,0,0,0,0,0,0,0
1682162386.79984593,122628429,1564,1565,1566,1565,0,0,0,0,0,0,0,0,0,0
1682162386.89980602,122728389,1564,1565,1566,1564,0,0,0,0,0,0,0,0,0,0
1682162386.99976611,122828349,1564,1565,1565,1563,0,0,0,0,0,0,0,0,0,0
1682162387.09972596,122928309,1565,1564,1565,1563,0,0,0,0,0,0,0,0,0,0
1682162387.19968605,123028269,1564,1563,1563,1562,0,0,0,0,0,0,0,0,0,0
1682162387.29964590,123128229,1564,1563,1563,1563,0,0,0,0,0,0,0,0,0,0
1682162387.39960599,123228189,1563,1562,1562,1562,0,0,0,0,0,0,0,0,0,0
1682162387.50039911,123328982,1563,1563,1562,1562,0,0,0,0,0,0,0,0,0,0
1682162387.60035896,123428942,1563,1563,1562,1563,0,0,0,0,0,0,0,0,0,0
1682162387.70031905,123528902,1561,1560,1560,1560,0,0,0,0,0,0,0,0,0,0
1682162387.80027890,123628862,1560,1560,1560,1560,0,0,0,0,0,0,0,0,0,0
1682162387.90023899,123728822,1559,1560,1560,1559,0,0,0,0,0,0,0,0,0,0
1682162388.00019908,123828782,1559,1560,1560,1559,0,0,0,0,0,0,0,0,0,0
1682162388.10015893,123928742,1559,1560,1560,1559,0,0,0,0,0,0,0,0,0,0
1682162388.20011902,124028702,1559,1559,1560,1559,0,0,0,0,0,0,0,0,0,0
1682162388.30007911,124128662,1559,1558,1560,1558,0,0,0,0,0,0,0,0,0,0
1682162388.40003896,124228622,1559,1558,1559,1558,0,0,0,0,0,0,0,0,0,0
1682162388.49999905,124328582,1559,1558,1560,1558,0,0,0,0,0,0,0,0,0,0
1682162388.59995890,124428542,1559,1558,1560,1558,0,0,0,0,0,0,0,0,0,0
1682162388.69991899,124528502,1559,1560,1560,1558,0,0,0,0,0,0,0,0,0,0
1682162388.79987907,124628462,1559,1560,1559,1560,0,0,0,0,0,0,0,0,0,0
1682162388.89983892,124728422,1560,1560,1558,1563,0,0,0,0,0,0,0,0,0,0
1682162388.99979901,124828382,1560,1561,1559,1565,0,0,0,0,0,0,0,0,0,0
1682162389.09975910,124928342,1561,1561,1559,1565,0,0,0,0,0,0,0,0,0,0
1682162389.19971895,125028302,1560,1560,1559,1562,0,0,0,0,0,0,0,0,0,0
1682162389.29967904,125128262,1560,1559,1560,1559,0,0,0,0,0,0,0,0,0,0
1682162389.39963889,125228222,1560,1560,1559,1559,0,0,0,0,0,0,0,0,0,0
1682162389.49959898,125328182,1558,1558,1556,1559,0,0,0,0,0,0,0,0,0,0
1682162389.60039210,125428975,1554,1553,1552,1554,0,0,0,0,0,0,0,0,0,0
1682162389.70035195,125528935,1549,1548,1548,1548,0,0,0,0,0,0,0,0,0,0
1682162389.80031204,125628895,1544,1543,1543,1542,0,0,0,0,0,0,0,0,0,0
1682162389.90027189,125728855,1538,1538,1538,1537,0,0,0,0,0,0,0,0,0,0
1682162390.00023198,125828815,1531,1531,1531,1530,0,0,0,0,0,0,0,0,0,0
1682162390.10019207,125928775,1524,1524,1523,1523,0,0,0,0,0,0,0,0,0,0
1682162390.20015192,126028735,1520,1522,1520,1521,0,0,0,0,0,0,0,0,0,0
1682162390.30011201,126128695,1519,1521,1518,1521,0,0,0,0,0,0,0,0,0,0
1682162390.40007210,126228655,1519,1521,1519,1522,0,0,0,0,0,0,0,0,0,0
1682162390.50003195,126328615,1521,1523,1521,1524,0,0,0,0,0,0,0,0,0,0
1682162390.59999204,126428575,1524,1526,1525,1526,0,0,0,0,0,0,0,0,0,0
1682162390.69995189,126528535,1529,1529,1529,1530,0,0,0,0,0,0,0,0,0,0
1682162390.79991198,126628495,1534,1534,1535,1534,0,0,0,0,0,0,0,0,0,0
1682162390.89987206,126728455,1538,1536,1538,1536,0,0,0,0,0,0,0,0,0,0
1682162390.99983191,126828415,1541,1539,1541,1540,0,0,0,0,0,0,0,0,0,0
1682162391.09979200,126928375,1542,1541,1543,1541,0,0,0,0,0,0,0,0,0,0
1682162391.19975209,127028335,1544,1543,1544,1543,0,0,0,0,0,0,0,0,0,0
1682162391.29971194,127128295,1545,1544,1545,1544,0,0,0,0,0,0,0,0,0,0
1682162391.39967203,127228255,1546,1546,1546,1546,0,0,0,0,0,0,0,0,0,0
1682162391.49963188,127328215,1547,1547,1547,1547,0,0,0,0,0,0,0,0,0,0
1682162391.59959197,127428175,1547,1547,1547,1546,0,0,0,0,0,0,0,0,0,0
1682162391.70038509,127528968,1547,1547,1546,1546,0,0,0,0,0,0,0,0,0,0
1682162391.80034494,127628928,1546,1546,1546,1546,0,0,0,0,0,0,0,0,0,0
1682162391.90030503,127728888,1546,1546,1546,1546,0,0,0,0,0,0,0,0,0,0
1682162392.00026488,127828848,1546,1546,1546,1546,0,0,0,0,0,0,0,0,0,0
1682162392.10022497,127928808,1545,1545,1545,1545,0,0,0,0,0,0,0,0,0,0
1682162392.20018506,128028768,1545,1545,1545,1545,0,0,0,0,0,0,0,0,0,0
1682162392.30014491,128128728,1546,1546,1546,1546,0,0,0,0,0,0,0,0,0,0
1682162392.40010500,128228688,1545,1546,1546,1545,0,0,0,0,0,0,0,0,0,0
1682162392.50006509,128328648,1544,1544,1545,1544,0,0,0,0,0,0,0,0,0,0
1682162392.60002494,128428608,1545,1545,1545,1544,0,0,0,0,0,0,0,0,0,0
1682162392.69998503,128528568,1544,1544,1544,1545,0,0,0,0,0,0,0,0,0,0
1682162392.79994512,128628528,1544,1544,1544,1544,0,0,0,0,0,0,0,0,0,0
1682162392.89990497,128728488,1543,1543,1543,1543,0,0,0,0,0,0,0,0,0,0
1682162392.99986506,128828448,1543,1544,1544,1544,0,0,0,0,0,0,0,0,0,0
1682162393.09982491,128928408,1543,1543,1543,1543,0,0,0,0,0,0,0,0,0,0
1682162393.19978499,129028368,1544,1543,1544,1544,0,0,0,0,0,0,0,0,0,0
1682162393.29974508,129128328,1544,1544,1544,1544,0,0,0,0,0,0,0,0,0,0
1682162393.39970493,129228288,1543,1544,1543,1543,0,0,0,0,0,0,0,0,0,0
1682162393.49966502,129328248,1543,1543,1543,1543,0,0,0,0,0,0,0,0,0,0
1682162393.59962511,129428208,1544,1545,1544,1544,0,0,0,0,0,0,0,0,0,0
1682162393.69958496,129528168,1545,1544,1544,1545,0,0,0,0,0,0,0,0,0,0
1682162393.80037808,129628961,1544,1544,1544,1544,0,0,0,0,0,0,0,0,0,0
1682162393.90033793,129728921,1545,1545,1545,1545,0,0,0,0,0,0,0,0,0,0
1682162394.00029802,129828881,1544,1544,1545,1544,0,0,0,0,0,0,0,0,0,0
1682162394.10025811,129928841,1545,1544,1544,1544,0,0,0,0,0,0,0,0,0,0
1682162394.20021796,130028801,1545,1545,1545,1545,0,0,0,0,0,0,0,0,0,0
1682162394.30017805,130128761,1544,1543,1544,1544,0,0,0,0,0,0,0,0,0,0
1682162394.40013790,130228721,1544,1544,1544,1544,0,0,0,0,0,0,0,0,0,0
1682162394.50009799,130328681,1544,1544,1543,1544,0,0,0,0,0,0,0,0,0,0
1682162394.60005808,130428641,1544,1544,1543,1544,0,0,0,0,0,0,0,0,0,0
1682162394.70001793,130528601,1543,1543,1543,1543,0,0,0,0,0,0,0,0,0,0
1682162394.79997802,130628561,1543,1544,1544,1543,0,0,0,0,0,0,0,0,0,0
1682162394.89993811,130728521,1544,1544,1544,1545,0,0,0,0,0,0,0,0,0,0
1682162394.99989796,130828481,1544,1543,1543,1544,0,0,0,0,0,0,0,0,0,0
1682162395.09985805,130928441,1544,1543,1544,1543,0,0,0,0,0,0,0,0,0,0
1682162395.19981790,131028401,1543,1544,1544,1544,0,0,0,0,0,0,0,0,0,0
1682162395.29977798,131128361,1544,1544,1544,1544,0,0,0,0,0,0,0,0,0,0
1682162395.39973807,131228321,1544,1544,1544,1544,0,0,0,0,0,0,0,0,0,0
1682162395.49969792,131328281,1544,1545,1544,1545,0,0,0,0,0,0,0,0,0,0
1682162395.59965801,131428241,1544,1544,1544,1544,0,0,0,0,0,0,0,0,0,0
1682162395.69961810,131528201,1545,1544,1545,1544,0,0,0,0,0,0,0,0,0,0
1682162395.79957795,131628161,1544,1543,1544,1544,0,0,0,0,0,0,0,0,0,0
1682162395.90037107,131728954,1545,1544,1544,1544,0,0,0,0,0,0,0,0,0,0
1682162396.00033092,131828914,1544,1545,1544,1544,0,0,0,0,0,0,0,0,0,0
1682162396.10029101,131928874,1544,1545,1545,1545,0,0,0,0,0,0,0,0,0,0
1682162396.20025110,132028834,1544,1544,1544,1544,0,0,0,0,0,0,0,0,0,0
1682162396.30021095,132128794,1545,1545,1544,1545,0,0,0,0,0,0,0,0,0,0
1682162396.40017104,132228754,1544,1544,1544,1544,0,0,0,0,0,0,0,0,0,0
1682162396.50013089,132328714,1544,1544,1544,1545,0,0,0,0,0,0,0,0,0,0
1682162396.60009098,132428674,1544,1544,1544,1544,0,0,0,0,0,0,0,0,0,0
1682162396.70005107,132528634,1545,1544,1545,1545,0,0,0,0,0,0,0,0,0,0
1682162396.80001092,132628594,1544,1544,1544,1543,0,0,0,0,0,0,0,0,0,0
1682162396.89997101,132728554,1544,1544,1544,1544,0,0,0,0,0,0,0,0,0,0
1682162396.99993110,132828514,1544,1545,1544,1544,0,0,0,0,0,0,0,0,0,0
1682162397.09989095,132928474,1545,1545,1544,1545,0,0,0,0,0,0,0,0,0,0
1682162397.19985104,133028434,1544,1544,1544,1544,0,0,0,0,0,0,0,0,0,0
1682162397.29981089,133128394,1544,1544,1544,1545,0,0,0,0,0,0,0,0,0,0
1682162397.39977098,133228354,1544,1544,1544,1544,0,0,0,0,0,0,0,0,0,0
1682162397.49973106,133328314,1545,1545,1545,1545,0,0,0,0,0,0,0,0,0,0
1682162397.59969091,133428274,1544,1544,1544,1544,0,0,0,0,0,0,0,0,0,0
1682162397.69965100,133528234,1544,1544,1544,1545,0,0,0,0,0,0,0,0,0,0
1682162397.79961109,133628194,1544,1545,1544,1544,0,0,0,0,0,0,0,0,0,0
1682162397.89957094,133728154,1545,1544,1545,1545,0,0,0,0,0,0,0,0,0,0
1682162398.00036407,133828947,1544,1544,1544,1544,0,0,0,0,0,0,0,0,0,0
1682162398.10032392,133928907,1544,1543,1544,1544,0,0,0,0,0,0,0,0,0,0
1682162398.20028400,134028867,1543,1543,1544,1543,0,0,0,0,0,0,0,0,0,0
1682162398.30024409,134128827,1544,1544,1544,1544,0,0,0,0,0,0,0,0,0,0
1682162398.40020394,134228787,1544,1544,1544,1544,0,0,0,0,0,0,0,0,0,0
1682162398.50016403,134328747,1545,1544,1544,1545,0,0,0,0,0,0,0,0,0,0
1682162398.60012388,134428707,1544,1544,1544,1544,0,0,0,0,0,0,0,0,0,0
1682162398.70008397,134528667,1545,1544,1544,1545,0,0,0,0,0,0,0,0,0,0
1682162398.80004406,134628627,1544,1544,1544,1544,0,0,0,0,0,0,0,0,0,0
1682162398.90000391,134728587,1545,1545,1545,1545,0,0,0,0,0,0,0,0,0,0
1682162398.99996400,134828547,1544,1545,1544,1544,0,0,0,0,0,0,0,0,0,0
1682162399.09992409,134928507,1544,1544,1544,1544,0,0,0,0,0,0,0,0,0,0
1682162399.19988394,135028467,1545,1545,1545,1545,0,0,0,0,0,0,0,0,0,0
1682162399.29984403,135128427,1545,1544,1545,1545,0,0,0,0,0,0,0,0,0,0
1682162399.39980412,135228387,1544,1544,1544,1544,0,0,0,0,0,0,0,0,0,0
1682162399.49976397,135328347,1544,1543,1544,1544,0,0,0,0,0,0,0,0,0,0
1682162399.59972405,135428307,1544,1544,1544,1544,0,0,0,0,0,0,0,0,0,0
1682162399.69968390,135528267,1545,1544,1545,1545,0,0,0,0,0,0,0,0,0,0
1682162399.79964399,135628227,1544,1544,1544,1544,0,0,0,0,0,0,0,0,0,0
1682162399.89960408,135728187,1455,1409,1454,1410,0,0,0,0,0,0,0,0,0,0
1682162400.00039697,135828980,1374,1273,1374,1273,0,0,0,0,0,0,0,0,0,0
1682162400.10035706,135928940,1348,1221,1348,1222,0,0,0,0,0,0,0,0,0,0
1682162400.20031691,136028900,1338,1201,1339,1201,0,0,0,0,0,0,0,0,0,0
1682162400.30027699,136128860,1320,1161,1320,1162,0,0,0,0,0,0,0,0,0,0
1682162400.40023708,136228820,1275,1150,1276,1150,0,0,0,0,0,0,0,0,0,0
1682162400.50019693,136328780,1184,1150,1184,1150,0,0,0,0,0,0,0,0,0,0
1682162400.60015702,136428740,1085,1150,1085,1150,0,0,0,0,0,0,0,0,0,0
1682162400.70011711,136528700,982,1150,982,1150,0,0,0,0,0,0,0,0,0,0
1682162400.80007696,136628660,982,1150,983,1150,0,0,0,0,0,0,0,0,0,0
1682162400.90003705,136728620,982,1150,983,1150,0,0,0,0,0,0,0,0,0,0
1682162400.99999690,136828580,982,1150,978,1157,0,0,0,0,0,0,0,0,0,0
1682162401.09995699,136928540,982,1150,976,1160,0,0,0,0,0,0,0,0,0,0
1682162401.19991708,137028500,982,1150,978,1156,0,0,0,0,0,0,0,0,0,0
1682162401.29987693,137128460,982,1150,979,1155,0,0,0,0,0,0,0,0,0,0
1682162401.39983702,137228420,982,1150,979,1155,0,0,0,0,0,0,0,0,0,0
1682162401.49979711,137328380,982,1150,979,1155,0,0,0,0,0,0,0,0,0,0
1682162401.59975696,137428340,982,1150,979,1156,0,0,0,0,0,0,0,0,0,0
1682162401.69971704,137528300,982,1150,978,1156,0,0,0,0,0,0,0,0,0,0
1682162401.79967690,137628260,980,1152,983,1150,0,0,0,0,0,0,0,0,0,0
1682162401.89963698,137728220,982,1150,982,1151,0,0,0,0,0,0,0,0,0,0
1682162401.99959707,137828180,982,1150,982,1151,0,0,0,0,0,0,0,0,0,0
1682162402.10038996,137928973,982,1150,981,1152,0,0,0,0,0,0,0,0,0,0
1682162402.20035005,138028933,982,1150,981,1152,0,0,0,0,0,0,0,0,0,0
1682162402.30030990,138128893,1000,1000,1000,1000,0,0,0,0,0,0,0,0,0,0
1682162402.40026999,138228853,1000,1000,1000,1000,0,0,0,0,0,0,0,0,0,0
1682162402.50023007,138328813,1000,1000,1000,1000,0,0,0,0,0,0,0,0,0,0
1682162402.60018992,138428773,1000,1000,1000,1000,0,0,0,0,0,0,0,0,0,0
1682162402.70015001,138528733,1000,1000,1000,1000,0,0,0,0,0,0,0,0,0,0
1682162402.80011010,138628693,1000,1000,1000,1000,0,0,0,0,0,0,0,0,0,0
1682162402.90006995,138728653,1000,1000,1000,1000,0,0,0,0,0,0,0,0,0,0
1682162403.00003004,138828613,1000,1000,1000,1000,0,0,0,0,0,0,0,0,0,0
1682162403.09998989,138928573,1000,1000,1000,1000,0,0,0,0,0,0,0,0,0,0
1682162403.19994998,139028533,1000,1000,1000,1000,0,0,0,0,0,0,0,0,0,0
1682162403.29991007,139128493,1000,1000,1000,1000,0,0,0,0,0,0,0,0,0,0
1682162403.39986992,139228453,1000,1000,1000,1000,0,0,0,0,0,0,0,0,0,0
1682162403.49983001,139328413,1000,1000,1000,1000,0,0,0,0,0,0,0,0,0,0
1682162403.59979010,139428373,1000,1000,1000,1000,0,0,0,0,0,0,0,0,0,0
1682162403.69974995,139528333,1000,1000,1000,1000,0,0,0,0,0,0,0,0,0,0
1682162403.79971004,139628293,1000,1000,1000,1000,0,0,0,0,0,0,0,0,0,0
1682162403.89966989,139728253,1000,1000,1000,1000,0,0,0,0,0,0,0,0,0,0
1682162403.99962997,139828213,1000,1000,1000,1000,0,0,0,0,0,0,0,0,0,0
1682162404.09959006,139928173,1000,1000,1000,1000,0,0,0,0,0,0,0,0,0,0
1682162404.20038295,140028966,1000,1000,1000,1000,0,0,0,0,0,0,0,0,0,0
1682162404.30034304,140128926,1000,1000,1000,1000,0,0,0,0,0,0,0,0,0,0
1682162404.40030289,140228886,1000,1000,1000,1000,0,0,0,0,0,0,0,0,0,0
1682162404.50026298,140328846,1000,1000,1000,1000,0,0,0,0,0,0,0,0,0,0
1682162404.60022306,140428806,1000,1000,1000,1000,0,0,0,0,0,0,0,0,0,0
1682162404.70018291,140528766,1000,1000,1000,1000,0,0,0,0,0,0,0,0,0,0
1682162404.80014300,140628726,1000,1000,1000,1000,0,0,0,0,0,0,0,0,0,0
1682162404.90010309,140728686,1000,1000,1000,1000,0,0,0,0,0,0,0,0,0,0
1682162405.00006294,140828646,1000,1000,1000,1000,0,0,0,0,0,0,0,0,0,0
1682162405.10002303,140928606,1000,1000,1000,1000,0,0,0,0,0,0,0,0,0,0
1682162405.19998288,141028566,1000,1000,1000,1000,0,0,0,0,0,0,0,0,0,0
1682162405.29994297,141128526,1000,1000,1000,1000,0,0,0,0,0,0,0,0,0,0
1682162405.39990306,141228486,1000,1000,1000,1000,0,0,0,0,0,0,0,0,0,0
1682162405.49986291,141328446,1000,1000,1000,1000,0,0,0,0,0,0,0,0,0,0
1682162405.59982300,141428406,1000,1000,1000,1000,0,0,0,0,0,0,0,0,0,0
1682162405.69978309,141528366,1000,1000,1000,1000,0,0,0,0,0,0,0,0,0,0
1682162405.79974294,141628326,1000,1000,1000,1000,0,0,0,0,0,0,0,0,0,0
1682162405.89970303,141728286,1000,1000,1000,1000,0,0,0,0,0,0,0,0,0,0
1682162405.99966311,141828246,1000,1000,1000,1000,0,0,0,0,0,0,0,0,0,0
1682162406.09962296,141928206,1000,1000,1000,1000,0,0,0,0,0,0,0,0,0,0
1682162406.19958305,142028166,1000,1000,1000,1000,0,0,0,0,0,0,0,0,0,0
1682162406.30037594,142128959,1000,1000,1000,1000,0,0,0,0,0,0,0,0,0,0
1682162406.40033603,142228919,1000,1000,1000,1000,0,0,0,0,0,0,0,0,0,0
1682162406.50029612,142328879,1000,1000,1000,1000,0,0,0,0,0,0,0,0,0,0
1682162406.60025597,142428839,1000,1000,1000,1000,0,0,0,0,0,0,0,0,0,0
1682162406.70021605,142528799,1000,1000,1000,1000,0,0,0,0,0,0,0,0,0,0
1682162406.80017591,142628759,1000,1000,1000,1000,0,0,0,0,0,0,0,0,0,0
1682162406.90013599,142728719,1000,1000,1000,1000,0,0,0,0,0,0,0,0,0,0
1682162407.00009608,142828679,1000,1000,1000,1000,0,0,0,0,0,0,0,0,0,0
1682162407.10005593,142928639,1000,1000,1000,1000,0,0,0,0,0,0,0,0,0,0
1682162407.20001602,143028599,1000,1000,1000,1000,0,0,0,0,0,0,0,0,0,0
1682162407.29997611,143128559,1000,1000,1000,1000,0,0,0,0,0,0,0,0,0,0
1682162407.39993596,143228519,1000,1000,1000,1000,0,0,0,0,0,0,0,0,0,0
1682162407.49989605,143328479,1000,1000,1000,1000,0,0,0,0,0,0,0,0,0,0
1682162407.59985590,143428439,1000,1000,1000,1000,0,0,0,0,0,0,0,0,0,0
1682162407.69981599,143528399,1000,1000,1000,1000,0,0,0,0,0,0,0,0,0,0
1682162407.79977608,143628359,1000,1000,1000,1000,0,0,0,0,0,0,0,0,0,0
1682162407.89973593,143728319,1000,1000,1000,1000,0,0,0,0,0,0,0,0,0,0
1682162407.99969602,143828279,1000,1000,1000,1000,0,0,0,0,0,0,0,0,0,0
1682162408.09965611,143928239,1000,1000,1000,1000,0,0,0,0,0,0,0,0,0,0
1682162408.19961596,144028199,1000,1000,1000,1000,0,0,0,0,0,0,0,0,0,0
1682162408.29957604,144128159,1000,1000,1000,1000,0,0,0,0,0,0,0,0,0,0
1682162408.40036893,144228952,1000,1000,1000,1000,0,0,0,0,0,0,0,0,0,0
1682162408.50032902,144328912,1000,1000,1000,1000,0,0,0,0,0,0,0,0,0,0
1682162408.60028911,144428872,1000,1000,1000,1000,0,0,0,0,0,0,0,0,0,0
1682162408.70024896,144528832,1000,1000,1000,1000,0,0,0,0,0,0,0,0,0,0
1682162408.80020905,144628792,1000,1000,1000,1000,0,0,0,0,0,0,0,0,0,0
1682162408.90016890,144728752,1000,1000,1000,1000,0,0,0,0,0,0,0,0,0,0
1682162409.00012898,144828712,1000,1000,1000,1000,0,0,0,0,0,0,0,0,0,0
1682162409.10008907,144928672,1000,1000,1000,1000,0,0,0,0,0,0,0,0,0,0
1682162409.20004892,145028632,1000,1000,1000,1000,0,0,0,0,0,0,0,0,0,0
1682162409.30000901,145128592,1000,1000,1000,1000,0,0,0,0,0,0,0,0,0,0
1682162409.39996910,145228552,1000,1000,1000,1000,0,0,0,0,0,0,0,0,0,0
1682162409.49992895,145328512,1000,1000,1000,1000,0,0,0,0,0,0,0,0,0,0
1682162409.59988904,145428472,1000,1000,1000,1000,0,0,0,0,0,0,0,0,0,0
1682162409.69984889,145528432,1000,1000,1000,1000,0,0,0,0,0,0,0,0,0,0
1682162409.79980898,145628392,1000,1000,1000,1000,0,0,0,0,0,0,0,0,0,0
1682162409.89976907,145728352,1000,1000,1000,1000,0,0,0,0,0,0,0,0,0,0
1682162409.99972892,145828312,1000,1000,1000,1000,0,0,0,0,0,0,0,0,0,0
1682162410.09968901,145928272,1000,1000,1000,1000,0,0,0,0,0,0,0,0,0,0
1682162410.19964910,146028232,1000,1000,1000,1000,0,0,0,0,0,0,0,0,0,0
1682162410.29960895,146128192,1000,1000,1000,1000,0,0,0,0,0,0,0,0,0,0
1682162410.40040207,146228985,1000,1000,1000,1000,0,0,0,0,0,0,0,0,0,0
1682162410.50036192,146328945,1000,1000,1000,1000,0,0,0,0,0,0,0,0,0,0
1682162410.60032201,146428905,1000,1000,1000,1000,0,0,0,0,0,0,0,0,0,0
1682162410.70028210,146528865,1000,1000,1000,1000,0,0,0,0,0,0,0,0,0,0
1682162410.80024195,146628825,1000,1000,1000,1000,0,0,0,0,0,0,0,0,0,0
1682162410.90020204,146728785,1000,1000,1000,1000,0,0,0,0,0,0,0,0,0,0
1682162411.00016189,146828745,1000,1000,1000,1000,0,0,0,0,0,0,0,0,0,0
1682162411.10012197,146928705,1000,1000,1000,1000,0,0,0,0,0,0,0,0,0,0
1682162411.20008206,147028665,1000,1000,1000,1000,0,0,0,0,0,0,0,0,0,0
1682162411.30004191,147128625,1000,1000,1000,1000,0,0,0,0,0,0,0,0,0,0
1682162411.40000200,147228585,1000,1000,1000,1000,0,0,0,0,0,0,0,0,0,0
1682162411.49996209,147328545,1000,1000,1000,1000,0,0,0,0,0,0,0,0,0,0
1682162411.59992194,147428505,1000,1000,1000,1000,0,0,0,0,0,0,0,0,0,0
1682162411.69988203,147528465,1000,1000,1000,1000,0,0,0,0,0,0,0,0,0,0
1682162411.79984188,147628425,1000,1000,1000,1000,0,0,0,0,0,0,0,0,0,0
1682162411.89980197,147728385,1000,1000,1000,1000,0,0,0,0,0,0,0,0,0,0
1682162411.99976206,147828345,1000,1000,1000,1000,0,0,0,0,0,0,0,0,0,0
1682162412.09972191,147928305,1000,1000,1000,1000,0,0,0,0,0,0,0,0,0,0
1682162412.19968200,148028265,1000,1000,1000,1000,0,0,0,0,0,0,0,0,0,0
1682162412.29964209,148128225,1000,1000,1000,1000,0,0,0,0,0,0,0,0,0,0
1682162412.39960194,148228185,1000,1000,1000,1000,0,0,0,0,0,0,0,0,0,0
1682162412.50039506,148328978,1000,1000,1000,1000,0,0,0,0,0,0,0,0,0,0
1682162412.60035491,148428938,1000,1000,1000,1000,0,0,0,0,0,0,0,0,0,0
1682162412.70031500,148528898,1000,1000,1000,1000,0,0,0,0,0,0,0,0,0,0
1682162412.80027509,148628858,1000,1000,1000,1000,0,0,0,0,0,0,0,0,0,0
1682162412.90023494,148728818,1000,1000,1000,1000,0,0,0,0,0,0,0,0,0,0
1682162413.00019503,148828778,1000,1000,1000,1000,0,0,0,0,0,0,0,0,0,0
1682162413.10015512,148928738,1000,1000,1000,1000,0,0,0,0,0,0,0,0,0,0
1682162413.20011497,149028698,1000,1000,1000,1000,0,0,0,0,0,0,0,0,0,0
1682162413.30007505,149128658,1000,1000,1000,1000,0,0,0,0,0,0,0,0,0,0
1682162413.40003490,149228618,1000,1000,1000,1000,0,0,0,0,0,0,0,0,0,0
1682162413.49999499,149328578,1000,1000,1000,1000,0,0,0,0,0,0,0,0,0,0
1682162413.59995508,149428538,1000,1000,1000,1000,0,0,0,0,0,0,0,0,0,0
1682162413.69991493,149528498,1000,1000,1000,1000,0,0,0,0,0,0,0,0,0,0
1682162413.79987502,149628458,1000,1000,1000,1000,0,0,0,0,0,0,0,0,0,0
1682162413.89983511,149728418,1000,1000,1000,1000,0,0,0,0,0,0,0,0,0,0
1682162413.99979496,149828378,1000,1000,1000,1000,0,0,0,0,0,0,0,0,0,0
1682162414.09975505,149928338,1000,1000,1000,1000,0,0,0,0,0,0,0,0,0,0
1682162414.19971490,150028298,1000,1000,1000,1000,0,0,0,0,0,0,0,0,0,0
1682162414.29967499,150128258,1000,1000,1000,1000,0,0,0,0,0,0,0,0,0,0
1682162414.39963508,150228218,1000,1000,1000,1000,0,0,0,0,0,0,0,0,0,0
1682162414.49959493,150328178,1000,1000,1000,1000,0,0,0,0,0,0,0,0,0,0
1682162414.60038805,150428971,1000,1000,1000,1000,0,0,0,0,0,0,0,0,0,0
1682162414.70034790,150528931,1000,1000,1000,1000,0,0,0,0,0,0,0,0,0,0
1682162414.80030799,150628891,1000,1000,1000,1000,0,0,0,0,0,0,0,0,0,0
1682162414.90026808,150728851,1000,1000,1000,1000,0,0,0,0,0,0,0,0,0,0
1682162415.00022793,150828811,1000,1000,1000,1000,0,0,0,0,0,0,0,0,0,0
1682162415.10018802,150928771,1000,1000,1000,1000,0,0,0,0,0,0,0,0,0,0
1682162415.20014811,151028731,1000,1000,1000,1000,0,0,0,0,0,0,0,0,0,0
1682162415.30010796,151128691,1000,1000,1000,1000,0,0,0,0,0,0,0,0,0,0
1682162415.40006804,151228651,1000,1000,1000,1000,0,0,0,0,0,0,0,0,0,0
1682162415.50002789,151328611,1000,1000,1000,1000,0,0,0,0,0,0,0,0,0,0
1682162415.59998798,151428571,1000,1000,1000,1000,0,0,0,0,0,0,0,0,0,0
1682162415.69994807,151528531,1000,1000,1000,1000,0,0,0,0,0,0,0,0,0,0
1682162415.79990792,151628491,1000,1000,1000,1000,0,0,0,0,0,0,0,0,0,0
1682162415.89986801,151728451,1000,1000,1000,1000,0,0,0,0,0,0,0,0,0,0
1682162415.99982810,151828411,1000,1000,1000,1000,0,0,0,0,0,0,0,0,0,0
1682162416.09978795,151928371,1000,1000,1000,1000,0,0,0,0,0,0,0,0,0,0
1682162416.19974804,152028331,1000,1000,1000,1000,0,0,0,0,0,0,0,0,0,0
1682162416.29970789,152128291,1000,1000,1000,1000,0,0,0,0,0,0,0,0,0,0
1682162416.39966798,152228251,1000,1000,1000,1000,0,0,0,0,0,0,0,0,0,0
1682162416.49962807,152328211,1000,1000,1000,1000,0,0,0,0,0,0,0,0,0,0
1682162416.59958792,152428171,1000,1000,1000,1000,0,0,0,0,0,0,0,0,0,0
1682162416.70038104,152528964,1000,1000,1000,1000,0,0,0,0,0,0,0,0,0,0
1682162416.80034089,152628924,1000,1000,1000,1000,0,0,0,0,0,0,0,0,0,0
1682162416.90030098,152728884,1000,1000,1000,1000,0,0,0,0,0,0,0,0,0,0
1682162417.00026107,152828844,1000,1000,1000,1000,0,0,0,0,0,0,0,0,0,0
1682162417.10022092,152928804,1000,1000,1000,1000,0,0,0,0,0,0,0,0,0,0
