timestamp,TimeUS,C1,C2,C3,C4,C5,C6,C7,C8,C9,C10,C11,C12,C13,C14
1682942552.40000010,89428381,1000,1000,1000,1000,0,0,0,0,0,0,0,0,0,0
1682942552.49996018,89528341,1000,1000,1000,1000,0,0,0,0,0,0,0,0,0,0
1682942552.59992003,89628301,1000,1000,1000,1000,0,0,0,0,0,0,0,0,0,0
1682942552.69988012,89728261,1000,1000,1000,1000,0,0,0,0,0,0,0,0,0,0
1682942552.79984021,89828221,1000,1000,1000,1000,0,0,0,0,0,0,0,0,0,0
1682942552.89980006,89928181,1000,1000,1000,1000,0,0,0,0,0,0,0,0,0,0
1682942553.00059319,90028974,1000,1000,1000,1000,0,0,0,0,0,0,0,0,0,0
1682942553.10055304,90128934,1000,1000,1000,1000,0,0,0,0,0,0,0,0,0,0
1682942553.20051312,90228894,1000,1000,1000,1000,0,0,0,0,0,0,0,0,0,0
1682942553.30047321,90328854,1000,1000,1000,1000,0,0,0,0,0,0,0,0,0,0
1682942553.40043306,90428814,1000,1000,1000,1000,0,0,0,0,0,0,0,0,0,0
1682942553.50039315,90528774,1000,1000,1000,1000,0,0,0,0,0,0,0,0,0,0
1682942553.60035324,90628734,1000,1000,1000,1000,0,0,0,0,0,0,0,0,0,0
1682942553.70031309,90728694,1000,1000,1000,1000,0,0,0,0,0,0,0,0,0,0
1682942553.80027318,90828654,1000,1000,1000,1000,0,0,0,0,0,0,0,0,0,0
1682942553.90023303,90928614,1000,1000,1000,1000,0,0,0,0,0,0,0,0,0,0
1682942554.00019312,91028574,1000,1000,1000,1000,0,0,0,0,0,0,0,0,0,0
1682942554.10015321,91128534,1000,1000,1000,1000,0,0,0,0,0,0,0,0,0,0
1682942554.20011306,91228494,1000,1000,1000,1000,0,0,0,0,0,0,0,0,0,0
1682942554.30007315,91328454,1000,1000,1000,1000,0,0,0,0,0,0,0,0,0,0
1682942554.40003324,91428414,1018,1018,1018,1018,0,0,0,0,0,0,0,0,0,0
1682942554.49999309,91528374,1048,1048,1048,1048,0,0,0,0,0,0,0,0,0,0
1682942554.59995317,91628334,1078,1078,1078,1078,0,0,0,0,0,0,0,0,0,0
1682942554.69991302,91728294,1107,1107,1107,1107,0,0,0,0,0,0,0,0,0,0
1682942554.79987311,91828254,1137,1137,1137,1137,0,0,0,0,0,0,0,0,0,0
1682942554.89983320,91928214,1314,1303,1303,1315,0,0,0,0,0,0,0,0,0,0
1682942554.99979305,92028174,1514,1505,1506,1515,0,0,0,0,0,0,0,0,0,0
1682942555.10058618,92128967,1672,1664,1664,1672,0,0,0,0,0,0,0,0,0,0
1682942555.20054603,92228927,1807,1799,1799,1807,0,0,0,0,0,0,0,0,0,0
1682942555.30050611,92328887,1865,1857,1857,1866,0,0,0,0,0,0,0,0,0,0
1682942555.40046620,92428847,1852,1848,1848,1853,0,0,0,0,0,0,0,0,0,0
1682942555.50042605,92528807,1723,1723,1724,1724,0,0,0,0,0,0,0,0,0,0
1682942555.60038614,92628767,1634,1637,1637,1634,0,0,0,0,0,0,0,0,0,0
1682942555.70034623,92728727,1615,1618,1619,1615,0,0,0,0,0,0,0,0,0,0
1682942555.80030608,92828687,1627,1629,1629,1626,0,0,0,0,0,0,0,0,0,0
1682942555.90026617,92928647,1637,1631,1630,1638,0,0,0,0,0,0,0,0,0,0
1682942556.00022602,93028607,1626,1628,1621,1633,0,0,0,0,0,0,0,0,0,0
1682942556.10018611,93128567,1620,1621,1615,1625,0,0,0,0,0,0,0,0,0,0
1682942556.20014620,93228527,1614,1615,1613,1616,0,0,0,0,0,0,0,0,0,0
1682942556.30010605,93328487,1613,1614,1615,1612,0,0,0,0,0,0,0,0,0,0
1682942556.40006614,93428447,1616,1616,1619,1612,0,0,0,0,0,0,0,0,0,0
1682942556.50002623,93528407,1619,1618,1622,1614,0,0,0,0,0,0,0,0,0,0
1682942556.59998608,93628367,1621,1620,1623,1617,0,0,0,0,0,0,0,0,0,0
1682942556.69994617,93728327,1608,1607,1611,1603,0,0,0,0,0,0,0,0,0,0
1682942556.79990602,93828287,1583,1584,1593,1574,0,0,0,0,0,0,0,0,0,0
1682942556.89986610,93928247,1570,1570,1575,1567,0,0,0,0,0,0,0,0,0,0
1682942556.99982619,94028207,1560,1560,1559,1563,0,0,0,0,0,0,0,0,0,0
1682942557.09978604,94128167,1551,1550,1543,1558,0,0,0,0,0,0,0,0,0,0
1682942557.20057917,94228960,1544,1543,1533,1554,0,0,0,0,0,0,0,0,0,0
1682942557.30053902,94328920,1538,1537,1529,1545,0,0,0,0,0,0,0,0,0,0
1682942557.40049911,94428880,1532,1531,1527,1535,0,0,0,0,0,0,0,0,0,0
1682942557.50045919,94528840,1529,1528,1527,1528,0,0,0,0,0,0,0,0,0,0
1682942557.60041904,94628800,1528,1528,1529,1526,0,0,0,0,0,0,0,0,0,0
1682942557.70037913,94728760,1530,1530,1533,1527,0,0,0,0,0,0,0,0,0,0
1682942557.80033922,94828720,1533,1533,1536,1529,0,0,0,0,0,0,0,0,0,0
1682942557.90029907,94928680,1537,1536,1539,1534,0,0,0,0,0,0,0,0,0,0
1682942558.00025916,95028640,1539,1539,1541,1537,0,0,0,0,0,0,0,0,0,0
1682942558.10021901,95128600,1543,1543,1544,1543,0,0,0,0,0,0,0,0,0,0
1682942558.20017910,95228560,1545,1545,1545,1546,0,0,0,0,0,0,0,0,0,0
1682942558.30013919,95328520,1548,1548,1548,1550,0,0,0,0,0,0,0,0,0,0
1682942558.40009904,95428480,1551,1552,1551,1553,0,0,0,0,0,0,0,0,0,0
1682942558.50005913,95528440,1553,1554,1553,1555,0,0,0,0,0,0,0,0,0,0
1682942558.60001922,95628400,1559,1559,1554,1555,0,0,0,0,0,0,0,0,0,0
1682942558.69997907,95728360,1561,1560,1557,1558,0,0,0,0,0,0,0,0,0,0
1682942558.79993916,95828320,1561,1559,1561,1561,0,0,0,0,0,0,0,0,0,0
1682942558.89989924,95928280,1561,1560,1565,1565,0,0,0,0,0,0,0,0,0,0
1682942558.99985909,96028240,1562,1562,1568,1567,0,0,0,0,0,0,0,0,0,0
1682942559.09981918,96128200,1563,1563,1569,1570,0,0,0,0,0,0,0,0,0,0
1682942559.19977903,96228160,1564,1565,1570,1570,0,0,0,0,0,0,0,0,0,0
1682942559.30057216,96328953,1566,1566,1571,1570,0,0,0,0,0,0,0,0,0,0
1682942559.40053225,96428913,1566,1567,1570,1570,0,0,0,0,0,0,0,0,0,0
1682942559.50049210,96528873,1569,1568,1569,1570,0,0,0,0,0,0,0,0,0,0
1682942559.60045218,96628833,1571,1571,1570,1571,0,0,0,0,0,0,0,0,0,0
1682942559.70041203,96728793,1572,1572,1570,1571,0,0,0,0,0,0,0,0,0,0
1682942559.80037212,96828753,1574,1574,1571,1571,0,0,0,0,0,0,0,0,0,0
1682942559.90033221,96928713,1575,1576,1572,1571,0,0,0,0,0,0,0,0,0,0
1682942560.00029206,97028673,1576,1576,1573,1571,0,0,0,0,0,0,0,0,0,0
1682942560.10025215,97128633,1577,1576,1574,1572,0,0,0,0,0,0,0,0,0,0
1682942560.20021224,97228593,1578,1577,1575,1573,0,0,0,0,0,0,0,0,0,0
1682942560.30017209,97328553,1578,1578,1575,1576,0,0,0,0,0,0,0,0,0,0
1682942560.40013218,97428513,1577,1577,1575,1576,0,0,0,0,0,0,0,0,0,0
1682942560.50009203,97528473,1576,1576,1575,1576,0,0,0,0,0,0,0,0,0,0
1682942560.60005212,97628433,1576,1577,1576,1577,0,0,0,0,0,0,0,0,0,0
1682942560.70001221,97728393,1577,1577,1577,1577,0,0,0,0,0,0,0,0,0,0
1682942560.79997206,97828353,1576,1577,1578,1577,0,0,0,0,0,0,0,0,0,0
1682942560.89993215,97928313,1576,1576,1577,1577,0,0,0,0,0,0,0,0,0,0
1682942560.99989223,98028273,1577,1577,1578,1577,0,0,0,0,0,0,0,0,0,0
1682942561.09985209,98128233,1577,1576,1577,1578,0,0,0,0,0,0,0,0,0,0
1682942561.19981217,98228193,1577,1576,1577,1578,0,0,0,0,0,0,0,0,0,0
1682942561.30060506,98328986,1576,1577,1577,1577,0,0,0,0,0,0,0,0,0,0
1682942561.40056515,98428946,1578,1578,1578,1578,0,0,0,0,0,0,0,0,0,0
1682942561.50052524,98528906,1578,1578,1578,1579,0,0,0,0,0,0,0,0,0,0
1682942561.60048509,98628866,1578,1578,1578,1578,0,0,0,0,0,0,0,0,0,0
1682942561.70044518,98728826,1579,1578,1578,1578,0,0,0,0,0,0,0,0,0,0
1682942561.80040503,98828786,1579,1579,1579,1579,0,0,0,0,0,0,0,0,0,0
1682942561.90036511,98928746,1579,1579,1579,1578,0,0,0,0,0,0,0,0,0,0
1682942562.00032520,99028706,1579,1579,1579,1578,0,0,0,0,0,0,0,0,0,0
1682942562.10028505,99128666,1579,1579,1579,1579,0,0,0,0,0,0,0,0,0,0
1682942562.20024514,99228626,1579,1579,1579,1579,0,0,0,0,0,0,0,0,0,0
1682942562.30020523,99328586,1579,1580,1579,1580,0,0,0,0,0,0,0,0,0,0
1682942562.40016508,99428546,1579,1579,1578,1579,0,0,0,0,0,0,0,0,0,0
1682942562.50012517,99528506,1579,1579,1579,1580,0,0,0,0,0,0,0,0,0,0
1682942562.60008502,99628466,1580,1579,1580,1580,0,0,0,0,0,0,0,0,0,0
1682942562.70004511,99728426,1581,1580,1581,1580,0,0,0,0,0,0,0,0,0,0
1682942562.80000520,99828386,1579,1579,1579,1579,0,0,0,0,0,0,0,0,0,0
1682942562.89996505,99928346,1580,1580,1580,1580,0,0,0,0,0,0,0,0,0,0
1682942562.99992514,100028306,1580,1580,1580,1580,0,0,0,0,0,0,0,0,0,0
1682942563.09988523,100128266,1579,1579,1580,1579,0,0,0,0,0,0,0,0,0,0
1682942563.19984508,100228226,1580,1580,1580,1580,0,0,0,0,0,0,0,0,0,0
1682942563.29980516,100328186,1580,1580,1580,1580,0,0,0,0,0,0,0,0,0,0
1682942563.40059805,100428979,1580,1580,1580,1581,0,0,0,0,0,0,0,0,0,0
1682942563.50055814,100528939,1579,1579,1580,1580,0,0,0,0,0,0,0,0,0,0
1682942563.60051823,100628899,1579,1579,1579,1579,0,0,0,0,0,0,0,0,0,0
1682942563.70047808,100728859,1580,1580,1580,1580,0,0,0,0,0,0,0,0,0,0
1682942563.80043817,100828819,1580,1579,1579,1580,0,0,0,0,0,0,0,0,0,0
1682942563.90039802,100928779,1580,1580,1580,1580,0,0,0,0,0,0,0,0,0,0
1682942564.00035810,101028739,1580,1580,1580,1579,0,0,0,0,0,0,0,0,0,0
1682942564.10031819,101128699,1580,1580,1579,1580,0,0,0,0,0,0,0,0,0,0
1682942564.20027804,101228659,1579,1579,1579,1579,0,0,0,0,0,0,0,0,0,0
1682942564.30023813,101328619,1579,1579,1579,1579,0,0,0,0,0,0,0,0,0,0
1682942564.40019822,101428579,1580,1580,1580,1580,0,0,0,0,0,0,0,0,0,0
1682942564.50015807,101528539,1580,1580,1580,1580,0,0,0,0,0,0,0,0,0,0
1682942564.60011816,101628499,1581,1581,1581,1581,0,0,0,0,0,0,0,0,0,0
1682942564.70007801,101728459,1581,1581,1582,1580,0,0,0,0,0,0,0,0,0,0
1682942564.80003810,101828419,1582,1582,1588,1574,0,0,0,0,0,0,0,0,0,0
1682942564.89999819,101928379,1581,1583,1585,1574,0,0,0,0,0,0,0,0,0,0
1682942564.99995804,102028339,1579,1581,1576,1573,0,0,0,0,0,0,0,0,0,0
1682942565.09991813,102128299,1577,1580,1567,1572,0,0,0,0,0,0,0,0,0,0
1682942565.19987822,102228259,1577,1579,1561,1568,0,0,0,0,0,0,0,0,0,0
1682942565.29983807,102328219,1577,1578,1556,1563,0,0,0,0,0,0,0,0,0,0
1682942565.39979815,102428179,1578,1578,1554,1558,0,0,0,0,0,0,0,0,0,0
1682942565.50059104,102528972,1580,1578,1555,1555,0,0,0,0,0,0,0,0,0,0
1682942565.60055113,102628932,1579,1578,1556,1553,0,0,0,0,0,0,0,0,0,0
1682942565.70051122,102728892,1580,1578,1557,1554,0,0,0,0,0,0,0,0,0,0
1682942565.80047107,102828852,1578,1579,1556,1554,0,0,0,0,0,0,0,0,0,0
1682942565.90043116,102928812,1577,1578,1555,1554,0,0,0,0,0,0,0,0,0,0
1682942566.00039124,103028772,1576,1578,1555,1554,0,0,0,0,0,0,0,0,0,0
1682942566.10035110,103128732,1576,1577,1552,1553,0,0,0,0,0,0,0,0,0,0
1682942566.20031118,103228692,1576,1578,1551,1551,0,0,0,0,0,0,0,0,0,0
1682942566.30027103,103328652,1577,1578,1548,1549,0,0,0,0,0,0,0,0,0,0
1682942566.40023112,103428612,1579,1581,1547,1547,0,0,0,0,0,0,0,0,0,0
1682942566.50019121,103528572,1582,1582,1544,1544,0,0,0,0,0,0,0,0,0,0
1682942566.60015106,103628532,1584,1586,1542,1542,0,0,0,0,0,0,0,0,0,0
1682942566.70011115,103728492,1588,1589,1540,1539,0,0,0,0,0,0,0,0,0,0
1682942566.80007124,103828452,1591,1592,1538,1537,0,0,0,0,0,0,0,0,0,0
1682942566.90003109,103928412,1594,1594,1536,1536,0,0,0,0,0,0,0,0,0,0
1682942566.99999118,104028372,1595,1595,1535,1536,0,0,0,0,0,0,0,0,0,0
1682942567.09995103,104128332,1595,1595,1535,1537,0,0,0,0,0,0,0,0,0,0
1682942567.19991112,104228292,1593,1593,1537,1539,0,0,0,0,0,0,0,0,0,0
1682942567.29987121,104328252,1593,1591,1541,1545,0,0,0,0,0,0,0,0,0,0
1682942567.39983106,104428212,1588,1586,1548,1550,0,0,0,0,0,0,0,0,0,0
1682942567.49979115,104528172,1581,1578,1557,1560,0,0,0,0,0,0,0,0,0,0
1682942567.60058403,104628965,1571,1568,1567,1570,0,0,0,0,0,0,0,0,0,0
1682942567.70054412,104728925,1560,1557,1579,1581,0,0,0,0,0,0,0,0,0,0
1682942567.80050421,104828885,1550,1547,1592,1593,0,0,0,0,0,0,0,0,0,0
1682942567.90046406,104928845,1541,1538,1603,1603,0,0,0,0,0,0,0,0,0,0
1682942568.00042415,105028805,1532,1532,1610,1609,0,0,0,0,0,0,0,0,0,0
1682942568.10038424,105128765,1529,1530,1615,1614,0,0,0,0,0,0,0,0,0,0
1682942568.20034409,105228725,1529,1532,1615,1614,0,0,0,0,0,0,0,0,0,0
1682942568.30030417,105328685,1532,1535,1611,1612,0,0,0,0,0,0,0,0,0,0
1682942568.40026402,105428645,1538,1541,1606,1606,0,0,0,0,0,0,0,0,0,0
1682942568.50022411,105528605,1547,1548,1599,1600,0,0,0,0,0,0,0,0,0,0
1682942568.60018420,105628565,1557,1557,1593,1593,0,0,0,0,0,0,0,0,0,0
1682942568.70014405,105728525,1566,1566,1586,1585,0,0,0,0,0,0,0,0,0,0
1682942568.80010414,105828485,1574,1573,1579,1578,0,0,0,0,0,0,0,0,0,0
1682942568.90006423,105928445,1580,1580,1574,1572,0,0,0,0,0,0,0,0,0,0
1682942569.00002408,106028405,1586,1584,1570,1569,0,0,0,0,0,0,0,0,0,0
1682942569.09998417,106128365,1588,1585,1567,1566,0,0,0,0,0,0,0,0,0,0
1682942569.19994402,106228325,1589,1588,1567,1567,0,0,0,0,0,0,0,0,0,0
1682942569.29990411,106328285,1587,1587,1567,1568,0,0,0,0,0,0,0,0,0,0
1682942569.39986420,106428245,1585,1585,1569,1569,0,0,0,0,0,0,0,0,0,0
1682942569.49982405,106528205,1582,1582,1571,1572,0,0,0,0,0,0,0,0,0,0
1682942569.59978414,106628165,1580,1580,1575,1575,0,0,0,0,0,0,0,0,0,0
1682942569.70057702,106728958,1576,1576,1577,1576,0,0,0,0,0,0,0,0,0,0
1682942569.80053711,106828918,1574,1574,1579,1579,0,0,0,0,0,0,0,0,0,0
1682942569.90049720,106928878,1572,1573,1582,1582,0,0,0,0,0,0,0,0,0,0
1682942570.00045705,107028838,1571,1572,1583,1583,0,0,0,0,0,0,0,0,0,0
1682942570.10041714,107128798,1572,1573,1584,1584,0,0,0,0,0,0,0,0,0,0
1682942570.20037723,107228758,1572,1572,1583,1583,0,0,0,0,0,0,0,0,0,0
1682942570.30033708,107328718,1574,1574,1583,1583,0,0,0,0,0,0,0,0,0,0
1682942570.40029716,107428678,1575,1575,1582,1582,0,0,0,0,0,0,0,0,0,0
1682942570.50025702,107528638,1576,1577,1581,1581,0,0,0,0,0,0,0,0,0,0
1682942570.60021710,107628598,1577,1577,1578,1579,0,0,0,0,0,0,0,0,0,0
1682942570.70017719,107728558,1579,1579,1579,1579,0,0,0,0,0,0,0,0,0,0
1682942570.80013704,107828518,1581,1581,1578,1579,0,0,0,0,0,0,0,0,0,0
1682942570.90009713,107928478,1581,1581,1577,1578,0,0,0,0,0,0,0,0,0,0
1682942571.00005722,108028438,1581,1581,1578,1577,0,0,0,0,0,0,0,0,0,0
1682942571.10001707,108128398,1582,1581,1577,1577,0,0,0,0,0,0,0,0,0,0
1682942571.19997716,108228358,1582,1582,1579,1578,0,0,0,0,0,0,0,0,0,0
1682942571.29993725,108328318,1582,1582,1578,1579,0,0,0,0,0,0,0,0,0,0
1682942571.39989710,108428278,1581,1581,1579,1579,0,0,0,0,0,0,0,0,0,0
1682942571.49985719,108528238,1581,1581,1580,1580,0,0,0,0,0,0,0,0,0,0
1682942571.59981704,108628198,1573,1545,1572,1545,0,0,0,0,0,0,0,0,0,0
1682942571.69977713,108728158,1585,1571,1585,1572,0,0,0,0,0,0,0,0,0,0
1682942571.80057001,108828951,1607,1578,1609,1580,0,0,0,0,0,0,0,0,0,0
1682942571.90053010,108928911,1620,1591,1622,1592,0,0,0,0,0,0,0,0,0,0
1682942572.00049019,109028871,1619,1599,1621,1600,0,0,0,0,0,0,0,0,0,0
1682942572.10045004,109128831,1608,1601,1610,1602,0,0,0,0,0,0,0,0,0,0
1682942572.20041013,109228791,1594,1601,1597,1602,0,0,0,0,0,0,0,0,0,0
1682942572.30037022,109328751,1583,1596,1587,1600,0,0,0,0,0,0,0,0,0,0
1682942572.40033007,109428711,1575,1589,1581,1596,0,0,0,0,0,0,0,0,0,0
1682942572.50029016,109528671,1573,1583,1580,1591,0,0,0,0,0,0,0,0,0,0
1682942572.60025024,109628631,1575,1580,1582,1587,0,0,0,0,0,0,0,0,0,0
1682942572.70021009,109728591,1578,1578,1584,1582,0,0,0,0,0,0,0,0,0,0
1682942572.80017018,109828551,1581,1581,1588,1569,0,0,0,0,0,0,0,0,0,0
1682942572.90013003,109928511,1584,1585,1581,1566,0,0,0,0,0,0,0,0,0,0
1682942573.00009012,110028471,1584,1585,1569,1564,0,0,0,0,0,0,0,0,0,0
1682942573.10005021,110128431,1582,1583,1559,1562,0,0,0,0,0,0,0,0,0,0
1682942573.20001006,110228391,1580,1581,1551,1559,0,0,0,0,0,0,0,0,0,0
1682942573.29997015,110328351,1579,1579,1547,1555,0,0,0,0,0,0,0,0,0,0
1682942573.39993024,110428311,1578,1577,1547,1552,0,0,0,0,0,0,0,0,0,0
1682942573.49989009,110528271,1578,1577,1548,1550,0,0,0,0,0,0,0,0,0,0
1682942573.59985018,110628231,1576,1576,1549,1549,0,0,0,0,0,0,0,0,0,0
1682942573.69981003,110728191,1576,1576,1551,1548,0,0,0,0,0,0,0,0,0,0
1682942573.80060315,110828984,1575,1576,1552,1549,0,0,0,0,0,0,0,0,0,0
1682942573.90056324,110928944,1574,1576,1552,1550,0,0,0,0,0,0,0,0,0,0
1682942574.00052309,111028904,1573,1575,1550,1550,0,0,0,0,0,0,0,0,0,0
1682942574.10048318,111128864,1574,1575,1550,1550,0,0,0,0,0,0,0,0,0,0
1682942574.20044303,111228824,1575,1577,1548,1549,0,0,0,0,0,0,0,0,0,0
1682942574.30040312,111328784,1577,1577,1546,1547,0,0,0,0,0,0,0,0,0,0
1682942574.40036321,111428744,1580,1581,1545,1546,0,0,0,0,0,0,0,0,0,0
1682942574.50032306,111528704,1581,1582,1542,1542,0,0,0,0,0,0,0,0,0,0
1682942574.60028315,111628664,1584,1584,1540,1539,0,0,0,0,0,0,0,0,0,0
1682942574.70024323,111728624,1586,1587,1538,1538,0,0,0,0,0,0,0,0,0,0
1682942574.80020308,111828584,1589,1589,1538,1538,0,0,0,0,0,0,0,0,0,0
1682942574.90016317,111928544,1590,1589,1538,1539,0,0,0,0,0,0,0,0,0,0
1682942575.00012302,112028504,1589,1589,1539,1541,0,0,0,0,0,0,0,0,0,0
1682942575.10008311,112128464,1588,1588,1542,1544,0,0,0,0,0,0,0,0,0,0
1682942575.20004320,112228424,1586,1586,1546,1549,0,0,0,0,0,0,0,0,0,0
1682942575.30000305,112328384,1583,1580,1552,1555,0,0,0,0,0,0,0,0,0,0
1682942575.39996314,112428344,1576,1573,1559,1562,0,0,0,0,0,0,0,0,0,0
1682942575.49992323,112528304,1569,1566,1569,1572,0,0,0,0,0,0,0,0,0,0
1682942575.59988308,112628264,1560,1557,1579,1581,0,0,0,0,0,0,0,0,0,0
1682942575.69984317,112728224,1552,1549,1589,1590,0,0,0,0,0,0,0,0,0,0
1682942575.79980302,112828184,1544,1543,1598,1598,0,0,0,0,0,0,0,0,0,0
1682942575.90059614,112928977,1538,1539,1604,1603,0,0,0,0,0,0,0,0,0,0
1682942576.00055623,113028937,1536,1537,1608,1606,0,0,0,0,0,0,0,0,0,0
1682942576.10051608,113128897,1537,1539,1609,1608,0,0,0,0,0,0,0,0,0,0
1682942576.20047617,113228857,1539,1542,1607,1606,0,0,0,0,0,0,0,0,0,0
1682942576.30043602,113328817,1543,1545,1601,1601,0,0,0,0,0,0,0,0,0,0
1682942576.40039611,113428777,1550,1551,1596,1596,0,0,0,0,0,0,0,0,0,0
1682942576.50035620,113528737,1558,1558,1591,1591,0,0,0,0,0,0,0,0,0,0
1682942576.60031605,113628697,1566,1565,1585,1585,0,0,0,0,0,0,0,0,0,0
1682942576.70027614,113728657,1572,1572,1581,1579,0,0,0,0,0,0,0,0,0,0
1682942576.80023623,113828617,1577,1577,1575,1575,0,0,0,0,0,0,0,0,0,0
1682942576.90019608,113928577,1581,1580,1571,1571,0,0,0,0,0,0,0,0,0,0
1682942577.00015616,114028537,1584,1583,1569,1570,0,0,0,0,0,0,0,0,0,0
1682942577.10011601,114128497,1585,1584,1568,1569,0,0,0,0,0,0,0,0,0,0
1682942577.20007610,114228457,1586,1584,1569,1570,0,0,0,0,0,0,0,0,0,0
1682942577.30003619,114328417,1584,1583,1570,1570,0,0,0,0,0,0,0,0,0,0
1682942577.39999604,114428377,1582,1582,1573,1572,0,0,0,0,0,0,0,0,0,0
1682942577.49995613,114528337,1580,1580,1575,1574,0,0,0,0,0,0,0,0,0,0
1682942577.59991622,114628297,1579,1580,1578,1578,0,0,0,0,0,0,0,0,0,0
1682942577.69987607,114728257,1577,1577,1580,1579,0,0,0,0,0,0,0,0,0,0
1682942577.79983616,114828217,1575,1575,1581,1581,0,0,0,0,0,0,0,0,0,0
1682942577.89979625,114928177,1573,1574,1581,1581,0,0,0,0,0,0,0,0,0,0
1682942578.00058913,115028970,1573,1574,1582,1582,0,0,0,0,0,0,0,0,0,0
1682942578.10054922,115128930,1574,1575,1583,1583,0,0,0,0,0,0,0,0,0,0
1682942578.20050907,115228890,1575,1576,1583,1583,0,0,0,0,0,0,0,0,0,0
1682942578.30046916,115328850,1576,1576,1582,1583,0,0,0,0,0,0,0,0,0,0
1682942578.40042901,115428810,1577,1577,1582,1582,0,0,0,0,0,0,0,0,0,0
1682942578.50038910,115528770,1577,1577,1580,1580,0,0,0,0,0,0,0,0,0,0
1682942578.60034919,115628730,1578,1578,1579,1579,0,0,0,0,0,0,0,0,0,0
1682942578.70030904,115728690,1579,1579,1579,1578,0,0,0,0,0,0,0,0,0,0
1682942578.80026913,115828650,1581,1581,1578,1579,0,0,0,0,0,0,0,0,0,0
1682942578.90022922,115928610,1581,1580,1578,1578,0,0,0,0,0,0,0,0,0,0
1682942579.00018907,116028570,1581,1581,1577,1577,0,0,0,0,0,0,0,0,0,0
1682942579.10014915,116128530,1581,1581,1578,1578,0,0,0,0,0,0,0,0,0,0
1682942579.20010924,116228490,1582,1581,1578,1579,0,0,0,0,0,0,0,0,0,0
1682942579.30006909,116328450,1581,1581,1579,1579,0,0,0,0,0,0,0,0,0,0
1682942579.40002918,116428410,1581,1581,1580,1579,0,0,0,0,0,0,0,0,0,0
1682942579.49998903,116528370,1581,1581,1580,1580,0,0,0,0,0,0,0,0,0,0
1682942579.59994912,116628330,1581,1581,1581,1581,0,0,0,0,0,0,0,0,0,0
1682942579.69990921,116728290,1580,1580,1581,1581,0,0,0,0,0,0,0,0,0,0
1682942579.79986906,116828250,1581,1582,1582,1582,0,0,0,0,0,0,0,0,0,0
1682942579.89982915,116928210,1581,1581,1582,1582,0,0,0,0,0,0,0,0,0,0
1682942579.99978924,117028170,1580,1580,1581,1581,0,0,0,0,0,0,0,0,0,0
1682942580.10058212,117128963,1580,1581,1582,1582,0,0,0,0,0,0,0,0,0,0
1682942580.20054221,117228923,1580,1580,1582,1581,0,0,0,0,0,0,0,0,0,0
1682942580.30050206,117328883,1581,1580,1581,1582,0,0,0,0,0,0,0,0,0,0
1682942580.40046215,117428843,1580,1580,1581,1581,0,0,0,0,0,0,0,0,0,0
1682942580.50042224,117528803,1580,1579,1580,1580,0,0,0,0,0,0,0,0,0,0
1682942580.60038209,117628763,1580,1581,1581,1580,0,0,0,0,0,0,0,0,0,0
1682942580.70034218,117728723,1582,1582,1581,1582,0,0,0,0,0,0,0,0,0,0
1682942580.80030203,117828683,1581,1581,1580,1580,0,0,0,0,0,0,0,0,0,0
1682942580.90026212,117928643,1581,1581,1581,1581,0,0,0,0,0,0,0,0,0,0
1682942581.00022221,118028603,1581,1582,1582,1579,0,0,0,0,0,0,0,0,0,0
1682942581.10018206,118128563,1581,1583,1588,1572,0,0,0,0,0,0,0,0,0,0
1682942581.20014215,118228523,1580,1583,1582,1573,0,0,0,0,0,0,0,0,0,0
1682942581.30010223,118328483,1579,1581,1574,1573,0,0,0,0,0,0,0,0,0,0
1682942581.40006208,118428443,1578,1580,1567,1571,0,0,0,0,0,0,0,0,0,0
1682942581.50002217,118528403,1577,1579,1560,1567,0,0,0,0,0,0,0,0,0,0
1682942581.59998202,118628363,1578,1579,1556,1563,0,0,0,0,0,0,0,0,0,0
1682942581.69994211,118728323,1579,1578,1554,1558,0,0,0,0,0,0,0,0,0,0
1682942581.79990220,118828283,1580,1579,1555,1555,0,0,0,0,0,0,0,0,0,0
1682942581.89986205,118928243,1580,1578,1555,1553,0,0,0,0,0,0,0,0,0,0
1682942581.99982214,119028203,1579,1579,1556,1553,0,0,0,0,0,0,0,0,0,0
1682942582.09978223,119128163,1578,1578,1555,1554,0,0,0,0,0,0,0,0,0,0
1682942582.20057511,119228956,1577,1578,1555,1554,0,0,0,0,0,0,0,0,0,0
1682942582.30053520,119328916,1576,1577,1554,1554,0,0,0,0,0,0,0,0,0,0
1682942582.40049505,119428876,1576,1577,1553,1554,0,0,0,0,0,0,0,0,0,0
1682942582.50045514,119528836,1577,1578,1552,1553,0,0,0,0,0,0,0,0,0,0
1682942582.60041523,119628796,1578,1580,1551,1551,0,0,0,0,0,0,0,0,0,0
1682942582.70037508,119728756,1579,1581,1549,1548,0,0,0,0,0,0,0,0,0,0
1682942582.80033517,119828716,1582,1583,1547,1547,0,0,0,0,0,0,0,0,0,0
1682942582.90029502,119928676,1584,1585,1544,1544,0,0,0,0,0,0,0,0,0,0
1682942583.00025511,120028636,1587,1588,1542,1541,0,0,0,0,0,0,0,0,0,0
1682942583.10021520,120128596,1590,1590,1541,1541,0,0,0,0,0,0,0,0,0,0
1682942583.20017505,120228556,1591,1592,1539,1539,0,0,0,0,0,0,0,0,0,0
1682942583.30013514,120328516,1593,1593,1537,1538,0,0,0,0,0,0,0,0,0,0
1682942583.40009522,120428476,1593,1594,1536,1538,0,0,0,0,0,0,0,0,0,0
1682942583.50005507,120528436,1594,1593,1539,1541,0,0,0,0,0,0,0,0,0,0
1682942583.60001516,120628396,1592,1590,1542,1545,0,0,0,0,0,0,0,0,0,0
1682942583.69997501,120728356,1588,1585,1549,1552,0,0,0,0,0,0,0,0,0,0
1682942583.79993510,120828316,1581,1578,1557,1560,0,0,0,0,0,0,0,0,0,0
1682942583.89989519,120928276,1572,1568,1567,1570,0,0,0,0,0,0,0,0,0,0
1682942583.99985504,121028236,1562,1559,1579,1581,0,0,0,0,0,0,0,0,0,0
1682942584.09981513,121128196,1552,1549,1590,1591,0,0,0,0,0,0,0,0,0,0
1682942584.19977522,121228156,1542,1542,1600,1600,0,0,0,0,0,0,0,0,0,0
1682942584.30056810,121328949,1536,1537,1609,1607,0,0,0,0,0,0,0,0,0,0
1682942584.40052819,121428909,1534,1536,1614,1612,0,0,0,0,0,0,0,0,0,0
1682942584.50048804,121528869,1533,1535,1613,1612,0,0,0,0,0,0,0,0,0,0
1682942584.60044813,121628829,1537,1539,1612,1611,0,0,0,0,0,0,0,0,0,0
1682942584.70040822,121728789,1542,1544,1608,1607,0,0,0,0,0,0,0,0,0,0
1682942584.80036807,121828749,1549,1550,1601,1601,0,0,0,0,0,0,0,0,0,0
1682942584.90032816,121928709,1557,1557,1594,1594,0,0,0,0,0,0,0,0,0,0
1682942585.00028825,122028669,1565,1564,1587,1586,0,0,0,0,0,0,0,0,0,0
1682942585.10024810,122128629,1572,1572,1581,1581,0,0,0,0,0,0,0,0,0,0
1682942585.20020819,122228589,1578,1577,1574,1575,0,0,0,0,0,0,0,0,0,0
1682942585.30016804,122328549,1582,1580,1569,1570,0,0,0,0,0,0,0,0,0,0
1682942585.40012813,122428509,1585,1584,1567,1568,0,0,0,0,0,0,0,0,0,0
1682942585.50008821,122528469,1586,1586,1566,1567,0,0,0,0,0,0,0,0,0,0
1682942585.60004807,122628429,1587,1585,1567,1567,0,0,0,0,0,0,0,0,0,0
1682942585.70000815,122728389,1585,1584,1568,1568,0,0,0,0,0,0,0,0,0,0
1682942585.79996824,122828349,1584,1583,1572,1571,0,0,0,0,0,0,0,0,0,0
1682942585.89992809,122928309,1581,1581,1575,1574,0,0,0,0,0,0,0,0,0,0
1682942585.99988818,123028269,1578,1579,1577,1577,0,0,0,0,0,0,0,0,0,0
1682942586.09984803,123128229,1577,1578,1581,1580,0,0,0,0,0,0,0,0,0,0
1682942586.19980812,123228189,1575,1575,1581,1582,0,0,0,0,0,0,0,0,0,0
1682942586.30060124,123328982,1574,1575,1583,1584,0,0,0,0,0,0,0,0,0,0
1682942586.40056109,123428942,1573,1573,1583,1583,0,0,0,0,0,0,0,0,0,0
1682942586.50052118,123528902,1573,1574,1584,1584,0,0,0,0,0,0,0,0,0,0
1682942586.60048103,123628862,1574,1574,1583,1584,0,0,0,0,0,0,0,0,0,0
1682942586.70044112,123728822,1574,1574,1582,1582,0,0,0,0,0,0,0,0,0,0
1682942586.80040121,123828782,1576,1576,1582,1582,0,0,0,0,0,0,0,0,0,0
1682942586.90036106,123928742,1576,1577,1580,1580,0,0,0,0,0,0,0,0,0,0
1682942587.00032115,124028702,1578,1578,1579,1579,0,0,0,0,0,0,0,0,0,0
1682942587.10028124,124128662,1580,1580,1579,1579,0,0,0,0,0,0,0,0,0,0
1682942587.20024109,124228622,1580,1580,1577,1578,0,0,0,0,0,0,0,0,0,0
1682942587.30020118,124328582,1581,1581,1578,1578,0,0,0,0,0,0,0,0,0,0
1682942587.40016103,124428542,1581,1581,1577,1577,0,0,0,0,0,0,0,0,0,0
1682942587.50012112,124528502,1582,1582,1578,1578,0,0,0,0,0,0,0,0,0,0
1682942587.60008121,124628462,1582,1582,1578,1578,0,0,0,0,0,0,0,0,0,0
1682942587.70004106,124728422,1582,1581,1579,1578,0,0,0,0,0,0,0,0,0,0
1682942587.80000114,124828382,1582,1582,1579,1579,0,0,0,0,0,0,0,0,0,0
1682942587.89996123,124928342,1581,1580,1579,1579,0,0,0,0,0,0,0,0,0,0
1682942587.99992108,125028302,1580,1580,1580,1580,0,0,0,0,0,0,0,0,0,0
1682942588.09988117,125128262,1580,1580,1580,1580,0,0,0,0,0,0,0,0,0,0
1682942588.19984102,125228222,1579,1580,1581,1581,0,0,0,0,0,0,0,0,0,0
1682942588.29980111,125328182,1580,1581,1582,1583,0,0,0,0,0,0,0,0,0,0
1682942588.40059423,125428975,1580,1580,1582,1582,0,0,0,0,0,0,0,0,0,0
1682942588.50055408,125528935,1579,1579,1581,1581,0,0,0,0,0,0,0,0,0,0
1682942588.60051417,125628895,1579,1578,1580,1581,0,0,0,0,0,0,0,0,0,0
1682942588.70047402,125728855,1580,1579,1580,1581,0,0,0,0,0,0,0,0,0,0
1682942588.80043411,125828815,1579,1580,1580,1580,0,0,0,0,0,0,0,0,0,0
1682942588.90039420,125928775,1580,1580,1581,1581,0,0,0,0,0,0,0,0,0,0
1682942589.00035405,126028735,1580,1581,1585,1574,0,0,0,0,0,0,0,0,0,0
1682942589.10031414,126128695,1581,1582,1587,1572,0,0,0,0,0,0,0,0,0,0
1682942589.20027423,126228655,1580,1579,1581,1574,0,0,0,0,0,0,0,0,0,0
1682942589.30023408,126328615,1576,1575,1573,1575,0,0,0,0,0,0,0,0,0,0
1682942589.40019417,126428575,1572,1571,1567,1573,0,0,0,0,0,0,0,0,0,0
1682942589.50015402,126528535,1570,1569,1564,1572,0,0,0,0,0,0,0,0,0,0
1682942589.60011411,126628495,1569,1569,1566,1571,0,0,0,0,0,0,0,0,0,0
1682942589.70007420,126728455,1567,1567,1565,1568,0,0,0,0,0,0,0,0,0,0
1682942589.80003405,126828415,1567,1567,1567,1566,0,0,0,0,0,0,0,0,0,0
1682942589.89999413,126928375,1567,1566,1568,1565,0,0,0,0,0,0,0,0,0,0
1682942589.99995422,127028335,1566,1566,1567,1565,0,0,0,0,0,0,0,0,0,0
1682942590.09991407,127128295,1565,1565,1566,1564,0,0,0,0,0,0,0,0,0,0
1682942590.19987416,127228255,1564,1564,1565,1564,0,0,0,0,0,0,0,0,0,0
1682942590.29983401,127328215,1563,1563,1564,1564,0,0,0,0,0,0,0,0,0,0
1682942590.39979410,127428175,1562,1562,1563,1563,0,0,0,0,0,0,0,0,0,0
1682942590.50058722,127528968,1562,1561,1562,1563,0,0,0,0,0,0,0,0,0,0
1682942590.60054708,127628928,1561,1562,1562,1562,0,0,0,0,0,0,0,0,0,0
1682942590.70050716,127728888,1561,1561,1561,1561,0,0,0,0,0,0,0,0,0,0
1682942590.80046701,127828848,1560,1561,1561,1560,0,0,0,0,0,0,0,0,0,0
1682942590.90042710,127928808,1560,1559,1560,1559,0,0,0,0,0,0,0,0,0,0
1682942591.00038719,128028768,1559,1559,1559,1558,0,0,0,0,0,0,0,0,0,0
1682942591.10034704,128128728,1559,1559,1559,1558,0,0,0,0,0,0,0,0,0,0
1682942591.20030713,128228688,1558,1558,1558,1557,0,0,0,0,0,0,0,0,0,0
1682942591.30026722,128328648,1558,1558,1558,1558,0,0,0,0,0,0,0,0,0,0
1682942591.40022707,128428608,1557,1557,1558,1556,0,0,0,0,0,0,0,0,0,0
1682942591.50018716,128528568,1558,1558,1558,1557,0,0,0,0,0,0,0,0,0,0
1682942591.60014725,128628528,1557,1557,1558,1556,0,0,0,0,0,0,0,0,0,0
1682942591.70010710,128728488,1558,1558,1560,1556,0,0,0,0,0,0,0,0,0,0
1682942591.80006719,128828448,1558,1558,1558,1557,0,0,0,0,0,0,0,0,0,0
1682942591.90002704,128928408,1560,1560,1558,1563,0,0,0,0,0,0,0,0,0,0
1682942591.99998713,129028368,1560,1560,1557,1564,0,0,0,0,0,0,0,0,0,0
1682942592.09994721,129128328,1561,1561,1557,1564,0,0,0,0,0,0,0,0,0,0
1682942592.19990706,129228288,1562,1562,1559,1564,0,0,0,0,0,0,0,0,0,0
1682942592.29986715,129328248,1563,1563,1561,1564,0,0,0,0,0,0,0,0,0,0
1682942592.39982724,129428208,1563,1563,1563,1561,0,0,0,0,0,0,0,0,0,0
1682942592.49978709,129528168,1562,1562,1564,1560,0,0,0,0,0,0,0,0,0,0
1682942592.60058022,129628961,1562,1561,1563,1559,0,0,0,0,0,0,0,0,0,0
1682942592.70054007,129728921,1561,1561,1560,1563,0,0,0,0,0,0,0,0,0,0
1682942592.80050015,129828881,1558,1558,1555,1561,0,0,0,0,0,0,0,0,0,0
1682942592.90046024,129928841,1554,1553,1551,1556,0,0,0,0,0,0,0,0,0,0
1682942593.00042009,130028801,1548,1548,1547,1549,0,0,0,0,0,0,0,0,0,0
1682942593.10038018,130128761,1543,1543,1543,1543,0,0,0,0,0,0,0,0,0,0
1682942593.20034003,130228721,1535,1536,1537,1534,0,0,0,0,0,0,0,0,0,0
1682942593.30030012,130328681,1528,1528,1529,1527,0,0,0,0,0,0,0,0,0,0
1682942593.40026021,130428641,1522,1522,1523,1521,0,0,0,0,0,0,0,0,0,0
1682942593.50022006,130528601,1519,1520,1520,1519,0,0,0,0,0,0,0,0,0,0
1682942593.60018015,130628561,1519,1520,1519,1520,0,0,0,0,0,0,0,0,0,0
1682942593.70014024,130728521,1521,1521,1520,1522,0,0,0,0,0,0,0,0,0,0
1682942593.80010009,130828481,1523,1524,1523,1524,0,0,0,0,0,0,0,0,0,0
1682942593.90006018,130928441,1526,1527,1526,1527,0,0,0,0,0,0,0,0,0,0
1682942594.00002003,131028401,1531,1531,1531,1531,0,0,0,0,0,0,0,0,0,0
1682942594.09998012,131128361,1536,1536,1536,1536,0,0,0,0,0,0,0,0,0,0
1682942594.19994020,131228321,1539,1538,1539,1538,0,0,0,0,0,0,0,0,0,0
1682942594.29990005,131328281,1541,1541,1541,1541,0,0,0,0,0,0,0,0,0,0
1682942594.39986014,131428241,1544,1543,1544,1543,0,0,0,0,0,0,0,0,0,0
1682942594.49982023,131528201,1544,1544,1544,1543,0,0,0,0,0,0,0,0,0,0
1682942594.59978008,131628161,1545,1544,1545,1544,0,0,0,0,0,0,0,0,0,0
1682942594.70057321,131728954,1546,1546,1546,1546,0,0,0,0,0,0,0,0,0,0
1682942594.80053306,131828914,1546,1546,1546,1546,0,0,0,0,0,0,0,0,0,0
1682942594.90049314,131928874,1547,1547,1546,1547,0,0,0,0,0,0,0,0,0,0
1682942595.00045323,132028834,1546,1547,1547,1546,0,0,0,0,0,0,0,0,0,0
1682942595.10041308,132128794,1547,1547,1547,1547,0,0,0,0,0,0,0,0,0,0
1682942595.20037317,132228754,1546,1547,1547,1546,0,0,0,0,0,0,0,0,0,0
1682942595.30033302,132328714,1546,1546,1546,1546,0,0,0,0,0,0,0,0,0,0
1682942595.40029311,132428674,1546,1546,1546,1546,0,0,0,0,0,0,0,0,0,0
1682942595.50025320,132528634,1545,1545,1545,1545,0,0,0,0,0,0,0,0,0,0
1682942595.60021305,132628594,1545,1544,1545,1545,0,0,0,0,0,0,0,0,0,0
1682942595.70017314,132728554,1545,1544,1545,1545,0,0,0,0,0,0,0,0,0,0
1682942595.80013323,132828514,1545,1544,1544,1545,0,0,0,0,0,0,0,0,0,0
1682942595.90009308,132928474,1544,1545,1545,1545,0,0,0,0,0,0,0,0,0,0
1682942596.00005317,133028434,1544,1545,1545,1545,0,0,0,0,0,0,0,0,0,0
1682942596.10001302,133128394,1544,1544,1544,1544,0,0,0,0,0,0,0,0,0,0
1682942596.19997311,133228354,1543,1543,1543,1543,0,0,0,0,0,0,0,0,0,0
1682942596.29993320,133328314,1544,1543,1544,1543,0,0,0,0,0,0,0,0,0,0
1682942596.39989305,133428274,1544,1543,1543,1543,0,0,0,0,0,0,0,0,0,0
1682942596.49985313,133528234,1544,1544,1544,1544,0,0,0,0,0,0,0,0,0,0
1682942596.59981322,133628194,1543,1544,1544,1543,0,0,0,0,0,0,0,0,0,0
1682942596.69977307,133728154,1543,1543,1543,1543,0,0,0,0,0,0,0,0,0,0
1682942596.80056620,133828947,1544,1544,1544,1544,0,0,0,0,0,0,0,0,0,0
1682942596.90052605,133928907,1544,1544,1544,1544,0,0,0,0,0,0,0,0,0,0
1682942597.00048614,134028867,1544,1544,1544,1544,0,0,0,0,0,0,0,0,0,0
1682942597.10044622,134128827,1544,1544,1544,1544,0,0,0,0,0,0,0,0,0,0
1682942597.20040607,134228787,1543,1544,1543,1543,0,0,0,0,0,0,0,0,0,0
1682942597.30036616,134328747,1544,1544,1544,1544,0,0,0,0,0,0,0,0,0,0
1682942597.40032601,134428707,1544,1544,1544,1544,0,0,0,0,0,0,0,0,0,0
1682942597.50028610,134528667,1544,1544,1544,1544,0,0,0,0,0,0,0,0,0,0
1682942597.60024619,134628627,1543,1544,1544,1544,0,0,0,0,0,0,0,0,0,0
1682942597.70020604,134728587,1545,1544,1544,1545,0,0,0,0,0,0,0,0,0,0
1682942597.80016613,134828547,1544,1544,1544,1544,0,0,0,0,0,0,0,0,0,0
1682942597.90012622,134928507,1544,1545,1544,1544,0,0,0,0,0,0,0,0,0,0
1682942598.00008607,135028467,1544,1545,1545,1544,0,0,0,0,0,0,0,0,0,0
1682942598.10004616,135128427,1545,1545,1545,1545,0,0,0,0,0,0,0,0,0,0
1682942598.20000625,135228387,1544,1545,1545,1544,0,0,0,0,0,0,0,0,0,0
1682942598.29996610,135328347,1545,1544,1545,1545,0,0,0,0,0,0,0,0,0,0
1682942598.39992619,135428307,1544,1544,1544,1544,0,0,0,0,0,0,0,0,0,0
1682942598.49988604,135528267,1544,1544,1544,1545,0,0,0,0,0,0,0,0,0,0
1682942598.59984612,135628227,1544,1545,1545,1545,0,0,0,0,0,0,0,0,0,0
1682942598.69980621,135728187,1544,1544,1544,1544,0,0,0,0,0,0,0,0,0,0
1682942598.80059910,135828980,1544,1545,1545,1545,0,0,0,0,0,0,0,0,0,0
1682942598.90055919,135928940,1544,1544,1544,1545,0,0,0,0,0,0,0,0,0,0
1682942599.00051904,136028900,1545,1544,1544,1544,0,0,0,0,0,0,0,0,0,0
1682942599.10047913,136128860,1544,1543,1544,1544,0,0,0,0,0,0,0,0,0,0
1682942599.20043921,136228820,1545,1545,1545,1545,0,0,0,0,0,0,0,0,0,0
1682942599.30039907,136328780,1544,1544,1544,1544,0,0,0,0,0,0,0,0,0,0
1682942599.40035915,136428740,1544,1545,1545,1544,0,0,0,0,0,0,0,0,0,0
1682942599.50031924,136528700,1544,1544,1544,1544,0,0,0,0,0,0,0,0,0,0
1682942599.60027909,136628660,1543,1543,1543,1543,0,0,0,0,0,0,0,0,0,0
1682942599.70023918,136728620,1544,1544,1544,1544,0,0,0,0,0,0,0,0,0,0
1682942599.80019903,136828580,1544,1544,1544,1544,0,0,0,0,0,0,0,0,0,0
1682942599.90015912,136928540,1545,1544,1544,1545,0,0,0,0,0,0,0,0,0,0
1682942600.00011921,137028500,1544,1544,1544,1544,0,0,0,0,0,0,0,0,0,0
1682942600.10007906,137128460,1545,1546,1545,1545,0,0,0,0,0,0,0,0,0,0
1682942600.20003915,137228420,1545,1546,1546,1545,0,0,0,0,0,0,0,0,0,0
1682942600.29999924,137328380,1545,1545,1545,1545,0,0,0,0,0,0,0,0,0,0
1682942600.39995909,137428340,1544,1544,1544,1544,0,0,0,0,0,0,0,0,0,0
1682942600.49991918,137528300,1544,1544,1544,1544,0,0,0,0,0,0,0,0,0,0
1682942600.59987903,137628260,1545,1545,1545,1545,0,0,0,0,0,0,0,0,0,0
1682942600.69983912,137728220,1544,1544,1544,1544,0,0,0,0,0,0,0,0,0,0
1682942600.79979920,137828180,1544,1544,1544,1544,0,0,0,0,0,0,0,0,0,0
1682942600.90059209,137928973,1545,1545,1545,1545,0,0,0,0,0,0,0,0,0,0
1682942601.00055218,138028933,1543,1543,1544,1543,0,0,0,0,0,0,0,0,0,0
1682942601.10051203,138128893,1544,1543,1544,1544,0,0,0,0,0,0,0,0,0,0
1682942601.20047212,138228853,1544,1544,1544,1543,0,0,0,0,0,0,0,0,0,0
1682942601.30043221,138328813,1544,1544,1543,1544,0,0,0,0,0,0,0,0,0,0
1682942601.40039206,138428773,1544,1544,1544,1544,0,0,0,0,0,0,0,0,0,0
1682942601.50035214,138528733,1544,1544,1544,1545,0,0,0,0,0,0,0,0,0,0
1682942601.60031223,138628693,1544,1545,1545,1545,0,0,0,0,0,0,0,0,0,0
1682942601.70027208,138728653,1544,1544,1544,1544,0,0,0,0,0,0,0,0,0,0
1682942601.80023217,138828613,1545,1544,1545,1544,0,0,0,0,0,0,0,0,0,0
1682942601.90019202,138928573,1545,1544,1544,1545,0,0,0,0,0,0,0,0,0,0
1682942602.00015211,139028533,1544,1544,1544,1544,0,0,0,0,0,0,0,0,0,0
1682942602.10011220,139128493,1544,1544,1544,1543,0,0,0,0,0,0,0,0,0,0
1682942602.20007205,139228453,1544,1544,1544,1543,0,0,0,0,0,0,0,0,0,0
1682942602.30003214,139328413,1543,1544,1543,1544,0,0,0,0,0,0,0,0,0,0
1682942602.39999223,139428373,1544,1544,1544,1544,0,0,0,0,0,0,0,0,0,0
1682942602.49995208,139528333,1545,1544,1545,1545,0,0,0,0,0,0,0,0,0,0
1682942602.59991217,139628293,1544,1544,1544,1544,0,0,0,0,0,0,0,0,0,0
1682942602.69987202,139728253,1545,1545,1545,1545,0,0,0,0,0,0,0,0,0,0
1682942602.79983211,139828213,1544,1544,1544,1544,0,0,0,0,0,0,0,0,0,0
1682942602.89979219,139928173,1544,1543,1544,1544,0,0,0,0,0,0,0,0,0,0
1682942603.00058508,140028966,1544,1544,1543,1544,0,0,0,0,0,0,0,0,0,0
1682942603.10054517,140128926,1544,1544,1544,1545,0,0,0,0,0,0,0,0,0,0
1682942603.20050502,140228886,1436,1423,1436,1424,0,0,0,0,0,0,0,0,0,0
1682942603.30046511,140328846,1313,1278,1312,1279,0,0,0,0,0,0,0,0,0,0
1682942603.40042520,140428806,1267,1222,1267,1222,0,0,0,0,0,0,0,0,0,0
1682942603.50038505,140528766,1251,1201,1251,1202,0,0,0,0,0,0,0,0,0,0
1682942603.60034513,140628726,1225,1168,1226,1168,0,0,0,0,0,0,0,0,0,0
1682942603.70030522,140728686,1212,1150,1212,1151,0,0,0,0,0,0,0,0,0,0
1682942603.80026507,140828646,1211,1150,1212,1150,0,0,0,0,0,0,0,0,0,0
1682942603.90022516,140928606,1212,1150,1212,1151,0,0,0,0,0,0,0,0,0,0
1682942604.00018501,141028566,1224,1150,1193,1190,0,0,0,0,0,0,0,0,0,0
1682942604.10014510,141128526,1224,1150,1200,1182,0,0,0,0,0,0,0,0,0,0
1682942604.20010519,141228486,1224,1150,1206,1175,0,0,0,0,0,0,0,0,0,0
1682942604.30006504,141328446,1224,1150,1207,1174,0,0,0,0,0,0,0,0,0,0
1682942604.40002513,141428406,1224,1150,1206,1175,0,0,0,0,0,0,0,0,0,0
1682942604.49998522,141528366,1224,1150,1204,1177,0,0,0,0,0,0,0,0,0,0
1682942604.59994507,141628326,1224,1150,1203,1179,0,0,0,0,0,0,0,0,0,0
1682942604.69990516,141728286,1223,1150,1202,1181,0,0,0,0,0,0,0,0,0,0
1682942604.79986525,141828246,1212,1150,1207,1160,0,0,0,0,0,0,0,0,0,0
1682942604.89982510,141928206,1215,1150,1206,1163,0,0,0,0,0,0,0,0,0,0
1682942604.99978518,142028166,1216,1150,1206,1165,0,0,0,0,0,0,0,0,0,0
1682942605.10057807,142128959,1217,1150,1207,1166,0,0,0,0,0,0,0,0,0,0
1682942605.20053816,142228919,1217,1150,1207,1167,0,0,0,0,0,0,0,0,0,0
1682942605.30049825,142328879,1000,1000,1000,1000,0,0,0,0,0,0,0,0,0,0
1682942605.40045810,142428839,1000,1000,1000,1000,0,0,0,0,0,0,0,0,0,0
1682942605.50041819,142528799,1000,1000,1000,1000,0,0,0,0,0,0,0,0,0,0
1682942605.60037804,142628759,1000,1000,1000,1000,0,0,0,0,0,0,0,0,0,0
1682942605.70033813,142728719,1000,1000,1000,1000,0,0,0,0,0,0,0,0,0,0
1682942605.80029821,142828679,1000,1000,1000,1000,0,0,0,0,0,0,0,0,0,0
1682942605.90025806,142928639,1000,1000,1000,1000,0,0,0,0,0,0,0,0,0,0
1682942606.00021815,143028599,1000,1000,1000,1000,0,0,0,0,0,0,0,0,0,0
1682942606.10017824,143128559,1000,1000,1000,1000,0,0,0,0,0,0,0,0,0,0
1682942606.20013809,143228519,1000,1000,1000,1000,0,0,0,0,0,0,0,0,0,0
1682942606.30009818,143328479,1000,1000,1000,1000,0,0,0,0,0,0,0,0,0,0
1682942606.40005803,143428439,1000,1000,1000,1000,0,0,0,0,0,0,0,0,0,0
1682942606.50001812,143528399,1000,1000,1000,1000,0,0,0,0,0,0,0,0,0,0
1682942606.59997821,143628359,1000,1000,1000,1000,0,0,0,0,0,0,0,0,0,0
1682942606.69993806,143728319,1000,1000,1000,1000,0,0,0,0,0,0,0,0,0,0
1682942606.79989815,143828279,1000,1000,1000,1000,0,0,0,0,0,0,0,0,0,0
1682942606.89985824,143928239,1000,1000,1000,1000,0,0,0,0,0,0,0,0,0,0
1682942606.99981809,144028199,1000,1000,1000,1000,0,0,0,0,0,0,0,0,0,0
1682942607.09977818,144128159,1000,1000,1000,1000,0,0,0,0,0,0,0,0,0,0
1682942607.20057106,144228952,1000,1000,1000,1000,0,0,0,0,0,0,0,0,0,0
1682942607.30053115,144328912,1000,1000,1000,1000,0,0,0,0,0,0,0,0,0,0
1682942607.40049124,144428872,1000,1000,1000,1000,0,0,0,0,0,0,0,0,0,0
1682942607.50045109,144528832,1000,1000,1000,1000,0,0,0,0,0,0,0,0,0,0
1682942607.60041118,144628792,1000,1000,1000,1000,0,0,0,0,0,0,0,0,0,0
1682942607.70037103,144728752,1000,1000,1000,1000,0,0,0,0,0,0,0,0,0,0
1682942607.80033112,144828712,1000,1000,1000,1000,0,0,0,0,0,0,0,0,0,0
1682942607.90029120,144928672,1000,1000,1000,1000,0,0,0,0,0,0,0,0,0,0
1682942608.00025105,145028632,1000,1000,1000,1000,0,0,0,0,0,0,0,0,0,0
1682942608.10021114,145128592,1000,1000,1000,1000,0,0,0,0,0,0,0,0,0,0
1682942608.20017123,145228552,1000,1000,1000,1000,0,0,0,0,0,0,0,0,0,0
1682942608.30013108,145328512,1000,1000,1000,1000,0,0,0,0,0,0,0,0,0,0
1682942608.40009117,145428472,1000,1000,1000,1000,0,0,0,0,0,0,0,0,0,0
1682942608.50005102,145528432,1000,1000,1000,1000,0,0,0,0,0,0,0,0,0,0
1682942608.60001111,145628392,1000,1000,1000,1000,0,0,0,0,0,0,0,0,0,0
1682942608.69997120,145728352,1000,1000,1000,1000,0,0,0,0,0,0,0,0,0,0
1682942608.79993105,145828312,1000,1000,1000,1000,0,0,0,0,0,0,0,0,0,0
1682942608.89989114,145928272,1000,1000,1000,1000,0,0,0,0,0,0,0,0,0,0
1682942608.99985123,146028232,1000,1000,1000,1000,0,0,0,0,0,0,0,0,0,0
1682942609.09981108,146128192,1000,1000,1000,1000,0,0,0,0,0,0,0,0,0,0
1682942609.20060420,146228985,1000,1000,1000,1000,0,0,0,0,0,0,0,0,0,0
1682942609.30056405,146328945,1000,1000,1000,1000,0,0,0,0,0,0,0,0,0,0
1682942609.40052414,146428905,1000,1000,1000,1000,0,0,0,0,0,0,0,0,0,0
1682942609.50048423,146528865,1000,1000,1000,1000,0,0,0,0,0,0,0,0,0,0
1682942609.60044408,146628825,1000,1000,1000,1000,0,0,0,0,0,0,0,0,0,0
1682942609.70040417,146728785,1000,1000,1000,1000,0,0,0,0,0,0,0,0,0,0
1682942609.80036402,146828745,1000,1000,1000,1000,0,0,0,0,0,0,0,0,0,0
1682942609.90032411,146928705,1000,1000,1000,1000,0,0,0,0,0,0,0,0,0,0
1682942610.00028419,147028665,1000,1000,1000,1000,0,0,0,0,0,0,0,0,0,0
1682942610.10024405,147128625,1000,1000,1000,1000,0,0,0,0,0,0,0,0,0,0
1682942610.20020413,147228585,1000,1000,1000,1000,0,0,0,0,0,0,0,0,0,0
1682942610.30016422,147328545,1000,1000,1000,1000,0,0,0,0,0,0,0,0,0,0
1682942610.40012407,147428505,1000,1000,1000,1000,0,0,0,0,0,0,0,0,0,0
1682942610.50008416,147528465,1000,1000,1000,1000,0,0,0,0,0,0,0,0,0,0
1682942610.60004401,147628425,1000,1000,1000,1000,0,0,0,0,0,0,0,0,0,0
1682942610.70000410,147728385,1000,1000,1000,1000,0,0,0,0,0,0,0,0,0,0
1682942610.79996419,147828345,1000,1000,1000,1000,0,0,0,0,0,0,0,0,0,0
1682942610.89992404,147928305,1000,1000,1000,1000,0,0,0,0,0,0,0,0,0,0
1682942610.99988413,148028265,1000,1000,1000,1000,0,0,0,0,0,0,0,0,0,0
1682942611.09984422,148128225,1000,1000,1000,1000,0,0,0,0,0,0,0,0,0,0
1682942611.19980407,148228185,1000,1000,1000,1000,0,0,0,0,0,0,0,0,0,0
1682942611.30059719,148328978,1000,1000,1000,1000,0,0,0,0,0,0,0,0,0,0
1682942611.40055704,148428938,1000,1000,1000,1000,0,0,0,0,0,0,0,0,0,0
1682942611.50051713,148528898,1000,1000,1000,1000,0,0,0,0,0,0,0,0,0,0
1682942611.60047722,148628858,1000,1000,1000,1000,0,0,0,0,0,0,0,0,0,0
1682942611.70043707,148728818,1000,1000,1000,1000,0,0,0,0,0,0,0,0,0,0
1682942611.80039716,148828778,1000,1000,1000,1000,0,0,0,0,0,0,0,0,0,0
1682942611.90035725,148928738,1000,1000,1000,1000,0,0,0,0,0,0,0,0,0,0
1682942612.00031710,149028698,1000,1000,1000,1000,0,0,0,0,0,0,0,0,0,0
1682942612.10027719,149128658,1000,1000,1000,1000,0,0,0,0,0,0,0,0,0,0
1682942612.20023704,149228618,1000,1000,1000,1000,0,0,0,0,0,0,0,0,0,0
1682942612.30019712,149328578,1000,1000,1000,1000,0,0,0,0,0,0,0,0,0,0
1682942612.40015721,149428538,1000,1000,1000,1000,0,0,0,0,0,0,0,0,0,0
1682942612.50011706,149528498,1000,1000,1000,1000,0,0,0,0,0,0,0,0,0,0
1682942612.60007715,149628458,1000,1000,1000,1000,0,0,0,0,0,0,0,0,0,0
1682942612.70003724,149728418,1000,1000,1000,1000,0,0,0,0,0,0,0,0,0,0
1682942612.79999709,149828378,1000,1000,1000,1000,0,0,0,0,0,0,0,0,0,0
1682942612.89995718,149928338,1000,1000,1000,1000,0,0,0,0,0,0,0,0,0,0
1682942612.99991703,150028298,1000,1000,1000,1000,0,0,0,0,0,0,0,0,0,0
1682942613.09987712,150128258,1000,1000,1000,1000,0,0,0,0,0,0,0,0,0,0
1682942613.19983721,150228218,1000,1000,1000,1000,0,0,0,0,0,0,0,0,0,0
1682942613.29979706,150328178,1000,1000,1000,1000,0,0,0,0,0,0,0,0,0,0
1682942613.40059018,150428971,1000,1000,1000,1000,0,0,0,0,0,0,0,0,0,0
1682942613.50055003,150528931,1000,1000,1000,1000,0,0,0,0,0,0,0,0,0,0
1682942613.60051012,150628891,1000,1000,1000,1000,0,0,0,0,0,0,0,0,0,0
1682942613.70047021,150728851,1000,1000,1000,1000,0,0,0,0,0,0,0,0,0,0
1682942613.80043006,150828811,1000,1000,1000,1000,0,0,0,0,0,0,0,0,0,0
1682942613.90039015,150928771,1000,1000,1000,1000,0,0,0,0,0,0,0,0,0,0
1682942614.00035024,151028731,1000,1000,1000,1000,0,0,0,0,0,0,0,0,0,0
1682942614.10031009,151128691,1000,1000,1000,1000,0,0,0,0,0,0,0,0,0,0
1682942614.20027018,151228651,1000,1000,1000,1000,0,0,0,0,0,0,0,0,0,0
1682942614.30023003,151328611,1000,1000,1000,1000,0,0,0,0,0,0,0,0,0,0
1682942614.40019011,151428571,1000,1000,1000,1000,0,0,0,0,0,0,0,0,0,0
1682942614.50015020,151528531,1000,1000,1000,1000,0,0,0,0,0,0,0,0,0,0
1682942614.60011005,151628491,1000,1000,1000,1000,0,0,0,0,0,0,0,0,0,0
1682942614.70007014,151728451,1000,1000,1000,1000,0,0,0,0,0,0,0,0,0,0
1682942614.80003023,151828411,1000,1000,1000,1000,0,0,0,0,0,0,0,0,0,0
1682942614.89999008,151928371,1000,1000,1000,1000,0,0,0,0,0,0,0,0,0,0
1682942614.99995017,152028331,1000,1000,1000,1000,0,0,0,0,0,0,0,0,0,0
1682942615.09991002,152128291,1000,1000,1000,1000,0,0,0,0,0,0,0,0,0,0
1682942615.19987011,152228251,1000,1000,1000,1000,0,0,0,0,0,0,0,0,0,0
1682942615.29983020,152328211,1000,1000,1000,1000,0,0,0,0,0,0,0,0,0,0
1682942615.39979005,152428171,1000,1000,1000,1000,0,0,0,0,0,0,0,0,0,0
1682942615.50058317,152528964,1000,1000,1000,1000,0,0,0,0,0,0,0,0,0,0
1682942615.60054302,152628924,1000,1000,1000,1000,0,0,0,0,0,0,0,0,0,0
1682942615.70050311,152728884,1000,1000,1000,1000,0,0,0,0,0,0,0,0,0,0
1682942615.80046320,152828844,1000,1000,1000,1000,0,0,0,0,0,0,0,0,0,0
1682942615.90042305,152928804,1000,1000,1000,1000,0,0,0,0,0,0,0,0,0,0
1682942616.00038314,153028764,1000,1000,1000,1000,0,0,0,0,0,0,0,0,0,0
1682942616.10034323,153128724,1000,1000,1000,1000,0,0,0,0,0,0,0,0,0,0
1682942616.20030308,153228684,1000,1000,1000,1000,0,0,0,0,0,0,0,0,0,0
1682942616.30026317,153328644,1000,1000,1000,1000,0,0,0,0,0,0,0,0,0,0
1682942616.40022302,153428604,1000,1000,1000,1000,0,0,0,0,0,0,0,0,0,0
1682942616.50018311,153528564,1000,1000,1000,1000,0,0,0,0,0,0,0,0,0,0
1682942616.60014319,153628524,1000,1000,1000,1000,0,0,0,0,0,0,0,0,0,0
1682942616.70010304,153728484,1000,1000,1000,1000,0,0,0,0,0,0,0,0,0,0
1682942616.80006313,153828444,1000,1000,1000,1000,0,0,0,0,0,0,0,0,0,0
1682942616.90002322,153928404,1000,1000,1000,1000,0,0,0,0,0,0,0,0,0,0
1682942616.99998307,154028364,1000,1000,1000,1000,0,0,0,0,0,0,0,0,0,0
1682942617.09994316,154128324,1000,1000,1000,1000,0,0,0,0,0,0,0,0,0,0
1682942617.19990301,154228284,1000,1000,1000,1000,0,0,0,0,0,0,0,0,0,0
1682942617.29986310,154328244,1000,1000,1000,1000,0,0,0,0,0,0,0,0,0,0
1682942617.39982319,154428204,1000,1000,1000,1000,0,0,0,0,0,0,0,0,0,0
1682942617.49978304,154528164,1000,1000,1000,1000,0,0,0,0,0,0,0,0,0,0
1682942617.60057616,154628957,1000,1000,1000,1000,0,0,0,0,0,0,0,0,0,0
1682942617.70053601,154728917,1000,1000,1000,1000,0,0,0,0,0,0,0,0,0,0
1682942617.80049610,154828877,1000,1000,1000,1000,0,0,0,0,0,0,0,0,0,0
1682942617.90045619,154928837,1000,1000,1000,1000,0,0,0,0,0,0,0,0,0,0
1682942618.00041604,155028797,1000,1000,1000,1000,0,0,0,0,0,0,0,0,0,0
1682942618.10037613,155128757,1000,1000,1000,1000,0,0,0,0,0,0,0,0,0,0
1682942618.20033622,155228717,1000,1000,1000,1000,0,0,0,0,0,0,0,0,0,0
1682942618.30029607,155328677,1000,1000,1000,1000,0,0,0,0,0,0,0,0,0,0
1682942618.40025616,155428637,1000,1000,1000,1000,0,0,0,0,0,0,0,0,0,0
1682942618.50021625,155528597,1000,1000,1000,1000,0,0,0,0,0,0,0,0,0,0
1682942618.60017610,155628557,1000,1000,1000,1000,0,0,0,0,0,0,0,0,0,0
1682942618.70013618,155728517,1000,1000,1000,1000,0,0,0,0,0,0,0,0,0,0
1682942618.80009604,155828477,1000,1000,1000,1000,0,0,0,0,0,0,0,0,0,0
1682942618.90005612,155928437,1000,1000,1000,1000,0,0,0,0,0,0,0,0,0,0
1682942619.00001621,156028397,1000,1000,1000,1000,0,0,0,0,0,0,0,0,0,0
1682942619.09997606,156128357,1000,1000,1000,1000,0,0,0,0,0,0,0,0,0,0
1682942619.19993615,156228317,1000,1000,1000,1000,0,0,0,0,0,0,0,0,0,0
1682942619.29989624,156328277,1000,1000,1000,1000,0,0,0,0,0,0,0,0,0,0
1682942619.39985609,156428237,1000,1000,1000,1000,0,0,0,0,0,0,0,0,0,0
1682942619.49981618,156528197,1000,1000,1000,1000,0,0,0,0,0,0,0,0,0,0
1682942619.59977603,156628157,1000,1000,1000,1000,0,0,0,0,0,0,0,0,0,0
1682942619.70056915,156728950,1000,1000,1000,1000,0,0,0,0,0,0,0,0,0,0
1682942619.80052924,156828910,1000,1000,1000,1000,0,0,0,0,0,0,0,0,0,0
1682942619.90048909,156928870,1000,1000,1000,1000,0,0,0,0,0,0,0,0,0,0
1682942620.00044918,157028830,1000,1000,1000,1000,0,0,0,0,0,0,0,0,0,0
1682942620.10040903,157128790,1000,1000,1000,1000,0,0,0,0,0,0,0,0,0,0
1682942620.20036912,157228750,1000,1000,1000,1000,0,0,0,0,0,0,0,0,0,0
